[{"city":"Delhi","state":"Delhi","latitude":28.6139,"longitude":77.209,"temp":38.5,"humidity":25,"rain":0.0,"pressure":977.4,"uv_index":7.6,"wind_gusts":36.0,"aqi":210,"pm10":497.3,"pm2_5":92.4,"no2":6.4,"co":437.0,"o3":254.0,"so2":33.9,"mosquito_risk":0,"arthritis_risk":5,"migraine_risk":10,"frizz_risk":0,"updated_at":"2026-05-02T13:19:00.239861+05:30"},{"city":"Mumbai","state":"Maharashtra","latitude":19.076,"longitude":72.8777,"temp":32.7,"humidity":59,"rain":0.0,"pressure":1007.3,"uv_index":7.9,"wind_gusts":42.1,"aqi":72,"pm10":71.5,"pm2_5":27.6,"no2":4.1,"co":195.0,"o3":114.0,"so2":19.5,"mosquito_risk":0,"arthritis_risk":5,"migraine_risk":4,"frizz_risk":1,"updated_at":"2026-05-02T13:19:00.239908+05:30"},{"city":"Bangalore","state":"Karnataka","latitude":12.9716,"longitude":77.5946,"temp":33.2,"humidity":31,"rain":0.0,"pressure":911.5,"uv_index":9.5,"wind_gusts":33.1,"aqi":85,"pm10":34.0,"pm2_5":18.8,"no2":2.3,"co":267.0,"o3":159.0,"so2":4.5,"mosquito_risk":0,"arthritis_risk":5,"migraine_risk":7,"frizz_risk":0,"updated_at":"2026-05-02T13:19:00.239925+05:30"},{"city":"Hyderabad","state":"Telangana","latitude":17.385,"longitude":78.4867,"temp":39.1,"humidity":16,"rain":0.0,"pressure":950.6,"uv_index":9.25,"wind_gusts":32.8,"aqi":80,"pm10":38.0,"pm2_5":15.4,"no2":1.5,"co":222.0,"o3":147.0,"so2":7.2,"mosquito_risk":0,"arthritis_risk":5,"migraine_risk":10,"frizz_risk":0,"updated_at":"2026-05-02T13:19:00.239936+05:30"},{"city":"Chennai","state":"Tamil Nadu","latitude":13.0827,"longitude":80.2707,"temp":35.8,"humidity":54,"rain":0.0,"pressure":1003.6,"uv_index":9.2,"wind_gusts":54.7,"aqi":56,"pm10":24.8,"pm2_5":19.8,"no2":2.6,"co":246.0,"o3":166.0,"so2":9.8,"mosquito_risk":0,"arthritis_risk":5,"migraine_risk":7,"frizz_risk":1,"updated_at":"2026-05-02T13:19:00.239945+05:30"},{"city":"Kolkata","state":"West Bengal","latitude":22.5726,"longitude":88.3639,"temp":31.5,"humidity":66,"rain":0.0,"pressure":1000.9,"uv_index":8.85,"wind_gusts":42.8,"aqi":67,"pm10":37.0,"pm2_5":24.6,"no2":2.8,"co":321.0,"o3":120.0,"so2":9.2,"mosquito_risk":3,"arthritis_risk":5,"migraine_risk":4,"frizz_risk":1,"updated_at":"2026-05-02T13:19:00.239955+05:30"},{"city":"Pune","state":"Maharashtra","latitude":18.5204,"longitude":73.8567,"temp":36.8,"humidity":24,"rain":0.0,"pressure":947.3,"uv_index":8.5,"wind_gusts":48.6,"aqi":58,"pm10":69.8,"pm2_5":19.7,"no2":1.4,"co":167.0,"o3":113.0,"so2":4.6,"mosquito_risk":0,"arthritis_risk":5,"migraine_risk":10,"frizz_risk":0,"updated_at":"2026-05-02T13:19:00.239964+05:30"},{"city":"Ahmedabad","state":"Gujarat","latitude":23.0225,"longitude":72.5714,"temp":41.0,"humidity":23,"rain":0.0,"pressure":996.8,"uv_index":8.1,"wind_gusts":51.1,"aqi":55,"pm10":54.1,"pm2_5":17.1,"no2":1.8,"co":176.0,"o3":121.0,"so2":5.6,"mosquito_risk":0,"arthritis_risk":5,"migraine_risk":10,"frizz_risk":0,"updated_at":"2026-05-02T13:19:00.239975+05:30"},{"city":"Jaipur","state":"Rajasthan","latitude":26.9124,"longitude":75.7873,"temp":40.0,"humidity":16,"rain":0.0,"pressure":954.8,"uv_index":8.15,"wind_gusts":35.6,"aqi":123,"pm10":260.8,"pm2_5":43.0,"no2":1.2,"co":192.0,"o3":140.0,"so2":4.8,"mosquito_risk":0,"arthritis_risk":5,"migraine_risk":10,"frizz_risk":0,"updated_at":"2026-05-02T13:19:00.239984+05:30"},{"city":"Lucknow","state":"Uttar Pradesh","latitude":26.8467,"longitude":80.9462,"temp":34.7,"humidity":38,"rain":0.0,"pressure":988.5,"uv_index":8.1,"wind_gusts":40.7,"aqi":92,"pm10":116.2,"pm2_5":33.6,"no2":1.4,"co":334.0,"o3":198.0,"so2":9.6,"mosquito_risk":0,"arthritis_risk":5,"migraine_risk":7,"frizz_risk":1,"updated_at":"2026-05-02T13:19:00.239993+05:30"},{"city":"Kanpur","state":"Uttar Pradesh","latitude":26.4499,"longitude":80.3319,"temp":36.5,"humidity":32,"rain":0.0,"pressure":986.3,"uv_index":8.1,"wind_gusts":37.1,"aqi":140,"pm10":258.0,"pm2_5":48.5,"no2":1.4,"co":313.0,"o3":203.0,"so2":10.5,"mosquito_risk":0,"arthritis_risk":5,"migraine_risk":10,"frizz_risk":1,"updated_at":"2026-05-02T13:19:00.240001+05:30"},{"city":"Chandigarh","state":"Chandigarh","latitude":30.7333,"longitude":76.7794,"temp":34.0,"humidity":32,"rain":0.0,"pressure":964.7,"uv_index":7.6,"wind_gusts":33.8,"aqi":100,"pm10":129.9,"pm2_5":36.0,"no2":1.7,"co":325.0,"o3":203.0,"so2":16.9,"mosquito_risk":0,"arthritis_risk":5,"migraine_risk":7,"frizz_risk":0,"updated_at":"2026-05-02T13:19:00.240009+05:30"},{"city":"Srinagar","state":"Jammu and Kashmir","latitude":34.0837,"longitude":74.7973,"temp":21.5,"humidity":49,"rain":0.0,"pressure":839.9,"uv_index":8.8,"wind_gusts":36.0,"aqi":72,"pm10":9.5,"pm2_5":6.4,"no2":1.1,"co":361.0,"o3":153.0,"so2":3.0,"mosquito_risk":0,"arthritis_risk":5,"migraine_risk":7,"frizz_risk":0,"updated_at":"2026-05-02T13:19:00.240017+05:30"},{"city":"Jammu","state":"Jammu and Kashmir","latitude":32.7266,"longitude":74.857,"temp":34.1,"humidity":24,"rain":0.0,"pressure":968.2,"uv_index":8.4,"wind_gusts":31.0,"aqi":62,"pm10":21.7,"pm2_5":9.9,"no2":0.7,"co":275.0,"o3":166.0,"so2":2.5,"mosquito_risk":0,"arthritis_risk":5,"migraine_risk":7,"frizz_risk":0,"updated_at":"2026-05-02T13:19:00.240025+05:30"},{"city":"Amritsar","state":"Punjab","latitude":31.634,"longitude":74.8723,"temp":38.0,"humidity":20,"rain":0.0,"pressure":975.3,"uv_index":8.25,"wind_gusts":29.9,"aqi":93,"pm10":56.8,"pm2_5":19.8,"no2":0.9,"co":282.0,"o3":174.0,"so2":6.6,"mosquito_risk":0,"arthritis_risk":5,"migraine_risk":10,"frizz_risk":0,"updated_at":"2026-05-02T13:19:00.240033+05:30"},{"city":"Ludhiana","state":"Punjab","latitude":30.901,"longitude":75.8573,"temp":36.8,"humidity":22,"rain":0.0,"pressure":973.7,"uv_index":7.85,"wind_gusts":36.0,"aqi":157,"pm10":326.9,"pm2_5":61.0,"no2":1.2,"co":331.0,"o3":199.0,"so2":15.0,"mosquito_risk":0,"arthritis_risk":5,"migraine_risk":10,"frizz_risk":0,"updated_at":"2026-05-02T13:19:00.240040+05:30"},{"city":"Jalandhar","state":"Punjab","latitude":31.326,"longitude":75.5762,"temp":35.8,"humidity":24,"rain":0.0,"pressure":974.8,"uv_index":8.05,"wind_gusts":36.7,"aqi":151,"pm10":184.9,"pm2_5":45.1,"no2":0.9,"co":329.0,"o3":191.0,"so2":12.6,"mosquito_risk":0,"arthritis_risk":5,"migraine_risk":10,"frizz_risk":0,"updated_at":"2026-05-02T13:19:00.240047+05:30"},{"city":"Dehradun","state":"Uttarakhand","latitude":30.6284,"longitude":78.0322,"temp":20.6,"humidity":64,"rain":0.0,"pressure":828.5,"uv_index":8.05,"wind_gusts":44.6,"aqi":68,"pm10":37.5,"pm2_5":15.5,"no2":0.7,"co":267.0,"o3":163.0,"so2":5.6,"mosquito_risk":3,"arthritis_risk":5,"migraine_risk":7,"frizz_risk":0,"updated_at":"2026-05-02T13:19:00.240058+05:30"},{"city":"Shimla","state":"Himachal Pradesh","latitude":31.1048,"longitude":77.1734,"temp":18.0,"humidity":53,"rain":0.0,"pressure":783.5,"uv_index":8.15,"wind_gusts":44.6,"aqi":71,"pm10":23.9,"pm2_5":11.4,"no2":0.8,"co":198.0,"o3":167.0,"so2":9.1,"mosquito_risk":0,"arthritis_risk":5,"migraine_risk":7,"frizz_risk":0,"updated_at":"2026-05-02T13:19:00.240065+05:30"},{"city":"Manali","state":"Himachal Pradesh","latitude":32.2396,"longitude":77.1887,"temp":18.6,"humidity":51,"rain":0.0,"pressure":815.2,"uv_index":10.3,"wind_gusts":39.2,"aqi":98,"pm10":10.3,"pm2_5":6.0,"no2":1.2,"co":165.0,"o3":166.0,"so2":0.3,"mosquito_risk":0,"arthritis_risk":5,"migraine_risk":7,"frizz_risk":0,"updated_at":"2026-05-02T13:19:00.240073+05:30"},{"city":"Gurgaon","state":"Haryana","latitude":28.4595,"longitude":77.0266,"temp":37.3,"humidity":26,"rain":0.0,"pressure":976.3,"uv_index":7.7,"wind_gusts":26.6,"aqi":881,"pm10":983.5,"pm2_5":118.7,"no2":3.7,"co":348.0,"o3":205.0,"so2":17.8,"mosquito_risk":0,"arthritis_risk":5,"migraine_risk":10,"frizz_risk":0,"updated_at":"2026-05-02T13:19:00.240082+05:30"},{"city":"Noida","state":"Uttar Pradesh","latitude":28.5355,"longitude":77.391,"temp":36.2,"humidity":33,"rain":0.0,"pressure":979.2,"uv_index":7.65,"wind_gusts":24.8,"aqi":881,"pm10":983.5,"pm2_5":118.7,"no2":3.7,"co":378.0,"o3":205.0,"so2":17.8,"mosquito_risk":0,"arthritis_risk":5,"migraine_risk":10,"frizz_risk":1,"updated_at":"2026-05-02T13:19:00.240090+05:30"},{"city":"Ghaziabad","state":"Uttar Pradesh","latitude":28.6692,"longitude":77.4538,"temp":36.0,"humidity":33,"rain":0.0,"pressure":977.7,"uv_index":7.6,"wind_gusts":25.2,"aqi":150,"pm10":398.6,"pm2_5":74.0,"no2":2.8,"co":362.0,"o3":215.0,"so2":13.8,"mosquito_risk":0,"arthritis_risk":5,"migraine_risk":10,"frizz_risk":1,"updated_at":"2026-05-02T13:19:00.240098+05:30"},{"city":"Faridabad","state":"Haryana","latitude":28.4089,"longitude":77.3178,"temp":36.5,"humidity":29,"rain":0.0,"pressure":978.3,"uv_index":7.65,"wind_gusts":26.3,"aqi":881,"pm10":983.5,"pm2_5":118.7,"no2":3.7,"co":355.0,"o3":205.0,"so2":17.8,"mosquito_risk":0,"arthritis_risk":5,"migraine_risk":10,"frizz_risk":0,"updated_at":"2026-05-02T13:19:00.240105+05:30"},{"city":"Meerut","state":"Uttar Pradesh","latitude":28.9845,"longitude":77.7064,"temp":33.9,"humidity":39,"rain":0.0,"pressure":977.1,"uv_index":7.5,"wind_gusts":29.5,"aqi":150,"pm10":398.6,"pm2_5":74.0,"no2":2.8,"co":346.0,"o3":215.0,"so2":13.8,"mosquito_risk":0,"arthritis_risk":5,"migraine_risk":7,"frizz_risk":1,"updated_at":"2026-05-02T13:19:00.240112+05:30"},{"city":"Agra","state":"Uttar Pradesh","latitude":27.1767,"longitude":78.0081,"temp":38.3,"humidity":28,"rain":0.0,"pressure":981.9,"uv_index":7.95,"wind_gusts":45.7,"aqi":669,"pm10":502.9,"pm2_5":66.1,"no2":1.3,"co":299.0,"o3":187.0,"so2":12.2,"mosquito_risk":0,"arthritis_risk":5,"migraine_risk":10,"frizz_risk":1,"updated_at":"2026-05-02T13:19:00.240118+05:30"},{"city":"Varanasi","state":"Uttar Pradesh","latitude":25.3176,"longitude":82.9739,"temp":36.0,"humidity":32,"rain":0.0,"pressure":991.9,"uv_index":8.6,"wind_gusts":34.2,"aqi":108,"pm10":92.7,"pm2_5":35.4,"no2":1.6,"co":338.0,"o3":202.0,"so2":12.1,"mosquito_risk":0,"arthritis_risk":5,"migraine_risk":10,"frizz_risk":1,"updated_at":"2026-05-02T13:19:00.240126+05:30"},{"city":"Prayagraj","state":"Uttar Pradesh","latitude":25.4358,"longitude":81.8463,"temp":36.8,"humidity":32,"rain":0.0,"pressure":990.0,"uv_index":8.5,"wind_gusts":37.1,"aqi":104,"pm10":97.6,"pm2_5":35.7,"no2":1.8,"co":334.0,"o3":210.0,"so2":10.8,"mosquito_risk":0,"arthritis_risk":5,"migraine_risk":10,"frizz_risk":1,"updated_at":"2026-05-02T13:19:00.240136+05:30"},{"city":"Gorakhpur","state":"Uttar Pradesh","latitude":26.7606,"longitude":83.3732,"temp":32.3,"humidity":42,"rain":0.0,"pressure":993.0,"uv_index":8.45,"wind_gusts":31.3,"aqi":77,"pm10":57.0,"pm2_5":25.8,"no2":1.4,"co":349.0,"o3":179.0,"so2":4.5,"mosquito_risk":0,"arthritis_risk":5,"migraine_risk":7,"frizz_risk":1,"updated_at":"2026-05-02T13:19:00.240143+05:30"},{"city":"Bareilly","state":"Uttar Pradesh","latitude":28.367,"longitude":79.4304,"temp":34.0,"humidity":39,"rain":0.0,"pressure":982.2,"uv_index":7.9,"wind_gusts":32.8,"aqi":112,"pm10":208.2,"pm2_5":49.6,"no2":1.7,"co":310.0,"o3":201.0,"so2":15.8,"mosquito_risk":0,"arthritis_risk":5,"migraine_risk":7,"frizz_risk":1,"updated_at":"2026-05-02T13:19:00.240150+05:30"},{"city":"Aligarh","state":"Uttar Pradesh","latitude":27.8974,"longitude":78.088,"temp":36.8,"humidity":31,"rain":0.0,"pressure":980.3,"uv_index":7.75,"wind_gusts":30.6,"aqi":443,"pm10":519.7,"pm2_5":75.4,"no2":1.8,"co":304.0,"o3":195.0,"so2":13.5,"mosquito_risk":0,"arthritis_risk":5,"migraine_risk":10,"frizz_risk":1,"updated_at":"2026-05-02T13:19:00.240157+05:30"},{"city":"Moradabad","state":"Uttar Pradesh","latitude":28.8386,"longitude":78.7733,"temp":34.0,"humidity":37,"rain":0.0,"pressure":979.3,"uv_index":7.7,"wind_gusts":31.3,"aqi":123,"pm10":136.4,"pm2_5":40.9,"no2":2.1,"co":311.0,"o3":204.0,"so2":20.7,"mosquito_risk":0,"arthritis_risk":5,"migraine_risk":7,"frizz_risk":1,"updated_at":"2026-05-02T13:19:00.240164+05:30"},{"city":"Saharanpur","state":"Uttar Pradesh","latitude":29.9637,"longitude":77.546,"temp":32.2,"humidity":42,"rain":0.0,"pressure":971.7,"uv_index":7.35,"wind_gusts":31.7,"aqi":127,"pm10":205.4,"pm2_5":50.6,"no2":1.2,"co":316.0,"o3":196.0,"so2":14.7,"mosquito_risk":0,"arthritis_risk":5,"migraine_risk":7,"frizz_risk":1,"updated_at":"2026-05-02T13:19:00.240171+05:30"},{"city":"Jhansi","state":"Uttar Pradesh","latitude":25.4484,"longitude":78.5685,"temp":39.4,"humidity":23,"rain":0.0,"pressure":972.1,"uv_index":8.4,"wind_gusts":43.2,"aqi":74,"pm10":68.7,"pm2_5":20.5,"no2":1.4,"co":193.0,"o3":136.0,"so2":12.5,"mosquito_risk":0,"arthritis_risk":5,"migraine_risk":10,"frizz_risk":0,"updated_at":"2026-05-02T13:19:03.708619+05:30"},{"city":"Surat","state":"Gujarat","latitude":21.1702,"longitude":72.8311,"temp":34.8,"humidity":52,"rain":0.0,"pressure":1004.0,"uv_index":7.75,"wind_gusts":54.4,"aqi":64,"pm10":41.2,"pm2_5":20.5,"no2":9.6,"co":245.0,"o3":78.0,"so2":30.0,"mosquito_risk":0,"arthritis_risk":5,"migraine_risk":4,"frizz_risk":1,"updated_at":"2026-05-02T13:19:03.708651+05:30"},{"city":"Vadodara","state":"Gujarat","latitude":22.3072,"longitude":73.1812,"temp":40.2,"humidity":26,"rain":0.0,"pressure":999.7,"uv_index":8.05,"wind_gusts":50.4,"aqi":55,"pm10":46.6,"pm2_5":18.3,"no2":1.6,"co":166.0,"o3":120.0,"so2":6.2,"mosquito_risk":0,"arthritis_risk":5,"migraine_risk":10,"frizz_risk":1,"updated_at":"2026-05-02T13:19:03.708661+05:30"},{"city":"Rajkot","state":"Gujarat","latitude":22.3039,"longitude":70.8022,"temp":41.8,"humidity":18,"rain":0.0,"pressure":989.7,"uv_index":7.75,"wind_gusts":55.8,"aqi":51,"pm10":57.6,"pm2_5":17.9,"no2":1.2,"co":140.0,"o3":118.0,"so2":6.1,"mosquito_risk":0,"arthritis_risk":5,"migraine_risk":10,"frizz_risk":0,"updated_at":"2026-05-02T13:19:03.708669+05:30"},{"city":"Thane","state":"Maharashtra","latitude":19.2183,"longitude":72.9781,"temp":35.5,"humidity":47,"rain":0.0,"pressure":1006.0,"uv_index":7.95,"wind_gusts":40.3,"aqi":72,"pm10":71.5,"pm2_5":27.6,"no2":4.1,"co":209.0,"o3":114.0,"so2":19.5,"mosquito_risk":0,"arthritis_risk":5,"migraine_risk":7,"frizz_risk":1,"updated_at":"2026-05-02T13:19:03.708677+05:30"},{"city":"Nagpur","state":"Maharashtra","latitude":21.1458,"longitude":79.0882,"temp":42.2,"humidity":14,"rain":0.0,"pressure":968.5,"uv_index":8.95,"wind_gusts":63.0,"aqi":73,"pm10":41.7,"pm2_5":15.4,"no2":4.3,"co":168.0,"o3":151.0,"so2":19.0,"mosquito_risk":0,"arthritis_risk":5,"migraine_risk":10,"frizz_risk":0,"updated_at":"2026-05-02T13:19:03.708684+05:30"},{"city":"Nashik","state":"Maharashtra","latitude":19.9975,"longitude":73.7898,"temp":36.0,"humidity":30,"rain":0.0,"pressure":944.6,"uv_index":8.25,"wind_gusts":45.4,"aqi":64,"pm10":54.1,"pm2_5":21.7,"no2":1.6,"co":177.0,"o3":124.0,"so2":6.6,"mosquito_risk":0,"arthritis_risk":5,"migraine_risk":10,"frizz_risk":0,"updated_at":"2026-05-02T13:19:03.708692+05:30"},{"city":"Aurangabad","state":"Maharashtra","latitude":19.8762,"longitude":75.3433,"temp":39.2,"humidity":16,"rain":0.0,"pressure":942.2,"uv_index":9.05,"wind_gusts":40.3,"aqi":56,"pm10":67.3,"pm2_5":18.0,"no2":0.9,"co":169.0,"o3":114.0,"so2":3.1,"mosquito_risk":0,"arthritis_risk":5,"migraine_risk":10,"frizz_risk":0,"updated_at":"2026-05-02T13:19:03.708699+05:30"},{"city":"Solapur","state":"Maharashtra","latitude":17.6599,"longitude":75.9064,"temp":40.6,"humidity":14,"rain":0.0,"pressure":954.6,"uv_index":9.05,"wind_gusts":41.0,"aqi":52,"pm10":53.1,"pm2_5":16.1,"no2":1.0,"co":167.0,"o3":119.0,"so2":2.5,"mosquito_risk":0,"arthritis_risk":5,"migraine_risk":10,"frizz_risk":0,"updated_at":"2026-05-02T13:19:03.708706+05:30"},{"city":"Kolhapur","state":"Maharashtra","latitude":16.705,"longitude":74.2433,"temp":36.8,"humidity":24,"rain":0.0,"pressure":947.3,"uv_index":8.95,"wind_gusts":50.4,"aqi":63,"pm10":68.0,"pm2_5":21.1,"no2":1.3,"co":156.0,"o3":112.0,"so2":1.8,"mosquito_risk":0,"arthritis_risk":5,"migraine_risk":10,"frizz_risk":0,"updated_at":"2026-05-02T13:19:03.708713+05:30"},{"city":"Goa","state":"Goa","latitude":15.2993,"longitude":74.124,"temp":36.1,"humidity":43,"rain":0.0,"pressure":996.8,"uv_index":8.95,"wind_gusts":40.7,"aqi":69,"pm10":65.7,"pm2_5":19.2,"no2":0.6,"co":161.0,"o3":86.0,"so2":1.3,"mosquito_risk":0,"arthritis_risk":5,"migraine_risk":10,"frizz_risk":1,"updated_at":"2026-05-02T13:19:03.708720+05:30"},{"city":"Jodhpur","state":"Rajasthan","latitude":26.2389,"longitude":73.0243,"temp":40.2,"humidity":24,"rain":0.0,"pressure":976.7,"uv_index":8.35,"wind_gusts":37.8,"aqi":124,"pm10":289.6,"pm2_5":41.1,"no2":0.9,"co":164.0,"o3":120.0,"so2":3.6,"mosquito_risk":0,"arthritis_risk":5,"migraine_risk":10,"frizz_risk":0,"updated_at":"2026-05-02T13:19:03.708728+05:30"},{"city":"Udaipur","state":"Rajasthan","latitude":24.5854,"longitude":73.7125,"temp":38.2,"humidity":20,"rain":0.0,"pressure":942.7,"uv_index":8.8,"wind_gusts":40.7,"aqi":54,"pm10":92.4,"pm2_5":21.2,"no2":0.8,"co":147.0,"o3":118.0,"so2":4.1,"mosquito_risk":0,"arthritis_risk":5,"migraine_risk":10,"frizz_risk":0,"updated_at":"2026-05-02T13:19:03.708734+05:30"},{"city":"Kota","state":"Rajasthan","latitude":25.2138,"longitude":75.8648,"temp":40.7,"humidity":21,"rain":0.0,"pressure":973.3,"uv_index":8.35,"wind_gusts":40.3,"aqi":60,"pm10":104.5,"pm2_5":26.4,"no2":1.1,"co":176.0,"o3":134.0,"so2":6.0,"mosquito_risk":0,"arthritis_risk":5,"migraine_risk":10,"frizz_risk":0,"updated_at":"2026-05-02T13:19:03.708741+05:30"},{"city":"Bikaner","state":"Rajasthan","latitude":28.0229,"longitude":73.3119,"temp":42.5,"humidity":13,"rain":0.0,"pressure":974.8,"uv_index":8.25,"wind_gusts":40.3,"aqi":68,"pm10":210.9,"pm2_5":40.9,"no2":0.7,"co":163.0,"o3":128.0,"so2":9.8,"mosquito_risk":0,"arthritis_risk":5,"migraine_risk":10,"frizz_risk":0,"updated_at":"2026-05-02T13:19:03.708749+05:30"},{"city":"Ajmer","state":"Rajasthan","latitude":26.4499,"longitude":74.6399,"temp":39.4,"humidity":17,"rain":0.0,"pressure":950.1,"uv_index":8.3,"wind_gusts":43.6,"aqi":60,"pm10":84.1,"pm2_5":24.0,"no2":0.8,"co":166.0,"o3":119.0,"so2":4.3,"mosquito_risk":0,"arthritis_risk":5,"migraine_risk":10,"frizz_risk":0,"updated_at":"2026-05-02T13:19:03.708755+05:30"},{"city":"Gwalior","state":"Madhya Pradesh","latitude":26.2183,"longitude":78.1828,"temp":39.0,"humidity":23,"rain":0.0,"pressure":977.1,"uv_index":8.2,"wind_gusts":44.6,"aqi":91,"pm10":70.5,"pm2_5":22.7,"no2":1.1,"co":230.0,"o3":151.0,"so2":6.6,"mosquito_risk":0,"arthritis_risk":5,"migraine_risk":10,"frizz_risk":0,"updated_at":"2026-05-02T13:19:03.708762+05:30"},{"city":"Indore","state":"Madhya Pradesh","latitude":22.7196,"longitude":75.8577,"temp":39.2,"humidity":17,"rain":0.0,"pressure":945.0,"uv_index":8.65,"wind_gusts":53.3,"aqi":57,"pm10":79.9,"pm2_5":21.6,"no2":1.0,"co":186.0,"o3":113.0,"so2":5.0,"mosquito_risk":0,"arthritis_risk":5,"migraine_risk":10,"frizz_risk":0,"updated_at":"2026-05-02T13:19:03.708769+05:30"},{"city":"Bhopal","state":"Madhya Pradesh","latitude":23.2599,"longitude":77.4126,"temp":40.0,"humidity":18,"rain":0.0,"pressure":949.5,"uv_index":8.7,"wind_gusts":60.1,"aqi":64,"pm10":59.0,"pm2_5":17.8,"no2":0.7,"co":172.0,"o3":115.0,"so2":5.3,"mosquito_risk":0,"arthritis_risk":5,"migraine_risk":10,"frizz_risk":0,"updated_at":"2026-05-02T13:19:03.708776+05:30"},{"city":"Jabalpur","state":"Madhya Pradesh","latitude":23.1815,"longitude":79.9864,"temp":36.8,"humidity":23,"rain":0.0,"pressure":957.9,"uv_index":8.85,"wind_gusts":45.4,"aqi":77,"pm10":41.3,"pm2_5":14.5,"no2":0.9,"co":164.0,"o3":138.0,"so2":5.1,"mosquito_risk":0,"arthritis_risk":5,"migraine_risk":10,"frizz_risk":0,"updated_at":"2026-05-02T13:19:03.708783+05:30"},{"city":"Ujjain","state":"Madhya Pradesh","latitude":23.1765,"longitude":75.7885,"temp":39.7,"humidity":18,"rain":0.0,"pressure":950.2,"uv_index":8.6,"wind_gusts":49.7,"aqi":56,"pm10":67.5,"pm2_5":21.1,"no2":0.8,"co":166.0,"o3":111.0,"so2":5.7,"mosquito_risk":0,"arthritis_risk":5,"migraine_risk":10,"frizz_risk":0,"updated_at":"2026-05-02T13:19:03.708791+05:30"},{"city":"Visakhapatnam","state":"Andhra Pradesh","latitude":17.6868,"longitude":83.2185,"temp":33.0,"humidity":66,"rain":0.0,"pressure":1000.4,"uv_index":9.1,"wind_gusts":59.0,"aqi":64,"pm10":22.2,"pm2_5":17.9,"no2":5.6,"co":270.0,"o3":100.0,"so2":8.7,"mosquito_risk":3,"arthritis_risk":5,"migraine_risk":4,"frizz_risk":1,"updated_at":"2026-05-02T13:19:03.708798+05:30"},{"city":"Vijayawada","state":"Andhra Pradesh","latitude":16.5062,"longitude":80.648,"temp":40.0,"humidity":35,"rain":0.0,"pressure":997.8,"uv_index":9.2,"wind_gusts":34.2,"aqi":71,"pm10":32.8,"pm2_5":22.9,"no2":2.0,"co":258.0,"o3":181.0,"so2":8.8,"mosquito_risk":0,"arthritis_risk":5,"migraine_risk":10,"frizz_risk":1,"updated_at":"2026-05-02T13:19:03.708805+05:30"},{"city":"Guntur","state":"Andhra Pradesh","latitude":16.3067,"longitude":80.4365,"temp":42.4,"humidity":23,"rain":0.0,"pressure":998.7,"uv_index":9.2,"wind_gusts":35.3,"aqi":75,"pm10":33.3,"pm2_5":21.1,"no2":1.8,"co":244.0,"o3":182.0,"so2":6.6,"mosquito_risk":0,"arthritis_risk":5,"migraine_risk":10,"frizz_risk":1,"updated_at":"2026-05-02T13:19:03.708812+05:30"},{"city":"Nellore","state":"Andhra Pradesh","latitude":14.4426,"longitude":79.9865,"temp":41.8,"humidity":23,"rain":0.0,"pressure":1000.8,"uv_index":9.2,"wind_gusts":49.3,"aqi":75,"pm10":32.6,"pm2_5":16.5,"no2":2.0,"co":213.0,"o3":174.0,"so2":6.3,"mosquito_risk":0,"arthritis_risk":5,"migraine_risk":7,"frizz_risk":1,"updated_at":"2026-05-02T13:19:03.708820+05:30"},{"city":"Kurnool","state":"Andhra Pradesh","latitude":15.8281,"longitude":78.0373,"temp":41.5,"humidity":16,"rain":0.0,"pressure":973.6,"uv_index":9.2,"wind_gusts":32.8,"aqi":57,"pm10":34.5,"pm2_5":16.9,"no2":1.8,"co":174.0,"o3":153.0,"so2":9.7,"mosquito_risk":0,"arthritis_risk":5,"migraine_risk":10,"frizz_risk":0,"updated_at":"2026-05-02T13:19:03.708828+05:30"},{"city":"Kakinada","state":"Andhra Pradesh","latitude":16.9891,"longitude":82.2475,"temp":36.8,"humidity":47,"rain":0.0,"pressure":1003.7,"uv_index":9.15,"wind_gusts":43.6,"aqi":52,"pm10":19.4,"pm2_5":14.0,"no2":1.0,"co":223.0,"o3":97.0,"so2":2.6,"mosquito_risk":0,"arthritis_risk":5,"migraine_risk":7,"frizz_risk":1,"updated_at":"2026-05-02T13:19:03.708835+05:30"},{"city":"Tirupati","state":"Andhra Pradesh","latitude":13.6288,"longitude":79.4192,"temp":41.8,"humidity":19,"rain":0.0,"pressure":987.2,"uv_index":9.3,"wind_gusts":38.9,"aqi":92,"pm10":30.4,"pm2_5":17.8,"no2":1.4,"co":177.0,"o3":164.0,"so2":2.7,"mosquito_risk":0,"arthritis_risk":5,"migraine_risk":10,"frizz_risk":0,"updated_at":"2026-05-02T13:19:03.708842+05:30"},{"city":"Warangal","state":"Telangana","latitude":17.9689,"longitude":79.5941,"temp":40.3,"humidity":21,"rain":0.0,"pressure":975.0,"uv_index":9.15,"wind_gusts":32.4,"aqi":86,"pm10":41.3,"pm2_5":24.0,"no2":1.8,"co":210.0,"o3":175.0,"so2":12.2,"mosquito_risk":0,"arthritis_risk":5,"migraine_risk":10,"frizz_risk":0,"updated_at":"2026-05-02T13:19:03.708848+05:30"},{"city":"Nizamabad","state":"Telangana","latitude":18.6725,"longitude":78.0941,"temp":40.5,"humidity":16,"rain":0.0,"pressure":961.4,"uv_index":9.1,"wind_gusts":31.7,"aqi":67,"pm10":45.6,"pm2_5":17.6,"no2":1.2,"co":182.0,"o3":131.0,"so2":3.7,"mosquito_risk":0,"arthritis_risk":5,"migraine_risk":10,"frizz_risk":0,"updated_at":"2026-05-02T13:19:03.708855+05:30"},{"city":"Mysore","state":"Karnataka","latitude":12.2958,"longitude":76.6396,"temp":35.5,"humidity":29,"rain":0.0,"pressure":928.1,"uv_index":9.4,"wind_gusts":48.6,"aqi":79,"pm10":34.9,"pm2_5":16.1,"no2":1.6,"co":185.0,"o3":136.0,"so2":1.6,"mosquito_risk":0,"arthritis_risk":5,"migraine_risk":10,"frizz_risk":0,"updated_at":"2026-05-02T13:19:03.708862+05:30"},{"city":"Mangalore","state":"Karnataka","latitude":12.9141,"longitude":74.856,"temp":33.8,"humidity":47,"rain":0.0,"pressure":1005.9,"uv_index":9.05,"wind_gusts":43.6,"aqi":68,"pm10":27.4,"pm2_5":15.8,"no2":1.0,"co":144.0,"o3":99.0,"so2":1.4,"mosquito_risk":0,"arthritis_risk":5,"migraine_risk":4,"frizz_risk":1,"updated_at":"2026-05-02T13:19:03.708869+05:30"},{"city":"Hubli-Dharwad","state":"Karnataka","latitude":15.3647,"longitude":75.124,"temp":36.2,"humidity":26,"rain":0.0,"pressure":940.4,"uv_index":9.2,"wind_gusts":52.6,"aqi":56,"pm10":51.7,"pm2_5":16.5,"no2":1.2,"co":171.0,"o3":109.0,"so2":1.3,"mosquito_risk":0,"arthritis_risk":5,"migraine_risk":10,"frizz_risk":0,"updated_at":"2026-05-02T13:19:03.708877+05:30"},{"city":"Belgaum","state":"Karnataka","latitude":15.8497,"longitude":74.4977,"temp":34.5,"humidity":27,"rain":0.0,"pressure":926.0,"uv_index":9.2,"wind_gusts":49.0,"aqi":59,"pm10":69.8,"pm2_5":18.5,"no2":1.0,"co":150.0,"o3":98.0,"so2":2.1,"mosquito_risk":0,"arthritis_risk":5,"migraine_risk":7,"frizz_risk":0,"updated_at":"2026-05-02T13:19:07.091112+05:30"},{"city":"Coimbatore","state":"Tamil Nadu","latitude":11.0168,"longitude":76.9558,"temp":35.4,"humidity":39,"rain":0.0,"pressure":960.8,"uv_index":9.05,"wind_gusts":52.6,"aqi":69,"pm10":24.0,"pm2_5":18.7,"no2":1.4,"co":240.0,"o3":140.0,"so2":2.3,"mosquito_risk":0,"arthritis_risk":5,"migraine_risk":10,"frizz_risk":1,"updated_at":"2026-05-02T13:19:07.091144+05:30"},{"city":"Madurai","state":"Tamil Nadu","latitude":9.9252,"longitude":78.1198,"temp":40.4,"humidity":26,"rain":0.0,"pressure":990.2,"uv_index":9.2,"wind_gusts":51.1,"aqi":70,"pm10":22.6,"pm2_5":18.0,"no2":1.8,"co":271.0,"o3":184.0,"so2":3.5,"mosquito_risk":0,"arthritis_risk":5,"migraine_risk":10,"frizz_risk":1,"updated_at":"2026-05-02T13:19:07.091155+05:30"},{"city":"Trichy","state":"Tamil Nadu","latitude":10.7905,"longitude":78.7047,"temp":38.8,"humidity":35,"rain":0.0,"pressure":996.5,"uv_index":9.2,"wind_gusts":56.2,"aqi":64,"pm10":23.5,"pm2_5":19.7,"no2":1.5,"co":252.0,"o3":172.0,"so2":3.9,"mosquito_risk":0,"arthritis_risk":5,"migraine_risk":10,"frizz_risk":1,"updated_at":"2026-05-02T13:19:07.091164+05:30"},{"city":"Salem","state":"Tamil Nadu","latitude":11.6643,"longitude":78.146,"temp":39.2,"humidity":28,"rain":0.0,"pressure":974.7,"uv_index":9.25,"wind_gusts":61.6,"aqi":85,"pm10":33.9,"pm2_5":26.3,"no2":2.6,"co":266.0,"o3":204.0,"so2":10.1,"mosquito_risk":0,"arthritis_risk":5,"migraine_risk":10,"frizz_risk":1,"updated_at":"2026-05-02T13:19:07.091173+05:30"},{"city":"Tirunelveli","state":"Tamil Nadu","latitude":8.7139,"longitude":77.7567,"temp":35.5,"humidity":45,"rain":0.0,"pressure":1001.3,"uv_index":9.1,"wind_gusts":33.5,"aqi":58,"pm10":16.0,"pm2_5":12.3,"no2":1.1,"co":219.0,"o3":118.0,"so2":0.7,"mosquito_risk":0,"arthritis_risk":5,"migraine_risk":7,"frizz_risk":1,"updated_at":"2026-05-02T13:19:07.091180+05:30"},{"city":"Vellore","state":"Tamil Nadu","latitude":12.9165,"longitude":79.1325,"temp":41.8,"humidity":17,"rain":0.0,"pressure":981.0,"uv_index":9.3,"wind_gusts":44.6,"aqi":94,"pm10":32.2,"pm2_5":25.4,"no2":1.6,"co":208.0,"o3":180.0,"so2":4.5,"mosquito_risk":0,"arthritis_risk":5,"migraine_risk":10,"frizz_risk":0,"updated_at":"2026-05-02T13:19:07.091188+05:30"},{"city":"Erode","state":"Tamil Nadu","latitude":11.341,"longitude":77.7172,"temp":40.5,"humidity":27,"rain":0.0,"pressure":985.9,"uv_index":9.25,"wind_gusts":62.3,"aqi":74,"pm10":29.1,"pm2_5":22.0,"no2":1.5,"co":258.0,"o3":177.0,"so2":2.1,"mosquito_risk":0,"arthritis_risk":5,"migraine_risk":10,"frizz_risk":1,"updated_at":"2026-05-02T13:19:07.091196+05:30"},{"city":"Kochi","state":"Kerala","latitude":9.9312,"longitude":76.2673,"temp":31.8,"humidity":71,"rain":0.0,"pressure":1007.8,"uv_index":8.45,"wind_gusts":29.9,"aqi":75,"pm10":19.1,"pm2_5":13.5,"no2":2.0,"co":185.0,"o3":109.0,"so2":1.4,"mosquito_risk":3,"arthritis_risk":5,"migraine_risk":4,"frizz_risk":1,"updated_at":"2026-05-02T13:19:07.091203+05:30"},{"city":"Thiruvananthapuram","state":"Kerala","latitude":8.5241,"longitude":76.9366,"temp":28.9,"humidity":80,"rain":0.1,"pressure":1007.8,"uv_index":8.1,"wind_gusts":34.6,"aqi":48,"pm10":15.4,"pm2_5":10.7,"no2":1.0,"co":171.0,"o3":105.0,"so2":1.3,"mosquito_risk":10,"arthritis_risk":5,"migraine_risk":4,"frizz_risk":1,"updated_at":"2026-05-02T13:19:07.091211+05:30"},{"city":"Kozhikode","state":"Kerala","latitude":11.2588,"longitude":75.7804,"temp":31.4,"humidity":73,"rain":0.0,"pressure":1006.6,"uv_index":8.95,"wind_gusts":39.6,"aqi":64,"pm10":26.1,"pm2_5":14.5,"no2":0.5,"co":169.0,"o3":77.0,"so2":0.7,"mosquito_risk":3,"arthritis_risk":5,"migraine_risk":4,"frizz_risk":1,"updated_at":"2026-05-02T13:19:07.091218+05:30"},{"city":"Thrissur","state":"Kerala","latitude":10.5276,"longitude":76.2144,"temp":33.0,"humidity":60,"rain":0.0,"pressure":1005.9,"uv_index":7.95,"wind_gusts":37.4,"aqi":74,"pm10":19.8,"pm2_5":14.3,"no2":1.4,"co":188.0,"o3":96.0,"so2":0.9,"mosquito_risk":0,"arthritis_risk":5,"migraine_risk":4,"frizz_risk":1,"updated_at":"2026-05-02T13:19:07.091227+05:30"},{"city":"Kannur","state":"Kerala","latitude":11.8745,"longitude":75.3704,"temp":32.8,"humidity":64,"rain":0.0,"pressure":1005.9,"uv_index":9.0,"wind_gusts":50.4,"aqi":78,"pm10":27.4,"pm2_5":16.4,"no2":0.9,"co":158.0,"o3":94.0,"so2":0.8,"mosquito_risk":3,"arthritis_risk":5,"migraine_risk":4,"frizz_risk":1,"updated_at":"2026-05-02T13:19:07.091233+05:30"},{"city":"Patna","state":"Bihar","latitude":25.5941,"longitude":85.1376,"temp":31.9,"humidity":50,"rain":0.0,"pressure":996.1,"uv_index":8.65,"wind_gusts":29.9,"aqi":104,"pm10":69.2,"pm2_5":38.5,"no2":1.9,"co":334.0,"o3":205.0,"so2":11.5,"mosquito_risk":0,"arthritis_risk":5,"migraine_risk":7,"frizz_risk":1,"updated_at":"2026-05-02T13:19:07.091240+05:30"},{"city":"Gaya","state":"Bihar","latitude":24.7914,"longitude":85.0002,"temp":34.5,"humidity":40,"rain":0.0,"pressure":988.9,"uv_index":8.75,"wind_gusts":27.0,"aqi":97,"pm10":87.8,"pm2_5":36.2,"no2":1.2,"co":323.0,"o3":197.0,"so2":12.5,"mosquito_risk":0,"arthritis_risk":5,"migraine_risk":7,"frizz_risk":1,"updated_at":"2026-05-02T13:19:07.091247+05:30"},{"city":"Muzaffarpur","state":"Bihar","latitude":26.1209,"longitude":85.3647,"temp":30.7,"humidity":51,"rain":0.0,"pressure":996.6,"uv_index":8.65,"wind_gusts":30.6,"aqi":99,"pm10":60.3,"pm2_5":36.8,"no2":2.0,"co":309.0,"o3":191.0,"so2":8.4,"mosquito_risk":0,"arthritis_risk":5,"migraine_risk":7,"frizz_risk":1,"updated_at":"2026-05-02T13:19:07.091253+05:30"},{"city":"Bhagalpur","state":"Bihar","latitude":25.2425,"longitude":87.0117,"temp":30.2,"humidity":53,"rain":0.0,"pressure":997.5,"uv_index":8.65,"wind_gusts":29.9,"aqi":108,"pm10":81.5,"pm2_5":52.3,"no2":4.0,"co":351.0,"o3":211.0,"so2":11.7,"mosquito_risk":0,"arthritis_risk":5,"migraine_risk":7,"frizz_risk":1,"updated_at":"2026-05-02T13:19:07.091261+05:30"},{"city":"Ranchi","state":"Jharkhand","latitude":23.3441,"longitude":85.3096,"temp":28.5,"humidity":44,"rain":0.0,"pressure":934.9,"uv_index":9.0,"wind_gusts":46.8,"aqi":105,"pm10":80.3,"pm2_5":28.1,"no2":1.5,"co":215.0,"o3":187.0,"so2":16.2,"mosquito_risk":4,"arthritis_risk":5,"migraine_risk":7,"frizz_risk":0,"updated_at":"2026-05-02T13:19:07.091268+05:30"},{"city":"Jamshedpur","state":"Jharkhand","latitude":22.8046,"longitude":86.2029,"temp":36.3,"humidity":30,"rain":0.0,"pressure":985.9,"uv_index":9.0,"wind_gusts":45.4,"aqi":102,"pm10":81.7,"pm2_5":52.2,"no2":3.1,"co":271.0,"o3":245.0,"so2":29.8,"mosquito_risk":0,"arthritis_risk":5,"migraine_risk":10,"frizz_risk":0,"updated_at":"2026-05-02T13:19:07.091275+05:30"},{"city":"Dhanbad","state":"Jharkhand","latitude":23.7957,"longitude":86.4304,"temp":31.9,"humidity":50,"rain":0.0,"pressure":975.9,"uv_index":9.0,"wind_gusts":29.5,"aqi":141,"pm10":100.8,"pm2_5":71.9,"no2":20.9,"co":661.0,"o3":234.0,"so2":80.7,"mosquito_risk":0,"arthritis_risk":5,"migraine_risk":7,"frizz_risk":1,"updated_at":"2026-05-02T13:19:07.091282+05:30"},{"city":"Bokaro","state":"Jharkhand","latitude":23.6693,"longitude":86.1511,"temp":27.9,"humidity":65,"rain":0.0,"pressure":980.0,"uv_index":9.0,"wind_gusts":40.0,"aqi":146,"pm10":108.5,"pm2_5":74.0,"no2":25.6,"co":432.0,"o3":235.0,"so2":97.9,"mosquito_risk":7,"arthritis_risk":5,"migraine_risk":7,"frizz_risk":1,"updated_at":"2026-05-02T13:19:07.091290+05:30"},{"city":"Bhubaneswar","state":"Odisha","latitude":20.2961,"longitude":85.8245,"temp":35.3,"humidity":54,"rain":0.0,"pressure":997.8,"uv_index":9.05,"wind_gusts":54.7,"aqi":57,"pm10":35.6,"pm2_5":22.9,"no2":1.6,"co":302.0,"o3":138.0,"so2":5.1,"mosquito_risk":0,"arthritis_risk":5,"migraine_risk":10,"frizz_risk":1,"updated_at":"2026-05-02T13:19:07.091297+05:30"},{"city":"Cuttack","state":"Odisha","latitude":20.4625,"longitude":85.8828,"temp":34.7,"humidity":49,"rain":0.0,"pressure":999.7,"uv_index":9.1,"wind_gusts":49.7,"aqi":57,"pm10":35.6,"pm2_5":22.9,"no2":1.6,"co":284.0,"o3":138.0,"so2":5.1,"mosquito_risk":0,"arthritis_risk":5,"migraine_risk":7,"frizz_risk":1,"updated_at":"2026-05-02T13:19:07.091303+05:30"},{"city":"Rourkela","state":"Odisha","latitude":22.2604,"longitude":84.8536,"temp":38.3,"humidity":23,"rain":0.0,"pressure":979.5,"uv_index":9.0,"wind_gusts":56.9,"aqi":121,"pm10":73.3,"pm2_5":34.1,"no2":2.2,"co":217.0,"o3":212.0,"so2":19.9,"mosquito_risk":0,"arthritis_risk":5,"migraine_risk":10,"frizz_risk":0,"updated_at":"2026-05-02T13:19:07.091310+05:30"},{"city":"Raipur","state":"Chhattisgarh","latitude":21.2514,"longitude":81.6296,"temp":41.0,"humidity":17,"rain":0.0,"pressure":969.6,"uv_index":9.0,"wind_gusts":63.0,"aqi":126,"pm10":44.7,"pm2_5":18.3,"no2":3.6,"co":294.0,"o3":177.0,"so2":7.8,"mosquito_risk":0,"arthritis_risk":5,"migraine_risk":10,"frizz_risk":0,"updated_at":"2026-05-02T13:19:07.091316+05:30"},{"city":"Bhilai","state":"Chhattisgarh","latitude":21.1938,"longitude":81.3509,"temp":40.3,"humidity":19,"rain":0.0,"pressure":970.2,"uv_index":9.0,"wind_gusts":51.5,"aqi":117,"pm10":46.0,"pm2_5":17.5,"no2":3.5,"co":368.0,"o3":162.0,"so2":7.8,"mosquito_risk":0,"arthritis_risk":5,"migraine_risk":10,"frizz_risk":0,"updated_at":"2026-05-02T13:19:07.091323+05:30"},{"city":"Guwahati","state":"Assam","latitude":26.1158,"longitude":91.7086,"temp":24.8,"humidity":77,"rain":0.2,"pressure":998.2,"uv_index":4.3,"wind_gusts":22.0,"aqi":60,"pm10":26.2,"pm2_5":18.3,"no2":1.4,"co":300.0,"o3":130.0,"so2":1.6,"mosquito_risk":6,"arthritis_risk":5,"migraine_risk":3,"frizz_risk":1,"updated_at":"2026-05-02T13:19:07.091331+05:30"},{"city":"Agartala","state":"Tripura","latitude":23.8315,"longitude":91.2868,"temp":25.5,"humidity":89,"rain":0.0,"pressure":1003.3,"uv_index":8.8,"wind_gusts":38.2,"aqi":51,"pm10":9.5,"pm2_5":7.3,"no2":2.9,"co":197.0,"o3":104.0,"so2":0.9,"mosquito_risk":7,"arthritis_risk":5,"migraine_risk":4,"frizz_risk":1,"updated_at":"2026-05-02T13:19:07.091338+05:30"},{"city":"Shillong","state":"Meghalaya","latitude":25.5788,"longitude":91.8933,"temp":19.5,"humidity":69,"rain":0.2,"pressure":853.7,"uv_index":5.0,"wind_gusts":37.4,"aqi":45,"pm10":22.4,"pm2_5":11.8,"no2":1.0,"co":222.0,"o3":122.0,"so2":0.9,"mosquito_risk":6,"arthritis_risk":5,"migraine_risk":3,"frizz_risk":0,"updated_at":"2026-05-02T13:19:07.091345+05:30"},{"city":"Imphal","state":"Manipur","latitude":24.817,"longitude":93.9368,"temp":24.1,"humidity":66,"rain":0.1,"pressure":920.4,"uv_index":5.75,"wind_gusts":30.2,"aqi":60,"pm10":10.4,"pm2_5":4.7,"no2":0.9,"co":205.0,"o3":96.0,"so2":0.7,"mosquito_risk":6,"arthritis_risk":5,"migraine_risk":3,"frizz_risk":1,"updated_at":"2026-05-02T13:19:07.091352+05:30"},{"city":"Aizawl","state":"Mizoram","latitude":23.7271,"longitude":92.7176,"temp":18.6,"humidity":88,"rain":0.0,"pressure":890.1,"uv_index":9.0,"wind_gusts":43.6,"aqi":31,"pm10":4.9,"pm2_5":3.2,"no2":0.6,"co":160.0,"o3":91.0,"so2":0.3,"mosquito_risk":3,"arthritis_risk":10,"migraine_risk":7,"frizz_risk":1,"updated_at":"2026-05-02T13:19:07.091360+05:30"},{"city":"Kohima","state":"Nagaland","latitude":25.6701,"longitude":94.1077,"temp":18.7,"humidity":88,"rain":0.2,"pressure":852.3,"uv_index":6.0,"wind_gusts":28.4,"aqi":50,"pm10":23.3,"pm2_5":10.4,"no2":0.7,"co":212.0,"o3":108.0,"so2":0.5,"mosquito_risk":6,"arthritis_risk":10,"migraine_risk":3,"frizz_risk":1,"updated_at":"2026-05-02T13:19:07.091367+05:30"},{"city":"Gangtok","state":"Sikkim","latitude":27.3314,"longitude":88.6138,"temp":16.1,"humidity":79,"rain":0.1,"pressure":834.3,"uv_index":4.45,"wind_gusts":25.9,"aqi":53,"pm10":3.5,"pm2_5":3.0,"no2":0.7,"co":275.0,"o3":120.0,"so2":0.3,"mosquito_risk":6,"arthritis_risk":5,"migraine_risk":3,"frizz_risk":0,"updated_at":"2026-05-02T13:19:07.091375+05:30"},{"city":"Siliguri","state":"West Bengal","latitude":26.7271,"longitude":88.3953,"temp":22.5,"humidity":87,"rain":0.2,"pressure":990.7,"uv_index":4.15,"wind_gusts":22.0,"aqi":64,"pm10":8.2,"pm2_5":6.8,"no2":1.0,"co":303.0,"o3":136.0,"so2":1.2,"mosquito_risk":6,"arthritis_risk":5,"migraine_risk":3,"frizz_risk":1,"updated_at":"2026-05-02T13:19:10.906392+05:30"},{"city":"Durgapur","state":"West Bengal","latitude":23.5204,"longitude":87.3119,"temp":32.2,"humidity":58,"rain":0.0,"pressure":990.3,"uv_index":8.9,"wind_gusts":27.7,"aqi":128,"pm10":82.4,"pm2_5":56.2,"no2":13.5,"co":371.0,"o3":212.0,"so2":59.3,"mosquito_risk":0,"arthritis_risk":5,"migraine_risk":7,"frizz_risk":1,"updated_at":"2026-05-02T13:19:10.906424+05:30"},{"city":"Asansol","state":"West Bengal","latitude":23.6739,"longitude":86.9524,"temp":31.8,"humidity":55,"rain":0.0,"pressure":989.1,"uv_index":8.95,"wind_gusts":27.7,"aqi":124,"pm10":87.3,"pm2_5":62.2,"no2":13.1,"co":476.0,"o3":218.0,"so2":60.6,"mosquito_risk":0,"arthritis_risk":5,"migraine_risk":7,"frizz_risk":1,"updated_at":"2026-05-02T13:19:10.906434+05:30"},{"city":"Pondicherry","state":"Puducherry","latitude":11.9139,"longitude":79.8145,"temp":34.3,"humidity":63,"rain":0.0,"pressure":1005.1,"uv_index":9.15,"wind_gusts":56.5,"aqi":56,"pm10":26.5,"pm2_5":22.5,"no2":2.2,"co":222.0,"o3":170.0,"so2":12.1,"mosquito_risk":3,"arthritis_risk":5,"migraine_risk":4,"frizz_risk":1,"updated_at":"2026-05-02T13:19:10.906443+05:30"},{"city":"Port Blair","state":"Andaman and Nicobar Islands","latitude":11.6234,"longitude":92.7265,"temp":35.2,"humidity":46,"rain":0.0,"pressure":1005.3,"uv_index":9.0,"wind_gusts":32.8,"aqi":29,"pm10":11.0,"pm2_5":7.8,"no2":0.3,"co":138.0,"o3":61.0,"so2":0.2,"mosquito_risk":0,"arthritis_risk":5,"migraine_risk":7,"frizz_risk":1,"updated_at":"2026-05-02T13:19:10.906452+05:30"},{"city":"Haridwar","state":"Uttarakhand","latitude":29.9457,"longitude":78.1642,"temp":31.6,"humidity":45,"rain":0.0,"pressure":969.8,"uv_index":7.4,"wind_gusts":28.4,"aqi":120,"pm10":150.9,"pm2_5":38.9,"no2":1.0,"co":285.0,"o3":188.0,"so2":14.0,"mosquito_risk":0,"arthritis_risk":5,"migraine_risk":7,"frizz_risk":1,"updated_at":"2026-05-02T13:19:10.906460+05:30"},{"city":"Rishikesh","state":"Uttarakhand","latitude":30.0869,"longitude":78.2676,"temp":30.4,"humidity":48,"rain":0.0,"pressure":962.7,"uv_index":7.5,"wind_gusts":29.2,"aqi":111,"pm10":119.7,"pm2_5":33.6,"no2":0.7,"co":283.0,"o3":183.0,"so2":11.2,"mosquito_risk":0,"arthritis_risk":5,"migraine_risk":7,"frizz_risk":1,"updated_at":"2026-05-02T13:19:10.906492+05:30"},{"city":"Nainital","state":"Uttarakhand","latitude":29.3919,"longitude":79.4542,"temp":18.3,"humidity":62,"rain":0.0,"pressure":803.5,"uv_index":7.85,"wind_gusts":41.4,"aqi":98,"pm10":102.0,"pm2_5":29.6,"no2":0.8,"co":252.0,"o3":177.0,"so2":7.5,"mosquito_risk":3,"arthritis_risk":5,"migraine_risk":7,"frizz_risk":0,"updated_at":"2026-05-02T13:19:10.906501+05:30"},{"city":"Mussoorie","state":"Uttarakhand","latitude":30.4599,"longitude":78.0664,"temp":18.0,"humidity":64,"rain":0.0,"pressure":801.1,"uv_index":7.9,"wind_gusts":47.9,"aqi":114,"pm10":115.9,"pm2_5":34.0,"no2":1.0,"co":254.0,"o3":189.0,"so2":12.4,"mosquito_risk":3,"arthritis_risk":5,"migraine_risk":7,"frizz_risk":0,"updated_at":"2026-05-02T13:19:10.906509+05:30"},{"city":"Dharamshala","state":"Himachal Pradesh","latitude":32.219,"longitude":76.3234,"temp":24.0,"humidity":38,"rain":0.0,"pressure":866.8,"uv_index":8.25,"wind_gusts":46.1,"aqi":57,"pm10":14.4,"pm2_5":7.3,"no2":0.4,"co":206.0,"o3":154.0,"so2":1.1,"mosquito_risk":0,"arthritis_risk":5,"migraine_risk":7,"frizz_risk":0,"updated_at":"2026-05-02T13:19:10.906516+05:30"},{"city":"Dalhousie","state":"Himachal Pradesh","latitude":32.5387,"longitude":75.971,"temp":20.9,"humidity":40,"rain":0.0,"pressure":803.7,"uv_index":8.5,"wind_gusts":42.8,"aqi":58,"pm10":16.9,"pm2_5":8.5,"no2":0.9,"co":200.0,"o3":163.0,"so2":2.0,"mosquito_risk":0,"arthritis_risk":5,"migraine_risk":7,"frizz_risk":0,"updated_at":"2026-05-02T13:19:10.906524+05:30"},{"city":"Patiala","state":"Punjab","latitude":30.3398,"longitude":76.3869,"temp":36.2,"humidity":25,"rain":0.0,"pressure":973.4,"uv_index":7.5,"wind_gusts":33.1,"aqi":405,"pm10":622.1,"pm2_5":89.9,"no2":1.8,"co":322.0,"o3":214.0,"so2":22.0,"mosquito_risk":0,"arthritis_risk":5,"migraine_risk":10,"frizz_risk":0,"updated_at":"2026-05-02T13:19:10.906531+05:30"},{"city":"Bhatinda","state":"Punjab","latitude":30.211,"longitude":74.9455,"temp":39.7,"humidity":17,"rain":0.0,"pressure":977.8,"uv_index":8.15,"wind_gusts":36.0,"aqi":151,"pm10":247.7,"pm2_5":55.3,"no2":2.1,"co":258.0,"o3":209.0,"so2":17.6,"mosquito_risk":0,"arthritis_risk":5,"migraine_risk":10,"frizz_risk":0,"updated_at":"2026-05-02T13:19:10.906538+05:30"},{"city":"Rohtak","state":"Haryana","latitude":28.8955,"longitude":76.6066,"temp":38.2,"humidity":23,"rain":0.0,"pressure":976.3,"uv_index":7.65,"wind_gusts":27.7,"aqi":437,"pm10":558.8,"pm2_5":89.6,"no2":2.4,"co":337.0,"o3":222.0,"so2":16.1,"mosquito_risk":0,"arthritis_risk":5,"migraine_risk":10,"frizz_risk":0,"updated_at":"2026-05-02T13:19:10.906545+05:30"},{"city":"Panipat","state":"Haryana","latitude":29.3909,"longitude":76.9635,"temp":35.7,"humidity":32,"rain":0.0,"pressure":975.5,"uv_index":7.5,"wind_gusts":26.3,"aqi":578,"pm10":765.5,"pm2_5":110.1,"no2":4.1,"co":342.0,"o3":235.0,"so2":27.8,"mosquito_risk":0,"arthritis_risk":5,"migraine_risk":10,"frizz_risk":1,"updated_at":"2026-05-02T13:19:10.906552+05:30"},{"city":"Mathura","state":"Uttar Pradesh","latitude":27.4924,"longitude":77.6737,"temp":37.5,"humidity":31,"rain":0.0,"pressure":981.1,"uv_index":7.9,"wind_gusts":35.6,"aqi":655,"pm10":625.8,"pm2_5":78.2,"no2":1.2,"co":299.0,"o3":186.0,"so2":9.5,"mosquito_risk":0,"arthritis_risk":5,"migraine_risk":10,"frizz_risk":1,"updated_at":"2026-05-02T13:19:10.906559+05:30"},{"city":"Vrindavan","state":"Uttar Pradesh","latitude":27.5823,"longitude":77.7027,"temp":37.5,"humidity":29,"rain":0.0,"pressure":981.7,"uv_index":7.85,"wind_gusts":31.7,"aqi":655,"pm10":625.8,"pm2_5":78.2,"no2":1.2,"co":305.0,"o3":186.0,"so2":9.5,"mosquito_risk":0,"arthritis_risk":5,"migraine_risk":10,"frizz_risk":1,"updated_at":"2026-05-02T13:19:10.906566+05:30"},{"city":"Ayodhya","state":"Uttar Pradesh","latitude":26.7922,"longitude":82.1998,"temp":33.2,"humidity":40,"rain":0.0,"pressure":990.7,"uv_index":8.25,"wind_gusts":31.3,"aqi":81,"pm10":69.2,"pm2_5":25.8,"no2":1.1,"co":326.0,"o3":181.0,"so2":5.4,"mosquito_risk":0,"arthritis_risk":5,"migraine_risk":7,"frizz_risk":1,"updated_at":"2026-05-02T13:19:10.906573+05:30"},{"city":"Ratlam","state":"Madhya Pradesh","latitude":23.3315,"longitude":75.0367,"temp":38.8,"humidity":23,"rain":0.0,"pressure":951.4,"uv_index":8.55,"wind_gusts":47.9,"aqi":55,"pm10":67.3,"pm2_5":21.4,"no2":0.8,"co":162.0,"o3":113.0,"so2":5.8,"mosquito_risk":0,"arthritis_risk":5,"migraine_risk":10,"frizz_risk":0,"updated_at":"2026-05-02T13:19:10.906581+05:30"},{"city":"Sagar","state":"Madhya Pradesh","latitude":23.8388,"longitude":78.7378,"temp":38.5,"humidity":22,"rain":0.0,"pressure":945.9,"uv_index":8.7,"wind_gusts":53.6,"aqi":57,"pm10":51.5,"pm2_5":16.0,"no2":0.7,"co":161.0,"o3":124.0,"so2":5.1,"mosquito_risk":0,"arthritis_risk":5,"migraine_risk":10,"frizz_risk":0,"updated_at":"2026-05-02T13:19:10.906588+05:30"},{"city":"Satna","state":"Madhya Pradesh","latitude":24.6005,"longitude":80.8322,"temp":38.9,"humidity":21,"rain":0.0,"pressure":965.7,"uv_index":8.7,"wind_gusts":66.6,"aqi":85,"pm10":61.7,"pm2_5":24.3,"no2":1.3,"co":177.0,"o3":183.0,"so2":12.0,"mosquito_risk":0,"arthritis_risk":5,"migraine_risk":10,"frizz_risk":0,"updated_at":"2026-05-02T13:19:10.906595+05:30"},{"city":"Akola","state":"Maharashtra","latitude":20.7002,"longitude":77.0082,"temp":40.7,"humidity":20,"rain":0.0,"pressure":971.3,"uv_index":8.9,"wind_gusts":45.0,"aqi":53,"pm10":37.1,"pm2_5":13.6,"no2":1.3,"co":165.0,"o3":124.0,"so2":12.2,"mosquito_risk":0,"arthritis_risk":5,"migraine_risk":10,"frizz_risk":0,"updated_at":"2026-05-02T13:19:10.906603+05:30"},{"city":"Amravati","state":"Maharashtra","latitude":20.9374,"longitude":77.7796,"temp":40.5,"humidity":17,"rain":0.0,"pressure":963.6,"uv_index":8.9,"wind_gusts":42.5,"aqi":53,"pm10":35.6,"pm2_5":13.2,"no2":1.6,"co":160.0,"o3":128.0,"so2":9.6,"mosquito_risk":0,"arthritis_risk":5,"migraine_risk":10,"frizz_risk":0,"updated_at":"2026-05-02T13:19:10.906611+05:30"},{"city":"Latur","state":"Maharashtra","latitude":18.4088,"longitude":76.5604,"temp":40.2,"humidity":12,"rain":0.0,"pressure":937.7,"uv_index":9.05,"wind_gusts":32.8,"aqi":56,"pm10":50.3,"pm2_5":15.4,"no2":0.7,"co":146.0,"o3":115.0,"so2":5.7,"mosquito_risk":0,"arthritis_risk":5,"migraine_risk":10,"frizz_risk":0,"updated_at":"2026-05-02T13:19:10.906618+05:30"},{"city":"Nanded","state":"Maharashtra","latitude":19.1383,"longitude":77.3091,"temp":41.3,"humidity":15,"rain":0.0,"pressure":965.1,"uv_index":8.95,"wind_gusts":31.3,"aqi":57,"pm10":52.7,"pm2_5":16.5,"no2":0.9,"co":168.0,"o3":122.0,"so2":2.4,"mosquito_risk":0,"arthritis_risk":5,"migraine_risk":10,"frizz_risk":0,"updated_at":"2026-05-02T13:19:10.906625+05:30"},{"city":"Gulbarga","state":"Karnataka","latitude":17.3297,"longitude":76.8343,"temp":40.7,"humidity":16,"rain":0.0,"pressure":955.9,"uv_index":9.1,"wind_gusts":41.8,"aqi":54,"pm10":42.1,"pm2_5":15.2,"no2":1.3,"co":167.0,"o3":132.0,"so2":4.1,"mosquito_risk":0,"arthritis_risk":5,"migraine_risk":10,"frizz_risk":0,"updated_at":"2026-05-02T13:19:10.906631+05:30"},{"city":"Bidar","state":"Karnataka","latitude":17.9104,"longitude":77.5199,"temp":39.3,"humidity":16,"rain":0.0,"pressure":933.5,"uv_index":9.1,"wind_gusts":34.9,"aqi":65,"pm10":40.4,"pm2_5":14.9,"no2":1.1,"co":156.0,"o3":126.0,"so2":4.3,"mosquito_risk":0,"arthritis_risk":5,"migraine_risk":10,"frizz_risk":0,"updated_at":"2026-05-02T13:19:10.906638+05:30"},{"city":"Hospet","state":"Karnataka","latitude":15.2689,"longitude":76.3909,"temp":37.5,"humidity":20,"rain":0.0,"pressure":954.5,"uv_index":9.2,"wind_gusts":45.4,"aqi":53,"pm10":46.1,"pm2_5":15.7,"no2":1.4,"co":182.0,"o3":120.0,"so2":1.6,"mosquito_risk":0,"arthritis_risk":5,"migraine_risk":10,"frizz_risk":0,"updated_at":"2026-05-02T13:19:10.906645+05:30"},{"city":"Tirupur","state":"Tamil Nadu","latitude":11.1085,"longitude":77.3411,"temp":39.5,"humidity":29,"rain":0.0,"pressure":972.8,"uv_index":9.2,"wind_gusts":48.2,"aqi":76,"pm10":28.5,"pm2_5":21.8,"no2":1.6,"co":240.0,"o3":171.0,"so2":2.6,"mosquito_risk":0,"arthritis_risk":5,"migraine_risk":10,"frizz_risk":1,"updated_at":"2026-05-02T13:19:10.906651+05:30"},{"city":"Alappuzha","state":"Kerala","latitude":9.4981,"longitude":76.3388,"temp":30.8,"humidity":73,"rain":0.0,"pressure":1008.2,"uv_index":8.2,"wind_gusts":26.3,"aqi":69,"pm10":24.9,"pm2_5":16.5,"no2":1.9,"co":167.0,"o3":113.0,"so2":2.9,"mosquito_risk":3,"arthritis_risk":0,"migraine_risk":4,"frizz_risk":1,"updated_at":"2026-05-02T13:19:10.906658+05:30"},{"city":"Munnar","state":"Kerala","latitude":10.0889,"longitude":77.0595,"temp":22.5,"humidity":81,"rain":0.1,"pressure":858.0,"uv_index":8.8,"wind_gusts":24.8,"aqi":56,"pm10":17.9,"pm2_5":14.0,"no2":0.8,"co":201.0,"o3":127.0,"so2":1.0,"mosquito_risk":6,"arthritis_risk":5,"migraine_risk":7,"frizz_risk":1,"updated_at":"2026-05-02T13:19:10.906666+05:30"},{"city":"Silchar","state":"Assam","latitude":24.8333,"longitude":92.7789,"temp":25.6,"humidity":73,"rain":0.0,"pressure":1002.8,"uv_index":8.5,"wind_gusts":27.7,"aqi":63,"pm10":7.8,"pm2_5":5.3,"no2":0.7,"co":213.0,"o3":92.0,"so2":1.7,"mosquito_risk":7,"arthritis_risk":5,"migraine_risk":4,"frizz_risk":1,"updated_at":"2026-05-02T13:19:10.906673+05:30"},{"city":"Dibrugarh","state":"Assam","latitude":27.4728,"longitude":94.912,"temp":26.0,"humidity":67,"rain":0.0,"pressure":993.1,"uv_index":7.3,"wind_gusts":22.7,"aqi":61,"pm10":33.5,"pm2_5":14.4,"no2":0.9,"co":241.0,"o3":132.0,"so2":0.9,"mosquito_risk":7,"arthritis_risk":5,"migraine_risk":7,"frizz_risk":1,"updated_at":"2026-05-02T13:19:10.906680+05:30"}]