[{"city":"Delhi","state":"Delhi","latitude":28.6139,"longitude":77.209,"temp":31.5,"humidity":47,"rain":0.0,"pressure":976.4,"uv_index":7.7,"wind_gusts":40.0,"aqi":192,"pm10":163.4,"pm2_5":101.0,"no2":56.5,"co":703.0,"o3":59.0,"so2":39.7,"mosquito_risk":0,"arthritis_risk":5,"migraine_risk":7,"frizz_risk":1,"updated_at":"2026-05-15T01:19:52.993452+05:30"},{"city":"Mumbai","state":"Maharashtra","latitude":19.076,"longitude":72.8777,"temp":29.5,"humidity":79,"rain":0.0,"pressure":1004.4,"uv_index":7.9,"wind_gusts":47.9,"aqi":74,"pm10":23.6,"pm2_5":14.9,"no2":5.8,"co":276.0,"o3":68.0,"so2":3.9,"mosquito_risk":7,"arthritis_risk":5,"migraine_risk":4,"frizz_risk":1,"updated_at":"2026-05-15T01:19:52.993489+05:30"},{"city":"Bangalore","state":"Karnataka","latitude":12.9716,"longitude":77.5946,"temp":25.5,"humidity":57,"rain":0.0,"pressure":908.0,"uv_index":9.45,"wind_gusts":40.0,"aqi":90,"pm10":49.9,"pm2_5":33.2,"no2":46.0,"co":536.0,"o3":38.0,"so2":11.8,"mosquito_risk":4,"arthritis_risk":5,"migraine_risk":7,"frizz_risk":1,"updated_at":"2026-05-15T01:19:52.993502+05:30"},{"city":"Hyderabad","state":"Telangana","latitude":17.385,"longitude":78.4867,"temp":29.9,"humidity":54,"rain":0.0,"pressure":949.0,"uv_index":7.1,"wind_gusts":32.4,"aqi":99,"pm10":30.6,"pm2_5":24.4,"no2":11.4,"co":353.0,"o3":83.0,"so2":8.0,"mosquito_risk":4,"arthritis_risk":5,"migraine_risk":7,"frizz_risk":1,"updated_at":"2026-05-15T01:19:52.993509+05:30"},{"city":"Chennai","state":"Tamil Nadu","latitude":13.0827,"longitude":80.2707,"temp":29.2,"humidity":82,"rain":0.0,"pressure":1001.8,"uv_index":8.3,"wind_gusts":36.7,"aqi":28,"pm10":10.0,"pm2_5":6.8,"no2":9.3,"co":163.0,"o3":37.0,"so2":7.0,"mosquito_risk":7,"arthritis_risk":5,"migraine_risk":4,"frizz_risk":1,"updated_at":"2026-05-15T01:19:52.993516+05:30"},{"city":"Kolkata","state":"West Bengal","latitude":22.5726,"longitude":88.3639,"temp":28.0,"humidity":85,"rain":0.0,"pressure":1001.1,"uv_index":9.0,"wind_gusts":36.4,"aqi":53,"pm10":9.9,"pm2_5":7.8,"no2":5.8,"co":184.0,"o3":34.0,"so2":3.1,"mosquito_risk":7,"arthritis_risk":5,"migraine_risk":4,"frizz_risk":1,"updated_at":"2026-05-15T01:19:52.993522+05:30"},{"city":"Pune","state":"Maharashtra","latitude":18.5204,"longitude":73.8567,"temp":26.9,"humidity":54,"rain":0.0,"pressure":944.4,"uv_index":8.5,"wind_gusts":43.6,"aqi":99,"pm10":26.0,"pm2_5":19.0,"no2":18.1,"co":226.0,"o3":70.0,"so2":21.9,"mosquito_risk":4,"arthritis_risk":5,"migraine_risk":7,"frizz_risk":1,"updated_at":"2026-05-15T01:19:52.993527+05:30"},{"city":"Ahmedabad","state":"Gujarat","latitude":23.0225,"longitude":72.5714,"temp":32.5,"humidity":45,"rain":0.0,"pressure":996.7,"uv_index":8.15,"wind_gusts":35.6,"aqi":53,"pm10":12.7,"pm2_5":10.2,"no2":4.1,"co":169.0,"o3":71.0,"so2":2.6,"mosquito_risk":0,"arthritis_risk":5,"migraine_risk":7,"frizz_risk":1,"updated_at":"2026-05-15T01:19:52.993533+05:30"},{"city":"Jaipur","state":"Rajasthan","latitude":26.9124,"longitude":75.7873,"temp":31.7,"humidity":30,"rain":0.0,"pressure":953.7,"uv_index":8.25,"wind_gusts":34.9,"aqi":127,"pm10":130.4,"pm2_5":61.2,"no2":41.8,"co":210.0,"o3":43.0,"so2":17.2,"mosquito_risk":0,"arthritis_risk":5,"migraine_risk":7,"frizz_risk":0,"updated_at":"2026-05-15T01:19:52.993541+05:30"},{"city":"Lucknow","state":"Uttar Pradesh","latitude":26.8467,"longitude":80.9462,"temp":28.9,"humidity":65,"rain":0.0,"pressure":987.2,"uv_index":8.2,"wind_gusts":30.2,"aqi":157,"pm10":180.7,"pm2_5":112.5,"no2":61.0,"co":783.0,"o3":35.0,"so2":28.2,"mosquito_risk":7,"arthritis_risk":5,"migraine_risk":7,"frizz_risk":1,"updated_at":"2026-05-15T01:19:52.993546+05:30"},{"city":"Kanpur","state":"Uttar Pradesh","latitude":26.4499,"longitude":80.3319,"temp":30.3,"humidity":58,"rain":0.0,"pressure":985.0,"uv_index":8.2,"wind_gusts":43.6,"aqi":159,"pm10":183.0,"pm2_5":85.0,"no2":29.4,"co":588.0,"o3":60.0,"so2":15.7,"mosquito_risk":0,"arthritis_risk":5,"migraine_risk":7,"frizz_risk":1,"updated_at":"2026-05-15T01:19:52.993552+05:30"},{"city":"Chandigarh","state":"Chandigarh","latitude":30.7333,"longitude":76.7794,"temp":23.1,"humidity":63,"rain":0.0,"pressure":961.8,"uv_index":7.65,"wind_gusts":27.7,"aqi":95,"pm10":40.5,"pm2_5":33.2,"no2":21.7,"co":539.0,"o3":76.0,"so2":12.5,"mosquito_risk":3,"arthritis_risk":5,"migraine_risk":7,"frizz_risk":0,"updated_at":"2026-05-15T01:19:52.993557+05:30"},{"city":"Srinagar","state":"Jammu and Kashmir","latitude":34.0837,"longitude":74.7973,"temp":12.2,"humidity":92,"rain":0.0,"pressure":839.2,"uv_index":8.0,"wind_gusts":36.0,"aqi":68,"pm10":46.1,"pm2_5":42.6,"no2":36.9,"co":955.0,"o3":31.0,"so2":1.0,"mosquito_risk":3,"arthritis_risk":10,"migraine_risk":7,"frizz_risk":0,"updated_at":"2026-05-15T01:19:52.993562+05:30"},{"city":"Jammu","state":"Jammu and Kashmir","latitude":32.7266,"longitude":74.857,"temp":23.7,"humidity":56,"rain":0.0,"pressure":967.0,"uv_index":8.45,"wind_gusts":27.4,"aqi":75,"pm10":37.7,"pm2_5":33.6,"no2":37.1,"co":602.0,"o3":22.0,"so2":4.4,"mosquito_risk":0,"arthritis_risk":5,"migraine_risk":7,"frizz_risk":0,"updated_at":"2026-05-15T01:19:52.993567+05:30"},{"city":"Amritsar","state":"Punjab","latitude":31.634,"longitude":74.8723,"temp":25.2,"humidity":56,"rain":0.0,"pressure":974.0,"uv_index":8.35,"wind_gusts":40.3,"aqi":114,"pm10":62.4,"pm2_5":44.6,"no2":17.0,"co":577.0,"o3":82.0,"so2":8.2,"mosquito_risk":4,"arthritis_risk":5,"migraine_risk":7,"frizz_risk":0,"updated_at":"2026-05-15T01:19:52.993572+05:30"},{"city":"Ludhiana","state":"Punjab","latitude":30.901,"longitude":75.8573,"temp":27.4,"humidity":37,"rain":0.0,"pressure":972.9,"uv_index":7.2,"wind_gusts":41.4,"aqi":135,"pm10":46.7,"pm2_5":36.8,"no2":15.5,"co":441.0,"o3":77.0,"so2":7.3,"mosquito_risk":4,"arthritis_risk":5,"migraine_risk":7,"frizz_risk":0,"updated_at":"2026-05-15T01:19:52.993576+05:30"},{"city":"Jalandhar","state":"Punjab","latitude":31.326,"longitude":75.5762,"temp":27.1,"humidity":38,"rain":0.0,"pressure":973.4,"uv_index":8.05,"wind_gusts":34.9,"aqi":117,"pm10":64.3,"pm2_5":37.7,"no2":15.2,"co":524.0,"o3":81.0,"so2":7.0,"mosquito_risk":4,"arthritis_risk":5,"migraine_risk":7,"frizz_risk":0,"updated_at":"2026-05-15T01:19:52.993581+05:30"},{"city":"Dehradun","state":"Uttarakhand","latitude":30.6284,"longitude":78.0322,"temp":14.1,"humidity":65,"rain":0.0,"pressure":823.9,"uv_index":7.6,"wind_gusts":44.6,"aqi":79,"pm10":36.9,"pm2_5":26.7,"no2":35.8,"co":324.0,"o3":48.0,"so2":3.3,"mosquito_risk":3,"arthritis_risk":5,"migraine_risk":7,"frizz_risk":0,"updated_at":"2026-05-15T01:19:52.993586+05:30"},{"city":"Shimla","state":"Himachal Pradesh","latitude":31.1048,"longitude":77.1734,"temp":12.2,"humidity":44,"rain":0.0,"pressure":778.7,"uv_index":7.35,"wind_gusts":47.5,"aqi":80,"pm10":37.3,"pm2_5":23.9,"no2":24.8,"co":297.0,"o3":81.0,"so2":5.3,"mosquito_risk":0,"arthritis_risk":5,"migraine_risk":7,"frizz_risk":0,"updated_at":"2026-05-15T01:19:52.993593+05:30"},{"city":"Manali","state":"Himachal Pradesh","latitude":32.2396,"longitude":77.1887,"temp":9.6,"humidity":71,"rain":0.0,"pressure":812.5,"uv_index":9.4,"wind_gusts":42.8,"aqi":44,"pm10":11.1,"pm2_5":7.2,"no2":50.9,"co":264.0,"o3":61.0,"so2":0.0,"mosquito_risk":3,"arthritis_risk":5,"migraine_risk":7,"frizz_risk":0,"updated_at":"2026-05-15T01:19:52.993600+05:30"},{"city":"Gurgaon","state":"Haryana","latitude":28.4595,"longitude":77.0266,"temp":30.8,"humidity":38,"rain":0.0,"pressure":974.9,"uv_index":7.8,"wind_gusts":38.2,"aqi":746,"pm10":442.4,"pm2_5":139.7,"no2":38.5,"co":921.0,"o3":84.0,"so2":37.6,"mosquito_risk":0,"arthritis_risk":5,"migraine_risk":7,"frizz_risk":0,"updated_at":"2026-05-15T01:19:52.993605+05:30"},{"city":"Noida","state":"Uttar Pradesh","latitude":28.5355,"longitude":77.391,"temp":29.0,"humidity":62,"rain":0.0,"pressure":977.7,"uv_index":7.7,"wind_gusts":39.2,"aqi":746,"pm10":442.4,"pm2_5":139.7,"no2":38.5,"co":1047.0,"o3":84.0,"so2":37.6,"mosquito_risk":7,"arthritis_risk":5,"migraine_risk":7,"frizz_risk":1,"updated_at":"2026-05-15T01:19:52.993610+05:30"},{"city":"Ghaziabad","state":"Uttar Pradesh","latitude":28.6692,"longitude":77.4538,"temp":27.2,"humidity":74,"rain":0.0,"pressure":975.9,"uv_index":7.7,"wind_gusts":48.6,"aqi":180,"pm10":148.1,"pm2_5":106.9,"no2":38.0,"co":741.0,"o3":69.0,"so2":25.4,"mosquito_risk":7,"arthritis_risk":5,"migraine_risk":7,"frizz_risk":1,"updated_at":"2026-05-15T01:19:52.993615+05:30"},{"city":"Faridabad","state":"Haryana","latitude":28.4089,"longitude":77.3178,"temp":30.8,"humidity":51,"rain":0.0,"pressure":977.1,"uv_index":7.75,"wind_gusts":42.8,"aqi":746,"pm10":442.4,"pm2_5":139.7,"no2":38.5,"co":788.0,"o3":84.0,"so2":37.6,"mosquito_risk":0,"arthritis_risk":5,"migraine_risk":7,"frizz_risk":1,"updated_at":"2026-05-15T01:19:52.993620+05:30"},{"city":"Meerut","state":"Uttar Pradesh","latitude":28.9845,"longitude":77.7064,"temp":28.8,"humidity":62,"rain":0.0,"pressure":974.8,"uv_index":7.6,"wind_gusts":60.8,"aqi":180,"pm10":148.1,"pm2_5":106.9,"no2":38.0,"co":770.0,"o3":69.0,"so2":25.4,"mosquito_risk":7,"arthritis_risk":5,"migraine_risk":7,"frizz_risk":1,"updated_at":"2026-05-15T01:19:52.993625+05:30"},{"city":"Agra","state":"Uttar Pradesh","latitude":27.1767,"longitude":78.0081,"temp":29.6,"humidity":54,"rain":0.0,"pressure":981.1,"uv_index":8.05,"wind_gusts":31.0,"aqi":381,"pm10":666.8,"pm2_5":143.9,"no2":13.7,"co":589.0,"o3":92.0,"so2":16.8,"mosquito_risk":4,"arthritis_risk":5,"migraine_risk":7,"frizz_risk":1,"updated_at":"2026-05-15T01:19:52.993630+05:30"},{"city":"Varanasi","state":"Uttar Pradesh","latitude":25.3176,"longitude":82.9739,"temp":29.3,"humidity":64,"rain":0.0,"pressure":991.1,"uv_index":8.75,"wind_gusts":29.5,"aqi":137,"pm10":88.0,"pm2_5":70.8,"no2":27.8,"co":633.0,"o3":73.0,"so2":18.5,"mosquito_risk":7,"arthritis_risk":5,"migraine_risk":7,"frizz_risk":1,"updated_at":"2026-05-15T01:19:52.993635+05:30"},{"city":"Prayagraj","state":"Uttar Pradesh","latitude":25.4358,"longitude":81.8463,"temp":30.6,"humidity":56,"rain":0.0,"pressure":989.2,"uv_index":8.6,"wind_gusts":37.8,"aqi":149,"pm10":89.4,"pm2_5":65.2,"no2":28.9,"co":531.0,"o3":62.0,"so2":14.7,"mosquito_risk":0,"arthritis_risk":5,"migraine_risk":7,"frizz_risk":1,"updated_at":"2026-05-15T01:19:52.993641+05:30"},{"city":"Gorakhpur","state":"Uttar Pradesh","latitude":26.7606,"longitude":83.3732,"temp":26.5,"humidity":75,"rain":0.0,"pressure":991.8,"uv_index":8.6,"wind_gusts":30.2,"aqi":119,"pm10":66.4,"pm2_5":56.3,"no2":19.5,"co":513.0,"o3":83.0,"so2":13.0,"mosquito_risk":7,"arthritis_risk":5,"migraine_risk":7,"frizz_risk":1,"updated_at":"2026-05-15T01:19:52.993649+05:30"},{"city":"Bareilly","state":"Uttar Pradesh","latitude":28.367,"longitude":79.4304,"temp":25.7,"humidity":77,"rain":0.0,"pressure":980.1,"uv_index":8.0,"wind_gusts":34.6,"aqi":155,"pm10":127.1,"pm2_5":91.5,"no2":39.2,"co":692.0,"o3":65.0,"so2":21.1,"mosquito_risk":7,"arthritis_risk":5,"migraine_risk":7,"frizz_risk":1,"updated_at":"2026-05-15T01:19:52.993653+05:30"},{"city":"Aligarh","state":"Uttar Pradesh","latitude":27.8974,"longitude":78.088,"temp":28.1,"humidity":71,"rain":0.0,"pressure":978.7,"uv_index":7.85,"wind_gusts":32.0,"aqi":350,"pm10":260.8,"pm2_5":100.8,"no2":18.1,"co":692.0,"o3":93.0,"so2":19.8,"mosquito_risk":7,"arthritis_risk":5,"migraine_risk":7,"frizz_risk":1,"updated_at":"2026-05-15T01:19:52.993658+05:30"},{"city":"Moradabad","state":"Uttar Pradesh","latitude":28.8386,"longitude":78.7733,"temp":26.1,"humidity":78,"rain":0.0,"pressure":976.9,"uv_index":7.8,"wind_gusts":33.8,"aqi":163,"pm10":172.8,"pm2_5":146.2,"no2":73.8,"co":1143.0,"o3":40.0,"so2":33.7,"mosquito_risk":7,"arthritis_risk":5,"migraine_risk":7,"frizz_risk":1,"updated_at":"2026-05-15T01:19:52.993663+05:30"},{"city":"Saharanpur","state":"Uttar Pradesh","latitude":29.9637,"longitude":77.546,"temp":25.0,"humidity":77,"rain":0.0,"pressure":968.8,"uv_index":7.25,"wind_gusts":39.2,"aqi":151,"pm10":126.7,"pm2_5":102.7,"no2":58.9,"co":728.0,"o3":36.0,"so2":23.0,"mosquito_risk":7,"arthritis_risk":5,"migraine_risk":7,"frizz_risk":1,"updated_at":"2026-05-15T01:19:52.993667+05:30"},{"city":"Jhansi","state":"Uttar Pradesh","latitude":25.4484,"longitude":78.5685,"temp":31.4,"humidity":41,"rain":0.0,"pressure":970.6,"uv_index":8.5,"wind_gusts":25.2,"aqi":113,"pm10":99.7,"pm2_5":39.5,"no2":8.7,"co":423.0,"o3":65.0,"so2":6.7,"mosquito_risk":0,"arthritis_risk":5,"migraine_risk":7,"frizz_risk":1,"updated_at":"2026-05-15T01:19:56.328286+05:30"},{"city":"Surat","state":"Gujarat","latitude":21.1702,"longitude":72.8311,"temp":30.4,"humidity":70,"rain":0.0,"pressure":1001.3,"uv_index":7.75,"wind_gusts":42.1,"aqi":86,"pm10":31.1,"pm2_5":26.4,"no2":37.2,"co":371.0,"o3":36.0,"so2":47.5,"mosquito_risk":3,"arthritis_risk":5,"migraine_risk":4,"frizz_risk":1,"updated_at":"2026-05-15T01:19:56.328340+05:30"},{"city":"Vadodara","state":"Gujarat","latitude":22.3072,"longitude":73.1812,"temp":32.5,"humidity":33,"rain":0.0,"pressure":998.9,"uv_index":8.1,"wind_gusts":34.2,"aqi":67,"pm10":17.8,"pm2_5":13.4,"no2":10.1,"co":268.0,"o3":69.0,"so2":9.2,"mosquito_risk":0,"arthritis_risk":5,"migraine_risk":7,"frizz_risk":0,"updated_at":"2026-05-15T01:19:56.328349+05:30"},{"city":"Rajkot","state":"Gujarat","latitude":22.3039,"longitude":70.8022,"temp":27.4,"humidity":84,"rain":0.0,"pressure":990.1,"uv_index":7.75,"wind_gusts":45.4,"aqi":48,"pm10":10.1,"pm2_5":7.4,"no2":7.3,"co":133.0,"o3":43.0,"so2":7.0,"mosquito_risk":7,"arthritis_risk":5,"migraine_risk":7,"frizz_risk":1,"updated_at":"2026-05-15T01:19:56.328356+05:30"},{"city":"Thane","state":"Maharashtra","latitude":19.2183,"longitude":72.9781,"temp":29.6,"humidity":76,"rain":0.0,"pressure":1003.7,"uv_index":7.85,"wind_gusts":42.5,"aqi":74,"pm10":23.6,"pm2_5":14.9,"no2":5.8,"co":256.0,"o3":68.0,"so2":3.9,"mosquito_risk":7,"arthritis_risk":5,"migraine_risk":4,"frizz_risk":1,"updated_at":"2026-05-15T01:19:56.328363+05:30"},{"city":"Nagpur","state":"Maharashtra","latitude":21.1458,"longitude":79.0882,"temp":34.0,"humidity":36,"rain":0.0,"pressure":966.7,"uv_index":9.0,"wind_gusts":41.4,"aqi":114,"pm10":78.2,"pm2_5":58.2,"no2":35.8,"co":319.0,"o3":64.0,"so2":23.5,"mosquito_risk":0,"arthritis_risk":5,"migraine_risk":7,"frizz_risk":1,"updated_at":"2026-05-15T01:19:56.328369+05:30"},{"city":"Nashik","state":"Maharashtra","latitude":19.9975,"longitude":73.7898,"temp":26.8,"humidity":56,"rain":0.0,"pressure":941.7,"uv_index":8.15,"wind_gusts":45.0,"aqi":63,"pm10":17.1,"pm2_5":12.1,"no2":7.4,"co":206.0,"o3":60.0,"so2":2.1,"mosquito_risk":4,"arthritis_risk":5,"migraine_risk":7,"frizz_risk":1,"updated_at":"2026-05-15T01:19:56.328375+05:30"},{"city":"Aurangabad","state":"Maharashtra","latitude":19.8762,"longitude":75.3433,"temp":31.5,"humidity":32,"rain":0.0,"pressure":939.6,"uv_index":8.15,"wind_gusts":40.3,"aqi":77,"pm10":32.9,"pm2_5":21.2,"no2":7.8,"co":207.0,"o3":114.0,"so2":9.8,"mosquito_risk":0,"arthritis_risk":5,"migraine_risk":7,"frizz_risk":0,"updated_at":"2026-05-15T01:19:56.328380+05:30"},{"city":"Solapur","state":"Maharashtra","latitude":17.6599,"longitude":75.9064,"temp":30.5,"humidity":49,"rain":0.0,"pressure":952.8,"uv_index":8.55,"wind_gusts":37.8,"aqi":110,"pm10":50.1,"pm2_5":37.6,"no2":11.2,"co":316.0,"o3":96.0,"so2":6.1,"mosquito_risk":0,"arthritis_risk":5,"migraine_risk":7,"frizz_risk":1,"updated_at":"2026-05-15T01:19:56.328387+05:30"},{"city":"Kolhapur","state":"Maharashtra","latitude":16.705,"longitude":74.2433,"temp":24.9,"humidity":90,"rain":0.0,"pressure":944.1,"uv_index":8.15,"wind_gusts":43.9,"aqi":83,"pm10":26.9,"pm2_5":19.2,"no2":9.3,"co":238.0,"o3":70.0,"so2":5.1,"mosquito_risk":3,"arthritis_risk":5,"migraine_risk":7,"frizz_risk":1,"updated_at":"2026-05-15T01:19:56.328393+05:30"},{"city":"Goa","state":"Goa","latitude":15.2993,"longitude":74.124,"temp":28.9,"humidity":85,"rain":0.0,"pressure":994.1,"uv_index":4.25,"wind_gusts":40.7,"aqi":82,"pm10":29.3,"pm2_5":21.2,"no2":6.3,"co":359.0,"o3":60.0,"so2":2.1,"mosquito_risk":7,"arthritis_risk":5,"migraine_risk":3,"frizz_risk":1,"updated_at":"2026-05-15T01:19:56.328399+05:30"},{"city":"Jodhpur","state":"Rajasthan","latitude":26.2389,"longitude":73.0243,"temp":32.0,"humidity":35,"rain":0.0,"pressure":976.7,"uv_index":8.4,"wind_gusts":37.1,"aqi":115,"pm10":212.8,"pm2_5":48.9,"no2":14.3,"co":428.0,"o3":56.0,"so2":5.4,"mosquito_risk":0,"arthritis_risk":5,"migraine_risk":7,"frizz_risk":0,"updated_at":"2026-05-15T01:19:56.328405+05:30"},{"city":"Udaipur","state":"Rajasthan","latitude":24.5854,"longitude":73.7125,"temp":30.7,"humidity":25,"rain":0.0,"pressure":941.4,"uv_index":8.85,"wind_gusts":38.2,"aqi":75,"pm10":23.1,"pm2_5":11.3,"no2":2.8,"co":140.0,"o3":72.0,"so2":2.3,"mosquito_risk":0,"arthritis_risk":5,"migraine_risk":7,"frizz_risk":0,"updated_at":"2026-05-15T01:19:56.328411+05:30"},{"city":"Kota","state":"Rajasthan","latitude":25.2138,"longitude":75.8648,"temp":34.3,"humidity":24,"rain":0.0,"pressure":972.3,"uv_index":8.45,"wind_gusts":34.6,"aqi":88,"pm10":73.1,"pm2_5":47.3,"no2":26.6,"co":479.0,"o3":51.0,"so2":9.3,"mosquito_risk":0,"arthritis_risk":5,"migraine_risk":7,"frizz_risk":0,"updated_at":"2026-05-15T01:19:56.328417+05:30"},{"city":"Bikaner","state":"Rajasthan","latitude":28.0229,"longitude":73.3119,"temp":28.2,"humidity":64,"rain":0.0,"pressure":974.8,"uv_index":8.35,"wind_gusts":58.0,"aqi":88,"pm10":88.0,"pm2_5":36.8,"no2":3.1,"co":295.0,"o3":83.0,"so2":3.8,"mosquito_risk":7,"arthritis_risk":5,"migraine_risk":7,"frizz_risk":1,"updated_at":"2026-05-15T01:19:56.328424+05:30"},{"city":"Ajmer","state":"Rajasthan","latitude":26.4499,"longitude":74.6399,"temp":29.5,"humidity":38,"rain":0.0,"pressure":948.6,"uv_index":7.6,"wind_gusts":49.3,"aqi":85,"pm10":99.9,"pm2_5":37.3,"no2":14.4,"co":200.0,"o3":55.0,"so2":6.2,"mosquito_risk":4,"arthritis_risk":5,"migraine_risk":7,"frizz_risk":0,"updated_at":"2026-05-15T01:19:56.328430+05:30"},{"city":"Gwalior","state":"Madhya Pradesh","latitude":26.2183,"longitude":78.1828,"temp":31.3,"humidity":38,"rain":0.0,"pressure":975.8,"uv_index":8.25,"wind_gusts":43.6,"aqi":138,"pm10":141.6,"pm2_5":50.6,"no2":11.2,"co":429.0,"o3":61.0,"so2":7.8,"mosquito_risk":0,"arthritis_risk":5,"migraine_risk":7,"frizz_risk":0,"updated_at":"2026-05-15T01:19:56.328436+05:30"},{"city":"Indore","state":"Madhya Pradesh","latitude":22.7196,"longitude":75.8577,"temp":32.7,"humidity":25,"rain":0.0,"pressure":943.0,"uv_index":8.7,"wind_gusts":43.6,"aqi":80,"pm10":42.6,"pm2_5":23.8,"no2":5.1,"co":304.0,"o3":92.0,"so2":5.7,"mosquito_risk":0,"arthritis_risk":5,"migraine_risk":7,"frizz_risk":0,"updated_at":"2026-05-15T01:19:56.328442+05:30"},{"city":"Bhopal","state":"Madhya Pradesh","latitude":23.2599,"longitude":77.4126,"temp":33.5,"humidity":25,"rain":0.0,"pressure":947.6,"uv_index":8.7,"wind_gusts":38.9,"aqi":81,"pm10":49.7,"pm2_5":37.6,"no2":12.4,"co":389.0,"o3":57.0,"so2":6.4,"mosquito_risk":0,"arthritis_risk":5,"migraine_risk":7,"frizz_risk":0,"updated_at":"2026-05-15T01:19:56.328447+05:30"},{"city":"Jabalpur","state":"Madhya Pradesh","latitude":23.1815,"longitude":79.9864,"temp":32.0,"humidity":42,"rain":0.0,"pressure":955.1,"uv_index":8.9,"wind_gusts":35.6,"aqi":98,"pm10":55.2,"pm2_5":33.1,"no2":24.5,"co":304.0,"o3":57.0,"so2":8.1,"mosquito_risk":0,"arthritis_risk":5,"migraine_risk":7,"frizz_risk":1,"updated_at":"2026-05-15T01:19:56.328452+05:30"},{"city":"Ujjain","state":"Madhya Pradesh","latitude":23.1765,"longitude":75.7885,"temp":32.0,"humidity":29,"rain":0.0,"pressure":948.2,"uv_index":8.65,"wind_gusts":41.8,"aqi":79,"pm10":43.0,"pm2_5":23.3,"no2":4.3,"co":278.0,"o3":88.0,"so2":5.2,"mosquito_risk":0,"arthritis_risk":5,"migraine_risk":7,"frizz_risk":0,"updated_at":"2026-05-15T01:19:56.328458+05:30"},{"city":"Visakhapatnam","state":"Andhra Pradesh","latitude":17.6868,"longitude":83.2185,"temp":28.0,"humidity":85,"rain":0.0,"pressure":999.6,"uv_index":8.7,"wind_gusts":36.7,"aqi":67,"pm10":21.5,"pm2_5":18.2,"no2":26.5,"co":443.0,"o3":27.0,"so2":66.4,"mosquito_risk":7,"arthritis_risk":5,"migraine_risk":7,"frizz_risk":1,"updated_at":"2026-05-15T01:19:56.328464+05:30"},{"city":"Vijayawada","state":"Andhra Pradesh","latitude":16.5062,"longitude":80.648,"temp":28.4,"humidity":85,"rain":0.0,"pressure":998.0,"uv_index":8.55,"wind_gusts":44.3,"aqi":55,"pm10":12.0,"pm2_5":9.6,"no2":8.0,"co":180.0,"o3":35.0,"so2":6.5,"mosquito_risk":7,"arthritis_risk":5,"migraine_risk":7,"frizz_risk":1,"updated_at":"2026-05-15T01:19:56.328470+05:30"},{"city":"Guntur","state":"Andhra Pradesh","latitude":16.3067,"longitude":80.4365,"temp":28.5,"humidity":83,"rain":0.0,"pressure":999.1,"uv_index":8.65,"wind_gusts":39.2,"aqi":55,"pm10":13.0,"pm2_5":9.9,"no2":7.7,"co":174.0,"o3":34.0,"so2":6.1,"mosquito_risk":7,"arthritis_risk":5,"migraine_risk":7,"frizz_risk":1,"updated_at":"2026-05-15T01:19:56.328476+05:30"},{"city":"Nellore","state":"Andhra Pradesh","latitude":14.4426,"longitude":79.9865,"temp":28.0,"humidity":89,"rain":0.0,"pressure":1000.9,"uv_index":8.55,"wind_gusts":38.9,"aqi":32,"pm10":11.2,"pm2_5":7.1,"no2":4.6,"co":194.0,"o3":37.0,"so2":2.7,"mosquito_risk":7,"arthritis_risk":5,"migraine_risk":4,"frizz_risk":1,"updated_at":"2026-05-15T01:19:56.328482+05:30"},{"city":"Kurnool","state":"Andhra Pradesh","latitude":15.8281,"longitude":78.0373,"temp":32.2,"humidity":48,"rain":0.0,"pressure":972.2,"uv_index":6.6,"wind_gusts":37.8,"aqi":75,"pm10":25.1,"pm2_5":18.2,"no2":4.9,"co":223.0,"o3":84.0,"so2":4.6,"mosquito_risk":0,"arthritis_risk":5,"migraine_risk":7,"frizz_risk":1,"updated_at":"2026-05-15T01:19:56.328488+05:30"},{"city":"Kakinada","state":"Andhra Pradesh","latitude":16.9891,"longitude":82.2475,"temp":28.8,"humidity":80,"rain":0.0,"pressure":1003.3,"uv_index":8.45,"wind_gusts":38.5,"aqi":30,"pm10":9.3,"pm2_5":5.5,"no2":1.3,"co":158.0,"o3":53.0,"so2":0.9,"mosquito_risk":7,"arthritis_risk":5,"migraine_risk":4,"frizz_risk":1,"updated_at":"2026-05-15T01:19:56.328493+05:30"},{"city":"Tirupati","state":"Andhra Pradesh","latitude":13.6288,"longitude":79.4192,"temp":27.5,"humidity":82,"rain":0.0,"pressure":986.3,"uv_index":9.25,"wind_gusts":34.2,"aqi":59,"pm10":28.1,"pm2_5":22.8,"no2":28.1,"co":319.0,"o3":6.0,"so2":4.6,"mosquito_risk":7,"arthritis_risk":5,"migraine_risk":7,"frizz_risk":1,"updated_at":"2026-05-15T01:19:56.328498+05:30"},{"city":"Warangal","state":"Telangana","latitude":17.9689,"longitude":79.5941,"temp":29.1,"humidity":70,"rain":0.0,"pressure":974.0,"uv_index":8.9,"wind_gusts":33.8,"aqi":81,"pm10":27.5,"pm2_5":24.2,"no2":10.4,"co":291.0,"o3":87.0,"so2":13.1,"mosquito_risk":7,"arthritis_risk":5,"migraine_risk":7,"frizz_risk":1,"updated_at":"2026-05-15T01:19:56.328503+05:30"},{"city":"Nizamabad","state":"Telangana","latitude":18.6725,"longitude":78.0941,"temp":31.8,"humidity":49,"rain":0.0,"pressure":959.6,"uv_index":9.0,"wind_gusts":34.2,"aqi":127,"pm10":77.5,"pm2_5":56.9,"no2":18.4,"co":336.0,"o3":74.0,"so2":6.7,"mosquito_risk":0,"arthritis_risk":5,"migraine_risk":7,"frizz_risk":1,"updated_at":"2026-05-15T01:19:56.328508+05:30"},{"city":"Mysore","state":"Karnataka","latitude":12.2958,"longitude":76.6396,"temp":23.4,"humidity":94,"rain":0.0,"pressure":924.5,"uv_index":9.1,"wind_gusts":31.3,"aqi":86,"pm10":29.8,"pm2_5":23.2,"no2":13.8,"co":287.0,"o3":72.0,"so2":3.3,"mosquito_risk":3,"arthritis_risk":5,"migraine_risk":7,"frizz_risk":1,"updated_at":"2026-05-15T01:19:56.328513+05:30"},{"city":"Mangalore","state":"Karnataka","latitude":12.9141,"longitude":74.856,"temp":26.6,"humidity":97,"rain":0.0,"pressure":1002.9,"uv_index":8.75,"wind_gusts":51.1,"aqi":79,"pm10":37.6,"pm2_5":25.2,"no2":11.5,"co":306.0,"o3":61.0,"so2":4.0,"mosquito_risk":7,"arthritis_risk":5,"migraine_risk":4,"frizz_risk":1,"updated_at":"2026-05-15T01:19:56.328518+05:30"},{"city":"Hubli-Dharwad","state":"Karnataka","latitude":15.3647,"longitude":75.124,"temp":25.1,"humidity":96,"rain":0.0,"pressure":937.5,"uv_index":8.05,"wind_gusts":52.2,"aqi":79,"pm10":21.0,"pm2_5":15.4,"no2":12.1,"co":233.0,"o3":48.0,"so2":2.7,"mosquito_risk":7,"arthritis_risk":5,"migraine_risk":7,"frizz_risk":1,"updated_at":"2026-05-15T01:19:56.328524+05:30"},{"city":"Belgaum","state":"Karnataka","latitude":15.8497,"longitude":74.4977,"temp":23.9,"humidity":95,"rain":0.0,"pressure":922.6,"uv_index":8.25,"wind_gusts":39.2,"aqi":85,"pm10":25.8,"pm2_5":18.9,"no2":13.3,"co":249.0,"o3":47.0,"so2":3.0,"mosquito_risk":3,"arthritis_risk":5,"migraine_risk":7,"frizz_risk":1,"updated_at":"2026-05-15T01:19:59.651778+05:30"},{"city":"Coimbatore","state":"Tamil Nadu","latitude":11.0168,"longitude":76.9558,"temp":24.0,"humidity":89,"rain":0.0,"pressure":957.0,"uv_index":8.6,"wind_gusts":42.5,"aqi":73,"pm10":20.0,"pm2_5":14.1,"no2":8.7,"co":239.0,"o3":73.0,"so2":3.3,"mosquito_risk":3,"arthritis_risk":5,"migraine_risk":7,"frizz_risk":1,"updated_at":"2026-05-15T01:19:59.651809+05:30"},{"city":"Madurai","state":"Tamil Nadu","latitude":9.9252,"longitude":78.1198,"temp":28.0,"humidity":87,"rain":0.1,"pressure":987.9,"uv_index":7.7,"wind_gusts":43.9,"aqi":94,"pm10":34.1,"pm2_5":28.9,"no2":29.7,"co":834.0,"o3":42.0,"so2":6.8,"mosquito_risk":10,"arthritis_risk":5,"migraine_risk":7,"frizz_risk":1,"updated_at":"2026-05-15T01:19:59.651818+05:30"},{"city":"Trichy","state":"Tamil Nadu","latitude":10.7905,"longitude":78.7047,"temp":27.9,"humidity":86,"rain":0.0,"pressure":994.4,"uv_index":4.4,"wind_gusts":28.1,"aqi":90,"pm10":27.6,"pm2_5":24.0,"no2":17.6,"co":298.0,"o3":65.0,"so2":5.1,"mosquito_risk":7,"arthritis_risk":5,"migraine_risk":3,"frizz_risk":1,"updated_at":"2026-05-15T01:19:59.651826+05:30"},{"city":"Salem","state":"Tamil Nadu","latitude":11.6643,"longitude":78.146,"temp":27.4,"humidity":83,"rain":0.0,"pressure":972.6,"uv_index":9.15,"wind_gusts":29.2,"aqi":111,"pm10":53.3,"pm2_5":43.2,"no2":28.9,"co":389.0,"o3":62.0,"so2":12.7,"mosquito_risk":7,"arthritis_risk":5,"migraine_risk":7,"frizz_risk":1,"updated_at":"2026-05-15T01:19:59.651832+05:30"},{"city":"Tirunelveli","state":"Tamil Nadu","latitude":8.7139,"longitude":77.7567,"temp":29.2,"humidity":68,"rain":0.0,"pressure":998.3,"uv_index":1.6,"wind_gusts":24.1,"aqi":54,"pm10":11.7,"pm2_5":9.3,"no2":7.1,"co":226.0,"o3":62.0,"so2":2.6,"mosquito_risk":7,"arthritis_risk":5,"migraine_risk":3,"frizz_risk":1,"updated_at":"2026-05-15T01:19:59.651838+05:30"},{"city":"Vellore","state":"Tamil Nadu","latitude":12.9165,"longitude":79.1325,"temp":26.6,"humidity":89,"rain":0.0,"pressure":979.4,"uv_index":9.25,"wind_gusts":31.0,"aqi":77,"pm10":39.9,"pm2_5":35.2,"no2":29.5,"co":297.0,"o3":16.0,"so2":10.1,"mosquito_risk":7,"arthritis_risk":5,"migraine_risk":7,"frizz_risk":1,"updated_at":"2026-05-15T01:19:59.651844+05:30"},{"city":"Erode","state":"Tamil Nadu","latitude":11.341,"longitude":77.7172,"temp":26.4,"humidity":81,"rain":0.0,"pressure":984.3,"uv_index":8.85,"wind_gusts":27.4,"aqi":86,"pm10":22.2,"pm2_5":16.8,"no2":18.2,"co":246.0,"o3":58.0,"so2":3.0,"mosquito_risk":7,"arthritis_risk":5,"migraine_risk":7,"frizz_risk":1,"updated_at":"2026-05-15T01:19:59.651850+05:30"},{"city":"Kochi","state":"Kerala","latitude":9.9312,"longitude":76.2673,"temp":26.1,"humidity":94,"rain":0.0,"pressure":1004.9,"uv_index":8.65,"wind_gusts":37.8,"aqi":71,"pm10":20.0,"pm2_5":16.5,"no2":20.3,"co":353.0,"o3":37.0,"so2":7.0,"mosquito_risk":7,"arthritis_risk":5,"migraine_risk":4,"frizz_risk":1,"updated_at":"2026-05-15T01:19:59.651856+05:30"},{"city":"Thiruvananthapuram","state":"Kerala","latitude":8.5241,"longitude":76.9366,"temp":25.5,"humidity":91,"rain":0.0,"pressure":1004.1,"uv_index":1.45,"wind_gusts":29.9,"aqi":55,"pm10":28.1,"pm2_5":15.0,"no2":2.3,"co":319.0,"o3":85.0,"so2":1.3,"mosquito_risk":7,"arthritis_risk":5,"migraine_risk":0,"frizz_risk":1,"updated_at":"2026-05-15T01:19:59.651862+05:30"},{"city":"Kozhikode","state":"Kerala","latitude":11.2588,"longitude":75.7804,"temp":24.8,"humidity":98,"rain":0.0,"pressure":1004.4,"uv_index":8.75,"wind_gusts":43.6,"aqi":73,"pm10":19.7,"pm2_5":9.6,"no2":2.1,"co":226.0,"o3":91.0,"so2":1.5,"mosquito_risk":3,"arthritis_risk":5,"migraine_risk":4,"frizz_risk":1,"updated_at":"2026-05-15T01:19:59.651867+05:30"},{"city":"Thrissur","state":"Kerala","latitude":10.5276,"longitude":76.2144,"temp":25.0,"humidity":100,"rain":0.0,"pressure":1003.5,"uv_index":8.6,"wind_gusts":32.8,"aqi":75,"pm10":19.3,"pm2_5":16.0,"no2":15.8,"co":369.0,"o3":44.0,"so2":6.0,"mosquito_risk":7,"arthritis_risk":5,"migraine_risk":4,"frizz_risk":1,"updated_at":"2026-05-15T01:19:59.651874+05:30"},{"city":"Kannur","state":"Kerala","latitude":11.8745,"longitude":75.3704,"temp":25.1,"humidity":96,"rain":0.0,"pressure":1003.7,"uv_index":8.85,"wind_gusts":51.5,"aqi":87,"pm10":18.9,"pm2_5":12.2,"no2":9.5,"co":324.0,"o3":67.0,"so2":3.1,"mosquito_risk":7,"arthritis_risk":5,"migraine_risk":4,"frizz_risk":1,"updated_at":"2026-05-15T01:19:59.651879+05:30"},{"city":"Patna","state":"Bihar","latitude":25.5941,"longitude":85.1376,"temp":26.7,"humidity":81,"rain":0.0,"pressure":994.9,"uv_index":8.8,"wind_gusts":28.8,"aqi":112,"pm10":60.5,"pm2_5":47.4,"no2":18.0,"co":564.0,"o3":87.0,"so2":17.8,"mosquito_risk":7,"arthritis_risk":5,"migraine_risk":7,"frizz_risk":1,"updated_at":"2026-05-15T01:19:59.651885+05:30"},{"city":"Gaya","state":"Bihar","latitude":24.7914,"longitude":85.0002,"temp":27.1,"humidity":71,"rain":0.0,"pressure":987.6,"uv_index":8.9,"wind_gusts":23.0,"aqi":136,"pm10":61.9,"pm2_5":51.9,"no2":14.5,"co":483.0,"o3":101.0,"so2":17.7,"mosquito_risk":7,"arthritis_risk":5,"migraine_risk":7,"frizz_risk":1,"updated_at":"2026-05-15T01:19:59.651890+05:30"},{"city":"Muzaffarpur","state":"Bihar","latitude":26.1209,"longitude":85.3647,"temp":25.8,"humidity":82,"rain":0.0,"pressure":995.3,"uv_index":8.8,"wind_gusts":32.4,"aqi":116,"pm10":70.3,"pm2_5":55.8,"no2":22.0,"co":531.0,"o3":75.0,"so2":16.6,"mosquito_risk":7,"arthritis_risk":5,"migraine_risk":7,"frizz_risk":1,"updated_at":"2026-05-15T01:19:59.651895+05:30"},{"city":"Bhagalpur","state":"Bihar","latitude":25.2425,"longitude":87.0117,"temp":26.0,"humidity":83,"rain":0.0,"pressure":996.2,"uv_index":8.8,"wind_gusts":32.8,"aqi":106,"pm10":48.3,"pm2_5":38.8,"no2":15.6,"co":434.0,"o3":90.0,"so2":16.6,"mosquito_risk":7,"arthritis_risk":5,"migraine_risk":7,"frizz_risk":1,"updated_at":"2026-05-15T01:19:59.651900+05:30"},{"city":"Ranchi","state":"Jharkhand","latitude":23.3441,"longitude":85.3096,"temp":24.6,"humidity":75,"rain":0.0,"pressure":932.4,"uv_index":9.3,"wind_gusts":38.2,"aqi":95,"pm10":69.8,"pm2_5":48.8,"no2":36.8,"co":276.0,"o3":58.0,"so2":18.7,"mosquito_risk":3,"arthritis_risk":5,"migraine_risk":7,"frizz_risk":1,"updated_at":"2026-05-15T01:19:59.651905+05:30"},{"city":"Jamshedpur","state":"Jharkhand","latitude":22.8046,"longitude":86.2029,"temp":27.5,"humidity":82,"rain":0.0,"pressure":985.5,"uv_index":9.15,"wind_gusts":43.2,"aqi":85,"pm10":22.4,"pm2_5":18.3,"no2":16.8,"co":351.0,"o3":37.0,"so2":22.1,"mosquito_risk":7,"arthritis_risk":5,"migraine_risk":7,"frizz_risk":1,"updated_at":"2026-05-15T01:19:59.651911+05:30"},{"city":"Dhanbad","state":"Jharkhand","latitude":23.7957,"longitude":86.4304,"temp":26.6,"humidity":90,"rain":0.0,"pressure":974.1,"uv_index":9.05,"wind_gusts":32.4,"aqi":151,"pm10":29.6,"pm2_5":25.9,"no2":33.5,"co":502.0,"o3":32.0,"so2":73.7,"mosquito_risk":7,"arthritis_risk":5,"migraine_risk":7,"frizz_risk":1,"updated_at":"2026-05-15T01:19:59.651916+05:30"},{"city":"Bokaro","state":"Jharkhand","latitude":23.6693,"longitude":86.1511,"temp":27.4,"humidity":82,"rain":0.0,"pressure":977.7,"uv_index":9.1,"wind_gusts":33.5,"aqi":150,"pm10":57.5,"pm2_5":48.4,"no2":40.1,"co":1407.0,"o3":48.0,"so2":86.9,"mosquito_risk":7,"arthritis_risk":5,"migraine_risk":7,"frizz_risk":1,"updated_at":"2026-05-15T01:19:59.651922+05:30"},{"city":"Bhubaneswar","state":"Odisha","latitude":20.2961,"longitude":85.8245,"temp":28.3,"humidity":83,"rain":0.0,"pressure":998.1,"uv_index":9.2,"wind_gusts":41.8,"aqi":36,"pm10":7.6,"pm2_5":5.6,"no2":4.3,"co":146.0,"o3":42.0,"so2":2.0,"mosquito_risk":7,"arthritis_risk":5,"migraine_risk":7,"frizz_risk":1,"updated_at":"2026-05-15T01:19:59.651927+05:30"},{"city":"Cuttack","state":"Odisha","latitude":20.4625,"longitude":85.8828,"temp":28.2,"humidity":84,"rain":0.0,"pressure":999.9,"uv_index":9.25,"wind_gusts":40.7,"aqi":36,"pm10":7.6,"pm2_5":5.6,"no2":4.3,"co":163.0,"o3":42.0,"so2":2.0,"mosquito_risk":7,"arthritis_risk":5,"migraine_risk":7,"frizz_risk":1,"updated_at":"2026-05-15T01:19:59.651932+05:30"},{"city":"Rourkela","state":"Odisha","latitude":22.2604,"longitude":84.8536,"temp":27.3,"humidity":81,"rain":0.0,"pressure":979.2,"uv_index":9.05,"wind_gusts":44.6,"aqi":105,"pm10":30.6,"pm2_5":23.7,"no2":13.8,"co":189.0,"o3":80.0,"so2":24.8,"mosquito_risk":7,"arthritis_risk":5,"migraine_risk":7,"frizz_risk":1,"updated_at":"2026-05-15T01:19:59.651936+05:30"},{"city":"Raipur","state":"Chhattisgarh","latitude":21.2514,"longitude":81.6296,"temp":31.2,"humidity":41,"rain":0.0,"pressure":968.2,"uv_index":9.05,"wind_gusts":37.8,"aqi":146,"pm10":96.4,"pm2_5":69.4,"no2":46.6,"co":423.0,"o3":43.0,"so2":41.9,"mosquito_risk":0,"arthritis_risk":5,"migraine_risk":7,"frizz_risk":1,"updated_at":"2026-05-15T01:19:59.651941+05:30"},{"city":"Bhilai","state":"Chhattisgarh","latitude":21.1938,"longitude":81.3509,"temp":31.4,"humidity":43,"rain":0.0,"pressure":968.4,"uv_index":9.05,"wind_gusts":43.2,"aqi":132,"pm10":82.2,"pm2_5":58.3,"no2":42.4,"co":447.0,"o3":53.0,"so2":47.9,"mosquito_risk":0,"arthritis_risk":5,"migraine_risk":7,"frizz_risk":1,"updated_at":"2026-05-15T01:19:59.651946+05:30"},{"city":"Guwahati","state":"Assam","latitude":26.1158,"longitude":91.7086,"temp":22.4,"humidity":99,"rain":0.0,"pressure":998.0,"uv_index":8.7,"wind_gusts":23.8,"aqi":55,"pm10":17.1,"pm2_5":13.5,"no2":8.5,"co":368.0,"o3":70.0,"so2":2.5,"mosquito_risk":3,"arthritis_risk":5,"migraine_risk":7,"frizz_risk":1,"updated_at":"2026-05-15T01:19:59.651951+05:30"},{"city":"Agartala","state":"Tripura","latitude":23.8315,"longitude":91.2868,"temp":24.8,"humidity":96,"rain":0.0,"pressure":1001.9,"uv_index":8.8,"wind_gusts":35.3,"aqi":55,"pm10":9.3,"pm2_5":8.6,"no2":12.4,"co":142.0,"o3":15.0,"so2":2.0,"mosquito_risk":3,"arthritis_risk":5,"migraine_risk":4,"frizz_risk":1,"updated_at":"2026-05-15T01:19:59.651956+05:30"},{"city":"Shillong","state":"Meghalaya","latitude":25.5788,"longitude":91.8933,"temp":16.8,"humidity":95,"rain":0.0,"pressure":852.6,"uv_index":8.95,"wind_gusts":27.4,"aqi":43,"pm10":6.4,"pm2_5":4.8,"no2":6.0,"co":245.0,"o3":85.0,"so2":3.2,"mosquito_risk":3,"arthritis_risk":10,"migraine_risk":7,"frizz_risk":0,"updated_at":"2026-05-15T01:19:59.651961+05:30"},{"city":"Imphal","state":"Manipur","latitude":24.817,"longitude":93.9368,"temp":21.4,"humidity":89,"rain":0.0,"pressure":919.5,"uv_index":9.2,"wind_gusts":29.2,"aqi":83,"pm10":23.5,"pm2_5":20.5,"no2":22.5,"co":522.0,"o3":35.0,"so2":4.0,"mosquito_risk":3,"arthritis_risk":5,"migraine_risk":7,"frizz_risk":1,"updated_at":"2026-05-15T01:19:59.651967+05:30"},{"city":"Aizawl","state":"Mizoram","latitude":23.7271,"longitude":92.7176,"temp":18.0,"humidity":91,"rain":0.0,"pressure":888.6,"uv_index":8.95,"wind_gusts":37.1,"aqi":40,"pm10":5.0,"pm2_5":3.9,"no2":4.3,"co":146.0,"o3":52.0,"so2":1.7,"mosquito_risk":3,"arthritis_risk":10,"migraine_risk":7,"frizz_risk":1,"updated_at":"2026-05-15T01:19:59.651973+05:30"},{"city":"Kohima","state":"Nagaland","latitude":25.6701,"longitude":94.1077,"temp":15.9,"humidity":91,"rain":0.0,"pressure":850.3,"uv_index":8.5,"wind_gusts":24.8,"aqi":58,"pm10":17.8,"pm2_5":13.4,"no2":13.4,"co":280.0,"o3":40.0,"so2":1.8,"mosquito_risk":3,"arthritis_risk":10,"migraine_risk":7,"frizz_risk":0,"updated_at":"2026-05-15T01:19:59.651978+05:30"},{"city":"Gangtok","state":"Sikkim","latitude":27.3314,"longitude":88.6138,"temp":13.7,"humidity":98,"rain":0.6,"pressure":832.8,"uv_index":9.1,"wind_gusts":42.1,"aqi":51,"pm10":19.3,"pm2_5":17.8,"no2":12.7,"co":363.0,"o3":90.0,"so2":2.8,"mosquito_risk":6,"arthritis_risk":10,"migraine_risk":7,"frizz_risk":0,"updated_at":"2026-05-15T01:19:59.651983+05:30"},{"city":"Siliguri","state":"West Bengal","latitude":26.7271,"longitude":88.3953,"temp":22.1,"humidity":93,"rain":0.0,"pressure":989.2,"uv_index":8.65,"wind_gusts":22.3,"aqi":88,"pm10":31.3,"pm2_5":27.8,"no2":13.7,"co":403.0,"o3":98.0,"so2":4.7,"mosquito_risk":3,"arthritis_risk":5,"migraine_risk":7,"frizz_risk":1,"updated_at":"2026-05-15T01:20:21.573448+05:30"},{"city":"Durgapur","state":"West Bengal","latitude":23.5204,"longitude":87.3119,"temp":27.2,"humidity":89,"rain":0.0,"pressure":989.7,"uv_index":9.0,"wind_gusts":30.2,"aqi":134,"pm10":17.6,"pm2_5":14.9,"no2":16.3,"co":221.0,"o3":28.0,"so2":21.8,"mosquito_risk":7,"arthritis_risk":5,"migraine_risk":7,"frizz_risk":1,"updated_at":"2026-05-15T01:20:21.573479+05:30"},{"city":"Asansol","state":"West Bengal","latitude":23.6739,"longitude":86.9524,"temp":27.2,"humidity":87,"rain":0.0,"pressure":988.0,"uv_index":9.05,"wind_gusts":37.8,"aqi":133,"pm10":15.0,"pm2_5":12.6,"no2":15.6,"co":262.0,"o3":34.0,"so2":20.4,"mosquito_risk":7,"arthritis_risk":5,"migraine_risk":7,"frizz_risk":1,"updated_at":"2026-05-15T01:20:21.573488+05:30"},{"city":"Pondicherry","state":"Puducherry","latitude":11.9139,"longitude":79.8145,"temp":27.5,"humidity":89,"rain":0.0,"pressure":1002.9,"uv_index":9.1,"wind_gusts":30.2,"aqi":51,"pm10":14.1,"pm2_5":10.1,"no2":7.0,"co":564.0,"o3":45.0,"so2":3.8,"mosquito_risk":7,"arthritis_risk":5,"migraine_risk":4,"frizz_risk":1,"updated_at":"2026-05-15T01:20:21.573496+05:30"},{"city":"Port Blair","state":"Andaman and Nicobar Islands","latitude":11.6234,"longitude":92.7265,"temp":25.0,"humidity":97,"rain":0.3,"pressure":1003.8,"uv_index":3.25,"wind_gusts":42.1,"aqi":26,"pm10":5.1,"pm2_5":3.2,"no2":0.3,"co":117.0,"o3":58.0,"so2":0.1,"mosquito_risk":10,"arthritis_risk":5,"migraine_risk":0,"frizz_risk":1,"updated_at":"2026-05-15T01:20:21.573502+05:30"},{"city":"Haridwar","state":"Uttarakhand","latitude":29.9457,"longitude":78.1642,"temp":23.1,"humidity":74,"rain":0.0,"pressure":967.1,"uv_index":7.5,"wind_gusts":39.2,"aqi":109,"pm10":80.8,"pm2_5":63.1,"no2":31.4,"co":470.0,"o3":64.0,"so2":13.6,"mosquito_risk":3,"arthritis_risk":5,"migraine_risk":7,"frizz_risk":1,"updated_at":"2026-05-15T01:20:21.573509+05:30"},{"city":"Rishikesh","state":"Uttarakhand","latitude":30.0869,"longitude":78.2676,"temp":20.3,"humidity":83,"rain":0.0,"pressure":959.7,"uv_index":7.6,"wind_gusts":36.4,"aqi":125,"pm10":58.3,"pm2_5":43.9,"no2":17.4,"co":509.0,"o3":104.0,"so2":9.5,"mosquito_risk":3,"arthritis_risk":5,"migraine_risk":7,"frizz_risk":1,"updated_at":"2026-05-15T01:20:21.573514+05:30"},{"city":"Nainital","state":"Uttarakhand","latitude":29.3919,"longitude":79.4542,"temp":13.3,"humidity":87,"rain":0.0,"pressure":799.6,"uv_index":8.45,"wind_gusts":44.6,"aqi":116,"pm10":59.8,"pm2_5":48.2,"no2":19.2,"co":420.0,"o3":102.0,"so2":11.0,"mosquito_risk":3,"arthritis_risk":10,"migraine_risk":7,"frizz_risk":0,"updated_at":"2026-05-15T01:20:21.573521+05:30"},{"city":"Mussoorie","state":"Uttarakhand","latitude":30.4599,"longitude":78.0664,"temp":16.4,"humidity":46,"rain":0.0,"pressure":798.8,"uv_index":7.95,"wind_gusts":58.0,"aqi":118,"pm10":73.8,"pm2_5":54.7,"no2":40.7,"co":276.0,"o3":67.0,"so2":13.0,"mosquito_risk":0,"arthritis_risk":5,"migraine_risk":7,"frizz_risk":0,"updated_at":"2026-05-15T01:20:21.573526+05:30"},{"city":"Dharamshala","state":"Himachal Pradesh","latitude":32.219,"longitude":76.3234,"temp":21.2,"humidity":38,"rain":0.0,"pressure":865.2,"uv_index":8.35,"wind_gusts":41.4,"aqi":41,"pm10":17.2,"pm2_5":12.7,"no2":16.1,"co":219.0,"o3":37.0,"so2":0.3,"mosquito_risk":0,"arthritis_risk":5,"migraine_risk":7,"frizz_risk":0,"updated_at":"2026-05-15T01:20:21.573532+05:30"},{"city":"Dalhousie","state":"Himachal Pradesh","latitude":32.5387,"longitude":75.971,"temp":12.7,"humidity":65,"rain":0.0,"pressure":799.0,"uv_index":8.6,"wind_gusts":46.4,"aqi":63,"pm10":31.1,"pm2_5":25.9,"no2":47.8,"co":395.0,"o3":18.0,"so2":2.2,"mosquito_risk":3,"arthritis_risk":5,"migraine_risk":7,"frizz_risk":0,"updated_at":"2026-05-15T01:20:21.573539+05:30"},{"city":"Patiala","state":"Punjab","latitude":30.3398,"longitude":76.3869,"temp":27.3,"humidity":46,"rain":0.0,"pressure":971.9,"uv_index":7.0,"wind_gusts":36.7,"aqi":155,"pm10":292.4,"pm2_5":68.0,"no2":14.4,"co":345.0,"o3":78.0,"so2":10.1,"mosquito_risk":4,"arthritis_risk":5,"migraine_risk":7,"frizz_risk":0,"updated_at":"2026-05-15T01:20:21.573545+05:30"},{"city":"Bhatinda","state":"Punjab","latitude":30.211,"longitude":74.9455,"temp":29.1,"humidity":35,"rain":0.0,"pressure":978.1,"uv_index":7.95,"wind_gusts":55.8,"aqi":162,"pm10":105.2,"pm2_5":46.7,"no2":12.4,"co":365.0,"o3":84.0,"so2":7.0,"mosquito_risk":4,"arthritis_risk":5,"migraine_risk":7,"frizz_risk":0,"updated_at":"2026-05-15T01:20:21.573550+05:30"},{"city":"Rohtak","state":"Haryana","latitude":28.8955,"longitude":76.6066,"temp":28.1,"humidity":56,"rain":0.0,"pressure":975.0,"uv_index":7.7,"wind_gusts":33.1,"aqi":254,"pm10":246.8,"pm2_5":109.4,"no2":38.5,"co":296.0,"o3":81.0,"so2":34.7,"mosquito_risk":4,"arthritis_risk":5,"migraine_risk":7,"frizz_risk":1,"updated_at":"2026-05-15T01:20:21.573556+05:30"},{"city":"Panipat","state":"Haryana","latitude":29.3909,"longitude":76.9635,"temp":27.0,"humidity":64,"rain":0.0,"pressure":973.7,"uv_index":7.55,"wind_gusts":28.8,"aqi":230,"pm10":233.3,"pm2_5":111.1,"no2":35.1,"co":345.0,"o3":63.0,"so2":19.0,"mosquito_risk":7,"arthritis_risk":5,"migraine_risk":7,"frizz_risk":1,"updated_at":"2026-05-15T01:20:21.573561+05:30"},{"city":"Mathura","state":"Uttar Pradesh","latitude":27.4924,"longitude":77.6737,"temp":27.8,"humidity":62,"rain":0.0,"pressure":980.0,"uv_index":8.0,"wind_gusts":27.4,"aqi":389,"pm10":491.7,"pm2_5":131.3,"no2":13.8,"co":952.0,"o3":101.0,"so2":18.3,"mosquito_risk":7,"arthritis_risk":5,"migraine_risk":7,"frizz_risk":1,"updated_at":"2026-05-15T01:20:21.573567+05:30"},{"city":"Vrindavan","state":"Uttar Pradesh","latitude":27.5823,"longitude":77.7027,"temp":27.5,"humidity":65,"rain":0.0,"pressure":980.4,"uv_index":7.95,"wind_gusts":27.0,"aqi":389,"pm10":491.7,"pm2_5":131.3,"no2":13.8,"co":893.0,"o3":101.0,"so2":18.3,"mosquito_risk":7,"arthritis_risk":5,"migraine_risk":7,"frizz_risk":1,"updated_at":"2026-05-15T01:20:21.573572+05:30"},{"city":"Ayodhya","state":"Uttar Pradesh","latitude":26.7922,"longitude":82.1998,"temp":26.9,"humidity":73,"rain":0.0,"pressure":989.6,"uv_index":8.35,"wind_gusts":28.1,"aqi":141,"pm10":138.8,"pm2_5":96.9,"no2":60.4,"co":858.0,"o3":37.0,"so2":18.8,"mosquito_risk":7,"arthritis_risk":5,"migraine_risk":7,"frizz_risk":1,"updated_at":"2026-05-15T01:20:21.573578+05:30"},{"city":"Ratlam","state":"Madhya Pradesh","latitude":23.3315,"longitude":75.0367,"temp":30.4,"humidity":29,"rain":0.0,"pressure":949.4,"uv_index":8.55,"wind_gusts":41.4,"aqi":81,"pm10":42.6,"pm2_5":22.1,"no2":4.7,"co":248.0,"o3":81.0,"so2":5.3,"mosquito_risk":0,"arthritis_risk":5,"migraine_risk":7,"frizz_risk":0,"updated_at":"2026-05-15T01:20:21.573582+05:30"},{"city":"Sagar","state":"Madhya Pradesh","latitude":23.8388,"longitude":78.7378,"temp":32.1,"humidity":29,"rain":0.0,"pressure":943.9,"uv_index":8.75,"wind_gusts":37.4,"aqi":73,"pm10":43.1,"pm2_5":22.3,"no2":15.8,"co":271.0,"o3":64.0,"so2":4.1,"mosquito_risk":0,"arthritis_risk":5,"migraine_risk":7,"frizz_risk":0,"updated_at":"2026-05-15T01:20:21.573588+05:30"},{"city":"Satna","state":"Madhya Pradesh","latitude":24.6005,"longitude":80.8322,"temp":30.4,"humidity":45,"rain":0.0,"pressure":964.7,"uv_index":8.8,"wind_gusts":29.2,"aqi":106,"pm10":157.9,"pm2_5":53.9,"no2":23.1,"co":372.0,"o3":72.0,"so2":7.8,"mosquito_risk":0,"arthritis_risk":5,"migraine_risk":7,"frizz_risk":1,"updated_at":"2026-05-15T01:20:21.573593+05:30"},{"city":"Akola","state":"Maharashtra","latitude":20.7002,"longitude":77.0082,"temp":35.7,"humidity":24,"rain":0.0,"pressure":968.9,"uv_index":8.8,"wind_gusts":40.0,"aqi":99,"pm10":41.9,"pm2_5":26.7,"no2":9.5,"co":285.0,"o3":83.0,"so2":7.4,"mosquito_risk":0,"arthritis_risk":5,"migraine_risk":10,"frizz_risk":0,"updated_at":"2026-05-15T01:20:21.573599+05:30"},{"city":"Amravati","state":"Maharashtra","latitude":20.9374,"longitude":77.7796,"temp":34.7,"humidity":28,"rain":0.0,"pressure":960.9,"uv_index":8.95,"wind_gusts":42.5,"aqi":100,"pm10":45.4,"pm2_5":31.0,"no2":14.9,"co":263.0,"o3":66.0,"so2":6.6,"mosquito_risk":0,"arthritis_risk":5,"migraine_risk":7,"frizz_risk":0,"updated_at":"2026-05-15T01:20:21.573605+05:30"},{"city":"Latur","state":"Maharashtra","latitude":18.4088,"longitude":76.5604,"temp":29.6,"humidity":45,"rain":0.0,"pressure":935.1,"uv_index":9.1,"wind_gusts":35.3,"aqi":107,"pm10":74.7,"pm2_5":44.0,"no2":17.9,"co":259.0,"o3":82.0,"so2":8.7,"mosquito_risk":4,"arthritis_risk":5,"migraine_risk":7,"frizz_risk":1,"updated_at":"2026-05-15T01:20:21.573610+05:30"},{"city":"Nanded","state":"Maharashtra","latitude":19.1383,"longitude":77.3091,"temp":32.0,"humidity":44,"rain":0.0,"pressure":963.1,"uv_index":9.05,"wind_gusts":38.5,"aqi":117,"pm10":100.8,"pm2_5":62.2,"no2":43.6,"co":349.0,"o3":33.0,"so2":10.0,"mosquito_risk":0,"arthritis_risk":5,"migraine_risk":7,"frizz_risk":1,"updated_at":"2026-05-15T01:20:21.573616+05:30"},{"city":"Gulbarga","state":"Karnataka","latitude":17.3297,"longitude":76.8343,"temp":31.1,"humidity":49,"rain":0.0,"pressure":954.2,"uv_index":8.5,"wind_gusts":34.9,"aqi":128,"pm10":73.8,"pm2_5":50.2,"no2":25.4,"co":316.0,"o3":72.0,"so2":6.5,"mosquito_risk":0,"arthritis_risk":5,"migraine_risk":7,"frizz_risk":1,"updated_at":"2026-05-15T01:20:21.573621+05:30"},{"city":"Bidar","state":"Karnataka","latitude":17.9104,"longitude":77.5199,"temp":29.5,"humidity":52,"rain":0.0,"pressure":931.0,"uv_index":9.15,"wind_gusts":37.8,"aqi":131,"pm10":69.4,"pm2_5":50.6,"no2":18.3,"co":312.0,"o3":79.0,"so2":5.6,"mosquito_risk":4,"arthritis_risk":5,"migraine_risk":7,"frizz_risk":1,"updated_at":"2026-05-15T01:20:21.573626+05:30"},{"city":"Hospet","state":"Karnataka","latitude":15.2689,"longitude":76.3909,"temp":25.8,"humidity":93,"rain":0.0,"pressure":952.1,"uv_index":9.2,"wind_gusts":46.8,"aqi":94,"pm10":28.8,"pm2_5":22.1,"no2":6.1,"co":284.0,"o3":95.0,"so2":1.5,"mosquito_risk":7,"arthritis_risk":5,"migraine_risk":7,"frizz_risk":1,"updated_at":"2026-05-15T01:20:21.573632+05:30"},{"city":"Tirupur","state":"Tamil Nadu","latitude":11.1085,"longitude":77.3411,"temp":24.9,"humidity":86,"rain":0.0,"pressure":970.4,"uv_index":8.7,"wind_gusts":29.5,"aqi":84,"pm10":27.5,"pm2_5":20.5,"no2":21.0,"co":218.0,"o3":57.0,"so2":5.1,"mosquito_risk":3,"arthritis_risk":5,"migraine_risk":7,"frizz_risk":1,"updated_at":"2026-05-15T01:20:21.573637+05:30"},{"city":"Alappuzha","state":"Kerala","latitude":9.4981,"longitude":76.3388,"temp":26.6,"humidity":95,"rain":0.0,"pressure":1005.0,"uv_index":8.6,"wind_gusts":38.5,"aqi":64,"pm10":19.2,"pm2_5":12.0,"no2":9.5,"co":167.0,"o3":73.0,"so2":3.3,"mosquito_risk":7,"arthritis_risk":5,"migraine_risk":4,"frizz_risk":1,"updated_at":"2026-05-15T01:20:21.573642+05:30"},{"city":"Munnar","state":"Kerala","latitude":10.0889,"longitude":77.0595,"temp":17.8,"humidity":99,"rain":0.0,"pressure":853.4,"uv_index":8.4,"wind_gusts":23.4,"aqi":60,"pm10":8.1,"pm2_5":7.4,"no2":7.6,"co":159.0,"o3":55.0,"so2":1.9,"mosquito_risk":3,"arthritis_risk":10,"migraine_risk":7,"frizz_risk":1,"updated_at":"2026-05-15T01:20:21.573648+05:30"},{"city":"Silchar","state":"Assam","latitude":24.8333,"longitude":92.7789,"temp":23.4,"humidity":96,"rain":0.2,"pressure":1001.6,"uv_index":8.95,"wind_gusts":31.3,"aqi":88,"pm10":32.2,"pm2_5":24.3,"no2":8.5,"co":261.0,"o3":71.0,"so2":4.8,"mosquito_risk":6,"arthritis_risk":5,"migraine_risk":4,"frizz_risk":1,"updated_at":"2026-05-15T01:20:21.573653+05:30"},{"city":"Dibrugarh","state":"Assam","latitude":27.4728,"longitude":94.912,"temp":23.8,"humidity":86,"rain":0.0,"pressure":991.6,"uv_index":7.7,"wind_gusts":28.8,"aqi":83,"pm10":39.5,"pm2_5":36.9,"no2":35.6,"co":387.0,"o3":14.0,"so2":2.8,"mosquito_risk":3,"arthritis_risk":5,"migraine_risk":7,"frizz_risk":1,"updated_at":"2026-05-15T01:20:21.573658+05:30"}]