[{"city":"Delhi","state":"Delhi","latitude":28.6139,"longitude":77.209,"temp":33.1,"humidity":31,"rain":0.0,"pressure":983.5,"uv_index":6.9,"wind_gusts":20.9,"aqi":124,"pm10":109.2,"pm2_5":28.9,"mosquito_risk":0,"arthritis_risk":5,"migraine_risk":7,"frizz_risk":0,"updated_at":"2026-04-02T16:24:21.513673+05:30"},{"city":"Mumbai","state":"Maharashtra","latitude":19.076,"longitude":72.8777,"temp":27.9,"humidity":74,"rain":0.0,"pressure":1008.2,"uv_index":7.55,"wind_gusts":19.4,"aqi":87,"pm10":33.9,"pm2_5":25.3,"mosquito_risk":7,"arthritis_risk":0,"migraine_risk":4,"frizz_risk":1,"updated_at":"2026-04-02T16:24:21.513706+05:30"},{"city":"Bangalore","state":"Karnataka","latitude":12.9716,"longitude":77.5946,"temp":33.1,"humidity":27,"rain":0.0,"pressure":911.3,"uv_index":9.6,"wind_gusts":20.9,"aqi":78,"pm10":15.7,"pm2_5":11.5,"mosquito_risk":0,"arthritis_risk":5,"migraine_risk":7,"frizz_risk":0,"updated_at":"2026-04-02T16:24:21.513720+05:30"},{"city":"Hyderabad","state":"Telangana","latitude":17.385,"longitude":78.4867,"temp":35.0,"humidity":29,"rain":0.0,"pressure":952.8,"uv_index":9.15,"wind_gusts":25.9,"aqi":71,"pm10":21.1,"pm2_5":16.1,"mosquito_risk":0,"arthritis_risk":5,"migraine_risk":7,"frizz_risk":0,"updated_at":"2026-04-02T16:24:21.513729+05:30"},{"city":"Chennai","state":"Tamil Nadu","latitude":13.0827,"longitude":80.2707,"temp":32.3,"humidity":56,"rain":0.0,"pressure":1007.1,"uv_index":9.3,"wind_gusts":29.9,"aqi":38,"pm10":13.8,"pm2_5":10.7,"mosquito_risk":0,"arthritis_risk":5,"migraine_risk":4,"frizz_risk":1,"updated_at":"2026-04-02T16:24:21.513737+05:30"},{"city":"Kolkata","state":"West Bengal","latitude":22.5726,"longitude":88.3639,"temp":32.4,"humidity":66,"rain":0.0,"pressure":1005.3,"uv_index":8.6,"wind_gusts":24.1,"aqi":86,"pm10":35.2,"pm2_5":27.6,"mosquito_risk":3,"arthritis_risk":5,"migraine_risk":4,"frizz_risk":1,"updated_at":"2026-04-02T16:24:21.513744+05:30"},{"city":"Pune","state":"Maharashtra","latitude":18.5204,"longitude":73.8567,"temp":31.2,"humidity":53,"rain":0.0,"pressure":948.7,"uv_index":8.45,"wind_gusts":29.9,"aqi":113,"pm10":53.4,"pm2_5":44.5,"mosquito_risk":0,"arthritis_risk":5,"migraine_risk":7,"frizz_risk":1,"updated_at":"2026-04-02T16:24:21.513754+05:30"},{"city":"Ahmedabad","state":"Gujarat","latitude":23.0225,"longitude":72.5714,"temp":36.1,"humidity":27,"rain":0.0,"pressure":1000.7,"uv_index":7.9,"wind_gusts":29.5,"aqi":70,"pm10":22.9,"pm2_5":14.0,"mosquito_risk":0,"arthritis_risk":5,"migraine_risk":7,"frizz_risk":0,"updated_at":"2026-04-02T16:24:21.513761+05:30"},{"city":"Jaipur","state":"Rajasthan","latitude":26.9124,"longitude":75.7873,"temp":34.4,"humidity":30,"rain":0.0,"pressure":959.1,"uv_index":7.55,"wind_gusts":40.7,"aqi":113,"pm10":168.6,"pm2_5":23.8,"mosquito_risk":0,"arthritis_risk":5,"migraine_risk":7,"frizz_risk":0,"updated_at":"2026-04-02T16:24:21.513768+05:30"},{"city":"Lucknow","state":"Uttar Pradesh","latitude":26.8467,"longitude":80.9462,"temp":37.3,"humidity":21,"rain":0.0,"pressure":992.5,"uv_index":7.25,"wind_gusts":31.7,"aqi":87,"pm10":54.7,"pm2_5":19.1,"mosquito_risk":0,"arthritis_risk":5,"migraine_risk":10,"frizz_risk":0,"updated_at":"2026-04-02T16:24:21.513774+05:30"},{"city":"Kanpur","state":"Uttar Pradesh","latitude":26.4499,"longitude":80.3319,"temp":35.8,"humidity":28,"rain":0.0,"pressure":991.2,"uv_index":6.85,"wind_gusts":23.8,"aqi":97,"pm10":157.9,"pm2_5":29.0,"mosquito_risk":0,"arthritis_risk":5,"migraine_risk":10,"frizz_risk":0,"updated_at":"2026-04-02T16:24:21.513780+05:30"},{"city":"Chandigarh","state":"Chandigarh","latitude":30.7333,"longitude":76.7794,"temp":31.8,"humidity":31,"rain":0.0,"pressure":969.5,"uv_index":6.65,"wind_gusts":21.6,"aqi":70,"pm10":42.6,"pm2_5":12.7,"mosquito_risk":0,"arthritis_risk":5,"migraine_risk":7,"frizz_risk":0,"updated_at":"2026-04-02T16:24:21.513786+05:30"},{"city":"Srinagar","state":"Jammu and Kashmir","latitude":34.0837,"longitude":74.7973,"temp":17.3,"humidity":55,"rain":0.0,"pressure":844.9,"uv_index":6.8,"wind_gusts":14.8,"aqi":111,"pm10":29.0,"pm2_5":11.6,"mosquito_risk":0,"arthritis_risk":5,"migraine_risk":7,"frizz_risk":0,"updated_at":"2026-04-02T16:24:21.513792+05:30"},{"city":"Jammu","state":"Jammu and Kashmir","latitude":32.7266,"longitude":74.857,"temp":32.5,"humidity":27,"rain":0.0,"pressure":973.8,"uv_index":7.35,"wind_gusts":19.8,"aqi":78,"pm10":45.9,"pm2_5":13.7,"mosquito_risk":0,"arthritis_risk":5,"migraine_risk":7,"frizz_risk":0,"updated_at":"2026-04-02T16:24:21.513798+05:30"},{"city":"Amritsar","state":"Punjab","latitude":31.634,"longitude":74.8723,"temp":32.6,"humidity":29,"rain":0.0,"pressure":981.8,"uv_index":7.35,"wind_gusts":19.4,"aqi":93,"pm10":58.8,"pm2_5":15.8,"mosquito_risk":0,"arthritis_risk":5,"migraine_risk":7,"frizz_risk":0,"updated_at":"2026-04-02T16:24:21.513803+05:30"},{"city":"Ludhiana","state":"Punjab","latitude":30.901,"longitude":75.8573,"temp":33.2,"humidity":26,"rain":0.0,"pressure":979.6,"uv_index":7.0,"wind_gusts":16.2,"aqi":118,"pm10":86.6,"pm2_5":21.7,"mosquito_risk":0,"arthritis_risk":5,"migraine_risk":7,"frizz_risk":0,"updated_at":"2026-04-02T16:24:21.513810+05:30"},{"city":"Jalandhar","state":"Punjab","latitude":31.326,"longitude":75.5762,"temp":32.7,"humidity":25,"rain":0.0,"pressure":980.7,"uv_index":7.15,"wind_gusts":14.0,"aqi":91,"pm10":70.3,"pm2_5":19.4,"mosquito_risk":0,"arthritis_risk":5,"migraine_risk":7,"frizz_risk":0,"updated_at":"2026-04-02T16:24:21.513817+05:30"},{"city":"Dehradun","state":"Uttarakhand","latitude":30.6284,"longitude":78.0322,"temp":22.7,"humidity":35,"rain":0.0,"pressure":833.1,"uv_index":7.15,"wind_gusts":34.9,"aqi":44,"pm10":26.8,"pm2_5":7.5,"mosquito_risk":0,"arthritis_risk":5,"migraine_risk":7,"frizz_risk":0,"updated_at":"2026-04-02T16:24:21.513824+05:30"},{"city":"Shimla","state":"Himachal Pradesh","latitude":31.1048,"longitude":77.1734,"temp":20.2,"humidity":37,"rain":0.0,"pressure":788.1,"uv_index":7.15,"wind_gusts":33.8,"aqi":56,"pm10":32.0,"pm2_5":9.3,"mosquito_risk":0,"arthritis_risk":5,"migraine_risk":7,"frizz_risk":0,"updated_at":"2026-04-02T16:24:21.513830+05:30"},{"city":"Manali","state":"Himachal Pradesh","latitude":32.2396,"longitude":77.1887,"temp":21.2,"humidity":40,"rain":0.0,"pressure":823.5,"uv_index":9.05,"wind_gusts":26.6,"aqi":85,"pm10":18.4,"pm2_5":7.1,"mosquito_risk":0,"arthritis_risk":5,"migraine_risk":7,"frizz_risk":0,"updated_at":"2026-04-02T16:24:21.513835+05:30"},{"city":"Gurgaon","state":"Haryana","latitude":28.4595,"longitude":77.0266,"temp":32.8,"humidity":33,"rain":0.0,"pressure":982.0,"uv_index":6.95,"wind_gusts":19.4,"aqi":179,"pm10":456.3,"pm2_5":57.9,"mosquito_risk":0,"arthritis_risk":5,"migraine_risk":7,"frizz_risk":0,"updated_at":"2026-04-02T16:24:21.513841+05:30"},{"city":"Noida","state":"Uttar Pradesh","latitude":28.5355,"longitude":77.391,"temp":33.7,"humidity":31,"rain":0.0,"pressure":984.9,"uv_index":6.95,"wind_gusts":16.9,"aqi":179,"pm10":456.3,"pm2_5":57.9,"mosquito_risk":0,"arthritis_risk":5,"migraine_risk":7,"frizz_risk":0,"updated_at":"2026-04-02T16:24:21.513847+05:30"},{"city":"Ghaziabad","state":"Uttar Pradesh","latitude":28.6692,"longitude":77.4538,"temp":33.5,"humidity":33,"rain":0.0,"pressure":983.2,"uv_index":6.9,"wind_gusts":15.8,"aqi":111,"pm10":72.9,"pm2_5":19.9,"mosquito_risk":0,"arthritis_risk":5,"migraine_risk":7,"frizz_risk":0,"updated_at":"2026-04-02T16:24:21.513854+05:30"},{"city":"Faridabad","state":"Haryana","latitude":28.4089,"longitude":77.3178,"temp":34.1,"humidity":28,"rain":0.0,"pressure":984.1,"uv_index":6.95,"wind_gusts":18.7,"aqi":179,"pm10":456.3,"pm2_5":57.9,"mosquito_risk":0,"arthritis_risk":5,"migraine_risk":7,"frizz_risk":0,"updated_at":"2026-04-02T16:24:21.513860+05:30"},{"city":"Meerut","state":"Uttar Pradesh","latitude":28.9845,"longitude":77.7064,"temp":34.0,"humidity":27,"rain":0.0,"pressure":982.0,"uv_index":6.8,"wind_gusts":18.7,"aqi":111,"pm10":72.9,"pm2_5":19.9,"mosquito_risk":0,"arthritis_risk":5,"migraine_risk":7,"frizz_risk":0,"updated_at":"2026-04-02T16:24:21.513866+05:30"},{"city":"Agra","state":"Uttar Pradesh","latitude":27.1767,"longitude":78.0081,"temp":37.2,"humidity":23,"rain":0.0,"pressure":986.8,"uv_index":6.6,"wind_gusts":17.3,"aqi":216,"pm10":233.8,"pm2_5":39.3,"mosquito_risk":0,"arthritis_risk":5,"migraine_risk":10,"frizz_risk":0,"updated_at":"2026-04-02T16:24:21.513871+05:30"},{"city":"Varanasi","state":"Uttar Pradesh","latitude":25.3176,"longitude":82.9739,"temp":37.5,"humidity":26,"rain":0.0,"pressure":996.4,"uv_index":7.6,"wind_gusts":29.9,"aqi":95,"pm10":28.2,"pm2_5":17.0,"mosquito_risk":0,"arthritis_risk":5,"migraine_risk":10,"frizz_risk":0,"updated_at":"2026-04-02T16:24:21.513879+05:30"},{"city":"Prayagraj","state":"Uttar Pradesh","latitude":25.4358,"longitude":81.8463,"temp":37.6,"humidity":26,"rain":0.0,"pressure":995.0,"uv_index":7.5,"wind_gusts":21.6,"aqi":82,"pm10":29.2,"pm2_5":15.8,"mosquito_risk":0,"arthritis_risk":5,"migraine_risk":10,"frizz_risk":0,"updated_at":"2026-04-02T16:24:21.513885+05:30"},{"city":"Gorakhpur","state":"Uttar Pradesh","latitude":26.7606,"longitude":83.3732,"temp":37.7,"humidity":16,"rain":0.0,"pressure":995.2,"uv_index":7.8,"wind_gusts":39.6,"aqi":83,"pm10":27.6,"pm2_5":12.9,"mosquito_risk":0,"arthritis_risk":5,"migraine_risk":10,"frizz_risk":0,"updated_at":"2026-04-02T16:24:21.513891+05:30"},{"city":"Bareilly","state":"Uttar Pradesh","latitude":28.367,"longitude":79.4304,"temp":35.8,"humidity":21,"rain":0.0,"pressure":986.5,"uv_index":7.2,"wind_gusts":31.0,"aqi":80,"pm10":34.3,"pm2_5":13.2,"mosquito_risk":0,"arthritis_risk":5,"migraine_risk":10,"frizz_risk":0,"updated_at":"2026-04-02T16:24:21.513896+05:30"},{"city":"Aligarh","state":"Uttar Pradesh","latitude":27.8974,"longitude":78.088,"temp":36.3,"humidity":22,"rain":0.0,"pressure":985.3,"uv_index":7.05,"wind_gusts":17.3,"aqi":133,"pm10":89.6,"pm2_5":27.3,"mosquito_risk":0,"arthritis_risk":5,"migraine_risk":10,"frizz_risk":0,"updated_at":"2026-04-02T16:24:21.513902+05:30"},{"city":"Moradabad","state":"Uttar Pradesh","latitude":28.8386,"longitude":78.7733,"temp":34.6,"humidity":23,"rain":0.0,"pressure":983.7,"uv_index":7.0,"wind_gusts":26.6,"aqi":91,"pm10":44.7,"pm2_5":13.9,"mosquito_risk":0,"arthritis_risk":5,"migraine_risk":7,"frizz_risk":0,"updated_at":"2026-04-02T16:24:21.513909+05:30"},{"city":"Saharanpur","state":"Uttar Pradesh","latitude":29.9637,"longitude":77.546,"temp":32.7,"humidity":26,"rain":0.0,"pressure":976.2,"uv_index":6.5,"wind_gusts":24.8,"aqi":89,"pm10":35.7,"pm2_5":10.8,"mosquito_risk":0,"arthritis_risk":5,"migraine_risk":7,"frizz_risk":0,"updated_at":"2026-04-02T16:24:21.513915+05:30"},{"city":"Jhansi","state":"Uttar Pradesh","latitude":25.4484,"longitude":78.5685,"temp":37.9,"humidity":22,"rain":0.0,"pressure":976.5,"uv_index":6.4,"wind_gusts":22.0,"aqi":68,"pm10":20.7,"pm2_5":15.6,"mosquito_risk":0,"arthritis_risk":5,"migraine_risk":10,"frizz_risk":0,"updated_at":"2026-04-02T16:24:24.792352+05:30"},{"city":"Surat","state":"Gujarat","latitude":21.1702,"longitude":72.8311,"temp":30.5,"humidity":49,"rain":0.0,"pressure":1006.4,"uv_index":7.6,"wind_gusts":30.6,"aqi":91,"pm10":47.5,"pm2_5":39.7,"mosquito_risk":0,"arthritis_risk":5,"migraine_risk":4,"frizz_risk":1,"updated_at":"2026-04-02T16:24:24.792426+05:30"},{"city":"Vadodara","state":"Gujarat","latitude":22.3072,"longitude":73.1812,"temp":36.0,"humidity":28,"rain":0.0,"pressure":1003.1,"uv_index":7.7,"wind_gusts":34.9,"aqi":78,"pm10":30.7,"pm2_5":21.0,"mosquito_risk":0,"arthritis_risk":5,"migraine_risk":7,"frizz_risk":0,"updated_at":"2026-04-02T16:24:24.792441+05:30"},{"city":"Rajkot","state":"Gujarat","latitude":22.3039,"longitude":70.8022,"temp":33.6,"humidity":33,"rain":0.0,"pressure":993.9,"uv_index":6.8,"wind_gusts":36.7,"aqi":56,"pm10":35.0,"pm2_5":14.7,"mosquito_risk":0,"arthritis_risk":5,"migraine_risk":7,"frizz_risk":0,"updated_at":"2026-04-02T16:24:24.792451+05:30"},{"city":"Thane","state":"Maharashtra","latitude":19.2183,"longitude":72.9781,"temp":30.3,"humidity":58,"rain":0.0,"pressure":1007.8,"uv_index":7.3,"wind_gusts":33.1,"aqi":87,"pm10":33.9,"pm2_5":25.3,"mosquito_risk":0,"arthritis_risk":5,"migraine_risk":4,"frizz_risk":1,"updated_at":"2026-04-02T16:24:24.792459+05:30"},{"city":"Nagpur","state":"Maharashtra","latitude":21.1458,"longitude":79.0882,"temp":32.6,"humidity":46,"rain":0.0,"pressure":973.4,"uv_index":8.15,"wind_gusts":32.8,"aqi":99,"pm10":46.6,"pm2_5":36.1,"mosquito_risk":0,"arthritis_risk":5,"migraine_risk":7,"frizz_risk":1,"updated_at":"2026-04-02T16:24:24.792467+05:30"},{"city":"Nashik","state":"Maharashtra","latitude":19.9975,"longitude":73.7898,"temp":29.0,"humidity":55,"rain":0.0,"pressure":946.3,"uv_index":8.15,"wind_gusts":29.9,"aqi":103,"pm10":28.2,"pm2_5":21.5,"mosquito_risk":4,"arthritis_risk":5,"migraine_risk":7,"frizz_risk":1,"updated_at":"2026-04-02T16:24:24.792475+05:30"},{"city":"Aurangabad","state":"Maharashtra","latitude":19.8762,"longitude":75.3433,"temp":32.5,"humidity":35,"rain":0.0,"pressure":943.9,"uv_index":8.85,"wind_gusts":47.9,"aqi":109,"pm10":35.7,"pm2_5":27.5,"mosquito_risk":0,"arthritis_risk":5,"migraine_risk":7,"frizz_risk":0,"updated_at":"2026-04-02T16:24:24.792482+05:30"},{"city":"Solapur","state":"Maharashtra","latitude":17.6599,"longitude":75.9064,"temp":34.9,"humidity":35,"rain":0.0,"pressure":956.0,"uv_index":8.9,"wind_gusts":31.0,"aqi":122,"pm10":29.6,"pm2_5":23.7,"mosquito_risk":0,"arthritis_risk":5,"migraine_risk":7,"frizz_risk":1,"updated_at":"2026-04-02T16:24:24.792490+05:30"},{"city":"Kolhapur","state":"Maharashtra","latitude":16.705,"longitude":74.2433,"temp":29.3,"humidity":60,"rain":0.0,"pressure":948.3,"uv_index":8.95,"wind_gusts":34.6,"aqi":135,"pm10":48.9,"pm2_5":41.2,"mosquito_risk":4,"arthritis_risk":5,"migraine_risk":7,"frizz_risk":1,"updated_at":"2026-04-02T16:24:24.792498+05:30"},{"city":"Goa","state":"Goa","latitude":15.2993,"longitude":74.124,"temp":31.2,"humidity":67,"rain":0.0,"pressure":997.8,"uv_index":8.85,"wind_gusts":29.5,"aqi":74,"pm10":23.9,"pm2_5":16.6,"mosquito_risk":3,"arthritis_risk":5,"migraine_risk":7,"frizz_risk":1,"updated_at":"2026-04-02T16:24:24.792506+05:30"},{"city":"Jodhpur","state":"Rajasthan","latitude":26.2389,"longitude":73.0243,"temp":34.1,"humidity":27,"rain":0.0,"pressure":982.1,"uv_index":7.75,"wind_gusts":36.7,"aqi":71,"pm10":117.1,"pm2_5":17.3,"mosquito_risk":0,"arthritis_risk":5,"migraine_risk":7,"frizz_risk":0,"updated_at":"2026-04-02T16:24:24.792514+05:30"},{"city":"Udaipur","state":"Rajasthan","latitude":24.5854,"longitude":73.7125,"temp":32.3,"humidity":22,"rain":0.0,"pressure":946.2,"uv_index":8.3,"wind_gusts":38.9,"aqi":59,"pm10":12.3,"pm2_5":6.0,"mosquito_risk":0,"arthritis_risk":5,"migraine_risk":7,"frizz_risk":0,"updated_at":"2026-04-02T16:24:24.792522+05:30"},{"city":"Kota","state":"Rajasthan","latitude":25.2138,"longitude":75.8648,"temp":38.2,"humidity":18,"rain":0.0,"pressure":976.8,"uv_index":7.85,"wind_gusts":27.7,"aqi":67,"pm10":21.0,"pm2_5":14.1,"mosquito_risk":0,"arthritis_risk":5,"migraine_risk":10,"frizz_risk":0,"updated_at":"2026-04-02T16:24:24.792530+05:30"},{"city":"Bikaner","state":"Rajasthan","latitude":28.0229,"longitude":73.3119,"temp":36.0,"humidity":19,"rain":0.0,"pressure":980.0,"uv_index":7.3,"wind_gusts":35.6,"aqi":58,"pm10":32.8,"pm2_5":9.2,"mosquito_risk":0,"arthritis_risk":5,"migraine_risk":10,"frizz_risk":0,"updated_at":"2026-04-02T16:24:24.792538+05:30"},{"city":"Ajmer","state":"Rajasthan","latitude":26.4499,"longitude":74.6399,"temp":34.6,"humidity":23,"rain":0.0,"pressure":953.5,"uv_index":7.4,"wind_gusts":33.1,"aqi":65,"pm10":14.5,"pm2_5":7.5,"mosquito_risk":0,"arthritis_risk":5,"migraine_risk":7,"frizz_risk":0,"updated_at":"2026-04-02T16:24:24.792545+05:30"},{"city":"Gwalior","state":"Madhya Pradesh","latitude":26.2183,"longitude":78.1828,"temp":36.3,"humidity":30,"rain":0.0,"pressure":982.1,"uv_index":6.35,"wind_gusts":22.0,"aqi":69,"pm10":31.4,"pm2_5":18.2,"mosquito_risk":0,"arthritis_risk":5,"migraine_risk":10,"frizz_risk":0,"updated_at":"2026-04-02T16:24:24.792553+05:30"},{"city":"Indore","state":"Madhya Pradesh","latitude":22.7196,"longitude":75.8577,"temp":35.0,"humidity":22,"rain":0.0,"pressure":947.7,"uv_index":8.3,"wind_gusts":40.7,"aqi":104,"pm10":36.4,"pm2_5":28.2,"mosquito_risk":0,"arthritis_risk":5,"migraine_risk":7,"frizz_risk":0,"updated_at":"2026-04-02T16:24:24.792560+05:30"},{"city":"Bhopal","state":"Madhya Pradesh","latitude":23.2599,"longitude":77.4126,"temp":32.5,"humidity":40,"rain":0.0,"pressure":953.9,"uv_index":7.95,"wind_gusts":33.1,"aqi":89,"pm10":36.8,"pm2_5":27.9,"mosquito_risk":0,"arthritis_risk":5,"migraine_risk":7,"frizz_risk":1,"updated_at":"2026-04-02T16:24:24.792567+05:30"},{"city":"Jabalpur","state":"Madhya Pradesh","latitude":23.1815,"longitude":79.9864,"temp":33.5,"humidity":37,"rain":0.0,"pressure":961.8,"uv_index":7.85,"wind_gusts":31.7,"aqi":89,"pm10":35.0,"pm2_5":25.4,"mosquito_risk":0,"arthritis_risk":5,"migraine_risk":7,"frizz_risk":1,"updated_at":"2026-04-02T16:24:24.792574+05:30"},{"city":"Ujjain","state":"Madhya Pradesh","latitude":23.1765,"longitude":75.7885,"temp":35.2,"humidity":24,"rain":0.0,"pressure":953.0,"uv_index":8.2,"wind_gusts":27.7,"aqi":83,"pm10":32.1,"pm2_5":25.3,"mosquito_risk":0,"arthritis_risk":5,"migraine_risk":10,"frizz_risk":0,"updated_at":"2026-04-02T16:24:24.792582+05:30"},{"city":"Visakhapatnam","state":"Andhra Pradesh","latitude":17.6868,"longitude":83.2185,"temp":31.8,"humidity":48,"rain":0.0,"pressure":1003.7,"uv_index":9.05,"wind_gusts":36.4,"aqi":53,"pm10":15.9,"pm2_5":12.6,"mosquito_risk":0,"arthritis_risk":5,"migraine_risk":4,"frizz_risk":1,"updated_at":"2026-04-02T16:24:24.792589+05:30"},{"city":"Vijayawada","state":"Andhra Pradesh","latitude":16.5062,"longitude":80.648,"temp":35.4,"humidity":40,"rain":0.0,"pressure":1001.8,"uv_index":9.15,"wind_gusts":24.1,"aqi":44,"pm10":16.1,"pm2_5":12.0,"mosquito_risk":0,"arthritis_risk":5,"migraine_risk":7,"frizz_risk":1,"updated_at":"2026-04-02T16:24:24.792597+05:30"},{"city":"Guntur","state":"Andhra Pradesh","latitude":16.3067,"longitude":80.4365,"temp":35.1,"humidity":37,"rain":0.0,"pressure":1003.2,"uv_index":9.15,"wind_gusts":27.4,"aqi":39,"pm10":15.5,"pm2_5":10.3,"mosquito_risk":0,"arthritis_risk":5,"migraine_risk":7,"frizz_risk":1,"updated_at":"2026-04-02T16:24:24.792604+05:30"},{"city":"Nellore","state":"Andhra Pradesh","latitude":14.4426,"longitude":79.9865,"temp":33.7,"humidity":48,"rain":0.0,"pressure":1005.5,"uv_index":9.25,"wind_gusts":28.1,"aqi":39,"pm10":14.2,"pm2_5":11.0,"mosquito_risk":0,"arthritis_risk":5,"migraine_risk":4,"frizz_risk":1,"updated_at":"2026-04-02T16:24:24.792612+05:30"},{"city":"Kurnool","state":"Andhra Pradesh","latitude":15.8281,"longitude":78.0373,"temp":37.7,"humidity":18,"rain":0.0,"pressure":975.8,"uv_index":9.15,"wind_gusts":24.1,"aqi":49,"pm10":19.2,"pm2_5":13.4,"mosquito_risk":0,"arthritis_risk":5,"migraine_risk":10,"frizz_risk":0,"updated_at":"2026-04-02T16:24:24.792620+05:30"},{"city":"Kakinada","state":"Andhra Pradesh","latitude":16.9891,"longitude":82.2475,"temp":35.8,"humidity":40,"rain":0.0,"pressure":1006.7,"uv_index":9.05,"wind_gusts":33.1,"aqi":34,"pm10":10.8,"pm2_5":7.9,"mosquito_risk":0,"arthritis_risk":5,"migraine_risk":7,"frizz_risk":1,"updated_at":"2026-04-02T16:24:24.792628+05:30"},{"city":"Tirupati","state":"Andhra Pradesh","latitude":13.6288,"longitude":79.4192,"temp":34.2,"humidity":32,"rain":0.0,"pressure":991.0,"uv_index":9.35,"wind_gusts":31.3,"aqi":47,"pm10":10.8,"pm2_5":9.3,"mosquito_risk":0,"arthritis_risk":5,"migraine_risk":7,"frizz_risk":0,"updated_at":"2026-04-02T16:24:24.792635+05:30"},{"city":"Warangal","state":"Telangana","latitude":17.9689,"longitude":79.5941,"temp":35.5,"humidity":36,"rain":0.0,"pressure":978.1,"uv_index":9.0,"wind_gusts":25.9,"aqi":65,"pm10":20.3,"pm2_5":15.4,"mosquito_risk":0,"arthritis_risk":5,"migraine_risk":10,"frizz_risk":1,"updated_at":"2026-04-02T16:24:24.792647+05:30"},{"city":"Nizamabad","state":"Telangana","latitude":18.6725,"longitude":78.0941,"temp":33.8,"humidity":44,"rain":0.0,"pressure":964.4,"uv_index":8.9,"wind_gusts":34.2,"aqi":113,"pm10":36.9,"pm2_5":29.1,"mosquito_risk":0,"arthritis_risk":5,"migraine_risk":7,"frizz_risk":1,"updated_at":"2026-04-02T16:24:24.792654+05:30"},{"city":"Mysore","state":"Karnataka","latitude":12.2958,"longitude":76.6396,"temp":33.3,"humidity":28,"rain":0.0,"pressure":927.7,"uv_index":9.5,"wind_gusts":34.9,"aqi":104,"pm10":21.3,"pm2_5":16.1,"mosquito_risk":0,"arthritis_risk":5,"migraine_risk":7,"frizz_risk":0,"updated_at":"2026-04-02T16:24:24.792662+05:30"},{"city":"Mangalore","state":"Karnataka","latitude":12.9141,"longitude":74.856,"temp":29.3,"humidity":82,"rain":0.0,"pressure":1005.9,"uv_index":9.05,"wind_gusts":22.7,"aqi":79,"pm10":26.7,"pm2_5":21.4,"mosquito_risk":7,"arthritis_risk":5,"migraine_risk":4,"frizz_risk":1,"updated_at":"2026-04-02T16:24:24.792669+05:30"},{"city":"Hubli-Dharwad","state":"Karnataka","latitude":15.3647,"longitude":75.124,"temp":29.0,"humidity":62,"rain":0.0,"pressure":940.9,"uv_index":9.2,"wind_gusts":37.8,"aqi":111,"pm10":32.2,"pm2_5":26.4,"mosquito_risk":7,"arthritis_risk":5,"migraine_risk":7,"frizz_risk":1,"updated_at":"2026-04-02T16:24:24.792677+05:30"},{"city":"Belgaum","state":"Karnataka","latitude":15.8497,"longitude":74.4977,"temp":27.5,"humidity":68,"rain":0.0,"pressure":925.9,"uv_index":9.1,"wind_gusts":32.4,"aqi":125,"pm10":38.4,"pm2_5":32.6,"mosquito_risk":7,"arthritis_risk":5,"migraine_risk":7,"frizz_risk":1,"updated_at":"2026-04-02T16:24:28.066277+05:30"},{"city":"Coimbatore","state":"Tamil Nadu","latitude":11.0168,"longitude":76.9558,"temp":35.1,"humidity":32,"rain":0.0,"pressure":960.3,"uv_index":9.4,"wind_gusts":44.3,"aqi":86,"pm10":14.5,"pm2_5":9.9,"mosquito_risk":0,"arthritis_risk":5,"migraine_risk":10,"frizz_risk":0,"updated_at":"2026-04-02T16:24:28.066301+05:30"},{"city":"Madurai","state":"Tamil Nadu","latitude":9.9252,"longitude":78.1198,"temp":36.1,"humidity":30,"rain":0.0,"pressure":990.9,"uv_index":9.35,"wind_gusts":33.5,"aqi":52,"pm10":10.0,"pm2_5":9.1,"mosquito_risk":0,"arthritis_risk":5,"migraine_risk":10,"frizz_risk":0,"updated_at":"2026-04-02T16:24:28.066313+05:30"},{"city":"Trichy","state":"Tamil Nadu","latitude":10.7905,"longitude":78.7047,"temp":34.9,"humidity":32,"rain":0.0,"pressure":998.3,"uv_index":9.4,"wind_gusts":20.9,"aqi":53,"pm10":9.7,"pm2_5":8.8,"mosquito_risk":0,"arthritis_risk":5,"migraine_risk":7,"frizz_risk":0,"updated_at":"2026-04-02T16:24:28.066322+05:30"},{"city":"Salem","state":"Tamil Nadu","latitude":11.6643,"longitude":78.146,"temp":35.7,"humidity":34,"rain":0.0,"pressure":975.7,"uv_index":9.4,"wind_gusts":17.3,"aqi":63,"pm10":15.5,"pm2_5":14.3,"mosquito_risk":0,"arthritis_risk":5,"migraine_risk":10,"frizz_risk":1,"updated_at":"2026-04-02T16:24:28.066331+05:30"},{"city":"Tirunelveli","state":"Tamil Nadu","latitude":8.7139,"longitude":77.7567,"temp":34.0,"humidity":47,"rain":0.0,"pressure":1001.4,"uv_index":9.35,"wind_gusts":45.7,"aqi":49,"pm10":9.3,"pm2_5":7.9,"mosquito_risk":0,"arthritis_risk":5,"migraine_risk":4,"frizz_risk":1,"updated_at":"2026-04-02T16:24:28.066339+05:30"},{"city":"Vellore","state":"Tamil Nadu","latitude":12.9165,"longitude":79.1325,"temp":33.7,"humidity":30,"rain":0.0,"pressure":984.1,"uv_index":9.4,"wind_gusts":27.4,"aqi":53,"pm10":10.3,"pm2_5":8.8,"mosquito_risk":0,"arthritis_risk":5,"migraine_risk":7,"frizz_risk":0,"updated_at":"2026-04-02T16:24:28.066348+05:30"},{"city":"Erode","state":"Tamil Nadu","latitude":11.341,"longitude":77.7172,"temp":37.0,"humidity":26,"rain":0.0,"pressure":986.9,"uv_index":9.3,"wind_gusts":26.3,"aqi":53,"pm10":9.7,"pm2_5":8.0,"mosquito_risk":0,"arthritis_risk":5,"migraine_risk":10,"frizz_risk":0,"updated_at":"2026-04-02T16:24:28.066356+05:30"},{"city":"Kochi","state":"Kerala","latitude":9.9312,"longitude":76.2673,"temp":29.1,"humidity":79,"rain":0.0,"pressure":1007.3,"uv_index":9.2,"wind_gusts":31.0,"aqi":91,"pm10":21.3,"pm2_5":17.9,"mosquito_risk":7,"arthritis_risk":5,"migraine_risk":4,"frizz_risk":1,"updated_at":"2026-04-02T16:24:28.066408+05:30"},{"city":"Thiruvananthapuram","state":"Kerala","latitude":8.5241,"longitude":76.9366,"temp":29.8,"humidity":70,"rain":0.0,"pressure":1006.5,"uv_index":9.2,"wind_gusts":25.2,"aqi":78,"pm10":12.7,"pm2_5":9.5,"mosquito_risk":7,"arthritis_risk":5,"migraine_risk":4,"frizz_risk":1,"updated_at":"2026-04-02T16:24:28.066422+05:30"},{"city":"Kozhikode","state":"Kerala","latitude":11.2588,"longitude":75.7804,"temp":30.0,"humidity":75,"rain":0.0,"pressure":1006.9,"uv_index":8.85,"wind_gusts":25.2,"aqi":61,"pm10":17.4,"pm2_5":12.3,"mosquito_risk":7,"arthritis_risk":5,"migraine_risk":4,"frizz_risk":1,"updated_at":"2026-04-02T16:24:28.066431+05:30"},{"city":"Thrissur","state":"Kerala","latitude":10.5276,"longitude":76.2144,"temp":31.7,"humidity":67,"rain":0.0,"pressure":1005.8,"uv_index":9.15,"wind_gusts":32.0,"aqi":71,"pm10":19.4,"pm2_5":16.1,"mosquito_risk":3,"arthritis_risk":5,"migraine_risk":4,"frizz_risk":1,"updated_at":"2026-04-02T16:24:28.066440+05:30"},{"city":"Kannur","state":"Kerala","latitude":11.8745,"longitude":75.3704,"temp":30.7,"humidity":70,"rain":0.0,"pressure":1006.4,"uv_index":9.15,"wind_gusts":25.6,"aqi":75,"pm10":18.5,"pm2_5":14.6,"mosquito_risk":3,"arthritis_risk":5,"migraine_risk":4,"frizz_risk":1,"updated_at":"2026-04-02T16:24:28.066448+05:30"},{"city":"Patna","state":"Bihar","latitude":25.5941,"longitude":85.1376,"temp":35.8,"humidity":31,"rain":0.0,"pressure":998.7,"uv_index":8.1,"wind_gusts":33.5,"aqi":86,"pm10":33.6,"pm2_5":15.9,"mosquito_risk":0,"arthritis_risk":5,"migraine_risk":10,"frizz_risk":0,"updated_at":"2026-04-02T16:24:28.066457+05:30"},{"city":"Gaya","state":"Bihar","latitude":24.7914,"longitude":85.0002,"temp":36.2,"humidity":31,"rain":0.0,"pressure":992.6,"uv_index":8.3,"wind_gusts":29.2,"aqi":100,"pm10":27.2,"pm2_5":15.5,"mosquito_risk":0,"arthritis_risk":5,"migraine_risk":10,"frizz_risk":1,"updated_at":"2026-04-02T16:24:28.066465+05:30"},{"city":"Muzaffarpur","state":"Bihar","latitude":26.1209,"longitude":85.3647,"temp":36.4,"humidity":24,"rain":0.0,"pressure":998.2,"uv_index":8.25,"wind_gusts":31.3,"aqi":83,"pm10":32.5,"pm2_5":15.7,"mosquito_risk":0,"arthritis_risk":5,"migraine_risk":10,"frizz_risk":0,"updated_at":"2026-04-02T16:24:28.066473+05:30"},{"city":"Bhagalpur","state":"Bihar","latitude":25.2425,"longitude":87.0117,"temp":34.5,"humidity":34,"rain":0.0,"pressure":999.5,"uv_index":7.95,"wind_gusts":26.6,"aqi":98,"pm10":36.3,"pm2_5":16.4,"mosquito_risk":0,"arthritis_risk":5,"migraine_risk":7,"frizz_risk":1,"updated_at":"2026-04-02T16:24:28.066480+05:30"},{"city":"Ranchi","state":"Jharkhand","latitude":23.3441,"longitude":85.3096,"temp":32.2,"humidity":34,"rain":0.0,"pressure":938.6,"uv_index":8.9,"wind_gusts":32.0,"aqi":117,"pm10":29.9,"pm2_5":19.6,"mosquito_risk":0,"arthritis_risk":5,"migraine_risk":7,"frizz_risk":0,"updated_at":"2026-04-02T16:24:28.066487+05:30"},{"city":"Jamshedpur","state":"Jharkhand","latitude":22.8046,"longitude":86.2029,"temp":36.0,"humidity":36,"rain":0.0,"pressure":990.1,"uv_index":8.75,"wind_gusts":31.7,"aqi":141,"pm10":39.2,"pm2_5":26.8,"mosquito_risk":0,"arthritis_risk":5,"migraine_risk":10,"frizz_risk":1,"updated_at":"2026-04-02T16:24:28.066494+05:30"},{"city":"Dhanbad","state":"Jharkhand","latitude":23.7957,"longitude":86.4304,"temp":37.3,"humidity":24,"rain":0.0,"pressure":978.4,"uv_index":8.65,"wind_gusts":27.0,"aqi":153,"pm10":33.3,"pm2_5":25.0,"mosquito_risk":0,"arthritis_risk":5,"migraine_risk":10,"frizz_risk":0,"updated_at":"2026-04-02T16:24:28.066502+05:30"},{"city":"Bokaro","state":"Jharkhand","latitude":23.6693,"longitude":86.1511,"temp":36.6,"humidity":24,"rain":0.0,"pressure":982.5,"uv_index":8.65,"wind_gusts":28.1,"aqi":151,"pm10":31.4,"pm2_5":23.9,"mosquito_risk":0,"arthritis_risk":5,"migraine_risk":10,"frizz_risk":0,"updated_at":"2026-04-02T16:24:28.066509+05:30"},{"city":"Bhubaneswar","state":"Odisha","latitude":20.2961,"longitude":85.8245,"temp":34.8,"humidity":40,"rain":0.0,"pressure":1002.0,"uv_index":8.9,"wind_gusts":30.6,"aqi":59,"pm10":22.1,"pm2_5":16.6,"mosquito_risk":0,"arthritis_risk":5,"migraine_risk":4,"frizz_risk":1,"updated_at":"2026-04-02T16:24:28.066517+05:30"},{"city":"Cuttack","state":"Odisha","latitude":20.4625,"longitude":85.8828,"temp":37.9,"humidity":31,"rain":0.0,"pressure":1003.0,"uv_index":8.95,"wind_gusts":23.0,"aqi":59,"pm10":22.1,"pm2_5":16.6,"mosquito_risk":0,"arthritis_risk":5,"migraine_risk":7,"frizz_risk":1,"updated_at":"2026-04-02T16:24:28.066524+05:30"},{"city":"Rourkela","state":"Odisha","latitude":22.2604,"longitude":84.8536,"temp":36.9,"humidity":30,"rain":0.0,"pressure":984.6,"uv_index":8.65,"wind_gusts":26.6,"aqi":160,"pm10":44.9,"pm2_5":31.8,"mosquito_risk":0,"arthritis_risk":5,"migraine_risk":10,"frizz_risk":1,"updated_at":"2026-04-02T16:24:28.066530+05:30"},{"city":"Raipur","state":"Chhattisgarh","latitude":21.2514,"longitude":81.6296,"temp":35.6,"humidity":31,"rain":0.0,"pressure":974.6,"uv_index":8.7,"wind_gusts":25.6,"aqi":132,"pm10":35.6,"pm2_5":29.6,"mosquito_risk":0,"arthritis_risk":5,"migraine_risk":10,"frizz_risk":0,"updated_at":"2026-04-02T16:24:28.066538+05:30"},{"city":"Bhilai","state":"Chhattisgarh","latitude":21.1938,"longitude":81.3509,"temp":35.5,"humidity":33,"rain":0.0,"pressure":974.9,"uv_index":8.7,"wind_gusts":24.8,"aqi":128,"pm10":36.9,"pm2_5":29.5,"mosquito_risk":0,"arthritis_risk":5,"migraine_risk":10,"frizz_risk":1,"updated_at":"2026-04-02T16:24:28.066545+05:30"},{"city":"Guwahati","state":"Assam","latitude":26.1158,"longitude":91.7086,"temp":29.9,"humidity":70,"rain":0.0,"pressure":999.4,"uv_index":8.15,"wind_gusts":33.5,"aqi":103,"pm10":33.3,"pm2_5":27.2,"mosquito_risk":7,"arthritis_risk":5,"migraine_risk":7,"frizz_risk":1,"updated_at":"2026-04-02T16:24:28.066552+05:30"},{"city":"Agartala","state":"Tripura","latitude":23.8315,"longitude":91.2868,"temp":33.5,"humidity":50,"rain":0.0,"pressure":1004.6,"uv_index":8.4,"wind_gusts":43.2,"aqi":111,"pm10":46.9,"pm2_5":37.6,"mosquito_risk":0,"arthritis_risk":5,"migraine_risk":4,"frizz_risk":1,"updated_at":"2026-04-02T16:24:28.066559+05:30"},{"city":"Shillong","state":"Meghalaya","latitude":25.5788,"longitude":91.8933,"temp":18.9,"humidity":65,"rain":0.0,"pressure":856.6,"uv_index":8.55,"wind_gusts":70.9,"aqi":89,"pm10":41.4,"pm2_5":34.1,"mosquito_risk":3,"arthritis_risk":5,"migraine_risk":7,"frizz_risk":0,"updated_at":"2026-04-02T16:24:28.066567+05:30"},{"city":"Imphal","state":"Manipur","latitude":24.817,"longitude":93.9368,"temp":21.8,"humidity":71,"rain":0.0,"pressure":923.1,"uv_index":8.7,"wind_gusts":87.1,"aqi":112,"pm10":51.0,"pm2_5":39.6,"mosquito_risk":3,"arthritis_risk":5,"migraine_risk":7,"frizz_risk":1,"updated_at":"2026-04-02T16:24:28.066574+05:30"},{"city":"Aizawl","state":"Mizoram","latitude":23.7271,"longitude":92.7176,"temp":25.4,"humidity":56,"rain":0.0,"pressure":893.7,"uv_index":8.65,"wind_gusts":55.1,"aqi":96,"pm10":51.8,"pm2_5":35.3,"mosquito_risk":4,"arthritis_risk":5,"migraine_risk":7,"frizz_risk":0,"updated_at":"2026-04-02T16:24:28.066581+05:30"},{"city":"Kohima","state":"Nagaland","latitude":25.6701,"longitude":94.1077,"temp":17.7,"humidity":85,"rain":0.0,"pressure":854.9,"uv_index":8.65,"wind_gusts":105.5,"aqi":93,"pm10":44.8,"pm2_5":35.4,"mosquito_risk":3,"arthritis_risk":10,"migraine_risk":7,"frizz_risk":0,"updated_at":"2026-04-02T16:24:28.066589+05:30"},{"city":"Gangtok","state":"Sikkim","latitude":27.3314,"longitude":88.6138,"temp":19.9,"humidity":69,"rain":0.0,"pressure":837.9,"uv_index":8.55,"wind_gusts":20.5,"aqi":99,"pm10":43.5,"pm2_5":34.3,"mosquito_risk":3,"arthritis_risk":5,"migraine_risk":7,"frizz_risk":0,"updated_at":"2026-04-02T16:24:28.066597+05:30"},{"city":"Siliguri","state":"West Bengal","latitude":26.7271,"longitude":88.3953,"temp":26.6,"humidity":61,"rain":0.0,"pressure":992.2,"uv_index":8.05,"wind_gusts":21.6,"aqi":151,"pm10":40.6,"pm2_5":31.2,"mosquito_risk":7,"arthritis_risk":5,"migraine_risk":7,"frizz_risk":1,"updated_at":"2026-04-02T16:24:31.348202+05:30"},{"city":"Durgapur","state":"West Bengal","latitude":23.5204,"longitude":87.3119,"temp":37.0,"humidity":27,"rain":0.0,"pressure":993.4,"uv_index":8.6,"wind_gusts":21.6,"aqi":152,"pm10":38.6,"pm2_5":28.5,"mosquito_risk":0,"arthritis_risk":5,"migraine_risk":10,"frizz_risk":0,"updated_at":"2026-04-02T16:24:31.348230+05:30"},{"city":"Asansol","state":"West Bengal","latitude":23.6739,"longitude":86.9524,"temp":37.1,"humidity":28,"rain":0.0,"pressure":991.9,"uv_index":8.65,"wind_gusts":22.3,"aqi":140,"pm10":38.4,"pm2_5":28.9,"mosquito_risk":0,"arthritis_risk":5,"migraine_risk":10,"frizz_risk":0,"updated_at":"2026-04-02T16:24:31.348243+05:30"},{"city":"Pondicherry","state":"Puducherry","latitude":11.9139,"longitude":79.8145,"temp":33.0,"humidity":47,"rain":0.0,"pressure":1007.6,"uv_index":9.25,"wind_gusts":27.0,"aqi":37,"pm10":11.9,"pm2_5":8.7,"mosquito_risk":0,"arthritis_risk":5,"migraine_risk":4,"frizz_risk":1,"updated_at":"2026-04-02T16:24:31.348252+05:30"},{"city":"Port Blair","state":"Andaman and Nicobar Islands","latitude":11.6234,"longitude":92.7265,"temp":29.0,"humidity":79,"rain":0.0,"pressure":1006.6,"uv_index":9.15,"wind_gusts":32.0,"aqi":40,"pm10":9.0,"pm2_5":5.7,"mosquito_risk":7,"arthritis_risk":5,"migraine_risk":4,"frizz_risk":1,"updated_at":"2026-04-02T16:24:31.348260+05:30"},{"city":"Haridwar","state":"Uttarakhand","latitude":29.9457,"longitude":78.1642,"temp":33.3,"humidity":23,"rain":0.0,"pressure":974.7,"uv_index":6.6,"wind_gusts":29.2,"aqi":63,"pm10":31.4,"pm2_5":9.0,"mosquito_risk":0,"arthritis_risk":5,"migraine_risk":7,"frizz_risk":0,"updated_at":"2026-04-02T16:24:31.348268+05:30"},{"city":"Rishikesh","state":"Uttarakhand","latitude":30.0869,"longitude":78.2676,"temp":33.1,"humidity":22,"rain":0.0,"pressure":967.7,"uv_index":6.7,"wind_gusts":31.0,"aqi":50,"pm10":29.7,"pm2_5":8.1,"mosquito_risk":0,"arthritis_risk":5,"migraine_risk":7,"frizz_risk":0,"updated_at":"2026-04-02T16:24:31.348276+05:30"},{"city":"Nainital","state":"Uttarakhand","latitude":29.3919,"longitude":79.4542,"temp":26.1,"humidity":25,"rain":0.0,"pressure":810.0,"uv_index":7.65,"wind_gusts":42.1,"aqi":69,"pm10":30.9,"pm2_5":10.0,"mosquito_risk":4,"arthritis_risk":5,"migraine_risk":7,"frizz_risk":0,"updated_at":"2026-04-02T16:24:31.348285+05:30"},{"city":"Mussoorie","state":"Uttarakhand","latitude":30.4599,"longitude":78.0664,"temp":23.4,"humidity":29,"rain":0.0,"pressure":806.3,"uv_index":7.05,"wind_gusts":37.4,"aqi":58,"pm10":28.4,"pm2_5":8.3,"mosquito_risk":0,"arthritis_risk":5,"migraine_risk":7,"frizz_risk":0,"updated_at":"2026-04-02T16:24:31.348291+05:30"},{"city":"Dharamshala","state":"Himachal Pradesh","latitude":32.219,"longitude":76.3234,"temp":26.2,"humidity":32,"rain":0.0,"pressure":871.6,"uv_index":7.3,"wind_gusts":28.4,"aqi":49,"pm10":23.0,"pm2_5":7.1,"mosquito_risk":4,"arthritis_risk":5,"migraine_risk":7,"frizz_risk":0,"updated_at":"2026-04-02T16:24:31.348297+05:30"},{"city":"Dalhousie","state":"Himachal Pradesh","latitude":32.5387,"longitude":75.971,"temp":24.5,"humidity":26,"rain":0.0,"pressure":807.5,"uv_index":7.55,"wind_gusts":24.8,"aqi":62,"pm10":30.9,"pm2_5":9.7,"mosquito_risk":0,"arthritis_risk":5,"migraine_risk":7,"frizz_risk":0,"updated_at":"2026-04-02T16:24:31.348304+05:30"},{"city":"Patiala","state":"Punjab","latitude":30.3398,"longitude":76.3869,"temp":33.0,"humidity":27,"rain":0.0,"pressure":979.1,"uv_index":6.7,"wind_gusts":20.9,"aqi":109,"pm10":139.2,"pm2_5":25.0,"mosquito_risk":0,"arthritis_risk":5,"migraine_risk":7,"frizz_risk":0,"updated_at":"2026-04-02T16:24:31.348310+05:30"},{"city":"Bhatinda","state":"Punjab","latitude":30.211,"longitude":74.9455,"temp":30.8,"humidity":39,"rain":0.0,"pressure":984.9,"uv_index":7.35,"wind_gusts":50.4,"aqi":98,"pm10":124.8,"pm2_5":27.2,"mosquito_risk":0,"arthritis_risk":5,"migraine_risk":7,"frizz_risk":0,"updated_at":"2026-04-02T16:24:31.348316+05:30"},{"city":"Rohtak","state":"Haryana","latitude":28.8955,"longitude":76.6066,"temp":32.0,"humidity":39,"rain":0.0,"pressure":982.6,"uv_index":6.65,"wind_gusts":49.0,"aqi":149,"pm10":161.1,"pm2_5":33.9,"mosquito_risk":0,"arthritis_risk":5,"migraine_risk":7,"frizz_risk":1,"updated_at":"2026-04-02T16:24:31.348322+05:30"},{"city":"Panipat","state":"Haryana","latitude":29.3909,"longitude":76.9635,"temp":33.3,"humidity":28,"rain":0.0,"pressure":981.3,"uv_index":6.7,"wind_gusts":22.7,"aqi":166,"pm10":160.2,"pm2_5":29.7,"mosquito_risk":0,"arthritis_risk":5,"migraine_risk":7,"frizz_risk":0,"updated_at":"2026-04-02T16:24:31.348327+05:30"},{"city":"Mathura","state":"Uttar Pradesh","latitude":27.4924,"longitude":77.6737,"temp":36.5,"humidity":25,"rain":0.0,"pressure":986.3,"uv_index":7.2,"wind_gusts":18.0,"aqi":137,"pm10":285.9,"pm2_5":42.1,"mosquito_risk":0,"arthritis_risk":5,"migraine_risk":10,"frizz_risk":0,"updated_at":"2026-04-02T16:24:31.348333+05:30"},{"city":"Vrindavan","state":"Uttar Pradesh","latitude":27.5823,"longitude":77.7027,"temp":36.7,"humidity":23,"rain":0.0,"pressure":986.8,"uv_index":7.2,"wind_gusts":15.8,"aqi":137,"pm10":285.9,"pm2_5":42.1,"mosquito_risk":0,"arthritis_risk":5,"migraine_risk":10,"frizz_risk":0,"updated_at":"2026-04-02T16:24:31.348339+05:30"},{"city":"Ayodhya","state":"Uttar Pradesh","latitude":26.7922,"longitude":82.1998,"temp":37.5,"humidity":19,"rain":0.0,"pressure":993.8,"uv_index":7.65,"wind_gusts":36.4,"aqi":80,"pm10":36.6,"pm2_5":16.1,"mosquito_risk":0,"arthritis_risk":5,"migraine_risk":10,"frizz_risk":0,"updated_at":"2026-04-02T16:24:31.348344+05:30"},{"city":"Ratlam","state":"Madhya Pradesh","latitude":23.3315,"longitude":75.0367,"temp":34.6,"humidity":30,"rain":0.0,"pressure":954.1,"uv_index":8.15,"wind_gusts":33.1,"aqi":70,"pm10":28.4,"pm2_5":21.9,"mosquito_risk":0,"arthritis_risk":5,"migraine_risk":7,"frizz_risk":0,"updated_at":"2026-04-02T16:24:31.348350+05:30"},{"city":"Sagar","state":"Madhya Pradesh","latitude":23.8388,"longitude":78.7378,"temp":34.3,"humidity":27,"rain":0.0,"pressure":950.5,"uv_index":8.0,"wind_gusts":34.2,"aqi":83,"pm10":28.2,"pm2_5":20.5,"mosquito_risk":0,"arthritis_risk":5,"migraine_risk":7,"frizz_risk":0,"updated_at":"2026-04-02T16:24:31.348356+05:30"},{"city":"Satna","state":"Madhya Pradesh","latitude":24.6005,"longitude":80.8322,"temp":36.6,"humidity":25,"rain":0.0,"pressure":971.3,"uv_index":7.7,"wind_gusts":22.3,"aqi":72,"pm10":34.8,"pm2_5":21.9,"mosquito_risk":0,"arthritis_risk":5,"migraine_risk":10,"frizz_risk":0,"updated_at":"2026-04-02T16:24:31.348362+05:30"},{"city":"Akola","state":"Maharashtra","latitude":20.7002,"longitude":77.0082,"temp":33.4,"humidity":42,"rain":0.0,"pressure":974.7,"uv_index":8.6,"wind_gusts":23.4,"aqi":98,"pm10":38.9,"pm2_5":31.4,"mosquito_risk":0,"arthritis_risk":5,"migraine_risk":7,"frizz_risk":1,"updated_at":"2026-04-02T16:24:31.348408+05:30"},{"city":"Amravati","state":"Maharashtra","latitude":20.9374,"longitude":77.7796,"temp":33.3,"humidity":42,"rain":0.0,"pressure":967.2,"uv_index":8.6,"wind_gusts":38.9,"aqi":97,"pm10":36.4,"pm2_5":28.6,"mosquito_risk":0,"arthritis_risk":5,"migraine_risk":7,"frizz_risk":1,"updated_at":"2026-04-02T16:24:31.348418+05:30"},{"city":"Latur","state":"Maharashtra","latitude":18.4088,"longitude":76.5604,"temp":31.4,"humidity":47,"rain":0.0,"pressure":939.5,"uv_index":8.9,"wind_gusts":36.4,"aqi":124,"pm10":33.3,"pm2_5":26.5,"mosquito_risk":0,"arthritis_risk":5,"migraine_risk":7,"frizz_risk":1,"updated_at":"2026-04-02T16:24:31.348425+05:30"},{"city":"Nanded","state":"Maharashtra","latitude":19.1383,"longitude":77.3091,"temp":33.7,"humidity":46,"rain":0.0,"pressure":968.3,"uv_index":8.75,"wind_gusts":29.5,"aqi":111,"pm10":42.7,"pm2_5":34.6,"mosquito_risk":0,"arthritis_risk":5,"migraine_risk":7,"frizz_risk":1,"updated_at":"2026-04-02T16:24:31.348431+05:30"},{"city":"Gulbarga","state":"Karnataka","latitude":17.3297,"longitude":76.8343,"temp":35.7,"humidity":30,"rain":0.0,"pressure":957.9,"uv_index":8.95,"wind_gusts":45.4,"aqi":109,"pm10":19.1,"pm2_5":14.8,"mosquito_risk":0,"arthritis_risk":5,"migraine_risk":10,"frizz_risk":0,"updated_at":"2026-04-02T16:24:31.348437+05:30"},{"city":"Bidar","state":"Karnataka","latitude":17.9104,"longitude":77.5199,"temp":33.4,"humidity":37,"rain":0.0,"pressure":935.3,"uv_index":8.95,"wind_gusts":30.2,"aqi":108,"pm10":24.7,"pm2_5":19.5,"mosquito_risk":0,"arthritis_risk":5,"migraine_risk":7,"frizz_risk":1,"updated_at":"2026-04-02T16:24:31.348443+05:30"},{"city":"Hospet","state":"Karnataka","latitude":15.2689,"longitude":76.3909,"temp":33.7,"humidity":38,"rain":0.0,"pressure":954.9,"uv_index":9.15,"wind_gusts":33.8,"aqi":109,"pm10":21.8,"pm2_5":16.9,"mosquito_risk":0,"arthritis_risk":5,"migraine_risk":7,"frizz_risk":1,"updated_at":"2026-04-02T16:24:31.348448+05:30"},{"city":"Tirupur","state":"Tamil Nadu","latitude":11.1085,"longitude":77.3411,"temp":36.7,"humidity":22,"rain":0.0,"pressure":973.4,"uv_index":9.2,"wind_gusts":30.2,"aqi":57,"pm10":12.3,"pm2_5":9.1,"mosquito_risk":0,"arthritis_risk":5,"migraine_risk":10,"frizz_risk":0,"updated_at":"2026-04-02T16:24:31.348454+05:30"},{"city":"Alappuzha","state":"Kerala","latitude":9.4981,"longitude":76.3388,"temp":29.4,"humidity":76,"rain":0.0,"pressure":1007.3,"uv_index":9.2,"wind_gusts":27.4,"aqi":119,"pm10":22.9,"pm2_5":19.1,"mosquito_risk":7,"arthritis_risk":5,"migraine_risk":4,"frizz_risk":1,"updated_at":"2026-04-02T16:24:31.348460+05:30"},{"city":"Munnar","state":"Kerala","latitude":10.0889,"longitude":77.0595,"temp":27.1,"humidity":62,"rain":0.0,"pressure":857.9,"uv_index":9.75,"wind_gusts":34.9,"aqi":62,"pm10":11.6,"pm2_5":9.4,"mosquito_risk":7,"arthritis_risk":5,"migraine_risk":7,"frizz_risk":1,"updated_at":"2026-04-02T16:24:31.348466+05:30"},{"city":"Silchar","state":"Assam","latitude":24.8333,"longitude":92.7789,"temp":29.2,"humidity":69,"rain":0.0,"pressure":1004.3,"uv_index":8.4,"wind_gusts":34.2,"aqi":139,"pm10":63.6,"pm2_5":53.1,"mosquito_risk":7,"arthritis_risk":5,"migraine_risk":4,"frizz_risk":1,"updated_at":"2026-04-02T16:24:31.348472+05:30"},{"city":"Dibrugarh","state":"Assam","latitude":27.4728,"longitude":94.912,"temp":23.3,"humidity":84,"rain":0.0,"pressure":995.7,"uv_index":7.3,"wind_gusts":26.3,"aqi":95,"pm10":18.0,"pm2_5":16.5,"mosquito_risk":3,"arthritis_risk":5,"migraine_risk":7,"frizz_risk":1,"updated_at":"2026-04-02T16:24:31.348478+05:30"}]