[{"city":"Delhi","state":"Delhi","latitude":28.6139,"longitude":77.209,"temp":21.7,"humidity":82,"rain":0.0,"pressure":985.1,"uv_index":5.3,"wind_gusts":24.5,"aqi":129,"pm10":226.3,"pm2_5":58.3,"mosquito_risk":3,"arthritis_risk":5,"migraine_risk":3,"frizz_risk":1,"updated_at":"2026-03-31T22:31:37.468843+05:30"},{"city":"Mumbai","state":"Maharashtra","latitude":19.076,"longitude":72.8777,"temp":27.7,"humidity":81,"rain":0.0,"pressure":1009.6,"uv_index":8.0,"wind_gusts":25.2,"aqi":58,"pm10":21.6,"pm2_5":12.3,"mosquito_risk":7,"arthritis_risk":0,"migraine_risk":4,"frizz_risk":1,"updated_at":"2026-03-31T22:31:37.468876+05:30"},{"city":"Bangalore","state":"Karnataka","latitude":12.9716,"longitude":77.5946,"temp":25.7,"humidity":55,"rain":0.0,"pressure":913.4,"uv_index":9.55,"wind_gusts":31.0,"aqi":92,"pm10":29.4,"pm2_5":26.6,"mosquito_risk":4,"arthritis_risk":5,"migraine_risk":7,"frizz_risk":0,"updated_at":"2026-03-31T22:31:37.468890+05:30"},{"city":"Hyderabad","state":"Telangana","latitude":17.385,"longitude":78.4867,"temp":24.5,"humidity":82,"rain":0.0,"pressure":955.0,"uv_index":9.05,"wind_gusts":37.4,"aqi":120,"pm10":42.4,"pm2_5":39.1,"mosquito_risk":3,"arthritis_risk":5,"migraine_risk":7,"frizz_risk":1,"updated_at":"2026-03-31T22:31:37.468899+05:30"},{"city":"Chennai","state":"Tamil Nadu","latitude":13.0827,"longitude":80.2707,"temp":27.8,"humidity":74,"rain":0.0,"pressure":1010.0,"uv_index":9.25,"wind_gusts":29.2,"aqi":48,"pm10":15.6,"pm2_5":11.9,"mosquito_risk":7,"arthritis_risk":0,"migraine_risk":4,"frizz_risk":1,"updated_at":"2026-03-31T22:31:37.468907+05:30"},{"city":"Kolkata","state":"West Bengal","latitude":22.5726,"longitude":88.3639,"temp":26.0,"humidity":92,"rain":0.0,"pressure":1008.5,"uv_index":7.35,"wind_gusts":27.0,"aqi":84,"pm10":28.5,"pm2_5":25.0,"mosquito_risk":7,"arthritis_risk":0,"migraine_risk":4,"frizz_risk":1,"updated_at":"2026-03-31T22:31:37.468915+05:30"},{"city":"Pune","state":"Maharashtra","latitude":18.5204,"longitude":73.8567,"temp":27.1,"humidity":73,"rain":0.0,"pressure":949.4,"uv_index":8.55,"wind_gusts":28.4,"aqi":106,"pm10":67.8,"pm2_5":58.6,"mosquito_risk":7,"arthritis_risk":5,"migraine_risk":7,"frizz_risk":1,"updated_at":"2026-03-31T22:31:37.468926+05:30"},{"city":"Ahmedabad","state":"Gujarat","latitude":23.0225,"longitude":72.5714,"temp":29.3,"humidity":52,"rain":0.0,"pressure":1002.2,"uv_index":7.8,"wind_gusts":27.0,"aqi":65,"pm10":68.7,"pm2_5":45.1,"mosquito_risk":4,"arthritis_risk":5,"migraine_risk":4,"frizz_risk":1,"updated_at":"2026-03-31T22:31:37.468933+05:30"},{"city":"Jaipur","state":"Rajasthan","latitude":26.9124,"longitude":75.7873,"temp":21.5,"humidity":79,"rain":0.0,"pressure":961.5,"uv_index":7.45,"wind_gusts":42.8,"aqi":61,"pm10":100.8,"pm2_5":26.0,"mosquito_risk":3,"arthritis_risk":5,"migraine_risk":7,"frizz_risk":1,"updated_at":"2026-03-31T22:31:37.468940+05:30"},{"city":"Lucknow","state":"Uttar Pradesh","latitude":26.8467,"longitude":80.9462,"temp":27.8,"humidity":49,"rain":0.0,"pressure":994.4,"uv_index":7.3,"wind_gusts":27.0,"aqi":152,"pm10":164.4,"pm2_5":42.4,"mosquito_risk":4,"arthritis_risk":5,"migraine_risk":7,"frizz_risk":1,"updated_at":"2026-03-31T22:31:37.468947+05:30"},{"city":"Kanpur","state":"Uttar Pradesh","latitude":26.4499,"longitude":80.3319,"temp":26.3,"humidity":62,"rain":0.0,"pressure":994.2,"uv_index":7.3,"wind_gusts":33.8,"aqi":338,"pm10":290.6,"pm2_5":48.0,"mosquito_risk":7,"arthritis_risk":5,"migraine_risk":7,"frizz_risk":1,"updated_at":"2026-03-31T22:31:37.468953+05:30"},{"city":"Chandigarh","state":"Chandigarh","latitude":30.7333,"longitude":76.7794,"temp":21.1,"humidity":76,"rain":0.0,"pressure":970.1,"uv_index":6.05,"wind_gusts":23.4,"aqi":88,"pm10":78.2,"pm2_5":39.6,"mosquito_risk":3,"arthritis_risk":5,"migraine_risk":7,"frizz_risk":1,"updated_at":"2026-03-31T22:31:37.468960+05:30"},{"city":"Srinagar","state":"Jammu and Kashmir","latitude":34.0837,"longitude":74.7973,"temp":11.2,"humidity":76,"rain":0.0,"pressure":841.7,"uv_index":7.65,"wind_gusts":16.9,"aqi":68,"pm10":58.7,"pm2_5":46.1,"mosquito_risk":3,"arthritis_risk":5,"migraine_risk":7,"frizz_risk":0,"updated_at":"2026-03-31T22:31:37.468966+05:30"},{"city":"Jammu","state":"Jammu and Kashmir","latitude":32.7266,"longitude":74.857,"temp":24.1,"humidity":57,"rain":0.0,"pressure":974.4,"uv_index":6.85,"wind_gusts":38.2,"aqi":70,"pm10":57.3,"pm2_5":39.2,"mosquito_risk":0,"arthritis_risk":5,"migraine_risk":7,"frizz_risk":0,"updated_at":"2026-03-31T22:31:37.468973+05:30"},{"city":"Amritsar","state":"Punjab","latitude":31.634,"longitude":74.8723,"temp":22.5,"humidity":67,"rain":0.0,"pressure":982.5,"uv_index":6.05,"wind_gusts":27.4,"aqi":117,"pm10":97.1,"pm2_5":48.0,"mosquito_risk":3,"arthritis_risk":5,"migraine_risk":7,"frizz_risk":1,"updated_at":"2026-03-31T22:31:37.468979+05:30"},{"city":"Ludhiana","state":"Punjab","latitude":30.901,"longitude":75.8573,"temp":23.1,"humidity":68,"rain":0.0,"pressure":980.3,"uv_index":6.35,"wind_gusts":25.9,"aqi":158,"pm10":139.2,"pm2_5":58.0,"mosquito_risk":3,"arthritis_risk":5,"migraine_risk":7,"frizz_risk":1,"updated_at":"2026-03-31T22:31:37.468984+05:30"},{"city":"Jalandhar","state":"Punjab","latitude":31.326,"longitude":75.5762,"temp":22.6,"humidity":64,"rain":0.0,"pressure":981.4,"uv_index":6.25,"wind_gusts":22.0,"aqi":153,"pm10":110.4,"pm2_5":51.1,"mosquito_risk":3,"arthritis_risk":5,"migraine_risk":7,"frizz_risk":0,"updated_at":"2026-03-31T22:31:37.468993+05:30"},{"city":"Dehradun","state":"Uttarakhand","latitude":30.6284,"longitude":78.0322,"temp":14.5,"humidity":66,"rain":0.0,"pressure":830.8,"uv_index":6.5,"wind_gusts":34.9,"aqi":45,"pm10":29.3,"pm2_5":17.1,"mosquito_risk":3,"arthritis_risk":5,"migraine_risk":7,"frizz_risk":0,"updated_at":"2026-03-31T22:31:37.468999+05:30"},{"city":"Shimla","state":"Himachal Pradesh","latitude":31.1048,"longitude":77.1734,"temp":12.3,"humidity":70,"rain":0.0,"pressure":784.4,"uv_index":6.4,"wind_gusts":32.0,"aqi":52,"pm10":35.3,"pm2_5":22.9,"mosquito_risk":3,"arthritis_risk":5,"migraine_risk":7,"frizz_risk":0,"updated_at":"2026-03-31T22:31:37.469005+05:30"},{"city":"Manali","state":"Himachal Pradesh","latitude":32.2396,"longitude":77.1887,"temp":14.4,"humidity":77,"rain":0.0,"pressure":820.6,"uv_index":9.0,"wind_gusts":38.2,"aqi":60,"pm10":14.5,"pm2_5":9.8,"mosquito_risk":3,"arthritis_risk":5,"migraine_risk":7,"frizz_risk":0,"updated_at":"2026-03-31T22:31:37.469011+05:30"},{"city":"Gurgaon","state":"Haryana","latitude":28.4595,"longitude":77.0266,"temp":19.7,"humidity":93,"rain":0.0,"pressure":983.4,"uv_index":6.05,"wind_gusts":25.6,"aqi":188,"pm10":556.9,"pm2_5":101.3,"mosquito_risk":3,"arthritis_risk":10,"migraine_risk":7,"frizz_risk":1,"updated_at":"2026-03-31T22:31:37.469017+05:30"},{"city":"Noida","state":"Uttar Pradesh","latitude":28.5355,"longitude":77.391,"temp":21.9,"humidity":80,"rain":0.0,"pressure":986.6,"uv_index":5.5,"wind_gusts":26.3,"aqi":188,"pm10":556.9,"pm2_5":101.3,"mosquito_risk":3,"arthritis_risk":5,"migraine_risk":3,"frizz_risk":1,"updated_at":"2026-03-31T22:31:37.469023+05:30"},{"city":"Ghaziabad","state":"Uttar Pradesh","latitude":28.6692,"longitude":77.4538,"temp":21.5,"humidity":83,"rain":0.0,"pressure":984.7,"uv_index":5.6,"wind_gusts":22.7,"aqi":124,"pm10":187.7,"pm2_5":54.0,"mosquito_risk":3,"arthritis_risk":5,"migraine_risk":3,"frizz_risk":1,"updated_at":"2026-03-31T22:31:37.469029+05:30"},{"city":"Faridabad","state":"Haryana","latitude":28.4089,"longitude":77.3178,"temp":20.9,"humidity":81,"rain":0.0,"pressure":985.9,"uv_index":5.95,"wind_gusts":29.9,"aqi":188,"pm10":556.9,"pm2_5":101.3,"mosquito_risk":3,"arthritis_risk":5,"migraine_risk":3,"frizz_risk":1,"updated_at":"2026-03-31T22:31:37.469035+05:30"},{"city":"Meerut","state":"Uttar Pradesh","latitude":28.9845,"longitude":77.7064,"temp":21.3,"humidity":82,"rain":0.0,"pressure":983.2,"uv_index":5.7,"wind_gusts":22.3,"aqi":124,"pm10":187.7,"pm2_5":54.0,"mosquito_risk":3,"arthritis_risk":5,"migraine_risk":3,"frizz_risk":1,"updated_at":"2026-03-31T22:31:37.469042+05:30"},{"city":"Agra","state":"Uttar Pradesh","latitude":27.1767,"longitude":78.0081,"temp":22.7,"humidity":81,"rain":0.0,"pressure":990.6,"uv_index":7.15,"wind_gusts":45.7,"aqi":332,"pm10":414.4,"pm2_5":72.9,"mosquito_risk":3,"arthritis_risk":5,"migraine_risk":7,"frizz_risk":1,"updated_at":"2026-03-31T22:31:37.469048+05:30"},{"city":"Varanasi","state":"Uttar Pradesh","latitude":25.3176,"longitude":82.9739,"temp":26.5,"humidity":60,"rain":0.0,"pressure":998.2,"uv_index":7.45,"wind_gusts":22.7,"aqi":150,"pm10":141.6,"pm2_5":75.7,"mosquito_risk":4,"arthritis_risk":5,"migraine_risk":7,"frizz_risk":1,"updated_at":"2026-03-31T22:31:37.469056+05:30"},{"city":"Prayagraj","state":"Uttar Pradesh","latitude":25.4358,"longitude":81.8463,"temp":28.2,"humidity":55,"rain":0.0,"pressure":996.5,"uv_index":7.55,"wind_gusts":19.8,"aqi":152,"pm10":65.7,"pm2_5":33.8,"mosquito_risk":4,"arthritis_risk":5,"migraine_risk":7,"frizz_risk":1,"updated_at":"2026-03-31T22:31:37.469063+05:30"},{"city":"Gorakhpur","state":"Uttar Pradesh","latitude":26.7606,"longitude":83.3732,"temp":25.3,"humidity":70,"rain":0.0,"pressure":998.4,"uv_index":7.35,"wind_gusts":22.0,"aqi":155,"pm10":60.8,"pm2_5":46.4,"mosquito_risk":7,"arthritis_risk":5,"migraine_risk":7,"frizz_risk":1,"updated_at":"2026-03-31T22:31:37.469069+05:30"},{"city":"Bareilly","state":"Uttar Pradesh","latitude":28.367,"longitude":79.4304,"temp":23.9,"humidity":59,"rain":0.0,"pressure":988.2,"uv_index":6.4,"wind_gusts":32.0,"aqi":87,"pm10":111.3,"pm2_5":38.0,"mosquito_risk":0,"arthritis_risk":5,"migraine_risk":7,"frizz_risk":0,"updated_at":"2026-03-31T22:31:37.469075+05:30"},{"city":"Aligarh","state":"Uttar Pradesh","latitude":27.8974,"longitude":78.088,"temp":23.0,"humidity":75,"rain":0.0,"pressure":987.9,"uv_index":6.4,"wind_gusts":25.2,"aqi":198,"pm10":427.5,"pm2_5":78.9,"mosquito_risk":3,"arthritis_risk":5,"migraine_risk":7,"frizz_risk":1,"updated_at":"2026-03-31T22:31:37.469080+05:30"},{"city":"Moradabad","state":"Uttar Pradesh","latitude":28.8386,"longitude":78.7733,"temp":22.9,"humidity":66,"rain":0.0,"pressure":985.2,"uv_index":6.25,"wind_gusts":28.4,"aqi":95,"pm10":69.2,"pm2_5":35.9,"mosquito_risk":3,"arthritis_risk":5,"migraine_risk":7,"frizz_risk":1,"updated_at":"2026-03-31T22:31:37.469086+05:30"},{"city":"Saharanpur","state":"Uttar Pradesh","latitude":29.9637,"longitude":77.546,"temp":21.4,"humidity":74,"rain":0.0,"pressure":977.3,"uv_index":5.65,"wind_gusts":25.2,"aqi":146,"pm10":186.3,"pm2_5":53.2,"mosquito_risk":3,"arthritis_risk":5,"migraine_risk":3,"frizz_risk":1,"updated_at":"2026-03-31T22:31:37.469093+05:30"},{"city":"Jhansi","state":"Uttar Pradesh","latitude":25.4484,"longitude":78.5685,"temp":24.4,"humidity":69,"rain":0.0,"pressure":981.1,"uv_index":7.8,"wind_gusts":56.2,"aqi":47,"pm10":13.9,"pm2_5":9.9,"mosquito_risk":3,"arthritis_risk":5,"migraine_risk":7,"frizz_risk":1,"updated_at":"2026-03-31T22:31:40.786828+05:30"},{"city":"Surat","state":"Gujarat","latitude":21.1702,"longitude":72.8311,"temp":26.5,"humidity":84,"rain":0.0,"pressure":1007.6,"uv_index":7.8,"wind_gusts":28.4,"aqi":80,"pm10":31.5,"pm2_5":22.4,"mosquito_risk":7,"arthritis_risk":5,"migraine_risk":4,"frizz_risk":1,"updated_at":"2026-03-31T22:31:40.786860+05:30"},{"city":"Vadodara","state":"Gujarat","latitude":22.3072,"longitude":73.1812,"temp":28.7,"humidity":61,"rain":0.0,"pressure":1004.3,"uv_index":8.0,"wind_gusts":27.4,"aqi":75,"pm10":28.5,"pm2_5":25.1,"mosquito_risk":7,"arthritis_risk":5,"migraine_risk":4,"frizz_risk":1,"updated_at":"2026-03-31T22:31:40.786872+05:30"},{"city":"Rajkot","state":"Gujarat","latitude":22.3039,"longitude":70.8022,"temp":25.6,"humidity":63,"rain":0.0,"pressure":995.7,"uv_index":7.75,"wind_gusts":33.5,"aqi":68,"pm10":21.9,"pm2_5":13.9,"mosquito_risk":7,"arthritis_risk":5,"migraine_risk":7,"frizz_risk":1,"updated_at":"2026-03-31T22:31:40.786882+05:30"},{"city":"Thane","state":"Maharashtra","latitude":19.2183,"longitude":72.9781,"temp":26.6,"humidity":83,"rain":0.0,"pressure":1009.1,"uv_index":8.0,"wind_gusts":37.1,"aqi":58,"pm10":21.6,"pm2_5":12.3,"mosquito_risk":7,"arthritis_risk":0,"migraine_risk":4,"frizz_risk":1,"updated_at":"2026-03-31T22:31:40.786891+05:30"},{"city":"Nagpur","state":"Maharashtra","latitude":21.1458,"longitude":79.0882,"temp":28.0,"humidity":60,"rain":0.0,"pressure":974.1,"uv_index":8.55,"wind_gusts":20.2,"aqi":70,"pm10":44.2,"pm2_5":38.4,"mosquito_risk":4,"arthritis_risk":5,"migraine_risk":7,"frizz_risk":1,"updated_at":"2026-03-31T22:31:40.786899+05:30"},{"city":"Nashik","state":"Maharashtra","latitude":19.9975,"longitude":73.7898,"temp":24.7,"humidity":81,"rain":0.0,"pressure":946.8,"uv_index":8.25,"wind_gusts":31.0,"aqi":63,"pm10":13.3,"pm2_5":8.5,"mosquito_risk":3,"arthritis_risk":5,"migraine_risk":7,"frizz_risk":1,"updated_at":"2026-03-31T22:31:40.786911+05:30"},{"city":"Aurangabad","state":"Maharashtra","latitude":19.8762,"longitude":75.3433,"temp":25.8,"humidity":71,"rain":0.0,"pressure":944.9,"uv_index":8.75,"wind_gusts":27.7,"aqi":72,"pm10":46.0,"pm2_5":36.6,"mosquito_risk":7,"arthritis_risk":5,"migraine_risk":7,"frizz_risk":1,"updated_at":"2026-03-31T22:31:40.786919+05:30"},{"city":"Solapur","state":"Maharashtra","latitude":17.6599,"longitude":75.9064,"temp":29.0,"humidity":52,"rain":0.0,"pressure":957.9,"uv_index":8.9,"wind_gusts":24.8,"aqi":102,"pm10":52.6,"pm2_5":45.1,"mosquito_risk":4,"arthritis_risk":5,"migraine_risk":7,"frizz_risk":1,"updated_at":"2026-03-31T22:31:40.786928+05:30"},{"city":"Kolhapur","state":"Maharashtra","latitude":16.705,"longitude":74.2433,"temp":24.3,"humidity":88,"rain":0.0,"pressure":948.6,"uv_index":9.0,"wind_gusts":26.6,"aqi":114,"pm10":75.0,"pm2_5":70.3,"mosquito_risk":3,"arthritis_risk":5,"migraine_risk":7,"frizz_risk":1,"updated_at":"2026-03-31T22:31:40.786936+05:30"},{"city":"Goa","state":"Goa","latitude":15.2993,"longitude":74.124,"temp":28.7,"humidity":80,"rain":0.0,"pressure":998.9,"uv_index":9.0,"wind_gusts":34.2,"aqi":79,"pm10":40.2,"pm2_5":28.9,"mosquito_risk":7,"arthritis_risk":5,"migraine_risk":7,"frizz_risk":1,"updated_at":"2026-03-31T22:31:40.786944+05:30"},{"city":"Jodhpur","state":"Rajasthan","latitude":26.2389,"longitude":73.0243,"temp":27.3,"humidity":47,"rain":0.0,"pressure":984.1,"uv_index":7.7,"wind_gusts":38.5,"aqi":68,"pm10":188.1,"pm2_5":29.9,"mosquito_risk":4,"arthritis_risk":5,"migraine_risk":7,"frizz_risk":0,"updated_at":"2026-03-31T22:31:40.786952+05:30"},{"city":"Udaipur","state":"Rajasthan","latitude":24.5854,"longitude":73.7125,"temp":25.1,"humidity":58,"rain":0.0,"pressure":947.5,"uv_index":8.2,"wind_gusts":37.4,"aqi":46,"pm10":23.7,"pm2_5":11.6,"mosquito_risk":4,"arthritis_risk":5,"migraine_risk":7,"frizz_risk":1,"updated_at":"2026-03-31T22:31:40.786960+05:30"},{"city":"Kota","state":"Rajasthan","latitude":25.2138,"longitude":75.8648,"temp":25.7,"humidity":65,"rain":0.0,"pressure":980.5,"uv_index":7.8,"wind_gusts":40.0,"aqi":51,"pm10":17.9,"pm2_5":13.5,"mosquito_risk":7,"arthritis_risk":5,"migraine_risk":7,"frizz_risk":1,"updated_at":"2026-03-31T22:31:40.786967+05:30"},{"city":"Bikaner","state":"Rajasthan","latitude":28.0229,"longitude":73.3119,"temp":26.0,"humidity":61,"rain":0.0,"pressure":982.8,"uv_index":6.55,"wind_gusts":38.5,"aqi":53,"pm10":28.9,"pm2_5":13.8,"mosquito_risk":7,"arthritis_risk":5,"migraine_risk":7,"frizz_risk":1,"updated_at":"2026-03-31T22:31:40.786976+05:30"},{"city":"Ajmer","state":"Rajasthan","latitude":26.4499,"longitude":74.6399,"temp":23.7,"humidity":72,"rain":0.0,"pressure":956.0,"uv_index":7.65,"wind_gusts":38.5,"aqi":43,"pm10":25.4,"pm2_5":18.5,"mosquito_risk":3,"arthritis_risk":5,"migraine_risk":7,"frizz_risk":1,"updated_at":"2026-03-31T22:31:40.786983+05:30"},{"city":"Gwalior","state":"Madhya Pradesh","latitude":26.2183,"longitude":78.1828,"temp":22.5,"humidity":83,"rain":0.0,"pressure":986.9,"uv_index":7.35,"wind_gusts":40.3,"aqi":43,"pm10":59.3,"pm2_5":19.7,"mosquito_risk":3,"arthritis_risk":5,"migraine_risk":7,"frizz_risk":1,"updated_at":"2026-03-31T22:31:40.786992+05:30"},{"city":"Indore","state":"Madhya Pradesh","latitude":22.7196,"longitude":75.8577,"temp":26.6,"humidity":53,"rain":0.0,"pressure":948.4,"uv_index":8.3,"wind_gusts":25.6,"aqi":65,"pm10":37.0,"pm2_5":32.8,"mosquito_risk":4,"arthritis_risk":5,"migraine_risk":7,"frizz_risk":1,"updated_at":"2026-03-31T22:31:40.786999+05:30"},{"city":"Bhopal","state":"Madhya Pradesh","latitude":23.2599,"longitude":77.4126,"temp":27.5,"humidity":43,"rain":0.0,"pressure":953.9,"uv_index":8.25,"wind_gusts":28.4,"aqi":65,"pm10":30.3,"pm2_5":27.0,"mosquito_risk":4,"arthritis_risk":5,"migraine_risk":7,"frizz_risk":0,"updated_at":"2026-03-31T22:31:40.787007+05:30"},{"city":"Jabalpur","state":"Madhya Pradesh","latitude":23.1815,"longitude":79.9864,"temp":27.4,"humidity":54,"rain":0.0,"pressure":962.0,"uv_index":8.35,"wind_gusts":18.4,"aqi":69,"pm10":57.5,"pm2_5":30.0,"mosquito_risk":4,"arthritis_risk":5,"migraine_risk":7,"frizz_risk":1,"updated_at":"2026-03-31T22:31:40.787015+05:30"},{"city":"Ujjain","state":"Madhya Pradesh","latitude":23.1765,"longitude":75.7885,"temp":27.1,"humidity":54,"rain":0.0,"pressure":954.3,"uv_index":8.2,"wind_gusts":25.6,"aqi":61,"pm10":32.6,"pm2_5":29.2,"mosquito_risk":4,"arthritis_risk":5,"migraine_risk":7,"frizz_risk":1,"updated_at":"2026-03-31T22:31:40.787023+05:30"},{"city":"Visakhapatnam","state":"Andhra Pradesh","latitude":17.6868,"longitude":83.2185,"temp":26.7,"humidity":84,"rain":0.0,"pressure":1006.3,"uv_index":9.0,"wind_gusts":35.6,"aqi":66,"pm10":23.5,"pm2_5":19.6,"mosquito_risk":7,"arthritis_risk":5,"migraine_risk":4,"frizz_risk":1,"updated_at":"2026-03-31T22:31:40.787031+05:30"},{"city":"Vijayawada","state":"Andhra Pradesh","latitude":16.5062,"longitude":80.648,"temp":27.3,"humidity":76,"rain":0.0,"pressure":1004.9,"uv_index":9.05,"wind_gusts":24.8,"aqi":58,"pm10":15.6,"pm2_5":13.7,"mosquito_risk":7,"arthritis_risk":5,"migraine_risk":4,"frizz_risk":1,"updated_at":"2026-03-31T22:31:40.787039+05:30"},{"city":"Guntur","state":"Andhra Pradesh","latitude":16.3067,"longitude":80.4365,"temp":26.8,"humidity":83,"rain":0.0,"pressure":1006.2,"uv_index":9.1,"wind_gusts":28.8,"aqi":58,"pm10":13.8,"pm2_5":12.0,"mosquito_risk":7,"arthritis_risk":5,"migraine_risk":4,"frizz_risk":1,"updated_at":"2026-03-31T22:31:40.787047+05:30"},{"city":"Nellore","state":"Andhra Pradesh","latitude":14.4426,"longitude":79.9865,"temp":26.8,"humidity":81,"rain":0.0,"pressure":1008.6,"uv_index":9.2,"wind_gusts":28.1,"aqi":51,"pm10":12.5,"pm2_5":9.5,"mosquito_risk":7,"arthritis_risk":0,"migraine_risk":4,"frizz_risk":1,"updated_at":"2026-03-31T22:31:40.787055+05:30"},{"city":"Kurnool","state":"Andhra Pradesh","latitude":15.8281,"longitude":78.0373,"temp":28.9,"humidity":66,"rain":0.0,"pressure":978.6,"uv_index":9.1,"wind_gusts":26.6,"aqi":87,"pm10":29.6,"pm2_5":26.1,"mosquito_risk":7,"arthritis_risk":5,"migraine_risk":7,"frizz_risk":1,"updated_at":"2026-03-31T22:31:40.787062+05:30"},{"city":"Kakinada","state":"Andhra Pradesh","latitude":16.9891,"longitude":82.2475,"temp":26.3,"humidity":85,"rain":0.0,"pressure":1010.0,"uv_index":9.05,"wind_gusts":33.8,"aqi":51,"pm10":16.5,"pm2_5":12.4,"mosquito_risk":7,"arthritis_risk":0,"migraine_risk":4,"frizz_risk":1,"updated_at":"2026-03-31T22:31:40.787067+05:30"},{"city":"Tirupati","state":"Andhra Pradesh","latitude":13.6288,"longitude":79.4192,"temp":26.3,"humidity":79,"rain":0.0,"pressure":994.6,"uv_index":9.3,"wind_gusts":37.1,"aqi":70,"pm10":17.2,"pm2_5":15.2,"mosquito_risk":7,"arthritis_risk":5,"migraine_risk":7,"frizz_risk":1,"updated_at":"2026-03-31T22:31:40.787073+05:30"},{"city":"Warangal","state":"Telangana","latitude":17.9689,"longitude":79.5941,"temp":28.6,"humidity":71,"rain":0.0,"pressure":980.2,"uv_index":8.9,"wind_gusts":26.3,"aqi":131,"pm10":58.0,"pm2_5":54.0,"mosquito_risk":7,"arthritis_risk":5,"migraine_risk":7,"frizz_risk":1,"updated_at":"2026-03-31T22:31:40.787078+05:30"},{"city":"Nizamabad","state":"Telangana","latitude":18.6725,"longitude":78.0941,"temp":26.9,"humidity":67,"rain":0.0,"pressure":966.3,"uv_index":8.8,"wind_gusts":33.5,"aqi":109,"pm10":90.1,"pm2_5":78.9,"mosquito_risk":7,"arthritis_risk":5,"migraine_risk":7,"frizz_risk":1,"updated_at":"2026-03-31T22:31:40.787084+05:30"},{"city":"Mysore","state":"Karnataka","latitude":12.2958,"longitude":76.6396,"temp":25.3,"humidity":73,"rain":0.0,"pressure":929.7,"uv_index":9.5,"wind_gusts":28.4,"aqi":109,"pm10":41.2,"pm2_5":36.2,"mosquito_risk":7,"arthritis_risk":5,"migraine_risk":7,"frizz_risk":1,"updated_at":"2026-03-31T22:31:40.787089+05:30"},{"city":"Mangalore","state":"Karnataka","latitude":12.9141,"longitude":74.856,"temp":29.7,"humidity":77,"rain":0.0,"pressure":1007.5,"uv_index":8.85,"wind_gusts":27.0,"aqi":89,"pm10":28.7,"pm2_5":21.2,"mosquito_risk":7,"arthritis_risk":5,"migraine_risk":4,"frizz_risk":1,"updated_at":"2026-03-31T22:31:40.787095+05:30"},{"city":"Hubli-Dharwad","state":"Karnataka","latitude":15.3647,"longitude":75.124,"temp":25.5,"humidity":72,"rain":0.0,"pressure":942.1,"uv_index":9.1,"wind_gusts":30.2,"aqi":90,"pm10":53.1,"pm2_5":48.4,"mosquito_risk":7,"arthritis_risk":5,"migraine_risk":7,"frizz_risk":1,"updated_at":"2026-03-31T22:31:40.787101+05:30"},{"city":"Belgaum","state":"Karnataka","latitude":15.8497,"longitude":74.4977,"temp":24.0,"humidity":87,"rain":0.0,"pressure":926.6,"uv_index":9.1,"wind_gusts":36.0,"aqi":98,"pm10":62.4,"pm2_5":54.5,"mosquito_risk":3,"arthritis_risk":5,"migraine_risk":7,"frizz_risk":1,"updated_at":"2026-03-31T22:31:44.099397+05:30"},{"city":"Coimbatore","state":"Tamil Nadu","latitude":11.0168,"longitude":76.9558,"temp":25.6,"humidity":80,"rain":0.0,"pressure":963.3,"uv_index":9.45,"wind_gusts":38.9,"aqi":91,"pm10":27.6,"pm2_5":23.2,"mosquito_risk":7,"arthritis_risk":5,"migraine_risk":7,"frizz_risk":1,"updated_at":"2026-03-31T22:31:44.099421+05:30"},{"city":"Madurai","state":"Tamil Nadu","latitude":9.9252,"longitude":78.1198,"temp":27.8,"humidity":72,"rain":0.0,"pressure":995.2,"uv_index":9.25,"wind_gusts":32.8,"aqi":65,"pm10":16.2,"pm2_5":14.6,"mosquito_risk":7,"arthritis_risk":5,"migraine_risk":7,"frizz_risk":1,"updated_at":"2026-03-31T22:31:44.099430+05:30"},{"city":"Trichy","state":"Tamil Nadu","latitude":10.7905,"longitude":78.7047,"temp":27.0,"humidity":75,"rain":0.0,"pressure":1001.9,"uv_index":9.35,"wind_gusts":25.9,"aqi":57,"pm10":16.6,"pm2_5":14.8,"mosquito_risk":7,"arthritis_risk":5,"migraine_risk":4,"frizz_risk":1,"updated_at":"2026-03-31T22:31:44.099438+05:30"},{"city":"Salem","state":"Tamil Nadu","latitude":11.6643,"longitude":78.146,"temp":28.2,"humidity":64,"rain":0.0,"pressure":979.0,"uv_index":9.45,"wind_gusts":35.6,"aqi":87,"pm10":30.6,"pm2_5":27.8,"mosquito_risk":7,"arthritis_risk":5,"migraine_risk":7,"frizz_risk":1,"updated_at":"2026-03-31T22:31:44.099444+05:30"},{"city":"Tirunelveli","state":"Tamil Nadu","latitude":8.7139,"longitude":77.7567,"temp":27.5,"humidity":80,"rain":0.0,"pressure":1005.2,"uv_index":8.75,"wind_gusts":46.4,"aqi":79,"pm10":22.1,"pm2_5":20.6,"mosquito_risk":7,"arthritis_risk":5,"migraine_risk":4,"frizz_risk":1,"updated_at":"2026-03-31T22:31:44.099450+05:30"},{"city":"Vellore","state":"Tamil Nadu","latitude":12.9165,"longitude":79.1325,"temp":26.4,"humidity":75,"rain":0.0,"pressure":987.3,"uv_index":9.35,"wind_gusts":33.5,"aqi":85,"pm10":21.7,"pm2_5":19.6,"mosquito_risk":7,"arthritis_risk":5,"migraine_risk":7,"frizz_risk":1,"updated_at":"2026-03-31T22:31:44.099456+05:30"},{"city":"Erode","state":"Tamil Nadu","latitude":11.341,"longitude":77.7172,"temp":29.7,"humidity":59,"rain":0.0,"pressure":990.4,"uv_index":9.4,"wind_gusts":23.4,"aqi":65,"pm10":19.0,"pm2_5":16.4,"mosquito_risk":4,"arthritis_risk":5,"migraine_risk":7,"frizz_risk":1,"updated_at":"2026-03-31T22:31:44.099462+05:30"},{"city":"Kochi","state":"Kerala","latitude":9.9312,"longitude":76.2673,"temp":29.0,"humidity":81,"rain":0.0,"pressure":1009.9,"uv_index":9.2,"wind_gusts":28.4,"aqi":127,"pm10":42.4,"pm2_5":39.8,"mosquito_risk":7,"arthritis_risk":0,"migraine_risk":4,"frizz_risk":1,"updated_at":"2026-03-31T22:31:44.099468+05:30"},{"city":"Thiruvananthapuram","state":"Kerala","latitude":8.5241,"longitude":76.9366,"temp":28.7,"humidity":79,"rain":0.0,"pressure":1009.3,"uv_index":9.05,"wind_gusts":26.6,"aqi":94,"pm10":24.5,"pm2_5":20.0,"mosquito_risk":7,"arthritis_risk":0,"migraine_risk":4,"frizz_risk":1,"updated_at":"2026-03-31T22:31:44.099474+05:30"},{"city":"Kozhikode","state":"Kerala","latitude":11.2588,"longitude":75.7804,"temp":29.4,"humidity":81,"rain":0.0,"pressure":1008.5,"uv_index":8.65,"wind_gusts":27.4,"aqi":113,"pm10":27.8,"pm2_5":20.8,"mosquito_risk":7,"arthritis_risk":0,"migraine_risk":4,"frizz_risk":1,"updated_at":"2026-03-31T22:31:44.099480+05:30"},{"city":"Thrissur","state":"Kerala","latitude":10.5276,"longitude":76.2144,"temp":28.6,"humidity":85,"rain":0.0,"pressure":1007.7,"uv_index":8.85,"wind_gusts":36.7,"aqi":125,"pm10":43.9,"pm2_5":41.0,"mosquito_risk":7,"arthritis_risk":5,"migraine_risk":4,"frizz_risk":1,"updated_at":"2026-03-31T22:31:44.099486+05:30"},{"city":"Kannur","state":"Kerala","latitude":11.8745,"longitude":75.3704,"temp":29.2,"humidity":77,"rain":0.0,"pressure":1007.7,"uv_index":9.05,"wind_gusts":28.8,"aqi":110,"pm10":32.5,"pm2_5":28.0,"mosquito_risk":7,"arthritis_risk":5,"migraine_risk":4,"frizz_risk":1,"updated_at":"2026-03-31T22:31:44.099492+05:30"},{"city":"Patna","state":"Bihar","latitude":25.5941,"longitude":85.1376,"temp":26.8,"humidity":82,"rain":0.0,"pressure":1001.9,"uv_index":7.95,"wind_gusts":23.0,"aqi":161,"pm10":87.1,"pm2_5":70.5,"mosquito_risk":7,"arthritis_risk":5,"migraine_risk":4,"frizz_risk":1,"updated_at":"2026-03-31T22:31:44.099497+05:30"},{"city":"Gaya","state":"Bihar","latitude":24.7914,"longitude":85.0002,"temp":25.6,"humidity":82,"rain":0.0,"pressure":995.4,"uv_index":8.05,"wind_gusts":18.0,"aqi":135,"pm10":88.9,"pm2_5":45.9,"mosquito_risk":7,"arthritis_risk":5,"migraine_risk":7,"frizz_risk":1,"updated_at":"2026-03-31T22:31:44.099503+05:30"},{"city":"Muzaffarpur","state":"Bihar","latitude":26.1209,"longitude":85.3647,"temp":24.9,"humidity":83,"rain":0.0,"pressure":1001.9,"uv_index":7.8,"wind_gusts":26.6,"aqi":166,"pm10":93.8,"pm2_5":79.2,"mosquito_risk":3,"arthritis_risk":5,"migraine_risk":4,"frizz_risk":1,"updated_at":"2026-03-31T22:31:44.099509+05:30"},{"city":"Bhagalpur","state":"Bihar","latitude":25.2425,"longitude":87.0117,"temp":25.7,"humidity":84,"rain":0.0,"pressure":1003.1,"uv_index":8.1,"wind_gusts":21.6,"aqi":162,"pm10":81.7,"pm2_5":73.6,"mosquito_risk":7,"arthritis_risk":5,"migraine_risk":4,"frizz_risk":1,"updated_at":"2026-03-31T22:31:44.099514+05:30"},{"city":"Ranchi","state":"Jharkhand","latitude":23.3441,"longitude":85.3096,"temp":23.7,"humidity":73,"rain":0.0,"pressure":939.8,"uv_index":8.45,"wind_gusts":23.8,"aqi":82,"pm10":36.3,"pm2_5":20.8,"mosquito_risk":3,"arthritis_risk":5,"migraine_risk":7,"frizz_risk":1,"updated_at":"2026-03-31T22:31:44.099521+05:30"},{"city":"Jamshedpur","state":"Jharkhand","latitude":22.8046,"longitude":86.2029,"temp":26.6,"humidity":79,"rain":0.0,"pressure":993.3,"uv_index":8.65,"wind_gusts":27.0,"aqi":134,"pm10":50.6,"pm2_5":41.3,"mosquito_risk":7,"arthritis_risk":5,"migraine_risk":7,"frizz_risk":1,"updated_at":"2026-03-31T22:31:44.099527+05:30"},{"city":"Dhanbad","state":"Jharkhand","latitude":23.7957,"longitude":86.4304,"temp":25.1,"humidity":79,"rain":0.0,"pressure":982.2,"uv_index":8.55,"wind_gusts":23.4,"aqi":161,"pm10":95.9,"pm2_5":84.8,"mosquito_risk":7,"arthritis_risk":5,"migraine_risk":7,"frizz_risk":1,"updated_at":"2026-03-31T22:31:44.099533+05:30"},{"city":"Bokaro","state":"Jharkhand","latitude":23.6693,"longitude":86.1511,"temp":25.3,"humidity":83,"rain":0.0,"pressure":986.4,"uv_index":8.55,"wind_gusts":24.5,"aqi":157,"pm10":84.8,"pm2_5":67.5,"mosquito_risk":7,"arthritis_risk":5,"migraine_risk":7,"frizz_risk":1,"updated_at":"2026-03-31T22:31:44.099539+05:30"},{"city":"Bhubaneswar","state":"Odisha","latitude":20.2961,"longitude":85.8245,"temp":27.0,"humidity":88,"rain":0.0,"pressure":1005.3,"uv_index":8.85,"wind_gusts":26.6,"aqi":112,"pm10":27.8,"pm2_5":25.4,"mosquito_risk":7,"arthritis_risk":5,"migraine_risk":4,"frizz_risk":1,"updated_at":"2026-03-31T22:31:44.099545+05:30"},{"city":"Cuttack","state":"Odisha","latitude":20.4625,"longitude":85.8828,"temp":27.5,"humidity":85,"rain":0.0,"pressure":1007.0,"uv_index":8.85,"wind_gusts":30.6,"aqi":112,"pm10":27.8,"pm2_5":25.4,"mosquito_risk":7,"arthritis_risk":5,"migraine_risk":4,"frizz_risk":1,"updated_at":"2026-03-31T22:31:44.099551+05:30"},{"city":"Rourkela","state":"Odisha","latitude":22.2604,"longitude":84.8536,"temp":27.6,"humidity":77,"rain":0.0,"pressure":986.9,"uv_index":8.35,"wind_gusts":16.9,"aqi":99,"pm10":56.1,"pm2_5":43.1,"mosquito_risk":7,"arthritis_risk":5,"migraine_risk":7,"frizz_risk":1,"updated_at":"2026-03-31T22:31:44.099557+05:30"},{"city":"Raipur","state":"Chhattisgarh","latitude":21.2514,"longitude":81.6296,"temp":27.7,"humidity":51,"rain":0.0,"pressure":975.9,"uv_index":7.9,"wind_gusts":33.1,"aqi":124,"pm10":133.6,"pm2_5":62.4,"mosquito_risk":4,"arthritis_risk":5,"migraine_risk":7,"frizz_risk":1,"updated_at":"2026-03-31T22:31:44.099563+05:30"},{"city":"Bhilai","state":"Chhattisgarh","latitude":21.1938,"longitude":81.3509,"temp":27.4,"humidity":52,"rain":0.0,"pressure":976.1,"uv_index":8.45,"wind_gusts":29.2,"aqi":102,"pm10":113.9,"pm2_5":57.2,"mosquito_risk":4,"arthritis_risk":5,"migraine_risk":7,"frizz_risk":1,"updated_at":"2026-03-31T22:31:44.099569+05:30"},{"city":"Guwahati","state":"Assam","latitude":26.1158,"longitude":91.7086,"temp":23.5,"humidity":92,"rain":0.0,"pressure":1004.7,"uv_index":8.0,"wind_gusts":19.8,"aqi":113,"pm10":43.4,"pm2_5":37.1,"mosquito_risk":3,"arthritis_risk":5,"migraine_risk":4,"frizz_risk":1,"updated_at":"2026-03-31T22:31:44.099574+05:30"},{"city":"Agartala","state":"Tripura","latitude":23.8315,"longitude":91.2868,"temp":23.8,"humidity":95,"rain":0.0,"pressure":1008.9,"uv_index":8.3,"wind_gusts":20.9,"aqi":87,"pm10":51.8,"pm2_5":48.7,"mosquito_risk":3,"arthritis_risk":0,"migraine_risk":4,"frizz_risk":1,"updated_at":"2026-03-31T22:31:44.099580+05:30"},{"city":"Shillong","state":"Meghalaya","latitude":25.5788,"longitude":91.8933,"temp":13.5,"humidity":93,"rain":0.0,"pressure":857.3,"uv_index":8.35,"wind_gusts":39.6,"aqi":84,"pm10":13.4,"pm2_5":12.1,"mosquito_risk":3,"arthritis_risk":10,"migraine_risk":7,"frizz_risk":0,"updated_at":"2026-03-31T22:31:44.099586+05:30"},{"city":"Imphal","state":"Manipur","latitude":24.817,"longitude":93.9368,"temp":17.7,"humidity":88,"rain":0.0,"pressure":925.5,"uv_index":8.6,"wind_gusts":59.4,"aqi":63,"pm10":43.3,"pm2_5":40.9,"mosquito_risk":3,"arthritis_risk":10,"migraine_risk":7,"frizz_risk":0,"updated_at":"2026-03-31T22:31:44.099593+05:30"},{"city":"Aizawl","state":"Mizoram","latitude":23.7271,"longitude":92.7176,"temp":18.5,"humidity":94,"rain":0.0,"pressure":894.6,"uv_index":8.55,"wind_gusts":40.7,"aqi":116,"pm10":42.8,"pm2_5":37.7,"mosquito_risk":3,"arthritis_risk":10,"migraine_risk":7,"frizz_risk":1,"updated_at":"2026-03-31T22:31:44.099599+05:30"},{"city":"Kohima","state":"Nagaland","latitude":25.6701,"longitude":94.1077,"temp":14.7,"humidity":92,"rain":0.0,"pressure":856.2,"uv_index":8.45,"wind_gusts":78.1,"aqi":56,"pm10":19.4,"pm2_5":17.6,"mosquito_risk":3,"arthritis_risk":10,"migraine_risk":7,"frizz_risk":0,"updated_at":"2026-03-31T22:31:44.099605+05:30"},{"city":"Gangtok","state":"Sikkim","latitude":27.3314,"longitude":88.6138,"temp":14.4,"humidity":96,"rain":0.2,"pressure":838.3,"uv_index":8.25,"wind_gusts":19.4,"aqi":107,"pm10":18.6,"pm2_5":16.9,"mosquito_risk":6,"arthritis_risk":10,"migraine_risk":7,"frizz_risk":0,"updated_at":"2026-03-31T22:31:44.099611+05:30"},{"city":"Siliguri","state":"West Bengal","latitude":26.7271,"longitude":88.3953,"temp":19.9,"humidity":87,"rain":0.0,"pressure":997.2,"uv_index":6.8,"wind_gusts":20.5,"aqi":161,"pm10":90.8,"pm2_5":73.1,"mosquito_risk":3,"arthritis_risk":10,"migraine_risk":7,"frizz_risk":1,"updated_at":"2026-03-31T22:31:47.412229+05:30"},{"city":"Durgapur","state":"West Bengal","latitude":23.5204,"longitude":87.3119,"temp":26.8,"humidity":83,"rain":0.0,"pressure":997.6,"uv_index":8.5,"wind_gusts":20.9,"aqi":159,"pm10":73.3,"pm2_5":65.4,"mosquito_risk":7,"arthritis_risk":5,"migraine_risk":7,"frizz_risk":1,"updated_at":"2026-03-31T22:31:47.412258+05:30"},{"city":"Asansol","state":"West Bengal","latitude":23.6739,"longitude":86.9524,"temp":26.3,"humidity":81,"rain":0.0,"pressure":996.1,"uv_index":8.5,"wind_gusts":16.2,"aqi":155,"pm10":65.7,"pm2_5":58.7,"mosquito_risk":7,"arthritis_risk":5,"migraine_risk":7,"frizz_risk":1,"updated_at":"2026-03-31T22:31:47.412269+05:30"},{"city":"Pondicherry","state":"Puducherry","latitude":11.9139,"longitude":79.8145,"temp":25.6,"humidity":87,"rain":0.0,"pressure":1011.0,"uv_index":9.25,"wind_gusts":27.4,"aqi":45,"pm10":15.4,"pm2_5":11.4,"mosquito_risk":7,"arthritis_risk":0,"migraine_risk":4,"frizz_risk":1,"updated_at":"2026-03-31T22:31:47.412278+05:30"},{"city":"Port Blair","state":"Andaman and Nicobar Islands","latitude":11.6234,"longitude":92.7265,"temp":27.9,"humidity":82,"rain":0.0,"pressure":1009.3,"uv_index":9.15,"wind_gusts":10.4,"aqi":37,"pm10":7.9,"pm2_5":5.6,"mosquito_risk":7,"arthritis_risk":0,"migraine_risk":4,"frizz_risk":1,"updated_at":"2026-03-31T22:31:47.412286+05:30"},{"city":"Haridwar","state":"Uttarakhand","latitude":29.9457,"longitude":78.1642,"temp":20.4,"humidity":74,"rain":0.0,"pressure":975.8,"uv_index":6.05,"wind_gusts":25.2,"aqi":86,"pm10":105.7,"pm2_5":44.0,"mosquito_risk":3,"arthritis_risk":5,"migraine_risk":7,"frizz_risk":0,"updated_at":"2026-03-31T22:31:47.412294+05:30"},{"city":"Rishikesh","state":"Uttarakhand","latitude":30.0869,"longitude":78.2676,"temp":20.3,"humidity":64,"rain":0.0,"pressure":968.8,"uv_index":6.05,"wind_gusts":25.2,"aqi":61,"pm10":83.4,"pm2_5":31.5,"mosquito_risk":3,"arthritis_risk":5,"migraine_risk":7,"frizz_risk":0,"updated_at":"2026-03-31T22:31:47.412302+05:30"},{"city":"Nainital","state":"Uttarakhand","latitude":29.3919,"longitude":79.4542,"temp":19.4,"humidity":37,"rain":0.0,"pressure":807.6,"uv_index":7.3,"wind_gusts":44.3,"aqi":68,"pm10":52.6,"pm2_5":25.1,"mosquito_risk":0,"arthritis_risk":5,"migraine_risk":7,"frizz_risk":0,"updated_at":"2026-03-31T22:31:47.412309+05:30"},{"city":"Mussoorie","state":"Uttarakhand","latitude":30.4599,"longitude":78.0664,"temp":16.1,"humidity":61,"rain":0.0,"pressure":803.7,"uv_index":6.4,"wind_gusts":32.0,"aqi":63,"pm10":94.1,"pm2_5":40.0,"mosquito_risk":3,"arthritis_risk":5,"migraine_risk":7,"frizz_risk":0,"updated_at":"2026-03-31T22:31:47.412317+05:30"},{"city":"Dharamshala","state":"Himachal Pradesh","latitude":32.219,"longitude":76.3234,"temp":19.3,"humidity":56,"rain":0.0,"pressure":870.1,"uv_index":6.75,"wind_gusts":22.7,"aqi":44,"pm10":22.4,"pm2_5":12.7,"mosquito_risk":0,"arthritis_risk":5,"migraine_risk":7,"frizz_risk":0,"updated_at":"2026-03-31T22:31:47.412324+05:30"},{"city":"Dalhousie","state":"Himachal Pradesh","latitude":32.5387,"longitude":75.971,"temp":15.5,"humidity":62,"rain":0.0,"pressure":803.8,"uv_index":7.4,"wind_gusts":27.4,"aqi":64,"pm10":50.8,"pm2_5":30.6,"mosquito_risk":3,"arthritis_risk":5,"migraine_risk":7,"frizz_risk":0,"updated_at":"2026-03-31T22:31:47.412332+05:30"},{"city":"Patiala","state":"Punjab","latitude":30.3398,"longitude":76.3869,"temp":21.5,"humidity":77,"rain":0.0,"pressure":979.8,"uv_index":5.3,"wind_gusts":19.8,"aqi":226,"pm10":255.2,"pm2_5":63.6,"mosquito_risk":3,"arthritis_risk":5,"migraine_risk":3,"frizz_risk":1,"updated_at":"2026-03-31T22:31:47.412339+05:30"},{"city":"Bhatinda","state":"Punjab","latitude":30.211,"longitude":74.9455,"temp":22.0,"humidity":75,"rain":0.0,"pressure":985.3,"uv_index":6.65,"wind_gusts":31.7,"aqi":109,"pm10":89.6,"pm2_5":32.2,"mosquito_risk":3,"arthritis_risk":5,"migraine_risk":7,"frizz_risk":1,"updated_at":"2026-03-31T22:31:47.412346+05:30"},{"city":"Rohtak","state":"Haryana","latitude":28.8955,"longitude":76.6066,"temp":19.0,"humidity":94,"rain":0.0,"pressure":983.6,"uv_index":6.35,"wind_gusts":25.9,"aqi":121,"pm10":282.2,"pm2_5":67.8,"mosquito_risk":3,"arthritis_risk":10,"migraine_risk":7,"frizz_risk":1,"updated_at":"2026-03-31T22:31:47.412353+05:30"},{"city":"Panipat","state":"Haryana","latitude":29.3909,"longitude":76.9635,"temp":20.3,"humidity":90,"rain":0.0,"pressure":982.2,"uv_index":5.25,"wind_gusts":17.3,"aqi":143,"pm10":410.7,"pm2_5":79.6,"mosquito_risk":3,"arthritis_risk":5,"migraine_risk":3,"frizz_risk":1,"updated_at":"2026-03-31T22:31:47.412360+05:30"},{"city":"Mathura","state":"Uttar Pradesh","latitude":27.4924,"longitude":77.6737,"temp":21.3,"humidity":87,"rain":0.0,"pressure":989.2,"uv_index":6.9,"wind_gusts":39.2,"aqi":152,"pm10":516.0,"pm2_5":79.6,"mosquito_risk":3,"arthritis_risk":5,"migraine_risk":7,"frizz_risk":1,"updated_at":"2026-03-31T22:31:47.412367+05:30"},{"city":"Vrindavan","state":"Uttar Pradesh","latitude":27.5823,"longitude":77.7027,"temp":21.9,"humidity":84,"rain":0.0,"pressure":989.4,"uv_index":6.7,"wind_gusts":34.9,"aqi":152,"pm10":516.0,"pm2_5":79.6,"mosquito_risk":3,"arthritis_risk":5,"migraine_risk":7,"frizz_risk":1,"updated_at":"2026-03-31T22:31:47.412374+05:30"},{"city":"Ayodhya","state":"Uttar Pradesh","latitude":26.7922,"longitude":82.1998,"temp":25.3,"humidity":62,"rain":0.0,"pressure":995.9,"uv_index":7.15,"wind_gusts":25.2,"aqi":121,"pm10":81.7,"pm2_5":32.2,"mosquito_risk":7,"arthritis_risk":5,"migraine_risk":7,"frizz_risk":1,"updated_at":"2026-03-31T22:31:47.412381+05:30"},{"city":"Ratlam","state":"Madhya Pradesh","latitude":23.3315,"longitude":75.0367,"temp":27.8,"humidity":53,"rain":0.0,"pressure":955.1,"uv_index":8.15,"wind_gusts":29.5,"aqi":55,"pm10":20.0,"pm2_5":16.9,"mosquito_risk":4,"arthritis_risk":5,"migraine_risk":7,"frizz_risk":1,"updated_at":"2026-03-31T22:31:47.412388+05:30"},{"city":"Sagar","state":"Madhya Pradesh","latitude":23.8388,"longitude":78.7378,"temp":26.5,"humidity":55,"rain":0.0,"pressure":951.1,"uv_index":8.2,"wind_gusts":16.2,"aqi":47,"pm10":18.4,"pm2_5":12.8,"mosquito_risk":4,"arthritis_risk":5,"migraine_risk":7,"frizz_risk":1,"updated_at":"2026-03-31T22:31:47.412395+05:30"},{"city":"Satna","state":"Madhya Pradesh","latitude":24.6005,"longitude":80.8322,"temp":29.2,"humidity":45,"rain":0.0,"pressure":972.5,"uv_index":7.95,"wind_gusts":29.5,"aqi":134,"pm10":80.6,"pm2_5":27.9,"mosquito_risk":4,"arthritis_risk":5,"migraine_risk":7,"frizz_risk":0,"updated_at":"2026-03-31T22:31:47.412402+05:30"},{"city":"Akola","state":"Maharashtra","latitude":20.7002,"longitude":77.0082,"temp":28.6,"humidity":57,"rain":0.0,"pressure":975.4,"uv_index":8.55,"wind_gusts":18.0,"aqi":69,"pm10":41.7,"pm2_5":37.4,"mosquito_risk":4,"arthritis_risk":5,"migraine_risk":7,"frizz_risk":1,"updated_at":"2026-03-31T22:31:47.412410+05:30"},{"city":"Amravati","state":"Maharashtra","latitude":20.9374,"longitude":77.7796,"temp":29.1,"humidity":60,"rain":0.0,"pressure":967.7,"uv_index":8.55,"wind_gusts":17.3,"aqi":70,"pm10":32.6,"pm2_5":29.2,"mosquito_risk":4,"arthritis_risk":5,"migraine_risk":7,"frizz_risk":1,"updated_at":"2026-03-31T22:31:47.412418+05:30"},{"city":"Latur","state":"Maharashtra","latitude":18.4088,"longitude":76.5604,"temp":26.6,"humidity":63,"rain":0.0,"pressure":941.0,"uv_index":8.85,"wind_gusts":29.2,"aqi":91,"pm10":68.2,"pm2_5":56.7,"mosquito_risk":7,"arthritis_risk":5,"migraine_risk":7,"frizz_risk":1,"updated_at":"2026-03-31T22:31:47.412425+05:30"},{"city":"Nanded","state":"Maharashtra","latitude":19.1383,"longitude":77.3091,"temp":28.6,"humidity":59,"rain":0.0,"pressure":969.8,"uv_index":8.7,"wind_gusts":23.0,"aqi":85,"pm10":55.4,"pm2_5":47.5,"mosquito_risk":4,"arthritis_risk":5,"migraine_risk":7,"frizz_risk":1,"updated_at":"2026-03-31T22:31:47.412432+05:30"},{"city":"Gulbarga","state":"Karnataka","latitude":17.3297,"longitude":76.8343,"temp":27.0,"humidity":63,"rain":0.0,"pressure":960.1,"uv_index":8.95,"wind_gusts":28.1,"aqi":113,"pm10":55.8,"pm2_5":48.1,"mosquito_risk":7,"arthritis_risk":5,"migraine_risk":7,"frizz_risk":1,"updated_at":"2026-03-31T22:31:47.412439+05:30"},{"city":"Bidar","state":"Karnataka","latitude":17.9104,"longitude":77.5199,"temp":24.5,"humidity":73,"rain":0.0,"pressure":936.9,"uv_index":8.95,"wind_gusts":34.6,"aqi":122,"pm10":84.5,"pm2_5":74.3,"mosquito_risk":3,"arthritis_risk":5,"migraine_risk":7,"frizz_risk":1,"updated_at":"2026-03-31T22:31:47.412445+05:30"},{"city":"Hospet","state":"Karnataka","latitude":15.2689,"longitude":76.3909,"temp":26.9,"humidity":70,"rain":0.0,"pressure":957.7,"uv_index":9.15,"wind_gusts":23.4,"aqi":148,"pm10":40.4,"pm2_5":37.5,"mosquito_risk":7,"arthritis_risk":5,"migraine_risk":7,"frizz_risk":1,"updated_at":"2026-03-31T22:31:47.412450+05:30"},{"city":"Tirupur","state":"Tamil Nadu","latitude":11.1085,"longitude":77.3411,"temp":29.7,"humidity":47,"rain":0.0,"pressure":977.0,"uv_index":9.5,"wind_gusts":30.6,"aqi":74,"pm10":25.8,"pm2_5":20.9,"mosquito_risk":4,"arthritis_risk":5,"migraine_risk":7,"frizz_risk":1,"updated_at":"2026-03-31T22:31:47.412456+05:30"},{"city":"Alappuzha","state":"Kerala","latitude":9.4981,"longitude":76.3388,"temp":28.0,"humidity":84,"rain":0.0,"pressure":1010.3,"uv_index":9.2,"wind_gusts":24.8,"aqi":144,"pm10":36.4,"pm2_5":33.1,"mosquito_risk":7,"arthritis_risk":0,"migraine_risk":4,"frizz_risk":1,"updated_at":"2026-03-31T22:31:47.412461+05:30"},{"city":"Munnar","state":"Kerala","latitude":10.0889,"longitude":77.0595,"temp":21.8,"humidity":80,"rain":0.0,"pressure":858.2,"uv_index":9.7,"wind_gusts":29.9,"aqi":77,"pm10":38.2,"pm2_5":33.9,"mosquito_risk":3,"arthritis_risk":5,"migraine_risk":7,"frizz_risk":1,"updated_at":"2026-03-31T22:31:47.412467+05:30"},{"city":"Silchar","state":"Assam","latitude":24.8333,"longitude":92.7789,"temp":23.1,"humidity":93,"rain":0.0,"pressure":1008.2,"uv_index":8.35,"wind_gusts":25.6,"aqi":80,"pm10":64.3,"pm2_5":59.1,"mosquito_risk":3,"arthritis_risk":0,"migraine_risk":4,"frizz_risk":1,"updated_at":"2026-03-31T22:31:47.412473+05:30"},{"city":"Dibrugarh","state":"Assam","latitude":27.4728,"longitude":94.912,"temp":22.2,"humidity":88,"rain":0.0,"pressure":998.7,"uv_index":8.15,"wind_gusts":24.5,"aqi":82,"pm10":40.6,"pm2_5":37.1,"mosquito_risk":3,"arthritis_risk":5,"migraine_risk":7,"frizz_risk":1,"updated_at":"2026-03-31T22:31:47.412478+05:30"}]