[{"city":"Delhi","state":"Delhi","latitude":28.6139,"longitude":77.209,"temp":26.0,"humidity":51,"rain":0.0,"pressure":982.0,"uv_index":7.0,"wind_gusts":13.3,"aqi":154,"pm10":252.4,"pm2_5":69.2,"mosquito_risk":4,"arthritis_risk":5,"migraine_risk":7,"frizz_risk":0,"updated_at":"2026-04-18T05:12:00.577369+05:30"},{"city":"Mumbai","state":"Maharashtra","latitude":19.076,"longitude":72.8777,"temp":29.6,"humidity":79,"rain":0.0,"pressure":1006.5,"uv_index":6.95,"wind_gusts":23.8,"aqi":98,"pm10":90.6,"pm2_5":30.4,"mosquito_risk":7,"arthritis_risk":5,"migraine_risk":4,"frizz_risk":1,"updated_at":"2026-04-18T05:12:00.577399+05:30"},{"city":"Bangalore","state":"Karnataka","latitude":12.9716,"longitude":77.5946,"temp":23.3,"humidity":81,"rain":0.0,"pressure":910.4,"uv_index":8.9,"wind_gusts":34.6,"aqi":95,"pm10":51.9,"pm2_5":45.8,"mosquito_risk":3,"arthritis_risk":5,"migraine_risk":7,"frizz_risk":1,"updated_at":"2026-04-18T05:12:00.577412+05:30"},{"city":"Hyderabad","state":"Telangana","latitude":17.385,"longitude":78.4867,"temp":28.1,"humidity":71,"rain":0.0,"pressure":951.6,"uv_index":9.25,"wind_gusts":32.8,"aqi":88,"pm10":35.5,"pm2_5":30.9,"mosquito_risk":7,"arthritis_risk":5,"migraine_risk":7,"frizz_risk":1,"updated_at":"2026-04-18T05:12:00.577420+05:30"},{"city":"Chennai","state":"Tamil Nadu","latitude":13.0827,"longitude":80.2707,"temp":27.8,"humidity":86,"rain":0.0,"pressure":1006.3,"uv_index":8.65,"wind_gusts":32.0,"aqi":42,"pm10":15.5,"pm2_5":10.2,"mosquito_risk":7,"arthritis_risk":5,"migraine_risk":4,"frizz_risk":1,"updated_at":"2026-04-18T05:12:00.577445+05:30"},{"city":"Kolkata","state":"West Bengal","latitude":22.5726,"longitude":88.3639,"temp":27.0,"humidity":96,"rain":0.0,"pressure":1006.1,"uv_index":8.85,"wind_gusts":22.3,"aqi":63,"pm10":17.1,"pm2_5":14.3,"mosquito_risk":7,"arthritis_risk":5,"migraine_risk":4,"frizz_risk":1,"updated_at":"2026-04-18T05:12:00.577457+05:30"},{"city":"Pune","state":"Maharashtra","latitude":18.5204,"longitude":73.8567,"temp":23.8,"humidity":82,"rain":0.0,"pressure":946.9,"uv_index":8.6,"wind_gusts":36.7,"aqi":82,"pm10":70.5,"pm2_5":48.7,"mosquito_risk":3,"arthritis_risk":5,"migraine_risk":7,"frizz_risk":1,"updated_at":"2026-04-18T05:12:00.577464+05:30"},{"city":"Ahmedabad","state":"Gujarat","latitude":23.0225,"longitude":72.5714,"temp":25.4,"humidity":66,"rain":0.0,"pressure":1001.2,"uv_index":8.15,"wind_gusts":25.9,"aqi":64,"pm10":20.3,"pm2_5":11.0,"mosquito_risk":7,"arthritis_risk":5,"migraine_risk":4,"frizz_risk":1,"updated_at":"2026-04-18T05:12:00.577470+05:30"},{"city":"Jaipur","state":"Rajasthan","latitude":26.9124,"longitude":75.7873,"temp":28.9,"humidity":40,"rain":0.0,"pressure":959.2,"uv_index":7.95,"wind_gusts":26.6,"aqi":138,"pm10":501.1,"pm2_5":90.8,"mosquito_risk":4,"arthritis_risk":5,"migraine_risk":7,"frizz_risk":0,"updated_at":"2026-04-18T05:12:00.577476+05:30"},{"city":"Lucknow","state":"Uttar Pradesh","latitude":26.8467,"longitude":80.9462,"temp":24.8,"humidity":65,"rain":0.0,"pressure":992.3,"uv_index":7.85,"wind_gusts":30.6,"aqi":120,"pm10":162.5,"pm2_5":62.9,"mosquito_risk":3,"arthritis_risk":5,"migraine_risk":7,"frizz_risk":1,"updated_at":"2026-04-18T05:12:00.577481+05:30"},{"city":"Kanpur","state":"Uttar Pradesh","latitude":26.4499,"longitude":80.3319,"temp":24.1,"humidity":68,"rain":0.0,"pressure":990.7,"uv_index":7.85,"wind_gusts":23.8,"aqi":108,"pm10":111.5,"pm2_5":49.2,"mosquito_risk":3,"arthritis_risk":5,"migraine_risk":7,"frizz_risk":1,"updated_at":"2026-04-18T05:12:00.577487+05:30"},{"city":"Chandigarh","state":"Chandigarh","latitude":30.7333,"longitude":76.7794,"temp":20.5,"humidity":60,"rain":0.0,"pressure":968.0,"uv_index":7.15,"wind_gusts":31.7,"aqi":58,"pm10":16.1,"pm2_5":11.3,"mosquito_risk":0,"arthritis_risk":5,"migraine_risk":7,"frizz_risk":0,"updated_at":"2026-04-18T05:12:00.577492+05:30"},{"city":"Srinagar","state":"Jammu and Kashmir","latitude":34.0837,"longitude":74.7973,"temp":10.1,"humidity":94,"rain":0.1,"pressure":844.4,"uv_index":6.85,"wind_gusts":24.5,"aqi":74,"pm10":43.8,"pm2_5":27.1,"mosquito_risk":6,"arthritis_risk":10,"migraine_risk":7,"frizz_risk":0,"updated_at":"2026-04-18T05:12:00.577499+05:30"},{"city":"Jammu","state":"Jammu and Kashmir","latitude":32.7266,"longitude":74.857,"temp":23.4,"humidity":52,"rain":0.0,"pressure":975.7,"uv_index":6.9,"wind_gusts":43.9,"aqi":60,"pm10":23.7,"pm2_5":12.0,"mosquito_risk":0,"arthritis_risk":5,"migraine_risk":7,"frizz_risk":0,"updated_at":"2026-04-18T05:12:00.577504+05:30"},{"city":"Amritsar","state":"Punjab","latitude":31.634,"longitude":74.8723,"temp":21.3,"humidity":60,"rain":0.0,"pressure":982.3,"uv_index":6.75,"wind_gusts":45.7,"aqi":60,"pm10":27.2,"pm2_5":18.9,"mosquito_risk":0,"arthritis_risk":5,"migraine_risk":7,"frizz_risk":0,"updated_at":"2026-04-18T05:12:00.577509+05:30"},{"city":"Ludhiana","state":"Punjab","latitude":30.901,"longitude":75.8573,"temp":22.4,"humidity":57,"rain":0.0,"pressure":978.7,"uv_index":7.2,"wind_gusts":34.9,"aqi":73,"pm10":22.7,"pm2_5":19.4,"mosquito_risk":0,"arthritis_risk":5,"migraine_risk":7,"frizz_risk":0,"updated_at":"2026-04-18T05:12:00.577516+05:30"},{"city":"Jalandhar","state":"Punjab","latitude":31.326,"longitude":75.5762,"temp":21.2,"humidity":57,"rain":0.0,"pressure":980.2,"uv_index":6.45,"wind_gusts":39.6,"aqi":61,"pm10":27.2,"pm2_5":15.4,"mosquito_risk":0,"arthritis_risk":5,"migraine_risk":7,"frizz_risk":0,"updated_at":"2026-04-18T05:12:00.577523+05:30"},{"city":"Dehradun","state":"Uttarakhand","latitude":30.6284,"longitude":78.0322,"temp":15.6,"humidity":45,"rain":0.0,"pressure":830.8,"uv_index":7.65,"wind_gusts":41.4,"aqi":36,"pm10":9.5,"pm2_5":6.3,"mosquito_risk":0,"arthritis_risk":5,"migraine_risk":7,"frizz_risk":0,"updated_at":"2026-04-18T05:12:00.577528+05:30"},{"city":"Shimla","state":"Himachal Pradesh","latitude":31.1048,"longitude":77.1734,"temp":13.1,"humidity":53,"rain":0.0,"pressure":784.7,"uv_index":7.2,"wind_gusts":45.0,"aqi":43,"pm10":15.9,"pm2_5":10.0,"mosquito_risk":0,"arthritis_risk":5,"migraine_risk":7,"frizz_risk":0,"updated_at":"2026-04-18T05:12:00.577533+05:30"},{"city":"Manali","state":"Himachal Pradesh","latitude":32.2396,"longitude":77.1887,"temp":14.8,"humidity":55,"rain":0.0,"pressure":821.7,"uv_index":8.35,"wind_gusts":31.3,"aqi":49,"pm10":2.5,"pm2_5":2.0,"mosquito_risk":0,"arthritis_risk":5,"migraine_risk":7,"frizz_risk":0,"updated_at":"2026-04-18T05:12:00.577538+05:30"},{"city":"Gurgaon","state":"Haryana","latitude":28.4595,"longitude":77.0266,"temp":23.6,"humidity":62,"rain":0.0,"pressure":980.3,"uv_index":7.0,"wind_gusts":12.2,"aqi":548,"pm10":231.0,"pm2_5":67.8,"mosquito_risk":3,"arthritis_risk":5,"migraine_risk":7,"frizz_risk":0,"updated_at":"2026-04-18T05:12:00.577543+05:30"},{"city":"Noida","state":"Uttar Pradesh","latitude":28.5355,"longitude":77.391,"temp":25.6,"humidity":53,"rain":0.0,"pressure":983.5,"uv_index":7.1,"wind_gusts":13.7,"aqi":548,"pm10":231.0,"pm2_5":67.8,"mosquito_risk":4,"arthritis_risk":5,"migraine_risk":7,"frizz_risk":0,"updated_at":"2026-04-18T05:12:00.577548+05:30"},{"city":"Ghaziabad","state":"Uttar Pradesh","latitude":28.6692,"longitude":77.4538,"temp":23.6,"humidity":58,"rain":0.0,"pressure":981.5,"uv_index":6.95,"wind_gusts":14.8,"aqi":141,"pm10":134.1,"pm2_5":46.1,"mosquito_risk":0,"arthritis_risk":5,"migraine_risk":7,"frizz_risk":0,"updated_at":"2026-04-18T05:12:00.577553+05:30"},{"city":"Faridabad","state":"Haryana","latitude":28.4089,"longitude":77.3178,"temp":24.0,"humidity":60,"rain":0.0,"pressure":982.7,"uv_index":6.9,"wind_gusts":14.8,"aqi":548,"pm10":231.0,"pm2_5":67.8,"mosquito_risk":0,"arthritis_risk":5,"migraine_risk":7,"frizz_risk":0,"updated_at":"2026-04-18T05:12:00.577558+05:30"},{"city":"Meerut","state":"Uttar Pradesh","latitude":28.9845,"longitude":77.7064,"temp":21.9,"humidity":63,"rain":0.0,"pressure":980.2,"uv_index":6.75,"wind_gusts":18.4,"aqi":141,"pm10":134.1,"pm2_5":46.1,"mosquito_risk":3,"arthritis_risk":5,"migraine_risk":7,"frizz_risk":0,"updated_at":"2026-04-18T05:12:00.577563+05:30"},{"city":"Agra","state":"Uttar Pradesh","latitude":27.1767,"longitude":78.0081,"temp":24.7,"humidity":57,"rain":0.0,"pressure":986.7,"uv_index":7.7,"wind_gusts":12.6,"aqi":605,"pm10":347.4,"pm2_5":85.0,"mosquito_risk":0,"arthritis_risk":5,"migraine_risk":7,"frizz_risk":0,"updated_at":"2026-04-18T05:12:00.577570+05:30"},{"city":"Varanasi","state":"Uttar Pradesh","latitude":25.3176,"longitude":82.9739,"temp":26.6,"humidity":56,"rain":0.0,"pressure":995.7,"uv_index":8.0,"wind_gusts":25.6,"aqi":120,"pm10":71.5,"pm2_5":51.0,"mosquito_risk":4,"arthritis_risk":5,"migraine_risk":7,"frizz_risk":1,"updated_at":"2026-04-18T05:12:00.577576+05:30"},{"city":"Prayagraj","state":"Uttar Pradesh","latitude":25.4358,"longitude":81.8463,"temp":26.8,"humidity":52,"rain":0.0,"pressure":994.2,"uv_index":7.95,"wind_gusts":28.1,"aqi":110,"pm10":68.0,"pm2_5":49.4,"mosquito_risk":4,"arthritis_risk":5,"migraine_risk":7,"frizz_risk":1,"updated_at":"2026-04-18T05:12:00.577584+05:30"},{"city":"Gorakhpur","state":"Uttar Pradesh","latitude":26.7606,"longitude":83.3732,"temp":24.9,"humidity":81,"rain":0.0,"pressure":995.9,"uv_index":8.2,"wind_gusts":26.6,"aqi":156,"pm10":88.7,"pm2_5":77.8,"mosquito_risk":3,"arthritis_risk":5,"migraine_risk":7,"frizz_risk":1,"updated_at":"2026-04-18T05:12:00.577589+05:30"},{"city":"Bareilly","state":"Uttar Pradesh","latitude":28.367,"longitude":79.4304,"temp":22.2,"humidity":70,"rain":0.0,"pressure":985.3,"uv_index":7.6,"wind_gusts":25.9,"aqi":80,"pm10":38.9,"pm2_5":28.1,"mosquito_risk":3,"arthritis_risk":5,"migraine_risk":7,"frizz_risk":1,"updated_at":"2026-04-18T05:12:00.577594+05:30"},{"city":"Aligarh","state":"Uttar Pradesh","latitude":27.8974,"longitude":78.088,"temp":23.9,"humidity":60,"rain":0.0,"pressure":984.5,"uv_index":7.35,"wind_gusts":20.9,"aqi":172,"pm10":172.8,"pm2_5":52.9,"mosquito_risk":0,"arthritis_risk":5,"migraine_risk":7,"frizz_risk":0,"updated_at":"2026-04-18T05:12:00.577599+05:30"},{"city":"Moradabad","state":"Uttar Pradesh","latitude":28.8386,"longitude":78.7733,"temp":22.1,"humidity":69,"rain":0.0,"pressure":982.1,"uv_index":7.45,"wind_gusts":24.5,"aqi":95,"pm10":36.1,"pm2_5":28.6,"mosquito_risk":3,"arthritis_risk":5,"migraine_risk":7,"frizz_risk":1,"updated_at":"2026-04-18T05:12:00.577604+05:30"},{"city":"Saharanpur","state":"Uttar Pradesh","latitude":29.9637,"longitude":77.546,"temp":21.0,"humidity":61,"rain":0.0,"pressure":974.7,"uv_index":7.0,"wind_gusts":22.3,"aqi":97,"pm10":54.7,"pm2_5":42.7,"mosquito_risk":3,"arthritis_risk":5,"migraine_risk":7,"frizz_risk":0,"updated_at":"2026-04-18T05:12:00.577609+05:30"},{"city":"Jhansi","state":"Uttar Pradesh","latitude":25.4484,"longitude":78.5685,"temp":27.8,"humidity":50,"rain":0.0,"pressure":976.6,"uv_index":7.75,"wind_gusts":21.2,"aqi":75,"pm10":103.8,"pm2_5":31.3,"mosquito_risk":4,"arthritis_risk":5,"migraine_risk":7,"frizz_risk":1,"updated_at":"2026-04-18T05:12:03.872976+05:30"},{"city":"Surat","state":"Gujarat","latitude":21.1702,"longitude":72.8311,"temp":27.2,"humidity":86,"rain":0.0,"pressure":1005.4,"uv_index":7.85,"wind_gusts":27.0,"aqi":115,"pm10":69.6,"pm2_5":37.4,"mosquito_risk":7,"arthritis_risk":5,"migraine_risk":4,"frizz_risk":1,"updated_at":"2026-04-18T05:12:03.872994+05:30"},{"city":"Vadodara","state":"Gujarat","latitude":22.3072,"longitude":73.1812,"temp":25.7,"humidity":77,"rain":0.0,"pressure":1003.4,"uv_index":8.15,"wind_gusts":18.4,"aqi":86,"pm10":57.6,"pm2_5":38.9,"mosquito_risk":7,"arthritis_risk":5,"migraine_risk":4,"frizz_risk":1,"updated_at":"2026-04-18T05:12:03.873003+05:30"},{"city":"Rajkot","state":"Gujarat","latitude":22.3039,"longitude":70.8022,"temp":23.5,"humidity":79,"rain":0.0,"pressure":994.0,"uv_index":7.85,"wind_gusts":26.3,"aqi":63,"pm10":35.4,"pm2_5":13.1,"mosquito_risk":3,"arthritis_risk":5,"migraine_risk":7,"frizz_risk":1,"updated_at":"2026-04-18T05:12:03.873010+05:30"},{"city":"Thane","state":"Maharashtra","latitude":19.2183,"longitude":72.9781,"temp":26.1,"humidity":94,"rain":0.0,"pressure":1006.1,"uv_index":7.8,"wind_gusts":33.8,"aqi":98,"pm10":90.6,"pm2_5":30.4,"mosquito_risk":7,"arthritis_risk":5,"migraine_risk":4,"frizz_risk":1,"updated_at":"2026-04-18T05:12:03.873017+05:30"},{"city":"Nagpur","state":"Maharashtra","latitude":21.1458,"longitude":79.0882,"temp":27.9,"humidity":40,"rain":0.0,"pressure":970.8,"uv_index":7.55,"wind_gusts":18.0,"aqi":97,"pm10":36.7,"pm2_5":31.7,"mosquito_risk":4,"arthritis_risk":5,"migraine_risk":7,"frizz_risk":0,"updated_at":"2026-04-18T05:12:03.873023+05:30"},{"city":"Nashik","state":"Maharashtra","latitude":19.9975,"longitude":73.7898,"temp":24.9,"humidity":58,"rain":0.0,"pressure":944.5,"uv_index":7.9,"wind_gusts":26.3,"aqi":67,"pm10":65.2,"pm2_5":35.7,"mosquito_risk":0,"arthritis_risk":5,"migraine_risk":7,"frizz_risk":1,"updated_at":"2026-04-18T05:12:03.873029+05:30"},{"city":"Aurangabad","state":"Maharashtra","latitude":19.8762,"longitude":75.3433,"temp":27.9,"humidity":42,"rain":0.0,"pressure":942.9,"uv_index":8.4,"wind_gusts":32.0,"aqi":53,"pm10":34.6,"pm2_5":20.6,"mosquito_risk":4,"arthritis_risk":5,"migraine_risk":7,"frizz_risk":0,"updated_at":"2026-04-18T05:12:03.873034+05:30"},{"city":"Solapur","state":"Maharashtra","latitude":17.6599,"longitude":75.9064,"temp":27.7,"humidity":57,"rain":0.0,"pressure":955.3,"uv_index":3.9,"wind_gusts":22.0,"aqi":97,"pm10":58.7,"pm2_5":52.6,"mosquito_risk":4,"arthritis_risk":5,"migraine_risk":3,"frizz_risk":1,"updated_at":"2026-04-18T05:12:03.873041+05:30"},{"city":"Kolhapur","state":"Maharashtra","latitude":16.705,"longitude":74.2433,"temp":23.1,"humidity":84,"rain":0.0,"pressure":945.9,"uv_index":8.95,"wind_gusts":46.4,"aqi":76,"pm10":45.8,"pm2_5":34.2,"mosquito_risk":3,"arthritis_risk":5,"migraine_risk":7,"frizz_risk":1,"updated_at":"2026-04-18T05:12:03.873047+05:30"},{"city":"Goa","state":"Goa","latitude":15.2993,"longitude":74.124,"temp":26.9,"humidity":88,"rain":0.0,"pressure":995.9,"uv_index":9.05,"wind_gusts":28.4,"aqi":69,"pm10":49.6,"pm2_5":28.4,"mosquito_risk":7,"arthritis_risk":5,"migraine_risk":7,"frizz_risk":1,"updated_at":"2026-04-18T05:12:03.873053+05:30"},{"city":"Jodhpur","state":"Rajasthan","latitude":26.2389,"longitude":73.0243,"temp":26.1,"humidity":59,"rain":0.0,"pressure":981.9,"uv_index":8.15,"wind_gusts":28.4,"aqi":89,"pm10":84.8,"pm2_5":16.7,"mosquito_risk":4,"arthritis_risk":5,"migraine_risk":7,"frizz_risk":1,"updated_at":"2026-04-18T05:12:03.873058+05:30"},{"city":"Udaipur","state":"Rajasthan","latitude":24.5854,"longitude":73.7125,"temp":24.8,"humidity":45,"rain":0.0,"pressure":946.1,"uv_index":8.7,"wind_gusts":31.0,"aqi":42,"pm10":21.9,"pm2_5":9.2,"mosquito_risk":0,"arthritis_risk":5,"migraine_risk":7,"frizz_risk":0,"updated_at":"2026-04-18T05:12:03.873064+05:30"},{"city":"Kota","state":"Rajasthan","latitude":25.2138,"longitude":75.8648,"temp":26.9,"humidity":44,"rain":0.0,"pressure":977.5,"uv_index":8.25,"wind_gusts":25.9,"aqi":67,"pm10":7.1,"pm2_5":6.2,"mosquito_risk":4,"arthritis_risk":5,"migraine_risk":7,"frizz_risk":0,"updated_at":"2026-04-18T05:12:03.873070+05:30"},{"city":"Bikaner","state":"Rajasthan","latitude":28.0229,"longitude":73.3119,"temp":27.8,"humidity":30,"rain":0.0,"pressure":979.8,"uv_index":7.25,"wind_gusts":28.1,"aqi":75,"pm10":108.0,"pm2_5":29.3,"mosquito_risk":4,"arthritis_risk":5,"migraine_risk":7,"frizz_risk":0,"updated_at":"2026-04-18T05:12:03.873075+05:30"},{"city":"Ajmer","state":"Rajasthan","latitude":26.4499,"longitude":74.6399,"temp":24.5,"humidity":44,"rain":0.0,"pressure":954.0,"uv_index":8.15,"wind_gusts":31.7,"aqi":57,"pm10":76.4,"pm2_5":15.0,"mosquito_risk":0,"arthritis_risk":5,"migraine_risk":7,"frizz_risk":0,"updated_at":"2026-04-18T05:12:03.873081+05:30"},{"city":"Gwalior","state":"Madhya Pradesh","latitude":26.2183,"longitude":78.1828,"temp":27.5,"humidity":52,"rain":0.0,"pressure":982.2,"uv_index":7.95,"wind_gusts":25.2,"aqi":106,"pm10":315.7,"pm2_5":61.5,"mosquito_risk":4,"arthritis_risk":5,"migraine_risk":7,"frizz_risk":1,"updated_at":"2026-04-18T05:12:03.873086+05:30"},{"city":"Indore","state":"Madhya Pradesh","latitude":22.7196,"longitude":75.8577,"temp":23.4,"humidity":52,"rain":0.0,"pressure":947.0,"uv_index":8.2,"wind_gusts":24.1,"aqi":67,"pm10":14.3,"pm2_5":11.6,"mosquito_risk":0,"arthritis_risk":5,"migraine_risk":7,"frizz_risk":0,"updated_at":"2026-04-18T05:12:03.873091+05:30"},{"city":"Bhopal","state":"Madhya Pradesh","latitude":23.2599,"longitude":77.4126,"temp":25.6,"humidity":47,"rain":0.0,"pressure":952.8,"uv_index":7.75,"wind_gusts":21.6,"aqi":70,"pm10":17.9,"pm2_5":15.0,"mosquito_risk":4,"arthritis_risk":5,"migraine_risk":7,"frizz_risk":0,"updated_at":"2026-04-18T05:12:03.873096+05:30"},{"city":"Jabalpur","state":"Madhya Pradesh","latitude":23.1815,"longitude":79.9864,"temp":27.3,"humidity":53,"rain":0.0,"pressure":959.8,"uv_index":8.05,"wind_gusts":22.7,"aqi":74,"pm10":56.6,"pm2_5":22.1,"mosquito_risk":4,"arthritis_risk":5,"migraine_risk":7,"frizz_risk":1,"updated_at":"2026-04-18T05:12:03.873102+05:30"},{"city":"Ujjain","state":"Madhya Pradesh","latitude":23.1765,"longitude":75.7885,"temp":23.8,"humidity":52,"rain":0.0,"pressure":953.0,"uv_index":8.45,"wind_gusts":21.2,"aqi":65,"pm10":15.1,"pm2_5":12.5,"mosquito_risk":0,"arthritis_risk":5,"migraine_risk":7,"frizz_risk":0,"updated_at":"2026-04-18T05:12:03.873108+05:30"},{"city":"Visakhapatnam","state":"Andhra Pradesh","latitude":17.6868,"longitude":83.2185,"temp":27.6,"humidity":88,"rain":0.0,"pressure":1002.9,"uv_index":9.15,"wind_gusts":36.0,"aqi":54,"pm10":21.6,"pm2_5":16.1,"mosquito_risk":7,"arthritis_risk":5,"migraine_risk":4,"frizz_risk":1,"updated_at":"2026-04-18T05:12:03.873119+05:30"},{"city":"Vijayawada","state":"Andhra Pradesh","latitude":16.5062,"longitude":80.648,"temp":27.4,"humidity":90,"rain":0.0,"pressure":1001.6,"uv_index":9.2,"wind_gusts":25.9,"aqi":53,"pm10":15.0,"pm2_5":11.0,"mosquito_risk":7,"arthritis_risk":5,"migraine_risk":4,"frizz_risk":1,"updated_at":"2026-04-18T05:12:03.873125+05:30"},{"city":"Guntur","state":"Andhra Pradesh","latitude":16.3067,"longitude":80.4365,"temp":27.5,"humidity":87,"rain":0.0,"pressure":1002.6,"uv_index":9.25,"wind_gusts":28.1,"aqi":57,"pm10":14.4,"pm2_5":10.5,"mosquito_risk":7,"arthritis_risk":5,"migraine_risk":4,"frizz_risk":1,"updated_at":"2026-04-18T05:12:03.873130+05:30"},{"city":"Nellore","state":"Andhra Pradesh","latitude":14.4426,"longitude":79.9865,"temp":26.7,"humidity":90,"rain":0.0,"pressure":1004.2,"uv_index":8.75,"wind_gusts":32.0,"aqi":56,"pm10":14.3,"pm2_5":10.8,"mosquito_risk":7,"arthritis_risk":5,"migraine_risk":4,"frizz_risk":1,"updated_at":"2026-04-18T05:12:03.873136+05:30"},{"city":"Kurnool","state":"Andhra Pradesh","latitude":15.8281,"longitude":78.0373,"temp":29.6,"humidity":72,"rain":0.0,"pressure":974.9,"uv_index":9.2,"wind_gusts":31.3,"aqi":89,"pm10":27.3,"pm2_5":25.0,"mosquito_risk":7,"arthritis_risk":5,"migraine_risk":7,"frizz_risk":1,"updated_at":"2026-04-18T05:12:03.873142+05:30"},{"city":"Kakinada","state":"Andhra Pradesh","latitude":16.9891,"longitude":82.2475,"temp":27.5,"humidity":91,"rain":0.0,"pressure":1006.8,"uv_index":9.15,"wind_gusts":28.8,"aqi":41,"pm10":22.4,"pm2_5":14.1,"mosquito_risk":7,"arthritis_risk":5,"migraine_risk":4,"frizz_risk":1,"updated_at":"2026-04-18T05:12:03.873147+05:30"},{"city":"Tirupati","state":"Andhra Pradesh","latitude":13.6288,"longitude":79.4192,"temp":25.5,"humidity":93,"rain":0.0,"pressure":991.0,"uv_index":8.65,"wind_gusts":33.1,"aqi":76,"pm10":19.2,"pm2_5":15.8,"mosquito_risk":7,"arthritis_risk":5,"migraine_risk":7,"frizz_risk":1,"updated_at":"2026-04-18T05:12:03.873153+05:30"},{"city":"Warangal","state":"Telangana","latitude":17.9689,"longitude":79.5941,"temp":26.8,"humidity":79,"rain":0.0,"pressure":977.0,"uv_index":9.0,"wind_gusts":26.6,"aqi":81,"pm10":26.9,"pm2_5":23.5,"mosquito_risk":7,"arthritis_risk":5,"migraine_risk":7,"frizz_risk":1,"updated_at":"2026-04-18T05:12:03.873158+05:30"},{"city":"Nizamabad","state":"Telangana","latitude":18.6725,"longitude":78.0941,"temp":29.0,"humidity":57,"rain":0.0,"pressure":963.1,"uv_index":8.75,"wind_gusts":25.6,"aqi":112,"pm10":52.5,"pm2_5":49.2,"mosquito_risk":4,"arthritis_risk":5,"migraine_risk":7,"frizz_risk":1,"updated_at":"2026-04-18T05:12:03.873163+05:30"},{"city":"Mysore","state":"Karnataka","latitude":12.2958,"longitude":76.6396,"temp":23.7,"humidity":94,"rain":0.0,"pressure":927.3,"uv_index":8.95,"wind_gusts":38.5,"aqi":99,"pm10":43.4,"pm2_5":38.1,"mosquito_risk":3,"arthritis_risk":5,"migraine_risk":7,"frizz_risk":1,"updated_at":"2026-04-18T05:12:03.873169+05:30"},{"city":"Mangalore","state":"Karnataka","latitude":12.9141,"longitude":74.856,"temp":29.5,"humidity":81,"rain":0.0,"pressure":1004.8,"uv_index":9.1,"wind_gusts":22.0,"aqi":75,"pm10":26.6,"pm2_5":15.8,"mosquito_risk":7,"arthritis_risk":5,"migraine_risk":4,"frizz_risk":1,"updated_at":"2026-04-18T05:12:03.873174+05:30"},{"city":"Hubli-Dharwad","state":"Karnataka","latitude":15.3647,"longitude":75.124,"temp":24.0,"humidity":89,"rain":0.0,"pressure":939.5,"uv_index":9.25,"wind_gusts":34.9,"aqi":70,"pm10":22.7,"pm2_5":17.3,"mosquito_risk":3,"arthritis_risk":5,"migraine_risk":7,"frizz_risk":1,"updated_at":"2026-04-18T05:12:03.873180+05:30"},{"city":"Belgaum","state":"Karnataka","latitude":15.8497,"longitude":74.4977,"temp":23.1,"humidity":80,"rain":0.0,"pressure":923.5,"uv_index":9.3,"wind_gusts":27.7,"aqi":64,"pm10":36.3,"pm2_5":24.2,"mosquito_risk":3,"arthritis_risk":5,"migraine_risk":7,"frizz_risk":1,"updated_at":"2026-04-18T05:12:07.164124+05:30"},{"city":"Coimbatore","state":"Tamil Nadu","latitude":11.0168,"longitude":76.9558,"temp":24.6,"humidity":94,"rain":0.0,"pressure":960.6,"uv_index":9.25,"wind_gusts":33.8,"aqi":103,"pm10":53.3,"pm2_5":47.8,"mosquito_risk":3,"arthritis_risk":5,"migraine_risk":7,"frizz_risk":1,"updated_at":"2026-04-18T05:12:07.164141+05:30"},{"city":"Madurai","state":"Tamil Nadu","latitude":9.9252,"longitude":78.1198,"temp":26.7,"humidity":92,"rain":0.0,"pressure":992.0,"uv_index":9.35,"wind_gusts":29.5,"aqi":84,"pm10":34.6,"pm2_5":32.7,"mosquito_risk":7,"arthritis_risk":5,"migraine_risk":7,"frizz_risk":1,"updated_at":"2026-04-18T05:12:07.164150+05:30"},{"city":"Trichy","state":"Tamil Nadu","latitude":10.7905,"longitude":78.7047,"temp":27.2,"humidity":93,"rain":0.0,"pressure":998.9,"uv_index":9.35,"wind_gusts":20.5,"aqi":77,"pm10":24.6,"pm2_5":21.3,"mosquito_risk":7,"arthritis_risk":5,"migraine_risk":7,"frizz_risk":1,"updated_at":"2026-04-18T05:12:07.164157+05:30"},{"city":"Salem","state":"Tamil Nadu","latitude":11.6643,"longitude":78.146,"temp":26.4,"humidity":93,"rain":0.0,"pressure":976.4,"uv_index":9.4,"wind_gusts":20.2,"aqi":86,"pm10":40.5,"pm2_5":37.4,"mosquito_risk":7,"arthritis_risk":5,"migraine_risk":7,"frizz_risk":1,"updated_at":"2026-04-18T05:12:07.164163+05:30"},{"city":"Tirunelveli","state":"Tamil Nadu","latitude":8.7139,"longitude":77.7567,"temp":25.5,"humidity":79,"rain":0.0,"pressure":1001.9,"uv_index":9.25,"wind_gusts":49.0,"aqi":94,"pm10":51.7,"pm2_5":45.6,"mosquito_risk":7,"arthritis_risk":5,"migraine_risk":4,"frizz_risk":1,"updated_at":"2026-04-18T05:12:07.164169+05:30"},{"city":"Vellore","state":"Tamil Nadu","latitude":12.9165,"longitude":79.1325,"temp":24.9,"humidity":98,"rain":0.0,"pressure":983.9,"uv_index":9.05,"wind_gusts":29.2,"aqi":99,"pm10":43.9,"pm2_5":41.7,"mosquito_risk":3,"arthritis_risk":5,"migraine_risk":7,"frizz_risk":1,"updated_at":"2026-04-18T05:12:07.164175+05:30"},{"city":"Erode","state":"Tamil Nadu","latitude":11.341,"longitude":77.7172,"temp":27.8,"humidity":86,"rain":0.0,"pressure":988.0,"uv_index":9.3,"wind_gusts":27.0,"aqi":81,"pm10":26.4,"pm2_5":24.6,"mosquito_risk":7,"arthritis_risk":5,"migraine_risk":7,"frizz_risk":1,"updated_at":"2026-04-18T05:12:07.164181+05:30"},{"city":"Kochi","state":"Kerala","latitude":9.9312,"longitude":76.2673,"temp":29.0,"humidity":82,"rain":0.0,"pressure":1006.9,"uv_index":9.15,"wind_gusts":31.7,"aqi":96,"pm10":43.4,"pm2_5":34.5,"mosquito_risk":7,"arthritis_risk":5,"migraine_risk":4,"frizz_risk":1,"updated_at":"2026-04-18T05:12:07.164187+05:30"},{"city":"Thiruvananthapuram","state":"Kerala","latitude":8.5241,"longitude":76.9366,"temp":28.8,"humidity":84,"rain":0.0,"pressure":1006.1,"uv_index":9.1,"wind_gusts":27.7,"aqi":84,"pm10":39.5,"pm2_5":28.5,"mosquito_risk":7,"arthritis_risk":5,"migraine_risk":4,"frizz_risk":1,"updated_at":"2026-04-18T05:12:07.164193+05:30"},{"city":"Kozhikode","state":"Kerala","latitude":11.2588,"longitude":75.7804,"temp":29.1,"humidity":84,"rain":0.0,"pressure":1006.1,"uv_index":8.5,"wind_gusts":30.2,"aqi":89,"pm10":35.7,"pm2_5":22.3,"mosquito_risk":7,"arthritis_risk":5,"migraine_risk":4,"frizz_risk":1,"updated_at":"2026-04-18T05:12:07.164198+05:30"},{"city":"Thrissur","state":"Kerala","latitude":10.5276,"longitude":76.2144,"temp":28.3,"humidity":89,"rain":0.0,"pressure":1005.3,"uv_index":8.65,"wind_gusts":39.6,"aqi":95,"pm10":39.6,"pm2_5":28.2,"mosquito_risk":7,"arthritis_risk":5,"migraine_risk":4,"frizz_risk":1,"updated_at":"2026-04-18T05:12:07.164205+05:30"},{"city":"Kannur","state":"Kerala","latitude":11.8745,"longitude":75.3704,"temp":29.2,"humidity":84,"rain":0.0,"pressure":1005.3,"uv_index":8.65,"wind_gusts":31.0,"aqi":83,"pm10":26.5,"pm2_5":18.5,"mosquito_risk":7,"arthritis_risk":5,"migraine_risk":4,"frizz_risk":1,"updated_at":"2026-04-18T05:12:07.164210+05:30"},{"city":"Patna","state":"Bihar","latitude":25.5941,"longitude":85.1376,"temp":27.4,"humidity":80,"rain":0.0,"pressure":998.8,"uv_index":8.6,"wind_gusts":27.7,"aqi":150,"pm10":71.9,"pm2_5":63.6,"mosquito_risk":7,"arthritis_risk":5,"migraine_risk":7,"frizz_risk":1,"updated_at":"2026-04-18T05:12:07.164216+05:30"},{"city":"Gaya","state":"Bihar","latitude":24.7914,"longitude":85.0002,"temp":26.6,"humidity":83,"rain":0.0,"pressure":992.2,"uv_index":8.6,"wind_gusts":30.6,"aqi":127,"pm10":53.2,"pm2_5":44.5,"mosquito_risk":7,"arthritis_risk":5,"migraine_risk":7,"frizz_risk":1,"updated_at":"2026-04-18T05:12:07.164221+05:30"},{"city":"Muzaffarpur","state":"Bihar","latitude":26.1209,"longitude":85.3647,"temp":25.8,"humidity":84,"rain":0.0,"pressure":999.3,"uv_index":8.6,"wind_gusts":24.8,"aqi":153,"pm10":71.9,"pm2_5":63.3,"mosquito_risk":7,"arthritis_risk":5,"migraine_risk":7,"frizz_risk":1,"updated_at":"2026-04-18T05:12:07.164227+05:30"},{"city":"Bhagalpur","state":"Bihar","latitude":25.2425,"longitude":87.0117,"temp":25.8,"humidity":86,"rain":0.0,"pressure":1000.5,"uv_index":8.4,"wind_gusts":27.0,"aqi":155,"pm10":80.1,"pm2_5":71.9,"mosquito_risk":7,"arthritis_risk":5,"migraine_risk":4,"frizz_risk":1,"updated_at":"2026-04-18T05:12:07.164232+05:30"},{"city":"Ranchi","state":"Jharkhand","latitude":23.3441,"longitude":85.3096,"temp":23.3,"humidity":85,"rain":0.0,"pressure":937.3,"uv_index":9.15,"wind_gusts":49.7,"aqi":93,"pm10":49.4,"pm2_5":28.8,"mosquito_risk":3,"arthritis_risk":5,"migraine_risk":7,"frizz_risk":1,"updated_at":"2026-04-18T05:12:07.164237+05:30"},{"city":"Jamshedpur","state":"Jharkhand","latitude":22.8046,"longitude":86.2029,"temp":27.2,"humidity":86,"rain":0.0,"pressure":990.6,"uv_index":9.0,"wind_gusts":33.1,"aqi":90,"pm10":26.0,"pm2_5":24.0,"mosquito_risk":7,"arthritis_risk":5,"migraine_risk":7,"frizz_risk":1,"updated_at":"2026-04-18T05:12:07.164243+05:30"},{"city":"Dhanbad","state":"Jharkhand","latitude":23.7957,"longitude":86.4304,"temp":27.1,"humidity":86,"rain":0.0,"pressure":979.4,"uv_index":8.95,"wind_gusts":32.0,"aqi":151,"pm10":46.8,"pm2_5":44.6,"mosquito_risk":7,"arthritis_risk":5,"migraine_risk":7,"frizz_risk":1,"updated_at":"2026-04-18T05:12:07.164248+05:30"},{"city":"Bokaro","state":"Jharkhand","latitude":23.6693,"longitude":86.1511,"temp":26.0,"humidity":94,"rain":0.0,"pressure":983.4,"uv_index":8.95,"wind_gusts":32.0,"aqi":154,"pm10":82.7,"pm2_5":79.4,"mosquito_risk":7,"arthritis_risk":5,"migraine_risk":7,"frizz_risk":1,"updated_at":"2026-04-18T05:12:07.164253+05:30"},{"city":"Bhubaneswar","state":"Odisha","latitude":20.2961,"longitude":85.8245,"temp":26.8,"humidity":93,"rain":0.0,"pressure":1002.1,"uv_index":8.65,"wind_gusts":29.5,"aqi":57,"pm10":22.8,"pm2_5":15.5,"mosquito_risk":7,"arthritis_risk":5,"migraine_risk":4,"frizz_risk":1,"updated_at":"2026-04-18T05:12:07.164258+05:30"},{"city":"Cuttack","state":"Odisha","latitude":20.4625,"longitude":85.8828,"temp":27.1,"humidity":94,"rain":0.0,"pressure":1004.0,"uv_index":8.75,"wind_gusts":26.3,"aqi":57,"pm10":22.8,"pm2_5":15.5,"mosquito_risk":7,"arthritis_risk":5,"migraine_risk":4,"frizz_risk":1,"updated_at":"2026-04-18T05:12:07.164264+05:30"},{"city":"Rourkela","state":"Odisha","latitude":22.2604,"longitude":84.8536,"temp":27.5,"humidity":88,"rain":0.0,"pressure":984.6,"uv_index":8.45,"wind_gusts":43.2,"aqi":118,"pm10":58.6,"pm2_5":51.5,"mosquito_risk":7,"arthritis_risk":5,"migraine_risk":7,"frizz_risk":1,"updated_at":"2026-04-18T05:12:07.164269+05:30"},{"city":"Raipur","state":"Chhattisgarh","latitude":21.2514,"longitude":81.6296,"temp":29.5,"humidity":59,"rain":0.0,"pressure":972.4,"uv_index":8.95,"wind_gusts":44.3,"aqi":112,"pm10":65.2,"pm2_5":54.2,"mosquito_risk":4,"arthritis_risk":5,"migraine_risk":7,"frizz_risk":1,"updated_at":"2026-04-18T05:12:07.164275+05:30"},{"city":"Bhilai","state":"Chhattisgarh","latitude":21.1938,"longitude":81.3509,"temp":28.5,"humidity":65,"rain":0.0,"pressure":972.7,"uv_index":8.95,"wind_gusts":36.4,"aqi":115,"pm10":74.3,"pm2_5":62.2,"mosquito_risk":7,"arthritis_risk":5,"migraine_risk":7,"frizz_risk":1,"updated_at":"2026-04-18T05:12:07.164280+05:30"},{"city":"Guwahati","state":"Assam","latitude":26.1158,"longitude":91.7086,"temp":25.2,"humidity":83,"rain":0.0,"pressure":1002.5,"uv_index":8.5,"wind_gusts":26.3,"aqi":151,"pm10":67.8,"pm2_5":55.5,"mosquito_risk":7,"arthritis_risk":5,"migraine_risk":4,"frizz_risk":1,"updated_at":"2026-04-18T05:12:07.164286+05:30"},{"city":"Agartala","state":"Tripura","latitude":23.8315,"longitude":91.2868,"temp":25.2,"humidity":91,"rain":0.0,"pressure":1007.0,"uv_index":8.7,"wind_gusts":14.8,"aqi":149,"pm10":42.4,"pm2_5":38.1,"mosquito_risk":7,"arthritis_risk":5,"migraine_risk":4,"frizz_risk":1,"updated_at":"2026-04-18T05:12:07.164291+05:30"},{"city":"Shillong","state":"Meghalaya","latitude":25.5788,"longitude":91.8933,"temp":12.0,"humidity":86,"rain":0.0,"pressure":855.2,"uv_index":7.95,"wind_gusts":32.8,"aqi":130,"pm10":63.1,"pm2_5":50.2,"mosquito_risk":3,"arthritis_risk":10,"migraine_risk":7,"frizz_risk":0,"updated_at":"2026-04-18T05:12:07.164297+05:30"},{"city":"Imphal","state":"Manipur","latitude":24.817,"longitude":93.9368,"temp":18.3,"humidity":92,"rain":0.0,"pressure":924.3,"uv_index":9.1,"wind_gusts":45.4,"aqi":155,"pm10":113.4,"pm2_5":92.7,"mosquito_risk":3,"arthritis_risk":10,"migraine_risk":7,"frizz_risk":1,"updated_at":"2026-04-18T05:12:07.164303+05:30"},{"city":"Aizawl","state":"Mizoram","latitude":23.7271,"longitude":92.7176,"temp":18.6,"humidity":94,"rain":0.0,"pressure":893.3,"uv_index":8.9,"wind_gusts":35.3,"aqi":150,"pm10":45.9,"pm2_5":34.3,"mosquito_risk":3,"arthritis_risk":10,"migraine_risk":7,"frizz_risk":1,"updated_at":"2026-04-18T05:12:07.164309+05:30"},{"city":"Kohima","state":"Nagaland","latitude":25.6701,"longitude":94.1077,"temp":16.1,"humidity":84,"rain":0.0,"pressure":855.7,"uv_index":8.45,"wind_gusts":45.0,"aqi":129,"pm10":78.9,"pm2_5":55.5,"mosquito_risk":3,"arthritis_risk":10,"migraine_risk":7,"frizz_risk":0,"updated_at":"2026-04-18T05:12:07.164314+05:30"},{"city":"Gangtok","state":"Sikkim","latitude":27.3314,"longitude":88.6138,"temp":15.9,"humidity":92,"rain":0.0,"pressure":837.8,"uv_index":8.85,"wind_gusts":20.2,"aqi":130,"pm10":62.6,"pm2_5":42.6,"mosquito_risk":3,"arthritis_risk":10,"migraine_risk":7,"frizz_risk":0,"updated_at":"2026-04-18T05:12:07.164321+05:30"},{"city":"Siliguri","state":"West Bengal","latitude":26.7271,"longitude":88.3953,"temp":21.7,"humidity":77,"rain":0.0,"pressure":994.8,"uv_index":6.55,"wind_gusts":19.1,"aqi":164,"pm10":143.4,"pm2_5":97.3,"mosquito_risk":3,"arthritis_risk":5,"migraine_risk":7,"frizz_risk":1,"updated_at":"2026-04-18T05:12:10.476515+05:30"},{"city":"Durgapur","state":"West Bengal","latitude":23.5204,"longitude":87.3119,"temp":26.7,"humidity":93,"rain":0.0,"pressure":995.1,"uv_index":8.85,"wind_gusts":25.6,"aqi":125,"pm10":27.2,"pm2_5":24.7,"mosquito_risk":7,"arthritis_risk":5,"migraine_risk":7,"frizz_risk":1,"updated_at":"2026-04-18T05:12:10.476536+05:30"},{"city":"Asansol","state":"West Bengal","latitude":23.6739,"longitude":86.9524,"temp":27.3,"humidity":88,"rain":0.0,"pressure":993.6,"uv_index":8.9,"wind_gusts":33.5,"aqi":125,"pm10":23.8,"pm2_5":21.7,"mosquito_risk":7,"arthritis_risk":5,"migraine_risk":7,"frizz_risk":1,"updated_at":"2026-04-18T05:12:10.476545+05:30"},{"city":"Pondicherry","state":"Puducherry","latitude":11.9139,"longitude":79.8145,"temp":26.7,"humidity":96,"rain":0.0,"pressure":1007.6,"uv_index":8.7,"wind_gusts":28.1,"aqi":38,"pm10":13.1,"pm2_5":8.4,"mosquito_risk":7,"arthritis_risk":5,"migraine_risk":4,"frizz_risk":1,"updated_at":"2026-04-18T05:12:10.476552+05:30"},{"city":"Port Blair","state":"Andaman and Nicobar Islands","latitude":11.6234,"longitude":92.7265,"temp":28.4,"humidity":76,"rain":0.0,"pressure":1006.3,"uv_index":9.2,"wind_gusts":11.2,"aqi":44,"pm10":15.9,"pm2_5":11.4,"mosquito_risk":7,"arthritis_risk":5,"migraine_risk":4,"frizz_risk":1,"updated_at":"2026-04-18T05:12:10.476558+05:30"},{"city":"Haridwar","state":"Uttarakhand","latitude":29.9457,"longitude":78.1642,"temp":21.2,"humidity":61,"rain":0.0,"pressure":973.4,"uv_index":7.0,"wind_gusts":32.0,"aqi":61,"pm10":18.9,"pm2_5":16.4,"mosquito_risk":3,"arthritis_risk":5,"migraine_risk":7,"frizz_risk":0,"updated_at":"2026-04-18T05:12:10.476564+05:30"},{"city":"Rishikesh","state":"Uttarakhand","latitude":30.0869,"longitude":78.2676,"temp":20.7,"humidity":55,"rain":0.0,"pressure":966.4,"uv_index":7.2,"wind_gusts":37.1,"aqi":53,"pm10":19.0,"pm2_5":15.8,"mosquito_risk":0,"arthritis_risk":5,"migraine_risk":7,"frizz_risk":0,"updated_at":"2026-04-18T05:12:10.476569+05:30"},{"city":"Nainital","state":"Uttarakhand","latitude":29.3919,"longitude":79.4542,"temp":22.2,"humidity":29,"rain":0.0,"pressure":807.3,"uv_index":7.9,"wind_gusts":59.0,"aqi":55,"pm10":20.6,"pm2_5":14.3,"mosquito_risk":0,"arthritis_risk":5,"migraine_risk":7,"frizz_risk":0,"updated_at":"2026-04-18T05:12:10.476575+05:30"},{"city":"Mussoorie","state":"Uttarakhand","latitude":30.4599,"longitude":78.0664,"temp":18.5,"humidity":37,"rain":0.0,"pressure":803.8,"uv_index":7.55,"wind_gusts":42.5,"aqi":57,"pm10":16.8,"pm2_5":14.2,"mosquito_risk":0,"arthritis_risk":5,"migraine_risk":7,"frizz_risk":0,"updated_at":"2026-04-18T05:12:10.476581+05:30"},{"city":"Dharamshala","state":"Himachal Pradesh","latitude":32.219,"longitude":76.3234,"temp":22.3,"humidity":35,"rain":0.0,"pressure":871.1,"uv_index":6.9,"wind_gusts":45.0,"aqi":32,"pm10":5.6,"pm2_5":4.1,"mosquito_risk":0,"arthritis_risk":5,"migraine_risk":7,"frizz_risk":0,"updated_at":"2026-04-18T05:12:10.476586+05:30"},{"city":"Dalhousie","state":"Himachal Pradesh","latitude":32.5387,"longitude":75.971,"temp":17.5,"humidity":44,"rain":0.0,"pressure":806.0,"uv_index":6.95,"wind_gusts":32.0,"aqi":54,"pm10":15.0,"pm2_5":9.4,"mosquito_risk":0,"arthritis_risk":5,"migraine_risk":7,"frizz_risk":0,"updated_at":"2026-04-18T05:12:10.476592+05:30"},{"city":"Patiala","state":"Punjab","latitude":30.3398,"longitude":76.3869,"temp":21.1,"humidity":62,"rain":0.0,"pressure":977.4,"uv_index":7.0,"wind_gusts":26.3,"aqi":134,"pm10":105.9,"pm2_5":40.0,"mosquito_risk":3,"arthritis_risk":5,"migraine_risk":7,"frizz_risk":0,"updated_at":"2026-04-18T05:12:10.476598+05:30"},{"city":"Bhatinda","state":"Punjab","latitude":30.211,"longitude":74.9455,"temp":23.5,"humidity":50,"rain":0.0,"pressure":983.1,"uv_index":7.65,"wind_gusts":39.6,"aqi":82,"pm10":22.4,"pm2_5":20.8,"mosquito_risk":0,"arthritis_risk":5,"migraine_risk":7,"frizz_risk":0,"updated_at":"2026-04-18T05:12:10.476603+05:30"},{"city":"Rohtak","state":"Haryana","latitude":28.8955,"longitude":76.6066,"temp":21.9,"humidity":65,"rain":0.0,"pressure":980.7,"uv_index":6.9,"wind_gusts":14.4,"aqi":343,"pm10":385.6,"pm2_5":90.8,"mosquito_risk":3,"arthritis_risk":5,"migraine_risk":7,"frizz_risk":0,"updated_at":"2026-04-18T05:12:10.476608+05:30"},{"city":"Panipat","state":"Haryana","latitude":29.3909,"longitude":76.9635,"temp":21.1,"humidity":67,"rain":0.0,"pressure":979.4,"uv_index":7.05,"wind_gusts":16.2,"aqi":611,"pm10":381.8,"pm2_5":92.2,"mosquito_risk":3,"arthritis_risk":5,"migraine_risk":7,"frizz_risk":0,"updated_at":"2026-04-18T05:12:10.476614+05:30"},{"city":"Mathura","state":"Uttar Pradesh","latitude":27.4924,"longitude":77.6737,"temp":22.3,"humidity":67,"rain":0.0,"pressure":985.8,"uv_index":7.6,"wind_gusts":15.8,"aqi":542,"pm10":271.0,"pm2_5":69.4,"mosquito_risk":3,"arthritis_risk":5,"migraine_risk":7,"frizz_risk":0,"updated_at":"2026-04-18T05:12:10.476619+05:30"},{"city":"Vrindavan","state":"Uttar Pradesh","latitude":27.5823,"longitude":77.7027,"temp":22.6,"humidity":66,"rain":0.0,"pressure":986.3,"uv_index":7.45,"wind_gusts":17.3,"aqi":542,"pm10":271.0,"pm2_5":69.4,"mosquito_risk":3,"arthritis_risk":5,"migraine_risk":7,"frizz_risk":0,"updated_at":"2026-04-18T05:12:10.476625+05:30"},{"city":"Ayodhya","state":"Uttar Pradesh","latitude":26.7922,"longitude":82.1998,"temp":24.3,"humidity":81,"rain":0.0,"pressure":993.9,"uv_index":7.75,"wind_gusts":32.8,"aqi":143,"pm10":84.1,"pm2_5":61.2,"mosquito_risk":3,"arthritis_risk":5,"migraine_risk":7,"frizz_risk":1,"updated_at":"2026-04-18T05:12:10.476630+05:30"},{"city":"Ratlam","state":"Madhya Pradesh","latitude":23.3315,"longitude":75.0367,"temp":25.7,"humidity":41,"rain":0.0,"pressure":953.6,"uv_index":8.2,"wind_gusts":21.2,"aqi":55,"pm10":16.0,"pm2_5":12.2,"mosquito_risk":4,"arthritis_risk":5,"migraine_risk":7,"frizz_risk":0,"updated_at":"2026-04-18T05:12:10.476636+05:30"},{"city":"Sagar","state":"Madhya Pradesh","latitude":23.8388,"longitude":78.7378,"temp":26.5,"humidity":54,"rain":0.0,"pressure":948.9,"uv_index":8.0,"wind_gusts":28.1,"aqi":65,"pm10":53.6,"pm2_5":21.6,"mosquito_risk":4,"arthritis_risk":5,"migraine_risk":7,"frizz_risk":1,"updated_at":"2026-04-18T05:12:10.476642+05:30"},{"city":"Satna","state":"Madhya Pradesh","latitude":24.6005,"longitude":80.8322,"temp":27.9,"humidity":41,"rain":0.0,"pressure":969.8,"uv_index":8.45,"wind_gusts":18.4,"aqi":72,"pm10":49.4,"pm2_5":21.9,"mosquito_risk":4,"arthritis_risk":5,"migraine_risk":7,"frizz_risk":0,"updated_at":"2026-04-18T05:12:10.476647+05:30"},{"city":"Akola","state":"Maharashtra","latitude":20.7002,"longitude":77.0082,"temp":26.9,"humidity":60,"rain":0.0,"pressure":973.3,"uv_index":8.4,"wind_gusts":26.6,"aqi":65,"pm10":22.7,"pm2_5":17.5,"mosquito_risk":4,"arthritis_risk":5,"migraine_risk":7,"frizz_risk":1,"updated_at":"2026-04-18T05:12:10.476653+05:30"},{"city":"Amravati","state":"Maharashtra","latitude":20.9374,"longitude":77.7796,"temp":26.1,"humidity":56,"rain":0.0,"pressure":965.2,"uv_index":7.95,"wind_gusts":19.1,"aqi":65,"pm10":23.0,"pm2_5":18.9,"mosquito_risk":4,"arthritis_risk":5,"migraine_risk":7,"frizz_risk":1,"updated_at":"2026-04-18T05:12:10.476660+05:30"},{"city":"Latur","state":"Maharashtra","latitude":18.4088,"longitude":76.5604,"temp":26.4,"humidity":58,"rain":0.0,"pressure":938.5,"uv_index":8.95,"wind_gusts":15.8,"aqi":96,"pm10":61.7,"pm2_5":54.0,"mosquito_risk":4,"arthritis_risk":5,"migraine_risk":7,"frizz_risk":1,"updated_at":"2026-04-18T05:12:10.476665+05:30"},{"city":"Nanded","state":"Maharashtra","latitude":19.1383,"longitude":77.3091,"temp":27.1,"humidity":58,"rain":0.0,"pressure":967.1,"uv_index":8.7,"wind_gusts":19.8,"aqi":83,"pm10":37.1,"pm2_5":33.5,"mosquito_risk":4,"arthritis_risk":5,"migraine_risk":7,"frizz_risk":1,"updated_at":"2026-04-18T05:12:10.476671+05:30"},{"city":"Gulbarga","state":"Karnataka","latitude":17.3297,"longitude":76.8343,"temp":30.1,"humidity":48,"rain":0.0,"pressure":957.0,"uv_index":9.05,"wind_gusts":24.8,"aqi":89,"pm10":32.5,"pm2_5":29.3,"mosquito_risk":0,"arthritis_risk":5,"migraine_risk":7,"frizz_risk":1,"updated_at":"2026-04-18T05:12:10.476676+05:30"},{"city":"Bidar","state":"Karnataka","latitude":17.9104,"longitude":77.5199,"temp":28.4,"humidity":53,"rain":0.0,"pressure":933.9,"uv_index":9.05,"wind_gusts":25.2,"aqi":97,"pm10":34.6,"pm2_5":31.8,"mosquito_risk":4,"arthritis_risk":5,"migraine_risk":7,"frizz_risk":1,"updated_at":"2026-04-18T05:12:10.476682+05:30"},{"city":"Hospet","state":"Karnataka","latitude":15.2689,"longitude":76.3909,"temp":26.6,"humidity":79,"rain":0.0,"pressure":954.4,"uv_index":9.25,"wind_gusts":18.7,"aqi":94,"pm10":35.7,"pm2_5":33.3,"mosquito_risk":7,"arthritis_risk":5,"migraine_risk":7,"frizz_risk":1,"updated_at":"2026-04-18T05:12:10.476688+05:30"},{"city":"Tirupur","state":"Tamil Nadu","latitude":11.1085,"longitude":77.3411,"temp":26.7,"humidity":89,"rain":0.0,"pressure":974.2,"uv_index":9.25,"wind_gusts":32.4,"aqi":91,"pm10":39.5,"pm2_5":35.6,"mosquito_risk":7,"arthritis_risk":5,"migraine_risk":7,"frizz_risk":1,"updated_at":"2026-04-18T05:12:10.476693+05:30"},{"city":"Alappuzha","state":"Kerala","latitude":9.4981,"longitude":76.3388,"temp":28.4,"humidity":86,"rain":0.0,"pressure":1007.1,"uv_index":9.05,"wind_gusts":28.4,"aqi":101,"pm10":51.7,"pm2_5":38.6,"mosquito_risk":7,"arthritis_risk":5,"migraine_risk":4,"frizz_risk":1,"updated_at":"2026-04-18T05:12:10.476699+05:30"},{"city":"Munnar","state":"Kerala","latitude":10.0889,"longitude":77.0595,"temp":21.5,"humidity":81,"rain":0.0,"pressure":855.6,"uv_index":9.7,"wind_gusts":22.3,"aqi":87,"pm10":44.5,"pm2_5":41.0,"mosquito_risk":3,"arthritis_risk":5,"migraine_risk":7,"frizz_risk":1,"updated_at":"2026-04-18T05:12:10.476705+05:30"},{"city":"Silchar","state":"Assam","latitude":24.8333,"longitude":92.7789,"temp":23.2,"humidity":93,"rain":0.0,"pressure":1006.6,"uv_index":8.75,"wind_gusts":23.8,"aqi":158,"pm10":103.6,"pm2_5":82.9,"mosquito_risk":3,"arthritis_risk":5,"migraine_risk":4,"frizz_risk":1,"updated_at":"2026-04-18T05:12:10.476710+05:30"},{"city":"Dibrugarh","state":"Assam","latitude":27.4728,"longitude":94.912,"temp":24.5,"humidity":89,"rain":0.0,"pressure":996.6,"uv_index":8.65,"wind_gusts":11.5,"aqi":134,"pm10":53.8,"pm2_5":43.1,"mosquito_risk":3,"arthritis_risk":5,"migraine_risk":7,"frizz_risk":1,"updated_at":"2026-04-18T05:12:10.476716+05:30"}]