[{"city":"Delhi","state":"Delhi","latitude":28.6139,"longitude":77.209,"temp":38.1,"humidity":15,"rain":0.0,"pressure":975.5,"uv_index":7.05,"wind_gusts":35.3,"aqi":154,"pm10":207.2,"pm2_5":43.2,"mosquito_risk":0,"arthritis_risk":5,"migraine_risk":10,"frizz_risk":0,"updated_at":"2026-04-29T17:10:21.937421+05:30"},{"city":"Mumbai","state":"Maharashtra","latitude":19.076,"longitude":72.8777,"temp":31.5,"humidity":64,"rain":0.0,"pressure":1004.9,"uv_index":8.05,"wind_gusts":43.2,"aqi":80,"pm10":35.0,"pm2_5":18.6,"mosquito_risk":3,"arthritis_risk":5,"migraine_risk":4,"frizz_risk":1,"updated_at":"2026-04-29T17:10:21.937471+05:30"},{"city":"Bangalore","state":"Karnataka","latitude":12.9716,"longitude":77.5946,"temp":34.7,"humidity":25,"rain":0.0,"pressure":909.8,"uv_index":9.5,"wind_gusts":33.5,"aqi":169,"pm10":48.7,"pm2_5":32.2,"mosquito_risk":0,"arthritis_risk":5,"migraine_risk":7,"frizz_risk":0,"updated_at":"2026-04-29T17:10:21.937487+05:30"},{"city":"Hyderabad","state":"Telangana","latitude":17.385,"longitude":78.4867,"temp":39.3,"humidity":16,"rain":0.0,"pressure":948.9,"uv_index":9.3,"wind_gusts":28.4,"aqi":156,"pm10":44.7,"pm2_5":33.4,"mosquito_risk":0,"arthritis_risk":5,"migraine_risk":10,"frizz_risk":0,"updated_at":"2026-04-29T17:10:21.937497+05:30"},{"city":"Chennai","state":"Tamil Nadu","latitude":13.0827,"longitude":80.2707,"temp":32.4,"humidity":65,"rain":0.0,"pressure":1003.1,"uv_index":9.25,"wind_gusts":55.1,"aqi":73,"pm10":18.4,"pm2_5":14.5,"mosquito_risk":3,"arthritis_risk":5,"migraine_risk":4,"frizz_risk":1,"updated_at":"2026-04-29T17:10:21.937506+05:30"},{"city":"Kolkata","state":"West Bengal","latitude":22.5726,"longitude":88.3639,"temp":28.0,"humidity":82,"rain":0.0,"pressure":1002.8,"uv_index":8.85,"wind_gusts":51.8,"aqi":74,"pm10":18.7,"pm2_5":13.7,"mosquito_risk":7,"arthritis_risk":5,"migraine_risk":4,"frizz_risk":1,"updated_at":"2026-04-29T17:10:21.937515+05:30"},{"city":"Pune","state":"Maharashtra","latitude":18.5204,"longitude":73.8567,"temp":36.2,"humidity":24,"rain":0.0,"pressure":945.0,"uv_index":8.6,"wind_gusts":42.5,"aqi":86,"pm10":30.4,"pm2_5":18.7,"mosquito_risk":0,"arthritis_risk":5,"migraine_risk":10,"frizz_risk":0,"updated_at":"2026-04-29T17:10:21.937528+05:30"},{"city":"Ahmedabad","state":"Gujarat","latitude":23.0225,"longitude":72.5714,"temp":42.3,"humidity":13,"rain":0.0,"pressure":994.7,"uv_index":8.2,"wind_gusts":53.3,"aqi":49,"pm10":38.4,"pm2_5":11.8,"mosquito_risk":0,"arthritis_risk":5,"migraine_risk":10,"frizz_risk":0,"updated_at":"2026-04-29T17:10:21.937536+05:30"},{"city":"Jaipur","state":"Rajasthan","latitude":26.9124,"longitude":75.7873,"temp":38.3,"humidity":11,"rain":0.0,"pressure":952.9,"uv_index":8.05,"wind_gusts":51.5,"aqi":150,"pm10":246.8,"pm2_5":35.2,"mosquito_risk":0,"arthritis_risk":5,"migraine_risk":10,"frizz_risk":0,"updated_at":"2026-04-29T17:10:21.937545+05:30"},{"city":"Lucknow","state":"Uttar Pradesh","latitude":26.8467,"longitude":80.9462,"temp":36.0,"humidity":29,"rain":0.0,"pressure":987.1,"uv_index":7.9,"wind_gusts":47.9,"aqi":176,"pm10":92.9,"pm2_5":46.3,"mosquito_risk":0,"arthritis_risk":5,"migraine_risk":10,"frizz_risk":0,"updated_at":"2026-04-29T17:10:21.937554+05:30"},{"city":"Kanpur","state":"Uttar Pradesh","latitude":26.4499,"longitude":80.3319,"temp":37.9,"humidity":22,"rain":0.0,"pressure":984.7,"uv_index":7.9,"wind_gusts":50.8,"aqi":181,"pm10":288.7,"pm2_5":51.3,"mosquito_risk":0,"arthritis_risk":5,"migraine_risk":10,"frizz_risk":0,"updated_at":"2026-04-29T17:10:21.937562+05:30"},{"city":"Chandigarh","state":"Chandigarh","latitude":30.7333,"longitude":76.7794,"temp":32.2,"humidity":31,"rain":0.0,"pressure":963.3,"uv_index":7.4,"wind_gusts":40.0,"aqi":92,"pm10":68.9,"pm2_5":18.7,"mosquito_risk":0,"arthritis_risk":5,"migraine_risk":7,"frizz_risk":0,"updated_at":"2026-04-29T17:10:21.937571+05:30"},{"city":"Srinagar","state":"Jammu and Kashmir","latitude":34.0837,"longitude":74.7973,"temp":14.6,"humidity":89,"rain":0.1,"pressure":839.0,"uv_index":5.8,"wind_gusts":19.8,"aqi":98,"pm10":23.3,"pm2_5":17.5,"mosquito_risk":6,"arthritis_risk":10,"migraine_risk":3,"frizz_risk":0,"updated_at":"2026-04-29T17:10:21.937580+05:30"},{"city":"Jammu","state":"Jammu and Kashmir","latitude":32.7266,"longitude":74.857,"temp":24.3,"humidity":59,"rain":0.0,"pressure":969.1,"uv_index":7.0,"wind_gusts":53.3,"aqi":66,"pm10":43.2,"pm2_5":15.7,"mosquito_risk":0,"arthritis_risk":5,"migraine_risk":7,"frizz_risk":0,"updated_at":"2026-04-29T17:10:21.937588+05:30"},{"city":"Amritsar","state":"Punjab","latitude":31.634,"longitude":74.8723,"temp":30.5,"humidity":43,"rain":0.0,"pressure":976.0,"uv_index":8.1,"wind_gusts":40.7,"aqi":134,"pm10":54.4,"pm2_5":25.2,"mosquito_risk":0,"arthritis_risk":5,"migraine_risk":7,"frizz_risk":1,"updated_at":"2026-04-29T17:10:21.937595+05:30"},{"city":"Ludhiana","state":"Punjab","latitude":30.901,"longitude":75.8573,"temp":32.3,"humidity":33,"rain":0.0,"pressure":973.2,"uv_index":7.7,"wind_gusts":51.1,"aqi":91,"pm10":112.5,"pm2_5":28.5,"mosquito_risk":0,"arthritis_risk":5,"migraine_risk":7,"frizz_risk":0,"updated_at":"2026-04-29T17:10:21.937603+05:30"},{"city":"Jalandhar","state":"Punjab","latitude":31.326,"longitude":75.5762,"temp":32.0,"humidity":34,"rain":0.0,"pressure":974.4,"uv_index":7.9,"wind_gusts":33.8,"aqi":96,"pm10":65.2,"pm2_5":28.4,"mosquito_risk":0,"arthritis_risk":5,"migraine_risk":7,"frizz_risk":0,"updated_at":"2026-04-29T17:10:21.937612+05:30"},{"city":"Dehradun","state":"Uttarakhand","latitude":30.6284,"longitude":78.0322,"temp":21.0,"humidity":43,"rain":0.0,"pressure":828.2,"uv_index":6.15,"wind_gusts":44.6,"aqi":59,"pm10":43.8,"pm2_5":13.1,"mosquito_risk":0,"arthritis_risk":5,"migraine_risk":7,"frizz_risk":0,"updated_at":"2026-04-29T17:10:21.937620+05:30"},{"city":"Shimla","state":"Himachal Pradesh","latitude":31.1048,"longitude":77.1734,"temp":18.5,"humidity":39,"rain":0.0,"pressure":782.5,"uv_index":7.9,"wind_gusts":34.9,"aqi":73,"pm10":37.8,"pm2_5":16.5,"mosquito_risk":0,"arthritis_risk":5,"migraine_risk":7,"frizz_risk":0,"updated_at":"2026-04-29T17:10:21.937627+05:30"},{"city":"Manali","state":"Himachal Pradesh","latitude":32.2396,"longitude":77.1887,"temp":15.3,"humidity":62,"rain":0.0,"pressure":814.8,"uv_index":6.9,"wind_gusts":38.9,"aqi":96,"pm10":14.1,"pm2_5":5.5,"mosquito_risk":3,"arthritis_risk":5,"migraine_risk":7,"frizz_risk":0,"updated_at":"2026-04-29T17:10:21.937635+05:30"},{"city":"Gurgaon","state":"Haryana","latitude":28.4595,"longitude":77.0266,"temp":37.5,"humidity":15,"rain":0.0,"pressure":974.1,"uv_index":7.4,"wind_gusts":32.4,"aqi":664,"pm10":597.9,"pm2_5":76.8,"mosquito_risk":0,"arthritis_risk":5,"migraine_risk":10,"frizz_risk":0,"updated_at":"2026-04-29T17:10:21.937643+05:30"},{"city":"Noida","state":"Uttar Pradesh","latitude":28.5355,"longitude":77.391,"temp":38.0,"humidity":15,"rain":0.0,"pressure":976.6,"uv_index":6.95,"wind_gusts":33.8,"aqi":664,"pm10":597.9,"pm2_5":76.8,"mosquito_risk":0,"arthritis_risk":5,"migraine_risk":10,"frizz_risk":0,"updated_at":"2026-04-29T17:10:21.937651+05:30"},{"city":"Ghaziabad","state":"Uttar Pradesh","latitude":28.6692,"longitude":77.4538,"temp":38.0,"humidity":15,"rain":0.0,"pressure":975.1,"uv_index":6.85,"wind_gusts":31.3,"aqi":143,"pm10":217.9,"pm2_5":42.5,"mosquito_risk":0,"arthritis_risk":5,"migraine_risk":10,"frizz_risk":0,"updated_at":"2026-04-29T17:10:21.937659+05:30"},{"city":"Faridabad","state":"Haryana","latitude":28.4089,"longitude":77.3178,"temp":37.8,"humidity":15,"rain":0.0,"pressure":976.1,"uv_index":6.95,"wind_gusts":36.0,"aqi":664,"pm10":597.9,"pm2_5":76.8,"mosquito_risk":0,"arthritis_risk":5,"migraine_risk":10,"frizz_risk":0,"updated_at":"2026-04-29T17:10:21.937666+05:30"},{"city":"Meerut","state":"Uttar Pradesh","latitude":28.9845,"longitude":77.7064,"temp":36.2,"humidity":22,"rain":0.0,"pressure":974.2,"uv_index":6.45,"wind_gusts":27.7,"aqi":143,"pm10":217.9,"pm2_5":42.5,"mosquito_risk":0,"arthritis_risk":5,"migraine_risk":10,"frizz_risk":0,"updated_at":"2026-04-29T17:10:21.937673+05:30"},{"city":"Agra","state":"Uttar Pradesh","latitude":27.1767,"longitude":78.0081,"temp":39.2,"humidity":15,"rain":0.0,"pressure":979.7,"uv_index":7.5,"wind_gusts":45.4,"aqi":934,"pm10":698.5,"pm2_5":75.4,"mosquito_risk":0,"arthritis_risk":5,"migraine_risk":10,"frizz_risk":0,"updated_at":"2026-04-29T17:10:21.937680+05:30"},{"city":"Varanasi","state":"Uttar Pradesh","latitude":25.3176,"longitude":82.9739,"temp":34.8,"humidity":32,"rain":0.0,"pressure":990.8,"uv_index":8.45,"wind_gusts":58.3,"aqi":148,"pm10":81.7,"pm2_5":30.4,"mosquito_risk":0,"arthritis_risk":5,"migraine_risk":7,"frizz_risk":0,"updated_at":"2026-04-29T17:10:21.937691+05:30"},{"city":"Prayagraj","state":"Uttar Pradesh","latitude":25.4358,"longitude":81.8463,"temp":37.8,"humidity":25,"rain":0.0,"pressure":988.1,"uv_index":8.35,"wind_gusts":58.7,"aqi":129,"pm10":65.7,"pm2_5":32.0,"mosquito_risk":0,"arthritis_risk":5,"migraine_risk":10,"frizz_risk":0,"updated_at":"2026-04-29T17:10:21.937699+05:30"},{"city":"Gorakhpur","state":"Uttar Pradesh","latitude":26.7606,"longitude":83.3732,"temp":25.7,"humidity":82,"rain":0.1,"pressure":992.8,"uv_index":8.25,"wind_gusts":39.2,"aqi":129,"pm10":69.4,"pm2_5":37.4,"mosquito_risk":10,"arthritis_risk":5,"migraine_risk":7,"frizz_risk":1,"updated_at":"2026-04-29T17:10:21.937707+05:30"},{"city":"Bareilly","state":"Uttar Pradesh","latitude":28.367,"longitude":79.4304,"temp":33.9,"humidity":31,"rain":0.0,"pressure":980.5,"uv_index":7.45,"wind_gusts":41.0,"aqi":106,"pm10":125.3,"pm2_5":28.3,"mosquito_risk":0,"arthritis_risk":5,"migraine_risk":7,"frizz_risk":0,"updated_at":"2026-04-29T17:10:21.937714+05:30"},{"city":"Aligarh","state":"Uttar Pradesh","latitude":27.8974,"longitude":78.088,"temp":36.8,"humidity":21,"rain":0.0,"pressure":978.0,"uv_index":5.25,"wind_gusts":40.3,"aqi":380,"pm10":562.5,"pm2_5":65.4,"mosquito_risk":0,"arthritis_risk":5,"migraine_risk":6,"frizz_risk":0,"updated_at":"2026-04-29T17:10:21.937723+05:30"},{"city":"Moradabad","state":"Uttar Pradesh","latitude":28.8386,"longitude":78.7733,"temp":36.1,"humidity":20,"rain":0.0,"pressure":977.1,"uv_index":5.2,"wind_gusts":29.5,"aqi":139,"pm10":147.6,"pm2_5":34.0,"mosquito_risk":0,"arthritis_risk":5,"migraine_risk":6,"frizz_risk":0,"updated_at":"2026-04-29T17:10:21.937732+05:30"},{"city":"Saharanpur","state":"Uttar Pradesh","latitude":29.9637,"longitude":77.546,"temp":34.7,"humidity":24,"rain":0.0,"pressure":969.2,"uv_index":7.05,"wind_gusts":34.6,"aqi":106,"pm10":68.2,"pm2_5":17.2,"mosquito_risk":0,"arthritis_risk":5,"migraine_risk":7,"frizz_risk":0,"updated_at":"2026-04-29T17:10:21.937738+05:30"},{"city":"Jhansi","state":"Uttar Pradesh","latitude":25.4484,"longitude":78.5685,"temp":40.3,"humidity":12,"rain":0.0,"pressure":970.0,"uv_index":7.7,"wind_gusts":53.6,"aqi":72,"pm10":52.4,"pm2_5":14.2,"mosquito_risk":0,"arthritis_risk":5,"migraine_risk":10,"frizz_risk":0,"updated_at":"2026-04-29T17:10:25.263686+05:30"},{"city":"Surat","state":"Gujarat","latitude":21.1702,"longitude":72.8311,"temp":32.8,"humidity":53,"rain":0.0,"pressure":1002.0,"uv_index":7.85,"wind_gusts":46.1,"aqi":69,"pm10":48.9,"pm2_5":21.6,"mosquito_risk":0,"arthritis_risk":5,"migraine_risk":4,"frizz_risk":1,"updated_at":"2026-04-29T17:10:25.263720+05:30"},{"city":"Vadodara","state":"Gujarat","latitude":22.3072,"longitude":73.1812,"temp":40.0,"humidity":23,"rain":0.0,"pressure":997.8,"uv_index":8.15,"wind_gusts":52.2,"aqi":59,"pm10":44.4,"pm2_5":16.3,"mosquito_risk":0,"arthritis_risk":5,"migraine_risk":10,"frizz_risk":0,"updated_at":"2026-04-29T17:10:25.263733+05:30"},{"city":"Rajkot","state":"Gujarat","latitude":22.3039,"longitude":70.8022,"temp":40.1,"humidity":17,"rain":0.0,"pressure":988.2,"uv_index":7.9,"wind_gusts":54.0,"aqi":49,"pm10":41.2,"pm2_5":13.1,"mosquito_risk":0,"arthritis_risk":5,"migraine_risk":10,"frizz_risk":0,"updated_at":"2026-04-29T17:10:25.263744+05:30"},{"city":"Thane","state":"Maharashtra","latitude":19.2183,"longitude":72.9781,"temp":33.8,"humidity":47,"rain":0.0,"pressure":1003.9,"uv_index":8.05,"wind_gusts":40.3,"aqi":80,"pm10":35.0,"pm2_5":18.6,"mosquito_risk":0,"arthritis_risk":5,"migraine_risk":4,"frizz_risk":1,"updated_at":"2026-04-29T17:10:25.263753+05:30"},{"city":"Nagpur","state":"Maharashtra","latitude":21.1458,"longitude":79.0882,"temp":41.4,"humidity":11,"rain":0.0,"pressure":966.6,"uv_index":8.85,"wind_gusts":55.8,"aqi":115,"pm10":18.6,"pm2_5":10.4,"mosquito_risk":0,"arthritis_risk":5,"migraine_risk":10,"frizz_risk":0,"updated_at":"2026-04-29T17:10:25.263762+05:30"},{"city":"Nashik","state":"Maharashtra","latitude":19.9975,"longitude":73.7898,"temp":35.5,"humidity":24,"rain":0.0,"pressure":942.6,"uv_index":8.3,"wind_gusts":46.1,"aqi":62,"pm10":33.9,"pm2_5":12.8,"mosquito_risk":0,"arthritis_risk":5,"migraine_risk":10,"frizz_risk":0,"updated_at":"2026-04-29T17:10:25.263770+05:30"},{"city":"Aurangabad","state":"Maharashtra","latitude":19.8762,"longitude":75.3433,"temp":39.2,"humidity":11,"rain":0.0,"pressure":939.8,"uv_index":9.05,"wind_gusts":56.5,"aqi":63,"pm10":22.1,"pm2_5":12.3,"mosquito_risk":0,"arthritis_risk":5,"migraine_risk":10,"frizz_risk":0,"updated_at":"2026-04-29T17:10:25.263779+05:30"},{"city":"Solapur","state":"Maharashtra","latitude":17.6599,"longitude":75.9064,"temp":40.4,"humidity":14,"rain":0.0,"pressure":952.3,"uv_index":9.1,"wind_gusts":40.7,"aqi":113,"pm10":29.5,"pm2_5":18.6,"mosquito_risk":0,"arthritis_risk":5,"migraine_risk":10,"frizz_risk":0,"updated_at":"2026-04-29T17:10:25.263788+05:30"},{"city":"Kolhapur","state":"Maharashtra","latitude":16.705,"longitude":74.2433,"temp":36.1,"humidity":27,"rain":0.0,"pressure":944.4,"uv_index":9.0,"wind_gusts":44.6,"aqi":75,"pm10":31.8,"pm2_5":19.9,"mosquito_risk":0,"arthritis_risk":5,"migraine_risk":10,"frizz_risk":0,"updated_at":"2026-04-29T17:10:25.263796+05:30"},{"city":"Goa","state":"Goa","latitude":15.2993,"longitude":74.124,"temp":32.9,"humidity":62,"rain":0.0,"pressure":994.7,"uv_index":8.75,"wind_gusts":45.4,"aqi":73,"pm10":34.6,"pm2_5":16.5,"mosquito_risk":3,"arthritis_risk":5,"migraine_risk":7,"frizz_risk":1,"updated_at":"2026-04-29T17:10:25.263805+05:30"},{"city":"Jodhpur","state":"Rajasthan","latitude":26.2389,"longitude":73.0243,"temp":39.8,"humidity":15,"rain":0.0,"pressure":975.4,"uv_index":8.25,"wind_gusts":41.4,"aqi":143,"pm10":210.5,"pm2_5":29.8,"mosquito_risk":0,"arthritis_risk":5,"migraine_risk":10,"frizz_risk":0,"updated_at":"2026-04-29T17:10:25.263814+05:30"},{"city":"Udaipur","state":"Rajasthan","latitude":24.5854,"longitude":73.7125,"temp":36.3,"humidity":17,"rain":0.0,"pressure":941.5,"uv_index":8.75,"wind_gusts":44.3,"aqi":58,"pm10":65.9,"pm2_5":16.6,"mosquito_risk":0,"arthritis_risk":5,"migraine_risk":10,"frizz_risk":0,"updated_at":"2026-04-29T17:10:25.263822+05:30"},{"city":"Kota","state":"Rajasthan","latitude":25.2138,"longitude":75.8648,"temp":39.3,"humidity":16,"rain":0.0,"pressure":971.8,"uv_index":8.3,"wind_gusts":44.3,"aqi":71,"pm10":93.1,"pm2_5":22.5,"mosquito_risk":0,"arthritis_risk":5,"migraine_risk":10,"frizz_risk":0,"updated_at":"2026-04-29T17:10:25.263829+05:30"},{"city":"Bikaner","state":"Rajasthan","latitude":28.0229,"longitude":73.3119,"temp":40.1,"humidity":12,"rain":0.0,"pressure":973.7,"uv_index":8.15,"wind_gusts":34.2,"aqi":76,"pm10":122.5,"pm2_5":23.2,"mosquito_risk":0,"arthritis_risk":5,"migraine_risk":10,"frizz_risk":0,"updated_at":"2026-04-29T17:10:25.263836+05:30"},{"city":"Ajmer","state":"Rajasthan","latitude":26.4499,"longitude":74.6399,"temp":37.4,"humidity":16,"rain":0.0,"pressure":948.5,"uv_index":8.2,"wind_gusts":49.7,"aqi":77,"pm10":83.4,"pm2_5":19.0,"mosquito_risk":0,"arthritis_risk":5,"migraine_risk":10,"frizz_risk":0,"updated_at":"2026-04-29T17:10:25.263842+05:30"},{"city":"Gwalior","state":"Madhya Pradesh","latitude":26.2183,"longitude":78.1828,"temp":39.0,"humidity":15,"rain":0.0,"pressure":975.4,"uv_index":8.05,"wind_gusts":53.3,"aqi":160,"pm10":217.0,"pm2_5":44.9,"mosquito_risk":0,"arthritis_risk":5,"migraine_risk":10,"frizz_risk":0,"updated_at":"2026-04-29T17:10:25.263849+05:30"},{"city":"Indore","state":"Madhya Pradesh","latitude":22.7196,"longitude":75.8577,"temp":37.8,"humidity":14,"rain":0.0,"pressure":943.6,"uv_index":8.65,"wind_gusts":57.2,"aqi":74,"pm10":25.0,"pm2_5":9.4,"mosquito_risk":0,"arthritis_risk":5,"migraine_risk":10,"frizz_risk":0,"updated_at":"2026-04-29T17:10:25.263855+05:30"},{"city":"Bhopal","state":"Madhya Pradesh","latitude":23.2599,"longitude":77.4126,"temp":39.3,"humidity":11,"rain":0.0,"pressure":947.7,"uv_index":8.6,"wind_gusts":54.0,"aqi":54,"pm10":26.8,"pm2_5":8.8,"mosquito_risk":0,"arthritis_risk":5,"migraine_risk":10,"frizz_risk":0,"updated_at":"2026-04-29T17:10:25.263862+05:30"},{"city":"Jabalpur","state":"Madhya Pradesh","latitude":23.1815,"longitude":79.9864,"temp":39.8,"humidity":12,"rain":0.0,"pressure":954.8,"uv_index":8.75,"wind_gusts":41.4,"aqi":74,"pm10":15.3,"pm2_5":7.3,"mosquito_risk":0,"arthritis_risk":5,"migraine_risk":10,"frizz_risk":0,"updated_at":"2026-04-29T17:10:25.263870+05:30"},{"city":"Ujjain","state":"Madhya Pradesh","latitude":23.1765,"longitude":75.7885,"temp":37.6,"humidity":16,"rain":0.0,"pressure":948.9,"uv_index":8.55,"wind_gusts":53.3,"aqi":69,"pm10":28.5,"pm2_5":10.2,"mosquito_risk":0,"arthritis_risk":5,"migraine_risk":10,"frizz_risk":0,"updated_at":"2026-04-29T17:10:25.263877+05:30"},{"city":"Visakhapatnam","state":"Andhra Pradesh","latitude":17.6868,"longitude":83.2185,"temp":31.0,"humidity":73,"rain":0.0,"pressure":999.5,"uv_index":9.1,"wind_gusts":54.0,"aqi":60,"pm10":19.7,"pm2_5":15.2,"mosquito_risk":3,"arthritis_risk":5,"migraine_risk":7,"frizz_risk":1,"updated_at":"2026-04-29T17:10:25.263884+05:30"},{"city":"Vijayawada","state":"Andhra Pradesh","latitude":16.5062,"longitude":80.648,"temp":37.0,"humidity":41,"rain":0.0,"pressure":997.6,"uv_index":8.75,"wind_gusts":36.0,"aqi":81,"pm10":41.0,"pm2_5":35.2,"mosquito_risk":0,"arthritis_risk":5,"migraine_risk":10,"frizz_risk":1,"updated_at":"2026-04-29T17:10:25.263891+05:30"},{"city":"Guntur","state":"Andhra Pradesh","latitude":16.3067,"longitude":80.4365,"temp":36.2,"humidity":48,"rain":0.0,"pressure":998.7,"uv_index":8.9,"wind_gusts":37.1,"aqi":102,"pm10":49.1,"pm2_5":40.2,"mosquito_risk":0,"arthritis_risk":5,"migraine_risk":10,"frizz_risk":1,"updated_at":"2026-04-29T17:10:25.263897+05:30"},{"city":"Nellore","state":"Andhra Pradesh","latitude":14.4426,"longitude":79.9865,"temp":34.2,"humidity":56,"rain":0.0,"pressure":1001.0,"uv_index":9.25,"wind_gusts":38.2,"aqi":104,"pm10":30.3,"pm2_5":23.9,"mosquito_risk":0,"arthritis_risk":5,"migraine_risk":4,"frizz_risk":1,"updated_at":"2026-04-29T17:10:25.263904+05:30"},{"city":"Kurnool","state":"Andhra Pradesh","latitude":15.8281,"longitude":78.0373,"temp":41.0,"humidity":18,"rain":0.0,"pressure":971.3,"uv_index":8.8,"wind_gusts":33.8,"aqi":161,"pm10":56.0,"pm2_5":40.5,"mosquito_risk":0,"arthritis_risk":5,"migraine_risk":10,"frizz_risk":0,"updated_at":"2026-04-29T17:10:25.263912+05:30"},{"city":"Kakinada","state":"Andhra Pradesh","latitude":16.9891,"longitude":82.2475,"temp":36.3,"humidity":42,"rain":0.0,"pressure":1002.9,"uv_index":9.1,"wind_gusts":43.2,"aqi":53,"pm10":20.3,"pm2_5":14.9,"mosquito_risk":0,"arthritis_risk":5,"migraine_risk":7,"frizz_risk":1,"updated_at":"2026-04-29T17:10:25.263919+05:30"},{"city":"Tirupati","state":"Andhra Pradesh","latitude":13.6288,"longitude":79.4192,"temp":40.0,"humidity":20,"rain":0.0,"pressure":986.0,"uv_index":9.3,"wind_gusts":36.0,"aqi":74,"pm10":24.7,"pm2_5":19.4,"mosquito_risk":0,"arthritis_risk":5,"migraine_risk":10,"frizz_risk":0,"updated_at":"2026-04-29T17:10:25.263925+05:30"},{"city":"Warangal","state":"Telangana","latitude":17.9689,"longitude":79.5941,"temp":40.0,"humidity":17,"rain":0.0,"pressure":973.6,"uv_index":9.15,"wind_gusts":37.4,"aqi":142,"pm10":51.3,"pm2_5":40.9,"mosquito_risk":0,"arthritis_risk":5,"migraine_risk":10,"frizz_risk":0,"updated_at":"2026-04-29T17:10:25.263932+05:30"},{"city":"Nizamabad","state":"Telangana","latitude":18.6725,"longitude":78.0941,"temp":40.6,"humidity":14,"rain":0.0,"pressure":959.4,"uv_index":9.1,"wind_gusts":38.9,"aqi":102,"pm10":31.2,"pm2_5":20.1,"mosquito_risk":0,"arthritis_risk":5,"migraine_risk":10,"frizz_risk":0,"updated_at":"2026-04-29T17:10:25.263939+05:30"},{"city":"Mysore","state":"Karnataka","latitude":12.2958,"longitude":76.6396,"temp":34.3,"humidity":28,"rain":0.0,"pressure":925.8,"uv_index":9.35,"wind_gusts":46.1,"aqi":138,"pm10":50.5,"pm2_5":33.3,"mosquito_risk":0,"arthritis_risk":5,"migraine_risk":7,"frizz_risk":0,"updated_at":"2026-04-29T17:10:25.263945+05:30"},{"city":"Mangalore","state":"Karnataka","latitude":12.9141,"longitude":74.856,"temp":31.7,"humidity":64,"rain":0.0,"pressure":1003.8,"uv_index":9.1,"wind_gusts":43.2,"aqi":75,"pm10":55.1,"pm2_5":22.9,"mosquito_risk":3,"arthritis_risk":5,"migraine_risk":4,"frizz_risk":1,"updated_at":"2026-04-29T17:10:25.263952+05:30"},{"city":"Hubli-Dharwad","state":"Karnataka","latitude":15.3647,"longitude":75.124,"temp":29.3,"humidity":55,"rain":0.0,"pressure":938.1,"uv_index":9.0,"wind_gusts":52.2,"aqi":114,"pm10":44.6,"pm2_5":31.3,"mosquito_risk":4,"arthritis_risk":5,"migraine_risk":7,"frizz_risk":1,"updated_at":"2026-04-29T17:10:25.263958+05:30"},{"city":"Belgaum","state":"Karnataka","latitude":15.8497,"longitude":74.4977,"temp":30.9,"humidity":54,"rain":0.0,"pressure":923.1,"uv_index":9.2,"wind_gusts":49.3,"aqi":93,"pm10":34.0,"pm2_5":21.1,"mosquito_risk":0,"arthritis_risk":5,"migraine_risk":7,"frizz_risk":1,"updated_at":"2026-04-29T17:10:28.629215+05:30"},{"city":"Coimbatore","state":"Tamil Nadu","latitude":11.0168,"longitude":76.9558,"temp":33.6,"humidity":42,"rain":0.0,"pressure":958.7,"uv_index":9.3,"wind_gusts":46.8,"aqi":106,"pm10":31.3,"pm2_5":22.9,"mosquito_risk":0,"arthritis_risk":5,"migraine_risk":7,"frizz_risk":1,"updated_at":"2026-04-29T17:10:28.629246+05:30"},{"city":"Madurai","state":"Tamil Nadu","latitude":9.9252,"longitude":78.1198,"temp":32.3,"humidity":55,"rain":0.0,"pressure":990.9,"uv_index":8.35,"wind_gusts":44.6,"aqi":110,"pm10":19.3,"pm2_5":17.2,"mosquito_risk":0,"arthritis_risk":5,"migraine_risk":7,"frizz_risk":1,"updated_at":"2026-04-29T17:10:28.629256+05:30"},{"city":"Trichy","state":"Tamil Nadu","latitude":10.7905,"longitude":78.7047,"temp":35.1,"humidity":46,"rain":0.0,"pressure":995.9,"uv_index":9.2,"wind_gusts":46.8,"aqi":70,"pm10":12.5,"pm2_5":11.3,"mosquito_risk":0,"arthritis_risk":5,"migraine_risk":10,"frizz_risk":1,"updated_at":"2026-04-29T17:10:28.629264+05:30"},{"city":"Salem","state":"Tamil Nadu","latitude":11.6643,"longitude":78.146,"temp":38.7,"humidity":22,"rain":0.0,"pressure":972.9,"uv_index":8.85,"wind_gusts":42.8,"aqi":117,"pm10":25.4,"pm2_5":18.5,"mosquito_risk":0,"arthritis_risk":5,"migraine_risk":10,"frizz_risk":0,"updated_at":"2026-04-29T17:10:28.629272+05:30"},{"city":"Tirunelveli","state":"Tamil Nadu","latitude":8.7139,"longitude":77.7567,"temp":32.8,"humidity":53,"rain":0.0,"pressure":1000.8,"uv_index":8.5,"wind_gusts":34.6,"aqi":62,"pm10":12.7,"pm2_5":11.4,"mosquito_risk":0,"arthritis_risk":5,"migraine_risk":4,"frizz_risk":1,"updated_at":"2026-04-29T17:10:28.629279+05:30"},{"city":"Vellore","state":"Tamil Nadu","latitude":12.9165,"longitude":79.1325,"temp":38.5,"humidity":24,"rain":0.0,"pressure":979.9,"uv_index":9.35,"wind_gusts":40.7,"aqi":77,"pm10":22.5,"pm2_5":18.5,"mosquito_risk":0,"arthritis_risk":5,"migraine_risk":10,"frizz_risk":0,"updated_at":"2026-04-29T17:10:28.629286+05:30"},{"city":"Erode","state":"Tamil Nadu","latitude":11.341,"longitude":77.7172,"temp":39.2,"humidity":21,"rain":0.0,"pressure":984.3,"uv_index":8.65,"wind_gusts":52.2,"aqi":114,"pm10":24.6,"pm2_5":17.6,"mosquito_risk":0,"arthritis_risk":5,"migraine_risk":10,"frizz_risk":0,"updated_at":"2026-04-29T17:10:28.629293+05:30"},{"city":"Kochi","state":"Kerala","latitude":9.9312,"longitude":76.2673,"temp":30.2,"humidity":72,"rain":0.0,"pressure":1006.3,"uv_index":7.7,"wind_gusts":34.6,"aqi":85,"pm10":27.8,"pm2_5":22.1,"mosquito_risk":3,"arthritis_risk":5,"migraine_risk":4,"frizz_risk":1,"updated_at":"2026-04-29T17:10:28.629300+05:30"},{"city":"Thiruvananthapuram","state":"Kerala","latitude":8.5241,"longitude":76.9366,"temp":28.0,"humidity":81,"rain":0.0,"pressure":1006.3,"uv_index":8.05,"wind_gusts":26.3,"aqi":48,"pm10":9.5,"pm2_5":6.7,"mosquito_risk":7,"arthritis_risk":5,"migraine_risk":4,"frizz_risk":1,"updated_at":"2026-04-29T17:10:28.629308+05:30"},{"city":"Kozhikode","state":"Kerala","latitude":11.2588,"longitude":75.7804,"temp":30.5,"humidity":72,"rain":0.0,"pressure":1005.0,"uv_index":9.0,"wind_gusts":39.2,"aqi":71,"pm10":36.9,"pm2_5":17.8,"mosquito_risk":3,"arthritis_risk":5,"migraine_risk":4,"frizz_risk":1,"updated_at":"2026-04-29T17:10:28.629315+05:30"},{"city":"Thrissur","state":"Kerala","latitude":10.5276,"longitude":76.2144,"temp":30.5,"humidity":72,"rain":0.0,"pressure":1004.4,"uv_index":8.05,"wind_gusts":33.8,"aqi":88,"pm10":29.1,"pm2_5":22.5,"mosquito_risk":3,"arthritis_risk":5,"migraine_risk":4,"frizz_risk":1,"updated_at":"2026-04-29T17:10:28.629322+05:30"},{"city":"Kannur","state":"Kerala","latitude":11.8745,"longitude":75.3704,"temp":31.6,"humidity":62,"rain":0.0,"pressure":1004.3,"uv_index":9.0,"wind_gusts":49.0,"aqi":83,"pm10":46.8,"pm2_5":21.4,"mosquito_risk":3,"arthritis_risk":5,"migraine_risk":4,"frizz_risk":1,"updated_at":"2026-04-29T17:10:28.629329+05:30"},{"city":"Patna","state":"Bihar","latitude":25.5941,"longitude":85.1376,"temp":24.9,"humidity":87,"rain":0.0,"pressure":996.3,"uv_index":8.55,"wind_gusts":40.0,"aqi":147,"pm10":54.8,"pm2_5":34.7,"mosquito_risk":3,"arthritis_risk":5,"migraine_risk":7,"frizz_risk":1,"updated_at":"2026-04-29T17:10:28.629336+05:30"},{"city":"Gaya","state":"Bihar","latitude":24.7914,"longitude":85.0002,"temp":29.9,"humidity":60,"rain":0.0,"pressure":988.6,"uv_index":8.65,"wind_gusts":45.0,"aqi":168,"pm10":91.7,"pm2_5":32.9,"mosquito_risk":4,"arthritis_risk":5,"migraine_risk":7,"frizz_risk":1,"updated_at":"2026-04-29T17:10:28.629343+05:30"},{"city":"Muzaffarpur","state":"Bihar","latitude":26.1209,"longitude":85.3647,"temp":24.6,"humidity":93,"rain":0.6,"pressure":996.5,"uv_index":8.55,"wind_gusts":48.6,"aqi":134,"pm10":55.5,"pm2_5":33.2,"mosquito_risk":6,"arthritis_risk":5,"migraine_risk":7,"frizz_risk":1,"updated_at":"2026-04-29T17:10:28.629350+05:30"},{"city":"Bhagalpur","state":"Bihar","latitude":25.2425,"longitude":87.0117,"temp":27.8,"humidity":73,"rain":0.0,"pressure":997.9,"uv_index":8.55,"wind_gusts":47.5,"aqi":70,"pm10":26.8,"pm2_5":20.4,"mosquito_risk":7,"arthritis_risk":5,"migraine_risk":7,"frizz_risk":1,"updated_at":"2026-04-29T17:10:28.629356+05:30"},{"city":"Ranchi","state":"Jharkhand","latitude":23.3441,"longitude":85.3096,"temp":32.9,"humidity":29,"rain":0.0,"pressure":932.7,"uv_index":9.15,"wind_gusts":40.7,"aqi":150,"pm10":31.0,"pm2_5":22.6,"mosquito_risk":0,"arthritis_risk":5,"migraine_risk":7,"frizz_risk":0,"updated_at":"2026-04-29T17:10:28.629363+05:30"},{"city":"Jamshedpur","state":"Jharkhand","latitude":22.8046,"longitude":86.2029,"temp":35.4,"humidity":31,"rain":0.0,"pressure":984.4,"uv_index":8.95,"wind_gusts":43.9,"aqi":202,"pm10":41.1,"pm2_5":35.4,"mosquito_risk":0,"arthritis_risk":5,"migraine_risk":10,"frizz_risk":0,"updated_at":"2026-04-29T17:10:28.629370+05:30"},{"city":"Dhanbad","state":"Jharkhand","latitude":23.7957,"longitude":86.4304,"temp":35.0,"humidity":38,"rain":0.0,"pressure":974.1,"uv_index":8.9,"wind_gusts":49.7,"aqi":165,"pm10":61.5,"pm2_5":51.6,"mosquito_risk":0,"arthritis_risk":5,"migraine_risk":7,"frizz_risk":1,"updated_at":"2026-04-29T17:10:28.629377+05:30"},{"city":"Bokaro","state":"Jharkhand","latitude":23.6693,"longitude":86.1511,"temp":36.5,"humidity":28,"rain":0.0,"pressure":977.4,"uv_index":8.9,"wind_gusts":49.3,"aqi":156,"pm10":44.4,"pm2_5":31.0,"mosquito_risk":0,"arthritis_risk":5,"migraine_risk":10,"frizz_risk":0,"updated_at":"2026-04-29T17:10:28.629404+05:30"},{"city":"Bhubaneswar","state":"Odisha","latitude":20.2961,"longitude":85.8245,"temp":31.5,"humidity":69,"rain":0.0,"pressure":997.6,"uv_index":9.1,"wind_gusts":55.1,"aqi":61,"pm10":18.0,"pm2_5":13.9,"mosquito_risk":3,"arthritis_risk":5,"migraine_risk":7,"frizz_risk":1,"updated_at":"2026-04-29T17:10:28.629413+05:30"},{"city":"Cuttack","state":"Odisha","latitude":20.4625,"longitude":85.8828,"temp":32.4,"humidity":66,"rain":0.0,"pressure":999.1,"uv_index":9.1,"wind_gusts":48.6,"aqi":61,"pm10":18.0,"pm2_5":13.9,"mosquito_risk":3,"arthritis_risk":5,"migraine_risk":7,"frizz_risk":1,"updated_at":"2026-04-29T17:10:28.629420+05:30"},{"city":"Rourkela","state":"Odisha","latitude":22.2604,"longitude":84.8536,"temp":35.0,"humidity":32,"rain":0.0,"pressure":978.3,"uv_index":8.9,"wind_gusts":61.6,"aqi":208,"pm10":34.2,"pm2_5":29.5,"mosquito_risk":0,"arthritis_risk":5,"migraine_risk":7,"frizz_risk":0,"updated_at":"2026-04-29T17:10:28.629426+05:30"},{"city":"Raipur","state":"Chhattisgarh","latitude":21.2514,"longitude":81.6296,"temp":40.9,"humidity":13,"rain":0.0,"pressure":967.8,"uv_index":8.9,"wind_gusts":52.6,"aqi":161,"pm10":28.0,"pm2_5":20.7,"mosquito_risk":0,"arthritis_risk":5,"migraine_risk":10,"frizz_risk":0,"updated_at":"2026-04-29T17:10:28.629433+05:30"},{"city":"Bhilai","state":"Chhattisgarh","latitude":21.1938,"longitude":81.3509,"temp":40.0,"humidity":13,"rain":0.0,"pressure":968.3,"uv_index":8.9,"wind_gusts":55.1,"aqi":148,"pm10":28.5,"pm2_5":20.0,"mosquito_risk":0,"arthritis_risk":5,"migraine_risk":10,"frizz_risk":0,"updated_at":"2026-04-29T17:10:28.629439+05:30"},{"city":"Guwahati","state":"Assam","latitude":26.1158,"longitude":91.7086,"temp":24.5,"humidity":88,"rain":0.0,"pressure":999.1,"uv_index":7.15,"wind_gusts":30.6,"aqi":71,"pm10":14.6,"pm2_5":13.3,"mosquito_risk":3,"arthritis_risk":5,"migraine_risk":7,"frizz_risk":1,"updated_at":"2026-04-29T17:10:28.629445+05:30"},{"city":"Agartala","state":"Tripura","latitude":23.8315,"longitude":91.2868,"temp":25.5,"humidity":84,"rain":0.0,"pressure":1003.4,"uv_index":6.55,"wind_gusts":50.8,"aqi":77,"pm10":37.6,"pm2_5":27.9,"mosquito_risk":7,"arthritis_risk":5,"migraine_risk":4,"frizz_risk":1,"updated_at":"2026-04-29T17:10:28.629452+05:30"},{"city":"Shillong","state":"Meghalaya","latitude":25.5788,"longitude":91.8933,"temp":18.4,"humidity":80,"rain":0.0,"pressure":854.5,"uv_index":7.5,"wind_gusts":49.3,"aqi":37,"pm10":3.8,"pm2_5":3.7,"mosquito_risk":3,"arthritis_risk":5,"migraine_risk":7,"frizz_risk":0,"updated_at":"2026-04-29T17:10:28.629459+05:30"},{"city":"Imphal","state":"Manipur","latitude":24.817,"longitude":93.9368,"temp":22.2,"humidity":75,"rain":0.0,"pressure":921.2,"uv_index":6.15,"wind_gusts":29.5,"aqi":87,"pm10":58.2,"pm2_5":26.6,"mosquito_risk":3,"arthritis_risk":5,"migraine_risk":7,"frizz_risk":1,"updated_at":"2026-04-29T17:10:28.629466+05:30"},{"city":"Aizawl","state":"Mizoram","latitude":23.7271,"longitude":92.7176,"temp":20.8,"humidity":75,"rain":0.0,"pressure":889.7,"uv_index":6.2,"wind_gusts":40.0,"aqi":80,"pm10":49.7,"pm2_5":28.3,"mosquito_risk":3,"arthritis_risk":5,"migraine_risk":7,"frizz_risk":1,"updated_at":"2026-04-29T17:10:28.629472+05:30"},{"city":"Kohima","state":"Nagaland","latitude":25.6701,"longitude":94.1077,"temp":16.8,"humidity":99,"rain":0.2,"pressure":852.7,"uv_index":7.25,"wind_gusts":20.5,"aqi":51,"pm10":32.1,"pm2_5":15.8,"mosquito_risk":6,"arthritis_risk":10,"migraine_risk":7,"frizz_risk":1,"updated_at":"2026-04-29T17:10:28.629479+05:30"},{"city":"Gangtok","state":"Sikkim","latitude":27.3314,"longitude":88.6138,"temp":15.9,"humidity":91,"rain":0.0,"pressure":834.3,"uv_index":5.5,"wind_gusts":29.2,"aqi":59,"pm10":6.0,"pm2_5":3.8,"mosquito_risk":3,"arthritis_risk":10,"migraine_risk":3,"frizz_risk":0,"updated_at":"2026-04-29T17:10:28.629486+05:30"},{"city":"Siliguri","state":"West Bengal","latitude":26.7271,"longitude":88.3953,"temp":25.0,"humidity":76,"rain":0.0,"pressure":990.5,"uv_index":1.8,"wind_gusts":33.5,"aqi":76,"pm10":11.3,"pm2_5":7.9,"mosquito_risk":7,"arthritis_risk":5,"migraine_risk":3,"frizz_risk":1,"updated_at":"2026-04-29T17:10:31.964771+05:30"},{"city":"Durgapur","state":"West Bengal","latitude":23.5204,"longitude":87.3119,"temp":25.4,"humidity":87,"rain":0.0,"pressure":990.4,"uv_index":8.85,"wind_gusts":45.0,"aqi":144,"pm10":55.3,"pm2_5":49.0,"mosquito_risk":7,"arthritis_risk":5,"migraine_risk":7,"frizz_risk":1,"updated_at":"2026-04-29T17:10:31.964804+05:30"},{"city":"Asansol","state":"West Bengal","latitude":23.6739,"longitude":86.9524,"temp":28.4,"humidity":73,"rain":0.0,"pressure":988.7,"uv_index":8.85,"wind_gusts":47.5,"aqi":155,"pm10":60.3,"pm2_5":53.8,"mosquito_risk":7,"arthritis_risk":5,"migraine_risk":7,"frizz_risk":1,"updated_at":"2026-04-29T17:10:31.964815+05:30"},{"city":"Pondicherry","state":"Puducherry","latitude":11.9139,"longitude":79.8145,"temp":31.5,"humidity":74,"rain":0.0,"pressure":1004.8,"uv_index":9.05,"wind_gusts":54.0,"aqi":53,"pm10":16.9,"pm2_5":12.7,"mosquito_risk":3,"arthritis_risk":5,"migraine_risk":4,"frizz_risk":1,"updated_at":"2026-04-29T17:10:31.964823+05:30"},{"city":"Port Blair","state":"Andaman and Nicobar Islands","latitude":11.6234,"longitude":92.7265,"temp":31.4,"humidity":59,"rain":0.0,"pressure":1005.1,"uv_index":9.1,"wind_gusts":29.2,"aqi":37,"pm10":10.3,"pm2_5":7.8,"mosquito_risk":0,"arthritis_risk":5,"migraine_risk":4,"frizz_risk":1,"updated_at":"2026-04-29T17:10:31.964831+05:30"},{"city":"Haridwar","state":"Uttarakhand","latitude":29.9457,"longitude":78.1642,"temp":33.7,"humidity":30,"rain":0.0,"pressure":967.2,"uv_index":6.45,"wind_gusts":27.4,"aqi":89,"pm10":72.4,"pm2_5":17.9,"mosquito_risk":0,"arthritis_risk":5,"migraine_risk":7,"frizz_risk":0,"updated_at":"2026-04-29T17:10:31.964838+05:30"},{"city":"Rishikesh","state":"Uttarakhand","latitude":30.0869,"longitude":78.2676,"temp":31.5,"humidity":36,"rain":0.0,"pressure":960.4,"uv_index":6.85,"wind_gusts":29.9,"aqi":84,"pm10":99.2,"pm2_5":19.9,"mosquito_risk":0,"arthritis_risk":5,"migraine_risk":7,"frizz_risk":0,"updated_at":"2026-04-29T17:10:31.964845+05:30"},{"city":"Nainital","state":"Uttarakhand","latitude":29.3919,"longitude":79.4542,"temp":18.7,"humidity":54,"rain":0.0,"pressure":803.1,"uv_index":5.65,"wind_gusts":50.8,"aqi":91,"pm10":140.2,"pm2_5":29.6,"mosquito_risk":0,"arthritis_risk":5,"migraine_risk":3,"frizz_risk":0,"updated_at":"2026-04-29T17:10:31.964852+05:30"},{"city":"Mussoorie","state":"Uttarakhand","latitude":30.4599,"longitude":78.0664,"temp":18.7,"humidity":42,"rain":0.0,"pressure":800.6,"uv_index":5.9,"wind_gusts":42.1,"aqi":73,"pm10":54.6,"pm2_5":14.1,"mosquito_risk":0,"arthritis_risk":5,"migraine_risk":3,"frizz_risk":0,"updated_at":"2026-04-29T17:10:31.964859+05:30"},{"city":"Dharamshala","state":"Himachal Pradesh","latitude":32.219,"longitude":76.3234,"temp":21.2,"humidity":46,"rain":0.0,"pressure":865.9,"uv_index":7.95,"wind_gusts":50.8,"aqi":64,"pm10":26.5,"pm2_5":9.2,"mosquito_risk":0,"arthritis_risk":5,"migraine_risk":7,"frizz_risk":0,"updated_at":"2026-04-29T17:10:31.964866+05:30"},{"city":"Dalhousie","state":"Himachal Pradesh","latitude":32.5387,"longitude":75.971,"temp":17.2,"humidity":53,"rain":0.0,"pressure":801.8,"uv_index":7.5,"wind_gusts":54.4,"aqi":72,"pm10":34.0,"pm2_5":11.4,"mosquito_risk":0,"arthritis_risk":5,"migraine_risk":7,"frizz_risk":0,"updated_at":"2026-04-29T17:10:31.964875+05:30"},{"city":"Patiala","state":"Punjab","latitude":30.3398,"longitude":76.3869,"temp":33.0,"humidity":28,"rain":0.0,"pressure":972.2,"uv_index":7.35,"wind_gusts":52.6,"aqi":139,"pm10":529.0,"pm2_5":56.2,"mosquito_risk":0,"arthritis_risk":5,"migraine_risk":7,"frizz_risk":0,"updated_at":"2026-04-29T17:10:31.964882+05:30"},{"city":"Bhatinda","state":"Punjab","latitude":30.211,"longitude":74.9455,"temp":36.8,"humidity":20,"rain":0.0,"pressure":976.7,"uv_index":8.05,"wind_gusts":47.2,"aqi":91,"pm10":101.5,"pm2_5":25.0,"mosquito_risk":0,"arthritis_risk":5,"migraine_risk":10,"frizz_risk":0,"updated_at":"2026-04-29T17:10:31.964889+05:30"},{"city":"Rohtak","state":"Haryana","latitude":28.8955,"longitude":76.6066,"temp":38.1,"humidity":13,"rain":0.0,"pressure":974.1,"uv_index":7.45,"wind_gusts":34.6,"aqi":299,"pm10":246.8,"pm2_5":43.2,"mosquito_risk":0,"arthritis_risk":5,"migraine_risk":10,"frizz_risk":0,"updated_at":"2026-04-29T17:10:31.964896+05:30"},{"city":"Panipat","state":"Haryana","latitude":29.3909,"longitude":76.9635,"temp":37.2,"humidity":18,"rain":0.0,"pressure":973.0,"uv_index":7.3,"wind_gusts":38.5,"aqi":677,"pm10":370.7,"pm2_5":52.0,"mosquito_risk":0,"arthritis_risk":5,"migraine_risk":10,"frizz_risk":0,"updated_at":"2026-04-29T17:10:31.964904+05:30"},{"city":"Mathura","state":"Uttar Pradesh","latitude":27.4924,"longitude":77.6737,"temp":38.2,"humidity":17,"rain":0.0,"pressure":979.0,"uv_index":7.6,"wind_gusts":41.0,"aqi":788,"pm10":631.4,"pm2_5":74.7,"mosquito_risk":0,"arthritis_risk":5,"migraine_risk":10,"frizz_risk":0,"updated_at":"2026-04-29T17:10:31.964911+05:30"},{"city":"Vrindavan","state":"Uttar Pradesh","latitude":27.5823,"longitude":77.7027,"temp":38.2,"humidity":17,"rain":0.0,"pressure":979.4,"uv_index":7.5,"wind_gusts":40.3,"aqi":788,"pm10":631.4,"pm2_5":74.7,"mosquito_risk":0,"arthritis_risk":5,"migraine_risk":10,"frizz_risk":0,"updated_at":"2026-04-29T17:10:31.964917+05:30"},{"city":"Ayodhya","state":"Uttar Pradesh","latitude":26.7922,"longitude":82.1998,"temp":28.7,"humidity":61,"rain":0.0,"pressure":989.8,"uv_index":8.05,"wind_gusts":40.3,"aqi":156,"pm10":57.4,"pm2_5":43.4,"mosquito_risk":7,"arthritis_risk":5,"migraine_risk":7,"frizz_risk":1,"updated_at":"2026-04-29T17:10:31.964925+05:30"},{"city":"Ratlam","state":"Madhya Pradesh","latitude":23.3315,"longitude":75.0367,"temp":37.3,"humidity":15,"rain":0.0,"pressure":950.2,"uv_index":8.5,"wind_gusts":48.2,"aqi":71,"pm10":27.4,"pm2_5":9.8,"mosquito_risk":0,"arthritis_risk":5,"migraine_risk":10,"frizz_risk":0,"updated_at":"2026-04-29T17:10:31.964931+05:30"},{"city":"Sagar","state":"Madhya Pradesh","latitude":23.8388,"longitude":78.7378,"temp":39.1,"humidity":11,"rain":0.0,"pressure":943.7,"uv_index":8.65,"wind_gusts":45.4,"aqi":54,"pm10":33.5,"pm2_5":9.8,"mosquito_risk":0,"arthritis_risk":5,"migraine_risk":10,"frizz_risk":0,"updated_at":"2026-04-29T17:10:31.964938+05:30"},{"city":"Satna","state":"Madhya Pradesh","latitude":24.6005,"longitude":80.8322,"temp":39.2,"humidity":14,"rain":0.0,"pressure":964.2,"uv_index":8.6,"wind_gusts":47.2,"aqi":88,"pm10":16.5,"pm2_5":9.3,"mosquito_risk":0,"arthritis_risk":5,"migraine_risk":10,"frizz_risk":0,"updated_at":"2026-04-29T17:10:31.964945+05:30"},{"city":"Akola","state":"Maharashtra","latitude":20.7002,"longitude":77.0082,"temp":40.8,"humidity":10,"rain":0.0,"pressure":969.3,"uv_index":8.85,"wind_gusts":54.0,"aqi":73,"pm10":19.7,"pm2_5":11.8,"mosquito_risk":0,"arthritis_risk":5,"migraine_risk":10,"frizz_risk":0,"updated_at":"2026-04-29T17:10:31.964952+05:30"},{"city":"Amravati","state":"Maharashtra","latitude":20.9374,"longitude":77.7796,"temp":40.6,"humidity":8,"rain":0.0,"pressure":961.5,"uv_index":8.85,"wind_gusts":60.1,"aqi":81,"pm10":19.5,"pm2_5":11.9,"mosquito_risk":0,"arthritis_risk":5,"migraine_risk":10,"frizz_risk":0,"updated_at":"2026-04-29T17:10:31.964960+05:30"},{"city":"Latur","state":"Maharashtra","latitude":18.4088,"longitude":76.5604,"temp":39.7,"humidity":13,"rain":0.0,"pressure":935.8,"uv_index":9.05,"wind_gusts":29.2,"aqi":78,"pm10":25.3,"pm2_5":15.8,"mosquito_risk":0,"arthritis_risk":5,"migraine_risk":10,"frizz_risk":0,"updated_at":"2026-04-29T17:10:31.964967+05:30"},{"city":"Nanded","state":"Maharashtra","latitude":19.1383,"longitude":77.3091,"temp":41.2,"humidity":13,"rain":0.0,"pressure":963.1,"uv_index":9.0,"wind_gusts":34.6,"aqi":82,"pm10":25.8,"pm2_5":17.3,"mosquito_risk":0,"arthritis_risk":5,"migraine_risk":10,"frizz_risk":0,"updated_at":"2026-04-29T17:10:31.964974+05:30"},{"city":"Gulbarga","state":"Karnataka","latitude":17.3297,"longitude":76.8343,"temp":40.5,"humidity":14,"rain":0.0,"pressure":953.4,"uv_index":9.1,"wind_gusts":25.9,"aqi":140,"pm10":36.4,"pm2_5":24.9,"mosquito_risk":0,"arthritis_risk":5,"migraine_risk":10,"frizz_risk":0,"updated_at":"2026-04-29T17:10:31.964980+05:30"},{"city":"Bidar","state":"Karnataka","latitude":17.9104,"longitude":77.5199,"temp":38.7,"humidity":16,"rain":0.0,"pressure":931.7,"uv_index":9.15,"wind_gusts":32.0,"aqi":107,"pm10":31.2,"pm2_5":20.1,"mosquito_risk":0,"arthritis_risk":5,"migraine_risk":10,"frizz_risk":0,"updated_at":"2026-04-29T17:10:31.964986+05:30"},{"city":"Hospet","state":"Karnataka","latitude":15.2689,"longitude":76.3909,"temp":37.5,"humidity":25,"rain":0.0,"pressure":951.5,"uv_index":9.0,"wind_gusts":42.8,"aqi":117,"pm10":48.3,"pm2_5":33.9,"mosquito_risk":0,"arthritis_risk":5,"migraine_risk":10,"frizz_risk":0,"updated_at":"2026-04-29T17:10:31.964992+05:30"},{"city":"Tirupur","state":"Tamil Nadu","latitude":11.1085,"longitude":77.3411,"temp":38.5,"humidity":22,"rain":0.0,"pressure":970.9,"uv_index":8.95,"wind_gusts":50.8,"aqi":128,"pm10":30.3,"pm2_5":20.7,"mosquito_risk":0,"arthritis_risk":5,"migraine_risk":10,"frizz_risk":0,"updated_at":"2026-04-29T17:10:31.964999+05:30"},{"city":"Alappuzha","state":"Kerala","latitude":9.4981,"longitude":76.3388,"temp":29.0,"humidity":78,"rain":0.0,"pressure":1006.5,"uv_index":7.5,"wind_gusts":28.8,"aqi":70,"pm10":22.0,"pm2_5":16.7,"mosquito_risk":7,"arthritis_risk":5,"migraine_risk":4,"frizz_risk":1,"updated_at":"2026-04-29T17:10:31.965005+05:30"},{"city":"Munnar","state":"Kerala","latitude":10.0889,"longitude":77.0595,"temp":20.3,"humidity":87,"rain":0.0,"pressure":856.3,"uv_index":8.25,"wind_gusts":25.9,"aqi":84,"pm10":23.1,"pm2_5":18.9,"mosquito_risk":3,"arthritis_risk":5,"migraine_risk":7,"frizz_risk":1,"updated_at":"2026-04-29T17:10:31.965013+05:30"},{"city":"Silchar","state":"Assam","latitude":24.8333,"longitude":92.7789,"temp":25.3,"humidity":74,"rain":0.0,"pressure":1002.8,"uv_index":6.25,"wind_gusts":30.6,"aqi":99,"pm10":51.1,"pm2_5":32.6,"mosquito_risk":7,"arthritis_risk":5,"migraine_risk":4,"frizz_risk":1,"updated_at":"2026-04-29T17:10:31.965019+05:30"},{"city":"Dibrugarh","state":"Assam","latitude":27.4728,"longitude":94.912,"temp":23.6,"humidity":91,"rain":0.1,"pressure":994.3,"uv_index":6.3,"wind_gusts":31.3,"aqi":113,"pm10":33.8,"pm2_5":26.7,"mosquito_risk":6,"arthritis_risk":5,"migraine_risk":7,"frizz_risk":1,"updated_at":"2026-04-29T17:10:31.965027+05:30"}]