[{"city":"Delhi","state":"Delhi","latitude":28.6139,"longitude":77.209,"temp":31.0,"humidity":47,"rain":0.0,"pressure":980.6,"uv_index":7.45,"wind_gusts":27.4,"aqi":153,"pm10":166.7,"pm2_5":84.3,"no2":61.6,"co":646.0,"o3":43.0,"so2":36.1,"mosquito_risk":0,"arthritis_risk":5,"migraine_risk":7,"frizz_risk":1,"updated_at":"2026-06-03T00:11:56.853046+05:30"},{"city":"Mumbai","state":"Maharashtra","latitude":19.076,"longitude":72.8777,"temp":28.6,"humidity":78,"rain":0.0,"pressure":1007.3,"uv_index":7.7,"wind_gusts":44.3,"aqi":68,"pm10":41.4,"pm2_5":18.4,"no2":10.5,"co":230.0,"o3":42.0,"so2":7.1,"mosquito_risk":7,"arthritis_risk":5,"migraine_risk":4,"frizz_risk":1,"updated_at":"2026-06-03T00:11:56.853089+05:30"},{"city":"Bangalore","state":"Karnataka","latitude":12.9716,"longitude":77.5946,"temp":21.6,"humidity":96,"rain":0.0,"pressure":911.9,"uv_index":9.2,"wind_gusts":27.7,"aqi":70,"pm10":29.9,"pm2_5":27.7,"no2":48.9,"co":944.0,"o3":40.0,"so2":10.9,"mosquito_risk":3,"arthritis_risk":5,"migraine_risk":7,"frizz_risk":1,"updated_at":"2026-06-03T00:11:56.853104+05:30"},{"city":"Hyderabad","state":"Telangana","latitude":17.385,"longitude":78.4867,"temp":30.0,"humidity":54,"rain":0.0,"pressure":952.2,"uv_index":9.1,"wind_gusts":29.5,"aqi":118,"pm10":93.8,"pm2_5":61.7,"no2":50.7,"co":773.0,"o3":39.0,"so2":14.9,"mosquito_risk":4,"arthritis_risk":5,"migraine_risk":7,"frizz_risk":1,"updated_at":"2026-06-03T00:11:56.853114+05:30"},{"city":"Chennai","state":"Tamil Nadu","latitude":13.0827,"longitude":80.2707,"temp":29.5,"humidity":77,"rain":0.0,"pressure":1006.5,"uv_index":8.95,"wind_gusts":37.1,"aqi":65,"pm10":17.8,"pm2_5":13.4,"no2":13.7,"co":199.0,"o3":50.0,"so2":8.2,"mosquito_risk":7,"arthritis_risk":5,"migraine_risk":4,"frizz_risk":1,"updated_at":"2026-06-03T00:11:56.853121+05:30"},{"city":"Kolkata","state":"West Bengal","latitude":22.5726,"longitude":88.3639,"temp":29.6,"humidity":83,"rain":0.0,"pressure":1003.5,"uv_index":8.4,"wind_gusts":28.4,"aqi":120,"pm10":40.4,"pm2_5":36.7,"no2":14.5,"co":424.0,"o3":75.0,"so2":9.3,"mosquito_risk":7,"arthritis_risk":5,"migraine_risk":4,"frizz_risk":1,"updated_at":"2026-06-03T00:11:56.853129+05:30"},{"city":"Pune","state":"Maharashtra","latitude":18.5204,"longitude":73.8567,"temp":25.0,"humidity":80,"rain":0.0,"pressure":947.6,"uv_index":8.3,"wind_gusts":52.6,"aqi":56,"pm10":37.3,"pm2_5":16.2,"no2":7.6,"co":182.0,"o3":45.0,"so2":7.0,"mosquito_risk":7,"arthritis_risk":5,"migraine_risk":7,"frizz_risk":1,"updated_at":"2026-06-03T00:11:56.853136+05:30"},{"city":"Ahmedabad","state":"Gujarat","latitude":23.0225,"longitude":72.5714,"temp":30.5,"humidity":73,"rain":0.0,"pressure":999.1,"uv_index":8.05,"wind_gusts":31.0,"aqi":92,"pm10":53.7,"pm2_5":34.1,"no2":29.0,"co":188.0,"o3":24.0,"so2":12.4,"mosquito_risk":3,"arthritis_risk":5,"migraine_risk":7,"frizz_risk":1,"updated_at":"2026-06-03T00:11:56.853143+05:30"},{"city":"Jaipur","state":"Rajasthan","latitude":26.9124,"longitude":75.7873,"temp":28.4,"humidity":56,"rain":0.0,"pressure":957.0,"uv_index":8.2,"wind_gusts":30.6,"aqi":118,"pm10":162.5,"pm2_5":68.7,"no2":34.3,"co":636.0,"o3":42.0,"so2":14.5,"mosquito_risk":4,"arthritis_risk":5,"migraine_risk":7,"frizz_risk":1,"updated_at":"2026-06-03T00:11:56.853154+05:30"},{"city":"Lucknow","state":"Uttar Pradesh","latitude":26.8467,"longitude":80.9462,"temp":29.1,"humidity":71,"rain":0.0,"pressure":990.7,"uv_index":8.25,"wind_gusts":23.0,"aqi":152,"pm10":91.5,"pm2_5":68.7,"no2":34.2,"co":569.0,"o3":55.0,"so2":12.5,"mosquito_risk":7,"arthritis_risk":5,"migraine_risk":7,"frizz_risk":1,"updated_at":"2026-06-03T00:11:56.853161+05:30"},{"city":"Kanpur","state":"Uttar Pradesh","latitude":26.4499,"longitude":80.3319,"temp":28.9,"humidity":67,"rain":0.0,"pressure":989.2,"uv_index":7.6,"wind_gusts":39.2,"aqi":149,"pm10":111.5,"pm2_5":75.7,"no2":39.4,"co":382.0,"o3":50.0,"so2":13.5,"mosquito_risk":7,"arthritis_risk":5,"migraine_risk":7,"frizz_risk":1,"updated_at":"2026-06-03T00:11:56.853168+05:30"},{"city":"Chandigarh","state":"Chandigarh","latitude":30.7333,"longitude":76.7794,"temp":25.9,"humidity":68,"rain":0.0,"pressure":966.3,"uv_index":7.85,"wind_gusts":25.2,"aqi":107,"pm10":72.2,"pm2_5":64.3,"no2":58.0,"co":845.0,"o3":35.0,"so2":15.3,"mosquito_risk":7,"arthritis_risk":5,"migraine_risk":7,"frizz_risk":1,"updated_at":"2026-06-03T00:11:56.853175+05:30"},{"city":"Srinagar","state":"Jammu and Kashmir","latitude":34.0837,"longitude":74.7973,"temp":16.5,"humidity":86,"rain":0.0,"pressure":840.7,"uv_index":9.1,"wind_gusts":41.0,"aqi":108,"pm10":63.3,"pm2_5":53.4,"no2":36.1,"co":1040.0,"o3":5.0,"so2":0.3,"mosquito_risk":3,"arthritis_risk":10,"migraine_risk":7,"frizz_risk":0,"updated_at":"2026-06-03T00:11:56.853183+05:30"},{"city":"Jammu","state":"Jammu and Kashmir","latitude":32.7266,"longitude":74.857,"temp":26.5,"humidity":64,"rain":0.0,"pressure":969.9,"uv_index":8.65,"wind_gusts":31.0,"aqi":131,"pm10":89.6,"pm2_5":62.2,"no2":44.7,"co":614.0,"o3":45.0,"so2":6.9,"mosquito_risk":7,"arthritis_risk":5,"migraine_risk":7,"frizz_risk":1,"updated_at":"2026-06-03T00:11:56.853190+05:30"},{"city":"Amritsar","state":"Punjab","latitude":31.634,"longitude":74.8723,"temp":29.4,"humidity":53,"rain":0.0,"pressure":978.0,"uv_index":8.45,"wind_gusts":23.4,"aqi":150,"pm10":158.3,"pm2_5":95.9,"no2":74.2,"co":716.0,"o3":26.0,"so2":15.3,"mosquito_risk":4,"arthritis_risk":5,"migraine_risk":7,"frizz_risk":1,"updated_at":"2026-06-03T00:11:56.853196+05:30"},{"city":"Ludhiana","state":"Punjab","latitude":30.901,"longitude":75.8573,"temp":30.2,"humidity":43,"rain":0.0,"pressure":975.9,"uv_index":8.05,"wind_gusts":28.8,"aqi":119,"pm10":97.1,"pm2_5":66.1,"no2":42.7,"co":1145.0,"o3":59.0,"so2":13.0,"mosquito_risk":0,"arthritis_risk":5,"migraine_risk":7,"frizz_risk":1,"updated_at":"2026-06-03T00:11:56.853203+05:30"},{"city":"Jalandhar","state":"Punjab","latitude":31.326,"longitude":75.5762,"temp":29.9,"humidity":44,"rain":0.0,"pressure":977.0,"uv_index":8.25,"wind_gusts":22.7,"aqi":119,"pm10":114.6,"pm2_5":68.0,"no2":45.1,"co":587.0,"o3":45.0,"so2":10.7,"mosquito_risk":4,"arthritis_risk":5,"migraine_risk":7,"frizz_risk":1,"updated_at":"2026-06-03T00:11:56.853209+05:30"},{"city":"Dehradun","state":"Uttarakhand","latitude":30.6284,"longitude":78.0322,"temp":14.6,"humidity":94,"rain":0.0,"pressure":828.1,"uv_index":8.25,"wind_gusts":31.0,"aqi":58,"pm10":25.4,"pm2_5":20.4,"no2":32.6,"co":241.0,"o3":49.0,"so2":0.6,"mosquito_risk":3,"arthritis_risk":10,"migraine_risk":7,"frizz_risk":0,"updated_at":"2026-06-03T00:11:56.853216+05:30"},{"city":"Shimla","state":"Himachal Pradesh","latitude":31.1048,"longitude":77.1734,"temp":12.7,"humidity":83,"rain":0.0,"pressure":782.3,"uv_index":8.35,"wind_gusts":32.8,"aqi":69,"pm10":38.8,"pm2_5":31.2,"no2":33.1,"co":359.0,"o3":48.0,"so2":1.3,"mosquito_risk":3,"arthritis_risk":10,"migraine_risk":7,"frizz_risk":0,"updated_at":"2026-06-03T00:11:56.853224+05:30"},{"city":"Manali","state":"Himachal Pradesh","latitude":32.2396,"longitude":77.1887,"temp":13.3,"humidity":78,"rain":0.0,"pressure":816.6,"uv_index":9.65,"wind_gusts":38.2,"aqi":48,"pm10":9.9,"pm2_5":7.0,"no2":39.8,"co":408.0,"o3":81.0,"so2":0.0,"mosquito_risk":3,"arthritis_risk":5,"migraine_risk":7,"frizz_risk":0,"updated_at":"2026-06-03T00:11:56.853230+05:30"},{"city":"Gurgaon","state":"Haryana","latitude":28.4595,"longitude":77.0266,"temp":29.3,"humidity":50,"rain":0.0,"pressure":978.9,"uv_index":7.45,"wind_gusts":29.9,"aqi":177,"pm10":238.4,"pm2_5":86.8,"no2":53.4,"co":1588.0,"o3":47.0,"so2":23.6,"mosquito_risk":4,"arthritis_risk":5,"migraine_risk":7,"frizz_risk":1,"updated_at":"2026-06-03T00:11:56.853236+05:30"},{"city":"Noida","state":"Uttar Pradesh","latitude":28.5355,"longitude":77.391,"temp":28.8,"humidity":56,"rain":0.0,"pressure":982.0,"uv_index":7.8,"wind_gusts":27.0,"aqi":177,"pm10":238.4,"pm2_5":86.8,"no2":53.4,"co":854.0,"o3":47.0,"so2":23.6,"mosquito_risk":4,"arthritis_risk":5,"migraine_risk":7,"frizz_risk":1,"updated_at":"2026-06-03T00:11:56.853255+05:30"},{"city":"Ghaziabad","state":"Uttar Pradesh","latitude":28.6692,"longitude":77.4538,"temp":27.5,"humidity":71,"rain":0.0,"pressure":980.2,"uv_index":7.7,"wind_gusts":28.8,"aqi":137,"pm10":111.1,"pm2_5":60.5,"no2":26.6,"co":479.0,"o3":63.0,"so2":9.1,"mosquito_risk":7,"arthritis_risk":5,"migraine_risk":7,"frizz_risk":1,"updated_at":"2026-06-03T00:11:56.853261+05:30"},{"city":"Faridabad","state":"Haryana","latitude":28.4089,"longitude":77.3178,"temp":29.8,"humidity":50,"rain":0.0,"pressure":981.3,"uv_index":7.8,"wind_gusts":34.2,"aqi":177,"pm10":238.4,"pm2_5":86.8,"no2":53.4,"co":930.0,"o3":47.0,"so2":23.6,"mosquito_risk":4,"arthritis_risk":5,"migraine_risk":7,"frizz_risk":1,"updated_at":"2026-06-03T00:11:56.853268+05:30"},{"city":"Meerut","state":"Uttar Pradesh","latitude":28.9845,"longitude":77.7064,"temp":28.0,"humidity":72,"rain":0.0,"pressure":979.0,"uv_index":7.15,"wind_gusts":29.2,"aqi":137,"pm10":111.1,"pm2_5":60.5,"no2":26.6,"co":537.0,"o3":63.0,"so2":9.1,"mosquito_risk":7,"arthritis_risk":5,"migraine_risk":7,"frizz_risk":1,"updated_at":"2026-06-03T00:11:56.853273+05:30"},{"city":"Agra","state":"Uttar Pradesh","latitude":27.1767,"longitude":78.0081,"temp":28.6,"humidity":60,"rain":0.0,"pressure":985.1,"uv_index":8.1,"wind_gusts":28.8,"aqi":141,"pm10":151.8,"pm2_5":67.1,"no2":33.7,"co":532.0,"o3":62.0,"so2":14.0,"mosquito_risk":4,"arthritis_risk":5,"migraine_risk":7,"frizz_risk":1,"updated_at":"2026-06-03T00:11:56.853280+05:30"},{"city":"Varanasi","state":"Uttar Pradesh","latitude":25.3176,"longitude":82.9739,"temp":32.0,"humidity":53,"rain":0.0,"pressure":994.7,"uv_index":8.75,"wind_gusts":23.4,"aqi":152,"pm10":79.4,"pm2_5":66.8,"no2":38.2,"co":1068.0,"o3":47.0,"so2":18.1,"mosquito_risk":0,"arthritis_risk":5,"migraine_risk":7,"frizz_risk":1,"updated_at":"2026-06-03T00:11:56.853287+05:30"},{"city":"Prayagraj","state":"Uttar Pradesh","latitude":25.4358,"longitude":81.8463,"temp":31.1,"humidity":56,"rain":0.0,"pressure":993.2,"uv_index":8.7,"wind_gusts":26.6,"aqi":146,"pm10":68.9,"pm2_5":53.6,"no2":26.1,"co":681.0,"o3":61.0,"so2":11.7,"mosquito_risk":0,"arthritis_risk":5,"migraine_risk":7,"frizz_risk":1,"updated_at":"2026-06-03T00:11:56.853294+05:30"},{"city":"Gorakhpur","state":"Uttar Pradesh","latitude":26.7606,"longitude":83.3732,"temp":28.7,"humidity":68,"rain":0.0,"pressure":994.2,"uv_index":8.35,"wind_gusts":23.8,"aqi":156,"pm10":85.7,"pm2_5":71.7,"no2":41.1,"co":392.0,"o3":41.0,"so2":12.7,"mosquito_risk":7,"arthritis_risk":5,"migraine_risk":7,"frizz_risk":1,"updated_at":"2026-06-03T00:11:56.853302+05:30"},{"city":"Bareilly","state":"Uttar Pradesh","latitude":28.367,"longitude":79.4304,"temp":27.3,"humidity":77,"rain":0.0,"pressure":984.3,"uv_index":8.05,"wind_gusts":21.6,"aqi":145,"pm10":119.7,"pm2_5":83.8,"no2":57.1,"co":675.0,"o3":28.0,"so2":16.4,"mosquito_risk":7,"arthritis_risk":5,"migraine_risk":7,"frizz_risk":1,"updated_at":"2026-06-03T00:11:56.853308+05:30"},{"city":"Aligarh","state":"Uttar Pradesh","latitude":27.8974,"longitude":78.088,"temp":27.0,"humidity":73,"rain":0.0,"pressure":982.9,"uv_index":7.95,"wind_gusts":24.5,"aqi":149,"pm10":97.8,"pm2_5":65.4,"no2":24.9,"co":678.0,"o3":67.0,"so2":11.4,"mosquito_risk":7,"arthritis_risk":5,"migraine_risk":7,"frizz_risk":1,"updated_at":"2026-06-03T00:11:56.853315+05:30"},{"city":"Moradabad","state":"Uttar Pradesh","latitude":28.8386,"longitude":78.7733,"temp":27.1,"humidity":75,"rain":0.0,"pressure":981.4,"uv_index":7.9,"wind_gusts":25.9,"aqi":152,"pm10":136.9,"pm2_5":99.2,"no2":60.2,"co":930.0,"o3":29.0,"so2":18.2,"mosquito_risk":7,"arthritis_risk":5,"migraine_risk":7,"frizz_risk":1,"updated_at":"2026-06-03T00:11:56.853321+05:30"},{"city":"Saharanpur","state":"Uttar Pradesh","latitude":29.9637,"longitude":77.546,"temp":27.8,"humidity":63,"rain":0.0,"pressure":973.3,"uv_index":7.5,"wind_gusts":26.3,"aqi":147,"pm10":121.5,"pm2_5":88.7,"no2":63.6,"co":968.0,"o3":22.0,"so2":16.8,"mosquito_risk":7,"arthritis_risk":5,"migraine_risk":7,"frizz_risk":1,"updated_at":"2026-06-03T00:11:56.853327+05:30"},{"city":"Jhansi","state":"Uttar Pradesh","latitude":25.4484,"longitude":78.5685,"temp":29.1,"humidity":63,"rain":0.0,"pressure":975.4,"uv_index":8.25,"wind_gusts":30.6,"aqi":76,"pm10":56.3,"pm2_5":28.7,"no2":12.0,"co":444.0,"o3":53.0,"so2":4.7,"mosquito_risk":7,"arthritis_risk":5,"migraine_risk":7,"frizz_risk":1,"updated_at":"2026-06-03T00:12:00.178936+05:30"},{"city":"Surat","state":"Gujarat","latitude":21.1702,"longitude":72.8311,"temp":29.4,"humidity":82,"rain":0.0,"pressure":1004.7,"uv_index":7.6,"wind_gusts":40.3,"aqi":68,"pm10":36.0,"pm2_5":21.4,"no2":22.2,"co":219.0,"o3":28.0,"so2":36.7,"mosquito_risk":7,"arthritis_risk":5,"migraine_risk":4,"frizz_risk":1,"updated_at":"2026-06-03T00:12:00.178969+05:30"},{"city":"Vadodara","state":"Gujarat","latitude":22.3072,"longitude":73.1812,"temp":29.0,"humidity":78,"rain":0.0,"pressure":1001.9,"uv_index":8.0,"wind_gusts":35.3,"aqi":79,"pm10":31.2,"pm2_5":21.0,"no2":25.9,"co":320.0,"o3":21.0,"so2":30.5,"mosquito_risk":7,"arthritis_risk":5,"migraine_risk":4,"frizz_risk":1,"updated_at":"2026-06-03T00:12:00.178980+05:30"},{"city":"Rajkot","state":"Gujarat","latitude":22.3039,"longitude":70.8022,"temp":30.1,"humidity":72,"rain":0.0,"pressure":991.2,"uv_index":7.55,"wind_gusts":44.6,"aqi":77,"pm10":31.8,"pm2_5":18.1,"no2":7.1,"co":128.0,"o3":49.0,"so2":6.8,"mosquito_risk":3,"arthritis_risk":5,"migraine_risk":7,"frizz_risk":1,"updated_at":"2026-06-03T00:12:00.178989+05:30"},{"city":"Thane","state":"Maharashtra","latitude":19.2183,"longitude":72.9781,"temp":29.0,"humidity":79,"rain":0.0,"pressure":1006.6,"uv_index":7.7,"wind_gusts":40.3,"aqi":68,"pm10":41.4,"pm2_5":18.4,"no2":10.5,"co":254.0,"o3":42.0,"so2":7.1,"mosquito_risk":7,"arthritis_risk":5,"migraine_risk":4,"frizz_risk":1,"updated_at":"2026-06-03T00:12:00.178997+05:30"},{"city":"Nagpur","state":"Maharashtra","latitude":21.1458,"longitude":79.0882,"temp":32.9,"humidity":37,"rain":0.0,"pressure":971.1,"uv_index":8.85,"wind_gusts":41.8,"aqi":82,"pm10":50.9,"pm2_5":32.0,"no2":21.1,"co":404.0,"o3":57.0,"so2":10.8,"mosquito_risk":0,"arthritis_risk":5,"migraine_risk":7,"frizz_risk":1,"updated_at":"2026-06-03T00:12:00.179004+05:30"},{"city":"Nashik","state":"Maharashtra","latitude":19.9975,"longitude":73.7898,"temp":24.8,"humidity":84,"rain":0.0,"pressure":944.6,"uv_index":8.0,"wind_gusts":52.6,"aqi":60,"pm10":13.1,"pm2_5":7.2,"no2":6.0,"co":150.0,"o3":44.0,"so2":2.8,"mosquito_risk":3,"arthritis_risk":5,"migraine_risk":7,"frizz_risk":1,"updated_at":"2026-06-03T00:12:00.179011+05:30"},{"city":"Aurangabad","state":"Maharashtra","latitude":19.8762,"longitude":75.3433,"temp":27.5,"humidity":64,"rain":0.0,"pressure":943.4,"uv_index":8.95,"wind_gusts":42.1,"aqi":64,"pm10":27.1,"pm2_5":16.9,"no2":9.4,"co":174.0,"o3":56.0,"so2":4.2,"mosquito_risk":7,"arthritis_risk":5,"migraine_risk":7,"frizz_risk":1,"updated_at":"2026-06-03T00:12:00.179018+05:30"},{"city":"Solapur","state":"Maharashtra","latitude":17.6599,"longitude":75.9064,"temp":27.0,"humidity":66,"rain":0.0,"pressure":957.0,"uv_index":8.9,"wind_gusts":51.5,"aqi":70,"pm10":20.0,"pm2_5":13.7,"no2":7.1,"co":181.0,"o3":69.0,"so2":2.6,"mosquito_risk":7,"arthritis_risk":5,"migraine_risk":7,"frizz_risk":1,"updated_at":"2026-06-03T00:12:00.179026+05:30"},{"city":"Kolhapur","state":"Maharashtra","latitude":16.705,"longitude":74.2433,"temp":24.8,"humidity":82,"rain":0.0,"pressure":948.1,"uv_index":8.75,"wind_gusts":43.6,"aqi":44,"pm10":17.1,"pm2_5":9.7,"no2":5.9,"co":151.0,"o3":44.0,"so2":2.6,"mosquito_risk":3,"arthritis_risk":5,"migraine_risk":7,"frizz_risk":1,"updated_at":"2026-06-03T00:12:00.179033+05:30"},{"city":"Goa","state":"Goa","latitude":15.2993,"longitude":74.124,"temp":26.2,"humidity":97,"rain":0.0,"pressure":998.5,"uv_index":8.5,"wind_gusts":27.4,"aqi":52,"pm10":23.2,"pm2_5":13.6,"no2":5.2,"co":365.0,"o3":46.0,"so2":1.7,"mosquito_risk":7,"arthritis_risk":5,"migraine_risk":7,"frizz_risk":1,"updated_at":"2026-06-03T00:12:00.179041+05:30"},{"city":"Jodhpur","state":"Rajasthan","latitude":26.2389,"longitude":73.0243,"temp":31.8,"humidity":48,"rain":0.0,"pressure":979.5,"uv_index":8.4,"wind_gusts":30.2,"aqi":109,"pm10":147.6,"pm2_5":50.1,"no2":16.1,"co":503.0,"o3":53.0,"so2":4.9,"mosquito_risk":0,"arthritis_risk":5,"migraine_risk":7,"frizz_risk":1,"updated_at":"2026-06-03T00:12:00.179048+05:30"},{"city":"Udaipur","state":"Rajasthan","latitude":24.5854,"longitude":73.7125,"temp":27.3,"humidity":64,"rain":0.0,"pressure":944.5,"uv_index":8.85,"wind_gusts":22.7,"aqi":85,"pm10":56.3,"pm2_5":27.5,"no2":6.5,"co":477.0,"o3":61.0,"so2":3.5,"mosquito_risk":7,"arthritis_risk":5,"migraine_risk":7,"frizz_risk":1,"updated_at":"2026-06-03T00:12:00.179055+05:30"},{"city":"Kota","state":"Rajasthan","latitude":25.2138,"longitude":75.8648,"temp":29.8,"humidity":60,"rain":0.0,"pressure":976.0,"uv_index":8.4,"wind_gusts":19.8,"aqi":93,"pm10":89.4,"pm2_5":43.9,"no2":11.7,"co":528.0,"o3":57.0,"so2":5.5,"mosquito_risk":4,"arthritis_risk":5,"migraine_risk":7,"frizz_risk":1,"updated_at":"2026-06-03T00:12:00.179062+05:30"},{"city":"Bikaner","state":"Rajasthan","latitude":28.0229,"longitude":73.3119,"temp":31.0,"humidity":41,"rain":0.0,"pressure":978.5,"uv_index":8.45,"wind_gusts":23.4,"aqi":146,"pm10":104.3,"pm2_5":38.4,"no2":4.8,"co":322.0,"o3":88.0,"so2":3.8,"mosquito_risk":0,"arthritis_risk":5,"migraine_risk":7,"frizz_risk":1,"updated_at":"2026-06-03T00:12:00.179070+05:30"},{"city":"Ajmer","state":"Rajasthan","latitude":26.4499,"longitude":74.6399,"temp":28.1,"humidity":60,"rain":0.0,"pressure":951.7,"uv_index":8.3,"wind_gusts":25.2,"aqi":102,"pm10":165.8,"pm2_5":66.8,"no2":24.6,"co":430.0,"o3":53.0,"so2":8.4,"mosquito_risk":4,"arthritis_risk":5,"migraine_risk":7,"frizz_risk":1,"updated_at":"2026-06-03T00:12:00.179078+05:30"},{"city":"Gwalior","state":"Madhya Pradesh","latitude":26.2183,"longitude":78.1828,"temp":28.4,"humidity":63,"rain":0.0,"pressure":980.5,"uv_index":8.25,"wind_gusts":32.0,"aqi":83,"pm10":54.6,"pm2_5":27.7,"no2":8.8,"co":514.0,"o3":73.0,"so2":3.2,"mosquito_risk":7,"arthritis_risk":5,"migraine_risk":7,"frizz_risk":1,"updated_at":"2026-06-03T00:12:00.179085+05:30"},{"city":"Indore","state":"Madhya Pradesh","latitude":22.7196,"longitude":75.8577,"temp":29.0,"humidity":53,"rain":0.0,"pressure":946.6,"uv_index":8.6,"wind_gusts":35.6,"aqi":90,"pm10":43.7,"pm2_5":31.1,"no2":12.7,"co":293.0,"o3":62.0,"so2":7.3,"mosquito_risk":4,"arthritis_risk":5,"migraine_risk":7,"frizz_risk":1,"updated_at":"2026-06-03T00:12:00.179093+05:30"},{"city":"Bhopal","state":"Madhya Pradesh","latitude":23.2599,"longitude":77.4126,"temp":27.9,"humidity":56,"rain":0.0,"pressure":951.3,"uv_index":8.65,"wind_gusts":37.4,"aqi":81,"pm10":49.9,"pm2_5":32.7,"no2":10.2,"co":736.0,"o3":61.0,"so2":5.6,"mosquito_risk":4,"arthritis_risk":5,"migraine_risk":7,"frizz_risk":1,"updated_at":"2026-06-03T00:12:00.179100+05:30"},{"city":"Jabalpur","state":"Madhya Pradesh","latitude":23.1815,"longitude":79.9864,"temp":29.0,"humidity":56,"rain":0.0,"pressure":959.4,"uv_index":8.85,"wind_gusts":24.8,"aqi":86,"pm10":68.2,"pm2_5":42.4,"no2":33.5,"co":216.0,"o3":49.0,"so2":8.8,"mosquito_risk":4,"arthritis_risk":5,"migraine_risk":7,"frizz_risk":1,"updated_at":"2026-06-03T00:12:00.179107+05:30"},{"city":"Ujjain","state":"Madhya Pradesh","latitude":23.1765,"longitude":75.7885,"temp":27.1,"humidity":61,"rain":0.0,"pressure":951.8,"uv_index":8.55,"wind_gusts":28.8,"aqi":86,"pm10":41.7,"pm2_5":27.9,"no2":4.8,"co":651.0,"o3":77.0,"so2":6.3,"mosquito_risk":7,"arthritis_risk":5,"migraine_risk":7,"frizz_risk":1,"updated_at":"2026-06-03T00:12:00.179114+05:30"},{"city":"Visakhapatnam","state":"Andhra Pradesh","latitude":17.6868,"longitude":83.2185,"temp":29.5,"humidity":91,"rain":0.0,"pressure":1001.5,"uv_index":9.0,"wind_gusts":36.7,"aqi":93,"pm10":41.1,"pm2_5":34.0,"no2":33.8,"co":386.0,"o3":89.0,"so2":48.5,"mosquito_risk":7,"arthritis_risk":5,"migraine_risk":4,"frizz_risk":1,"updated_at":"2026-06-03T00:12:00.179121+05:30"},{"city":"Vijayawada","state":"Andhra Pradesh","latitude":16.5062,"longitude":80.648,"temp":31.1,"humidity":72,"rain":0.0,"pressure":1000.7,"uv_index":9.0,"wind_gusts":34.2,"aqi":96,"pm10":31.8,"pm2_5":26.9,"no2":7.4,"co":264.0,"o3":121.0,"so2":6.5,"mosquito_risk":3,"arthritis_risk":5,"migraine_risk":4,"frizz_risk":1,"updated_at":"2026-06-03T00:12:00.179129+05:30"},{"city":"Guntur","state":"Andhra Pradesh","latitude":16.3067,"longitude":80.4365,"temp":30.9,"humidity":73,"rain":0.0,"pressure":1002.0,"uv_index":9.0,"wind_gusts":33.5,"aqi":100,"pm10":36.9,"pm2_5":31.7,"no2":10.8,"co":232.0,"o3":113.0,"so2":7.3,"mosquito_risk":3,"arthritis_risk":5,"migraine_risk":4,"frizz_risk":1,"updated_at":"2026-06-03T00:12:00.179136+05:30"},{"city":"Nellore","state":"Andhra Pradesh","latitude":14.4426,"longitude":79.9865,"temp":30.5,"humidity":69,"rain":0.0,"pressure":1004.5,"uv_index":8.95,"wind_gusts":33.8,"aqi":105,"pm10":25.6,"pm2_5":20.9,"no2":9.0,"co":284.0,"o3":97.0,"so2":7.0,"mosquito_risk":3,"arthritis_risk":5,"migraine_risk":4,"frizz_risk":1,"updated_at":"2026-06-03T00:12:00.179144+05:30"},{"city":"Kurnool","state":"Andhra Pradesh","latitude":15.8281,"longitude":78.0373,"temp":25.5,"humidity":88,"rain":0.1,"pressure":976.7,"uv_index":9.0,"wind_gusts":52.6,"aqi":92,"pm10":26.4,"pm2_5":18.7,"no2":7.3,"co":232.0,"o3":104.0,"so2":8.4,"mosquito_risk":10,"arthritis_risk":5,"migraine_risk":7,"frizz_risk":1,"updated_at":"2026-06-03T00:12:00.179152+05:30"},{"city":"Kakinada","state":"Andhra Pradesh","latitude":16.9891,"longitude":82.2475,"temp":29.8,"humidity":79,"rain":0.0,"pressure":1005.4,"uv_index":9.0,"wind_gusts":38.5,"aqi":101,"pm10":34.7,"pm2_5":25.7,"no2":3.0,"co":326.0,"o3":139.0,"so2":4.1,"mosquito_risk":7,"arthritis_risk":5,"migraine_risk":4,"frizz_risk":1,"updated_at":"2026-06-03T00:12:00.179160+05:30"},{"city":"Tirupati","state":"Andhra Pradesh","latitude":13.6288,"longitude":79.4192,"temp":27.2,"humidity":79,"rain":0.0,"pressure":990.9,"uv_index":9.0,"wind_gusts":24.8,"aqi":69,"pm10":28.1,"pm2_5":24.9,"no2":14.6,"co":266.0,"o3":85.0,"so2":4.3,"mosquito_risk":7,"arthritis_risk":5,"migraine_risk":7,"frizz_risk":1,"updated_at":"2026-06-03T00:12:00.179167+05:30"},{"city":"Warangal","state":"Telangana","latitude":17.9689,"longitude":79.5941,"temp":31.0,"humidity":49,"rain":0.0,"pressure":977.0,"uv_index":9.0,"wind_gusts":32.0,"aqi":131,"pm10":96.4,"pm2_5":71.9,"no2":37.2,"co":409.0,"o3":42.0,"so2":9.3,"mosquito_risk":0,"arthritis_risk":5,"migraine_risk":7,"frizz_risk":1,"updated_at":"2026-06-03T00:12:00.179174+05:30"},{"city":"Nizamabad","state":"Telangana","latitude":18.6725,"longitude":78.0941,"temp":30.5,"humidity":45,"rain":0.0,"pressure":963.0,"uv_index":8.75,"wind_gusts":30.2,"aqi":100,"pm10":88.9,"pm2_5":59.5,"no2":37.3,"co":289.0,"o3":45.0,"so2":8.3,"mosquito_risk":0,"arthritis_risk":5,"migraine_risk":7,"frizz_risk":1,"updated_at":"2026-06-03T00:12:00.179181+05:30"},{"city":"Mysore","state":"Karnataka","latitude":12.2958,"longitude":76.6396,"temp":21.9,"humidity":97,"rain":0.0,"pressure":928.9,"uv_index":9.0,"wind_gusts":35.6,"aqi":51,"pm10":13.5,"pm2_5":13.0,"no2":21.9,"co":260.0,"o3":48.0,"so2":3.9,"mosquito_risk":3,"arthritis_risk":5,"migraine_risk":7,"frizz_risk":1,"updated_at":"2026-06-03T00:12:00.179188+05:30"},{"city":"Mangalore","state":"Karnataka","latitude":12.9141,"longitude":74.856,"temp":26.0,"humidity":95,"rain":0.0,"pressure":1007.6,"uv_index":1.85,"wind_gusts":34.6,"aqi":47,"pm10":25.7,"pm2_5":23.0,"no2":24.5,"co":480.0,"o3":30.0,"so2":6.6,"mosquito_risk":7,"arthritis_risk":5,"migraine_risk":0,"frizz_risk":1,"updated_at":"2026-06-03T00:12:00.179196+05:30"},{"city":"Hubli-Dharwad","state":"Karnataka","latitude":15.3647,"longitude":75.124,"temp":23.7,"humidity":92,"rain":0.0,"pressure":941.0,"uv_index":8.55,"wind_gusts":41.0,"aqi":33,"pm10":8.6,"pm2_5":4.9,"no2":4.1,"co":140.0,"o3":50.0,"so2":1.2,"mosquito_risk":3,"arthritis_risk":5,"migraine_risk":7,"frizz_risk":1,"updated_at":"2026-06-03T00:12:00.179203+05:30"},{"city":"Belgaum","state":"Karnataka","latitude":15.8497,"longitude":74.4977,"temp":22.9,"humidity":93,"rain":0.0,"pressure":925.8,"uv_index":8.9,"wind_gusts":42.5,"aqi":44,"pm10":14.0,"pm2_5":7.4,"no2":5.2,"co":124.0,"o3":44.0,"so2":1.8,"mosquito_risk":3,"arthritis_risk":5,"migraine_risk":7,"frizz_risk":1,"updated_at":"2026-06-03T00:12:03.510292+05:30"},{"city":"Coimbatore","state":"Tamil Nadu","latitude":11.0168,"longitude":76.9558,"temp":23.9,"humidity":91,"rain":0.0,"pressure":962.1,"uv_index":8.95,"wind_gusts":49.0,"aqi":41,"pm10":6.2,"pm2_5":5.8,"no2":9.5,"co":207.0,"o3":53.0,"so2":3.1,"mosquito_risk":3,"arthritis_risk":5,"migraine_risk":7,"frizz_risk":1,"updated_at":"2026-06-03T00:12:03.510324+05:30"},{"city":"Madurai","state":"Tamil Nadu","latitude":9.9252,"longitude":78.1198,"temp":28.5,"humidity":67,"rain":0.0,"pressure":993.3,"uv_index":8.85,"wind_gusts":40.0,"aqi":72,"pm10":48.5,"pm2_5":47.0,"no2":52.4,"co":220.0,"o3":1.0,"so2":12.0,"mosquito_risk":7,"arthritis_risk":5,"migraine_risk":7,"frizz_risk":1,"updated_at":"2026-06-03T00:12:03.510335+05:30"},{"city":"Trichy","state":"Tamil Nadu","latitude":10.7905,"longitude":78.7047,"temp":27.4,"humidity":88,"rain":0.0,"pressure":999.9,"uv_index":8.85,"wind_gusts":43.6,"aqi":52,"pm10":18.1,"pm2_5":16.7,"no2":23.7,"co":274.0,"o3":34.0,"so2":5.6,"mosquito_risk":7,"arthritis_risk":5,"migraine_risk":7,"frizz_risk":1,"updated_at":"2026-06-03T00:12:03.510343+05:30"},{"city":"Salem","state":"Tamil Nadu","latitude":11.6643,"longitude":78.146,"temp":25.9,"humidity":94,"rain":0.0,"pressure":977.9,"uv_index":8.95,"wind_gusts":37.4,"aqi":71,"pm10":17.8,"pm2_5":16.1,"no2":19.6,"co":449.0,"o3":58.0,"so2":7.5,"mosquito_risk":7,"arthritis_risk":5,"migraine_risk":7,"frizz_risk":1,"updated_at":"2026-06-03T00:12:03.510352+05:30"},{"city":"Tirunelveli","state":"Tamil Nadu","latitude":8.7139,"longitude":77.7567,"temp":29.3,"humidity":63,"rain":0.0,"pressure":1003.9,"uv_index":8.7,"wind_gusts":38.2,"aqi":28,"pm10":6.1,"pm2_5":5.1,"no2":6.4,"co":192.0,"o3":44.0,"so2":1.5,"mosquito_risk":7,"arthritis_risk":5,"migraine_risk":4,"frizz_risk":1,"updated_at":"2026-06-03T00:12:03.510359+05:30"},{"city":"Vellore","state":"Tamil Nadu","latitude":12.9165,"longitude":79.1325,"temp":24.8,"humidity":95,"rain":0.1,"pressure":984.6,"uv_index":9.0,"wind_gusts":40.3,"aqi":82,"pm10":31.8,"pm2_5":27.9,"no2":14.3,"co":332.0,"o3":78.0,"so2":5.3,"mosquito_risk":6,"arthritis_risk":5,"migraine_risk":7,"frizz_risk":1,"updated_at":"2026-06-03T00:12:03.510367+05:30"},{"city":"Erode","state":"Tamil Nadu","latitude":11.341,"longitude":77.7172,"temp":27.2,"humidity":77,"rain":0.0,"pressure":989.6,"uv_index":8.9,"wind_gusts":45.0,"aqi":56,"pm10":15.7,"pm2_5":14.7,"no2":25.3,"co":275.0,"o3":37.0,"so2":5.7,"mosquito_risk":7,"arthritis_risk":5,"migraine_risk":7,"frizz_risk":1,"updated_at":"2026-06-03T00:12:03.510375+05:30"},{"city":"Kochi","state":"Kerala","latitude":9.9312,"longitude":76.2673,"temp":26.0,"humidity":91,"rain":0.3,"pressure":1010.0,"uv_index":8.65,"wind_gusts":32.4,"aqi":44,"pm10":20.8,"pm2_5":19.9,"no2":27.0,"co":140.0,"o3":13.0,"so2":6.9,"mosquito_risk":10,"arthritis_risk":0,"migraine_risk":4,"frizz_risk":1,"updated_at":"2026-06-03T00:12:03.510404+05:30"},{"city":"Thiruvananthapuram","state":"Kerala","latitude":8.5241,"longitude":76.9366,"temp":24.3,"humidity":97,"rain":0.3,"pressure":1010.5,"uv_index":8.3,"wind_gusts":35.3,"aqi":30,"pm10":8.5,"pm2_5":4.9,"no2":1.5,"co":182.0,"o3":70.0,"so2":0.5,"mosquito_risk":6,"arthritis_risk":0,"migraine_risk":4,"frizz_risk":1,"updated_at":"2026-06-03T00:12:03.510415+05:30"},{"city":"Kozhikode","state":"Kerala","latitude":11.2588,"longitude":75.7804,"temp":24.1,"humidity":99,"rain":0.0,"pressure":1009.3,"uv_index":8.2,"wind_gusts":27.4,"aqi":34,"pm10":6.4,"pm2_5":4.8,"no2":2.6,"co":326.0,"o3":72.0,"so2":1.1,"mosquito_risk":3,"arthritis_risk":0,"migraine_risk":4,"frizz_risk":1,"updated_at":"2026-06-03T00:12:03.510423+05:30"},{"city":"Thrissur","state":"Kerala","latitude":10.5276,"longitude":76.2144,"temp":23.9,"humidity":99,"rain":0.3,"pressure":1008.6,"uv_index":8.4,"wind_gusts":34.9,"aqi":44,"pm10":16.0,"pm2_5":15.3,"no2":18.3,"co":183.0,"o3":23.0,"so2":5.7,"mosquito_risk":6,"arthritis_risk":0,"migraine_risk":4,"frizz_risk":1,"updated_at":"2026-06-03T00:12:03.510431+05:30"},{"city":"Kannur","state":"Kerala","latitude":11.8745,"longitude":75.3704,"temp":24.4,"humidity":99,"rain":0.0,"pressure":1008.5,"uv_index":2.95,"wind_gusts":29.5,"aqi":36,"pm10":11.8,"pm2_5":10.7,"no2":15.1,"co":326.0,"o3":40.0,"so2":3.4,"mosquito_risk":3,"arthritis_risk":0,"migraine_risk":0,"frizz_risk":1,"updated_at":"2026-06-03T00:12:03.510438+05:30"},{"city":"Patna","state":"Bihar","latitude":25.5941,"longitude":85.1376,"temp":30.1,"humidity":75,"rain":0.0,"pressure":997.5,"uv_index":8.85,"wind_gusts":18.0,"aqi":170,"pm10":114.1,"pm2_5":105.2,"no2":68.7,"co":605.0,"o3":36.0,"so2":25.9,"mosquito_risk":3,"arthritis_risk":5,"migraine_risk":7,"frizz_risk":1,"updated_at":"2026-06-03T00:12:03.510445+05:30"},{"city":"Gaya","state":"Bihar","latitude":24.7914,"longitude":85.0002,"temp":29.7,"humidity":62,"rain":0.0,"pressure":991.1,"uv_index":8.9,"wind_gusts":25.2,"aqi":151,"pm10":93.1,"pm2_5":83.6,"no2":46.6,"co":858.0,"o3":47.0,"so2":17.7,"mosquito_risk":7,"arthritis_risk":5,"migraine_risk":7,"frizz_risk":1,"updated_at":"2026-06-03T00:12:03.510452+05:30"},{"city":"Muzaffarpur","state":"Bihar","latitude":26.1209,"longitude":85.3647,"temp":28.8,"humidity":78,"rain":0.0,"pressure":997.3,"uv_index":8.85,"wind_gusts":19.1,"aqi":173,"pm10":110.1,"pm2_5":99.7,"no2":51.5,"co":988.0,"o3":52.0,"so2":20.0,"mosquito_risk":7,"arthritis_risk":5,"migraine_risk":7,"frizz_risk":1,"updated_at":"2026-06-03T00:12:03.510459+05:30"},{"city":"Bhagalpur","state":"Bihar","latitude":25.2425,"longitude":87.0117,"temp":29.8,"humidity":85,"rain":0.0,"pressure":998.1,"uv_index":8.8,"wind_gusts":16.9,"aqi":151,"pm10":83.1,"pm2_5":77.3,"no2":31.6,"co":765.0,"o3":78.0,"so2":22.8,"mosquito_risk":7,"arthritis_risk":5,"migraine_risk":7,"frizz_risk":1,"updated_at":"2026-06-03T00:12:03.510466+05:30"},{"city":"Ranchi","state":"Jharkhand","latitude":23.3441,"longitude":85.3096,"temp":25.0,"humidity":69,"rain":0.0,"pressure":935.7,"uv_index":9.05,"wind_gusts":21.2,"aqi":157,"pm10":68.7,"pm2_5":59.8,"no2":23.8,"co":410.0,"o3":65.0,"so2":12.5,"mosquito_risk":7,"arthritis_risk":5,"migraine_risk":7,"frizz_risk":1,"updated_at":"2026-06-03T00:12:03.510473+05:30"},{"city":"Jamshedpur","state":"Jharkhand","latitude":22.8046,"longitude":86.2029,"temp":28.9,"humidity":75,"rain":0.0,"pressure":988.6,"uv_index":9.05,"wind_gusts":19.1,"aqi":150,"pm10":69.2,"pm2_5":62.6,"no2":25.6,"co":626.0,"o3":79.0,"so2":32.9,"mosquito_risk":7,"arthritis_risk":5,"migraine_risk":7,"frizz_risk":1,"updated_at":"2026-06-03T00:12:03.510481+05:30"},{"city":"Dhanbad","state":"Jharkhand","latitude":23.7957,"longitude":86.4304,"temp":28.9,"humidity":78,"rain":0.0,"pressure":977.5,"uv_index":9.05,"wind_gusts":22.0,"aqi":171,"pm10":123.4,"pm2_5":116.4,"no2":75.0,"co":1176.0,"o3":41.0,"so2":206.2,"mosquito_risk":7,"arthritis_risk":5,"migraine_risk":7,"frizz_risk":1,"updated_at":"2026-06-03T00:12:03.510488+05:30"},{"city":"Bokaro","state":"Jharkhand","latitude":23.6693,"longitude":86.1511,"temp":28.5,"humidity":74,"rain":0.0,"pressure":981.1,"uv_index":9.05,"wind_gusts":18.7,"aqi":177,"pm10":144.4,"pm2_5":131.8,"no2":76.8,"co":428.0,"o3":26.0,"so2":153.7,"mosquito_risk":7,"arthritis_risk":5,"migraine_risk":7,"frizz_risk":1,"updated_at":"2026-06-03T00:12:03.510495+05:30"},{"city":"Bhubaneswar","state":"Odisha","latitude":20.2961,"longitude":85.8245,"temp":28.5,"humidity":91,"rain":0.0,"pressure":1000.4,"uv_index":9.0,"wind_gusts":31.3,"aqi":87,"pm10":32.4,"pm2_5":28.2,"no2":9.3,"co":408.0,"o3":106.0,"so2":9.2,"mosquito_risk":7,"arthritis_risk":5,"migraine_risk":4,"frizz_risk":1,"updated_at":"2026-06-03T00:12:03.510502+05:30"},{"city":"Cuttack","state":"Odisha","latitude":20.4625,"longitude":85.8828,"temp":28.8,"humidity":91,"rain":0.0,"pressure":1002.2,"uv_index":9.05,"wind_gusts":28.1,"aqi":87,"pm10":32.4,"pm2_5":28.2,"no2":9.3,"co":679.0,"o3":106.0,"so2":9.2,"mosquito_risk":7,"arthritis_risk":5,"migraine_risk":4,"frizz_risk":1,"updated_at":"2026-06-03T00:12:03.510509+05:30"},{"city":"Rourkela","state":"Odisha","latitude":22.2604,"longitude":84.8536,"temp":28.0,"humidity":80,"rain":0.1,"pressure":983.2,"uv_index":7.9,"wind_gusts":29.5,"aqi":158,"pm10":95.9,"pm2_5":84.8,"no2":37.0,"co":405.0,"o3":62.0,"so2":27.4,"mosquito_risk":10,"arthritis_risk":5,"migraine_risk":7,"frizz_risk":1,"updated_at":"2026-06-03T00:12:03.510516+05:30"},{"city":"Raipur","state":"Chhattisgarh","latitude":21.2514,"longitude":81.6296,"temp":31.1,"humidity":46,"rain":0.0,"pressure":972.4,"uv_index":8.9,"wind_gusts":31.7,"aqi":151,"pm10":81.7,"pm2_5":61.0,"no2":54.3,"co":894.0,"o3":40.0,"so2":66.3,"mosquito_risk":0,"arthritis_risk":5,"migraine_risk":7,"frizz_risk":1,"updated_at":"2026-06-03T00:12:03.510523+05:30"},{"city":"Bhilai","state":"Chhattisgarh","latitude":21.1938,"longitude":81.3509,"temp":30.4,"humidity":47,"rain":0.0,"pressure":972.8,"uv_index":8.95,"wind_gusts":26.3,"aqi":150,"pm10":83.1,"pm2_5":60.1,"no2":48.0,"co":1004.0,"o3":40.0,"so2":48.4,"mosquito_risk":0,"arthritis_risk":5,"migraine_risk":7,"frizz_risk":1,"updated_at":"2026-06-03T00:12:03.510530+05:30"},{"city":"Guwahati","state":"Assam","latitude":26.1158,"longitude":91.7086,"temp":27.0,"humidity":85,"rain":0.0,"pressure":998.1,"uv_index":8.7,"wind_gusts":40.7,"aqi":127,"pm10":51.0,"pm2_5":48.2,"no2":9.3,"co":429.0,"o3":73.0,"so2":5.2,"mosquito_risk":7,"arthritis_risk":5,"migraine_risk":7,"frizz_risk":1,"updated_at":"2026-06-03T00:12:03.510537+05:30"},{"city":"Agartala","state":"Tripura","latitude":23.8315,"longitude":91.2868,"temp":27.5,"humidity":87,"rain":0.0,"pressure":1004.1,"uv_index":8.7,"wind_gusts":21.2,"aqi":124,"pm10":42.5,"pm2_5":39.1,"no2":20.5,"co":317.0,"o3":40.0,"so2":6.0,"mosquito_risk":7,"arthritis_risk":5,"migraine_risk":4,"frizz_risk":1,"updated_at":"2026-06-03T00:12:03.510544+05:30"},{"city":"Shillong","state":"Meghalaya","latitude":25.5788,"longitude":91.8933,"temp":18.6,"humidity":90,"rain":0.0,"pressure":855.6,"uv_index":7.85,"wind_gusts":23.4,"aqi":83,"pm10":36.6,"pm2_5":31.9,"no2":7.6,"co":328.0,"o3":76.0,"so2":2.7,"mosquito_risk":3,"arthritis_risk":10,"migraine_risk":7,"frizz_risk":1,"updated_at":"2026-06-03T00:12:03.510552+05:30"},{"city":"Imphal","state":"Manipur","latitude":24.817,"longitude":93.9368,"temp":21.9,"humidity":99,"rain":0.0,"pressure":921.0,"uv_index":8.85,"wind_gusts":27.4,"aqi":74,"pm10":56.5,"pm2_5":51.8,"no2":31.0,"co":807.0,"o3":28.0,"so2":5.3,"mosquito_risk":3,"arthritis_risk":5,"migraine_risk":7,"frizz_risk":1,"updated_at":"2026-06-03T00:12:03.510559+05:30"},{"city":"Aizawl","state":"Mizoram","latitude":23.7271,"longitude":92.7176,"temp":20.0,"humidity":97,"rain":0.0,"pressure":891.1,"uv_index":8.3,"wind_gusts":22.7,"aqi":75,"pm10":39.2,"pm2_5":28.9,"no2":7.6,"co":228.0,"o3":66.0,"so2":2.5,"mosquito_risk":3,"arthritis_risk":5,"migraine_risk":7,"frizz_risk":1,"updated_at":"2026-06-03T00:12:03.510565+05:30"},{"city":"Kohima","state":"Nagaland","latitude":25.6701,"longitude":94.1077,"temp":19.0,"humidity":98,"rain":0.3,"pressure":853.6,"uv_index":8.55,"wind_gusts":32.8,"aqi":61,"pm10":40.2,"pm2_5":33.6,"no2":15.4,"co":406.0,"o3":65.0,"so2":2.7,"mosquito_risk":6,"arthritis_risk":10,"migraine_risk":7,"frizz_risk":1,"updated_at":"2026-06-03T00:12:03.510572+05:30"},{"city":"Gangtok","state":"Sikkim","latitude":27.3314,"longitude":88.6138,"temp":15.7,"humidity":99,"rain":0.2,"pressure":836.4,"uv_index":9.1,"wind_gusts":40.0,"aqi":91,"pm10":22.3,"pm2_5":20.1,"no2":15.9,"co":617.0,"o3":85.0,"so2":1.7,"mosquito_risk":6,"arthritis_risk":10,"migraine_risk":7,"frizz_risk":0,"updated_at":"2026-06-03T00:12:03.510579+05:30"},{"city":"Siliguri","state":"West Bengal","latitude":26.7271,"longitude":88.3953,"temp":26.6,"humidity":80,"rain":0.0,"pressure":990.2,"uv_index":8.7,"wind_gusts":35.3,"aqi":150,"pm10":95.5,"pm2_5":83.8,"no2":23.4,"co":804.0,"o3":108.0,"so2":11.3,"mosquito_risk":7,"arthritis_risk":5,"migraine_risk":7,"frizz_risk":1,"updated_at":"2026-06-03T00:12:06.859759+05:30"},{"city":"Durgapur","state":"West Bengal","latitude":23.5204,"longitude":87.3119,"temp":28.8,"humidity":83,"rain":0.0,"pressure":992.3,"uv_index":8.95,"wind_gusts":20.2,"aqi":159,"pm10":85.7,"pm2_5":82.7,"no2":40.9,"co":753.0,"o3":61.0,"so2":63.0,"mosquito_risk":7,"arthritis_risk":5,"migraine_risk":7,"frizz_risk":1,"updated_at":"2026-06-03T00:12:06.859797+05:30"},{"city":"Asansol","state":"West Bengal","latitude":23.6739,"longitude":86.9524,"temp":28.9,"humidity":81,"rain":0.0,"pressure":990.9,"uv_index":9.0,"wind_gusts":24.1,"aqi":155,"pm10":64.7,"pm2_5":61.2,"no2":34.1,"co":507.0,"o3":72.0,"so2":45.5,"mosquito_risk":7,"arthritis_risk":5,"migraine_risk":7,"frizz_risk":1,"updated_at":"2026-06-03T00:12:06.859811+05:30"},{"city":"Pondicherry","state":"Puducherry","latitude":11.9139,"longitude":79.8145,"temp":28.5,"humidity":80,"rain":0.0,"pressure":1008.1,"uv_index":8.8,"wind_gusts":41.8,"aqi":54,"pm10":11.4,"pm2_5":8.8,"no2":13.1,"co":206.0,"o3":33.0,"so2":9.9,"mosquito_risk":7,"arthritis_risk":0,"migraine_risk":4,"frizz_risk":1,"updated_at":"2026-06-03T00:12:06.859822+05:30"},{"city":"Port Blair","state":"Andaman and Nicobar Islands","latitude":11.6234,"longitude":92.7265,"temp":25.4,"humidity":96,"rain":0.2,"pressure":1006.7,"uv_index":1.7,"wind_gusts":37.4,"aqi":30,"pm10":14.0,"pm2_5":7.6,"no2":0.2,"co":107.0,"o3":69.0,"so2":0.4,"mosquito_risk":10,"arthritis_risk":5,"migraine_risk":0,"frizz_risk":1,"updated_at":"2026-06-03T00:12:06.859832+05:30"},{"city":"Haridwar","state":"Uttarakhand","latitude":29.9457,"longitude":78.1642,"temp":25.6,"humidity":77,"rain":0.0,"pressure":971.7,"uv_index":7.6,"wind_gusts":27.0,"aqi":113,"pm10":98.0,"pm2_5":67.3,"no2":41.9,"co":363.0,"o3":46.0,"so2":12.4,"mosquito_risk":7,"arthritis_risk":5,"migraine_risk":7,"frizz_risk":1,"updated_at":"2026-06-03T00:12:06.859843+05:30"},{"city":"Rishikesh","state":"Uttarakhand","latitude":30.0869,"longitude":78.2676,"temp":23.5,"humidity":82,"rain":0.0,"pressure":964.4,"uv_index":7.6,"wind_gusts":21.2,"aqi":87,"pm10":60.1,"pm2_5":38.2,"no2":22.0,"co":464.0,"o3":64.0,"so2":5.1,"mosquito_risk":3,"arthritis_risk":5,"migraine_risk":7,"frizz_risk":1,"updated_at":"2026-06-03T00:12:06.859853+05:30"},{"city":"Nainital","state":"Uttarakhand","latitude":29.3919,"longitude":79.4542,"temp":13.2,"humidity":96,"rain":0.0,"pressure":803.4,"uv_index":7.25,"wind_gusts":41.8,"aqi":84,"pm10":79.9,"pm2_5":46.0,"no2":29.1,"co":354.0,"o3":73.0,"so2":8.4,"mosquito_risk":3,"arthritis_risk":10,"migraine_risk":7,"frizz_risk":0,"updated_at":"2026-06-03T00:12:06.859864+05:30"},{"city":"Mussoorie","state":"Uttarakhand","latitude":30.4599,"longitude":78.0664,"temp":15.5,"humidity":72,"rain":0.0,"pressure":801.9,"uv_index":8.15,"wind_gusts":36.7,"aqi":88,"pm10":62.9,"pm2_5":45.8,"no2":46.7,"co":285.0,"o3":66.0,"so2":12.0,"mosquito_risk":3,"arthritis_risk":5,"migraine_risk":7,"frizz_risk":0,"updated_at":"2026-06-03T00:12:06.859874+05:30"},{"city":"Dharamshala","state":"Himachal Pradesh","latitude":32.219,"longitude":76.3234,"temp":20.6,"humidity":68,"rain":0.0,"pressure":868.1,"uv_index":8.55,"wind_gusts":38.9,"aqi":54,"pm10":18.2,"pm2_5":11.4,"no2":13.4,"co":236.0,"o3":66.0,"so2":0.1,"mosquito_risk":3,"arthritis_risk":5,"migraine_risk":7,"frizz_risk":0,"updated_at":"2026-06-03T00:12:06.859882+05:30"},{"city":"Dalhousie","state":"Himachal Pradesh","latitude":32.5387,"longitude":75.971,"temp":13.8,"humidity":85,"rain":0.0,"pressure":802.6,"uv_index":8.75,"wind_gusts":32.0,"aqi":95,"pm10":46.4,"pm2_5":30.2,"no2":25.3,"co":521.0,"o3":80.0,"so2":2.5,"mosquito_risk":3,"arthritis_risk":10,"migraine_risk":7,"frizz_risk":0,"updated_at":"2026-06-03T00:12:06.859890+05:30"},{"city":"Patiala","state":"Punjab","latitude":30.3398,"longitude":76.3869,"temp":27.3,"humidity":63,"rain":0.0,"pressure":975.5,"uv_index":7.7,"wind_gusts":26.3,"aqi":143,"pm10":156.9,"pm2_5":63.8,"no2":23.4,"co":406.0,"o3":59.0,"so2":8.7,"mosquito_risk":7,"arthritis_risk":5,"migraine_risk":7,"frizz_risk":1,"updated_at":"2026-06-03T00:12:06.859899+05:30"},{"city":"Bhatinda","state":"Punjab","latitude":30.211,"longitude":74.9455,"temp":30.5,"humidity":43,"rain":0.0,"pressure":980.8,"uv_index":8.3,"wind_gusts":32.4,"aqi":351,"pm10":344.6,"pm2_5":111.3,"no2":64.1,"co":382.0,"o3":37.0,"so2":18.5,"mosquito_risk":0,"arthritis_risk":5,"migraine_risk":7,"frizz_risk":1,"updated_at":"2026-06-03T00:12:06.859906+05:30"},{"city":"Rohtak","state":"Haryana","latitude":28.8955,"longitude":76.6066,"temp":28.0,"humidity":58,"rain":0.0,"pressure":979.2,"uv_index":7.2,"wind_gusts":31.3,"aqi":157,"pm10":184.4,"pm2_5":96.9,"no2":76.4,"co":621.0,"o3":42.0,"so2":31.2,"mosquito_risk":4,"arthritis_risk":5,"migraine_risk":7,"frizz_risk":1,"updated_at":"2026-06-03T00:12:06.859914+05:30"},{"city":"Panipat","state":"Haryana","latitude":29.3909,"longitude":76.9635,"temp":27.8,"humidity":65,"rain":0.0,"pressure":977.8,"uv_index":7.65,"wind_gusts":33.1,"aqi":212,"pm10":128.1,"pm2_5":83.1,"no2":51.0,"co":843.0,"o3":47.0,"so2":17.4,"mosquito_risk":7,"arthritis_risk":5,"migraine_risk":7,"frizz_risk":1,"updated_at":"2026-06-03T00:12:06.859922+05:30"},{"city":"Mathura","state":"Uttar Pradesh","latitude":27.4924,"longitude":77.6737,"temp":27.6,"humidity":68,"rain":0.0,"pressure":984.1,"uv_index":8.05,"wind_gusts":24.1,"aqi":145,"pm10":143.0,"pm2_5":57.9,"no2":31.8,"co":738.0,"o3":59.0,"so2":7.7,"mosquito_risk":7,"arthritis_risk":5,"migraine_risk":7,"frizz_risk":1,"updated_at":"2026-06-03T00:12:06.859929+05:30"},{"city":"Vrindavan","state":"Uttar Pradesh","latitude":27.5823,"longitude":77.7027,"temp":27.9,"humidity":65,"rain":0.0,"pressure":984.6,"uv_index":8.0,"wind_gusts":36.0,"aqi":145,"pm10":143.0,"pm2_5":57.9,"no2":31.8,"co":607.0,"o3":59.0,"so2":7.7,"mosquito_risk":7,"arthritis_risk":5,"migraine_risk":7,"frizz_risk":1,"updated_at":"2026-06-03T00:12:06.859936+05:30"},{"city":"Ayodhya","state":"Uttar Pradesh","latitude":26.7922,"longitude":82.1998,"temp":28.5,"humidity":77,"rain":0.0,"pressure":992.4,"uv_index":8.35,"wind_gusts":16.2,"aqi":157,"pm10":80.1,"pm2_5":62.2,"no2":32.4,"co":681.0,"o3":53.0,"so2":9.4,"mosquito_risk":7,"arthritis_risk":5,"migraine_risk":7,"frizz_risk":1,"updated_at":"2026-06-03T00:12:06.859943+05:30"},{"city":"Ratlam","state":"Madhya Pradesh","latitude":23.3315,"longitude":75.0367,"temp":28.0,"humidity":59,"rain":0.0,"pressure":953.0,"uv_index":8.5,"wind_gusts":32.4,"aqi":84,"pm10":44.8,"pm2_5":29.5,"no2":4.8,"co":191.0,"o3":73.0,"so2":6.1,"mosquito_risk":4,"arthritis_risk":5,"migraine_risk":7,"frizz_risk":1,"updated_at":"2026-06-03T00:12:06.859951+05:30"},{"city":"Sagar","state":"Madhya Pradesh","latitude":23.8388,"longitude":78.7378,"temp":27.5,"humidity":60,"rain":0.0,"pressure":948.1,"uv_index":8.7,"wind_gusts":24.8,"aqi":72,"pm10":40.0,"pm2_5":25.4,"no2":18.3,"co":371.0,"o3":46.0,"so2":3.5,"mosquito_risk":4,"arthritis_risk":5,"migraine_risk":7,"frizz_risk":1,"updated_at":"2026-06-03T00:12:06.859958+05:30"},{"city":"Satna","state":"Madhya Pradesh","latitude":24.6005,"longitude":80.8322,"temp":29.0,"humidity":61,"rain":0.0,"pressure":969.0,"uv_index":8.8,"wind_gusts":22.3,"aqi":114,"pm10":46.4,"pm2_5":35.9,"no2":16.7,"co":383.0,"o3":55.0,"so2":4.3,"mosquito_risk":7,"arthritis_risk":5,"migraine_risk":7,"frizz_risk":1,"updated_at":"2026-06-03T00:12:06.859966+05:30"},{"city":"Akola","state":"Maharashtra","latitude":20.7002,"longitude":77.0082,"temp":30.4,"humidity":51,"rain":0.0,"pressure":972.8,"uv_index":8.8,"wind_gusts":33.5,"aqi":76,"pm10":35.5,"pm2_5":22.4,"no2":8.7,"co":227.0,"o3":75.0,"so2":6.8,"mosquito_risk":0,"arthritis_risk":5,"migraine_risk":7,"frizz_risk":1,"updated_at":"2026-06-03T00:12:06.859974+05:30"},{"city":"Amravati","state":"Maharashtra","latitude":20.9374,"longitude":77.7796,"temp":31.5,"humidity":38,"rain":0.0,"pressure":965.4,"uv_index":8.8,"wind_gusts":36.4,"aqi":78,"pm10":38.9,"pm2_5":24.8,"no2":13.7,"co":259.0,"o3":65.0,"so2":5.7,"mosquito_risk":0,"arthritis_risk":5,"migraine_risk":7,"frizz_risk":0,"updated_at":"2026-06-03T00:12:06.859983+05:30"},{"city":"Latur","state":"Maharashtra","latitude":18.4088,"longitude":76.5604,"temp":27.1,"humidity":59,"rain":0.0,"pressure":939.5,"uv_index":8.95,"wind_gusts":37.1,"aqi":76,"pm10":55.2,"pm2_5":32.8,"no2":18.9,"co":194.0,"o3":56.0,"so2":4.7,"mosquito_risk":4,"arthritis_risk":5,"migraine_risk":7,"frizz_risk":1,"updated_at":"2026-06-03T00:12:06.859990+05:30"},{"city":"Nanded","state":"Maharashtra","latitude":19.1383,"longitude":77.3091,"temp":31.4,"humidity":44,"rain":0.0,"pressure":967.2,"uv_index":8.9,"wind_gusts":28.8,"aqi":80,"pm10":49.8,"pm2_5":29.5,"no2":17.6,"co":253.0,"o3":73.0,"so2":8.9,"mosquito_risk":0,"arthritis_risk":5,"migraine_risk":7,"frizz_risk":1,"updated_at":"2026-06-03T00:12:06.859997+05:30"},{"city":"Gulbarga","state":"Karnataka","latitude":17.3297,"longitude":76.8343,"temp":29.0,"humidity":54,"rain":0.0,"pressure":958.6,"uv_index":8.95,"wind_gusts":40.3,"aqi":86,"pm10":23.2,"pm2_5":16.0,"no2":7.7,"co":175.0,"o3":89.0,"so2":2.6,"mosquito_risk":4,"arthritis_risk":5,"migraine_risk":7,"frizz_risk":1,"updated_at":"2026-06-03T00:12:06.860005+05:30"},{"city":"Bidar","state":"Karnataka","latitude":17.9104,"longitude":77.5199,"temp":27.6,"humidity":57,"rain":0.1,"pressure":935.2,"uv_index":8.95,"wind_gusts":29.2,"aqi":98,"pm10":55.6,"pm2_5":34.6,"no2":19.3,"co":179.0,"o3":70.0,"so2":3.9,"mosquito_risk":7,"arthritis_risk":5,"migraine_risk":7,"frizz_risk":1,"updated_at":"2026-06-03T00:12:06.860013+05:30"},{"city":"Hospet","state":"Karnataka","latitude":15.2689,"longitude":76.3909,"temp":25.9,"humidity":81,"rain":0.0,"pressure":956.1,"uv_index":8.95,"wind_gusts":44.3,"aqi":44,"pm10":10.9,"pm2_5":8.9,"no2":11.6,"co":172.0,"o3":49.0,"so2":1.9,"mosquito_risk":7,"arthritis_risk":5,"migraine_risk":7,"frizz_risk":1,"updated_at":"2026-06-03T00:12:06.860020+05:30"},{"city":"Tirupur","state":"Tamil Nadu","latitude":11.1085,"longitude":77.3411,"temp":25.2,"humidity":86,"rain":0.0,"pressure":975.6,"uv_index":9.0,"wind_gusts":46.4,"aqi":57,"pm10":17.0,"pm2_5":15.7,"no2":24.0,"co":188.0,"o3":44.0,"so2":6.4,"mosquito_risk":7,"arthritis_risk":5,"migraine_risk":7,"frizz_risk":1,"updated_at":"2026-06-03T00:12:06.860028+05:30"},{"city":"Alappuzha","state":"Kerala","latitude":9.4981,"longitude":76.3388,"temp":26.1,"humidity":94,"rain":0.2,"pressure":1010.4,"uv_index":8.25,"wind_gusts":37.4,"aqi":38,"pm10":10.4,"pm2_5":8.6,"no2":9.3,"co":99.0,"o3":48.0,"so2":2.0,"mosquito_risk":10,"arthritis_risk":0,"migraine_risk":4,"frizz_risk":1,"updated_at":"2026-06-03T00:12:06.860035+05:30"},{"city":"Munnar","state":"Kerala","latitude":10.0889,"longitude":77.0595,"temp":17.4,"humidity":100,"rain":0.3,"pressure":857.3,"uv_index":9.15,"wind_gusts":27.7,"aqi":39,"pm10":6.6,"pm2_5":6.4,"no2":8.7,"co":116.0,"o3":33.0,"so2":1.5,"mosquito_risk":6,"arthritis_risk":10,"migraine_risk":7,"frizz_risk":1,"updated_at":"2026-06-03T00:12:06.860043+05:30"},{"city":"Silchar","state":"Assam","latitude":24.8333,"longitude":92.7789,"temp":25.4,"humidity":95,"rain":0.1,"pressure":1003.1,"uv_index":8.7,"wind_gusts":23.8,"aqi":115,"pm10":86.8,"pm2_5":73.3,"no2":20.9,"co":441.0,"o3":75.0,"so2":11.0,"mosquito_risk":10,"arthritis_risk":5,"migraine_risk":4,"frizz_risk":1,"updated_at":"2026-06-03T00:12:06.860050+05:30"},{"city":"Dibrugarh","state":"Assam","latitude":27.4728,"longitude":94.912,"temp":25.0,"humidity":98,"rain":0.0,"pressure":992.6,"uv_index":8.9,"wind_gusts":26.6,"aqi":63,"pm10":16.9,"pm2_5":16.1,"no2":14.6,"co":336.0,"o3":40.0,"so2":1.5,"mosquito_risk":7,"arthritis_risk":5,"migraine_risk":7,"frizz_risk":1,"updated_at":"2026-06-03T00:12:06.860057+05:30"}]