[{"city":"Delhi","state":"Delhi","latitude":28.6139,"longitude":77.209,"temp":16.5,"humidity":96,"rain":0.0,"pressure":987.9,"uv_index":3.1,"wind_gusts":20.2,"aqi":138,"pm10":88.7,"pm2_5":76.6,"mosquito_risk":3,"arthritis_risk":10,"migraine_risk":3,"frizz_risk":0,"updated_at":"2026-03-21T00:25:17.017874+05:30"},{"city":"Mumbai","state":"Maharashtra","latitude":19.076,"longitude":72.8777,"temp":26.7,"humidity":80,"rain":0.0,"pressure":1010.0,"uv_index":7.8,"wind_gusts":24.1,"aqi":83,"pm10":54.9,"pm2_5":23.1,"mosquito_risk":7,"arthritis_risk":0,"migraine_risk":4,"frizz_risk":1,"updated_at":"2026-03-21T00:25:17.017914+05:30"},{"city":"Bangalore","state":"Karnataka","latitude":12.9716,"longitude":77.5946,"temp":23.0,"humidity":74,"rain":0.0,"pressure":912.0,"uv_index":9.4,"wind_gusts":17.3,"aqi":112,"pm10":32.8,"pm2_5":27.2,"mosquito_risk":3,"arthritis_risk":5,"migraine_risk":7,"frizz_risk":1,"updated_at":"2026-03-21T00:25:17.017929+05:30"},{"city":"Hyderabad","state":"Telangana","latitude":17.385,"longitude":78.4867,"temp":23.9,"humidity":73,"rain":0.0,"pressure":954.0,"uv_index":8.8,"wind_gusts":22.3,"aqi":83,"pm10":61.7,"pm2_5":48.5,"mosquito_risk":3,"arthritis_risk":5,"migraine_risk":7,"frizz_risk":1,"updated_at":"2026-03-21T00:25:17.017939+05:30"},{"city":"Chennai","state":"Tamil Nadu","latitude":13.0827,"longitude":80.2707,"temp":26.6,"humidity":88,"rain":0.0,"pressure":1008.6,"uv_index":9.15,"wind_gusts":31.0,"aqi":36,"pm10":11.4,"pm2_5":8.4,"mosquito_risk":7,"arthritis_risk":0,"migraine_risk":4,"frizz_risk":1,"updated_at":"2026-03-21T00:25:17.017948+05:30"},{"city":"Kolkata","state":"West Bengal","latitude":22.5726,"longitude":88.3639,"temp":22.8,"humidity":90,"rain":0.0,"pressure":1008.9,"uv_index":7.5,"wind_gusts":36.0,"aqi":75,"pm10":21.4,"pm2_5":18.2,"mosquito_risk":3,"arthritis_risk":0,"migraine_risk":4,"frizz_risk":1,"updated_at":"2026-03-21T00:25:17.017957+05:30"},{"city":"Pune","state":"Maharashtra","latitude":18.5204,"longitude":73.8567,"temp":22.5,"humidity":76,"rain":0.0,"pressure":949.1,"uv_index":8.35,"wind_gusts":36.7,"aqi":115,"pm10":44.8,"pm2_5":33.8,"mosquito_risk":3,"arthritis_risk":5,"migraine_risk":7,"frizz_risk":1,"updated_at":"2026-03-21T00:25:17.017968+05:30"},{"city":"Ahmedabad","state":"Gujarat","latitude":23.0225,"longitude":72.5714,"temp":21.9,"humidity":63,"rain":0.0,"pressure":1005.2,"uv_index":7.6,"wind_gusts":33.1,"aqi":78,"pm10":60.3,"pm2_5":36.3,"mosquito_risk":3,"arthritis_risk":5,"migraine_risk":4,"frizz_risk":0,"updated_at":"2026-03-21T00:25:17.017977+05:30"},{"city":"Jaipur","state":"Rajasthan","latitude":26.9124,"longitude":75.7873,"temp":18.0,"humidity":78,"rain":0.0,"pressure":963.6,"uv_index":6.7,"wind_gusts":25.6,"aqi":69,"pm10":74.0,"pm2_5":22.3,"mosquito_risk":3,"arthritis_risk":5,"migraine_risk":7,"frizz_risk":0,"updated_at":"2026-03-21T00:25:17.017984+05:30"},{"city":"Lucknow","state":"Uttar Pradesh","latitude":26.8467,"longitude":80.9462,"temp":19.9,"humidity":87,"rain":0.0,"pressure":997.6,"uv_index":4.95,"wind_gusts":36.0,"aqi":113,"pm10":75.2,"pm2_5":53.3,"mosquito_risk":3,"arthritis_risk":10,"migraine_risk":3,"frizz_risk":1,"updated_at":"2026-03-21T00:25:17.017993+05:30"},{"city":"Kanpur","state":"Uttar Pradesh","latitude":26.4499,"longitude":80.3319,"temp":19.5,"humidity":93,"rain":0.0,"pressure":996.2,"uv_index":2.95,"wind_gusts":37.8,"aqi":131,"pm10":84.5,"pm2_5":52.0,"mosquito_risk":3,"arthritis_risk":10,"migraine_risk":3,"frizz_risk":1,"updated_at":"2026-03-21T00:25:17.018000+05:30"},{"city":"Chandigarh","state":"Chandigarh","latitude":30.7333,"longitude":76.7794,"temp":14.1,"humidity":100,"rain":0.0,"pressure":973.1,"uv_index":1.3,"wind_gusts":25.2,"aqi":91,"pm10":67.8,"pm2_5":52.5,"mosquito_risk":3,"arthritis_risk":10,"migraine_risk":3,"frizz_risk":0,"updated_at":"2026-03-21T00:25:17.018008+05:30"},{"city":"Srinagar","state":"Jammu and Kashmir","latitude":34.0837,"longitude":74.7973,"temp":6.6,"humidity":97,"rain":0.0,"pressure":840.1,"uv_index":4.8,"wind_gusts":18.4,"aqi":83,"pm10":28.6,"pm2_5":28.3,"mosquito_risk":3,"arthritis_risk":10,"migraine_risk":3,"frizz_risk":0,"updated_at":"2026-03-21T00:25:17.018015+05:30"},{"city":"Jammu","state":"Jammu and Kashmir","latitude":32.7266,"longitude":74.857,"temp":15.1,"humidity":92,"rain":0.0,"pressure":977.5,"uv_index":4.95,"wind_gusts":14.4,"aqi":92,"pm10":67.5,"pm2_5":56.0,"mosquito_risk":3,"arthritis_risk":10,"migraine_risk":3,"frizz_risk":0,"updated_at":"2026-03-21T00:25:17.018022+05:30"},{"city":"Amritsar","state":"Punjab","latitude":31.634,"longitude":74.8723,"temp":13.7,"humidity":93,"rain":0.0,"pressure":986.1,"uv_index":5.35,"wind_gusts":22.7,"aqi":92,"pm10":68.0,"pm2_5":53.0,"mosquito_risk":3,"arthritis_risk":10,"migraine_risk":3,"frizz_risk":0,"updated_at":"2026-03-21T00:25:17.018029+05:30"},{"city":"Ludhiana","state":"Punjab","latitude":30.901,"longitude":75.8573,"temp":14.8,"humidity":100,"rain":0.0,"pressure":983.7,"uv_index":3.1,"wind_gusts":16.9,"aqi":100,"pm10":82.7,"pm2_5":64.5,"mosquito_risk":3,"arthritis_risk":10,"migraine_risk":3,"frizz_risk":0,"updated_at":"2026-03-21T00:25:17.018036+05:30"},{"city":"Jalandhar","state":"Punjab","latitude":31.326,"longitude":75.5762,"temp":14.4,"humidity":95,"rain":0.0,"pressure":985.1,"uv_index":4.2,"wind_gusts":20.9,"aqi":79,"pm10":61.2,"pm2_5":47.6,"mosquito_risk":3,"arthritis_risk":10,"migraine_risk":3,"frizz_risk":0,"updated_at":"2026-03-21T00:25:17.018046+05:30"},{"city":"Dehradun","state":"Uttarakhand","latitude":30.6284,"longitude":78.0322,"temp":8.0,"humidity":76,"rain":0.0,"pressure":828.0,"uv_index":0.35,"wind_gusts":34.6,"aqi":46,"pm10":2.6,"pm2_5":2.6,"mosquito_risk":3,"arthritis_risk":5,"migraine_risk":3,"frizz_risk":0,"updated_at":"2026-03-21T00:25:17.018053+05:30"},{"city":"Shimla","state":"Himachal Pradesh","latitude":31.1048,"longitude":77.1734,"temp":4.5,"humidity":86,"rain":0.0,"pressure":780.1,"uv_index":0.5,"wind_gusts":33.5,"aqi":46,"pm10":4.1,"pm2_5":4.1,"mosquito_risk":3,"arthritis_risk":10,"migraine_risk":3,"frizz_risk":0,"updated_at":"2026-03-21T00:25:17.018060+05:30"},{"city":"Manali","state":"Himachal Pradesh","latitude":32.2396,"longitude":77.1887,"temp":7.8,"humidity":68,"rain":0.0,"pressure":813.9,"uv_index":3.15,"wind_gusts":26.6,"aqi":43,"pm10":6.6,"pm2_5":6.4,"mosquito_risk":3,"arthritis_risk":5,"migraine_risk":3,"frizz_risk":0,"updated_at":"2026-03-21T00:25:17.018067+05:30"},{"city":"Gurgaon","state":"Haryana","latitude":28.4595,"longitude":77.0266,"temp":14.9,"humidity":99,"rain":0.0,"pressure":986.3,"uv_index":3.25,"wind_gusts":17.3,"aqi":142,"pm10":104.5,"pm2_5":93.6,"mosquito_risk":3,"arthritis_risk":10,"migraine_risk":3,"frizz_risk":0,"updated_at":"2026-03-21T00:25:17.018074+05:30"},{"city":"Noida","state":"Uttar Pradesh","latitude":28.5355,"longitude":77.391,"temp":16.4,"humidity":96,"rain":0.0,"pressure":989.4,"uv_index":2.6,"wind_gusts":21.6,"aqi":142,"pm10":104.5,"pm2_5":93.6,"mosquito_risk":3,"arthritis_risk":10,"migraine_risk":3,"frizz_risk":0,"updated_at":"2026-03-21T00:25:17.018081+05:30"},{"city":"Ghaziabad","state":"Uttar Pradesh","latitude":28.6692,"longitude":77.4538,"temp":15.6,"humidity":100,"rain":0.0,"pressure":987.5,"uv_index":2.35,"wind_gusts":19.1,"aqi":136,"pm10":80.8,"pm2_5":67.8,"mosquito_risk":3,"arthritis_risk":10,"migraine_risk":3,"frizz_risk":0,"updated_at":"2026-03-21T00:25:17.018087+05:30"},{"city":"Faridabad","state":"Haryana","latitude":28.4089,"longitude":77.3178,"temp":15.3,"humidity":96,"rain":0.0,"pressure":988.6,"uv_index":3.1,"wind_gusts":19.8,"aqi":142,"pm10":104.5,"pm2_5":93.6,"mosquito_risk":3,"arthritis_risk":10,"migraine_risk":3,"frizz_risk":0,"updated_at":"2026-03-21T00:25:17.018096+05:30"},{"city":"Meerut","state":"Uttar Pradesh","latitude":28.9845,"longitude":77.7064,"temp":14.6,"humidity":100,"rain":0.0,"pressure":986.1,"uv_index":1.9,"wind_gusts":24.8,"aqi":136,"pm10":80.8,"pm2_5":67.8,"mosquito_risk":3,"arthritis_risk":10,"migraine_risk":3,"frizz_risk":0,"updated_at":"2026-03-21T00:25:17.018103+05:30"},{"city":"Agra","state":"Uttar Pradesh","latitude":27.1767,"longitude":78.0081,"temp":16.0,"humidity":96,"rain":0.0,"pressure":992.8,"uv_index":5.15,"wind_gusts":25.2,"aqi":271,"pm10":52.4,"pm2_5":43.0,"mosquito_risk":3,"arthritis_risk":10,"migraine_risk":3,"frizz_risk":0,"updated_at":"2026-03-21T00:25:17.018109+05:30"},{"city":"Varanasi","state":"Uttar Pradesh","latitude":25.3176,"longitude":82.9739,"temp":21.5,"humidity":87,"rain":0.0,"pressure":1002.0,"uv_index":7.25,"wind_gusts":50.0,"aqi":98,"pm10":55.8,"pm2_5":50.1,"mosquito_risk":3,"arthritis_risk":5,"migraine_risk":4,"frizz_risk":1,"updated_at":"2026-03-21T00:25:17.018118+05:30"},{"city":"Prayagraj","state":"Uttar Pradesh","latitude":25.4358,"longitude":81.8463,"temp":20.7,"humidity":88,"rain":0.0,"pressure":999.8,"uv_index":4.75,"wind_gusts":56.9,"aqi":90,"pm10":56.8,"pm2_5":39.2,"mosquito_risk":3,"arthritis_risk":5,"migraine_risk":3,"frizz_risk":1,"updated_at":"2026-03-21T00:25:17.018126+05:30"},{"city":"Gorakhpur","state":"Uttar Pradesh","latitude":26.7606,"longitude":83.3732,"temp":19.2,"humidity":80,"rain":0.0,"pressure":1000.0,"uv_index":7.0,"wind_gusts":32.4,"aqi":141,"pm10":66.1,"pm2_5":56.8,"mosquito_risk":3,"arthritis_risk":5,"migraine_risk":4,"frizz_risk":0,"updated_at":"2026-03-21T00:25:17.018133+05:30"},{"city":"Bareilly","state":"Uttar Pradesh","latitude":28.367,"longitude":79.4304,"temp":16.7,"humidity":99,"rain":0.0,"pressure":991.1,"uv_index":2.85,"wind_gusts":29.9,"aqi":91,"pm10":48.8,"pm2_5":35.9,"mosquito_risk":3,"arthritis_risk":10,"migraine_risk":3,"frizz_risk":1,"updated_at":"2026-03-21T00:25:17.018142+05:30"},{"city":"Aligarh","state":"Uttar Pradesh","latitude":27.8974,"longitude":78.088,"temp":15.5,"humidity":98,"rain":0.0,"pressure":990.2,"uv_index":3.8,"wind_gusts":23.4,"aqi":113,"pm10":58.9,"pm2_5":49.0,"mosquito_risk":3,"arthritis_risk":10,"migraine_risk":3,"frizz_risk":0,"updated_at":"2026-03-21T00:25:17.018148+05:30"},{"city":"Moradabad","state":"Uttar Pradesh","latitude":28.8386,"longitude":78.7733,"temp":16.4,"humidity":99,"rain":0.0,"pressure":987.9,"uv_index":2.3,"wind_gusts":25.6,"aqi":100,"pm10":55.5,"pm2_5":44.4,"mosquito_risk":3,"arthritis_risk":10,"migraine_risk":3,"frizz_risk":1,"updated_at":"2026-03-21T00:25:17.018155+05:30"},{"city":"Saharanpur","state":"Uttar Pradesh","latitude":29.9637,"longitude":77.546,"temp":13.6,"humidity":100,"rain":0.0,"pressure":980.2,"uv_index":0.6,"wind_gusts":15.8,"aqi":134,"pm10":75.9,"pm2_5":65.7,"mosquito_risk":3,"arthritis_risk":10,"migraine_risk":3,"frizz_risk":0,"updated_at":"2026-03-21T00:25:17.018161+05:30"},{"city":"Jhansi","state":"Uttar Pradesh","latitude":25.4484,"longitude":78.5685,"temp":18.3,"humidity":89,"rain":0.0,"pressure":982.5,"uv_index":5.8,"wind_gusts":30.6,"aqi":112,"pm10":61.7,"pm2_5":36.3,"mosquito_risk":3,"arthritis_risk":10,"migraine_risk":3,"frizz_risk":1,"updated_at":"2026-03-21T00:25:20.333804+05:30"},{"city":"Surat","state":"Gujarat","latitude":21.1702,"longitude":72.8311,"temp":24.3,"humidity":87,"rain":0.0,"pressure":1008.9,"uv_index":7.5,"wind_gusts":24.8,"aqi":111,"pm10":54.8,"pm2_5":35.5,"mosquito_risk":3,"arthritis_risk":0,"migraine_risk":4,"frizz_risk":1,"updated_at":"2026-03-21T00:25:20.333836+05:30"},{"city":"Vadodara","state":"Gujarat","latitude":22.3072,"longitude":73.1812,"temp":23.9,"humidity":58,"rain":0.0,"pressure":1007.1,"uv_index":7.6,"wind_gusts":28.1,"aqi":84,"pm10":41.2,"pm2_5":26.7,"mosquito_risk":0,"arthritis_risk":5,"migraine_risk":4,"frizz_risk":0,"updated_at":"2026-03-21T00:25:20.333846+05:30"},{"city":"Rajkot","state":"Gujarat","latitude":22.3039,"longitude":70.8022,"temp":22.8,"humidity":74,"rain":0.0,"pressure":997.1,"uv_index":7.45,"wind_gusts":30.2,"aqi":84,"pm10":100.4,"pm2_5":35.6,"mosquito_risk":3,"arthritis_risk":5,"migraine_risk":7,"frizz_risk":1,"updated_at":"2026-03-21T00:25:20.333855+05:30"},{"city":"Thane","state":"Maharashtra","latitude":19.2183,"longitude":72.9781,"temp":24.5,"humidity":84,"rain":0.0,"pressure":1009.5,"uv_index":7.8,"wind_gusts":36.4,"aqi":83,"pm10":54.9,"pm2_5":23.1,"mosquito_risk":3,"arthritis_risk":0,"migraine_risk":4,"frizz_risk":1,"updated_at":"2026-03-21T00:25:20.333864+05:30"},{"city":"Nagpur","state":"Maharashtra","latitude":21.1458,"longitude":79.0882,"temp":22.2,"humidity":75,"rain":0.0,"pressure":975.5,"uv_index":8.15,"wind_gusts":37.8,"aqi":82,"pm10":44.6,"pm2_5":24.2,"mosquito_risk":3,"arthritis_risk":5,"migraine_risk":7,"frizz_risk":1,"updated_at":"2026-03-21T00:25:20.333871+05:30"},{"city":"Nashik","state":"Maharashtra","latitude":19.9975,"longitude":73.7898,"temp":21.0,"humidity":79,"rain":0.0,"pressure":946.6,"uv_index":8.0,"wind_gusts":33.8,"aqi":58,"pm10":46.7,"pm2_5":20.9,"mosquito_risk":3,"arthritis_risk":5,"migraine_risk":7,"frizz_risk":1,"updated_at":"2026-03-21T00:25:20.333878+05:30"},{"city":"Aurangabad","state":"Maharashtra","latitude":19.8762,"longitude":75.3433,"temp":24.0,"humidity":59,"rain":0.0,"pressure":945.3,"uv_index":8.5,"wind_gusts":33.5,"aqi":73,"pm10":40.6,"pm2_5":23.0,"mosquito_risk":0,"arthritis_risk":5,"migraine_risk":7,"frizz_risk":0,"updated_at":"2026-03-21T00:25:20.333885+05:30"},{"city":"Solapur","state":"Maharashtra","latitude":17.6599,"longitude":75.9064,"temp":26.4,"humidity":43,"rain":0.0,"pressure":957.7,"uv_index":8.65,"wind_gusts":23.8,"aqi":84,"pm10":53.6,"pm2_5":42.0,"mosquito_risk":4,"arthritis_risk":5,"migraine_risk":7,"frizz_risk":0,"updated_at":"2026-03-21T00:25:20.333893+05:30"},{"city":"Kolhapur","state":"Maharashtra","latitude":16.705,"longitude":74.2433,"temp":19.2,"humidity":76,"rain":0.0,"pressure":947.9,"uv_index":8.8,"wind_gusts":43.2,"aqi":82,"pm10":34.0,"pm2_5":27.9,"mosquito_risk":3,"arthritis_risk":5,"migraine_risk":7,"frizz_risk":0,"updated_at":"2026-03-21T00:25:20.333900+05:30"},{"city":"Goa","state":"Goa","latitude":15.2993,"longitude":74.124,"temp":26.4,"humidity":77,"rain":0.0,"pressure":998.8,"uv_index":8.8,"wind_gusts":35.6,"aqi":65,"pm10":54.1,"pm2_5":29.9,"mosquito_risk":7,"arthritis_risk":5,"migraine_risk":7,"frizz_risk":1,"updated_at":"2026-03-21T00:25:20.333907+05:30"},{"city":"Jodhpur","state":"Rajasthan","latitude":26.2389,"longitude":73.0243,"temp":23.1,"humidity":57,"rain":0.0,"pressure":986.6,"uv_index":7.25,"wind_gusts":19.8,"aqi":70,"pm10":64.5,"pm2_5":30.9,"mosquito_risk":0,"arthritis_risk":5,"migraine_risk":7,"frizz_risk":0,"updated_at":"2026-03-21T00:25:20.333914+05:30"},{"city":"Udaipur","state":"Rajasthan","latitude":24.5854,"longitude":73.7125,"temp":18.9,"humidity":60,"rain":0.0,"pressure":949.0,"uv_index":4.7,"wind_gusts":30.6,"aqi":58,"pm10":41.6,"pm2_5":17.1,"mosquito_risk":0,"arthritis_risk":5,"migraine_risk":3,"frizz_risk":0,"updated_at":"2026-03-21T00:25:20.333921+05:30"},{"city":"Kota","state":"Rajasthan","latitude":25.2138,"longitude":75.8648,"temp":21.2,"humidity":62,"rain":0.0,"pressure":982.8,"uv_index":6.4,"wind_gusts":34.6,"aqi":61,"pm10":29.1,"pm2_5":18.6,"mosquito_risk":3,"arthritis_risk":5,"migraine_risk":7,"frizz_risk":0,"updated_at":"2026-03-21T00:25:20.333928+05:30"},{"city":"Bikaner","state":"Rajasthan","latitude":28.0229,"longitude":73.3119,"temp":22.2,"humidity":54,"rain":0.0,"pressure":985.4,"uv_index":6.95,"wind_gusts":17.6,"aqi":61,"pm10":41.3,"pm2_5":21.8,"mosquito_risk":0,"arthritis_risk":5,"migraine_risk":7,"frizz_risk":0,"updated_at":"2026-03-21T00:25:20.333935+05:30"},{"city":"Ajmer","state":"Rajasthan","latitude":26.4499,"longitude":74.6399,"temp":20.1,"humidity":64,"rain":0.0,"pressure":957.9,"uv_index":7.2,"wind_gusts":27.4,"aqi":58,"pm10":41.2,"pm2_5":29.7,"mosquito_risk":3,"arthritis_risk":5,"migraine_risk":7,"frizz_risk":0,"updated_at":"2026-03-21T00:25:20.333942+05:30"},{"city":"Gwalior","state":"Madhya Pradesh","latitude":26.2183,"longitude":78.1828,"temp":18.0,"humidity":93,"rain":0.0,"pressure":987.9,"uv_index":6.3,"wind_gusts":31.0,"aqi":118,"pm10":48.4,"pm2_5":30.6,"mosquito_risk":3,"arthritis_risk":10,"migraine_risk":7,"frizz_risk":1,"updated_at":"2026-03-21T00:25:20.333949+05:30"},{"city":"Indore","state":"Madhya Pradesh","latitude":22.7196,"longitude":75.8577,"temp":19.6,"humidity":71,"rain":0.0,"pressure":949.7,"uv_index":7.85,"wind_gusts":38.5,"aqi":70,"pm10":29.5,"pm2_5":20.3,"mosquito_risk":3,"arthritis_risk":5,"migraine_risk":7,"frizz_risk":0,"updated_at":"2026-03-21T00:25:20.333955+05:30"},{"city":"Bhopal","state":"Madhya Pradesh","latitude":23.2599,"longitude":77.4126,"temp":17.9,"humidity":83,"rain":0.0,"pressure":956.0,"uv_index":7.75,"wind_gusts":46.1,"aqi":71,"pm10":49.8,"pm2_5":27.0,"mosquito_risk":3,"arthritis_risk":10,"migraine_risk":7,"frizz_risk":0,"updated_at":"2026-03-21T00:25:20.333962+05:30"},{"city":"Jabalpur","state":"Madhya Pradesh","latitude":23.1815,"longitude":79.9864,"temp":20.6,"humidity":78,"rain":0.0,"pressure":964.3,"uv_index":4.9,"wind_gusts":36.0,"aqi":61,"pm10":39.6,"pm2_5":25.0,"mosquito_risk":3,"arthritis_risk":5,"migraine_risk":3,"frizz_risk":1,"updated_at":"2026-03-21T00:25:20.333968+05:30"},{"city":"Ujjain","state":"Madhya Pradesh","latitude":23.1765,"longitude":75.7885,"temp":20.0,"humidity":70,"rain":0.0,"pressure":955.8,"uv_index":7.75,"wind_gusts":39.6,"aqi":69,"pm10":29.7,"pm2_5":20.5,"mosquito_risk":3,"arthritis_risk":5,"migraine_risk":7,"frizz_risk":0,"updated_at":"2026-03-21T00:25:20.333976+05:30"},{"city":"Visakhapatnam","state":"Andhra Pradesh","latitude":17.6868,"longitude":83.2185,"temp":23.3,"humidity":89,"rain":0.0,"pressure":1006.0,"uv_index":8.8,"wind_gusts":39.2,"aqi":67,"pm10":34.6,"pm2_5":30.3,"mosquito_risk":3,"arthritis_risk":5,"migraine_risk":4,"frizz_risk":1,"updated_at":"2026-03-21T00:25:20.333982+05:30"},{"city":"Vijayawada","state":"Andhra Pradesh","latitude":16.5062,"longitude":80.648,"temp":24.7,"humidity":86,"rain":0.0,"pressure":1004.6,"uv_index":8.85,"wind_gusts":19.1,"aqi":65,"pm10":14.2,"pm2_5":12.7,"mosquito_risk":3,"arthritis_risk":5,"migraine_risk":4,"frizz_risk":1,"updated_at":"2026-03-21T00:25:20.333989+05:30"},{"city":"Guntur","state":"Andhra Pradesh","latitude":16.3067,"longitude":80.4365,"temp":24.5,"humidity":93,"rain":0.0,"pressure":1005.7,"uv_index":8.85,"wind_gusts":19.1,"aqi":61,"pm10":15.4,"pm2_5":13.8,"mosquito_risk":3,"arthritis_risk":5,"migraine_risk":4,"frizz_risk":1,"updated_at":"2026-03-21T00:25:20.333996+05:30"},{"city":"Nellore","state":"Andhra Pradesh","latitude":14.4426,"longitude":79.9865,"temp":25.5,"humidity":92,"rain":0.0,"pressure":1007.2,"uv_index":9.0,"wind_gusts":27.0,"aqi":45,"pm10":7.8,"pm2_5":5.7,"mosquito_risk":7,"arthritis_risk":5,"migraine_risk":4,"frizz_risk":1,"updated_at":"2026-03-21T00:25:20.334003+05:30"},{"city":"Kurnool","state":"Andhra Pradesh","latitude":15.8281,"longitude":78.0373,"temp":26.9,"humidity":61,"rain":0.0,"pressure":977.0,"uv_index":8.85,"wind_gusts":19.4,"aqi":82,"pm10":47.8,"pm2_5":38.4,"mosquito_risk":7,"arthritis_risk":5,"migraine_risk":7,"frizz_risk":1,"updated_at":"2026-03-21T00:25:20.334011+05:30"},{"city":"Kakinada","state":"Andhra Pradesh","latitude":16.9891,"longitude":82.2475,"temp":22.6,"humidity":97,"rain":0.0,"pressure":1009.7,"uv_index":8.8,"wind_gusts":27.7,"aqi":49,"pm10":12.4,"pm2_5":9.7,"mosquito_risk":3,"arthritis_risk":0,"migraine_risk":4,"frizz_risk":1,"updated_at":"2026-03-21T00:25:20.334018+05:30"},{"city":"Tirupati","state":"Andhra Pradesh","latitude":13.6288,"longitude":79.4192,"temp":25.0,"humidity":89,"rain":0.0,"pressure":993.2,"uv_index":9.1,"wind_gusts":20.2,"aqi":59,"pm10":24.6,"pm2_5":23.2,"mosquito_risk":7,"arthritis_risk":5,"migraine_risk":7,"frizz_risk":1,"updated_at":"2026-03-21T00:25:20.334025+05:30"},{"city":"Warangal","state":"Telangana","latitude":17.9689,"longitude":79.5941,"temp":23.5,"humidity":78,"rain":0.0,"pressure":980.3,"uv_index":8.65,"wind_gusts":28.4,"aqi":93,"pm10":92.2,"pm2_5":80.8,"mosquito_risk":3,"arthritis_risk":5,"migraine_risk":7,"frizz_risk":1,"updated_at":"2026-03-21T00:25:20.334031+05:30"},{"city":"Nizamabad","state":"Telangana","latitude":18.6725,"longitude":78.0941,"temp":25.1,"humidity":62,"rain":0.0,"pressure":965.4,"uv_index":8.55,"wind_gusts":25.9,"aqi":91,"pm10":69.6,"pm2_5":54.0,"mosquito_risk":7,"arthritis_risk":5,"migraine_risk":7,"frizz_risk":1,"updated_at":"2026-03-21T00:25:20.334038+05:30"},{"city":"Mysore","state":"Karnataka","latitude":12.2958,"longitude":76.6396,"temp":22.8,"humidity":81,"rain":0.0,"pressure":928.8,"uv_index":9.35,"wind_gusts":28.1,"aqi":77,"pm10":45.6,"pm2_5":39.6,"mosquito_risk":3,"arthritis_risk":5,"migraine_risk":7,"frizz_risk":1,"updated_at":"2026-03-21T00:25:20.334044+05:30"},{"city":"Mangalore","state":"Karnataka","latitude":12.9141,"longitude":74.856,"temp":29.2,"humidity":77,"rain":0.0,"pressure":1007.2,"uv_index":9.0,"wind_gusts":27.7,"aqi":68,"pm10":25.9,"pm2_5":19.8,"mosquito_risk":7,"arthritis_risk":5,"migraine_risk":4,"frizz_risk":1,"updated_at":"2026-03-21T00:25:20.334051+05:30"},{"city":"Hubli-Dharwad","state":"Karnataka","latitude":15.3647,"longitude":75.124,"temp":21.9,"humidity":72,"rain":0.0,"pressure":941.0,"uv_index":9.0,"wind_gusts":31.0,"aqi":75,"pm10":22.4,"pm2_5":19.6,"mosquito_risk":3,"arthritis_risk":5,"migraine_risk":7,"frizz_risk":1,"updated_at":"2026-03-21T00:25:20.334058+05:30"},{"city":"Belgaum","state":"Karnataka","latitude":15.8497,"longitude":74.4977,"temp":20.3,"humidity":84,"rain":0.0,"pressure":925.6,"uv_index":9.05,"wind_gusts":41.4,"aqi":70,"pm10":41.2,"pm2_5":30.4,"mosquito_risk":3,"arthritis_risk":5,"migraine_risk":7,"frizz_risk":1,"updated_at":"2026-03-21T00:25:23.653777+05:30"},{"city":"Coimbatore","state":"Tamil Nadu","latitude":11.0168,"longitude":76.9558,"temp":23.5,"humidity":83,"rain":0.0,"pressure":962.5,"uv_index":9.35,"wind_gusts":36.7,"aqi":66,"pm10":41.9,"pm2_5":38.2,"mosquito_risk":3,"arthritis_risk":5,"migraine_risk":7,"frizz_risk":1,"updated_at":"2026-03-21T00:25:23.653808+05:30"},{"city":"Madurai","state":"Tamil Nadu","latitude":9.9252,"longitude":78.1198,"temp":24.7,"humidity":87,"rain":0.0,"pressure":994.6,"uv_index":9.3,"wind_gusts":23.4,"aqi":62,"pm10":45.8,"pm2_5":41.2,"mosquito_risk":3,"arthritis_risk":5,"migraine_risk":7,"frizz_risk":1,"updated_at":"2026-03-21T00:25:23.653819+05:30"},{"city":"Trichy","state":"Tamil Nadu","latitude":10.7905,"longitude":78.7047,"temp":25.7,"humidity":89,"rain":0.0,"pressure":1001.0,"uv_index":9.25,"wind_gusts":23.4,"aqi":71,"pm10":22.3,"pm2_5":21.7,"mosquito_risk":7,"arthritis_risk":5,"migraine_risk":4,"frizz_risk":1,"updated_at":"2026-03-21T00:25:23.653828+05:30"},{"city":"Salem","state":"Tamil Nadu","latitude":11.6643,"longitude":78.146,"temp":26.6,"humidity":74,"rain":0.0,"pressure":978.0,"uv_index":9.3,"wind_gusts":20.9,"aqi":124,"pm10":36.9,"pm2_5":31.4,"mosquito_risk":7,"arthritis_risk":5,"migraine_risk":7,"frizz_risk":1,"updated_at":"2026-03-21T00:25:23.653836+05:30"},{"city":"Tirunelveli","state":"Tamil Nadu","latitude":8.7139,"longitude":77.7567,"temp":25.5,"humidity":84,"rain":0.0,"pressure":1004.5,"uv_index":9.25,"wind_gusts":34.9,"aqi":62,"pm10":35.9,"pm2_5":32.2,"mosquito_risk":7,"arthritis_risk":5,"migraine_risk":4,"frizz_risk":1,"updated_at":"2026-03-21T00:25:23.653844+05:30"},{"city":"Vellore","state":"Tamil Nadu","latitude":12.9165,"longitude":79.1325,"temp":24.3,"humidity":87,"rain":0.0,"pressure":986.0,"uv_index":9.2,"wind_gusts":21.6,"aqi":62,"pm10":34.6,"pm2_5":33.4,"mosquito_risk":3,"arthritis_risk":5,"migraine_risk":7,"frizz_risk":1,"updated_at":"2026-03-21T00:25:23.653851+05:30"},{"city":"Erode","state":"Tamil Nadu","latitude":11.341,"longitude":77.7172,"temp":27.5,"humidity":77,"rain":0.0,"pressure":990.3,"uv_index":9.25,"wind_gusts":27.0,"aqi":96,"pm10":21.9,"pm2_5":19.0,"mosquito_risk":7,"arthritis_risk":5,"migraine_risk":7,"frizz_risk":1,"updated_at":"2026-03-21T00:25:23.653859+05:30"},{"city":"Kochi","state":"Kerala","latitude":9.9312,"longitude":76.2673,"temp":28.9,"humidity":72,"rain":0.0,"pressure":1009.6,"uv_index":9.15,"wind_gusts":38.2,"aqi":69,"pm10":47.7,"pm2_5":43.5,"mosquito_risk":7,"arthritis_risk":0,"migraine_risk":4,"frizz_risk":1,"updated_at":"2026-03-21T00:25:23.653866+05:30"},{"city":"Thiruvananthapuram","state":"Kerala","latitude":8.5241,"longitude":76.9366,"temp":28.3,"humidity":80,"rain":0.0,"pressure":1008.7,"uv_index":9.15,"wind_gusts":30.6,"aqi":88,"pm10":22.7,"pm2_5":17.5,"mosquito_risk":7,"arthritis_risk":0,"migraine_risk":4,"frizz_risk":1,"updated_at":"2026-03-21T00:25:23.653873+05:30"},{"city":"Kozhikode","state":"Kerala","latitude":11.2588,"longitude":75.7804,"temp":29.1,"humidity":76,"rain":0.0,"pressure":1008.3,"uv_index":9.05,"wind_gusts":32.0,"aqi":57,"pm10":19.3,"pm2_5":13.6,"mosquito_risk":7,"arthritis_risk":0,"migraine_risk":4,"frizz_risk":1,"updated_at":"2026-03-21T00:25:23.653880+05:30"},{"city":"Thrissur","state":"Kerala","latitude":10.5276,"longitude":76.2144,"temp":26.9,"humidity":84,"rain":0.0,"pressure":1007.8,"uv_index":9.1,"wind_gusts":39.6,"aqi":67,"pm10":43.9,"pm2_5":39.8,"mosquito_risk":7,"arthritis_risk":5,"migraine_risk":4,"frizz_risk":1,"updated_at":"2026-03-21T00:25:23.653888+05:30"},{"city":"Kannur","state":"Kerala","latitude":11.8745,"longitude":75.3704,"temp":28.2,"humidity":81,"rain":0.0,"pressure":1007.7,"uv_index":9.05,"wind_gusts":40.3,"aqi":59,"pm10":28.5,"pm2_5":23.0,"mosquito_risk":7,"arthritis_risk":5,"migraine_risk":4,"frizz_risk":1,"updated_at":"2026-03-21T00:25:23.653895+05:30"},{"city":"Patna","state":"Bihar","latitude":25.5941,"longitude":85.1376,"temp":22.9,"humidity":84,"rain":0.0,"pressure":1003.8,"uv_index":7.65,"wind_gusts":31.3,"aqi":153,"pm10":65.2,"pm2_5":60.8,"mosquito_risk":3,"arthritis_risk":5,"migraine_risk":4,"frizz_risk":1,"updated_at":"2026-03-21T00:25:23.653902+05:30"},{"city":"Gaya","state":"Bihar","latitude":24.7914,"longitude":85.0002,"temp":21.7,"humidity":88,"rain":0.0,"pressure":997.0,"uv_index":7.8,"wind_gusts":30.6,"aqi":111,"pm10":56.2,"pm2_5":49.5,"mosquito_risk":3,"arthritis_risk":5,"migraine_risk":7,"frizz_risk":1,"updated_at":"2026-03-21T00:25:23.653909+05:30"},{"city":"Muzaffarpur","state":"Bihar","latitude":26.1209,"longitude":85.3647,"temp":21.6,"humidity":84,"rain":0.0,"pressure":1004.0,"uv_index":7.65,"wind_gusts":42.1,"aqi":156,"pm10":66.6,"pm2_5":61.5,"mosquito_risk":3,"arthritis_risk":5,"migraine_risk":4,"frizz_risk":1,"updated_at":"2026-03-21T00:25:23.653916+05:30"},{"city":"Bhagalpur","state":"Bihar","latitude":25.2425,"longitude":87.0117,"temp":21.5,"humidity":90,"rain":0.0,"pressure":1006.2,"uv_index":7.7,"wind_gusts":44.6,"aqi":138,"pm10":60.1,"pm2_5":57.2,"mosquito_risk":3,"arthritis_risk":5,"migraine_risk":4,"frizz_risk":1,"updated_at":"2026-03-21T00:25:23.653923+05:30"},{"city":"Ranchi","state":"Jharkhand","latitude":23.3441,"longitude":85.3096,"temp":19.2,"humidity":85,"rain":0.0,"pressure":939.7,"uv_index":7.7,"wind_gusts":27.4,"aqi":113,"pm10":37.6,"pm2_5":31.7,"mosquito_risk":3,"arthritis_risk":10,"migraine_risk":7,"frizz_risk":1,"updated_at":"2026-03-21T00:25:23.653930+05:30"},{"city":"Jamshedpur","state":"Jharkhand","latitude":22.8046,"longitude":86.2029,"temp":23.1,"humidity":82,"rain":0.0,"pressure":994.1,"uv_index":7.9,"wind_gusts":25.9,"aqi":122,"pm10":48.9,"pm2_5":43.5,"mosquito_risk":3,"arthritis_risk":5,"migraine_risk":7,"frizz_risk":1,"updated_at":"2026-03-21T00:25:23.653938+05:30"},{"city":"Dhanbad","state":"Jharkhand","latitude":23.7957,"longitude":86.4304,"temp":21.9,"humidity":81,"rain":0.0,"pressure":982.8,"uv_index":7.6,"wind_gusts":51.8,"aqi":154,"pm10":61.9,"pm2_5":56.1,"mosquito_risk":3,"arthritis_risk":5,"migraine_risk":7,"frizz_risk":1,"updated_at":"2026-03-21T00:25:23.653946+05:30"},{"city":"Bokaro","state":"Jharkhand","latitude":23.6693,"longitude":86.1511,"temp":21.3,"humidity":85,"rain":0.0,"pressure":987.0,"uv_index":7.7,"wind_gusts":51.8,"aqi":147,"pm10":50.8,"pm2_5":45.2,"mosquito_risk":3,"arthritis_risk":5,"migraine_risk":7,"frizz_risk":1,"updated_at":"2026-03-21T00:25:23.653953+05:30"},{"city":"Bhubaneswar","state":"Odisha","latitude":20.2961,"longitude":85.8245,"temp":24.3,"humidity":87,"rain":0.0,"pressure":1004.9,"uv_index":8.55,"wind_gusts":33.5,"aqi":63,"pm10":17.2,"pm2_5":14.5,"mosquito_risk":3,"arthritis_risk":5,"migraine_risk":4,"frizz_risk":1,"updated_at":"2026-03-21T00:25:23.653960+05:30"},{"city":"Cuttack","state":"Odisha","latitude":20.4625,"longitude":85.8828,"temp":24.2,"humidity":90,"rain":0.0,"pressure":1007.0,"uv_index":8.35,"wind_gusts":34.2,"aqi":63,"pm10":17.2,"pm2_5":14.5,"mosquito_risk":3,"arthritis_risk":5,"migraine_risk":4,"frizz_risk":1,"updated_at":"2026-03-21T00:25:23.653967+05:30"},{"city":"Rourkela","state":"Odisha","latitude":22.2604,"longitude":84.8536,"temp":22.0,"humidity":83,"rain":0.0,"pressure":988.2,"uv_index":7.55,"wind_gusts":37.1,"aqi":145,"pm10":58.2,"pm2_5":48.8,"mosquito_risk":3,"arthritis_risk":5,"migraine_risk":7,"frizz_risk":1,"updated_at":"2026-03-21T00:25:23.653974+05:30"},{"city":"Raipur","state":"Chhattisgarh","latitude":21.2514,"longitude":81.6296,"temp":21.7,"humidity":77,"rain":0.0,"pressure":976.4,"uv_index":7.4,"wind_gusts":45.0,"aqi":110,"pm10":50.4,"pm2_5":40.7,"mosquito_risk":3,"arthritis_risk":5,"migraine_risk":7,"frizz_risk":1,"updated_at":"2026-03-21T00:25:23.653981+05:30"},{"city":"Bhilai","state":"Chhattisgarh","latitude":21.1938,"longitude":81.3509,"temp":21.6,"humidity":78,"rain":0.0,"pressure":976.8,"uv_index":6.9,"wind_gusts":35.3,"aqi":101,"pm10":55.2,"pm2_5":42.0,"mosquito_risk":3,"arthritis_risk":5,"migraine_risk":7,"frizz_risk":1,"updated_at":"2026-03-21T00:25:23.653988+05:30"},{"city":"Guwahati","state":"Assam","latitude":26.1158,"longitude":91.7086,"temp":22.8,"humidity":90,"rain":0.0,"pressure":1006.6,"uv_index":7.1,"wind_gusts":27.4,"aqi":97,"pm10":44.4,"pm2_5":37.8,"mosquito_risk":3,"arthritis_risk":5,"migraine_risk":4,"frizz_risk":1,"updated_at":"2026-03-21T00:25:23.653994+05:30"},{"city":"Agartala","state":"Tripura","latitude":23.8315,"longitude":91.2868,"temp":21.8,"humidity":98,"rain":0.0,"pressure":1010.3,"uv_index":6.4,"wind_gusts":29.2,"aqi":95,"pm10":49.2,"pm2_5":46.1,"mosquito_risk":3,"arthritis_risk":0,"migraine_risk":4,"frizz_risk":1,"updated_at":"2026-03-21T00:25:23.654002+05:30"},{"city":"Shillong","state":"Meghalaya","latitude":25.5788,"longitude":91.8933,"temp":11.2,"humidity":75,"rain":0.0,"pressure":856.8,"uv_index":7.5,"wind_gusts":34.2,"aqi":79,"pm10":25.8,"pm2_5":22.4,"mosquito_risk":3,"arthritis_risk":5,"migraine_risk":7,"frizz_risk":0,"updated_at":"2026-03-21T00:25:23.654008+05:30"},{"city":"Imphal","state":"Manipur","latitude":24.817,"longitude":93.9368,"temp":16.5,"humidity":73,"rain":0.0,"pressure":926.2,"uv_index":7.9,"wind_gusts":44.6,"aqi":89,"pm10":51.7,"pm2_5":43.5,"mosquito_risk":3,"arthritis_risk":5,"migraine_risk":7,"frizz_risk":0,"updated_at":"2026-03-21T00:25:23.654016+05:30"},{"city":"Aizawl","state":"Mizoram","latitude":23.7271,"longitude":92.7176,"temp":15.4,"humidity":86,"rain":0.0,"pressure":893.9,"uv_index":7.6,"wind_gusts":24.8,"aqi":89,"pm10":59.5,"pm2_5":48.8,"mosquito_risk":3,"arthritis_risk":10,"migraine_risk":7,"frizz_risk":0,"updated_at":"2026-03-21T00:25:23.654023+05:30"},{"city":"Kohima","state":"Nagaland","latitude":25.6701,"longitude":94.1077,"temp":14.2,"humidity":52,"rain":0.0,"pressure":857.1,"uv_index":7.7,"wind_gusts":62.3,"aqi":78,"pm10":41.3,"pm2_5":33.4,"mosquito_risk":0,"arthritis_risk":5,"migraine_risk":7,"frizz_risk":0,"updated_at":"2026-03-21T00:25:23.654030+05:30"},{"city":"Gangtok","state":"Sikkim","latitude":27.3314,"longitude":88.6138,"temp":12.3,"humidity":95,"rain":0.1,"pressure":839.0,"uv_index":7.9,"wind_gusts":20.2,"aqi":91,"pm10":17.8,"pm2_5":13.7,"mosquito_risk":6,"arthritis_risk":10,"migraine_risk":7,"frizz_risk":0,"updated_at":"2026-03-21T00:25:23.654038+05:30"},{"city":"Siliguri","state":"West Bengal","latitude":26.7271,"longitude":88.3953,"temp":18.5,"humidity":88,"rain":0.0,"pressure":999.6,"uv_index":7.6,"wind_gusts":23.0,"aqi":151,"pm10":59.5,"pm2_5":47.3,"mosquito_risk":3,"arthritis_risk":10,"migraine_risk":7,"frizz_risk":1,"updated_at":"2026-03-21T00:25:26.973599+05:30"},{"city":"Durgapur","state":"West Bengal","latitude":23.5204,"longitude":87.3119,"temp":22.8,"humidity":84,"rain":0.0,"pressure":998.8,"uv_index":7.0,"wind_gusts":41.0,"aqi":152,"pm10":65.2,"pm2_5":61.2,"mosquito_risk":3,"arthritis_risk":5,"migraine_risk":7,"frizz_risk":1,"updated_at":"2026-03-21T00:25:26.973630+05:30"},{"city":"Asansol","state":"West Bengal","latitude":23.6739,"longitude":86.9524,"temp":22.7,"humidity":85,"rain":0.1,"pressure":997.2,"uv_index":5.4,"wind_gusts":37.4,"aqi":150,"pm10":56.3,"pm2_5":51.8,"mosquito_risk":6,"arthritis_risk":5,"migraine_risk":3,"frizz_risk":1,"updated_at":"2026-03-21T00:25:26.973640+05:30"},{"city":"Pondicherry","state":"Puducherry","latitude":11.9139,"longitude":79.8145,"temp":25.3,"humidity":96,"rain":0.0,"pressure":1009.6,"uv_index":9.1,"wind_gusts":23.0,"aqi":51,"pm10":12.2,"pm2_5":8.8,"mosquito_risk":7,"arthritis_risk":0,"migraine_risk":4,"frizz_risk":1,"updated_at":"2026-03-21T00:25:26.973648+05:30"},{"city":"Port Blair","state":"Andaman and Nicobar Islands","latitude":11.6234,"longitude":92.7265,"temp":28.3,"humidity":76,"rain":0.0,"pressure":1008.4,"uv_index":6.3,"wind_gusts":11.5,"aqi":42,"pm10":15.5,"pm2_5":11.2,"mosquito_risk":7,"arthritis_risk":0,"migraine_risk":4,"frizz_risk":1,"updated_at":"2026-03-21T00:25:26.973656+05:30"},{"city":"Haridwar","state":"Uttarakhand","latitude":29.9457,"longitude":78.1642,"temp":15.6,"humidity":97,"rain":0.0,"pressure":978.5,"uv_index":0.7,"wind_gusts":27.7,"aqi":77,"pm10":23.1,"pm2_5":20.8,"mosquito_risk":3,"arthritis_risk":10,"migraine_risk":3,"frizz_risk":0,"updated_at":"2026-03-21T00:25:26.973664+05:30"},{"city":"Rishikesh","state":"Uttarakhand","latitude":30.0869,"longitude":78.2676,"temp":15.8,"humidity":92,"rain":0.1,"pressure":970.7,"uv_index":0.9,"wind_gusts":27.7,"aqi":66,"pm10":27.4,"pm2_5":22.4,"mosquito_risk":6,"arthritis_risk":10,"migraine_risk":3,"frizz_risk":0,"updated_at":"2026-03-21T00:25:26.973671+05:30"},{"city":"Nainital","state":"Uttarakhand","latitude":29.3919,"longitude":79.4542,"temp":11.3,"humidity":88,"rain":0.0,"pressure":804.0,"uv_index":1.9,"wind_gusts":67.0,"aqi":67,"pm10":21.4,"pm2_5":15.9,"mosquito_risk":3,"arthritis_risk":10,"migraine_risk":3,"frizz_risk":0,"updated_at":"2026-03-21T00:25:26.973679+05:30"},{"city":"Mussoorie","state":"Uttarakhand","latitude":30.4599,"longitude":78.0664,"temp":8.6,"humidity":77,"rain":0.0,"pressure":800.0,"uv_index":0.45,"wind_gusts":46.8,"aqi":63,"pm10":11.0,"pm2_5":11.0,"mosquito_risk":3,"arthritis_risk":5,"migraine_risk":3,"frizz_risk":0,"updated_at":"2026-03-21T00:25:26.973686+05:30"},{"city":"Dharamshala","state":"Himachal Pradesh","latitude":32.219,"longitude":76.3234,"temp":11.8,"humidity":68,"rain":0.0,"pressure":868.3,"uv_index":2.15,"wind_gusts":27.0,"aqi":44,"pm10":11.7,"pm2_5":10.2,"mosquito_risk":3,"arthritis_risk":5,"migraine_risk":3,"frizz_risk":0,"updated_at":"2026-03-21T00:25:26.973693+05:30"},{"city":"Dalhousie","state":"Himachal Pradesh","latitude":32.5387,"longitude":75.971,"temp":8.5,"humidity":83,"rain":0.0,"pressure":801.3,"uv_index":1.7,"wind_gusts":25.9,"aqi":58,"pm10":48.3,"pm2_5":36.9,"mosquito_risk":3,"arthritis_risk":10,"migraine_risk":3,"frizz_risk":0,"updated_at":"2026-03-21T00:25:26.973701+05:30"},{"city":"Patiala","state":"Punjab","latitude":30.3398,"longitude":76.3869,"temp":14.0,"humidity":100,"rain":0.0,"pressure":983.2,"uv_index":2.2,"wind_gusts":17.6,"aqi":102,"pm10":98.0,"pm2_5":75.7,"mosquito_risk":3,"arthritis_risk":10,"migraine_risk":3,"frizz_risk":0,"updated_at":"2026-03-21T00:25:26.973708+05:30"},{"city":"Bhatinda","state":"Punjab","latitude":30.211,"longitude":74.9455,"temp":15.0,"humidity":94,"rain":0.0,"pressure":988.7,"uv_index":5.95,"wind_gusts":27.7,"aqi":118,"pm10":64.7,"pm2_5":53.8,"mosquito_risk":3,"arthritis_risk":10,"migraine_risk":3,"frizz_risk":0,"updated_at":"2026-03-21T00:25:26.973714+05:30"},{"city":"Rohtak","state":"Haryana","latitude":28.8955,"longitude":76.6066,"temp":14.8,"humidity":100,"rain":0.0,"pressure":986.7,"uv_index":3.75,"wind_gusts":22.3,"aqi":128,"pm10":112.0,"pm2_5":95.5,"mosquito_risk":3,"arthritis_risk":10,"migraine_risk":3,"frizz_risk":0,"updated_at":"2026-03-21T00:25:26.973721+05:30"},{"city":"Panipat","state":"Haryana","latitude":29.3909,"longitude":76.9635,"temp":14.0,"humidity":100,"rain":0.0,"pressure":985.2,"uv_index":2.6,"wind_gusts":15.8,"aqi":130,"pm10":107.6,"pm2_5":87.5,"mosquito_risk":3,"arthritis_risk":10,"migraine_risk":3,"frizz_risk":0,"updated_at":"2026-03-21T00:25:26.973728+05:30"},{"city":"Mathura","state":"Uttar Pradesh","latitude":27.4924,"longitude":77.6737,"temp":15.5,"humidity":96,"rain":0.0,"pressure":991.9,"uv_index":5.25,"wind_gusts":22.0,"aqi":109,"pm10":63.6,"pm2_5":54.6,"mosquito_risk":3,"arthritis_risk":10,"migraine_risk":3,"frizz_risk":0,"updated_at":"2026-03-21T00:25:26.973734+05:30"},{"city":"Vrindavan","state":"Uttar Pradesh","latitude":27.5823,"longitude":77.7027,"temp":15.2,"humidity":97,"rain":0.0,"pressure":992.3,"uv_index":5.25,"wind_gusts":22.3,"aqi":109,"pm10":63.6,"pm2_5":54.6,"mosquito_risk":3,"arthritis_risk":10,"migraine_risk":3,"frizz_risk":0,"updated_at":"2026-03-21T00:25:26.973741+05:30"},{"city":"Ayodhya","state":"Uttar Pradesh","latitude":26.7922,"longitude":82.1998,"temp":19.1,"humidity":85,"rain":0.0,"pressure":998.8,"uv_index":6.25,"wind_gusts":34.9,"aqi":126,"pm10":74.7,"pm2_5":58.8,"mosquito_risk":3,"arthritis_risk":10,"migraine_risk":7,"frizz_risk":1,"updated_at":"2026-03-21T00:25:26.973747+05:30"},{"city":"Ratlam","state":"Madhya Pradesh","latitude":23.3315,"longitude":75.0367,"temp":22.1,"humidity":59,"rain":0.0,"pressure":956.4,"uv_index":7.7,"wind_gusts":41.4,"aqi":67,"pm10":27.2,"pm2_5":17.1,"mosquito_risk":0,"arthritis_risk":5,"migraine_risk":7,"frizz_risk":0,"updated_at":"2026-03-21T00:25:26.973753+05:30"},{"city":"Sagar","state":"Madhya Pradesh","latitude":23.8388,"longitude":78.7378,"temp":18.5,"humidity":88,"rain":0.0,"pressure":952.6,"uv_index":7.6,"wind_gusts":38.9,"aqi":65,"pm10":52.0,"pm2_5":27.6,"mosquito_risk":3,"arthritis_risk":10,"migraine_risk":7,"frizz_risk":1,"updated_at":"2026-03-21T00:25:26.973760+05:30"},{"city":"Satna","state":"Madhya Pradesh","latitude":24.6005,"longitude":80.8322,"temp":19.5,"humidity":92,"rain":0.9,"pressure":974.7,"uv_index":4.75,"wind_gusts":50.4,"aqi":64,"pm10":32.4,"pm2_5":21.8,"mosquito_risk":6,"arthritis_risk":10,"migraine_risk":3,"frizz_risk":1,"updated_at":"2026-03-21T00:25:26.973767+05:30"},{"city":"Akola","state":"Maharashtra","latitude":20.7002,"longitude":77.0082,"temp":24.9,"humidity":62,"rain":0.0,"pressure":977.0,"uv_index":8.2,"wind_gusts":29.5,"aqi":69,"pm10":43.0,"pm2_5":20.7,"mosquito_risk":3,"arthritis_risk":5,"migraine_risk":7,"frizz_risk":1,"updated_at":"2026-03-21T00:25:26.973774+05:30"},{"city":"Amravati","state":"Maharashtra","latitude":20.9374,"longitude":77.7796,"temp":24.2,"humidity":56,"rain":0.0,"pressure":968.9,"uv_index":8.15,"wind_gusts":35.6,"aqi":70,"pm10":41.1,"pm2_5":20.7,"mosquito_risk":0,"arthritis_risk":5,"migraine_risk":7,"frizz_risk":0,"updated_at":"2026-03-21T00:25:26.973781+05:30"},{"city":"Latur","state":"Maharashtra","latitude":18.4088,"longitude":76.5604,"temp":23.6,"humidity":46,"rain":0.0,"pressure":939.7,"uv_index":8.6,"wind_gusts":23.8,"aqi":89,"pm10":37.6,"pm2_5":32.4,"mosquito_risk":0,"arthritis_risk":5,"migraine_risk":7,"frizz_risk":0,"updated_at":"2026-03-21T00:25:26.973787+05:30"},{"city":"Nanded","state":"Maharashtra","latitude":19.1383,"longitude":77.3091,"temp":25.6,"humidity":57,"rain":0.0,"pressure":969.4,"uv_index":8.4,"wind_gusts":23.8,"aqi":71,"pm10":41.6,"pm2_5":36.2,"mosquito_risk":4,"arthritis_risk":5,"migraine_risk":7,"frizz_risk":1,"updated_at":"2026-03-21T00:25:26.973794+05:30"},{"city":"Gulbarga","state":"Karnataka","latitude":17.3297,"longitude":76.8343,"temp":27.1,"humidity":42,"rain":0.0,"pressure":959.0,"uv_index":8.7,"wind_gusts":24.5,"aqi":89,"pm10":44.4,"pm2_5":31.4,"mosquito_risk":4,"arthritis_risk":5,"migraine_risk":7,"frizz_risk":0,"updated_at":"2026-03-21T00:25:26.973800+05:30"},{"city":"Bidar","state":"Karnataka","latitude":17.9104,"longitude":77.5199,"temp":25.6,"humidity":49,"rain":0.0,"pressure":935.7,"uv_index":8.65,"wind_gusts":26.3,"aqi":83,"pm10":43.9,"pm2_5":33.9,"mosquito_risk":4,"arthritis_risk":5,"migraine_risk":7,"frizz_risk":0,"updated_at":"2026-03-21T00:25:26.973807+05:30"},{"city":"Hospet","state":"Karnataka","latitude":15.2689,"longitude":76.3909,"temp":26.5,"humidity":56,"rain":0.0,"pressure":956.2,"uv_index":8.95,"wind_gusts":11.5,"aqi":106,"pm10":41.2,"pm2_5":34.0,"mosquito_risk":4,"arthritis_risk":5,"migraine_risk":7,"frizz_risk":1,"updated_at":"2026-03-21T00:25:26.973813+05:30"},{"city":"Tirupur","state":"Tamil Nadu","latitude":11.1085,"longitude":77.3411,"temp":26.1,"humidity":71,"rain":0.0,"pressure":976.4,"uv_index":9.35,"wind_gusts":28.1,"aqi":75,"pm10":37.1,"pm2_5":33.6,"mosquito_risk":7,"arthritis_risk":5,"migraine_risk":7,"frizz_risk":1,"updated_at":"2026-03-21T00:25:26.973819+05:30"},{"city":"Alappuzha","state":"Kerala","latitude":9.4981,"longitude":76.3388,"temp":28.8,"humidity":74,"rain":0.0,"pressure":1009.7,"uv_index":9.1,"wind_gusts":32.8,"aqi":68,"pm10":41.6,"pm2_5":34.9,"mosquito_risk":7,"arthritis_risk":0,"migraine_risk":4,"frizz_risk":1,"updated_at":"2026-03-21T00:25:26.973825+05:30"},{"city":"Munnar","state":"Kerala","latitude":10.0889,"longitude":77.0595,"temp":19.1,"humidity":85,"rain":0.0,"pressure":856.8,"uv_index":9.6,"wind_gusts":37.4,"aqi":54,"pm10":28.1,"pm2_5":24.3,"mosquito_risk":3,"arthritis_risk":10,"migraine_risk":7,"frizz_risk":1,"updated_at":"2026-03-21T00:25:26.973832+05:30"},{"city":"Silchar","state":"Assam","latitude":24.8333,"longitude":92.7789,"temp":22.3,"humidity":83,"rain":0.0,"pressure":1008.9,"uv_index":7.55,"wind_gusts":19.1,"aqi":104,"pm10":55.5,"pm2_5":48.5,"mosquito_risk":3,"arthritis_risk":0,"migraine_risk":4,"frizz_risk":1,"updated_at":"2026-03-21T00:25:26.973838+05:30"},{"city":"Dibrugarh","state":"Assam","latitude":27.4728,"longitude":94.912,"temp":21.8,"humidity":86,"rain":0.0,"pressure":1001.2,"uv_index":7.75,"wind_gusts":14.0,"aqi":90,"pm10":26.2,"pm2_5":22.5,"mosquito_risk":3,"arthritis_risk":5,"migraine_risk":4,"frizz_risk":1,"updated_at":"2026-03-21T00:25:26.973845+05:30"}]