[{"city":"Delhi","state":"Delhi","latitude":28.6139,"longitude":77.209,"temp":34.8,"humidity":28,"rain":0.0,"pressure":977.1,"uv_index":7.55,"wind_gusts":29.9,"aqi":314,"pm10":299.9,"pm2_5":70.1,"no2":15.3,"co":493.0,"o3":202.0,"so2":27.8,"mosquito_risk":0,"arthritis_risk":5,"migraine_risk":7,"frizz_risk":0,"updated_at":"2026-05-01T18:54:50.423050+05:30"},{"city":"Mumbai","state":"Maharashtra","latitude":19.076,"longitude":72.8777,"temp":29.7,"humidity":73,"rain":0.0,"pressure":1006.5,"uv_index":7.9,"wind_gusts":46.4,"aqi":66,"pm10":49.6,"pm2_5":18.7,"no2":8.2,"co":229.0,"o3":74.0,"so2":15.3,"mosquito_risk":7,"arthritis_risk":5,"migraine_risk":4,"frizz_risk":1,"updated_at":"2026-05-01T18:54:50.423095+05:30"},{"city":"Bangalore","state":"Karnataka","latitude":12.9716,"longitude":77.5946,"temp":28.5,"humidity":61,"rain":0.0,"pressure":910.8,"uv_index":9.55,"wind_gusts":35.6,"aqi":179,"pm10":43.9,"pm2_5":37.7,"no2":32.3,"co":1240.0,"o3":135.0,"so2":11.2,"mosquito_risk":7,"arthritis_risk":5,"migraine_risk":7,"frizz_risk":1,"updated_at":"2026-05-01T18:54:50.423112+05:30"},{"city":"Hyderabad","state":"Telangana","latitude":17.385,"longitude":78.4867,"temp":36.7,"humidity":20,"rain":0.0,"pressure":950.0,"uv_index":9.25,"wind_gusts":36.7,"aqi":92,"pm10":46.4,"pm2_5":21.4,"no2":13.8,"co":412.0,"o3":106.0,"so2":6.3,"mosquito_risk":0,"arthritis_risk":5,"migraine_risk":10,"frizz_risk":0,"updated_at":"2026-05-01T18:54:50.423123+05:30"},{"city":"Chennai","state":"Tamil Nadu","latitude":13.0827,"longitude":80.2707,"temp":31.5,"humidity":73,"rain":0.0,"pressure":1003.8,"uv_index":9.25,"wind_gusts":49.0,"aqi":158,"pm10":31.0,"pm2_5":26.1,"no2":7.1,"co":216.0,"o3":161.0,"so2":10.1,"mosquito_risk":3,"arthritis_risk":5,"migraine_risk":4,"frizz_risk":1,"updated_at":"2026-05-01T18:54:50.423137+05:30"},{"city":"Kolkata","state":"West Bengal","latitude":22.5726,"longitude":88.3639,"temp":27.1,"humidity":78,"rain":0.0,"pressure":1003.5,"uv_index":7.9,"wind_gusts":25.2,"aqi":73,"pm10":57.7,"pm2_5":49.6,"no2":21.3,"co":616.0,"o3":97.0,"so2":17.6,"mosquito_risk":7,"arthritis_risk":5,"migraine_risk":4,"frizz_risk":1,"updated_at":"2026-05-01T18:54:50.423146+05:30"},{"city":"Pune","state":"Maharashtra","latitude":18.5204,"longitude":73.8567,"temp":29.3,"humidity":51,"rain":0.0,"pressure":946.6,"uv_index":8.5,"wind_gusts":49.3,"aqi":55,"pm10":40.0,"pm2_5":12.7,"no2":3.9,"co":192.0,"o3":85.0,"so2":3.4,"mosquito_risk":4,"arthritis_risk":5,"migraine_risk":7,"frizz_risk":1,"updated_at":"2026-05-01T18:54:50.423154+05:30"},{"city":"Ahmedabad","state":"Gujarat","latitude":23.0225,"longitude":72.5714,"temp":35.7,"humidity":51,"rain":0.0,"pressure":995.9,"uv_index":8.1,"wind_gusts":42.5,"aqi":63,"pm10":51.3,"pm2_5":16.1,"no2":4.0,"co":199.0,"o3":103.0,"so2":3.8,"mosquito_risk":0,"arthritis_risk":5,"migraine_risk":10,"frizz_risk":1,"updated_at":"2026-05-01T18:54:50.423165+05:30"},{"city":"Jaipur","state":"Rajasthan","latitude":26.9124,"longitude":75.7873,"temp":37.1,"humidity":15,"rain":0.0,"pressure":953.7,"uv_index":8.1,"wind_gusts":42.5,"aqi":171,"pm10":348.3,"pm2_5":52.3,"no2":6.8,"co":187.0,"o3":117.0,"so2":3.3,"mosquito_risk":0,"arthritis_risk":5,"migraine_risk":10,"frizz_risk":0,"updated_at":"2026-05-01T18:54:50.423173+05:30"},{"city":"Lucknow","state":"Uttar Pradesh","latitude":26.8467,"longitude":80.9462,"temp":30.4,"humidity":50,"rain":0.0,"pressure":989.3,"uv_index":8.0,"wind_gusts":29.5,"aqi":158,"pm10":90.6,"pm2_5":38.1,"no2":7.5,"co":323.0,"o3":148.0,"so2":9.9,"mosquito_risk":0,"arthritis_risk":5,"migraine_risk":7,"frizz_risk":1,"updated_at":"2026-05-01T18:54:50.423182+05:30"},{"city":"Kanpur","state":"Uttar Pradesh","latitude":26.4499,"longitude":80.3319,"temp":33.0,"humidity":35,"rain":0.0,"pressure":986.7,"uv_index":8.05,"wind_gusts":31.0,"aqi":162,"pm10":179.7,"pm2_5":45.2,"no2":6.5,"co":287.0,"o3":151.0,"so2":7.8,"mosquito_risk":0,"arthritis_risk":5,"migraine_risk":7,"frizz_risk":0,"updated_at":"2026-05-01T18:54:50.423189+05:30"},{"city":"Chandigarh","state":"Chandigarh","latitude":30.7333,"longitude":76.7794,"temp":29.9,"humidity":39,"rain":0.0,"pressure":963.8,"uv_index":7.55,"wind_gusts":37.4,"aqi":176,"pm10":68.9,"pm2_5":31.5,"no2":6.8,"co":368.0,"o3":170.0,"so2":21.1,"mosquito_risk":4,"arthritis_risk":5,"migraine_risk":7,"frizz_risk":0,"updated_at":"2026-05-01T18:54:50.423197+05:30"},{"city":"Srinagar","state":"Jammu and Kashmir","latitude":34.0837,"longitude":74.7973,"temp":18.2,"humidity":77,"rain":0.0,"pressure":838.5,"uv_index":8.75,"wind_gusts":25.9,"aqi":110,"pm10":18.0,"pm2_5":13.4,"no2":12.3,"co":739.0,"o3":112.0,"so2":3.9,"mosquito_risk":3,"arthritis_risk":5,"migraine_risk":7,"frizz_risk":0,"updated_at":"2026-05-01T18:54:50.423205+05:30"},{"city":"Jammu","state":"Jammu and Kashmir","latitude":32.7266,"longitude":74.857,"temp":28.8,"humidity":47,"rain":0.0,"pressure":967.7,"uv_index":8.35,"wind_gusts":32.0,"aqi":133,"pm10":18.5,"pm2_5":12.7,"no2":8.5,"co":342.0,"o3":134.0,"so2":2.6,"mosquito_risk":4,"arthritis_risk":5,"migraine_risk":7,"frizz_risk":1,"updated_at":"2026-05-01T18:54:50.423213+05:30"},{"city":"Amritsar","state":"Punjab","latitude":31.634,"longitude":74.8723,"temp":32.7,"humidity":30,"rain":0.0,"pressure":975.3,"uv_index":8.25,"wind_gusts":31.7,"aqi":172,"pm10":30.4,"pm2_5":16.4,"no2":7.9,"co":379.0,"o3":168.0,"so2":7.5,"mosquito_risk":0,"arthritis_risk":5,"migraine_risk":7,"frizz_risk":0,"updated_at":"2026-05-01T18:54:50.423220+05:30"},{"city":"Ludhiana","state":"Punjab","latitude":30.901,"longitude":75.8573,"temp":32.9,"humidity":30,"rain":0.0,"pressure":973.4,"uv_index":7.85,"wind_gusts":33.5,"aqi":165,"pm10":131.8,"pm2_5":42.7,"no2":9.4,"co":323.0,"o3":140.0,"so2":9.0,"mosquito_risk":0,"arthritis_risk":5,"migraine_risk":7,"frizz_risk":0,"updated_at":"2026-05-01T18:54:50.423227+05:30"},{"city":"Jalandhar","state":"Punjab","latitude":31.326,"longitude":75.5762,"temp":31.6,"humidity":47,"rain":0.0,"pressure":974.4,"uv_index":8.0,"wind_gusts":33.8,"aqi":155,"pm10":154.6,"pm2_5":46.9,"no2":8.7,"co":365.0,"o3":147.0,"so2":8.9,"mosquito_risk":0,"arthritis_risk":5,"migraine_risk":7,"frizz_risk":1,"updated_at":"2026-05-01T18:54:50.423234+05:30"},{"city":"Dehradun","state":"Uttarakhand","latitude":30.6284,"longitude":78.0322,"temp":15.7,"humidity":83,"rain":0.0,"pressure":826.5,"uv_index":7.95,"wind_gusts":34.2,"aqi":127,"pm10":74.7,"pm2_5":42.6,"no2":10.6,"co":285.0,"o3":139.0,"so2":3.1,"mosquito_risk":3,"arthritis_risk":10,"migraine_risk":7,"frizz_risk":0,"updated_at":"2026-05-01T18:54:50.423244+05:30"},{"city":"Shimla","state":"Himachal Pradesh","latitude":31.1048,"longitude":77.1734,"temp":14.5,"humidity":58,"rain":0.0,"pressure":781.1,"uv_index":8.1,"wind_gusts":47.2,"aqi":151,"pm10":46.0,"pm2_5":23.7,"no2":5.1,"co":229.0,"o3":158.0,"so2":11.6,"mosquito_risk":0,"arthritis_risk":5,"migraine_risk":7,"frizz_risk":0,"updated_at":"2026-05-01T18:54:50.423251+05:30"},{"city":"Manali","state":"Himachal Pradesh","latitude":32.2396,"longitude":77.1887,"temp":11.4,"humidity":90,"rain":0.1,"pressure":813.7,"uv_index":10.1,"wind_gusts":42.5,"aqi":129,"pm10":7.5,"pm2_5":6.1,"no2":11.1,"co":186.0,"o3":141.0,"so2":0.6,"mosquito_risk":6,"arthritis_risk":10,"migraine_risk":7,"frizz_risk":0,"updated_at":"2026-05-01T18:54:50.423259+05:30"},{"city":"Gurgaon","state":"Haryana","latitude":28.4595,"longitude":77.0266,"temp":33.2,"humidity":34,"rain":0.0,"pressure":975.6,"uv_index":7.7,"wind_gusts":31.7,"aqi":1309,"pm10":765.5,"pm2_5":121.1,"no2":17.6,"co":338.0,"o3":181.0,"so2":22.8,"mosquito_risk":0,"arthritis_risk":5,"migraine_risk":7,"frizz_risk":0,"updated_at":"2026-05-01T18:54:50.423266+05:30"},{"city":"Noida","state":"Uttar Pradesh","latitude":28.5355,"longitude":77.391,"temp":32.0,"humidity":44,"rain":0.0,"pressure":978.5,"uv_index":7.6,"wind_gusts":29.2,"aqi":1309,"pm10":765.5,"pm2_5":121.1,"no2":17.6,"co":638.0,"o3":181.0,"so2":22.8,"mosquito_risk":0,"arthritis_risk":5,"migraine_risk":7,"frizz_risk":1,"updated_at":"2026-05-01T18:54:50.423273+05:30"},{"city":"Ghaziabad","state":"Uttar Pradesh","latitude":28.6692,"longitude":77.4538,"temp":32.0,"humidity":42,"rain":0.0,"pressure":976.9,"uv_index":7.55,"wind_gusts":32.8,"aqi":185,"pm10":241.2,"pm2_5":55.2,"no2":7.0,"co":359.0,"o3":170.0,"so2":10.7,"mosquito_risk":0,"arthritis_risk":5,"migraine_risk":7,"frizz_risk":1,"updated_at":"2026-05-01T18:54:50.423280+05:30"},{"city":"Faridabad","state":"Haryana","latitude":28.4089,"longitude":77.3178,"temp":33.8,"humidity":29,"rain":0.0,"pressure":977.7,"uv_index":7.65,"wind_gusts":29.5,"aqi":1309,"pm10":765.5,"pm2_5":121.1,"no2":17.6,"co":466.0,"o3":181.0,"so2":22.8,"mosquito_risk":0,"arthritis_risk":5,"migraine_risk":7,"frizz_risk":0,"updated_at":"2026-05-01T18:54:50.423289+05:30"},{"city":"Meerut","state":"Uttar Pradesh","latitude":28.9845,"longitude":77.7064,"temp":30.8,"humidity":45,"rain":0.0,"pressure":976.3,"uv_index":7.5,"wind_gusts":34.9,"aqi":185,"pm10":241.2,"pm2_5":55.2,"no2":7.0,"co":339.0,"o3":170.0,"so2":10.7,"mosquito_risk":0,"arthritis_risk":5,"migraine_risk":7,"frizz_risk":1,"updated_at":"2026-05-01T18:54:50.423296+05:30"},{"city":"Agra","state":"Uttar Pradesh","latitude":27.1767,"longitude":78.0081,"temp":34.2,"humidity":33,"rain":0.0,"pressure":981.2,"uv_index":7.9,"wind_gusts":27.7,"aqi":561,"pm10":339.0,"pm2_5":61.2,"no2":7.9,"co":326.0,"o3":133.0,"so2":9.6,"mosquito_risk":0,"arthritis_risk":5,"migraine_risk":7,"frizz_risk":0,"updated_at":"2026-05-01T18:54:50.423303+05:30"},{"city":"Varanasi","state":"Uttar Pradesh","latitude":25.3176,"longitude":82.9739,"temp":30.2,"humidity":51,"rain":0.0,"pressure":993.6,"uv_index":8.55,"wind_gusts":25.9,"aqi":172,"pm10":76.8,"pm2_5":37.7,"no2":8.5,"co":389.0,"o3":154.0,"so2":13.6,"mosquito_risk":0,"arthritis_risk":5,"migraine_risk":7,"frizz_risk":1,"updated_at":"2026-05-01T18:54:50.423310+05:30"},{"city":"Prayagraj","state":"Uttar Pradesh","latitude":25.4358,"longitude":81.8463,"temp":31.3,"humidity":41,"rain":0.0,"pressure":991.4,"uv_index":8.4,"wind_gusts":25.6,"aqi":181,"pm10":83.1,"pm2_5":36.2,"no2":11.6,"co":292.0,"o3":158.0,"so2":12.5,"mosquito_risk":0,"arthritis_risk":5,"migraine_risk":7,"frizz_risk":1,"updated_at":"2026-05-01T18:54:50.423320+05:30"},{"city":"Gorakhpur","state":"Uttar Pradesh","latitude":26.7606,"longitude":83.3732,"temp":24.1,"humidity":75,"rain":0.0,"pressure":994.1,"uv_index":8.35,"wind_gusts":37.1,"aqi":137,"pm10":63.8,"pm2_5":28.8,"no2":4.7,"co":328.0,"o3":149.0,"so2":4.7,"mosquito_risk":3,"arthritis_risk":5,"migraine_risk":7,"frizz_risk":1,"updated_at":"2026-05-01T18:54:50.423326+05:30"},{"city":"Bareilly","state":"Uttar Pradesh","latitude":28.367,"longitude":79.4304,"temp":30.2,"humidity":50,"rain":0.0,"pressure":982.2,"uv_index":7.85,"wind_gusts":34.6,"aqi":155,"pm10":265.4,"pm2_5":56.7,"no2":8.5,"co":291.0,"o3":153.0,"so2":12.5,"mosquito_risk":0,"arthritis_risk":5,"migraine_risk":7,"frizz_risk":1,"updated_at":"2026-05-01T18:54:50.423333+05:30"},{"city":"Aligarh","state":"Uttar Pradesh","latitude":27.8974,"longitude":78.088,"temp":32.5,"humidity":38,"rain":0.0,"pressure":979.5,"uv_index":7.75,"wind_gusts":28.8,"aqi":670,"pm10":540.2,"pm2_5":87.3,"no2":6.7,"co":279.0,"o3":161.0,"so2":15.2,"mosquito_risk":0,"arthritis_risk":5,"migraine_risk":7,"frizz_risk":1,"updated_at":"2026-05-01T18:54:50.423340+05:30"},{"city":"Moradabad","state":"Uttar Pradesh","latitude":28.8386,"longitude":78.7733,"temp":29.8,"humidity":48,"rain":0.0,"pressure":978.8,"uv_index":7.7,"wind_gusts":35.6,"aqi":162,"pm10":115.5,"pm2_5":46.2,"no2":9.8,"co":355.0,"o3":156.0,"so2":19.6,"mosquito_risk":4,"arthritis_risk":5,"migraine_risk":7,"frizz_risk":1,"updated_at":"2026-05-01T18:54:50.423346+05:30"},{"city":"Saharanpur","state":"Uttar Pradesh","latitude":29.9637,"longitude":77.546,"temp":28.8,"humidity":60,"rain":0.0,"pressure":970.9,"uv_index":7.3,"wind_gusts":36.4,"aqi":154,"pm10":140.6,"pm2_5":45.6,"no2":17.0,"co":290.0,"o3":139.0,"so2":12.1,"mosquito_risk":4,"arthritis_risk":5,"migraine_risk":7,"frizz_risk":1,"updated_at":"2026-05-01T18:54:50.423352+05:30"},{"city":"Jhansi","state":"Uttar Pradesh","latitude":25.4484,"longitude":78.5685,"temp":34.8,"humidity":25,"rain":0.0,"pressure":971.8,"uv_index":8.35,"wind_gusts":28.4,"aqi":103,"pm10":63.3,"pm2_5":21.5,"no2":3.8,"co":162.0,"o3":119.0,"so2":8.4,"mosquito_risk":0,"arthritis_risk":5,"migraine_risk":7,"frizz_risk":0,"updated_at":"2026-05-01T18:54:53.670590+05:30"},{"city":"Surat","state":"Gujarat","latitude":21.1702,"longitude":72.8311,"temp":29.9,"humidity":78,"rain":0.0,"pressure":1002.8,"uv_index":7.7,"wind_gusts":55.4,"aqi":63,"pm10":32.9,"pm2_5":16.8,"no2":14.8,"co":216.0,"o3":62.0,"so2":29.1,"mosquito_risk":7,"arthritis_risk":5,"migraine_risk":4,"frizz_risk":1,"updated_at":"2026-05-01T18:54:53.670626+05:30"},{"city":"Vadodara","state":"Gujarat","latitude":22.3072,"longitude":73.1812,"temp":32.8,"humidity":57,"rain":0.0,"pressure":999.3,"uv_index":8.05,"wind_gusts":52.6,"aqi":60,"pm10":27.3,"pm2_5":14.5,"no2":6.8,"co":226.0,"o3":101.0,"so2":10.2,"mosquito_risk":0,"arthritis_risk":5,"migraine_risk":7,"frizz_risk":1,"updated_at":"2026-05-01T18:54:53.670637+05:30"},{"city":"Rajkot","state":"Gujarat","latitude":22.3039,"longitude":70.8022,"temp":37.3,"humidity":28,"rain":0.0,"pressure":988.9,"uv_index":7.7,"wind_gusts":54.0,"aqi":51,"pm10":33.6,"pm2_5":13.1,"no2":2.9,"co":158.0,"o3":94.0,"so2":5.7,"mosquito_risk":0,"arthritis_risk":5,"migraine_risk":10,"frizz_risk":0,"updated_at":"2026-05-01T18:54:53.670645+05:30"},{"city":"Thane","state":"Maharashtra","latitude":19.2183,"longitude":72.9781,"temp":30.3,"humidity":68,"rain":0.0,"pressure":1005.8,"uv_index":7.9,"wind_gusts":42.1,"aqi":66,"pm10":49.6,"pm2_5":18.7,"no2":8.2,"co":232.0,"o3":74.0,"so2":15.3,"mosquito_risk":3,"arthritis_risk":5,"migraine_risk":4,"frizz_risk":1,"updated_at":"2026-05-01T18:54:53.670653+05:30"},{"city":"Nagpur","state":"Maharashtra","latitude":21.1458,"longitude":79.0882,"temp":38.0,"humidity":19,"rain":0.0,"pressure":968.3,"uv_index":8.9,"wind_gusts":36.7,"aqi":144,"pm10":58.9,"pm2_5":23.5,"no2":10.2,"co":214.0,"o3":119.0,"so2":14.9,"mosquito_risk":0,"arthritis_risk":5,"migraine_risk":10,"frizz_risk":0,"updated_at":"2026-05-01T18:54:53.670660+05:30"},{"city":"Nashik","state":"Maharashtra","latitude":19.9975,"longitude":73.7898,"temp":29.5,"humidity":52,"rain":0.0,"pressure":943.3,"uv_index":8.2,"wind_gusts":51.1,"aqi":60,"pm10":38.5,"pm2_5":13.3,"no2":2.7,"co":169.0,"o3":87.0,"so2":3.6,"mosquito_risk":4,"arthritis_risk":5,"migraine_risk":7,"frizz_risk":1,"updated_at":"2026-05-01T18:54:53.670668+05:30"},{"city":"Aurangabad","state":"Maharashtra","latitude":19.8762,"longitude":75.3433,"temp":35.2,"humidity":24,"rain":0.0,"pressure":940.9,"uv_index":9.05,"wind_gusts":46.1,"aqi":66,"pm10":30.7,"pm2_5":11.5,"no2":2.2,"co":167.0,"o3":100.0,"so2":2.9,"mosquito_risk":0,"arthritis_risk":5,"migraine_risk":10,"frizz_risk":0,"updated_at":"2026-05-01T18:54:53.670676+05:30"},{"city":"Solapur","state":"Maharashtra","latitude":17.6599,"longitude":75.9064,"temp":36.5,"humidity":19,"rain":0.0,"pressure":953.7,"uv_index":9.05,"wind_gusts":47.5,"aqi":53,"pm10":22.0,"pm2_5":9.0,"no2":3.2,"co":168.0,"o3":104.0,"so2":1.9,"mosquito_risk":0,"arthritis_risk":5,"migraine_risk":10,"frizz_risk":0,"updated_at":"2026-05-01T18:54:53.670683+05:30"},{"city":"Kolhapur","state":"Maharashtra","latitude":16.705,"longitude":74.2433,"temp":29.3,"humidity":45,"rain":0.0,"pressure":947.0,"uv_index":8.95,"wind_gusts":46.8,"aqi":59,"pm10":30.7,"pm2_5":13.3,"no2":4.7,"co":179.0,"o3":82.0,"so2":1.7,"mosquito_risk":4,"arthritis_risk":5,"migraine_risk":7,"frizz_risk":1,"updated_at":"2026-05-01T18:54:53.670690+05:30"},{"city":"Goa","state":"Goa","latitude":15.2993,"longitude":74.124,"temp":30.3,"humidity":67,"rain":0.0,"pressure":996.7,"uv_index":8.9,"wind_gusts":36.4,"aqi":63,"pm10":24.3,"pm2_5":14.0,"no2":3.0,"co":164.0,"o3":78.0,"so2":1.3,"mosquito_risk":3,"arthritis_risk":5,"migraine_risk":7,"frizz_risk":1,"updated_at":"2026-05-01T18:54:53.670697+05:30"},{"city":"Jodhpur","state":"Rajasthan","latitude":26.2389,"longitude":73.0243,"temp":36.1,"humidity":26,"rain":0.0,"pressure":976.9,"uv_index":8.3,"wind_gusts":52.6,"aqi":139,"pm10":263.6,"pm2_5":36.2,"no2":3.0,"co":163.0,"o3":102.0,"so2":2.1,"mosquito_risk":0,"arthritis_risk":5,"migraine_risk":10,"frizz_risk":0,"updated_at":"2026-05-01T18:54:53.670704+05:30"},{"city":"Udaipur","state":"Rajasthan","latitude":24.5854,"longitude":73.7125,"temp":34.8,"humidity":24,"rain":0.0,"pressure":942.2,"uv_index":8.75,"wind_gusts":45.7,"aqi":58,"pm10":47.1,"pm2_5":14.0,"no2":1.2,"co":154.0,"o3":113.0,"so2":2.4,"mosquito_risk":0,"arthritis_risk":5,"migraine_risk":7,"frizz_risk":0,"updated_at":"2026-05-01T18:54:53.670711+05:30"},{"city":"Kota","state":"Rajasthan","latitude":25.2138,"longitude":75.8648,"temp":35.8,"humidity":20,"rain":0.0,"pressure":971.5,"uv_index":8.3,"wind_gusts":38.2,"aqi":87,"pm10":38.1,"pm2_5":14.1,"no2":5.5,"co":185.0,"o3":112.0,"so2":3.1,"mosquito_risk":0,"arthritis_risk":5,"migraine_risk":10,"frizz_risk":0,"updated_at":"2026-05-01T18:54:53.670717+05:30"},{"city":"Bikaner","state":"Rajasthan","latitude":28.0229,"longitude":73.3119,"temp":38.8,"humidity":13,"rain":0.0,"pressure":974.2,"uv_index":8.25,"wind_gusts":39.6,"aqi":89,"pm10":78.0,"pm2_5":18.5,"no2":1.5,"co":210.0,"o3":110.0,"so2":3.8,"mosquito_risk":0,"arthritis_risk":5,"migraine_risk":10,"frizz_risk":0,"updated_at":"2026-05-01T18:54:53.670725+05:30"},{"city":"Ajmer","state":"Rajasthan","latitude":26.4499,"longitude":74.6399,"temp":36.5,"humidity":16,"rain":0.0,"pressure":949.2,"uv_index":8.25,"wind_gusts":51.5,"aqi":79,"pm10":61.2,"pm2_5":15.5,"no2":3.2,"co":154.0,"o3":111.0,"so2":2.3,"mosquito_risk":0,"arthritis_risk":5,"migraine_risk":10,"frizz_risk":0,"updated_at":"2026-05-01T18:54:53.670732+05:30"},{"city":"Gwalior","state":"Madhya Pradesh","latitude":26.2183,"longitude":78.1828,"temp":35.0,"humidity":28,"rain":0.0,"pressure":977.1,"uv_index":8.15,"wind_gusts":33.1,"aqi":104,"pm10":84.1,"pm2_5":26.0,"no2":3.7,"co":237.0,"o3":121.0,"so2":5.4,"mosquito_risk":0,"arthritis_risk":5,"migraine_risk":7,"frizz_risk":0,"updated_at":"2026-05-01T18:54:53.670739+05:30"},{"city":"Indore","state":"Madhya Pradesh","latitude":22.7196,"longitude":75.8577,"temp":36.0,"humidity":18,"rain":0.0,"pressure":944.0,"uv_index":8.65,"wind_gusts":41.0,"aqi":67,"pm10":44.8,"pm2_5":16.3,"no2":4.1,"co":212.0,"o3":112.0,"so2":4.2,"mosquito_risk":0,"arthritis_risk":5,"migraine_risk":10,"frizz_risk":0,"updated_at":"2026-05-01T18:54:53.670746+05:30"},{"city":"Bhopal","state":"Madhya Pradesh","latitude":23.2599,"longitude":77.4126,"temp":36.8,"humidity":16,"rain":0.0,"pressure":948.8,"uv_index":8.65,"wind_gusts":39.2,"aqi":72,"pm10":94.1,"pm2_5":22.4,"no2":2.6,"co":197.0,"o3":106.0,"so2":3.3,"mosquito_risk":0,"arthritis_risk":5,"migraine_risk":10,"frizz_risk":0,"updated_at":"2026-05-01T18:54:53.670753+05:30"},{"city":"Jabalpur","state":"Madhya Pradesh","latitude":23.1815,"longitude":79.9864,"temp":35.2,"humidity":17,"rain":0.0,"pressure":956.6,"uv_index":8.8,"wind_gusts":38.2,"aqi":98,"pm10":88.5,"pm2_5":29.0,"no2":6.6,"co":164.0,"o3":114.0,"so2":4.4,"mosquito_risk":0,"arthritis_risk":5,"migraine_risk":10,"frizz_risk":0,"updated_at":"2026-05-01T18:54:53.670760+05:30"},{"city":"Ujjain","state":"Madhya Pradesh","latitude":23.1765,"longitude":75.7885,"temp":36.3,"humidity":17,"rain":0.0,"pressure":949.3,"uv_index":8.55,"wind_gusts":40.0,"aqi":63,"pm10":41.4,"pm2_5":15.8,"no2":2.2,"co":172.0,"o3":113.0,"so2":3.3,"mosquito_risk":0,"arthritis_risk":5,"migraine_risk":10,"frizz_risk":0,"updated_at":"2026-05-01T18:54:53.670767+05:30"},{"city":"Visakhapatnam","state":"Andhra Pradesh","latitude":17.6868,"longitude":83.2185,"temp":29.1,"humidity":85,"rain":0.0,"pressure":1001.0,"uv_index":9.15,"wind_gusts":51.8,"aqi":53,"pm10":22.5,"pm2_5":17.8,"no2":17.3,"co":282.0,"o3":85.0,"so2":8.3,"mosquito_risk":7,"arthritis_risk":5,"migraine_risk":4,"frizz_risk":1,"updated_at":"2026-05-01T18:54:53.670774+05:30"},{"city":"Vijayawada","state":"Andhra Pradesh","latitude":16.5062,"longitude":80.648,"temp":35.8,"humidity":29,"rain":0.0,"pressure":997.4,"uv_index":9.2,"wind_gusts":39.6,"aqi":141,"pm10":39.6,"pm2_5":35.5,"no2":7.3,"co":262.0,"o3":153.0,"so2":7.5,"mosquito_risk":0,"arthritis_risk":5,"migraine_risk":10,"frizz_risk":0,"updated_at":"2026-05-01T18:54:53.670781+05:30"},{"city":"Guntur","state":"Andhra Pradesh","latitude":16.3067,"longitude":80.4365,"temp":36.3,"humidity":24,"rain":0.0,"pressure":998.8,"uv_index":9.2,"wind_gusts":40.0,"aqi":149,"pm10":43.9,"pm2_5":36.1,"no2":8.9,"co":272.0,"o3":142.0,"so2":6.0,"mosquito_risk":0,"arthritis_risk":5,"migraine_risk":10,"frizz_risk":0,"updated_at":"2026-05-01T18:54:53.670787+05:30"},{"city":"Nellore","state":"Andhra Pradesh","latitude":14.4426,"longitude":79.9865,"temp":32.7,"humidity":67,"rain":0.0,"pressure":1001.5,"uv_index":9.25,"wind_gusts":49.0,"aqi":177,"pm10":31.7,"pm2_5":27.0,"no2":3.6,"co":231.0,"o3":169.0,"so2":6.3,"mosquito_risk":3,"arthritis_risk":5,"migraine_risk":4,"frizz_risk":1,"updated_at":"2026-05-01T18:54:53.670795+05:30"},{"city":"Kurnool","state":"Andhra Pradesh","latitude":15.8281,"longitude":78.0373,"temp":36.7,"humidity":19,"rain":0.0,"pressure":973.2,"uv_index":9.2,"wind_gusts":40.0,"aqi":110,"pm10":39.9,"pm2_5":16.9,"no2":6.5,"co":214.0,"o3":129.0,"so2":5.7,"mosquito_risk":0,"arthritis_risk":5,"migraine_risk":10,"frizz_risk":0,"updated_at":"2026-05-01T18:54:53.670803+05:30"},{"city":"Kakinada","state":"Andhra Pradesh","latitude":16.9891,"longitude":82.2475,"temp":30.6,"humidity":79,"rain":0.0,"pressure":1003.8,"uv_index":9.15,"wind_gusts":45.7,"aqi":52,"pm10":20.8,"pm2_5":15.2,"no2":2.5,"co":225.0,"o3":104.0,"so2":2.2,"mosquito_risk":3,"arthritis_risk":5,"migraine_risk":4,"frizz_risk":1,"updated_at":"2026-05-01T18:54:53.670810+05:30"},{"city":"Tirupati","state":"Andhra Pradesh","latitude":13.6288,"longitude":79.4192,"temp":32.8,"humidity":42,"rain":0.0,"pressure":987.6,"uv_index":9.3,"wind_gusts":42.8,"aqi":164,"pm10":46.4,"pm2_5":41.1,"no2":10.0,"co":325.0,"o3":151.0,"so2":5.0,"mosquito_risk":0,"arthritis_risk":5,"migraine_risk":7,"frizz_risk":1,"updated_at":"2026-05-01T18:54:53.670816+05:30"},{"city":"Warangal","state":"Telangana","latitude":17.9689,"longitude":79.5941,"temp":34.9,"humidity":23,"rain":0.0,"pressure":974.5,"uv_index":9.15,"wind_gusts":41.0,"aqi":113,"pm10":49.1,"pm2_5":26.0,"no2":13.6,"co":238.0,"o3":107.0,"so2":6.3,"mosquito_risk":0,"arthritis_risk":5,"migraine_risk":7,"frizz_risk":0,"updated_at":"2026-05-01T18:54:53.670823+05:30"},{"city":"Nizamabad","state":"Telangana","latitude":18.6725,"longitude":78.0941,"temp":35.1,"humidity":23,"rain":0.0,"pressure":960.6,"uv_index":9.1,"wind_gusts":33.5,"aqi":87,"pm10":37.7,"pm2_5":17.9,"no2":6.0,"co":206.0,"o3":111.0,"so2":3.1,"mosquito_risk":0,"arthritis_risk":5,"migraine_risk":10,"frizz_risk":0,"updated_at":"2026-05-01T18:54:53.670829+05:30"},{"city":"Mysore","state":"Karnataka","latitude":12.2958,"longitude":76.6396,"temp":26.4,"humidity":64,"rain":0.0,"pressure":928.0,"uv_index":9.35,"wind_gusts":52.9,"aqi":156,"pm10":34.6,"pm2_5":28.0,"no2":7.7,"co":378.0,"o3":154.0,"so2":3.7,"mosquito_risk":7,"arthritis_risk":5,"migraine_risk":7,"frizz_risk":1,"updated_at":"2026-05-01T18:54:53.670835+05:30"},{"city":"Mangalore","state":"Karnataka","latitude":12.9141,"longitude":74.856,"temp":30.2,"humidity":75,"rain":0.0,"pressure":1005.5,"uv_index":9.0,"wind_gusts":40.7,"aqi":67,"pm10":27.1,"pm2_5":15.4,"no2":2.9,"co":164.0,"o3":75.0,"so2":1.3,"mosquito_risk":3,"arthritis_risk":5,"migraine_risk":4,"frizz_risk":1,"updated_at":"2026-05-01T18:54:53.670841+05:30"},{"city":"Hubli-Dharwad","state":"Karnataka","latitude":15.3647,"longitude":75.124,"temp":29.4,"humidity":52,"rain":0.0,"pressure":939.6,"uv_index":9.2,"wind_gusts":45.0,"aqi":56,"pm10":29.2,"pm2_5":13.6,"no2":4.3,"co":195.0,"o3":91.0,"so2":1.5,"mosquito_risk":4,"arthritis_risk":5,"migraine_risk":7,"frizz_risk":1,"updated_at":"2026-05-01T18:54:53.670849+05:30"},{"city":"Belgaum","state":"Karnataka","latitude":15.8497,"longitude":74.4977,"temp":27.5,"humidity":57,"rain":0.0,"pressure":925.2,"uv_index":9.15,"wind_gusts":44.6,"aqi":54,"pm10":26.9,"pm2_5":11.6,"no2":4.6,"co":171.0,"o3":78.0,"so2":1.8,"mosquito_risk":4,"arthritis_risk":5,"migraine_risk":7,"frizz_risk":1,"updated_at":"2026-05-01T18:54:56.913983+05:30"},{"city":"Coimbatore","state":"Tamil Nadu","latitude":11.0168,"longitude":76.9558,"temp":28.2,"humidity":73,"rain":0.0,"pressure":961.0,"uv_index":9.2,"wind_gusts":41.4,"aqi":130,"pm10":27.5,"pm2_5":23.7,"no2":8.9,"co":279.0,"o3":115.0,"so2":3.7,"mosquito_risk":7,"arthritis_risk":5,"migraine_risk":7,"frizz_risk":1,"updated_at":"2026-05-01T18:54:56.914018+05:30"},{"city":"Madurai","state":"Tamil Nadu","latitude":9.9252,"longitude":78.1198,"temp":29.4,"humidity":66,"rain":0.0,"pressure":992.3,"uv_index":8.9,"wind_gusts":57.6,"aqi":118,"pm10":24.6,"pm2_5":19.3,"no2":6.0,"co":288.0,"o3":130.0,"so2":3.7,"mosquito_risk":7,"arthritis_risk":5,"migraine_risk":7,"frizz_risk":1,"updated_at":"2026-05-01T18:54:56.914030+05:30"},{"city":"Trichy","state":"Tamil Nadu","latitude":10.7905,"longitude":78.7047,"temp":34.7,"humidity":47,"rain":0.0,"pressure":997.2,"uv_index":8.9,"wind_gusts":36.0,"aqi":128,"pm10":31.5,"pm2_5":27.2,"no2":7.8,"co":250.0,"o3":136.0,"so2":5.3,"mosquito_risk":0,"arthritis_risk":5,"migraine_risk":7,"frizz_risk":1,"updated_at":"2026-05-01T18:54:56.914039+05:30"},{"city":"Salem","state":"Tamil Nadu","latitude":11.6643,"longitude":78.146,"temp":27.3,"humidity":67,"rain":0.0,"pressure":976.7,"uv_index":9.25,"wind_gusts":61.9,"aqi":179,"pm10":43.7,"pm2_5":36.4,"no2":13.8,"co":290.0,"o3":172.0,"so2":14.2,"mosquito_risk":7,"arthritis_risk":5,"migraine_risk":7,"frizz_risk":1,"updated_at":"2026-05-01T18:54:56.914047+05:30"},{"city":"Tirunelveli","state":"Tamil Nadu","latitude":8.7139,"longitude":77.7567,"temp":33.7,"humidity":47,"rain":0.0,"pressure":1001.5,"uv_index":8.85,"wind_gusts":36.7,"aqi":64,"pm10":14.6,"pm2_5":12.5,"no2":5.0,"co":227.0,"o3":106.0,"so2":1.5,"mosquito_risk":0,"arthritis_risk":5,"migraine_risk":4,"frizz_risk":1,"updated_at":"2026-05-01T18:54:56.914055+05:30"},{"city":"Vellore","state":"Tamil Nadu","latitude":12.9165,"longitude":79.1325,"temp":31.6,"humidity":49,"rain":0.0,"pressure":982.0,"uv_index":9.3,"wind_gusts":44.3,"aqi":160,"pm10":49.8,"pm2_5":44.0,"no2":9.1,"co":348.0,"o3":150.0,"so2":6.8,"mosquito_risk":0,"arthritis_risk":5,"migraine_risk":7,"frizz_risk":1,"updated_at":"2026-05-01T18:54:56.914063+05:30"},{"city":"Erode","state":"Tamil Nadu","latitude":11.341,"longitude":77.7172,"temp":30.5,"humidity":56,"rain":0.0,"pressure":988.1,"uv_index":9.25,"wind_gusts":54.4,"aqi":140,"pm10":38.3,"pm2_5":29.3,"no2":12.5,"co":294.0,"o3":146.0,"so2":2.8,"mosquito_risk":0,"arthritis_risk":5,"migraine_risk":7,"frizz_risk":1,"updated_at":"2026-05-01T18:54:56.914070+05:30"},{"city":"Kochi","state":"Kerala","latitude":9.9312,"longitude":76.2673,"temp":27.6,"humidity":89,"rain":0.0,"pressure":1008.0,"uv_index":8.8,"wind_gusts":33.8,"aqi":55,"pm10":26.5,"pm2_5":21.6,"no2":25.6,"co":289.0,"o3":69.0,"so2":5.1,"mosquito_risk":7,"arthritis_risk":0,"migraine_risk":4,"frizz_risk":1,"updated_at":"2026-05-01T18:54:56.914077+05:30"},{"city":"Thiruvananthapuram","state":"Kerala","latitude":8.5241,"longitude":76.9366,"temp":26.3,"humidity":88,"rain":0.0,"pressure":1007.8,"uv_index":8.85,"wind_gusts":34.9,"aqi":53,"pm10":11.6,"pm2_5":8.5,"no2":2.8,"co":252.0,"o3":103.0,"so2":1.5,"mosquito_risk":7,"arthritis_risk":5,"migraine_risk":4,"frizz_risk":1,"updated_at":"2026-05-01T18:54:56.914085+05:30"},{"city":"Kozhikode","state":"Kerala","latitude":11.2588,"longitude":75.7804,"temp":29.0,"humidity":82,"rain":0.0,"pressure":1006.8,"uv_index":7.7,"wind_gusts":39.2,"aqi":60,"pm10":33.4,"pm2_5":17.9,"no2":1.5,"co":207.0,"o3":73.0,"so2":1.0,"mosquito_risk":7,"arthritis_risk":5,"migraine_risk":4,"frizz_risk":1,"updated_at":"2026-05-01T18:54:56.914092+05:30"},{"city":"Thrissur","state":"Kerala","latitude":10.5276,"longitude":76.2144,"temp":28.9,"humidity":80,"rain":0.0,"pressure":1006.2,"uv_index":8.7,"wind_gusts":39.2,"aqi":64,"pm10":30.3,"pm2_5":23.6,"no2":8.7,"co":299.0,"o3":85.0,"so2":2.7,"mosquito_risk":7,"arthritis_risk":5,"migraine_risk":4,"frizz_risk":1,"updated_at":"2026-05-01T18:54:56.914100+05:30"},{"city":"Kannur","state":"Kerala","latitude":11.8745,"longitude":75.3704,"temp":30.4,"humidity":74,"rain":0.0,"pressure":1006.1,"uv_index":8.9,"wind_gusts":43.2,"aqi":68,"pm10":29.9,"pm2_5":17.2,"no2":4.7,"co":213.0,"o3":74.0,"so2":1.4,"mosquito_risk":3,"arthritis_risk":5,"migraine_risk":4,"frizz_risk":1,"updated_at":"2026-05-01T18:54:56.914107+05:30"},{"city":"Patna","state":"Bihar","latitude":25.5941,"longitude":85.1376,"temp":24.2,"humidity":78,"rain":0.0,"pressure":997.8,"uv_index":8.4,"wind_gusts":33.5,"aqi":161,"pm10":62.6,"pm2_5":39.1,"no2":8.2,"co":434.0,"o3":159.0,"so2":9.1,"mosquito_risk":3,"arthritis_risk":5,"migraine_risk":7,"frizz_risk":1,"updated_at":"2026-05-01T18:54:56.914113+05:30"},{"city":"Gaya","state":"Bihar","latitude":24.7914,"longitude":85.0002,"temp":27.9,"humidity":58,"rain":0.0,"pressure":990.2,"uv_index":8.7,"wind_gusts":32.8,"aqi":168,"pm10":72.2,"pm2_5":35.7,"no2":6.0,"co":403.0,"o3":158.0,"so2":8.0,"mosquito_risk":4,"arthritis_risk":5,"migraine_risk":7,"frizz_risk":1,"updated_at":"2026-05-01T18:54:56.914120+05:30"},{"city":"Muzaffarpur","state":"Bihar","latitude":26.1209,"longitude":85.3647,"temp":21.9,"humidity":91,"rain":0.0,"pressure":998.0,"uv_index":6.55,"wind_gusts":31.3,"aqi":158,"pm10":46.2,"pm2_5":32.8,"no2":8.6,"co":416.0,"o3":151.0,"so2":10.6,"mosquito_risk":3,"arthritis_risk":5,"migraine_risk":7,"frizz_risk":1,"updated_at":"2026-05-01T18:54:56.914126+05:30"},{"city":"Bhagalpur","state":"Bihar","latitude":25.2425,"longitude":87.0117,"temp":23.4,"humidity":87,"rain":0.1,"pressure":999.0,"uv_index":8.5,"wind_gusts":49.3,"aqi":173,"pm10":38.0,"pm2_5":27.9,"no2":8.9,"co":350.0,"o3":142.0,"so2":5.9,"mosquito_risk":6,"arthritis_risk":5,"migraine_risk":7,"frizz_risk":1,"updated_at":"2026-05-01T18:54:56.914133+05:30"},{"city":"Ranchi","state":"Jharkhand","latitude":23.3441,"longitude":85.3096,"temp":21.5,"humidity":83,"rain":0.6,"pressure":933.9,"uv_index":9.05,"wind_gusts":48.2,"aqi":145,"pm10":84.8,"pm2_5":42.7,"no2":4.3,"co":230.0,"o3":154.0,"so2":8.4,"mosquito_risk":6,"arthritis_risk":5,"migraine_risk":7,"frizz_risk":1,"updated_at":"2026-05-01T18:54:56.914140+05:30"},{"city":"Jamshedpur","state":"Jharkhand","latitude":22.8046,"longitude":86.2029,"temp":27.5,"humidity":65,"rain":0.0,"pressure":988.2,"uv_index":9.0,"wind_gusts":24.8,"aqi":189,"pm10":66.6,"pm2_5":37.5,"no2":9.5,"co":364.0,"o3":137.0,"so2":13.9,"mosquito_risk":7,"arthritis_risk":5,"migraine_risk":7,"frizz_risk":1,"updated_at":"2026-05-01T18:54:56.914146+05:30"},{"city":"Dhanbad","state":"Jharkhand","latitude":23.7957,"longitude":86.4304,"temp":26.6,"humidity":71,"rain":0.1,"pressure":977.1,"uv_index":8.9,"wind_gusts":22.3,"aqi":201,"pm10":98.0,"pm2_5":60.5,"no2":41.5,"co":528.0,"o3":134.0,"so2":51.0,"mosquito_risk":10,"arthritis_risk":5,"migraine_risk":7,"frizz_risk":1,"updated_at":"2026-05-01T18:54:56.914153+05:30"},{"city":"Bokaro","state":"Jharkhand","latitude":23.6693,"longitude":86.1511,"temp":27.1,"humidity":59,"rain":0.0,"pressure":981.0,"uv_index":8.95,"wind_gusts":27.4,"aqi":195,"pm10":90.3,"pm2_5":45.1,"no2":29.3,"co":852.0,"o3":131.0,"so2":42.7,"mosquito_risk":4,"arthritis_risk":5,"migraine_risk":7,"frizz_risk":1,"updated_at":"2026-05-01T18:54:56.914159+05:30"},{"city":"Bhubaneswar","state":"Odisha","latitude":20.2961,"longitude":85.8245,"temp":29.0,"humidity":78,"rain":0.0,"pressure":999.6,"uv_index":8.4,"wind_gusts":47.2,"aqi":98,"pm10":30.4,"pm2_5":22.3,"no2":7.5,"co":398.0,"o3":114.0,"so2":4.9,"mosquito_risk":7,"arthritis_risk":5,"migraine_risk":7,"frizz_risk":1,"updated_at":"2026-05-01T18:54:56.914166+05:30"},{"city":"Cuttack","state":"Odisha","latitude":20.4625,"longitude":85.8828,"temp":28.3,"humidity":77,"rain":0.1,"pressure":1001.5,"uv_index":8.85,"wind_gusts":36.0,"aqi":98,"pm10":30.4,"pm2_5":22.3,"no2":7.5,"co":403.0,"o3":114.0,"so2":4.9,"mosquito_risk":10,"arthritis_risk":5,"migraine_risk":4,"frizz_risk":1,"updated_at":"2026-05-01T18:54:56.914172+05:30"},{"city":"Rourkela","state":"Odisha","latitude":22.2604,"longitude":84.8536,"temp":25.2,"humidity":84,"rain":0.3,"pressure":981.7,"uv_index":8.9,"wind_gusts":36.7,"aqi":194,"pm10":89.4,"pm2_5":50.8,"no2":8.3,"co":286.0,"o3":184.0,"so2":33.2,"mosquito_risk":10,"arthritis_risk":5,"migraine_risk":7,"frizz_risk":1,"updated_at":"2026-05-01T18:54:56.914178+05:30"},{"city":"Raipur","state":"Chhattisgarh","latitude":21.2514,"longitude":81.6296,"temp":35.6,"humidity":25,"rain":0.0,"pressure":970.1,"uv_index":8.95,"wind_gusts":42.8,"aqi":152,"pm10":87.8,"pm2_5":34.2,"no2":16.1,"co":203.0,"o3":120.0,"so2":5.0,"mosquito_risk":0,"arthritis_risk":5,"migraine_risk":10,"frizz_risk":0,"updated_at":"2026-05-01T18:54:56.914184+05:30"},{"city":"Bhilai","state":"Chhattisgarh","latitude":21.1938,"longitude":81.3509,"temp":35.0,"humidity":26,"rain":0.0,"pressure":970.7,"uv_index":8.95,"wind_gusts":54.7,"aqi":118,"pm10":80.8,"pm2_5":31.3,"no2":13.4,"co":483.0,"o3":125.0,"so2":4.6,"mosquito_risk":0,"arthritis_risk":5,"migraine_risk":7,"frizz_risk":0,"updated_at":"2026-05-01T18:54:56.914190+05:30"},{"city":"Guwahati","state":"Assam","latitude":26.1158,"longitude":91.7086,"temp":21.5,"humidity":95,"rain":0.0,"pressure":1001.0,"uv_index":7.7,"wind_gusts":28.8,"aqi":66,"pm10":28.8,"pm2_5":24.9,"no2":9.1,"co":389.0,"o3":96.0,"so2":3.2,"mosquito_risk":3,"arthritis_risk":5,"migraine_risk":4,"frizz_risk":1,"updated_at":"2026-05-01T18:54:56.914196+05:30"},{"city":"Agartala","state":"Tripura","latitude":23.8315,"longitude":91.2868,"temp":23.7,"humidity":85,"rain":0.0,"pressure":1005.1,"uv_index":5.1,"wind_gusts":38.2,"aqi":73,"pm10":41.8,"pm2_5":38.5,"no2":14.4,"co":213.0,"o3":105.0,"so2":3.6,"mosquito_risk":3,"arthritis_risk":5,"migraine_risk":0,"frizz_risk":1,"updated_at":"2026-05-01T18:54:56.914202+05:30"},{"city":"Shillong","state":"Meghalaya","latitude":25.5788,"longitude":91.8933,"temp":14.4,"humidity":90,"rain":0.0,"pressure":853.9,"uv_index":7.5,"wind_gusts":36.7,"aqi":56,"pm10":14.8,"pm2_5":13.3,"no2":8.3,"co":251.0,"o3":86.0,"so2":1.9,"mosquito_risk":3,"arthritis_risk":10,"migraine_risk":7,"frizz_risk":0,"updated_at":"2026-05-01T18:54:56.914209+05:30"},{"city":"Imphal","state":"Manipur","latitude":24.817,"longitude":93.9368,"temp":18.8,"humidity":97,"rain":0.1,"pressure":921.7,"uv_index":4.0,"wind_gusts":18.7,"aqi":76,"pm10":20.8,"pm2_5":18.7,"no2":14.9,"co":400.0,"o3":58.0,"so2":2.3,"mosquito_risk":6,"arthritis_risk":10,"migraine_risk":3,"frizz_risk":1,"updated_at":"2026-05-01T18:54:56.914216+05:30"},{"city":"Aizawl","state":"Mizoram","latitude":23.7271,"longitude":92.7176,"temp":16.9,"humidity":90,"rain":0.0,"pressure":890.7,"uv_index":4.95,"wind_gusts":50.4,"aqi":51,"pm10":11.8,"pm2_5":10.3,"no2":5.9,"co":193.0,"o3":67.0,"so2":1.2,"mosquito_risk":3,"arthritis_risk":10,"migraine_risk":3,"frizz_risk":0,"updated_at":"2026-05-01T18:54:56.914222+05:30"},{"city":"Kohima","state":"Nagaland","latitude":25.6701,"longitude":94.1077,"temp":16.0,"humidity":100,"rain":0.4,"pressure":853.0,"uv_index":4.45,"wind_gusts":23.0,"aqi":53,"pm10":20.0,"pm2_5":15.0,"no2":8.2,"co":330.0,"o3":73.0,"so2":1.6,"mosquito_risk":6,"arthritis_risk":10,"migraine_risk":3,"frizz_risk":0,"updated_at":"2026-05-01T18:54:56.914229+05:30"},{"city":"Gangtok","state":"Sikkim","latitude":27.3314,"longitude":88.6138,"temp":13.3,"humidity":88,"rain":0.0,"pressure":834.4,"uv_index":8.9,"wind_gusts":42.5,"aqi":84,"pm10":23.6,"pm2_5":15.5,"no2":6.5,"co":368.0,"o3":116.0,"so2":0.8,"mosquito_risk":3,"arthritis_risk":10,"migraine_risk":7,"frizz_risk":0,"updated_at":"2026-05-01T18:54:56.914235+05:30"},{"city":"Siliguri","state":"West Bengal","latitude":26.7271,"longitude":88.3953,"temp":21.0,"humidity":96,"rain":0.0,"pressure":992.0,"uv_index":6.6,"wind_gusts":26.6,"aqi":81,"pm10":36.2,"pm2_5":27.3,"no2":12.1,"co":577.0,"o3":111.0,"so2":2.6,"mosquito_risk":3,"arthritis_risk":5,"migraine_risk":7,"frizz_risk":1,"updated_at":"2026-05-01T18:55:00.164001+05:30"},{"city":"Durgapur","state":"West Bengal","latitude":23.5204,"longitude":87.3119,"temp":26.5,"humidity":73,"rain":0.0,"pressure":992.3,"uv_index":8.85,"wind_gusts":29.2,"aqi":202,"pm10":127.6,"pm2_5":90.6,"no2":26.2,"co":534.0,"o3":175.0,"so2":51.2,"mosquito_risk":7,"arthritis_risk":5,"migraine_risk":7,"frizz_risk":1,"updated_at":"2026-05-01T18:55:00.164037+05:30"},{"city":"Asansol","state":"West Bengal","latitude":23.6739,"longitude":86.9524,"temp":27.0,"humidity":66,"rain":0.0,"pressure":990.8,"uv_index":8.75,"wind_gusts":24.5,"aqi":203,"pm10":112.9,"pm2_5":75.7,"no2":29.1,"co":641.0,"o3":162.0,"so2":44.7,"mosquito_risk":7,"arthritis_risk":5,"migraine_risk":7,"frizz_risk":1,"updated_at":"2026-05-01T18:55:00.164048+05:30"},{"city":"Pondicherry","state":"Puducherry","latitude":11.9139,"longitude":79.8145,"temp":31.0,"humidity":75,"rain":0.0,"pressure":1005.5,"uv_index":8.7,"wind_gusts":43.6,"aqi":135,"pm10":24.9,"pm2_5":19.5,"no2":7.9,"co":179.0,"o3":131.0,"so2":10.3,"mosquito_risk":3,"arthritis_risk":5,"migraine_risk":4,"frizz_risk":1,"updated_at":"2026-05-01T18:55:00.164057+05:30"},{"city":"Port Blair","state":"Andaman and Nicobar Islands","latitude":11.6234,"longitude":92.7265,"temp":27.5,"humidity":88,"rain":0.0,"pressure":1007.3,"uv_index":9.1,"wind_gusts":24.8,"aqi":30,"pm10":6.7,"pm2_5":4.6,"no2":0.7,"co":267.0,"o3":59.0,"so2":2.8,"mosquito_risk":7,"arthritis_risk":5,"migraine_risk":4,"frizz_risk":1,"updated_at":"2026-05-01T18:55:00.164066+05:30"},{"city":"Haridwar","state":"Uttarakhand","latitude":29.9457,"longitude":78.1642,"temp":27.3,"humidity":65,"rain":0.0,"pressure":969.5,"uv_index":7.4,"wind_gusts":28.8,"aqi":152,"pm10":110.1,"pm2_5":36.3,"no2":7.0,"co":341.0,"o3":152.0,"so2":9.6,"mosquito_risk":7,"arthritis_risk":5,"migraine_risk":7,"frizz_risk":1,"updated_at":"2026-05-01T18:55:00.164073+05:30"},{"city":"Rishikesh","state":"Uttarakhand","latitude":30.0869,"longitude":78.2676,"temp":26.0,"humidity":65,"rain":0.0,"pressure":962.2,"uv_index":7.5,"wind_gusts":25.9,"aqi":147,"pm10":105.7,"pm2_5":32.8,"no2":4.4,"co":307.0,"o3":149.0,"so2":8.2,"mosquito_risk":7,"arthritis_risk":5,"migraine_risk":7,"frizz_risk":1,"updated_at":"2026-05-01T18:55:00.164081+05:30"},{"city":"Nainital","state":"Uttarakhand","latitude":29.3919,"longitude":79.4542,"temp":13.1,"humidity":88,"rain":0.0,"pressure":801.3,"uv_index":8.3,"wind_gusts":39.6,"aqi":133,"pm10":110.6,"pm2_5":31.3,"no2":5.8,"co":272.0,"o3":143.0,"so2":6.1,"mosquito_risk":3,"arthritis_risk":10,"migraine_risk":7,"frizz_risk":0,"updated_at":"2026-05-01T18:55:00.164089+05:30"},{"city":"Mussoorie","state":"Uttarakhand","latitude":30.4599,"longitude":78.0664,"temp":13.7,"humidity":86,"rain":0.0,"pressure":798.8,"uv_index":7.9,"wind_gusts":42.1,"aqi":160,"pm10":105.5,"pm2_5":39.2,"no2":8.1,"co":283.0,"o3":165.0,"so2":11.4,"mosquito_risk":3,"arthritis_risk":10,"migraine_risk":7,"frizz_risk":0,"updated_at":"2026-05-01T18:55:00.164096+05:30"},{"city":"Dharamshala","state":"Himachal Pradesh","latitude":32.219,"longitude":76.3234,"temp":20.7,"humidity":48,"rain":0.0,"pressure":865.2,"uv_index":8.2,"wind_gusts":46.8,"aqi":114,"pm10":12.0,"pm2_5":8.5,"no2":4.4,"co":254.0,"o3":133.0,"so2":1.2,"mosquito_risk":0,"arthritis_risk":5,"migraine_risk":7,"frizz_risk":0,"updated_at":"2026-05-01T18:55:00.164104+05:30"},{"city":"Dalhousie","state":"Himachal Pradesh","latitude":32.5387,"longitude":75.971,"temp":15.2,"humidity":69,"rain":0.0,"pressure":800.6,"uv_index":8.5,"wind_gusts":37.8,"aqi":146,"pm10":31.9,"pm2_5":17.4,"no2":10.3,"co":375.0,"o3":147.0,"so2":3.7,"mosquito_risk":3,"arthritis_risk":5,"migraine_risk":7,"frizz_risk":0,"updated_at":"2026-05-01T18:55:00.164112+05:30"},{"city":"Patiala","state":"Punjab","latitude":30.3398,"longitude":76.3869,"temp":32.7,"humidity":31,"rain":0.0,"pressure":972.6,"uv_index":7.5,"wind_gusts":38.5,"aqi":522,"pm10":393.9,"pm2_5":63.3,"no2":4.8,"co":285.0,"o3":156.0,"so2":12.3,"mosquito_risk":0,"arthritis_risk":5,"migraine_risk":7,"frizz_risk":0,"updated_at":"2026-05-01T18:55:00.164120+05:30"},{"city":"Bhatinda","state":"Punjab","latitude":30.211,"longitude":74.9455,"temp":33.8,"humidity":27,"rain":0.0,"pressure":977.7,"uv_index":8.1,"wind_gusts":36.7,"aqi":319,"pm10":93.8,"pm2_5":26.3,"no2":4.4,"co":268.0,"o3":139.0,"so2":8.9,"mosquito_risk":0,"arthritis_risk":5,"migraine_risk":7,"frizz_risk":0,"updated_at":"2026-05-01T18:55:00.164126+05:30"},{"city":"Rohtak","state":"Haryana","latitude":28.8955,"longitude":76.6066,"temp":33.7,"humidity":28,"rain":0.0,"pressure":976.0,"uv_index":7.6,"wind_gusts":29.2,"aqi":611,"pm10":353.0,"pm2_5":80.6,"no2":10.8,"co":335.0,"o3":189.0,"so2":17.0,"mosquito_risk":0,"arthritis_risk":5,"migraine_risk":7,"frizz_risk":0,"updated_at":"2026-05-01T18:55:00.164133+05:30"},{"city":"Panipat","state":"Haryana","latitude":29.3909,"longitude":76.9635,"temp":31.6,"humidity":41,"rain":0.0,"pressure":974.8,"uv_index":7.45,"wind_gusts":33.8,"aqi":1105,"pm10":543.9,"pm2_5":96.4,"no2":10.1,"co":285.0,"o3":193.0,"so2":24.3,"mosquito_risk":0,"arthritis_risk":5,"migraine_risk":7,"frizz_risk":1,"updated_at":"2026-05-01T18:55:00.164139+05:30"},{"city":"Mathura","state":"Uttar Pradesh","latitude":27.4924,"longitude":77.6737,"temp":32.8,"humidity":37,"rain":0.0,"pressure":980.3,"uv_index":7.85,"wind_gusts":28.1,"aqi":628,"pm10":364.1,"pm2_5":67.1,"no2":9.1,"co":270.0,"o3":138.0,"so2":7.6,"mosquito_risk":0,"arthritis_risk":5,"migraine_risk":7,"frizz_risk":1,"updated_at":"2026-05-01T18:55:00.164146+05:30"},{"city":"Vrindavan","state":"Uttar Pradesh","latitude":27.5823,"longitude":77.7027,"temp":32.7,"humidity":37,"rain":0.0,"pressure":980.8,"uv_index":7.8,"wind_gusts":28.4,"aqi":628,"pm10":364.1,"pm2_5":67.1,"no2":9.1,"co":273.0,"o3":138.0,"so2":7.6,"mosquito_risk":0,"arthritis_risk":5,"migraine_risk":7,"frizz_risk":1,"updated_at":"2026-05-01T18:55:00.164152+05:30"},{"city":"Ayodhya","state":"Uttar Pradesh","latitude":26.7922,"longitude":82.1998,"temp":28.2,"humidity":53,"rain":0.0,"pressure":991.6,"uv_index":8.15,"wind_gusts":28.4,"aqi":133,"pm10":83.4,"pm2_5":32.8,"no2":8.3,"co":292.0,"o3":133.0,"so2":7.1,"mosquito_risk":4,"arthritis_risk":5,"migraine_risk":7,"frizz_risk":1,"updated_at":"2026-05-01T18:55:00.164159+05:30"},{"city":"Ratlam","state":"Madhya Pradesh","latitude":23.3315,"longitude":75.0367,"temp":35.0,"humidity":25,"rain":0.0,"pressure":950.6,"uv_index":8.45,"wind_gusts":40.7,"aqi":65,"pm10":43.0,"pm2_5":15.4,"no2":1.2,"co":165.0,"o3":118.0,"so2":3.5,"mosquito_risk":0,"arthritis_risk":5,"migraine_risk":7,"frizz_risk":0,"updated_at":"2026-05-01T18:55:00.164165+05:30"},{"city":"Sagar","state":"Madhya Pradesh","latitude":23.8388,"longitude":78.7378,"temp":34.0,"humidity":19,"rain":0.0,"pressure":945.2,"uv_index":8.65,"wind_gusts":40.7,"aqi":86,"pm10":35.7,"pm2_5":13.4,"no2":2.9,"co":154.0,"o3":115.0,"so2":3.8,"mosquito_risk":0,"arthritis_risk":5,"migraine_risk":7,"frizz_risk":0,"updated_at":"2026-05-01T18:55:00.164171+05:30"},{"city":"Satna","state":"Madhya Pradesh","latitude":24.6005,"longitude":80.8322,"temp":31.8,"humidity":34,"rain":0.0,"pressure":966.5,"uv_index":8.65,"wind_gusts":52.6,"aqi":100,"pm10":89.2,"pm2_5":26.6,"no2":3.1,"co":189.0,"o3":124.0,"so2":4.0,"mosquito_risk":0,"arthritis_risk":5,"migraine_risk":7,"frizz_risk":0,"updated_at":"2026-05-01T18:55:00.164177+05:30"},{"city":"Akola","state":"Maharashtra","latitude":20.7002,"longitude":77.0082,"temp":37.0,"humidity":20,"rain":0.0,"pressure":970.3,"uv_index":8.9,"wind_gusts":40.0,"aqi":71,"pm10":34.3,"pm2_5":13.7,"no2":3.3,"co":162.0,"o3":110.0,"so2":9.8,"mosquito_risk":0,"arthritis_risk":5,"migraine_risk":10,"frizz_risk":0,"updated_at":"2026-05-01T18:55:00.164185+05:30"},{"city":"Amravati","state":"Maharashtra","latitude":20.9374,"longitude":77.7796,"temp":37.3,"humidity":19,"rain":0.0,"pressure":962.8,"uv_index":8.85,"wind_gusts":38.9,"aqi":84,"pm10":36.1,"pm2_5":14.4,"no2":4.3,"co":172.0,"o3":111.0,"so2":8.7,"mosquito_risk":0,"arthritis_risk":5,"migraine_risk":10,"frizz_risk":0,"updated_at":"2026-05-01T18:55:00.164192+05:30"},{"city":"Latur","state":"Maharashtra","latitude":18.4088,"longitude":76.5604,"temp":35.4,"humidity":17,"rain":0.0,"pressure":936.6,"uv_index":9.1,"wind_gusts":38.9,"aqi":58,"pm10":27.2,"pm2_5":11.3,"no2":5.2,"co":180.0,"o3":98.0,"so2":4.6,"mosquito_risk":0,"arthritis_risk":5,"migraine_risk":10,"frizz_risk":0,"updated_at":"2026-05-01T18:55:00.164199+05:30"},{"city":"Nanded","state":"Maharashtra","latitude":19.1383,"longitude":77.3091,"temp":36.5,"humidity":24,"rain":0.0,"pressure":963.8,"uv_index":9.0,"wind_gusts":32.8,"aqi":72,"pm10":37.8,"pm2_5":16.0,"no2":5.1,"co":209.0,"o3":104.0,"so2":2.3,"mosquito_risk":0,"arthritis_risk":5,"migraine_risk":10,"frizz_risk":0,"updated_at":"2026-05-01T18:55:00.164206+05:30"},{"city":"Gulbarga","state":"Karnataka","latitude":17.3297,"longitude":76.8343,"temp":36.8,"humidity":15,"rain":0.0,"pressure":954.8,"uv_index":9.1,"wind_gusts":44.6,"aqi":65,"pm10":29.7,"pm2_5":11.7,"no2":9.1,"co":168.0,"o3":95.0,"so2":2.7,"mosquito_risk":0,"arthritis_risk":5,"migraine_risk":10,"frizz_risk":0,"updated_at":"2026-05-01T18:55:00.164212+05:30"},{"city":"Bidar","state":"Karnataka","latitude":17.9104,"longitude":77.5199,"temp":34.0,"humidity":20,"rain":0.0,"pressure":932.2,"uv_index":9.15,"wind_gusts":37.4,"aqi":79,"pm10":33.5,"pm2_5":15.6,"no2":6.1,"co":192.0,"o3":110.0,"so2":4.7,"mosquito_risk":0,"arthritis_risk":5,"migraine_risk":7,"frizz_risk":0,"updated_at":"2026-05-01T18:55:00.164218+05:30"},{"city":"Hospet","state":"Karnataka","latitude":15.2689,"longitude":76.3909,"temp":33.3,"humidity":33,"rain":0.0,"pressure":953.0,"uv_index":9.25,"wind_gusts":38.5,"aqi":70,"pm10":27.6,"pm2_5":14.3,"no2":4.8,"co":213.0,"o3":117.0,"so2":1.6,"mosquito_risk":0,"arthritis_risk":5,"migraine_risk":7,"frizz_risk":0,"updated_at":"2026-05-01T18:55:00.164225+05:30"},{"city":"Tirupur","state":"Tamil Nadu","latitude":11.1085,"longitude":77.3411,"temp":30.5,"humidity":59,"rain":0.0,"pressure":974.2,"uv_index":9.2,"wind_gusts":53.3,"aqi":156,"pm10":34.0,"pm2_5":28.7,"no2":11.4,"co":300.0,"o3":138.0,"so2":4.0,"mosquito_risk":0,"arthritis_risk":5,"migraine_risk":7,"frizz_risk":1,"updated_at":"2026-05-01T18:55:00.164231+05:30"},{"city":"Alappuzha","state":"Kerala","latitude":9.4981,"longitude":76.3388,"temp":27.7,"humidity":88,"rain":0.0,"pressure":1008.3,"uv_index":8.95,"wind_gusts":33.8,"aqi":52,"pm10":21.8,"pm2_5":16.1,"no2":11.5,"co":168.0,"o3":89.0,"so2":4.1,"mosquito_risk":7,"arthritis_risk":0,"migraine_risk":4,"frizz_risk":1,"updated_at":"2026-05-01T18:55:00.164239+05:30"},{"city":"Munnar","state":"Kerala","latitude":10.0889,"longitude":77.0595,"temp":18.7,"humidity":98,"rain":0.0,"pressure":856.5,"uv_index":8.3,"wind_gusts":28.4,"aqi":50,"pm10":21.8,"pm2_5":17.4,"no2":5.8,"co":288.0,"o3":90.0,"so2":1.5,"mosquito_risk":3,"arthritis_risk":10,"migraine_risk":7,"frizz_risk":1,"updated_at":"2026-05-01T18:55:00.164246+05:30"},{"city":"Silchar","state":"Assam","latitude":24.8333,"longitude":92.7789,"temp":21.6,"humidity":95,"rain":0.5,"pressure":1004.8,"uv_index":0.8,"wind_gusts":24.1,"aqi":102,"pm10":36.9,"pm2_5":36.4,"no2":10.5,"co":304.0,"o3":70.0,"so2":5.7,"mosquito_risk":6,"arthritis_risk":5,"migraine_risk":0,"frizz_risk":1,"updated_at":"2026-05-01T18:55:00.164253+05:30"},{"city":"Dibrugarh","state":"Assam","latitude":27.4728,"longitude":94.912,"temp":21.5,"humidity":88,"rain":0.0,"pressure":995.3,"uv_index":5.65,"wind_gusts":33.5,"aqi":65,"pm10":34.2,"pm2_5":23.4,"no2":9.9,"co":277.0,"o3":80.0,"so2":2.3,"mosquito_risk":3,"arthritis_risk":5,"migraine_risk":3,"frizz_risk":1,"updated_at":"2026-05-01T18:55:00.164259+05:30"}]