[{"city":"Delhi","state":"Delhi","latitude":28.6139,"longitude":77.209,"temp":18.1,"humidity":77,"rain":0.0,"pressure":986.1,"uv_index":5.5,"aqi":166,"mosquito_risk":3,"arthritis_risk":5,"migraine_risk":3,"frizz_risk":0,"updated_at":"2026-02-24T02:19:10.998739+05:30"},{"city":"Mumbai","state":"Maharashtra","latitude":19.076,"longitude":72.8777,"temp":26.7,"humidity":82,"rain":0.0,"pressure":1007.5,"uv_index":7.3,"aqi":154,"mosquito_risk":7,"arthritis_risk":5,"migraine_risk":4,"frizz_risk":1,"updated_at":"2026-02-24T02:19:10.998779+05:30"},{"city":"Bangalore","state":"Karnataka","latitude":12.9716,"longitude":77.5946,"temp":20.1,"humidity":84,"rain":0.0,"pressure":909.7,"uv_index":8.85,"aqi":68,"mosquito_risk":3,"arthritis_risk":5,"migraine_risk":7,"frizz_risk":1,"updated_at":"2026-02-24T02:19:10.998795+05:30"},{"city":"Hyderabad","state":"Telangana","latitude":17.385,"longitude":78.4867,"temp":20.8,"humidity":89,"rain":0.0,"pressure":952.8,"uv_index":8.05,"aqi":119,"mosquito_risk":3,"arthritis_risk":5,"migraine_risk":7,"frizz_risk":1,"updated_at":"2026-02-24T02:19:10.998804+05:30"},{"city":"Chennai","state":"Tamil Nadu","latitude":13.0827,"longitude":80.2707,"temp":24.8,"humidity":87,"rain":0.0,"pressure":1006.7,"uv_index":8.55,"aqi":32,"mosquito_risk":3,"arthritis_risk":5,"migraine_risk":4,"frizz_risk":1,"updated_at":"2026-02-24T02:19:10.998812+05:30"},{"city":"Kolkata","state":"West Bengal","latitude":22.5726,"longitude":88.3639,"temp":22.3,"humidity":97,"rain":0.0,"pressure":1007.8,"uv_index":7.25,"aqi":156,"mosquito_risk":3,"arthritis_risk":5,"migraine_risk":4,"frizz_risk":1,"updated_at":"2026-02-24T02:19:10.998820+05:30"},{"city":"Pune","state":"Maharashtra","latitude":18.5204,"longitude":73.8567,"temp":21.6,"humidity":56,"rain":0.0,"pressure":947.5,"uv_index":7.75,"aqi":144,"mosquito_risk":0,"arthritis_risk":5,"migraine_risk":7,"frizz_risk":0,"updated_at":"2026-02-24T02:19:10.998827+05:30"},{"city":"Ahmedabad","state":"Gujarat","latitude":23.0225,"longitude":72.5714,"temp":21.9,"humidity":53,"rain":0.0,"pressure":1002.5,"uv_index":7.0,"aqi":92,"mosquito_risk":0,"arthritis_risk":5,"migraine_risk":4,"frizz_risk":0,"updated_at":"2026-02-24T02:19:10.998833+05:30"},{"city":"Jaipur","state":"Rajasthan","latitude":26.9124,"longitude":75.7873,"temp":18.8,"humidity":64,"rain":0.0,"pressure":961.5,"uv_index":6.3,"aqi":125,"mosquito_risk":3,"arthritis_risk":5,"migraine_risk":7,"frizz_risk":0,"updated_at":"2026-02-24T02:19:10.998844+05:30"},{"city":"Lucknow","state":"Uttar Pradesh","latitude":26.8467,"longitude":80.9462,"temp":18.0,"humidity":73,"rain":0.0,"pressure":996.7,"uv_index":5.9,"aqi":159,"mosquito_risk":3,"arthritis_risk":5,"migraine_risk":3,"frizz_risk":0,"updated_at":"2026-02-24T02:19:10.998853+05:30"},{"city":"Kanpur","state":"Uttar Pradesh","latitude":26.4499,"longitude":80.3319,"temp":18.0,"humidity":68,"rain":0.0,"pressure":994.8,"uv_index":5.9,"aqi":154,"mosquito_risk":3,"arthritis_risk":5,"migraine_risk":3,"frizz_risk":0,"updated_at":"2026-02-24T02:19:10.998860+05:30"},{"city":"Chandigarh","state":"Chandigarh","latitude":30.7333,"longitude":76.7794,"temp":15.5,"humidity":80,"rain":0.0,"pressure":971.4,"uv_index":5.4,"aqi":157,"mosquito_risk":3,"arthritis_risk":5,"migraine_risk":3,"frizz_risk":0,"updated_at":"2026-02-24T02:19:10.998868+05:30"},{"city":"Srinagar","state":"Jammu and Kashmir","latitude":34.0837,"longitude":74.7973,"temp":1.4,"humidity":85,"rain":0.0,"pressure":836.5,"uv_index":6.25,"aqi":153,"mosquito_risk":3,"arthritis_risk":10,"migraine_risk":7,"frizz_risk":1,"updated_at":"2026-02-24T02:19:10.998875+05:30"},{"city":"Jammu","state":"Jammu and Kashmir","latitude":32.7266,"longitude":74.857,"temp":15.8,"humidity":90,"rain":0.0,"pressure":975.5,"uv_index":5.95,"aqi":154,"mosquito_risk":3,"arthritis_risk":10,"migraine_risk":3,"frizz_risk":0,"updated_at":"2026-02-24T02:19:10.998882+05:30"},{"city":"Amritsar","state":"Punjab","latitude":31.634,"longitude":74.8723,"temp":16.3,"humidity":78,"rain":0.0,"pressure":983.8,"uv_index":5.9,"aqi":175,"mosquito_risk":3,"arthritis_risk":5,"migraine_risk":3,"frizz_risk":0,"updated_at":"2026-02-24T02:19:10.998888+05:30"},{"city":"Ludhiana","state":"Punjab","latitude":30.901,"longitude":75.8573,"temp":15.8,"humidity":82,"rain":0.0,"pressure":981.8,"uv_index":5.6,"aqi":194,"mosquito_risk":3,"arthritis_risk":10,"migraine_risk":3,"frizz_risk":0,"updated_at":"2026-02-24T02:19:10.998894+05:30"},{"city":"Jalandhar","state":"Punjab","latitude":31.326,"longitude":75.5762,"temp":15.8,"humidity":83,"rain":0.0,"pressure":982.9,"uv_index":5.75,"aqi":188,"mosquito_risk":3,"arthritis_risk":10,"migraine_risk":3,"frizz_risk":0,"updated_at":"2026-02-24T02:19:10.998901+05:30"},{"city":"Dehradun","state":"Uttarakhand","latitude":30.6284,"longitude":78.0322,"temp":8.3,"humidity":81,"rain":0.0,"pressure":828.1,"uv_index":5.7,"aqi":82,"mosquito_risk":3,"arthritis_risk":10,"migraine_risk":3,"frizz_risk":0,"updated_at":"2026-02-24T02:19:10.998907+05:30"},{"city":"Shimla","state":"Himachal Pradesh","latitude":31.1048,"longitude":77.1734,"temp":7.1,"humidity":81,"rain":0.0,"pressure":781.4,"uv_index":5.75,"aqi":127,"mosquito_risk":3,"arthritis_risk":10,"migraine_risk":3,"frizz_risk":0,"updated_at":"2026-02-24T02:19:10.998914+05:30"},{"city":"Manali","state":"Himachal Pradesh","latitude":32.2396,"longitude":77.1887,"temp":10.5,"humidity":16,"rain":0.0,"pressure":816.7,"uv_index":7.1,"aqi":52,"mosquito_risk":0,"arthritis_risk":5,"migraine_risk":7,"frizz_risk":1,"updated_at":"2026-02-24T02:19:10.998923+05:30"},{"city":"Gurgaon","state":"Haryana","latitude":28.4595,"longitude":77.0266,"temp":16.1,"humidity":83,"rain":0.0,"pressure":984.4,"uv_index":5.6,"aqi":168,"mosquito_risk":3,"arthritis_risk":10,"migraine_risk":3,"frizz_risk":0,"updated_at":"2026-02-24T02:19:10.998929+05:30"},{"city":"Noida","state":"Uttar Pradesh","latitude":28.5355,"longitude":77.391,"temp":17.4,"humidity":78,"rain":0.0,"pressure":987.7,"uv_index":5.5,"aqi":168,"mosquito_risk":3,"arthritis_risk":5,"migraine_risk":3,"frizz_risk":0,"updated_at":"2026-02-24T02:19:10.998935+05:30"},{"city":"Ghaziabad","state":"Uttar Pradesh","latitude":28.6692,"longitude":77.4538,"temp":16.6,"humidity":81,"rain":0.0,"pressure":985.7,"uv_index":5.45,"aqi":164,"mosquito_risk":3,"arthritis_risk":10,"migraine_risk":3,"frizz_risk":0,"updated_at":"2026-02-24T02:19:10.998941+05:30"},{"city":"Faridabad","state":"Haryana","latitude":28.4089,"longitude":77.3178,"temp":17.4,"humidity":73,"rain":0.0,"pressure":986.8,"uv_index":5.5,"aqi":168,"mosquito_risk":3,"arthritis_risk":5,"migraine_risk":3,"frizz_risk":0,"updated_at":"2026-02-24T02:19:10.998948+05:30"},{"city":"Meerut","state":"Uttar Pradesh","latitude":28.9845,"longitude":77.7064,"temp":15.8,"humidity":79,"rain":0.0,"pressure":984.5,"uv_index":5.3,"aqi":164,"mosquito_risk":3,"arthritis_risk":5,"migraine_risk":3,"frizz_risk":0,"updated_at":"2026-02-24T02:19:10.998954+05:30"},{"city":"Agra","state":"Uttar Pradesh","latitude":27.1767,"longitude":78.0081,"temp":17.9,"humidity":76,"rain":0.0,"pressure":990.8,"uv_index":5.8,"aqi":161,"mosquito_risk":3,"arthritis_risk":5,"migraine_risk":3,"frizz_risk":0,"updated_at":"2026-02-24T02:19:10.998960+05:30"},{"city":"Varanasi","state":"Uttar Pradesh","latitude":25.3176,"longitude":82.9739,"temp":16.7,"humidity":76,"rain":0.0,"pressure":1000.7,"uv_index":6.55,"aqi":161,"mosquito_risk":3,"arthritis_risk":5,"migraine_risk":4,"frizz_risk":0,"updated_at":"2026-02-24T02:19:10.998966+05:30"},{"city":"Prayagraj","state":"Uttar Pradesh","latitude":25.4358,"longitude":81.8463,"temp":17.5,"humidity":74,"rain":0.0,"pressure":999.0,"uv_index":6.45,"aqi":159,"mosquito_risk":3,"arthritis_risk":5,"migraine_risk":7,"frizz_risk":0,"updated_at":"2026-02-24T02:19:10.998973+05:30"},{"city":"Gorakhpur","state":"Uttar Pradesh","latitude":26.7606,"longitude":83.3732,"temp":15.7,"humidity":78,"rain":0.0,"pressure":1000.1,"uv_index":6.25,"aqi":154,"mosquito_risk":3,"arthritis_risk":5,"migraine_risk":4,"frizz_risk":0,"updated_at":"2026-02-24T02:19:10.998979+05:30"},{"city":"Bareilly","state":"Uttar Pradesh","latitude":28.367,"longitude":79.4304,"temp":14.4,"humidity":91,"rain":0.0,"pressure":990.0,"uv_index":5.55,"aqi":162,"mosquito_risk":3,"arthritis_risk":10,"migraine_risk":3,"frizz_risk":0,"updated_at":"2026-02-24T02:19:10.998987+05:30"},{"city":"Aligarh","state":"Uttar Pradesh","latitude":27.8974,"longitude":78.088,"temp":14.9,"humidity":80,"rain":0.0,"pressure":988.5,"uv_index":5.55,"aqi":169,"mosquito_risk":3,"arthritis_risk":5,"migraine_risk":3,"frizz_risk":0,"updated_at":"2026-02-24T02:19:10.998993+05:30"},{"city":"Moradabad","state":"Uttar Pradesh","latitude":28.8386,"longitude":78.7733,"temp":14.3,"humidity":85,"rain":0.0,"pressure":986.8,"uv_index":5.45,"aqi":170,"mosquito_risk":3,"arthritis_risk":10,"migraine_risk":3,"frizz_risk":0,"updated_at":"2026-02-24T02:19:10.998999+05:30"},{"city":"Saharanpur","state":"Uttar Pradesh","latitude":29.9637,"longitude":77.546,"temp":14.7,"humidity":90,"rain":0.0,"pressure":978.7,"uv_index":5.1,"aqi":168,"mosquito_risk":3,"arthritis_risk":10,"migraine_risk":3,"frizz_risk":0,"updated_at":"2026-02-24T02:19:10.999005+05:30"},{"city":"Jhansi","state":"Uttar Pradesh","latitude":25.4484,"longitude":78.5685,"temp":17.4,"humidity":86,"rain":0.0,"pressure":980.2,"uv_index":6.4,"aqi":137,"mosquito_risk":3,"arthritis_risk":10,"migraine_risk":7,"frizz_risk":0,"updated_at":"2026-02-24T02:19:14.264678+05:30"},{"city":"Surat","state":"Gujarat","latitude":21.1702,"longitude":72.8311,"temp":24.3,"humidity":74,"rain":0.0,"pressure":1006.4,"uv_index":6.95,"aqi":151,"mosquito_risk":3,"arthritis_risk":5,"migraine_risk":4,"frizz_risk":1,"updated_at":"2026-02-24T02:19:14.264712+05:30"},{"city":"Vadodara","state":"Gujarat","latitude":22.3072,"longitude":73.1812,"temp":22.4,"humidity":55,"rain":0.0,"pressure":1004.4,"uv_index":7.0,"aqi":85,"mosquito_risk":0,"arthritis_risk":5,"migraine_risk":4,"frizz_risk":0,"updated_at":"2026-02-24T02:19:14.264723+05:30"},{"city":"Rajkot","state":"Gujarat","latitude":22.3039,"longitude":70.8022,"temp":21.8,"humidity":60,"rain":0.0,"pressure":994.6,"uv_index":6.9,"aqi":79,"mosquito_risk":0,"arthritis_risk":5,"migraine_risk":7,"frizz_risk":0,"updated_at":"2026-02-24T02:19:14.264733+05:30"},{"city":"Thane","state":"Maharashtra","latitude":19.2183,"longitude":72.9781,"temp":22.3,"humidity":93,"rain":0.0,"pressure":1007.0,"uv_index":7.3,"aqi":154,"mosquito_risk":3,"arthritis_risk":5,"migraine_risk":4,"frizz_risk":1,"updated_at":"2026-02-24T02:19:14.264741+05:30"},{"city":"Nagpur","state":"Maharashtra","latitude":21.1458,"longitude":79.0882,"temp":19.9,"humidity":87,"rain":0.0,"pressure":974.8,"uv_index":7.35,"aqi":158,"mosquito_risk":3,"arthritis_risk":10,"migraine_risk":7,"frizz_risk":1,"updated_at":"2026-02-24T02:19:14.264749+05:30"},{"city":"Nashik","state":"Maharashtra","latitude":19.9975,"longitude":73.7898,"temp":21.2,"humidity":44,"rain":0.0,"pressure":945.0,"uv_index":7.4,"aqi":85,"mosquito_risk":0,"arthritis_risk":5,"migraine_risk":7,"frizz_risk":0,"updated_at":"2026-02-24T02:19:14.264756+05:30"},{"city":"Aurangabad","state":"Maharashtra","latitude":19.8762,"longitude":75.3433,"temp":20.4,"humidity":61,"rain":0.0,"pressure":943.6,"uv_index":7.75,"aqi":94,"mosquito_risk":3,"arthritis_risk":5,"migraine_risk":7,"frizz_risk":0,"updated_at":"2026-02-24T02:19:14.264763+05:30"},{"city":"Solapur","state":"Maharashtra","latitude":17.6599,"longitude":75.9064,"temp":21.8,"humidity":83,"rain":0.0,"pressure":956.4,"uv_index":8.0,"aqi":112,"mosquito_risk":3,"arthritis_risk":5,"migraine_risk":7,"frizz_risk":1,"updated_at":"2026-02-24T02:19:14.264772+05:30"},{"city":"Kolhapur","state":"Maharashtra","latitude":16.705,"longitude":74.2433,"temp":20.7,"humidity":98,"rain":0.0,"pressure":946.5,"uv_index":8.2,"aqi":154,"mosquito_risk":3,"arthritis_risk":5,"migraine_risk":7,"frizz_risk":1,"updated_at":"2026-02-24T02:19:14.264780+05:30"},{"city":"Goa","state":"Goa","latitude":15.2993,"longitude":74.124,"temp":25.7,"humidity":89,"rain":0.0,"pressure":996.6,"uv_index":8.2,"aqi":153,"mosquito_risk":7,"arthritis_risk":5,"migraine_risk":7,"frizz_risk":1,"updated_at":"2026-02-24T02:19:14.264788+05:30"},{"city":"Jodhpur","state":"Rajasthan","latitude":26.2389,"longitude":73.0243,"temp":20.6,"humidity":38,"rain":0.0,"pressure":984.3,"uv_index":6.55,"aqi":67,"mosquito_risk":0,"arthritis_risk":5,"migraine_risk":7,"frizz_risk":0,"updated_at":"2026-02-24T02:19:14.264796+05:30"},{"city":"Udaipur","state":"Rajasthan","latitude":24.5854,"longitude":73.7125,"temp":15.6,"humidity":55,"rain":0.0,"pressure":946.9,"uv_index":7.2,"aqi":56,"mosquito_risk":0,"arthritis_risk":5,"migraine_risk":7,"frizz_risk":0,"updated_at":"2026-02-24T02:19:14.264803+05:30"},{"city":"Kota","state":"Rajasthan","latitude":25.2138,"longitude":75.8648,"temp":14.9,"humidity":94,"rain":0.0,"pressure":980.3,"uv_index":6.6,"aqi":124,"mosquito_risk":3,"arthritis_risk":10,"migraine_risk":7,"frizz_risk":0,"updated_at":"2026-02-24T02:19:14.264811+05:30"},{"city":"Bikaner","state":"Rajasthan","latitude":28.0229,"longitude":73.3119,"temp":19.9,"humidity":51,"rain":0.0,"pressure":983.6,"uv_index":6.2,"aqi":63,"mosquito_risk":0,"arthritis_risk":5,"migraine_risk":7,"frizz_risk":0,"updated_at":"2026-02-24T02:19:14.264818+05:30"},{"city":"Ajmer","state":"Rajasthan","latitude":26.4499,"longitude":74.6399,"temp":17.9,"humidity":41,"rain":0.0,"pressure":955.2,"uv_index":6.55,"aqi":94,"mosquito_risk":0,"arthritis_risk":5,"migraine_risk":7,"frizz_risk":0,"updated_at":"2026-02-24T02:19:14.264825+05:30"},{"city":"Gwalior","state":"Madhya Pradesh","latitude":26.2183,"longitude":78.1828,"temp":20.0,"humidity":58,"rain":0.0,"pressure":985.9,"uv_index":6.15,"aqi":117,"mosquito_risk":0,"arthritis_risk":5,"migraine_risk":7,"frizz_risk":0,"updated_at":"2026-02-24T02:19:14.264833+05:30"},{"city":"Indore","state":"Madhya Pradesh","latitude":22.7196,"longitude":75.8577,"temp":19.6,"humidity":56,"rain":0.0,"pressure":948.3,"uv_index":7.15,"aqi":81,"mosquito_risk":0,"arthritis_risk":5,"migraine_risk":7,"frizz_risk":0,"updated_at":"2026-02-24T02:19:14.264840+05:30"},{"city":"Bhopal","state":"Madhya Pradesh","latitude":23.2599,"longitude":77.4126,"temp":18.0,"humidity":70,"rain":0.0,"pressure":954.3,"uv_index":7.0,"aqi":95,"mosquito_risk":3,"arthritis_risk":5,"migraine_risk":7,"frizz_risk":0,"updated_at":"2026-02-24T02:19:14.264847+05:30"},{"city":"Jabalpur","state":"Madhya Pradesh","latitude":23.1815,"longitude":79.9864,"temp":18.9,"humidity":68,"rain":0.0,"pressure":963.0,"uv_index":7.05,"aqi":118,"mosquito_risk":3,"arthritis_risk":5,"migraine_risk":7,"frizz_risk":0,"updated_at":"2026-02-24T02:19:14.264854+05:30"},{"city":"Ujjain","state":"Madhya Pradesh","latitude":23.1765,"longitude":75.7885,"temp":18.0,"humidity":63,"rain":0.0,"pressure":954.1,"uv_index":7.05,"aqi":90,"mosquito_risk":3,"arthritis_risk":5,"migraine_risk":7,"frizz_risk":0,"updated_at":"2026-02-24T02:19:14.264862+05:30"},{"city":"Visakhapatnam","state":"Andhra Pradesh","latitude":17.6868,"longitude":83.2185,"temp":23.5,"humidity":77,"rain":0.0,"pressure":1005.0,"uv_index":8.05,"aqi":86,"mosquito_risk":3,"arthritis_risk":5,"migraine_risk":4,"frizz_risk":1,"updated_at":"2026-02-24T02:19:14.264870+05:30"},{"city":"Vijayawada","state":"Andhra Pradesh","latitude":16.5062,"longitude":80.648,"temp":24.1,"humidity":83,"rain":0.0,"pressure":1004.0,"uv_index":8.15,"aqi":73,"mosquito_risk":3,"arthritis_risk":5,"migraine_risk":4,"frizz_risk":1,"updated_at":"2026-02-24T02:19:14.264878+05:30"},{"city":"Guntur","state":"Andhra Pradesh","latitude":16.3067,"longitude":80.4365,"temp":23.6,"humidity":91,"rain":0.0,"pressure":1004.8,"uv_index":8.15,"aqi":80,"mosquito_risk":3,"arthritis_risk":5,"migraine_risk":4,"frizz_risk":1,"updated_at":"2026-02-24T02:19:14.264885+05:30"},{"city":"Nellore","state":"Andhra Pradesh","latitude":14.4426,"longitude":79.9865,"temp":24.1,"humidity":89,"rain":0.0,"pressure":1006.2,"uv_index":8.4,"aqi":42,"mosquito_risk":3,"arthritis_risk":5,"migraine_risk":4,"frizz_risk":1,"updated_at":"2026-02-24T02:19:14.264894+05:30"},{"city":"Kurnool","state":"Andhra Pradesh","latitude":15.8281,"longitude":78.0373,"temp":24.8,"humidity":70,"rain":0.0,"pressure":976.6,"uv_index":8.15,"aqi":71,"mosquito_risk":3,"arthritis_risk":5,"migraine_risk":7,"frizz_risk":1,"updated_at":"2026-02-24T02:19:14.264903+05:30"},{"city":"Kakinada","state":"Andhra Pradesh","latitude":16.9891,"longitude":82.2475,"temp":22.9,"humidity":95,"rain":0.0,"pressure":1008.6,"uv_index":8.1,"aqi":40,"mosquito_risk":3,"arthritis_risk":0,"migraine_risk":4,"frizz_risk":1,"updated_at":"2026-02-24T02:19:14.264911+05:30"},{"city":"Tirupati","state":"Andhra Pradesh","latitude":13.6288,"longitude":79.4192,"temp":20.1,"humidity":95,"rain":0.0,"pressure":991.4,"uv_index":8.5,"aqi":59,"mosquito_risk":3,"arthritis_risk":5,"migraine_risk":7,"frizz_risk":1,"updated_at":"2026-02-24T02:19:14.264919+05:30"},{"city":"Warangal","state":"Telangana","latitude":17.9689,"longitude":79.5941,"temp":22.6,"humidity":88,"rain":0.0,"pressure":979.4,"uv_index":7.85,"aqi":101,"mosquito_risk":3,"arthritis_risk":5,"migraine_risk":7,"frizz_risk":1,"updated_at":"2026-02-24T02:19:14.264925+05:30"},{"city":"Nizamabad","state":"Telangana","latitude":18.6725,"longitude":78.0941,"temp":22.0,"humidity":84,"rain":0.0,"pressure":965.0,"uv_index":7.75,"aqi":149,"mosquito_risk":3,"arthritis_risk":5,"migraine_risk":7,"frizz_risk":1,"updated_at":"2026-02-24T02:19:14.264931+05:30"},{"city":"Mysore","state":"Karnataka","latitude":12.2958,"longitude":76.6396,"temp":21.4,"humidity":95,"rain":0.0,"pressure":926.5,"uv_index":8.9,"aqi":71,"mosquito_risk":3,"arthritis_risk":5,"migraine_risk":7,"frizz_risk":1,"updated_at":"2026-02-24T02:19:14.264937+05:30"},{"city":"Mangalore","state":"Karnataka","latitude":12.9141,"longitude":74.856,"temp":29.0,"humidity":77,"rain":0.0,"pressure":1004.9,"uv_index":8.5,"aqi":135,"mosquito_risk":7,"arthritis_risk":5,"migraine_risk":4,"frizz_risk":1,"updated_at":"2026-02-24T02:19:14.264943+05:30"},{"city":"Hubli-Dharwad","state":"Karnataka","latitude":15.3647,"longitude":75.124,"temp":21.9,"humidity":89,"rain":0.0,"pressure":939.4,"uv_index":8.35,"aqi":111,"mosquito_risk":3,"arthritis_risk":5,"migraine_risk":7,"frizz_risk":1,"updated_at":"2026-02-24T02:19:14.264949+05:30"},{"city":"Belgaum","state":"Karnataka","latitude":15.8497,"longitude":74.4977,"temp":20.4,"humidity":97,"rain":0.0,"pressure":923.9,"uv_index":8.05,"aqi":128,"mosquito_risk":3,"arthritis_risk":5,"migraine_risk":7,"frizz_risk":1,"updated_at":"2026-02-24T02:19:17.530531+05:30"},{"city":"Coimbatore","state":"Tamil Nadu","latitude":11.0168,"longitude":76.9558,"temp":23.1,"humidity":91,"rain":0.0,"pressure":960.4,"uv_index":8.9,"aqi":74,"mosquito_risk":3,"arthritis_risk":5,"migraine_risk":7,"frizz_risk":1,"updated_at":"2026-02-24T02:19:17.530565+05:30"},{"city":"Madurai","state":"Tamil Nadu","latitude":9.9252,"longitude":78.1198,"temp":24.9,"humidity":88,"rain":0.0,"pressure":992.4,"uv_index":8.9,"aqi":67,"mosquito_risk":3,"arthritis_risk":5,"migraine_risk":7,"frizz_risk":1,"updated_at":"2026-02-24T02:19:17.530574+05:30"},{"city":"Trichy","state":"Tamil Nadu","latitude":10.7905,"longitude":78.7047,"temp":24.4,"humidity":93,"rain":0.0,"pressure":999.1,"uv_index":8.8,"aqi":55,"mosquito_risk":3,"arthritis_risk":5,"migraine_risk":7,"frizz_risk":1,"updated_at":"2026-02-24T02:19:17.530582+05:30"},{"city":"Salem","state":"Tamil Nadu","latitude":11.6643,"longitude":78.146,"temp":24.2,"humidity":84,"rain":0.0,"pressure":976.2,"uv_index":8.75,"aqi":68,"mosquito_risk":3,"arthritis_risk":5,"migraine_risk":7,"frizz_risk":1,"updated_at":"2026-02-24T02:19:17.530588+05:30"},{"city":"Tirunelveli","state":"Tamil Nadu","latitude":8.7139,"longitude":77.7567,"temp":25.4,"humidity":93,"rain":0.0,"pressure":1002.2,"uv_index":8.95,"aqi":61,"mosquito_risk":7,"arthritis_risk":5,"migraine_risk":4,"frizz_risk":1,"updated_at":"2026-02-24T02:19:17.530595+05:30"},{"city":"Vellore","state":"Tamil Nadu","latitude":12.9165,"longitude":79.1325,"temp":21.2,"humidity":95,"rain":0.0,"pressure":984.3,"uv_index":8.6,"aqi":63,"mosquito_risk":3,"arthritis_risk":5,"migraine_risk":7,"frizz_risk":1,"updated_at":"2026-02-24T02:19:17.530602+05:30"},{"city":"Erode","state":"Tamil Nadu","latitude":11.341,"longitude":77.7172,"temp":25.7,"humidity":84,"rain":0.0,"pressure":988.1,"uv_index":8.8,"aqi":64,"mosquito_risk":7,"arthritis_risk":5,"migraine_risk":7,"frizz_risk":1,"updated_at":"2026-02-24T02:19:17.530608+05:30"},{"city":"Kochi","state":"Kerala","latitude":9.9312,"longitude":76.2673,"temp":27.9,"humidity":81,"rain":0.0,"pressure":1006.8,"uv_index":8.65,"aqi":76,"mosquito_risk":7,"arthritis_risk":5,"migraine_risk":4,"frizz_risk":1,"updated_at":"2026-02-24T02:19:17.530615+05:30"},{"city":"Thiruvananthapuram","state":"Kerala","latitude":8.5241,"longitude":76.9366,"temp":28.0,"humidity":80,"rain":0.0,"pressure":1005.9,"uv_index":8.45,"aqi":64,"mosquito_risk":7,"arthritis_risk":5,"migraine_risk":4,"frizz_risk":1,"updated_at":"2026-02-24T02:19:17.530621+05:30"},{"city":"Kozhikode","state":"Kerala","latitude":11.2588,"longitude":75.7804,"temp":27.9,"humidity":83,"rain":0.0,"pressure":1006.0,"uv_index":8.6,"aqi":50,"mosquito_risk":7,"arthritis_risk":5,"migraine_risk":4,"frizz_risk":1,"updated_at":"2026-02-24T02:19:17.530627+05:30"},{"city":"Thrissur","state":"Kerala","latitude":10.5276,"longitude":76.2144,"temp":26.0,"humidity":93,"rain":0.0,"pressure":1005.2,"uv_index":8.7,"aqi":72,"mosquito_risk":7,"arthritis_risk":5,"migraine_risk":4,"frizz_risk":1,"updated_at":"2026-02-24T02:19:17.530635+05:30"},{"city":"Kannur","state":"Kerala","latitude":11.8745,"longitude":75.3704,"temp":27.6,"humidity":84,"rain":0.0,"pressure":1005.3,"uv_index":8.55,"aqi":79,"mosquito_risk":7,"arthritis_risk":5,"migraine_risk":4,"frizz_risk":1,"updated_at":"2026-02-24T02:19:17.530642+05:30"},{"city":"Patna","state":"Bihar","latitude":25.5941,"longitude":85.1376,"temp":19.0,"humidity":65,"rain":0.0,"pressure":1003.4,"uv_index":6.7,"aqi":159,"mosquito_risk":3,"arthritis_risk":5,"migraine_risk":4,"frizz_risk":0,"updated_at":"2026-02-24T02:19:17.530648+05:30"},{"city":"Gaya","state":"Bihar","latitude":24.7914,"longitude":85.0002,"temp":18.3,"humidity":75,"rain":0.0,"pressure":996.6,"uv_index":6.8,"aqi":153,"mosquito_risk":3,"arthritis_risk":5,"migraine_risk":7,"frizz_risk":0,"updated_at":"2026-02-24T02:19:17.530655+05:30"},{"city":"Muzaffarpur","state":"Bihar","latitude":26.1209,"longitude":85.3647,"temp":16.0,"humidity":78,"rain":0.0,"pressure":1003.4,"uv_index":6.65,"aqi":159,"mosquito_risk":3,"arthritis_risk":5,"migraine_risk":4,"frizz_risk":0,"updated_at":"2026-02-24T02:19:17.530661+05:30"},{"city":"Bhagalpur","state":"Bihar","latitude":25.2425,"longitude":87.0117,"temp":19.2,"humidity":64,"rain":0.0,"pressure":1004.0,"uv_index":6.75,"aqi":154,"mosquito_risk":3,"arthritis_risk":5,"migraine_risk":4,"frizz_risk":0,"updated_at":"2026-02-24T02:19:17.530667+05:30"},{"city":"Ranchi","state":"Jharkhand","latitude":23.3441,"longitude":85.3096,"temp":17.8,"humidity":68,"rain":0.0,"pressure":938.6,"uv_index":7.45,"aqi":135,"mosquito_risk":3,"arthritis_risk":5,"migraine_risk":7,"frizz_risk":0,"updated_at":"2026-02-24T02:19:17.530673+05:30"},{"city":"Jamshedpur","state":"Jharkhand","latitude":22.8046,"longitude":86.2029,"temp":21.0,"humidity":82,"rain":0.0,"pressure":993.5,"uv_index":7.35,"aqi":155,"mosquito_risk":3,"arthritis_risk":5,"migraine_risk":7,"frizz_risk":1,"updated_at":"2026-02-24T02:19:17.530680+05:30"},{"city":"Dhanbad","state":"Jharkhand","latitude":23.7957,"longitude":86.4304,"temp":20.6,"humidity":61,"rain":0.0,"pressure":982.3,"uv_index":7.25,"aqi":157,"mosquito_risk":3,"arthritis_risk":5,"migraine_risk":7,"frizz_risk":0,"updated_at":"2026-02-24T02:19:17.530686+05:30"},{"city":"Bokaro","state":"Jharkhand","latitude":23.6693,"longitude":86.1511,"temp":19.4,"humidity":65,"rain":0.0,"pressure":986.6,"uv_index":7.25,"aqi":158,"mosquito_risk":3,"arthritis_risk":5,"migraine_risk":7,"frizz_risk":0,"updated_at":"2026-02-24T02:19:17.530692+05:30"},{"city":"Bhubaneswar","state":"Odisha","latitude":20.2961,"longitude":85.8245,"temp":24.0,"humidity":90,"rain":0.0,"pressure":1004.5,"uv_index":7.75,"aqi":81,"mosquito_risk":3,"arthritis_risk":5,"migraine_risk":4,"frizz_risk":1,"updated_at":"2026-02-24T02:19:17.530699+05:30"},{"city":"Cuttack","state":"Odisha","latitude":20.4625,"longitude":85.8828,"temp":23.8,"humidity":92,"rain":0.0,"pressure":1006.5,"uv_index":7.75,"aqi":81,"mosquito_risk":3,"arthritis_risk":5,"migraine_risk":4,"frizz_risk":1,"updated_at":"2026-02-24T02:19:17.530705+05:30"},{"city":"Rourkela","state":"Odisha","latitude":22.2604,"longitude":84.8536,"temp":22.1,"humidity":62,"rain":0.0,"pressure":987.2,"uv_index":7.3,"aqi":127,"mosquito_risk":3,"arthritis_risk":5,"migraine_risk":7,"frizz_risk":0,"updated_at":"2026-02-24T02:19:17.530710+05:30"},{"city":"Raipur","state":"Chhattisgarh","latitude":21.2514,"longitude":81.6296,"temp":19.4,"humidity":86,"rain":0.0,"pressure":976.3,"uv_index":7.45,"aqi":174,"mosquito_risk":3,"arthritis_risk":10,"migraine_risk":7,"frizz_risk":1,"updated_at":"2026-02-24T02:19:17.530717+05:30"},{"city":"Bhilai","state":"Chhattisgarh","latitude":21.1938,"longitude":81.3509,"temp":18.5,"humidity":91,"rain":0.0,"pressure":976.5,"uv_index":7.45,"aqi":174,"mosquito_risk":3,"arthritis_risk":10,"migraine_risk":7,"frizz_risk":1,"updated_at":"2026-02-24T02:19:17.530722+05:30"},{"city":"Guwahati","state":"Assam","latitude":26.1158,"longitude":91.7086,"temp":21.5,"humidity":86,"rain":0.0,"pressure":1004.7,"uv_index":6.7,"aqi":131,"mosquito_risk":3,"arthritis_risk":5,"migraine_risk":4,"frizz_risk":1,"updated_at":"2026-02-24T02:19:17.530728+05:30"},{"city":"Agartala","state":"Tripura","latitude":23.8315,"longitude":91.2868,"temp":19.2,"humidity":80,"rain":0.0,"pressure":1008.1,"uv_index":7.1,"aqi":168,"mosquito_risk":3,"arthritis_risk":0,"migraine_risk":4,"frizz_risk":0,"updated_at":"2026-02-24T02:19:17.530735+05:30"},{"city":"Shillong","state":"Meghalaya","latitude":25.5788,"longitude":91.8933,"temp":7.6,"humidity":79,"rain":0.0,"pressure":853.8,"uv_index":7.05,"aqi":139,"mosquito_risk":3,"arthritis_risk":5,"migraine_risk":7,"frizz_risk":0,"updated_at":"2026-02-24T02:19:17.530741+05:30"},{"city":"Imphal","state":"Manipur","latitude":24.817,"longitude":93.9368,"temp":12.6,"humidity":76,"rain":0.0,"pressure":923.6,"uv_index":7.2,"aqi":155,"mosquito_risk":3,"arthritis_risk":5,"migraine_risk":7,"frizz_risk":0,"updated_at":"2026-02-24T02:19:17.530747+05:30"},{"city":"Aizawl","state":"Mizoram","latitude":23.7271,"longitude":92.7176,"temp":12.7,"humidity":66,"rain":0.0,"pressure":891.8,"uv_index":7.15,"aqi":149,"mosquito_risk":3,"arthritis_risk":5,"migraine_risk":7,"frizz_risk":0,"updated_at":"2026-02-24T02:19:17.530753+05:30"},{"city":"Kohima","state":"Nagaland","latitude":25.6701,"longitude":94.1077,"temp":11.3,"humidity":79,"rain":0.0,"pressure":854.1,"uv_index":7.1,"aqi":124,"mosquito_risk":3,"arthritis_risk":5,"migraine_risk":7,"frizz_risk":0,"updated_at":"2026-02-24T02:19:17.530759+05:30"},{"city":"Gangtok","state":"Sikkim","latitude":27.3314,"longitude":88.6138,"temp":9.5,"humidity":89,"rain":0.0,"pressure":835.7,"uv_index":6.95,"aqi":105,"mosquito_risk":3,"arthritis_risk":10,"migraine_risk":7,"frizz_risk":0,"updated_at":"2026-02-24T02:19:17.530765+05:30"},{"city":"Siliguri","state":"West Bengal","latitude":26.7271,"longitude":88.3953,"temp":18.7,"humidity":66,"rain":0.0,"pressure":996.6,"uv_index":6.7,"aqi":153,"mosquito_risk":3,"arthritis_risk":5,"migraine_risk":7,"frizz_risk":0,"updated_at":"2026-02-24T02:19:20.798940+05:30"},{"city":"Durgapur","state":"West Bengal","latitude":23.5204,"longitude":87.3119,"temp":22.0,"humidity":64,"rain":0.0,"pressure":997.3,"uv_index":7.2,"aqi":152,"mosquito_risk":3,"arthritis_risk":5,"migraine_risk":7,"frizz_risk":0,"updated_at":"2026-02-24T02:19:20.798977+05:30"},{"city":"Asansol","state":"West Bengal","latitude":23.6739,"longitude":86.9524,"temp":22.3,"humidity":58,"rain":0.0,"pressure":995.8,"uv_index":7.25,"aqi":144,"mosquito_risk":0,"arthritis_risk":5,"migraine_risk":7,"frizz_risk":0,"updated_at":"2026-02-24T02:19:20.798988+05:30"},{"city":"Pondicherry","state":"Puducherry","latitude":11.9139,"longitude":79.8145,"temp":24.2,"humidity":94,"rain":0.0,"pressure":1007.9,"uv_index":7.5,"aqi":32,"mosquito_risk":3,"arthritis_risk":5,"migraine_risk":4,"frizz_risk":1,"updated_at":"2026-02-24T02:19:20.798999+05:30"},{"city":"Port Blair","state":"Andaman and Nicobar Islands","latitude":11.6234,"longitude":92.7265,"temp":27.1,"humidity":81,"rain":0.0,"pressure":1005.4,"uv_index":7.3,"aqi":71,"mosquito_risk":7,"arthritis_risk":5,"migraine_risk":4,"frizz_risk":1,"updated_at":"2026-02-24T02:19:20.799008+05:30"},{"city":"Haridwar","state":"Uttarakhand","latitude":29.9457,"longitude":78.1642,"temp":15.7,"humidity":83,"rain":0.0,"pressure":977.3,"uv_index":5.2,"aqi":144,"mosquito_risk":3,"arthritis_risk":10,"migraine_risk":3,"frizz_risk":0,"updated_at":"2026-02-24T02:19:20.799016+05:30"},{"city":"Rishikesh","state":"Uttarakhand","latitude":30.0869,"longitude":78.2676,"temp":15.8,"humidity":77,"rain":0.0,"pressure":969.9,"uv_index":5.25,"aqi":121,"mosquito_risk":3,"arthritis_risk":5,"migraine_risk":3,"frizz_risk":0,"updated_at":"2026-02-24T02:19:20.799025+05:30"},{"city":"Nainital","state":"Uttarakhand","latitude":29.3919,"longitude":79.4542,"temp":12.3,"humidity":72,"rain":0.0,"pressure":804.7,"uv_index":6.05,"aqi":123,"mosquito_risk":3,"arthritis_risk":5,"migraine_risk":7,"frizz_risk":0,"updated_at":"2026-02-24T02:19:20.799035+05:30"},{"city":"Mussoorie","state":"Uttarakhand","latitude":30.4599,"longitude":78.0664,"temp":10.4,"humidity":74,"rain":0.0,"pressure":801.0,"uv_index":5.6,"aqi":122,"mosquito_risk":3,"arthritis_risk":5,"migraine_risk":3,"frizz_risk":0,"updated_at":"2026-02-24T02:19:20.799043+05:30"},{"city":"Dharamshala","state":"Himachal Pradesh","latitude":32.219,"longitude":76.3234,"temp":14.7,"humidity":55,"rain":0.0,"pressure":868.8,"uv_index":5.85,"aqi":88,"mosquito_risk":0,"arthritis_risk":5,"migraine_risk":3,"frizz_risk":0,"updated_at":"2026-02-24T02:19:20.799051+05:30"},{"city":"Dalhousie","state":"Himachal Pradesh","latitude":32.5387,"longitude":75.971,"temp":10.9,"humidity":60,"rain":0.0,"pressure":801.8,"uv_index":6.05,"aqi":142,"mosquito_risk":0,"arthritis_risk":5,"migraine_risk":7,"frizz_risk":0,"updated_at":"2026-02-24T02:19:20.799060+05:30"},{"city":"Patiala","state":"Punjab","latitude":30.3398,"longitude":76.3869,"temp":13.9,"humidity":88,"rain":0.0,"pressure":981.2,"uv_index":5.3,"aqi":187,"mosquito_risk":3,"arthritis_risk":10,"migraine_risk":3,"frizz_risk":0,"updated_at":"2026-02-24T02:19:20.799068+05:30"},{"city":"Bhatinda","state":"Punjab","latitude":30.211,"longitude":74.9455,"temp":15.5,"humidity":85,"rain":0.0,"pressure":986.7,"uv_index":5.95,"aqi":156,"mosquito_risk":3,"arthritis_risk":10,"migraine_risk":3,"frizz_risk":0,"updated_at":"2026-02-24T02:19:20.799075+05:30"},{"city":"Rohtak","state":"Haryana","latitude":28.8955,"longitude":76.6066,"temp":15.4,"humidity":86,"rain":0.0,"pressure":984.9,"uv_index":5.5,"aqi":169,"mosquito_risk":3,"arthritis_risk":10,"migraine_risk":3,"frizz_risk":0,"updated_at":"2026-02-24T02:19:20.799083+05:30"},{"city":"Panipat","state":"Haryana","latitude":29.3909,"longitude":76.9635,"temp":15.1,"humidity":84,"rain":0.0,"pressure":983.5,"uv_index":5.3,"aqi":170,"mosquito_risk":3,"arthritis_risk":10,"migraine_risk":3,"frizz_risk":0,"updated_at":"2026-02-24T02:19:20.799091+05:30"},{"city":"Mathura","state":"Uttar Pradesh","latitude":27.4924,"longitude":77.6737,"temp":15.5,"humidity":89,"rain":0.0,"pressure":989.9,"uv_index":5.75,"aqi":163,"mosquito_risk":3,"arthritis_risk":10,"migraine_risk":3,"frizz_risk":0,"updated_at":"2026-02-24T02:19:20.799098+05:30"},{"city":"Vrindavan","state":"Uttar Pradesh","latitude":27.5823,"longitude":77.7027,"temp":15.6,"humidity":87,"rain":0.0,"pressure":990.3,"uv_index":5.7,"aqi":163,"mosquito_risk":3,"arthritis_risk":10,"migraine_risk":3,"frizz_risk":0,"updated_at":"2026-02-24T02:19:20.799105+05:30"},{"city":"Ayodhya","state":"Uttar Pradesh","latitude":26.7922,"longitude":82.1998,"temp":17.1,"humidity":73,"rain":0.0,"pressure":998.3,"uv_index":6.05,"aqi":158,"mosquito_risk":3,"arthritis_risk":5,"migraine_risk":7,"frizz_risk":0,"updated_at":"2026-02-24T02:19:20.799112+05:30"},{"city":"Ratlam","state":"Madhya Pradesh","latitude":23.3315,"longitude":75.0367,"temp":14.3,"humidity":91,"rain":0.0,"pressure":954.1,"uv_index":7.05,"aqi":77,"mosquito_risk":3,"arthritis_risk":10,"migraine_risk":7,"frizz_risk":0,"updated_at":"2026-02-24T02:19:20.799120+05:30"},{"city":"Sagar","state":"Madhya Pradesh","latitude":23.8388,"longitude":78.7378,"temp":18.9,"humidity":73,"rain":0.0,"pressure":951.2,"uv_index":6.9,"aqi":108,"mosquito_risk":3,"arthritis_risk":5,"migraine_risk":7,"frizz_risk":0,"updated_at":"2026-02-24T02:19:20.799128+05:30"},{"city":"Satna","state":"Madhya Pradesh","latitude":24.6005,"longitude":80.8322,"temp":18.2,"humidity":74,"rain":0.0,"pressure":973.5,"uv_index":6.85,"aqi":121,"mosquito_risk":3,"arthritis_risk":5,"migraine_risk":7,"frizz_risk":0,"updated_at":"2026-02-24T02:19:20.799136+05:30"},{"city":"Akola","state":"Maharashtra","latitude":20.7002,"longitude":77.0082,"temp":21.0,"humidity":71,"rain":0.0,"pressure":975.5,"uv_index":6.75,"aqi":131,"mosquito_risk":3,"arthritis_risk":5,"migraine_risk":7,"frizz_risk":0,"updated_at":"2026-02-24T02:19:20.799146+05:30"},{"city":"Amravati","state":"Maharashtra","latitude":20.9374,"longitude":77.7796,"temp":21.9,"humidity":84,"rain":0.0,"pressure":968.0,"uv_index":7.25,"aqi":150,"mosquito_risk":3,"arthritis_risk":5,"migraine_risk":7,"frizz_risk":1,"updated_at":"2026-02-24T02:19:20.799154+05:30"},{"city":"Latur","state":"Maharashtra","latitude":18.4088,"longitude":76.5604,"temp":19.6,"humidity":91,"rain":0.0,"pressure":938.9,"uv_index":7.75,"aqi":150,"mosquito_risk":3,"arthritis_risk":10,"migraine_risk":7,"frizz_risk":1,"updated_at":"2026-02-24T02:19:20.799161+05:30"},{"city":"Nanded","state":"Maharashtra","latitude":19.1383,"longitude":77.3091,"temp":21.2,"humidity":93,"rain":0.0,"pressure":969.0,"uv_index":7.65,"aqi":152,"mosquito_risk":3,"arthritis_risk":5,"migraine_risk":7,"frizz_risk":1,"updated_at":"2026-02-24T02:19:20.799167+05:30"},{"city":"Gulbarga","state":"Karnataka","latitude":17.3297,"longitude":76.8343,"temp":21.9,"humidity":77,"rain":0.0,"pressure":958.3,"uv_index":8.0,"aqi":104,"mosquito_risk":3,"arthritis_risk":5,"migraine_risk":7,"frizz_risk":1,"updated_at":"2026-02-24T02:19:20.799173+05:30"},{"city":"Bidar","state":"Karnataka","latitude":17.9104,"longitude":77.5199,"temp":20.7,"humidity":86,"rain":0.0,"pressure":934.7,"uv_index":7.9,"aqi":143,"mosquito_risk":3,"arthritis_risk":5,"migraine_risk":7,"frizz_risk":1,"updated_at":"2026-02-24T02:19:20.799179+05:30"},{"city":"Hospet","state":"Karnataka","latitude":15.2689,"longitude":76.3909,"temp":25.3,"humidity":58,"rain":0.0,"pressure":955.1,"uv_index":8.35,"aqi":64,"mosquito_risk":4,"arthritis_risk":5,"migraine_risk":7,"frizz_risk":1,"updated_at":"2026-02-24T02:19:20.799203+05:30"},{"city":"Tirupur","state":"Tamil Nadu","latitude":11.1085,"longitude":77.3411,"temp":25.0,"humidity":85,"rain":0.0,"pressure":974.4,"uv_index":8.9,"aqi":77,"mosquito_risk":7,"arthritis_risk":5,"migraine_risk":7,"frizz_risk":1,"updated_at":"2026-02-24T02:19:20.799210+05:30"},{"city":"Alappuzha","state":"Kerala","latitude":9.4981,"longitude":76.3388,"temp":27.3,"humidity":85,"rain":0.0,"pressure":1006.9,"uv_index":8.65,"aqi":67,"mosquito_risk":7,"arthritis_risk":5,"migraine_risk":4,"frizz_risk":1,"updated_at":"2026-02-24T02:19:20.799217+05:30"},{"city":"Munnar","state":"Kerala","latitude":10.0889,"longitude":77.0595,"temp":18.1,"humidity":91,"rain":0.0,"pressure":853.9,"uv_index":8.15,"aqi":66,"mosquito_risk":3,"arthritis_risk":10,"migraine_risk":7,"frizz_risk":1,"updated_at":"2026-02-24T02:19:20.799224+05:30"},{"city":"Silchar","state":"Assam","latitude":24.8333,"longitude":92.7789,"temp":17.2,"humidity":86,"rain":0.0,"pressure":1007.7,"uv_index":6.9,"aqi":157,"mosquito_risk":3,"arthritis_risk":10,"migraine_risk":4,"frizz_risk":0,"updated_at":"2026-02-24T02:19:20.799231+05:30"},{"city":"Dibrugarh","state":"Assam","latitude":27.4728,"longitude":94.912,"temp":19.5,"humidity":86,"rain":0.0,"pressure":999.1,"uv_index":6.75,"aqi":132,"mosquito_risk":3,"arthritis_risk":10,"migraine_risk":7,"frizz_risk":1,"updated_at":"2026-02-24T02:19:20.799237+05:30"}]