[{"city":"Delhi","state":"Delhi","latitude":28.6139,"longitude":77.209,"temp":22.5,"humidity":80,"rain":0.0,"pressure":987.0,"uv_index":6.4,"wind_gusts":20.9,"aqi":161,"pm10":80.6,"pm2_5":49.9,"mosquito_risk":3,"arthritis_risk":5,"migraine_risk":7,"frizz_risk":1,"updated_at":"2026-03-23T20:28:42.673446+05:30"},{"city":"Mumbai","state":"Maharashtra","latitude":19.076,"longitude":72.8777,"temp":29.4,"humidity":63,"rain":0.0,"pressure":1008.8,"uv_index":7.9,"wind_gusts":23.0,"aqi":204,"pm10":50.1,"pm2_5":39.5,"mosquito_risk":7,"arthritis_risk":0,"migraine_risk":4,"frizz_risk":1,"updated_at":"2026-03-23T20:28:42.673489+05:30"},{"city":"Bangalore","state":"Karnataka","latitude":12.9716,"longitude":77.5946,"temp":27.1,"humidity":43,"rain":0.0,"pressure":912.7,"uv_index":9.45,"wind_gusts":25.6,"aqi":117,"pm10":39.1,"pm2_5":33.9,"mosquito_risk":4,"arthritis_risk":5,"migraine_risk":7,"frizz_risk":0,"updated_at":"2026-03-23T20:28:42.673504+05:30"},{"city":"Hyderabad","state":"Telangana","latitude":17.385,"longitude":78.4867,"temp":29.2,"humidity":44,"rain":0.0,"pressure":954.7,"uv_index":8.9,"wind_gusts":24.5,"aqi":117,"pm10":48.9,"pm2_5":37.5,"mosquito_risk":4,"arthritis_risk":5,"migraine_risk":7,"frizz_risk":0,"updated_at":"2026-03-23T20:28:42.673514+05:30"},{"city":"Chennai","state":"Tamil Nadu","latitude":13.0827,"longitude":80.2707,"temp":27.8,"humidity":72,"rain":0.0,"pressure":1009.6,"uv_index":9.2,"wind_gusts":31.7,"aqi":38,"pm10":10.1,"pm2_5":6.4,"mosquito_risk":7,"arthritis_risk":0,"migraine_risk":4,"frizz_risk":1,"updated_at":"2026-03-23T20:28:42.673522+05:30"},{"city":"Kolkata","state":"West Bengal","latitude":22.5726,"longitude":88.3639,"temp":25.0,"humidity":72,"rain":0.0,"pressure":1009.8,"uv_index":8.3,"wind_gusts":20.5,"aqi":155,"pm10":88.0,"pm2_5":79.4,"mosquito_risk":7,"arthritis_risk":0,"migraine_risk":4,"frizz_risk":1,"updated_at":"2026-03-23T20:28:42.673531+05:30"},{"city":"Pune","state":"Maharashtra","latitude":18.5204,"longitude":73.8567,"temp":29.0,"humidity":38,"rain":0.0,"pressure":949.6,"uv_index":8.45,"wind_gusts":45.7,"aqi":130,"pm10":26.9,"pm2_5":21.4,"mosquito_risk":4,"arthritis_risk":5,"migraine_risk":7,"frizz_risk":0,"updated_at":"2026-03-23T20:28:42.673543+05:30"},{"city":"Ahmedabad","state":"Gujarat","latitude":23.0225,"longitude":72.5714,"temp":29.5,"humidity":36,"rain":0.0,"pressure":1003.6,"uv_index":7.85,"wind_gusts":32.4,"aqi":85,"pm10":44.9,"pm2_5":26.2,"mosquito_risk":4,"arthritis_risk":5,"migraine_risk":4,"frizz_risk":0,"updated_at":"2026-03-23T20:28:42.673551+05:30"},{"city":"Jaipur","state":"Rajasthan","latitude":26.9124,"longitude":75.7873,"temp":24.2,"humidity":60,"rain":0.0,"pressure":962.8,"uv_index":7.25,"wind_gusts":40.3,"aqi":112,"pm10":155.5,"pm2_5":39.7,"mosquito_risk":0,"arthritis_risk":5,"migraine_risk":7,"frizz_risk":0,"updated_at":"2026-03-23T20:28:42.673559+05:30"},{"city":"Lucknow","state":"Uttar Pradesh","latitude":26.8467,"longitude":80.9462,"temp":24.0,"humidity":62,"rain":0.0,"pressure":997.3,"uv_index":6.6,"wind_gusts":37.8,"aqi":162,"pm10":98.5,"pm2_5":45.2,"mosquito_risk":3,"arthritis_risk":5,"migraine_risk":7,"frizz_risk":1,"updated_at":"2026-03-23T20:28:42.673567+05:30"},{"city":"Kanpur","state":"Uttar Pradesh","latitude":26.4499,"longitude":80.3319,"temp":23.4,"humidity":68,"rain":0.0,"pressure":995.6,"uv_index":4.7,"wind_gusts":29.2,"aqi":264,"pm10":239.3,"pm2_5":60.3,"mosquito_risk":3,"arthritis_risk":5,"migraine_risk":3,"frizz_risk":1,"updated_at":"2026-03-23T20:28:42.673575+05:30"},{"city":"Chandigarh","state":"Chandigarh","latitude":30.7333,"longitude":76.7794,"temp":20.3,"humidity":76,"rain":0.0,"pressure":972.1,"uv_index":6.45,"wind_gusts":27.4,"aqi":116,"pm10":50.5,"pm2_5":38.4,"mosquito_risk":3,"arthritis_risk":5,"migraine_risk":7,"frizz_risk":0,"updated_at":"2026-03-23T20:28:42.673583+05:30"},{"city":"Srinagar","state":"Jammu and Kashmir","latitude":34.0837,"longitude":74.7973,"temp":10.1,"humidity":83,"rain":0.0,"pressure":841.7,"uv_index":6.3,"wind_gusts":18.7,"aqi":116,"pm10":39.7,"pm2_5":31.2,"mosquito_risk":3,"arthritis_risk":10,"migraine_risk":7,"frizz_risk":0,"updated_at":"2026-03-23T20:28:42.673591+05:30"},{"city":"Jammu","state":"Jammu and Kashmir","latitude":32.7266,"longitude":74.857,"temp":20.9,"humidity":69,"rain":0.0,"pressure":975.8,"uv_index":7.0,"wind_gusts":16.2,"aqi":112,"pm10":46.6,"pm2_5":39.2,"mosquito_risk":3,"arthritis_risk":5,"migraine_risk":7,"frizz_risk":0,"updated_at":"2026-03-23T20:28:42.673598+05:30"},{"city":"Amritsar","state":"Punjab","latitude":31.634,"longitude":74.8723,"temp":21.2,"humidity":68,"rain":0.0,"pressure":984.0,"uv_index":7.05,"wind_gusts":16.9,"aqi":128,"pm10":59.6,"pm2_5":47.3,"mosquito_risk":3,"arthritis_risk":5,"migraine_risk":7,"frizz_risk":0,"updated_at":"2026-03-23T20:28:42.673605+05:30"},{"city":"Ludhiana","state":"Punjab","latitude":30.901,"longitude":75.8573,"temp":22.2,"humidity":67,"rain":0.0,"pressure":982.3,"uv_index":6.65,"wind_gusts":23.4,"aqi":139,"pm10":60.8,"pm2_5":46.3,"mosquito_risk":3,"arthritis_risk":5,"migraine_risk":7,"frizz_risk":0,"updated_at":"2026-03-23T20:28:42.673612+05:30"},{"city":"Jalandhar","state":"Punjab","latitude":31.326,"longitude":75.5762,"temp":21.4,"humidity":70,"rain":0.0,"pressure":983.4,"uv_index":6.85,"wind_gusts":23.0,"aqi":138,"pm10":46.4,"pm2_5":35.7,"mosquito_risk":3,"arthritis_risk":5,"migraine_risk":7,"frizz_risk":0,"updated_at":"2026-03-23T20:28:42.673620+05:30"},{"city":"Dehradun","state":"Uttarakhand","latitude":30.6284,"longitude":78.0322,"temp":11.3,"humidity":88,"rain":0.0,"pressure":830.0,"uv_index":6.85,"wind_gusts":21.6,"aqi":101,"pm10":29.5,"pm2_5":22.8,"mosquito_risk":3,"arthritis_risk":10,"migraine_risk":7,"frizz_risk":0,"updated_at":"2026-03-23T20:28:42.673628+05:30"},{"city":"Shimla","state":"Himachal Pradesh","latitude":31.1048,"longitude":77.1734,"temp":9.2,"humidity":88,"rain":0.0,"pressure":783.4,"uv_index":6.9,"wind_gusts":33.1,"aqi":105,"pm10":31.8,"pm2_5":25.3,"mosquito_risk":3,"arthritis_risk":10,"migraine_risk":7,"frizz_risk":0,"updated_at":"2026-03-23T20:28:42.673635+05:30"},{"city":"Manali","state":"Himachal Pradesh","latitude":32.2396,"longitude":77.1887,"temp":11.5,"humidity":83,"rain":0.0,"pressure":817.7,"uv_index":8.85,"wind_gusts":27.7,"aqi":122,"pm10":15.3,"pm2_5":10.8,"mosquito_risk":3,"arthritis_risk":10,"migraine_risk":7,"frizz_risk":0,"updated_at":"2026-03-23T20:28:42.673642+05:30"},{"city":"Gurgaon","state":"Haryana","latitude":28.4595,"longitude":77.0266,"temp":21.0,"humidity":89,"rain":0.0,"pressure":985.2,"uv_index":6.55,"wind_gusts":18.4,"aqi":277,"pm10":183.0,"pm2_5":59.3,"mosquito_risk":3,"arthritis_risk":5,"migraine_risk":7,"frizz_risk":1,"updated_at":"2026-03-23T20:28:42.673648+05:30"},{"city":"Noida","state":"Uttar Pradesh","latitude":28.5355,"longitude":77.391,"temp":22.5,"humidity":80,"rain":0.0,"pressure":988.4,"uv_index":6.4,"wind_gusts":20.2,"aqi":277,"pm10":183.0,"pm2_5":59.3,"mosquito_risk":3,"arthritis_risk":5,"migraine_risk":7,"frizz_risk":1,"updated_at":"2026-03-23T20:28:42.673655+05:30"},{"city":"Ghaziabad","state":"Uttar Pradesh","latitude":28.6692,"longitude":77.4538,"temp":21.4,"humidity":88,"rain":0.0,"pressure":986.7,"uv_index":6.35,"wind_gusts":22.0,"aqi":155,"pm10":102.2,"pm2_5":58.3,"mosquito_risk":3,"arthritis_risk":5,"migraine_risk":7,"frizz_risk":1,"updated_at":"2026-03-23T20:28:42.673665+05:30"},{"city":"Faridabad","state":"Haryana","latitude":28.4089,"longitude":77.3178,"temp":21.3,"humidity":86,"rain":0.0,"pressure":987.5,"uv_index":6.4,"wind_gusts":20.9,"aqi":277,"pm10":183.0,"pm2_5":59.3,"mosquito_risk":3,"arthritis_risk":5,"migraine_risk":7,"frizz_risk":1,"updated_at":"2026-03-23T20:28:42.673671+05:30"},{"city":"Meerut","state":"Uttar Pradesh","latitude":28.9845,"longitude":77.7064,"temp":20.2,"humidity":90,"rain":0.0,"pressure":985.7,"uv_index":6.25,"wind_gusts":27.0,"aqi":155,"pm10":102.2,"pm2_5":58.3,"mosquito_risk":3,"arthritis_risk":5,"migraine_risk":7,"frizz_risk":1,"updated_at":"2026-03-23T20:28:42.673678+05:30"},{"city":"Agra","state":"Uttar Pradesh","latitude":27.1767,"longitude":78.0081,"temp":22.5,"humidity":74,"rain":0.0,"pressure":991.6,"uv_index":5.15,"wind_gusts":24.8,"aqi":220,"pm10":128.5,"pm2_5":69.6,"mosquito_risk":3,"arthritis_risk":5,"migraine_risk":3,"frizz_risk":1,"updated_at":"2026-03-23T20:28:42.673684+05:30"},{"city":"Varanasi","state":"Uttar Pradesh","latitude":25.3176,"longitude":82.9739,"temp":25.4,"humidity":56,"rain":0.0,"pressure":1001.1,"uv_index":7.65,"wind_gusts":27.4,"aqi":125,"pm10":118.5,"pm2_5":51.3,"mosquito_risk":4,"arthritis_risk":5,"migraine_risk":4,"frizz_risk":0,"updated_at":"2026-03-23T20:28:42.673694+05:30"},{"city":"Prayagraj","state":"Uttar Pradesh","latitude":25.4358,"longitude":81.8463,"temp":26.2,"humidity":55,"rain":0.0,"pressure":999.4,"uv_index":7.55,"wind_gusts":20.5,"aqi":126,"pm10":83.6,"pm2_5":34.5,"mosquito_risk":4,"arthritis_risk":5,"migraine_risk":7,"frizz_risk":1,"updated_at":"2026-03-23T20:28:42.673701+05:30"},{"city":"Gorakhpur","state":"Uttar Pradesh","latitude":26.7606,"longitude":83.3732,"temp":23.1,"humidity":69,"rain":0.0,"pressure":1001.0,"uv_index":7.4,"wind_gusts":23.0,"aqi":148,"pm10":87.1,"pm2_5":39.7,"mosquito_risk":3,"arthritis_risk":5,"migraine_risk":4,"frizz_risk":1,"updated_at":"2026-03-23T20:28:42.673708+05:30"},{"city":"Bareilly","state":"Uttar Pradesh","latitude":28.367,"longitude":79.4304,"temp":21.4,"humidity":84,"rain":0.0,"pressure":990.9,"uv_index":5.25,"wind_gusts":25.2,"aqi":108,"pm10":48.8,"pm2_5":29.8,"mosquito_risk":3,"arthritis_risk":5,"migraine_risk":3,"frizz_risk":1,"updated_at":"2026-03-23T20:28:42.673715+05:30"},{"city":"Aligarh","state":"Uttar Pradesh","latitude":27.8974,"longitude":78.088,"temp":21.2,"humidity":85,"rain":0.0,"pressure":989.5,"uv_index":4.35,"wind_gusts":20.9,"aqi":181,"pm10":159.7,"pm2_5":49.4,"mosquito_risk":3,"arthritis_risk":5,"migraine_risk":3,"frizz_risk":1,"updated_at":"2026-03-23T20:28:42.673722+05:30"},{"city":"Moradabad","state":"Uttar Pradesh","latitude":28.8386,"longitude":78.7733,"temp":20.6,"humidity":87,"rain":0.0,"pressure":987.8,"uv_index":5.9,"wind_gusts":27.4,"aqi":126,"pm10":66.6,"pm2_5":41.0,"mosquito_risk":3,"arthritis_risk":5,"migraine_risk":3,"frizz_risk":1,"updated_at":"2026-03-23T20:28:42.673728+05:30"},{"city":"Saharanpur","state":"Uttar Pradesh","latitude":29.9637,"longitude":77.546,"temp":19.9,"humidity":89,"rain":0.0,"pressure":979.6,"uv_index":6.2,"wind_gusts":25.2,"aqi":150,"pm10":55.2,"pm2_5":39.6,"mosquito_risk":3,"arthritis_risk":10,"migraine_risk":7,"frizz_risk":1,"updated_at":"2026-03-23T20:28:42.673735+05:30"},{"city":"Jhansi","state":"Uttar Pradesh","latitude":25.4484,"longitude":78.5685,"temp":24.6,"humidity":60,"rain":0.0,"pressure":981.1,"uv_index":7.4,"wind_gusts":33.1,"aqi":106,"pm10":86.8,"pm2_5":34.9,"mosquito_risk":0,"arthritis_risk":5,"migraine_risk":7,"frizz_risk":1,"updated_at":"2026-03-23T20:28:45.891343+05:30"},{"city":"Surat","state":"Gujarat","latitude":21.1702,"longitude":72.8311,"temp":28.8,"humidity":52,"rain":0.0,"pressure":1007.5,"uv_index":7.65,"wind_gusts":25.6,"aqi":111,"pm10":80.8,"pm2_5":60.5,"mosquito_risk":4,"arthritis_risk":5,"migraine_risk":4,"frizz_risk":1,"updated_at":"2026-03-23T20:28:45.891377+05:30"},{"city":"Vadodara","state":"Gujarat","latitude":22.3072,"longitude":73.1812,"temp":29.8,"humidity":50,"rain":0.0,"pressure":1005.2,"uv_index":7.85,"wind_gusts":25.9,"aqi":101,"pm10":65.2,"pm2_5":36.1,"mosquito_risk":4,"arthritis_risk":5,"migraine_risk":4,"frizz_risk":1,"updated_at":"2026-03-23T20:28:45.891389+05:30"},{"city":"Rajkot","state":"Gujarat","latitude":22.3039,"longitude":70.8022,"temp":28.1,"humidity":30,"rain":0.0,"pressure":996.4,"uv_index":7.7,"wind_gusts":35.6,"aqi":64,"pm10":23.2,"pm2_5":16.7,"mosquito_risk":4,"arthritis_risk":5,"migraine_risk":7,"frizz_risk":0,"updated_at":"2026-03-23T20:28:45.891399+05:30"},{"city":"Thane","state":"Maharashtra","latitude":19.2183,"longitude":72.9781,"temp":29.4,"humidity":49,"rain":0.0,"pressure":1008.2,"uv_index":7.9,"wind_gusts":37.8,"aqi":204,"pm10":50.1,"pm2_5":39.5,"mosquito_risk":4,"arthritis_risk":0,"migraine_risk":4,"frizz_risk":1,"updated_at":"2026-03-23T20:28:45.891409+05:30"},{"city":"Nagpur","state":"Maharashtra","latitude":21.1458,"longitude":79.0882,"temp":29.4,"humidity":37,"rain":0.0,"pressure":975.1,"uv_index":8.1,"wind_gusts":20.5,"aqi":155,"pm10":37.8,"pm2_5":29.5,"mosquito_risk":4,"arthritis_risk":5,"migraine_risk":7,"frizz_risk":0,"updated_at":"2026-03-23T20:28:45.891418+05:30"},{"city":"Nashik","state":"Maharashtra","latitude":19.9975,"longitude":73.7898,"temp":26.9,"humidity":46,"rain":0.0,"pressure":946.9,"uv_index":8.15,"wind_gusts":36.4,"aqi":122,"pm10":27.8,"pm2_5":16.9,"mosquito_risk":4,"arthritis_risk":5,"migraine_risk":7,"frizz_risk":0,"updated_at":"2026-03-23T20:28:45.891426+05:30"},{"city":"Aurangabad","state":"Maharashtra","latitude":19.8762,"longitude":75.3433,"temp":28.5,"humidity":38,"rain":0.0,"pressure":945.0,"uv_index":8.65,"wind_gusts":27.0,"aqi":114,"pm10":15.4,"pm2_5":11.5,"mosquito_risk":4,"arthritis_risk":5,"migraine_risk":7,"frizz_risk":0,"updated_at":"2026-03-23T20:28:45.891435+05:30"},{"city":"Solapur","state":"Maharashtra","latitude":17.6599,"longitude":75.9064,"temp":30.4,"humidity":37,"rain":0.0,"pressure":957.5,"uv_index":8.8,"wind_gusts":27.4,"aqi":116,"pm10":46.2,"pm2_5":33.4,"mosquito_risk":0,"arthritis_risk":5,"migraine_risk":7,"frizz_risk":0,"updated_at":"2026-03-23T20:28:45.891444+05:30"},{"city":"Kolhapur","state":"Maharashtra","latitude":16.705,"longitude":74.2433,"temp":25.9,"humidity":60,"rain":0.0,"pressure":948.6,"uv_index":8.85,"wind_gusts":37.8,"aqi":131,"pm10":56.2,"pm2_5":46.8,"mosquito_risk":4,"arthritis_risk":5,"migraine_risk":7,"frizz_risk":1,"updated_at":"2026-03-23T20:28:45.891452+05:30"},{"city":"Goa","state":"Goa","latitude":15.2993,"longitude":74.124,"temp":28.4,"humidity":78,"rain":0.0,"pressure":999.0,"uv_index":8.9,"wind_gusts":33.8,"aqi":123,"pm10":37.5,"pm2_5":25.0,"mosquito_risk":7,"arthritis_risk":5,"migraine_risk":7,"frizz_risk":1,"updated_at":"2026-03-23T20:28:45.891460+05:30"},{"city":"Jodhpur","state":"Rajasthan","latitude":26.2389,"longitude":73.0243,"temp":28.9,"humidity":36,"rain":0.0,"pressure":985.0,"uv_index":7.5,"wind_gusts":27.4,"aqi":74,"pm10":69.6,"pm2_5":20.4,"mosquito_risk":4,"arthritis_risk":5,"migraine_risk":7,"frizz_risk":0,"updated_at":"2026-03-23T20:28:45.891468+05:30"},{"city":"Udaipur","state":"Rajasthan","latitude":24.5854,"longitude":73.7125,"temp":25.8,"humidity":41,"rain":0.0,"pressure":948.6,"uv_index":7.55,"wind_gusts":38.5,"aqi":55,"pm10":32.6,"pm2_5":16.8,"mosquito_risk":4,"arthritis_risk":5,"migraine_risk":7,"frizz_risk":0,"updated_at":"2026-03-23T20:28:45.891476+05:30"},{"city":"Kota","state":"Rajasthan","latitude":25.2138,"longitude":75.8648,"temp":25.2,"humidity":61,"rain":0.0,"pressure":981.6,"uv_index":7.1,"wind_gusts":34.2,"aqi":75,"pm10":89.4,"pm2_5":32.1,"mosquito_risk":7,"arthritis_risk":5,"migraine_risk":7,"frizz_risk":1,"updated_at":"2026-03-23T20:28:45.891484+05:30"},{"city":"Bikaner","state":"Rajasthan","latitude":28.0229,"longitude":73.3119,"temp":28.7,"humidity":39,"rain":0.0,"pressure":984.1,"uv_index":7.25,"wind_gusts":15.8,"aqi":74,"pm10":39.7,"pm2_5":16.1,"mosquito_risk":4,"arthritis_risk":5,"migraine_risk":7,"frizz_risk":0,"updated_at":"2026-03-23T20:28:45.891492+05:30"},{"city":"Ajmer","state":"Rajasthan","latitude":26.4499,"longitude":74.6399,"temp":25.7,"humidity":53,"rain":0.0,"pressure":957.0,"uv_index":7.5,"wind_gusts":31.7,"aqi":62,"pm10":47.4,"pm2_5":18.5,"mosquito_risk":4,"arthritis_risk":5,"migraine_risk":7,"frizz_risk":0,"updated_at":"2026-03-23T20:28:45.891500+05:30"},{"city":"Gwalior","state":"Madhya Pradesh","latitude":26.2183,"longitude":78.1828,"temp":23.4,"humidity":74,"rain":0.0,"pressure":986.7,"uv_index":4.35,"wind_gusts":31.7,"aqi":96,"pm10":105.9,"pm2_5":36.8,"mosquito_risk":3,"arthritis_risk":5,"migraine_risk":3,"frizz_risk":1,"updated_at":"2026-03-23T20:28:45.891508+05:30"},{"city":"Indore","state":"Madhya Pradesh","latitude":22.7196,"longitude":75.8577,"temp":26.3,"humidity":50,"rain":0.0,"pressure":949.5,"uv_index":8.1,"wind_gusts":26.6,"aqi":68,"pm10":34.7,"pm2_5":18.4,"mosquito_risk":4,"arthritis_risk":5,"migraine_risk":7,"frizz_risk":0,"updated_at":"2026-03-23T20:28:45.891516+05:30"},{"city":"Bhopal","state":"Madhya Pradesh","latitude":23.2599,"longitude":77.4126,"temp":25.8,"humidity":46,"rain":0.0,"pressure":955.5,"uv_index":8.0,"wind_gusts":33.8,"aqi":94,"pm10":22.2,"pm2_5":13.9,"mosquito_risk":4,"arthritis_risk":5,"migraine_risk":7,"frizz_risk":0,"updated_at":"2026-03-23T20:28:45.891524+05:30"},{"city":"Jabalpur","state":"Madhya Pradesh","latitude":23.1815,"longitude":79.9864,"temp":26.1,"humidity":51,"rain":0.0,"pressure":964.1,"uv_index":7.8,"wind_gusts":20.9,"aqi":89,"pm10":28.3,"pm2_5":18.0,"mosquito_risk":4,"arthritis_risk":5,"migraine_risk":7,"frizz_risk":0,"updated_at":"2026-03-23T20:28:45.891532+05:30"},{"city":"Ujjain","state":"Madhya Pradesh","latitude":23.1765,"longitude":75.7885,"temp":24.7,"humidity":51,"rain":0.0,"pressure":955.1,"uv_index":8.0,"wind_gusts":25.6,"aqi":81,"pm10":35.9,"pm2_5":19.4,"mosquito_risk":0,"arthritis_risk":5,"migraine_risk":7,"frizz_risk":0,"updated_at":"2026-03-23T20:28:45.891540+05:30"},{"city":"Visakhapatnam","state":"Andhra Pradesh","latitude":17.6868,"longitude":83.2185,"temp":26.0,"humidity":82,"rain":0.0,"pressure":1007.2,"uv_index":8.85,"wind_gusts":33.8,"aqi":94,"pm10":27.1,"pm2_5":19.6,"mosquito_risk":7,"arthritis_risk":5,"migraine_risk":4,"frizz_risk":1,"updated_at":"2026-03-23T20:28:45.891548+05:30"},{"city":"Vijayawada","state":"Andhra Pradesh","latitude":16.5062,"longitude":80.648,"temp":27.9,"humidity":71,"rain":0.0,"pressure":1004.9,"uv_index":8.95,"wind_gusts":23.0,"aqi":73,"pm10":19.1,"pm2_5":15.3,"mosquito_risk":7,"arthritis_risk":5,"migraine_risk":4,"frizz_risk":1,"updated_at":"2026-03-23T20:28:45.891556+05:30"},{"city":"Guntur","state":"Andhra Pradesh","latitude":16.3067,"longitude":80.4365,"temp":26.4,"humidity":79,"rain":0.0,"pressure":1006.2,"uv_index":8.95,"wind_gusts":26.6,"aqi":72,"pm10":21.1,"pm2_5":16.9,"mosquito_risk":7,"arthritis_risk":5,"migraine_risk":4,"frizz_risk":1,"updated_at":"2026-03-23T20:28:45.891563+05:30"},{"city":"Nellore","state":"Andhra Pradesh","latitude":14.4426,"longitude":79.9865,"temp":27.1,"humidity":77,"rain":0.0,"pressure":1008.2,"uv_index":9.1,"wind_gusts":28.4,"aqi":51,"pm10":10.9,"pm2_5":6.9,"mosquito_risk":7,"arthritis_risk":0,"migraine_risk":4,"frizz_risk":1,"updated_at":"2026-03-23T20:28:45.891572+05:30"},{"city":"Kurnool","state":"Andhra Pradesh","latitude":15.8281,"longitude":78.0373,"temp":32.8,"humidity":37,"rain":0.0,"pressure":977.3,"uv_index":8.95,"wind_gusts":25.9,"aqi":89,"pm10":35.7,"pm2_5":25.6,"mosquito_risk":0,"arthritis_risk":5,"migraine_risk":7,"frizz_risk":1,"updated_at":"2026-03-23T20:28:45.891581+05:30"},{"city":"Kakinada","state":"Andhra Pradesh","latitude":16.9891,"longitude":82.2475,"temp":26.1,"humidity":81,"rain":0.0,"pressure":1010.9,"uv_index":8.9,"wind_gusts":30.6,"aqi":60,"pm10":20.0,"pm2_5":11.3,"mosquito_risk":7,"arthritis_risk":0,"migraine_risk":4,"frizz_risk":1,"updated_at":"2026-03-23T20:28:45.891589+05:30"},{"city":"Tirupati","state":"Andhra Pradesh","latitude":13.6288,"longitude":79.4192,"temp":28.0,"humidity":64,"rain":0.0,"pressure":993.9,"uv_index":9.2,"wind_gusts":29.9,"aqi":92,"pm10":21.1,"pm2_5":17.4,"mosquito_risk":7,"arthritis_risk":5,"migraine_risk":7,"frizz_risk":1,"updated_at":"2026-03-23T20:28:45.891596+05:30"},{"city":"Warangal","state":"Telangana","latitude":17.9689,"longitude":79.5941,"temp":29.3,"humidity":50,"rain":0.0,"pressure":980.2,"uv_index":8.8,"wind_gusts":24.1,"aqi":114,"pm10":59.0,"pm2_5":48.8,"mosquito_risk":4,"arthritis_risk":5,"migraine_risk":7,"frizz_risk":1,"updated_at":"2026-03-23T20:28:45.891603+05:30"},{"city":"Nizamabad","state":"Telangana","latitude":18.6725,"longitude":78.0941,"temp":29.1,"humidity":42,"rain":0.0,"pressure":965.9,"uv_index":8.7,"wind_gusts":25.2,"aqi":130,"pm10":48.5,"pm2_5":39.8,"mosquito_risk":4,"arthritis_risk":5,"migraine_risk":7,"frizz_risk":0,"updated_at":"2026-03-23T20:28:45.891611+05:30"},{"city":"Mysore","state":"Karnataka","latitude":12.2958,"longitude":76.6396,"temp":27.3,"humidity":59,"rain":0.0,"pressure":929.4,"uv_index":9.4,"wind_gusts":26.6,"aqi":121,"pm10":38.6,"pm2_5":31.3,"mosquito_risk":4,"arthritis_risk":5,"migraine_risk":7,"frizz_risk":1,"updated_at":"2026-03-23T20:28:45.891619+05:30"},{"city":"Mangalore","state":"Karnataka","latitude":12.9141,"longitude":74.856,"temp":29.6,"humidity":75,"rain":0.0,"pressure":1007.6,"uv_index":9.05,"wind_gusts":26.6,"aqi":75,"pm10":27.8,"pm2_5":18.2,"mosquito_risk":7,"arthritis_risk":5,"migraine_risk":4,"frizz_risk":1,"updated_at":"2026-03-23T20:28:45.891626+05:30"},{"city":"Hubli-Dharwad","state":"Karnataka","latitude":15.3647,"longitude":75.124,"temp":26.6,"humidity":67,"rain":0.0,"pressure":941.5,"uv_index":9.1,"wind_gusts":35.6,"aqi":155,"pm10":44.1,"pm2_5":33.8,"mosquito_risk":7,"arthritis_risk":5,"migraine_risk":7,"frizz_risk":1,"updated_at":"2026-03-23T20:28:45.891633+05:30"},{"city":"Belgaum","state":"Karnataka","latitude":15.8497,"longitude":74.4977,"temp":25.0,"humidity":72,"rain":0.0,"pressure":926.5,"uv_index":9.15,"wind_gusts":41.8,"aqi":154,"pm10":30.0,"pm2_5":26.1,"mosquito_risk":7,"arthritis_risk":5,"migraine_risk":7,"frizz_risk":1,"updated_at":"2026-03-23T20:28:49.113659+05:30"},{"city":"Coimbatore","state":"Tamil Nadu","latitude":11.0168,"longitude":76.9558,"temp":27.1,"humidity":57,"rain":0.0,"pressure":962.6,"uv_index":9.4,"wind_gusts":37.1,"aqi":110,"pm10":27.9,"pm2_5":21.5,"mosquito_risk":4,"arthritis_risk":5,"migraine_risk":7,"frizz_risk":1,"updated_at":"2026-03-23T20:28:49.113694+05:30"},{"city":"Madurai","state":"Tamil Nadu","latitude":9.9252,"longitude":78.1198,"temp":29.8,"humidity":55,"rain":0.0,"pressure":994.1,"uv_index":9.35,"wind_gusts":30.6,"aqi":71,"pm10":18.9,"pm2_5":14.8,"mosquito_risk":4,"arthritis_risk":5,"migraine_risk":7,"frizz_risk":1,"updated_at":"2026-03-23T20:28:49.113707+05:30"},{"city":"Trichy","state":"Tamil Nadu","latitude":10.7905,"longitude":78.7047,"temp":28.7,"humidity":66,"rain":0.0,"pressure":1001.1,"uv_index":9.3,"wind_gusts":23.8,"aqi":73,"pm10":18.8,"pm2_5":16.1,"mosquito_risk":7,"arthritis_risk":5,"migraine_risk":4,"frizz_risk":1,"updated_at":"2026-03-23T20:28:49.113716+05:30"},{"city":"Salem","state":"Tamil Nadu","latitude":11.6643,"longitude":78.146,"temp":30.0,"humidity":49,"rain":0.0,"pressure":978.1,"uv_index":9.35,"wind_gusts":29.2,"aqi":118,"pm10":30.7,"pm2_5":24.3,"mosquito_risk":4,"arthritis_risk":5,"migraine_risk":7,"frizz_risk":1,"updated_at":"2026-03-23T20:28:49.113724+05:30"},{"city":"Tirunelveli","state":"Tamil Nadu","latitude":8.7139,"longitude":77.7567,"temp":29.1,"humidity":56,"rain":0.0,"pressure":1004.3,"uv_index":9.3,"wind_gusts":34.2,"aqi":71,"pm10":14.5,"pm2_5":10.1,"mosquito_risk":4,"arthritis_risk":5,"migraine_risk":4,"frizz_risk":1,"updated_at":"2026-03-23T20:28:49.113731+05:30"},{"city":"Vellore","state":"Tamil Nadu","latitude":12.9165,"longitude":79.1325,"temp":27.9,"humidity":59,"rain":0.0,"pressure":986.5,"uv_index":9.25,"wind_gusts":36.0,"aqi":80,"pm10":20.8,"pm2_5":16.9,"mosquito_risk":4,"arthritis_risk":5,"migraine_risk":7,"frizz_risk":1,"updated_at":"2026-03-23T20:28:49.113738+05:30"},{"city":"Erode","state":"Tamil Nadu","latitude":11.341,"longitude":77.7172,"temp":30.7,"humidity":50,"rain":0.0,"pressure":989.6,"uv_index":9.35,"wind_gusts":18.4,"aqi":92,"pm10":25.6,"pm2_5":19.9,"mosquito_risk":0,"arthritis_risk":5,"migraine_risk":7,"frizz_risk":1,"updated_at":"2026-03-23T20:28:49.113745+05:30"},{"city":"Kochi","state":"Kerala","latitude":9.9312,"longitude":76.2673,"temp":29.4,"humidity":78,"rain":0.0,"pressure":1009.2,"uv_index":9.15,"wind_gusts":33.5,"aqi":131,"pm10":35.9,"pm2_5":27.8,"mosquito_risk":7,"arthritis_risk":0,"migraine_risk":4,"frizz_risk":1,"updated_at":"2026-03-23T20:28:49.113752+05:30"},{"city":"Thiruvananthapuram","state":"Kerala","latitude":8.5241,"longitude":76.9366,"temp":29.3,"humidity":72,"rain":0.0,"pressure":1008.9,"uv_index":9.15,"wind_gusts":24.1,"aqi":117,"pm10":22.6,"pm2_5":15.5,"mosquito_risk":7,"arthritis_risk":0,"migraine_risk":4,"frizz_risk":1,"updated_at":"2026-03-23T20:28:49.113759+05:30"},{"city":"Kozhikode","state":"Kerala","latitude":11.2588,"longitude":75.7804,"temp":29.9,"humidity":75,"rain":0.0,"pressure":1008.3,"uv_index":9.1,"wind_gusts":28.4,"aqi":98,"pm10":30.6,"pm2_5":17.4,"mosquito_risk":7,"arthritis_risk":0,"migraine_risk":4,"frizz_risk":1,"updated_at":"2026-03-23T20:28:49.113766+05:30"},{"city":"Thrissur","state":"Kerala","latitude":10.5276,"longitude":76.2144,"temp":28.8,"humidity":79,"rain":0.0,"pressure":1007.4,"uv_index":9.1,"wind_gusts":38.9,"aqi":105,"pm10":34.2,"pm2_5":26.3,"mosquito_risk":7,"arthritis_risk":5,"migraine_risk":4,"frizz_risk":1,"updated_at":"2026-03-23T20:28:49.113773+05:30"},{"city":"Kannur","state":"Kerala","latitude":11.8745,"longitude":75.3704,"temp":29.5,"humidity":72,"rain":0.0,"pressure":1007.7,"uv_index":9.1,"wind_gusts":27.4,"aqi":69,"pm10":23.8,"pm2_5":14.4,"mosquito_risk":7,"arthritis_risk":5,"migraine_risk":4,"frizz_risk":1,"updated_at":"2026-03-23T20:28:49.113781+05:30"},{"city":"Patna","state":"Bihar","latitude":25.5941,"longitude":85.1376,"temp":26.5,"humidity":50,"rain":0.0,"pressure":1003.8,"uv_index":7.85,"wind_gusts":20.9,"aqi":151,"pm10":101.3,"pm2_5":54.2,"mosquito_risk":4,"arthritis_risk":5,"migraine_risk":4,"frizz_risk":0,"updated_at":"2026-03-23T20:28:49.113787+05:30"},{"city":"Gaya","state":"Bihar","latitude":24.7914,"longitude":85.0002,"temp":24.4,"humidity":60,"rain":0.0,"pressure":997.4,"uv_index":7.95,"wind_gusts":17.6,"aqi":108,"pm10":83.4,"pm2_5":36.6,"mosquito_risk":0,"arthritis_risk":5,"migraine_risk":7,"frizz_risk":1,"updated_at":"2026-03-23T20:28:49.113794+05:30"},{"city":"Muzaffarpur","state":"Bihar","latitude":26.1209,"longitude":85.3647,"temp":23.4,"humidity":67,"rain":0.0,"pressure":1003.9,"uv_index":7.8,"wind_gusts":15.8,"aqi":151,"pm10":116.2,"pm2_5":70.5,"mosquito_risk":3,"arthritis_risk":5,"migraine_risk":4,"frizz_risk":1,"updated_at":"2026-03-23T20:28:49.113800+05:30"},{"city":"Bhagalpur","state":"Bihar","latitude":25.2425,"longitude":87.0117,"temp":24.0,"humidity":68,"rain":0.0,"pressure":1005.1,"uv_index":7.85,"wind_gusts":14.4,"aqi":139,"pm10":46.6,"pm2_5":42.6,"mosquito_risk":3,"arthritis_risk":5,"migraine_risk":4,"frizz_risk":1,"updated_at":"2026-03-23T20:28:49.113807+05:30"},{"city":"Ranchi","state":"Jharkhand","latitude":23.3441,"longitude":85.3096,"temp":22.7,"humidity":48,"rain":0.0,"pressure":940.8,"uv_index":8.55,"wind_gusts":27.7,"aqi":83,"pm10":30.4,"pm2_5":14.8,"mosquito_risk":0,"arthritis_risk":5,"migraine_risk":7,"frizz_risk":0,"updated_at":"2026-03-23T20:28:49.113814+05:30"},{"city":"Jamshedpur","state":"Jharkhand","latitude":22.8046,"longitude":86.2029,"temp":27.3,"humidity":48,"rain":0.0,"pressure":994.1,"uv_index":8.4,"wind_gusts":18.7,"aqi":152,"pm10":58.1,"pm2_5":41.6,"mosquito_risk":4,"arthritis_risk":5,"migraine_risk":7,"frizz_risk":0,"updated_at":"2026-03-23T20:28:49.113821+05:30"},{"city":"Dhanbad","state":"Jharkhand","latitude":23.7957,"longitude":86.4304,"temp":24.7,"humidity":55,"rain":0.0,"pressure":983.3,"uv_index":8.3,"wind_gusts":16.9,"aqi":153,"pm10":101.0,"pm2_5":81.7,"mosquito_risk":0,"arthritis_risk":5,"migraine_risk":7,"frizz_risk":0,"updated_at":"2026-03-23T20:28:49.113827+05:30"},{"city":"Bokaro","state":"Jharkhand","latitude":23.6693,"longitude":86.1511,"temp":24.8,"humidity":56,"rain":0.0,"pressure":987.5,"uv_index":8.3,"wind_gusts":18.7,"aqi":152,"pm10":85.4,"pm2_5":64.7,"mosquito_risk":0,"arthritis_risk":5,"migraine_risk":7,"frizz_risk":0,"updated_at":"2026-03-23T20:28:49.113834+05:30"},{"city":"Bhubaneswar","state":"Odisha","latitude":20.2961,"longitude":85.8245,"temp":26.1,"humidity":81,"rain":0.0,"pressure":1006.3,"uv_index":8.65,"wind_gusts":32.4,"aqi":153,"pm10":45.4,"pm2_5":37.3,"mosquito_risk":7,"arthritis_risk":5,"migraine_risk":4,"frizz_risk":1,"updated_at":"2026-03-23T20:28:49.113841+05:30"},{"city":"Cuttack","state":"Odisha","latitude":20.4625,"longitude":85.8828,"temp":27.5,"humidity":67,"rain":0.0,"pressure":1007.9,"uv_index":8.7,"wind_gusts":24.8,"aqi":153,"pm10":45.4,"pm2_5":37.3,"mosquito_risk":7,"arthritis_risk":5,"migraine_risk":4,"frizz_risk":1,"updated_at":"2026-03-23T20:28:49.113848+05:30"},{"city":"Rourkela","state":"Odisha","latitude":22.2604,"longitude":84.8536,"temp":24.7,"humidity":57,"rain":0.0,"pressure":987.8,"uv_index":8.3,"wind_gusts":19.1,"aqi":123,"pm10":45.8,"pm2_5":29.4,"mosquito_risk":0,"arthritis_risk":5,"migraine_risk":7,"frizz_risk":0,"updated_at":"2026-03-23T20:28:49.113854+05:30"},{"city":"Raipur","state":"Chhattisgarh","latitude":21.2514,"longitude":81.6296,"temp":28.8,"humidity":37,"rain":0.0,"pressure":977.0,"uv_index":8.45,"wind_gusts":18.7,"aqi":141,"pm10":46.7,"pm2_5":35.0,"mosquito_risk":4,"arthritis_risk":5,"migraine_risk":7,"frizz_risk":0,"updated_at":"2026-03-23T20:28:49.113860+05:30"},{"city":"Bhilai","state":"Chhattisgarh","latitude":21.1938,"longitude":81.3509,"temp":28.4,"humidity":40,"rain":0.0,"pressure":977.3,"uv_index":8.45,"wind_gusts":16.6,"aqi":151,"pm10":48.8,"pm2_5":38.1,"mosquito_risk":4,"arthritis_risk":5,"migraine_risk":7,"frizz_risk":0,"updated_at":"2026-03-23T20:28:49.113866+05:30"},{"city":"Guwahati","state":"Assam","latitude":26.1158,"longitude":91.7086,"temp":23.1,"humidity":80,"rain":0.0,"pressure":1006.2,"uv_index":7.6,"wind_gusts":20.9,"aqi":91,"pm10":33.9,"pm2_5":32.4,"mosquito_risk":3,"arthritis_risk":5,"migraine_risk":4,"frizz_risk":1,"updated_at":"2026-03-23T20:28:49.113873+05:30"},{"city":"Agartala","state":"Tripura","latitude":23.8315,"longitude":91.2868,"temp":24.1,"humidity":62,"rain":0.0,"pressure":1010.4,"uv_index":8.05,"wind_gusts":13.3,"aqi":157,"pm10":84.8,"pm2_5":80.6,"mosquito_risk":3,"arthritis_risk":0,"migraine_risk":4,"frizz_risk":1,"updated_at":"2026-03-23T20:28:49.113879+05:30"},{"city":"Shillong","state":"Meghalaya","latitude":25.5788,"longitude":91.8933,"temp":11.4,"humidity":90,"rain":0.0,"pressure":857.2,"uv_index":7.15,"wind_gusts":25.2,"aqi":96,"pm10":27.5,"pm2_5":26.0,"mosquito_risk":3,"arthritis_risk":10,"migraine_risk":7,"frizz_risk":0,"updated_at":"2026-03-23T20:28:49.113886+05:30"},{"city":"Imphal","state":"Manipur","latitude":24.817,"longitude":93.9368,"temp":15.0,"humidity":82,"rain":0.0,"pressure":926.0,"uv_index":8.35,"wind_gusts":36.7,"aqi":81,"pm10":29.2,"pm2_5":27.4,"mosquito_risk":3,"arthritis_risk":10,"migraine_risk":7,"frizz_risk":0,"updated_at":"2026-03-23T20:28:49.113892+05:30"},{"city":"Aizawl","state":"Mizoram","latitude":23.7271,"longitude":92.7176,"temp":16.0,"humidity":69,"rain":0.0,"pressure":894.8,"uv_index":8.3,"wind_gusts":33.5,"aqi":85,"pm10":30.9,"pm2_5":27.4,"mosquito_risk":3,"arthritis_risk":5,"migraine_risk":7,"frizz_risk":0,"updated_at":"2026-03-23T20:28:49.113899+05:30"},{"city":"Kohima","state":"Nagaland","latitude":25.6701,"longitude":94.1077,"temp":12.1,"humidity":94,"rain":0.0,"pressure":856.0,"uv_index":8.0,"wind_gusts":39.2,"aqi":71,"pm10":24.5,"pm2_5":21.8,"mosquito_risk":3,"arthritis_risk":10,"migraine_risk":7,"frizz_risk":0,"updated_at":"2026-03-23T20:28:49.113906+05:30"},{"city":"Gangtok","state":"Sikkim","latitude":27.3314,"longitude":88.6138,"temp":12.1,"humidity":98,"rain":0.2,"pressure":838.1,"uv_index":6.5,"wind_gusts":18.7,"aqi":91,"pm10":30.3,"pm2_5":29.6,"mosquito_risk":6,"arthritis_risk":10,"migraine_risk":7,"frizz_risk":0,"updated_at":"2026-03-23T20:28:49.113913+05:30"},{"city":"Siliguri","state":"West Bengal","latitude":26.7271,"longitude":88.3953,"temp":18.9,"humidity":68,"rain":0.0,"pressure":997.8,"uv_index":7.1,"wind_gusts":20.5,"aqi":111,"pm10":36.3,"pm2_5":34.8,"mosquito_risk":3,"arthritis_risk":5,"migraine_risk":7,"frizz_risk":0,"updated_at":"2026-03-23T20:28:52.338533+05:30"},{"city":"Durgapur","state":"West Bengal","latitude":23.5204,"longitude":87.3119,"temp":25.9,"humidity":52,"rain":0.0,"pressure":998.7,"uv_index":8.25,"wind_gusts":16.2,"aqi":158,"pm10":75.4,"pm2_5":67.3,"mosquito_risk":4,"arthritis_risk":5,"migraine_risk":7,"frizz_risk":0,"updated_at":"2026-03-23T20:28:52.338567+05:30"},{"city":"Asansol","state":"West Bengal","latitude":23.6739,"longitude":86.9524,"temp":25.7,"humidity":52,"rain":0.0,"pressure":997.1,"uv_index":8.25,"wind_gusts":16.6,"aqi":126,"pm10":71.7,"pm2_5":58.4,"mosquito_risk":4,"arthritis_risk":5,"migraine_risk":7,"frizz_risk":0,"updated_at":"2026-03-23T20:28:52.338579+05:30"},{"city":"Pondicherry","state":"Puducherry","latitude":11.9139,"longitude":79.8145,"temp":25.7,"humidity":86,"rain":0.0,"pressure":1010.4,"uv_index":9.15,"wind_gusts":29.2,"aqi":31,"pm10":9.3,"pm2_5":5.7,"mosquito_risk":7,"arthritis_risk":0,"migraine_risk":4,"frizz_risk":1,"updated_at":"2026-03-23T20:28:52.338588+05:30"},{"city":"Port Blair","state":"Andaman and Nicobar Islands","latitude":11.6234,"longitude":92.7265,"temp":28.7,"humidity":75,"rain":0.0,"pressure":1008.9,"uv_index":9.1,"wind_gusts":23.4,"aqi":31,"pm10":3.8,"pm2_5":2.5,"mosquito_risk":7,"arthritis_risk":0,"migraine_risk":4,"frizz_risk":1,"updated_at":"2026-03-23T20:28:52.338597+05:30"},{"city":"Haridwar","state":"Uttarakhand","latitude":29.9457,"longitude":78.1642,"temp":18.8,"humidity":89,"rain":0.0,"pressure":978.9,"uv_index":6.35,"wind_gusts":24.8,"aqi":126,"pm10":51.3,"pm2_5":36.3,"mosquito_risk":3,"arthritis_risk":10,"migraine_risk":7,"frizz_risk":1,"updated_at":"2026-03-23T20:28:52.338606+05:30"},{"city":"Rishikesh","state":"Uttarakhand","latitude":30.0869,"longitude":78.2676,"temp":19.3,"humidity":86,"rain":0.0,"pressure":971.1,"uv_index":6.4,"wind_gusts":21.2,"aqi":117,"pm10":54.5,"pm2_5":34.8,"mosquito_risk":3,"arthritis_risk":10,"migraine_risk":7,"frizz_risk":1,"updated_at":"2026-03-23T20:28:52.338615+05:30"},{"city":"Nainital","state":"Uttarakhand","latitude":29.3919,"longitude":79.4542,"temp":13.8,"humidity":83,"rain":0.0,"pressure":806.1,"uv_index":7.0,"wind_gusts":45.0,"aqi":104,"pm10":48.3,"pm2_5":33.8,"mosquito_risk":3,"arthritis_risk":10,"migraine_risk":7,"frizz_risk":0,"updated_at":"2026-03-23T20:28:52.338624+05:30"},{"city":"Mussoorie","state":"Uttarakhand","latitude":30.4599,"longitude":78.0664,"temp":11.7,"humidity":89,"rain":0.0,"pressure":802.4,"uv_index":6.65,"wind_gusts":24.5,"aqi":122,"pm10":48.8,"pm2_5":37.8,"mosquito_risk":3,"arthritis_risk":10,"migraine_risk":7,"frizz_risk":0,"updated_at":"2026-03-23T20:28:52.338632+05:30"},{"city":"Dharamshala","state":"Himachal Pradesh","latitude":32.219,"longitude":76.3234,"temp":15.9,"humidity":71,"rain":0.0,"pressure":869.9,"uv_index":6.95,"wind_gusts":19.4,"aqi":120,"pm10":24.7,"pm2_5":18.9,"mosquito_risk":3,"arthritis_risk":5,"migraine_risk":7,"frizz_risk":0,"updated_at":"2026-03-23T20:28:52.338640+05:30"},{"city":"Dalhousie","state":"Himachal Pradesh","latitude":32.5387,"longitude":75.971,"temp":12.7,"humidity":70,"rain":0.0,"pressure":803.3,"uv_index":7.15,"wind_gusts":17.3,"aqi":112,"pm10":36.8,"pm2_5":31.1,"mosquito_risk":3,"arthritis_risk":5,"migraine_risk":7,"frizz_risk":0,"updated_at":"2026-03-23T20:28:52.338649+05:30"},{"city":"Patiala","state":"Punjab","latitude":30.3398,"longitude":76.3869,"temp":21.7,"humidity":74,"rain":0.0,"pressure":981.8,"uv_index":6.3,"wind_gusts":23.8,"aqi":143,"pm10":65.4,"pm2_5":47.5,"mosquito_risk":3,"arthritis_risk":5,"migraine_risk":7,"frizz_risk":1,"updated_at":"2026-03-23T20:28:52.338657+05:30"},{"city":"Bhatinda","state":"Punjab","latitude":30.211,"longitude":74.9455,"temp":22.6,"humidity":67,"rain":0.0,"pressure":986.8,"uv_index":7.0,"wind_gusts":18.4,"aqi":133,"pm10":75.9,"pm2_5":45.8,"mosquito_risk":3,"arthritis_risk":5,"migraine_risk":7,"frizz_risk":1,"updated_at":"2026-03-23T20:28:52.338666+05:30"},{"city":"Rohtak","state":"Haryana","latitude":28.8955,"longitude":76.6066,"temp":21.5,"humidity":84,"rain":0.0,"pressure":985.7,"uv_index":6.45,"wind_gusts":20.5,"aqi":157,"pm10":79.4,"pm2_5":42.3,"mosquito_risk":3,"arthritis_risk":5,"migraine_risk":7,"frizz_risk":1,"updated_at":"2026-03-23T20:28:52.338674+05:30"},{"city":"Panipat","state":"Haryana","latitude":29.3909,"longitude":76.9635,"temp":20.8,"humidity":86,"rain":0.0,"pressure":984.5,"uv_index":6.3,"wind_gusts":23.0,"aqi":184,"pm10":62.9,"pm2_5":39.0,"mosquito_risk":3,"arthritis_risk":5,"migraine_risk":7,"frizz_risk":1,"updated_at":"2026-03-23T20:28:52.338681+05:30"},{"city":"Mathura","state":"Uttar Pradesh","latitude":27.4924,"longitude":77.6737,"temp":22.2,"humidity":80,"rain":0.0,"pressure":990.5,"uv_index":5.9,"wind_gusts":20.2,"aqi":196,"pm10":115.5,"pm2_5":54.5,"mosquito_risk":3,"arthritis_risk":5,"migraine_risk":3,"frizz_risk":1,"updated_at":"2026-03-23T20:28:52.338689+05:30"},{"city":"Vrindavan","state":"Uttar Pradesh","latitude":27.5823,"longitude":77.7027,"temp":22.8,"humidity":77,"rain":0.0,"pressure":991.0,"uv_index":6.05,"wind_gusts":19.8,"aqi":196,"pm10":115.5,"pm2_5":54.5,"mosquito_risk":3,"arthritis_risk":5,"migraine_risk":7,"frizz_risk":1,"updated_at":"2026-03-23T20:28:52.338696+05:30"},{"city":"Ayodhya","state":"Uttar Pradesh","latitude":26.7922,"longitude":82.1998,"temp":24.8,"humidity":54,"rain":0.0,"pressure":999.0,"uv_index":7.1,"wind_gusts":29.2,"aqi":147,"pm10":63.6,"pm2_5":35.7,"mosquito_risk":0,"arthritis_risk":5,"migraine_risk":7,"frizz_risk":0,"updated_at":"2026-03-23T20:28:52.338704+05:30"},{"city":"Ratlam","state":"Madhya Pradesh","latitude":23.3315,"longitude":75.0367,"temp":25.8,"humidity":49,"rain":0.0,"pressure":955.9,"uv_index":7.95,"wind_gusts":29.2,"aqi":76,"pm10":29.8,"pm2_5":15.1,"mosquito_risk":4,"arthritis_risk":5,"migraine_risk":7,"frizz_risk":0,"updated_at":"2026-03-23T20:28:52.338711+05:30"},{"city":"Sagar","state":"Madhya Pradesh","latitude":23.8388,"longitude":78.7378,"temp":25.5,"humidity":49,"rain":0.0,"pressure":952.5,"uv_index":8.0,"wind_gusts":31.0,"aqi":78,"pm10":19.7,"pm2_5":12.2,"mosquito_risk":4,"arthritis_risk":5,"migraine_risk":7,"frizz_risk":0,"updated_at":"2026-03-23T20:28:52.338719+05:30"},{"city":"Satna","state":"Madhya Pradesh","latitude":24.6005,"longitude":80.8322,"temp":26.8,"humidity":42,"rain":0.0,"pressure":974.4,"uv_index":7.95,"wind_gusts":23.4,"aqi":93,"pm10":33.5,"pm2_5":19.2,"mosquito_risk":4,"arthritis_risk":5,"migraine_risk":7,"frizz_risk":0,"updated_at":"2026-03-23T20:28:52.338727+05:30"},{"city":"Akola","state":"Maharashtra","latitude":20.7002,"longitude":77.0082,"temp":29.2,"humidity":44,"rain":0.0,"pressure":976.4,"uv_index":8.35,"wind_gusts":16.6,"aqi":140,"pm10":26.7,"pm2_5":22.3,"mosquito_risk":4,"arthritis_risk":5,"migraine_risk":7,"frizz_risk":0,"updated_at":"2026-03-23T20:28:52.338735+05:30"},{"city":"Amravati","state":"Maharashtra","latitude":20.9374,"longitude":77.7796,"temp":28.5,"humidity":43,"rain":0.0,"pressure":968.7,"uv_index":8.35,"wind_gusts":22.0,"aqi":144,"pm10":27.8,"pm2_5":23.2,"mosquito_risk":4,"arthritis_risk":5,"migraine_risk":7,"frizz_risk":0,"updated_at":"2026-03-23T20:28:52.338744+05:30"},{"city":"Latur","state":"Maharashtra","latitude":18.4088,"longitude":76.5604,"temp":27.9,"humidity":45,"rain":0.0,"pressure":940.6,"uv_index":8.6,"wind_gusts":22.3,"aqi":114,"pm10":35.2,"pm2_5":29.3,"mosquito_risk":4,"arthritis_risk":5,"migraine_risk":7,"frizz_risk":0,"updated_at":"2026-03-23T20:28:52.338752+05:30"},{"city":"Nanded","state":"Maharashtra","latitude":19.1383,"longitude":77.3091,"temp":30.4,"humidity":36,"rain":0.0,"pressure":969.4,"uv_index":8.55,"wind_gusts":18.0,"aqi":141,"pm10":46.6,"pm2_5":37.8,"mosquito_risk":0,"arthritis_risk":5,"migraine_risk":7,"frizz_risk":0,"updated_at":"2026-03-23T20:28:52.338760+05:30"},{"city":"Gulbarga","state":"Karnataka","latitude":17.3297,"longitude":76.8343,"temp":29.7,"humidity":44,"rain":0.0,"pressure":960.0,"uv_index":8.8,"wind_gusts":29.2,"aqi":125,"pm10":45.2,"pm2_5":32.2,"mosquito_risk":4,"arthritis_risk":5,"migraine_risk":7,"frizz_risk":1,"updated_at":"2026-03-23T20:28:52.338767+05:30"},{"city":"Bidar","state":"Karnataka","latitude":17.9104,"longitude":77.5199,"temp":29.4,"humidity":42,"rain":0.0,"pressure":937.0,"uv_index":8.8,"wind_gusts":22.7,"aqi":129,"pm10":48.0,"pm2_5":38.1,"mosquito_risk":4,"arthritis_risk":5,"migraine_risk":7,"frizz_risk":0,"updated_at":"2026-03-23T20:28:52.338775+05:30"},{"city":"Hospet","state":"Karnataka","latitude":15.2689,"longitude":76.3909,"temp":30.8,"humidity":48,"rain":0.0,"pressure":956.2,"uv_index":9.05,"wind_gusts":28.8,"aqi":155,"pm10":45.2,"pm2_5":37.6,"mosquito_risk":0,"arthritis_risk":5,"migraine_risk":7,"frizz_risk":1,"updated_at":"2026-03-23T20:28:52.338782+05:30"},{"city":"Tirupur","state":"Tamil Nadu","latitude":11.1085,"longitude":77.3411,"temp":30.7,"humidity":37,"rain":0.0,"pressure":976.0,"uv_index":9.4,"wind_gusts":31.3,"aqi":104,"pm10":28.2,"pm2_5":21.7,"mosquito_risk":0,"arthritis_risk":5,"migraine_risk":7,"frizz_risk":0,"updated_at":"2026-03-23T20:28:52.338789+05:30"},{"city":"Alappuzha","state":"Kerala","latitude":9.4981,"longitude":76.3388,"temp":29.4,"humidity":76,"rain":0.0,"pressure":1009.6,"uv_index":9.15,"wind_gusts":33.1,"aqi":136,"pm10":38.9,"pm2_5":25.6,"mosquito_risk":7,"arthritis_risk":0,"migraine_risk":4,"frizz_risk":1,"updated_at":"2026-03-23T20:28:52.338797+05:30"},{"city":"Munnar","state":"Kerala","latitude":10.0889,"longitude":77.0595,"temp":24.1,"humidity":70,"rain":0.0,"pressure":858.5,"uv_index":9.65,"wind_gusts":29.5,"aqi":85,"pm10":31.7,"pm2_5":23.2,"mosquito_risk":3,"arthritis_risk":5,"migraine_risk":7,"frizz_risk":1,"updated_at":"2026-03-23T20:28:52.338806+05:30"},{"city":"Silchar","state":"Assam","latitude":24.8333,"longitude":92.7789,"temp":21.9,"humidity":79,"rain":0.0,"pressure":1009.7,"uv_index":8.05,"wind_gusts":18.7,"aqi":120,"pm10":54.9,"pm2_5":51.9,"mosquito_risk":3,"arthritis_risk":0,"migraine_risk":4,"frizz_risk":1,"updated_at":"2026-03-23T20:28:52.338814+05:30"},{"city":"Dibrugarh","state":"Assam","latitude":27.4728,"longitude":94.912,"temp":21.4,"humidity":90,"rain":0.0,"pressure":1000.7,"uv_index":7.75,"wind_gusts":14.8,"aqi":67,"pm10":30.3,"pm2_5":29.5,"mosquito_risk":3,"arthritis_risk":5,"migraine_risk":4,"frizz_risk":1,"updated_at":"2026-03-23T20:28:52.338821+05:30"}]