[{"city":"Delhi","state":"Delhi","latitude":28.6139,"longitude":77.209,"temp":21.2,"humidity":81,"rain":0.0,"pressure":985.3,"uv_index":6.0,"wind_gusts":26.6,"aqi":366,"pm10":459.1,"pm2_5":113.4,"mosquito_risk":3,"arthritis_risk":5,"migraine_risk":3,"frizz_risk":1,"updated_at":"2026-03-13T07:55:18.329273+05:30"},{"city":"Mumbai","state":"Maharashtra","latitude":19.076,"longitude":72.8777,"temp":27.6,"humidity":74,"rain":0.0,"pressure":1008.8,"uv_index":7.65,"wind_gusts":30.2,"aqi":157,"pm10":50.5,"pm2_5":47.3,"mosquito_risk":7,"arthritis_risk":0,"migraine_risk":4,"frizz_risk":1,"updated_at":"2026-03-13T07:55:18.329311+05:30"},{"city":"Bangalore","state":"Karnataka","latitude":12.9716,"longitude":77.5946,"temp":20.2,"humidity":77,"rain":0.0,"pressure":912.7,"uv_index":9.3,"wind_gusts":32.4,"aqi":74,"pm10":49.8,"pm2_5":42.1,"mosquito_risk":3,"arthritis_risk":5,"migraine_risk":7,"frizz_risk":1,"updated_at":"2026-03-13T07:55:18.329327+05:30"},{"city":"Hyderabad","state":"Telangana","latitude":17.385,"longitude":78.4867,"temp":22.8,"humidity":57,"rain":0.0,"pressure":954.4,"uv_index":8.65,"wind_gusts":20.2,"aqi":101,"pm10":44.7,"pm2_5":37.8,"mosquito_risk":0,"arthritis_risk":5,"migraine_risk":7,"frizz_risk":0,"updated_at":"2026-03-13T07:55:18.329337+05:30"},{"city":"Chennai","state":"Tamil Nadu","latitude":13.0827,"longitude":80.2707,"temp":25.7,"humidity":86,"rain":0.0,"pressure":1009.9,"uv_index":9.05,"wind_gusts":30.2,"aqi":72,"pm10":28.5,"pm2_5":24.7,"mosquito_risk":7,"arthritis_risk":0,"migraine_risk":4,"frizz_risk":1,"updated_at":"2026-03-13T07:55:18.329347+05:30"},{"city":"Kolkata","state":"West Bengal","latitude":22.5726,"longitude":88.3639,"temp":26.5,"humidity":90,"rain":0.0,"pressure":1009.0,"uv_index":8.0,"wind_gusts":29.9,"aqi":150,"pm10":45.5,"pm2_5":37.1,"mosquito_risk":7,"arthritis_risk":0,"migraine_risk":4,"frizz_risk":1,"updated_at":"2026-03-13T07:55:18.329355+05:30"},{"city":"Pune","state":"Maharashtra","latitude":18.5204,"longitude":73.8567,"temp":24.9,"humidity":49,"rain":0.0,"pressure":949.4,"uv_index":8.2,"wind_gusts":30.2,"aqi":151,"pm10":99.0,"pm2_5":96.2,"mosquito_risk":0,"arthritis_risk":5,"migraine_risk":7,"frizz_risk":0,"updated_at":"2026-03-13T07:55:18.329368+05:30"},{"city":"Ahmedabad","state":"Gujarat","latitude":23.0225,"longitude":72.5714,"temp":20.8,"humidity":72,"rain":0.0,"pressure":1004.0,"uv_index":7.45,"wind_gusts":17.6,"aqi":84,"pm10":64.7,"pm2_5":43.7,"mosquito_risk":3,"arthritis_risk":5,"migraine_risk":4,"frizz_risk":0,"updated_at":"2026-03-13T07:55:18.329375+05:30"},{"city":"Jaipur","state":"Rajasthan","latitude":26.9124,"longitude":75.7873,"temp":22.7,"humidity":55,"rain":0.0,"pressure":961.7,"uv_index":6.85,"wind_gusts":37.4,"aqi":116,"pm10":294.3,"pm2_5":64.7,"mosquito_risk":0,"arthritis_risk":5,"migraine_risk":7,"frizz_risk":0,"updated_at":"2026-03-13T07:55:18.329382+05:30"},{"city":"Lucknow","state":"Uttar Pradesh","latitude":26.8467,"longitude":80.9462,"temp":22.2,"humidity":71,"rain":0.0,"pressure":995.1,"uv_index":6.0,"wind_gusts":27.7,"aqi":170,"pm10":352.0,"pm2_5":88.2,"mosquito_risk":3,"arthritis_risk":5,"migraine_risk":3,"frizz_risk":1,"updated_at":"2026-03-13T07:55:18.329391+05:30"},{"city":"Kanpur","state":"Uttar Pradesh","latitude":26.4499,"longitude":80.3319,"temp":21.2,"humidity":80,"rain":0.0,"pressure":993.4,"uv_index":6.35,"wind_gusts":19.1,"aqi":282,"pm10":402.3,"pm2_5":85.0,"mosquito_risk":3,"arthritis_risk":5,"migraine_risk":7,"frizz_risk":1,"updated_at":"2026-03-13T07:55:18.329398+05:30"},{"city":"Chandigarh","state":"Chandigarh","latitude":30.7333,"longitude":76.7794,"temp":18.6,"humidity":80,"rain":0.0,"pressure":970.5,"uv_index":5.25,"wind_gusts":23.8,"aqi":87,"pm10":32.4,"pm2_5":24.3,"mosquito_risk":3,"arthritis_risk":5,"migraine_risk":3,"frizz_risk":0,"updated_at":"2026-03-13T07:55:18.329405+05:30"},{"city":"Srinagar","state":"Jammu and Kashmir","latitude":34.0837,"longitude":74.7973,"temp":6.7,"humidity":91,"rain":0.0,"pressure":842.6,"uv_index":6.9,"wind_gusts":14.8,"aqi":69,"pm10":28.2,"pm2_5":27.1,"mosquito_risk":3,"arthritis_risk":10,"migraine_risk":7,"frizz_risk":0,"updated_at":"2026-03-13T07:55:18.329412+05:30"},{"city":"Jammu","state":"Jammu and Kashmir","latitude":32.7266,"longitude":74.857,"temp":16.6,"humidity":81,"rain":0.0,"pressure":975.4,"uv_index":6.65,"wind_gusts":22.3,"aqi":83,"pm10":19.0,"pm2_5":17.3,"mosquito_risk":3,"arthritis_risk":10,"migraine_risk":7,"frizz_risk":0,"updated_at":"2026-03-13T07:55:18.329419+05:30"},{"city":"Amritsar","state":"Punjab","latitude":31.634,"longitude":74.8723,"temp":17.7,"humidity":87,"rain":0.0,"pressure":983.8,"uv_index":6.65,"wind_gusts":23.4,"aqi":118,"pm10":57.4,"pm2_5":42.0,"mosquito_risk":3,"arthritis_risk":10,"migraine_risk":7,"frizz_risk":0,"updated_at":"2026-03-13T07:55:18.329425+05:30"},{"city":"Ludhiana","state":"Punjab","latitude":30.901,"longitude":75.8573,"temp":18.3,"humidity":82,"rain":0.0,"pressure":981.3,"uv_index":6.25,"wind_gusts":25.6,"aqi":119,"pm10":48.2,"pm2_5":41.7,"mosquito_risk":3,"arthritis_risk":10,"migraine_risk":7,"frizz_risk":0,"updated_at":"2026-03-13T07:55:18.329432+05:30"},{"city":"Jalandhar","state":"Punjab","latitude":31.326,"longitude":75.5762,"temp":17.7,"humidity":83,"rain":0.0,"pressure":982.6,"uv_index":6.0,"wind_gusts":24.1,"aqi":113,"pm10":68.5,"pm2_5":52.5,"mosquito_risk":3,"arthritis_risk":10,"migraine_risk":3,"frizz_risk":0,"updated_at":"2026-03-13T07:55:18.329440+05:30"},{"city":"Dehradun","state":"Uttarakhand","latitude":30.6284,"longitude":78.0322,"temp":12.4,"humidity":36,"rain":0.0,"pressure":829.9,"uv_index":5.35,"wind_gusts":26.3,"aqi":45,"pm10":9.3,"pm2_5":4.3,"mosquito_risk":0,"arthritis_risk":5,"migraine_risk":3,"frizz_risk":1,"updated_at":"2026-03-13T07:55:18.329447+05:30"},{"city":"Shimla","state":"Himachal Pradesh","latitude":31.1048,"longitude":77.1734,"temp":11.1,"humidity":67,"rain":0.0,"pressure":783.7,"uv_index":5.8,"wind_gusts":36.4,"aqi":59,"pm10":20.7,"pm2_5":12.2,"mosquito_risk":3,"arthritis_risk":5,"migraine_risk":3,"frizz_risk":0,"updated_at":"2026-03-13T07:55:18.329455+05:30"},{"city":"Manali","state":"Himachal Pradesh","latitude":32.2396,"longitude":77.1887,"temp":11.4,"humidity":25,"rain":0.0,"pressure":819.0,"uv_index":8.4,"wind_gusts":38.5,"aqi":43,"pm10":8.8,"pm2_5":3.9,"mosquito_risk":0,"arthritis_risk":5,"migraine_risk":7,"frizz_risk":1,"updated_at":"2026-03-13T07:55:18.329462+05:30"},{"city":"Gurgaon","state":"Haryana","latitude":28.4595,"longitude":77.0266,"temp":19.8,"humidity":89,"rain":0.0,"pressure":983.8,"uv_index":6.15,"wind_gusts":24.1,"aqi":1179,"pm10":1184.6,"pm2_5":186.7,"mosquito_risk":3,"arthritis_risk":10,"migraine_risk":7,"frizz_risk":1,"updated_at":"2026-03-13T07:55:18.329469+05:30"},{"city":"Noida","state":"Uttar Pradesh","latitude":28.5355,"longitude":77.391,"temp":21.5,"humidity":81,"rain":0.0,"pressure":986.8,"uv_index":6.1,"wind_gusts":26.6,"aqi":1179,"pm10":1184.6,"pm2_5":186.7,"mosquito_risk":3,"arthritis_risk":5,"migraine_risk":7,"frizz_risk":1,"updated_at":"2026-03-13T07:55:18.329475+05:30"},{"city":"Ghaziabad","state":"Uttar Pradesh","latitude":28.6692,"longitude":77.4538,"temp":20.6,"humidity":84,"rain":0.0,"pressure":984.9,"uv_index":5.85,"wind_gusts":25.9,"aqi":227,"pm10":281.3,"pm2_5":87.3,"mosquito_risk":3,"arthritis_risk":5,"migraine_risk":3,"frizz_risk":1,"updated_at":"2026-03-13T07:55:18.329481+05:30"},{"city":"Faridabad","state":"Haryana","latitude":28.4089,"longitude":77.3178,"temp":21.5,"humidity":79,"rain":0.0,"pressure":986.1,"uv_index":6.1,"wind_gusts":26.3,"aqi":1179,"pm10":1184.6,"pm2_5":186.7,"mosquito_risk":3,"arthritis_risk":5,"migraine_risk":7,"frizz_risk":1,"updated_at":"2026-03-13T07:55:18.329487+05:30"},{"city":"Meerut","state":"Uttar Pradesh","latitude":28.9845,"longitude":77.7064,"temp":19.2,"humidity":87,"rain":0.0,"pressure":983.4,"uv_index":5.35,"wind_gusts":25.9,"aqi":227,"pm10":281.3,"pm2_5":87.3,"mosquito_risk":3,"arthritis_risk":10,"migraine_risk":3,"frizz_risk":1,"updated_at":"2026-03-13T07:55:18.329494+05:30"},{"city":"Agra","state":"Uttar Pradesh","latitude":27.1767,"longitude":78.0081,"temp":19.1,"humidity":78,"rain":0.0,"pressure":990.2,"uv_index":6.1,"wind_gusts":18.0,"aqi":497,"pm10":773.0,"pm2_5":149.9,"mosquito_risk":3,"arthritis_risk":5,"migraine_risk":7,"frizz_risk":0,"updated_at":"2026-03-13T07:55:18.329501+05:30"},{"city":"Varanasi","state":"Uttar Pradesh","latitude":25.3176,"longitude":82.9739,"temp":22.6,"humidity":68,"rain":0.0,"pressure":999.2,"uv_index":7.3,"wind_gusts":21.6,"aqi":119,"pm10":171.8,"pm2_5":71.0,"mosquito_risk":3,"arthritis_risk":5,"migraine_risk":7,"frizz_risk":1,"updated_at":"2026-03-13T07:55:18.329516+05:30"},{"city":"Prayagraj","state":"Uttar Pradesh","latitude":25.4358,"longitude":81.8463,"temp":21.6,"humidity":72,"rain":0.0,"pressure":997.7,"uv_index":6.8,"wind_gusts":19.8,"aqi":137,"pm10":250.5,"pm2_5":81.0,"mosquito_risk":3,"arthritis_risk":5,"migraine_risk":7,"frizz_risk":1,"updated_at":"2026-03-13T07:55:18.329523+05:30"},{"city":"Gorakhpur","state":"Uttar Pradesh","latitude":26.7606,"longitude":83.3732,"temp":22.7,"humidity":93,"rain":0.0,"pressure":999.1,"uv_index":6.65,"wind_gusts":28.8,"aqi":185,"pm10":151.8,"pm2_5":145.3,"mosquito_risk":3,"arthritis_risk":5,"migraine_risk":7,"frizz_risk":1,"updated_at":"2026-03-13T07:55:18.329530+05:30"},{"city":"Bareilly","state":"Uttar Pradesh","latitude":28.367,"longitude":79.4304,"temp":19.9,"humidity":90,"rain":0.0,"pressure":988.6,"uv_index":5.9,"wind_gusts":27.4,"aqi":152,"pm10":111.5,"pm2_5":69.2,"mosquito_risk":3,"arthritis_risk":10,"migraine_risk":3,"frizz_risk":1,"updated_at":"2026-03-13T07:55:18.329536+05:30"},{"city":"Aligarh","state":"Uttar Pradesh","latitude":27.8974,"longitude":78.088,"temp":20.5,"humidity":87,"rain":0.0,"pressure":987.7,"uv_index":5.95,"wind_gusts":28.4,"aqi":625,"pm10":583.0,"pm2_5":125.3,"mosquito_risk":3,"arthritis_risk":5,"migraine_risk":3,"frizz_risk":1,"updated_at":"2026-03-13T07:55:18.329543+05:30"},{"city":"Moradabad","state":"Uttar Pradesh","latitude":28.8386,"longitude":78.7733,"temp":19.9,"humidity":86,"rain":0.0,"pressure":985.4,"uv_index":5.8,"wind_gusts":27.7,"aqi":152,"pm10":93.4,"pm2_5":65.2,"mosquito_risk":3,"arthritis_risk":10,"migraine_risk":3,"frizz_risk":1,"updated_at":"2026-03-13T07:55:18.329552+05:30"},{"city":"Saharanpur","state":"Uttar Pradesh","latitude":29.9637,"longitude":77.546,"temp":17.8,"humidity":87,"rain":0.0,"pressure":977.4,"uv_index":4.85,"wind_gusts":24.8,"aqi":151,"pm10":79.9,"pm2_5":53.1,"mosquito_risk":3,"arthritis_risk":10,"migraine_risk":3,"frizz_risk":0,"updated_at":"2026-03-13T07:55:18.329558+05:30"},{"city":"Jhansi","state":"Uttar Pradesh","latitude":25.4484,"longitude":78.5685,"temp":20.2,"humidity":45,"rain":0.0,"pressure":979.5,"uv_index":6.4,"wind_gusts":19.1,"aqi":51,"pm10":39.7,"pm2_5":16.6,"mosquito_risk":0,"arthritis_risk":5,"migraine_risk":7,"frizz_risk":0,"updated_at":"2026-03-13T07:55:21.670952+05:30"},{"city":"Surat","state":"Gujarat","latitude":21.1702,"longitude":72.8311,"temp":25.0,"humidity":67,"rain":0.0,"pressure":1008.0,"uv_index":7.35,"wind_gusts":25.9,"aqi":150,"pm10":53.4,"pm2_5":51.1,"mosquito_risk":7,"arthritis_risk":0,"migraine_risk":4,"frizz_risk":1,"updated_at":"2026-03-13T07:55:21.670982+05:30"},{"city":"Vadodara","state":"Gujarat","latitude":22.3072,"longitude":73.1812,"temp":22.5,"humidity":59,"rain":0.0,"pressure":1006.0,"uv_index":7.5,"wind_gusts":20.9,"aqi":104,"pm10":46.7,"pm2_5":40.2,"mosquito_risk":0,"arthritis_risk":5,"migraine_risk":4,"frizz_risk":0,"updated_at":"2026-03-13T07:55:21.670994+05:30"},{"city":"Rajkot","state":"Gujarat","latitude":22.3039,"longitude":70.8022,"temp":21.4,"humidity":82,"rain":0.0,"pressure":995.8,"uv_index":7.3,"wind_gusts":27.4,"aqi":76,"pm10":138.8,"pm2_5":43.8,"mosquito_risk":3,"arthritis_risk":5,"migraine_risk":7,"frizz_risk":1,"updated_at":"2026-03-13T07:55:21.671001+05:30"},{"city":"Thane","state":"Maharashtra","latitude":19.2183,"longitude":72.9781,"temp":23.8,"humidity":79,"rain":0.0,"pressure":1008.3,"uv_index":7.65,"wind_gusts":43.2,"aqi":157,"pm10":50.5,"pm2_5":47.3,"mosquito_risk":3,"arthritis_risk":0,"migraine_risk":4,"frizz_risk":1,"updated_at":"2026-03-13T07:55:21.671008+05:30"},{"city":"Nagpur","state":"Maharashtra","latitude":21.1458,"longitude":79.0882,"temp":22.3,"humidity":51,"rain":0.0,"pressure":974.7,"uv_index":8.05,"wind_gusts":21.6,"aqi":94,"pm10":28.3,"pm2_5":24.8,"mosquito_risk":0,"arthritis_risk":5,"migraine_risk":7,"frizz_risk":0,"updated_at":"2026-03-13T07:55:21.671015+05:30"},{"city":"Nashik","state":"Maharashtra","latitude":19.9975,"longitude":73.7898,"temp":24.0,"humidity":44,"rain":0.0,"pressure":946.6,"uv_index":7.85,"wind_gusts":33.8,"aqi":77,"pm10":30.7,"pm2_5":28.1,"mosquito_risk":0,"arthritis_risk":5,"migraine_risk":7,"frizz_risk":0,"updated_at":"2026-03-13T07:55:21.671021+05:30"},{"city":"Aurangabad","state":"Maharashtra","latitude":19.8762,"longitude":75.3433,"temp":23.1,"humidity":44,"rain":0.0,"pressure":945.2,"uv_index":8.35,"wind_gusts":25.6,"aqi":58,"pm10":30.4,"pm2_5":28.1,"mosquito_risk":0,"arthritis_risk":5,"migraine_risk":7,"frizz_risk":0,"updated_at":"2026-03-13T07:55:21.671027+05:30"},{"city":"Solapur","state":"Maharashtra","latitude":17.6599,"longitude":75.9064,"temp":23.6,"humidity":77,"rain":0.0,"pressure":958.2,"uv_index":8.6,"wind_gusts":17.6,"aqi":92,"pm10":46.7,"pm2_5":41.3,"mosquito_risk":3,"arthritis_risk":5,"migraine_risk":7,"frizz_risk":1,"updated_at":"2026-03-13T07:55:21.671062+05:30"},{"city":"Kolhapur","state":"Maharashtra","latitude":16.705,"longitude":74.2433,"temp":22.2,"humidity":70,"rain":0.0,"pressure":948.2,"uv_index":8.7,"wind_gusts":47.5,"aqi":152,"pm10":107.8,"pm2_5":104.1,"mosquito_risk":3,"arthritis_risk":5,"migraine_risk":7,"frizz_risk":1,"updated_at":"2026-03-13T07:55:21.671076+05:30"},{"city":"Goa","state":"Goa","latitude":15.2993,"longitude":74.124,"temp":25.0,"humidity":95,"rain":0.0,"pressure":998.5,"uv_index":8.7,"wind_gusts":33.1,"aqi":142,"pm10":67.1,"pm2_5":60.5,"mosquito_risk":7,"arthritis_risk":5,"migraine_risk":7,"frizz_risk":1,"updated_at":"2026-03-13T07:55:21.671083+05:30"},{"city":"Jodhpur","state":"Rajasthan","latitude":26.2389,"longitude":73.0243,"temp":21.5,"humidity":55,"rain":0.0,"pressure":984.8,"uv_index":6.25,"wind_gusts":21.6,"aqi":70,"pm10":78.2,"pm2_5":27.2,"mosquito_risk":0,"arthritis_risk":5,"migraine_risk":7,"frizz_risk":0,"updated_at":"2026-03-13T07:55:21.671090+05:30"},{"city":"Udaipur","state":"Rajasthan","latitude":24.5854,"longitude":73.7125,"temp":22.6,"humidity":39,"rain":0.0,"pressure":948.1,"uv_index":7.7,"wind_gusts":31.3,"aqi":41,"pm10":51.6,"pm2_5":19.2,"mosquito_risk":0,"arthritis_risk":5,"migraine_risk":7,"frizz_risk":0,"updated_at":"2026-03-13T07:55:21.671096+05:30"},{"city":"Kota","state":"Rajasthan","latitude":25.2138,"longitude":75.8648,"temp":19.5,"humidity":49,"rain":0.0,"pressure":980.6,"uv_index":7.1,"wind_gusts":15.8,"aqi":71,"pm10":22.7,"pm2_5":19.4,"mosquito_risk":0,"arthritis_risk":5,"migraine_risk":7,"frizz_risk":0,"updated_at":"2026-03-13T07:55:21.671102+05:30"},{"city":"Bikaner","state":"Rajasthan","latitude":28.0229,"longitude":73.3119,"temp":22.5,"humidity":72,"rain":0.0,"pressure":984.7,"uv_index":6.4,"wind_gusts":24.5,"aqi":86,"pm10":49.9,"pm2_5":30.2,"mosquito_risk":3,"arthritis_risk":5,"migraine_risk":7,"frizz_risk":1,"updated_at":"2026-03-13T07:55:21.671108+05:30"},{"city":"Ajmer","state":"Rajasthan","latitude":26.4499,"longitude":74.6399,"temp":20.6,"humidity":49,"rain":0.0,"pressure":956.2,"uv_index":7.05,"wind_gusts":25.2,"aqi":56,"pm10":101.5,"pm2_5":28.6,"mosquito_risk":0,"arthritis_risk":5,"migraine_risk":7,"frizz_risk":0,"updated_at":"2026-03-13T07:55:21.671113+05:30"},{"city":"Gwalior","state":"Madhya Pradesh","latitude":26.2183,"longitude":78.1828,"temp":22.1,"humidity":49,"rain":0.0,"pressure":985.3,"uv_index":6.45,"wind_gusts":19.4,"aqi":62,"pm10":302.7,"pm2_5":65.0,"mosquito_risk":0,"arthritis_risk":5,"migraine_risk":7,"frizz_risk":0,"updated_at":"2026-03-13T07:55:21.671119+05:30"},{"city":"Indore","state":"Madhya Pradesh","latitude":22.7196,"longitude":75.8577,"temp":19.4,"humidity":45,"rain":0.0,"pressure":949.4,"uv_index":7.75,"wind_gusts":25.9,"aqi":68,"pm10":12.5,"pm2_5":11.3,"mosquito_risk":0,"arthritis_risk":5,"migraine_risk":7,"frizz_risk":0,"updated_at":"2026-03-13T07:55:21.671125+05:30"},{"city":"Bhopal","state":"Madhya Pradesh","latitude":23.2599,"longitude":77.4126,"temp":21.9,"humidity":40,"rain":0.0,"pressure":955.2,"uv_index":7.65,"wind_gusts":24.8,"aqi":73,"pm10":31.5,"pm2_5":30.6,"mosquito_risk":0,"arthritis_risk":5,"migraine_risk":7,"frizz_risk":0,"updated_at":"2026-03-13T07:55:21.671131+05:30"},{"city":"Jabalpur","state":"Madhya Pradesh","latitude":23.1815,"longitude":79.9864,"temp":22.0,"humidity":53,"rain":0.0,"pressure":963.2,"uv_index":7.75,"wind_gusts":19.8,"aqi":77,"pm10":50.8,"pm2_5":40.2,"mosquito_risk":0,"arthritis_risk":5,"migraine_risk":7,"frizz_risk":0,"updated_at":"2026-03-13T07:55:21.671136+05:30"},{"city":"Ujjain","state":"Madhya Pradesh","latitude":23.1765,"longitude":75.7885,"temp":19.7,"humidity":46,"rain":0.0,"pressure":955.2,"uv_index":7.7,"wind_gusts":18.7,"aqi":67,"pm10":16.7,"pm2_5":14.7,"mosquito_risk":0,"arthritis_risk":5,"migraine_risk":7,"frizz_risk":0,"updated_at":"2026-03-13T07:55:21.671143+05:30"},{"city":"Visakhapatnam","state":"Andhra Pradesh","latitude":17.6868,"longitude":83.2185,"temp":25.9,"humidity":87,"rain":0.0,"pressure":1006.8,"uv_index":8.65,"wind_gusts":38.5,"aqi":93,"pm10":40.5,"pm2_5":38.4,"mosquito_risk":7,"arthritis_risk":5,"migraine_risk":4,"frizz_risk":1,"updated_at":"2026-03-13T07:55:21.671148+05:30"},{"city":"Vijayawada","state":"Andhra Pradesh","latitude":16.5062,"longitude":80.648,"temp":25.6,"humidity":88,"rain":0.0,"pressure":1005.3,"uv_index":8.7,"wind_gusts":28.4,"aqi":88,"pm10":59.4,"pm2_5":57.5,"mosquito_risk":7,"arthritis_risk":5,"migraine_risk":4,"frizz_risk":1,"updated_at":"2026-03-13T07:55:21.671154+05:30"},{"city":"Guntur","state":"Andhra Pradesh","latitude":16.3067,"longitude":80.4365,"temp":25.0,"humidity":87,"rain":0.0,"pressure":1006.3,"uv_index":8.75,"wind_gusts":32.8,"aqi":82,"pm10":39.0,"pm2_5":37.4,"mosquito_risk":7,"arthritis_risk":5,"migraine_risk":4,"frizz_risk":1,"updated_at":"2026-03-13T07:55:21.671161+05:30"},{"city":"Nellore","state":"Andhra Pradesh","latitude":14.4426,"longitude":79.9865,"temp":24.6,"humidity":86,"rain":0.0,"pressure":1008.2,"uv_index":8.9,"wind_gusts":29.5,"aqi":74,"pm10":32.7,"pm2_5":31.3,"mosquito_risk":3,"arthritis_risk":0,"migraine_risk":4,"frizz_risk":1,"updated_at":"2026-03-13T07:55:21.671167+05:30"},{"city":"Kurnool","state":"Andhra Pradesh","latitude":15.8281,"longitude":78.0373,"temp":26.5,"humidity":54,"rain":0.0,"pressure":978.3,"uv_index":8.75,"wind_gusts":25.9,"aqi":85,"pm10":47.5,"pm2_5":42.1,"mosquito_risk":4,"arthritis_risk":5,"migraine_risk":7,"frizz_risk":1,"updated_at":"2026-03-13T07:55:21.671174+05:30"},{"city":"Kakinada","state":"Andhra Pradesh","latitude":16.9891,"longitude":82.2475,"temp":25.4,"humidity":89,"rain":0.0,"pressure":1010.5,"uv_index":8.7,"wind_gusts":31.7,"aqi":78,"pm10":42.0,"pm2_5":38.9,"mosquito_risk":7,"arthritis_risk":0,"migraine_risk":4,"frizz_risk":1,"updated_at":"2026-03-13T07:55:21.671180+05:30"},{"city":"Tirupati","state":"Andhra Pradesh","latitude":13.6288,"longitude":79.4192,"temp":22.8,"humidity":95,"rain":0.0,"pressure":994.2,"uv_index":9.05,"wind_gusts":33.5,"aqi":103,"pm10":48.3,"pm2_5":47.0,"mosquito_risk":3,"arthritis_risk":5,"migraine_risk":7,"frizz_risk":1,"updated_at":"2026-03-13T07:55:21.671186+05:30"},{"city":"Warangal","state":"Telangana","latitude":17.9689,"longitude":79.5941,"temp":23.4,"humidity":80,"rain":0.0,"pressure":980.2,"uv_index":8.5,"wind_gusts":27.0,"aqi":118,"pm10":38.9,"pm2_5":37.0,"mosquito_risk":3,"arthritis_risk":5,"migraine_risk":7,"frizz_risk":1,"updated_at":"2026-03-13T07:55:21.671192+05:30"},{"city":"Nizamabad","state":"Telangana","latitude":18.6725,"longitude":78.0941,"temp":25.0,"humidity":60,"rain":0.0,"pressure":966.3,"uv_index":8.4,"wind_gusts":27.0,"aqi":116,"pm10":62.4,"pm2_5":54.4,"mosquito_risk":4,"arthritis_risk":5,"migraine_risk":7,"frizz_risk":1,"updated_at":"2026-03-13T07:55:21.671198+05:30"},{"city":"Mysore","state":"Karnataka","latitude":12.2958,"longitude":76.6396,"temp":20.9,"humidity":68,"rain":0.0,"pressure":929.4,"uv_index":9.3,"wind_gusts":33.1,"aqi":70,"pm10":47.6,"pm2_5":44.1,"mosquito_risk":3,"arthritis_risk":5,"migraine_risk":7,"frizz_risk":0,"updated_at":"2026-03-13T07:55:21.671204+05:30"},{"city":"Mangalore","state":"Karnataka","latitude":12.9141,"longitude":74.856,"temp":28.8,"humidity":79,"rain":0.0,"pressure":1007.7,"uv_index":8.95,"wind_gusts":25.6,"aqi":115,"pm10":55.3,"pm2_5":52.4,"mosquito_risk":7,"arthritis_risk":5,"migraine_risk":4,"frizz_risk":1,"updated_at":"2026-03-13T07:55:21.671209+05:30"},{"city":"Hubli-Dharwad","state":"Karnataka","latitude":15.3647,"longitude":75.124,"temp":21.5,"humidity":66,"rain":0.0,"pressure":941.3,"uv_index":8.9,"wind_gusts":27.4,"aqi":70,"pm10":53.2,"pm2_5":49.0,"mosquito_risk":3,"arthritis_risk":5,"migraine_risk":7,"frizz_risk":0,"updated_at":"2026-03-13T07:55:21.671215+05:30"},{"city":"Belgaum","state":"Karnataka","latitude":15.8497,"longitude":74.4977,"temp":21.4,"humidity":66,"rain":0.0,"pressure":925.6,"uv_index":8.95,"wind_gusts":43.9,"aqi":110,"pm10":77.5,"pm2_5":67.5,"mosquito_risk":3,"arthritis_risk":5,"migraine_risk":7,"frizz_risk":0,"updated_at":"2026-03-13T07:55:25.020203+05:30"},{"city":"Coimbatore","state":"Tamil Nadu","latitude":11.0168,"longitude":76.9558,"temp":23.8,"humidity":84,"rain":0.0,"pressure":963.7,"uv_index":9.25,"wind_gusts":43.2,"aqi":74,"pm10":35.0,"pm2_5":33.5,"mosquito_risk":3,"arthritis_risk":5,"migraine_risk":7,"frizz_risk":1,"updated_at":"2026-03-13T07:55:25.020231+05:30"},{"city":"Madurai","state":"Tamil Nadu","latitude":9.9252,"longitude":78.1198,"temp":25.4,"humidity":86,"rain":0.0,"pressure":995.6,"uv_index":9.25,"wind_gusts":24.1,"aqi":81,"pm10":54.2,"pm2_5":52.6,"mosquito_risk":7,"arthritis_risk":5,"migraine_risk":7,"frizz_risk":1,"updated_at":"2026-03-13T07:55:25.020241+05:30"},{"city":"Trichy","state":"Tamil Nadu","latitude":10.7905,"longitude":78.7047,"temp":25.0,"humidity":88,"rain":0.0,"pressure":1002.6,"uv_index":9.15,"wind_gusts":23.4,"aqi":90,"pm10":48.9,"pm2_5":45.1,"mosquito_risk":7,"arthritis_risk":5,"migraine_risk":4,"frizz_risk":1,"updated_at":"2026-03-13T07:55:25.020249+05:30"},{"city":"Salem","state":"Tamil Nadu","latitude":11.6643,"longitude":78.146,"temp":23.5,"humidity":92,"rain":0.0,"pressure":979.7,"uv_index":9.2,"wind_gusts":22.7,"aqi":94,"pm10":56.9,"pm2_5":54.9,"mosquito_risk":3,"arthritis_risk":5,"migraine_risk":7,"frizz_risk":1,"updated_at":"2026-03-13T07:55:25.020256+05:30"},{"city":"Tirunelveli","state":"Tamil Nadu","latitude":8.7139,"longitude":77.7567,"temp":25.7,"humidity":77,"rain":0.0,"pressure":1005.7,"uv_index":9.2,"wind_gusts":39.2,"aqi":65,"pm10":25.1,"pm2_5":22.9,"mosquito_risk":7,"arthritis_risk":5,"migraine_risk":4,"frizz_risk":1,"updated_at":"2026-03-13T07:55:25.020263+05:30"},{"city":"Vellore","state":"Tamil Nadu","latitude":12.9165,"longitude":79.1325,"temp":22.5,"humidity":94,"rain":0.0,"pressure":987.2,"uv_index":9.1,"wind_gusts":33.5,"aqi":100,"pm10":58.1,"pm2_5":56.7,"mosquito_risk":3,"arthritis_risk":5,"migraine_risk":7,"frizz_risk":1,"updated_at":"2026-03-13T07:55:25.020269+05:30"},{"city":"Erode","state":"Tamil Nadu","latitude":11.341,"longitude":77.7172,"temp":25.0,"humidity":84,"rain":0.0,"pressure":991.7,"uv_index":9.15,"wind_gusts":20.9,"aqi":82,"pm10":40.3,"pm2_5":38.0,"mosquito_risk":7,"arthritis_risk":5,"migraine_risk":7,"frizz_risk":1,"updated_at":"2026-03-13T07:55:25.020276+05:30"},{"city":"Kochi","state":"Kerala","latitude":9.9312,"longitude":76.2673,"temp":27.5,"humidity":82,"rain":0.0,"pressure":1009.9,"uv_index":9.1,"wind_gusts":32.8,"aqi":96,"pm10":42.8,"pm2_5":41.7,"mosquito_risk":7,"arthritis_risk":0,"migraine_risk":4,"frizz_risk":1,"updated_at":"2026-03-13T07:55:25.020283+05:30"},{"city":"Thiruvananthapuram","state":"Kerala","latitude":8.5241,"longitude":76.9366,"temp":27.2,"humidity":81,"rain":0.0,"pressure":1009.3,"uv_index":9.1,"wind_gusts":28.8,"aqi":58,"pm10":20.5,"pm2_5":17.6,"mosquito_risk":7,"arthritis_risk":0,"migraine_risk":4,"frizz_risk":1,"updated_at":"2026-03-13T07:55:25.020289+05:30"},{"city":"Kozhikode","state":"Kerala","latitude":11.2588,"longitude":75.7804,"temp":27.6,"humidity":83,"rain":0.0,"pressure":1009.3,"uv_index":9.0,"wind_gusts":27.7,"aqi":101,"pm10":38.4,"pm2_5":35.5,"mosquito_risk":7,"arthritis_risk":0,"migraine_risk":4,"frizz_risk":1,"updated_at":"2026-03-13T07:55:25.020296+05:30"},{"city":"Thrissur","state":"Kerala","latitude":10.5276,"longitude":76.2144,"temp":26.1,"humidity":87,"rain":0.0,"pressure":1008.4,"uv_index":9.05,"wind_gusts":37.1,"aqi":95,"pm10":51.9,"pm2_5":49.9,"mosquito_risk":7,"arthritis_risk":0,"migraine_risk":4,"frizz_risk":1,"updated_at":"2026-03-13T07:55:25.020303+05:30"},{"city":"Kannur","state":"Kerala","latitude":11.8745,"longitude":75.3704,"temp":27.7,"humidity":88,"rain":0.0,"pressure":1008.5,"uv_index":9.0,"wind_gusts":29.2,"aqi":105,"pm10":49.8,"pm2_5":47.3,"mosquito_risk":7,"arthritis_risk":0,"migraine_risk":4,"frizz_risk":1,"updated_at":"2026-03-13T07:55:25.020309+05:30"},{"city":"Patna","state":"Bihar","latitude":25.5941,"longitude":85.1376,"temp":24.2,"humidity":92,"rain":0.0,"pressure":1002.2,"uv_index":7.3,"wind_gusts":25.9,"aqi":185,"pm10":110.6,"pm2_5":106.6,"mosquito_risk":3,"arthritis_risk":5,"migraine_risk":4,"frizz_risk":1,"updated_at":"2026-03-13T07:55:25.020315+05:30"},{"city":"Gaya","state":"Bihar","latitude":24.7914,"longitude":85.0002,"temp":22.7,"humidity":75,"rain":0.0,"pressure":995.3,"uv_index":7.45,"wind_gusts":22.3,"aqi":155,"pm10":143.4,"pm2_5":72.2,"mosquito_risk":3,"arthritis_risk":5,"migraine_risk":7,"frizz_risk":1,"updated_at":"2026-03-13T07:55:25.020322+05:30"},{"city":"Muzaffarpur","state":"Bihar","latitude":26.1209,"longitude":85.3647,"temp":23.4,"humidity":89,"rain":0.0,"pressure":1002.5,"uv_index":7.4,"wind_gusts":29.2,"aqi":195,"pm10":80.3,"pm2_5":77.3,"mosquito_risk":3,"arthritis_risk":5,"migraine_risk":4,"frizz_risk":1,"updated_at":"2026-03-13T07:55:25.020328+05:30"},{"city":"Bhagalpur","state":"Bihar","latitude":25.2425,"longitude":87.0117,"temp":24.2,"humidity":89,"rain":0.0,"pressure":1003.5,"uv_index":7.5,"wind_gusts":26.3,"aqi":179,"pm10":83.4,"pm2_5":78.2,"mosquito_risk":3,"arthritis_risk":5,"migraine_risk":4,"frizz_risk":1,"updated_at":"2026-03-13T07:55:25.020334+05:30"},{"city":"Ranchi","state":"Jharkhand","latitude":23.3441,"longitude":85.3096,"temp":22.3,"humidity":55,"rain":0.0,"pressure":939.5,"uv_index":8.2,"wind_gusts":32.4,"aqi":100,"pm10":95.5,"pm2_5":34.6,"mosquito_risk":0,"arthritis_risk":5,"migraine_risk":7,"frizz_risk":0,"updated_at":"2026-03-13T07:55:25.020340+05:30"},{"city":"Jamshedpur","state":"Jharkhand","latitude":22.8046,"longitude":86.2029,"temp":25.7,"humidity":89,"rain":0.0,"pressure":993.4,"uv_index":8.1,"wind_gusts":20.5,"aqi":163,"pm10":105.5,"pm2_5":94.3,"mosquito_risk":7,"arthritis_risk":5,"migraine_risk":7,"frizz_risk":1,"updated_at":"2026-03-13T07:55:25.020346+05:30"},{"city":"Dhanbad","state":"Jharkhand","latitude":23.7957,"longitude":86.4304,"temp":24.8,"humidity":86,"rain":0.0,"pressure":982.0,"uv_index":8.0,"wind_gusts":30.2,"aqi":177,"pm10":141.6,"pm2_5":128.1,"mosquito_risk":3,"arthritis_risk":5,"migraine_risk":7,"frizz_risk":1,"updated_at":"2026-03-13T07:55:25.020353+05:30"},{"city":"Bokaro","state":"Jharkhand","latitude":23.6693,"longitude":86.1511,"temp":23.3,"humidity":73,"rain":0.0,"pressure":986.0,"uv_index":8.0,"wind_gusts":31.0,"aqi":160,"pm10":119.7,"pm2_5":88.9,"mosquito_risk":3,"arthritis_risk":5,"migraine_risk":7,"frizz_risk":1,"updated_at":"2026-03-13T07:55:25.020359+05:30"},{"city":"Bhubaneswar","state":"Odisha","latitude":20.2961,"longitude":85.8245,"temp":26.5,"humidity":86,"rain":0.0,"pressure":1005.4,"uv_index":8.4,"wind_gusts":36.0,"aqi":121,"pm10":40.7,"pm2_5":35.9,"mosquito_risk":7,"arthritis_risk":5,"migraine_risk":4,"frizz_risk":1,"updated_at":"2026-03-13T07:55:25.020365+05:30"},{"city":"Cuttack","state":"Odisha","latitude":20.4625,"longitude":85.8828,"temp":26.4,"humidity":87,"rain":0.0,"pressure":1007.4,"uv_index":8.45,"wind_gusts":31.3,"aqi":121,"pm10":40.7,"pm2_5":35.9,"mosquito_risk":7,"arthritis_risk":5,"migraine_risk":4,"frizz_risk":1,"updated_at":"2026-03-13T07:55:25.020372+05:30"},{"city":"Rourkela","state":"Odisha","latitude":22.2604,"longitude":84.8536,"temp":23.9,"humidity":73,"rain":0.0,"pressure":987.7,"uv_index":8.0,"wind_gusts":28.4,"aqi":121,"pm10":63.1,"pm2_5":34.3,"mosquito_risk":3,"arthritis_risk":5,"migraine_risk":7,"frizz_risk":1,"updated_at":"2026-03-13T07:55:25.020378+05:30"},{"city":"Raipur","state":"Chhattisgarh","latitude":21.2514,"longitude":81.6296,"temp":23.7,"humidity":45,"rain":0.0,"pressure":976.0,"uv_index":8.15,"wind_gusts":16.9,"aqi":146,"pm10":130.9,"pm2_5":102.7,"mosquito_risk":0,"arthritis_risk":5,"migraine_risk":7,"frizz_risk":0,"updated_at":"2026-03-13T07:55:25.020383+05:30"},{"city":"Bhilai","state":"Chhattisgarh","latitude":21.1938,"longitude":81.3509,"temp":23.2,"humidity":47,"rain":0.0,"pressure":976.3,"uv_index":8.15,"wind_gusts":12.2,"aqi":141,"pm10":119.0,"pm2_5":91.3,"mosquito_risk":0,"arthritis_risk":5,"migraine_risk":7,"frizz_risk":0,"updated_at":"2026-03-13T07:55:25.020389+05:30"},{"city":"Guwahati","state":"Assam","latitude":26.1158,"longitude":91.7086,"temp":23.3,"humidity":90,"rain":0.0,"pressure":1004.8,"uv_index":7.3,"wind_gusts":32.8,"aqi":160,"pm10":63.1,"pm2_5":59.8,"mosquito_risk":3,"arthritis_risk":5,"migraine_risk":4,"frizz_risk":1,"updated_at":"2026-03-13T07:55:25.020395+05:30"},{"city":"Agartala","state":"Tripura","latitude":23.8315,"longitude":91.2868,"temp":23.5,"humidity":91,"rain":0.0,"pressure":1009.8,"uv_index":7.7,"wind_gusts":28.1,"aqi":152,"pm10":45.9,"pm2_5":39.9,"mosquito_risk":3,"arthritis_risk":0,"migraine_risk":4,"frizz_risk":1,"updated_at":"2026-03-13T07:55:25.020401+05:30"},{"city":"Shillong","state":"Meghalaya","latitude":25.5788,"longitude":91.8933,"temp":13.9,"humidity":90,"rain":0.0,"pressure":857.5,"uv_index":7.1,"wind_gusts":52.6,"aqi":154,"pm10":55.2,"pm2_5":48.3,"mosquito_risk":3,"arthritis_risk":10,"migraine_risk":7,"frizz_risk":0,"updated_at":"2026-03-13T07:55:25.020407+05:30"},{"city":"Imphal","state":"Manipur","latitude":24.817,"longitude":93.9368,"temp":18.8,"humidity":81,"rain":0.0,"pressure":926.1,"uv_index":7.0,"wind_gusts":63.4,"aqi":158,"pm10":64.0,"pm2_5":59.5,"mosquito_risk":3,"arthritis_risk":10,"migraine_risk":7,"frizz_risk":0,"updated_at":"2026-03-13T07:55:25.020413+05:30"},{"city":"Aizawl","state":"Mizoram","latitude":23.7271,"longitude":92.7176,"temp":19.1,"humidity":76,"rain":0.0,"pressure":895.1,"uv_index":7.15,"wind_gusts":64.1,"aqi":159,"pm10":62.2,"pm2_5":54.0,"mosquito_risk":3,"arthritis_risk":5,"migraine_risk":7,"frizz_risk":0,"updated_at":"2026-03-13T07:55:25.020420+05:30"},{"city":"Kohima","state":"Nagaland","latitude":25.6701,"longitude":94.1077,"temp":16.5,"humidity":79,"rain":0.0,"pressure":857.2,"uv_index":5.65,"wind_gusts":75.6,"aqi":143,"pm10":38.4,"pm2_5":36.4,"mosquito_risk":3,"arthritis_risk":5,"migraine_risk":3,"frizz_risk":0,"updated_at":"2026-03-13T07:55:25.020426+05:30"},{"city":"Gangtok","state":"Sikkim","latitude":27.3314,"longitude":88.6138,"temp":13.9,"humidity":96,"rain":0.1,"pressure":838.3,"uv_index":3.35,"wind_gusts":17.3,"aqi":105,"pm10":48.2,"pm2_5":43.2,"mosquito_risk":6,"arthritis_risk":10,"migraine_risk":3,"frizz_risk":0,"updated_at":"2026-03-13T07:55:25.020432+05:30"},{"city":"Siliguri","state":"West Bengal","latitude":26.7271,"longitude":88.3953,"temp":19.5,"humidity":83,"rain":0.0,"pressure":997.1,"uv_index":6.8,"wind_gusts":27.4,"aqi":159,"pm10":91.0,"pm2_5":81.5,"mosquito_risk":3,"arthritis_risk":10,"migraine_risk":7,"frizz_risk":1,"updated_at":"2026-03-13T07:55:28.368862+05:30"},{"city":"Durgapur","state":"West Bengal","latitude":23.5204,"longitude":87.3119,"temp":25.9,"humidity":88,"rain":0.0,"pressure":997.6,"uv_index":7.95,"wind_gusts":24.8,"aqi":179,"pm10":107.6,"pm2_5":101.3,"mosquito_risk":7,"arthritis_risk":5,"migraine_risk":7,"frizz_risk":1,"updated_at":"2026-03-13T07:55:28.368891+05:30"},{"city":"Asansol","state":"West Bengal","latitude":23.6739,"longitude":86.9524,"temp":25.8,"humidity":86,"rain":0.0,"pressure":996.0,"uv_index":7.95,"wind_gusts":25.2,"aqi":179,"pm10":103.4,"pm2_5":98.0,"mosquito_risk":7,"arthritis_risk":5,"migraine_risk":7,"frizz_risk":1,"updated_at":"2026-03-13T07:55:28.368900+05:30"},{"city":"Pondicherry","state":"Puducherry","latitude":11.9139,"longitude":79.8145,"temp":25.5,"humidity":91,"rain":0.0,"pressure":1011.1,"uv_index":9.0,"wind_gusts":28.1,"aqi":68,"pm10":24.7,"pm2_5":20.1,"mosquito_risk":7,"arthritis_risk":0,"migraine_risk":4,"frizz_risk":1,"updated_at":"2026-03-13T07:55:28.368908+05:30"},{"city":"Port Blair","state":"Andaman and Nicobar Islands","latitude":11.6234,"longitude":92.7265,"temp":27.4,"humidity":81,"rain":0.0,"pressure":1009.7,"uv_index":8.95,"wind_gusts":23.8,"aqi":54,"pm10":16.9,"pm2_5":13.6,"mosquito_risk":7,"arthritis_risk":0,"migraine_risk":4,"frizz_risk":1,"updated_at":"2026-03-13T07:55:28.368915+05:30"},{"city":"Haridwar","state":"Uttarakhand","latitude":29.9457,"longitude":78.1642,"temp":18.8,"humidity":73,"rain":0.0,"pressure":975.8,"uv_index":5.25,"wind_gusts":27.7,"aqi":100,"pm10":20.1,"pm2_5":16.4,"mosquito_risk":3,"arthritis_risk":5,"migraine_risk":3,"frizz_risk":0,"updated_at":"2026-03-13T07:55:28.368923+05:30"},{"city":"Rishikesh","state":"Uttarakhand","latitude":30.0869,"longitude":78.2676,"temp":19.5,"humidity":54,"rain":0.0,"pressure":968.5,"uv_index":5.25,"wind_gusts":29.2,"aqi":73,"pm10":17.5,"pm2_5":13.5,"mosquito_risk":0,"arthritis_risk":5,"migraine_risk":3,"frizz_risk":0,"updated_at":"2026-03-13T07:55:28.368930+05:30"},{"city":"Nainital","state":"Uttarakhand","latitude":29.3919,"longitude":79.4542,"temp":18.9,"humidity":44,"rain":0.0,"pressure":807.4,"uv_index":6.65,"wind_gusts":47.5,"aqi":94,"pm10":33.8,"pm2_5":27.9,"mosquito_risk":0,"arthritis_risk":5,"migraine_risk":7,"frizz_risk":0,"updated_at":"2026-03-13T07:55:28.368938+05:30"},{"city":"Mussoorie","state":"Uttarakhand","latitude":30.4599,"longitude":78.0664,"temp":15.6,"humidity":37,"rain":0.0,"pressure":803.1,"uv_index":5.35,"wind_gusts":30.2,"aqi":75,"pm10":15.3,"pm2_5":10.7,"mosquito_risk":0,"arthritis_risk":5,"migraine_risk":3,"frizz_risk":0,"updated_at":"2026-03-13T07:55:28.368945+05:30"},{"city":"Dharamshala","state":"Himachal Pradesh","latitude":32.219,"longitude":76.3234,"temp":18.4,"humidity":31,"rain":0.0,"pressure":869.9,"uv_index":6.15,"wind_gusts":27.7,"aqi":47,"pm10":4.8,"pm2_5":3.2,"mosquito_risk":0,"arthritis_risk":5,"migraine_risk":7,"frizz_risk":0,"updated_at":"2026-03-13T07:55:28.368951+05:30"},{"city":"Dalhousie","state":"Himachal Pradesh","latitude":32.5387,"longitude":75.971,"temp":14.2,"humidity":33,"rain":0.0,"pressure":803.7,"uv_index":6.7,"wind_gusts":31.0,"aqi":77,"pm10":12.3,"pm2_5":9.5,"mosquito_risk":0,"arthritis_risk":5,"migraine_risk":7,"frizz_risk":1,"updated_at":"2026-03-13T07:55:28.368959+05:30"},{"city":"Patiala","state":"Punjab","latitude":30.3398,"longitude":76.3869,"temp":18.4,"humidity":86,"rain":0.0,"pressure":980.3,"uv_index":5.25,"wind_gusts":24.1,"aqi":186,"pm10":378.1,"pm2_5":71.0,"mosquito_risk":3,"arthritis_risk":10,"migraine_risk":3,"frizz_risk":0,"updated_at":"2026-03-13T07:55:28.368965+05:30"},{"city":"Bhatinda","state":"Punjab","latitude":30.211,"longitude":74.9455,"temp":18.4,"humidity":91,"rain":0.0,"pressure":986.9,"uv_index":5.9,"wind_gusts":25.2,"aqi":142,"pm10":59.3,"pm2_5":47.3,"mosquito_risk":3,"arthritis_risk":10,"migraine_risk":3,"frizz_risk":1,"updated_at":"2026-03-13T07:55:28.368972+05:30"},{"city":"Rohtak","state":"Haryana","latitude":28.8955,"longitude":76.6066,"temp":19.2,"humidity":89,"rain":0.0,"pressure":984.2,"uv_index":5.95,"wind_gusts":23.0,"aqi":504,"pm10":588.6,"pm2_5":126.7,"mosquito_risk":3,"arthritis_risk":10,"migraine_risk":3,"frizz_risk":1,"updated_at":"2026-03-13T07:55:28.368978+05:30"},{"city":"Panipat","state":"Haryana","latitude":29.3909,"longitude":76.9635,"temp":18.1,"humidity":89,"rain":0.0,"pressure":982.5,"uv_index":5.15,"wind_gusts":24.5,"aqi":819,"pm10":1046.8,"pm2_5":158.8,"mosquito_risk":3,"arthritis_risk":10,"migraine_risk":3,"frizz_risk":1,"updated_at":"2026-03-13T07:55:28.368985+05:30"},{"city":"Mathura","state":"Uttar Pradesh","latitude":27.4924,"longitude":77.6737,"temp":20.4,"humidity":81,"rain":0.0,"pressure":989.2,"uv_index":6.1,"wind_gusts":24.5,"aqi":535,"pm10":881.0,"pm2_5":163.9,"mosquito_risk":3,"arthritis_risk":5,"migraine_risk":7,"frizz_risk":1,"updated_at":"2026-03-13T07:55:28.368991+05:30"},{"city":"Vrindavan","state":"Uttar Pradesh","latitude":27.5823,"longitude":77.7027,"temp":20.6,"humidity":85,"rain":0.0,"pressure":989.6,"uv_index":5.9,"wind_gusts":27.7,"aqi":535,"pm10":881.0,"pm2_5":163.9,"mosquito_risk":3,"arthritis_risk":5,"migraine_risk":3,"frizz_risk":1,"updated_at":"2026-03-13T07:55:28.368997+05:30"},{"city":"Ayodhya","state":"Uttar Pradesh","latitude":26.7922,"longitude":82.1998,"temp":21.2,"humidity":84,"rain":0.0,"pressure":997.0,"uv_index":5.95,"wind_gusts":31.7,"aqi":154,"pm10":188.6,"pm2_5":112.2,"mosquito_risk":3,"arthritis_risk":5,"migraine_risk":3,"frizz_risk":1,"updated_at":"2026-03-13T07:55:28.369003+05:30"},{"city":"Ratlam","state":"Madhya Pradesh","latitude":23.3315,"longitude":75.0367,"temp":21.9,"humidity":35,"rain":0.0,"pressure":955.9,"uv_index":7.65,"wind_gusts":24.5,"aqi":56,"pm10":19.4,"pm2_5":14.9,"mosquito_risk":0,"arthritis_risk":5,"migraine_risk":7,"frizz_risk":0,"updated_at":"2026-03-13T07:55:28.369010+05:30"},{"city":"Sagar","state":"Madhya Pradesh","latitude":23.8388,"longitude":78.7378,"temp":20.2,"humidity":51,"rain":0.0,"pressure":951.5,"uv_index":7.4,"wind_gusts":24.5,"aqi":57,"pm10":24.1,"pm2_5":22.4,"mosquito_risk":0,"arthritis_risk":5,"migraine_risk":7,"frizz_risk":0,"updated_at":"2026-03-13T07:55:28.369016+05:30"},{"city":"Satna","state":"Madhya Pradesh","latitude":24.6005,"longitude":80.8322,"temp":22.8,"humidity":50,"rain":0.0,"pressure":973.1,"uv_index":7.45,"wind_gusts":25.2,"aqi":62,"pm10":36.9,"pm2_5":27.5,"mosquito_risk":0,"arthritis_risk":5,"migraine_risk":7,"frizz_risk":0,"updated_at":"2026-03-13T07:55:28.369023+05:30"},{"city":"Akola","state":"Maharashtra","latitude":20.7002,"longitude":77.0082,"temp":23.3,"humidity":53,"rain":0.0,"pressure":976.6,"uv_index":8.05,"wind_gusts":23.0,"aqi":84,"pm10":36.2,"pm2_5":32.1,"mosquito_risk":0,"arthritis_risk":5,"migraine_risk":7,"frizz_risk":0,"updated_at":"2026-03-13T07:55:28.369030+05:30"},{"city":"Amravati","state":"Maharashtra","latitude":20.9374,"longitude":77.7796,"temp":22.3,"humidity":53,"rain":0.0,"pressure":968.7,"uv_index":8.0,"wind_gusts":16.6,"aqi":90,"pm10":43.8,"pm2_5":38.4,"mosquito_risk":0,"arthritis_risk":5,"migraine_risk":7,"frizz_risk":0,"updated_at":"2026-03-13T07:55:28.369053+05:30"},{"city":"Latur","state":"Maharashtra","latitude":18.4088,"longitude":76.5604,"temp":22.0,"humidity":53,"rain":0.0,"pressure":940.9,"uv_index":8.5,"wind_gusts":21.6,"aqi":93,"pm10":57.7,"pm2_5":49.4,"mosquito_risk":0,"arthritis_risk":5,"migraine_risk":7,"frizz_risk":0,"updated_at":"2026-03-13T07:55:28.369060+05:30"},{"city":"Nanded","state":"Maharashtra","latitude":19.1383,"longitude":77.3091,"temp":24.7,"humidity":53,"rain":0.0,"pressure":970.0,"uv_index":8.3,"wind_gusts":13.7,"aqi":109,"pm10":52.7,"pm2_5":49.1,"mosquito_risk":0,"arthritis_risk":5,"migraine_risk":7,"frizz_risk":0,"updated_at":"2026-03-13T07:55:28.369067+05:30"},{"city":"Gulbarga","state":"Karnataka","latitude":17.3297,"longitude":76.8343,"temp":25.5,"humidity":52,"rain":0.0,"pressure":960.3,"uv_index":8.6,"wind_gusts":28.4,"aqi":90,"pm10":37.8,"pm2_5":32.6,"mosquito_risk":4,"arthritis_risk":5,"migraine_risk":7,"frizz_risk":0,"updated_at":"2026-03-13T07:55:28.369073+05:30"},{"city":"Bidar","state":"Karnataka","latitude":17.9104,"longitude":77.5199,"temp":24.4,"humidity":50,"rain":0.0,"pressure":936.6,"uv_index":8.55,"wind_gusts":32.8,"aqi":101,"pm10":49.4,"pm2_5":40.9,"mosquito_risk":0,"arthritis_risk":5,"migraine_risk":7,"frizz_risk":0,"updated_at":"2026-03-13T07:55:28.369079+05:30"},{"city":"Hospet","state":"Karnataka","latitude":15.2689,"longitude":76.3909,"temp":25.0,"humidity":60,"rain":0.0,"pressure":957.4,"uv_index":8.9,"wind_gusts":28.4,"aqi":81,"pm10":43.2,"pm2_5":39.5,"mosquito_risk":4,"arthritis_risk":5,"migraine_risk":7,"frizz_risk":1,"updated_at":"2026-03-13T07:55:28.369085+05:30"},{"city":"Tirupur","state":"Tamil Nadu","latitude":11.1085,"longitude":77.3411,"temp":24.4,"humidity":86,"rain":0.0,"pressure":977.6,"uv_index":9.25,"wind_gusts":29.9,"aqi":86,"pm10":47.4,"pm2_5":45.5,"mosquito_risk":3,"arthritis_risk":5,"migraine_risk":7,"frizz_risk":1,"updated_at":"2026-03-13T07:55:28.369092+05:30"},{"city":"Alappuzha","state":"Kerala","latitude":9.4981,"longitude":76.3388,"temp":27.5,"humidity":81,"rain":0.0,"pressure":1010.0,"uv_index":9.1,"wind_gusts":28.4,"aqi":88,"pm10":38.1,"pm2_5":36.7,"mosquito_risk":7,"arthritis_risk":0,"migraine_risk":4,"frizz_risk":1,"updated_at":"2026-03-13T07:55:28.369098+05:30"},{"city":"Munnar","state":"Kerala","latitude":10.0889,"longitude":77.0595,"temp":19.8,"humidity":55,"rain":0.0,"pressure":857.0,"uv_index":9.55,"wind_gusts":27.0,"aqi":72,"pm10":33.5,"pm2_5":32.2,"mosquito_risk":0,"arthritis_risk":5,"migraine_risk":7,"frizz_risk":0,"updated_at":"2026-03-13T07:55:28.369105+05:30"},{"city":"Silchar","state":"Assam","latitude":24.8333,"longitude":92.7789,"temp":23.0,"humidity":87,"rain":0.0,"pressure":1008.8,"uv_index":7.75,"wind_gusts":35.3,"aqi":166,"pm10":88.2,"pm2_5":79.9,"mosquito_risk":3,"arthritis_risk":0,"migraine_risk":4,"frizz_risk":1,"updated_at":"2026-03-13T07:55:28.369111+05:30"},{"city":"Dibrugarh","state":"Assam","latitude":27.4728,"longitude":94.912,"temp":21.8,"humidity":86,"rain":0.0,"pressure":999.7,"uv_index":5.55,"wind_gusts":25.2,"aqi":136,"pm10":38.3,"pm2_5":36.2,"mosquito_risk":3,"arthritis_risk":5,"migraine_risk":3,"frizz_risk":1,"updated_at":"2026-03-13T07:55:28.369117+05:30"}]