[{"city":"Delhi","state":"Delhi","latitude":28.6139,"longitude":77.209,"temp":24.9,"humidity":62,"rain":0.0,"pressure":985.2,"uv_index":7.55,"wind_gusts":47.9,"aqi":440,"pm10":307.3,"pm2_5":61.9,"no2":17.0,"co":498.0,"o3":131.0,"so2":21.9,"mosquito_risk":3,"arthritis_risk":5,"migraine_risk":7,"frizz_risk":1,"updated_at":"2026-05-07T22:23:36.803937+05:30"},{"city":"Mumbai","state":"Maharashtra","latitude":19.076,"longitude":72.8777,"temp":29.0,"humidity":83,"rain":0.0,"pressure":1007.1,"uv_index":7.85,"wind_gusts":43.9,"aqi":96,"pm10":90.6,"pm2_5":29.5,"no2":13.4,"co":287.0,"o3":72.0,"so2":13.7,"mosquito_risk":7,"arthritis_risk":5,"migraine_risk":4,"frizz_risk":1,"updated_at":"2026-05-07T22:23:36.803979+05:30"},{"city":"Bangalore","state":"Karnataka","latitude":12.9716,"longitude":77.5946,"temp":25.6,"humidity":62,"rain":0.0,"pressure":911.9,"uv_index":9.5,"wind_gusts":29.5,"aqi":72,"pm10":18.6,"pm2_5":17.6,"no2":31.0,"co":362.0,"o3":52.0,"so2":10.3,"mosquito_risk":7,"arthritis_risk":5,"migraine_risk":7,"frizz_risk":1,"updated_at":"2026-05-07T22:23:36.803995+05:30"},{"city":"Hyderabad","state":"Telangana","latitude":17.385,"longitude":78.4867,"temp":29.4,"humidity":52,"rain":0.0,"pressure":954.6,"uv_index":9.25,"wind_gusts":33.1,"aqi":84,"pm10":25.1,"pm2_5":19.8,"no2":12.3,"co":316.0,"o3":90.0,"so2":7.1,"mosquito_risk":4,"arthritis_risk":5,"migraine_risk":7,"frizz_risk":1,"updated_at":"2026-05-07T22:23:36.804005+05:30"},{"city":"Chennai","state":"Tamil Nadu","latitude":13.0827,"longitude":80.2707,"temp":29.7,"humidity":71,"rain":0.0,"pressure":1007.7,"uv_index":9.25,"wind_gusts":39.2,"aqi":29,"pm10":6.2,"pm2_5":4.3,"no2":3.9,"co":123.0,"o3":42.0,"so2":2.9,"mosquito_risk":7,"arthritis_risk":5,"migraine_risk":4,"frizz_risk":1,"updated_at":"2026-05-07T22:23:36.804014+05:30"},{"city":"Kolkata","state":"West Bengal","latitude":22.5726,"longitude":88.3639,"temp":26.5,"humidity":87,"rain":0.0,"pressure":1008.8,"uv_index":8.9,"wind_gusts":37.8,"aqi":85,"pm10":41.6,"pm2_5":39.5,"no2":19.6,"co":1341.0,"o3":58.0,"so2":13.5,"mosquito_risk":7,"arthritis_risk":0,"migraine_risk":4,"frizz_risk":1,"updated_at":"2026-05-07T22:23:36.804023+05:30"},{"city":"Pune","state":"Maharashtra","latitude":18.5204,"longitude":73.8567,"temp":30.1,"humidity":45,"rain":0.0,"pressure":947.8,"uv_index":8.45,"wind_gusts":41.4,"aqi":133,"pm10":58.9,"pm2_5":33.4,"no2":11.6,"co":341.0,"o3":139.0,"so2":18.1,"mosquito_risk":0,"arthritis_risk":5,"migraine_risk":7,"frizz_risk":1,"updated_at":"2026-05-07T22:23:36.804030+05:30"},{"city":"Ahmedabad","state":"Gujarat","latitude":23.0225,"longitude":72.5714,"temp":36.0,"humidity":19,"rain":0.0,"pressure":1000.3,"uv_index":8.05,"wind_gusts":27.7,"aqi":89,"pm10":100.1,"pm2_5":56.6,"no2":52.1,"co":346.0,"o3":57.0,"so2":17.9,"mosquito_risk":0,"arthritis_risk":5,"migraine_risk":7,"frizz_risk":0,"updated_at":"2026-05-07T22:23:36.804040+05:30"},{"city":"Jaipur","state":"Rajasthan","latitude":26.9124,"longitude":75.7873,"temp":25.6,"humidity":52,"rain":0.0,"pressure":959.6,"uv_index":8.1,"wind_gusts":62.6,"aqi":111,"pm10":143.0,"pm2_5":45.4,"no2":26.2,"co":443.0,"o3":73.0,"so2":7.6,"mosquito_risk":4,"arthritis_risk":5,"migraine_risk":7,"frizz_risk":0,"updated_at":"2026-05-07T22:23:36.804048+05:30"},{"city":"Lucknow","state":"Uttar Pradesh","latitude":26.8467,"longitude":80.9462,"temp":23.6,"humidity":72,"rain":0.0,"pressure":996.7,"uv_index":8.05,"wind_gusts":32.4,"aqi":137,"pm10":68.2,"pm2_5":39.6,"no2":14.1,"co":457.0,"o3":110.0,"so2":12.1,"mosquito_risk":3,"arthritis_risk":5,"migraine_risk":7,"frizz_risk":1,"updated_at":"2026-05-07T22:23:36.804056+05:30"},{"city":"Kanpur","state":"Uttar Pradesh","latitude":26.4499,"longitude":80.3319,"temp":25.2,"humidity":63,"rain":0.0,"pressure":994.6,"uv_index":8.05,"wind_gusts":38.9,"aqi":140,"pm10":225.4,"pm2_5":50.8,"no2":10.9,"co":352.0,"o3":111.0,"so2":8.9,"mosquito_risk":7,"arthritis_risk":5,"migraine_risk":7,"frizz_risk":1,"updated_at":"2026-05-07T22:23:36.804063+05:30"},{"city":"Chandigarh","state":"Chandigarh","latitude":30.7333,"longitude":76.7794,"temp":23.2,"humidity":56,"rain":0.0,"pressure":971.2,"uv_index":5.9,"wind_gusts":46.8,"aqi":144,"pm10":58.1,"pm2_5":37.6,"no2":31.3,"co":490.0,"o3":85.0,"so2":6.7,"mosquito_risk":0,"arthritis_risk":5,"migraine_risk":3,"frizz_risk":0,"updated_at":"2026-05-07T22:23:36.804071+05:30"},{"city":"Srinagar","state":"Jammu and Kashmir","latitude":34.0837,"longitude":74.7973,"temp":12.9,"humidity":79,"rain":0.0,"pressure":839.4,"uv_index":8.7,"wind_gusts":33.5,"aqi":64,"pm10":44.8,"pm2_5":34.7,"no2":39.2,"co":1242.0,"o3":43.0,"so2":6.3,"mosquito_risk":3,"arthritis_risk":5,"migraine_risk":7,"frizz_risk":0,"updated_at":"2026-05-07T22:23:36.804079+05:30"},{"city":"Jammu","state":"Jammu and Kashmir","latitude":32.7266,"longitude":74.857,"temp":25.0,"humidity":51,"rain":0.0,"pressure":974.0,"uv_index":8.3,"wind_gusts":30.6,"aqi":145,"pm10":45.9,"pm2_5":32.8,"no2":32.8,"co":514.0,"o3":95.0,"so2":8.4,"mosquito_risk":4,"arthritis_risk":5,"migraine_risk":7,"frizz_risk":0,"updated_at":"2026-05-07T22:23:36.804087+05:30"},{"city":"Amritsar","state":"Punjab","latitude":31.634,"longitude":74.8723,"temp":25.9,"humidity":52,"rain":0.0,"pressure":982.0,"uv_index":8.2,"wind_gusts":32.0,"aqi":157,"pm10":191.4,"pm2_5":51.1,"no2":4.9,"co":412.0,"o3":144.0,"so2":9.1,"mosquito_risk":4,"arthritis_risk":5,"migraine_risk":7,"frizz_risk":0,"updated_at":"2026-05-07T22:23:36.804094+05:30"},{"city":"Ludhiana","state":"Punjab","latitude":30.901,"longitude":75.8573,"temp":24.3,"humidity":62,"rain":0.0,"pressure":980.4,"uv_index":7.8,"wind_gusts":40.0,"aqi":174,"pm10":213.3,"pm2_5":57.5,"no2":13.6,"co":401.0,"o3":116.0,"so2":8.9,"mosquito_risk":3,"arthritis_risk":5,"migraine_risk":7,"frizz_risk":1,"updated_at":"2026-05-07T22:23:36.804100+05:30"},{"city":"Jalandhar","state":"Punjab","latitude":31.326,"longitude":75.5762,"temp":24.1,"humidity":63,"rain":0.0,"pressure":981.3,"uv_index":7.95,"wind_gusts":38.2,"aqi":149,"pm10":223.1,"pm2_5":67.1,"no2":17.3,"co":406.0,"o3":105.0,"so2":15.5,"mosquito_risk":3,"arthritis_risk":5,"migraine_risk":7,"frizz_risk":1,"updated_at":"2026-05-07T22:23:36.804107+05:30"},{"city":"Dehradun","state":"Uttarakhand","latitude":30.6284,"longitude":78.0322,"temp":10.9,"humidity":92,"rain":0.0,"pressure":830.0,"uv_index":5.95,"wind_gusts":30.6,"aqi":121,"pm10":25.8,"pm2_5":20.1,"no2":28.4,"co":223.0,"o3":89.0,"so2":1.0,"mosquito_risk":3,"arthritis_risk":10,"migraine_risk":3,"frizz_risk":0,"updated_at":"2026-05-07T22:23:36.804117+05:30"},{"city":"Shimla","state":"Himachal Pradesh","latitude":31.1048,"longitude":77.1734,"temp":8.5,"humidity":87,"rain":0.0,"pressure":782.4,"uv_index":6.25,"wind_gusts":28.8,"aqi":128,"pm10":19.0,"pm2_5":15.1,"no2":20.5,"co":499.0,"o3":93.0,"so2":1.5,"mosquito_risk":3,"arthritis_risk":10,"migraine_risk":7,"frizz_risk":0,"updated_at":"2026-05-07T22:23:36.804124+05:30"},{"city":"Manali","state":"Himachal Pradesh","latitude":32.2396,"longitude":77.1887,"temp":10.0,"humidity":87,"rain":0.0,"pressure":817.2,"uv_index":9.35,"wind_gusts":33.1,"aqi":91,"pm10":47.7,"pm2_5":11.1,"no2":27.6,"co":337.0,"o3":99.0,"so2":0.8,"mosquito_risk":3,"arthritis_risk":10,"migraine_risk":7,"frizz_risk":0,"updated_at":"2026-05-07T22:23:36.804131+05:30"},{"city":"Gurgaon","state":"Haryana","latitude":28.4595,"longitude":77.0266,"temp":24.8,"humidity":58,"rain":0.0,"pressure":983.1,"uv_index":7.65,"wind_gusts":53.6,"aqi":1638,"pm10":2458.7,"pm2_5":284.1,"no2":16.0,"co":460.0,"o3":133.0,"so2":18.9,"mosquito_risk":0,"arthritis_risk":5,"migraine_risk":7,"frizz_risk":0,"updated_at":"2026-05-07T22:23:36.804138+05:30"},{"city":"Noida","state":"Uttar Pradesh","latitude":28.5355,"longitude":77.391,"temp":23.6,"humidity":70,"rain":0.0,"pressure":986.8,"uv_index":7.55,"wind_gusts":45.7,"aqi":1638,"pm10":2458.7,"pm2_5":284.1,"no2":16.0,"co":445.0,"o3":133.0,"so2":18.9,"mosquito_risk":3,"arthritis_risk":5,"migraine_risk":7,"frizz_risk":1,"updated_at":"2026-05-07T22:23:36.804144+05:30"},{"city":"Ghaziabad","state":"Uttar Pradesh","latitude":28.6692,"longitude":77.4538,"temp":23.5,"humidity":71,"rain":0.0,"pressure":985.1,"uv_index":7.55,"wind_gusts":45.7,"aqi":186,"pm10":222.1,"pm2_5":48.3,"no2":8.6,"co":368.0,"o3":136.0,"so2":16.2,"mosquito_risk":3,"arthritis_risk":5,"migraine_risk":7,"frizz_risk":1,"updated_at":"2026-05-07T22:23:36.804151+05:30"},{"city":"Faridabad","state":"Haryana","latitude":28.4089,"longitude":77.3178,"temp":24.1,"humidity":66,"rain":0.0,"pressure":985.8,"uv_index":7.6,"wind_gusts":51.1,"aqi":1638,"pm10":2458.7,"pm2_5":284.1,"no2":16.0,"co":479.0,"o3":133.0,"so2":18.9,"mosquito_risk":3,"arthritis_risk":5,"migraine_risk":7,"frizz_risk":1,"updated_at":"2026-05-07T22:23:36.804158+05:30"},{"city":"Meerut","state":"Uttar Pradesh","latitude":28.9845,"longitude":77.7064,"temp":22.8,"humidity":74,"rain":0.0,"pressure":984.2,"uv_index":7.1,"wind_gusts":45.4,"aqi":186,"pm10":222.1,"pm2_5":48.3,"no2":8.6,"co":380.0,"o3":136.0,"so2":16.2,"mosquito_risk":3,"arthritis_risk":5,"migraine_risk":7,"frizz_risk":1,"updated_at":"2026-05-07T22:23:36.804167+05:30"},{"city":"Agra","state":"Uttar Pradesh","latitude":27.1767,"longitude":78.0081,"temp":24.2,"humidity":60,"rain":0.0,"pressure":989.5,"uv_index":7.9,"wind_gusts":52.9,"aqi":938,"pm10":1777.0,"pm2_5":197.9,"no2":8.6,"co":329.0,"o3":123.0,"so2":12.3,"mosquito_risk":0,"arthritis_risk":5,"migraine_risk":7,"frizz_risk":0,"updated_at":"2026-05-07T22:23:36.804174+05:30"},{"city":"Varanasi","state":"Uttar Pradesh","latitude":25.3176,"longitude":82.9739,"temp":25.7,"humidity":66,"rain":0.0,"pressure":1000.5,"uv_index":8.55,"wind_gusts":37.4,"aqi":132,"pm10":80.8,"pm2_5":55.3,"no2":29.3,"co":940.0,"o3":83.0,"so2":19.2,"mosquito_risk":7,"arthritis_risk":5,"migraine_risk":4,"frizz_risk":1,"updated_at":"2026-05-07T22:23:36.804181+05:30"},{"city":"Prayagraj","state":"Uttar Pradesh","latitude":25.4358,"longitude":81.8463,"temp":26.1,"humidity":55,"rain":0.0,"pressure":998.7,"uv_index":8.45,"wind_gusts":31.7,"aqi":129,"pm10":68.0,"pm2_5":41.2,"no2":21.3,"co":416.0,"o3":91.0,"so2":13.3,"mosquito_risk":4,"arthritis_risk":5,"migraine_risk":7,"frizz_risk":1,"updated_at":"2026-05-07T22:23:36.804190+05:30"},{"city":"Gorakhpur","state":"Uttar Pradesh","latitude":26.7606,"longitude":83.3732,"temp":23.0,"humidity":81,"rain":0.0,"pressure":1000.6,"uv_index":8.4,"wind_gusts":35.6,"aqi":136,"pm10":44.2,"pm2_5":32.2,"no2":10.9,"co":521.0,"o3":110.0,"so2":6.1,"mosquito_risk":3,"arthritis_risk":5,"migraine_risk":4,"frizz_risk":1,"updated_at":"2026-05-07T22:23:36.804197+05:30"},{"city":"Bareilly","state":"Uttar Pradesh","latitude":28.367,"longitude":79.4304,"temp":21.9,"humidity":88,"rain":0.0,"pressure":989.8,"uv_index":7.2,"wind_gusts":26.6,"aqi":126,"pm10":60.8,"pm2_5":33.6,"no2":15.8,"co":357.0,"o3":98.0,"so2":7.0,"mosquito_risk":3,"arthritis_risk":5,"migraine_risk":7,"frizz_risk":1,"updated_at":"2026-05-07T22:23:36.804203+05:30"},{"city":"Aligarh","state":"Uttar Pradesh","latitude":27.8974,"longitude":78.088,"temp":23.5,"humidity":73,"rain":0.0,"pressure":987.8,"uv_index":7.7,"wind_gusts":47.9,"aqi":698,"pm10":873.6,"pm2_5":115.9,"no2":6.6,"co":348.0,"o3":148.0,"so2":15.9,"mosquito_risk":3,"arthritis_risk":5,"migraine_risk":7,"frizz_risk":1,"updated_at":"2026-05-07T22:23:36.804210+05:30"},{"city":"Moradabad","state":"Uttar Pradesh","latitude":28.8386,"longitude":78.7733,"temp":22.0,"humidity":80,"rain":0.0,"pressure":986.8,"uv_index":7.35,"wind_gusts":35.6,"aqi":133,"pm10":74.5,"pm2_5":45.6,"no2":22.8,"co":341.0,"o3":92.0,"so2":12.1,"mosquito_risk":3,"arthritis_risk":5,"migraine_risk":7,"frizz_risk":1,"updated_at":"2026-05-07T22:23:36.804217+05:30"},{"city":"Saharanpur","state":"Uttar Pradesh","latitude":29.9637,"longitude":77.546,"temp":22.2,"humidity":72,"rain":0.0,"pressure":978.5,"uv_index":7.0,"wind_gusts":49.0,"aqi":121,"pm10":138.8,"pm2_5":65.4,"no2":32.5,"co":452.0,"o3":83.0,"so2":16.8,"mosquito_risk":3,"arthritis_risk":5,"migraine_risk":7,"frizz_risk":1,"updated_at":"2026-05-07T22:23:36.804223+05:30"},{"city":"Jhansi","state":"Uttar Pradesh","latitude":25.4484,"longitude":78.5685,"temp":27.0,"humidity":46,"rain":0.0,"pressure":979.3,"uv_index":8.3,"wind_gusts":45.0,"aqi":117,"pm10":54.4,"pm2_5":22.1,"no2":4.9,"co":304.0,"o3":107.0,"so2":9.6,"mosquito_risk":4,"arthritis_risk":5,"migraine_risk":7,"frizz_risk":0,"updated_at":"2026-05-07T22:23:40.057620+05:30"},{"city":"Surat","state":"Gujarat","latitude":21.1702,"longitude":72.8311,"temp":29.0,"humidity":86,"rain":0.0,"pressure":1005.4,"uv_index":7.7,"wind_gusts":31.7,"aqi":131,"pm10":67.5,"pm2_5":34.2,"no2":35.1,"co":381.0,"o3":66.0,"so2":46.2,"mosquito_risk":7,"arthritis_risk":5,"migraine_risk":4,"frizz_risk":1,"updated_at":"2026-05-07T22:23:40.057650+05:30"},{"city":"Vadodara","state":"Gujarat","latitude":22.3072,"longitude":73.1812,"temp":33.8,"humidity":24,"rain":0.0,"pressure":1002.6,"uv_index":8.0,"wind_gusts":37.8,"aqi":113,"pm10":78.2,"pm2_5":43.0,"no2":37.1,"co":480.0,"o3":70.0,"so2":14.9,"mosquito_risk":0,"arthritis_risk":5,"migraine_risk":4,"frizz_risk":0,"updated_at":"2026-05-07T22:23:40.057660+05:30"},{"city":"Rajkot","state":"Gujarat","latitude":22.3039,"longitude":70.8022,"temp":29.6,"humidity":41,"rain":0.0,"pressure":993.3,"uv_index":7.65,"wind_gusts":45.4,"aqi":91,"pm10":25.5,"pm2_5":13.6,"no2":6.3,"co":179.0,"o3":77.0,"so2":6.7,"mosquito_risk":4,"arthritis_risk":5,"migraine_risk":7,"frizz_risk":0,"updated_at":"2026-05-07T22:23:40.057668+05:30"},{"city":"Thane","state":"Maharashtra","latitude":19.2183,"longitude":72.9781,"temp":28.8,"humidity":84,"rain":0.0,"pressure":1006.5,"uv_index":7.9,"wind_gusts":35.3,"aqi":96,"pm10":90.6,"pm2_5":29.5,"no2":13.4,"co":256.0,"o3":72.0,"so2":13.7,"mosquito_risk":7,"arthritis_risk":5,"migraine_risk":4,"frizz_risk":1,"updated_at":"2026-05-07T22:23:40.057675+05:30"},{"city":"Nagpur","state":"Maharashtra","latitude":21.1458,"longitude":79.0882,"temp":30.5,"humidity":40,"rain":0.0,"pressure":974.1,"uv_index":8.9,"wind_gusts":48.6,"aqi":195,"pm10":75.9,"pm2_5":57.9,"no2":33.1,"co":275.0,"o3":110.0,"so2":31.8,"mosquito_risk":0,"arthritis_risk":5,"migraine_risk":7,"frizz_risk":0,"updated_at":"2026-05-07T22:23:40.057682+05:30"},{"city":"Nashik","state":"Maharashtra","latitude":19.9975,"longitude":73.7898,"temp":28.9,"humidity":46,"rain":0.0,"pressure":945.4,"uv_index":8.15,"wind_gusts":41.4,"aqi":100,"pm10":51.3,"pm2_5":25.4,"no2":17.2,"co":325.0,"o3":81.0,"so2":4.1,"mosquito_risk":4,"arthritis_risk":5,"migraine_risk":7,"frizz_risk":0,"updated_at":"2026-05-07T22:23:40.057689+05:30"},{"city":"Aurangabad","state":"Maharashtra","latitude":19.8762,"longitude":75.3433,"temp":31.5,"humidity":18,"rain":0.0,"pressure":943.7,"uv_index":9.0,"wind_gusts":33.1,"aqi":131,"pm10":48.8,"pm2_5":25.0,"no2":13.3,"co":318.0,"o3":106.0,"so2":7.6,"mosquito_risk":0,"arthritis_risk":5,"migraine_risk":7,"frizz_risk":0,"updated_at":"2026-05-07T22:23:40.057696+05:30"},{"city":"Solapur","state":"Maharashtra","latitude":17.6599,"longitude":75.9064,"temp":33.2,"humidity":30,"rain":0.0,"pressure":956.7,"uv_index":9.05,"wind_gusts":33.8,"aqi":118,"pm10":50.4,"pm2_5":37.1,"no2":7.2,"co":494.0,"o3":118.0,"so2":5.6,"mosquito_risk":0,"arthritis_risk":5,"migraine_risk":7,"frizz_risk":0,"updated_at":"2026-05-07T22:23:40.057704+05:30"},{"city":"Kolhapur","state":"Maharashtra","latitude":16.705,"longitude":74.2433,"temp":27.0,"humidity":72,"rain":0.0,"pressure":947.7,"uv_index":8.95,"wind_gusts":46.8,"aqi":118,"pm10":59.3,"pm2_5":45.1,"no2":23.3,"co":262.0,"o3":80.0,"so2":10.4,"mosquito_risk":7,"arthritis_risk":5,"migraine_risk":7,"frizz_risk":1,"updated_at":"2026-05-07T22:23:40.057711+05:30"},{"city":"Goa","state":"Goa","latitude":15.2993,"longitude":74.124,"temp":29.4,"humidity":76,"rain":0.0,"pressure":997.1,"uv_index":8.9,"wind_gusts":38.9,"aqi":80,"pm10":71.0,"pm2_5":42.4,"no2":12.8,"co":249.0,"o3":82.0,"so2":5.2,"mosquito_risk":7,"arthritis_risk":5,"migraine_risk":7,"frizz_risk":1,"updated_at":"2026-05-07T22:23:40.057752+05:30"},{"city":"Jodhpur","state":"Rajasthan","latitude":26.2389,"longitude":73.0243,"temp":33.3,"humidity":18,"rain":0.0,"pressure":980.9,"uv_index":8.3,"wind_gusts":40.3,"aqi":109,"pm10":209.1,"pm2_5":35.6,"no2":7.0,"co":223.0,"o3":96.0,"so2":3.4,"mosquito_risk":0,"arthritis_risk":5,"migraine_risk":7,"frizz_risk":0,"updated_at":"2026-05-07T22:23:40.057769+05:30"},{"city":"Udaipur","state":"Rajasthan","latitude":24.5854,"longitude":73.7125,"temp":27.2,"humidity":33,"rain":0.0,"pressure":945.8,"uv_index":8.75,"wind_gusts":31.3,"aqi":87,"pm10":70.5,"pm2_5":20.7,"no2":4.2,"co":279.0,"o3":102.0,"so2":2.7,"mosquito_risk":4,"arthritis_risk":5,"migraine_risk":7,"frizz_risk":0,"updated_at":"2026-05-07T22:23:40.057777+05:30"},{"city":"Kota","state":"Rajasthan","latitude":25.2138,"longitude":75.8648,"temp":30.3,"humidity":31,"rain":0.0,"pressure":978.1,"uv_index":8.3,"wind_gusts":39.6,"aqi":110,"pm10":97.6,"pm2_5":44.8,"no2":22.2,"co":385.0,"o3":83.0,"so2":8.3,"mosquito_risk":0,"arthritis_risk":5,"migraine_risk":7,"frizz_risk":0,"updated_at":"2026-05-07T22:23:40.057784+05:30"},{"city":"Bikaner","state":"Rajasthan","latitude":28.0229,"longitude":73.3119,"temp":31.9,"humidity":23,"rain":0.0,"pressure":979.6,"uv_index":8.25,"wind_gusts":49.0,"aqi":91,"pm10":49.8,"pm2_5":18.5,"no2":6.2,"co":395.0,"o3":95.0,"so2":6.1,"mosquito_risk":0,"arthritis_risk":5,"migraine_risk":7,"frizz_risk":0,"updated_at":"2026-05-07T22:23:40.057791+05:30"},{"city":"Ajmer","state":"Rajasthan","latitude":26.4499,"longitude":74.6399,"temp":29.3,"humidity":25,"rain":0.0,"pressure":953.3,"uv_index":8.25,"wind_gusts":46.4,"aqi":90,"pm10":93.1,"pm2_5":28.8,"no2":12.2,"co":273.0,"o3":82.0,"so2":5.3,"mosquito_risk":4,"arthritis_risk":5,"migraine_risk":7,"frizz_risk":0,"updated_at":"2026-05-07T22:23:40.057798+05:30"},{"city":"Gwalior","state":"Madhya Pradesh","latitude":26.2183,"longitude":78.1828,"temp":24.9,"humidity":57,"rain":0.0,"pressure":984.2,"uv_index":7.9,"wind_gusts":54.0,"aqi":105,"pm10":85.2,"pm2_5":30.4,"no2":8.1,"co":318.0,"o3":104.0,"so2":7.2,"mosquito_risk":0,"arthritis_risk":5,"migraine_risk":7,"frizz_risk":0,"updated_at":"2026-05-07T22:23:40.057805+05:30"},{"city":"Indore","state":"Madhya Pradesh","latitude":22.7196,"longitude":75.8577,"temp":31.6,"humidity":23,"rain":0.0,"pressure":948.4,"uv_index":8.6,"wind_gusts":34.6,"aqi":125,"pm10":47.4,"pm2_5":32.4,"no2":19.1,"co":433.0,"o3":89.0,"so2":8.7,"mosquito_risk":0,"arthritis_risk":5,"migraine_risk":7,"frizz_risk":0,"updated_at":"2026-05-07T22:23:40.057812+05:30"},{"city":"Bhopal","state":"Madhya Pradesh","latitude":23.2599,"longitude":77.4126,"temp":31.4,"humidity":21,"rain":0.0,"pressure":953.4,"uv_index":8.65,"wind_gusts":34.2,"aqi":122,"pm10":34.5,"pm2_5":25.3,"no2":14.6,"co":570.0,"o3":90.0,"so2":6.7,"mosquito_risk":0,"arthritis_risk":5,"migraine_risk":7,"frizz_risk":0,"updated_at":"2026-05-07T22:23:40.057819+05:30"},{"city":"Jabalpur","state":"Madhya Pradesh","latitude":23.1815,"longitude":79.9864,"temp":28.4,"humidity":37,"rain":0.0,"pressure":962.5,"uv_index":8.8,"wind_gusts":37.4,"aqi":105,"pm10":33.5,"pm2_5":20.9,"no2":22.7,"co":306.0,"o3":88.0,"so2":5.6,"mosquito_risk":4,"arthritis_risk":5,"migraine_risk":7,"frizz_risk":0,"updated_at":"2026-05-07T22:23:40.057825+05:30"},{"city":"Ujjain","state":"Madhya Pradesh","latitude":23.1765,"longitude":75.7885,"temp":31.2,"humidity":23,"rain":0.0,"pressure":953.9,"uv_index":8.55,"wind_gusts":46.4,"aqi":107,"pm10":50.1,"pm2_5":31.3,"no2":9.4,"co":304.0,"o3":92.0,"so2":6.3,"mosquito_risk":0,"arthritis_risk":5,"migraine_risk":7,"frizz_risk":0,"updated_at":"2026-05-07T22:23:40.057833+05:30"},{"city":"Visakhapatnam","state":"Andhra Pradesh","latitude":17.6868,"longitude":83.2185,"temp":27.4,"humidity":87,"rain":0.0,"pressure":1005.9,"uv_index":8.9,"wind_gusts":35.3,"aqi":73,"pm10":23.2,"pm2_5":20.8,"no2":18.4,"co":373.0,"o3":22.0,"so2":6.5,"mosquito_risk":7,"arthritis_risk":5,"migraine_risk":4,"frizz_risk":1,"updated_at":"2026-05-07T22:23:40.057840+05:30"},{"city":"Vijayawada","state":"Andhra Pradesh","latitude":16.5062,"longitude":80.648,"temp":29.0,"humidity":75,"rain":0.0,"pressure":1003.9,"uv_index":9.15,"wind_gusts":33.1,"aqi":49,"pm10":11.5,"pm2_5":9.9,"no2":7.5,"co":178.0,"o3":30.0,"so2":6.6,"mosquito_risk":7,"arthritis_risk":5,"migraine_risk":4,"frizz_risk":1,"updated_at":"2026-05-07T22:23:40.057846+05:30"},{"city":"Guntur","state":"Andhra Pradesh","latitude":16.3067,"longitude":80.4365,"temp":29.1,"humidity":72,"rain":0.0,"pressure":1005.1,"uv_index":9.2,"wind_gusts":37.4,"aqi":51,"pm10":12.7,"pm2_5":11.2,"no2":8.0,"co":188.0,"o3":39.0,"so2":8.2,"mosquito_risk":7,"arthritis_risk":5,"migraine_risk":4,"frizz_risk":1,"updated_at":"2026-05-07T22:23:40.057853+05:30"},{"city":"Nellore","state":"Andhra Pradesh","latitude":14.4426,"longitude":79.9865,"temp":28.6,"humidity":79,"rain":0.0,"pressure":1006.8,"uv_index":9.2,"wind_gusts":39.6,"aqi":31,"pm10":7.9,"pm2_5":5.6,"no2":2.5,"co":151.0,"o3":38.0,"so2":1.5,"mosquito_risk":7,"arthritis_risk":5,"migraine_risk":4,"frizz_risk":1,"updated_at":"2026-05-07T22:23:40.057860+05:30"},{"city":"Kurnool","state":"Andhra Pradesh","latitude":15.8281,"longitude":78.0373,"temp":31.1,"humidity":50,"rain":0.0,"pressure":977.1,"uv_index":9.2,"wind_gusts":40.7,"aqi":74,"pm10":18.3,"pm2_5":14.1,"no2":5.3,"co":180.0,"o3":84.0,"so2":2.2,"mosquito_risk":0,"arthritis_risk":5,"migraine_risk":7,"frizz_risk":1,"updated_at":"2026-05-07T22:23:40.057868+05:30"},{"city":"Kakinada","state":"Andhra Pradesh","latitude":16.9891,"longitude":82.2475,"temp":27.4,"humidity":87,"rain":0.0,"pressure":1009.3,"uv_index":8.9,"wind_gusts":30.6,"aqi":30,"pm10":9.8,"pm2_5":6.7,"no2":1.4,"co":198.0,"o3":45.0,"so2":0.7,"mosquito_risk":7,"arthritis_risk":0,"migraine_risk":4,"frizz_risk":1,"updated_at":"2026-05-07T22:23:40.057875+05:30"},{"city":"Tirupati","state":"Andhra Pradesh","latitude":13.6288,"longitude":79.4192,"temp":27.7,"humidity":73,"rain":0.0,"pressure":992.2,"uv_index":9.25,"wind_gusts":37.4,"aqi":51,"pm10":8.9,"pm2_5":7.6,"no2":7.4,"co":152.0,"o3":35.0,"so2":2.8,"mosquito_risk":7,"arthritis_risk":5,"migraine_risk":7,"frizz_risk":1,"updated_at":"2026-05-07T22:23:40.057881+05:30"},{"city":"Warangal","state":"Telangana","latitude":17.9689,"longitude":79.5941,"temp":29.1,"humidity":59,"rain":0.0,"pressure":979.9,"uv_index":9.1,"wind_gusts":43.9,"aqi":75,"pm10":57.3,"pm2_5":47.6,"no2":24.4,"co":370.0,"o3":78.0,"so2":10.9,"mosquito_risk":4,"arthritis_risk":5,"migraine_risk":7,"frizz_risk":1,"updated_at":"2026-05-07T22:23:40.057888+05:30"},{"city":"Nizamabad","state":"Telangana","latitude":18.6725,"longitude":78.0941,"temp":26.9,"humidity":62,"rain":0.0,"pressure":965.2,"uv_index":9.1,"wind_gusts":49.0,"aqi":102,"pm10":41.1,"pm2_5":32.1,"no2":11.9,"co":527.0,"o3":93.0,"so2":7.4,"mosquito_risk":7,"arthritis_risk":5,"migraine_risk":7,"frizz_risk":1,"updated_at":"2026-05-07T22:23:40.057894+05:30"},{"city":"Mysore","state":"Karnataka","latitude":12.2958,"longitude":76.6396,"temp":23.8,"humidity":81,"rain":0.0,"pressure":928.5,"uv_index":9.2,"wind_gusts":32.4,"aqi":81,"pm10":39.2,"pm2_5":32.9,"no2":45.3,"co":330.0,"o3":55.0,"so2":9.6,"mosquito_risk":3,"arthritis_risk":5,"migraine_risk":7,"frizz_risk":1,"updated_at":"2026-05-07T22:23:40.057900+05:30"},{"city":"Mangalore","state":"Karnataka","latitude":12.9141,"longitude":74.856,"temp":28.0,"humidity":87,"rain":0.0,"pressure":1006.0,"uv_index":8.45,"wind_gusts":34.2,"aqi":62,"pm10":42.6,"pm2_5":27.8,"no2":14.9,"co":363.0,"o3":63.0,"so2":5.2,"mosquito_risk":7,"arthritis_risk":5,"migraine_risk":4,"frizz_risk":1,"updated_at":"2026-05-07T22:23:40.057907+05:30"},{"city":"Hubli-Dharwad","state":"Karnataka","latitude":15.3647,"longitude":75.124,"temp":26.0,"humidity":71,"rain":0.0,"pressure":940.9,"uv_index":9.15,"wind_gusts":49.3,"aqi":126,"pm10":38.0,"pm2_5":31.1,"no2":9.2,"co":303.0,"o3":111.0,"so2":4.0,"mosquito_risk":7,"arthritis_risk":5,"migraine_risk":7,"frizz_risk":1,"updated_at":"2026-05-07T22:23:40.057914+05:30"},{"city":"Belgaum","state":"Karnataka","latitude":15.8497,"longitude":74.4977,"temp":24.6,"humidity":77,"rain":0.0,"pressure":925.6,"uv_index":8.35,"wind_gusts":43.6,"aqi":107,"pm10":55.4,"pm2_5":40.6,"no2":23.3,"co":293.0,"o3":69.0,"so2":8.1,"mosquito_risk":3,"arthritis_risk":5,"migraine_risk":7,"frizz_risk":1,"updated_at":"2026-05-07T22:23:43.321612+05:30"},{"city":"Coimbatore","state":"Tamil Nadu","latitude":11.0168,"longitude":76.9558,"temp":25.6,"humidity":85,"rain":0.0,"pressure":961.0,"uv_index":7.0,"wind_gusts":29.2,"aqi":62,"pm10":27.4,"pm2_5":23.7,"no2":13.7,"co":388.0,"o3":76.0,"so2":6.2,"mosquito_risk":7,"arthritis_risk":5,"migraine_risk":7,"frizz_risk":1,"updated_at":"2026-05-07T22:23:43.321645+05:30"},{"city":"Madurai","state":"Tamil Nadu","latitude":9.9252,"longitude":78.1198,"temp":28.9,"humidity":72,"rain":0.0,"pressure":992.5,"uv_index":6.8,"wind_gusts":25.6,"aqi":67,"pm10":20.4,"pm2_5":17.8,"no2":11.5,"co":300.0,"o3":84.0,"so2":5.4,"mosquito_risk":7,"arthritis_risk":5,"migraine_risk":7,"frizz_risk":1,"updated_at":"2026-05-07T22:23:43.321658+05:30"},{"city":"Trichy","state":"Tamil Nadu","latitude":10.7905,"longitude":78.7047,"temp":29.0,"humidity":75,"rain":0.0,"pressure":999.5,"uv_index":8.05,"wind_gusts":34.2,"aqi":69,"pm10":14.5,"pm2_5":13.9,"no2":13.7,"co":269.0,"o3":77.0,"so2":6.8,"mosquito_risk":7,"arthritis_risk":5,"migraine_risk":7,"frizz_risk":1,"updated_at":"2026-05-07T22:23:43.321668+05:30"},{"city":"Salem","state":"Tamil Nadu","latitude":11.6643,"longitude":78.146,"temp":28.2,"humidity":70,"rain":0.0,"pressure":976.7,"uv_index":8.8,"wind_gusts":40.3,"aqi":86,"pm10":24.3,"pm2_5":22.7,"no2":12.4,"co":446.0,"o3":93.0,"so2":11.6,"mosquito_risk":7,"arthritis_risk":5,"migraine_risk":7,"frizz_risk":1,"updated_at":"2026-05-07T22:23:43.321676+05:30"},{"city":"Tirunelveli","state":"Tamil Nadu","latitude":8.7139,"longitude":77.7567,"temp":28.5,"humidity":76,"rain":0.0,"pressure":1002.5,"uv_index":5.1,"wind_gusts":32.4,"aqi":65,"pm10":24.9,"pm2_5":22.4,"no2":11.3,"co":304.0,"o3":70.0,"so2":2.6,"mosquito_risk":7,"arthritis_risk":5,"migraine_risk":0,"frizz_risk":1,"updated_at":"2026-05-07T22:23:43.321685+05:30"},{"city":"Vellore","state":"Tamil Nadu","latitude":12.9165,"longitude":79.1325,"temp":27.9,"humidity":76,"rain":0.0,"pressure":985.2,"uv_index":9.25,"wind_gusts":29.2,"aqi":58,"pm10":11.0,"pm2_5":9.9,"no2":12.7,"co":170.0,"o3":32.0,"so2":1.9,"mosquito_risk":7,"arthritis_risk":5,"migraine_risk":7,"frizz_risk":1,"updated_at":"2026-05-07T22:23:43.321694+05:30"},{"city":"Erode","state":"Tamil Nadu","latitude":11.341,"longitude":77.7172,"temp":28.1,"humidity":76,"rain":0.0,"pressure":988.6,"uv_index":8.1,"wind_gusts":35.6,"aqi":67,"pm10":19.7,"pm2_5":17.8,"no2":12.0,"co":538.0,"o3":91.0,"so2":4.1,"mosquito_risk":7,"arthritis_risk":5,"migraine_risk":7,"frizz_risk":1,"updated_at":"2026-05-07T22:23:43.321702+05:30"},{"city":"Kochi","state":"Kerala","latitude":9.9312,"longitude":76.2673,"temp":26.5,"humidity":91,"rain":0.0,"pressure":1008.3,"uv_index":3.65,"wind_gusts":28.1,"aqi":64,"pm10":24.9,"pm2_5":23.3,"no2":22.0,"co":338.0,"o3":44.0,"so2":4.7,"mosquito_risk":7,"arthritis_risk":0,"migraine_risk":0,"frizz_risk":1,"updated_at":"2026-05-07T22:23:43.321711+05:30"},{"city":"Thiruvananthapuram","state":"Kerala","latitude":8.5241,"longitude":76.9366,"temp":25.0,"humidity":94,"rain":0.0,"pressure":1007.4,"uv_index":7.15,"wind_gusts":31.3,"aqi":70,"pm10":18.3,"pm2_5":14.3,"no2":6.7,"co":377.0,"o3":95.0,"so2":3.6,"mosquito_risk":7,"arthritis_risk":5,"migraine_risk":4,"frizz_risk":1,"updated_at":"2026-05-07T22:23:43.321744+05:30"},{"city":"Kozhikode","state":"Kerala","latitude":11.2588,"longitude":75.7804,"temp":26.9,"humidity":91,"rain":0.0,"pressure":1007.3,"uv_index":7.5,"wind_gusts":32.0,"aqi":78,"pm10":12.2,"pm2_5":9.4,"no2":3.3,"co":478.0,"o3":117.0,"so2":2.1,"mosquito_risk":7,"arthritis_risk":5,"migraine_risk":4,"frizz_risk":1,"updated_at":"2026-05-07T22:23:43.321766+05:30"},{"city":"Thrissur","state":"Kerala","latitude":10.5276,"longitude":76.2144,"temp":25.8,"humidity":95,"rain":0.0,"pressure":1006.8,"uv_index":3.6,"wind_gusts":31.7,"aqi":66,"pm10":25.7,"pm2_5":24.0,"no2":24.0,"co":917.0,"o3":35.0,"so2":3.9,"mosquito_risk":7,"arthritis_risk":5,"migraine_risk":0,"frizz_risk":1,"updated_at":"2026-05-07T22:23:43.321776+05:30"},{"city":"Kannur","state":"Kerala","latitude":11.8745,"longitude":75.3704,"temp":28.5,"humidity":83,"rain":0.0,"pressure":1006.3,"uv_index":8.15,"wind_gusts":41.0,"aqi":83,"pm10":23.6,"pm2_5":17.5,"no2":12.3,"co":568.0,"o3":80.0,"so2":2.9,"mosquito_risk":7,"arthritis_risk":5,"migraine_risk":4,"frizz_risk":1,"updated_at":"2026-05-07T22:23:43.321785+05:30"},{"city":"Patna","state":"Bihar","latitude":25.5941,"longitude":85.1376,"temp":25.2,"humidity":82,"rain":0.0,"pressure":1003.7,"uv_index":8.65,"wind_gusts":39.2,"aqi":159,"pm10":59.0,"pm2_5":51.8,"no2":28.8,"co":658.0,"o3":84.0,"so2":16.6,"mosquito_risk":7,"arthritis_risk":5,"migraine_risk":4,"frizz_risk":1,"updated_at":"2026-05-07T22:23:43.321793+05:30"},{"city":"Gaya","state":"Bihar","latitude":24.7914,"longitude":85.0002,"temp":24.5,"humidity":76,"rain":0.0,"pressure":997.2,"uv_index":8.75,"wind_gusts":42.8,"aqi":180,"pm10":61.2,"pm2_5":56.5,"no2":19.5,"co":516.0,"o3":108.0,"so2":15.3,"mosquito_risk":3,"arthritis_risk":5,"migraine_risk":7,"frizz_risk":1,"updated_at":"2026-05-07T22:23:43.321801+05:30"},{"city":"Muzaffarpur","state":"Bihar","latitude":26.1209,"longitude":85.3647,"temp":25.1,"humidity":69,"rain":0.0,"pressure":1003.5,"uv_index":8.65,"wind_gusts":39.2,"aqi":134,"pm10":66.4,"pm2_5":57.5,"no2":31.6,"co":865.0,"o3":76.0,"so2":16.6,"mosquito_risk":7,"arthritis_risk":5,"migraine_risk":4,"frizz_risk":1,"updated_at":"2026-05-07T22:23:43.321810+05:30"},{"city":"Bhagalpur","state":"Bihar","latitude":25.2425,"longitude":87.0117,"temp":24.8,"humidity":77,"rain":0.0,"pressure":1004.3,"uv_index":8.7,"wind_gusts":38.5,"aqi":154,"pm10":86.6,"pm2_5":82.4,"no2":38.4,"co":428.0,"o3":82.0,"so2":18.7,"mosquito_risk":3,"arthritis_risk":5,"migraine_risk":4,"frizz_risk":1,"updated_at":"2026-05-07T22:23:43.321818+05:30"},{"city":"Ranchi","state":"Jharkhand","latitude":23.3441,"longitude":85.3096,"temp":22.4,"humidity":70,"rain":0.0,"pressure":940.7,"uv_index":9.2,"wind_gusts":33.5,"aqi":146,"pm10":42.1,"pm2_5":37.4,"no2":10.9,"co":800.0,"o3":136.0,"so2":16.5,"mosquito_risk":3,"arthritis_risk":5,"migraine_risk":7,"frizz_risk":1,"updated_at":"2026-05-07T22:23:43.321826+05:30"},{"city":"Jamshedpur","state":"Jharkhand","latitude":22.8046,"longitude":86.2029,"temp":26.4,"humidity":75,"rain":0.0,"pressure":994.2,"uv_index":9.0,"wind_gusts":37.4,"aqi":165,"pm10":37.7,"pm2_5":35.6,"no2":17.3,"co":341.0,"o3":100.0,"so2":27.7,"mosquito_risk":7,"arthritis_risk":5,"migraine_risk":7,"frizz_risk":1,"updated_at":"2026-05-07T22:23:43.321835+05:30"},{"city":"Dhanbad","state":"Jharkhand","latitude":23.7957,"longitude":86.4304,"temp":24.5,"humidity":87,"rain":0.0,"pressure":983.3,"uv_index":8.95,"wind_gusts":39.2,"aqi":183,"pm10":75.7,"pm2_5":72.2,"no2":37.5,"co":395.0,"o3":133.0,"so2":51.9,"mosquito_risk":3,"arthritis_risk":5,"migraine_risk":7,"frizz_risk":1,"updated_at":"2026-05-07T22:23:43.321843+05:30"},{"city":"Bokaro","state":"Jharkhand","latitude":23.6693,"longitude":86.1511,"temp":24.5,"humidity":86,"rain":0.0,"pressure":987.2,"uv_index":8.95,"wind_gusts":41.8,"aqi":172,"pm10":67.3,"pm2_5":63.6,"no2":32.5,"co":716.0,"o3":136.0,"so2":45.8,"mosquito_risk":3,"arthritis_risk":5,"migraine_risk":7,"frizz_risk":1,"updated_at":"2026-05-07T22:23:43.321851+05:30"},{"city":"Bhubaneswar","state":"Odisha","latitude":20.2961,"longitude":85.8245,"temp":26.7,"humidity":94,"rain":0.0,"pressure":1005.2,"uv_index":9.1,"wind_gusts":51.1,"aqi":45,"pm10":12.5,"pm2_5":10.0,"no2":7.0,"co":230.0,"o3":39.0,"so2":3.0,"mosquito_risk":7,"arthritis_risk":5,"migraine_risk":4,"frizz_risk":1,"updated_at":"2026-05-07T22:23:43.321859+05:30"},{"city":"Cuttack","state":"Odisha","latitude":20.4625,"longitude":85.8828,"temp":26.9,"humidity":92,"rain":0.0,"pressure":1006.9,"uv_index":9.1,"wind_gusts":40.0,"aqi":45,"pm10":12.5,"pm2_5":10.0,"no2":7.0,"co":269.0,"o3":39.0,"so2":3.0,"mosquito_risk":7,"arthritis_risk":5,"migraine_risk":4,"frizz_risk":1,"updated_at":"2026-05-07T22:23:43.321867+05:30"},{"city":"Rourkela","state":"Odisha","latitude":22.2604,"longitude":84.8536,"temp":26.5,"humidity":51,"rain":0.0,"pressure":987.6,"uv_index":8.95,"wind_gusts":34.6,"aqi":168,"pm10":68.5,"pm2_5":57.3,"no2":24.9,"co":584.0,"o3":102.0,"so2":30.2,"mosquito_risk":4,"arthritis_risk":5,"migraine_risk":7,"frizz_risk":0,"updated_at":"2026-05-07T22:23:43.321876+05:30"},{"city":"Raipur","state":"Chhattisgarh","latitude":21.2514,"longitude":81.6296,"temp":30.2,"humidity":31,"rain":0.0,"pressure":975.4,"uv_index":8.95,"wind_gusts":32.0,"aqi":207,"pm10":73.3,"pm2_5":63.6,"no2":41.0,"co":380.0,"o3":112.0,"so2":14.1,"mosquito_risk":0,"arthritis_risk":5,"migraine_risk":7,"frizz_risk":0,"updated_at":"2026-05-07T22:23:43.321884+05:30"},{"city":"Bhilai","state":"Chhattisgarh","latitude":21.1938,"longitude":81.3509,"temp":29.2,"humidity":42,"rain":0.0,"pressure":975.7,"uv_index":8.95,"wind_gusts":25.9,"aqi":198,"pm10":63.1,"pm2_5":52.7,"no2":41.7,"co":695.0,"o3":100.0,"so2":10.8,"mosquito_risk":4,"arthritis_risk":5,"migraine_risk":7,"frizz_risk":0,"updated_at":"2026-05-07T22:23:43.321892+05:30"},{"city":"Guwahati","state":"Assam","latitude":26.1158,"longitude":91.7086,"temp":21.5,"humidity":93,"rain":0.0,"pressure":1005.1,"uv_index":8.65,"wind_gusts":24.8,"aqi":103,"pm10":53.2,"pm2_5":47.5,"no2":16.6,"co":331.0,"o3":44.0,"so2":2.7,"mosquito_risk":3,"arthritis_risk":5,"migraine_risk":4,"frizz_risk":1,"updated_at":"2026-05-07T22:23:43.321900+05:30"},{"city":"Agartala","state":"Tripura","latitude":23.8315,"longitude":91.2868,"temp":24.2,"humidity":88,"rain":0.0,"pressure":1009.3,"uv_index":8.85,"wind_gusts":32.0,"aqi":108,"pm10":92.7,"pm2_5":90.1,"no2":63.2,"co":784.0,"o3":62.0,"so2":11.0,"mosquito_risk":3,"arthritis_risk":0,"migraine_risk":4,"frizz_risk":1,"updated_at":"2026-05-07T22:23:43.321909+05:30"},{"city":"Shillong","state":"Meghalaya","latitude":25.5788,"longitude":91.8933,"temp":14.6,"humidity":88,"rain":0.0,"pressure":858.3,"uv_index":7.95,"wind_gusts":24.8,"aqi":82,"pm10":47.3,"pm2_5":41.1,"no2":20.0,"co":601.0,"o3":47.0,"so2":2.2,"mosquito_risk":3,"arthritis_risk":10,"migraine_risk":7,"frizz_risk":0,"updated_at":"2026-05-07T22:23:43.321918+05:30"},{"city":"Imphal","state":"Manipur","latitude":24.817,"longitude":93.9368,"temp":18.5,"humidity":93,"rain":0.0,"pressure":925.1,"uv_index":9.1,"wind_gusts":31.7,"aqi":107,"pm10":57.5,"pm2_5":49.7,"no2":28.4,"co":746.0,"o3":40.0,"so2":6.7,"mosquito_risk":3,"arthritis_risk":10,"migraine_risk":7,"frizz_risk":1,"updated_at":"2026-05-07T22:23:43.321927+05:30"},{"city":"Aizawl","state":"Mizoram","latitude":23.7271,"longitude":92.7176,"temp":17.7,"humidity":90,"rain":0.0,"pressure":894.5,"uv_index":9.05,"wind_gusts":23.4,"aqi":69,"pm10":28.9,"pm2_5":23.9,"no2":16.5,"co":355.0,"o3":47.0,"so2":1.4,"mosquito_risk":3,"arthritis_risk":10,"migraine_risk":7,"frizz_risk":0,"updated_at":"2026-05-07T22:23:43.321935+05:30"},{"city":"Kohima","state":"Nagaland","latitude":25.6701,"longitude":94.1077,"temp":13.8,"humidity":97,"rain":0.0,"pressure":856.0,"uv_index":9.15,"wind_gusts":26.3,"aqi":74,"pm10":51.6,"pm2_5":39.5,"no2":16.8,"co":429.0,"o3":51.0,"so2":1.1,"mosquito_risk":3,"arthritis_risk":10,"migraine_risk":7,"frizz_risk":0,"updated_at":"2026-05-07T22:23:43.321942+05:30"},{"city":"Gangtok","state":"Sikkim","latitude":27.3314,"longitude":88.6138,"temp":10.1,"humidity":77,"rain":0.0,"pressure":836.9,"uv_index":8.55,"wind_gusts":36.7,"aqi":73,"pm10":36.7,"pm2_5":28.6,"no2":22.6,"co":473.0,"o3":82.0,"so2":1.9,"mosquito_risk":3,"arthritis_risk":5,"migraine_risk":7,"frizz_risk":0,"updated_at":"2026-05-07T22:23:43.321949+05:30"},{"city":"Siliguri","state":"West Bengal","latitude":26.7271,"longitude":88.3953,"temp":21.4,"humidity":81,"rain":0.0,"pressure":996.2,"uv_index":8.6,"wind_gusts":21.6,"aqi":101,"pm10":83.8,"pm2_5":67.5,"no2":39.5,"co":1318.0,"o3":67.0,"so2":7.5,"mosquito_risk":3,"arthritis_risk":5,"migraine_risk":7,"frizz_risk":1,"updated_at":"2026-05-07T22:23:46.577200+05:30"},{"city":"Durgapur","state":"West Bengal","latitude":23.5204,"longitude":87.3119,"temp":24.1,"humidity":91,"rain":0.0,"pressure":998.3,"uv_index":8.9,"wind_gusts":45.4,"aqi":163,"pm10":68.0,"pm2_5":65.0,"no2":26.0,"co":524.0,"o3":122.0,"so2":38.0,"mosquito_risk":3,"arthritis_risk":5,"migraine_risk":7,"frizz_risk":1,"updated_at":"2026-05-07T22:23:46.577236+05:30"},{"city":"Asansol","state":"West Bengal","latitude":23.6739,"longitude":86.9524,"temp":24.6,"humidity":86,"rain":0.0,"pressure":997.1,"uv_index":8.95,"wind_gusts":34.2,"aqi":182,"pm10":70.8,"pm2_5":67.3,"no2":26.2,"co":469.0,"o3":133.0,"so2":41.1,"mosquito_risk":3,"arthritis_risk":5,"migraine_risk":7,"frizz_risk":1,"updated_at":"2026-05-07T22:23:46.577249+05:30"},{"city":"Pondicherry","state":"Puducherry","latitude":11.9139,"longitude":79.8145,"temp":28.9,"humidity":80,"rain":0.0,"pressure":1008.5,"uv_index":7.25,"wind_gusts":35.3,"aqi":25,"pm10":6.5,"pm2_5":4.4,"no2":1.8,"co":188.0,"o3":43.0,"so2":0.3,"mosquito_risk":7,"arthritis_risk":0,"migraine_risk":4,"frizz_risk":1,"updated_at":"2026-05-07T22:23:46.577260+05:30"},{"city":"Port Blair","state":"Andaman and Nicobar Islands","latitude":11.6234,"longitude":92.7265,"temp":27.2,"humidity":82,"rain":0.0,"pressure":1008.0,"uv_index":8.45,"wind_gusts":34.9,"aqi":30,"pm10":8.1,"pm2_5":6.2,"no2":0.4,"co":192.0,"o3":68.0,"so2":0.3,"mosquito_risk":7,"arthritis_risk":0,"migraine_risk":4,"frizz_risk":1,"updated_at":"2026-05-07T22:23:46.577270+05:30"},{"city":"Haridwar","state":"Uttarakhand","latitude":29.9457,"longitude":78.1642,"temp":21.2,"humidity":71,"rain":0.0,"pressure":977.1,"uv_index":7.1,"wind_gusts":34.2,"aqi":139,"pm10":121.1,"pm2_5":53.0,"no2":23.5,"co":433.0,"o3":99.0,"so2":10.8,"mosquito_risk":3,"arthritis_risk":5,"migraine_risk":7,"frizz_risk":0,"updated_at":"2026-05-07T22:23:46.577279+05:30"},{"city":"Rishikesh","state":"Uttarakhand","latitude":30.0869,"longitude":78.2676,"temp":20.3,"humidity":77,"rain":0.0,"pressure":969.5,"uv_index":7.05,"wind_gusts":36.0,"aqi":154,"pm10":102.9,"pm2_5":39.1,"no2":13.0,"co":479.0,"o3":133.0,"so2":6.6,"mosquito_risk":3,"arthritis_risk":5,"migraine_risk":7,"frizz_risk":1,"updated_at":"2026-05-07T22:23:46.577289+05:30"},{"city":"Nainital","state":"Uttarakhand","latitude":29.3919,"longitude":79.4542,"temp":8.8,"humidity":91,"rain":0.0,"pressure":804.2,"uv_index":7.4,"wind_gusts":29.5,"aqi":110,"pm10":50.5,"pm2_5":31.4,"no2":19.0,"co":347.0,"o3":83.0,"so2":4.9,"mosquito_risk":3,"arthritis_risk":10,"migraine_risk":7,"frizz_risk":0,"updated_at":"2026-05-07T22:23:46.577297+05:30"},{"city":"Mussoorie","state":"Uttarakhand","latitude":30.4599,"longitude":78.0664,"temp":10.0,"humidity":87,"rain":0.0,"pressure":802.1,"uv_index":5.35,"wind_gusts":39.2,"aqi":140,"pm10":72.2,"pm2_5":43.0,"no2":32.2,"co":356.0,"o3":96.0,"so2":13.9,"mosquito_risk":3,"arthritis_risk":10,"migraine_risk":3,"frizz_risk":0,"updated_at":"2026-05-07T22:23:46.577306+05:30"},{"city":"Dharamshala","state":"Himachal Pradesh","latitude":32.219,"longitude":76.3234,"temp":16.7,"humidity":66,"rain":0.0,"pressure":869.7,"uv_index":6.8,"wind_gusts":39.2,"aqi":96,"pm10":26.8,"pm2_5":15.8,"no2":14.0,"co":261.0,"o3":84.0,"so2":1.1,"mosquito_risk":3,"arthritis_risk":5,"migraine_risk":7,"frizz_risk":0,"updated_at":"2026-05-07T22:23:46.577315+05:30"},{"city":"Dalhousie","state":"Himachal Pradesh","latitude":32.5387,"longitude":75.971,"temp":10.4,"humidity":83,"rain":0.0,"pressure":803.0,"uv_index":7.65,"wind_gusts":33.1,"aqi":121,"pm10":43.7,"pm2_5":33.9,"no2":45.5,"co":617.0,"o3":63.0,"so2":4.5,"mosquito_risk":3,"arthritis_risk":10,"migraine_risk":7,"frizz_risk":0,"updated_at":"2026-05-07T22:23:46.577324+05:30"},{"city":"Patiala","state":"Punjab","latitude":30.3398,"longitude":76.3869,"temp":24.0,"humidity":64,"rain":0.0,"pressure":980.3,"uv_index":7.45,"wind_gusts":45.4,"aqi":529,"pm10":635.2,"pm2_5":83.1,"no2":8.8,"co":316.0,"o3":125.0,"so2":7.4,"mosquito_risk":3,"arthritis_risk":5,"migraine_risk":7,"frizz_risk":1,"updated_at":"2026-05-07T22:23:46.577333+05:30"},{"city":"Bhatinda","state":"Punjab","latitude":30.211,"longitude":74.9455,"temp":26.9,"humidity":52,"rain":0.0,"pressure":984.3,"uv_index":8.1,"wind_gusts":42.8,"aqi":550,"pm10":1024.5,"pm2_5":166.2,"no2":5.3,"co":313.0,"o3":157.0,"so2":12.7,"mosquito_risk":4,"arthritis_risk":5,"migraine_risk":7,"frizz_risk":0,"updated_at":"2026-05-07T22:23:46.577342+05:30"},{"city":"Rohtak","state":"Haryana","latitude":28.8955,"longitude":76.6066,"temp":24.4,"humidity":64,"rain":0.0,"pressure":983.3,"uv_index":7.6,"wind_gusts":51.8,"aqi":877,"pm10":927.6,"pm2_5":117.6,"no2":15.6,"co":361.0,"o3":137.0,"so2":23.2,"mosquito_risk":3,"arthritis_risk":5,"migraine_risk":7,"frizz_risk":1,"updated_at":"2026-05-07T22:23:46.577351+05:30"},{"city":"Panipat","state":"Haryana","latitude":29.3909,"longitude":76.9635,"temp":23.7,"humidity":73,"rain":0.0,"pressure":982.7,"uv_index":7.1,"wind_gusts":52.2,"aqi":1403,"pm10":1862.6,"pm2_5":197.0,"no2":8.2,"co":395.0,"o3":141.0,"so2":12.7,"mosquito_risk":3,"arthritis_risk":5,"migraine_risk":7,"frizz_risk":1,"updated_at":"2026-05-07T22:23:46.577359+05:30"},{"city":"Mathura","state":"Uttar Pradesh","latitude":27.4924,"longitude":77.6737,"temp":24.5,"humidity":58,"rain":0.0,"pressure":988.6,"uv_index":7.85,"wind_gusts":49.7,"aqi":1049,"pm10":2138.3,"pm2_5":235.2,"no2":9.3,"co":315.0,"o3":128.0,"so2":12.9,"mosquito_risk":0,"arthritis_risk":5,"migraine_risk":7,"frizz_risk":0,"updated_at":"2026-05-07T22:23:46.577368+05:30"},{"city":"Vrindavan","state":"Uttar Pradesh","latitude":27.5823,"longitude":77.7027,"temp":24.5,"humidity":60,"rain":0.0,"pressure":989.1,"uv_index":7.8,"wind_gusts":50.8,"aqi":1049,"pm10":2138.3,"pm2_5":235.2,"no2":9.3,"co":323.0,"o3":128.0,"so2":12.9,"mosquito_risk":0,"arthritis_risk":5,"migraine_risk":7,"frizz_risk":1,"updated_at":"2026-05-07T22:23:46.577376+05:30"},{"city":"Ayodhya","state":"Uttar Pradesh","latitude":26.7922,"longitude":82.1998,"temp":22.5,"humidity":80,"rain":0.0,"pressure":998.6,"uv_index":7.75,"wind_gusts":30.2,"aqi":120,"pm10":70.1,"pm2_5":46.3,"no2":28.0,"co":361.0,"o3":79.0,"so2":10.0,"mosquito_risk":3,"arthritis_risk":5,"migraine_risk":7,"frizz_risk":1,"updated_at":"2026-05-07T22:23:46.577385+05:30"},{"city":"Ratlam","state":"Madhya Pradesh","latitude":23.3315,"longitude":75.0367,"temp":29.5,"humidity":25,"rain":0.0,"pressure":954.4,"uv_index":8.45,"wind_gusts":36.4,"aqi":112,"pm10":45.6,"pm2_5":26.6,"no2":4.2,"co":249.0,"o3":112.0,"so2":7.3,"mosquito_risk":4,"arthritis_risk":5,"migraine_risk":7,"frizz_risk":0,"updated_at":"2026-05-07T22:23:46.577394+05:30"},{"city":"Sagar","state":"Madhya Pradesh","latitude":23.8388,"longitude":78.7378,"temp":27.3,"humidity":35,"rain":0.0,"pressure":950.9,"uv_index":8.65,"wind_gusts":35.3,"aqi":105,"pm10":21.0,"pm2_5":12.8,"no2":12.7,"co":224.0,"o3":86.0,"so2":4.0,"mosquito_risk":4,"arthritis_risk":5,"migraine_risk":7,"frizz_risk":0,"updated_at":"2026-05-07T22:23:46.577402+05:30"},{"city":"Satna","state":"Madhya Pradesh","latitude":24.6005,"longitude":80.8322,"temp":25.4,"humidity":45,"rain":0.0,"pressure":973.2,"uv_index":8.65,"wind_gusts":40.3,"aqi":151,"pm10":46.4,"pm2_5":24.9,"no2":6.5,"co":253.0,"o3":139.0,"so2":8.0,"mosquito_risk":4,"arthritis_risk":5,"migraine_risk":7,"frizz_risk":0,"updated_at":"2026-05-07T22:23:46.577411+05:30"},{"city":"Akola","state":"Maharashtra","latitude":20.7002,"longitude":77.0082,"temp":32.1,"humidity":31,"rain":0.0,"pressure":974.7,"uv_index":8.85,"wind_gusts":40.7,"aqi":133,"pm10":52.7,"pm2_5":38.3,"no2":7.8,"co":274.0,"o3":110.0,"so2":2.9,"mosquito_risk":0,"arthritis_risk":5,"migraine_risk":7,"frizz_risk":0,"updated_at":"2026-05-07T22:23:46.577421+05:30"},{"city":"Amravati","state":"Maharashtra","latitude":20.9374,"longitude":77.7796,"temp":31.5,"humidity":36,"rain":0.0,"pressure":967.9,"uv_index":6.4,"wind_gusts":35.3,"aqi":131,"pm10":49.5,"pm2_5":34.9,"no2":10.0,"co":252.0,"o3":104.0,"so2":2.1,"mosquito_risk":0,"arthritis_risk":5,"migraine_risk":7,"frizz_risk":0,"updated_at":"2026-05-07T22:23:46.577431+05:30"},{"city":"Latur","state":"Maharashtra","latitude":18.4088,"longitude":76.5604,"temp":30.5,"humidity":35,"rain":0.0,"pressure":940.3,"uv_index":8.35,"wind_gusts":35.3,"aqi":102,"pm10":68.5,"pm2_5":49.7,"no2":16.8,"co":299.0,"o3":92.0,"so2":13.7,"mosquito_risk":0,"arthritis_risk":5,"migraine_risk":7,"frizz_risk":0,"updated_at":"2026-05-07T22:23:46.577440+05:30"},{"city":"Nanded","state":"Maharashtra","latitude":19.1383,"longitude":77.3091,"temp":30.5,"humidity":44,"rain":0.0,"pressure":969.1,"uv_index":8.3,"wind_gusts":44.6,"aqi":104,"pm10":49.6,"pm2_5":37.1,"no2":17.7,"co":342.0,"o3":87.0,"so2":5.0,"mosquito_risk":0,"arthritis_risk":5,"migraine_risk":7,"frizz_risk":1,"updated_at":"2026-05-07T22:23:46.577449+05:30"},{"city":"Gulbarga","state":"Karnataka","latitude":17.3297,"longitude":76.8343,"temp":32.0,"humidity":35,"rain":0.0,"pressure":958.9,"uv_index":9.05,"wind_gusts":36.0,"aqi":116,"pm10":34.0,"pm2_5":23.9,"no2":14.5,"co":280.0,"o3":96.0,"so2":5.4,"mosquito_risk":0,"arthritis_risk":5,"migraine_risk":7,"frizz_risk":0,"updated_at":"2026-05-07T22:23:46.577457+05:30"},{"city":"Bidar","state":"Karnataka","latitude":17.9104,"longitude":77.5199,"temp":28.5,"humidity":43,"rain":0.0,"pressure":936.3,"uv_index":9.0,"wind_gusts":34.2,"aqi":93,"pm10":60.5,"pm2_5":45.9,"no2":35.7,"co":520.0,"o3":70.0,"so2":6.3,"mosquito_risk":4,"arthritis_risk":5,"migraine_risk":7,"frizz_risk":0,"updated_at":"2026-05-07T22:23:46.577466+05:30"},{"city":"Hospet","state":"Karnataka","latitude":15.2689,"longitude":76.3909,"temp":28.5,"humidity":59,"rain":0.0,"pressure":955.2,"uv_index":9.2,"wind_gusts":33.5,"aqi":119,"pm10":40.5,"pm2_5":30.2,"no2":29.0,"co":559.0,"o3":80.0,"so2":10.7,"mosquito_risk":4,"arthritis_risk":5,"migraine_risk":7,"frizz_risk":1,"updated_at":"2026-05-07T22:23:46.577475+05:30"},{"city":"Tirupur","state":"Tamil Nadu","latitude":11.1085,"longitude":77.3411,"temp":27.1,"humidity":77,"rain":0.0,"pressure":974.5,"uv_index":7.5,"wind_gusts":28.1,"aqi":76,"pm10":29.2,"pm2_5":26.3,"no2":17.2,"co":354.0,"o3":86.0,"so2":6.3,"mosquito_risk":7,"arthritis_risk":5,"migraine_risk":7,"frizz_risk":1,"updated_at":"2026-05-07T22:23:46.577485+05:30"},{"city":"Alappuzha","state":"Kerala","latitude":9.4981,"longitude":76.3388,"temp":25.8,"humidity":97,"rain":0.1,"pressure":1008.4,"uv_index":6.3,"wind_gusts":28.8,"aqi":61,"pm10":23.4,"pm2_5":19.0,"no2":15.0,"co":219.0,"o3":68.0,"so2":5.3,"mosquito_risk":10,"arthritis_risk":0,"migraine_risk":4,"frizz_risk":1,"updated_at":"2026-05-07T22:23:46.577494+05:30"},{"city":"Munnar","state":"Kerala","latitude":10.0889,"longitude":77.0595,"temp":18.1,"humidity":95,"rain":0.0,"pressure":856.2,"uv_index":7.65,"wind_gusts":24.8,"aqi":69,"pm10":17.2,"pm2_5":14.4,"no2":8.6,"co":314.0,"o3":70.0,"so2":1.9,"mosquito_risk":3,"arthritis_risk":10,"migraine_risk":7,"frizz_risk":1,"updated_at":"2026-05-07T22:23:46.577502+05:30"},{"city":"Silchar","state":"Assam","latitude":24.8333,"longitude":92.7789,"temp":23.5,"humidity":94,"rain":0.0,"pressure":1008.1,"uv_index":8.85,"wind_gusts":19.8,"aqi":131,"pm10":83.6,"pm2_5":73.8,"no2":24.7,"co":726.0,"o3":75.0,"so2":13.4,"mosquito_risk":3,"arthritis_risk":0,"migraine_risk":4,"frizz_risk":1,"updated_at":"2026-05-07T22:23:46.577508+05:30"},{"city":"Dibrugarh","state":"Assam","latitude":27.4728,"longitude":94.912,"temp":23.0,"humidity":86,"rain":0.0,"pressure":999.3,"uv_index":8.8,"wind_gusts":22.7,"aqi":76,"pm10":33.4,"pm2_5":29.3,"no2":14.7,"co":338.0,"o3":42.0,"so2":1.8,"mosquito_risk":3,"arthritis_risk":5,"migraine_risk":7,"frizz_risk":1,"updated_at":"2026-05-07T22:23:46.577515+05:30"}]