[{"city":"Delhi","state":"Delhi","latitude":28.6139,"longitude":77.209,"temp":32.2,"humidity":25,"rain":0.0,"pressure":981.4,"uv_index":7.1,"wind_gusts":45.7,"aqi":578,"pm10":860.5,"pm2_5":143.4,"mosquito_risk":0,"arthritis_risk":5,"migraine_risk":7,"frizz_risk":0,"updated_at":"2026-04-26T00:28:17.506476+05:30"},{"city":"Mumbai","state":"Maharashtra","latitude":19.076,"longitude":72.8777,"temp":29.9,"humidity":46,"rain":0.0,"pressure":1007.4,"uv_index":8.0,"wind_gusts":42.8,"aqi":77,"pm10":45.6,"pm2_5":28.2,"mosquito_risk":4,"arthritis_risk":5,"migraine_risk":4,"frizz_risk":1,"updated_at":"2026-04-26T00:28:17.506518+05:30"},{"city":"Bangalore","state":"Karnataka","latitude":12.9716,"longitude":77.5946,"temp":26.7,"humidity":50,"rain":0.0,"pressure":912.1,"uv_index":9.3,"wind_gusts":36.4,"aqi":75,"pm10":31.3,"pm2_5":28.2,"mosquito_risk":4,"arthritis_risk":5,"migraine_risk":7,"frizz_risk":0,"updated_at":"2026-04-26T00:28:17.506533+05:30"},{"city":"Hyderabad","state":"Telangana","latitude":17.385,"longitude":78.4867,"temp":30.8,"humidity":36,"rain":0.0,"pressure":953.6,"uv_index":9.3,"wind_gusts":29.2,"aqi":126,"pm10":38.9,"pm2_5":35.3,"mosquito_risk":0,"arthritis_risk":5,"migraine_risk":7,"frizz_risk":0,"updated_at":"2026-04-26T00:28:17.506543+05:30"},{"city":"Chennai","state":"Tamil Nadu","latitude":13.0827,"longitude":80.2707,"temp":28.4,"humidity":87,"rain":0.0,"pressure":1006.6,"uv_index":9.3,"wind_gusts":50.0,"aqi":33,"pm10":12.8,"pm2_5":8.6,"mosquito_risk":7,"arthritis_risk":5,"migraine_risk":4,"frizz_risk":1,"updated_at":"2026-04-26T00:28:17.506552+05:30"},{"city":"Kolkata","state":"West Bengal","latitude":22.5726,"longitude":88.3639,"temp":27.8,"humidity":89,"rain":0.0,"pressure":1004.5,"uv_index":8.55,"wind_gusts":38.9,"aqi":75,"pm10":22.8,"pm2_5":17.9,"mosquito_risk":7,"arthritis_risk":5,"migraine_risk":4,"frizz_risk":1,"updated_at":"2026-04-26T00:28:17.506565+05:30"},{"city":"Pune","state":"Maharashtra","latitude":18.5204,"longitude":73.8567,"temp":29.7,"humidity":28,"rain":0.0,"pressure":948.0,"uv_index":8.35,"wind_gusts":36.4,"aqi":125,"pm10":41.9,"pm2_5":35.7,"mosquito_risk":4,"arthritis_risk":5,"migraine_risk":7,"frizz_risk":0,"updated_at":"2026-04-26T00:28:17.506574+05:30"},{"city":"Ahmedabad","state":"Gujarat","latitude":23.0225,"longitude":72.5714,"temp":34.2,"humidity":18,"rain":0.0,"pressure":1001.1,"uv_index":8.2,"wind_gusts":24.1,"aqi":62,"pm10":33.2,"pm2_5":20.4,"mosquito_risk":0,"arthritis_risk":5,"migraine_risk":4,"frizz_risk":0,"updated_at":"2026-04-26T00:28:17.506581+05:30"},{"city":"Jaipur","state":"Rajasthan","latitude":26.9124,"longitude":75.7873,"temp":32.8,"humidity":22,"rain":0.0,"pressure":959.4,"uv_index":8.05,"wind_gusts":38.2,"aqi":136,"pm10":210.0,"pm2_5":46.0,"mosquito_risk":0,"arthritis_risk":5,"migraine_risk":7,"frizz_risk":0,"updated_at":"2026-04-26T00:28:17.506589+05:30"},{"city":"Lucknow","state":"Uttar Pradesh","latitude":26.8467,"longitude":80.9462,"temp":33.2,"humidity":26,"rain":0.0,"pressure":990.7,"uv_index":7.9,"wind_gusts":42.1,"aqi":124,"pm10":168.1,"pm2_5":44.2,"mosquito_risk":0,"arthritis_risk":5,"migraine_risk":7,"frizz_risk":0,"updated_at":"2026-04-26T00:28:17.506597+05:30"},{"city":"Kanpur","state":"Uttar Pradesh","latitude":26.4499,"longitude":80.3319,"temp":33.3,"humidity":24,"rain":0.0,"pressure":989.2,"uv_index":7.9,"wind_gusts":39.6,"aqi":183,"pm10":340.9,"pm2_5":61.7,"mosquito_risk":0,"arthritis_risk":5,"migraine_risk":7,"frizz_risk":0,"updated_at":"2026-04-26T00:28:17.506604+05:30"},{"city":"Chandigarh","state":"Chandigarh","latitude":30.7333,"longitude":76.7794,"temp":29.6,"humidity":28,"rain":0.0,"pressure":967.2,"uv_index":7.25,"wind_gusts":59.4,"aqi":63,"pm10":41.3,"pm2_5":23.9,"mosquito_risk":4,"arthritis_risk":5,"migraine_risk":7,"frizz_risk":0,"updated_at":"2026-04-26T00:28:17.506611+05:30"},{"city":"Srinagar","state":"Jammu and Kashmir","latitude":34.0837,"longitude":74.7973,"temp":11.5,"humidity":93,"rain":0.0,"pressure":844.2,"uv_index":8.6,"wind_gusts":31.3,"aqi":76,"pm10":69.6,"pm2_5":53.7,"mosquito_risk":3,"arthritis_risk":10,"migraine_risk":7,"frizz_risk":0,"updated_at":"2026-04-26T00:28:17.506618+05:30"},{"city":"Jammu","state":"Jammu and Kashmir","latitude":32.7266,"longitude":74.857,"temp":24.8,"humidity":42,"rain":0.0,"pressure":971.8,"uv_index":8.2,"wind_gusts":43.6,"aqi":78,"pm10":50.2,"pm2_5":26.3,"mosquito_risk":0,"arthritis_risk":5,"migraine_risk":7,"frizz_risk":0,"updated_at":"2026-04-26T00:28:17.506627+05:30"},{"city":"Amritsar","state":"Punjab","latitude":31.634,"longitude":74.8723,"temp":29.0,"humidity":34,"rain":0.0,"pressure":979.7,"uv_index":8.1,"wind_gusts":38.2,"aqi":95,"pm10":129.0,"pm2_5":54.6,"mosquito_risk":4,"arthritis_risk":5,"migraine_risk":7,"frizz_risk":0,"updated_at":"2026-04-26T00:28:17.506634+05:30"},{"city":"Ludhiana","state":"Punjab","latitude":30.901,"longitude":75.8573,"temp":28.9,"humidity":34,"rain":0.0,"pressure":977.4,"uv_index":7.7,"wind_gusts":54.4,"aqi":84,"pm10":88.0,"pm2_5":37.3,"mosquito_risk":4,"arthritis_risk":5,"migraine_risk":7,"frizz_risk":0,"updated_at":"2026-04-26T00:28:17.506642+05:30"},{"city":"Jalandhar","state":"Punjab","latitude":31.326,"longitude":75.5762,"temp":27.2,"humidity":42,"rain":0.0,"pressure":978.4,"uv_index":7.9,"wind_gusts":37.4,"aqi":94,"pm10":105.9,"pm2_5":43.2,"mosquito_risk":4,"arthritis_risk":5,"migraine_risk":7,"frizz_risk":0,"updated_at":"2026-04-26T00:28:17.506649+05:30"},{"city":"Dehradun","state":"Uttarakhand","latitude":30.6284,"longitude":78.0322,"temp":14.9,"humidity":57,"rain":0.0,"pressure":828.2,"uv_index":7.85,"wind_gusts":50.0,"aqi":50,"pm10":41.3,"pm2_5":17.5,"mosquito_risk":0,"arthritis_risk":5,"migraine_risk":7,"frizz_risk":0,"updated_at":"2026-04-26T00:28:17.506656+05:30"},{"city":"Shimla","state":"Himachal Pradesh","latitude":31.1048,"longitude":77.1734,"temp":15.3,"humidity":44,"rain":0.0,"pressure":785.2,"uv_index":7.6,"wind_gusts":55.1,"aqi":58,"pm10":76.8,"pm2_5":22.4,"mosquito_risk":0,"arthritis_risk":5,"migraine_risk":7,"frizz_risk":0,"updated_at":"2026-04-26T00:28:17.506662+05:30"},{"city":"Manali","state":"Himachal Pradesh","latitude":32.2396,"longitude":77.1887,"temp":8.7,"humidity":76,"rain":0.0,"pressure":816.9,"uv_index":9.85,"wind_gusts":43.9,"aqi":61,"pm10":22.8,"pm2_5":10.8,"mosquito_risk":3,"arthritis_risk":5,"migraine_risk":7,"frizz_risk":0,"updated_at":"2026-04-26T00:28:17.506668+05:30"},{"city":"Gurgaon","state":"Haryana","latitude":28.4595,"longitude":77.0266,"temp":29.0,"humidity":30,"rain":0.0,"pressure":979.8,"uv_index":7.5,"wind_gusts":47.2,"aqi":1408,"pm10":1385.8,"pm2_5":193.7,"mosquito_risk":4,"arthritis_risk":5,"migraine_risk":7,"frizz_risk":0,"updated_at":"2026-04-26T00:28:17.506675+05:30"},{"city":"Noida","state":"Uttar Pradesh","latitude":28.5355,"longitude":77.391,"temp":31.3,"humidity":26,"rain":0.0,"pressure":982.5,"uv_index":7.4,"wind_gusts":33.8,"aqi":1408,"pm10":1385.8,"pm2_5":193.7,"mosquito_risk":0,"arthritis_risk":5,"migraine_risk":7,"frizz_risk":0,"updated_at":"2026-04-26T00:28:17.506681+05:30"},{"city":"Ghaziabad","state":"Uttar Pradesh","latitude":28.6692,"longitude":77.4538,"temp":31.2,"humidity":25,"rain":0.0,"pressure":980.9,"uv_index":7.4,"wind_gusts":46.8,"aqi":386,"pm10":799.1,"pm2_5":133.2,"mosquito_risk":0,"arthritis_risk":5,"migraine_risk":7,"frizz_risk":0,"updated_at":"2026-04-26T00:28:17.506687+05:30"},{"city":"Faridabad","state":"Haryana","latitude":28.4089,"longitude":77.3178,"temp":33.7,"humidity":21,"rain":0.0,"pressure":982.1,"uv_index":7.5,"wind_gusts":48.6,"aqi":1408,"pm10":1385.8,"pm2_5":193.7,"mosquito_risk":0,"arthritis_risk":5,"migraine_risk":7,"frizz_risk":0,"updated_at":"2026-04-26T00:28:17.506693+05:30"},{"city":"Meerut","state":"Uttar Pradesh","latitude":28.9845,"longitude":77.7064,"temp":30.8,"humidity":30,"rain":0.0,"pressure":979.5,"uv_index":7.35,"wind_gusts":47.2,"aqi":386,"pm10":799.1,"pm2_5":133.2,"mosquito_risk":0,"arthritis_risk":5,"migraine_risk":7,"frizz_risk":0,"updated_at":"2026-04-26T00:28:17.506699+05:30"},{"city":"Agra","state":"Uttar Pradesh","latitude":27.1767,"longitude":78.0081,"temp":31.4,"humidity":27,"rain":0.0,"pressure":985.8,"uv_index":7.8,"wind_gusts":45.0,"aqi":648,"pm10":1765.8,"pm2_5":233.8,"mosquito_risk":0,"arthritis_risk":5,"migraine_risk":7,"frizz_risk":0,"updated_at":"2026-04-26T00:28:17.506707+05:30"},{"city":"Varanasi","state":"Uttar Pradesh","latitude":25.3176,"longitude":82.9739,"temp":31.6,"humidity":37,"rain":0.0,"pressure":995.1,"uv_index":8.5,"wind_gusts":38.9,"aqi":137,"pm10":163.9,"pm2_5":68.2,"mosquito_risk":0,"arthritis_risk":5,"migraine_risk":7,"frizz_risk":0,"updated_at":"2026-04-26T00:28:17.506714+05:30"},{"city":"Prayagraj","state":"Uttar Pradesh","latitude":25.4358,"longitude":81.8463,"temp":30.2,"humidity":31,"rain":0.0,"pressure":993.4,"uv_index":8.4,"wind_gusts":31.7,"aqi":115,"pm10":135.0,"pm2_5":51.5,"mosquito_risk":0,"arthritis_risk":5,"migraine_risk":7,"frizz_risk":0,"updated_at":"2026-04-26T00:28:17.506721+05:30"},{"city":"Gorakhpur","state":"Uttar Pradesh","latitude":26.7606,"longitude":83.3732,"temp":28.1,"humidity":57,"rain":0.0,"pressure":995.8,"uv_index":8.3,"wind_gusts":64.8,"aqi":151,"pm10":99.9,"pm2_5":57.6,"mosquito_risk":4,"arthritis_risk":5,"migraine_risk":7,"frizz_risk":1,"updated_at":"2026-04-26T00:28:17.506727+05:30"},{"city":"Bareilly","state":"Uttar Pradesh","latitude":28.367,"longitude":79.4304,"temp":29.8,"humidity":34,"rain":0.0,"pressure":984.1,"uv_index":7.7,"wind_gusts":48.6,"aqi":100,"pm10":183.5,"pm2_5":47.1,"mosquito_risk":4,"arthritis_risk":5,"migraine_risk":7,"frizz_risk":0,"updated_at":"2026-04-26T00:28:17.506733+05:30"},{"city":"Aligarh","state":"Uttar Pradesh","latitude":27.8974,"longitude":78.088,"temp":30.9,"humidity":26,"rain":0.0,"pressure":983.5,"uv_index":7.6,"wind_gusts":40.3,"aqi":625,"pm10":1139.9,"pm2_5":177.9,"mosquito_risk":0,"arthritis_risk":5,"migraine_risk":7,"frizz_risk":0,"updated_at":"2026-04-26T00:28:17.506739+05:30"},{"city":"Moradabad","state":"Uttar Pradesh","latitude":28.8386,"longitude":78.7733,"temp":29.6,"humidity":31,"rain":0.0,"pressure":981.2,"uv_index":7.55,"wind_gusts":57.2,"aqi":153,"pm10":322.2,"pm2_5":73.8,"mosquito_risk":4,"arthritis_risk":5,"migraine_risk":7,"frizz_risk":0,"updated_at":"2026-04-26T00:28:17.506745+05:30"},{"city":"Saharanpur","state":"Uttar Pradesh","latitude":29.9637,"longitude":77.546,"temp":30.1,"humidity":27,"rain":0.0,"pressure":973.6,"uv_index":7.15,"wind_gusts":54.0,"aqi":105,"pm10":164.4,"pm2_5":43.8,"mosquito_risk":0,"arthritis_risk":5,"migraine_risk":7,"frizz_risk":0,"updated_at":"2026-04-26T00:28:17.506753+05:30"},{"city":"Jhansi","state":"Uttar Pradesh","latitude":25.4484,"longitude":78.5685,"temp":31.9,"humidity":23,"rain":0.0,"pressure":976.4,"uv_index":8.3,"wind_gusts":32.0,"aqi":75,"pm10":105.5,"pm2_5":32.8,"mosquito_risk":0,"arthritis_risk":5,"migraine_risk":7,"frizz_risk":0,"updated_at":"2026-04-26T00:28:20.792410+05:30"},{"city":"Surat","state":"Gujarat","latitude":21.1702,"longitude":72.8311,"temp":30.4,"humidity":52,"rain":0.0,"pressure":1005.1,"uv_index":7.85,"wind_gusts":36.0,"aqi":105,"pm10":37.3,"pm2_5":27.5,"mosquito_risk":0,"arthritis_risk":5,"migraine_risk":4,"frizz_risk":1,"updated_at":"2026-04-26T00:28:20.792441+05:30"},{"city":"Vadodara","state":"Gujarat","latitude":22.3072,"longitude":73.1812,"temp":32.5,"humidity":24,"rain":0.0,"pressure":1002.8,"uv_index":8.15,"wind_gusts":28.1,"aqi":84,"pm10":42.0,"pm2_5":30.2,"mosquito_risk":0,"arthritis_risk":5,"migraine_risk":4,"frizz_risk":0,"updated_at":"2026-04-26T00:28:20.792452+05:30"},{"city":"Rajkot","state":"Gujarat","latitude":22.3039,"longitude":70.8022,"temp":27.0,"humidity":59,"rain":0.0,"pressure":994.3,"uv_index":7.9,"wind_gusts":33.8,"aqi":57,"pm10":57.3,"pm2_5":18.2,"mosquito_risk":4,"arthritis_risk":5,"migraine_risk":7,"frizz_risk":1,"updated_at":"2026-04-26T00:28:20.792459+05:30"},{"city":"Thane","state":"Maharashtra","latitude":19.2183,"longitude":72.9781,"temp":29.3,"humidity":53,"rain":0.0,"pressure":1006.7,"uv_index":8.0,"wind_gusts":41.0,"aqi":77,"pm10":45.6,"pm2_5":28.2,"mosquito_risk":4,"arthritis_risk":5,"migraine_risk":4,"frizz_risk":1,"updated_at":"2026-04-26T00:28:20.792467+05:30"},{"city":"Nagpur","state":"Maharashtra","latitude":21.1458,"longitude":79.0882,"temp":34.3,"humidity":19,"rain":0.0,"pressure":972.0,"uv_index":8.9,"wind_gusts":36.7,"aqi":103,"pm10":54.6,"pm2_5":47.1,"mosquito_risk":0,"arthritis_risk":5,"migraine_risk":7,"frizz_risk":0,"updated_at":"2026-04-26T00:28:20.792474+05:30"},{"city":"Nashik","state":"Maharashtra","latitude":19.9975,"longitude":73.7898,"temp":30.6,"humidity":15,"rain":0.0,"pressure":945.3,"uv_index":8.3,"wind_gusts":37.8,"aqi":120,"pm10":45.4,"pm2_5":30.7,"mosquito_risk":0,"arthritis_risk":5,"migraine_risk":7,"frizz_risk":0,"updated_at":"2026-04-26T00:28:20.792481+05:30"},{"city":"Aurangabad","state":"Maharashtra","latitude":19.8762,"longitude":75.3433,"temp":31.5,"humidity":21,"rain":0.0,"pressure":943.7,"uv_index":8.75,"wind_gusts":29.5,"aqi":84,"pm10":52.7,"pm2_5":43.2,"mosquito_risk":0,"arthritis_risk":5,"migraine_risk":7,"frizz_risk":0,"updated_at":"2026-04-26T00:28:20.792488+05:30"},{"city":"Solapur","state":"Maharashtra","latitude":17.6599,"longitude":75.9064,"temp":31.7,"humidity":26,"rain":0.0,"pressure":956.4,"uv_index":8.6,"wind_gusts":26.6,"aqi":138,"pm10":46.3,"pm2_5":42.7,"mosquito_risk":0,"arthritis_risk":5,"migraine_risk":7,"frizz_risk":0,"updated_at":"2026-04-26T00:28:20.792495+05:30"},{"city":"Kolhapur","state":"Maharashtra","latitude":16.705,"longitude":74.2433,"temp":26.3,"humidity":80,"rain":0.0,"pressure":947.9,"uv_index":9.05,"wind_gusts":37.8,"aqi":150,"pm10":57.5,"pm2_5":54.4,"mosquito_risk":7,"arthritis_risk":5,"migraine_risk":7,"frizz_risk":1,"updated_at":"2026-04-26T00:28:20.792503+05:30"},{"city":"Goa","state":"Goa","latitude":15.2993,"longitude":74.124,"temp":28.8,"humidity":88,"rain":0.0,"pressure":996.9,"uv_index":8.9,"wind_gusts":29.5,"aqi":74,"pm10":42.4,"pm2_5":33.3,"mosquito_risk":7,"arthritis_risk":5,"migraine_risk":7,"frizz_risk":1,"updated_at":"2026-04-26T00:28:20.792510+05:30"},{"city":"Jodhpur","state":"Rajasthan","latitude":26.2389,"longitude":73.0243,"temp":33.8,"humidity":24,"rain":0.0,"pressure":982.0,"uv_index":8.3,"wind_gusts":32.4,"aqi":89,"pm10":172.3,"pm2_5":32.8,"mosquito_risk":0,"arthritis_risk":5,"migraine_risk":7,"frizz_risk":0,"updated_at":"2026-04-26T00:28:20.792518+05:30"},{"city":"Udaipur","state":"Rajasthan","latitude":24.5854,"longitude":73.7125,"temp":31.4,"humidity":22,"rain":0.0,"pressure":946.5,"uv_index":8.8,"wind_gusts":34.2,"aqi":64,"pm10":45.8,"pm2_5":19.3,"mosquito_risk":0,"arthritis_risk":5,"migraine_risk":7,"frizz_risk":0,"updated_at":"2026-04-26T00:28:20.792525+05:30"},{"city":"Kota","state":"Rajasthan","latitude":25.2138,"longitude":75.8648,"temp":31.1,"humidity":26,"rain":0.0,"pressure":977.1,"uv_index":8.3,"wind_gusts":31.0,"aqi":77,"pm10":115.5,"pm2_5":45.2,"mosquito_risk":0,"arthritis_risk":5,"migraine_risk":7,"frizz_risk":0,"updated_at":"2026-04-26T00:28:20.792532+05:30"},{"city":"Bikaner","state":"Rajasthan","latitude":28.0229,"longitude":73.3119,"temp":31.4,"humidity":30,"rain":0.0,"pressure":981.3,"uv_index":8.15,"wind_gusts":38.5,"aqi":76,"pm10":80.8,"pm2_5":25.8,"mosquito_risk":0,"arthritis_risk":5,"migraine_risk":7,"frizz_risk":0,"updated_at":"2026-04-26T00:28:20.792540+05:30"},{"city":"Ajmer","state":"Rajasthan","latitude":26.4499,"longitude":74.6399,"temp":31.1,"humidity":26,"rain":0.0,"pressure":954.6,"uv_index":8.25,"wind_gusts":35.6,"aqi":81,"pm10":85.0,"pm2_5":28.8,"mosquito_risk":0,"arthritis_risk":5,"migraine_risk":7,"frizz_risk":0,"updated_at":"2026-04-26T00:28:20.792546+05:30"},{"city":"Gwalior","state":"Madhya Pradesh","latitude":26.2183,"longitude":78.1828,"temp":33.7,"humidity":22,"rain":0.0,"pressure":981.4,"uv_index":8.0,"wind_gusts":41.0,"aqi":91,"pm10":382.8,"pm2_5":71.7,"mosquito_risk":0,"arthritis_risk":5,"migraine_risk":7,"frizz_risk":0,"updated_at":"2026-04-26T00:28:20.792553+05:30"},{"city":"Indore","state":"Madhya Pradesh","latitude":22.7196,"longitude":75.8577,"temp":32.0,"humidity":21,"rain":0.0,"pressure":948.0,"uv_index":8.65,"wind_gusts":28.1,"aqi":60,"pm10":68.7,"pm2_5":42.5,"mosquito_risk":0,"arthritis_risk":5,"migraine_risk":7,"frizz_risk":0,"updated_at":"2026-04-26T00:28:20.792560+05:30"},{"city":"Bhopal","state":"Madhya Pradesh","latitude":23.2599,"longitude":77.4126,"temp":32.4,"humidity":17,"rain":0.0,"pressure":952.7,"uv_index":8.65,"wind_gusts":30.6,"aqi":69,"pm10":42.7,"pm2_5":28.0,"mosquito_risk":0,"arthritis_risk":5,"migraine_risk":7,"frizz_risk":0,"updated_at":"2026-04-26T00:28:20.792566+05:30"},{"city":"Jabalpur","state":"Madhya Pradesh","latitude":23.1815,"longitude":79.9864,"temp":31.1,"humidity":21,"rain":0.0,"pressure":960.1,"uv_index":8.75,"wind_gusts":34.9,"aqi":67,"pm10":21.7,"pm2_5":16.1,"mosquito_risk":0,"arthritis_risk":5,"migraine_risk":7,"frizz_risk":0,"updated_at":"2026-04-26T00:28:20.792573+05:30"},{"city":"Ujjain","state":"Madhya Pradesh","latitude":23.1765,"longitude":75.7885,"temp":31.9,"humidity":22,"rain":0.0,"pressure":953.2,"uv_index":8.55,"wind_gusts":29.2,"aqi":65,"pm10":77.3,"pm2_5":47.8,"mosquito_risk":0,"arthritis_risk":5,"migraine_risk":7,"frizz_risk":0,"updated_at":"2026-04-26T00:28:20.792581+05:30"},{"city":"Visakhapatnam","state":"Andhra Pradesh","latitude":17.6868,"longitude":83.2185,"temp":27.2,"humidity":92,"rain":0.0,"pressure":1002.8,"uv_index":8.7,"wind_gusts":42.8,"aqi":58,"pm10":16.9,"pm2_5":12.6,"mosquito_risk":7,"arthritis_risk":5,"migraine_risk":4,"frizz_risk":1,"updated_at":"2026-04-26T00:28:20.792588+05:30"},{"city":"Vijayawada","state":"Andhra Pradesh","latitude":16.5062,"longitude":80.648,"temp":27.4,"humidity":91,"rain":0.0,"pressure":1002.2,"uv_index":8.85,"wind_gusts":31.0,"aqi":52,"pm10":15.0,"pm2_5":12.0,"mosquito_risk":7,"arthritis_risk":5,"migraine_risk":4,"frizz_risk":1,"updated_at":"2026-04-26T00:28:20.792595+05:30"},{"city":"Guntur","state":"Andhra Pradesh","latitude":16.3067,"longitude":80.4365,"temp":27.1,"humidity":95,"rain":0.0,"pressure":1003.5,"uv_index":8.6,"wind_gusts":36.7,"aqi":53,"pm10":15.3,"pm2_5":11.9,"mosquito_risk":7,"arthritis_risk":5,"migraine_risk":4,"frizz_risk":1,"updated_at":"2026-04-26T00:28:20.792601+05:30"},{"city":"Nellore","state":"Andhra Pradesh","latitude":14.4426,"longitude":79.9865,"temp":27.1,"humidity":86,"rain":0.0,"pressure":1005.3,"uv_index":9.25,"wind_gusts":42.1,"aqi":43,"pm10":10.9,"pm2_5":8.0,"mosquito_risk":7,"arthritis_risk":5,"migraine_risk":4,"frizz_risk":1,"updated_at":"2026-04-26T00:28:20.792609+05:30"},{"city":"Kurnool","state":"Andhra Pradesh","latitude":15.8281,"longitude":78.0373,"temp":31.3,"humidity":47,"rain":0.0,"pressure":976.7,"uv_index":8.9,"wind_gusts":34.2,"aqi":85,"pm10":39.7,"pm2_5":34.7,"mosquito_risk":0,"arthritis_risk":5,"migraine_risk":7,"frizz_risk":1,"updated_at":"2026-04-26T00:28:20.792616+05:30"},{"city":"Kakinada","state":"Andhra Pradesh","latitude":16.9891,"longitude":82.2475,"temp":27.4,"humidity":90,"rain":0.0,"pressure":1007.2,"uv_index":8.45,"wind_gusts":37.1,"aqi":40,"pm10":15.4,"pm2_5":10.1,"mosquito_risk":7,"arthritis_risk":5,"migraine_risk":4,"frizz_risk":1,"updated_at":"2026-04-26T00:28:20.792623+05:30"},{"city":"Tirupati","state":"Andhra Pradesh","latitude":13.6288,"longitude":79.4192,"temp":28.1,"humidity":66,"rain":0.0,"pressure":991.0,"uv_index":9.35,"wind_gusts":33.5,"aqi":59,"pm10":19.2,"pm2_5":16.7,"mosquito_risk":7,"arthritis_risk":5,"migraine_risk":7,"frizz_risk":1,"updated_at":"2026-04-26T00:28:20.792629+05:30"},{"city":"Warangal","state":"Telangana","latitude":17.9689,"longitude":79.5941,"temp":30.0,"humidity":48,"rain":0.0,"pressure":978.1,"uv_index":9.0,"wind_gusts":29.5,"aqi":98,"pm10":36.8,"pm2_5":34.0,"mosquito_risk":4,"arthritis_risk":5,"migraine_risk":7,"frizz_risk":1,"updated_at":"2026-04-26T00:28:20.792636+05:30"},{"city":"Nizamabad","state":"Telangana","latitude":18.6725,"longitude":78.0941,"temp":31.2,"humidity":33,"rain":0.0,"pressure":964.1,"uv_index":8.75,"wind_gusts":30.6,"aqi":122,"pm10":57.5,"pm2_5":52.9,"mosquito_risk":0,"arthritis_risk":5,"migraine_risk":7,"frizz_risk":0,"updated_at":"2026-04-26T00:28:20.792643+05:30"},{"city":"Mysore","state":"Karnataka","latitude":12.2958,"longitude":76.6396,"temp":25.5,"humidity":57,"rain":0.0,"pressure":928.2,"uv_index":8.9,"wind_gusts":45.0,"aqi":86,"pm10":28.1,"pm2_5":25.0,"mosquito_risk":4,"arthritis_risk":5,"migraine_risk":7,"frizz_risk":1,"updated_at":"2026-04-26T00:28:20.792650+05:30"},{"city":"Mangalore","state":"Karnataka","latitude":12.9141,"longitude":74.856,"temp":29.3,"humidity":84,"rain":0.0,"pressure":1006.0,"uv_index":9.1,"wind_gusts":40.7,"aqi":62,"pm10":27.5,"pm2_5":20.4,"mosquito_risk":7,"arthritis_risk":5,"migraine_risk":4,"frizz_risk":1,"updated_at":"2026-04-26T00:28:20.792657+05:30"},{"city":"Hubli-Dharwad","state":"Karnataka","latitude":15.3647,"longitude":75.124,"temp":27.2,"humidity":73,"rain":0.0,"pressure":940.0,"uv_index":9.0,"wind_gusts":47.5,"aqi":107,"pm10":24.7,"pm2_5":23.5,"mosquito_risk":7,"arthritis_risk":5,"migraine_risk":7,"frizz_risk":1,"updated_at":"2026-04-26T00:28:20.792665+05:30"},{"city":"Belgaum","state":"Karnataka","latitude":15.8497,"longitude":74.4977,"temp":25.0,"humidity":88,"rain":0.0,"pressure":925.3,"uv_index":9.2,"wind_gusts":34.9,"aqi":118,"pm10":36.2,"pm2_5":32.6,"mosquito_risk":7,"arthritis_risk":5,"migraine_risk":7,"frizz_risk":1,"updated_at":"2026-04-26T00:28:24.068153+05:30"},{"city":"Coimbatore","state":"Tamil Nadu","latitude":11.0168,"longitude":76.9558,"temp":28.6,"humidity":58,"rain":0.0,"pressure":961.7,"uv_index":8.95,"wind_gusts":46.1,"aqi":76,"pm10":36.4,"pm2_5":33.3,"mosquito_risk":4,"arthritis_risk":5,"migraine_risk":7,"frizz_risk":1,"updated_at":"2026-04-26T00:28:24.068184+05:30"},{"city":"Madurai","state":"Tamil Nadu","latitude":9.9252,"longitude":78.1198,"temp":28.9,"humidity":54,"rain":0.0,"pressure":993.2,"uv_index":9.25,"wind_gusts":39.2,"aqi":57,"pm10":12.0,"pm2_5":11.7,"mosquito_risk":4,"arthritis_risk":5,"migraine_risk":7,"frizz_risk":1,"updated_at":"2026-04-26T00:28:24.068193+05:30"},{"city":"Trichy","state":"Tamil Nadu","latitude":10.7905,"longitude":78.7047,"temp":27.5,"humidity":81,"rain":0.0,"pressure":999.7,"uv_index":9.3,"wind_gusts":33.8,"aqi":55,"pm10":14.8,"pm2_5":13.3,"mosquito_risk":7,"arthritis_risk":5,"migraine_risk":7,"frizz_risk":1,"updated_at":"2026-04-26T00:28:24.068202+05:30"},{"city":"Salem","state":"Tamil Nadu","latitude":11.6643,"longitude":78.146,"temp":28.8,"humidity":60,"rain":0.0,"pressure":976.9,"uv_index":9.0,"wind_gusts":38.9,"aqi":72,"pm10":31.4,"pm2_5":28.4,"mosquito_risk":4,"arthritis_risk":5,"migraine_risk":7,"frizz_risk":1,"updated_at":"2026-04-26T00:28:24.068210+05:30"},{"city":"Tirunelveli","state":"Tamil Nadu","latitude":8.7139,"longitude":77.7567,"temp":27.8,"humidity":75,"rain":0.0,"pressure":1003.3,"uv_index":9.2,"wind_gusts":40.0,"aqi":60,"pm10":17.8,"pm2_5":16.8,"mosquito_risk":7,"arthritis_risk":5,"migraine_risk":4,"frizz_risk":1,"updated_at":"2026-04-26T00:28:24.068217+05:30"},{"city":"Vellore","state":"Tamil Nadu","latitude":12.9165,"longitude":79.1325,"temp":27.4,"humidity":74,"rain":0.0,"pressure":984.2,"uv_index":9.35,"wind_gusts":35.6,"aqi":79,"pm10":34.2,"pm2_5":32.1,"mosquito_risk":7,"arthritis_risk":5,"migraine_risk":7,"frizz_risk":1,"updated_at":"2026-04-26T00:28:24.068225+05:30"},{"city":"Erode","state":"Tamil Nadu","latitude":11.341,"longitude":77.7172,"temp":30.0,"humidity":54,"rain":0.0,"pressure":988.8,"uv_index":9.3,"wind_gusts":41.8,"aqi":54,"pm10":21.6,"pm2_5":19.3,"mosquito_risk":4,"arthritis_risk":5,"migraine_risk":7,"frizz_risk":1,"updated_at":"2026-04-26T00:28:24.068232+05:30"},{"city":"Kochi","state":"Kerala","latitude":9.9312,"longitude":76.2673,"temp":28.0,"humidity":87,"rain":0.0,"pressure":1008.4,"uv_index":8.4,"wind_gusts":42.1,"aqi":82,"pm10":26.3,"pm2_5":24.9,"mosquito_risk":7,"arthritis_risk":0,"migraine_risk":4,"frizz_risk":1,"updated_at":"2026-04-26T00:28:24.068239+05:30"},{"city":"Thiruvananthapuram","state":"Kerala","latitude":8.5241,"longitude":76.9366,"temp":26.0,"humidity":89,"rain":0.0,"pressure":1007.9,"uv_index":8.6,"wind_gusts":33.8,"aqi":56,"pm10":16.5,"pm2_5":12.5,"mosquito_risk":7,"arthritis_risk":5,"migraine_risk":4,"frizz_risk":1,"updated_at":"2026-04-26T00:28:24.068246+05:30"},{"city":"Kozhikode","state":"Kerala","latitude":11.2588,"longitude":75.7804,"temp":27.4,"humidity":89,"rain":0.0,"pressure":1007.4,"uv_index":8.7,"wind_gusts":36.7,"aqi":60,"pm10":19.2,"pm2_5":13.6,"mosquito_risk":7,"arthritis_risk":5,"migraine_risk":4,"frizz_risk":1,"updated_at":"2026-04-26T00:28:24.068253+05:30"},{"city":"Thrissur","state":"Kerala","latitude":10.5276,"longitude":76.2144,"temp":27.9,"humidity":86,"rain":0.0,"pressure":1006.7,"uv_index":8.1,"wind_gusts":44.6,"aqi":75,"pm10":27.2,"pm2_5":25.9,"mosquito_risk":7,"arthritis_risk":5,"migraine_risk":4,"frizz_risk":1,"updated_at":"2026-04-26T00:28:24.068260+05:30"},{"city":"Kannur","state":"Kerala","latitude":11.8745,"longitude":75.3704,"temp":28.9,"humidity":73,"rain":0.0,"pressure":1006.4,"uv_index":8.6,"wind_gusts":40.0,"aqi":64,"pm10":25.2,"pm2_5":20.5,"mosquito_risk":7,"arthritis_risk":5,"migraine_risk":4,"frizz_risk":1,"updated_at":"2026-04-26T00:28:24.068268+05:30"},{"city":"Patna","state":"Bihar","latitude":25.5941,"longitude":85.1376,"temp":28.0,"humidity":68,"rain":0.0,"pressure":998.6,"uv_index":8.65,"wind_gusts":60.1,"aqi":152,"pm10":71.9,"pm2_5":58.8,"mosquito_risk":7,"arthritis_risk":5,"migraine_risk":7,"frizz_risk":1,"updated_at":"2026-04-26T00:28:24.068275+05:30"},{"city":"Gaya","state":"Bihar","latitude":24.7914,"longitude":85.0002,"temp":28.6,"humidity":60,"rain":0.0,"pressure":991.8,"uv_index":8.7,"wind_gusts":50.4,"aqi":134,"pm10":66.6,"pm2_5":53.0,"mosquito_risk":4,"arthritis_risk":5,"migraine_risk":7,"frizz_risk":1,"updated_at":"2026-04-26T00:28:24.068282+05:30"},{"city":"Muzaffarpur","state":"Bihar","latitude":26.1209,"longitude":85.3647,"temp":26.8,"humidity":70,"rain":0.0,"pressure":999.0,"uv_index":8.6,"wind_gusts":50.4,"aqi":154,"pm10":75.0,"pm2_5":61.0,"mosquito_risk":7,"arthritis_risk":5,"migraine_risk":7,"frizz_risk":1,"updated_at":"2026-04-26T00:28:24.068289+05:30"},{"city":"Bhagalpur","state":"Bihar","latitude":25.2425,"longitude":87.0117,"temp":28.9,"humidity":72,"rain":0.0,"pressure":999.9,"uv_index":8.6,"wind_gusts":55.1,"aqi":156,"pm10":59.6,"pm2_5":52.3,"mosquito_risk":7,"arthritis_risk":5,"migraine_risk":7,"frizz_risk":1,"updated_at":"2026-04-26T00:28:24.068296+05:30"},{"city":"Ranchi","state":"Jharkhand","latitude":23.3441,"longitude":85.3096,"temp":24.9,"humidity":41,"rain":0.0,"pressure":936.1,"uv_index":9.2,"wind_gusts":28.8,"aqi":120,"pm10":48.1,"pm2_5":42.4,"mosquito_risk":0,"arthritis_risk":5,"migraine_risk":7,"frizz_risk":0,"updated_at":"2026-04-26T00:28:24.068302+05:30"},{"city":"Jamshedpur","state":"Jharkhand","latitude":22.8046,"longitude":86.2029,"temp":31.2,"humidity":56,"rain":0.0,"pressure":989.4,"uv_index":8.9,"wind_gusts":33.5,"aqi":128,"pm10":41.8,"pm2_5":35.6,"mosquito_risk":0,"arthritis_risk":5,"migraine_risk":7,"frizz_risk":1,"updated_at":"2026-04-26T00:28:24.068310+05:30"},{"city":"Dhanbad","state":"Jharkhand","latitude":23.7957,"longitude":86.4304,"temp":28.5,"humidity":84,"rain":0.0,"pressure":978.5,"uv_index":8.95,"wind_gusts":45.7,"aqi":155,"pm10":53.3,"pm2_5":49.9,"mosquito_risk":7,"arthritis_risk":5,"migraine_risk":7,"frizz_risk":1,"updated_at":"2026-04-26T00:28:24.068316+05:30"},{"city":"Bokaro","state":"Jharkhand","latitude":23.6693,"longitude":86.1511,"temp":28.0,"humidity":87,"rain":0.0,"pressure":982.0,"uv_index":8.95,"wind_gusts":33.1,"aqi":154,"pm10":61.0,"pm2_5":57.3,"mosquito_risk":7,"arthritis_risk":5,"migraine_risk":7,"frizz_risk":1,"updated_at":"2026-04-26T00:28:24.068324+05:30"},{"city":"Bhubaneswar","state":"Odisha","latitude":20.2961,"longitude":85.8245,"temp":26.5,"humidity":94,"rain":0.0,"pressure":1001.8,"uv_index":9.1,"wind_gusts":41.0,"aqi":60,"pm10":13.9,"pm2_5":10.5,"mosquito_risk":7,"arthritis_risk":5,"migraine_risk":4,"frizz_risk":1,"updated_at":"2026-04-26T00:28:24.068331+05:30"},{"city":"Cuttack","state":"Odisha","latitude":20.4625,"longitude":85.8828,"temp":26.5,"humidity":94,"rain":0.0,"pressure":1003.5,"uv_index":9.15,"wind_gusts":38.2,"aqi":60,"pm10":13.9,"pm2_5":10.5,"mosquito_risk":7,"arthritis_risk":5,"migraine_risk":4,"frizz_risk":1,"updated_at":"2026-04-26T00:28:24.068338+05:30"},{"city":"Rourkela","state":"Odisha","latitude":22.2604,"longitude":84.8536,"temp":29.1,"humidity":65,"rain":0.0,"pressure":984.1,"uv_index":8.6,"wind_gusts":45.0,"aqi":170,"pm10":46.0,"pm2_5":40.0,"mosquito_risk":7,"arthritis_risk":5,"migraine_risk":7,"frizz_risk":1,"updated_at":"2026-04-26T00:28:24.068344+05:30"},{"city":"Raipur","state":"Chhattisgarh","latitude":21.2514,"longitude":81.6296,"temp":31.6,"humidity":23,"rain":0.0,"pressure":972.9,"uv_index":8.95,"wind_gusts":31.0,"aqi":115,"pm10":43.3,"pm2_5":38.1,"mosquito_risk":0,"arthritis_risk":5,"migraine_risk":7,"frizz_risk":0,"updated_at":"2026-04-26T00:28:24.068351+05:30"},{"city":"Bhilai","state":"Chhattisgarh","latitude":21.1938,"longitude":81.3509,"temp":31.6,"humidity":25,"rain":0.0,"pressure":973.1,"uv_index":9.0,"wind_gusts":35.6,"aqi":109,"pm10":43.9,"pm2_5":38.8,"mosquito_risk":0,"arthritis_risk":5,"migraine_risk":7,"frizz_risk":0,"updated_at":"2026-04-26T00:28:24.068357+05:30"},{"city":"Guwahati","state":"Assam","latitude":26.1158,"longitude":91.7086,"temp":22.6,"humidity":89,"rain":0.0,"pressure":1002.5,"uv_index":8.55,"wind_gusts":42.1,"aqi":159,"pm10":79.6,"pm2_5":63.3,"mosquito_risk":3,"arthritis_risk":5,"migraine_risk":4,"frizz_risk":1,"updated_at":"2026-04-26T00:28:24.068364+05:30"},{"city":"Agartala","state":"Tripura","latitude":23.8315,"longitude":91.2868,"temp":26.8,"humidity":83,"rain":0.0,"pressure":1006.3,"uv_index":8.75,"wind_gusts":35.6,"aqi":151,"pm10":59.0,"pm2_5":49.5,"mosquito_risk":7,"arthritis_risk":5,"migraine_risk":4,"frizz_risk":1,"updated_at":"2026-04-26T00:28:24.068371+05:30"},{"city":"Shillong","state":"Meghalaya","latitude":25.5788,"longitude":91.8933,"temp":15.8,"humidity":85,"rain":0.0,"pressure":856.2,"uv_index":8.2,"wind_gusts":29.5,"aqi":142,"pm10":69.4,"pm2_5":48.8,"mosquito_risk":3,"arthritis_risk":10,"migraine_risk":7,"frizz_risk":0,"updated_at":"2026-04-26T00:28:24.068378+05:30"},{"city":"Imphal","state":"Manipur","latitude":24.817,"longitude":93.9368,"temp":18.9,"humidity":81,"rain":0.0,"pressure":923.0,"uv_index":9.1,"wind_gusts":38.5,"aqi":154,"pm10":128.1,"pm2_5":87.3,"mosquito_risk":3,"arthritis_risk":10,"migraine_risk":7,"frizz_risk":0,"updated_at":"2026-04-26T00:28:24.068385+05:30"},{"city":"Aizawl","state":"Mizoram","latitude":23.7271,"longitude":92.7176,"temp":19.3,"humidity":79,"rain":0.0,"pressure":892.6,"uv_index":8.95,"wind_gusts":39.6,"aqi":116,"pm10":82.4,"pm2_5":41.9,"mosquito_risk":3,"arthritis_risk":5,"migraine_risk":7,"frizz_risk":0,"updated_at":"2026-04-26T00:28:24.068392+05:30"},{"city":"Kohima","state":"Nagaland","latitude":25.6701,"longitude":94.1077,"temp":14.8,"humidity":84,"rain":0.0,"pressure":853.7,"uv_index":8.8,"wind_gusts":38.2,"aqi":157,"pm10":114.6,"pm2_5":87.3,"mosquito_risk":3,"arthritis_risk":10,"migraine_risk":7,"frizz_risk":0,"updated_at":"2026-04-26T00:28:24.068399+05:30"},{"city":"Gangtok","state":"Sikkim","latitude":27.3314,"longitude":88.6138,"temp":13.5,"humidity":75,"rain":0.0,"pressure":835.9,"uv_index":8.8,"wind_gusts":41.4,"aqi":85,"pm10":37.6,"pm2_5":28.2,"mosquito_risk":3,"arthritis_risk":5,"migraine_risk":7,"frizz_risk":0,"updated_at":"2026-04-26T00:28:24.068406+05:30"},{"city":"Siliguri","state":"West Bengal","latitude":26.7271,"longitude":88.3953,"temp":21.0,"humidity":95,"rain":0.0,"pressure":994.5,"uv_index":8.45,"wind_gusts":33.8,"aqi":149,"pm10":79.9,"pm2_5":62.6,"mosquito_risk":3,"arthritis_risk":5,"migraine_risk":7,"frizz_risk":1,"updated_at":"2026-04-26T00:28:27.336403+05:30"},{"city":"Durgapur","state":"West Bengal","latitude":23.5204,"longitude":87.3119,"temp":27.4,"humidity":90,"rain":0.0,"pressure":993.9,"uv_index":8.9,"wind_gusts":34.2,"aqi":128,"pm10":36.9,"pm2_5":34.3,"mosquito_risk":7,"arthritis_risk":5,"migraine_risk":7,"frizz_risk":1,"updated_at":"2026-04-26T00:28:27.336435+05:30"},{"city":"Asansol","state":"West Bengal","latitude":23.6739,"longitude":86.9524,"temp":27.9,"humidity":89,"rain":0.0,"pressure":992.2,"uv_index":8.95,"wind_gusts":40.3,"aqi":134,"pm10":35.6,"pm2_5":33.4,"mosquito_risk":7,"arthritis_risk":5,"migraine_risk":7,"frizz_risk":1,"updated_at":"2026-04-26T00:28:27.336444+05:30"},{"city":"Pondicherry","state":"Puducherry","latitude":11.9139,"longitude":79.8145,"temp":28.5,"humidity":84,"rain":0.0,"pressure":1008.0,"uv_index":9.2,"wind_gusts":43.6,"aqi":28,"pm10":12.4,"pm2_5":7.7,"mosquito_risk":7,"arthritis_risk":0,"migraine_risk":4,"frizz_risk":1,"updated_at":"2026-04-26T00:28:27.336452+05:30"},{"city":"Port Blair","state":"Andaman and Nicobar Islands","latitude":11.6234,"longitude":92.7265,"temp":27.4,"humidity":85,"rain":0.0,"pressure":1007.2,"uv_index":9.15,"wind_gusts":33.1,"aqi":44,"pm10":24.7,"pm2_5":17.2,"mosquito_risk":7,"arthritis_risk":5,"migraine_risk":4,"frizz_risk":1,"updated_at":"2026-04-26T00:28:27.336459+05:30"},{"city":"Haridwar","state":"Uttarakhand","latitude":29.9457,"longitude":78.1642,"temp":23.1,"humidity":57,"rain":0.0,"pressure":971.1,"uv_index":7.25,"wind_gusts":35.6,"aqi":77,"pm10":61.0,"pm2_5":30.6,"mosquito_risk":0,"arthritis_risk":5,"migraine_risk":7,"frizz_risk":0,"updated_at":"2026-04-26T00:28:27.336467+05:30"},{"city":"Rishikesh","state":"Uttarakhand","latitude":30.0869,"longitude":78.2676,"temp":19.9,"humidity":64,"rain":0.0,"pressure":963.4,"uv_index":7.35,"wind_gusts":28.4,"aqi":69,"pm10":104.3,"pm2_5":36.3,"mosquito_risk":3,"arthritis_risk":5,"migraine_risk":7,"frizz_risk":0,"updated_at":"2026-04-26T00:28:27.336474+05:30"},{"city":"Nainital","state":"Uttarakhand","latitude":29.3919,"longitude":79.4542,"temp":16.8,"humidity":48,"rain":0.0,"pressure":804.9,"uv_index":8.2,"wind_gusts":40.3,"aqi":98,"pm10":82.2,"pm2_5":29.5,"mosquito_risk":0,"arthritis_risk":5,"migraine_risk":7,"frizz_risk":0,"updated_at":"2026-04-26T00:28:27.336481+05:30"},{"city":"Mussoorie","state":"Uttarakhand","latitude":30.4599,"longitude":78.0664,"temp":18.2,"humidity":38,"rain":0.0,"pressure":803.4,"uv_index":7.75,"wind_gusts":59.4,"aqi":65,"pm10":68.2,"pm2_5":33.5,"mosquito_risk":0,"arthritis_risk":5,"migraine_risk":7,"frizz_risk":0,"updated_at":"2026-04-26T00:28:27.336488+05:30"},{"city":"Dharamshala","state":"Himachal Pradesh","latitude":32.219,"longitude":76.3234,"temp":22.7,"humidity":33,"rain":0.0,"pressure":870.2,"uv_index":7.65,"wind_gusts":59.8,"aqi":50,"pm10":34.6,"pm2_5":14.5,"mosquito_risk":0,"arthritis_risk":5,"migraine_risk":7,"frizz_risk":0,"updated_at":"2026-04-26T00:28:27.336494+05:30"},{"city":"Dalhousie","state":"Himachal Pradesh","latitude":32.5387,"longitude":75.971,"temp":12.2,"humidity":59,"rain":0.0,"pressure":802.7,"uv_index":8.1,"wind_gusts":45.7,"aqi":63,"pm10":57.7,"pm2_5":31.7,"mosquito_risk":0,"arthritis_risk":5,"migraine_risk":7,"frizz_risk":0,"updated_at":"2026-04-26T00:28:27.336502+05:30"},{"city":"Patiala","state":"Punjab","latitude":30.3398,"longitude":76.3869,"temp":29.1,"humidity":31,"rain":0.0,"pressure":976.9,"uv_index":7.35,"wind_gusts":56.2,"aqi":659,"pm10":584.9,"pm2_5":82.9,"mosquito_risk":4,"arthritis_risk":5,"migraine_risk":7,"frizz_risk":0,"updated_at":"2026-04-26T00:28:27.336509+05:30"},{"city":"Bhatinda","state":"Punjab","latitude":30.211,"longitude":74.9455,"temp":30.1,"humidity":26,"rain":0.0,"pressure":982.8,"uv_index":8.05,"wind_gusts":52.9,"aqi":92,"pm10":119.7,"pm2_5":45.9,"mosquito_risk":0,"arthritis_risk":5,"migraine_risk":7,"frizz_risk":0,"updated_at":"2026-04-26T00:28:27.336516+05:30"},{"city":"Rohtak","state":"Haryana","latitude":28.8955,"longitude":76.6066,"temp":29.7,"humidity":28,"rain":0.0,"pressure":980.1,"uv_index":7.35,"wind_gusts":51.1,"aqi":873,"pm10":849.4,"pm2_5":136.0,"mosquito_risk":4,"arthritis_risk":5,"migraine_risk":7,"frizz_risk":0,"updated_at":"2026-04-26T00:28:27.336523+05:30"},{"city":"Panipat","state":"Haryana","latitude":29.3909,"longitude":76.9635,"temp":30.7,"humidity":31,"rain":0.0,"pressure":978.7,"uv_index":7.15,"wind_gusts":54.0,"aqi":1571,"pm10":1348.6,"pm2_5":180.2,"mosquito_risk":0,"arthritis_risk":5,"migraine_risk":7,"frizz_risk":0,"updated_at":"2026-04-26T00:28:27.336529+05:30"},{"city":"Mathura","state":"Uttar Pradesh","latitude":27.4924,"longitude":77.6737,"temp":31.1,"humidity":27,"rain":0.0,"pressure":984.6,"uv_index":7.75,"wind_gusts":45.0,"aqi":763,"pm10":1423.1,"pm2_5":210.9,"mosquito_risk":0,"arthritis_risk":5,"migraine_risk":7,"frizz_risk":0,"updated_at":"2026-04-26T00:28:27.336536+05:30"},{"city":"Vrindavan","state":"Uttar Pradesh","latitude":27.5823,"longitude":77.7027,"temp":30.4,"humidity":28,"rain":0.0,"pressure":985.1,"uv_index":7.65,"wind_gusts":44.6,"aqi":763,"pm10":1423.1,"pm2_5":210.9,"mosquito_risk":0,"arthritis_risk":5,"migraine_risk":7,"frizz_risk":0,"updated_at":"2026-04-26T00:28:27.336542+05:30"},{"city":"Ayodhya","state":"Uttar Pradesh","latitude":26.7922,"longitude":82.1998,"temp":28.1,"humidity":58,"rain":0.0,"pressure":993.7,"uv_index":8.05,"wind_gusts":35.3,"aqi":140,"pm10":121.1,"pm2_5":58.8,"mosquito_risk":4,"arthritis_risk":5,"migraine_risk":7,"frizz_risk":1,"updated_at":"2026-04-26T00:28:27.336548+05:30"},{"city":"Ratlam","state":"Madhya Pradesh","latitude":23.3315,"longitude":75.0367,"temp":30.5,"humidity":23,"rain":0.0,"pressure":954.2,"uv_index":8.45,"wind_gusts":27.7,"aqi":66,"pm10":53.0,"pm2_5":34.0,"mosquito_risk":0,"arthritis_risk":5,"migraine_risk":7,"frizz_risk":0,"updated_at":"2026-04-26T00:28:27.336555+05:30"},{"city":"Sagar","state":"Madhya Pradesh","latitude":23.8388,"longitude":78.7378,"temp":31.0,"humidity":23,"rain":0.0,"pressure":949.0,"uv_index":8.65,"wind_gusts":29.9,"aqi":67,"pm10":75.2,"pm2_5":24.9,"mosquito_risk":0,"arthritis_risk":5,"migraine_risk":7,"frizz_risk":0,"updated_at":"2026-04-26T00:28:27.336561+05:30"},{"city":"Satna","state":"Madhya Pradesh","latitude":24.6005,"longitude":80.8322,"temp":30.9,"humidity":25,"rain":0.0,"pressure":969.5,"uv_index":8.65,"wind_gusts":41.0,"aqi":76,"pm10":109.9,"pm2_5":32.1,"mosquito_risk":0,"arthritis_risk":5,"migraine_risk":7,"frizz_risk":0,"updated_at":"2026-04-26T00:28:27.336567+05:30"},{"city":"Akola","state":"Maharashtra","latitude":20.7002,"longitude":77.0082,"temp":32.5,"humidity":22,"rain":0.0,"pressure":973.3,"uv_index":8.7,"wind_gusts":23.4,"aqi":91,"pm10":32.4,"pm2_5":24.0,"mosquito_risk":0,"arthritis_risk":5,"migraine_risk":7,"frizz_risk":0,"updated_at":"2026-04-26T00:28:27.336575+05:30"},{"city":"Amravati","state":"Maharashtra","latitude":20.9374,"longitude":77.7796,"temp":33.1,"humidity":19,"rain":0.0,"pressure":966.2,"uv_index":8.35,"wind_gusts":30.2,"aqi":85,"pm10":37.7,"pm2_5":29.0,"mosquito_risk":0,"arthritis_risk":5,"migraine_risk":7,"frizz_risk":0,"updated_at":"2026-04-26T00:28:27.336582+05:30"},{"city":"Latur","state":"Maharashtra","latitude":18.4088,"longitude":76.5604,"temp":30.7,"humidity":27,"rain":0.0,"pressure":939.5,"uv_index":8.6,"wind_gusts":32.0,"aqi":110,"pm10":54.6,"pm2_5":48.1,"mosquito_risk":0,"arthritis_risk":5,"migraine_risk":7,"frizz_risk":0,"updated_at":"2026-04-26T00:28:27.336588+05:30"},{"city":"Nanded","state":"Maharashtra","latitude":19.1383,"longitude":77.3091,"temp":29.9,"humidity":33,"rain":0.0,"pressure":967.7,"uv_index":8.6,"wind_gusts":29.5,"aqi":99,"pm10":48.4,"pm2_5":43.2,"mosquito_risk":4,"arthritis_risk":5,"migraine_risk":7,"frizz_risk":0,"updated_at":"2026-04-26T00:28:27.336595+05:30"},{"city":"Gulbarga","state":"Karnataka","latitude":17.3297,"longitude":76.8343,"temp":31.2,"humidity":34,"rain":0.0,"pressure":958.3,"uv_index":9.05,"wind_gusts":27.7,"aqi":136,"pm10":48.4,"pm2_5":43.5,"mosquito_risk":0,"arthritis_risk":5,"migraine_risk":7,"frizz_risk":0,"updated_at":"2026-04-26T00:28:27.336601+05:30"},{"city":"Bidar","state":"Karnataka","latitude":17.9104,"longitude":77.5199,"temp":28.9,"humidity":37,"rain":0.0,"pressure":935.3,"uv_index":8.85,"wind_gusts":27.7,"aqi":124,"pm10":60.3,"pm2_5":54.4,"mosquito_risk":4,"arthritis_risk":5,"migraine_risk":7,"frizz_risk":0,"updated_at":"2026-04-26T00:28:27.336607+05:30"},{"city":"Hospet","state":"Karnataka","latitude":15.2689,"longitude":76.3909,"temp":29.6,"humidity":30,"rain":0.0,"pressure":955.0,"uv_index":9.3,"wind_gusts":27.4,"aqi":127,"pm10":41.4,"pm2_5":37.3,"mosquito_risk":4,"arthritis_risk":5,"migraine_risk":7,"frizz_risk":0,"updated_at":"2026-04-26T00:28:27.336613+05:30"},{"city":"Tirupur","state":"Tamil Nadu","latitude":11.1085,"longitude":77.3411,"temp":30.2,"humidity":48,"rain":0.0,"pressure":974.8,"uv_index":9.4,"wind_gusts":41.8,"aqi":59,"pm10":27.3,"pm2_5":24.1,"mosquito_risk":0,"arthritis_risk":5,"migraine_risk":7,"frizz_risk":1,"updated_at":"2026-04-26T00:28:27.336619+05:30"},{"city":"Alappuzha","state":"Kerala","latitude":9.4981,"longitude":76.3388,"temp":27.2,"humidity":90,"rain":0.0,"pressure":1008.5,"uv_index":8.55,"wind_gusts":39.2,"aqi":78,"pm10":23.7,"pm2_5":20.8,"mosquito_risk":7,"arthritis_risk":0,"migraine_risk":4,"frizz_risk":1,"updated_at":"2026-04-26T00:28:27.336626+05:30"},{"city":"Munnar","state":"Kerala","latitude":10.0889,"longitude":77.0595,"temp":16.8,"humidity":75,"rain":0.0,"pressure":855.8,"uv_index":9.15,"wind_gusts":31.3,"aqi":61,"pm10":31.1,"pm2_5":29.8,"mosquito_risk":3,"arthritis_risk":5,"migraine_risk":7,"frizz_risk":0,"updated_at":"2026-04-26T00:28:27.336632+05:30"},{"city":"Silchar","state":"Assam","latitude":24.8333,"longitude":92.7789,"temp":23.5,"humidity":91,"rain":0.0,"pressure":1004.7,"uv_index":8.75,"wind_gusts":28.8,"aqi":160,"pm10":105.9,"pm2_5":84.5,"mosquito_risk":3,"arthritis_risk":5,"migraine_risk":4,"frizz_risk":1,"updated_at":"2026-04-26T00:28:27.336638+05:30"},{"city":"Dibrugarh","state":"Assam","latitude":27.4728,"longitude":94.912,"temp":21.7,"humidity":92,"rain":0.0,"pressure":997.4,"uv_index":8.6,"wind_gusts":31.7,"aqi":92,"pm10":25.7,"pm2_5":19.8,"mosquito_risk":3,"arthritis_risk":5,"migraine_risk":7,"frizz_risk":1,"updated_at":"2026-04-26T00:28:27.336645+05:30"}]