[{"city":"Delhi","state":"Delhi","latitude":28.6139,"longitude":77.209,"temp":31.7,"humidity":79,"rain":0.0,"pressure":974.3,"uv_index":7.3,"wind_gusts":26.3,"aqi":203,"pm10":67.3,"pm2_5":49.9,"no2":31.7,"co":783.0,"o3":123.0,"so2":34.4,"mosquito_risk":3,"arthritis_risk":5,"migraine_risk":7,"frizz_risk":1,"updated_at":"2026-07-05T20:44:36.223329+05:30"},{"city":"Mumbai","state":"Maharashtra","latitude":19.076,"longitude":72.8777,"temp":26.3,"humidity":92,"rain":0.5,"pressure":999.9,"uv_index":1.05,"wind_gusts":74.9,"aqi":29,"pm10":29.7,"pm2_5":12.8,"no2":5.6,"co":136.0,"o3":55.0,"so2":4.1,"mosquito_risk":10,"arthritis_risk":5,"migraine_risk":3,"frizz_risk":1,"updated_at":"2026-07-05T20:44:36.223377+05:30"},{"city":"Bangalore","state":"Karnataka","latitude":12.9716,"longitude":77.5946,"temp":23.0,"humidity":73,"rain":0.0,"pressure":910.2,"uv_index":8.0,"wind_gusts":75.6,"aqi":30,"pm10":9.5,"pm2_5":6.7,"no2":7.0,"co":203.0,"o3":48.0,"so2":3.1,"mosquito_risk":3,"arthritis_risk":5,"migraine_risk":7,"frizz_risk":1,"updated_at":"2026-07-05T20:44:36.223393+05:30"},{"city":"Hyderabad","state":"Telangana","latitude":17.385,"longitude":78.4867,"temp":24.8,"humidity":83,"rain":0.0,"pressure":948.0,"uv_index":1.55,"wind_gusts":60.1,"aqi":28,"pm10":3.9,"pm2_5":3.2,"no2":4.8,"co":157.0,"o3":50.0,"so2":3.0,"mosquito_risk":3,"arthritis_risk":5,"migraine_risk":3,"frizz_risk":1,"updated_at":"2026-07-05T20:44:36.223403+05:30"},{"city":"Chennai","state":"Tamil Nadu","latitude":13.0827,"longitude":80.2707,"temp":34.6,"humidity":39,"rain":0.0,"pressure":1003.4,"uv_index":8.9,"wind_gusts":56.9,"aqi":52,"pm10":24.8,"pm2_5":16.5,"no2":9.5,"co":300.0,"o3":75.0,"so2":6.6,"mosquito_risk":0,"arthritis_risk":5,"migraine_risk":4,"frizz_risk":1,"updated_at":"2026-07-05T20:44:36.223411+05:30"},{"city":"Kolkata","state":"West Bengal","latitude":22.5726,"longitude":88.3639,"temp":26.7,"humidity":96,"rain":0.4,"pressure":994.0,"uv_index":2.9,"wind_gusts":40.7,"aqi":46,"pm10":17.3,"pm2_5":15.5,"no2":9.2,"co":274.0,"o3":71.0,"so2":6.8,"mosquito_risk":10,"arthritis_risk":5,"migraine_risk":3,"frizz_risk":1,"updated_at":"2026-07-05T20:44:36.223419+05:30"},{"city":"Pune","state":"Maharashtra","latitude":18.5204,"longitude":73.8567,"temp":23.5,"humidity":93,"rain":1.8,"pressure":939.9,"uv_index":0.35,"wind_gusts":55.8,"aqi":21,"pm10":2.5,"pm2_5":2.3,"no2":6.6,"co":126.0,"o3":45.0,"so2":3.7,"mosquito_risk":6,"arthritis_risk":5,"migraine_risk":3,"frizz_risk":1,"updated_at":"2026-07-05T20:44:36.223426+05:30"},{"city":"Ahmedabad","state":"Gujarat","latitude":23.0225,"longitude":72.5714,"temp":27.7,"humidity":96,"rain":0.2,"pressure":992.5,"uv_index":5.2,"wind_gusts":27.7,"aqi":78,"pm10":59.4,"pm2_5":33.6,"no2":18.1,"co":515.0,"o3":83.0,"so2":8.8,"mosquito_risk":10,"arthritis_risk":5,"migraine_risk":3,"frizz_risk":1,"updated_at":"2026-07-05T20:44:36.223433+05:30"},{"city":"Jaipur","state":"Rajasthan","latitude":26.9124,"longitude":75.7873,"temp":31.1,"humidity":72,"rain":0.0,"pressure":951.4,"uv_index":8.05,"wind_gusts":24.1,"aqi":118,"pm10":33.3,"pm2_5":27.1,"no2":28.5,"co":531.0,"o3":86.0,"so2":12.1,"mosquito_risk":3,"arthritis_risk":5,"migraine_risk":7,"frizz_risk":1,"updated_at":"2026-07-05T20:44:36.223441+05:30"},{"city":"Lucknow","state":"Uttar Pradesh","latitude":26.8467,"longitude":80.9462,"temp":31.1,"humidity":81,"rain":0.0,"pressure":984.9,"uv_index":8.2,"wind_gusts":21.6,"aqi":122,"pm10":39.0,"pm2_5":38.8,"no2":23.6,"co":354.0,"o3":79.0,"so2":10.6,"mosquito_risk":3,"arthritis_risk":5,"migraine_risk":7,"frizz_risk":1,"updated_at":"2026-07-05T20:44:36.223452+05:30"},{"city":"Kanpur","state":"Uttar Pradesh","latitude":26.4499,"longitude":80.3319,"temp":31.6,"humidity":80,"rain":0.0,"pressure":983.0,"uv_index":7.65,"wind_gusts":22.0,"aqi":123,"pm10":30.2,"pm2_5":30.0,"no2":20.8,"co":368.0,"o3":89.0,"so2":9.1,"mosquito_risk":3,"arthritis_risk":5,"migraine_risk":7,"frizz_risk":1,"updated_at":"2026-07-05T20:44:36.223460+05:30"},{"city":"Chandigarh","state":"Chandigarh","latitude":30.7333,"longitude":76.7794,"temp":30.4,"humidity":77,"rain":0.0,"pressure":960.3,"uv_index":7.45,"wind_gusts":26.3,"aqi":177,"pm10":98.3,"pm2_5":92.2,"no2":43.6,"co":1485.0,"o3":107.0,"so2":20.5,"mosquito_risk":3,"arthritis_risk":5,"migraine_risk":7,"frizz_risk":1,"updated_at":"2026-07-05T20:44:36.223468+05:30"},{"city":"Srinagar","state":"Jammu and Kashmir","latitude":34.0837,"longitude":74.7973,"temp":27.8,"humidity":49,"rain":0.0,"pressure":836.3,"uv_index":9.05,"wind_gusts":19.8,"aqi":105,"pm10":34.8,"pm2_5":29.5,"no2":19.4,"co":555.0,"o3":83.0,"so2":3.8,"mosquito_risk":4,"arthritis_risk":5,"migraine_risk":7,"frizz_risk":1,"updated_at":"2026-07-05T20:44:36.223475+05:30"},{"city":"Jammu","state":"Jammu and Kashmir","latitude":32.7266,"longitude":74.857,"temp":32.1,"humidity":66,"rain":0.0,"pressure":962.2,"uv_index":8.45,"wind_gusts":36.0,"aqi":165,"pm10":88.0,"pm2_5":72.2,"no2":25.2,"co":624.0,"o3":110.0,"so2":9.4,"mosquito_risk":3,"arthritis_risk":5,"migraine_risk":7,"frizz_risk":1,"updated_at":"2026-07-05T20:44:36.223481+05:30"},{"city":"Amritsar","state":"Punjab","latitude":31.634,"longitude":74.8723,"temp":32.0,"humidity":73,"rain":0.0,"pressure":970.6,"uv_index":8.45,"wind_gusts":54.7,"aqi":165,"pm10":107.3,"pm2_5":93.4,"no2":30.5,"co":653.0,"o3":90.0,"so2":11.2,"mosquito_risk":3,"arthritis_risk":5,"migraine_risk":7,"frizz_risk":1,"updated_at":"2026-07-05T20:44:36.223487+05:30"},{"city":"Ludhiana","state":"Punjab","latitude":30.901,"longitude":75.8573,"temp":31.4,"humidity":81,"rain":0.0,"pressure":969.4,"uv_index":7.9,"wind_gusts":31.7,"aqi":177,"pm10":135.5,"pm2_5":114.1,"no2":42.4,"co":1232.0,"o3":91.0,"so2":14.5,"mosquito_risk":3,"arthritis_risk":5,"migraine_risk":7,"frizz_risk":1,"updated_at":"2026-07-05T20:44:36.223496+05:30"},{"city":"Jalandhar","state":"Punjab","latitude":31.326,"longitude":75.5762,"temp":31.0,"humidity":81,"rain":0.0,"pressure":970.1,"uv_index":7.9,"wind_gusts":24.5,"aqi":175,"pm10":106.6,"pm2_5":97.8,"no2":34.2,"co":1030.0,"o3":82.0,"so2":8.9,"mosquito_risk":3,"arthritis_risk":5,"migraine_risk":7,"frizz_risk":1,"updated_at":"2026-07-05T20:44:36.223502+05:30"},{"city":"Dehradun","state":"Uttarakhand","latitude":30.6284,"longitude":78.0322,"temp":19.8,"humidity":99,"rain":0.0,"pressure":826.8,"uv_index":6.8,"wind_gusts":29.2,"aqi":96,"pm10":27.8,"pm2_5":27.5,"no2":17.3,"co":300.0,"o3":99.0,"so2":3.3,"mosquito_risk":3,"arthritis_risk":10,"migraine_risk":7,"frizz_risk":1,"updated_at":"2026-07-05T20:44:36.223509+05:30"},{"city":"Shimla","state":"Himachal Pradesh","latitude":31.1048,"longitude":77.1734,"temp":17.4,"humidity":92,"rain":0.0,"pressure":780.6,"uv_index":6.9,"wind_gusts":34.9,"aqi":122,"pm10":45.9,"pm2_5":44.1,"no2":12.5,"co":499.0,"o3":110.0,"so2":2.2,"mosquito_risk":3,"arthritis_risk":10,"migraine_risk":7,"frizz_risk":1,"updated_at":"2026-07-05T20:44:36.223516+05:30"},{"city":"Manali","state":"Himachal Pradesh","latitude":32.2396,"longitude":77.1887,"temp":20.8,"humidity":95,"rain":0.0,"pressure":815.5,"uv_index":9.6,"wind_gusts":34.9,"aqi":94,"pm10":17.8,"pm2_5":17.7,"no2":51.1,"co":239.0,"o3":80.0,"so2":0.3,"mosquito_risk":3,"arthritis_risk":5,"migraine_risk":7,"frizz_risk":1,"updated_at":"2026-07-05T20:44:36.223524+05:30"},{"city":"Gurgaon","state":"Haryana","latitude":28.4595,"longitude":77.0266,"temp":31.1,"humidity":78,"rain":0.0,"pressure":972.7,"uv_index":5.95,"wind_gusts":24.5,"aqi":151,"pm10":106.2,"pm2_5":57.2,"no2":45.8,"co":839.0,"o3":83.0,"so2":26.9,"mosquito_risk":3,"arthritis_risk":5,"migraine_risk":3,"frizz_risk":1,"updated_at":"2026-07-05T20:44:36.223531+05:30"},{"city":"Noida","state":"Uttar Pradesh","latitude":28.5355,"longitude":77.391,"temp":31.7,"humidity":79,"rain":0.0,"pressure":975.8,"uv_index":6.2,"wind_gusts":27.7,"aqi":151,"pm10":106.2,"pm2_5":57.2,"no2":45.8,"co":865.0,"o3":83.0,"so2":26.9,"mosquito_risk":3,"arthritis_risk":5,"migraine_risk":7,"frizz_risk":1,"updated_at":"2026-07-05T20:44:36.223538+05:30"},{"city":"Ghaziabad","state":"Uttar Pradesh","latitude":28.6692,"longitude":77.4538,"temp":31.3,"humidity":81,"rain":0.0,"pressure":974.2,"uv_index":6.7,"wind_gusts":23.8,"aqi":136,"pm10":55.9,"pm2_5":52.7,"no2":36.6,"co":628.0,"o3":69.0,"so2":17.6,"mosquito_risk":3,"arthritis_risk":5,"migraine_risk":7,"frizz_risk":1,"updated_at":"2026-07-05T20:44:36.223544+05:30"},{"city":"Faridabad","state":"Haryana","latitude":28.4089,"longitude":77.3178,"temp":32.3,"humidity":74,"rain":0.0,"pressure":975.1,"uv_index":5.9,"wind_gusts":31.7,"aqi":151,"pm10":106.2,"pm2_5":57.2,"no2":45.8,"co":558.0,"o3":83.0,"so2":26.9,"mosquito_risk":3,"arthritis_risk":5,"migraine_risk":3,"frizz_risk":1,"updated_at":"2026-07-05T20:44:36.223552+05:30"},{"city":"Meerut","state":"Uttar Pradesh","latitude":28.9845,"longitude":77.7064,"temp":30.7,"humidity":83,"rain":0.0,"pressure":973.1,"uv_index":7.45,"wind_gusts":26.3,"aqi":136,"pm10":55.9,"pm2_5":52.7,"no2":36.6,"co":563.0,"o3":69.0,"so2":17.6,"mosquito_risk":3,"arthritis_risk":5,"migraine_risk":7,"frizz_risk":1,"updated_at":"2026-07-05T20:44:36.223558+05:30"},{"city":"Agra","state":"Uttar Pradesh","latitude":27.1767,"longitude":78.0081,"temp":32.0,"humidity":74,"rain":0.0,"pressure":978.8,"uv_index":7.8,"wind_gusts":32.0,"aqi":122,"pm10":63.6,"pm2_5":42.1,"no2":30.3,"co":592.0,"o3":73.0,"so2":12.8,"mosquito_risk":3,"arthritis_risk":5,"migraine_risk":7,"frizz_risk":1,"updated_at":"2026-07-05T20:44:36.223564+05:30"},{"city":"Varanasi","state":"Uttar Pradesh","latitude":25.3176,"longitude":82.9739,"temp":29.3,"humidity":88,"rain":0.2,"pressure":989.1,"uv_index":7.75,"wind_gusts":40.0,"aqi":85,"pm10":38.4,"pm2_5":38.2,"no2":19.4,"co":315.0,"o3":69.0,"so2":10.5,"mosquito_risk":10,"arthritis_risk":5,"migraine_risk":7,"frizz_risk":1,"updated_at":"2026-07-05T20:44:36.223571+05:30"},{"city":"Prayagraj","state":"Uttar Pradesh","latitude":25.4358,"longitude":81.8463,"temp":29.7,"humidity":86,"rain":0.0,"pressure":987.6,"uv_index":8.1,"wind_gusts":33.8,"aqi":107,"pm10":29.2,"pm2_5":28.9,"no2":14.8,"co":361.0,"o3":86.0,"so2":6.7,"mosquito_risk":7,"arthritis_risk":5,"migraine_risk":7,"frizz_risk":1,"updated_at":"2026-07-05T20:44:36.223578+05:30"},{"city":"Gorakhpur","state":"Uttar Pradesh","latitude":26.7606,"longitude":83.3732,"temp":31.1,"humidity":75,"rain":0.0,"pressure":989.6,"uv_index":8.5,"wind_gusts":41.4,"aqi":96,"pm10":29.6,"pm2_5":29.6,"no2":15.0,"co":376.0,"o3":89.0,"so2":7.4,"mosquito_risk":3,"arthritis_risk":5,"migraine_risk":7,"frizz_risk":1,"updated_at":"2026-07-05T20:44:36.223584+05:30"},{"city":"Bareilly","state":"Uttar Pradesh","latitude":28.367,"longitude":79.4304,"temp":31.6,"humidity":75,"rain":0.0,"pressure":978.8,"uv_index":6.65,"wind_gusts":22.0,"aqi":109,"pm10":45.3,"pm2_5":43.9,"no2":27.4,"co":394.0,"o3":73.0,"so2":14.1,"mosquito_risk":3,"arthritis_risk":5,"migraine_risk":7,"frizz_risk":1,"updated_at":"2026-07-05T20:44:36.223592+05:30"},{"city":"Aligarh","state":"Uttar Pradesh","latitude":27.8974,"longitude":78.088,"temp":32.1,"humidity":70,"rain":0.0,"pressure":976.9,"uv_index":6.5,"wind_gusts":25.9,"aqi":133,"pm10":73.3,"pm2_5":49.0,"no2":31.3,"co":435.0,"o3":84.0,"so2":15.0,"mosquito_risk":3,"arthritis_risk":5,"migraine_risk":7,"frizz_risk":1,"updated_at":"2026-07-05T20:44:36.223598+05:30"},{"city":"Moradabad","state":"Uttar Pradesh","latitude":28.8386,"longitude":78.7733,"temp":31.5,"humidity":77,"rain":0.0,"pressure":975.7,"uv_index":7.0,"wind_gusts":29.2,"aqi":127,"pm10":48.1,"pm2_5":47.8,"no2":26.8,"co":410.0,"o3":78.0,"so2":13.8,"mosquito_risk":3,"arthritis_risk":5,"migraine_risk":7,"frizz_risk":1,"updated_at":"2026-07-05T20:44:36.223604+05:30"},{"city":"Saharanpur","state":"Uttar Pradesh","latitude":29.9637,"longitude":77.546,"temp":29.9,"humidity":78,"rain":0.0,"pressure":967.6,"uv_index":6.8,"wind_gusts":25.2,"aqi":155,"pm10":60.1,"pm2_5":59.5,"no2":24.1,"co":556.0,"o3":92.0,"so2":13.7,"mosquito_risk":7,"arthritis_risk":5,"migraine_risk":7,"frizz_risk":1,"updated_at":"2026-07-05T20:44:36.223611+05:30"},{"city":"Jhansi","state":"Uttar Pradesh","latitude":25.4484,"longitude":78.5685,"temp":28.8,"humidity":97,"rain":0.0,"pressure":969.5,"uv_index":7.35,"wind_gusts":31.7,"aqi":100,"pm10":22.7,"pm2_5":22.2,"no2":14.4,"co":374.0,"o3":84.0,"so2":6.0,"mosquito_risk":7,"arthritis_risk":5,"migraine_risk":7,"frizz_risk":1,"updated_at":"2026-07-05T20:44:39.598445+05:30"},{"city":"Surat","state":"Gujarat","latitude":21.1702,"longitude":72.8311,"temp":26.2,"humidity":99,"rain":0.0,"pressure":997.2,"uv_index":6.3,"wind_gusts":28.8,"aqi":81,"pm10":24.7,"pm2_5":18.9,"no2":28.9,"co":731.0,"o3":33.0,"so2":41.4,"mosquito_risk":7,"arthritis_risk":5,"migraine_risk":7,"frizz_risk":1,"updated_at":"2026-07-05T20:44:39.598478+05:30"},{"city":"Vadodara","state":"Gujarat","latitude":22.3072,"longitude":73.1812,"temp":28.5,"humidity":94,"rain":0.0,"pressure":994.5,"uv_index":6.45,"wind_gusts":27.0,"aqi":65,"pm10":28.6,"pm2_5":21.7,"no2":14.3,"co":510.0,"o3":80.0,"so2":7.4,"mosquito_risk":7,"arthritis_risk":5,"migraine_risk":7,"frizz_risk":1,"updated_at":"2026-07-05T20:44:39.598489+05:30"},{"city":"Rajkot","state":"Gujarat","latitude":22.3039,"longitude":70.8022,"temp":27.3,"humidity":94,"rain":0.1,"pressure":985.2,"uv_index":1.45,"wind_gusts":42.8,"aqi":71,"pm10":48.9,"pm2_5":21.4,"no2":8.0,"co":139.0,"o3":53.0,"so2":5.1,"mosquito_risk":10,"arthritis_risk":5,"migraine_risk":3,"frizz_risk":1,"updated_at":"2026-07-05T20:44:39.598498+05:30"},{"city":"Thane","state":"Maharashtra","latitude":19.2183,"longitude":72.9781,"temp":26.0,"humidity":95,"rain":0.8,"pressure":999.0,"uv_index":1.3,"wind_gusts":50.4,"aqi":29,"pm10":29.7,"pm2_5":12.8,"no2":5.6,"co":141.0,"o3":55.0,"so2":4.1,"mosquito_risk":10,"arthritis_risk":5,"migraine_risk":3,"frizz_risk":1,"updated_at":"2026-07-05T20:44:39.598507+05:30"},{"city":"Nagpur","state":"Maharashtra","latitude":21.1458,"longitude":79.0882,"temp":27.2,"humidity":90,"rain":0.0,"pressure":965.3,"uv_index":4.85,"wind_gusts":28.8,"aqi":53,"pm10":10.4,"pm2_5":10.1,"no2":11.0,"co":264.0,"o3":71.0,"so2":8.5,"mosquito_risk":7,"arthritis_risk":5,"migraine_risk":3,"frizz_risk":1,"updated_at":"2026-07-05T20:44:39.598516+05:30"},{"city":"Nashik","state":"Maharashtra","latitude":19.9975,"longitude":73.7898,"temp":23.6,"humidity":95,"rain":0.0,"pressure":936.3,"uv_index":5.85,"wind_gusts":50.8,"aqi":24,"pm10":2.1,"pm2_5":1.9,"no2":6.4,"co":123.0,"o3":43.0,"so2":1.4,"mosquito_risk":3,"arthritis_risk":5,"migraine_risk":3,"frizz_risk":1,"updated_at":"2026-07-05T20:44:39.598524+05:30"},{"city":"Aurangabad","state":"Maharashtra","latitude":19.8762,"longitude":75.3433,"temp":24.8,"humidity":82,"rain":0.0,"pressure":936.4,"uv_index":8.15,"wind_gusts":50.8,"aqi":31,"pm10":2.5,"pm2_5":2.4,"no2":7.4,"co":157.0,"o3":45.0,"so2":6.3,"mosquito_risk":3,"arthritis_risk":5,"migraine_risk":7,"frizz_risk":1,"updated_at":"2026-07-05T20:44:39.598532+05:30"},{"city":"Solapur","state":"Maharashtra","latitude":17.6599,"longitude":75.9064,"temp":25.1,"humidity":81,"rain":0.0,"pressure":952.0,"uv_index":2.85,"wind_gusts":73.4,"aqi":25,"pm10":2.8,"pm2_5":2.6,"no2":4.5,"co":121.0,"o3":45.0,"so2":1.8,"mosquito_risk":7,"arthritis_risk":5,"migraine_risk":3,"frizz_risk":1,"updated_at":"2026-07-05T20:44:39.598540+05:30"},{"city":"Kolhapur","state":"Maharashtra","latitude":16.705,"longitude":74.2433,"temp":22.5,"humidity":95,"rain":0.1,"pressure":943.1,"uv_index":2.8,"wind_gusts":69.8,"aqi":23,"pm10":3.7,"pm2_5":3.0,"no2":3.7,"co":127.0,"o3":51.0,"so2":1.5,"mosquito_risk":6,"arthritis_risk":5,"migraine_risk":3,"frizz_risk":1,"updated_at":"2026-07-05T20:44:39.598548+05:30"},{"city":"Goa","state":"Goa","latitude":15.2993,"longitude":74.124,"temp":23.6,"humidity":100,"rain":0.4,"pressure":996.2,"uv_index":7.85,"wind_gusts":46.8,"aqi":48,"pm10":26.5,"pm2_5":12.6,"no2":1.6,"co":221.0,"o3":57.0,"so2":0.7,"mosquito_risk":6,"arthritis_risk":5,"migraine_risk":7,"frizz_risk":1,"updated_at":"2026-07-05T20:44:39.598556+05:30"},{"city":"Jodhpur","state":"Rajasthan","latitude":26.2389,"longitude":73.0243,"temp":32.0,"humidity":67,"rain":0.1,"pressure":973.3,"uv_index":8.4,"wind_gusts":24.5,"aqi":113,"pm10":88.9,"pm2_5":36.8,"no2":11.6,"co":235.0,"o3":73.0,"so2":3.5,"mosquito_risk":6,"arthritis_risk":5,"migraine_risk":7,"frizz_risk":1,"updated_at":"2026-07-05T20:44:39.598564+05:30"},{"city":"Udaipur","state":"Rajasthan","latitude":24.5854,"longitude":73.7125,"temp":26.5,"humidity":95,"rain":0.0,"pressure":938.3,"uv_index":8.5,"wind_gusts":27.0,"aqi":71,"pm10":34.1,"pm2_5":21.0,"no2":9.4,"co":345.0,"o3":63.0,"so2":3.4,"mosquito_risk":7,"arthritis_risk":5,"migraine_risk":7,"frizz_risk":1,"updated_at":"2026-07-05T20:44:39.598572+05:30"},{"city":"Kota","state":"Rajasthan","latitude":25.2138,"longitude":75.8648,"temp":31.5,"humidity":71,"rain":0.0,"pressure":969.9,"uv_index":8.2,"wind_gusts":23.0,"aqi":110,"pm10":33.6,"pm2_5":30.6,"no2":15.8,"co":474.0,"o3":89.0,"so2":13.8,"mosquito_risk":3,"arthritis_risk":5,"migraine_risk":7,"frizz_risk":1,"updated_at":"2026-07-05T20:44:39.598580+05:30"},{"city":"Bikaner","state":"Rajasthan","latitude":28.0229,"longitude":73.3119,"temp":37.5,"humidity":36,"rain":0.0,"pressure":971.3,"uv_index":7.85,"wind_gusts":25.9,"aqi":136,"pm10":86.6,"pm2_5":45.4,"no2":5.9,"co":273.0,"o3":96.0,"so2":7.9,"mosquito_risk":0,"arthritis_risk":5,"migraine_risk":10,"frizz_risk":1,"updated_at":"2026-07-05T20:44:39.598588+05:30"},{"city":"Ajmer","state":"Rajasthan","latitude":26.4499,"longitude":74.6399,"temp":29.5,"humidity":78,"rain":0.0,"pressure":946.6,"uv_index":8.35,"wind_gusts":21.2,"aqi":90,"pm10":50.8,"pm2_5":29.0,"no2":16.6,"co":345.0,"o3":72.0,"so2":4.1,"mosquito_risk":7,"arthritis_risk":5,"migraine_risk":7,"frizz_risk":1,"updated_at":"2026-07-05T20:44:39.598597+05:30"},{"city":"Gwalior","state":"Madhya Pradesh","latitude":26.2183,"longitude":78.1828,"temp":31.0,"humidity":79,"rain":0.0,"pressure":974.5,"uv_index":7.0,"wind_gusts":24.8,"aqi":113,"pm10":23.2,"pm2_5":22.5,"no2":9.6,"co":478.0,"o3":95.0,"so2":5.0,"mosquito_risk":3,"arthritis_risk":5,"migraine_risk":7,"frizz_risk":1,"updated_at":"2026-07-05T20:44:39.598604+05:30"},{"city":"Indore","state":"Madhya Pradesh","latitude":22.7196,"longitude":75.8577,"temp":27.0,"humidity":91,"rain":0.0,"pressure":939.9,"uv_index":8.35,"wind_gusts":27.0,"aqi":61,"pm10":32.2,"pm2_5":31.5,"no2":22.2,"co":627.0,"o3":55.0,"so2":6.3,"mosquito_risk":7,"arthritis_risk":5,"migraine_risk":7,"frizz_risk":1,"updated_at":"2026-07-05T20:44:39.598612+05:30"},{"city":"Bhopal","state":"Madhya Pradesh","latitude":23.2599,"longitude":77.4126,"temp":26.3,"humidity":91,"rain":0.0,"pressure":945.7,"uv_index":8.55,"wind_gusts":19.4,"aqi":72,"pm10":21.7,"pm2_5":21.3,"no2":9.9,"co":604.0,"o3":77.0,"so2":3.3,"mosquito_risk":7,"arthritis_risk":5,"migraine_risk":7,"frizz_risk":1,"updated_at":"2026-07-05T20:44:39.598620+05:30"},{"city":"Jabalpur","state":"Madhya Pradesh","latitude":23.1815,"longitude":79.9864,"temp":26.2,"humidity":95,"rain":0.0,"pressure":953.6,"uv_index":7.6,"wind_gusts":35.6,"aqi":71,"pm10":16.2,"pm2_5":16.1,"no2":7.0,"co":265.0,"o3":80.0,"so2":2.4,"mosquito_risk":7,"arthritis_risk":5,"migraine_risk":7,"frizz_risk":1,"updated_at":"2026-07-05T20:44:39.598627+05:30"},{"city":"Ujjain","state":"Madhya Pradesh","latitude":23.1765,"longitude":75.7885,"temp":27.3,"humidity":88,"rain":0.0,"pressure":945.4,"uv_index":8.45,"wind_gusts":28.1,"aqi":58,"pm10":29.0,"pm2_5":27.8,"no2":11.5,"co":942.0,"o3":74.0,"so2":3.1,"mosquito_risk":7,"arthritis_risk":5,"migraine_risk":7,"frizz_risk":1,"updated_at":"2026-07-05T20:44:39.598636+05:30"},{"city":"Visakhapatnam","state":"Andhra Pradesh","latitude":17.6868,"longitude":83.2185,"temp":29.4,"humidity":66,"rain":0.0,"pressure":996.0,"uv_index":3.15,"wind_gusts":64.8,"aqi":30,"pm10":12.7,"pm2_5":9.1,"no2":10.6,"co":198.0,"o3":51.0,"so2":18.5,"mosquito_risk":7,"arthritis_risk":5,"migraine_risk":3,"frizz_risk":1,"updated_at":"2026-07-05T20:44:39.598644+05:30"},{"city":"Vijayawada","state":"Andhra Pradesh","latitude":16.5062,"longitude":80.648,"temp":31.6,"humidity":52,"rain":0.0,"pressure":996.9,"uv_index":4.15,"wind_gusts":46.1,"aqi":31,"pm10":20.9,"pm2_5":13.3,"no2":6.0,"co":167.0,"o3":58.0,"so2":4.9,"mosquito_risk":0,"arthritis_risk":5,"migraine_risk":3,"frizz_risk":1,"updated_at":"2026-07-05T20:44:39.598651+05:30"},{"city":"Guntur","state":"Andhra Pradesh","latitude":16.3067,"longitude":80.4365,"temp":32.2,"humidity":48,"rain":0.0,"pressure":998.3,"uv_index":7.35,"wind_gusts":55.8,"aqi":28,"pm10":19.9,"pm2_5":12.1,"no2":4.6,"co":137.0,"o3":60.0,"so2":4.2,"mosquito_risk":0,"arthritis_risk":5,"migraine_risk":7,"frizz_risk":1,"updated_at":"2026-07-05T20:44:39.598659+05:30"},{"city":"Nellore","state":"Andhra Pradesh","latitude":14.4426,"longitude":79.9865,"temp":33.7,"humidity":40,"rain":0.0,"pressure":1001.2,"uv_index":4.15,"wind_gusts":58.3,"aqi":34,"pm10":17.0,"pm2_5":9.2,"no2":3.3,"co":129.0,"o3":59.0,"so2":2.4,"mosquito_risk":0,"arthritis_risk":5,"migraine_risk":0,"frizz_risk":1,"updated_at":"2026-07-05T20:44:39.598668+05:30"},{"city":"Kurnool","state":"Andhra Pradesh","latitude":15.8281,"longitude":78.0373,"temp":28.1,"humidity":63,"rain":0.0,"pressure":973.4,"uv_index":7.0,"wind_gusts":71.6,"aqi":30,"pm10":6.4,"pm2_5":3.9,"no2":3.5,"co":106.0,"o3":49.0,"so2":2.3,"mosquito_risk":7,"arthritis_risk":5,"migraine_risk":7,"frizz_risk":1,"updated_at":"2026-07-05T20:44:39.598677+05:30"},{"city":"Kakinada","state":"Andhra Pradesh","latitude":16.9891,"longitude":82.2475,"temp":29.6,"humidity":67,"rain":0.0,"pressure":1001.1,"uv_index":3.0,"wind_gusts":85.0,"aqi":32,"pm10":17.6,"pm2_5":12.4,"no2":6.0,"co":188.0,"o3":59.0,"so2":4.3,"mosquito_risk":7,"arthritis_risk":5,"migraine_risk":0,"frizz_risk":1,"updated_at":"2026-07-05T20:44:39.598685+05:30"},{"city":"Tirupati","state":"Andhra Pradesh","latitude":13.6288,"longitude":79.4192,"temp":31.6,"humidity":43,"rain":0.0,"pressure":987.8,"uv_index":7.8,"wind_gusts":55.4,"aqi":35,"pm10":16.5,"pm2_5":10.3,"no2":4.1,"co":124.0,"o3":61.0,"so2":1.9,"mosquito_risk":0,"arthritis_risk":5,"migraine_risk":7,"frizz_risk":1,"updated_at":"2026-07-05T20:44:39.598692+05:30"},{"city":"Warangal","state":"Telangana","latitude":17.9689,"longitude":79.5941,"temp":25.8,"humidity":85,"rain":0.1,"pressure":972.7,"uv_index":1.0,"wind_gusts":53.3,"aqi":28,"pm10":4.2,"pm2_5":3.9,"no2":4.7,"co":132.0,"o3":49.0,"so2":2.5,"mosquito_risk":10,"arthritis_risk":5,"migraine_risk":3,"frizz_risk":1,"updated_at":"2026-07-05T20:44:39.598700+05:30"},{"city":"Nizamabad","state":"Telangana","latitude":18.6725,"longitude":78.0941,"temp":25.3,"humidity":86,"rain":0.1,"pressure":958.4,"uv_index":1.3,"wind_gusts":50.8,"aqi":28,"pm10":3.5,"pm2_5":3.0,"no2":4.4,"co":126.0,"o3":46.0,"so2":2.5,"mosquito_risk":10,"arthritis_risk":5,"migraine_risk":3,"frizz_risk":1,"updated_at":"2026-07-05T20:44:39.598708+05:30"},{"city":"Mysore","state":"Karnataka","latitude":12.2958,"longitude":76.6396,"temp":22.3,"humidity":87,"rain":0.0,"pressure":927.5,"uv_index":8.25,"wind_gusts":69.8,"aqi":28,"pm10":5.3,"pm2_5":3.8,"no2":4.4,"co":127.0,"o3":47.0,"so2":1.6,"mosquito_risk":3,"arthritis_risk":5,"migraine_risk":7,"frizz_risk":1,"updated_at":"2026-07-05T20:44:39.598716+05:30"},{"city":"Mangalore","state":"Karnataka","latitude":12.9141,"longitude":74.856,"temp":28.2,"humidity":76,"rain":0.0,"pressure":1006.3,"uv_index":6.25,"wind_gusts":60.8,"aqi":53,"pm10":26.3,"pm2_5":14.7,"no2":3.5,"co":103.0,"o3":47.0,"so2":1.7,"mosquito_risk":7,"arthritis_risk":5,"migraine_risk":4,"frizz_risk":1,"updated_at":"2026-07-05T20:44:39.598724+05:30"},{"city":"Hubli-Dharwad","state":"Karnataka","latitude":15.3647,"longitude":75.124,"temp":21.7,"humidity":96,"rain":0.1,"pressure":937.8,"uv_index":6.0,"wind_gusts":68.8,"aqi":25,"pm10":2.4,"pm2_5":1.6,"no2":2.9,"co":105.0,"o3":49.0,"so2":0.9,"mosquito_risk":6,"arthritis_risk":5,"migraine_risk":3,"frizz_risk":1,"updated_at":"2026-07-05T20:44:39.598732+05:30"},{"city":"Belgaum","state":"Karnataka","latitude":15.8497,"longitude":74.4977,"temp":21.5,"humidity":94,"rain":0.0,"pressure":922.0,"uv_index":3.9,"wind_gusts":61.9,"aqi":23,"pm10":2.2,"pm2_5":1.5,"no2":2.7,"co":107.0,"o3":53.0,"so2":1.0,"mosquito_risk":3,"arthritis_risk":5,"migraine_risk":3,"frizz_risk":1,"updated_at":"2026-07-05T20:44:42.983988+05:30"},{"city":"Coimbatore","state":"Tamil Nadu","latitude":11.0168,"longitude":76.9558,"temp":24.5,"humidity":82,"rain":0.0,"pressure":961.4,"uv_index":8.3,"wind_gusts":63.0,"aqi":27,"pm10":14.3,"pm2_5":9.1,"no2":5.6,"co":143.0,"o3":42.0,"so2":2.5,"mosquito_risk":3,"arthritis_risk":5,"migraine_risk":7,"frizz_risk":1,"updated_at":"2026-07-05T20:44:42.984020+05:30"},{"city":"Madurai","state":"Tamil Nadu","latitude":9.9252,"longitude":78.1198,"temp":29.9,"humidity":51,"rain":0.0,"pressure":992.3,"uv_index":8.25,"wind_gusts":69.8,"aqi":48,"pm10":24.0,"pm2_5":13.9,"no2":10.4,"co":129.0,"o3":50.0,"so2":3.8,"mosquito_risk":4,"arthritis_risk":5,"migraine_risk":7,"frizz_risk":1,"updated_at":"2026-07-05T20:44:42.984032+05:30"},{"city":"Trichy","state":"Tamil Nadu","latitude":10.7905,"longitude":78.7047,"temp":31.0,"humidity":46,"rain":0.0,"pressure":998.0,"uv_index":8.6,"wind_gusts":75.6,"aqi":37,"pm10":20.8,"pm2_5":11.6,"no2":4.1,"co":123.0,"o3":54.0,"so2":2.3,"mosquito_risk":0,"arthritis_risk":5,"migraine_risk":7,"frizz_risk":1,"updated_at":"2026-07-05T20:44:42.984041+05:30"},{"city":"Salem","state":"Tamil Nadu","latitude":11.6643,"longitude":78.146,"temp":27.2,"humidity":67,"rain":0.0,"pressure":976.2,"uv_index":6.65,"wind_gusts":41.8,"aqi":43,"pm10":18.8,"pm2_5":12.7,"no2":10.0,"co":217.0,"o3":47.0,"so2":4.6,"mosquito_risk":7,"arthritis_risk":5,"migraine_risk":7,"frizz_risk":1,"updated_at":"2026-07-05T20:44:42.984049+05:30"},{"city":"Tirunelveli","state":"Tamil Nadu","latitude":8.7139,"longitude":77.7567,"temp":29.6,"humidity":57,"rain":0.0,"pressure":1003.6,"uv_index":8.25,"wind_gusts":55.1,"aqi":37,"pm10":19.7,"pm2_5":11.1,"no2":4.5,"co":119.0,"o3":47.0,"so2":1.6,"mosquito_risk":4,"arthritis_risk":5,"migraine_risk":4,"frizz_risk":1,"updated_at":"2026-07-05T20:44:42.984058+05:30"},{"city":"Vellore","state":"Tamil Nadu","latitude":12.9165,"longitude":79.1325,"temp":31.8,"humidity":41,"rain":0.0,"pressure":981.8,"uv_index":8.1,"wind_gusts":60.1,"aqi":36,"pm10":18.9,"pm2_5":11.2,"no2":3.9,"co":126.0,"o3":64.0,"so2":2.3,"mosquito_risk":0,"arthritis_risk":5,"migraine_risk":7,"frizz_risk":1,"updated_at":"2026-07-05T20:44:42.984067+05:30"},{"city":"Erode","state":"Tamil Nadu","latitude":11.341,"longitude":77.7172,"temp":27.4,"humidity":71,"rain":0.0,"pressure":988.0,"uv_index":8.7,"wind_gusts":56.5,"aqi":35,"pm10":21.1,"pm2_5":14.1,"no2":11.4,"co":161.0,"o3":40.0,"so2":3.0,"mosquito_risk":7,"arthritis_risk":5,"migraine_risk":7,"frizz_risk":1,"updated_at":"2026-07-05T20:44:42.984074+05:30"},{"city":"Kochi","state":"Kerala","latitude":9.9312,"longitude":76.2673,"temp":28.1,"humidity":80,"rain":0.0,"pressure":1009.8,"uv_index":7.05,"wind_gusts":41.4,"aqi":54,"pm10":26.0,"pm2_5":17.9,"no2":14.7,"co":113.0,"o3":26.0,"so2":4.4,"mosquito_risk":7,"arthritis_risk":0,"migraine_risk":4,"frizz_risk":1,"updated_at":"2026-07-05T20:44:42.984082+05:30"},{"city":"Thiruvananthapuram","state":"Kerala","latitude":8.5241,"longitude":76.9366,"temp":26.4,"humidity":87,"rain":0.0,"pressure":1009.7,"uv_index":7.75,"wind_gusts":48.6,"aqi":51,"pm10":30.0,"pm2_5":14.2,"no2":2.8,"co":105.0,"o3":55.0,"so2":1.0,"mosquito_risk":7,"arthritis_risk":0,"migraine_risk":4,"frizz_risk":1,"updated_at":"2026-07-05T20:44:42.984090+05:30"},{"city":"Kozhikode","state":"Kerala","latitude":11.2588,"longitude":75.7804,"temp":25.2,"humidity":96,"rain":0.0,"pressure":1008.8,"uv_index":8.05,"wind_gusts":42.8,"aqi":48,"pm10":26.9,"pm2_5":12.7,"no2":1.0,"co":125.0,"o3":55.0,"so2":0.8,"mosquito_risk":7,"arthritis_risk":0,"migraine_risk":4,"frizz_risk":1,"updated_at":"2026-07-05T20:44:42.984098+05:30"},{"city":"Thrissur","state":"Kerala","latitude":10.5276,"longitude":76.2144,"temp":26.2,"humidity":91,"rain":0.0,"pressure":1008.0,"uv_index":6.8,"wind_gusts":46.1,"aqi":52,"pm10":21.0,"pm2_5":13.4,"no2":7.2,"co":133.0,"o3":38.0,"so2":2.8,"mosquito_risk":7,"arthritis_risk":0,"migraine_risk":4,"frizz_risk":1,"updated_at":"2026-07-05T20:44:42.984106+05:30"},{"city":"Kannur","state":"Kerala","latitude":11.8745,"longitude":75.3704,"temp":27.3,"humidity":82,"rain":0.1,"pressure":1007.5,"uv_index":8.15,"wind_gusts":51.1,"aqi":50,"pm10":25.2,"pm2_5":13.1,"no2":3.1,"co":113.0,"o3":48.0,"so2":1.3,"mosquito_risk":10,"arthritis_risk":5,"migraine_risk":4,"frizz_risk":1,"updated_at":"2026-07-05T20:44:42.984114+05:30"},{"city":"Patna","state":"Bihar","latitude":25.5941,"longitude":85.1376,"temp":30.3,"humidity":75,"rain":0.0,"pressure":992.1,"uv_index":8.05,"wind_gusts":55.1,"aqi":70,"pm10":17.7,"pm2_5":17.1,"no2":12.9,"co":287.0,"o3":74.0,"so2":7.6,"mosquito_risk":3,"arthritis_risk":5,"migraine_risk":7,"frizz_risk":1,"updated_at":"2026-07-05T20:44:42.984122+05:30"},{"city":"Gaya","state":"Bihar","latitude":24.7914,"longitude":85.0002,"temp":28.1,"humidity":88,"rain":0.0,"pressure":985.0,"uv_index":7.5,"wind_gusts":52.2,"aqi":63,"pm10":14.3,"pm2_5":14.2,"no2":9.4,"co":278.0,"o3":77.0,"so2":6.0,"mosquito_risk":7,"arthritis_risk":5,"migraine_risk":7,"frizz_risk":1,"updated_at":"2026-07-05T20:44:42.984129+05:30"},{"city":"Muzaffarpur","state":"Bihar","latitude":26.1209,"longitude":85.3647,"temp":30.8,"humidity":69,"rain":0.0,"pressure":992.2,"uv_index":8.5,"wind_gusts":53.3,"aqi":73,"pm10":20.7,"pm2_5":20.1,"no2":14.4,"co":244.0,"o3":74.0,"so2":6.9,"mosquito_risk":3,"arthritis_risk":5,"migraine_risk":7,"frizz_risk":1,"updated_at":"2026-07-05T20:44:42.984137+05:30"},{"city":"Bhagalpur","state":"Bihar","latitude":25.2425,"longitude":87.0117,"temp":29.0,"humidity":79,"rain":0.1,"pressure":992.6,"uv_index":8.6,"wind_gusts":59.8,"aqi":57,"pm10":11.6,"pm2_5":11.5,"no2":7.6,"co":164.0,"o3":79.0,"so2":4.7,"mosquito_risk":10,"arthritis_risk":5,"migraine_risk":7,"frizz_risk":1,"updated_at":"2026-07-05T20:44:42.984144+05:30"},{"city":"Ranchi","state":"Jharkhand","latitude":23.3441,"longitude":85.3096,"temp":23.6,"humidity":96,"rain":0.0,"pressure":928.1,"uv_index":5.25,"wind_gusts":51.1,"aqi":55,"pm10":14.6,"pm2_5":14.6,"no2":13.9,"co":217.0,"o3":73.0,"so2":19.6,"mosquito_risk":3,"arthritis_risk":5,"migraine_risk":3,"frizz_risk":1,"updated_at":"2026-07-05T20:44:42.984152+05:30"},{"city":"Jamshedpur","state":"Jharkhand","latitude":22.8046,"longitude":86.2029,"temp":26.4,"humidity":95,"rain":0.0,"pressure":979.6,"uv_index":7.0,"wind_gusts":46.4,"aqi":50,"pm10":14.8,"pm2_5":14.3,"no2":19.5,"co":396.0,"o3":51.0,"so2":25.7,"mosquito_risk":7,"arthritis_risk":5,"migraine_risk":7,"frizz_risk":1,"updated_at":"2026-07-05T20:44:42.984160+05:30"},{"city":"Dhanbad","state":"Jharkhand","latitude":23.7957,"longitude":86.4304,"temp":26.3,"humidity":90,"rain":0.0,"pressure":969.6,"uv_index":6.9,"wind_gusts":55.8,"aqi":66,"pm10":19.9,"pm2_5":19.7,"no2":25.3,"co":193.0,"o3":60.0,"so2":53.7,"mosquito_risk":7,"arthritis_risk":5,"migraine_risk":7,"frizz_risk":1,"updated_at":"2026-07-05T20:44:42.984168+05:30"},{"city":"Bokaro","state":"Jharkhand","latitude":23.6693,"longitude":86.1511,"temp":26.3,"humidity":92,"rain":0.1,"pressure":973.4,"uv_index":5.8,"wind_gusts":51.1,"aqi":66,"pm10":19.7,"pm2_5":19.5,"no2":23.7,"co":209.0,"o3":64.0,"so2":52.8,"mosquito_risk":10,"arthritis_risk":5,"migraine_risk":3,"frizz_risk":1,"updated_at":"2026-07-05T20:44:42.984176+05:30"},{"city":"Bhubaneswar","state":"Odisha","latitude":20.2961,"longitude":85.8245,"temp":26.8,"humidity":90,"rain":0.0,"pressure":990.9,"uv_index":2.35,"wind_gusts":40.7,"aqi":37,"pm10":7.2,"pm2_5":7.1,"no2":8.9,"co":221.0,"o3":57.0,"so2":4.0,"mosquito_risk":7,"arthritis_risk":5,"migraine_risk":3,"frizz_risk":1,"updated_at":"2026-07-05T20:44:42.984184+05:30"},{"city":"Cuttack","state":"Odisha","latitude":20.4625,"longitude":85.8828,"temp":26.7,"humidity":94,"rain":0.0,"pressure":992.4,"uv_index":2.6,"wind_gusts":37.8,"aqi":37,"pm10":7.2,"pm2_5":7.1,"no2":8.9,"co":245.0,"o3":57.0,"so2":4.0,"mosquito_risk":7,"arthritis_risk":5,"migraine_risk":3,"frizz_risk":1,"updated_at":"2026-07-05T20:44:42.984191+05:30"},{"city":"Rourkela","state":"Odisha","latitude":22.2604,"longitude":84.8536,"temp":25.9,"humidity":96,"rain":0.2,"pressure":974.4,"uv_index":6.25,"wind_gusts":46.1,"aqi":52,"pm10":18.7,"pm2_5":18.6,"no2":11.7,"co":353.0,"o3":69.0,"so2":9.8,"mosquito_risk":10,"arthritis_risk":5,"migraine_risk":7,"frizz_risk":1,"updated_at":"2026-07-05T20:44:42.984199+05:30"},{"city":"Raipur","state":"Chhattisgarh","latitude":21.2514,"longitude":81.6296,"temp":25.4,"humidity":97,"rain":0.7,"pressure":966.3,"uv_index":5.15,"wind_gusts":48.2,"aqi":66,"pm10":21.8,"pm2_5":21.7,"no2":24.0,"co":252.0,"o3":74.0,"so2":34.1,"mosquito_risk":10,"arthritis_risk":5,"migraine_risk":3,"frizz_risk":1,"updated_at":"2026-07-05T20:44:42.984206+05:30"},{"city":"Bhilai","state":"Chhattisgarh","latitude":21.1938,"longitude":81.3509,"temp":25.7,"humidity":96,"rain":0.7,"pressure":966.9,"uv_index":5.4,"wind_gusts":49.0,"aqi":59,"pm10":19.5,"pm2_5":19.3,"no2":18.1,"co":457.0,"o3":77.0,"so2":27.1,"mosquito_risk":10,"arthritis_risk":5,"migraine_risk":3,"frizz_risk":1,"updated_at":"2026-07-05T20:44:42.984214+05:30"},{"city":"Guwahati","state":"Assam","latitude":26.1158,"longitude":91.7086,"temp":28.2,"humidity":87,"rain":0.0,"pressure":995.3,"uv_index":8.55,"wind_gusts":37.4,"aqi":32,"pm10":8.7,"pm2_5":8.6,"no2":7.2,"co":201.0,"o3":36.0,"so2":1.3,"mosquito_risk":7,"arthritis_risk":5,"migraine_risk":7,"frizz_risk":1,"updated_at":"2026-07-05T20:44:42.984221+05:30"},{"city":"Agartala","state":"Tripura","latitude":23.8315,"longitude":91.2868,"temp":25.8,"humidity":97,"rain":0.1,"pressure":999.4,"uv_index":1.9,"wind_gusts":53.6,"aqi":32,"pm10":6.1,"pm2_5":5.7,"no2":7.1,"co":161.0,"o3":54.0,"so2":1.8,"mosquito_risk":10,"arthritis_risk":5,"migraine_risk":3,"frizz_risk":1,"updated_at":"2026-07-05T20:44:42.984229+05:30"},{"city":"Shillong","state":"Meghalaya","latitude":25.5788,"longitude":91.8933,"temp":20.1,"humidity":97,"rain":0.0,"pressure":853.6,"uv_index":8.5,"wind_gusts":42.8,"aqi":29,"pm10":5.3,"pm2_5":5.2,"no2":6.8,"co":257.0,"o3":47.0,"so2":1.8,"mosquito_risk":3,"arthritis_risk":5,"migraine_risk":7,"frizz_risk":1,"updated_at":"2026-07-05T20:44:42.984236+05:30"},{"city":"Imphal","state":"Manipur","latitude":24.817,"longitude":93.9368,"temp":24.3,"humidity":95,"rain":0.0,"pressure":920.4,"uv_index":3.1,"wind_gusts":30.6,"aqi":26,"pm10":8.4,"pm2_5":8.3,"no2":7.6,"co":367.0,"o3":35.0,"so2":2.1,"mosquito_risk":3,"arthritis_risk":5,"migraine_risk":3,"frizz_risk":1,"updated_at":"2026-07-05T20:44:42.984244+05:30"},{"city":"Aizawl","state":"Mizoram","latitude":23.7271,"longitude":92.7176,"temp":21.2,"humidity":96,"rain":0.0,"pressure":887.9,"uv_index":3.2,"wind_gusts":29.2,"aqi":22,"pm10":2.5,"pm2_5":2.5,"no2":3.4,"co":141.0,"o3":37.0,"so2":0.5,"mosquito_risk":3,"arthritis_risk":5,"migraine_risk":3,"frizz_risk":1,"updated_at":"2026-07-05T20:44:42.984251+05:30"},{"city":"Kohima","state":"Nagaland","latitude":25.6701,"longitude":94.1077,"temp":22.7,"humidity":86,"rain":0.0,"pressure":853.0,"uv_index":8.95,"wind_gusts":27.7,"aqi":27,"pm10":6.6,"pm2_5":6.4,"no2":9.0,"co":222.0,"o3":41.0,"so2":1.3,"mosquito_risk":3,"arthritis_risk":5,"migraine_risk":7,"frizz_risk":1,"updated_at":"2026-07-05T20:44:42.984258+05:30"},{"city":"Gangtok","state":"Sikkim","latitude":27.3314,"longitude":88.6138,"temp":19.6,"humidity":95,"rain":0.0,"pressure":835.2,"uv_index":8.2,"wind_gusts":32.8,"aqi":46,"pm10":5.6,"pm2_5":5.5,"no2":5.2,"co":270.0,"o3":101.0,"so2":1.2,"mosquito_risk":3,"arthritis_risk":10,"migraine_risk":7,"frizz_risk":1,"updated_at":"2026-07-05T20:44:42.984266+05:30"},{"city":"Siliguri","state":"West Bengal","latitude":26.7271,"longitude":88.3953,"temp":25.3,"humidity":99,"rain":0.2,"pressure":987.6,"uv_index":8.65,"wind_gusts":42.8,"aqi":57,"pm10":10.3,"pm2_5":10.2,"no2":6.3,"co":240.0,"o3":99.0,"so2":2.8,"mosquito_risk":10,"arthritis_risk":5,"migraine_risk":7,"frizz_risk":1,"updated_at":"2026-07-05T20:44:46.407187+05:30"},{"city":"Durgapur","state":"West Bengal","latitude":23.5204,"longitude":87.3119,"temp":27.3,"humidity":88,"rain":0.0,"pressure":983.8,"uv_index":6.7,"wind_gusts":54.0,"aqi":55,"pm10":18.0,"pm2_5":17.5,"no2":19.1,"co":305.0,"o3":54.0,"so2":20.1,"mosquito_risk":7,"arthritis_risk":5,"migraine_risk":7,"frizz_risk":1,"updated_at":"2026-07-05T20:44:46.407220+05:30"},{"city":"Asansol","state":"West Bengal","latitude":23.6739,"longitude":86.9524,"temp":27.2,"humidity":86,"rain":0.0,"pressure":982.7,"uv_index":6.8,"wind_gusts":54.7,"aqi":55,"pm10":14.5,"pm2_5":14.3,"no2":18.1,"co":297.0,"o3":60.0,"so2":19.5,"mosquito_risk":7,"arthritis_risk":5,"migraine_risk":7,"frizz_risk":1,"updated_at":"2026-07-05T20:44:46.407232+05:30"},{"city":"Pondicherry","state":"Puducherry","latitude":11.9139,"longitude":79.8145,"temp":32.9,"humidity":46,"rain":0.0,"pressure":1005.3,"uv_index":8.35,"wind_gusts":51.5,"aqi":52,"pm10":20.1,"pm2_5":12.7,"no2":10.8,"co":198.0,"o3":59.0,"so2":10.6,"mosquito_risk":0,"arthritis_risk":5,"migraine_risk":4,"frizz_risk":1,"updated_at":"2026-07-05T20:44:46.407241+05:30"},{"city":"Port Blair","state":"Andaman and Nicobar Islands","latitude":11.6234,"longitude":92.7265,"temp":28.1,"humidity":84,"rain":0.0,"pressure":1008.0,"uv_index":8.15,"wind_gusts":47.9,"aqi":51,"pm10":19.4,"pm2_5":11.4,"no2":0.3,"co":95.0,"o3":50.0,"so2":0.5,"mosquito_risk":7,"arthritis_risk":0,"migraine_risk":4,"frizz_risk":1,"updated_at":"2026-07-05T20:44:46.407250+05:30"},{"city":"Haridwar","state":"Uttarakhand","latitude":29.9457,"longitude":78.1642,"temp":29.9,"humidity":82,"rain":0.0,"pressure":966.2,"uv_index":6.95,"wind_gusts":22.7,"aqi":123,"pm10":44.9,"pm2_5":44.6,"no2":13.7,"co":377.0,"o3":105.0,"so2":8.0,"mosquito_risk":7,"arthritis_risk":5,"migraine_risk":7,"frizz_risk":1,"updated_at":"2026-07-05T20:44:46.407259+05:30"},{"city":"Rishikesh","state":"Uttarakhand","latitude":30.0869,"longitude":78.2676,"temp":28.8,"humidity":84,"rain":0.0,"pressure":959.3,"uv_index":6.95,"wind_gusts":23.8,"aqi":95,"pm10":28.2,"pm2_5":27.9,"no2":6.2,"co":395.0,"o3":110.0,"so2":4.6,"mosquito_risk":7,"arthritis_risk":5,"migraine_risk":7,"frizz_risk":1,"updated_at":"2026-07-05T20:44:46.407267+05:30"},{"city":"Nainital","state":"Uttarakhand","latitude":29.3919,"longitude":79.4542,"temp":18.0,"humidity":100,"rain":0.1,"pressure":802.4,"uv_index":6.45,"wind_gusts":26.3,"aqi":60,"pm10":15.1,"pm2_5":15.0,"no2":11.4,"co":312.0,"o3":78.0,"so2":2.5,"mosquito_risk":6,"arthritis_risk":10,"migraine_risk":7,"frizz_risk":1,"updated_at":"2026-07-05T20:44:46.407276+05:30"},{"city":"Mussoorie","state":"Uttarakhand","latitude":30.4599,"longitude":78.0664,"temp":18.5,"humidity":99,"rain":0.0,"pressure":799.9,"uv_index":6.2,"wind_gusts":35.3,"aqi":123,"pm10":46.9,"pm2_5":46.3,"no2":16.6,"co":379.0,"o3":126.0,"so2":10.7,"mosquito_risk":3,"arthritis_risk":10,"migraine_risk":7,"frizz_risk":1,"updated_at":"2026-07-05T20:44:46.407285+05:30"},{"city":"Dharamshala","state":"Himachal Pradesh","latitude":32.219,"longitude":76.3234,"temp":23.3,"humidity":82,"rain":0.0,"pressure":863.4,"uv_index":8.25,"wind_gusts":30.2,"aqi":63,"pm10":4.4,"pm2_5":4.3,"no2":10.6,"co":391.0,"o3":72.0,"so2":0.7,"mosquito_risk":3,"arthritis_risk":5,"migraine_risk":7,"frizz_risk":1,"updated_at":"2026-07-05T20:44:46.407312+05:30"},{"city":"Dalhousie","state":"Himachal Pradesh","latitude":32.5387,"longitude":75.971,"temp":18.8,"humidity":97,"rain":0.0,"pressure":799.8,"uv_index":8.0,"wind_gusts":27.7,"aqi":149,"pm10":42.8,"pm2_5":37.0,"no2":18.6,"co":536.0,"o3":126.0,"so2":3.6,"mosquito_risk":3,"arthritis_risk":10,"migraine_risk":7,"frizz_risk":1,"updated_at":"2026-07-05T20:44:46.407324+05:30"},{"city":"Patiala","state":"Punjab","latitude":30.3398,"longitude":76.3869,"temp":30.9,"humidity":81,"rain":0.0,"pressure":969.2,"uv_index":6.9,"wind_gusts":18.7,"aqi":173,"pm10":129.9,"pm2_5":108.5,"no2":39.0,"co":762.0,"o3":99.0,"so2":16.3,"mosquito_risk":3,"arthritis_risk":5,"migraine_risk":7,"frizz_risk":1,"updated_at":"2026-07-05T20:44:46.407332+05:30"},{"city":"Bhatinda","state":"Punjab","latitude":30.211,"longitude":74.9455,"temp":33.7,"humidity":64,"rain":0.0,"pressure":974.2,"uv_index":7.45,"wind_gusts":23.0,"aqi":187,"pm10":140.6,"pm2_5":85.7,"no2":34.6,"co":555.0,"o3":111.0,"so2":19.3,"mosquito_risk":3,"arthritis_risk":5,"migraine_risk":7,"frizz_risk":1,"updated_at":"2026-07-05T20:44:46.407340+05:30"},{"city":"Rohtak","state":"Haryana","latitude":28.8955,"longitude":76.6066,"temp":31.8,"humidity":72,"rain":0.0,"pressure":972.9,"uv_index":7.4,"wind_gusts":31.3,"aqi":202,"pm10":66.4,"pm2_5":50.6,"no2":25.9,"co":791.0,"o3":140.0,"so2":23.2,"mosquito_risk":3,"arthritis_risk":5,"migraine_risk":7,"frizz_risk":1,"updated_at":"2026-07-05T20:44:46.407347+05:30"},{"city":"Panipat","state":"Haryana","latitude":29.3909,"longitude":76.9635,"temp":30.5,"humidity":79,"rain":0.0,"pressure":971.8,"uv_index":6.95,"wind_gusts":37.8,"aqi":189,"pm10":95.2,"pm2_5":75.7,"no2":27.5,"co":565.0,"o3":115.0,"so2":25.1,"mosquito_risk":3,"arthritis_risk":5,"migraine_risk":7,"frizz_risk":1,"updated_at":"2026-07-05T20:44:46.407355+05:30"},{"city":"Mathura","state":"Uttar Pradesh","latitude":27.4924,"longitude":77.6737,"temp":32.5,"humidity":71,"rain":0.0,"pressure":977.9,"uv_index":7.05,"wind_gusts":32.0,"aqi":115,"pm10":97.3,"pm2_5":48.5,"no2":40.9,"co":426.0,"o3":69.0,"so2":9.4,"mosquito_risk":3,"arthritis_risk":5,"migraine_risk":7,"frizz_risk":1,"updated_at":"2026-07-05T20:44:46.407363+05:30"},{"city":"Vrindavan","state":"Uttar Pradesh","latitude":27.5823,"longitude":77.7027,"temp":32.8,"humidity":72,"rain":0.0,"pressure":978.3,"uv_index":6.7,"wind_gusts":30.6,"aqi":115,"pm10":97.3,"pm2_5":48.5,"no2":40.9,"co":417.0,"o3":69.0,"so2":9.4,"mosquito_risk":3,"arthritis_risk":5,"migraine_risk":7,"frizz_risk":1,"updated_at":"2026-07-05T20:44:46.407371+05:30"},{"city":"Ayodhya","state":"Uttar Pradesh","latitude":26.7922,"longitude":82.1998,"temp":31.2,"humidity":72,"rain":0.0,"pressure":987.4,"uv_index":8.3,"wind_gusts":41.0,"aqi":104,"pm10":32.5,"pm2_5":32.2,"no2":16.2,"co":353.0,"o3":84.0,"so2":6.0,"mosquito_risk":3,"arthritis_risk":5,"migraine_risk":7,"frizz_risk":1,"updated_at":"2026-07-05T20:44:46.407378+05:30"},{"city":"Ratlam","state":"Madhya Pradesh","latitude":23.3315,"longitude":75.0367,"temp":26.2,"humidity":92,"rain":0.0,"pressure":946.6,"uv_index":8.45,"wind_gusts":33.8,"aqi":53,"pm10":26.3,"pm2_5":25.0,"no2":9.3,"co":312.0,"o3":73.0,"so2":3.2,"mosquito_risk":7,"arthritis_risk":5,"migraine_risk":7,"frizz_risk":1,"updated_at":"2026-07-05T20:44:46.407386+05:30"},{"city":"Sagar","state":"Madhya Pradesh","latitude":23.8388,"longitude":78.7378,"temp":25.6,"humidity":99,"rain":0.1,"pressure":942.9,"uv_index":8.1,"wind_gusts":23.0,"aqi":73,"pm10":17.1,"pm2_5":16.8,"no2":8.4,"co":233.0,"o3":74.0,"so2":2.4,"mosquito_risk":10,"arthritis_risk":5,"migraine_risk":7,"frizz_risk":1,"updated_at":"2026-07-05T20:44:46.407394+05:30"},{"city":"Satna","state":"Madhya Pradesh","latitude":24.6005,"longitude":80.8322,"temp":25.2,"humidity":98,"rain":0.2,"pressure":963.6,"uv_index":8.2,"wind_gusts":34.6,"aqi":108,"pm10":15.5,"pm2_5":15.3,"no2":7.1,"co":248.0,"o3":98.0,"so2":3.0,"mosquito_risk":10,"arthritis_risk":5,"migraine_risk":7,"frizz_risk":1,"updated_at":"2026-07-05T20:44:46.407402+05:30"},{"city":"Akola","state":"Maharashtra","latitude":20.7002,"longitude":77.0082,"temp":27.8,"humidity":82,"rain":0.0,"pressure":966.7,"uv_index":6.45,"wind_gusts":31.0,"aqi":40,"pm10":6.0,"pm2_5":6.0,"no2":8.9,"co":156.0,"o3":52.0,"so2":3.7,"mosquito_risk":7,"arthritis_risk":5,"migraine_risk":7,"frizz_risk":1,"updated_at":"2026-07-05T20:44:46.407410+05:30"},{"city":"Amravati","state":"Maharashtra","latitude":20.9374,"longitude":77.7796,"temp":28.0,"humidity":83,"rain":0.0,"pressure":959.5,"uv_index":7.35,"wind_gusts":35.3,"aqi":41,"pm10":5.3,"pm2_5":5.3,"no2":8.5,"co":269.0,"o3":50.0,"so2":3.3,"mosquito_risk":7,"arthritis_risk":5,"migraine_risk":7,"frizz_risk":1,"updated_at":"2026-07-05T20:44:46.407419+05:30"},{"city":"Latur","state":"Maharashtra","latitude":18.4088,"longitude":76.5604,"temp":23.8,"humidity":89,"rain":0.0,"pressure":933.5,"uv_index":1.25,"wind_gusts":59.4,"aqi":24,"pm10":2.7,"pm2_5":2.5,"no2":3.9,"co":124.0,"o3":46.0,"so2":1.6,"mosquito_risk":3,"arthritis_risk":5,"migraine_risk":3,"frizz_risk":1,"updated_at":"2026-07-05T20:44:46.407427+05:30"},{"city":"Nanded","state":"Maharashtra","latitude":19.1383,"longitude":77.3091,"temp":25.8,"humidity":86,"rain":0.1,"pressure":961.9,"uv_index":5.75,"wind_gusts":47.9,"aqi":28,"pm10":3.0,"pm2_5":2.7,"no2":4.7,"co":135.0,"o3":46.0,"so2":3.4,"mosquito_risk":10,"arthritis_risk":5,"migraine_risk":3,"frizz_risk":1,"updated_at":"2026-07-05T20:44:46.407435+05:30"},{"city":"Gulbarga","state":"Karnataka","latitude":17.3297,"longitude":76.8343,"temp":25.8,"humidity":74,"rain":0.0,"pressure":953.9,"uv_index":5.1,"wind_gusts":72.0,"aqi":26,"pm10":3.0,"pm2_5":2.5,"no2":5.4,"co":117.0,"o3":46.0,"so2":2.2,"mosquito_risk":7,"arthritis_risk":5,"migraine_risk":3,"frizz_risk":1,"updated_at":"2026-07-05T20:44:46.407443+05:30"},{"city":"Bidar","state":"Karnataka","latitude":17.9104,"longitude":77.5199,"temp":23.1,"humidity":93,"rain":0.0,"pressure":929.6,"uv_index":1.8,"wind_gusts":59.8,"aqi":25,"pm10":2.7,"pm2_5":2.6,"no2":5.6,"co":121.0,"o3":47.0,"so2":1.8,"mosquito_risk":3,"arthritis_risk":5,"migraine_risk":3,"frizz_risk":1,"updated_at":"2026-07-05T20:44:46.407450+05:30"},{"city":"Hospet","state":"Karnataka","latitude":15.2689,"longitude":76.3909,"temp":24.4,"humidity":81,"rain":0.0,"pressure":953.1,"uv_index":2.3,"wind_gusts":78.5,"aqi":26,"pm10":4.8,"pm2_5":3.1,"no2":3.7,"co":115.0,"o3":48.0,"so2":1.3,"mosquito_risk":3,"arthritis_risk":5,"migraine_risk":3,"frizz_risk":1,"updated_at":"2026-07-05T20:44:46.407457+05:30"},{"city":"Tirupur","state":"Tamil Nadu","latitude":11.1085,"longitude":77.3411,"temp":26.3,"humidity":74,"rain":0.0,"pressure":974.0,"uv_index":7.55,"wind_gusts":71.3,"aqi":37,"pm10":20.9,"pm2_5":14.8,"no2":13.9,"co":127.0,"o3":36.0,"so2":4.1,"mosquito_risk":7,"arthritis_risk":5,"migraine_risk":7,"frizz_risk":1,"updated_at":"2026-07-05T20:44:46.407465+05:30"},{"city":"Alappuzha","state":"Kerala","latitude":9.4981,"longitude":76.3388,"temp":28.0,"humidity":81,"rain":0.0,"pressure":1010.1,"uv_index":8.45,"wind_gusts":42.1,"aqi":52,"pm10":31.1,"pm2_5":17.7,"no2":9.1,"co":87.0,"o3":44.0,"so2":2.5,"mosquito_risk":7,"arthritis_risk":0,"migraine_risk":4,"frizz_risk":1,"updated_at":"2026-07-05T20:44:46.407473+05:30"},{"city":"Munnar","state":"Kerala","latitude":10.0889,"longitude":77.0595,"temp":16.2,"humidity":97,"rain":0.1,"pressure":856.5,"uv_index":4.55,"wind_gusts":58.0,"aqi":25,"pm10":14.4,"pm2_5":9.0,"no2":6.3,"co":95.0,"o3":38.0,"so2":2.0,"mosquito_risk":6,"arthritis_risk":10,"migraine_risk":3,"frizz_risk":0,"updated_at":"2026-07-05T20:44:46.407481+05:30"},{"city":"Silchar","state":"Assam","latitude":24.8333,"longitude":92.7789,"temp":26.7,"humidity":97,"rain":0.2,"pressure":999.9,"uv_index":8.95,"wind_gusts":34.2,"aqi":45,"pm10":16.1,"pm2_5":16.0,"no2":7.9,"co":194.0,"o3":43.0,"so2":3.1,"mosquito_risk":10,"arthritis_risk":5,"migraine_risk":7,"frizz_risk":1,"updated_at":"2026-07-05T20:44:46.407489+05:30"},{"city":"Dibrugarh","state":"Assam","latitude":27.4728,"longitude":94.912,"temp":30.9,"humidity":77,"rain":0.0,"pressure":989.2,"uv_index":8.95,"wind_gusts":26.3,"aqi":41,"pm10":19.2,"pm2_5":19.0,"no2":14.0,"co":191.0,"o3":29.0,"so2":2.1,"mosquito_risk":3,"arthritis_risk":5,"migraine_risk":7,"frizz_risk":1,"updated_at":"2026-07-05T20:44:46.407497+05:30"}]