[{"city":"Delhi","state":"Delhi","latitude":28.6139,"longitude":77.209,"temp":34.1,"humidity":35,"rain":0.0,"pressure":984.6,"uv_index":7.0,"wind_gusts":19.1,"aqi":153,"pm10":153.7,"pm2_5":51.8,"mosquito_risk":0,"arthritis_risk":5,"migraine_risk":7,"frizz_risk":1,"updated_at":"2026-04-18T10:39:30.903808+05:30"},{"city":"Mumbai","state":"Maharashtra","latitude":19.076,"longitude":72.8777,"temp":29.3,"humidity":80,"rain":0.0,"pressure":1008.9,"uv_index":6.95,"wind_gusts":24.1,"aqi":97,"pm10":100.1,"pm2_5":42.6,"mosquito_risk":7,"arthritis_risk":0,"migraine_risk":4,"frizz_risk":1,"updated_at":"2026-04-18T10:39:30.903852+05:30"},{"city":"Bangalore","state":"Karnataka","latitude":12.9716,"longitude":77.5946,"temp":30.0,"humidity":54,"rain":0.0,"pressure":913.9,"uv_index":8.9,"wind_gusts":34.6,"aqi":98,"pm10":46.6,"pm2_5":37.7,"mosquito_risk":4,"arthritis_risk":5,"migraine_risk":7,"frizz_risk":1,"updated_at":"2026-04-18T10:39:30.903867+05:30"},{"city":"Hyderabad","state":"Telangana","latitude":17.385,"longitude":78.4867,"temp":36.4,"humidity":27,"rain":0.0,"pressure":955.0,"uv_index":9.25,"wind_gusts":47.2,"aqi":92,"pm10":37.8,"pm2_5":31.9,"mosquito_risk":0,"arthritis_risk":5,"migraine_risk":10,"frizz_risk":0,"updated_at":"2026-04-18T10:39:30.903877+05:30"},{"city":"Chennai","state":"Tamil Nadu","latitude":13.0827,"longitude":80.2707,"temp":33.6,"humidity":56,"rain":0.0,"pressure":1008.5,"uv_index":8.65,"wind_gusts":31.7,"aqi":44,"pm10":15.0,"pm2_5":9.5,"mosquito_risk":0,"arthritis_risk":0,"migraine_risk":4,"frizz_risk":1,"updated_at":"2026-04-18T10:39:30.903886+05:30"},{"city":"Kolkata","state":"West Bengal","latitude":22.5726,"longitude":88.3639,"temp":32.3,"humidity":71,"rain":0.0,"pressure":1007.2,"uv_index":8.85,"wind_gusts":26.3,"aqi":65,"pm10":37.7,"pm2_5":29.3,"mosquito_risk":3,"arthritis_risk":5,"migraine_risk":4,"frizz_risk":1,"updated_at":"2026-04-18T10:39:30.903898+05:30"},{"city":"Pune","state":"Maharashtra","latitude":18.5204,"longitude":73.8567,"temp":34.6,"humidity":33,"rain":0.0,"pressure":950.0,"uv_index":8.6,"wind_gusts":30.2,"aqi":89,"pm10":29.3,"pm2_5":18.9,"mosquito_risk":0,"arthritis_risk":5,"migraine_risk":7,"frizz_risk":0,"updated_at":"2026-04-18T10:39:30.903907+05:30"},{"city":"Ahmedabad","state":"Gujarat","latitude":23.0225,"longitude":72.5714,"temp":34.0,"humidity":38,"rain":0.0,"pressure":1003.9,"uv_index":8.15,"wind_gusts":26.6,"aqi":63,"pm10":45.6,"pm2_5":17.2,"mosquito_risk":0,"arthritis_risk":5,"migraine_risk":4,"frizz_risk":1,"updated_at":"2026-04-18T10:39:30.903916+05:30"},{"city":"Jaipur","state":"Rajasthan","latitude":26.9124,"longitude":75.7873,"temp":35.9,"humidity":25,"rain":0.0,"pressure":961.9,"uv_index":7.95,"wind_gusts":30.2,"aqi":179,"pm10":324.1,"pm2_5":56.5,"mosquito_risk":0,"arthritis_risk":5,"migraine_risk":10,"frizz_risk":0,"updated_at":"2026-04-18T10:39:30.903924+05:30"},{"city":"Lucknow","state":"Uttar Pradesh","latitude":26.8467,"longitude":80.9462,"temp":35.2,"humidity":33,"rain":0.0,"pressure":994.2,"uv_index":7.85,"wind_gusts":31.3,"aqi":124,"pm10":82.7,"pm2_5":29.4,"mosquito_risk":0,"arthritis_risk":5,"migraine_risk":10,"frizz_risk":1,"updated_at":"2026-04-18T10:39:30.903932+05:30"},{"city":"Kanpur","state":"Uttar Pradesh","latitude":26.4499,"longitude":80.3319,"temp":34.9,"humidity":43,"rain":0.0,"pressure":992.7,"uv_index":7.85,"wind_gusts":25.2,"aqi":110,"pm10":170.0,"pm2_5":38.5,"mosquito_risk":0,"arthritis_risk":5,"migraine_risk":7,"frizz_risk":1,"updated_at":"2026-04-18T10:39:30.903939+05:30"},{"city":"Chandigarh","state":"Chandigarh","latitude":30.7333,"longitude":76.7794,"temp":32.0,"humidity":38,"rain":0.0,"pressure":970.9,"uv_index":7.15,"wind_gusts":21.2,"aqi":58,"pm10":51.3,"pm2_5":15.4,"mosquito_risk":0,"arthritis_risk":5,"migraine_risk":7,"frizz_risk":0,"updated_at":"2026-04-18T10:39:30.903946+05:30"},{"city":"Srinagar","state":"Jammu and Kashmir","latitude":34.0837,"longitude":74.7973,"temp":15.2,"humidity":77,"rain":0.0,"pressure":847.4,"uv_index":6.85,"wind_gusts":28.8,"aqi":74,"pm10":32.8,"pm2_5":12.9,"mosquito_risk":3,"arthritis_risk":5,"migraine_risk":7,"frizz_risk":0,"updated_at":"2026-04-18T10:39:30.903954+05:30"},{"city":"Jammu","state":"Jammu and Kashmir","latitude":32.7266,"longitude":74.857,"temp":28.6,"humidity":43,"rain":0.0,"pressure":976.3,"uv_index":6.9,"wind_gusts":37.8,"aqi":58,"pm10":39.0,"pm2_5":12.9,"mosquito_risk":4,"arthritis_risk":5,"migraine_risk":7,"frizz_risk":0,"updated_at":"2026-04-18T10:39:30.903961+05:30"},{"city":"Amritsar","state":"Punjab","latitude":31.634,"longitude":74.8723,"temp":31.3,"humidity":38,"rain":0.0,"pressure":984.0,"uv_index":6.75,"wind_gusts":42.5,"aqi":60,"pm10":49.0,"pm2_5":16.5,"mosquito_risk":0,"arthritis_risk":5,"migraine_risk":7,"frizz_risk":0,"updated_at":"2026-04-18T10:39:30.903968+05:30"},{"city":"Ludhiana","state":"Punjab","latitude":30.901,"longitude":75.8573,"temp":32.7,"humidity":31,"rain":0.0,"pressure":981.3,"uv_index":7.2,"wind_gusts":28.1,"aqi":65,"pm10":34.9,"pm2_5":18.4,"mosquito_risk":0,"arthritis_risk":5,"migraine_risk":7,"frizz_risk":0,"updated_at":"2026-04-18T10:39:30.903976+05:30"},{"city":"Jalandhar","state":"Punjab","latitude":31.326,"longitude":75.5762,"temp":32.9,"humidity":31,"rain":0.0,"pressure":982.6,"uv_index":6.45,"wind_gusts":42.1,"aqi":59,"pm10":61.0,"pm2_5":20.1,"mosquito_risk":0,"arthritis_risk":5,"migraine_risk":7,"frizz_risk":0,"updated_at":"2026-04-18T10:39:30.903983+05:30"},{"city":"Dehradun","state":"Uttarakhand","latitude":30.6284,"longitude":78.0322,"temp":25.8,"humidity":28,"rain":0.0,"pressure":836.0,"uv_index":7.65,"wind_gusts":42.1,"aqi":36,"pm10":33.6,"pm2_5":8.1,"mosquito_risk":4,"arthritis_risk":5,"migraine_risk":7,"frizz_risk":0,"updated_at":"2026-04-18T10:39:30.903990+05:30"},{"city":"Shimla","state":"Himachal Pradesh","latitude":31.1048,"longitude":77.1734,"temp":24.5,"humidity":28,"rain":0.0,"pressure":791.9,"uv_index":7.2,"wind_gusts":44.6,"aqi":42,"pm10":36.6,"pm2_5":8.9,"mosquito_risk":0,"arthritis_risk":5,"migraine_risk":7,"frizz_risk":0,"updated_at":"2026-04-18T10:39:30.903997+05:30"},{"city":"Manali","state":"Himachal Pradesh","latitude":32.2396,"longitude":77.1887,"temp":21.6,"humidity":36,"rain":0.0,"pressure":827.5,"uv_index":8.35,"wind_gusts":25.2,"aqi":49,"pm10":46.7,"pm2_5":8.5,"mosquito_risk":0,"arthritis_risk":5,"migraine_risk":7,"frizz_risk":0,"updated_at":"2026-04-18T10:39:30.904004+05:30"},{"city":"Gurgaon","state":"Haryana","latitude":28.4595,"longitude":77.0266,"temp":33.7,"humidity":40,"rain":0.0,"pressure":983.2,"uv_index":7.0,"wind_gusts":22.7,"aqi":527,"pm10":311.1,"pm2_5":74.7,"mosquito_risk":0,"arthritis_risk":5,"migraine_risk":7,"frizz_risk":1,"updated_at":"2026-04-18T10:39:30.904010+05:30"},{"city":"Noida","state":"Uttar Pradesh","latitude":28.5355,"longitude":77.391,"temp":34.2,"humidity":36,"rain":0.0,"pressure":986.2,"uv_index":7.1,"wind_gusts":21.2,"aqi":527,"pm10":311.1,"pm2_5":74.7,"mosquito_risk":0,"arthritis_risk":5,"migraine_risk":7,"frizz_risk":1,"updated_at":"2026-04-18T10:39:30.904016+05:30"},{"city":"Ghaziabad","state":"Uttar Pradesh","latitude":28.6692,"longitude":77.4538,"temp":33.3,"humidity":41,"rain":0.0,"pressure":984.6,"uv_index":6.95,"wind_gusts":14.0,"aqi":129,"pm10":96.2,"pm2_5":37.1,"mosquito_risk":0,"arthritis_risk":5,"migraine_risk":7,"frizz_risk":1,"updated_at":"2026-04-18T10:39:30.904023+05:30"},{"city":"Faridabad","state":"Haryana","latitude":28.4089,"longitude":77.3178,"temp":34.8,"humidity":33,"rain":0.0,"pressure":985.5,"uv_index":6.9,"wind_gusts":25.9,"aqi":527,"pm10":311.1,"pm2_5":74.7,"mosquito_risk":0,"arthritis_risk":5,"migraine_risk":7,"frizz_risk":1,"updated_at":"2026-04-18T10:39:30.904049+05:30"},{"city":"Meerut","state":"Uttar Pradesh","latitude":28.9845,"longitude":77.7064,"temp":33.9,"humidity":39,"rain":0.0,"pressure":983.2,"uv_index":6.75,"wind_gusts":20.2,"aqi":129,"pm10":96.2,"pm2_5":37.1,"mosquito_risk":0,"arthritis_risk":5,"migraine_risk":7,"frizz_risk":1,"updated_at":"2026-04-18T10:39:30.904057+05:30"},{"city":"Agra","state":"Uttar Pradesh","latitude":27.1767,"longitude":78.0081,"temp":35.0,"humidity":36,"rain":0.0,"pressure":989.1,"uv_index":7.7,"wind_gusts":20.9,"aqi":604,"pm10":278.5,"pm2_5":63.6,"mosquito_risk":0,"arthritis_risk":5,"migraine_risk":7,"frizz_risk":1,"updated_at":"2026-04-18T10:39:30.904066+05:30"},{"city":"Varanasi","state":"Uttar Pradesh","latitude":25.3176,"longitude":82.9739,"temp":36.7,"humidity":31,"rain":0.0,"pressure":998.1,"uv_index":8.0,"wind_gusts":27.7,"aqi":110,"pm10":99.9,"pm2_5":30.9,"mosquito_risk":0,"arthritis_risk":5,"migraine_risk":10,"frizz_risk":1,"updated_at":"2026-04-18T10:39:30.904075+05:30"},{"city":"Prayagraj","state":"Uttar Pradesh","latitude":25.4358,"longitude":81.8463,"temp":36.3,"humidity":31,"rain":0.0,"pressure":996.8,"uv_index":7.95,"wind_gusts":28.1,"aqi":106,"pm10":76.6,"pm2_5":33.5,"mosquito_risk":0,"arthritis_risk":5,"migraine_risk":10,"frizz_risk":1,"updated_at":"2026-04-18T10:39:30.904082+05:30"},{"city":"Gorakhpur","state":"Uttar Pradesh","latitude":26.7606,"longitude":83.3732,"temp":33.8,"humidity":54,"rain":0.0,"pressure":997.6,"uv_index":8.2,"wind_gusts":32.0,"aqi":155,"pm10":78.2,"pm2_5":62.9,"mosquito_risk":0,"arthritis_risk":5,"migraine_risk":7,"frizz_risk":1,"updated_at":"2026-04-18T10:39:30.904089+05:30"},{"city":"Bareilly","state":"Uttar Pradesh","latitude":28.367,"longitude":79.4304,"temp":34.2,"humidity":37,"rain":0.0,"pressure":988.0,"uv_index":7.6,"wind_gusts":29.9,"aqi":77,"pm10":40.6,"pm2_5":24.2,"mosquito_risk":0,"arthritis_risk":5,"migraine_risk":7,"frizz_risk":1,"updated_at":"2026-04-18T10:39:30.904095+05:30"},{"city":"Aligarh","state":"Uttar Pradesh","latitude":27.8974,"longitude":78.088,"temp":36.7,"humidity":25,"rain":0.0,"pressure":987.0,"uv_index":7.35,"wind_gusts":25.6,"aqi":172,"pm10":182.5,"pm2_5":42.8,"mosquito_risk":0,"arthritis_risk":5,"migraine_risk":10,"frizz_risk":0,"updated_at":"2026-04-18T10:39:30.904102+05:30"},{"city":"Moradabad","state":"Uttar Pradesh","latitude":28.8386,"longitude":78.7733,"temp":34.0,"humidity":38,"rain":0.0,"pressure":985.1,"uv_index":7.45,"wind_gusts":27.4,"aqi":88,"pm10":39.5,"pm2_5":25.0,"mosquito_risk":0,"arthritis_risk":5,"migraine_risk":7,"frizz_risk":1,"updated_at":"2026-04-18T10:39:30.904108+05:30"},{"city":"Saharanpur","state":"Uttar Pradesh","latitude":29.9637,"longitude":77.546,"temp":32.7,"humidity":35,"rain":0.0,"pressure":977.7,"uv_index":7.0,"wind_gusts":21.2,"aqi":101,"pm10":37.3,"pm2_5":17.9,"mosquito_risk":0,"arthritis_risk":5,"migraine_risk":7,"frizz_risk":0,"updated_at":"2026-04-18T10:39:30.904113+05:30"},{"city":"Jhansi","state":"Uttar Pradesh","latitude":25.4484,"longitude":78.5685,"temp":36.9,"humidity":28,"rain":0.0,"pressure":979.3,"uv_index":7.75,"wind_gusts":25.9,"aqi":78,"pm10":73.8,"pm2_5":21.7,"mosquito_risk":0,"arthritis_risk":5,"migraine_risk":10,"frizz_risk":0,"updated_at":"2026-04-18T10:39:34.166233+05:30"},{"city":"Surat","state":"Gujarat","latitude":21.1702,"longitude":72.8311,"temp":31.8,"humidity":56,"rain":0.0,"pressure":1007.8,"uv_index":7.85,"wind_gusts":28.8,"aqi":117,"pm10":59.8,"pm2_5":39.3,"mosquito_risk":0,"arthritis_risk":5,"migraine_risk":4,"frizz_risk":1,"updated_at":"2026-04-18T10:39:34.166264+05:30"},{"city":"Vadodara","state":"Gujarat","latitude":22.3072,"longitude":73.1812,"temp":34.5,"humidity":41,"rain":0.0,"pressure":1005.8,"uv_index":8.15,"wind_gusts":19.8,"aqi":91,"pm10":53.2,"pm2_5":23.6,"mosquito_risk":0,"arthritis_risk":5,"migraine_risk":4,"frizz_risk":1,"updated_at":"2026-04-18T10:39:34.166274+05:30"},{"city":"Rajkot","state":"Gujarat","latitude":22.3039,"longitude":70.8022,"temp":32.1,"humidity":40,"rain":0.0,"pressure":996.1,"uv_index":7.85,"wind_gusts":29.2,"aqi":60,"pm10":75.2,"pm2_5":18.0,"mosquito_risk":0,"arthritis_risk":5,"migraine_risk":7,"frizz_risk":1,"updated_at":"2026-04-18T10:39:34.166281+05:30"},{"city":"Thane","state":"Maharashtra","latitude":19.2183,"longitude":72.9781,"temp":31.2,"humidity":65,"rain":0.0,"pressure":1008.6,"uv_index":7.8,"wind_gusts":33.5,"aqi":97,"pm10":100.1,"pm2_5":42.6,"mosquito_risk":3,"arthritis_risk":0,"migraine_risk":4,"frizz_risk":1,"updated_at":"2026-04-18T10:39:34.166289+05:30"},{"city":"Nagpur","state":"Maharashtra","latitude":21.1458,"longitude":79.0882,"temp":36.4,"humidity":27,"rain":0.0,"pressure":974.0,"uv_index":7.55,"wind_gusts":21.2,"aqi":96,"pm10":45.5,"pm2_5":34.3,"mosquito_risk":0,"arthritis_risk":5,"migraine_risk":10,"frizz_risk":0,"updated_at":"2026-04-18T10:39:34.166297+05:30"},{"city":"Nashik","state":"Maharashtra","latitude":19.9975,"longitude":73.7898,"temp":32.0,"humidity":28,"rain":0.0,"pressure":947.5,"uv_index":7.9,"wind_gusts":25.9,"aqi":73,"pm10":41.9,"pm2_5":17.9,"mosquito_risk":0,"arthritis_risk":5,"migraine_risk":7,"frizz_risk":0,"updated_at":"2026-04-18T10:39:34.166304+05:30"},{"city":"Aurangabad","state":"Maharashtra","latitude":19.8762,"longitude":75.3433,"temp":34.3,"humidity":29,"rain":0.0,"pressure":946.2,"uv_index":8.4,"wind_gusts":29.2,"aqi":56,"pm10":17.5,"pm2_5":10.0,"mosquito_risk":0,"arthritis_risk":5,"migraine_risk":7,"frizz_risk":0,"updated_at":"2026-04-18T10:39:34.166311+05:30"},{"city":"Solapur","state":"Maharashtra","latitude":17.6599,"longitude":75.9064,"temp":36.2,"humidity":33,"rain":0.0,"pressure":958.5,"uv_index":3.9,"wind_gusts":20.9,"aqi":114,"pm10":42.5,"pm2_5":36.2,"mosquito_risk":0,"arthritis_risk":5,"migraine_risk":6,"frizz_risk":1,"updated_at":"2026-04-18T10:39:34.166318+05:30"},{"city":"Kolhapur","state":"Maharashtra","latitude":16.705,"longitude":74.2433,"temp":33.3,"humidity":40,"rain":0.0,"pressure":949.4,"uv_index":8.95,"wind_gusts":43.9,"aqi":80,"pm10":40.7,"pm2_5":31.7,"mosquito_risk":0,"arthritis_risk":5,"migraine_risk":7,"frizz_risk":1,"updated_at":"2026-04-18T10:39:34.166325+05:30"},{"city":"Goa","state":"Goa","latitude":15.2993,"longitude":74.124,"temp":31.5,"humidity":65,"rain":0.0,"pressure":998.6,"uv_index":9.05,"wind_gusts":27.7,"aqi":69,"pm10":52.6,"pm2_5":22.6,"mosquito_risk":3,"arthritis_risk":5,"migraine_risk":7,"frizz_risk":1,"updated_at":"2026-04-18T10:39:34.166332+05:30"},{"city":"Jodhpur","state":"Rajasthan","latitude":26.2389,"longitude":73.0243,"temp":33.8,"humidity":37,"rain":0.0,"pressure":984.8,"uv_index":8.15,"wind_gusts":30.2,"aqi":92,"pm10":255.2,"pm2_5":55.1,"mosquito_risk":0,"arthritis_risk":5,"migraine_risk":7,"frizz_risk":1,"updated_at":"2026-04-18T10:39:34.166339+05:30"},{"city":"Udaipur","state":"Rajasthan","latitude":24.5854,"longitude":73.7125,"temp":33.8,"humidity":36,"rain":0.0,"pressure":949.2,"uv_index":8.7,"wind_gusts":29.5,"aqi":34,"pm10":44.0,"pm2_5":14.0,"mosquito_risk":0,"arthritis_risk":5,"migraine_risk":7,"frizz_risk":1,"updated_at":"2026-04-18T10:39:34.166346+05:30"},{"city":"Kota","state":"Rajasthan","latitude":25.2138,"longitude":75.8648,"temp":37.1,"humidity":24,"rain":0.0,"pressure":980.0,"uv_index":8.25,"wind_gusts":23.0,"aqi":59,"pm10":59.5,"pm2_5":16.1,"mosquito_risk":0,"arthritis_risk":5,"migraine_risk":10,"frizz_risk":0,"updated_at":"2026-04-18T10:39:34.166353+05:30"},{"city":"Bikaner","state":"Rajasthan","latitude":28.0229,"longitude":73.3119,"temp":35.4,"humidity":32,"rain":0.0,"pressure":982.3,"uv_index":7.25,"wind_gusts":29.9,"aqi":71,"pm10":110.8,"pm2_5":26.7,"mosquito_risk":0,"arthritis_risk":5,"migraine_risk":10,"frizz_risk":1,"updated_at":"2026-04-18T10:39:34.166359+05:30"},{"city":"Ajmer","state":"Rajasthan","latitude":26.4499,"longitude":74.6399,"temp":33.3,"humidity":36,"rain":0.0,"pressure":957.0,"uv_index":8.15,"wind_gusts":33.5,"aqi":53,"pm10":75.4,"pm2_5":18.2,"mosquito_risk":0,"arthritis_risk":5,"migraine_risk":7,"frizz_risk":1,"updated_at":"2026-04-18T10:39:34.166366+05:30"},{"city":"Gwalior","state":"Madhya Pradesh","latitude":26.2183,"longitude":78.1828,"temp":37.3,"humidity":27,"rain":0.0,"pressure":984.5,"uv_index":7.95,"wind_gusts":25.2,"aqi":119,"pm10":137.4,"pm2_5":32.5,"mosquito_risk":0,"arthritis_risk":5,"migraine_risk":10,"frizz_risk":0,"updated_at":"2026-04-18T10:39:34.166373+05:30"},{"city":"Indore","state":"Madhya Pradesh","latitude":22.7196,"longitude":75.8577,"temp":33.7,"humidity":26,"rain":0.0,"pressure":950.5,"uv_index":8.2,"wind_gusts":25.6,"aqi":60,"pm10":15.9,"pm2_5":8.3,"mosquito_risk":0,"arthritis_risk":5,"migraine_risk":7,"frizz_risk":0,"updated_at":"2026-04-18T10:39:34.166379+05:30"},{"city":"Bhopal","state":"Madhya Pradesh","latitude":23.2599,"longitude":77.4126,"temp":35.7,"humidity":23,"rain":0.0,"pressure":955.7,"uv_index":7.75,"wind_gusts":23.8,"aqi":65,"pm10":12.0,"pm2_5":9.0,"mosquito_risk":0,"arthritis_risk":5,"migraine_risk":10,"frizz_risk":0,"updated_at":"2026-04-18T10:39:34.166386+05:30"},{"city":"Jabalpur","state":"Madhya Pradesh","latitude":23.1815,"longitude":79.9864,"temp":35.2,"humidity":32,"rain":0.0,"pressure":962.7,"uv_index":8.05,"wind_gusts":27.0,"aqi":71,"pm10":55.3,"pm2_5":17.8,"mosquito_risk":0,"arthritis_risk":5,"migraine_risk":10,"frizz_risk":0,"updated_at":"2026-04-18T10:39:34.166393+05:30"},{"city":"Ujjain","state":"Madhya Pradesh","latitude":23.1765,"longitude":75.7885,"temp":34.0,"humidity":25,"rain":0.0,"pressure":956.1,"uv_index":8.45,"wind_gusts":23.8,"aqi":59,"pm10":19.4,"pm2_5":10.0,"mosquito_risk":0,"arthritis_risk":5,"migraine_risk":7,"frizz_risk":0,"updated_at":"2026-04-18T10:39:34.166400+05:30"},{"city":"Visakhapatnam","state":"Andhra Pradesh","latitude":17.6868,"longitude":83.2185,"temp":32.3,"humidity":65,"rain":0.0,"pressure":1005.1,"uv_index":9.15,"wind_gusts":35.3,"aqi":57,"pm10":31.4,"pm2_5":21.1,"mosquito_risk":3,"arthritis_risk":5,"migraine_risk":4,"frizz_risk":1,"updated_at":"2026-04-18T10:39:34.166407+05:30"},{"city":"Vijayawada","state":"Andhra Pradesh","latitude":16.5062,"longitude":80.648,"temp":32.6,"humidity":64,"rain":0.0,"pressure":1003.9,"uv_index":9.2,"wind_gusts":25.6,"aqi":54,"pm10":25.0,"pm2_5":15.6,"mosquito_risk":3,"arthritis_risk":5,"migraine_risk":4,"frizz_risk":1,"updated_at":"2026-04-18T10:39:34.166414+05:30"},{"city":"Guntur","state":"Andhra Pradesh","latitude":16.3067,"longitude":80.4365,"temp":33.2,"humidity":61,"rain":0.0,"pressure":1004.9,"uv_index":9.25,"wind_gusts":29.5,"aqi":58,"pm10":23.6,"pm2_5":15.3,"mosquito_risk":3,"arthritis_risk":5,"migraine_risk":4,"frizz_risk":1,"updated_at":"2026-04-18T10:39:34.166421+05:30"},{"city":"Nellore","state":"Andhra Pradesh","latitude":14.4426,"longitude":79.9865,"temp":34.1,"humidity":54,"rain":0.0,"pressure":1006.5,"uv_index":8.75,"wind_gusts":32.0,"aqi":56,"pm10":18.0,"pm2_5":12.7,"mosquito_risk":0,"arthritis_risk":5,"migraine_risk":4,"frizz_risk":1,"updated_at":"2026-04-18T10:39:34.166428+05:30"},{"city":"Kurnool","state":"Andhra Pradesh","latitude":15.8281,"longitude":78.0373,"temp":37.4,"humidity":35,"rain":0.0,"pressure":977.7,"uv_index":9.2,"wind_gusts":31.3,"aqi":88,"pm10":39.7,"pm2_5":33.4,"mosquito_risk":0,"arthritis_risk":5,"migraine_risk":10,"frizz_risk":1,"updated_at":"2026-04-18T10:39:34.166437+05:30"},{"city":"Kakinada","state":"Andhra Pradesh","latitude":16.9891,"longitude":82.2475,"temp":33.5,"humidity":61,"rain":0.0,"pressure":1008.6,"uv_index":9.15,"wind_gusts":27.0,"aqi":48,"pm10":27.6,"pm2_5":16.5,"mosquito_risk":3,"arthritis_risk":0,"migraine_risk":4,"frizz_risk":1,"updated_at":"2026-04-18T10:39:34.166444+05:30"},{"city":"Tirupati","state":"Andhra Pradesh","latitude":13.6288,"longitude":79.4192,"temp":32.7,"humidity":59,"rain":0.0,"pressure":993.2,"uv_index":8.65,"wind_gusts":32.0,"aqi":71,"pm10":16.7,"pm2_5":12.4,"mosquito_risk":0,"arthritis_risk":5,"migraine_risk":7,"frizz_risk":1,"updated_at":"2026-04-18T10:39:34.166455+05:30"},{"city":"Warangal","state":"Telangana","latitude":17.9689,"longitude":79.5941,"temp":32.7,"humidity":57,"rain":0.0,"pressure":980.4,"uv_index":9.0,"wind_gusts":27.0,"aqi":84,"pm10":28.9,"pm2_5":24.2,"mosquito_risk":0,"arthritis_risk":5,"migraine_risk":7,"frizz_risk":1,"updated_at":"2026-04-18T10:39:34.166461+05:30"},{"city":"Nizamabad","state":"Telangana","latitude":18.6725,"longitude":78.0941,"temp":37.3,"humidity":30,"rain":0.0,"pressure":966.3,"uv_index":8.75,"wind_gusts":31.3,"aqi":115,"pm10":42.5,"pm2_5":37.1,"mosquito_risk":0,"arthritis_risk":5,"migraine_risk":10,"frizz_risk":1,"updated_at":"2026-04-18T10:39:34.166468+05:30"},{"city":"Mysore","state":"Karnataka","latitude":12.2958,"longitude":76.6396,"temp":31.0,"humidity":51,"rain":0.0,"pressure":930.3,"uv_index":8.95,"wind_gusts":40.3,"aqi":94,"pm10":41.1,"pm2_5":33.2,"mosquito_risk":0,"arthritis_risk":5,"migraine_risk":7,"frizz_risk":1,"updated_at":"2026-04-18T10:39:34.166475+05:30"},{"city":"Mangalore","state":"Karnataka","latitude":12.9141,"longitude":74.856,"temp":29.5,"humidity":79,"rain":0.0,"pressure":1007.4,"uv_index":9.1,"wind_gusts":21.6,"aqi":68,"pm10":31.3,"pm2_5":18.5,"mosquito_risk":7,"arthritis_risk":5,"migraine_risk":4,"frizz_risk":1,"updated_at":"2026-04-18T10:39:34.166482+05:30"},{"city":"Hubli-Dharwad","state":"Karnataka","latitude":15.3647,"longitude":75.124,"temp":28.7,"humidity":72,"rain":0.0,"pressure":942.5,"uv_index":9.25,"wind_gusts":29.5,"aqi":70,"pm10":24.8,"pm2_5":17.3,"mosquito_risk":7,"arthritis_risk":5,"migraine_risk":7,"frizz_risk":1,"updated_at":"2026-04-18T10:39:34.166489+05:30"},{"city":"Belgaum","state":"Karnataka","latitude":15.8497,"longitude":74.4977,"temp":30.6,"humidity":48,"rain":0.0,"pressure":927.3,"uv_index":9.3,"wind_gusts":29.2,"aqi":68,"pm10":39.0,"pm2_5":26.0,"mosquito_risk":0,"arthritis_risk":5,"migraine_risk":7,"frizz_risk":1,"updated_at":"2026-04-18T10:39:37.424781+05:30"},{"city":"Coimbatore","state":"Tamil Nadu","latitude":11.0168,"longitude":76.9558,"temp":32.2,"humidity":54,"rain":0.0,"pressure":963.4,"uv_index":9.25,"wind_gusts":30.2,"aqi":105,"pm10":38.0,"pm2_5":30.0,"mosquito_risk":0,"arthritis_risk":5,"migraine_risk":7,"frizz_risk":1,"updated_at":"2026-04-18T10:39:37.424811+05:30"},{"city":"Madurai","state":"Tamil Nadu","latitude":9.9252,"longitude":78.1198,"temp":33.4,"humidity":49,"rain":0.0,"pressure":994.4,"uv_index":9.35,"wind_gusts":32.8,"aqi":80,"pm10":19.7,"pm2_5":16.4,"mosquito_risk":0,"arthritis_risk":5,"migraine_risk":7,"frizz_risk":1,"updated_at":"2026-04-18T10:39:37.424820+05:30"},{"city":"Trichy","state":"Tamil Nadu","latitude":10.7905,"longitude":78.7047,"temp":32.8,"humidity":58,"rain":0.0,"pressure":1001.1,"uv_index":9.35,"wind_gusts":18.4,"aqi":71,"pm10":13.8,"pm2_5":10.0,"mosquito_risk":0,"arthritis_risk":5,"migraine_risk":4,"frizz_risk":1,"updated_at":"2026-04-18T10:39:37.424829+05:30"},{"city":"Salem","state":"Tamil Nadu","latitude":11.6643,"longitude":78.146,"temp":32.3,"humidity":61,"rain":0.0,"pressure":978.9,"uv_index":9.4,"wind_gusts":18.4,"aqi":88,"pm10":27.1,"pm2_5":21.8,"mosquito_risk":3,"arthritis_risk":5,"migraine_risk":7,"frizz_risk":1,"updated_at":"2026-04-18T10:39:37.424837+05:30"},{"city":"Tirunelveli","state":"Tamil Nadu","latitude":8.7139,"longitude":77.7567,"temp":35.1,"humidity":44,"rain":0.0,"pressure":1004.2,"uv_index":9.25,"wind_gusts":48.2,"aqi":95,"pm10":23.8,"pm2_5":20.0,"mosquito_risk":0,"arthritis_risk":5,"migraine_risk":7,"frizz_risk":1,"updated_at":"2026-04-18T10:39:37.424845+05:30"},{"city":"Vellore","state":"Tamil Nadu","latitude":12.9165,"longitude":79.1325,"temp":31.3,"humidity":63,"rain":0.0,"pressure":986.2,"uv_index":9.05,"wind_gusts":27.0,"aqi":95,"pm10":20.0,"pm2_5":15.9,"mosquito_risk":3,"arthritis_risk":5,"migraine_risk":7,"frizz_risk":1,"updated_at":"2026-04-18T10:39:37.424852+05:30"},{"city":"Erode","state":"Tamil Nadu","latitude":11.341,"longitude":77.7172,"temp":34.1,"humidity":54,"rain":0.0,"pressure":990.3,"uv_index":9.3,"wind_gusts":25.6,"aqi":76,"pm10":24.0,"pm2_5":19.2,"mosquito_risk":0,"arthritis_risk":5,"migraine_risk":7,"frizz_risk":1,"updated_at":"2026-04-18T10:39:37.424859+05:30"},{"city":"Kochi","state":"Kerala","latitude":9.9312,"longitude":76.2673,"temp":29.1,"humidity":82,"rain":0.0,"pressure":1009.4,"uv_index":9.15,"wind_gusts":28.8,"aqi":94,"pm10":35.6,"pm2_5":24.7,"mosquito_risk":7,"arthritis_risk":0,"migraine_risk":4,"frizz_risk":1,"updated_at":"2026-04-18T10:39:37.424866+05:30"},{"city":"Thiruvananthapuram","state":"Kerala","latitude":8.5241,"longitude":76.9366,"temp":28.9,"humidity":83,"rain":0.0,"pressure":1008.6,"uv_index":9.1,"wind_gusts":26.6,"aqi":82,"pm10":41.9,"pm2_5":29.3,"mosquito_risk":7,"arthritis_risk":0,"migraine_risk":4,"frizz_risk":1,"updated_at":"2026-04-18T10:39:37.424874+05:30"},{"city":"Kozhikode","state":"Kerala","latitude":11.2588,"longitude":75.7804,"temp":31.2,"humidity":73,"rain":0.0,"pressure":1008.4,"uv_index":8.5,"wind_gusts":29.9,"aqi":79,"pm10":28.2,"pm2_5":19.4,"mosquito_risk":3,"arthritis_risk":0,"migraine_risk":4,"frizz_risk":1,"updated_at":"2026-04-18T10:39:37.424880+05:30"},{"city":"Thrissur","state":"Kerala","latitude":10.5276,"longitude":76.2144,"temp":33.2,"humidity":64,"rain":0.0,"pressure":1007.6,"uv_index":8.65,"wind_gusts":37.8,"aqi":87,"pm10":36.0,"pm2_5":25.4,"mosquito_risk":3,"arthritis_risk":5,"migraine_risk":4,"frizz_risk":1,"updated_at":"2026-04-18T10:39:37.424887+05:30"},{"city":"Kannur","state":"Kerala","latitude":11.8745,"longitude":75.3704,"temp":32.4,"humidity":65,"rain":0.0,"pressure":1007.6,"uv_index":8.65,"wind_gusts":31.3,"aqi":75,"pm10":34.2,"pm2_5":23.5,"mosquito_risk":3,"arthritis_risk":5,"migraine_risk":4,"frizz_risk":1,"updated_at":"2026-04-18T10:39:37.424894+05:30"},{"city":"Patna","state":"Bihar","latitude":25.5941,"longitude":85.1376,"temp":34.3,"humidity":59,"rain":0.0,"pressure":1000.4,"uv_index":8.6,"wind_gusts":27.4,"aqi":151,"pm10":73.8,"pm2_5":62.6,"mosquito_risk":0,"arthritis_risk":5,"migraine_risk":4,"frizz_risk":1,"updated_at":"2026-04-18T10:39:37.424901+05:30"},{"city":"Gaya","state":"Bihar","latitude":24.7914,"longitude":85.0002,"temp":37.5,"humidity":32,"rain":0.0,"pressure":993.7,"uv_index":8.6,"wind_gusts":33.1,"aqi":114,"pm10":63.6,"pm2_5":32.5,"mosquito_risk":0,"arthritis_risk":5,"migraine_risk":10,"frizz_risk":1,"updated_at":"2026-04-18T10:39:37.424907+05:30"},{"city":"Muzaffarpur","state":"Bihar","latitude":26.1209,"longitude":85.3647,"temp":33.3,"humidity":62,"rain":0.0,"pressure":1000.8,"uv_index":8.6,"wind_gusts":31.0,"aqi":153,"pm10":76.8,"pm2_5":68.7,"mosquito_risk":3,"arthritis_risk":5,"migraine_risk":4,"frizz_risk":1,"updated_at":"2026-04-18T10:39:37.424914+05:30"},{"city":"Bhagalpur","state":"Bihar","latitude":25.2425,"longitude":87.0117,"temp":32.7,"humidity":70,"rain":0.0,"pressure":1001.3,"uv_index":8.4,"wind_gusts":31.3,"aqi":155,"pm10":57.6,"pm2_5":50.6,"mosquito_risk":3,"arthritis_risk":5,"migraine_risk":4,"frizz_risk":1,"updated_at":"2026-04-18T10:39:37.424920+05:30"},{"city":"Ranchi","state":"Jharkhand","latitude":23.3441,"longitude":85.3096,"temp":34.3,"humidity":37,"rain":0.0,"pressure":940.2,"uv_index":9.15,"wind_gusts":38.5,"aqi":83,"pm10":65.9,"pm2_5":25.2,"mosquito_risk":0,"arthritis_risk":5,"migraine_risk":7,"frizz_risk":1,"updated_at":"2026-04-18T10:39:37.424927+05:30"},{"city":"Jamshedpur","state":"Jharkhand","latitude":22.8046,"longitude":86.2029,"temp":33.5,"humidity":65,"rain":0.0,"pressure":992.1,"uv_index":9.0,"wind_gusts":45.4,"aqi":95,"pm10":53.3,"pm2_5":46.6,"mosquito_risk":3,"arthritis_risk":5,"migraine_risk":7,"frizz_risk":1,"updated_at":"2026-04-18T10:39:37.424933+05:30"},{"city":"Dhanbad","state":"Jharkhand","latitude":23.7957,"longitude":86.4304,"temp":34.1,"humidity":58,"rain":0.0,"pressure":980.7,"uv_index":8.95,"wind_gusts":33.8,"aqi":150,"pm10":66.6,"pm2_5":58.7,"mosquito_risk":0,"arthritis_risk":5,"migraine_risk":7,"frizz_risk":1,"updated_at":"2026-04-18T10:39:37.424940+05:30"},{"city":"Bokaro","state":"Jharkhand","latitude":23.6693,"longitude":86.1511,"temp":34.1,"humidity":58,"rain":0.0,"pressure":984.8,"uv_index":8.95,"wind_gusts":37.4,"aqi":154,"pm10":69.4,"pm2_5":53.0,"mosquito_risk":0,"arthritis_risk":5,"migraine_risk":7,"frizz_risk":1,"updated_at":"2026-04-18T10:39:37.424947+05:30"},{"city":"Bhubaneswar","state":"Odisha","latitude":20.2961,"longitude":85.8245,"temp":33.1,"humidity":66,"rain":0.0,"pressure":1004.1,"uv_index":8.65,"wind_gusts":30.6,"aqi":60,"pm10":29.8,"pm2_5":20.9,"mosquito_risk":3,"arthritis_risk":5,"migraine_risk":4,"frizz_risk":1,"updated_at":"2026-04-18T10:39:37.424954+05:30"},{"city":"Cuttack","state":"Odisha","latitude":20.4625,"longitude":85.8828,"temp":34.0,"humidity":64,"rain":0.0,"pressure":1006.0,"uv_index":8.75,"wind_gusts":29.9,"aqi":60,"pm10":29.8,"pm2_5":20.9,"mosquito_risk":3,"arthritis_risk":5,"migraine_risk":4,"frizz_risk":1,"updated_at":"2026-04-18T10:39:37.424961+05:30"},{"city":"Rourkela","state":"Odisha","latitude":22.2604,"longitude":84.8536,"temp":36.3,"humidity":52,"rain":0.0,"pressure":986.3,"uv_index":8.45,"wind_gusts":48.2,"aqi":131,"pm10":68.0,"pm2_5":52.7,"mosquito_risk":0,"arthritis_risk":5,"migraine_risk":10,"frizz_risk":1,"updated_at":"2026-04-18T10:39:37.424967+05:30"},{"city":"Raipur","state":"Chhattisgarh","latitude":21.2514,"longitude":81.6296,"temp":37.5,"humidity":39,"rain":0.0,"pressure":975.5,"uv_index":8.95,"wind_gusts":34.6,"aqi":123,"pm10":52.4,"pm2_5":44.9,"mosquito_risk":0,"arthritis_risk":5,"migraine_risk":10,"frizz_risk":1,"updated_at":"2026-04-18T10:39:37.424974+05:30"},{"city":"Bhilai","state":"Chhattisgarh","latitude":21.1938,"longitude":81.3509,"temp":36.8,"humidity":43,"rain":0.0,"pressure":975.9,"uv_index":8.95,"wind_gusts":36.7,"aqi":135,"pm10":50.5,"pm2_5":45.9,"mosquito_risk":0,"arthritis_risk":5,"migraine_risk":10,"frizz_risk":1,"updated_at":"2026-04-18T10:39:37.424980+05:30"},{"city":"Guwahati","state":"Assam","latitude":26.1158,"longitude":91.7086,"temp":30.6,"humidity":69,"rain":0.0,"pressure":1003.4,"uv_index":8.5,"wind_gusts":23.8,"aqi":151,"pm10":66.1,"pm2_5":46.3,"mosquito_risk":3,"arthritis_risk":5,"migraine_risk":4,"frizz_risk":1,"updated_at":"2026-04-18T10:39:37.424987+05:30"},{"city":"Agartala","state":"Tripura","latitude":23.8315,"longitude":91.2868,"temp":31.4,"humidity":71,"rain":0.0,"pressure":1008.4,"uv_index":8.7,"wind_gusts":19.8,"aqi":132,"pm10":28.5,"pm2_5":21.5,"mosquito_risk":3,"arthritis_risk":0,"migraine_risk":4,"frizz_risk":1,"updated_at":"2026-04-18T10:39:37.424993+05:30"},{"city":"Shillong","state":"Meghalaya","latitude":25.5788,"longitude":91.8933,"temp":22.2,"humidity":46,"rain":0.0,"pressure":860.3,"uv_index":7.95,"wind_gusts":28.8,"aqi":134,"pm10":65.2,"pm2_5":41.2,"mosquito_risk":0,"arthritis_risk":5,"migraine_risk":7,"frizz_risk":0,"updated_at":"2026-04-18T10:39:37.425000+05:30"},{"city":"Imphal","state":"Manipur","latitude":24.817,"longitude":93.9368,"temp":24.7,"humidity":67,"rain":0.0,"pressure":926.2,"uv_index":9.1,"wind_gusts":45.7,"aqi":158,"pm10":65.4,"pm2_5":38.3,"mosquito_risk":3,"arthritis_risk":5,"migraine_risk":7,"frizz_risk":1,"updated_at":"2026-04-18T10:39:37.425007+05:30"},{"city":"Aizawl","state":"Mizoram","latitude":23.7271,"longitude":92.7176,"temp":27.9,"humidity":49,"rain":0.0,"pressure":896.5,"uv_index":8.9,"wind_gusts":34.2,"aqi":133,"pm10":64.7,"pm2_5":34.6,"mosquito_risk":4,"arthritis_risk":5,"migraine_risk":7,"frizz_risk":1,"updated_at":"2026-04-18T10:39:37.425013+05:30"},{"city":"Kohima","state":"Nagaland","latitude":25.6701,"longitude":94.1077,"temp":20.3,"humidity":85,"rain":0.0,"pressure":858.6,"uv_index":8.45,"wind_gusts":48.6,"aqi":136,"pm10":76.4,"pm2_5":47.6,"mosquito_risk":3,"arthritis_risk":5,"migraine_risk":7,"frizz_risk":1,"updated_at":"2026-04-18T10:39:37.425020+05:30"},{"city":"Gangtok","state":"Sikkim","latitude":27.3314,"longitude":88.6138,"temp":19.8,"humidity":80,"rain":0.0,"pressure":841.3,"uv_index":8.85,"wind_gusts":20.2,"aqi":130,"pm10":50.9,"pm2_5":31.5,"mosquito_risk":3,"arthritis_risk":5,"migraine_risk":7,"frizz_risk":1,"updated_at":"2026-04-18T10:39:37.425027+05:30"},{"city":"Siliguri","state":"West Bengal","latitude":26.7271,"longitude":88.3953,"temp":24.8,"humidity":79,"rain":0.0,"pressure":996.9,"uv_index":6.55,"wind_gusts":19.8,"aqi":164,"pm10":105.9,"pm2_5":64.5,"mosquito_risk":3,"arthritis_risk":5,"migraine_risk":7,"frizz_risk":1,"updated_at":"2026-04-18T10:39:40.693809+05:30"},{"city":"Durgapur","state":"West Bengal","latitude":23.5204,"longitude":87.3119,"temp":33.7,"humidity":63,"rain":0.0,"pressure":995.9,"uv_index":8.85,"wind_gusts":52.9,"aqi":117,"pm10":48.1,"pm2_5":44.4,"mosquito_risk":3,"arthritis_risk":5,"migraine_risk":7,"frizz_risk":1,"updated_at":"2026-04-18T10:39:40.693840+05:30"},{"city":"Asansol","state":"West Bengal","latitude":23.6739,"longitude":86.9524,"temp":34.0,"humidity":62,"rain":0.0,"pressure":994.4,"uv_index":8.9,"wind_gusts":49.3,"aqi":118,"pm10":51.6,"pm2_5":48.2,"mosquito_risk":3,"arthritis_risk":5,"migraine_risk":7,"frizz_risk":1,"updated_at":"2026-04-18T10:39:40.693850+05:30"},{"city":"Pondicherry","state":"Puducherry","latitude":11.9139,"longitude":79.8145,"temp":32.6,"humidity":63,"rain":0.0,"pressure":1009.8,"uv_index":8.7,"wind_gusts":26.3,"aqi":39,"pm10":13.9,"pm2_5":8.7,"mosquito_risk":3,"arthritis_risk":0,"migraine_risk":4,"frizz_risk":1,"updated_at":"2026-04-18T10:39:40.693858+05:30"},{"city":"Port Blair","state":"Andaman and Nicobar Islands","latitude":11.6234,"longitude":92.7265,"temp":29.1,"humidity":71,"rain":0.0,"pressure":1008.3,"uv_index":9.2,"wind_gusts":10.4,"aqi":43,"pm10":17.9,"pm2_5":13.0,"mosquito_risk":7,"arthritis_risk":0,"migraine_risk":4,"frizz_risk":1,"updated_at":"2026-04-18T10:39:40.693867+05:30"},{"city":"Haridwar","state":"Uttarakhand","latitude":29.9457,"longitude":78.1642,"temp":33.6,"humidity":34,"rain":0.0,"pressure":976.0,"uv_index":7.0,"wind_gusts":30.2,"aqi":62,"pm10":32.5,"pm2_5":12.0,"mosquito_risk":0,"arthritis_risk":5,"migraine_risk":7,"frizz_risk":0,"updated_at":"2026-04-18T10:39:40.693875+05:30"},{"city":"Rishikesh","state":"Uttarakhand","latitude":30.0869,"longitude":78.2676,"temp":33.7,"humidity":31,"rain":0.0,"pressure":969.0,"uv_index":7.2,"wind_gusts":36.0,"aqi":54,"pm10":34.7,"pm2_5":9.2,"mosquito_risk":0,"arthritis_risk":5,"migraine_risk":7,"frizz_risk":0,"updated_at":"2026-04-18T10:39:40.693883+05:30"},{"city":"Nainital","state":"Uttarakhand","latitude":29.3919,"longitude":79.4542,"temp":29.8,"humidity":23,"rain":0.0,"pressure":812.8,"uv_index":7.9,"wind_gusts":60.5,"aqi":56,"pm10":42.8,"pm2_5":11.9,"mosquito_risk":4,"arthritis_risk":5,"migraine_risk":7,"frizz_risk":0,"updated_at":"2026-04-18T10:39:40.693891+05:30"},{"city":"Mussoorie","state":"Uttarakhand","latitude":30.4599,"longitude":78.0664,"temp":27.3,"humidity":26,"rain":0.0,"pressure":809.4,"uv_index":7.55,"wind_gusts":42.8,"aqi":57,"pm10":37.5,"pm2_5":9.7,"mosquito_risk":4,"arthritis_risk":5,"migraine_risk":7,"frizz_risk":0,"updated_at":"2026-04-18T10:39:40.693898+05:30"},{"city":"Dharamshala","state":"Himachal Pradesh","latitude":32.219,"longitude":76.3234,"temp":27.1,"humidity":35,"rain":0.0,"pressure":873.9,"uv_index":6.9,"wind_gusts":38.9,"aqi":38,"pm10":36.0,"pm2_5":8.4,"mosquito_risk":4,"arthritis_risk":5,"migraine_risk":7,"frizz_risk":0,"updated_at":"2026-04-18T10:39:40.693905+05:30"},{"city":"Dalhousie","state":"Himachal Pradesh","latitude":32.5387,"longitude":75.971,"temp":20.0,"humidity":45,"rain":0.0,"pressure":808.9,"uv_index":6.95,"wind_gusts":36.0,"aqi":53,"pm10":35.3,"pm2_5":9.6,"mosquito_risk":0,"arthritis_risk":5,"migraine_risk":7,"frizz_risk":0,"updated_at":"2026-04-18T10:39:40.693913+05:30"},{"city":"Patiala","state":"Punjab","latitude":30.3398,"longitude":76.3869,"temp":31.6,"humidity":37,"rain":0.0,"pressure":980.4,"uv_index":7.0,"wind_gusts":19.4,"aqi":135,"pm10":260.8,"pm2_5":41.7,"mosquito_risk":0,"arthritis_risk":5,"migraine_risk":7,"frizz_risk":0,"updated_at":"2026-04-18T10:39:40.693921+05:30"},{"city":"Bhatinda","state":"Punjab","latitude":30.211,"longitude":74.9455,"temp":33.4,"humidity":29,"rain":0.0,"pressure":986.1,"uv_index":7.65,"wind_gusts":32.8,"aqi":76,"pm10":74.5,"pm2_5":19.6,"mosquito_risk":0,"arthritis_risk":5,"migraine_risk":7,"frizz_risk":0,"updated_at":"2026-04-18T10:39:40.693927+05:30"},{"city":"Rohtak","state":"Haryana","latitude":28.8955,"longitude":76.6066,"temp":32.5,"humidity":44,"rain":0.0,"pressure":983.6,"uv_index":6.9,"wind_gusts":15.8,"aqi":338,"pm10":249.6,"pm2_5":65.4,"mosquito_risk":0,"arthritis_risk":5,"migraine_risk":7,"frizz_risk":1,"updated_at":"2026-04-18T10:39:40.693935+05:30"},{"city":"Panipat","state":"Haryana","latitude":29.3909,"longitude":76.9635,"temp":33.2,"humidity":40,"rain":0.0,"pressure":982.5,"uv_index":7.05,"wind_gusts":11.2,"aqi":588,"pm10":290.6,"pm2_5":61.5,"mosquito_risk":0,"arthritis_risk":5,"migraine_risk":7,"frizz_risk":1,"updated_at":"2026-04-18T10:39:40.693942+05:30"},{"city":"Mathura","state":"Uttar Pradesh","latitude":27.4924,"longitude":77.6737,"temp":35.4,"humidity":34,"rain":0.0,"pressure":988.3,"uv_index":7.6,"wind_gusts":24.5,"aqi":529,"pm10":175.1,"pm2_5":44.9,"mosquito_risk":0,"arthritis_risk":5,"migraine_risk":10,"frizz_risk":1,"updated_at":"2026-04-18T10:39:40.693949+05:30"},{"city":"Vrindavan","state":"Uttar Pradesh","latitude":27.5823,"longitude":77.7027,"temp":35.7,"humidity":32,"rain":0.0,"pressure":988.7,"uv_index":7.45,"wind_gusts":25.6,"aqi":529,"pm10":175.1,"pm2_5":44.9,"mosquito_risk":0,"arthritis_risk":5,"migraine_risk":10,"frizz_risk":1,"updated_at":"2026-04-18T10:39:40.693956+05:30"},{"city":"Ayodhya","state":"Uttar Pradesh","latitude":26.7922,"longitude":82.1998,"temp":35.0,"humidity":40,"rain":0.0,"pressure":995.9,"uv_index":7.75,"wind_gusts":37.8,"aqi":143,"pm10":89.6,"pm2_5":52.0,"mosquito_risk":0,"arthritis_risk":5,"migraine_risk":7,"frizz_risk":1,"updated_at":"2026-04-18T10:39:40.693963+05:30"},{"city":"Ratlam","state":"Madhya Pradesh","latitude":23.3315,"longitude":75.0367,"temp":31.5,"humidity":41,"rain":0.0,"pressure":956.7,"uv_index":8.2,"wind_gusts":23.4,"aqi":52,"pm10":22.9,"pm2_5":10.4,"mosquito_risk":0,"arthritis_risk":5,"migraine_risk":7,"frizz_risk":1,"updated_at":"2026-04-18T10:39:40.693970+05:30"},{"city":"Sagar","state":"Madhya Pradesh","latitude":23.8388,"longitude":78.7378,"temp":36.6,"humidity":30,"rain":0.0,"pressure":952.0,"uv_index":8.0,"wind_gusts":31.0,"aqi":65,"pm10":53.0,"pm2_5":18.7,"mosquito_risk":0,"arthritis_risk":5,"migraine_risk":10,"frizz_risk":1,"updated_at":"2026-04-18T10:39:40.693977+05:30"},{"city":"Satna","state":"Madhya Pradesh","latitude":24.6005,"longitude":80.8322,"temp":38.0,"humidity":20,"rain":0.0,"pressure":972.7,"uv_index":8.45,"wind_gusts":20.2,"aqi":68,"pm10":74.3,"pm2_5":22.1,"mosquito_risk":0,"arthritis_risk":5,"migraine_risk":10,"frizz_risk":0,"updated_at":"2026-04-18T10:39:40.693984+05:30"},{"city":"Akola","state":"Maharashtra","latitude":20.7002,"longitude":77.0082,"temp":36.7,"humidity":25,"rain":0.0,"pressure":976.3,"uv_index":8.4,"wind_gusts":29.9,"aqi":65,"pm10":19.8,"pm2_5":12.7,"mosquito_risk":0,"arthritis_risk":5,"migraine_risk":10,"frizz_risk":0,"updated_at":"2026-04-18T10:39:40.693991+05:30"},{"city":"Amravati","state":"Maharashtra","latitude":20.9374,"longitude":77.7796,"temp":36.1,"humidity":27,"rain":0.0,"pressure":968.6,"uv_index":7.95,"wind_gusts":17.3,"aqi":66,"pm10":19.5,"pm2_5":12.5,"mosquito_risk":0,"arthritis_risk":5,"migraine_risk":10,"frizz_risk":0,"updated_at":"2026-04-18T10:39:40.693999+05:30"},{"city":"Latur","state":"Maharashtra","latitude":18.4088,"longitude":76.5604,"temp":33.2,"humidity":35,"rain":0.0,"pressure":942.1,"uv_index":8.95,"wind_gusts":14.4,"aqi":107,"pm10":29.9,"pm2_5":21.7,"mosquito_risk":0,"arthritis_risk":5,"migraine_risk":7,"frizz_risk":0,"updated_at":"2026-04-18T10:39:40.694006+05:30"},{"city":"Nanded","state":"Maharashtra","latitude":19.1383,"longitude":77.3091,"temp":35.5,"humidity":33,"rain":0.0,"pressure":970.0,"uv_index":8.7,"wind_gusts":18.0,"aqi":87,"pm10":25.3,"pm2_5":16.4,"mosquito_risk":0,"arthritis_risk":5,"migraine_risk":10,"frizz_risk":1,"updated_at":"2026-04-18T10:39:40.694013+05:30"},{"city":"Gulbarga","state":"Karnataka","latitude":17.3297,"longitude":76.8343,"temp":35.6,"humidity":35,"rain":0.0,"pressure":960.3,"uv_index":9.05,"wind_gusts":46.8,"aqi":90,"pm10":40.3,"pm2_5":35.4,"mosquito_risk":0,"arthritis_risk":5,"migraine_risk":10,"frizz_risk":1,"updated_at":"2026-04-18T10:39:40.694019+05:30"},{"city":"Bidar","state":"Karnataka","latitude":17.9104,"longitude":77.5199,"temp":34.8,"humidity":37,"rain":0.0,"pressure":937.7,"uv_index":9.05,"wind_gusts":34.2,"aqi":100,"pm10":37.1,"pm2_5":31.5,"mosquito_risk":0,"arthritis_risk":5,"migraine_risk":7,"frizz_risk":1,"updated_at":"2026-04-18T10:39:40.694027+05:30"},{"city":"Hospet","state":"Karnataka","latitude":15.2689,"longitude":76.3909,"temp":30.7,"humidity":62,"rain":0.0,"pressure":957.2,"uv_index":9.25,"wind_gusts":21.2,"aqi":98,"pm10":26.4,"pm2_5":21.1,"mosquito_risk":3,"arthritis_risk":5,"migraine_risk":7,"frizz_risk":1,"updated_at":"2026-04-18T10:39:40.694054+05:30"},{"city":"Tirupur","state":"Tamil Nadu","latitude":11.1085,"longitude":77.3411,"temp":33.3,"humidity":53,"rain":0.0,"pressure":976.6,"uv_index":9.25,"wind_gusts":31.3,"aqi":88,"pm10":31.5,"pm2_5":25.8,"mosquito_risk":0,"arthritis_risk":5,"migraine_risk":7,"frizz_risk":1,"updated_at":"2026-04-18T10:39:40.694063+05:30"},{"city":"Alappuzha","state":"Kerala","latitude":9.4981,"longitude":76.3388,"temp":29.3,"humidity":80,"rain":0.0,"pressure":1009.5,"uv_index":9.05,"wind_gusts":25.2,"aqi":99,"pm10":38.4,"pm2_5":27.0,"mosquito_risk":7,"arthritis_risk":0,"migraine_risk":4,"frizz_risk":1,"updated_at":"2026-04-18T10:39:40.694070+05:30"},{"city":"Munnar","state":"Kerala","latitude":10.0889,"longitude":77.0595,"temp":28.3,"humidity":56,"rain":0.0,"pressure":860.1,"uv_index":9.7,"wind_gusts":23.8,"aqi":92,"pm10":30.9,"pm2_5":23.1,"mosquito_risk":4,"arthritis_risk":5,"migraine_risk":7,"frizz_risk":1,"updated_at":"2026-04-18T10:39:40.694078+05:30"},{"city":"Silchar","state":"Assam","latitude":24.8333,"longitude":92.7789,"temp":30.4,"humidity":66,"rain":0.0,"pressure":1007.4,"uv_index":8.75,"wind_gusts":21.6,"aqi":161,"pm10":68.7,"pm2_5":49.1,"mosquito_risk":3,"arthritis_risk":5,"migraine_risk":4,"frizz_risk":1,"updated_at":"2026-04-18T10:39:40.694085+05:30"},{"city":"Dibrugarh","state":"Assam","latitude":27.4728,"longitude":94.912,"temp":29.5,"humidity":70,"rain":0.0,"pressure":997.4,"uv_index":8.65,"wind_gusts":13.7,"aqi":131,"pm10":68.0,"pm2_5":45.2,"mosquito_risk":7,"arthritis_risk":5,"migraine_risk":7,"frizz_risk":1,"updated_at":"2026-04-18T10:39:40.694093+05:30"}]