[{"city":"Delhi","state":"Delhi","latitude":28.6139,"longitude":77.209,"temp":30.8,"humidity":50,"rain":0.0,"pressure":986.1,"uv_index":5.9,"wind_gusts":19.4,"aqi":348,"pm10":173.7,"pm2_5":64.7,"mosquito_risk":0,"arthritis_risk":5,"migraine_risk":3,"frizz_risk":1,"updated_at":"2026-03-06T13:10:38.915406+05:30"},{"city":"Mumbai","state":"Maharashtra","latitude":19.076,"longitude":72.8777,"temp":28.6,"humidity":65,"rain":0.0,"pressure":1010.0,"uv_index":7.4,"wind_gusts":23.8,"aqi":101,"pm10":50.6,"pm2_5":49.0,"mosquito_risk":7,"arthritis_risk":0,"migraine_risk":4,"frizz_risk":1,"updated_at":"2026-03-06T13:10:38.915459+05:30"},{"city":"Bangalore","state":"Karnataka","latitude":12.9716,"longitude":77.5946,"temp":31.6,"humidity":33,"rain":0.0,"pressure":913.3,"uv_index":9.15,"wind_gusts":22.0,"aqi":102,"pm10":33.3,"pm2_5":30.3,"mosquito_risk":0,"arthritis_risk":5,"migraine_risk":7,"frizz_risk":0,"updated_at":"2026-03-06T13:10:38.915475+05:30"},{"city":"Hyderabad","state":"Telangana","latitude":17.385,"longitude":78.4867,"temp":36.0,"humidity":16,"rain":0.0,"pressure":954.9,"uv_index":8.45,"wind_gusts":23.4,"aqi":101,"pm10":15.5,"pm2_5":12.2,"mosquito_risk":0,"arthritis_risk":5,"migraine_risk":10,"frizz_risk":0,"updated_at":"2026-03-06T13:10:38.915486+05:30"},{"city":"Chennai","state":"Tamil Nadu","latitude":13.0827,"longitude":80.2707,"temp":34.9,"humidity":42,"rain":0.0,"pressure":1008.2,"uv_index":8.9,"wind_gusts":31.3,"aqi":74,"pm10":35.7,"pm2_5":32.8,"mosquito_risk":0,"arthritis_risk":0,"migraine_risk":4,"frizz_risk":1,"updated_at":"2026-03-06T13:10:38.915495+05:30"},{"city":"Kolkata","state":"West Bengal","latitude":22.5726,"longitude":88.3639,"temp":30.8,"humidity":48,"rain":0.0,"pressure":1008.0,"uv_index":7.8,"wind_gusts":15.8,"aqi":165,"pm10":74.7,"pm2_5":51.7,"mosquito_risk":0,"arthritis_risk":0,"migraine_risk":4,"frizz_risk":1,"updated_at":"2026-03-06T13:10:38.915504+05:30"},{"city":"Pune","state":"Maharashtra","latitude":18.5204,"longitude":73.8567,"temp":36.0,"humidity":18,"rain":0.0,"pressure":951.1,"uv_index":8.0,"wind_gusts":27.7,"aqi":94,"pm10":18.9,"pm2_5":16.4,"mosquito_risk":0,"arthritis_risk":5,"migraine_risk":10,"frizz_risk":0,"updated_at":"2026-03-06T13:10:38.915515+05:30"},{"city":"Ahmedabad","state":"Gujarat","latitude":23.0225,"longitude":72.5714,"temp":33.5,"humidity":34,"rain":0.0,"pressure":1005.8,"uv_index":7.25,"wind_gusts":20.5,"aqi":72,"pm10":24.6,"pm2_5":16.6,"mosquito_risk":0,"arthritis_risk":5,"migraine_risk":4,"frizz_risk":0,"updated_at":"2026-03-06T13:10:38.915523+05:30"},{"city":"Jaipur","state":"Rajasthan","latitude":26.9124,"longitude":75.7873,"temp":35.3,"humidity":16,"rain":0.0,"pressure":963.3,"uv_index":6.7,"wind_gusts":25.2,"aqi":100,"pm10":149.0,"pm2_5":25.4,"mosquito_risk":0,"arthritis_risk":5,"migraine_risk":10,"frizz_risk":0,"updated_at":"2026-03-06T13:10:38.915531+05:30"},{"city":"Lucknow","state":"Uttar Pradesh","latitude":26.8467,"longitude":80.9462,"temp":30.9,"humidity":45,"rain":0.0,"pressure":996.8,"uv_index":6.4,"wind_gusts":22.3,"aqi":168,"pm10":140.6,"pm2_5":71.5,"mosquito_risk":0,"arthritis_risk":5,"migraine_risk":7,"frizz_risk":1,"updated_at":"2026-03-06T13:10:38.915539+05:30"},{"city":"Kanpur","state":"Uttar Pradesh","latitude":26.4499,"longitude":80.3319,"temp":30.7,"humidity":53,"rain":0.0,"pressure":995.0,"uv_index":6.4,"wind_gusts":13.3,"aqi":166,"pm10":236.6,"pm2_5":80.3,"mosquito_risk":0,"arthritis_risk":5,"migraine_risk":7,"frizz_risk":1,"updated_at":"2026-03-06T13:10:38.915546+05:30"},{"city":"Chandigarh","state":"Chandigarh","latitude":30.7333,"longitude":76.7794,"temp":29.8,"humidity":54,"rain":0.0,"pressure":971.4,"uv_index":5.8,"wind_gusts":16.2,"aqi":116,"pm10":75.4,"pm2_5":46.6,"mosquito_risk":4,"arthritis_risk":5,"migraine_risk":3,"frizz_risk":1,"updated_at":"2026-03-06T13:10:38.915553+05:30"},{"city":"Srinagar","state":"Jammu and Kashmir","latitude":34.0837,"longitude":74.7973,"temp":20.0,"humidity":46,"rain":0.0,"pressure":846.4,"uv_index":6.75,"wind_gusts":17.6,"aqi":135,"pm10":48.2,"pm2_5":27.8,"mosquito_risk":0,"arthritis_risk":5,"migraine_risk":7,"frizz_risk":0,"updated_at":"2026-03-06T13:10:38.915560+05:30"},{"city":"Jammu","state":"Jammu and Kashmir","latitude":32.7266,"longitude":74.857,"temp":30.2,"humidity":49,"rain":0.0,"pressure":974.7,"uv_index":6.4,"wind_gusts":17.3,"aqi":122,"pm10":53.0,"pm2_5":29.5,"mosquito_risk":0,"arthritis_risk":5,"migraine_risk":7,"frizz_risk":1,"updated_at":"2026-03-06T13:10:38.915567+05:30"},{"city":"Amritsar","state":"Punjab","latitude":31.634,"longitude":74.8723,"temp":31.2,"humidity":53,"rain":0.0,"pressure":982.9,"uv_index":6.05,"wind_gusts":12.2,"aqi":158,"pm10":86.8,"pm2_5":66.1,"mosquito_risk":0,"arthritis_risk":5,"migraine_risk":7,"frizz_risk":1,"updated_at":"2026-03-06T13:10:38.915574+05:30"},{"city":"Ludhiana","state":"Punjab","latitude":30.901,"longitude":75.8573,"temp":31.1,"humidity":50,"rain":0.0,"pressure":981.1,"uv_index":6.05,"wind_gusts":15.1,"aqi":164,"pm10":100.1,"pm2_5":75.4,"mosquito_risk":0,"arthritis_risk":5,"migraine_risk":7,"frizz_risk":1,"updated_at":"2026-03-06T13:10:38.915580+05:30"},{"city":"Jalandhar","state":"Punjab","latitude":31.326,"longitude":75.5762,"temp":30.8,"humidity":53,"rain":0.0,"pressure":982.2,"uv_index":6.2,"wind_gusts":14.0,"aqi":164,"pm10":86.6,"pm2_5":64.7,"mosquito_risk":0,"arthritis_risk":5,"migraine_risk":7,"frizz_risk":1,"updated_at":"2026-03-06T13:10:38.915589+05:30"},{"city":"Dehradun","state":"Uttarakhand","latitude":30.6284,"longitude":78.0322,"temp":21.6,"humidity":63,"rain":0.0,"pressure":834.2,"uv_index":6.15,"wind_gusts":27.0,"aqi":79,"pm10":30.4,"pm2_5":17.9,"mosquito_risk":3,"arthritis_risk":5,"migraine_risk":7,"frizz_risk":0,"updated_at":"2026-03-06T13:10:38.915596+05:30"},{"city":"Shimla","state":"Himachal Pradesh","latitude":31.1048,"longitude":77.1734,"temp":22.8,"humidity":43,"rain":0.0,"pressure":790.3,"uv_index":6.25,"wind_gusts":32.8,"aqi":75,"pm10":22.8,"pm2_5":11.7,"mosquito_risk":0,"arthritis_risk":5,"migraine_risk":7,"frizz_risk":0,"updated_at":"2026-03-06T13:10:38.915602+05:30"},{"city":"Manali","state":"Himachal Pradesh","latitude":32.2396,"longitude":77.1887,"temp":27.2,"humidity":14,"rain":0.0,"pressure":826.1,"uv_index":7.95,"wind_gusts":37.8,"aqi":65,"pm10":21.6,"pm2_5":12.0,"mosquito_risk":4,"arthritis_risk":5,"migraine_risk":7,"frizz_risk":1,"updated_at":"2026-03-06T13:10:38.915608+05:30"},{"city":"Gurgaon","state":"Haryana","latitude":28.4595,"longitude":77.0266,"temp":31.1,"humidity":50,"rain":0.0,"pressure":984.5,"uv_index":6.0,"wind_gusts":17.6,"aqi":957,"pm10":331.6,"pm2_5":77.3,"mosquito_risk":0,"arthritis_risk":5,"migraine_risk":3,"frizz_risk":1,"updated_at":"2026-03-06T13:10:38.915615+05:30"},{"city":"Noida","state":"Uttar Pradesh","latitude":28.5355,"longitude":77.391,"temp":31.3,"humidity":50,"rain":0.0,"pressure":987.5,"uv_index":5.9,"wind_gusts":17.3,"aqi":957,"pm10":331.6,"pm2_5":77.3,"mosquito_risk":0,"arthritis_risk":5,"migraine_risk":3,"frizz_risk":1,"updated_at":"2026-03-06T13:10:38.915622+05:30"},{"city":"Ghaziabad","state":"Uttar Pradesh","latitude":28.6692,"longitude":77.4538,"temp":30.0,"humidity":58,"rain":0.0,"pressure":985.7,"uv_index":5.9,"wind_gusts":14.8,"aqi":261,"pm10":199.8,"pm2_5":79.6,"mosquito_risk":4,"arthritis_risk":5,"migraine_risk":3,"frizz_risk":1,"updated_at":"2026-03-06T13:10:38.915630+05:30"},{"city":"Faridabad","state":"Haryana","latitude":28.4089,"longitude":77.3178,"temp":30.7,"humidity":53,"rain":0.0,"pressure":986.8,"uv_index":5.95,"wind_gusts":16.9,"aqi":957,"pm10":331.6,"pm2_5":77.3,"mosquito_risk":0,"arthritis_risk":5,"migraine_risk":3,"frizz_risk":1,"updated_at":"2026-03-06T13:10:38.915637+05:30"},{"city":"Meerut","state":"Uttar Pradesh","latitude":28.9845,"longitude":77.7064,"temp":30.1,"humidity":53,"rain":0.0,"pressure":984.5,"uv_index":5.75,"wind_gusts":14.8,"aqi":261,"pm10":199.8,"pm2_5":79.6,"mosquito_risk":0,"arthritis_risk":5,"migraine_risk":3,"frizz_risk":1,"updated_at":"2026-03-06T13:10:38.915643+05:30"},{"city":"Agra","state":"Uttar Pradesh","latitude":27.1767,"longitude":78.0081,"temp":33.4,"humidity":36,"rain":0.0,"pressure":990.9,"uv_index":6.25,"wind_gusts":19.4,"aqi":502,"pm10":275.7,"pm2_5":72.2,"mosquito_risk":0,"arthritis_risk":5,"migraine_risk":7,"frizz_risk":1,"updated_at":"2026-03-06T13:10:38.915650+05:30"},{"city":"Varanasi","state":"Uttar Pradesh","latitude":25.3176,"longitude":82.9739,"temp":30.5,"humidity":49,"rain":0.0,"pressure":1000.4,"uv_index":7.1,"wind_gusts":17.6,"aqi":166,"pm10":140.6,"pm2_5":64.7,"mosquito_risk":0,"arthritis_risk":5,"migraine_risk":4,"frizz_risk":1,"updated_at":"2026-03-06T13:10:38.915658+05:30"},{"city":"Prayagraj","state":"Uttar Pradesh","latitude":25.4358,"longitude":81.8463,"temp":29.9,"humidity":53,"rain":0.0,"pressure":999.1,"uv_index":6.95,"wind_gusts":16.2,"aqi":170,"pm10":161.6,"pm2_5":69.8,"mosquito_risk":4,"arthritis_risk":5,"migraine_risk":7,"frizz_risk":1,"updated_at":"2026-03-06T13:10:38.915668+05:30"},{"city":"Gorakhpur","state":"Uttar Pradesh","latitude":26.7606,"longitude":83.3732,"temp":30.6,"humidity":46,"rain":0.0,"pressure":1000.9,"uv_index":6.8,"wind_gusts":19.1,"aqi":171,"pm10":85.0,"pm2_5":59.5,"mosquito_risk":0,"arthritis_risk":5,"migraine_risk":4,"frizz_risk":1,"updated_at":"2026-03-06T13:10:38.915674+05:30"},{"city":"Bareilly","state":"Uttar Pradesh","latitude":28.367,"longitude":79.4304,"temp":29.9,"humidity":56,"rain":0.0,"pressure":990.1,"uv_index":6.1,"wind_gusts":14.4,"aqi":164,"pm10":130.9,"pm2_5":81.5,"mosquito_risk":4,"arthritis_risk":5,"migraine_risk":7,"frizz_risk":1,"updated_at":"2026-03-06T13:10:38.915681+05:30"},{"city":"Aligarh","state":"Uttar Pradesh","latitude":27.8974,"longitude":78.088,"temp":31.6,"humidity":51,"rain":0.0,"pressure":988.6,"uv_index":6.05,"wind_gusts":16.6,"aqi":585,"pm10":192.3,"pm2_5":69.6,"mosquito_risk":0,"arthritis_risk":5,"migraine_risk":7,"frizz_risk":1,"updated_at":"2026-03-06T13:10:38.915687+05:30"},{"city":"Moradabad","state":"Uttar Pradesh","latitude":28.8386,"longitude":78.7733,"temp":29.7,"humidity":57,"rain":0.0,"pressure":986.7,"uv_index":5.9,"wind_gusts":18.7,"aqi":169,"pm10":130.4,"pm2_5":81.5,"mosquito_risk":4,"arthritis_risk":5,"migraine_risk":3,"frizz_risk":1,"updated_at":"2026-03-06T13:10:38.915693+05:30"},{"city":"Saharanpur","state":"Uttar Pradesh","latitude":29.9637,"longitude":77.546,"temp":28.6,"humidity":60,"rain":0.0,"pressure":978.7,"uv_index":5.55,"wind_gusts":19.8,"aqi":160,"pm10":143.9,"pm2_5":73.1,"mosquito_risk":4,"arthritis_risk":5,"migraine_risk":3,"frizz_risk":1,"updated_at":"2026-03-06T13:10:38.915699+05:30"},{"city":"Jhansi","state":"Uttar Pradesh","latitude":25.4484,"longitude":78.5685,"temp":35.0,"humidity":26,"rain":0.0,"pressure":980.9,"uv_index":6.85,"wind_gusts":25.2,"aqi":63,"pm10":67.8,"pm2_5":21.6,"mosquito_risk":0,"arthritis_risk":5,"migraine_risk":7,"frizz_risk":0,"updated_at":"2026-03-06T13:10:42.219594+05:30"},{"city":"Surat","state":"Gujarat","latitude":21.1702,"longitude":72.8311,"temp":32.8,"humidity":43,"rain":0.0,"pressure":1009.9,"uv_index":7.15,"wind_gusts":22.7,"aqi":125,"pm10":44.5,"pm2_5":42.4,"mosquito_risk":0,"arthritis_risk":0,"migraine_risk":4,"frizz_risk":1,"updated_at":"2026-03-06T13:10:42.219629+05:30"},{"city":"Vadodara","state":"Gujarat","latitude":22.3072,"longitude":73.1812,"temp":35.1,"humidity":32,"rain":0.0,"pressure":1007.8,"uv_index":7.25,"wind_gusts":18.0,"aqi":99,"pm10":31.8,"pm2_5":25.5,"mosquito_risk":0,"arthritis_risk":5,"migraine_risk":7,"frizz_risk":0,"updated_at":"2026-03-06T13:10:42.219642+05:30"},{"city":"Rajkot","state":"Gujarat","latitude":22.3039,"longitude":70.8022,"temp":30.9,"humidity":43,"rain":0.0,"pressure":998.2,"uv_index":7.1,"wind_gusts":22.0,"aqi":58,"pm10":25.0,"pm2_5":12.7,"mosquito_risk":0,"arthritis_risk":5,"migraine_risk":7,"frizz_risk":1,"updated_at":"2026-03-06T13:10:42.219652+05:30"},{"city":"Thane","state":"Maharashtra","latitude":19.2183,"longitude":72.9781,"temp":35.7,"humidity":27,"rain":0.0,"pressure":1009.4,"uv_index":7.4,"wind_gusts":35.6,"aqi":101,"pm10":50.6,"pm2_5":49.0,"mosquito_risk":0,"arthritis_risk":0,"migraine_risk":7,"frizz_risk":0,"updated_at":"2026-03-06T13:10:42.219662+05:30"},{"city":"Nagpur","state":"Maharashtra","latitude":21.1458,"longitude":79.0882,"temp":36.2,"humidity":19,"rain":0.0,"pressure":975.2,"uv_index":7.8,"wind_gusts":25.9,"aqi":57,"pm10":27.8,"pm2_5":13.5,"mosquito_risk":0,"arthritis_risk":5,"migraine_risk":10,"frizz_risk":0,"updated_at":"2026-03-06T13:10:42.219671+05:30"},{"city":"Nashik","state":"Maharashtra","latitude":19.9975,"longitude":73.7898,"temp":34.2,"humidity":17,"rain":0.0,"pressure":948.7,"uv_index":7.6,"wind_gusts":31.7,"aqi":70,"pm10":18.3,"pm2_5":15.2,"mosquito_risk":0,"arthritis_risk":5,"migraine_risk":7,"frizz_risk":0,"updated_at":"2026-03-06T13:10:42.219679+05:30"},{"city":"Aurangabad","state":"Maharashtra","latitude":19.8762,"longitude":75.3433,"temp":34.7,"humidity":18,"rain":0.0,"pressure":947.2,"uv_index":8.15,"wind_gusts":22.7,"aqi":72,"pm10":18.5,"pm2_5":14.1,"mosquito_risk":0,"arthritis_risk":5,"migraine_risk":7,"frizz_risk":0,"updated_at":"2026-03-06T13:10:42.219686+05:30"},{"city":"Solapur","state":"Maharashtra","latitude":17.6599,"longitude":75.9064,"temp":35.1,"humidity":22,"rain":0.0,"pressure":959.3,"uv_index":8.4,"wind_gusts":20.2,"aqi":71,"pm10":17.8,"pm2_5":14.2,"mosquito_risk":0,"arthritis_risk":5,"migraine_risk":10,"frizz_risk":0,"updated_at":"2026-03-06T13:10:42.219694+05:30"},{"city":"Kolhapur","state":"Maharashtra","latitude":16.705,"longitude":74.2433,"temp":34.6,"humidity":20,"rain":0.0,"pressure":949.8,"uv_index":8.55,"wind_gusts":31.7,"aqi":148,"pm10":17.5,"pm2_5":15.5,"mosquito_risk":0,"arthritis_risk":5,"migraine_risk":7,"frizz_risk":0,"updated_at":"2026-03-06T13:10:42.219700+05:30"},{"city":"Goa","state":"Goa","latitude":15.2993,"longitude":74.124,"temp":31.3,"humidity":62,"rain":0.0,"pressure":998.7,"uv_index":8.55,"wind_gusts":32.4,"aqi":157,"pm10":61.5,"pm2_5":58.9,"mosquito_risk":3,"arthritis_risk":5,"migraine_risk":7,"frizz_risk":1,"updated_at":"2026-03-06T13:10:42.219707+05:30"},{"city":"Jodhpur","state":"Rajasthan","latitude":26.2389,"longitude":73.0243,"temp":33.1,"humidity":28,"rain":0.0,"pressure":987.1,"uv_index":6.95,"wind_gusts":23.0,"aqi":60,"pm10":27.7,"pm2_5":13.0,"mosquito_risk":0,"arthritis_risk":5,"migraine_risk":7,"frizz_risk":0,"updated_at":"2026-03-06T13:10:42.219714+05:30"},{"city":"Udaipur","state":"Rajasthan","latitude":24.5854,"longitude":73.7125,"temp":34.0,"humidity":16,"rain":0.0,"pressure":950.7,"uv_index":7.6,"wind_gusts":20.2,"aqi":40,"pm10":9.8,"pm2_5":8.9,"mosquito_risk":0,"arthritis_risk":5,"migraine_risk":7,"frizz_risk":0,"updated_at":"2026-03-06T13:10:42.219720+05:30"},{"city":"Kota","state":"Rajasthan","latitude":25.2138,"longitude":75.8648,"temp":35.0,"humidity":21,"rain":0.0,"pressure":982.4,"uv_index":7.0,"wind_gusts":17.3,"aqi":74,"pm10":32.5,"pm2_5":11.7,"mosquito_risk":0,"arthritis_risk":5,"migraine_risk":7,"frizz_risk":0,"updated_at":"2026-03-06T13:10:42.219726+05:30"},{"city":"Bikaner","state":"Rajasthan","latitude":28.0229,"longitude":73.3119,"temp":33.1,"humidity":18,"rain":0.0,"pressure":985.2,"uv_index":6.65,"wind_gusts":23.0,"aqi":57,"pm10":68.2,"pm2_5":14.3,"mosquito_risk":0,"arthritis_risk":5,"migraine_risk":7,"frizz_risk":0,"updated_at":"2026-03-06T13:10:42.219733+05:30"},{"city":"Ajmer","state":"Rajasthan","latitude":26.4499,"longitude":74.6399,"temp":33.0,"humidity":23,"rain":0.0,"pressure":958.8,"uv_index":6.95,"wind_gusts":26.3,"aqi":59,"pm10":64.5,"pm2_5":15.0,"mosquito_risk":0,"arthritis_risk":5,"migraine_risk":7,"frizz_risk":0,"updated_at":"2026-03-06T13:10:42.219740+05:30"},{"city":"Gwalior","state":"Madhya Pradesh","latitude":26.2183,"longitude":78.1828,"temp":32.8,"humidity":37,"rain":0.0,"pressure":986.5,"uv_index":6.6,"wind_gusts":20.5,"aqi":88,"pm10":67.5,"pm2_5":20.1,"mosquito_risk":0,"arthritis_risk":5,"migraine_risk":7,"frizz_risk":1,"updated_at":"2026-03-06T13:10:42.219746+05:30"},{"city":"Indore","state":"Madhya Pradesh","latitude":22.7196,"longitude":75.8577,"temp":33.6,"humidity":21,"rain":0.0,"pressure":951.8,"uv_index":7.55,"wind_gusts":22.3,"aqi":70,"pm10":13.7,"pm2_5":11.4,"mosquito_risk":0,"arthritis_risk":5,"migraine_risk":7,"frizz_risk":0,"updated_at":"2026-03-06T13:10:42.219752+05:30"},{"city":"Bhopal","state":"Madhya Pradesh","latitude":23.2599,"longitude":77.4126,"temp":34.3,"humidity":23,"rain":0.0,"pressure":957.1,"uv_index":7.4,"wind_gusts":24.8,"aqi":71,"pm10":41.9,"pm2_5":14.6,"mosquito_risk":0,"arthritis_risk":5,"migraine_risk":7,"frizz_risk":0,"updated_at":"2026-03-06T13:10:42.219758+05:30"},{"city":"Jabalpur","state":"Madhya Pradesh","latitude":23.1815,"longitude":79.9864,"temp":33.0,"humidity":34,"rain":0.0,"pressure":964.2,"uv_index":7.5,"wind_gusts":27.4,"aqi":66,"pm10":41.6,"pm2_5":17.2,"mosquito_risk":0,"arthritis_risk":5,"migraine_risk":7,"frizz_risk":0,"updated_at":"2026-03-06T13:10:42.219765+05:30"},{"city":"Ujjain","state":"Madhya Pradesh","latitude":23.1765,"longitude":75.7885,"temp":33.3,"humidity":24,"rain":0.0,"pressure":957.6,"uv_index":7.45,"wind_gusts":20.2,"aqi":77,"pm10":13.0,"pm2_5":11.5,"mosquito_risk":0,"arthritis_risk":5,"migraine_risk":7,"frizz_risk":0,"updated_at":"2026-03-06T13:10:42.219771+05:30"},{"city":"Visakhapatnam","state":"Andhra Pradesh","latitude":17.6868,"longitude":83.2185,"temp":33.1,"humidity":53,"rain":0.0,"pressure":1004.0,"uv_index":8.45,"wind_gusts":36.7,"aqi":146,"pm10":52.4,"pm2_5":47.8,"mosquito_risk":0,"arthritis_risk":5,"migraine_risk":4,"frizz_risk":1,"updated_at":"2026-03-06T13:10:42.219778+05:30"},{"city":"Vijayawada","state":"Andhra Pradesh","latitude":16.5062,"longitude":80.648,"temp":35.4,"humidity":34,"rain":0.0,"pressure":1002.8,"uv_index":8.55,"wind_gusts":15.1,"aqi":135,"pm10":36.9,"pm2_5":33.5,"mosquito_risk":0,"arthritis_risk":5,"migraine_risk":7,"frizz_risk":1,"updated_at":"2026-03-06T13:10:42.219784+05:30"},{"city":"Guntur","state":"Andhra Pradesh","latitude":16.3067,"longitude":80.4365,"temp":36.2,"humidity":30,"rain":0.0,"pressure":1004.1,"uv_index":8.55,"wind_gusts":15.8,"aqi":113,"pm10":32.6,"pm2_5":29.9,"mosquito_risk":0,"arthritis_risk":5,"migraine_risk":7,"frizz_risk":0,"updated_at":"2026-03-06T13:10:42.219791+05:30"},{"city":"Nellore","state":"Andhra Pradesh","latitude":14.4426,"longitude":79.9865,"temp":37.5,"humidity":24,"rain":0.0,"pressure":1005.8,"uv_index":8.75,"wind_gusts":28.4,"aqi":88,"pm10":31.5,"pm2_5":29.0,"mosquito_risk":0,"arthritis_risk":5,"migraine_risk":7,"frizz_risk":0,"updated_at":"2026-03-06T13:10:42.219798+05:30"},{"city":"Kurnool","state":"Andhra Pradesh","latitude":15.8281,"longitude":78.0373,"temp":38.0,"humidity":14,"rain":0.0,"pressure":977.8,"uv_index":8.55,"wind_gusts":24.5,"aqi":73,"pm10":22.0,"pm2_5":19.0,"mosquito_risk":0,"arthritis_risk":5,"migraine_risk":10,"frizz_risk":0,"updated_at":"2026-03-06T13:10:42.219804+05:30"},{"city":"Kakinada","state":"Andhra Pradesh","latitude":16.9891,"longitude":82.2475,"temp":36.2,"humidity":40,"rain":0.0,"pressure":1007.1,"uv_index":8.5,"wind_gusts":32.0,"aqi":116,"pm10":32.7,"pm2_5":27.2,"mosquito_risk":0,"arthritis_risk":5,"migraine_risk":7,"frizz_risk":1,"updated_at":"2026-03-06T13:10:42.219811+05:30"},{"city":"Tirupati","state":"Andhra Pradesh","latitude":13.6288,"longitude":79.4192,"temp":36.7,"humidity":23,"rain":0.0,"pressure":991.9,"uv_index":8.85,"wind_gusts":30.6,"aqi":110,"pm10":32.4,"pm2_5":29.7,"mosquito_risk":0,"arthritis_risk":5,"migraine_risk":10,"frizz_risk":0,"updated_at":"2026-03-06T13:10:42.219817+05:30"},{"city":"Warangal","state":"Telangana","latitude":17.9689,"longitude":79.5941,"temp":35.3,"humidity":26,"rain":0.0,"pressure":980.1,"uv_index":8.3,"wind_gusts":25.9,"aqi":81,"pm10":26.5,"pm2_5":18.5,"mosquito_risk":0,"arthritis_risk":5,"migraine_risk":10,"frizz_risk":0,"updated_at":"2026-03-06T13:10:42.219824+05:30"},{"city":"Nizamabad","state":"Telangana","latitude":18.6725,"longitude":78.0941,"temp":35.1,"humidity":22,"rain":0.0,"pressure":966.9,"uv_index":8.2,"wind_gusts":32.0,"aqi":87,"pm10":25.1,"pm2_5":14.8,"mosquito_risk":0,"arthritis_risk":5,"migraine_risk":10,"frizz_risk":0,"updated_at":"2026-03-06T13:10:42.219831+05:30"},{"city":"Mysore","state":"Karnataka","latitude":12.2958,"longitude":76.6396,"temp":32.8,"humidity":29,"rain":0.0,"pressure":929.9,"uv_index":9.2,"wind_gusts":35.6,"aqi":121,"pm10":34.9,"pm2_5":32.9,"mosquito_risk":0,"arthritis_risk":5,"migraine_risk":7,"frizz_risk":0,"updated_at":"2026-03-06T13:10:42.219837+05:30"},{"city":"Mangalore","state":"Karnataka","latitude":12.9141,"longitude":74.856,"temp":28.8,"humidity":79,"rain":0.0,"pressure":1007.3,"uv_index":8.8,"wind_gusts":23.4,"aqi":125,"pm10":52.3,"pm2_5":49.1,"mosquito_risk":7,"arthritis_risk":5,"migraine_risk":4,"frizz_risk":1,"updated_at":"2026-03-06T13:10:42.219844+05:30"},{"city":"Hubli-Dharwad","state":"Karnataka","latitude":15.3647,"longitude":75.124,"temp":35.3,"humidity":18,"rain":0.0,"pressure":942.2,"uv_index":8.75,"wind_gusts":37.1,"aqi":92,"pm10":28.2,"pm2_5":25.9,"mosquito_risk":0,"arthritis_risk":5,"migraine_risk":10,"frizz_risk":0,"updated_at":"2026-03-06T13:10:42.219850+05:30"},{"city":"Belgaum","state":"Karnataka","latitude":15.8497,"longitude":74.4977,"temp":34.2,"humidity":18,"rain":0.0,"pressure":927.8,"uv_index":8.8,"wind_gusts":40.0,"aqi":117,"pm10":23.2,"pm2_5":21.2,"mosquito_risk":0,"arthritis_risk":5,"migraine_risk":7,"frizz_risk":0,"updated_at":"2026-03-06T13:10:45.528609+05:30"},{"city":"Coimbatore","state":"Tamil Nadu","latitude":11.0168,"longitude":76.9558,"temp":33.3,"humidity":40,"rain":0.0,"pressure":962.9,"uv_index":9.15,"wind_gusts":44.3,"aqi":115,"pm10":36.2,"pm2_5":34.0,"mosquito_risk":0,"arthritis_risk":5,"migraine_risk":7,"frizz_risk":1,"updated_at":"2026-03-06T13:10:45.528640+05:30"},{"city":"Madurai","state":"Tamil Nadu","latitude":9.9252,"longitude":78.1198,"temp":33.7,"humidity":42,"rain":0.0,"pressure":994.0,"uv_index":9.15,"wind_gusts":33.8,"aqi":91,"pm10":31.2,"pm2_5":26.5,"mosquito_risk":0,"arthritis_risk":5,"migraine_risk":7,"frizz_risk":1,"updated_at":"2026-03-06T13:10:45.528651+05:30"},{"city":"Trichy","state":"Tamil Nadu","latitude":10.7905,"longitude":78.7047,"temp":34.8,"humidity":39,"rain":0.0,"pressure":1000.5,"uv_index":9.05,"wind_gusts":25.2,"aqi":84,"pm10":30.0,"pm2_5":26.5,"mosquito_risk":0,"arthritis_risk":5,"migraine_risk":4,"frizz_risk":1,"updated_at":"2026-03-06T13:10:45.528660+05:30"},{"city":"Salem","state":"Tamil Nadu","latitude":11.6643,"longitude":78.146,"temp":34.8,"humidity":36,"rain":0.0,"pressure":978.1,"uv_index":9.05,"wind_gusts":15.8,"aqi":99,"pm10":38.9,"pm2_5":34.3,"mosquito_risk":0,"arthritis_risk":5,"migraine_risk":7,"frizz_risk":1,"updated_at":"2026-03-06T13:10:45.528668+05:30"},{"city":"Tirunelveli","state":"Tamil Nadu","latitude":8.7139,"longitude":77.7567,"temp":37.0,"humidity":28,"rain":0.0,"pressure":1003.8,"uv_index":9.15,"wind_gusts":49.3,"aqi":92,"pm10":31.9,"pm2_5":26.2,"mosquito_risk":0,"arthritis_risk":5,"migraine_risk":7,"frizz_risk":0,"updated_at":"2026-03-06T13:10:45.528676+05:30"},{"city":"Vellore","state":"Tamil Nadu","latitude":12.9165,"longitude":79.1325,"temp":36.1,"humidity":24,"rain":0.0,"pressure":985.0,"uv_index":8.95,"wind_gusts":32.4,"aqi":118,"pm10":34.7,"pm2_5":31.7,"mosquito_risk":0,"arthritis_risk":5,"migraine_risk":10,"frizz_risk":0,"updated_at":"2026-03-06T13:10:45.528684+05:30"},{"city":"Erode","state":"Tamil Nadu","latitude":11.341,"longitude":77.7172,"temp":35.5,"humidity":36,"rain":0.0,"pressure":989.6,"uv_index":9.05,"wind_gusts":19.4,"aqi":94,"pm10":37.4,"pm2_5":33.3,"mosquito_risk":0,"arthritis_risk":5,"migraine_risk":10,"frizz_risk":1,"updated_at":"2026-03-06T13:10:45.528693+05:30"},{"city":"Kochi","state":"Kerala","latitude":9.9312,"longitude":76.2673,"temp":28.0,"humidity":81,"rain":0.0,"pressure":1009.6,"uv_index":9.0,"wind_gusts":33.8,"aqi":136,"pm10":39.0,"pm2_5":37.0,"mosquito_risk":7,"arthritis_risk":0,"migraine_risk":4,"frizz_risk":1,"updated_at":"2026-03-06T13:10:45.528701+05:30"},{"city":"Thiruvananthapuram","state":"Kerala","latitude":8.5241,"longitude":76.9366,"temp":28.2,"humidity":78,"rain":0.0,"pressure":1009.0,"uv_index":9.0,"wind_gusts":33.1,"aqi":83,"pm10":26.9,"pm2_5":24.4,"mosquito_risk":7,"arthritis_risk":0,"migraine_risk":4,"frizz_risk":1,"updated_at":"2026-03-06T13:10:45.528709+05:30"},{"city":"Kozhikode","state":"Kerala","latitude":11.2588,"longitude":75.7804,"temp":29.8,"humidity":73,"rain":0.0,"pressure":1008.6,"uv_index":8.85,"wind_gusts":27.7,"aqi":110,"pm10":40.3,"pm2_5":37.5,"mosquito_risk":7,"arthritis_risk":0,"migraine_risk":4,"frizz_risk":1,"updated_at":"2026-03-06T13:10:45.528716+05:30"},{"city":"Thrissur","state":"Kerala","latitude":10.5276,"longitude":76.2144,"temp":31.7,"humidity":65,"rain":0.0,"pressure":1007.9,"uv_index":8.95,"wind_gusts":34.6,"aqi":127,"pm10":40.9,"pm2_5":38.6,"mosquito_risk":3,"arthritis_risk":5,"migraine_risk":4,"frizz_risk":1,"updated_at":"2026-03-06T13:10:45.528725+05:30"},{"city":"Kannur","state":"Kerala","latitude":11.8745,"longitude":75.3704,"temp":31.5,"humidity":64,"rain":0.0,"pressure":1007.9,"uv_index":8.85,"wind_gusts":32.0,"aqi":113,"pm10":42.4,"pm2_5":39.7,"mosquito_risk":3,"arthritis_risk":5,"migraine_risk":4,"frizz_risk":1,"updated_at":"2026-03-06T13:10:45.528733+05:30"},{"city":"Patna","state":"Bihar","latitude":25.5941,"longitude":85.1376,"temp":31.2,"humidity":44,"rain":0.0,"pressure":1003.5,"uv_index":7.25,"wind_gusts":21.6,"aqi":164,"pm10":89.4,"pm2_5":69.2,"mosquito_risk":0,"arthritis_risk":5,"migraine_risk":4,"frizz_risk":1,"updated_at":"2026-03-06T13:10:45.528740+05:30"},{"city":"Gaya","state":"Bihar","latitude":24.7914,"longitude":85.0002,"temp":29.8,"humidity":59,"rain":0.0,"pressure":996.1,"uv_index":7.35,"wind_gusts":21.6,"aqi":156,"pm10":99.4,"pm2_5":69.6,"mosquito_risk":4,"arthritis_risk":5,"migraine_risk":7,"frizz_risk":1,"updated_at":"2026-03-06T13:10:45.528747+05:30"},{"city":"Muzaffarpur","state":"Bihar","latitude":26.1209,"longitude":85.3647,"temp":31.4,"humidity":41,"rain":0.0,"pressure":1003.7,"uv_index":7.2,"wind_gusts":20.5,"aqi":170,"pm10":86.6,"pm2_5":68.2,"mosquito_risk":0,"arthritis_risk":5,"migraine_risk":4,"frizz_risk":1,"updated_at":"2026-03-06T13:10:45.528754+05:30"},{"city":"Bhagalpur","state":"Bihar","latitude":25.2425,"longitude":87.0117,"temp":30.8,"humidity":47,"rain":0.0,"pressure":1004.2,"uv_index":7.3,"wind_gusts":17.3,"aqi":161,"pm10":74.0,"pm2_5":59.8,"mosquito_risk":0,"arthritis_risk":5,"migraine_risk":4,"frizz_risk":1,"updated_at":"2026-03-06T13:10:45.528761+05:30"},{"city":"Ranchi","state":"Jharkhand","latitude":23.3441,"longitude":85.3096,"temp":30.1,"humidity":34,"rain":0.0,"pressure":939.6,"uv_index":8.0,"wind_gusts":31.0,"aqi":136,"pm10":88.2,"pm2_5":54.4,"mosquito_risk":0,"arthritis_risk":5,"migraine_risk":7,"frizz_risk":0,"updated_at":"2026-03-06T13:10:45.528768+05:30"},{"city":"Jamshedpur","state":"Jharkhand","latitude":22.8046,"longitude":86.2029,"temp":32.0,"humidity":40,"rain":0.0,"pressure":992.5,"uv_index":7.9,"wind_gusts":24.5,"aqi":152,"pm10":93.1,"pm2_5":54.0,"mosquito_risk":0,"arthritis_risk":5,"migraine_risk":7,"frizz_risk":1,"updated_at":"2026-03-06T13:10:45.528775+05:30"},{"city":"Dhanbad","state":"Jharkhand","latitude":23.7957,"longitude":86.4304,"temp":33.1,"humidity":28,"rain":0.0,"pressure":981.9,"uv_index":7.75,"wind_gusts":27.4,"aqi":171,"pm10":99.2,"pm2_5":72.4,"mosquito_risk":0,"arthritis_risk":5,"migraine_risk":7,"frizz_risk":0,"updated_at":"2026-03-06T13:10:45.528783+05:30"},{"city":"Bokaro","state":"Jharkhand","latitude":23.6693,"longitude":86.1511,"temp":31.9,"humidity":31,"rain":0.0,"pressure":985.8,"uv_index":7.75,"wind_gusts":29.5,"aqi":175,"pm10":106.4,"pm2_5":72.6,"mosquito_risk":0,"arthritis_risk":5,"migraine_risk":7,"frizz_risk":0,"updated_at":"2026-03-06T13:10:45.528790+05:30"},{"city":"Bhubaneswar","state":"Odisha","latitude":20.2961,"longitude":85.8245,"temp":33.3,"humidity":43,"rain":0.0,"pressure":1003.3,"uv_index":8.2,"wind_gusts":31.7,"aqi":145,"pm10":71.5,"pm2_5":49.8,"mosquito_risk":0,"arthritis_risk":5,"migraine_risk":4,"frizz_risk":1,"updated_at":"2026-03-06T13:10:45.528797+05:30"},{"city":"Cuttack","state":"Odisha","latitude":20.4625,"longitude":85.8828,"temp":34.1,"humidity":41,"rain":0.0,"pressure":1005.2,"uv_index":8.2,"wind_gusts":35.6,"aqi":145,"pm10":71.5,"pm2_5":49.8,"mosquito_risk":0,"arthritis_risk":5,"migraine_risk":4,"frizz_risk":1,"updated_at":"2026-03-06T13:10:45.528804+05:30"},{"city":"Rourkela","state":"Odisha","latitude":22.2604,"longitude":84.8536,"temp":34.2,"humidity":30,"rain":0.0,"pressure":985.8,"uv_index":7.8,"wind_gusts":11.9,"aqi":132,"pm10":110.4,"pm2_5":58.1,"mosquito_risk":0,"arthritis_risk":5,"migraine_risk":7,"frizz_risk":0,"updated_at":"2026-03-06T13:10:45.528811+05:30"},{"city":"Raipur","state":"Chhattisgarh","latitude":21.2514,"longitude":81.6296,"temp":35.8,"humidity":22,"rain":0.0,"pressure":976.1,"uv_index":7.9,"wind_gusts":23.0,"aqi":86,"pm10":71.5,"pm2_5":25.6,"mosquito_risk":0,"arthritis_risk":5,"migraine_risk":10,"frizz_risk":0,"updated_at":"2026-03-06T13:10:45.528818+05:30"},{"city":"Bhilai","state":"Chhattisgarh","latitude":21.1938,"longitude":81.3509,"temp":36.7,"humidity":22,"rain":0.0,"pressure":976.3,"uv_index":7.95,"wind_gusts":25.6,"aqi":77,"pm10":45.6,"pm2_5":21.8,"mosquito_risk":0,"arthritis_risk":5,"migraine_risk":10,"frizz_risk":0,"updated_at":"2026-03-06T13:10:45.528824+05:30"},{"city":"Guwahati","state":"Assam","latitude":26.1158,"longitude":91.7086,"temp":31.8,"humidity":48,"rain":0.0,"pressure":1003.5,"uv_index":7.25,"wind_gusts":21.2,"aqi":152,"pm10":58.4,"pm2_5":50.9,"mosquito_risk":0,"arthritis_risk":5,"migraine_risk":4,"frizz_risk":1,"updated_at":"2026-03-06T13:10:45.528831+05:30"},{"city":"Agartala","state":"Tripura","latitude":23.8315,"longitude":91.2868,"temp":31.9,"humidity":51,"rain":0.0,"pressure":1007.8,"uv_index":7.55,"wind_gusts":16.9,"aqi":159,"pm10":64.0,"pm2_5":50.8,"mosquito_risk":0,"arthritis_risk":5,"migraine_risk":4,"frizz_risk":1,"updated_at":"2026-03-06T13:10:45.528838+05:30"},{"city":"Shillong","state":"Meghalaya","latitude":25.5788,"longitude":91.8933,"temp":21.3,"humidity":39,"rain":0.0,"pressure":860.1,"uv_index":7.6,"wind_gusts":33.1,"aqi":128,"pm10":41.0,"pm2_5":34.9,"mosquito_risk":0,"arthritis_risk":5,"migraine_risk":7,"frizz_risk":0,"updated_at":"2026-03-06T13:10:45.528845+05:30"},{"city":"Imphal","state":"Manipur","latitude":24.817,"longitude":93.9368,"temp":26.1,"humidity":37,"rain":0.0,"pressure":925.8,"uv_index":7.8,"wind_gusts":34.6,"aqi":152,"pm10":38.5,"pm2_5":34.7,"mosquito_risk":4,"arthritis_risk":5,"migraine_risk":7,"frizz_risk":0,"updated_at":"2026-03-06T13:10:45.528852+05:30"},{"city":"Aizawl","state":"Mizoram","latitude":23.7271,"longitude":92.7176,"temp":27.8,"humidity":35,"rain":0.0,"pressure":895.8,"uv_index":7.75,"wind_gusts":33.1,"aqi":176,"pm10":74.5,"pm2_5":66.8,"mosquito_risk":4,"arthritis_risk":5,"migraine_risk":7,"frizz_risk":0,"updated_at":"2026-03-06T13:10:45.528859+05:30"},{"city":"Kohima","state":"Nagaland","latitude":25.6701,"longitude":94.1077,"temp":20.7,"humidity":55,"rain":0.0,"pressure":858.3,"uv_index":7.65,"wind_gusts":41.8,"aqi":152,"pm10":59.4,"pm2_5":52.6,"mosquito_risk":0,"arthritis_risk":5,"migraine_risk":7,"frizz_risk":0,"updated_at":"2026-03-06T13:10:45.528866+05:30"},{"city":"Gangtok","state":"Sikkim","latitude":27.3314,"longitude":88.6138,"temp":18.5,"humidity":70,"rain":0.0,"pressure":841.3,"uv_index":7.55,"wind_gusts":16.9,"aqi":99,"pm10":42.7,"pm2_5":37.1,"mosquito_risk":3,"arthritis_risk":5,"migraine_risk":7,"frizz_risk":0,"updated_at":"2026-03-06T13:10:45.528873+05:30"},{"city":"Siliguri","state":"West Bengal","latitude":26.7271,"longitude":88.3953,"temp":25.6,"humidity":57,"rain":0.0,"pressure":997.3,"uv_index":7.2,"wind_gusts":15.1,"aqi":138,"pm10":54.7,"pm2_5":44.7,"mosquito_risk":4,"arthritis_risk":5,"migraine_risk":7,"frizz_risk":1,"updated_at":"2026-03-06T13:10:48.886898+05:30"},{"city":"Durgapur","state":"West Bengal","latitude":23.5204,"longitude":87.3119,"temp":33.2,"humidity":30,"rain":0.0,"pressure":997.0,"uv_index":7.75,"wind_gusts":24.1,"aqi":162,"pm10":85.2,"pm2_5":63.6,"mosquito_risk":0,"arthritis_risk":5,"migraine_risk":7,"frizz_risk":0,"updated_at":"2026-03-06T13:10:48.886925+05:30"},{"city":"Asansol","state":"West Bengal","latitude":23.6739,"longitude":86.9524,"temp":33.6,"humidity":29,"rain":0.0,"pressure":995.5,"uv_index":7.75,"wind_gusts":21.6,"aqi":161,"pm10":91.3,"pm2_5":68.7,"mosquito_risk":0,"arthritis_risk":5,"migraine_risk":7,"frizz_risk":0,"updated_at":"2026-03-06T13:10:48.886935+05:30"},{"city":"Pondicherry","state":"Puducherry","latitude":11.9139,"longitude":79.8145,"temp":34.9,"humidity":41,"rain":0.0,"pressure":1009.0,"uv_index":8.9,"wind_gusts":27.0,"aqi":67,"pm10":34.6,"pm2_5":31.9,"mosquito_risk":0,"arthritis_risk":0,"migraine_risk":4,"frizz_risk":1,"updated_at":"2026-03-06T13:10:48.886943+05:30"},{"city":"Port Blair","state":"Andaman and Nicobar Islands","latitude":11.6234,"longitude":92.7265,"temp":27.6,"humidity":66,"rain":0.0,"pressure":1008.1,"uv_index":8.85,"wind_gusts":14.4,"aqi":51,"pm10":24.9,"pm2_5":15.8,"mosquito_risk":7,"arthritis_risk":0,"migraine_risk":4,"frizz_risk":1,"updated_at":"2026-03-06T13:10:48.886950+05:30"},{"city":"Haridwar","state":"Uttarakhand","latitude":29.9457,"longitude":78.1642,"temp":29.1,"humidity":55,"rain":0.0,"pressure":977.4,"uv_index":5.65,"wind_gusts":22.7,"aqi":152,"pm10":132.7,"pm2_5":70.8,"mosquito_risk":4,"arthritis_risk":5,"migraine_risk":3,"frizz_risk":1,"updated_at":"2026-03-06T13:10:48.886958+05:30"},{"city":"Rishikesh","state":"Uttarakhand","latitude":30.0869,"longitude":78.2676,"temp":29.0,"humidity":53,"rain":0.0,"pressure":970.1,"uv_index":5.7,"wind_gusts":23.0,"aqi":146,"pm10":112.0,"pm2_5":62.9,"mosquito_risk":4,"arthritis_risk":5,"migraine_risk":3,"frizz_risk":1,"updated_at":"2026-03-06T13:10:48.886965+05:30"},{"city":"Nainital","state":"Uttarakhand","latitude":29.3919,"longitude":79.4542,"temp":21.8,"humidity":59,"rain":0.0,"pressure":810.3,"uv_index":6.5,"wind_gusts":46.4,"aqi":159,"pm10":103.1,"pm2_5":63.3,"mosquito_risk":0,"arthritis_risk":5,"migraine_risk":7,"frizz_risk":0,"updated_at":"2026-03-06T13:10:48.886972+05:30"},{"city":"Mussoorie","state":"Uttarakhand","latitude":30.4599,"longitude":78.0664,"temp":20.8,"humidity":68,"rain":0.0,"pressure":806.7,"uv_index":6.05,"wind_gusts":40.3,"aqi":137,"pm10":108.3,"pm2_5":56.0,"mosquito_risk":3,"arthritis_risk":5,"migraine_risk":7,"frizz_risk":0,"updated_at":"2026-03-06T13:10:48.886979+05:30"},{"city":"Dharamshala","state":"Himachal Pradesh","latitude":32.219,"longitude":76.3234,"temp":26.4,"humidity":46,"rain":0.0,"pressure":872.9,"uv_index":5.6,"wind_gusts":20.9,"aqi":56,"pm10":18.7,"pm2_5":8.2,"mosquito_risk":4,"arthritis_risk":5,"migraine_risk":3,"frizz_risk":0,"updated_at":"2026-03-06T13:10:48.886986+05:30"},{"city":"Dalhousie","state":"Himachal Pradesh","latitude":32.5387,"longitude":75.971,"temp":26.4,"humidity":29,"rain":0.0,"pressure":809.2,"uv_index":5.75,"wind_gusts":22.3,"aqi":93,"pm10":38.1,"pm2_5":20.0,"mosquito_risk":4,"arthritis_risk":5,"migraine_risk":3,"frizz_risk":0,"updated_at":"2026-03-06T13:10:48.886994+05:30"},{"city":"Patiala","state":"Punjab","latitude":30.3398,"longitude":76.3869,"temp":30.8,"humidity":53,"rain":0.0,"pressure":980.7,"uv_index":5.7,"wind_gusts":12.6,"aqi":165,"pm10":177.0,"pm2_5":71.2,"mosquito_risk":0,"arthritis_risk":5,"migraine_risk":3,"frizz_risk":1,"updated_at":"2026-03-06T13:10:48.887001+05:30"},{"city":"Bhatinda","state":"Punjab","latitude":30.211,"longitude":74.9455,"temp":32.4,"humidity":40,"rain":0.0,"pressure":986.1,"uv_index":6.4,"wind_gusts":18.0,"aqi":150,"pm10":46.8,"pm2_5":38.8,"mosquito_risk":0,"arthritis_risk":5,"migraine_risk":7,"frizz_risk":1,"updated_at":"2026-03-06T13:10:48.887007+05:30"},{"city":"Rohtak","state":"Haryana","latitude":28.8955,"longitude":76.6066,"temp":31.3,"humidity":46,"rain":0.0,"pressure":984.7,"uv_index":5.9,"wind_gusts":19.4,"aqi":418,"pm10":138.8,"pm2_5":48.2,"mosquito_risk":0,"arthritis_risk":5,"migraine_risk":3,"frizz_risk":1,"updated_at":"2026-03-06T13:10:48.887013+05:30"},{"city":"Panipat","state":"Haryana","latitude":29.3909,"longitude":76.9635,"temp":30.6,"humidity":55,"rain":0.0,"pressure":983.2,"uv_index":5.7,"wind_gusts":14.0,"aqi":814,"pm10":221.7,"pm2_5":73.6,"mosquito_risk":0,"arthritis_risk":5,"migraine_risk":3,"frizz_risk":1,"updated_at":"2026-03-06T13:10:48.887020+05:30"},{"city":"Mathura","state":"Uttar Pradesh","latitude":27.4924,"longitude":77.6737,"temp":32.5,"humidity":38,"rain":0.0,"pressure":990.0,"uv_index":6.2,"wind_gusts":19.1,"aqi":561,"pm10":240.3,"pm2_5":64.5,"mosquito_risk":0,"arthritis_risk":5,"migraine_risk":7,"frizz_risk":1,"updated_at":"2026-03-06T13:10:48.887027+05:30"},{"city":"Vrindavan","state":"Uttar Pradesh","latitude":27.5823,"longitude":77.7027,"temp":32.0,"humidity":44,"rain":0.0,"pressure":990.4,"uv_index":6.15,"wind_gusts":17.6,"aqi":561,"pm10":240.3,"pm2_5":64.5,"mosquito_risk":0,"arthritis_risk":5,"migraine_risk":7,"frizz_risk":1,"updated_at":"2026-03-06T13:10:48.887033+05:30"},{"city":"Ayodhya","state":"Uttar Pradesh","latitude":26.7922,"longitude":82.1998,"temp":30.4,"humidity":46,"rain":0.0,"pressure":998.9,"uv_index":6.55,"wind_gusts":19.8,"aqi":167,"pm10":99.4,"pm2_5":64.3,"mosquito_risk":0,"arthritis_risk":5,"migraine_risk":7,"frizz_risk":1,"updated_at":"2026-03-06T13:10:48.887039+05:30"},{"city":"Ratlam","state":"Madhya Pradesh","latitude":23.3315,"longitude":75.0367,"temp":32.2,"humidity":28,"rain":0.0,"pressure":958.6,"uv_index":7.4,"wind_gusts":21.2,"aqi":67,"pm10":12.3,"pm2_5":10.1,"mosquito_risk":0,"arthritis_risk":5,"migraine_risk":7,"frizz_risk":0,"updated_at":"2026-03-06T13:10:48.887045+05:30"},{"city":"Sagar","state":"Madhya Pradesh","latitude":23.8388,"longitude":78.7378,"temp":33.8,"humidity":26,"rain":0.0,"pressure":953.3,"uv_index":7.35,"wind_gusts":22.0,"aqi":58,"pm10":45.1,"pm2_5":13.0,"mosquito_risk":0,"arthritis_risk":5,"migraine_risk":7,"frizz_risk":0,"updated_at":"2026-03-06T13:10:48.887051+05:30"},{"city":"Satna","state":"Madhya Pradesh","latitude":24.6005,"longitude":80.8322,"temp":33.7,"humidity":35,"rain":0.0,"pressure":973.7,"uv_index":7.3,"wind_gusts":32.4,"aqi":87,"pm10":258.9,"pm2_5":58.0,"mosquito_risk":0,"arthritis_risk":5,"migraine_risk":7,"frizz_risk":1,"updated_at":"2026-03-06T13:10:48.887057+05:30"},{"city":"Akola","state":"Maharashtra","latitude":20.7002,"longitude":77.0082,"temp":36.3,"humidity":23,"rain":0.0,"pressure":977.7,"uv_index":7.85,"wind_gusts":18.7,"aqi":77,"pm10":27.9,"pm2_5":16.3,"mosquito_risk":0,"arthritis_risk":5,"migraine_risk":10,"frizz_risk":0,"updated_at":"2026-03-06T13:10:48.887064+05:30"},{"city":"Amravati","state":"Maharashtra","latitude":20.9374,"longitude":77.7796,"temp":36.8,"humidity":18,"rain":0.0,"pressure":969.8,"uv_index":7.8,"wind_gusts":15.5,"aqi":76,"pm10":27.6,"pm2_5":14.5,"mosquito_risk":0,"arthritis_risk":5,"migraine_risk":10,"frizz_risk":0,"updated_at":"2026-03-06T13:10:48.887072+05:30"},{"city":"Latur","state":"Maharashtra","latitude":18.4088,"longitude":76.5604,"temp":34.0,"humidity":21,"rain":0.0,"pressure":942.4,"uv_index":8.3,"wind_gusts":31.7,"aqi":75,"pm10":21.4,"pm2_5":16.5,"mosquito_risk":0,"arthritis_risk":5,"migraine_risk":7,"frizz_risk":0,"updated_at":"2026-03-06T13:10:48.887078+05:30"},{"city":"Nanded","state":"Maharashtra","latitude":19.1383,"longitude":77.3091,"temp":36.9,"humidity":20,"rain":0.0,"pressure":970.9,"uv_index":8.1,"wind_gusts":21.2,"aqi":93,"pm10":21.9,"pm2_5":13.4,"mosquito_risk":0,"arthritis_risk":5,"migraine_risk":10,"frizz_risk":0,"updated_at":"2026-03-06T13:10:48.887084+05:30"},{"city":"Gulbarga","state":"Karnataka","latitude":17.3297,"longitude":76.8343,"temp":36.8,"humidity":14,"rain":0.0,"pressure":960.5,"uv_index":8.4,"wind_gusts":33.1,"aqi":75,"pm10":15.4,"pm2_5":11.8,"mosquito_risk":0,"arthritis_risk":5,"migraine_risk":10,"frizz_risk":0,"updated_at":"2026-03-06T13:10:48.887090+05:30"},{"city":"Bidar","state":"Karnataka","latitude":17.9104,"longitude":77.5199,"temp":34.6,"humidity":18,"rain":0.0,"pressure":937.8,"uv_index":8.35,"wind_gusts":32.8,"aqi":78,"pm10":18.2,"pm2_5":12.4,"mosquito_risk":0,"arthritis_risk":5,"migraine_risk":7,"frizz_risk":0,"updated_at":"2026-03-06T13:10:48.887096+05:30"},{"city":"Hospet","state":"Karnataka","latitude":15.2689,"longitude":76.3909,"temp":35.0,"humidity":23,"rain":0.0,"pressure":957.1,"uv_index":8.75,"wind_gusts":23.0,"aqi":101,"pm10":23.7,"pm2_5":21.4,"mosquito_risk":0,"arthritis_risk":5,"migraine_risk":7,"frizz_risk":0,"updated_at":"2026-03-06T13:10:48.887102+05:30"},{"city":"Tirupur","state":"Tamil Nadu","latitude":11.1085,"longitude":77.3411,"temp":35.3,"humidity":32,"rain":0.0,"pressure":976.0,"uv_index":9.2,"wind_gusts":32.4,"aqi":123,"pm10":42.8,"pm2_5":39.5,"mosquito_risk":0,"arthritis_risk":5,"migraine_risk":10,"frizz_risk":1,"updated_at":"2026-03-06T13:10:48.887108+05:30"},{"city":"Alappuzha","state":"Kerala","latitude":9.4981,"longitude":76.3388,"temp":28.0,"humidity":80,"rain":0.0,"pressure":1009.8,"uv_index":8.95,"wind_gusts":30.6,"aqi":117,"pm10":32.8,"pm2_5":30.7,"mosquito_risk":7,"arthritis_risk":0,"migraine_risk":4,"frizz_risk":1,"updated_at":"2026-03-06T13:10:48.887114+05:30"},{"city":"Munnar","state":"Kerala","latitude":10.0889,"longitude":77.0595,"temp":28.3,"humidity":46,"rain":0.0,"pressure":859.6,"uv_index":9.5,"wind_gusts":29.5,"aqi":96,"pm10":29.6,"pm2_5":26.5,"mosquito_risk":4,"arthritis_risk":5,"migraine_risk":7,"frizz_risk":0,"updated_at":"2026-03-06T13:10:48.887121+05:30"},{"city":"Silchar","state":"Assam","latitude":24.8333,"longitude":92.7789,"temp":33.6,"humidity":38,"rain":0.0,"pressure":1006.3,"uv_index":7.55,"wind_gusts":12.6,"aqi":165,"pm10":61.0,"pm2_5":52.9,"mosquito_risk":0,"arthritis_risk":5,"migraine_risk":4,"frizz_risk":1,"updated_at":"2026-03-06T13:10:48.887127+05:30"},{"city":"Dibrugarh","state":"Assam","latitude":27.4728,"longitude":94.912,"temp":29.3,"humidity":53,"rain":0.0,"pressure":997.7,"uv_index":7.25,"wind_gusts":14.4,"aqi":108,"pm10":36.9,"pm2_5":31.5,"mosquito_risk":4,"arthritis_risk":5,"migraine_risk":7,"frizz_risk":1,"updated_at":"2026-03-06T13:10:48.887133+05:30"}]