[{"city":"Delhi","state":"Delhi","latitude":28.6139,"longitude":77.209,"temp":21.1,"humidity":57,"rain":0.0,"pressure":986.1,"uv_index":7.15,"wind_gusts":37.8,"aqi":784,"pm10":704.1,"pm2_5":126.2,"mosquito_risk":0,"arthritis_risk":5,"migraine_risk":7,"frizz_risk":0,"updated_at":"2026-04-11T03:11:12.349206+05:30"},{"city":"Mumbai","state":"Maharashtra","latitude":19.076,"longitude":72.8777,"temp":28.4,"humidity":79,"rain":0.0,"pressure":1009.3,"uv_index":7.95,"wind_gusts":25.2,"aqi":102,"pm10":65.9,"pm2_5":40.5,"mosquito_risk":7,"arthritis_risk":0,"migraine_risk":4,"frizz_risk":1,"updated_at":"2026-04-11T03:11:12.349249+05:30"},{"city":"Bangalore","state":"Karnataka","latitude":12.9716,"longitude":77.5946,"temp":24.3,"humidity":84,"rain":0.0,"pressure":912.5,"uv_index":9.65,"wind_gusts":28.1,"aqi":92,"pm10":35.2,"pm2_5":32.4,"mosquito_risk":3,"arthritis_risk":5,"migraine_risk":7,"frizz_risk":1,"updated_at":"2026-04-11T03:11:12.349264+05:30"},{"city":"Hyderabad","state":"Telangana","latitude":17.385,"longitude":78.4867,"temp":27.5,"humidity":68,"rain":0.0,"pressure":954.3,"uv_index":9.25,"wind_gusts":27.0,"aqi":104,"pm10":82.7,"pm2_5":52.4,"mosquito_risk":7,"arthritis_risk":5,"migraine_risk":7,"frizz_risk":1,"updated_at":"2026-04-11T03:11:12.349275+05:30"},{"city":"Chennai","state":"Tamil Nadu","latitude":13.0827,"longitude":80.2707,"temp":28.2,"humidity":84,"rain":0.0,"pressure":1008.3,"uv_index":9.15,"wind_gusts":36.0,"aqi":62,"pm10":19.2,"pm2_5":13.4,"mosquito_risk":7,"arthritis_risk":0,"migraine_risk":4,"frizz_risk":1,"updated_at":"2026-04-11T03:11:12.349284+05:30"},{"city":"Kolkata","state":"West Bengal","latitude":22.5726,"longitude":88.3639,"temp":23.6,"humidity":95,"rain":0.0,"pressure":1007.5,"uv_index":8.75,"wind_gusts":18.7,"aqi":153,"pm10":54.5,"pm2_5":40.2,"mosquito_risk":3,"arthritis_risk":5,"migraine_risk":4,"frizz_risk":1,"updated_at":"2026-04-11T03:11:12.349293+05:30"},{"city":"Pune","state":"Maharashtra","latitude":18.5204,"longitude":73.8567,"temp":23.7,"humidity":86,"rain":0.0,"pressure":949.3,"uv_index":8.55,"wind_gusts":40.7,"aqi":94,"pm10":67.3,"pm2_5":43.1,"mosquito_risk":3,"arthritis_risk":5,"migraine_risk":7,"frizz_risk":1,"updated_at":"2026-04-11T03:11:12.349304+05:30"},{"city":"Ahmedabad","state":"Gujarat","latitude":23.0225,"longitude":72.5714,"temp":25.8,"humidity":41,"rain":0.0,"pressure":1004.3,"uv_index":8.05,"wind_gusts":21.6,"aqi":72,"pm10":48.4,"pm2_5":25.6,"mosquito_risk":4,"arthritis_risk":5,"migraine_risk":4,"frizz_risk":0,"updated_at":"2026-04-11T03:11:12.349312+05:30"},{"city":"Jaipur","state":"Rajasthan","latitude":26.9124,"longitude":75.7873,"temp":24.3,"humidity":42,"rain":0.0,"pressure":963.0,"uv_index":7.85,"wind_gusts":33.1,"aqi":154,"pm10":82.7,"pm2_5":28.2,"mosquito_risk":0,"arthritis_risk":5,"migraine_risk":7,"frizz_risk":0,"updated_at":"2026-04-11T03:11:12.349320+05:30"},{"city":"Lucknow","state":"Uttar Pradesh","latitude":26.8467,"longitude":80.9462,"temp":20.6,"humidity":55,"rain":0.0,"pressure":995.5,"uv_index":7.65,"wind_gusts":44.6,"aqi":196,"pm10":728.3,"pm2_5":145.3,"mosquito_risk":0,"arthritis_risk":5,"migraine_risk":7,"frizz_risk":0,"updated_at":"2026-04-11T03:11:12.349328+05:30"},{"city":"Kanpur","state":"Uttar Pradesh","latitude":26.4499,"longitude":80.3319,"temp":19.6,"humidity":63,"rain":0.0,"pressure":994.2,"uv_index":7.7,"wind_gusts":40.0,"aqi":469,"pm10":1072.9,"pm2_5":159.3,"mosquito_risk":3,"arthritis_risk":5,"migraine_risk":7,"frizz_risk":0,"updated_at":"2026-04-11T03:11:12.349335+05:30"},{"city":"Chandigarh","state":"Chandigarh","latitude":30.7333,"longitude":76.7794,"temp":18.6,"humidity":64,"rain":0.0,"pressure":971.1,"uv_index":7.1,"wind_gusts":32.0,"aqi":63,"pm10":17.0,"pm2_5":16.1,"mosquito_risk":3,"arthritis_risk":5,"migraine_risk":7,"frizz_risk":0,"updated_at":"2026-04-11T03:11:12.349343+05:30"},{"city":"Srinagar","state":"Jammu and Kashmir","latitude":34.0837,"longitude":74.7973,"temp":8.6,"humidity":78,"rain":0.0,"pressure":841.4,"uv_index":8.05,"wind_gusts":23.4,"aqi":72,"pm10":46.9,"pm2_5":32.4,"mosquito_risk":3,"arthritis_risk":5,"migraine_risk":7,"frizz_risk":0,"updated_at":"2026-04-11T03:11:12.349350+05:30"},{"city":"Jammu","state":"Jammu and Kashmir","latitude":32.7266,"longitude":74.857,"temp":17.2,"humidity":80,"rain":0.0,"pressure":976.1,"uv_index":7.75,"wind_gusts":27.0,"aqi":65,"pm10":40.6,"pm2_5":31.8,"mosquito_risk":3,"arthritis_risk":5,"migraine_risk":7,"frizz_risk":0,"updated_at":"2026-04-11T03:11:12.349357+05:30"},{"city":"Amritsar","state":"Punjab","latitude":31.634,"longitude":74.8723,"temp":19.7,"humidity":73,"rain":0.0,"pressure":984.6,"uv_index":7.7,"wind_gusts":30.6,"aqi":72,"pm10":89.6,"pm2_5":28.2,"mosquito_risk":3,"arthritis_risk":5,"migraine_risk":7,"frizz_risk":0,"updated_at":"2026-04-11T03:11:12.349364+05:30"},{"city":"Ludhiana","state":"Punjab","latitude":30.901,"longitude":75.8573,"temp":20.0,"humidity":64,"rain":0.0,"pressure":982.5,"uv_index":7.2,"wind_gusts":32.0,"aqi":67,"pm10":25.0,"pm2_5":22.9,"mosquito_risk":3,"arthritis_risk":5,"migraine_risk":7,"frizz_risk":0,"updated_at":"2026-04-11T03:11:12.349371+05:30"},{"city":"Jalandhar","state":"Punjab","latitude":31.326,"longitude":75.5762,"temp":19.6,"humidity":69,"rain":0.0,"pressure":983.6,"uv_index":7.5,"wind_gusts":26.6,"aqi":73,"pm10":66.4,"pm2_5":22.1,"mosquito_risk":3,"arthritis_risk":5,"migraine_risk":7,"frizz_risk":0,"updated_at":"2026-04-11T03:11:12.349380+05:30"},{"city":"Dehradun","state":"Uttarakhand","latitude":30.6284,"longitude":78.0322,"temp":11.2,"humidity":59,"rain":0.0,"pressure":828.7,"uv_index":7.55,"wind_gusts":36.4,"aqi":46,"pm10":10.2,"pm2_5":8.6,"mosquito_risk":0,"arthritis_risk":5,"migraine_risk":7,"frizz_risk":0,"updated_at":"2026-04-11T03:11:12.349386+05:30"},{"city":"Shimla","state":"Himachal Pradesh","latitude":31.1048,"longitude":77.1734,"temp":8.5,"humidity":60,"rain":0.0,"pressure":782.4,"uv_index":7.2,"wind_gusts":47.5,"aqi":58,"pm10":17.2,"pm2_5":13.9,"mosquito_risk":0,"arthritis_risk":5,"migraine_risk":7,"frizz_risk":0,"updated_at":"2026-04-11T03:11:12.349393+05:30"},{"city":"Manali","state":"Himachal Pradesh","latitude":32.2396,"longitude":77.1887,"temp":12.6,"humidity":55,"rain":0.0,"pressure":818.7,"uv_index":9.55,"wind_gusts":37.4,"aqi":78,"pm10":22.2,"pm2_5":13.4,"mosquito_risk":0,"arthritis_risk":5,"migraine_risk":7,"frizz_risk":0,"updated_at":"2026-04-11T03:11:12.349400+05:30"},{"city":"Gurgaon","state":"Haryana","latitude":28.4595,"longitude":77.0266,"temp":18.9,"humidity":70,"rain":0.0,"pressure":984.5,"uv_index":7.3,"wind_gusts":31.7,"aqi":2239,"pm10":1989.3,"pm2_5":250.5,"mosquito_risk":3,"arthritis_risk":5,"migraine_risk":7,"frizz_risk":0,"updated_at":"2026-04-11T03:11:12.349406+05:30"},{"city":"Noida","state":"Uttar Pradesh","latitude":28.5355,"longitude":77.391,"temp":20.6,"humidity":62,"rain":0.0,"pressure":987.5,"uv_index":7.2,"wind_gusts":37.4,"aqi":2239,"pm10":1989.3,"pm2_5":250.5,"mosquito_risk":3,"arthritis_risk":5,"migraine_risk":7,"frizz_risk":0,"updated_at":"2026-04-11T03:11:12.349412+05:30"},{"city":"Ghaziabad","state":"Uttar Pradesh","latitude":28.6692,"longitude":77.4538,"temp":19.5,"humidity":64,"rain":0.0,"pressure":985.5,"uv_index":7.15,"wind_gusts":39.2,"aqi":613,"pm10":581.1,"pm2_5":109.4,"mosquito_risk":3,"arthritis_risk":5,"migraine_risk":7,"frizz_risk":0,"updated_at":"2026-04-11T03:11:12.349419+05:30"},{"city":"Faridabad","state":"Haryana","latitude":28.4089,"longitude":77.3178,"temp":21.1,"humidity":58,"rain":0.0,"pressure":986.9,"uv_index":7.25,"wind_gusts":38.9,"aqi":2239,"pm10":1989.3,"pm2_5":250.5,"mosquito_risk":0,"arthritis_risk":5,"migraine_risk":7,"frizz_risk":0,"updated_at":"2026-04-11T03:11:12.349425+05:30"},{"city":"Meerut","state":"Uttar Pradesh","latitude":28.9845,"longitude":77.7064,"temp":18.4,"humidity":68,"rain":0.0,"pressure":983.8,"uv_index":7.05,"wind_gusts":39.6,"aqi":613,"pm10":581.1,"pm2_5":109.4,"mosquito_risk":3,"arthritis_risk":5,"migraine_risk":7,"frizz_risk":0,"updated_at":"2026-04-11T03:11:12.349431+05:30"},{"city":"Agra","state":"Uttar Pradesh","latitude":27.1767,"longitude":78.0081,"temp":19.9,"humidity":64,"rain":0.0,"pressure":990.7,"uv_index":7.55,"wind_gusts":31.7,"aqi":1213,"pm10":1408.2,"pm2_5":171.8,"mosquito_risk":3,"arthritis_risk":5,"migraine_risk":7,"frizz_risk":0,"updated_at":"2026-04-11T03:11:12.349438+05:30"},{"city":"Varanasi","state":"Uttar Pradesh","latitude":25.3176,"longitude":82.9739,"temp":20.0,"humidity":58,"rain":0.0,"pressure":999.9,"uv_index":8.3,"wind_gusts":39.6,"aqi":89,"pm10":270.1,"pm2_5":54.7,"mosquito_risk":0,"arthritis_risk":5,"migraine_risk":7,"frizz_risk":0,"updated_at":"2026-04-11T03:11:12.349447+05:30"},{"city":"Prayagraj","state":"Uttar Pradesh","latitude":25.4358,"longitude":81.8463,"temp":21.1,"humidity":57,"rain":0.0,"pressure":998.5,"uv_index":8.15,"wind_gusts":40.7,"aqi":99,"pm10":329.7,"pm2_5":65.4,"mosquito_risk":0,"arthritis_risk":5,"migraine_risk":7,"frizz_risk":0,"updated_at":"2026-04-11T03:11:12.349455+05:30"},{"city":"Gorakhpur","state":"Uttar Pradesh","latitude":26.7606,"longitude":83.3732,"temp":20.1,"humidity":47,"rain":0.0,"pressure":998.2,"uv_index":8.1,"wind_gusts":34.6,"aqi":86,"pm10":390.2,"pm2_5":82.2,"mosquito_risk":0,"arthritis_risk":5,"migraine_risk":7,"frizz_risk":0,"updated_at":"2026-04-11T03:11:12.349462+05:30"},{"city":"Bareilly","state":"Uttar Pradesh","latitude":28.367,"longitude":79.4304,"temp":17.9,"humidity":72,"rain":0.0,"pressure":988.5,"uv_index":7.45,"wind_gusts":44.3,"aqi":110,"pm10":217.0,"pm2_5":68.2,"mosquito_risk":3,"arthritis_risk":5,"migraine_risk":7,"frizz_risk":0,"updated_at":"2026-04-11T03:11:12.349470+05:30"},{"city":"Aligarh","state":"Uttar Pradesh","latitude":27.8974,"longitude":78.088,"temp":18.8,"humidity":68,"rain":0.0,"pressure":988.2,"uv_index":7.35,"wind_gusts":46.4,"aqi":1296,"pm10":1467.8,"pm2_5":215.6,"mosquito_risk":3,"arthritis_risk":5,"migraine_risk":7,"frizz_risk":0,"updated_at":"2026-04-11T03:11:12.349477+05:30"},{"city":"Moradabad","state":"Uttar Pradesh","latitude":28.8386,"longitude":78.7733,"temp":18.0,"humidity":71,"rain":0.0,"pressure":985.3,"uv_index":7.25,"wind_gusts":40.0,"aqi":130,"pm10":134.6,"pm2_5":49.6,"mosquito_risk":3,"arthritis_risk":5,"migraine_risk":7,"frizz_risk":0,"updated_at":"2026-04-11T03:11:12.349482+05:30"},{"city":"Saharanpur","state":"Uttar Pradesh","latitude":29.9637,"longitude":77.546,"temp":18.7,"humidity":60,"rain":0.0,"pressure":977.5,"uv_index":6.85,"wind_gusts":42.5,"aqi":84,"pm10":40.3,"pm2_5":19.9,"mosquito_risk":0,"arthritis_risk":5,"migraine_risk":7,"frizz_risk":0,"updated_at":"2026-04-11T03:11:12.349488+05:30"},{"city":"Jhansi","state":"Uttar Pradesh","latitude":25.4484,"longitude":78.5685,"temp":22.4,"humidity":42,"rain":0.0,"pressure":980.8,"uv_index":8.1,"wind_gusts":26.6,"aqi":73,"pm10":19.6,"pm2_5":11.8,"mosquito_risk":0,"arthritis_risk":5,"migraine_risk":7,"frizz_risk":0,"updated_at":"2026-04-11T03:11:15.667865+05:30"},{"city":"Surat","state":"Gujarat","latitude":21.1702,"longitude":72.8311,"temp":26.2,"humidity":62,"rain":0.0,"pressure":1007.8,"uv_index":7.8,"wind_gusts":29.5,"aqi":134,"pm10":42.8,"pm2_5":32.0,"mosquito_risk":7,"arthritis_risk":5,"migraine_risk":4,"frizz_risk":1,"updated_at":"2026-04-11T03:11:15.667901+05:30"},{"city":"Vadodara","state":"Gujarat","latitude":22.3072,"longitude":73.1812,"temp":25.2,"humidity":52,"rain":0.0,"pressure":1005.9,"uv_index":8.05,"wind_gusts":16.6,"aqi":73,"pm10":29.0,"pm2_5":21.0,"mosquito_risk":4,"arthritis_risk":5,"migraine_risk":4,"frizz_risk":0,"updated_at":"2026-04-11T03:11:15.667913+05:30"},{"city":"Rajkot","state":"Gujarat","latitude":22.3039,"longitude":70.8022,"temp":25.4,"humidity":69,"rain":0.0,"pressure":997.0,"uv_index":7.75,"wind_gusts":33.8,"aqi":74,"pm10":34.7,"pm2_5":26.2,"mosquito_risk":7,"arthritis_risk":5,"migraine_risk":7,"frizz_risk":1,"updated_at":"2026-04-11T03:11:15.667922+05:30"},{"city":"Thane","state":"Maharashtra","latitude":19.2183,"longitude":72.9781,"temp":26.3,"humidity":87,"rain":0.0,"pressure":1008.7,"uv_index":7.95,"wind_gusts":39.2,"aqi":102,"pm10":65.9,"pm2_5":40.5,"mosquito_risk":7,"arthritis_risk":0,"migraine_risk":4,"frizz_risk":1,"updated_at":"2026-04-11T03:11:15.667930+05:30"},{"city":"Nagpur","state":"Maharashtra","latitude":21.1458,"longitude":79.0882,"temp":25.8,"humidity":46,"rain":0.0,"pressure":974.7,"uv_index":8.75,"wind_gusts":21.2,"aqi":76,"pm10":37.4,"pm2_5":20.2,"mosquito_risk":4,"arthritis_risk":5,"migraine_risk":7,"frizz_risk":0,"updated_at":"2026-04-11T03:11:15.667939+05:30"},{"city":"Nashik","state":"Maharashtra","latitude":19.9975,"longitude":73.7898,"temp":24.9,"humidity":57,"rain":0.0,"pressure":946.8,"uv_index":8.25,"wind_gusts":37.8,"aqi":93,"pm10":73.8,"pm2_5":58.8,"mosquito_risk":0,"arthritis_risk":5,"migraine_risk":7,"frizz_risk":0,"updated_at":"2026-04-11T03:11:15.667946+05:30"},{"city":"Aurangabad","state":"Maharashtra","latitude":19.8762,"longitude":75.3433,"temp":26.7,"humidity":40,"rain":0.0,"pressure":945.2,"uv_index":8.9,"wind_gusts":29.2,"aqi":74,"pm10":48.9,"pm2_5":28.5,"mosquito_risk":4,"arthritis_risk":5,"migraine_risk":7,"frizz_risk":0,"updated_at":"2026-04-11T03:11:15.667954+05:30"},{"city":"Solapur","state":"Maharashtra","latitude":17.6599,"longitude":75.9064,"temp":28.8,"humidity":47,"rain":0.0,"pressure":957.5,"uv_index":9.0,"wind_gusts":18.4,"aqi":71,"pm10":30.7,"pm2_5":21.9,"mosquito_risk":4,"arthritis_risk":5,"migraine_risk":7,"frizz_risk":1,"updated_at":"2026-04-11T03:11:15.667963+05:30"},{"city":"Kolhapur","state":"Maharashtra","latitude":16.705,"longitude":74.2433,"temp":22.4,"humidity":76,"rain":0.0,"pressure":948.4,"uv_index":9.05,"wind_gusts":44.6,"aqi":94,"pm10":69.4,"pm2_5":45.6,"mosquito_risk":3,"arthritis_risk":5,"migraine_risk":7,"frizz_risk":1,"updated_at":"2026-04-11T03:11:15.667971+05:30"},{"city":"Goa","state":"Goa","latitude":15.2993,"longitude":74.124,"temp":27.0,"humidity":82,"rain":0.0,"pressure":998.4,"uv_index":9.05,"wind_gusts":33.1,"aqi":91,"pm10":94.1,"pm2_5":41.3,"mosquito_risk":7,"arthritis_risk":5,"migraine_risk":7,"frizz_risk":1,"updated_at":"2026-04-11T03:11:15.667979+05:30"},{"city":"Jodhpur","state":"Rajasthan","latitude":26.2389,"longitude":73.0243,"temp":24.9,"humidity":38,"rain":0.0,"pressure":985.5,"uv_index":8.05,"wind_gusts":27.4,"aqi":64,"pm10":56.3,"pm2_5":17.8,"mosquito_risk":0,"arthritis_risk":5,"migraine_risk":7,"frizz_risk":0,"updated_at":"2026-04-11T03:11:15.667987+05:30"},{"city":"Udaipur","state":"Rajasthan","latitude":24.5854,"longitude":73.7125,"temp":21.8,"humidity":40,"rain":0.0,"pressure":949.3,"uv_index":8.6,"wind_gusts":37.1,"aqi":44,"pm10":57.2,"pm2_5":17.1,"mosquito_risk":0,"arthritis_risk":5,"migraine_risk":7,"frizz_risk":0,"updated_at":"2026-04-11T03:11:15.667994+05:30"},{"city":"Kota","state":"Rajasthan","latitude":25.2138,"longitude":75.8648,"temp":22.1,"humidity":55,"rain":0.0,"pressure":981.8,"uv_index":8.1,"wind_gusts":22.0,"aqi":81,"pm10":77.8,"pm2_5":36.7,"mosquito_risk":0,"arthritis_risk":5,"migraine_risk":7,"frizz_risk":0,"updated_at":"2026-04-11T03:11:15.668002+05:30"},{"city":"Bikaner","state":"Rajasthan","latitude":28.0229,"longitude":73.3119,"temp":25.5,"humidity":41,"rain":0.0,"pressure":984.9,"uv_index":7.9,"wind_gusts":32.8,"aqi":63,"pm10":36.7,"pm2_5":15.1,"mosquito_risk":4,"arthritis_risk":5,"migraine_risk":7,"frizz_risk":0,"updated_at":"2026-04-11T03:11:15.668010+05:30"},{"city":"Ajmer","state":"Rajasthan","latitude":26.4499,"longitude":74.6399,"temp":22.3,"humidity":43,"rain":0.0,"pressure":957.2,"uv_index":8.0,"wind_gusts":34.6,"aqi":82,"pm10":64.3,"pm2_5":32.5,"mosquito_risk":0,"arthritis_risk":5,"migraine_risk":7,"frizz_risk":0,"updated_at":"2026-04-11T03:11:15.668018+05:30"},{"city":"Gwalior","state":"Madhya Pradesh","latitude":26.2183,"longitude":78.1828,"temp":22.7,"humidity":54,"rain":0.0,"pressure":986.3,"uv_index":7.8,"wind_gusts":27.0,"aqi":91,"pm10":66.4,"pm2_5":20.2,"mosquito_risk":0,"arthritis_risk":5,"migraine_risk":7,"frizz_risk":0,"updated_at":"2026-04-11T03:11:15.668026+05:30"},{"city":"Indore","state":"Madhya Pradesh","latitude":22.7196,"longitude":75.8577,"temp":21.3,"humidity":50,"rain":0.0,"pressure":950.2,"uv_index":8.5,"wind_gusts":22.0,"aqi":64,"pm10":35.4,"pm2_5":19.9,"mosquito_risk":0,"arthritis_risk":5,"migraine_risk":7,"frizz_risk":0,"updated_at":"2026-04-11T03:11:15.668034+05:30"},{"city":"Bhopal","state":"Madhya Pradesh","latitude":23.2599,"longitude":77.4126,"temp":22.8,"humidity":40,"rain":0.0,"pressure":956.3,"uv_index":8.5,"wind_gusts":21.6,"aqi":62,"pm10":29.7,"pm2_5":15.2,"mosquito_risk":0,"arthritis_risk":5,"migraine_risk":7,"frizz_risk":0,"updated_at":"2026-04-11T03:11:15.668042+05:30"},{"city":"Jabalpur","state":"Madhya Pradesh","latitude":23.1815,"longitude":79.9864,"temp":24.1,"humidity":44,"rain":0.0,"pressure":964.0,"uv_index":8.6,"wind_gusts":16.6,"aqi":73,"pm10":40.4,"pm2_5":19.4,"mosquito_risk":0,"arthritis_risk":5,"migraine_risk":7,"frizz_risk":0,"updated_at":"2026-04-11T03:11:15.668049+05:30"},{"city":"Ujjain","state":"Madhya Pradesh","latitude":23.1765,"longitude":75.7885,"temp":22.2,"humidity":46,"rain":0.0,"pressure":956.2,"uv_index":8.4,"wind_gusts":19.4,"aqi":62,"pm10":35.7,"pm2_5":20.0,"mosquito_risk":0,"arthritis_risk":5,"migraine_risk":7,"frizz_risk":0,"updated_at":"2026-04-11T03:11:15.668057+05:30"},{"city":"Visakhapatnam","state":"Andhra Pradesh","latitude":17.6868,"longitude":83.2185,"temp":27.4,"humidity":89,"rain":0.0,"pressure":1004.9,"uv_index":9.15,"wind_gusts":41.8,"aqi":91,"pm10":26.8,"pm2_5":21.2,"mosquito_risk":7,"arthritis_risk":5,"migraine_risk":4,"frizz_risk":1,"updated_at":"2026-04-11T03:11:15.668065+05:30"},{"city":"Vijayawada","state":"Andhra Pradesh","latitude":16.5062,"longitude":80.648,"temp":27.7,"humidity":87,"rain":0.0,"pressure":1003.8,"uv_index":9.2,"wind_gusts":24.5,"aqi":75,"pm10":21.4,"pm2_5":17.9,"mosquito_risk":7,"arthritis_risk":5,"migraine_risk":4,"frizz_risk":1,"updated_at":"2026-04-11T03:11:15.668073+05:30"},{"city":"Guntur","state":"Andhra Pradesh","latitude":16.3067,"longitude":80.4365,"temp":27.7,"humidity":86,"rain":0.0,"pressure":1004.8,"uv_index":9.25,"wind_gusts":32.0,"aqi":75,"pm10":20.7,"pm2_5":17.7,"mosquito_risk":7,"arthritis_risk":5,"migraine_risk":4,"frizz_risk":1,"updated_at":"2026-04-11T03:11:15.668081+05:30"},{"city":"Nellore","state":"Andhra Pradesh","latitude":14.4426,"longitude":79.9865,"temp":27.3,"humidity":86,"rain":0.0,"pressure":1006.5,"uv_index":9.0,"wind_gusts":39.2,"aqi":69,"pm10":17.9,"pm2_5":14.2,"mosquito_risk":7,"arthritis_risk":5,"migraine_risk":4,"frizz_risk":1,"updated_at":"2026-04-11T03:11:15.668089+05:30"},{"city":"Kurnool","state":"Andhra Pradesh","latitude":15.8281,"longitude":78.0373,"temp":30.3,"humidity":57,"rain":0.0,"pressure":977.2,"uv_index":9.25,"wind_gusts":26.3,"aqi":88,"pm10":28.6,"pm2_5":25.8,"mosquito_risk":0,"arthritis_risk":5,"migraine_risk":7,"frizz_risk":1,"updated_at":"2026-04-11T03:11:15.668098+05:30"},{"city":"Kakinada","state":"Andhra Pradesh","latitude":16.9891,"longitude":82.2475,"temp":27.6,"humidity":90,"rain":0.0,"pressure":1008.8,"uv_index":9.2,"wind_gusts":35.3,"aqi":67,"pm10":23.8,"pm2_5":16.7,"mosquito_risk":7,"arthritis_risk":0,"migraine_risk":4,"frizz_risk":1,"updated_at":"2026-04-11T03:11:15.668106+05:30"},{"city":"Tirupati","state":"Andhra Pradesh","latitude":13.6288,"longitude":79.4192,"temp":25.7,"humidity":86,"rain":0.0,"pressure":993.1,"uv_index":9.1,"wind_gusts":31.7,"aqi":87,"pm10":18.9,"pm2_5":16.2,"mosquito_risk":7,"arthritis_risk":5,"migraine_risk":7,"frizz_risk":1,"updated_at":"2026-04-11T03:11:15.668114+05:30"},{"city":"Warangal","state":"Telangana","latitude":17.9689,"longitude":79.5941,"temp":27.9,"humidity":75,"rain":0.0,"pressure":979.7,"uv_index":9.1,"wind_gusts":25.9,"aqi":108,"pm10":61.7,"pm2_5":47.6,"mosquito_risk":7,"arthritis_risk":5,"migraine_risk":7,"frizz_risk":1,"updated_at":"2026-04-11T03:11:15.668121+05:30"},{"city":"Nizamabad","state":"Telangana","latitude":18.6725,"longitude":78.0941,"temp":26.8,"humidity":59,"rain":0.0,"pressure":965.4,"uv_index":9.0,"wind_gusts":18.4,"aqi":81,"pm10":46.6,"pm2_5":28.4,"mosquito_risk":4,"arthritis_risk":5,"migraine_risk":7,"frizz_risk":1,"updated_at":"2026-04-11T03:11:15.668129+05:30"},{"city":"Mysore","state":"Karnataka","latitude":12.2958,"longitude":76.6396,"temp":22.9,"humidity":90,"rain":0.0,"pressure":929.6,"uv_index":9.55,"wind_gusts":30.2,"aqi":101,"pm10":39.6,"pm2_5":33.5,"mosquito_risk":3,"arthritis_risk":5,"migraine_risk":7,"frizz_risk":1,"updated_at":"2026-04-11T03:11:15.668137+05:30"},{"city":"Mangalore","state":"Karnataka","latitude":12.9141,"longitude":74.856,"temp":29.5,"humidity":80,"rain":0.0,"pressure":1007.7,"uv_index":8.6,"wind_gusts":27.0,"aqi":73,"pm10":98.7,"pm2_5":34.1,"mosquito_risk":7,"arthritis_risk":5,"migraine_risk":4,"frizz_risk":1,"updated_at":"2026-04-11T03:11:15.668143+05:30"},{"city":"Hubli-Dharwad","state":"Karnataka","latitude":15.3647,"longitude":75.124,"temp":24.1,"humidity":78,"rain":0.0,"pressure":941.1,"uv_index":9.25,"wind_gusts":36.0,"aqi":78,"pm10":70.1,"pm2_5":36.7,"mosquito_risk":3,"arthritis_risk":5,"migraine_risk":7,"frizz_risk":1,"updated_at":"2026-04-11T03:11:15.668149+05:30"},{"city":"Belgaum","state":"Karnataka","latitude":15.8497,"longitude":74.4977,"temp":22.6,"humidity":78,"rain":0.0,"pressure":925.8,"uv_index":9.3,"wind_gusts":40.0,"aqi":85,"pm10":90.6,"pm2_5":44.6,"mosquito_risk":3,"arthritis_risk":5,"migraine_risk":7,"frizz_risk":1,"updated_at":"2026-04-11T03:11:18.992555+05:30"},{"city":"Coimbatore","state":"Tamil Nadu","latitude":11.0168,"longitude":76.9558,"temp":24.3,"humidity":82,"rain":0.0,"pressure":963.2,"uv_index":8.85,"wind_gusts":32.0,"aqi":74,"pm10":32.9,"pm2_5":25.5,"mosquito_risk":3,"arthritis_risk":5,"migraine_risk":7,"frizz_risk":1,"updated_at":"2026-04-11T03:11:18.992587+05:30"},{"city":"Madurai","state":"Tamil Nadu","latitude":9.9252,"longitude":78.1198,"temp":27.2,"humidity":90,"rain":0.0,"pressure":994.2,"uv_index":8.9,"wind_gusts":40.3,"aqi":80,"pm10":28.3,"pm2_5":25.7,"mosquito_risk":7,"arthritis_risk":5,"migraine_risk":7,"frizz_risk":1,"updated_at":"2026-04-11T03:11:18.992598+05:30"},{"city":"Trichy","state":"Tamil Nadu","latitude":10.7905,"longitude":78.7047,"temp":27.5,"humidity":91,"rain":0.0,"pressure":1001.1,"uv_index":8.9,"wind_gusts":24.8,"aqi":66,"pm10":24.5,"pm2_5":21.2,"mosquito_risk":7,"arthritis_risk":5,"migraine_risk":4,"frizz_risk":1,"updated_at":"2026-04-11T03:11:18.992606+05:30"},{"city":"Salem","state":"Tamil Nadu","latitude":11.6643,"longitude":78.146,"temp":27.3,"humidity":82,"rain":0.0,"pressure":978.6,"uv_index":8.7,"wind_gusts":15.8,"aqi":81,"pm10":19.5,"pm2_5":17.6,"mosquito_risk":7,"arthritis_risk":5,"migraine_risk":7,"frizz_risk":1,"updated_at":"2026-04-11T03:11:18.992614+05:30"},{"city":"Tirunelveli","state":"Tamil Nadu","latitude":8.7139,"longitude":77.7567,"temp":25.6,"humidity":85,"rain":0.0,"pressure":1004.2,"uv_index":9.2,"wind_gusts":45.4,"aqi":73,"pm10":30.2,"pm2_5":25.6,"mosquito_risk":7,"arthritis_risk":5,"migraine_risk":4,"frizz_risk":1,"updated_at":"2026-04-11T03:11:18.992622+05:30"},{"city":"Vellore","state":"Tamil Nadu","latitude":12.9165,"longitude":79.1325,"temp":25.6,"humidity":82,"rain":0.0,"pressure":985.9,"uv_index":9.5,"wind_gusts":31.3,"aqi":93,"pm10":25.4,"pm2_5":22.7,"mosquito_risk":7,"arthritis_risk":5,"migraine_risk":7,"frizz_risk":1,"updated_at":"2026-04-11T03:11:18.992629+05:30"},{"city":"Erode","state":"Tamil Nadu","latitude":11.341,"longitude":77.7172,"temp":28.1,"humidity":80,"rain":0.0,"pressure":990.4,"uv_index":8.1,"wind_gusts":27.4,"aqi":74,"pm10":39.8,"pm2_5":36.0,"mosquito_risk":7,"arthritis_risk":5,"migraine_risk":7,"frizz_risk":1,"updated_at":"2026-04-11T03:11:18.992635+05:30"},{"city":"Kochi","state":"Kerala","latitude":9.9312,"longitude":76.2673,"temp":26.3,"humidity":86,"rain":0.0,"pressure":1010.2,"uv_index":7.35,"wind_gusts":30.6,"aqi":74,"pm10":25.6,"pm2_5":24.0,"mosquito_risk":7,"arthritis_risk":0,"migraine_risk":4,"frizz_risk":1,"updated_at":"2026-04-11T03:11:18.992642+05:30"},{"city":"Thiruvananthapuram","state":"Kerala","latitude":8.5241,"longitude":76.9366,"temp":27.3,"humidity":85,"rain":0.0,"pressure":1008.8,"uv_index":9.05,"wind_gusts":32.8,"aqi":67,"pm10":28.1,"pm2_5":16.4,"mosquito_risk":7,"arthritis_risk":0,"migraine_risk":4,"frizz_risk":1,"updated_at":"2026-04-11T03:11:18.992649+05:30"},{"city":"Kozhikode","state":"Kerala","latitude":11.2588,"longitude":75.7804,"temp":27.0,"humidity":88,"rain":0.0,"pressure":1009.6,"uv_index":9.1,"wind_gusts":27.4,"aqi":67,"pm10":41.9,"pm2_5":17.0,"mosquito_risk":7,"arthritis_risk":0,"migraine_risk":4,"frizz_risk":1,"updated_at":"2026-04-11T03:11:18.992655+05:30"},{"city":"Thrissur","state":"Kerala","latitude":10.5276,"longitude":76.2144,"temp":25.8,"humidity":91,"rain":0.0,"pressure":1008.6,"uv_index":8.55,"wind_gusts":34.2,"aqi":74,"pm10":27.4,"pm2_5":22.2,"mosquito_risk":7,"arthritis_risk":0,"migraine_risk":4,"frizz_risk":1,"updated_at":"2026-04-11T03:11:18.992662+05:30"},{"city":"Kannur","state":"Kerala","latitude":11.8745,"longitude":75.3704,"temp":26.1,"humidity":88,"rain":0.0,"pressure":1008.7,"uv_index":8.15,"wind_gusts":31.3,"aqi":69,"pm10":54.5,"pm2_5":20.5,"mosquito_risk":7,"arthritis_risk":0,"migraine_risk":4,"frizz_risk":1,"updated_at":"2026-04-11T03:11:18.992669+05:30"},{"city":"Patna","state":"Bihar","latitude":25.5941,"longitude":85.1376,"temp":22.0,"humidity":55,"rain":0.0,"pressure":1002.1,"uv_index":8.45,"wind_gusts":31.7,"aqi":70,"pm10":84.3,"pm2_5":32.9,"mosquito_risk":0,"arthritis_risk":5,"migraine_risk":4,"frizz_risk":0,"updated_at":"2026-04-11T03:11:18.992675+05:30"},{"city":"Gaya","state":"Bihar","latitude":24.7914,"longitude":85.0002,"temp":22.2,"humidity":49,"rain":0.0,"pressure":996.0,"uv_index":8.55,"wind_gusts":33.5,"aqi":74,"pm10":54.0,"pm2_5":26.8,"mosquito_risk":0,"arthritis_risk":5,"migraine_risk":7,"frizz_risk":0,"updated_at":"2026-04-11T03:11:18.992682+05:30"},{"city":"Muzaffarpur","state":"Bihar","latitude":26.1209,"longitude":85.3647,"temp":19.9,"humidity":50,"rain":0.0,"pressure":1001.8,"uv_index":8.45,"wind_gusts":25.9,"aqi":68,"pm10":97.6,"pm2_5":32.5,"mosquito_risk":0,"arthritis_risk":5,"migraine_risk":4,"frizz_risk":0,"updated_at":"2026-04-11T03:11:18.992711+05:30"},{"city":"Bhagalpur","state":"Bihar","latitude":25.2425,"longitude":87.0117,"temp":21.6,"humidity":65,"rain":0.0,"pressure":1002.4,"uv_index":8.45,"wind_gusts":22.3,"aqi":79,"pm10":48.4,"pm2_5":23.9,"mosquito_risk":3,"arthritis_risk":5,"migraine_risk":4,"frizz_risk":0,"updated_at":"2026-04-11T03:11:18.992718+05:30"},{"city":"Ranchi","state":"Jharkhand","latitude":23.3441,"longitude":85.3096,"temp":20.3,"humidity":49,"rain":0.0,"pressure":938.9,"uv_index":9.05,"wind_gusts":32.8,"aqi":69,"pm10":60.1,"pm2_5":24.9,"mosquito_risk":0,"arthritis_risk":5,"migraine_risk":7,"frizz_risk":0,"updated_at":"2026-04-11T03:11:18.992724+05:30"},{"city":"Jamshedpur","state":"Jharkhand","latitude":22.8046,"longitude":86.2029,"temp":23.0,"humidity":81,"rain":0.0,"pressure":992.4,"uv_index":8.85,"wind_gusts":17.6,"aqi":128,"pm10":100.4,"pm2_5":68.7,"mosquito_risk":3,"arthritis_risk":5,"migraine_risk":7,"frizz_risk":1,"updated_at":"2026-04-11T03:11:18.992730+05:30"},{"city":"Dhanbad","state":"Jharkhand","latitude":23.7957,"longitude":86.4304,"temp":20.5,"humidity":65,"rain":0.0,"pressure":981.3,"uv_index":8.8,"wind_gusts":26.3,"aqi":127,"pm10":106.6,"pm2_5":79.2,"mosquito_risk":3,"arthritis_risk":5,"migraine_risk":7,"frizz_risk":0,"updated_at":"2026-04-11T03:11:18.992736+05:30"},{"city":"Bokaro","state":"Jharkhand","latitude":23.6693,"longitude":86.1511,"temp":21.9,"humidity":52,"rain":0.0,"pressure":985.7,"uv_index":8.8,"wind_gusts":27.0,"aqi":117,"pm10":99.4,"pm2_5":73.6,"mosquito_risk":0,"arthritis_risk":5,"migraine_risk":7,"frizz_risk":0,"updated_at":"2026-04-11T03:11:18.992742+05:30"},{"city":"Bhubaneswar","state":"Odisha","latitude":20.2961,"longitude":85.8245,"temp":26.4,"humidity":96,"rain":0.0,"pressure":1003.7,"uv_index":9.0,"wind_gusts":27.0,"aqi":119,"pm10":41.3,"pm2_5":35.0,"mosquito_risk":7,"arthritis_risk":5,"migraine_risk":4,"frizz_risk":1,"updated_at":"2026-04-11T03:11:18.992749+05:30"},{"city":"Cuttack","state":"Odisha","latitude":20.4625,"longitude":85.8828,"temp":26.6,"humidity":97,"rain":0.0,"pressure":1005.6,"uv_index":9.05,"wind_gusts":20.2,"aqi":119,"pm10":41.3,"pm2_5":35.0,"mosquito_risk":7,"arthritis_risk":5,"migraine_risk":4,"frizz_risk":1,"updated_at":"2026-04-11T03:11:18.992755+05:30"},{"city":"Rourkela","state":"Odisha","latitude":22.2604,"longitude":84.8536,"temp":22.4,"humidity":78,"rain":0.0,"pressure":986.5,"uv_index":8.75,"wind_gusts":16.2,"aqi":82,"pm10":70.1,"pm2_5":43.5,"mosquito_risk":3,"arthritis_risk":5,"migraine_risk":7,"frizz_risk":1,"updated_at":"2026-04-11T03:11:18.992762+05:30"},{"city":"Raipur","state":"Chhattisgarh","latitude":21.2514,"longitude":81.6296,"temp":25.0,"humidity":40,"rain":0.0,"pressure":976.0,"uv_index":8.85,"wind_gusts":21.6,"aqi":120,"pm10":71.2,"pm2_5":52.5,"mosquito_risk":4,"arthritis_risk":5,"migraine_risk":7,"frizz_risk":0,"updated_at":"2026-04-11T03:11:18.992768+05:30"},{"city":"Bhilai","state":"Chhattisgarh","latitude":21.1938,"longitude":81.3509,"temp":23.9,"humidity":41,"rain":0.0,"pressure":976.4,"uv_index":8.85,"wind_gusts":19.1,"aqi":116,"pm10":59.3,"pm2_5":38.3,"mosquito_risk":0,"arthritis_risk":5,"migraine_risk":7,"frizz_risk":0,"updated_at":"2026-04-11T03:11:18.992774+05:30"},{"city":"Guwahati","state":"Assam","latitude":26.1158,"longitude":91.7086,"temp":21.4,"humidity":88,"rain":0.0,"pressure":1003.4,"uv_index":8.3,"wind_gusts":23.4,"aqi":85,"pm10":42.8,"pm2_5":37.4,"mosquito_risk":3,"arthritis_risk":5,"migraine_risk":4,"frizz_risk":1,"updated_at":"2026-04-11T03:11:18.992780+05:30"},{"city":"Agartala","state":"Tripura","latitude":23.8315,"longitude":91.2868,"temp":20.3,"humidity":96,"rain":0.0,"pressure":1007.7,"uv_index":8.6,"wind_gusts":25.6,"aqi":151,"pm10":79.6,"pm2_5":66.4,"mosquito_risk":3,"arthritis_risk":5,"migraine_risk":4,"frizz_risk":1,"updated_at":"2026-04-11T03:11:18.992786+05:30"},{"city":"Shillong","state":"Meghalaya","latitude":25.5788,"longitude":91.8933,"temp":10.5,"humidity":70,"rain":0.0,"pressure":854.4,"uv_index":8.75,"wind_gusts":56.5,"aqi":73,"pm10":36.0,"pm2_5":29.5,"mosquito_risk":3,"arthritis_risk":5,"migraine_risk":7,"frizz_risk":0,"updated_at":"2026-04-11T03:11:18.992793+05:30"},{"city":"Imphal","state":"Manipur","latitude":24.817,"longitude":93.9368,"temp":14.7,"humidity":82,"rain":0.0,"pressure":923.6,"uv_index":8.95,"wind_gusts":52.9,"aqi":90,"pm10":59.1,"pm2_5":45.3,"mosquito_risk":3,"arthritis_risk":10,"migraine_risk":7,"frizz_risk":0,"updated_at":"2026-04-11T03:11:18.992800+05:30"},{"city":"Aizawl","state":"Mizoram","latitude":23.7271,"longitude":92.7176,"temp":14.5,"humidity":89,"rain":0.0,"pressure":892.5,"uv_index":8.8,"wind_gusts":41.4,"aqi":72,"pm10":57.0,"pm2_5":30.3,"mosquito_risk":3,"arthritis_risk":10,"migraine_risk":7,"frizz_risk":0,"updated_at":"2026-04-11T03:11:18.992806+05:30"},{"city":"Kohima","state":"Nagaland","latitude":25.6701,"longitude":94.1077,"temp":11.0,"humidity":86,"rain":0.0,"pressure":853.3,"uv_index":8.85,"wind_gusts":77.0,"aqi":65,"pm10":40.7,"pm2_5":29.7,"mosquito_risk":3,"arthritis_risk":10,"migraine_risk":7,"frizz_risk":0,"updated_at":"2026-04-11T03:11:18.992813+05:30"},{"city":"Gangtok","state":"Sikkim","latitude":27.3314,"longitude":88.6138,"temp":11.6,"humidity":87,"rain":0.0,"pressure":835.2,"uv_index":8.2,"wind_gusts":18.7,"aqi":72,"pm10":34.7,"pm2_5":28.3,"mosquito_risk":3,"arthritis_risk":10,"migraine_risk":7,"frizz_risk":0,"updated_at":"2026-04-11T03:11:18.992819+05:30"},{"city":"Siliguri","state":"West Bengal","latitude":26.7271,"longitude":88.3953,"temp":18.3,"humidity":65,"rain":0.0,"pressure":995.3,"uv_index":8.35,"wind_gusts":18.0,"aqi":104,"pm10":64.3,"pm2_5":52.0,"mosquito_risk":3,"arthritis_risk":5,"migraine_risk":7,"frizz_risk":0,"updated_at":"2026-04-11T03:11:22.303387+05:30"},{"city":"Durgapur","state":"West Bengal","latitude":23.5204,"longitude":87.3119,"temp":23.7,"humidity":61,"rain":0.0,"pressure":996.6,"uv_index":8.75,"wind_gusts":21.6,"aqi":126,"pm10":89.2,"pm2_5":67.1,"mosquito_risk":3,"arthritis_risk":5,"migraine_risk":7,"frizz_risk":0,"updated_at":"2026-04-11T03:11:22.303422+05:30"},{"city":"Asansol","state":"West Bengal","latitude":23.6739,"longitude":86.9524,"temp":23.8,"humidity":49,"rain":0.0,"pressure":995.1,"uv_index":8.8,"wind_gusts":22.3,"aqi":103,"pm10":76.4,"pm2_5":51.5,"mosquito_risk":0,"arthritis_risk":5,"migraine_risk":7,"frizz_risk":0,"updated_at":"2026-04-11T03:11:22.303435+05:30"},{"city":"Pondicherry","state":"Puducherry","latitude":11.9139,"longitude":79.8145,"temp":26.8,"humidity":94,"rain":0.0,"pressure":1009.8,"uv_index":9.35,"wind_gusts":33.5,"aqi":58,"pm10":19.2,"pm2_5":13.1,"mosquito_risk":7,"arthritis_risk":0,"migraine_risk":4,"frizz_risk":1,"updated_at":"2026-04-11T03:11:22.303446+05:30"},{"city":"Port Blair","state":"Andaman and Nicobar Islands","latitude":11.6234,"longitude":92.7265,"temp":28.8,"humidity":76,"rain":0.0,"pressure":1007.4,"uv_index":9.25,"wind_gusts":22.3,"aqi":33,"pm10":4.2,"pm2_5":2.9,"mosquito_risk":7,"arthritis_risk":5,"migraine_risk":4,"frizz_risk":1,"updated_at":"2026-04-11T03:11:22.303455+05:30"},{"city":"Haridwar","state":"Uttarakhand","latitude":29.9457,"longitude":78.1642,"temp":15.0,"humidity":84,"rain":0.0,"pressure":975.8,"uv_index":7.0,"wind_gusts":41.4,"aqi":70,"pm10":29.2,"pm2_5":28.8,"mosquito_risk":3,"arthritis_risk":10,"migraine_risk":7,"frizz_risk":0,"updated_at":"2026-04-11T03:11:22.303465+05:30"},{"city":"Rishikesh","state":"Uttarakhand","latitude":30.0869,"longitude":78.2676,"temp":15.9,"humidity":76,"rain":0.0,"pressure":968.3,"uv_index":7.05,"wind_gusts":40.0,"aqi":64,"pm10":24.7,"pm2_5":21.3,"mosquito_risk":3,"arthritis_risk":5,"migraine_risk":7,"frizz_risk":0,"updated_at":"2026-04-11T03:11:22.303474+05:30"},{"city":"Nainital","state":"Uttarakhand","latitude":29.3919,"longitude":79.4542,"temp":15.7,"humidity":45,"rain":0.0,"pressure":804.7,"uv_index":7.9,"wind_gusts":69.1,"aqi":72,"pm10":44.9,"pm2_5":22.5,"mosquito_risk":0,"arthritis_risk":5,"migraine_risk":7,"frizz_risk":0,"updated_at":"2026-04-11T03:11:22.303483+05:30"},{"city":"Mussoorie","state":"Uttarakhand","latitude":30.4599,"longitude":78.0664,"temp":13.2,"humidity":57,"rain":0.0,"pressure":801.5,"uv_index":7.45,"wind_gusts":52.2,"aqi":61,"pm10":23.2,"pm2_5":22.5,"mosquito_risk":0,"arthritis_risk":5,"migraine_risk":7,"frizz_risk":0,"updated_at":"2026-04-11T03:11:22.303493+05:30"},{"city":"Dharamshala","state":"Himachal Pradesh","latitude":32.219,"longitude":76.3234,"temp":17.1,"humidity":38,"rain":0.0,"pressure":870.2,"uv_index":7.65,"wind_gusts":22.7,"aqi":94,"pm10":17.5,"pm2_5":9.0,"mosquito_risk":0,"arthritis_risk":5,"migraine_risk":7,"frizz_risk":0,"updated_at":"2026-04-11T03:11:22.303501+05:30"},{"city":"Dalhousie","state":"Himachal Pradesh","latitude":32.5387,"longitude":75.971,"temp":12.8,"humidity":54,"rain":0.0,"pressure":803.5,"uv_index":7.65,"wind_gusts":23.8,"aqi":57,"pm10":26.9,"pm2_5":20.6,"mosquito_risk":0,"arthritis_risk":5,"migraine_risk":7,"frizz_risk":0,"updated_at":"2026-04-11T03:11:22.303511+05:30"},{"city":"Patiala","state":"Punjab","latitude":30.3398,"longitude":76.3869,"temp":19.2,"humidity":65,"rain":0.0,"pressure":981.3,"uv_index":7.05,"wind_gusts":34.6,"aqi":769,"pm10":827.0,"pm2_5":92.2,"mosquito_risk":3,"arthritis_risk":5,"migraine_risk":7,"frizz_risk":0,"updated_at":"2026-04-11T03:11:22.303520+05:30"},{"city":"Bhatinda","state":"Punjab","latitude":30.211,"longitude":74.9455,"temp":20.6,"humidity":63,"rain":0.0,"pressure":987.8,"uv_index":7.4,"wind_gusts":29.9,"aqi":72,"pm10":70.1,"pm2_5":25.2,"mosquito_risk":3,"arthritis_risk":5,"migraine_risk":7,"frizz_risk":0,"updated_at":"2026-04-11T03:11:22.303528+05:30"},{"city":"Rohtak","state":"Haryana","latitude":28.8955,"longitude":76.6066,"temp":19.4,"humidity":63,"rain":0.0,"pressure":984.7,"uv_index":7.2,"wind_gusts":33.1,"aqi":1126,"pm10":953.7,"pm2_5":142.5,"mosquito_risk":3,"arthritis_risk":5,"migraine_risk":7,"frizz_risk":0,"updated_at":"2026-04-11T03:11:22.303537+05:30"},{"city":"Panipat","state":"Haryana","latitude":29.3909,"longitude":76.9635,"temp":19.5,"humidity":62,"rain":0.0,"pressure":983.2,"uv_index":7.0,"wind_gusts":35.6,"aqi":2079,"pm10":1829.1,"pm2_5":218.9,"mosquito_risk":3,"arthritis_risk":5,"migraine_risk":7,"frizz_risk":0,"updated_at":"2026-04-11T03:11:22.303546+05:30"},{"city":"Mathura","state":"Uttar Pradesh","latitude":27.4924,"longitude":77.6737,"temp":22.9,"humidity":50,"rain":0.0,"pressure":989.9,"uv_index":7.5,"wind_gusts":31.7,"aqi":1342,"pm10":1441.7,"pm2_5":188.1,"mosquito_risk":0,"arthritis_risk":5,"migraine_risk":7,"frizz_risk":0,"updated_at":"2026-04-11T03:11:22.303554+05:30"},{"city":"Vrindavan","state":"Uttar Pradesh","latitude":27.5823,"longitude":77.7027,"temp":19.5,"humidity":67,"rain":0.0,"pressure":990.2,"uv_index":7.45,"wind_gusts":38.2,"aqi":1342,"pm10":1441.7,"pm2_5":188.1,"mosquito_risk":3,"arthritis_risk":5,"migraine_risk":7,"frizz_risk":0,"updated_at":"2026-04-11T03:11:22.303563+05:30"},{"city":"Ayodhya","state":"Uttar Pradesh","latitude":26.7922,"longitude":82.1998,"temp":19.7,"humidity":54,"rain":0.0,"pressure":996.7,"uv_index":7.85,"wind_gusts":42.8,"aqi":108,"pm10":579.3,"pm2_5":120.6,"mosquito_risk":0,"arthritis_risk":5,"migraine_risk":7,"frizz_risk":0,"updated_at":"2026-04-11T03:11:22.303571+05:30"},{"city":"Ratlam","state":"Madhya Pradesh","latitude":23.3315,"longitude":75.0367,"temp":21.3,"humidity":55,"rain":0.0,"pressure":956.7,"uv_index":8.35,"wind_gusts":20.2,"aqi":55,"pm10":32.1,"pm2_5":17.7,"mosquito_risk":0,"arthritis_risk":5,"migraine_risk":7,"frizz_risk":0,"updated_at":"2026-04-11T03:11:22.303580+05:30"},{"city":"Sagar","state":"Madhya Pradesh","latitude":23.8388,"longitude":78.7378,"temp":23.1,"humidity":37,"rain":0.0,"pressure":952.8,"uv_index":8.5,"wind_gusts":28.1,"aqi":64,"pm10":31.2,"pm2_5":14.8,"mosquito_risk":0,"arthritis_risk":5,"migraine_risk":7,"frizz_risk":0,"updated_at":"2026-04-11T03:11:22.303589+05:30"},{"city":"Satna","state":"Madhya Pradesh","latitude":24.6005,"longitude":80.8322,"temp":22.4,"humidity":40,"rain":0.0,"pressure":974.1,"uv_index":8.5,"wind_gusts":34.2,"aqi":78,"pm10":28.3,"pm2_5":13.7,"mosquito_risk":0,"arthritis_risk":5,"migraine_risk":7,"frizz_risk":0,"updated_at":"2026-04-11T03:11:22.303597+05:30"},{"city":"Akola","state":"Maharashtra","latitude":20.7002,"longitude":77.0082,"temp":27.6,"humidity":39,"rain":0.0,"pressure":976.4,"uv_index":8.7,"wind_gusts":21.6,"aqi":86,"pm10":52.2,"pm2_5":32.0,"mosquito_risk":4,"arthritis_risk":5,"migraine_risk":7,"frizz_risk":0,"updated_at":"2026-04-11T03:11:22.303605+05:30"},{"city":"Amravati","state":"Maharashtra","latitude":20.9374,"longitude":77.7796,"temp":25.6,"humidity":39,"rain":0.0,"pressure":968.2,"uv_index":8.75,"wind_gusts":22.0,"aqi":82,"pm10":41.1,"pm2_5":22.2,"mosquito_risk":4,"arthritis_risk":5,"migraine_risk":7,"frizz_risk":0,"updated_at":"2026-04-11T03:11:22.303612+05:30"},{"city":"Latur","state":"Maharashtra","latitude":18.4088,"longitude":76.5604,"temp":26.5,"humidity":56,"rain":0.0,"pressure":940.3,"uv_index":9.0,"wind_gusts":16.6,"aqi":73,"pm10":47.1,"pm2_5":29.8,"mosquito_risk":4,"arthritis_risk":5,"migraine_risk":7,"frizz_risk":1,"updated_at":"2026-04-11T03:11:22.303619+05:30"},{"city":"Nanded","state":"Maharashtra","latitude":19.1383,"longitude":77.3091,"temp":26.8,"humidity":59,"rain":0.0,"pressure":969.1,"uv_index":8.9,"wind_gusts":13.0,"aqi":75,"pm10":45.4,"pm2_5":27.9,"mosquito_risk":4,"arthritis_risk":5,"migraine_risk":7,"frizz_risk":1,"updated_at":"2026-04-11T03:11:22.303626+05:30"},{"city":"Gulbarga","state":"Karnataka","latitude":17.3297,"longitude":76.8343,"temp":29.7,"humidity":44,"rain":0.0,"pressure":959.0,"uv_index":9.1,"wind_gusts":18.4,"aqi":72,"pm10":28.2,"pm2_5":20.3,"mosquito_risk":4,"arthritis_risk":5,"migraine_risk":7,"frizz_risk":1,"updated_at":"2026-04-11T03:11:22.303633+05:30"},{"city":"Bidar","state":"Karnataka","latitude":17.9104,"longitude":77.5199,"temp":27.9,"humidity":46,"rain":0.0,"pressure":936.3,"uv_index":9.05,"wind_gusts":28.1,"aqi":76,"pm10":47.0,"pm2_5":28.9,"mosquito_risk":4,"arthritis_risk":5,"migraine_risk":7,"frizz_risk":0,"updated_at":"2026-04-11T03:11:22.303639+05:30"},{"city":"Hospet","state":"Karnataka","latitude":15.2689,"longitude":76.3909,"temp":28.5,"humidity":62,"rain":0.0,"pressure":956.8,"uv_index":9.25,"wind_gusts":25.9,"aqi":78,"pm10":44.4,"pm2_5":31.5,"mosquito_risk":7,"arthritis_risk":5,"migraine_risk":7,"frizz_risk":1,"updated_at":"2026-04-11T03:11:22.303646+05:30"},{"city":"Tirupur","state":"Tamil Nadu","latitude":11.1085,"longitude":77.3411,"temp":25.2,"humidity":82,"rain":0.0,"pressure":976.8,"uv_index":9.25,"wind_gusts":35.6,"aqi":82,"pm10":44.1,"pm2_5":38.6,"mosquito_risk":7,"arthritis_risk":5,"migraine_risk":7,"frizz_risk":1,"updated_at":"2026-04-11T03:11:22.303654+05:30"},{"city":"Alappuzha","state":"Kerala","latitude":9.4981,"longitude":76.3388,"temp":26.1,"humidity":86,"rain":0.0,"pressure":1010.2,"uv_index":7.4,"wind_gusts":28.4,"aqi":74,"pm10":25.0,"pm2_5":17.0,"mosquito_risk":7,"arthritis_risk":0,"migraine_risk":4,"frizz_risk":1,"updated_at":"2026-04-11T03:11:22.303660+05:30"},{"city":"Munnar","state":"Kerala","latitude":10.0889,"longitude":77.0595,"temp":20.4,"humidity":89,"rain":0.0,"pressure":857.1,"uv_index":8.05,"wind_gusts":37.4,"aqi":79,"pm10":24.0,"pm2_5":22.5,"mosquito_risk":3,"arthritis_risk":5,"migraine_risk":7,"frizz_risk":1,"updated_at":"2026-04-11T03:11:22.303668+05:30"},{"city":"Silchar","state":"Assam","latitude":24.8333,"longitude":92.7789,"temp":19.3,"humidity":93,"rain":0.0,"pressure":1007.5,"uv_index":8.6,"wind_gusts":24.5,"aqi":122,"pm10":69.8,"pm2_5":52.7,"mosquito_risk":3,"arthritis_risk":10,"migraine_risk":4,"frizz_risk":1,"updated_at":"2026-04-11T03:11:22.303675+05:30"},{"city":"Dibrugarh","state":"Assam","latitude":27.4728,"longitude":94.912,"temp":19.3,"humidity":96,"rain":0.0,"pressure":998.5,"uv_index":8.4,"wind_gusts":19.1,"aqi":90,"pm10":23.0,"pm2_5":18.4,"mosquito_risk":3,"arthritis_risk":10,"migraine_risk":7,"frizz_risk":1,"updated_at":"2026-04-11T03:11:22.303682+05:30"}]