[{"city":"Delhi","state":"Delhi","latitude":28.6139,"longitude":77.209,"temp":20.6,"humidity":74,"rain":0.0,"pressure":983.4,"uv_index":5.9,"wind_gusts":18.0,"aqi":421,"pm10":312.9,"pm2_5":86.4,"mosquito_risk":3,"arthritis_risk":5,"migraine_risk":3,"frizz_risk":0,"updated_at":"2026-03-06T05:23:33.391764+05:30"},{"city":"Mumbai","state":"Maharashtra","latitude":19.076,"longitude":72.8777,"temp":27.5,"humidity":66,"rain":0.0,"pressure":1008.3,"uv_index":7.4,"wind_gusts":24.8,"aqi":100,"pm10":33.9,"pm2_5":31.4,"mosquito_risk":7,"arthritis_risk":0,"migraine_risk":4,"frizz_risk":1,"updated_at":"2026-03-06T05:23:33.391802+05:30"},{"city":"Bangalore","state":"Karnataka","latitude":12.9716,"longitude":77.5946,"temp":19.2,"humidity":68,"rain":0.0,"pressure":910.2,"uv_index":9.15,"wind_gusts":24.5,"aqi":94,"pm10":46.6,"pm2_5":42.0,"mosquito_risk":3,"arthritis_risk":5,"migraine_risk":7,"frizz_risk":0,"updated_at":"2026-03-06T05:23:33.391818+05:30"},{"city":"Hyderabad","state":"Telangana","latitude":17.385,"longitude":78.4867,"temp":22.2,"humidity":50,"rain":0.0,"pressure":952.6,"uv_index":8.5,"wind_gusts":25.6,"aqi":104,"pm10":43.3,"pm2_5":39.8,"mosquito_risk":0,"arthritis_risk":5,"migraine_risk":7,"frizz_risk":0,"updated_at":"2026-03-06T05:23:33.391827+05:30"},{"city":"Chennai","state":"Tamil Nadu","latitude":13.0827,"longitude":80.2707,"temp":23.6,"humidity":93,"rain":0.0,"pressure":1007.0,"uv_index":8.9,"wind_gusts":31.3,"aqi":83,"pm10":23.6,"pm2_5":20.1,"mosquito_risk":3,"arthritis_risk":5,"migraine_risk":4,"frizz_risk":1,"updated_at":"2026-03-06T05:23:33.391837+05:30"},{"city":"Kolkata","state":"West Bengal","latitude":22.5726,"longitude":88.3639,"temp":21.4,"humidity":99,"rain":0.0,"pressure":1007.6,"uv_index":7.8,"wind_gusts":14.8,"aqi":165,"pm10":108.5,"pm2_5":98.0,"mosquito_risk":3,"arthritis_risk":5,"migraine_risk":4,"frizz_risk":1,"updated_at":"2026-03-06T05:23:33.391845+05:30"},{"city":"Pune","state":"Maharashtra","latitude":18.5204,"longitude":73.8567,"temp":21.0,"humidity":59,"rain":0.0,"pressure":948.4,"uv_index":8.0,"wind_gusts":28.8,"aqi":88,"pm10":56.2,"pm2_5":54.2,"mosquito_risk":0,"arthritis_risk":5,"migraine_risk":7,"frizz_risk":0,"updated_at":"2026-03-06T05:23:33.391858+05:30"},{"city":"Ahmedabad","state":"Gujarat","latitude":23.0225,"longitude":72.5714,"temp":20.0,"humidity":88,"rain":0.0,"pressure":1004.3,"uv_index":7.25,"wind_gusts":21.2,"aqi":67,"pm10":21.3,"pm2_5":19.9,"mosquito_risk":3,"arthritis_risk":5,"migraine_risk":4,"frizz_risk":1,"updated_at":"2026-03-06T05:23:33.391865+05:30"},{"city":"Jaipur","state":"Rajasthan","latitude":26.9124,"longitude":75.7873,"temp":21.8,"humidity":43,"rain":0.0,"pressure":960.5,"uv_index":6.7,"wind_gusts":20.9,"aqi":99,"pm10":146.7,"pm2_5":26.1,"mosquito_risk":0,"arthritis_risk":5,"migraine_risk":7,"frizz_risk":0,"updated_at":"2026-03-06T05:23:33.391873+05:30"},{"city":"Lucknow","state":"Uttar Pradesh","latitude":26.8467,"longitude":80.9462,"temp":20.6,"humidity":83,"rain":0.0,"pressure":994.5,"uv_index":6.4,"wind_gusts":22.7,"aqi":169,"pm10":141.6,"pm2_5":99.4,"mosquito_risk":3,"arthritis_risk":5,"migraine_risk":7,"frizz_risk":1,"updated_at":"2026-03-06T05:23:33.391880+05:30"},{"city":"Kanpur","state":"Uttar Pradesh","latitude":26.4499,"longitude":80.3319,"temp":19.9,"humidity":90,"rain":0.0,"pressure":992.3,"uv_index":6.4,"wind_gusts":14.8,"aqi":181,"pm10":285.0,"pm2_5":101.0,"mosquito_risk":3,"arthritis_risk":10,"migraine_risk":7,"frizz_risk":1,"updated_at":"2026-03-06T05:23:33.391888+05:30"},{"city":"Chandigarh","state":"Chandigarh","latitude":30.7333,"longitude":76.7794,"temp":19.4,"humidity":70,"rain":0.0,"pressure":968.5,"uv_index":5.8,"wind_gusts":21.6,"aqi":106,"pm10":53.0,"pm2_5":38.6,"mosquito_risk":3,"arthritis_risk":5,"migraine_risk":3,"frizz_risk":0,"updated_at":"2026-03-06T05:23:33.391896+05:30"},{"city":"Srinagar","state":"Jammu and Kashmir","latitude":34.0837,"longitude":74.7973,"temp":6.2,"humidity":73,"rain":0.0,"pressure":838.6,"uv_index":6.7,"wind_gusts":16.6,"aqi":143,"pm10":76.8,"pm2_5":54.2,"mosquito_risk":3,"arthritis_risk":5,"migraine_risk":7,"frizz_risk":0,"updated_at":"2026-03-06T05:23:33.391903+05:30"},{"city":"Jammu","state":"Jammu and Kashmir","latitude":32.7266,"longitude":74.857,"temp":16.9,"humidity":87,"rain":0.0,"pressure":972.4,"uv_index":6.45,"wind_gusts":19.8,"aqi":117,"pm10":49.6,"pm2_5":41.8,"mosquito_risk":3,"arthritis_risk":10,"migraine_risk":7,"frizz_risk":0,"updated_at":"2026-03-06T05:23:33.391910+05:30"},{"city":"Amritsar","state":"Punjab","latitude":31.634,"longitude":74.8723,"temp":18.0,"humidity":83,"rain":0.0,"pressure":980.9,"uv_index":6.05,"wind_gusts":14.4,"aqi":151,"pm10":110.6,"pm2_5":93.6,"mosquito_risk":3,"arthritis_risk":10,"migraine_risk":7,"frizz_risk":0,"updated_at":"2026-03-06T05:23:33.391917+05:30"},{"city":"Ludhiana","state":"Punjab","latitude":30.901,"longitude":75.8573,"temp":20.4,"humidity":81,"rain":0.0,"pressure":978.8,"uv_index":6.05,"wind_gusts":14.4,"aqi":160,"pm10":108.3,"pm2_5":90.1,"mosquito_risk":3,"arthritis_risk":5,"migraine_risk":7,"frizz_risk":1,"updated_at":"2026-03-06T05:23:33.391924+05:30"},{"city":"Jalandhar","state":"Punjab","latitude":31.326,"longitude":75.5762,"temp":18.0,"humidity":92,"rain":0.0,"pressure":980.0,"uv_index":6.15,"wind_gusts":15.8,"aqi":160,"pm10":120.6,"pm2_5":101.7,"mosquito_risk":3,"arthritis_risk":10,"migraine_risk":7,"frizz_risk":1,"updated_at":"2026-03-06T05:23:33.391933+05:30"},{"city":"Dehradun","state":"Uttarakhand","latitude":30.6284,"longitude":78.0322,"temp":11.6,"humidity":55,"rain":0.0,"pressure":827.1,"uv_index":6.15,"wind_gusts":26.6,"aqi":75,"pm10":30.5,"pm2_5":26.5,"mosquito_risk":0,"arthritis_risk":5,"migraine_risk":7,"frizz_risk":0,"updated_at":"2026-03-06T05:23:33.391940+05:30"},{"city":"Shimla","state":"Himachal Pradesh","latitude":31.1048,"longitude":77.1734,"temp":12.0,"humidity":49,"rain":0.0,"pressure":782.6,"uv_index":6.25,"wind_gusts":30.6,"aqi":72,"pm10":48.7,"pm2_5":28.1,"mosquito_risk":0,"arthritis_risk":5,"migraine_risk":7,"frizz_risk":0,"updated_at":"2026-03-06T05:23:33.391947+05:30"},{"city":"Manali","state":"Himachal Pradesh","latitude":32.2396,"longitude":77.1887,"temp":17.6,"humidity":17,"rain":0.0,"pressure":820.9,"uv_index":7.2,"wind_gusts":37.4,"aqi":62,"pm10":36.6,"pm2_5":22.0,"mosquito_risk":0,"arthritis_risk":5,"migraine_risk":7,"frizz_risk":1,"updated_at":"2026-03-06T05:23:33.391954+05:30"},{"city":"Gurgaon","state":"Haryana","latitude":28.4595,"longitude":77.0266,"temp":17.9,"humidity":81,"rain":0.0,"pressure":981.7,"uv_index":6.0,"wind_gusts":16.2,"aqi":1405,"pm10":612.8,"pm2_5":114.8,"mosquito_risk":3,"arthritis_risk":10,"migraine_risk":3,"frizz_risk":0,"updated_at":"2026-03-06T05:23:33.391961+05:30"},{"city":"Noida","state":"Uttar Pradesh","latitude":28.5355,"longitude":77.391,"temp":20.7,"humidity":74,"rain":0.0,"pressure":984.9,"uv_index":5.9,"wind_gusts":17.3,"aqi":1405,"pm10":612.8,"pm2_5":114.8,"mosquito_risk":3,"arthritis_risk":5,"migraine_risk":3,"frizz_risk":0,"updated_at":"2026-03-06T05:23:33.391968+05:30"},{"city":"Ghaziabad","state":"Uttar Pradesh","latitude":28.6692,"longitude":77.4538,"temp":20.3,"humidity":80,"rain":0.0,"pressure":983.0,"uv_index":5.9,"wind_gusts":13.7,"aqi":295,"pm10":300.8,"pm2_5":97.1,"mosquito_risk":3,"arthritis_risk":5,"migraine_risk":3,"frizz_risk":1,"updated_at":"2026-03-06T05:23:33.391977+05:30"},{"city":"Faridabad","state":"Haryana","latitude":28.4089,"longitude":77.3178,"temp":20.6,"humidity":67,"rain":0.0,"pressure":984.2,"uv_index":5.95,"wind_gusts":16.9,"aqi":1405,"pm10":612.8,"pm2_5":114.8,"mosquito_risk":3,"arthritis_risk":5,"migraine_risk":3,"frizz_risk":0,"updated_at":"2026-03-06T05:23:33.391983+05:30"},{"city":"Meerut","state":"Uttar Pradesh","latitude":28.9845,"longitude":77.7064,"temp":19.1,"humidity":92,"rain":0.0,"pressure":981.7,"uv_index":5.75,"wind_gusts":11.2,"aqi":295,"pm10":300.8,"pm2_5":97.1,"mosquito_risk":3,"arthritis_risk":10,"migraine_risk":3,"frizz_risk":1,"updated_at":"2026-03-06T05:23:33.391990+05:30"},{"city":"Agra","state":"Uttar Pradesh","latitude":27.1767,"longitude":78.0081,"temp":17.6,"humidity":76,"rain":0.0,"pressure":988.2,"uv_index":6.3,"wind_gusts":20.2,"aqi":532,"pm10":449.8,"pm2_5":91.5,"mosquito_risk":3,"arthritis_risk":5,"migraine_risk":7,"frizz_risk":0,"updated_at":"2026-03-06T05:23:33.391997+05:30"},{"city":"Varanasi","state":"Uttar Pradesh","latitude":25.3176,"longitude":82.9739,"temp":19.5,"humidity":86,"rain":0.0,"pressure":998.9,"uv_index":7.1,"wind_gusts":16.6,"aqi":161,"pm10":166.2,"pm2_5":93.6,"mosquito_risk":3,"arthritis_risk":10,"migraine_risk":7,"frizz_risk":1,"updated_at":"2026-03-06T05:23:33.392006+05:30"},{"city":"Prayagraj","state":"Uttar Pradesh","latitude":25.4358,"longitude":81.8463,"temp":19.8,"humidity":88,"rain":0.0,"pressure":996.9,"uv_index":6.95,"wind_gusts":14.8,"aqi":164,"pm10":176.5,"pm2_5":114.6,"mosquito_risk":3,"arthritis_risk":10,"migraine_risk":7,"frizz_risk":1,"updated_at":"2026-03-06T05:23:33.392013+05:30"},{"city":"Gorakhpur","state":"Uttar Pradesh","latitude":26.7606,"longitude":83.3732,"temp":17.5,"humidity":87,"rain":0.0,"pressure":998.8,"uv_index":6.8,"wind_gusts":20.9,"aqi":172,"pm10":116.6,"pm2_5":103.6,"mosquito_risk":3,"arthritis_risk":10,"migraine_risk":7,"frizz_risk":0,"updated_at":"2026-03-06T05:23:33.392020+05:30"},{"city":"Bareilly","state":"Uttar Pradesh","latitude":28.367,"longitude":79.4304,"temp":18.7,"humidity":94,"rain":0.0,"pressure":987.6,"uv_index":6.1,"wind_gusts":20.9,"aqi":169,"pm10":113.9,"pm2_5":83.6,"mosquito_risk":3,"arthritis_risk":10,"migraine_risk":7,"frizz_risk":1,"updated_at":"2026-03-06T05:23:33.392026+05:30"},{"city":"Aligarh","state":"Uttar Pradesh","latitude":27.8974,"longitude":78.088,"temp":19.0,"humidity":81,"rain":0.0,"pressure":985.8,"uv_index":6.05,"wind_gusts":19.1,"aqi":710,"pm10":540.2,"pm2_5":135.5,"mosquito_risk":3,"arthritis_risk":10,"migraine_risk":7,"frizz_risk":0,"updated_at":"2026-03-06T05:23:33.392033+05:30"},{"city":"Moradabad","state":"Uttar Pradesh","latitude":28.8386,"longitude":78.7733,"temp":18.6,"humidity":95,"rain":0.0,"pressure":984.2,"uv_index":5.9,"wind_gusts":24.1,"aqi":176,"pm10":99.4,"pm2_5":93.6,"mosquito_risk":3,"arthritis_risk":10,"migraine_risk":3,"frizz_risk":1,"updated_at":"2026-03-06T05:23:33.392040+05:30"},{"city":"Saharanpur","state":"Uttar Pradesh","latitude":29.9637,"longitude":77.546,"temp":18.1,"humidity":94,"rain":0.0,"pressure":975.9,"uv_index":5.55,"wind_gusts":25.6,"aqi":160,"pm10":110.1,"pm2_5":83.4,"mosquito_risk":3,"arthritis_risk":10,"migraine_risk":3,"frizz_risk":1,"updated_at":"2026-03-06T05:23:33.392046+05:30"},{"city":"Jhansi","state":"Uttar Pradesh","latitude":25.4484,"longitude":78.5685,"temp":19.8,"humidity":56,"rain":0.0,"pressure":978.2,"uv_index":6.9,"wind_gusts":25.2,"aqi":60,"pm10":27.5,"pm2_5":16.1,"mosquito_risk":0,"arthritis_risk":5,"migraine_risk":7,"frizz_risk":0,"updated_at":"2026-03-06T05:23:36.719556+05:30"},{"city":"Surat","state":"Gujarat","latitude":21.1702,"longitude":72.8311,"temp":22.7,"humidity":76,"rain":0.0,"pressure":1008.0,"uv_index":7.15,"wind_gusts":22.7,"aqi":122,"pm10":37.0,"pm2_5":36.2,"mosquito_risk":3,"arthritis_risk":0,"migraine_risk":4,"frizz_risk":1,"updated_at":"2026-03-06T05:23:36.719590+05:30"},{"city":"Vadodara","state":"Gujarat","latitude":22.3072,"longitude":73.1812,"temp":20.9,"humidity":76,"rain":0.0,"pressure":1006.1,"uv_index":7.25,"wind_gusts":19.1,"aqi":92,"pm10":36.4,"pm2_5":36.1,"mosquito_risk":3,"arthritis_risk":5,"migraine_risk":4,"frizz_risk":1,"updated_at":"2026-03-06T05:23:36.719602+05:30"},{"city":"Rajkot","state":"Gujarat","latitude":22.3039,"longitude":70.8022,"temp":20.0,"humidity":98,"rain":0.0,"pressure":996.8,"uv_index":7.1,"wind_gusts":23.4,"aqi":54,"pm10":15.8,"pm2_5":12.3,"mosquito_risk":3,"arthritis_risk":5,"migraine_risk":7,"frizz_risk":1,"updated_at":"2026-03-06T05:23:36.719612+05:30"},{"city":"Thane","state":"Maharashtra","latitude":19.2183,"longitude":72.9781,"temp":24.5,"humidity":63,"rain":0.0,"pressure":1007.9,"uv_index":7.4,"wind_gusts":36.7,"aqi":100,"pm10":33.9,"pm2_5":31.4,"mosquito_risk":3,"arthritis_risk":5,"migraine_risk":4,"frizz_risk":1,"updated_at":"2026-03-06T05:23:36.719621+05:30"},{"city":"Nagpur","state":"Maharashtra","latitude":21.1458,"longitude":79.0882,"temp":18.4,"humidity":65,"rain":0.0,"pressure":973.1,"uv_index":7.85,"wind_gusts":25.6,"aqi":54,"pm10":22.0,"pm2_5":14.9,"mosquito_risk":3,"arthritis_risk":5,"migraine_risk":7,"frizz_risk":0,"updated_at":"2026-03-06T05:23:36.719630+05:30"},{"city":"Nashik","state":"Maharashtra","latitude":19.9975,"longitude":73.7898,"temp":21.4,"humidity":51,"rain":0.0,"pressure":945.9,"uv_index":7.6,"wind_gusts":34.2,"aqi":73,"pm10":26.5,"pm2_5":23.7,"mosquito_risk":0,"arthritis_risk":5,"migraine_risk":7,"frizz_risk":0,"updated_at":"2026-03-06T05:23:36.719639+05:30"},{"city":"Aurangabad","state":"Maharashtra","latitude":19.8762,"longitude":75.3433,"temp":23.2,"humidity":43,"rain":0.0,"pressure":944.4,"uv_index":8.1,"wind_gusts":24.5,"aqi":66,"pm10":24.3,"pm2_5":21.4,"mosquito_risk":0,"arthritis_risk":5,"migraine_risk":7,"frizz_risk":0,"updated_at":"2026-03-06T05:23:36.719647+05:30"},{"city":"Solapur","state":"Maharashtra","latitude":17.6599,"longitude":75.9064,"temp":20.1,"humidity":63,"rain":0.0,"pressure":956.6,"uv_index":8.4,"wind_gusts":19.8,"aqi":75,"pm10":24.6,"pm2_5":22.8,"mosquito_risk":3,"arthritis_risk":5,"migraine_risk":7,"frizz_risk":0,"updated_at":"2026-03-06T05:23:36.719656+05:30"},{"city":"Kolhapur","state":"Maharashtra","latitude":16.705,"longitude":74.2433,"temp":19.3,"humidity":58,"rain":0.0,"pressure":947.1,"uv_index":8.55,"wind_gusts":32.4,"aqi":151,"pm10":84.3,"pm2_5":83.1,"mosquito_risk":0,"arthritis_risk":5,"migraine_risk":7,"frizz_risk":0,"updated_at":"2026-03-06T05:23:36.719664+05:30"},{"city":"Goa","state":"Goa","latitude":15.2993,"longitude":74.124,"temp":23.7,"humidity":95,"rain":0.0,"pressure":997.3,"uv_index":8.6,"wind_gusts":31.3,"aqi":155,"pm10":82.4,"pm2_5":79.6,"mosquito_risk":3,"arthritis_risk":5,"migraine_risk":7,"frizz_risk":1,"updated_at":"2026-03-06T05:23:36.719672+05:30"},{"city":"Jodhpur","state":"Rajasthan","latitude":26.2389,"longitude":73.0243,"temp":20.2,"humidity":46,"rain":0.0,"pressure":984.4,"uv_index":6.95,"wind_gusts":21.6,"aqi":72,"pm10":81.7,"pm2_5":17.3,"mosquito_risk":0,"arthritis_risk":5,"migraine_risk":7,"frizz_risk":0,"updated_at":"2026-03-06T05:23:36.719681+05:30"},{"city":"Udaipur","state":"Rajasthan","latitude":24.5854,"longitude":73.7125,"temp":15.9,"humidity":38,"rain":0.0,"pressure":947.0,"uv_index":7.6,"wind_gusts":20.5,"aqi":47,"pm10":10.0,"pm2_5":9.6,"mosquito_risk":0,"arthritis_risk":5,"migraine_risk":7,"frizz_risk":0,"updated_at":"2026-03-06T05:23:36.719689+05:30"},{"city":"Kota","state":"Rajasthan","latitude":25.2138,"longitude":75.8648,"temp":18.3,"humidity":67,"rain":0.0,"pressure":979.4,"uv_index":7.0,"wind_gusts":17.6,"aqi":77,"pm10":21.8,"pm2_5":18.6,"mosquito_risk":3,"arthritis_risk":5,"migraine_risk":7,"frizz_risk":0,"updated_at":"2026-03-06T05:23:36.719698+05:30"},{"city":"Bikaner","state":"Rajasthan","latitude":28.0229,"longitude":73.3119,"temp":21.2,"humidity":45,"rain":0.0,"pressure":982.6,"uv_index":6.65,"wind_gusts":20.9,"aqi":59,"pm10":65.0,"pm2_5":15.9,"mosquito_risk":0,"arthritis_risk":5,"migraine_risk":7,"frizz_risk":0,"updated_at":"2026-03-06T05:23:36.719707+05:30"},{"city":"Ajmer","state":"Rajasthan","latitude":26.4499,"longitude":74.6399,"temp":19.0,"humidity":46,"rain":0.0,"pressure":955.5,"uv_index":6.95,"wind_gusts":23.8,"aqi":66,"pm10":37.7,"pm2_5":11.7,"mosquito_risk":0,"arthritis_risk":5,"migraine_risk":7,"frizz_risk":0,"updated_at":"2026-03-06T05:23:36.719715+05:30"},{"city":"Gwalior","state":"Madhya Pradesh","latitude":26.2183,"longitude":78.1828,"temp":20.2,"humidity":66,"rain":0.0,"pressure":983.4,"uv_index":6.6,"wind_gusts":22.0,"aqi":83,"pm10":109.0,"pm2_5":28.8,"mosquito_risk":3,"arthritis_risk":5,"migraine_risk":7,"frizz_risk":0,"updated_at":"2026-03-06T05:23:36.719723+05:30"},{"city":"Indore","state":"Madhya Pradesh","latitude":22.7196,"longitude":75.8577,"temp":16.2,"humidity":67,"rain":0.0,"pressure":948.1,"uv_index":7.55,"wind_gusts":22.7,"aqi":79,"pm10":27.0,"pm2_5":23.6,"mosquito_risk":3,"arthritis_risk":5,"migraine_risk":7,"frizz_risk":0,"updated_at":"2026-03-06T05:23:36.719731+05:30"},{"city":"Bhopal","state":"Madhya Pradesh","latitude":23.2599,"longitude":77.4126,"temp":17.4,"humidity":59,"rain":0.0,"pressure":953.6,"uv_index":7.4,"wind_gusts":24.8,"aqi":66,"pm10":38.4,"pm2_5":28.4,"mosquito_risk":0,"arthritis_risk":5,"migraine_risk":7,"frizz_risk":0,"updated_at":"2026-03-06T05:23:36.719739+05:30"},{"city":"Jabalpur","state":"Madhya Pradesh","latitude":23.1815,"longitude":79.9864,"temp":17.0,"humidity":79,"rain":0.0,"pressure":961.4,"uv_index":7.5,"wind_gusts":27.7,"aqi":60,"pm10":36.6,"pm2_5":24.6,"mosquito_risk":3,"arthritis_risk":5,"migraine_risk":7,"frizz_risk":0,"updated_at":"2026-03-06T05:23:36.719748+05:30"},{"city":"Ujjain","state":"Madhya Pradesh","latitude":23.1765,"longitude":75.7885,"temp":16.3,"humidity":69,"rain":0.0,"pressure":953.9,"uv_index":7.45,"wind_gusts":19.1,"aqi":100,"pm10":18.0,"pm2_5":17.5,"mosquito_risk":3,"arthritis_risk":5,"migraine_risk":7,"frizz_risk":0,"updated_at":"2026-03-06T05:23:36.719756+05:30"},{"city":"Visakhapatnam","state":"Andhra Pradesh","latitude":17.6868,"longitude":83.2185,"temp":23.6,"humidity":94,"rain":0.0,"pressure":1002.7,"uv_index":8.45,"wind_gusts":36.7,"aqi":137,"pm10":57.3,"pm2_5":54.2,"mosquito_risk":3,"arthritis_risk":5,"migraine_risk":4,"frizz_risk":1,"updated_at":"2026-03-06T05:23:36.719764+05:30"},{"city":"Vijayawada","state":"Andhra Pradesh","latitude":16.5062,"longitude":80.648,"temp":23.1,"humidity":82,"rain":0.0,"pressure":1001.8,"uv_index":8.55,"wind_gusts":18.4,"aqi":127,"pm10":58.9,"pm2_5":57.0,"mosquito_risk":3,"arthritis_risk":5,"migraine_risk":4,"frizz_risk":1,"updated_at":"2026-03-06T05:23:36.719773+05:30"},{"city":"Guntur","state":"Andhra Pradesh","latitude":16.3067,"longitude":80.4365,"temp":23.6,"humidity":77,"rain":0.0,"pressure":1003.1,"uv_index":8.55,"wind_gusts":16.9,"aqi":111,"pm10":47.4,"pm2_5":45.1,"mosquito_risk":3,"arthritis_risk":5,"migraine_risk":4,"frizz_risk":1,"updated_at":"2026-03-06T05:23:36.719781+05:30"},{"city":"Nellore","state":"Andhra Pradesh","latitude":14.4426,"longitude":79.9865,"temp":23.5,"humidity":80,"rain":0.0,"pressure":1005.0,"uv_index":8.75,"wind_gusts":29.9,"aqi":93,"pm10":31.5,"pm2_5":30.2,"mosquito_risk":3,"arthritis_risk":5,"migraine_risk":4,"frizz_risk":1,"updated_at":"2026-03-06T05:23:36.719790+05:30"},{"city":"Kurnool","state":"Andhra Pradesh","latitude":15.8281,"longitude":78.0373,"temp":24.4,"humidity":50,"rain":0.0,"pressure":976.3,"uv_index":8.55,"wind_gusts":23.8,"aqi":77,"pm10":25.0,"pm2_5":22.6,"mosquito_risk":0,"arthritis_risk":5,"migraine_risk":7,"frizz_risk":0,"updated_at":"2026-03-06T05:23:36.719799+05:30"},{"city":"Kakinada","state":"Andhra Pradesh","latitude":16.9891,"longitude":82.2475,"temp":22.3,"humidity":94,"rain":0.0,"pressure":1006.5,"uv_index":8.5,"wind_gusts":35.3,"aqi":119,"pm10":50.1,"pm2_5":46.7,"mosquito_risk":3,"arthritis_risk":5,"migraine_risk":4,"frizz_risk":1,"updated_at":"2026-03-06T05:23:36.719807+05:30"},{"city":"Tirupati","state":"Andhra Pradesh","latitude":13.6288,"longitude":79.4192,"temp":20.0,"humidity":82,"rain":0.0,"pressure":991.5,"uv_index":8.85,"wind_gusts":29.5,"aqi":115,"pm10":51.0,"pm2_5":49.8,"mosquito_risk":3,"arthritis_risk":5,"migraine_risk":7,"frizz_risk":1,"updated_at":"2026-03-06T05:23:36.719813+05:30"},{"city":"Warangal","state":"Telangana","latitude":17.9689,"longitude":79.5941,"temp":23.7,"humidity":51,"rain":0.0,"pressure":977.6,"uv_index":8.3,"wind_gusts":26.3,"aqi":82,"pm10":27.4,"pm2_5":26.5,"mosquito_risk":0,"arthritis_risk":5,"migraine_risk":7,"frizz_risk":0,"updated_at":"2026-03-06T05:23:36.719819+05:30"},{"city":"Nizamabad","state":"Telangana","latitude":18.6725,"longitude":78.0941,"temp":22.6,"humidity":54,"rain":0.0,"pressure":964.7,"uv_index":8.2,"wind_gusts":31.3,"aqi":92,"pm10":40.2,"pm2_5":38.4,"mosquito_risk":0,"arthritis_risk":5,"migraine_risk":7,"frizz_risk":0,"updated_at":"2026-03-06T05:23:36.719825+05:30"},{"city":"Mysore","state":"Karnataka","latitude":12.2958,"longitude":76.6396,"temp":20.6,"humidity":97,"rain":0.0,"pressure":927.4,"uv_index":9.2,"wind_gusts":35.6,"aqi":115,"pm10":49.4,"pm2_5":48.5,"mosquito_risk":3,"arthritis_risk":5,"migraine_risk":7,"frizz_risk":1,"updated_at":"2026-03-06T05:23:36.719831+05:30"},{"city":"Mangalore","state":"Karnataka","latitude":12.9141,"longitude":74.856,"temp":28.4,"humidity":79,"rain":0.0,"pressure":1006.1,"uv_index":8.8,"wind_gusts":24.5,"aqi":127,"pm10":50.8,"pm2_5":47.3,"mosquito_risk":7,"arthritis_risk":5,"migraine_risk":4,"frizz_risk":1,"updated_at":"2026-03-06T05:23:36.719837+05:30"},{"city":"Hubli-Dharwad","state":"Karnataka","latitude":15.3647,"longitude":75.124,"temp":18.6,"humidity":93,"rain":0.0,"pressure":939.5,"uv_index":8.75,"wind_gusts":35.3,"aqi":82,"pm10":45.2,"pm2_5":43.7,"mosquito_risk":3,"arthritis_risk":10,"migraine_risk":7,"frizz_risk":1,"updated_at":"2026-03-06T05:23:36.719844+05:30"},{"city":"Belgaum","state":"Karnataka","latitude":15.8497,"longitude":74.4977,"temp":19.8,"humidity":71,"rain":0.0,"pressure":924.4,"uv_index":8.8,"wind_gusts":38.9,"aqi":119,"pm10":64.7,"pm2_5":62.9,"mosquito_risk":3,"arthritis_risk":5,"migraine_risk":7,"frizz_risk":0,"updated_at":"2026-03-06T05:23:40.047979+05:30"},{"city":"Coimbatore","state":"Tamil Nadu","latitude":11.0168,"longitude":76.9558,"temp":21.3,"humidity":91,"rain":0.0,"pressure":961.1,"uv_index":9.15,"wind_gusts":37.8,"aqi":106,"pm10":53.0,"pm2_5":51.5,"mosquito_risk":3,"arthritis_risk":5,"migraine_risk":7,"frizz_risk":1,"updated_at":"2026-03-06T05:23:40.048011+05:30"},{"city":"Madurai","state":"Tamil Nadu","latitude":9.9252,"longitude":78.1198,"temp":23.1,"humidity":94,"rain":0.0,"pressure":992.9,"uv_index":9.15,"wind_gusts":27.4,"aqi":88,"pm10":40.0,"pm2_5":38.8,"mosquito_risk":3,"arthritis_risk":5,"migraine_risk":7,"frizz_risk":1,"updated_at":"2026-03-06T05:23:40.048022+05:30"},{"city":"Trichy","state":"Tamil Nadu","latitude":10.7905,"longitude":78.7047,"temp":22.4,"humidity":100,"rain":0.0,"pressure":999.9,"uv_index":9.05,"wind_gusts":25.2,"aqi":93,"pm10":32.0,"pm2_5":30.6,"mosquito_risk":3,"arthritis_risk":5,"migraine_risk":7,"frizz_risk":1,"updated_at":"2026-03-06T05:23:40.048030+05:30"},{"city":"Salem","state":"Tamil Nadu","latitude":11.6643,"longitude":78.146,"temp":22.8,"humidity":80,"rain":0.0,"pressure":977.2,"uv_index":9.05,"wind_gusts":15.5,"aqi":99,"pm10":46.2,"pm2_5":44.0,"mosquito_risk":3,"arthritis_risk":5,"migraine_risk":7,"frizz_risk":1,"updated_at":"2026-03-06T05:23:40.048037+05:30"},{"city":"Tirunelveli","state":"Tamil Nadu","latitude":8.7139,"longitude":77.7567,"temp":22.7,"humidity":81,"rain":0.0,"pressure":1003.2,"uv_index":9.15,"wind_gusts":49.0,"aqi":85,"pm10":47.6,"pm2_5":46.6,"mosquito_risk":3,"arthritis_risk":5,"migraine_risk":4,"frizz_risk":1,"updated_at":"2026-03-06T05:23:40.048044+05:30"},{"city":"Vellore","state":"Tamil Nadu","latitude":12.9165,"longitude":79.1325,"temp":20.1,"humidity":93,"rain":0.0,"pressure":984.5,"uv_index":8.95,"wind_gusts":32.8,"aqi":118,"pm10":54.1,"pm2_5":52.0,"mosquito_risk":3,"arthritis_risk":5,"migraine_risk":7,"frizz_risk":1,"updated_at":"2026-03-06T05:23:40.048052+05:30"},{"city":"Erode","state":"Tamil Nadu","latitude":11.341,"longitude":77.7172,"temp":22.9,"humidity":82,"rain":0.0,"pressure":989.0,"uv_index":9.05,"wind_gusts":19.8,"aqi":90,"pm10":34.1,"pm2_5":32.1,"mosquito_risk":3,"arthritis_risk":5,"migraine_risk":7,"frizz_risk":1,"updated_at":"2026-03-06T05:23:40.048058+05:30"},{"city":"Kochi","state":"Kerala","latitude":9.9312,"longitude":76.2673,"temp":27.4,"humidity":82,"rain":0.0,"pressure":1008.2,"uv_index":9.0,"wind_gusts":33.1,"aqi":141,"pm10":58.0,"pm2_5":57.2,"mosquito_risk":7,"arthritis_risk":0,"migraine_risk":4,"frizz_risk":1,"updated_at":"2026-03-06T05:23:40.048065+05:30"},{"city":"Thiruvananthapuram","state":"Kerala","latitude":8.5241,"longitude":76.9366,"temp":27.7,"humidity":78,"rain":0.0,"pressure":1007.5,"uv_index":9.0,"wind_gusts":32.4,"aqi":89,"pm10":29.1,"pm2_5":26.4,"mosquito_risk":7,"arthritis_risk":5,"migraine_risk":4,"frizz_risk":1,"updated_at":"2026-03-06T05:23:40.048072+05:30"},{"city":"Kozhikode","state":"Kerala","latitude":11.2588,"longitude":75.7804,"temp":27.6,"humidity":85,"rain":0.0,"pressure":1007.2,"uv_index":8.9,"wind_gusts":26.3,"aqi":117,"pm10":42.0,"pm2_5":38.6,"mosquito_risk":7,"arthritis_risk":5,"migraine_risk":4,"frizz_risk":1,"updated_at":"2026-03-06T05:23:40.048079+05:30"},{"city":"Thrissur","state":"Kerala","latitude":10.5276,"longitude":76.2144,"temp":25.8,"humidity":92,"rain":0.0,"pressure":1006.5,"uv_index":8.95,"wind_gusts":33.5,"aqi":134,"pm10":58.7,"pm2_5":56.5,"mosquito_risk":7,"arthritis_risk":5,"migraine_risk":4,"frizz_risk":1,"updated_at":"2026-03-06T05:23:40.048087+05:30"},{"city":"Kannur","state":"Kerala","latitude":11.8745,"longitude":75.3704,"temp":26.9,"humidity":84,"rain":0.0,"pressure":1006.5,"uv_index":8.85,"wind_gusts":29.5,"aqi":122,"pm10":43.3,"pm2_5":40.6,"mosquito_risk":7,"arthritis_risk":5,"migraine_risk":4,"frizz_risk":1,"updated_at":"2026-03-06T05:23:40.048094+05:30"},{"city":"Patna","state":"Bihar","latitude":25.5941,"longitude":85.1376,"temp":21.1,"humidity":81,"rain":0.0,"pressure":1002.5,"uv_index":7.25,"wind_gusts":23.4,"aqi":163,"pm10":121.1,"pm2_5":99.9,"mosquito_risk":3,"arthritis_risk":5,"migraine_risk":4,"frizz_risk":1,"updated_at":"2026-03-06T05:23:40.048100+05:30"},{"city":"Gaya","state":"Bihar","latitude":24.7914,"longitude":85.0002,"temp":18.3,"humidity":90,"rain":0.0,"pressure":995.3,"uv_index":7.35,"wind_gusts":22.7,"aqi":151,"pm10":97.3,"pm2_5":81.3,"mosquito_risk":3,"arthritis_risk":10,"migraine_risk":7,"frizz_risk":1,"updated_at":"2026-03-06T05:23:40.048107+05:30"},{"city":"Muzaffarpur","state":"Bihar","latitude":26.1209,"longitude":85.3647,"temp":18.4,"humidity":87,"rain":0.0,"pressure":1002.6,"uv_index":7.2,"wind_gusts":22.7,"aqi":170,"pm10":139.7,"pm2_5":118.7,"mosquito_risk":3,"arthritis_risk":10,"migraine_risk":4,"frizz_risk":1,"updated_at":"2026-03-06T05:23:40.048113+05:30"},{"city":"Bhagalpur","state":"Bihar","latitude":25.2425,"longitude":87.0117,"temp":21.0,"humidity":79,"rain":0.0,"pressure":1003.3,"uv_index":7.3,"wind_gusts":18.7,"aqi":162,"pm10":114.6,"pm2_5":95.5,"mosquito_risk":3,"arthritis_risk":5,"migraine_risk":4,"frizz_risk":1,"updated_at":"2026-03-06T05:23:40.048119+05:30"},{"city":"Ranchi","state":"Jharkhand","latitude":23.3441,"longitude":85.3096,"temp":17.6,"humidity":73,"rain":0.0,"pressure":937.4,"uv_index":8.0,"wind_gusts":28.4,"aqi":121,"pm10":122.0,"pm2_5":62.9,"mosquito_risk":3,"arthritis_risk":5,"migraine_risk":7,"frizz_risk":0,"updated_at":"2026-03-06T05:23:40.048126+05:30"},{"city":"Jamshedpur","state":"Jharkhand","latitude":22.8046,"longitude":86.2029,"temp":22.7,"humidity":75,"rain":0.0,"pressure":992.2,"uv_index":7.9,"wind_gusts":24.1,"aqi":155,"pm10":85.7,"pm2_5":62.9,"mosquito_risk":3,"arthritis_risk":5,"migraine_risk":7,"frizz_risk":1,"updated_at":"2026-03-06T05:23:40.048133+05:30"},{"city":"Dhanbad","state":"Jharkhand","latitude":23.7957,"longitude":86.4304,"temp":22.2,"humidity":64,"rain":0.0,"pressure":981.2,"uv_index":7.75,"wind_gusts":29.9,"aqi":166,"pm10":141.6,"pm2_5":122.0,"mosquito_risk":3,"arthritis_risk":5,"migraine_risk":7,"frizz_risk":0,"updated_at":"2026-03-06T05:23:40.048139+05:30"},{"city":"Bokaro","state":"Jharkhand","latitude":23.6693,"longitude":86.1511,"temp":21.0,"humidity":70,"rain":0.0,"pressure":985.3,"uv_index":7.8,"wind_gusts":30.2,"aqi":169,"pm10":156.0,"pm2_5":130.4,"mosquito_risk":3,"arthritis_risk":5,"migraine_risk":7,"frizz_risk":0,"updated_at":"2026-03-06T05:23:40.048145+05:30"},{"city":"Bhubaneswar","state":"Odisha","latitude":20.2961,"longitude":85.8245,"temp":24.1,"humidity":91,"rain":0.0,"pressure":1003.3,"uv_index":8.2,"wind_gusts":32.0,"aqi":152,"pm10":62.2,"pm2_5":53.7,"mosquito_risk":3,"arthritis_risk":5,"migraine_risk":4,"frizz_risk":1,"updated_at":"2026-03-06T05:23:40.048151+05:30"},{"city":"Cuttack","state":"Odisha","latitude":20.4625,"longitude":85.8828,"temp":23.9,"humidity":95,"rain":0.0,"pressure":1005.4,"uv_index":8.25,"wind_gusts":34.6,"aqi":152,"pm10":62.2,"pm2_5":53.7,"mosquito_risk":3,"arthritis_risk":5,"migraine_risk":4,"frizz_risk":1,"updated_at":"2026-03-06T05:23:40.048158+05:30"},{"city":"Rourkela","state":"Odisha","latitude":22.2604,"longitude":84.8536,"temp":19.7,"humidity":78,"rain":0.0,"pressure":985.5,"uv_index":7.8,"wind_gusts":13.0,"aqi":121,"pm10":74.5,"pm2_5":42.5,"mosquito_risk":3,"arthritis_risk":5,"migraine_risk":7,"frizz_risk":0,"updated_at":"2026-03-06T05:23:40.048164+05:30"},{"city":"Raipur","state":"Chhattisgarh","latitude":21.2514,"longitude":81.6296,"temp":22.4,"humidity":47,"rain":0.0,"pressure":974.5,"uv_index":7.9,"wind_gusts":22.7,"aqi":97,"pm10":33.8,"pm2_5":25.7,"mosquito_risk":0,"arthritis_risk":5,"migraine_risk":7,"frizz_risk":0,"updated_at":"2026-03-06T05:23:40.048170+05:30"},{"city":"Bhilai","state":"Chhattisgarh","latitude":21.1938,"longitude":81.3509,"temp":21.7,"humidity":49,"rain":0.0,"pressure":974.8,"uv_index":7.95,"wind_gusts":23.8,"aqi":78,"pm10":32.9,"pm2_5":23.7,"mosquito_risk":0,"arthritis_risk":5,"migraine_risk":7,"frizz_risk":0,"updated_at":"2026-03-06T05:23:40.048176+05:30"},{"city":"Guwahati","state":"Assam","latitude":26.1158,"longitude":91.7086,"temp":21.9,"humidity":82,"rain":0.0,"pressure":1003.6,"uv_index":7.25,"wind_gusts":20.5,"aqi":149,"pm10":73.8,"pm2_5":66.6,"mosquito_risk":3,"arthritis_risk":5,"migraine_risk":4,"frizz_risk":1,"updated_at":"2026-03-06T05:23:40.048182+05:30"},{"city":"Agartala","state":"Tripura","latitude":23.8315,"longitude":91.2868,"temp":19.8,"humidity":86,"rain":0.0,"pressure":1007.9,"uv_index":7.6,"wind_gusts":17.3,"aqi":160,"pm10":87.8,"pm2_5":78.5,"mosquito_risk":3,"arthritis_risk":10,"migraine_risk":4,"frizz_risk":1,"updated_at":"2026-03-06T05:23:40.048188+05:30"},{"city":"Shillong","state":"Meghalaya","latitude":25.5788,"longitude":91.8933,"temp":8.9,"humidity":64,"rain":0.0,"pressure":854.2,"uv_index":7.6,"wind_gusts":35.3,"aqi":123,"pm10":51.5,"pm2_5":44.2,"mosquito_risk":3,"arthritis_risk":5,"migraine_risk":7,"frizz_risk":0,"updated_at":"2026-03-06T05:23:40.048195+05:30"},{"city":"Imphal","state":"Manipur","latitude":24.817,"longitude":93.9368,"temp":13.9,"humidity":82,"rain":0.0,"pressure":924.1,"uv_index":7.8,"wind_gusts":33.8,"aqi":151,"pm10":90.6,"pm2_5":86.6,"mosquito_risk":3,"arthritis_risk":10,"migraine_risk":7,"frizz_risk":0,"updated_at":"2026-03-06T05:23:40.048201+05:30"},{"city":"Aizawl","state":"Mizoram","latitude":23.7271,"longitude":92.7176,"temp":15.8,"humidity":74,"rain":0.0,"pressure":892.6,"uv_index":7.75,"wind_gusts":33.8,"aqi":166,"pm10":169.5,"pm2_5":161.6,"mosquito_risk":3,"arthritis_risk":5,"migraine_risk":7,"frizz_risk":0,"updated_at":"2026-03-06T05:23:40.048207+05:30"},{"city":"Kohima","state":"Nagaland","latitude":25.6701,"longitude":94.1077,"temp":13.2,"humidity":71,"rain":0.0,"pressure":854.9,"uv_index":7.65,"wind_gusts":43.6,"aqi":145,"pm10":74.0,"pm2_5":69.8,"mosquito_risk":3,"arthritis_risk":5,"migraine_risk":7,"frizz_risk":0,"updated_at":"2026-03-06T05:23:40.048214+05:30"},{"city":"Gangtok","state":"Sikkim","latitude":27.3314,"longitude":88.6138,"temp":13.8,"humidity":94,"rain":0.0,"pressure":838.2,"uv_index":7.55,"wind_gusts":16.6,"aqi":99,"pm10":35.9,"pm2_5":31.4,"mosquito_risk":3,"arthritis_risk":10,"migraine_risk":7,"frizz_risk":0,"updated_at":"2026-03-06T05:23:40.048220+05:30"},{"city":"Siliguri","state":"West Bengal","latitude":26.7271,"longitude":88.3953,"temp":21.1,"humidity":60,"rain":0.0,"pressure":996.2,"uv_index":7.2,"wind_gusts":16.6,"aqi":135,"pm10":58.8,"pm2_5":56.0,"mosquito_risk":0,"arthritis_risk":5,"migraine_risk":7,"frizz_risk":0,"updated_at":"2026-03-06T05:23:43.386468+05:30"},{"city":"Durgapur","state":"West Bengal","latitude":23.5204,"longitude":87.3119,"temp":21.7,"humidity":73,"rain":0.0,"pressure":996.9,"uv_index":7.75,"wind_gusts":25.9,"aqi":159,"pm10":123.4,"pm2_5":100.6,"mosquito_risk":3,"arthritis_risk":5,"migraine_risk":7,"frizz_risk":1,"updated_at":"2026-03-06T05:23:43.386493+05:30"},{"city":"Asansol","state":"West Bengal","latitude":23.6739,"longitude":86.9524,"temp":22.2,"humidity":69,"rain":0.0,"pressure":995.2,"uv_index":7.75,"wind_gusts":22.3,"aqi":157,"pm10":113.9,"pm2_5":94.1,"mosquito_risk":3,"arthritis_risk":5,"migraine_risk":7,"frizz_risk":1,"updated_at":"2026-03-06T05:23:43.386502+05:30"},{"city":"Pondicherry","state":"Puducherry","latitude":11.9139,"longitude":79.8145,"temp":21.8,"humidity":96,"rain":0.0,"pressure":1008.4,"uv_index":8.9,"wind_gusts":24.5,"aqi":71,"pm10":24.5,"pm2_5":20.9,"mosquito_risk":3,"arthritis_risk":0,"migraine_risk":4,"frizz_risk":1,"updated_at":"2026-03-06T05:23:43.386510+05:30"},{"city":"Port Blair","state":"Andaman and Nicobar Islands","latitude":11.6234,"longitude":92.7265,"temp":26.1,"humidity":76,"rain":0.0,"pressure":1007.7,"uv_index":8.85,"wind_gusts":14.4,"aqi":52,"pm10":19.0,"pm2_5":11.8,"mosquito_risk":7,"arthritis_risk":5,"migraine_risk":4,"frizz_risk":1,"updated_at":"2026-03-06T05:23:43.386517+05:30"},{"city":"Haridwar","state":"Uttarakhand","latitude":29.9457,"longitude":78.1642,"temp":18.5,"humidity":91,"rain":0.0,"pressure":974.8,"uv_index":5.7,"wind_gusts":26.3,"aqi":150,"pm10":75.4,"pm2_5":58.0,"mosquito_risk":3,"arthritis_risk":10,"migraine_risk":3,"frizz_risk":1,"updated_at":"2026-03-06T05:23:43.386525+05:30"},{"city":"Rishikesh","state":"Uttarakhand","latitude":30.0869,"longitude":78.2676,"temp":18.8,"humidity":83,"rain":0.0,"pressure":967.4,"uv_index":5.75,"wind_gusts":23.0,"aqi":130,"pm10":74.5,"pm2_5":56.8,"mosquito_risk":3,"arthritis_risk":10,"migraine_risk":3,"frizz_risk":0,"updated_at":"2026-03-06T05:23:43.386532+05:30"},{"city":"Nainital","state":"Uttarakhand","latitude":29.3919,"longitude":79.4542,"temp":15.1,"humidity":80,"rain":0.0,"pressure":804.6,"uv_index":6.55,"wind_gusts":42.5,"aqi":156,"pm10":113.6,"pm2_5":79.9,"mosquito_risk":3,"arthritis_risk":5,"migraine_risk":7,"frizz_risk":0,"updated_at":"2026-03-06T05:23:43.386539+05:30"},{"city":"Mussoorie","state":"Uttarakhand","latitude":30.4599,"longitude":78.0664,"temp":13.9,"humidity":67,"rain":0.0,"pressure":800.9,"uv_index":6.05,"wind_gusts":36.0,"aqi":122,"pm10":74.3,"pm2_5":51.9,"mosquito_risk":3,"arthritis_risk":5,"migraine_risk":7,"frizz_risk":0,"updated_at":"2026-03-06T05:23:43.386545+05:30"},{"city":"Dharamshala","state":"Himachal Pradesh","latitude":32.219,"longitude":76.3234,"temp":21.5,"humidity":25,"rain":0.0,"pressure":869.2,"uv_index":5.6,"wind_gusts":22.0,"aqi":54,"pm10":26.0,"pm2_5":12.1,"mosquito_risk":0,"arthritis_risk":5,"migraine_risk":3,"frizz_risk":0,"updated_at":"2026-03-06T05:23:43.386551+05:30"},{"city":"Dalhousie","state":"Himachal Pradesh","latitude":32.5387,"longitude":75.971,"temp":17.0,"humidity":33,"rain":0.0,"pressure":803.3,"uv_index":5.8,"wind_gusts":23.4,"aqi":90,"pm10":32.1,"pm2_5":25.7,"mosquito_risk":0,"arthritis_risk":5,"migraine_risk":3,"frizz_risk":0,"updated_at":"2026-03-06T05:23:43.386558+05:30"},{"city":"Patiala","state":"Punjab","latitude":30.3398,"longitude":76.3869,"temp":19.5,"humidity":87,"rain":0.0,"pressure":978.2,"uv_index":5.7,"wind_gusts":13.0,"aqi":260,"pm10":90.1,"pm2_5":73.8,"mosquito_risk":3,"arthritis_risk":10,"migraine_risk":3,"frizz_risk":1,"updated_at":"2026-03-06T05:23:43.386565+05:30"},{"city":"Bhatinda","state":"Punjab","latitude":30.211,"longitude":74.9455,"temp":19.4,"humidity":73,"rain":0.0,"pressure":984.1,"uv_index":6.4,"wind_gusts":17.6,"aqi":144,"pm10":73.3,"pm2_5":62.9,"mosquito_risk":3,"arthritis_risk":5,"migraine_risk":7,"frizz_risk":0,"updated_at":"2026-03-06T05:23:43.386572+05:30"},{"city":"Rohtak","state":"Haryana","latitude":28.8955,"longitude":76.6066,"temp":18.7,"humidity":78,"rain":0.0,"pressure":982.1,"uv_index":5.9,"wind_gusts":16.9,"aqi":544,"pm10":294.3,"pm2_5":77.8,"mosquito_risk":3,"arthritis_risk":5,"migraine_risk":3,"frizz_risk":0,"updated_at":"2026-03-06T05:23:43.386578+05:30"},{"city":"Panipat","state":"Haryana","latitude":29.3909,"longitude":76.9635,"temp":18.9,"humidity":92,"rain":0.0,"pressure":980.6,"uv_index":5.7,"wind_gusts":11.2,"aqi":1135,"pm10":577.4,"pm2_5":106.9,"mosquito_risk":3,"arthritis_risk":10,"migraine_risk":3,"frizz_risk":1,"updated_at":"2026-03-06T05:23:43.386584+05:30"},{"city":"Mathura","state":"Uttar Pradesh","latitude":27.4924,"longitude":77.6737,"temp":18.4,"humidity":66,"rain":0.0,"pressure":987.1,"uv_index":6.2,"wind_gusts":19.8,"aqi":670,"pm10":413.5,"pm2_5":85.4,"mosquito_risk":3,"arthritis_risk":5,"migraine_risk":7,"frizz_risk":0,"updated_at":"2026-03-06T05:23:43.386591+05:30"},{"city":"Vrindavan","state":"Uttar Pradesh","latitude":27.5823,"longitude":77.7027,"temp":19.0,"humidity":69,"rain":0.0,"pressure":987.6,"uv_index":6.15,"wind_gusts":19.8,"aqi":670,"pm10":413.5,"pm2_5":85.4,"mosquito_risk":3,"arthritis_risk":5,"migraine_risk":7,"frizz_risk":0,"updated_at":"2026-03-06T05:23:43.386597+05:30"},{"city":"Ayodhya","state":"Uttar Pradesh","latitude":26.7922,"longitude":82.1998,"temp":18.0,"humidity":89,"rain":0.0,"pressure":996.6,"uv_index":6.55,"wind_gusts":21.6,"aqi":170,"pm10":130.9,"pm2_5":102.2,"mosquito_risk":3,"arthritis_risk":10,"migraine_risk":7,"frizz_risk":1,"updated_at":"2026-03-06T05:23:43.386603+05:30"},{"city":"Ratlam","state":"Madhya Pradesh","latitude":23.3315,"longitude":75.0367,"temp":21.2,"humidity":49,"rain":0.0,"pressure":955.2,"uv_index":7.4,"wind_gusts":19.1,"aqi":87,"pm10":12.3,"pm2_5":11.8,"mosquito_risk":0,"arthritis_risk":5,"migraine_risk":7,"frizz_risk":0,"updated_at":"2026-03-06T05:23:43.386610+05:30"},{"city":"Sagar","state":"Madhya Pradesh","latitude":23.8388,"longitude":78.7378,"temp":17.8,"humidity":61,"rain":0.0,"pressure":949.8,"uv_index":7.35,"wind_gusts":23.4,"aqi":55,"pm10":29.4,"pm2_5":17.3,"mosquito_risk":3,"arthritis_risk":5,"migraine_risk":7,"frizz_risk":0,"updated_at":"2026-03-06T05:23:43.386616+05:30"},{"city":"Satna","state":"Madhya Pradesh","latitude":24.6005,"longitude":80.8322,"temp":19.1,"humidity":63,"rain":0.0,"pressure":971.6,"uv_index":7.3,"wind_gusts":32.4,"aqi":70,"pm10":94.5,"pm2_5":28.6,"mosquito_risk":3,"arthritis_risk":5,"migraine_risk":7,"frizz_risk":0,"updated_at":"2026-03-06T05:23:43.386622+05:30"},{"city":"Akola","state":"Maharashtra","latitude":20.7002,"longitude":77.0082,"temp":19.5,"humidity":67,"rain":0.0,"pressure":975.5,"uv_index":7.85,"wind_gusts":19.8,"aqi":75,"pm10":36.3,"pm2_5":30.0,"mosquito_risk":3,"arthritis_risk":5,"migraine_risk":7,"frizz_risk":0,"updated_at":"2026-03-06T05:23:43.386629+05:30"},{"city":"Amravati","state":"Maharashtra","latitude":20.9374,"longitude":77.7796,"temp":19.9,"humidity":57,"rain":0.0,"pressure":967.4,"uv_index":7.8,"wind_gusts":15.8,"aqi":74,"pm10":36.7,"pm2_5":29.5,"mosquito_risk":0,"arthritis_risk":5,"migraine_risk":7,"frizz_risk":0,"updated_at":"2026-03-06T05:23:43.386635+05:30"},{"city":"Latur","state":"Maharashtra","latitude":18.4088,"longitude":76.5604,"temp":18.9,"humidity":53,"rain":0.0,"pressure":939.2,"uv_index":8.3,"wind_gusts":32.4,"aqi":82,"pm10":23.5,"pm2_5":20.8,"mosquito_risk":0,"arthritis_risk":5,"migraine_risk":7,"frizz_risk":0,"updated_at":"2026-03-06T05:23:43.386641+05:30"},{"city":"Nanded","state":"Maharashtra","latitude":19.1383,"longitude":77.3091,"temp":18.2,"humidity":62,"rain":0.0,"pressure":968.5,"uv_index":8.1,"wind_gusts":20.5,"aqi":97,"pm10":49.7,"pm2_5":47.3,"mosquito_risk":3,"arthritis_risk":5,"migraine_risk":7,"frizz_risk":0,"updated_at":"2026-03-06T05:23:43.386648+05:30"},{"city":"Gulbarga","state":"Karnataka","latitude":17.3297,"longitude":76.8343,"temp":21.9,"humidity":49,"rain":0.0,"pressure":958.2,"uv_index":8.4,"wind_gusts":34.2,"aqi":77,"pm10":31.8,"pm2_5":29.2,"mosquito_risk":0,"arthritis_risk":5,"migraine_risk":7,"frizz_risk":0,"updated_at":"2026-03-06T05:23:43.386653+05:30"},{"city":"Bidar","state":"Karnataka","latitude":17.9104,"longitude":77.5199,"temp":20.4,"humidity":57,"rain":0.0,"pressure":934.8,"uv_index":8.35,"wind_gusts":32.8,"aqi":85,"pm10":35.5,"pm2_5":32.5,"mosquito_risk":0,"arthritis_risk":5,"migraine_risk":7,"frizz_risk":0,"updated_at":"2026-03-06T05:23:43.386659+05:30"},{"city":"Hospet","state":"Karnataka","latitude":15.2689,"longitude":76.3909,"temp":22.1,"humidity":64,"rain":0.0,"pressure":955.2,"uv_index":8.75,"wind_gusts":22.7,"aqi":91,"pm10":49.8,"pm2_5":47.7,"mosquito_risk":3,"arthritis_risk":5,"migraine_risk":7,"frizz_risk":0,"updated_at":"2026-03-06T05:23:43.386665+05:30"},{"city":"Tirupur","state":"Tamil Nadu","latitude":11.1085,"longitude":77.3411,"temp":23.1,"humidity":87,"rain":0.0,"pressure":974.9,"uv_index":9.2,"wind_gusts":28.4,"aqi":111,"pm10":54.0,"pm2_5":52.3,"mosquito_risk":3,"arthritis_risk":5,"migraine_risk":7,"frizz_risk":1,"updated_at":"2026-03-06T05:23:43.386672+05:30"},{"city":"Alappuzha","state":"Kerala","latitude":9.4981,"longitude":76.3388,"temp":27.2,"humidity":82,"rain":0.0,"pressure":1008.3,"uv_index":9.0,"wind_gusts":30.6,"aqi":118,"pm10":48.8,"pm2_5":46.3,"mosquito_risk":7,"arthritis_risk":0,"migraine_risk":4,"frizz_risk":1,"updated_at":"2026-03-06T05:23:43.386678+05:30"},{"city":"Munnar","state":"Kerala","latitude":10.0889,"longitude":77.0595,"temp":15.9,"humidity":75,"rain":0.0,"pressure":854.1,"uv_index":9.5,"wind_gusts":29.2,"aqi":90,"pm10":38.3,"pm2_5":37.1,"mosquito_risk":3,"arthritis_risk":5,"migraine_risk":7,"frizz_risk":0,"updated_at":"2026-03-06T05:23:43.386685+05:30"},{"city":"Silchar","state":"Assam","latitude":24.8333,"longitude":92.7789,"temp":20.5,"humidity":77,"rain":0.0,"pressure":1007.0,"uv_index":7.55,"wind_gusts":12.6,"aqi":157,"pm10":112.2,"pm2_5":105.9,"mosquito_risk":3,"arthritis_risk":5,"migraine_risk":4,"frizz_risk":1,"updated_at":"2026-03-06T05:23:43.386691+05:30"},{"city":"Dibrugarh","state":"Assam","latitude":27.4728,"longitude":94.912,"temp":19.8,"humidity":89,"rain":0.0,"pressure":997.9,"uv_index":7.25,"wind_gusts":14.8,"aqi":110,"pm10":32.6,"pm2_5":30.7,"mosquito_risk":3,"arthritis_risk":10,"migraine_risk":7,"frizz_risk":1,"updated_at":"2026-03-06T05:23:43.386698+05:30"}]