[{"city":"Delhi","state":"Delhi","latitude":28.6139,"longitude":77.209,"temp":17.9,"humidity":69,"rain":0.0,"pressure":984.9,"uv_index":5.75,"wind_gusts":36.4,"aqi":158,"pm10":281.3,"pm2_5":82.4,"mosquito_risk":3,"arthritis_risk":5,"migraine_risk":3,"frizz_risk":0,"updated_at":"2026-03-02T02:01:07.160153+05:30"},{"city":"Mumbai","state":"Maharashtra","latitude":19.076,"longitude":72.8777,"temp":25.8,"humidity":79,"rain":0.0,"pressure":1009.9,"uv_index":7.35,"wind_gusts":25.9,"aqi":81,"pm10":48.2,"pm2_5":28.1,"mosquito_risk":7,"arthritis_risk":0,"migraine_risk":4,"frizz_risk":1,"updated_at":"2026-03-02T02:01:07.160195+05:30"},{"city":"Bangalore","state":"Karnataka","latitude":12.9716,"longitude":77.5946,"temp":21.0,"humidity":76,"rain":0.0,"pressure":911.1,"uv_index":9.05,"wind_gusts":26.3,"aqi":150,"pm10":43.2,"pm2_5":42.3,"mosquito_risk":3,"arthritis_risk":5,"migraine_risk":7,"frizz_risk":1,"updated_at":"2026-03-02T02:01:07.160210+05:30"},{"city":"Hyderabad","state":"Telangana","latitude":17.385,"longitude":78.4867,"temp":23.8,"humidity":75,"rain":0.0,"pressure":953.1,"uv_index":8.3,"wind_gusts":27.4,"aqi":138,"pm10":68.2,"pm2_5":67.8,"mosquito_risk":3,"arthritis_risk":5,"migraine_risk":7,"frizz_risk":1,"updated_at":"2026-03-02T02:01:07.160219+05:30"},{"city":"Chennai","state":"Tamil Nadu","latitude":13.0827,"longitude":80.2707,"temp":24.0,"humidity":86,"rain":0.0,"pressure":1007.6,"uv_index":8.8,"wind_gusts":29.5,"aqi":128,"pm10":45.3,"pm2_5":41.3,"mosquito_risk":3,"arthritis_risk":5,"migraine_risk":4,"frizz_risk":1,"updated_at":"2026-03-02T02:01:07.160232+05:30"},{"city":"Kolkata","state":"West Bengal","latitude":22.5726,"longitude":88.3639,"temp":23.8,"humidity":95,"rain":0.0,"pressure":1006.1,"uv_index":7.65,"wind_gusts":16.2,"aqi":106,"pm10":44.2,"pm2_5":41.9,"mosquito_risk":3,"arthritis_risk":5,"migraine_risk":4,"frizz_risk":1,"updated_at":"2026-03-02T02:01:07.160242+05:30"},{"city":"Pune","state":"Maharashtra","latitude":18.5204,"longitude":73.8567,"temp":20.4,"humidity":85,"rain":0.0,"pressure":948.6,"uv_index":7.85,"wind_gusts":25.6,"aqi":105,"pm10":48.0,"pm2_5":40.4,"mosquito_risk":3,"arthritis_risk":5,"migraine_risk":7,"frizz_risk":1,"updated_at":"2026-03-02T02:01:07.160252+05:30"},{"city":"Ahmedabad","state":"Gujarat","latitude":23.0225,"longitude":72.5714,"temp":22.8,"humidity":61,"rain":0.0,"pressure":1003.8,"uv_index":7.1,"wind_gusts":15.5,"aqi":93,"pm10":74.0,"pm2_5":59.8,"mosquito_risk":3,"arthritis_risk":5,"migraine_risk":4,"frizz_risk":0,"updated_at":"2026-03-02T02:01:07.160260+05:30"},{"city":"Jaipur","state":"Rajasthan","latitude":26.9124,"longitude":75.7873,"temp":20.3,"humidity":36,"rain":0.0,"pressure":961.4,"uv_index":6.55,"wind_gusts":30.2,"aqi":92,"pm10":76.1,"pm2_5":46.4,"mosquito_risk":0,"arthritis_risk":5,"migraine_risk":7,"frizz_risk":0,"updated_at":"2026-03-02T02:01:07.160268+05:30"},{"city":"Lucknow","state":"Uttar Pradesh","latitude":26.8467,"longitude":80.9462,"temp":17.2,"humidity":60,"rain":0.0,"pressure":995.0,"uv_index":6.25,"wind_gusts":38.5,"aqi":120,"pm10":174.2,"pm2_5":50.1,"mosquito_risk":0,"arthritis_risk":5,"migraine_risk":7,"frizz_risk":0,"updated_at":"2026-03-02T02:01:07.160276+05:30"},{"city":"Kanpur","state":"Uttar Pradesh","latitude":26.4499,"longitude":80.3319,"temp":15.0,"humidity":69,"rain":0.0,"pressure":993.5,"uv_index":6.25,"wind_gusts":32.8,"aqi":148,"pm10":250.5,"pm2_5":53.3,"mosquito_risk":3,"arthritis_risk":5,"migraine_risk":7,"frizz_risk":0,"updated_at":"2026-03-02T02:01:07.160283+05:30"},{"city":"Chandigarh","state":"Chandigarh","latitude":30.7333,"longitude":76.7794,"temp":15.6,"humidity":55,"rain":0.0,"pressure":970.0,"uv_index":5.6,"wind_gusts":37.8,"aqi":85,"pm10":33.2,"pm2_5":29.9,"mosquito_risk":0,"arthritis_risk":5,"migraine_risk":3,"frizz_risk":0,"updated_at":"2026-03-02T02:01:07.160289+05:30"},{"city":"Srinagar","state":"Jammu and Kashmir","latitude":34.0837,"longitude":74.7973,"temp":4.5,"humidity":80,"rain":0.0,"pressure":838.5,"uv_index":6.55,"wind_gusts":17.6,"aqi":144,"pm10":89.6,"pm2_5":75.7,"mosquito_risk":3,"arthritis_risk":5,"migraine_risk":7,"frizz_risk":0,"updated_at":"2026-03-02T02:01:07.160297+05:30"},{"city":"Jammu","state":"Jammu and Kashmir","latitude":32.7266,"longitude":74.857,"temp":14.9,"humidity":73,"rain":0.0,"pressure":974.5,"uv_index":6.25,"wind_gusts":29.2,"aqi":101,"pm10":44.2,"pm2_5":41.6,"mosquito_risk":3,"arthritis_risk":5,"migraine_risk":7,"frizz_risk":0,"updated_at":"2026-03-02T02:01:07.160303+05:30"},{"city":"Amritsar","state":"Punjab","latitude":31.634,"longitude":74.8723,"temp":17.5,"humidity":66,"rain":0.0,"pressure":983.0,"uv_index":6.2,"wind_gusts":28.8,"aqi":131,"pm10":85.9,"pm2_5":64.5,"mosquito_risk":3,"arthritis_risk":5,"migraine_risk":7,"frizz_risk":0,"updated_at":"2026-03-02T02:01:07.160310+05:30"},{"city":"Ludhiana","state":"Punjab","latitude":30.901,"longitude":75.8573,"temp":17.3,"humidity":65,"rain":0.0,"pressure":980.9,"uv_index":5.85,"wind_gusts":32.0,"aqi":155,"pm10":99.2,"pm2_5":89.4,"mosquito_risk":3,"arthritis_risk":5,"migraine_risk":3,"frizz_risk":0,"updated_at":"2026-03-02T02:01:07.160317+05:30"},{"city":"Jalandhar","state":"Punjab","latitude":31.326,"longitude":75.5762,"temp":17.4,"humidity":66,"rain":0.0,"pressure":982.1,"uv_index":6.0,"wind_gusts":31.3,"aqi":157,"pm10":115.5,"pm2_5":98.5,"mosquito_risk":3,"arthritis_risk":5,"migraine_risk":3,"frizz_risk":0,"updated_at":"2026-03-02T02:01:07.160326+05:30"},{"city":"Dehradun","state":"Uttarakhand","latitude":30.6284,"longitude":78.0322,"temp":10.0,"humidity":56,"rain":0.0,"pressure":827.4,"uv_index":5.7,"wind_gusts":28.1,"aqi":62,"pm10":27.8,"pm2_5":23.2,"mosquito_risk":0,"arthritis_risk":5,"migraine_risk":3,"frizz_risk":0,"updated_at":"2026-03-02T02:01:07.160333+05:30"},{"city":"Shimla","state":"Himachal Pradesh","latitude":31.1048,"longitude":77.1734,"temp":6.4,"humidity":59,"rain":0.0,"pressure":780.2,"uv_index":5.85,"wind_gusts":56.5,"aqi":67,"pm10":33.1,"pm2_5":25.4,"mosquito_risk":0,"arthritis_risk":5,"migraine_risk":3,"frizz_risk":1,"updated_at":"2026-03-02T02:01:07.160340+05:30"},{"city":"Manali","state":"Himachal Pradesh","latitude":32.2396,"longitude":77.1887,"temp":10.6,"humidity":21,"rain":0.0,"pressure":817.1,"uv_index":7.45,"wind_gusts":34.9,"aqi":50,"pm10":22.8,"pm2_5":17.2,"mosquito_risk":0,"arthritis_risk":5,"migraine_risk":7,"frizz_risk":1,"updated_at":"2026-03-02T02:01:07.160347+05:30"},{"city":"Gurgaon","state":"Haryana","latitude":28.4595,"longitude":77.0266,"temp":15.8,"humidity":76,"rain":0.0,"pressure":983.2,"uv_index":5.85,"wind_gusts":33.5,"aqi":545,"pm10":588.6,"pm2_5":108.7,"mosquito_risk":3,"arthritis_risk":5,"migraine_risk":3,"frizz_risk":0,"updated_at":"2026-03-02T02:01:07.160354+05:30"},{"city":"Noida","state":"Uttar Pradesh","latitude":28.5355,"longitude":77.391,"temp":18.0,"humidity":68,"rain":0.0,"pressure":986.4,"uv_index":5.75,"wind_gusts":36.0,"aqi":545,"pm10":588.6,"pm2_5":108.7,"mosquito_risk":3,"arthritis_risk":5,"migraine_risk":3,"frizz_risk":0,"updated_at":"2026-03-02T02:01:07.160362+05:30"},{"city":"Ghaziabad","state":"Uttar Pradesh","latitude":28.6692,"longitude":77.4538,"temp":17.1,"humidity":71,"rain":0.0,"pressure":984.5,"uv_index":5.75,"wind_gusts":34.9,"aqi":154,"pm10":245.9,"pm2_5":76.6,"mosquito_risk":3,"arthritis_risk":5,"migraine_risk":3,"frizz_risk":0,"updated_at":"2026-03-02T02:01:07.160368+05:30"},{"city":"Faridabad","state":"Haryana","latitude":28.4089,"longitude":77.3178,"temp":18.2,"humidity":63,"rain":0.0,"pressure":985.6,"uv_index":5.8,"wind_gusts":32.0,"aqi":545,"pm10":588.6,"pm2_5":108.7,"mosquito_risk":3,"arthritis_risk":5,"migraine_risk":3,"frizz_risk":0,"updated_at":"2026-03-02T02:01:07.160375+05:30"},{"city":"Meerut","state":"Uttar Pradesh","latitude":28.9845,"longitude":77.7064,"temp":14.9,"humidity":77,"rain":0.0,"pressure":982.9,"uv_index":5.6,"wind_gusts":38.9,"aqi":154,"pm10":245.9,"pm2_5":76.6,"mosquito_risk":3,"arthritis_risk":5,"migraine_risk":3,"frizz_risk":0,"updated_at":"2026-03-02T02:01:07.160382+05:30"},{"city":"Agra","state":"Uttar Pradesh","latitude":27.1767,"longitude":78.0081,"temp":16.0,"humidity":61,"rain":0.0,"pressure":989.9,"uv_index":6.1,"wind_gusts":28.8,"aqi":233,"pm10":335.3,"pm2_5":70.8,"mosquito_risk":3,"arthritis_risk":5,"migraine_risk":7,"frizz_risk":0,"updated_at":"2026-03-02T02:01:07.160389+05:30"},{"city":"Varanasi","state":"Uttar Pradesh","latitude":25.3176,"longitude":82.9739,"temp":15.1,"humidity":74,"rain":0.0,"pressure":999.6,"uv_index":6.9,"wind_gusts":32.4,"aqi":127,"pm10":80.3,"pm2_5":37.6,"mosquito_risk":3,"arthritis_risk":5,"migraine_risk":7,"frizz_risk":0,"updated_at":"2026-03-02T02:01:07.160399+05:30"},{"city":"Prayagraj","state":"Uttar Pradesh","latitude":25.4358,"longitude":81.8463,"temp":15.8,"humidity":72,"rain":0.0,"pressure":998.1,"uv_index":6.75,"wind_gusts":29.5,"aqi":130,"pm10":102.9,"pm2_5":42.4,"mosquito_risk":3,"arthritis_risk":5,"migraine_risk":7,"frizz_risk":0,"updated_at":"2026-03-02T02:01:07.160406+05:30"},{"city":"Gorakhpur","state":"Uttar Pradesh","latitude":26.7606,"longitude":83.3732,"temp":15.5,"humidity":63,"rain":0.0,"pressure":998.0,"uv_index":6.6,"wind_gusts":28.1,"aqi":105,"pm10":78.5,"pm2_5":36.4,"mosquito_risk":3,"arthritis_risk":5,"migraine_risk":7,"frizz_risk":0,"updated_at":"2026-03-02T02:01:07.160412+05:30"},{"city":"Bareilly","state":"Uttar Pradesh","latitude":28.367,"longitude":79.4304,"temp":14.9,"humidity":72,"rain":0.0,"pressure":988.0,"uv_index":5.9,"wind_gusts":34.6,"aqi":120,"pm10":137.8,"pm2_5":49.5,"mosquito_risk":3,"arthritis_risk":5,"migraine_risk":3,"frizz_risk":0,"updated_at":"2026-03-02T02:01:07.160419+05:30"},{"city":"Aligarh","state":"Uttar Pradesh","latitude":27.8974,"longitude":78.088,"temp":16.3,"humidity":71,"rain":0.0,"pressure":987.2,"uv_index":5.85,"wind_gusts":33.8,"aqi":301,"pm10":409.8,"pm2_5":94.8,"mosquito_risk":3,"arthritis_risk":5,"migraine_risk":3,"frizz_risk":0,"updated_at":"2026-03-02T02:01:07.160427+05:30"},{"city":"Moradabad","state":"Uttar Pradesh","latitude":28.8386,"longitude":78.7733,"temp":14.3,"humidity":72,"rain":0.0,"pressure":984.8,"uv_index":5.75,"wind_gusts":36.4,"aqi":130,"pm10":152.7,"pm2_5":60.5,"mosquito_risk":3,"arthritis_risk":5,"migraine_risk":3,"frizz_risk":0,"updated_at":"2026-03-02T02:01:07.160434+05:30"},{"city":"Saharanpur","state":"Uttar Pradesh","latitude":29.9637,"longitude":77.546,"temp":14.7,"humidity":65,"rain":0.0,"pressure":976.7,"uv_index":5.4,"wind_gusts":51.1,"aqi":133,"pm10":71.2,"pm2_5":47.5,"mosquito_risk":3,"arthritis_risk":5,"migraine_risk":3,"frizz_risk":0,"updated_at":"2026-03-02T02:01:07.160439+05:30"},{"city":"Jhansi","state":"Uttar Pradesh","latitude":25.4484,"longitude":78.5685,"temp":17.9,"humidity":59,"rain":0.0,"pressure":979.8,"uv_index":6.7,"wind_gusts":23.0,"aqi":76,"pm10":54.2,"pm2_5":32.2,"mosquito_risk":0,"arthritis_risk":5,"migraine_risk":7,"frizz_risk":0,"updated_at":"2026-03-02T02:01:10.612850+05:30"},{"city":"Surat","state":"Gujarat","latitude":21.1702,"longitude":72.8311,"temp":23.3,"humidity":89,"rain":0.0,"pressure":1008.2,"uv_index":7.0,"wind_gusts":22.3,"aqi":122,"pm10":56.9,"pm2_5":46.9,"mosquito_risk":3,"arthritis_risk":0,"migraine_risk":4,"frizz_risk":1,"updated_at":"2026-03-02T02:01:10.612876+05:30"},{"city":"Vadodara","state":"Gujarat","latitude":22.3072,"longitude":73.1812,"temp":24.0,"humidity":66,"rain":0.0,"pressure":1005.6,"uv_index":7.15,"wind_gusts":13.3,"aqi":112,"pm10":80.8,"pm2_5":71.0,"mosquito_risk":3,"arthritis_risk":5,"migraine_risk":4,"frizz_risk":1,"updated_at":"2026-03-02T02:01:10.612884+05:30"},{"city":"Rajkot","state":"Gujarat","latitude":22.3039,"longitude":70.8022,"temp":21.1,"humidity":85,"rain":0.0,"pressure":996.5,"uv_index":6.95,"wind_gusts":23.4,"aqi":70,"pm10":41.4,"pm2_5":21.8,"mosquito_risk":3,"arthritis_risk":5,"migraine_risk":7,"frizz_risk":1,"updated_at":"2026-03-02T02:01:10.612891+05:30"},{"city":"Thane","state":"Maharashtra","latitude":19.2183,"longitude":72.9781,"temp":22.8,"humidity":91,"rain":0.0,"pressure":1009.4,"uv_index":7.3,"wind_gusts":36.7,"aqi":81,"pm10":48.2,"pm2_5":28.1,"mosquito_risk":3,"arthritis_risk":0,"migraine_risk":4,"frizz_risk":1,"updated_at":"2026-03-02T02:01:10.612898+05:30"},{"city":"Nagpur","state":"Maharashtra","latitude":21.1458,"longitude":79.0882,"temp":21.4,"humidity":58,"rain":0.0,"pressure":974.0,"uv_index":7.7,"wind_gusts":25.2,"aqi":81,"pm10":22.4,"pm2_5":21.2,"mosquito_risk":0,"arthritis_risk":5,"migraine_risk":7,"frizz_risk":0,"updated_at":"2026-03-02T02:01:10.612927+05:30"},{"city":"Nashik","state":"Maharashtra","latitude":19.9975,"longitude":73.7898,"temp":20.0,"humidity":83,"rain":0.0,"pressure":946.0,"uv_index":7.5,"wind_gusts":29.9,"aqi":84,"pm10":47.8,"pm2_5":42.0,"mosquito_risk":3,"arthritis_risk":5,"migraine_risk":7,"frizz_risk":1,"updated_at":"2026-03-02T02:01:10.612935+05:30"},{"city":"Aurangabad","state":"Maharashtra","latitude":19.8762,"longitude":75.3433,"temp":22.8,"humidity":55,"rain":0.0,"pressure":944.3,"uv_index":8.05,"wind_gusts":20.9,"aqi":80,"pm10":36.7,"pm2_5":35.0,"mosquito_risk":0,"arthritis_risk":5,"migraine_risk":7,"frizz_risk":0,"updated_at":"2026-03-02T02:01:10.612942+05:30"},{"city":"Solapur","state":"Maharashtra","latitude":17.6599,"longitude":75.9064,"temp":23.6,"humidity":64,"rain":0.0,"pressure":956.4,"uv_index":8.25,"wind_gusts":17.3,"aqi":86,"pm10":41.7,"pm2_5":41.3,"mosquito_risk":3,"arthritis_risk":5,"migraine_risk":7,"frizz_risk":1,"updated_at":"2026-03-02T02:01:10.612949+05:30"},{"city":"Kolhapur","state":"Maharashtra","latitude":16.705,"longitude":74.2433,"temp":17.1,"humidity":91,"rain":0.0,"pressure":947.5,"uv_index":8.35,"wind_gusts":41.4,"aqi":81,"pm10":32.7,"pm2_5":30.0,"mosquito_risk":3,"arthritis_risk":10,"migraine_risk":7,"frizz_risk":0,"updated_at":"2026-03-02T02:01:10.612956+05:30"},{"city":"Goa","state":"Goa","latitude":15.2993,"longitude":74.124,"temp":24.0,"humidity":84,"rain":0.0,"pressure":998.5,"uv_index":8.4,"wind_gusts":31.7,"aqi":64,"pm10":30.7,"pm2_5":25.4,"mosquito_risk":3,"arthritis_risk":5,"migraine_risk":7,"frizz_risk":1,"updated_at":"2026-03-02T02:01:10.612963+05:30"},{"city":"Jodhpur","state":"Rajasthan","latitude":26.2389,"longitude":73.0243,"temp":23.7,"humidity":46,"rain":0.0,"pressure":984.6,"uv_index":6.8,"wind_gusts":17.6,"aqi":67,"pm10":42.8,"pm2_5":27.4,"mosquito_risk":0,"arthritis_risk":5,"migraine_risk":7,"frizz_risk":0,"updated_at":"2026-03-02T02:01:10.612969+05:30"},{"city":"Udaipur","state":"Rajasthan","latitude":24.5854,"longitude":73.7125,"temp":18.0,"humidity":59,"rain":0.0,"pressure":947.6,"uv_index":7.4,"wind_gusts":16.9,"aqi":59,"pm10":32.6,"pm2_5":22.4,"mosquito_risk":0,"arthritis_risk":5,"migraine_risk":7,"frizz_risk":0,"updated_at":"2026-03-02T02:01:10.612976+05:30"},{"city":"Kota","state":"Rajasthan","latitude":25.2138,"longitude":75.8648,"temp":20.0,"humidity":72,"rain":0.0,"pressure":980.2,"uv_index":6.85,"wind_gusts":18.7,"aqi":85,"pm10":54.4,"pm2_5":36.3,"mosquito_risk":3,"arthritis_risk":5,"migraine_risk":7,"frizz_risk":0,"updated_at":"2026-03-02T02:01:10.612982+05:30"},{"city":"Bikaner","state":"Rajasthan","latitude":28.0229,"longitude":73.3119,"temp":22.9,"humidity":44,"rain":0.0,"pressure":983.7,"uv_index":6.5,"wind_gusts":23.0,"aqi":68,"pm10":37.6,"pm2_5":22.1,"mosquito_risk":0,"arthritis_risk":5,"migraine_risk":7,"frizz_risk":0,"updated_at":"2026-03-02T02:01:10.612990+05:30"},{"city":"Ajmer","state":"Rajasthan","latitude":26.4499,"longitude":74.6399,"temp":21.0,"humidity":38,"rain":0.0,"pressure":955.7,"uv_index":6.75,"wind_gusts":25.2,"aqi":83,"pm10":58.0,"pm2_5":40.9,"mosquito_risk":0,"arthritis_risk":5,"migraine_risk":7,"frizz_risk":0,"updated_at":"2026-03-02T02:01:10.612996+05:30"},{"city":"Gwalior","state":"Madhya Pradesh","latitude":26.2183,"longitude":78.1828,"temp":20.8,"humidity":49,"rain":0.0,"pressure":985.2,"uv_index":6.45,"wind_gusts":29.2,"aqi":97,"pm10":117.6,"pm2_5":37.7,"mosquito_risk":0,"arthritis_risk":5,"migraine_risk":7,"frizz_risk":0,"updated_at":"2026-03-02T02:01:10.613002+05:30"},{"city":"Indore","state":"Madhya Pradesh","latitude":22.7196,"longitude":75.8577,"temp":18.3,"humidity":74,"rain":0.0,"pressure":948.9,"uv_index":7.4,"wind_gusts":15.1,"aqi":83,"pm10":43.8,"pm2_5":37.3,"mosquito_risk":3,"arthritis_risk":5,"migraine_risk":7,"frizz_risk":0,"updated_at":"2026-03-02T02:01:10.613008+05:30"},{"city":"Bhopal","state":"Madhya Pradesh","latitude":23.2599,"longitude":77.4126,"temp":20.9,"humidity":50,"rain":0.0,"pressure":954.8,"uv_index":7.25,"wind_gusts":18.0,"aqi":66,"pm10":28.2,"pm2_5":25.2,"mosquito_risk":0,"arthritis_risk":5,"migraine_risk":7,"frizz_risk":0,"updated_at":"2026-03-02T02:01:10.613014+05:30"},{"city":"Jabalpur","state":"Madhya Pradesh","latitude":23.1815,"longitude":79.9864,"temp":20.4,"humidity":63,"rain":0.0,"pressure":962.7,"uv_index":7.35,"wind_gusts":19.4,"aqi":72,"pm10":36.0,"pm2_5":28.1,"mosquito_risk":3,"arthritis_risk":5,"migraine_risk":7,"frizz_risk":0,"updated_at":"2026-03-02T02:01:10.613020+05:30"},{"city":"Ujjain","state":"Madhya Pradesh","latitude":23.1765,"longitude":75.7885,"temp":18.9,"humidity":76,"rain":0.0,"pressure":954.7,"uv_index":7.3,"wind_gusts":12.2,"aqi":92,"pm10":63.1,"pm2_5":57.9,"mosquito_risk":3,"arthritis_risk":5,"migraine_risk":7,"frizz_risk":0,"updated_at":"2026-03-02T02:01:10.613026+05:30"},{"city":"Visakhapatnam","state":"Andhra Pradesh","latitude":17.6868,"longitude":83.2185,"temp":25.1,"humidity":78,"rain":0.0,"pressure":1004.3,"uv_index":8.3,"wind_gusts":37.1,"aqi":150,"pm10":48.0,"pm2_5":45.2,"mosquito_risk":7,"arthritis_risk":5,"migraine_risk":4,"frizz_risk":1,"updated_at":"2026-03-02T02:01:10.613033+05:30"},{"city":"Vijayawada","state":"Andhra Pradesh","latitude":16.5062,"longitude":80.648,"temp":23.4,"humidity":92,"rain":0.0,"pressure":1003.3,"uv_index":8.4,"wind_gusts":20.5,"aqi":136,"pm10":43.3,"pm2_5":41.3,"mosquito_risk":3,"arthritis_risk":5,"migraine_risk":4,"frizz_risk":1,"updated_at":"2026-03-02T02:01:10.613038+05:30"},{"city":"Guntur","state":"Andhra Pradesh","latitude":16.3067,"longitude":80.4365,"temp":23.4,"humidity":92,"rain":0.0,"pressure":1004.6,"uv_index":8.4,"wind_gusts":28.1,"aqi":131,"pm10":39.5,"pm2_5":37.6,"mosquito_risk":3,"arthritis_risk":5,"migraine_risk":4,"frizz_risk":1,"updated_at":"2026-03-02T02:01:10.613044+05:30"},{"city":"Nellore","state":"Andhra Pradesh","latitude":14.4426,"longitude":79.9865,"temp":23.6,"humidity":85,"rain":0.0,"pressure":1006.1,"uv_index":8.65,"wind_gusts":27.4,"aqi":128,"pm10":40.2,"pm2_5":38.3,"mosquito_risk":3,"arthritis_risk":5,"migraine_risk":4,"frizz_risk":1,"updated_at":"2026-03-02T02:01:10.613050+05:30"},{"city":"Kurnool","state":"Andhra Pradesh","latitude":15.8281,"longitude":78.0373,"temp":25.6,"humidity":58,"rain":0.0,"pressure":976.5,"uv_index":8.45,"wind_gusts":22.3,"aqi":116,"pm10":44.0,"pm2_5":43.5,"mosquito_risk":4,"arthritis_risk":5,"migraine_risk":7,"frizz_risk":1,"updated_at":"2026-03-02T02:01:10.613056+05:30"},{"city":"Kakinada","state":"Andhra Pradesh","latitude":16.9891,"longitude":82.2475,"temp":22.5,"humidity":92,"rain":0.0,"pressure":1008.3,"uv_index":8.35,"wind_gusts":30.2,"aqi":144,"pm10":50.3,"pm2_5":46.0,"mosquito_risk":3,"arthritis_risk":0,"migraine_risk":4,"frizz_risk":1,"updated_at":"2026-03-02T02:01:10.613062+05:30"},{"city":"Tirupati","state":"Andhra Pradesh","latitude":13.6288,"longitude":79.4192,"temp":21.4,"humidity":81,"rain":0.0,"pressure":992.3,"uv_index":8.75,"wind_gusts":23.8,"aqi":145,"pm10":51.0,"pm2_5":49.5,"mosquito_risk":3,"arthritis_risk":5,"migraine_risk":7,"frizz_risk":1,"updated_at":"2026-03-02T02:01:10.613068+05:30"},{"city":"Warangal","state":"Telangana","latitude":17.9689,"longitude":79.5941,"temp":24.3,"humidity":79,"rain":0.0,"pressure":978.7,"uv_index":8.15,"wind_gusts":18.7,"aqi":145,"pm10":48.5,"pm2_5":48.1,"mosquito_risk":3,"arthritis_risk":5,"migraine_risk":7,"frizz_risk":1,"updated_at":"2026-03-02T02:01:10.613073+05:30"},{"city":"Nizamabad","state":"Telangana","latitude":18.6725,"longitude":78.0941,"temp":23.6,"humidity":67,"rain":0.0,"pressure":964.7,"uv_index":8.05,"wind_gusts":27.7,"aqi":112,"pm10":52.4,"pm2_5":51.9,"mosquito_risk":3,"arthritis_risk":5,"migraine_risk":7,"frizz_risk":1,"updated_at":"2026-03-02T02:01:10.613079+05:30"},{"city":"Mysore","state":"Karnataka","latitude":12.2958,"longitude":76.6396,"temp":21.6,"humidity":88,"rain":0.0,"pressure":928.0,"uv_index":9.1,"wind_gusts":26.3,"aqi":135,"pm10":47.3,"pm2_5":46.3,"mosquito_risk":3,"arthritis_risk":5,"migraine_risk":7,"frizz_risk":1,"updated_at":"2026-03-02T02:01:10.613084+05:30"},{"city":"Mangalore","state":"Karnataka","latitude":12.9141,"longitude":74.856,"temp":28.2,"humidity":74,"rain":0.0,"pressure":1007.0,"uv_index":8.65,"wind_gusts":28.1,"aqi":51,"pm10":20.5,"pm2_5":16.4,"mosquito_risk":7,"arthritis_risk":5,"migraine_risk":4,"frizz_risk":1,"updated_at":"2026-03-02T02:01:10.613090+05:30"},{"city":"Hubli-Dharwad","state":"Karnataka","latitude":15.3647,"longitude":75.124,"temp":19.8,"humidity":86,"rain":0.0,"pressure":940.0,"uv_index":8.6,"wind_gusts":25.2,"aqi":69,"pm10":13.2,"pm2_5":11.9,"mosquito_risk":3,"arthritis_risk":10,"migraine_risk":7,"frizz_risk":1,"updated_at":"2026-03-02T02:01:10.613096+05:30"},{"city":"Belgaum","state":"Karnataka","latitude":15.8497,"longitude":74.4977,"temp":18.2,"humidity":91,"rain":0.0,"pressure":924.6,"uv_index":8.65,"wind_gusts":37.1,"aqi":67,"pm10":28.4,"pm2_5":26.5,"mosquito_risk":3,"arthritis_risk":10,"migraine_risk":7,"frizz_risk":1,"updated_at":"2026-03-02T02:01:13.837273+05:30"},{"city":"Coimbatore","state":"Tamil Nadu","latitude":11.0168,"longitude":76.9558,"temp":22.4,"humidity":94,"rain":0.0,"pressure":962.1,"uv_index":9.1,"wind_gusts":27.7,"aqi":146,"pm10":60.3,"pm2_5":59.5,"mosquito_risk":3,"arthritis_risk":5,"migraine_risk":7,"frizz_risk":1,"updated_at":"2026-03-02T02:01:13.837305+05:30"},{"city":"Madurai","state":"Tamil Nadu","latitude":9.9252,"longitude":78.1198,"temp":22.8,"humidity":84,"rain":0.0,"pressure":993.8,"uv_index":9.05,"wind_gusts":28.4,"aqi":135,"pm10":48.3,"pm2_5":46.9,"mosquito_risk":3,"arthritis_risk":5,"migraine_risk":7,"frizz_risk":1,"updated_at":"2026-03-02T02:01:13.837318+05:30"},{"city":"Trichy","state":"Tamil Nadu","latitude":10.7905,"longitude":78.7047,"temp":23.3,"humidity":91,"rain":0.0,"pressure":1000.4,"uv_index":8.95,"wind_gusts":29.2,"aqi":138,"pm10":49.6,"pm2_5":47.0,"mosquito_risk":3,"arthritis_risk":5,"migraine_risk":4,"frizz_risk":1,"updated_at":"2026-03-02T02:01:13.837328+05:30"},{"city":"Salem","state":"Tamil Nadu","latitude":11.6643,"longitude":78.146,"temp":24.7,"humidity":73,"rain":0.0,"pressure":977.8,"uv_index":9.0,"wind_gusts":29.2,"aqi":141,"pm10":48.8,"pm2_5":47.3,"mosquito_risk":3,"arthritis_risk":5,"migraine_risk":7,"frizz_risk":1,"updated_at":"2026-03-02T02:01:13.837337+05:30"},{"city":"Tirunelveli","state":"Tamil Nadu","latitude":8.7139,"longitude":77.7567,"temp":22.9,"humidity":87,"rain":0.0,"pressure":1003.9,"uv_index":9.05,"wind_gusts":42.1,"aqi":129,"pm10":66.8,"pm2_5":65.2,"mosquito_risk":3,"arthritis_risk":5,"migraine_risk":4,"frizz_risk":1,"updated_at":"2026-03-02T02:01:13.837346+05:30"},{"city":"Vellore","state":"Tamil Nadu","latitude":12.9165,"longitude":79.1325,"temp":22.2,"humidity":82,"rain":0.0,"pressure":985.1,"uv_index":8.85,"wind_gusts":29.9,"aqi":152,"pm10":62.4,"pm2_5":60.5,"mosquito_risk":3,"arthritis_risk":5,"migraine_risk":7,"frizz_risk":1,"updated_at":"2026-03-02T02:01:13.837354+05:30"},{"city":"Erode","state":"Tamil Nadu","latitude":11.341,"longitude":77.7172,"temp":25.0,"humidity":79,"rain":0.0,"pressure":989.8,"uv_index":9.0,"wind_gusts":27.4,"aqi":131,"pm10":36.6,"pm2_5":35.3,"mosquito_risk":7,"arthritis_risk":5,"migraine_risk":7,"frizz_risk":1,"updated_at":"2026-03-02T02:01:13.837362+05:30"},{"city":"Kochi","state":"Kerala","latitude":9.9312,"longitude":76.2673,"temp":27.0,"humidity":81,"rain":0.0,"pressure":1009.1,"uv_index":8.75,"wind_gusts":33.5,"aqi":105,"pm10":46.0,"pm2_5":45.5,"mosquito_risk":7,"arthritis_risk":0,"migraine_risk":4,"frizz_risk":1,"updated_at":"2026-03-02T02:01:13.837370+05:30"},{"city":"Thiruvananthapuram","state":"Kerala","latitude":8.5241,"longitude":76.9366,"temp":27.2,"humidity":81,"rain":0.0,"pressure":1008.2,"uv_index":8.95,"wind_gusts":30.2,"aqi":98,"pm10":23.5,"pm2_5":20.7,"mosquito_risk":7,"arthritis_risk":0,"migraine_risk":4,"frizz_risk":1,"updated_at":"2026-03-02T02:01:13.837379+05:30"},{"city":"Kozhikode","state":"Kerala","latitude":11.2588,"longitude":75.7804,"temp":27.9,"humidity":77,"rain":0.0,"pressure":1008.0,"uv_index":8.8,"wind_gusts":30.6,"aqi":56,"pm10":19.2,"pm2_5":14.5,"mosquito_risk":7,"arthritis_risk":0,"migraine_risk":4,"frizz_risk":1,"updated_at":"2026-03-02T02:01:13.837386+05:30"},{"city":"Thrissur","state":"Kerala","latitude":10.5276,"longitude":76.2144,"temp":25.6,"humidity":89,"rain":0.0,"pressure":1007.3,"uv_index":8.9,"wind_gusts":36.7,"aqi":103,"pm10":46.9,"pm2_5":45.1,"mosquito_risk":7,"arthritis_risk":5,"migraine_risk":4,"frizz_risk":1,"updated_at":"2026-03-02T02:01:13.837396+05:30"},{"city":"Kannur","state":"Kerala","latitude":11.8745,"longitude":75.3704,"temp":26.9,"humidity":78,"rain":0.0,"pressure":1007.1,"uv_index":8.75,"wind_gusts":32.8,"aqi":52,"pm10":17.5,"pm2_5":14.2,"mosquito_risk":7,"arthritis_risk":5,"migraine_risk":4,"frizz_risk":1,"updated_at":"2026-03-02T02:01:13.837404+05:30"},{"city":"Patna","state":"Bihar","latitude":25.5941,"longitude":85.1376,"temp":19.5,"humidity":70,"rain":0.0,"pressure":1001.7,"uv_index":7.05,"wind_gusts":27.7,"aqi":140,"pm10":61.9,"pm2_5":48.1,"mosquito_risk":3,"arthritis_risk":5,"migraine_risk":4,"frizz_risk":0,"updated_at":"2026-03-02T02:01:13.837412+05:30"},{"city":"Gaya","state":"Bihar","latitude":24.7914,"longitude":85.0002,"temp":21.2,"humidity":61,"rain":0.0,"pressure":995.2,"uv_index":7.15,"wind_gusts":25.6,"aqi":124,"pm10":83.6,"pm2_5":61.2,"mosquito_risk":3,"arthritis_risk":5,"migraine_risk":7,"frizz_risk":0,"updated_at":"2026-03-02T02:01:13.837420+05:30"},{"city":"Muzaffarpur","state":"Bihar","latitude":26.1209,"longitude":85.3647,"temp":17.1,"humidity":61,"rain":0.0,"pressure":1001.3,"uv_index":7.0,"wind_gusts":26.3,"aqi":130,"pm10":54.6,"pm2_5":43.2,"mosquito_risk":3,"arthritis_risk":5,"migraine_risk":4,"frizz_risk":0,"updated_at":"2026-03-02T02:01:13.837428+05:30"},{"city":"Bhagalpur","state":"Bihar","latitude":25.2425,"longitude":87.0117,"temp":21.1,"humidity":65,"rain":0.0,"pressure":1001.9,"uv_index":7.1,"wind_gusts":22.7,"aqi":126,"pm10":100.8,"pm2_5":61.2,"mosquito_risk":3,"arthritis_risk":5,"migraine_risk":4,"frizz_risk":0,"updated_at":"2026-03-02T02:01:13.837436+05:30"},{"city":"Ranchi","state":"Jharkhand","latitude":23.3441,"longitude":85.3096,"temp":19.7,"humidity":55,"rain":0.0,"pressure":938.1,"uv_index":7.8,"wind_gusts":49.7,"aqi":100,"pm10":44.9,"pm2_5":35.6,"mosquito_risk":0,"arthritis_risk":5,"migraine_risk":7,"frizz_risk":0,"updated_at":"2026-03-02T02:01:13.837444+05:30"},{"city":"Jamshedpur","state":"Jharkhand","latitude":22.8046,"longitude":86.2029,"temp":23.1,"humidity":71,"rain":0.0,"pressure":991.0,"uv_index":7.75,"wind_gusts":34.2,"aqi":155,"pm10":87.3,"pm2_5":82.7,"mosquito_risk":3,"arthritis_risk":5,"migraine_risk":7,"frizz_risk":1,"updated_at":"2026-03-02T02:01:13.837452+05:30"},{"city":"Dhanbad","state":"Jharkhand","latitude":23.7957,"longitude":86.4304,"temp":24.0,"humidity":42,"rain":0.0,"pressure":980.4,"uv_index":7.6,"wind_gusts":37.1,"aqi":154,"pm10":86.4,"pm2_5":62.2,"mosquito_risk":0,"arthritis_risk":5,"migraine_risk":7,"frizz_risk":0,"updated_at":"2026-03-02T02:01:13.837459+05:30"},{"city":"Bokaro","state":"Jharkhand","latitude":23.6693,"longitude":86.1511,"temp":22.6,"humidity":48,"rain":0.0,"pressure":984.8,"uv_index":7.6,"wind_gusts":39.6,"aqi":154,"pm10":88.2,"pm2_5":69.2,"mosquito_risk":0,"arthritis_risk":5,"migraine_risk":7,"frizz_risk":0,"updated_at":"2026-03-02T02:01:13.837467+05:30"},{"city":"Bhubaneswar","state":"Odisha","latitude":20.2961,"longitude":85.8245,"temp":23.8,"humidity":90,"rain":0.0,"pressure":1002.5,"uv_index":8.05,"wind_gusts":29.2,"aqi":120,"pm10":46.2,"pm2_5":44.6,"mosquito_risk":3,"arthritis_risk":5,"migraine_risk":4,"frizz_risk":1,"updated_at":"2026-03-02T02:01:13.837475+05:30"},{"city":"Cuttack","state":"Odisha","latitude":20.4625,"longitude":85.8828,"temp":23.6,"humidity":94,"rain":0.0,"pressure":1004.4,"uv_index":8.1,"wind_gusts":20.9,"aqi":120,"pm10":46.2,"pm2_5":44.6,"mosquito_risk":3,"arthritis_risk":5,"migraine_risk":4,"frizz_risk":1,"updated_at":"2026-03-02T02:01:13.837481+05:30"},{"city":"Rourkela","state":"Odisha","latitude":22.2604,"longitude":84.8536,"temp":24.3,"humidity":69,"rain":0.0,"pressure":985.1,"uv_index":7.65,"wind_gusts":18.0,"aqi":154,"pm10":66.6,"pm2_5":65.7,"mosquito_risk":3,"arthritis_risk":5,"migraine_risk":7,"frizz_risk":1,"updated_at":"2026-03-02T02:01:13.837487+05:30"},{"city":"Raipur","state":"Chhattisgarh","latitude":21.2514,"longitude":81.6296,"temp":23.9,"humidity":56,"rain":0.0,"pressure":974.8,"uv_index":7.75,"wind_gusts":28.4,"aqi":151,"pm10":35.9,"pm2_5":35.7,"mosquito_risk":0,"arthritis_risk":5,"migraine_risk":7,"frizz_risk":0,"updated_at":"2026-03-02T02:01:13.837493+05:30"},{"city":"Bhilai","state":"Chhattisgarh","latitude":21.1938,"longitude":81.3509,"temp":23.5,"humidity":60,"rain":0.0,"pressure":975.1,"uv_index":7.8,"wind_gusts":26.3,"aqi":138,"pm10":26.7,"pm2_5":26.4,"mosquito_risk":0,"arthritis_risk":5,"migraine_risk":7,"frizz_risk":0,"updated_at":"2026-03-02T02:01:13.837498+05:30"},{"city":"Guwahati","state":"Assam","latitude":26.1158,"longitude":91.7086,"temp":20.3,"humidity":86,"rain":0.0,"pressure":1003.0,"uv_index":7.0,"wind_gusts":29.5,"aqi":157,"pm10":70.3,"pm2_5":60.8,"mosquito_risk":3,"arthritis_risk":5,"migraine_risk":4,"frizz_risk":1,"updated_at":"2026-03-02T02:01:13.837504+05:30"},{"city":"Agartala","state":"Tripura","latitude":23.8315,"longitude":91.2868,"temp":21.5,"humidity":94,"rain":0.0,"pressure":1006.4,"uv_index":7.4,"wind_gusts":20.9,"aqi":105,"pm10":28.5,"pm2_5":26.4,"mosquito_risk":3,"arthritis_risk":5,"migraine_risk":4,"frizz_risk":1,"updated_at":"2026-03-02T02:01:13.837510+05:30"},{"city":"Shillong","state":"Meghalaya","latitude":25.5788,"longitude":91.8933,"temp":10.8,"humidity":84,"rain":0.0,"pressure":853.5,"uv_index":7.35,"wind_gusts":58.0,"aqi":127,"pm10":50.8,"pm2_5":39.9,"mosquito_risk":3,"arthritis_risk":10,"migraine_risk":7,"frizz_risk":0,"updated_at":"2026-03-02T02:01:13.837516+05:30"},{"city":"Imphal","state":"Manipur","latitude":24.817,"longitude":93.9368,"temp":13.3,"humidity":76,"rain":0.0,"pressure":922.0,"uv_index":7.65,"wind_gusts":72.0,"aqi":153,"pm10":90.8,"pm2_5":77.1,"mosquito_risk":3,"arthritis_risk":5,"migraine_risk":7,"frizz_risk":0,"updated_at":"2026-03-02T02:01:13.837521+05:30"},{"city":"Aizawl","state":"Mizoram","latitude":23.7271,"longitude":92.7176,"temp":15.3,"humidity":73,"rain":0.0,"pressure":891.2,"uv_index":7.6,"wind_gusts":49.0,"aqi":130,"pm10":69.4,"pm2_5":54.7,"mosquito_risk":3,"arthritis_risk":5,"migraine_risk":7,"frizz_risk":0,"updated_at":"2026-03-02T02:01:13.837527+05:30"},{"city":"Kohima","state":"Nagaland","latitude":25.6701,"longitude":94.1077,"temp":11.8,"humidity":71,"rain":0.0,"pressure":852.6,"uv_index":7.45,"wind_gusts":81.0,"aqi":154,"pm10":80.6,"pm2_5":66.1,"mosquito_risk":3,"arthritis_risk":5,"migraine_risk":7,"frizz_risk":0,"updated_at":"2026-03-02T02:01:13.837532+05:30"},{"city":"Gangtok","state":"Sikkim","latitude":27.3314,"longitude":88.6138,"temp":9.6,"humidity":80,"rain":0.0,"pressure":833.6,"uv_index":5.25,"wind_gusts":17.3,"aqi":124,"pm10":56.9,"pm2_5":44.7,"mosquito_risk":3,"arthritis_risk":5,"migraine_risk":3,"frizz_risk":0,"updated_at":"2026-03-02T02:01:13.837538+05:30"},{"city":"Siliguri","state":"West Bengal","latitude":26.7271,"longitude":88.3953,"temp":16.8,"humidity":70,"rain":0.0,"pressure":994.5,"uv_index":7.0,"wind_gusts":20.2,"aqi":172,"pm10":119.7,"pm2_5":98.3,"mosquito_risk":3,"arthritis_risk":5,"migraine_risk":7,"frizz_risk":0,"updated_at":"2026-03-02T02:01:17.062519+05:30"},{"city":"Durgapur","state":"West Bengal","latitude":23.5204,"longitude":87.3119,"temp":24.6,"humidity":51,"rain":0.0,"pressure":995.3,"uv_index":7.55,"wind_gusts":31.3,"aqi":147,"pm10":69.4,"pm2_5":48.9,"mosquito_risk":0,"arthritis_risk":5,"migraine_risk":7,"frizz_risk":0,"updated_at":"2026-03-02T02:01:17.062545+05:30"},{"city":"Asansol","state":"West Bengal","latitude":23.6739,"longitude":86.9524,"temp":25.1,"humidity":47,"rain":0.0,"pressure":994.1,"uv_index":7.55,"wind_gusts":32.4,"aqi":129,"pm10":65.7,"pm2_5":41.7,"mosquito_risk":4,"arthritis_risk":5,"migraine_risk":7,"frizz_risk":0,"updated_at":"2026-03-02T02:01:17.062555+05:30"},{"city":"Pondicherry","state":"Puducherry","latitude":11.9139,"longitude":79.8145,"temp":22.5,"humidity":91,"rain":0.0,"pressure":1009.1,"uv_index":8.8,"wind_gusts":27.4,"aqi":126,"pm10":43.9,"pm2_5":39.8,"mosquito_risk":3,"arthritis_risk":0,"migraine_risk":4,"frizz_risk":1,"updated_at":"2026-03-02T02:01:17.062562+05:30"},{"city":"Port Blair","state":"Andaman and Nicobar Islands","latitude":11.6234,"longitude":92.7265,"temp":27.2,"humidity":73,"rain":0.0,"pressure":1006.2,"uv_index":8.8,"wind_gusts":17.6,"aqi":70,"pm10":27.6,"pm2_5":23.7,"mosquito_risk":7,"arthritis_risk":5,"migraine_risk":4,"frizz_risk":1,"updated_at":"2026-03-02T02:01:17.062569+05:30"},{"city":"Haridwar","state":"Uttarakhand","latitude":29.9457,"longitude":78.1642,"temp":13.8,"humidity":82,"rain":0.0,"pressure":975.2,"uv_index":5.55,"wind_gusts":43.6,"aqi":99,"pm10":46.9,"pm2_5":44.7,"mosquito_risk":3,"arthritis_risk":10,"migraine_risk":3,"frizz_risk":0,"updated_at":"2026-03-02T02:01:17.062576+05:30"},{"city":"Rishikesh","state":"Uttarakhand","latitude":30.0869,"longitude":78.2676,"temp":14.9,"humidity":69,"rain":0.0,"pressure":967.8,"uv_index":5.6,"wind_gusts":37.1,"aqi":84,"pm10":37.6,"pm2_5":35.4,"mosquito_risk":3,"arthritis_risk":5,"migraine_risk":3,"frizz_risk":0,"updated_at":"2026-03-02T02:01:17.062584+05:30"},{"city":"Nainital","state":"Uttarakhand","latitude":29.3919,"longitude":79.4542,"temp":14.0,"humidity":48,"rain":0.0,"pressure":803.7,"uv_index":6.4,"wind_gusts":50.8,"aqi":83,"pm10":32.2,"pm2_5":26.6,"mosquito_risk":0,"arthritis_risk":5,"migraine_risk":7,"frizz_risk":0,"updated_at":"2026-03-02T02:01:17.062590+05:30"},{"city":"Mussoorie","state":"Uttarakhand","latitude":30.4599,"longitude":78.0664,"temp":11.9,"humidity":52,"rain":0.0,"pressure":800.2,"uv_index":5.7,"wind_gusts":34.9,"aqi":85,"pm10":41.8,"pm2_5":39.9,"mosquito_risk":0,"arthritis_risk":5,"migraine_risk":3,"frizz_risk":0,"updated_at":"2026-03-02T02:01:17.062597+05:30"},{"city":"Dharamshala","state":"Himachal Pradesh","latitude":32.219,"longitude":76.3234,"temp":16.0,"humidity":45,"rain":0.0,"pressure":868.7,"uv_index":6.15,"wind_gusts":27.4,"aqi":71,"pm10":26.0,"pm2_5":18.2,"mosquito_risk":0,"arthritis_risk":5,"migraine_risk":7,"frizz_risk":0,"updated_at":"2026-03-02T02:01:17.062603+05:30"},{"city":"Dalhousie","state":"Himachal Pradesh","latitude":32.5387,"longitude":75.971,"temp":12.6,"humidity":45,"rain":0.0,"pressure":802.5,"uv_index":6.35,"wind_gusts":24.8,"aqi":94,"pm10":52.0,"pm2_5":47.3,"mosquito_risk":0,"arthritis_risk":5,"migraine_risk":7,"frizz_risk":0,"updated_at":"2026-03-02T02:01:17.062610+05:30"},{"city":"Patiala","state":"Punjab","latitude":30.3398,"longitude":76.3869,"temp":15.2,"humidity":75,"rain":0.0,"pressure":980.1,"uv_index":5.55,"wind_gusts":34.9,"aqi":155,"pm10":145.8,"pm2_5":77.1,"mosquito_risk":3,"arthritis_risk":5,"migraine_risk":3,"frizz_risk":0,"updated_at":"2026-03-02T02:01:17.062616+05:30"},{"city":"Bhatinda","state":"Punjab","latitude":30.211,"longitude":74.9455,"temp":19.0,"humidity":64,"rain":0.0,"pressure":985.8,"uv_index":6.2,"wind_gusts":27.4,"aqi":156,"pm10":120.6,"pm2_5":94.5,"mosquito_risk":3,"arthritis_risk":5,"migraine_risk":7,"frizz_risk":0,"updated_at":"2026-03-02T02:01:17.062622+05:30"},{"city":"Rohtak","state":"Haryana","latitude":28.8955,"longitude":76.6066,"temp":16.1,"humidity":78,"rain":0.0,"pressure":983.5,"uv_index":5.75,"wind_gusts":33.5,"aqi":164,"pm10":336.2,"pm2_5":85.0,"mosquito_risk":3,"arthritis_risk":5,"migraine_risk":3,"frizz_risk":0,"updated_at":"2026-03-02T02:01:17.062628+05:30"},{"city":"Panipat","state":"Haryana","latitude":29.3909,"longitude":76.9635,"temp":15.0,"humidity":78,"rain":0.0,"pressure":982.0,"uv_index":5.55,"wind_gusts":34.2,"aqi":400,"pm10":724.6,"pm2_5":121.1,"mosquito_risk":3,"arthritis_risk":5,"migraine_risk":3,"frizz_risk":0,"updated_at":"2026-03-02T02:01:17.062634+05:30"},{"city":"Mathura","state":"Uttar Pradesh","latitude":27.4924,"longitude":77.6737,"temp":18.1,"humidity":58,"rain":0.0,"pressure":988.7,"uv_index":6.0,"wind_gusts":29.5,"aqi":219,"pm10":323.2,"pm2_5":74.0,"mosquito_risk":0,"arthritis_risk":5,"migraine_risk":3,"frizz_risk":0,"updated_at":"2026-03-02T02:01:17.062640+05:30"},{"city":"Vrindavan","state":"Uttar Pradesh","latitude":27.5823,"longitude":77.7027,"temp":17.1,"humidity":65,"rain":0.0,"pressure":988.9,"uv_index":6.0,"wind_gusts":31.3,"aqi":219,"pm10":323.2,"pm2_5":74.0,"mosquito_risk":3,"arthritis_risk":5,"migraine_risk":3,"frizz_risk":0,"updated_at":"2026-03-02T02:01:17.062646+05:30"},{"city":"Ayodhya","state":"Uttar Pradesh","latitude":26.7922,"longitude":82.1998,"temp":16.1,"humidity":61,"rain":0.0,"pressure":996.5,"uv_index":6.4,"wind_gusts":36.7,"aqi":107,"pm10":127.6,"pm2_5":44.2,"mosquito_risk":3,"arthritis_risk":5,"migraine_risk":7,"frizz_risk":0,"updated_at":"2026-03-02T02:01:17.062652+05:30"},{"city":"Ratlam","state":"Madhya Pradesh","latitude":23.3315,"longitude":75.0367,"temp":22.0,"humidity":57,"rain":0.0,"pressure":955.6,"uv_index":7.25,"wind_gusts":8.3,"aqi":83,"pm10":61.7,"pm2_5":56.2,"mosquito_risk":0,"arthritis_risk":5,"migraine_risk":7,"frizz_risk":0,"updated_at":"2026-03-02T02:01:17.062658+05:30"},{"city":"Sagar","state":"Madhya Pradesh","latitude":23.8388,"longitude":78.7378,"temp":21.9,"humidity":49,"rain":0.0,"pressure":951.6,"uv_index":7.2,"wind_gusts":23.4,"aqi":58,"pm10":46.3,"pm2_5":28.2,"mosquito_risk":0,"arthritis_risk":5,"migraine_risk":7,"frizz_risk":0,"updated_at":"2026-03-02T02:01:17.062664+05:30"},{"city":"Satna","state":"Madhya Pradesh","latitude":24.6005,"longitude":80.8322,"temp":20.0,"humidity":40,"rain":0.0,"pressure":972.9,"uv_index":7.15,"wind_gusts":32.4,"aqi":86,"pm10":39.9,"pm2_5":24.0,"mosquito_risk":0,"arthritis_risk":5,"migraine_risk":7,"frizz_risk":0,"updated_at":"2026-03-02T02:01:17.062671+05:30"},{"city":"Akola","state":"Maharashtra","latitude":20.7002,"longitude":77.0082,"temp":22.9,"humidity":61,"rain":0.0,"pressure":975.9,"uv_index":7.75,"wind_gusts":23.0,"aqi":67,"pm10":31.8,"pm2_5":30.9,"mosquito_risk":3,"arthritis_risk":5,"migraine_risk":7,"frizz_risk":0,"updated_at":"2026-03-02T02:01:17.062677+05:30"},{"city":"Amravati","state":"Maharashtra","latitude":20.9374,"longitude":77.7796,"temp":21.6,"humidity":57,"rain":0.0,"pressure":967.6,"uv_index":7.7,"wind_gusts":22.3,"aqi":64,"pm10":30.9,"pm2_5":30.0,"mosquito_risk":0,"arthritis_risk":5,"migraine_risk":7,"frizz_risk":0,"updated_at":"2026-03-02T02:01:17.062684+05:30"},{"city":"Latur","state":"Maharashtra","latitude":18.4088,"longitude":76.5604,"temp":24.9,"humidity":55,"rain":0.0,"pressure":939.6,"uv_index":8.15,"wind_gusts":25.6,"aqi":75,"pm10":31.9,"pm2_5":31.4,"mosquito_risk":0,"arthritis_risk":5,"migraine_risk":7,"frizz_risk":0,"updated_at":"2026-03-02T02:01:17.062690+05:30"},{"city":"Nanded","state":"Maharashtra","latitude":19.1383,"longitude":77.3091,"temp":24.8,"humidity":62,"rain":0.0,"pressure":968.6,"uv_index":7.95,"wind_gusts":24.8,"aqi":76,"pm10":25.9,"pm2_5":25.5,"mosquito_risk":3,"arthritis_risk":5,"migraine_risk":7,"frizz_risk":1,"updated_at":"2026-03-02T02:01:17.062696+05:30"},{"city":"Gulbarga","state":"Karnataka","latitude":17.3297,"longitude":76.8343,"temp":26.3,"humidity":62,"rain":0.0,"pressure":958.3,"uv_index":8.25,"wind_gusts":17.3,"aqi":103,"pm10":44.5,"pm2_5":44.1,"mosquito_risk":7,"arthritis_risk":5,"migraine_risk":7,"frizz_risk":1,"updated_at":"2026-03-02T02:01:17.062702+05:30"},{"city":"Bidar","state":"Karnataka","latitude":17.9104,"longitude":77.5199,"temp":23.8,"humidity":63,"rain":0.0,"pressure":935.1,"uv_index":8.2,"wind_gusts":20.2,"aqi":106,"pm10":51.6,"pm2_5":51.2,"mosquito_risk":3,"arthritis_risk":5,"migraine_risk":7,"frizz_risk":1,"updated_at":"2026-03-02T02:01:17.062707+05:30"},{"city":"Hospet","state":"Karnataka","latitude":15.2689,"longitude":76.3909,"temp":25.1,"humidity":64,"rain":0.0,"pressure":955.6,"uv_index":8.6,"wind_gusts":22.3,"aqi":107,"pm10":48.4,"pm2_5":47.7,"mosquito_risk":7,"arthritis_risk":5,"migraine_risk":7,"frizz_risk":1,"updated_at":"2026-03-02T02:01:17.062713+05:30"},{"city":"Tirupur","state":"Tamil Nadu","latitude":11.1085,"longitude":77.3411,"temp":24.6,"humidity":80,"rain":0.0,"pressure":975.8,"uv_index":9.1,"wind_gusts":28.4,"aqi":151,"pm10":51.9,"pm2_5":51.0,"mosquito_risk":3,"arthritis_risk":5,"migraine_risk":7,"frizz_risk":1,"updated_at":"2026-03-02T02:01:17.062719+05:30"},{"city":"Alappuzha","state":"Kerala","latitude":9.4981,"longitude":76.3388,"temp":26.6,"humidity":85,"rain":0.0,"pressure":1009.3,"uv_index":8.9,"wind_gusts":30.2,"aqi":92,"pm10":40.7,"pm2_5":37.8,"mosquito_risk":7,"arthritis_risk":0,"migraine_risk":4,"frizz_risk":1,"updated_at":"2026-03-02T02:01:17.062724+05:30"},{"city":"Munnar","state":"Kerala","latitude":10.0889,"longitude":77.0595,"temp":17.4,"humidity":91,"rain":0.0,"pressure":855.2,"uv_index":9.4,"wind_gusts":30.6,"aqi":132,"pm10":47.6,"pm2_5":46.6,"mosquito_risk":3,"arthritis_risk":10,"migraine_risk":7,"frizz_risk":0,"updated_at":"2026-03-02T02:01:17.062731+05:30"},{"city":"Silchar","state":"Assam","latitude":24.8333,"longitude":92.7789,"temp":19.5,"humidity":83,"rain":0.0,"pressure":1005.8,"uv_index":7.35,"wind_gusts":30.6,"aqi":156,"pm10":87.8,"pm2_5":70.3,"mosquito_risk":3,"arthritis_risk":10,"migraine_risk":4,"frizz_risk":1,"updated_at":"2026-03-02T02:01:17.062737+05:30"},{"city":"Dibrugarh","state":"Assam","latitude":27.4728,"longitude":94.912,"temp":19.3,"humidity":83,"rain":0.0,"pressure":997.7,"uv_index":7.05,"wind_gusts":10.4,"aqi":157,"pm10":66.4,"pm2_5":59.8,"mosquito_risk":3,"arthritis_risk":10,"migraine_risk":7,"frizz_risk":1,"updated_at":"2026-03-02T02:01:17.062743+05:30"}]