[{"city":"Delhi","state":"Delhi","latitude":28.6139,"longitude":77.209,"temp":31.5,"humidity":56,"rain":0.0,"pressure":976.4,"uv_index":7.65,"wind_gusts":29.2,"aqi":183,"pm10":195.6,"pm2_5":98.3,"no2":45.9,"co":971.0,"o3":64.0,"so2":30.6,"mosquito_risk":0,"arthritis_risk":5,"migraine_risk":7,"frizz_risk":1,"updated_at":"2026-05-14T00:27:37.872405+05:30"},{"city":"Mumbai","state":"Maharashtra","latitude":19.076,"longitude":72.8777,"temp":29.7,"humidity":78,"rain":0.0,"pressure":1005.0,"uv_index":7.85,"wind_gusts":40.7,"aqi":74,"pm10":31.9,"pm2_5":17.2,"no2":7.6,"co":300.0,"o3":75.0,"so2":5.6,"mosquito_risk":7,"arthritis_risk":5,"migraine_risk":4,"frizz_risk":1,"updated_at":"2026-05-14T00:27:37.872460+05:30"},{"city":"Bangalore","state":"Karnataka","latitude":12.9716,"longitude":77.5946,"temp":27.0,"humidity":43,"rain":0.0,"pressure":908.8,"uv_index":9.45,"wind_gusts":37.1,"aqi":78,"pm10":23.9,"pm2_5":20.7,"no2":36.8,"co":429.0,"o3":53.0,"so2":9.4,"mosquito_risk":4,"arthritis_risk":5,"migraine_risk":7,"frizz_risk":0,"updated_at":"2026-05-14T00:27:37.872475+05:30"},{"city":"Hyderabad","state":"Telangana","latitude":17.385,"longitude":78.4867,"temp":30.7,"humidity":47,"rain":0.0,"pressure":950.0,"uv_index":8.7,"wind_gusts":25.9,"aqi":72,"pm10":38.4,"pm2_5":27.4,"no2":16.9,"co":431.0,"o3":84.0,"so2":8.1,"mosquito_risk":0,"arthritis_risk":5,"migraine_risk":7,"frizz_risk":1,"updated_at":"2026-05-14T00:27:37.872485+05:30"},{"city":"Chennai","state":"Tamil Nadu","latitude":13.0827,"longitude":80.2707,"temp":29.2,"humidity":80,"rain":0.0,"pressure":1002.4,"uv_index":9.1,"wind_gusts":47.2,"aqi":25,"pm10":9.5,"pm2_5":6.7,"no2":7.1,"co":228.0,"o3":39.0,"so2":4.3,"mosquito_risk":7,"arthritis_risk":5,"migraine_risk":4,"frizz_risk":1,"updated_at":"2026-05-14T00:27:37.872493+05:30"},{"city":"Kolkata","state":"West Bengal","latitude":22.5726,"longitude":88.3639,"temp":27.9,"humidity":85,"rain":0.0,"pressure":1002.1,"uv_index":8.95,"wind_gusts":46.1,"aqi":59,"pm10":10.1,"pm2_5":8.5,"no2":6.4,"co":241.0,"o3":33.0,"so2":3.4,"mosquito_risk":7,"arthritis_risk":5,"migraine_risk":4,"frizz_risk":1,"updated_at":"2026-05-14T00:27:37.872500+05:30"},{"city":"Pune","state":"Maharashtra","latitude":18.5204,"longitude":73.8567,"temp":26.5,"humidity":78,"rain":0.0,"pressure":945.1,"uv_index":8.5,"wind_gusts":49.3,"aqi":75,"pm10":47.0,"pm2_5":26.8,"no2":13.9,"co":306.0,"o3":77.0,"so2":16.0,"mosquito_risk":7,"arthritis_risk":5,"migraine_risk":7,"frizz_risk":1,"updated_at":"2026-05-14T00:27:37.872507+05:30"},{"city":"Ahmedabad","state":"Gujarat","latitude":23.0225,"longitude":72.5714,"temp":32.8,"humidity":53,"rain":0.0,"pressure":996.1,"uv_index":8.15,"wind_gusts":36.4,"aqi":78,"pm10":40.7,"pm2_5":22.1,"no2":7.7,"co":227.0,"o3":78.0,"so2":4.8,"mosquito_risk":0,"arthritis_risk":5,"migraine_risk":7,"frizz_risk":1,"updated_at":"2026-05-14T00:27:37.872516+05:30"},{"city":"Jaipur","state":"Rajasthan","latitude":26.9124,"longitude":75.7873,"temp":33.4,"humidity":24,"rain":0.0,"pressure":953.8,"uv_index":8.25,"wind_gusts":49.3,"aqi":133,"pm10":98.3,"pm2_5":44.0,"no2":29.7,"co":352.0,"o3":38.0,"so2":11.3,"mosquito_risk":0,"arthritis_risk":5,"migraine_risk":7,"frizz_risk":0,"updated_at":"2026-05-14T00:27:37.872524+05:30"},{"city":"Lucknow","state":"Uttar Pradesh","latitude":26.8467,"longitude":80.9462,"temp":29.5,"humidity":52,"rain":0.0,"pressure":987.7,"uv_index":8.15,"wind_gusts":29.9,"aqi":155,"pm10":141.6,"pm2_5":83.8,"no2":27.4,"co":460.0,"o3":67.0,"so2":16.7,"mosquito_risk":4,"arthritis_risk":5,"migraine_risk":7,"frizz_risk":1,"updated_at":"2026-05-14T00:27:37.872530+05:30"},{"city":"Kanpur","state":"Uttar Pradesh","latitude":26.4499,"longitude":80.3319,"temp":30.5,"humidity":48,"rain":0.0,"pressure":985.9,"uv_index":8.2,"wind_gusts":35.3,"aqi":159,"pm10":138.8,"pm2_5":76.6,"no2":24.1,"co":494.0,"o3":66.0,"so2":14.6,"mosquito_risk":0,"arthritis_risk":5,"migraine_risk":7,"frizz_risk":1,"updated_at":"2026-05-14T00:27:37.872536+05:30"},{"city":"Chandigarh","state":"Chandigarh","latitude":30.7333,"longitude":76.7794,"temp":23.8,"humidity":55,"rain":0.0,"pressure":962.5,"uv_index":7.7,"wind_gusts":37.1,"aqi":133,"pm10":77.5,"pm2_5":51.0,"no2":26.9,"co":839.0,"o3":85.0,"so2":17.3,"mosquito_risk":0,"arthritis_risk":5,"migraine_risk":7,"frizz_risk":0,"updated_at":"2026-05-14T00:27:37.872543+05:30"},{"city":"Srinagar","state":"Jammu and Kashmir","latitude":34.0837,"longitude":74.7973,"temp":11.7,"humidity":94,"rain":0.0,"pressure":840.6,"uv_index":8.75,"wind_gusts":32.8,"aqi":63,"pm10":36.8,"pm2_5":35.7,"no2":32.2,"co":564.0,"o3":5.0,"so2":0.0,"mosquito_risk":3,"arthritis_risk":10,"migraine_risk":7,"frizz_risk":0,"updated_at":"2026-05-14T00:27:37.872550+05:30"},{"city":"Jammu","state":"Jammu and Kashmir","latitude":32.7266,"longitude":74.857,"temp":25.6,"humidity":41,"rain":0.0,"pressure":967.2,"uv_index":8.45,"wind_gusts":37.4,"aqi":79,"pm10":30.3,"pm2_5":25.0,"no2":22.9,"co":461.0,"o3":49.0,"so2":3.8,"mosquito_risk":4,"arthritis_risk":5,"migraine_risk":7,"frizz_risk":0,"updated_at":"2026-05-14T00:27:37.872557+05:30"},{"city":"Amritsar","state":"Punjab","latitude":31.634,"longitude":74.8723,"temp":25.5,"humidity":61,"rain":0.0,"pressure":975.0,"uv_index":8.35,"wind_gusts":34.6,"aqi":152,"pm10":55.5,"pm2_5":41.1,"no2":12.3,"co":785.0,"o3":82.0,"so2":5.8,"mosquito_risk":7,"arthritis_risk":5,"migraine_risk":7,"frizz_risk":1,"updated_at":"2026-05-14T00:27:37.872563+05:30"},{"city":"Ludhiana","state":"Punjab","latitude":30.901,"longitude":75.8573,"temp":25.5,"humidity":63,"rain":0.0,"pressure":972.5,"uv_index":7.95,"wind_gusts":66.6,"aqi":159,"pm10":67.1,"pm2_5":53.3,"no2":20.2,"co":1125.0,"o3":76.0,"so2":10.2,"mosquito_risk":7,"arthritis_risk":5,"migraine_risk":7,"frizz_risk":1,"updated_at":"2026-05-14T00:27:37.872568+05:30"},{"city":"Jalandhar","state":"Punjab","latitude":31.326,"longitude":75.5762,"temp":25.2,"humidity":56,"rain":0.0,"pressure":973.6,"uv_index":8.1,"wind_gusts":56.5,"aqi":143,"pm10":64.5,"pm2_5":36.9,"no2":11.4,"co":1140.0,"o3":87.0,"so2":5.3,"mosquito_risk":4,"arthritis_risk":5,"migraine_risk":7,"frizz_risk":0,"updated_at":"2026-05-14T00:27:37.872574+05:30"},{"city":"Dehradun","state":"Uttarakhand","latitude":30.6284,"longitude":78.0322,"temp":13.6,"humidity":93,"rain":0.0,"pressure":824.7,"uv_index":8.1,"wind_gusts":36.0,"aqi":76,"pm10":41.2,"pm2_5":29.9,"no2":37.0,"co":336.0,"o3":59.0,"so2":4.0,"mosquito_risk":3,"arthritis_risk":10,"migraine_risk":7,"frizz_risk":0,"updated_at":"2026-05-14T00:27:37.872582+05:30"},{"city":"Shimla","state":"Himachal Pradesh","latitude":31.1048,"longitude":77.1734,"temp":11.9,"humidity":68,"rain":0.0,"pressure":778.9,"uv_index":8.2,"wind_gusts":45.7,"aqi":102,"pm10":37.6,"pm2_5":23.4,"no2":22.0,"co":398.0,"o3":83.0,"so2":5.3,"mosquito_risk":3,"arthritis_risk":5,"migraine_risk":7,"frizz_risk":0,"updated_at":"2026-05-14T00:27:37.872588+05:30"},{"city":"Manali","state":"Himachal Pradesh","latitude":32.2396,"longitude":77.1887,"temp":9.1,"humidity":84,"rain":0.0,"pressure":813.8,"uv_index":10.0,"wind_gusts":43.2,"aqi":72,"pm10":6.3,"pm2_5":4.8,"no2":47.1,"co":244.0,"o3":73.0,"so2":0.0,"mosquito_risk":3,"arthritis_risk":10,"migraine_risk":7,"frizz_risk":0,"updated_at":"2026-05-14T00:27:37.872594+05:30"},{"city":"Gurgaon","state":"Haryana","latitude":28.4595,"longitude":77.0266,"temp":29.6,"humidity":52,"rain":0.0,"pressure":974.8,"uv_index":7.75,"wind_gusts":33.8,"aqi":679,"pm10":467.5,"pm2_5":140.2,"no2":41.6,"co":1020.0,"o3":81.0,"so2":37.8,"mosquito_risk":4,"arthritis_risk":5,"migraine_risk":7,"frizz_risk":1,"updated_at":"2026-05-14T00:27:37.872600+05:30"},{"city":"Noida","state":"Uttar Pradesh","latitude":28.5355,"longitude":77.391,"temp":27.4,"humidity":77,"rain":0.0,"pressure":977.7,"uv_index":7.7,"wind_gusts":27.0,"aqi":679,"pm10":467.5,"pm2_5":140.2,"no2":41.6,"co":1357.0,"o3":81.0,"so2":37.8,"mosquito_risk":7,"arthritis_risk":5,"migraine_risk":7,"frizz_risk":1,"updated_at":"2026-05-14T00:27:37.872607+05:30"},{"city":"Ghaziabad","state":"Uttar Pradesh","latitude":28.6692,"longitude":77.4538,"temp":28.0,"humidity":73,"rain":0.0,"pressure":975.9,"uv_index":7.7,"wind_gusts":28.1,"aqi":162,"pm10":203.5,"pm2_5":95.5,"no2":25.1,"co":689.0,"o3":76.0,"so2":19.8,"mosquito_risk":7,"arthritis_risk":5,"migraine_risk":7,"frizz_risk":1,"updated_at":"2026-05-14T00:27:37.872614+05:30"},{"city":"Faridabad","state":"Haryana","latitude":28.4089,"longitude":77.3178,"temp":28.8,"humidity":70,"rain":0.0,"pressure":977.1,"uv_index":7.75,"wind_gusts":28.4,"aqi":679,"pm10":467.5,"pm2_5":140.2,"no2":41.6,"co":926.0,"o3":81.0,"so2":37.8,"mosquito_risk":7,"arthritis_risk":5,"migraine_risk":7,"frizz_risk":1,"updated_at":"2026-05-14T00:27:37.872620+05:30"},{"city":"Meerut","state":"Uttar Pradesh","latitude":28.9845,"longitude":77.7064,"temp":29.5,"humidity":64,"rain":0.0,"pressure":974.8,"uv_index":7.6,"wind_gusts":33.5,"aqi":162,"pm10":203.5,"pm2_5":95.5,"no2":25.1,"co":702.0,"o3":76.0,"so2":19.8,"mosquito_risk":7,"arthritis_risk":5,"migraine_risk":7,"frizz_risk":1,"updated_at":"2026-05-14T00:27:37.872626+05:30"},{"city":"Agra","state":"Uttar Pradesh","latitude":27.1767,"longitude":78.0081,"temp":30.2,"humidity":51,"rain":0.0,"pressure":980.8,"uv_index":8.05,"wind_gusts":29.5,"aqi":566,"pm10":834.5,"pm2_5":156.9,"no2":13.8,"co":520.0,"o3":93.0,"so2":16.0,"mosquito_risk":0,"arthritis_risk":5,"migraine_risk":7,"frizz_risk":1,"updated_at":"2026-05-14T00:27:37.872631+05:30"},{"city":"Varanasi","state":"Uttar Pradesh","latitude":25.3176,"longitude":82.9739,"temp":28.9,"humidity":59,"rain":0.0,"pressure":992.2,"uv_index":8.7,"wind_gusts":39.2,"aqi":156,"pm10":93.4,"pm2_5":77.8,"no2":20.8,"co":575.0,"o3":96.0,"so2":18.0,"mosquito_risk":4,"arthritis_risk":5,"migraine_risk":7,"frizz_risk":1,"updated_at":"2026-05-14T00:27:37.872637+05:30"},{"city":"Prayagraj","state":"Uttar Pradesh","latitude":25.4358,"longitude":81.8463,"temp":30.0,"humidity":49,"rain":0.0,"pressure":990.4,"uv_index":8.55,"wind_gusts":47.5,"aqi":155,"pm10":105.0,"pm2_5":73.8,"no2":24.5,"co":415.0,"o3":77.0,"so2":15.1,"mosquito_risk":4,"arthritis_risk":5,"migraine_risk":7,"frizz_risk":1,"updated_at":"2026-05-14T00:27:37.872645+05:30"},{"city":"Gorakhpur","state":"Uttar Pradesh","latitude":26.7606,"longitude":83.3732,"temp":26.0,"humidity":80,"rain":0.0,"pressure":993.0,"uv_index":8.5,"wind_gusts":38.2,"aqi":139,"pm10":61.5,"pm2_5":53.7,"no2":14.2,"co":443.0,"o3":96.0,"so2":11.3,"mosquito_risk":7,"arthritis_risk":5,"migraine_risk":7,"frizz_risk":1,"updated_at":"2026-05-14T00:27:37.872650+05:30"},{"city":"Bareilly","state":"Uttar Pradesh","latitude":28.367,"longitude":79.4304,"temp":26.8,"humidity":82,"rain":0.0,"pressure":980.6,"uv_index":7.95,"wind_gusts":28.1,"aqi":154,"pm10":181.1,"pm2_5":91.7,"no2":28.0,"co":510.0,"o3":89.0,"so2":24.4,"mosquito_risk":7,"arthritis_risk":5,"migraine_risk":7,"frizz_risk":1,"updated_at":"2026-05-14T00:27:37.872656+05:30"},{"city":"Aligarh","state":"Uttar Pradesh","latitude":27.8974,"longitude":78.088,"temp":28.1,"humidity":69,"rain":0.0,"pressure":978.8,"uv_index":7.85,"wind_gusts":26.3,"aqi":297,"pm10":233.3,"pm2_5":90.1,"no2":16.9,"co":579.0,"o3":87.0,"so2":13.8,"mosquito_risk":7,"arthritis_risk":5,"migraine_risk":7,"frizz_risk":1,"updated_at":"2026-05-14T00:27:37.872662+05:30"},{"city":"Moradabad","state":"Uttar Pradesh","latitude":28.8386,"longitude":78.7733,"temp":27.3,"humidity":75,"rain":0.0,"pressure":977.2,"uv_index":7.8,"wind_gusts":27.0,"aqi":155,"pm10":187.7,"pm2_5":99.2,"no2":34.1,"co":704.0,"o3":56.0,"so2":16.8,"mosquito_risk":7,"arthritis_risk":5,"migraine_risk":7,"frizz_risk":1,"updated_at":"2026-05-14T00:27:37.872668+05:30"},{"city":"Saharanpur","state":"Uttar Pradesh","latitude":29.9637,"longitude":77.546,"temp":25.9,"humidity":68,"rain":0.0,"pressure":969.4,"uv_index":7.4,"wind_gusts":31.0,"aqi":161,"pm10":154.1,"pm2_5":86.8,"no2":26.6,"co":755.0,"o3":108.0,"so2":23.6,"mosquito_risk":7,"arthritis_risk":5,"migraine_risk":7,"frizz_risk":1,"updated_at":"2026-05-14T00:27:37.872674+05:30"},{"city":"Jhansi","state":"Uttar Pradesh","latitude":25.4484,"longitude":78.5685,"temp":30.8,"humidity":40,"rain":0.0,"pressure":971.5,"uv_index":8.45,"wind_gusts":50.4,"aqi":113,"pm10":111.5,"pm2_5":44.7,"no2":12.2,"co":333.0,"o3":73.0,"so2":7.8,"mosquito_risk":0,"arthritis_risk":5,"migraine_risk":7,"frizz_risk":0,"updated_at":"2026-05-14T00:27:41.136703+05:30"},{"city":"Surat","state":"Gujarat","latitude":21.1702,"longitude":72.8311,"temp":29.9,"humidity":81,"rain":0.0,"pressure":1001.5,"uv_index":7.25,"wind_gusts":43.9,"aqi":86,"pm10":24.5,"pm2_5":19.2,"no2":25.7,"co":429.0,"o3":53.0,"so2":42.0,"mosquito_risk":7,"arthritis_risk":5,"migraine_risk":4,"frizz_risk":1,"updated_at":"2026-05-14T00:27:41.136735+05:30"},{"city":"Vadodara","state":"Gujarat","latitude":22.3072,"longitude":73.1812,"temp":30.5,"humidity":74,"rain":0.0,"pressure":998.7,"uv_index":8.1,"wind_gusts":39.2,"aqi":79,"pm10":36.1,"pm2_5":24.4,"no2":23.6,"co":354.0,"o3":55.0,"so2":32.2,"mosquito_risk":3,"arthritis_risk":5,"migraine_risk":7,"frizz_risk":1,"updated_at":"2026-05-14T00:27:41.136745+05:30"},{"city":"Rajkot","state":"Gujarat","latitude":22.3039,"longitude":70.8022,"temp":29.8,"humidity":52,"rain":0.0,"pressure":989.7,"uv_index":7.75,"wind_gusts":50.8,"aqi":60,"pm10":18.6,"pm2_5":13.3,"no2":6.4,"co":175.0,"o3":72.0,"so2":6.1,"mosquito_risk":4,"arthritis_risk":5,"migraine_risk":7,"frizz_risk":1,"updated_at":"2026-05-14T00:27:41.136754+05:30"},{"city":"Thane","state":"Maharashtra","latitude":19.2183,"longitude":72.9781,"temp":29.8,"humidity":76,"rain":0.0,"pressure":1004.4,"uv_index":7.9,"wind_gusts":37.1,"aqi":74,"pm10":31.9,"pm2_5":17.2,"no2":7.6,"co":249.0,"o3":75.0,"so2":5.6,"mosquito_risk":7,"arthritis_risk":5,"migraine_risk":4,"frizz_risk":1,"updated_at":"2026-05-14T00:27:41.136762+05:30"},{"city":"Nagpur","state":"Maharashtra","latitude":21.1458,"longitude":79.0882,"temp":33.3,"humidity":37,"rain":0.0,"pressure":968.3,"uv_index":8.95,"wind_gusts":40.3,"aqi":100,"pm10":63.1,"pm2_5":37.6,"no2":21.1,"co":296.0,"o3":80.0,"so2":14.3,"mosquito_risk":0,"arthritis_risk":5,"migraine_risk":7,"frizz_risk":1,"updated_at":"2026-05-14T00:27:41.136770+05:30"},{"city":"Nashik","state":"Maharashtra","latitude":19.9975,"longitude":73.7898,"temp":26.0,"humidity":72,"rain":0.0,"pressure":942.0,"uv_index":8.25,"wind_gusts":42.5,"aqi":69,"pm10":31.0,"pm2_5":17.1,"no2":6.7,"co":248.0,"o3":67.0,"so2":2.1,"mosquito_risk":7,"arthritis_risk":5,"migraine_risk":7,"frizz_risk":1,"updated_at":"2026-05-14T00:27:41.136778+05:30"},{"city":"Aurangabad","state":"Maharashtra","latitude":19.8762,"longitude":75.3433,"temp":31.6,"humidity":47,"rain":0.0,"pressure":940.5,"uv_index":8.85,"wind_gusts":40.3,"aqi":89,"pm10":28.1,"pm2_5":19.7,"no2":6.7,"co":271.0,"o3":102.0,"so2":6.0,"mosquito_risk":0,"arthritis_risk":5,"migraine_risk":7,"frizz_risk":1,"updated_at":"2026-05-14T00:27:41.136786+05:30"},{"city":"Solapur","state":"Maharashtra","latitude":17.6599,"longitude":75.9064,"temp":28.2,"humidity":71,"rain":0.0,"pressure":953.4,"uv_index":9.1,"wind_gusts":37.4,"aqi":91,"pm10":66.6,"pm2_5":42.8,"no2":22.6,"co":538.0,"o3":77.0,"so2":7.5,"mosquito_risk":7,"arthritis_risk":5,"migraine_risk":7,"frizz_risk":1,"updated_at":"2026-05-14T00:27:41.136794+05:30"},{"city":"Kolhapur","state":"Maharashtra","latitude":16.705,"longitude":74.2433,"temp":25.2,"humidity":89,"rain":0.0,"pressure":944.8,"uv_index":8.9,"wind_gusts":50.0,"aqi":67,"pm10":34.3,"pm2_5":21.5,"no2":9.2,"co":215.0,"o3":68.0,"so2":4.2,"mosquito_risk":7,"arthritis_risk":5,"migraine_risk":7,"frizz_risk":1,"updated_at":"2026-05-14T00:27:41.136802+05:30"},{"city":"Goa","state":"Goa","latitude":15.2993,"longitude":74.124,"temp":27.6,"humidity":93,"rain":0.0,"pressure":994.7,"uv_index":8.9,"wind_gusts":28.1,"aqi":69,"pm10":60.5,"pm2_5":29.5,"no2":7.6,"co":234.0,"o3":59.0,"so2":2.1,"mosquito_risk":7,"arthritis_risk":5,"migraine_risk":7,"frizz_risk":1,"updated_at":"2026-05-14T00:27:41.136809+05:30"},{"city":"Jodhpur","state":"Rajasthan","latitude":26.2389,"longitude":73.0243,"temp":34.0,"humidity":25,"rain":0.0,"pressure":976.8,"uv_index":8.4,"wind_gusts":36.0,"aqi":104,"pm10":205.4,"pm2_5":47.4,"no2":10.7,"co":202.0,"o3":78.0,"so2":3.1,"mosquito_risk":0,"arthritis_risk":5,"migraine_risk":7,"frizz_risk":0,"updated_at":"2026-05-14T00:27:41.136817+05:30"},{"city":"Udaipur","state":"Rajasthan","latitude":24.5854,"longitude":73.7125,"temp":32.2,"humidity":27,"rain":0.0,"pressure":941.7,"uv_index":8.85,"wind_gusts":43.6,"aqi":69,"pm10":58.3,"pm2_5":27.3,"no2":6.1,"co":216.0,"o3":93.0,"so2":5.0,"mosquito_risk":0,"arthritis_risk":5,"migraine_risk":7,"frizz_risk":0,"updated_at":"2026-05-14T00:27:41.136825+05:30"},{"city":"Kota","state":"Rajasthan","latitude":25.2138,"longitude":75.8648,"temp":35.5,"humidity":22,"rain":0.0,"pressure":972.3,"uv_index":8.4,"wind_gusts":46.8,"aqi":70,"pm10":35.4,"pm2_5":21.3,"no2":8.4,"co":355.0,"o3":78.0,"so2":4.0,"mosquito_risk":0,"arthritis_risk":5,"migraine_risk":10,"frizz_risk":0,"updated_at":"2026-05-14T00:27:41.136833+05:30"},{"city":"Bikaner","state":"Rajasthan","latitude":28.0229,"longitude":73.3119,"temp":29.5,"humidity":59,"rain":0.0,"pressure":974.0,"uv_index":8.35,"wind_gusts":36.7,"aqi":107,"pm10":107.8,"pm2_5":41.8,"no2":5.7,"co":327.0,"o3":81.0,"so2":9.3,"mosquito_risk":4,"arthritis_risk":5,"migraine_risk":7,"frizz_risk":1,"updated_at":"2026-05-14T00:27:41.136840+05:30"},{"city":"Ajmer","state":"Rajasthan","latitude":26.4499,"longitude":74.6399,"temp":31.4,"humidity":30,"rain":0.0,"pressure":948.9,"uv_index":8.35,"wind_gusts":47.9,"aqi":72,"pm10":50.8,"pm2_5":22.9,"no2":7.0,"co":262.0,"o3":89.0,"so2":5.9,"mosquito_risk":0,"arthritis_risk":5,"migraine_risk":7,"frizz_risk":0,"updated_at":"2026-05-14T00:27:41.136848+05:30"},{"city":"Gwalior","state":"Madhya Pradesh","latitude":26.2183,"longitude":78.1828,"temp":33.0,"humidity":24,"rain":0.0,"pressure":976.6,"uv_index":8.25,"wind_gusts":38.5,"aqi":138,"pm10":170.4,"pm2_5":59.6,"no2":12.6,"co":363.0,"o3":75.0,"so2":9.0,"mosquito_risk":0,"arthritis_risk":5,"migraine_risk":7,"frizz_risk":0,"updated_at":"2026-05-14T00:27:41.136855+05:30"},{"city":"Indore","state":"Madhya Pradesh","latitude":22.7196,"longitude":75.8577,"temp":34.2,"humidity":24,"rain":0.0,"pressure":943.7,"uv_index":8.7,"wind_gusts":34.2,"aqi":83,"pm10":39.5,"pm2_5":29.8,"no2":15.7,"co":294.0,"o3":69.0,"so2":8.5,"mosquito_risk":0,"arthritis_risk":5,"migraine_risk":7,"frizz_risk":0,"updated_at":"2026-05-14T00:27:41.136862+05:30"},{"city":"Bhopal","state":"Madhya Pradesh","latitude":23.2599,"longitude":77.4126,"temp":33.5,"humidity":22,"rain":0.0,"pressure":948.1,"uv_index":8.75,"wind_gusts":43.2,"aqi":87,"pm10":32.0,"pm2_5":21.7,"no2":8.3,"co":237.0,"o3":73.0,"so2":5.4,"mosquito_risk":0,"arthritis_risk":5,"migraine_risk":7,"frizz_risk":0,"updated_at":"2026-05-14T00:27:41.136869+05:30"},{"city":"Jabalpur","state":"Madhya Pradesh","latitude":23.1815,"longitude":79.9864,"temp":31.2,"humidity":29,"rain":0.0,"pressure":955.8,"uv_index":8.9,"wind_gusts":37.1,"aqi":94,"pm10":83.4,"pm2_5":39.3,"no2":30.5,"co":262.0,"o3":53.0,"so2":8.2,"mosquito_risk":0,"arthritis_risk":5,"migraine_risk":7,"frizz_risk":0,"updated_at":"2026-05-14T00:27:41.136876+05:30"},{"city":"Ujjain","state":"Madhya Pradesh","latitude":23.1765,"longitude":75.7885,"temp":33.7,"humidity":24,"rain":0.0,"pressure":948.8,"uv_index":8.65,"wind_gusts":36.7,"aqi":73,"pm10":26.8,"pm2_5":19.6,"no2":4.2,"co":294.0,"o3":101.0,"so2":5.6,"mosquito_risk":0,"arthritis_risk":5,"migraine_risk":7,"frizz_risk":0,"updated_at":"2026-05-14T00:27:41.136884+05:30"},{"city":"Visakhapatnam","state":"Andhra Pradesh","latitude":17.6868,"longitude":83.2185,"temp":29.0,"humidity":80,"rain":0.0,"pressure":1000.3,"uv_index":9.15,"wind_gusts":40.0,"aqi":75,"pm10":21.7,"pm2_5":19.3,"no2":20.6,"co":1484.0,"o3":24.0,"so2":76.4,"mosquito_risk":7,"arthritis_risk":5,"migraine_risk":4,"frizz_risk":1,"updated_at":"2026-05-14T00:27:41.136891+05:30"},{"city":"Vijayawada","state":"Andhra Pradesh","latitude":16.5062,"longitude":80.648,"temp":29.4,"humidity":77,"rain":0.0,"pressure":998.9,"uv_index":9.2,"wind_gusts":36.0,"aqi":53,"pm10":11.6,"pm2_5":9.7,"no2":9.0,"co":143.0,"o3":31.0,"so2":6.1,"mosquito_risk":7,"arthritis_risk":5,"migraine_risk":7,"frizz_risk":1,"updated_at":"2026-05-14T00:27:41.136898+05:30"},{"city":"Guntur","state":"Andhra Pradesh","latitude":16.3067,"longitude":80.4365,"temp":29.1,"humidity":78,"rain":0.0,"pressure":999.9,"uv_index":9.25,"wind_gusts":30.6,"aqi":53,"pm10":11.0,"pm2_5":9.0,"no2":8.1,"co":152.0,"o3":31.0,"so2":5.8,"mosquito_risk":7,"arthritis_risk":5,"migraine_risk":7,"frizz_risk":1,"updated_at":"2026-05-14T00:27:41.136904+05:30"},{"city":"Nellore","state":"Andhra Pradesh","latitude":14.4426,"longitude":79.9865,"temp":28.3,"humidity":86,"rain":0.0,"pressure":1001.7,"uv_index":9.15,"wind_gusts":38.5,"aqi":26,"pm10":9.7,"pm2_5":6.5,"no2":4.3,"co":207.0,"o3":39.0,"so2":2.1,"mosquito_risk":7,"arthritis_risk":5,"migraine_risk":4,"frizz_risk":1,"updated_at":"2026-05-14T00:27:41.136911+05:30"},{"city":"Kurnool","state":"Andhra Pradesh","latitude":15.8281,"longitude":78.0373,"temp":33.0,"humidity":34,"rain":0.0,"pressure":972.5,"uv_index":9.2,"wind_gusts":33.8,"aqi":55,"pm10":38.8,"pm2_5":25.8,"no2":15.6,"co":182.0,"o3":65.0,"so2":4.2,"mosquito_risk":0,"arthritis_risk":5,"migraine_risk":7,"frizz_risk":0,"updated_at":"2026-05-14T00:27:41.136918+05:30"},{"city":"Kakinada","state":"Andhra Pradesh","latitude":16.9891,"longitude":82.2475,"temp":28.9,"humidity":81,"rain":0.0,"pressure":1003.8,"uv_index":9.15,"wind_gusts":37.8,"aqi":32,"pm10":7.1,"pm2_5":4.3,"no2":1.4,"co":172.0,"o3":48.0,"so2":0.9,"mosquito_risk":7,"arthritis_risk":5,"migraine_risk":4,"frizz_risk":1,"updated_at":"2026-05-14T00:27:41.136923+05:30"},{"city":"Tirupati","state":"Andhra Pradesh","latitude":13.6288,"longitude":79.4192,"temp":27.6,"humidity":72,"rain":0.0,"pressure":987.4,"uv_index":9.25,"wind_gusts":36.4,"aqi":51,"pm10":18.6,"pm2_5":16.2,"no2":24.3,"co":204.0,"o3":11.0,"so2":3.3,"mosquito_risk":7,"arthritis_risk":5,"migraine_risk":7,"frizz_risk":1,"updated_at":"2026-05-14T00:27:41.136929+05:30"},{"city":"Warangal","state":"Telangana","latitude":17.9689,"longitude":79.5941,"temp":31.1,"humidity":52,"rain":0.0,"pressure":974.5,"uv_index":9.2,"wind_gusts":41.4,"aqi":68,"pm10":41.3,"pm2_5":32.4,"no2":13.0,"co":369.0,"o3":90.0,"so2":9.0,"mosquito_risk":0,"arthritis_risk":5,"migraine_risk":7,"frizz_risk":1,"updated_at":"2026-05-14T00:27:41.136935+05:30"},{"city":"Nizamabad","state":"Telangana","latitude":18.6725,"longitude":78.0941,"temp":31.4,"humidity":46,"rain":0.0,"pressure":961.5,"uv_index":9.15,"wind_gusts":33.8,"aqi":80,"pm10":48.8,"pm2_5":33.8,"no2":14.3,"co":312.0,"o3":82.0,"so2":6.2,"mosquito_risk":0,"arthritis_risk":5,"migraine_risk":7,"frizz_risk":1,"updated_at":"2026-05-14T00:27:41.136940+05:30"},{"city":"Mysore","state":"Karnataka","latitude":12.2958,"longitude":76.6396,"temp":24.2,"humidity":83,"rain":0.0,"pressure":925.1,"uv_index":9.25,"wind_gusts":34.9,"aqi":83,"pm10":31.5,"pm2_5":26.3,"no2":23.8,"co":328.0,"o3":67.0,"so2":4.5,"mosquito_risk":3,"arthritis_risk":5,"migraine_risk":7,"frizz_risk":1,"updated_at":"2026-05-14T00:27:41.136946+05:30"},{"city":"Mangalore","state":"Karnataka","latitude":12.9141,"longitude":74.856,"temp":29.0,"humidity":82,"rain":0.0,"pressure":1002.9,"uv_index":7.65,"wind_gusts":37.4,"aqi":77,"pm10":32.6,"pm2_5":24.1,"no2":18.8,"co":475.0,"o3":38.0,"so2":4.8,"mosquito_risk":7,"arthritis_risk":5,"migraine_risk":4,"frizz_risk":1,"updated_at":"2026-05-14T00:27:41.136952+05:30"},{"city":"Hubli-Dharwad","state":"Karnataka","latitude":15.3647,"longitude":75.124,"temp":24.8,"humidity":92,"rain":0.0,"pressure":937.9,"uv_index":8.75,"wind_gusts":42.5,"aqi":65,"pm10":21.1,"pm2_5":14.7,"no2":10.9,"co":198.0,"o3":56.0,"so2":2.6,"mosquito_risk":3,"arthritis_risk":5,"migraine_risk":7,"frizz_risk":1,"updated_at":"2026-05-14T00:27:41.136958+05:30"},{"city":"Belgaum","state":"Karnataka","latitude":15.8497,"longitude":74.4977,"temp":23.8,"humidity":93,"rain":0.0,"pressure":922.7,"uv_index":9.15,"wind_gusts":45.0,"aqi":60,"pm10":33.6,"pm2_5":21.0,"no2":14.5,"co":204.0,"o3":46.0,"so2":2.7,"mosquito_risk":3,"arthritis_risk":5,"migraine_risk":7,"frizz_risk":1,"updated_at":"2026-05-14T00:27:44.394575+05:30"},{"city":"Coimbatore","state":"Tamil Nadu","latitude":11.0168,"longitude":76.9558,"temp":25.2,"humidity":86,"rain":0.0,"pressure":957.5,"uv_index":9.2,"wind_gusts":39.6,"aqi":65,"pm10":21.5,"pm2_5":17.7,"no2":9.8,"co":291.0,"o3":76.0,"so2":4.2,"mosquito_risk":7,"arthritis_risk":5,"migraine_risk":7,"frizz_risk":1,"updated_at":"2026-05-14T00:27:44.394605+05:30"},{"city":"Madurai","state":"Tamil Nadu","latitude":9.9252,"longitude":78.1198,"temp":28.2,"humidity":81,"rain":0.0,"pressure":988.0,"uv_index":8.65,"wind_gusts":21.6,"aqi":76,"pm10":27.9,"pm2_5":25.8,"no2":29.1,"co":331.0,"o3":51.0,"so2":9.6,"mosquito_risk":7,"arthritis_risk":5,"migraine_risk":7,"frizz_risk":1,"updated_at":"2026-05-14T00:27:44.394614+05:30"},{"city":"Trichy","state":"Tamil Nadu","latitude":10.7905,"longitude":78.7047,"temp":28.0,"humidity":82,"rain":0.0,"pressure":995.1,"uv_index":9.0,"wind_gusts":32.8,"aqi":74,"pm10":26.5,"pm2_5":25.4,"no2":18.2,"co":261.0,"o3":63.0,"so2":8.7,"mosquito_risk":7,"arthritis_risk":5,"migraine_risk":7,"frizz_risk":1,"updated_at":"2026-05-14T00:27:44.394621+05:30"},{"city":"Salem","state":"Tamil Nadu","latitude":11.6643,"longitude":78.146,"temp":28.7,"humidity":64,"rain":0.0,"pressure":973.2,"uv_index":9.2,"wind_gusts":28.8,"aqi":87,"pm10":42.8,"pm2_5":37.5,"no2":34.6,"co":325.0,"o3":62.0,"so2":14.1,"mosquito_risk":7,"arthritis_risk":5,"migraine_risk":7,"frizz_risk":1,"updated_at":"2026-05-14T00:27:44.394629+05:30"},{"city":"Tirunelveli","state":"Tamil Nadu","latitude":8.7139,"longitude":77.7567,"temp":29.2,"humidity":66,"rain":0.0,"pressure":998.1,"uv_index":7.05,"wind_gusts":20.9,"aqi":58,"pm10":19.2,"pm2_5":15.4,"no2":8.3,"co":411.0,"o3":66.0,"so2":2.8,"mosquito_risk":7,"arthritis_risk":5,"migraine_risk":7,"frizz_risk":1,"updated_at":"2026-05-14T00:27:44.394636+05:30"},{"city":"Vellore","state":"Tamil Nadu","latitude":12.9165,"longitude":79.1325,"temp":27.8,"humidity":78,"rain":0.0,"pressure":980.8,"uv_index":9.15,"wind_gusts":27.7,"aqi":67,"pm10":29.4,"pm2_5":26.5,"no2":25.9,"co":240.0,"o3":31.0,"so2":11.1,"mosquito_risk":7,"arthritis_risk":5,"migraine_risk":7,"frizz_risk":1,"updated_at":"2026-05-14T00:27:44.394643+05:30"},{"city":"Erode","state":"Tamil Nadu","latitude":11.341,"longitude":77.7172,"temp":28.0,"humidity":74,"rain":0.0,"pressure":984.8,"uv_index":9.15,"wind_gusts":34.2,"aqi":91,"pm10":36.6,"pm2_5":31.0,"no2":36.3,"co":342.0,"o3":51.0,"so2":5.5,"mosquito_risk":7,"arthritis_risk":5,"migraine_risk":7,"frizz_risk":1,"updated_at":"2026-05-14T00:27:44.394649+05:30"},{"city":"Kochi","state":"Kerala","latitude":9.9312,"longitude":76.2673,"temp":27.0,"humidity":94,"rain":0.0,"pressure":1005.0,"uv_index":8.6,"wind_gusts":32.8,"aqi":77,"pm10":34.7,"pm2_5":31.4,"no2":29.4,"co":369.0,"o3":22.0,"so2":7.1,"mosquito_risk":7,"arthritis_risk":5,"migraine_risk":4,"frizz_risk":1,"updated_at":"2026-05-14T00:27:44.394655+05:30"},{"city":"Thiruvananthapuram","state":"Kerala","latitude":8.5241,"longitude":76.9366,"temp":26.7,"humidity":90,"rain":0.0,"pressure":1004.2,"uv_index":7.1,"wind_gusts":36.0,"aqi":54,"pm10":16.5,"pm2_5":9.8,"no2":2.8,"co":340.0,"o3":92.0,"so2":1.5,"mosquito_risk":7,"arthritis_risk":5,"migraine_risk":4,"frizz_risk":1,"updated_at":"2026-05-14T00:27:44.394661+05:30"},{"city":"Kozhikode","state":"Kerala","latitude":11.2588,"longitude":75.7804,"temp":26.3,"humidity":94,"rain":0.1,"pressure":1004.2,"uv_index":8.55,"wind_gusts":39.6,"aqi":63,"pm10":35.4,"pm2_5":20.9,"no2":4.7,"co":204.0,"o3":95.0,"so2":2.9,"mosquito_risk":10,"arthritis_risk":5,"migraine_risk":4,"frizz_risk":1,"updated_at":"2026-05-14T00:27:44.394667+05:30"},{"city":"Thrissur","state":"Kerala","latitude":10.5276,"longitude":76.2144,"temp":25.9,"humidity":97,"rain":0.0,"pressure":1003.6,"uv_index":8.7,"wind_gusts":35.3,"aqi":71,"pm10":36.2,"pm2_5":31.9,"no2":24.5,"co":479.0,"o3":30.0,"so2":6.0,"mosquito_risk":7,"arthritis_risk":5,"migraine_risk":4,"frizz_risk":1,"updated_at":"2026-05-14T00:27:44.394674+05:30"},{"city":"Kannur","state":"Kerala","latitude":11.8745,"longitude":75.3704,"temp":27.9,"humidity":90,"rain":0.0,"pressure":1003.1,"uv_index":8.9,"wind_gusts":36.0,"aqi":78,"pm10":36.7,"pm2_5":29.7,"no2":22.6,"co":312.0,"o3":42.0,"so2":4.2,"mosquito_risk":7,"arthritis_risk":5,"migraine_risk":4,"frizz_risk":1,"updated_at":"2026-05-14T00:27:44.394680+05:30"},{"city":"Patna","state":"Bihar","latitude":25.5941,"longitude":85.1376,"temp":25.4,"humidity":86,"rain":0.0,"pressure":996.1,"uv_index":8.75,"wind_gusts":55.1,"aqi":153,"pm10":52.4,"pm2_5":48.4,"no2":14.8,"co":413.0,"o3":99.0,"so2":17.2,"mosquito_risk":7,"arthritis_risk":5,"migraine_risk":7,"frizz_risk":1,"updated_at":"2026-05-14T00:27:44.394685+05:30"},{"city":"Gaya","state":"Bihar","latitude":24.7914,"longitude":85.0002,"temp":28.0,"humidity":73,"rain":0.0,"pressure":988.7,"uv_index":8.85,"wind_gusts":28.1,"aqi":154,"pm10":65.4,"pm2_5":59.6,"no2":12.4,"co":408.0,"o3":119.0,"so2":17.6,"mosquito_risk":7,"arthritis_risk":5,"migraine_risk":7,"frizz_risk":1,"updated_at":"2026-05-14T00:27:44.394691+05:30"},{"city":"Muzaffarpur","state":"Bihar","latitude":26.1209,"longitude":85.3647,"temp":24.4,"humidity":90,"rain":0.0,"pressure":996.8,"uv_index":8.75,"wind_gusts":43.9,"aqi":151,"pm10":41.1,"pm2_5":38.8,"no2":15.0,"co":407.0,"o3":90.0,"so2":13.1,"mosquito_risk":3,"arthritis_risk":5,"migraine_risk":7,"frizz_risk":1,"updated_at":"2026-05-14T00:27:44.394697+05:30"},{"city":"Bhagalpur","state":"Bihar","latitude":25.2425,"longitude":87.0117,"temp":24.6,"humidity":93,"rain":0.1,"pressure":998.1,"uv_index":8.75,"wind_gusts":38.2,"aqi":130,"pm10":51.5,"pm2_5":43.4,"no2":13.0,"co":349.0,"o3":98.0,"so2":17.4,"mosquito_risk":6,"arthritis_risk":5,"migraine_risk":7,"frizz_risk":1,"updated_at":"2026-05-14T00:27:44.394703+05:30"},{"city":"Ranchi","state":"Jharkhand","latitude":23.3441,"longitude":85.3096,"temp":24.4,"humidity":74,"rain":0.0,"pressure":933.1,"uv_index":9.25,"wind_gusts":35.3,"aqi":91,"pm10":43.3,"pm2_5":34.2,"no2":10.9,"co":302.0,"o3":117.0,"so2":24.6,"mosquito_risk":3,"arthritis_risk":5,"migraine_risk":7,"frizz_risk":1,"updated_at":"2026-05-14T00:27:44.394709+05:30"},{"city":"Jamshedpur","state":"Jharkhand","latitude":22.8046,"longitude":86.2029,"temp":27.3,"humidity":83,"rain":0.0,"pressure":986.4,"uv_index":9.15,"wind_gusts":29.5,"aqi":91,"pm10":34.5,"pm2_5":27.7,"no2":17.7,"co":361.0,"o3":77.0,"so2":20.8,"mosquito_risk":7,"arthritis_risk":5,"migraine_risk":7,"frizz_risk":1,"updated_at":"2026-05-14T00:27:44.394714+05:30"},{"city":"Dhanbad","state":"Jharkhand","latitude":23.7957,"longitude":86.4304,"temp":27.0,"humidity":87,"rain":0.0,"pressure":975.6,"uv_index":9.1,"wind_gusts":27.7,"aqi":146,"pm10":63.3,"pm2_5":53.4,"no2":41.6,"co":197.0,"o3":72.0,"so2":93.2,"mosquito_risk":7,"arthritis_risk":5,"migraine_risk":7,"frizz_risk":1,"updated_at":"2026-05-14T00:27:44.394720+05:30"},{"city":"Bokaro","state":"Jharkhand","latitude":23.6693,"longitude":86.1511,"temp":27.0,"humidity":82,"rain":0.0,"pressure":979.1,"uv_index":9.1,"wind_gusts":29.9,"aqi":148,"pm10":51.9,"pm2_5":42.3,"no2":23.7,"co":1787.0,"o3":100.0,"so2":58.6,"mosquito_risk":7,"arthritis_risk":5,"migraine_risk":7,"frizz_risk":1,"updated_at":"2026-05-14T00:27:44.394726+05:30"},{"city":"Bhubaneswar","state":"Odisha","latitude":20.2961,"longitude":85.8245,"temp":28.2,"humidity":83,"rain":0.0,"pressure":999.2,"uv_index":9.0,"wind_gusts":41.0,"aqi":37,"pm10":8.3,"pm2_5":7.2,"no2":6.8,"co":185.0,"o3":33.0,"so2":2.7,"mosquito_risk":7,"arthritis_risk":5,"migraine_risk":7,"frizz_risk":1,"updated_at":"2026-05-14T00:27:44.394732+05:30"},{"city":"Cuttack","state":"Odisha","latitude":20.4625,"longitude":85.8828,"temp":28.3,"humidity":83,"rain":0.0,"pressure":1001.0,"uv_index":9.05,"wind_gusts":39.6,"aqi":37,"pm10":8.3,"pm2_5":7.2,"no2":6.8,"co":202.0,"o3":33.0,"so2":2.7,"mosquito_risk":7,"arthritis_risk":5,"migraine_risk":4,"frizz_risk":1,"updated_at":"2026-05-14T00:27:44.394738+05:30"},{"city":"Rourkela","state":"Odisha","latitude":22.2604,"longitude":84.8536,"temp":28.5,"humidity":69,"rain":0.0,"pressure":980.3,"uv_index":9.05,"wind_gusts":41.4,"aqi":81,"pm10":37.7,"pm2_5":29.6,"no2":13.1,"co":230.0,"o3":104.0,"so2":28.0,"mosquito_risk":7,"arthritis_risk":5,"migraine_risk":7,"frizz_risk":1,"updated_at":"2026-05-14T00:27:44.394743+05:30"},{"city":"Raipur","state":"Chhattisgarh","latitude":21.2514,"longitude":81.6296,"temp":31.9,"humidity":47,"rain":0.0,"pressure":969.8,"uv_index":9.05,"wind_gusts":38.5,"aqi":107,"pm10":52.3,"pm2_5":40.2,"no2":26.5,"co":389.0,"o3":81.0,"so2":38.7,"mosquito_risk":0,"arthritis_risk":5,"migraine_risk":7,"frizz_risk":1,"updated_at":"2026-05-14T00:27:44.394750+05:30"},{"city":"Bhilai","state":"Chhattisgarh","latitude":21.1938,"longitude":81.3509,"temp":29.4,"humidity":63,"rain":0.1,"pressure":970.0,"uv_index":9.05,"wind_gusts":42.8,"aqi":100,"pm10":55.1,"pm2_5":41.7,"no2":29.9,"co":481.0,"o3":79.0,"so2":45.0,"mosquito_risk":10,"arthritis_risk":5,"migraine_risk":7,"frizz_risk":1,"updated_at":"2026-05-14T00:27:44.394755+05:30"},{"city":"Guwahati","state":"Assam","latitude":26.1158,"longitude":91.7086,"temp":22.5,"humidity":97,"rain":0.0,"pressure":999.6,"uv_index":7.4,"wind_gusts":22.3,"aqi":118,"pm10":10.6,"pm2_5":9.7,"no2":10.4,"co":448.0,"o3":62.0,"so2":1.9,"mosquito_risk":3,"arthritis_risk":5,"migraine_risk":7,"frizz_risk":1,"updated_at":"2026-05-14T00:27:44.394761+05:30"},{"city":"Agartala","state":"Tripura","latitude":23.8315,"longitude":91.2868,"temp":24.7,"humidity":93,"rain":0.0,"pressure":1003.6,"uv_index":8.75,"wind_gusts":22.7,"aqi":79,"pm10":22.2,"pm2_5":18.7,"no2":18.1,"co":295.0,"o3":31.0,"so2":2.4,"mosquito_risk":3,"arthritis_risk":5,"migraine_risk":4,"frizz_risk":1,"updated_at":"2026-05-14T00:27:44.394767+05:30"},{"city":"Shillong","state":"Meghalaya","latitude":25.5788,"longitude":91.8933,"temp":15.2,"humidity":97,"rain":0.0,"pressure":853.4,"uv_index":8.05,"wind_gusts":23.4,"aqi":66,"pm10":8.0,"pm2_5":6.0,"no2":5.3,"co":308.0,"o3":94.0,"so2":2.0,"mosquito_risk":3,"arthritis_risk":10,"migraine_risk":7,"frizz_risk":0,"updated_at":"2026-05-14T00:27:44.394773+05:30"},{"city":"Imphal","state":"Manipur","latitude":24.817,"longitude":93.9368,"temp":20.8,"humidity":98,"rain":0.0,"pressure":920.5,"uv_index":9.3,"wind_gusts":29.5,"aqi":82,"pm10":29.2,"pm2_5":27.8,"no2":18.5,"co":517.0,"o3":34.0,"so2":2.3,"mosquito_risk":3,"arthritis_risk":5,"migraine_risk":7,"frizz_risk":1,"updated_at":"2026-05-14T00:27:44.394778+05:30"},{"city":"Aizawl","state":"Mizoram","latitude":23.7271,"longitude":92.7176,"temp":16.9,"humidity":99,"rain":0.0,"pressure":889.1,"uv_index":9.1,"wind_gusts":24.1,"aqi":62,"pm10":14.8,"pm2_5":11.9,"no2":7.7,"co":224.0,"o3":57.0,"so2":2.8,"mosquito_risk":3,"arthritis_risk":10,"migraine_risk":7,"frizz_risk":1,"updated_at":"2026-05-14T00:27:44.394784+05:30"},{"city":"Kohima","state":"Nagaland","latitude":25.6701,"longitude":94.1077,"temp":15.3,"humidity":97,"rain":0.0,"pressure":851.6,"uv_index":8.85,"wind_gusts":28.8,"aqi":63,"pm10":15.6,"pm2_5":14.6,"no2":16.5,"co":321.0,"o3":37.0,"so2":1.1,"mosquito_risk":3,"arthritis_risk":10,"migraine_risk":7,"frizz_risk":0,"updated_at":"2026-05-14T00:27:44.394789+05:30"},{"city":"Gangtok","state":"Sikkim","latitude":27.3314,"longitude":88.6138,"temp":13.3,"humidity":94,"rain":0.1,"pressure":833.6,"uv_index":8.95,"wind_gusts":35.3,"aqi":80,"pm10":15.7,"pm2_5":14.8,"no2":11.6,"co":556.0,"o3":112.0,"so2":2.5,"mosquito_risk":6,"arthritis_risk":10,"migraine_risk":7,"frizz_risk":0,"updated_at":"2026-05-14T00:27:44.394795+05:30"},{"city":"Siliguri","state":"West Bengal","latitude":26.7271,"longitude":88.3953,"temp":22.2,"humidity":90,"rain":0.0,"pressure":990.7,"uv_index":8.65,"wind_gusts":33.8,"aqi":106,"pm10":33.9,"pm2_5":31.7,"no2":13.8,"co":365.0,"o3":107.0,"so2":4.4,"mosquito_risk":3,"arthritis_risk":5,"migraine_risk":7,"frizz_risk":1,"updated_at":"2026-05-14T00:27:47.662285+05:30"},{"city":"Durgapur","state":"West Bengal","latitude":23.5204,"longitude":87.3119,"temp":27.4,"humidity":87,"rain":0.0,"pressure":990.8,"uv_index":9.0,"wind_gusts":34.6,"aqi":99,"pm10":21.4,"pm2_5":19.2,"no2":21.0,"co":209.0,"o3":31.0,"so2":28.0,"mosquito_risk":7,"arthritis_risk":5,"migraine_risk":7,"frizz_risk":1,"updated_at":"2026-05-14T00:27:47.662315+05:30"},{"city":"Asansol","state":"West Bengal","latitude":23.6739,"longitude":86.9524,"temp":27.5,"humidity":84,"rain":0.0,"pressure":989.2,"uv_index":9.05,"wind_gusts":33.1,"aqi":105,"pm10":36.2,"pm2_5":30.9,"no2":26.7,"co":371.0,"o3":54.0,"so2":39.9,"mosquito_risk":7,"arthritis_risk":5,"migraine_risk":7,"frizz_risk":1,"updated_at":"2026-05-14T00:27:47.662324+05:30"},{"city":"Pondicherry","state":"Puducherry","latitude":11.9139,"longitude":79.8145,"temp":28.4,"humidity":88,"rain":0.0,"pressure":1003.7,"uv_index":9.0,"wind_gusts":32.4,"aqi":43,"pm10":8.6,"pm2_5":5.4,"no2":2.8,"co":203.0,"o3":42.0,"so2":0.9,"mosquito_risk":7,"arthritis_risk":5,"migraine_risk":4,"frizz_risk":1,"updated_at":"2026-05-14T00:27:47.662331+05:30"},{"city":"Port Blair","state":"Andaman and Nicobar Islands","latitude":11.6234,"longitude":92.7265,"temp":25.2,"humidity":97,"rain":0.1,"pressure":1003.7,"uv_index":3.1,"wind_gusts":35.6,"aqi":19,"pm10":6.7,"pm2_5":4.2,"no2":0.4,"co":108.0,"o3":42.0,"so2":0.2,"mosquito_risk":10,"arthritis_risk":5,"migraine_risk":0,"frizz_risk":1,"updated_at":"2026-05-14T00:27:47.662338+05:30"},{"city":"Haridwar","state":"Uttarakhand","latitude":29.9457,"longitude":78.1642,"temp":24.1,"humidity":76,"rain":0.0,"pressure":967.6,"uv_index":7.5,"wind_gusts":29.5,"aqi":153,"pm10":90.8,"pm2_5":63.1,"no2":21.9,"co":446.0,"o3":85.0,"so2":14.3,"mosquito_risk":3,"arthritis_risk":5,"migraine_risk":7,"frizz_risk":1,"updated_at":"2026-05-14T00:27:47.662345+05:30"},{"city":"Rishikesh","state":"Uttarakhand","latitude":30.0869,"longitude":78.2676,"temp":20.9,"humidity":88,"rain":0.0,"pressure":960.1,"uv_index":7.6,"wind_gusts":23.8,"aqi":134,"pm10":79.9,"pm2_5":51.1,"no2":16.9,"co":464.0,"o3":98.0,"so2":9.6,"mosquito_risk":3,"arthritis_risk":5,"migraine_risk":7,"frizz_risk":1,"updated_at":"2026-05-14T00:27:47.662393+05:30"},{"city":"Nainital","state":"Uttarakhand","latitude":29.3919,"longitude":79.4542,"temp":13.2,"humidity":99,"rain":0.0,"pressure":800.6,"uv_index":8.45,"wind_gusts":45.0,"aqi":137,"pm10":134.1,"pm2_5":60.1,"no2":17.8,"co":323.0,"o3":93.0,"so2":11.2,"mosquito_risk":3,"arthritis_risk":10,"migraine_risk":7,"frizz_risk":0,"updated_at":"2026-05-14T00:27:47.662405+05:30"},{"city":"Mussoorie","state":"Uttarakhand","latitude":30.4599,"longitude":78.0664,"temp":15.4,"humidity":61,"rain":0.0,"pressure":798.6,"uv_index":8.0,"wind_gusts":52.2,"aqi":122,"pm10":84.8,"pm2_5":57.4,"no2":36.2,"co":361.0,"o3":76.0,"so2":12.4,"mosquito_risk":3,"arthritis_risk":5,"migraine_risk":7,"frizz_risk":0,"updated_at":"2026-05-14T00:27:47.662412+05:30"},{"city":"Dharamshala","state":"Himachal Pradesh","latitude":32.219,"longitude":76.3234,"temp":20.6,"humidity":39,"rain":0.0,"pressure":864.6,"uv_index":8.35,"wind_gusts":45.0,"aqi":46,"pm10":18.7,"pm2_5":14.8,"no2":16.2,"co":212.0,"o3":40.0,"so2":0.5,"mosquito_risk":0,"arthritis_risk":5,"migraine_risk":7,"frizz_risk":0,"updated_at":"2026-05-14T00:27:47.662418+05:30"},{"city":"Dalhousie","state":"Himachal Pradesh","latitude":32.5387,"longitude":75.971,"temp":11.4,"humidity":69,"rain":0.0,"pressure":798.0,"uv_index":8.6,"wind_gusts":33.1,"aqi":67,"pm10":38.1,"pm2_5":29.2,"no2":51.3,"co":557.0,"o3":22.0,"so2":2.6,"mosquito_risk":3,"arthritis_risk":5,"migraine_risk":7,"frizz_risk":0,"updated_at":"2026-05-14T00:27:47.662426+05:30"},{"city":"Patiala","state":"Punjab","latitude":30.3398,"longitude":76.3869,"temp":27.8,"humidity":47,"rain":0.0,"pressure":971.8,"uv_index":7.6,"wind_gusts":38.2,"aqi":183,"pm10":170.4,"pm2_5":99.7,"no2":40.3,"co":499.0,"o3":45.0,"so2":16.8,"mosquito_risk":4,"arthritis_risk":5,"migraine_risk":7,"frizz_risk":0,"updated_at":"2026-05-14T00:27:47.662433+05:30"},{"city":"Bhatinda","state":"Punjab","latitude":30.211,"longitude":74.9455,"temp":29.2,"humidity":38,"rain":0.0,"pressure":977.5,"uv_index":8.25,"wind_gusts":43.6,"aqi":168,"pm10":189.5,"pm2_5":88.7,"no2":23.0,"co":517.0,"o3":54.0,"so2":10.5,"mosquito_risk":4,"arthritis_risk":5,"migraine_risk":7,"frizz_risk":0,"updated_at":"2026-05-14T00:27:47.662440+05:30"},{"city":"Rohtak","state":"Haryana","latitude":28.8955,"longitude":76.6066,"temp":27.9,"humidity":71,"rain":0.0,"pressure":974.8,"uv_index":7.7,"wind_gusts":31.3,"aqi":381,"pm10":342.7,"pm2_5":115.5,"no2":29.3,"co":655.0,"o3":96.0,"so2":29.3,"mosquito_risk":7,"arthritis_risk":5,"migraine_risk":7,"frizz_risk":1,"updated_at":"2026-05-14T00:27:47.662446+05:30"},{"city":"Panipat","state":"Haryana","latitude":29.3909,"longitude":76.9635,"temp":28.1,"humidity":68,"rain":0.0,"pressure":973.8,"uv_index":7.55,"wind_gusts":34.2,"aqi":553,"pm10":491.7,"pm2_5":148.5,"no2":27.9,"co":794.0,"o3":90.0,"so2":24.9,"mosquito_risk":7,"arthritis_risk":5,"migraine_risk":7,"frizz_risk":1,"updated_at":"2026-05-14T00:27:47.662453+05:30"},{"city":"Mathura","state":"Uttar Pradesh","latitude":27.4924,"longitude":77.6737,"temp":28.4,"humidity":63,"rain":0.0,"pressure":980.1,"uv_index":7.95,"wind_gusts":28.8,"aqi":492,"pm10":599.8,"pm2_5":134.1,"no2":15.7,"co":521.0,"o3":95.0,"so2":14.1,"mosquito_risk":7,"arthritis_risk":5,"migraine_risk":7,"frizz_risk":1,"updated_at":"2026-05-14T00:27:47.662460+05:30"},{"city":"Vrindavan","state":"Uttar Pradesh","latitude":27.5823,"longitude":77.7027,"temp":28.4,"humidity":63,"rain":0.0,"pressure":980.4,"uv_index":7.95,"wind_gusts":29.2,"aqi":492,"pm10":599.8,"pm2_5":134.1,"no2":15.7,"co":526.0,"o3":95.0,"so2":14.1,"mosquito_risk":7,"arthritis_risk":5,"migraine_risk":7,"frizz_risk":1,"updated_at":"2026-05-14T00:27:47.662466+05:30"},{"city":"Ayodhya","state":"Uttar Pradesh","latitude":26.7922,"longitude":82.1998,"temp":27.0,"humidity":64,"rain":0.0,"pressure":990.2,"uv_index":8.3,"wind_gusts":28.8,"aqi":152,"pm10":156.5,"pm2_5":81.5,"no2":32.7,"co":468.0,"o3":65.0,"so2":14.0,"mosquito_risk":7,"arthritis_risk":5,"migraine_risk":7,"frizz_risk":1,"updated_at":"2026-05-14T00:27:47.662472+05:30"},{"city":"Ratlam","state":"Madhya Pradesh","latitude":23.3315,"longitude":75.0367,"temp":32.2,"humidity":28,"rain":0.0,"pressure":949.5,"uv_index":8.55,"wind_gusts":40.0,"aqi":72,"pm10":28.2,"pm2_5":19.0,"no2":3.1,"co":212.0,"o3":110.0,"so2":5.7,"mosquito_risk":0,"arthritis_risk":5,"migraine_risk":7,"frizz_risk":0,"updated_at":"2026-05-14T00:27:47.662478+05:30"},{"city":"Sagar","state":"Madhya Pradesh","latitude":23.8388,"longitude":78.7378,"temp":31.6,"humidity":28,"rain":0.0,"pressure":945.1,"uv_index":8.8,"wind_gusts":39.6,"aqi":84,"pm10":53.8,"pm2_5":26.5,"no2":21.0,"co":228.0,"o3":45.0,"so2":4.1,"mosquito_risk":0,"arthritis_risk":5,"migraine_risk":7,"frizz_risk":0,"updated_at":"2026-05-14T00:27:47.662484+05:30"},{"city":"Satna","state":"Madhya Pradesh","latitude":24.6005,"longitude":80.8322,"temp":29.9,"humidity":36,"rain":0.0,"pressure":965.4,"uv_index":8.75,"wind_gusts":46.8,"aqi":109,"pm10":76.4,"pm2_5":42.8,"no2":25.2,"co":341.0,"o3":82.0,"so2":8.3,"mosquito_risk":4,"arthritis_risk":5,"migraine_risk":7,"frizz_risk":0,"updated_at":"2026-05-14T00:27:47.662490+05:30"},{"city":"Akola","state":"Maharashtra","latitude":20.7002,"longitude":77.0082,"temp":36.3,"humidity":29,"rain":0.0,"pressure":969.9,"uv_index":8.95,"wind_gusts":37.4,"aqi":94,"pm10":68.0,"pm2_5":43.9,"no2":29.8,"co":313.0,"o3":60.0,"so2":9.8,"mosquito_risk":0,"arthritis_risk":5,"migraine_risk":10,"frizz_risk":0,"updated_at":"2026-05-14T00:27:47.662497+05:30"},{"city":"Amravati","state":"Maharashtra","latitude":20.9374,"longitude":77.7796,"temp":34.3,"humidity":34,"rain":0.0,"pressure":962.4,"uv_index":8.95,"wind_gusts":36.7,"aqi":96,"pm10":52.5,"pm2_5":32.6,"no2":12.2,"co":320.0,"o3":85.0,"so2":6.8,"mosquito_risk":0,"arthritis_risk":5,"migraine_risk":7,"frizz_risk":1,"updated_at":"2026-05-14T00:27:47.662504+05:30"},{"city":"Latur","state":"Maharashtra","latitude":18.4088,"longitude":76.5604,"temp":27.4,"humidity":67,"rain":0.0,"pressure":936.0,"uv_index":8.95,"wind_gusts":36.0,"aqi":96,"pm10":73.1,"pm2_5":47.0,"no2":17.6,"co":341.0,"o3":82.0,"so2":7.8,"mosquito_risk":7,"arthritis_risk":5,"migraine_risk":7,"frizz_risk":1,"updated_at":"2026-05-14T00:27:47.662511+05:30"},{"city":"Nanded","state":"Maharashtra","latitude":19.1383,"longitude":77.3091,"temp":30.7,"humidity":52,"rain":0.0,"pressure":964.2,"uv_index":9.05,"wind_gusts":30.6,"aqi":93,"pm10":66.4,"pm2_5":43.4,"no2":22.2,"co":308.0,"o3":70.0,"so2":7.7,"mosquito_risk":0,"arthritis_risk":5,"migraine_risk":7,"frizz_risk":1,"updated_at":"2026-05-14T00:27:47.662517+05:30"},{"city":"Gulbarga","state":"Karnataka","latitude":17.3297,"longitude":76.8343,"temp":31.0,"humidity":47,"rain":0.0,"pressure":955.2,"uv_index":9.1,"wind_gusts":28.1,"aqi":78,"pm10":52.9,"pm2_5":35.5,"no2":24.9,"co":342.0,"o3":73.0,"so2":10.7,"mosquito_risk":0,"arthritis_risk":5,"migraine_risk":7,"frizz_risk":1,"updated_at":"2026-05-14T00:27:47.662523+05:30"},{"city":"Bidar","state":"Karnataka","latitude":17.9104,"longitude":77.5199,"temp":30.0,"humidity":47,"rain":0.0,"pressure":932.2,"uv_index":9.15,"wind_gusts":36.0,"aqi":74,"pm10":43.5,"pm2_5":32.0,"no2":22.6,"co":332.0,"o3":68.0,"so2":6.3,"mosquito_risk":4,"arthritis_risk":5,"migraine_risk":7,"frizz_risk":1,"updated_at":"2026-05-14T00:27:47.662529+05:30"},{"city":"Hospet","state":"Karnataka","latitude":15.2689,"longitude":76.3909,"temp":28.2,"humidity":69,"rain":0.0,"pressure":952.4,"uv_index":9.2,"wind_gusts":28.4,"aqi":84,"pm10":24.8,"pm2_5":19.0,"no2":11.4,"co":288.0,"o3":74.0,"so2":4.5,"mosquito_risk":7,"arthritis_risk":5,"migraine_risk":7,"frizz_risk":1,"updated_at":"2026-05-14T00:27:47.662536+05:30"},{"city":"Tirupur","state":"Tamil Nadu","latitude":11.1085,"longitude":77.3411,"temp":26.8,"humidity":78,"rain":0.0,"pressure":970.9,"uv_index":9.25,"wind_gusts":36.0,"aqi":88,"pm10":32.8,"pm2_5":27.3,"no2":28.5,"co":227.0,"o3":59.0,"so2":6.5,"mosquito_risk":7,"arthritis_risk":5,"migraine_risk":7,"frizz_risk":1,"updated_at":"2026-05-14T00:27:47.662541+05:30"},{"city":"Alappuzha","state":"Kerala","latitude":9.4981,"longitude":76.3388,"temp":27.6,"humidity":89,"rain":0.0,"pressure":1005.1,"uv_index":8.4,"wind_gusts":34.2,"aqi":72,"pm10":33.9,"pm2_5":25.1,"no2":17.2,"co":137.0,"o3":63.0,"so2":5.5,"mosquito_risk":7,"arthritis_risk":5,"migraine_risk":4,"frizz_risk":1,"updated_at":"2026-05-14T00:27:47.662547+05:30"},{"city":"Munnar","state":"Kerala","latitude":10.0889,"longitude":77.0595,"temp":17.8,"humidity":97,"rain":0.0,"pressure":853.5,"uv_index":9.45,"wind_gusts":33.5,"aqi":66,"pm10":25.0,"pm2_5":22.8,"no2":16.0,"co":320.0,"o3":31.0,"so2":2.1,"mosquito_risk":3,"arthritis_risk":10,"migraine_risk":7,"frizz_risk":1,"updated_at":"2026-05-14T00:27:47.662553+05:30"},{"city":"Silchar","state":"Assam","latitude":24.8333,"longitude":92.7789,"temp":24.8,"humidity":98,"rain":0.0,"pressure":1002.4,"uv_index":8.9,"wind_gusts":24.5,"aqi":104,"pm10":29.2,"pm2_5":25.1,"no2":9.0,"co":321.0,"o3":70.0,"so2":3.6,"mosquito_risk":3,"arthritis_risk":5,"migraine_risk":4,"frizz_risk":1,"updated_at":"2026-05-14T00:27:47.662560+05:30"},{"city":"Dibrugarh","state":"Assam","latitude":27.4728,"longitude":94.912,"temp":22.2,"humidity":98,"rain":0.1,"pressure":993.8,"uv_index":8.7,"wind_gusts":23.8,"aqi":75,"pm10":26.4,"pm2_5":25.0,"no2":21.0,"co":290.0,"o3":19.0,"so2":1.4,"mosquito_risk":6,"arthritis_risk":5,"migraine_risk":7,"frizz_risk":1,"updated_at":"2026-05-14T00:27:47.662565+05:30"}]