[{"city":"Delhi","state":"Delhi","latitude":28.6139,"longitude":77.209,"temp":37.2,"humidity":28,"rain":0.0,"pressure":976.3,"uv_index":7.75,"wind_gusts":30.6,"aqi":519,"pm10":612.8,"pm2_5":109.2,"no2":14.7,"co":214.0,"o3":106.0,"so2":11.5,"mosquito_risk":0,"arthritis_risk":5,"migraine_risk":10,"frizz_risk":0,"updated_at":"2026-06-21T18:38:49.400426+05:30"},{"city":"Mumbai","state":"Maharashtra","latitude":19.076,"longitude":72.8777,"temp":30.7,"humidity":63,"rain":0.0,"pressure":1005.0,"uv_index":7.7,"wind_gusts":37.8,"aqi":50,"pm10":16.6,"pm2_5":11.2,"no2":6.9,"co":142.0,"o3":62.0,"so2":6.0,"mosquito_risk":3,"arthritis_risk":5,"migraine_risk":4,"frizz_risk":1,"updated_at":"2026-06-21T18:38:49.400460+05:30"},{"city":"Bangalore","state":"Karnataka","latitude":12.9716,"longitude":77.5946,"temp":23.8,"humidity":83,"rain":0.1,"pressure":911.3,"uv_index":7.55,"wind_gusts":32.0,"aqi":62,"pm10":11.7,"pm2_5":10.1,"no2":13.8,"co":466.0,"o3":65.0,"so2":4.6,"mosquito_risk":6,"arthritis_risk":5,"migraine_risk":7,"frizz_risk":1,"updated_at":"2026-06-21T18:38:49.400475+05:30"},{"city":"Hyderabad","state":"Telangana","latitude":17.385,"longitude":78.4867,"temp":30.3,"humidity":57,"rain":0.0,"pressure":951.2,"uv_index":9.0,"wind_gusts":31.3,"aqi":69,"pm10":25.3,"pm2_5":19.6,"no2":13.9,"co":369.0,"o3":77.0,"so2":5.6,"mosquito_risk":0,"arthritis_risk":5,"migraine_risk":7,"frizz_risk":1,"updated_at":"2026-06-21T18:38:49.400485+05:30"},{"city":"Chennai","state":"Tamil Nadu","latitude":13.0827,"longitude":80.2707,"temp":28.5,"humidity":87,"rain":0.1,"pressure":1005.9,"uv_index":7.15,"wind_gusts":32.8,"aqi":90,"pm10":30.4,"pm2_5":23.2,"no2":13.7,"co":234.0,"o3":102.0,"so2":9.8,"mosquito_risk":10,"arthritis_risk":5,"migraine_risk":4,"frizz_risk":1,"updated_at":"2026-06-21T18:38:49.400493+05:30"},{"city":"Kolkata","state":"West Bengal","latitude":22.5726,"longitude":88.3639,"temp":29.2,"humidity":89,"rain":0.1,"pressure":1001.3,"uv_index":6.5,"wind_gusts":28.4,"aqi":108,"pm10":39.0,"pm2_5":36.8,"no2":9.7,"co":361.0,"o3":107.0,"so2":10.7,"mosquito_risk":10,"arthritis_risk":5,"migraine_risk":4,"frizz_risk":1,"updated_at":"2026-06-21T18:38:49.400500+05:30"},{"city":"Pune","state":"Maharashtra","latitude":18.5204,"longitude":73.8567,"temp":28.5,"humidity":64,"rain":0.1,"pressure":945.1,"uv_index":8.25,"wind_gusts":51.5,"aqi":45,"pm10":12.0,"pm2_5":8.7,"no2":5.1,"co":131.0,"o3":70.0,"so2":5.2,"mosquito_risk":10,"arthritis_risk":5,"migraine_risk":7,"frizz_risk":1,"updated_at":"2026-06-21T18:38:49.400507+05:30"},{"city":"Ahmedabad","state":"Gujarat","latitude":23.0225,"longitude":72.5714,"temp":35.6,"humidity":43,"rain":0.1,"pressure":996.0,"uv_index":8.05,"wind_gusts":37.1,"aqi":74,"pm10":73.1,"pm2_5":24.7,"no2":5.2,"co":139.0,"o3":77.0,"so2":3.7,"mosquito_risk":3,"arthritis_risk":5,"migraine_risk":10,"frizz_risk":1,"updated_at":"2026-06-21T18:38:49.400514+05:30"},{"city":"Jaipur","state":"Rajasthan","latitude":26.9124,"longitude":75.7873,"temp":29.3,"humidity":64,"rain":0.1,"pressure":954.9,"uv_index":7.45,"wind_gusts":41.8,"aqi":112,"pm10":194.6,"pm2_5":54.6,"no2":5.9,"co":177.0,"o3":78.0,"so2":3.7,"mosquito_risk":10,"arthritis_risk":5,"migraine_risk":7,"frizz_risk":1,"updated_at":"2026-06-21T18:38:49.400520+05:30"},{"city":"Lucknow","state":"Uttar Pradesh","latitude":26.8467,"longitude":80.9462,"temp":37.8,"humidity":32,"rain":0.0,"pressure":986.0,"uv_index":8.2,"wind_gusts":39.2,"aqi":268,"pm10":354.8,"pm2_5":76.6,"no2":4.0,"co":155.0,"o3":101.0,"so2":3.7,"mosquito_risk":0,"arthritis_risk":5,"migraine_risk":10,"frizz_risk":1,"updated_at":"2026-06-21T18:38:49.400531+05:30"},{"city":"Kanpur","state":"Uttar Pradesh","latitude":26.4499,"longitude":80.3319,"temp":38.3,"humidity":30,"rain":0.0,"pressure":984.4,"uv_index":8.3,"wind_gusts":44.6,"aqi":424,"pm10":353.0,"pm2_5":62.2,"no2":3.5,"co":150.0,"o3":95.0,"so2":3.2,"mosquito_risk":0,"arthritis_risk":5,"migraine_risk":10,"frizz_risk":1,"updated_at":"2026-06-21T18:38:49.400537+05:30"},{"city":"Chandigarh","state":"Chandigarh","latitude":30.7333,"longitude":76.7794,"temp":33.5,"humidity":37,"rain":0.0,"pressure":962.4,"uv_index":7.8,"wind_gusts":39.6,"aqi":154,"pm10":25.3,"pm2_5":21.4,"no2":7.0,"co":385.0,"o3":136.0,"so2":7.5,"mosquito_risk":0,"arthritis_risk":5,"migraine_risk":7,"frizz_risk":1,"updated_at":"2026-06-21T18:38:49.400544+05:30"},{"city":"Srinagar","state":"Jammu and Kashmir","latitude":34.0837,"longitude":74.7973,"temp":22.9,"humidity":55,"rain":0.0,"pressure":840.6,"uv_index":8.95,"wind_gusts":27.4,"aqi":101,"pm10":14.4,"pm2_5":11.4,"no2":7.1,"co":410.0,"o3":114.0,"so2":2.1,"mosquito_risk":0,"arthritis_risk":5,"migraine_risk":7,"frizz_risk":0,"updated_at":"2026-06-21T18:38:49.400551+05:30"},{"city":"Jammu","state":"Jammu and Kashmir","latitude":32.7266,"longitude":74.857,"temp":35.7,"humidity":22,"rain":0.0,"pressure":966.5,"uv_index":8.6,"wind_gusts":36.7,"aqi":122,"pm10":21.5,"pm2_5":13.4,"no2":8.3,"co":259.0,"o3":126.0,"so2":2.7,"mosquito_risk":0,"arthritis_risk":5,"migraine_risk":10,"frizz_risk":0,"updated_at":"2026-06-21T18:38:49.400560+05:30"},{"city":"Amritsar","state":"Punjab","latitude":31.634,"longitude":74.8723,"temp":33.3,"humidity":55,"rain":0.0,"pressure":973.9,"uv_index":8.45,"wind_gusts":25.2,"aqi":134,"pm10":64.3,"pm2_5":38.1,"no2":10.1,"co":391.0,"o3":133.0,"so2":8.8,"mosquito_risk":0,"arthritis_risk":5,"migraine_risk":7,"frizz_risk":1,"updated_at":"2026-06-21T18:38:49.400568+05:30"},{"city":"Ludhiana","state":"Punjab","latitude":30.901,"longitude":75.8573,"temp":36.0,"humidity":32,"rain":0.0,"pressure":972.2,"uv_index":8.05,"wind_gusts":39.2,"aqi":143,"pm10":94.5,"pm2_5":39.9,"no2":6.5,"co":335.0,"o3":117.0,"so2":4.1,"mosquito_risk":0,"arthritis_risk":5,"migraine_risk":10,"frizz_risk":1,"updated_at":"2026-06-21T18:38:49.400574+05:30"},{"city":"Jalandhar","state":"Punjab","latitude":31.326,"longitude":75.5762,"temp":35.4,"humidity":34,"rain":0.0,"pressure":973.3,"uv_index":8.2,"wind_gusts":33.1,"aqi":144,"pm10":88.5,"pm2_5":38.6,"no2":7.3,"co":404.0,"o3":124.0,"so2":5.1,"mosquito_risk":0,"arthritis_risk":5,"migraine_risk":10,"frizz_risk":1,"updated_at":"2026-06-21T18:38:49.400580+05:30"},{"city":"Dehradun","state":"Uttarakhand","latitude":30.6284,"longitude":78.0322,"temp":22.2,"humidity":62,"rain":0.0,"pressure":828.3,"uv_index":8.25,"wind_gusts":32.0,"aqi":117,"pm10":24.1,"pm2_5":18.6,"no2":4.3,"co":274.0,"o3":138.0,"so2":3.1,"mosquito_risk":3,"arthritis_risk":5,"migraine_risk":7,"frizz_risk":0,"updated_at":"2026-06-21T18:38:49.400586+05:30"},{"city":"Shimla","state":"Himachal Pradesh","latitude":31.1048,"longitude":77.1734,"temp":19.5,"humidity":50,"rain":0.0,"pressure":783.4,"uv_index":8.35,"wind_gusts":45.0,"aqi":102,"pm10":16.2,"pm2_5":11.3,"no2":2.9,"co":253.0,"o3":130.0,"so2":3.2,"mosquito_risk":0,"arthritis_risk":5,"migraine_risk":7,"frizz_risk":0,"updated_at":"2026-06-21T18:38:49.400592+05:30"},{"city":"Manali","state":"Himachal Pradesh","latitude":32.2396,"longitude":77.1887,"temp":20.6,"humidity":66,"rain":0.0,"pressure":817.5,"uv_index":9.75,"wind_gusts":37.1,"aqi":133,"pm10":16.7,"pm2_5":12.3,"no2":23.6,"co":156.0,"o3":127.0,"so2":0.5,"mosquito_risk":3,"arthritis_risk":5,"migraine_risk":7,"frizz_risk":0,"updated_at":"2026-06-21T18:38:49.400600+05:30"},{"city":"Gurgaon","state":"Haryana","latitude":28.4595,"longitude":77.0266,"temp":35.8,"humidity":33,"rain":0.0,"pressure":974.9,"uv_index":7.85,"wind_gusts":29.5,"aqi":1242,"pm10":784.2,"pm2_5":124.8,"no2":15.4,"co":289.0,"o3":98.0,"so2":9.7,"mosquito_risk":0,"arthritis_risk":5,"migraine_risk":10,"frizz_risk":1,"updated_at":"2026-06-21T18:38:49.400607+05:30"},{"city":"Noida","state":"Uttar Pradesh","latitude":28.5355,"longitude":77.391,"temp":35.1,"humidity":38,"rain":0.0,"pressure":977.3,"uv_index":7.8,"wind_gusts":25.2,"aqi":1242,"pm10":784.2,"pm2_5":124.8,"no2":15.4,"co":280.0,"o3":98.0,"so2":9.7,"mosquito_risk":0,"arthritis_risk":5,"migraine_risk":10,"frizz_risk":1,"updated_at":"2026-06-21T18:38:49.400613+05:30"},{"city":"Ghaziabad","state":"Uttar Pradesh","latitude":28.6692,"longitude":77.4538,"temp":34.9,"humidity":49,"rain":0.0,"pressure":975.7,"uv_index":7.8,"wind_gusts":27.7,"aqi":426,"pm10":614.7,"pm2_5":119.7,"no2":13.9,"co":241.0,"o3":125.0,"so2":15.2,"mosquito_risk":0,"arthritis_risk":5,"migraine_risk":7,"frizz_risk":1,"updated_at":"2026-06-21T18:38:49.400619+05:30"},{"city":"Faridabad","state":"Haryana","latitude":28.4089,"longitude":77.3178,"temp":36.1,"humidity":33,"rain":0.0,"pressure":976.9,"uv_index":7.85,"wind_gusts":30.6,"aqi":1242,"pm10":784.2,"pm2_5":124.8,"no2":15.4,"co":252.0,"o3":98.0,"so2":9.7,"mosquito_risk":0,"arthritis_risk":5,"migraine_risk":10,"frizz_risk":1,"updated_at":"2026-06-21T18:38:49.400624+05:30"},{"city":"Meerut","state":"Uttar Pradesh","latitude":28.9845,"longitude":77.7064,"temp":34.0,"humidity":51,"rain":0.0,"pressure":974.3,"uv_index":7.7,"wind_gusts":34.6,"aqi":426,"pm10":614.7,"pm2_5":119.7,"no2":13.9,"co":257.0,"o3":125.0,"so2":15.2,"mosquito_risk":0,"arthritis_risk":5,"migraine_risk":7,"frizz_risk":1,"updated_at":"2026-06-21T18:38:49.400630+05:30"},{"city":"Agra","state":"Uttar Pradesh","latitude":27.1767,"longitude":78.0081,"temp":34.6,"humidity":39,"rain":0.0,"pressure":981.6,"uv_index":8.15,"wind_gusts":37.8,"aqi":952,"pm10":217.5,"pm2_5":50.4,"no2":8.2,"co":177.0,"o3":90.0,"so2":4.2,"mosquito_risk":0,"arthritis_risk":5,"migraine_risk":7,"frizz_risk":1,"updated_at":"2026-06-21T18:38:49.400636+05:30"},{"city":"Varanasi","state":"Uttar Pradesh","latitude":25.3176,"longitude":82.9739,"temp":37.5,"humidity":38,"rain":0.0,"pressure":990.5,"uv_index":8.75,"wind_gusts":40.3,"aqi":113,"pm10":86.8,"pm2_5":42.7,"no2":7.1,"co":203.0,"o3":100.0,"so2":6.6,"mosquito_risk":0,"arthritis_risk":5,"migraine_risk":10,"frizz_risk":1,"updated_at":"2026-06-21T18:38:49.400643+05:30"},{"city":"Prayagraj","state":"Uttar Pradesh","latitude":25.4358,"longitude":81.8463,"temp":37.9,"humidity":35,"rain":0.0,"pressure":988.9,"uv_index":8.7,"wind_gusts":41.0,"aqi":122,"pm10":109.2,"pm2_5":44.8,"no2":4.8,"co":171.0,"o3":97.0,"so2":5.5,"mosquito_risk":0,"arthritis_risk":5,"migraine_risk":10,"frizz_risk":1,"updated_at":"2026-06-21T18:38:49.400649+05:30"},{"city":"Gorakhpur","state":"Uttar Pradesh","latitude":26.7606,"longitude":83.3732,"temp":34.7,"humidity":52,"rain":0.0,"pressure":989.5,"uv_index":8.65,"wind_gusts":37.1,"aqi":160,"pm10":167.6,"pm2_5":75.2,"no2":8.9,"co":234.0,"o3":113.0,"so2":9.3,"mosquito_risk":0,"arthritis_risk":5,"migraine_risk":7,"frizz_risk":1,"updated_at":"2026-06-21T18:38:49.400655+05:30"},{"city":"Bareilly","state":"Uttar Pradesh","latitude":28.367,"longitude":79.4304,"temp":34.3,"humidity":43,"rain":0.0,"pressure":979.6,"uv_index":8.1,"wind_gusts":40.0,"aqi":173,"pm10":124.8,"pm2_5":61.7,"no2":5.3,"co":269.0,"o3":160.0,"so2":10.0,"mosquito_risk":0,"arthritis_risk":5,"migraine_risk":7,"frizz_risk":1,"updated_at":"2026-06-21T18:38:49.400663+05:30"},{"city":"Aligarh","state":"Uttar Pradesh","latitude":27.8974,"longitude":78.088,"temp":33.5,"humidity":46,"rain":0.0,"pressure":979.1,"uv_index":8.0,"wind_gusts":37.1,"aqi":806,"pm10":337.1,"pm2_5":85.2,"no2":8.2,"co":185.0,"o3":120.0,"so2":8.8,"mosquito_risk":0,"arthritis_risk":5,"migraine_risk":7,"frizz_risk":1,"updated_at":"2026-06-21T18:38:49.400670+05:30"},{"city":"Moradabad","state":"Uttar Pradesh","latitude":28.8386,"longitude":78.7733,"temp":33.4,"humidity":52,"rain":0.0,"pressure":976.5,"uv_index":7.95,"wind_gusts":39.2,"aqi":172,"pm10":240.3,"pm2_5":78.2,"no2":8.7,"co":300.0,"o3":144.0,"so2":10.3,"mosquito_risk":0,"arthritis_risk":5,"migraine_risk":7,"frizz_risk":1,"updated_at":"2026-06-21T18:38:49.400676+05:30"},{"city":"Saharanpur","state":"Uttar Pradesh","latitude":29.9637,"longitude":77.546,"temp":33.0,"humidity":44,"rain":0.0,"pressure":968.6,"uv_index":7.45,"wind_gusts":36.4,"aqi":170,"pm10":231.0,"pm2_5":56.9,"no2":6.9,"co":316.0,"o3":139.0,"so2":9.8,"mosquito_risk":0,"arthritis_risk":5,"migraine_risk":7,"frizz_risk":1,"updated_at":"2026-06-21T18:38:49.400681+05:30"},{"city":"Jhansi","state":"Uttar Pradesh","latitude":25.4484,"longitude":78.5685,"temp":34.6,"humidity":43,"rain":0.0,"pressure":972.3,"uv_index":8.3,"wind_gusts":42.1,"aqi":97,"pm10":93.4,"pm2_5":34.5,"no2":2.5,"co":131.0,"o3":79.0,"so2":2.3,"mosquito_risk":0,"arthritis_risk":5,"migraine_risk":7,"frizz_risk":1,"updated_at":"2026-06-21T18:38:52.737663+05:30"},{"city":"Surat","state":"Gujarat","latitude":21.1702,"longitude":72.8311,"temp":31.4,"humidity":64,"rain":0.0,"pressure":1002.3,"uv_index":7.6,"wind_gusts":42.8,"aqi":58,"pm10":24.7,"pm2_5":15.6,"no2":13.3,"co":205.0,"o3":37.0,"so2":28.7,"mosquito_risk":3,"arthritis_risk":5,"migraine_risk":4,"frizz_risk":1,"updated_at":"2026-06-21T18:38:52.737686+05:30"},{"city":"Vadodara","state":"Gujarat","latitude":22.3072,"longitude":73.1812,"temp":35.8,"humidity":41,"rain":0.0,"pressure":998.5,"uv_index":8.0,"wind_gusts":43.9,"aqi":57,"pm10":22.0,"pm2_5":13.3,"no2":6.0,"co":120.0,"o3":73.0,"so2":6.7,"mosquito_risk":0,"arthritis_risk":5,"migraine_risk":10,"frizz_risk":1,"updated_at":"2026-06-21T18:38:52.737696+05:30"},{"city":"Rajkot","state":"Gujarat","latitude":22.3039,"longitude":70.8022,"temp":33.8,"humidity":53,"rain":0.0,"pressure":988.5,"uv_index":7.5,"wind_gusts":40.3,"aqi":68,"pm10":76.1,"pm2_5":25.4,"no2":1.9,"co":108.0,"o3":76.0,"so2":3.2,"mosquito_risk":0,"arthritis_risk":5,"migraine_risk":7,"frizz_risk":1,"updated_at":"2026-06-21T18:38:52.737703+05:30"},{"city":"Thane","state":"Maharashtra","latitude":19.2183,"longitude":72.9781,"temp":31.8,"humidity":56,"rain":0.0,"pressure":1004.3,"uv_index":7.7,"wind_gusts":37.4,"aqi":50,"pm10":16.6,"pm2_5":11.2,"no2":6.9,"co":138.0,"o3":62.0,"so2":6.0,"mosquito_risk":0,"arthritis_risk":5,"migraine_risk":4,"frizz_risk":1,"updated_at":"2026-06-21T18:38:52.737710+05:30"},{"city":"Nagpur","state":"Maharashtra","latitude":21.1458,"longitude":79.0882,"temp":28.8,"humidity":73,"rain":0.1,"pressure":969.6,"uv_index":8.85,"wind_gusts":40.7,"aqi":74,"pm10":31.1,"pm2_5":17.9,"no2":6.4,"co":139.0,"o3":99.0,"so2":13.2,"mosquito_risk":10,"arthritis_risk":5,"migraine_risk":7,"frizz_risk":1,"updated_at":"2026-06-21T18:38:52.737716+05:30"},{"city":"Nashik","state":"Maharashtra","latitude":19.9975,"longitude":73.7898,"temp":29.2,"humidity":58,"rain":0.0,"pressure":942.5,"uv_index":7.95,"wind_gusts":39.2,"aqi":32,"pm10":12.0,"pm2_5":7.9,"no2":2.2,"co":100.0,"o3":64.0,"so2":1.4,"mosquito_risk":4,"arthritis_risk":5,"migraine_risk":7,"frizz_risk":1,"updated_at":"2026-06-21T18:38:52.737723+05:30"},{"city":"Aurangabad","state":"Maharashtra","latitude":19.8762,"longitude":75.3433,"temp":34.9,"humidity":31,"rain":0.0,"pressure":940.4,"uv_index":8.95,"wind_gusts":47.9,"aqi":40,"pm10":14.8,"pm2_5":10.3,"no2":2.5,"co":160.0,"o3":78.0,"so2":3.6,"mosquito_risk":0,"arthritis_risk":5,"migraine_risk":7,"frizz_risk":0,"updated_at":"2026-06-21T18:38:52.737730+05:30"},{"city":"Solapur","state":"Maharashtra","latitude":17.6599,"longitude":75.9064,"temp":34.1,"humidity":38,"rain":0.0,"pressure":954.1,"uv_index":8.9,"wind_gusts":39.2,"aqi":53,"pm10":14.2,"pm2_5":9.1,"no2":2.2,"co":126.0,"o3":91.0,"so2":1.9,"mosquito_risk":0,"arthritis_risk":5,"migraine_risk":7,"frizz_risk":1,"updated_at":"2026-06-21T18:38:52.737737+05:30"},{"city":"Kolhapur","state":"Maharashtra","latitude":16.705,"longitude":74.2433,"temp":27.2,"humidity":76,"rain":0.1,"pressure":945.5,"uv_index":8.05,"wind_gusts":40.3,"aqi":37,"pm10":4.8,"pm2_5":4.2,"no2":4.0,"co":149.0,"o3":64.0,"so2":1.9,"mosquito_risk":10,"arthritis_risk":5,"migraine_risk":7,"frizz_risk":1,"updated_at":"2026-06-21T18:38:52.737743+05:30"},{"city":"Goa","state":"Goa","latitude":15.2993,"longitude":74.124,"temp":28.0,"humidity":87,"rain":0.0,"pressure":995.7,"uv_index":7.65,"wind_gusts":36.0,"aqi":29,"pm10":5.1,"pm2_5":3.6,"no2":1.5,"co":139.0,"o3":47.0,"so2":0.9,"mosquito_risk":7,"arthritis_risk":5,"migraine_risk":7,"frizz_risk":1,"updated_at":"2026-06-21T18:38:52.737749+05:30"},{"city":"Jodhpur","state":"Rajasthan","latitude":26.2389,"longitude":73.0243,"temp":36.7,"humidity":34,"rain":0.0,"pressure":976.8,"uv_index":8.35,"wind_gusts":43.2,"aqi":143,"pm10":312.9,"pm2_5":55.6,"no2":2.3,"co":121.0,"o3":74.0,"so2":1.3,"mosquito_risk":0,"arthritis_risk":5,"migraine_risk":10,"frizz_risk":1,"updated_at":"2026-06-21T18:38:52.737755+05:30"},{"city":"Udaipur","state":"Rajasthan","latitude":24.5854,"longitude":73.7125,"temp":32.0,"humidity":44,"rain":0.0,"pressure":942.2,"uv_index":8.8,"wind_gusts":41.4,"aqi":74,"pm10":51.9,"pm2_5":20.5,"no2":1.9,"co":118.0,"o3":76.0,"so2":1.9,"mosquito_risk":0,"arthritis_risk":5,"migraine_risk":7,"frizz_risk":1,"updated_at":"2026-06-21T18:38:52.737762+05:30"},{"city":"Kota","state":"Rajasthan","latitude":25.2138,"longitude":75.8648,"temp":33.7,"humidity":52,"rain":0.0,"pressure":973.4,"uv_index":8.35,"wind_gusts":42.8,"aqi":97,"pm10":60.5,"pm2_5":27.7,"no2":3.8,"co":148.0,"o3":82.0,"so2":4.1,"mosquito_risk":0,"arthritis_risk":5,"migraine_risk":7,"frizz_risk":1,"updated_at":"2026-06-21T18:38:52.737768+05:30"},{"city":"Bikaner","state":"Rajasthan","latitude":28.0229,"longitude":73.3119,"temp":36.1,"humidity":36,"rain":0.0,"pressure":975.7,"uv_index":8.45,"wind_gusts":37.8,"aqi":152,"pm10":160.7,"pm2_5":47.1,"no2":1.5,"co":142.0,"o3":78.0,"so2":1.5,"mosquito_risk":0,"arthritis_risk":5,"migraine_risk":10,"frizz_risk":1,"updated_at":"2026-06-21T18:38:52.737774+05:30"},{"city":"Ajmer","state":"Rajasthan","latitude":26.4499,"longitude":74.6399,"temp":32.6,"humidity":46,"rain":0.0,"pressure":949.7,"uv_index":8.25,"wind_gusts":48.2,"aqi":91,"pm10":88.7,"pm2_5":31.0,"no2":2.8,"co":136.0,"o3":76.0,"so2":2.5,"mosquito_risk":0,"arthritis_risk":5,"migraine_risk":7,"frizz_risk":1,"updated_at":"2026-06-21T18:38:52.737780+05:30"},{"city":"Gwalior","state":"Madhya Pradesh","latitude":26.2183,"longitude":78.1828,"temp":35.9,"humidity":32,"rain":0.0,"pressure":977.1,"uv_index":8.15,"wind_gusts":46.4,"aqi":103,"pm10":88.9,"pm2_5":32.5,"no2":2.5,"co":128.0,"o3":82.0,"so2":2.0,"mosquito_risk":0,"arthritis_risk":5,"migraine_risk":10,"frizz_risk":1,"updated_at":"2026-06-21T18:38:52.737786+05:30"},{"city":"Indore","state":"Madhya Pradesh","latitude":22.7196,"longitude":75.8577,"temp":31.0,"humidity":53,"rain":0.1,"pressure":944.3,"uv_index":8.5,"wind_gusts":37.1,"aqi":77,"pm10":47.6,"pm2_5":23.8,"no2":4.9,"co":178.0,"o3":82.0,"so2":3.4,"mosquito_risk":3,"arthritis_risk":5,"migraine_risk":7,"frizz_risk":1,"updated_at":"2026-06-21T18:38:52.737792+05:30"},{"city":"Bhopal","state":"Madhya Pradesh","latitude":23.2599,"longitude":77.4126,"temp":30.1,"humidity":65,"rain":0.0,"pressure":949.6,"uv_index":8.0,"wind_gusts":37.4,"aqi":79,"pm10":66.1,"pm2_5":32.8,"no2":4.7,"co":239.0,"o3":84.0,"so2":3.2,"mosquito_risk":3,"arthritis_risk":5,"migraine_risk":7,"frizz_risk":1,"updated_at":"2026-06-21T18:38:52.737798+05:30"},{"city":"Jabalpur","state":"Madhya Pradesh","latitude":23.1815,"longitude":79.9864,"temp":32.8,"humidity":47,"rain":0.0,"pressure":957.5,"uv_index":8.3,"wind_gusts":37.4,"aqi":76,"pm10":26.9,"pm2_5":18.7,"no2":5.3,"co":187.0,"o3":82.0,"so2":2.5,"mosquito_risk":0,"arthritis_risk":5,"migraine_risk":7,"frizz_risk":1,"updated_at":"2026-06-21T18:38:52.737804+05:30"},{"city":"Ujjain","state":"Madhya Pradesh","latitude":23.1765,"longitude":75.7885,"temp":32.6,"humidity":44,"rain":0.0,"pressure":949.8,"uv_index":7.8,"wind_gusts":40.3,"aqi":76,"pm10":46.6,"pm2_5":22.4,"no2":2.3,"co":158.0,"o3":84.0,"so2":3.7,"mosquito_risk":0,"arthritis_risk":5,"migraine_risk":7,"frizz_risk":1,"updated_at":"2026-06-21T18:38:52.737810+05:30"},{"city":"Visakhapatnam","state":"Andhra Pradesh","latitude":17.6868,"longitude":83.2185,"temp":28.8,"humidity":86,"rain":0.0,"pressure":1000.3,"uv_index":4.75,"wind_gusts":39.2,"aqi":76,"pm10":23.6,"pm2_5":21.9,"no2":23.4,"co":281.0,"o3":85.0,"so2":38.7,"mosquito_risk":7,"arthritis_risk":5,"migraine_risk":0,"frizz_risk":1,"updated_at":"2026-06-21T18:38:52.737817+05:30"},{"city":"Vijayawada","state":"Andhra Pradesh","latitude":16.5062,"longitude":80.648,"temp":27.9,"humidity":83,"rain":0.0,"pressure":1000.0,"uv_index":6.8,"wind_gusts":40.3,"aqi":86,"pm10":24.0,"pm2_5":21.7,"no2":10.0,"co":232.0,"o3":83.0,"so2":6.1,"mosquito_risk":7,"arthritis_risk":5,"migraine_risk":4,"frizz_risk":1,"updated_at":"2026-06-21T18:38:52.737823+05:30"},{"city":"Guntur","state":"Andhra Pradesh","latitude":16.3067,"longitude":80.4365,"temp":29.5,"humidity":72,"rain":0.0,"pressure":1001.5,"uv_index":5.55,"wind_gusts":22.0,"aqi":87,"pm10":19.6,"pm2_5":17.8,"no2":10.2,"co":204.0,"o3":77.0,"so2":5.5,"mosquito_risk":7,"arthritis_risk":5,"migraine_risk":0,"frizz_risk":1,"updated_at":"2026-06-21T18:38:52.737830+05:30"},{"city":"Nellore","state":"Andhra Pradesh","latitude":14.4426,"longitude":79.9865,"temp":30.9,"humidity":69,"rain":0.0,"pressure":1003.8,"uv_index":4.55,"wind_gusts":32.8,"aqi":85,"pm10":32.4,"pm2_5":24.4,"no2":3.4,"co":232.0,"o3":131.0,"so2":6.4,"mosquito_risk":3,"arthritis_risk":5,"migraine_risk":0,"frizz_risk":1,"updated_at":"2026-06-21T18:38:52.737837+05:30"},{"city":"Kurnool","state":"Andhra Pradesh","latitude":15.8281,"longitude":78.0373,"temp":31.9,"humidity":52,"rain":0.0,"pressure":974.4,"uv_index":8.05,"wind_gusts":45.0,"aqi":72,"pm10":22.9,"pm2_5":16.8,"no2":3.5,"co":170.0,"o3":114.0,"so2":6.5,"mosquito_risk":0,"arthritis_risk":5,"migraine_risk":7,"frizz_risk":1,"updated_at":"2026-06-21T18:38:52.737844+05:30"},{"city":"Kakinada","state":"Andhra Pradesh","latitude":16.9891,"longitude":82.2475,"temp":30.0,"humidity":78,"rain":0.0,"pressure":1004.4,"uv_index":2.85,"wind_gusts":42.8,"aqi":72,"pm10":24.3,"pm2_5":21.8,"no2":7.4,"co":244.0,"o3":111.0,"so2":6.7,"mosquito_risk":7,"arthritis_risk":5,"migraine_risk":0,"frizz_risk":1,"updated_at":"2026-06-21T18:38:52.737850+05:30"},{"city":"Tirupati","state":"Andhra Pradesh","latitude":13.6288,"longitude":79.4192,"temp":29.5,"humidity":70,"rain":0.0,"pressure":990.1,"uv_index":7.9,"wind_gusts":22.3,"aqi":75,"pm10":27.9,"pm2_5":22.9,"no2":11.7,"co":234.0,"o3":84.0,"so2":2.9,"mosquito_risk":7,"arthritis_risk":5,"migraine_risk":7,"frizz_risk":1,"updated_at":"2026-06-21T18:38:52.737856+05:30"},{"city":"Warangal","state":"Telangana","latitude":17.9689,"longitude":79.5941,"temp":30.4,"humidity":60,"rain":0.0,"pressure":976.0,"uv_index":7.8,"wind_gusts":34.2,"aqi":79,"pm10":28.3,"pm2_5":23.2,"no2":6.8,"co":195.0,"o3":93.0,"so2":4.6,"mosquito_risk":0,"arthritis_risk":5,"migraine_risk":7,"frizz_risk":1,"updated_at":"2026-06-21T18:38:52.737862+05:30"},{"city":"Nizamabad","state":"Telangana","latitude":18.6725,"longitude":78.0941,"temp":31.5,"humidity":55,"rain":0.0,"pressure":961.9,"uv_index":8.7,"wind_gusts":36.0,"aqi":62,"pm10":21.4,"pm2_5":17.9,"no2":4.1,"co":157.0,"o3":102.0,"so2":3.3,"mosquito_risk":0,"arthritis_risk":5,"migraine_risk":7,"frizz_risk":1,"updated_at":"2026-06-21T18:38:52.737868+05:30"},{"city":"Mysore","state":"Karnataka","latitude":12.2958,"longitude":76.6396,"temp":22.8,"humidity":90,"rain":0.0,"pressure":928.0,"uv_index":8.4,"wind_gusts":43.6,"aqi":34,"pm10":5.9,"pm2_5":5.4,"no2":7.2,"co":174.0,"o3":56.0,"so2":1.9,"mosquito_risk":3,"arthritis_risk":5,"migraine_risk":7,"frizz_risk":1,"updated_at":"2026-06-21T18:38:52.737874+05:30"},{"city":"Mangalore","state":"Karnataka","latitude":12.9141,"longitude":74.856,"temp":26.0,"humidity":93,"rain":0.0,"pressure":1006.5,"uv_index":7.85,"wind_gusts":34.2,"aqi":27,"pm10":7.5,"pm2_5":5.0,"no2":2.7,"co":181.0,"o3":50.0,"so2":1.5,"mosquito_risk":7,"arthritis_risk":5,"migraine_risk":4,"frizz_risk":1,"updated_at":"2026-06-21T18:38:52.737880+05:30"},{"city":"Hubli-Dharwad","state":"Karnataka","latitude":15.3647,"longitude":75.124,"temp":26.0,"humidity":78,"rain":0.0,"pressure":939.3,"uv_index":7.55,"wind_gusts":43.9,"aqi":28,"pm10":3.6,"pm2_5":2.9,"no2":3.1,"co":121.0,"o3":48.0,"so2":0.8,"mosquito_risk":7,"arthritis_risk":5,"migraine_risk":7,"frizz_risk":1,"updated_at":"2026-06-21T18:38:52.737886+05:30"},{"city":"Belgaum","state":"Karnataka","latitude":15.8497,"longitude":74.4977,"temp":24.5,"humidity":88,"rain":0.1,"pressure":923.7,"uv_index":8.85,"wind_gusts":37.4,"aqi":32,"pm10":4.7,"pm2_5":3.9,"no2":4.1,"co":124.0,"o3":48.0,"so2":1.7,"mosquito_risk":6,"arthritis_risk":5,"migraine_risk":7,"frizz_risk":1,"updated_at":"2026-06-21T18:38:56.080016+05:30"},{"city":"Coimbatore","state":"Tamil Nadu","latitude":11.0168,"longitude":76.9558,"temp":25.6,"humidity":83,"rain":0.0,"pressure":961.0,"uv_index":8.2,"wind_gusts":45.4,"aqi":31,"pm10":4.0,"pm2_5":3.7,"no2":5.4,"co":135.0,"o3":52.0,"so2":2.2,"mosquito_risk":7,"arthritis_risk":5,"migraine_risk":7,"frizz_risk":1,"updated_at":"2026-06-21T18:38:56.080040+05:30"},{"city":"Madurai","state":"Tamil Nadu","latitude":9.9252,"longitude":78.1198,"temp":31.1,"humidity":55,"rain":0.0,"pressure":991.7,"uv_index":8.15,"wind_gusts":35.6,"aqi":70,"pm10":18.1,"pm2_5":14.6,"no2":13.3,"co":253.0,"o3":68.0,"so2":3.7,"mosquito_risk":0,"arthritis_risk":5,"migraine_risk":7,"frizz_risk":1,"updated_at":"2026-06-21T18:38:56.080050+05:30"},{"city":"Trichy","state":"Tamil Nadu","latitude":10.7905,"longitude":78.7047,"temp":31.1,"humidity":66,"rain":0.0,"pressure":998.3,"uv_index":8.25,"wind_gusts":29.2,"aqi":60,"pm10":17.9,"pm2_5":14.6,"no2":6.8,"co":166.0,"o3":93.0,"so2":2.9,"mosquito_risk":3,"arthritis_risk":5,"migraine_risk":7,"frizz_risk":1,"updated_at":"2026-06-21T18:38:56.080058+05:30"},{"city":"Salem","state":"Tamil Nadu","latitude":11.6643,"longitude":78.146,"temp":30.5,"humidity":57,"rain":0.0,"pressure":976.1,"uv_index":7.85,"wind_gusts":22.3,"aqi":69,"pm10":10.9,"pm2_5":9.4,"no2":7.9,"co":157.0,"o3":88.0,"so2":6.6,"mosquito_risk":0,"arthritis_risk":5,"migraine_risk":7,"frizz_risk":1,"updated_at":"2026-06-21T18:38:56.080064+05:30"},{"city":"Tirunelveli","state":"Tamil Nadu","latitude":8.7139,"longitude":77.7567,"temp":29.2,"humidity":78,"rain":0.0,"pressure":1002.5,"uv_index":8.55,"wind_gusts":30.6,"aqi":34,"pm10":7.5,"pm2_5":6.1,"no2":3.5,"co":143.0,"o3":59.0,"so2":1.2,"mosquito_risk":7,"arthritis_risk":5,"migraine_risk":4,"frizz_risk":1,"updated_at":"2026-06-21T18:38:56.080070+05:30"},{"city":"Vellore","state":"Tamil Nadu","latitude":12.9165,"longitude":79.1325,"temp":28.4,"humidity":75,"rain":0.0,"pressure":983.8,"uv_index":6.05,"wind_gusts":28.1,"aqi":88,"pm10":29.5,"pm2_5":22.4,"no2":9.8,"co":297.0,"o3":102.0,"so2":4.0,"mosquito_risk":7,"arthritis_risk":5,"migraine_risk":7,"frizz_risk":1,"updated_at":"2026-06-21T18:38:56.080076+05:30"},{"city":"Erode","state":"Tamil Nadu","latitude":11.341,"longitude":77.7172,"temp":31.0,"humidity":58,"rain":0.0,"pressure":987.7,"uv_index":8.7,"wind_gusts":45.4,"aqi":51,"pm10":8.4,"pm2_5":7.3,"no2":6.6,"co":158.0,"o3":74.0,"so2":2.3,"mosquito_risk":0,"arthritis_risk":5,"migraine_risk":7,"frizz_risk":1,"updated_at":"2026-06-21T18:38:56.080083+05:30"},{"city":"Kochi","state":"Kerala","latitude":9.9312,"longitude":76.2673,"temp":25.9,"humidity":90,"rain":0.3,"pressure":1009.3,"uv_index":8.3,"wind_gusts":29.5,"aqi":50,"pm10":10.2,"pm2_5":7.8,"no2":6.0,"co":115.0,"o3":45.0,"so2":2.8,"mosquito_risk":10,"arthritis_risk":0,"migraine_risk":4,"frizz_risk":1,"updated_at":"2026-06-21T18:38:56.080089+05:30"},{"city":"Thiruvananthapuram","state":"Kerala","latitude":8.5241,"longitude":76.9366,"temp":24.8,"humidity":96,"rain":0.2,"pressure":1009.4,"uv_index":8.0,"wind_gusts":31.7,"aqi":31,"pm10":9.0,"pm2_5":5.2,"no2":1.7,"co":129.0,"o3":56.0,"so2":0.7,"mosquito_risk":6,"arthritis_risk":0,"migraine_risk":4,"frizz_risk":1,"updated_at":"2026-06-21T18:38:56.080095+05:30"},{"city":"Kozhikode","state":"Kerala","latitude":11.2588,"longitude":75.7804,"temp":25.3,"humidity":98,"rain":0.1,"pressure":1008.5,"uv_index":8.15,"wind_gusts":27.0,"aqi":27,"pm10":6.6,"pm2_5":4.0,"no2":0.9,"co":195.0,"o3":57.0,"so2":0.7,"mosquito_risk":10,"arthritis_risk":0,"migraine_risk":4,"frizz_risk":1,"updated_at":"2026-06-21T18:38:56.080102+05:30"},{"city":"Thrissur","state":"Kerala","latitude":10.5276,"longitude":76.2144,"temp":25.5,"humidity":96,"rain":0.0,"pressure":1007.7,"uv_index":7.95,"wind_gusts":32.0,"aqi":47,"pm10":10.4,"pm2_5":9.0,"no2":5.9,"co":164.0,"o3":39.0,"so2":1.9,"mosquito_risk":7,"arthritis_risk":5,"migraine_risk":4,"frizz_risk":1,"updated_at":"2026-06-21T18:38:56.080109+05:30"},{"city":"Kannur","state":"Kerala","latitude":11.8745,"longitude":75.3704,"temp":25.9,"humidity":97,"rain":0.1,"pressure":1007.3,"uv_index":8.35,"wind_gusts":30.6,"aqi":24,"pm10":6.7,"pm2_5":4.8,"no2":5.4,"co":163.0,"o3":41.0,"so2":1.3,"mosquito_risk":10,"arthritis_risk":5,"migraine_risk":4,"frizz_risk":1,"updated_at":"2026-06-21T18:38:56.080116+05:30"},{"city":"Patna","state":"Bihar","latitude":25.5941,"longitude":85.1376,"temp":34.6,"humidity":59,"rain":0.0,"pressure":993.3,"uv_index":8.6,"wind_gusts":31.7,"aqi":158,"pm10":188.1,"pm2_5":78.5,"no2":15.7,"co":276.0,"o3":112.0,"so2":11.7,"mosquito_risk":0,"arthritis_risk":5,"migraine_risk":7,"frizz_risk":1,"updated_at":"2026-06-21T18:38:56.080122+05:30"},{"city":"Gaya","state":"Bihar","latitude":24.7914,"longitude":85.0002,"temp":34.4,"humidity":51,"rain":0.0,"pressure":987.5,"uv_index":8.6,"wind_gusts":37.4,"aqi":135,"pm10":137.4,"pm2_5":56.6,"no2":8.0,"co":230.0,"o3":109.0,"so2":6.7,"mosquito_risk":0,"arthritis_risk":5,"migraine_risk":7,"frizz_risk":1,"updated_at":"2026-06-21T18:38:56.080128+05:30"},{"city":"Muzaffarpur","state":"Bihar","latitude":26.1209,"longitude":85.3647,"temp":33.3,"humidity":67,"rain":0.0,"pressure":993.1,"uv_index":8.45,"wind_gusts":39.6,"aqi":171,"pm10":137.8,"pm2_5":68.7,"no2":13.8,"co":331.0,"o3":123.0,"so2":11.7,"mosquito_risk":3,"arthritis_risk":5,"migraine_risk":7,"frizz_risk":1,"updated_at":"2026-06-21T18:38:56.080134+05:30"},{"city":"Bhagalpur","state":"Bihar","latitude":25.2425,"longitude":87.0117,"temp":31.0,"humidity":78,"rain":0.0,"pressure":994.9,"uv_index":8.4,"wind_gusts":28.8,"aqi":141,"pm10":99.0,"pm2_5":44.9,"no2":8.0,"co":281.0,"o3":129.0,"so2":12.2,"mosquito_risk":3,"arthritis_risk":5,"migraine_risk":7,"frizz_risk":1,"updated_at":"2026-06-21T18:38:56.080140+05:30"},{"city":"Ranchi","state":"Jharkhand","latitude":23.3441,"longitude":85.3096,"temp":28.4,"humidity":74,"rain":0.0,"pressure":934.4,"uv_index":6.9,"wind_gusts":31.0,"aqi":130,"pm10":38.1,"pm2_5":36.6,"no2":6.2,"co":223.0,"o3":142.0,"so2":8.6,"mosquito_risk":7,"arthritis_risk":5,"migraine_risk":7,"frizz_risk":1,"updated_at":"2026-06-21T18:38:56.080146+05:30"},{"city":"Jamshedpur","state":"Jharkhand","latitude":22.8046,"longitude":86.2029,"temp":31.8,"humidity":74,"rain":0.0,"pressure":986.3,"uv_index":8.6,"wind_gusts":27.0,"aqi":170,"pm10":47.6,"pm2_5":44.5,"no2":11.3,"co":506.0,"o3":149.0,"so2":21.5,"mosquito_risk":3,"arthritis_risk":5,"migraine_risk":7,"frizz_risk":1,"updated_at":"2026-06-21T18:38:56.080152+05:30"},{"city":"Dhanbad","state":"Jharkhand","latitude":23.7957,"longitude":86.4304,"temp":30.7,"humidity":77,"rain":0.0,"pressure":975.1,"uv_index":5.9,"wind_gusts":33.8,"aqi":173,"pm10":52.0,"pm2_5":49.6,"no2":28.8,"co":265.0,"o3":133.0,"so2":78.0,"mosquito_risk":3,"arthritis_risk":5,"migraine_risk":3,"frizz_risk":1,"updated_at":"2026-06-21T18:38:56.080158+05:30"},{"city":"Bokaro","state":"Jharkhand","latitude":23.6693,"longitude":86.1511,"temp":31.2,"humidity":80,"rain":0.0,"pressure":979.0,"uv_index":6.05,"wind_gusts":36.7,"aqi":142,"pm10":46.3,"pm2_5":40.9,"no2":20.5,"co":185.0,"o3":125.0,"so2":54.1,"mosquito_risk":3,"arthritis_risk":5,"migraine_risk":7,"frizz_risk":1,"updated_at":"2026-06-21T18:38:56.080164+05:30"},{"city":"Bhubaneswar","state":"Odisha","latitude":20.2961,"longitude":85.8245,"temp":27.6,"humidity":96,"rain":0.1,"pressure":999.4,"uv_index":8.4,"wind_gusts":32.4,"aqi":138,"pm10":50.5,"pm2_5":46.1,"no2":14.2,"co":376.0,"o3":118.0,"so2":10.2,"mosquito_risk":10,"arthritis_risk":5,"migraine_risk":7,"frizz_risk":1,"updated_at":"2026-06-21T18:38:56.080170+05:30"},{"city":"Cuttack","state":"Odisha","latitude":20.4625,"longitude":85.8828,"temp":28.0,"humidity":91,"rain":0.0,"pressure":1001.2,"uv_index":8.5,"wind_gusts":22.7,"aqi":138,"pm10":50.5,"pm2_5":46.1,"no2":14.2,"co":427.0,"o3":118.0,"so2":10.2,"mosquito_risk":7,"arthritis_risk":5,"migraine_risk":4,"frizz_risk":1,"updated_at":"2026-06-21T18:38:56.080176+05:30"},{"city":"Rourkela","state":"Odisha","latitude":22.2604,"longitude":84.8536,"temp":31.1,"humidity":69,"rain":0.0,"pressure":980.7,"uv_index":8.7,"wind_gusts":53.6,"aqi":173,"pm10":44.7,"pm2_5":39.5,"no2":6.2,"co":300.0,"o3":174.0,"so2":14.7,"mosquito_risk":3,"arthritis_risk":5,"migraine_risk":7,"frizz_risk":1,"updated_at":"2026-06-21T18:38:56.080182+05:30"},{"city":"Raipur","state":"Chhattisgarh","latitude":21.2514,"longitude":81.6296,"temp":34.3,"humidity":41,"rain":0.0,"pressure":970.4,"uv_index":8.85,"wind_gusts":44.6,"aqi":101,"pm10":32.0,"pm2_5":24.1,"no2":11.3,"co":157.0,"o3":114.0,"so2":25.0,"mosquito_risk":0,"arthritis_risk":5,"migraine_risk":7,"frizz_risk":1,"updated_at":"2026-06-21T18:38:56.080188+05:30"},{"city":"Bhilai","state":"Chhattisgarh","latitude":21.1938,"longitude":81.3509,"temp":32.0,"humidity":49,"rain":0.0,"pressure":970.8,"uv_index":8.9,"wind_gusts":49.3,"aqi":88,"pm10":32.1,"pm2_5":24.2,"no2":10.0,"co":313.0,"o3":110.0,"so2":20.9,"mosquito_risk":0,"arthritis_risk":5,"migraine_risk":7,"frizz_risk":1,"updated_at":"2026-06-21T18:38:56.080194+05:30"},{"city":"Guwahati","state":"Assam","latitude":26.1158,"longitude":91.7086,"temp":26.1,"humidity":98,"rain":0.0,"pressure":997.6,"uv_index":7.95,"wind_gusts":25.6,"aqi":95,"pm10":13.4,"pm2_5":12.0,"no2":5.6,"co":321.0,"o3":87.0,"so2":2.8,"mosquito_risk":7,"arthritis_risk":5,"migraine_risk":7,"frizz_risk":1,"updated_at":"2026-06-21T18:38:56.080200+05:30"},{"city":"Agartala","state":"Tripura","latitude":23.8315,"longitude":91.2868,"temp":28.0,"humidity":90,"rain":0.0,"pressure":1002.7,"uv_index":8.45,"wind_gusts":40.0,"aqi":63,"pm10":18.8,"pm2_5":17.0,"no2":9.0,"co":204.0,"o3":74.0,"so2":2.7,"mosquito_risk":7,"arthritis_risk":5,"migraine_risk":4,"frizz_risk":1,"updated_at":"2026-06-21T18:38:56.080206+05:30"},{"city":"Shillong","state":"Meghalaya","latitude":25.5788,"longitude":91.8933,"temp":20.2,"humidity":96,"rain":0.0,"pressure":855.1,"uv_index":6.35,"wind_gusts":37.8,"aqi":43,"pm10":3.5,"pm2_5":3.2,"no2":5.8,"co":228.0,"o3":85.0,"so2":1.6,"mosquito_risk":3,"arthritis_risk":5,"migraine_risk":7,"frizz_risk":1,"updated_at":"2026-06-21T18:38:56.080212+05:30"},{"city":"Imphal","state":"Manipur","latitude":24.817,"longitude":93.9368,"temp":25.7,"humidity":77,"rain":0.0,"pressure":920.7,"uv_index":8.8,"wind_gusts":27.4,"aqi":74,"pm10":18.1,"pm2_5":16.0,"no2":6.2,"co":311.0,"o3":66.0,"so2":2.0,"mosquito_risk":7,"arthritis_risk":5,"migraine_risk":7,"frizz_risk":1,"updated_at":"2026-06-21T18:38:56.080218+05:30"},{"city":"Aizawl","state":"Mizoram","latitude":23.7271,"longitude":92.7176,"temp":21.3,"humidity":99,"rain":0.1,"pressure":890.3,"uv_index":9.0,"wind_gusts":32.0,"aqi":38,"pm10":8.0,"pm2_5":7.0,"no2":3.1,"co":171.0,"o3":63.0,"so2":0.8,"mosquito_risk":6,"arthritis_risk":5,"migraine_risk":7,"frizz_risk":1,"updated_at":"2026-06-21T18:38:56.080224+05:30"},{"city":"Kohima","state":"Nagaland","latitude":25.6701,"longitude":94.1077,"temp":20.3,"humidity":98,"rain":0.1,"pressure":853.5,"uv_index":7.95,"wind_gusts":24.1,"aqi":52,"pm10":12.4,"pm2_5":10.6,"no2":4.7,"co":266.0,"o3":69.0,"so2":1.2,"mosquito_risk":6,"arthritis_risk":5,"migraine_risk":7,"frizz_risk":1,"updated_at":"2026-06-21T18:38:56.080230+05:30"},{"city":"Gangtok","state":"Sikkim","latitude":27.3314,"longitude":88.6138,"temp":18.4,"humidity":98,"rain":0.3,"pressure":834.5,"uv_index":8.25,"wind_gusts":29.2,"aqi":90,"pm10":3.9,"pm2_5":3.6,"no2":5.4,"co":364.0,"o3":117.0,"so2":2.1,"mosquito_risk":6,"arthritis_risk":10,"migraine_risk":7,"frizz_risk":1,"updated_at":"2026-06-21T18:38:56.080237+05:30"},{"city":"Siliguri","state":"West Bengal","latitude":26.7271,"longitude":88.3953,"temp":25.0,"humidity":94,"rain":0.1,"pressure":988.6,"uv_index":7.75,"wind_gusts":29.2,"aqi":88,"pm10":15.5,"pm2_5":13.7,"no2":9.4,"co":580.0,"o3":95.0,"so2":4.3,"mosquito_risk":10,"arthritis_risk":5,"migraine_risk":7,"frizz_risk":1,"updated_at":"2026-06-21T18:38:59.424196+05:30"},{"city":"Durgapur","state":"West Bengal","latitude":23.5204,"longitude":87.3119,"temp":29.6,"humidity":93,"rain":0.2,"pressure":990.5,"uv_index":8.75,"wind_gusts":34.2,"aqi":153,"pm10":60.8,"pm2_5":58.8,"no2":25.4,"co":734.0,"o3":131.0,"so2":51.3,"mosquito_risk":10,"arthritis_risk":5,"migraine_risk":7,"frizz_risk":1,"updated_at":"2026-06-21T18:38:59.424225+05:30"},{"city":"Asansol","state":"West Bengal","latitude":23.6739,"longitude":86.9524,"temp":29.8,"humidity":85,"rain":0.0,"pressure":988.8,"uv_index":8.05,"wind_gusts":40.7,"aqi":168,"pm10":55.5,"pm2_5":53.4,"no2":24.3,"co":446.0,"o3":136.0,"so2":51.7,"mosquito_risk":7,"arthritis_risk":5,"migraine_risk":7,"frizz_risk":1,"updated_at":"2026-06-21T18:38:59.424236+05:30"},{"city":"Pondicherry","state":"Puducherry","latitude":11.9139,"longitude":79.8145,"temp":29.7,"humidity":84,"rain":0.0,"pressure":1006.9,"uv_index":8.05,"wind_gusts":37.1,"aqi":67,"pm10":24.6,"pm2_5":17.1,"no2":5.0,"co":181.0,"o3":103.0,"so2":3.5,"mosquito_risk":7,"arthritis_risk":5,"migraine_risk":4,"frizz_risk":1,"updated_at":"2026-06-21T18:38:59.424245+05:30"},{"city":"Port Blair","state":"Andaman and Nicobar Islands","latitude":11.6234,"longitude":92.7265,"temp":26.8,"humidity":84,"rain":0.1,"pressure":1009.3,"uv_index":7.95,"wind_gusts":33.8,"aqi":56,"pm10":12.7,"pm2_5":6.1,"no2":0.4,"co":102.0,"o3":43.0,"so2":0.4,"mosquito_risk":10,"arthritis_risk":0,"migraine_risk":4,"frizz_risk":1,"updated_at":"2026-06-21T18:38:59.424253+05:30"},{"city":"Haridwar","state":"Uttarakhand","latitude":29.9457,"longitude":78.1642,"temp":33.2,"humidity":54,"rain":0.0,"pressure":966.7,"uv_index":7.6,"wind_gusts":29.9,"aqi":171,"pm10":91.0,"pm2_5":32.1,"no2":4.5,"co":307.0,"o3":154.0,"so2":9.3,"mosquito_risk":0,"arthritis_risk":5,"migraine_risk":7,"frizz_risk":1,"updated_at":"2026-06-21T18:38:59.424260+05:30"},{"city":"Rishikesh","state":"Uttarakhand","latitude":30.0869,"longitude":78.2676,"temp":31.9,"humidity":62,"rain":0.0,"pressure":959.7,"uv_index":7.7,"wind_gusts":23.0,"aqi":153,"pm10":33.9,"pm2_5":22.7,"no2":3.1,"co":319.0,"o3":165.0,"so2":8.1,"mosquito_risk":3,"arthritis_risk":5,"migraine_risk":7,"frizz_risk":1,"updated_at":"2026-06-21T18:38:59.424267+05:30"},{"city":"Nainital","state":"Uttarakhand","latitude":29.3919,"longitude":79.4542,"temp":20.1,"humidity":71,"rain":0.0,"pressure":803.7,"uv_index":8.6,"wind_gusts":31.0,"aqi":146,"pm10":58.7,"pm2_5":34.5,"no2":3.4,"co":285.0,"o3":151.0,"so2":6.3,"mosquito_risk":3,"arthritis_risk":5,"migraine_risk":7,"frizz_risk":0,"updated_at":"2026-06-21T18:38:59.424274+05:30"},{"city":"Mussoorie","state":"Uttarakhand","latitude":30.4599,"longitude":78.0664,"temp":19.9,"humidity":63,"rain":0.0,"pressure":801.2,"uv_index":8.15,"wind_gusts":42.8,"aqi":157,"pm10":29.5,"pm2_5":19.7,"no2":4.7,"co":312.0,"o3":153.0,"so2":6.9,"mosquito_risk":3,"arthritis_risk":5,"migraine_risk":7,"frizz_risk":0,"updated_at":"2026-06-21T18:38:59.424281+05:30"},{"city":"Dharamshala","state":"Himachal Pradesh","latitude":32.219,"longitude":76.3234,"temp":24.3,"humidity":51,"rain":0.0,"pressure":866.2,"uv_index":8.5,"wind_gusts":42.5,"aqi":89,"pm10":13.3,"pm2_5":8.9,"no2":3.5,"co":272.0,"o3":111.0,"so2":1.0,"mosquito_risk":0,"arthritis_risk":5,"migraine_risk":7,"frizz_risk":0,"updated_at":"2026-06-21T18:38:59.424288+05:30"},{"city":"Dalhousie","state":"Himachal Pradesh","latitude":32.5387,"longitude":75.971,"temp":20.1,"humidity":57,"rain":0.0,"pressure":803.1,"uv_index":8.75,"wind_gusts":38.5,"aqi":100,"pm10":16.3,"pm2_5":11.8,"no2":5.8,"co":301.0,"o3":138.0,"so2":1.8,"mosquito_risk":0,"arthritis_risk":5,"migraine_risk":7,"frizz_risk":0,"updated_at":"2026-06-21T18:38:59.424295+05:30"},{"city":"Patiala","state":"Punjab","latitude":30.3398,"longitude":76.3869,"temp":34.4,"humidity":38,"rain":0.0,"pressure":971.6,"uv_index":7.7,"wind_gusts":41.4,"aqi":397,"pm10":1005.8,"pm2_5":147.6,"no2":5.6,"co":276.0,"o3":121.0,"so2":6.3,"mosquito_risk":0,"arthritis_risk":5,"migraine_risk":7,"frizz_risk":1,"updated_at":"2026-06-21T18:38:59.424302+05:30"},{"city":"Bhatinda","state":"Punjab","latitude":30.211,"longitude":74.9455,"temp":34.4,"humidity":37,"rain":0.0,"pressure":977.8,"uv_index":8.3,"wind_gusts":40.0,"aqi":152,"pm10":77.3,"pm2_5":33.5,"no2":8.6,"co":192.0,"o3":102.0,"so2":6.3,"mosquito_risk":0,"arthritis_risk":5,"migraine_risk":7,"frizz_risk":1,"updated_at":"2026-06-21T18:38:59.424308+05:30"},{"city":"Rohtak","state":"Haryana","latitude":28.8955,"longitude":76.6066,"temp":34.7,"humidity":41,"rain":0.0,"pressure":975.0,"uv_index":7.75,"wind_gusts":32.4,"aqi":609,"pm10":599.8,"pm2_5":104.1,"no2":15.4,"co":207.0,"o3":93.0,"so2":5.9,"mosquito_risk":0,"arthritis_risk":5,"migraine_risk":7,"frizz_risk":1,"updated_at":"2026-06-21T18:38:59.424315+05:30"},{"city":"Panipat","state":"Haryana","latitude":29.3909,"longitude":76.9635,"temp":34.5,"humidity":42,"rain":0.0,"pressure":973.5,"uv_index":7.65,"wind_gusts":33.8,"aqi":1706,"pm10":2212.8,"pm2_5":293.4,"no2":9.4,"co":256.0,"o3":106.0,"so2":7.7,"mosquito_risk":0,"arthritis_risk":5,"migraine_risk":7,"frizz_risk":1,"updated_at":"2026-06-21T18:38:59.424322+05:30"},{"city":"Mathura","state":"Uttar Pradesh","latitude":27.4924,"longitude":77.6737,"temp":33.4,"humidity":46,"rain":0.0,"pressure":980.6,"uv_index":8.05,"wind_gusts":39.2,"aqi":833,"pm10":144.4,"pm2_5":44.7,"no2":9.5,"co":209.0,"o3":87.0,"so2":3.4,"mosquito_risk":0,"arthritis_risk":5,"migraine_risk":7,"frizz_risk":1,"updated_at":"2026-06-21T18:38:59.424348+05:30"},{"city":"Vrindavan","state":"Uttar Pradesh","latitude":27.5823,"longitude":77.7027,"temp":33.0,"humidity":49,"rain":0.0,"pressure":980.9,"uv_index":8.05,"wind_gusts":34.6,"aqi":833,"pm10":144.4,"pm2_5":44.7,"no2":9.5,"co":189.0,"o3":87.0,"so2":3.4,"mosquito_risk":0,"arthritis_risk":5,"migraine_risk":7,"frizz_risk":1,"updated_at":"2026-06-21T18:38:59.424358+05:30"},{"city":"Ayodhya","state":"Uttar Pradesh","latitude":26.7922,"longitude":82.1998,"temp":35.3,"humidity":45,"rain":0.0,"pressure":987.5,"uv_index":8.45,"wind_gusts":36.7,"aqi":163,"pm10":199.8,"pm2_5":75.9,"no2":6.7,"co":199.0,"o3":108.0,"so2":7.1,"mosquito_risk":0,"arthritis_risk":5,"migraine_risk":10,"frizz_risk":1,"updated_at":"2026-06-21T18:38:59.424364+05:30"},{"city":"Ratlam","state":"Madhya Pradesh","latitude":23.3315,"longitude":75.0367,"temp":32.6,"humidity":45,"rain":0.0,"pressure":950.4,"uv_index":8.45,"wind_gusts":40.7,"aqi":71,"pm10":43.0,"pm2_5":20.7,"no2":1.6,"co":134.0,"o3":86.0,"so2":3.9,"mosquito_risk":0,"arthritis_risk":5,"migraine_risk":7,"frizz_risk":1,"updated_at":"2026-06-21T18:38:59.424371+05:30"},{"city":"Sagar","state":"Madhya Pradesh","latitude":23.8388,"longitude":78.7378,"temp":30.5,"humidity":59,"rain":0.0,"pressure":946.3,"uv_index":6.75,"wind_gusts":41.0,"aqi":79,"pm10":40.0,"pm2_5":26.9,"no2":5.2,"co":146.0,"o3":80.0,"so2":2.1,"mosquito_risk":0,"arthritis_risk":5,"migraine_risk":7,"frizz_risk":1,"updated_at":"2026-06-21T18:38:59.424377+05:30"},{"city":"Satna","state":"Madhya Pradesh","latitude":24.6005,"longitude":80.8322,"temp":35.6,"humidity":36,"rain":0.0,"pressure":965.9,"uv_index":8.3,"wind_gusts":38.2,"aqi":84,"pm10":67.5,"pm2_5":29.8,"no2":3.4,"co":158.0,"o3":89.0,"so2":2.7,"mosquito_risk":0,"arthritis_risk":5,"migraine_risk":10,"frizz_risk":1,"updated_at":"2026-06-21T18:38:59.424384+05:30"},{"city":"Akola","state":"Maharashtra","latitude":20.7002,"longitude":77.0082,"temp":37.2,"humidity":29,"rain":0.0,"pressure":970.3,"uv_index":8.8,"wind_gusts":42.8,"aqi":56,"pm10":22.4,"pm2_5":13.7,"no2":4.0,"co":121.0,"o3":92.0,"so2":5.6,"mosquito_risk":0,"arthritis_risk":5,"migraine_risk":10,"frizz_risk":0,"updated_at":"2026-06-21T18:38:59.424392+05:30"},{"city":"Amravati","state":"Maharashtra","latitude":20.9374,"longitude":77.7796,"temp":35.9,"humidity":34,"rain":0.0,"pressure":963.1,"uv_index":8.35,"wind_gusts":42.5,"aqi":58,"pm10":23.2,"pm2_5":14.2,"no2":3.7,"co":144.0,"o3":94.0,"so2":5.9,"mosquito_risk":0,"arthritis_risk":5,"migraine_risk":10,"frizz_risk":1,"updated_at":"2026-06-21T18:38:59.424399+05:30"},{"city":"Latur","state":"Maharashtra","latitude":18.4088,"longitude":76.5604,"temp":34.0,"humidity":35,"rain":0.0,"pressure":936.7,"uv_index":6.85,"wind_gusts":28.1,"aqi":67,"pm10":18.7,"pm2_5":11.7,"no2":2.6,"co":178.0,"o3":97.0,"so2":1.6,"mosquito_risk":0,"arthritis_risk":5,"migraine_risk":7,"frizz_risk":1,"updated_at":"2026-06-21T18:38:59.424406+05:30"},{"city":"Nanded","state":"Maharashtra","latitude":19.1383,"longitude":77.3091,"temp":33.6,"humidity":50,"rain":0.1,"pressure":964.8,"uv_index":8.0,"wind_gusts":35.3,"aqi":59,"pm10":21.7,"pm2_5":15.9,"no2":4.1,"co":140.0,"o3":103.0,"so2":4.7,"mosquito_risk":3,"arthritis_risk":5,"migraine_risk":7,"frizz_risk":1,"updated_at":"2026-06-21T18:38:59.424413+05:30"},{"city":"Gulbarga","state":"Karnataka","latitude":17.3297,"longitude":76.8343,"temp":33.7,"humidity":38,"rain":0.0,"pressure":955.9,"uv_index":8.35,"wind_gusts":33.5,"aqi":55,"pm10":18.7,"pm2_5":11.6,"no2":5.3,"co":184.0,"o3":96.0,"so2":2.8,"mosquito_risk":0,"arthritis_risk":5,"migraine_risk":7,"frizz_risk":1,"updated_at":"2026-06-21T18:38:59.424420+05:30"},{"city":"Bidar","state":"Karnataka","latitude":17.9104,"longitude":77.5199,"temp":29.9,"humidity":62,"rain":0.0,"pressure":933.3,"uv_index":8.8,"wind_gusts":30.2,"aqi":66,"pm10":30.9,"pm2_5":22.0,"no2":9.0,"co":174.0,"o3":95.0,"so2":2.4,"mosquito_risk":7,"arthritis_risk":5,"migraine_risk":7,"frizz_risk":1,"updated_at":"2026-06-21T18:38:59.424426+05:30"},{"city":"Hospet","state":"Karnataka","latitude":15.2689,"longitude":76.3909,"temp":25.5,"humidity":93,"rain":0.1,"pressure":954.0,"uv_index":8.5,"wind_gusts":44.6,"aqi":33,"pm10":5.3,"pm2_5":4.3,"no2":4.1,"co":135.0,"o3":68.0,"so2":2.0,"mosquito_risk":10,"arthritis_risk":5,"migraine_risk":7,"frizz_risk":1,"updated_at":"2026-06-21T18:38:59.424433+05:30"},{"city":"Tirupur","state":"Tamil Nadu","latitude":11.1085,"longitude":77.3411,"temp":27.5,"humidity":72,"rain":0.0,"pressure":974.1,"uv_index":8.45,"wind_gusts":47.5,"aqi":52,"pm10":7.9,"pm2_5":7.0,"no2":7.0,"co":128.0,"o3":65.0,"so2":3.0,"mosquito_risk":7,"arthritis_risk":5,"migraine_risk":7,"frizz_risk":1,"updated_at":"2026-06-21T18:38:59.424440+05:30"},{"city":"Alappuzha","state":"Kerala","latitude":9.4981,"longitude":76.3388,"temp":25.9,"humidity":94,"rain":0.0,"pressure":1009.4,"uv_index":8.1,"wind_gusts":33.8,"aqi":35,"pm10":9.1,"pm2_5":6.3,"no2":3.6,"co":87.0,"o3":51.0,"so2":1.4,"mosquito_risk":7,"arthritis_risk":0,"migraine_risk":4,"frizz_risk":1,"updated_at":"2026-06-21T18:38:59.424446+05:30"},{"city":"Munnar","state":"Kerala","latitude":10.0889,"longitude":77.0595,"temp":17.3,"humidity":97,"rain":0.1,"pressure":856.4,"uv_index":8.25,"wind_gusts":32.4,"aqi":45,"pm10":4.9,"pm2_5":4.6,"no2":5.6,"co":101.0,"o3":47.0,"so2":1.6,"mosquito_risk":6,"arthritis_risk":10,"migraine_risk":7,"frizz_risk":1,"updated_at":"2026-06-21T18:38:59.424454+05:30"},{"city":"Silchar","state":"Assam","latitude":24.8333,"longitude":92.7789,"temp":28.2,"humidity":89,"rain":0.0,"pressure":1001.3,"uv_index":8.85,"wind_gusts":30.6,"aqi":79,"pm10":24.4,"pm2_5":19.8,"no2":5.3,"co":270.0,"o3":80.0,"so2":3.0,"mosquito_risk":7,"arthritis_risk":5,"migraine_risk":4,"frizz_risk":1,"updated_at":"2026-06-21T18:38:59.424461+05:30"},{"city":"Dibrugarh","state":"Assam","latitude":27.4728,"longitude":94.912,"temp":25.9,"humidity":95,"rain":0.0,"pressure":992.0,"uv_index":3.45,"wind_gusts":35.3,"aqi":73,"pm10":19.8,"pm2_5":18.0,"no2":8.1,"co":249.0,"o3":80.0,"so2":1.7,"mosquito_risk":7,"arthritis_risk":5,"migraine_risk":3,"frizz_risk":1,"updated_at":"2026-06-21T18:38:59.424468+05:30"}]