[{"city":"Delhi","state":"Delhi","latitude":28.6139,"longitude":77.209,"temp":35.0,"humidity":22,"rain":0.0,"pressure":978.8,"uv_index":7.4,"wind_gusts":48.6,"aqi":561,"pm10":856.8,"pm2_5":122.5,"mosquito_risk":0,"arthritis_risk":5,"migraine_risk":7,"frizz_risk":0,"updated_at":"2026-04-26T21:15:43.280215+05:30"},{"city":"Mumbai","state":"Maharashtra","latitude":19.076,"longitude":72.8777,"temp":29.4,"humidity":80,"rain":0.0,"pressure":1007.0,"uv_index":7.6,"wind_gusts":37.1,"aqi":117,"pm10":75.2,"pm2_5":36.9,"mosquito_risk":7,"arthritis_risk":5,"migraine_risk":4,"frizz_risk":1,"updated_at":"2026-04-26T21:15:43.280265+05:30"},{"city":"Bangalore","state":"Karnataka","latitude":12.9716,"longitude":77.5946,"temp":28.8,"humidity":38,"rain":0.0,"pressure":912.3,"uv_index":9.55,"wind_gusts":36.7,"aqi":157,"pm10":30.0,"pm2_5":26.3,"mosquito_risk":4,"arthritis_risk":5,"migraine_risk":7,"frizz_risk":0,"updated_at":"2026-04-26T21:15:43.280280+05:30"},{"city":"Hyderabad","state":"Telangana","latitude":17.385,"longitude":78.4867,"temp":34.7,"humidity":27,"rain":0.0,"pressure":952.9,"uv_index":9.25,"wind_gusts":33.5,"aqi":155,"pm10":74.0,"pm2_5":65.4,"mosquito_risk":0,"arthritis_risk":5,"migraine_risk":7,"frizz_risk":0,"updated_at":"2026-04-26T21:15:43.280289+05:30"},{"city":"Chennai","state":"Tamil Nadu","latitude":13.0827,"longitude":80.2707,"temp":29.2,"humidity":80,"rain":0.0,"pressure":1007.0,"uv_index":9.25,"wind_gusts":49.7,"aqi":42,"pm10":19.6,"pm2_5":12.9,"mosquito_risk":7,"arthritis_risk":5,"migraine_risk":4,"frizz_risk":1,"updated_at":"2026-04-26T21:15:43.280297+05:30"},{"city":"Kolkata","state":"West Bengal","latitude":22.5726,"longitude":88.3639,"temp":29.0,"humidity":78,"rain":0.0,"pressure":1004.2,"uv_index":8.9,"wind_gusts":40.0,"aqi":61,"pm10":21.9,"pm2_5":16.2,"mosquito_risk":7,"arthritis_risk":5,"migraine_risk":4,"frizz_risk":1,"updated_at":"2026-04-26T21:15:43.280307+05:30"},{"city":"Pune","state":"Maharashtra","latitude":18.5204,"longitude":73.8567,"temp":30.5,"humidity":56,"rain":0.0,"pressure":947.4,"uv_index":8.35,"wind_gusts":38.9,"aqi":165,"pm10":33.4,"pm2_5":24.8,"mosquito_risk":0,"arthritis_risk":5,"migraine_risk":7,"frizz_risk":1,"updated_at":"2026-04-26T21:15:43.280315+05:30"},{"city":"Ahmedabad","state":"Gujarat","latitude":23.0225,"longitude":72.5714,"temp":38.6,"humidity":12,"rain":0.0,"pressure":999.0,"uv_index":8.2,"wind_gusts":38.9,"aqi":81,"pm10":47.0,"pm2_5":23.6,"mosquito_risk":0,"arthritis_risk":5,"migraine_risk":10,"frizz_risk":0,"updated_at":"2026-04-26T21:15:43.280321+05:30"},{"city":"Jaipur","state":"Rajasthan","latitude":26.9124,"longitude":75.7873,"temp":36.1,"humidity":18,"rain":0.0,"pressure":957.3,"uv_index":8.05,"wind_gusts":41.8,"aqi":149,"pm10":172.8,"pm2_5":38.1,"mosquito_risk":0,"arthritis_risk":5,"migraine_risk":10,"frizz_risk":0,"updated_at":"2026-04-26T21:15:43.280329+05:30"},{"city":"Lucknow","state":"Uttar Pradesh","latitude":26.8467,"longitude":80.9462,"temp":36.0,"humidity":19,"rain":0.0,"pressure":989.2,"uv_index":7.9,"wind_gusts":52.6,"aqi":155,"pm10":410.7,"pm2_5":75.7,"mosquito_risk":0,"arthritis_risk":5,"migraine_risk":10,"frizz_risk":0,"updated_at":"2026-04-26T21:15:43.280336+05:30"},{"city":"Kanpur","state":"Uttar Pradesh","latitude":26.4499,"longitude":80.3319,"temp":36.3,"humidity":19,"rain":0.0,"pressure":987.8,"uv_index":7.9,"wind_gusts":54.7,"aqi":501,"pm10":750.6,"pm2_5":105.0,"mosquito_risk":0,"arthritis_risk":5,"migraine_risk":10,"frizz_risk":0,"updated_at":"2026-04-26T21:15:43.280343+05:30"},{"city":"Chandigarh","state":"Chandigarh","latitude":30.7333,"longitude":76.7794,"temp":29.5,"humidity":29,"rain":0.0,"pressure":964.8,"uv_index":7.4,"wind_gusts":45.7,"aqi":106,"pm10":21.8,"pm2_5":15.4,"mosquito_risk":4,"arthritis_risk":5,"migraine_risk":7,"frizz_risk":0,"updated_at":"2026-04-26T21:15:43.280349+05:30"},{"city":"Srinagar","state":"Jammu and Kashmir","latitude":34.0837,"longitude":74.7973,"temp":14.7,"humidity":75,"rain":0.0,"pressure":838.8,"uv_index":8.6,"wind_gusts":16.2,"aqi":86,"pm10":37.4,"pm2_5":27.6,"mosquito_risk":3,"arthritis_risk":5,"migraine_risk":7,"frizz_risk":0,"updated_at":"2026-04-26T21:15:43.280356+05:30"},{"city":"Jammu","state":"Jammu and Kashmir","latitude":32.7266,"longitude":74.857,"temp":30.5,"humidity":21,"rain":0.0,"pressure":968.5,"uv_index":8.15,"wind_gusts":33.8,"aqi":84,"pm10":45.2,"pm2_5":30.9,"mosquito_risk":0,"arthritis_risk":5,"migraine_risk":7,"frizz_risk":0,"updated_at":"2026-04-26T21:15:43.280362+05:30"},{"city":"Amritsar","state":"Punjab","latitude":31.634,"longitude":74.8723,"temp":31.8,"humidity":25,"rain":0.0,"pressure":976.4,"uv_index":8.1,"wind_gusts":36.7,"aqi":109,"pm10":28.2,"pm2_5":16.8,"mosquito_risk":0,"arthritis_risk":5,"migraine_risk":7,"frizz_risk":0,"updated_at":"2026-04-26T21:15:43.280368+05:30"},{"city":"Ludhiana","state":"Punjab","latitude":30.901,"longitude":75.8573,"temp":32.0,"humidity":25,"rain":0.0,"pressure":974.5,"uv_index":7.65,"wind_gusts":41.8,"aqi":95,"pm10":59.8,"pm2_5":23.6,"mosquito_risk":0,"arthritis_risk":5,"migraine_risk":7,"frizz_risk":0,"updated_at":"2026-04-26T21:15:43.280376+05:30"},{"city":"Jalandhar","state":"Punjab","latitude":31.326,"longitude":75.5762,"temp":32.0,"humidity":25,"rain":0.0,"pressure":975.4,"uv_index":7.85,"wind_gusts":37.4,"aqi":107,"pm10":57.4,"pm2_5":23.5,"mosquito_risk":0,"arthritis_risk":5,"migraine_risk":7,"frizz_risk":0,"updated_at":"2026-04-26T21:15:43.280381+05:30"},{"city":"Dehradun","state":"Uttarakhand","latitude":30.6284,"longitude":78.0322,"temp":16.3,"humidity":48,"rain":0.0,"pressure":826.1,"uv_index":7.8,"wind_gusts":49.0,"aqi":94,"pm10":21.5,"pm2_5":10.5,"mosquito_risk":0,"arthritis_risk":5,"migraine_risk":7,"frizz_risk":0,"updated_at":"2026-04-26T21:15:43.280387+05:30"},{"city":"Shimla","state":"Himachal Pradesh","latitude":31.1048,"longitude":77.1734,"temp":15.6,"humidity":40,"rain":0.0,"pressure":783.0,"uv_index":7.9,"wind_gusts":52.9,"aqi":93,"pm10":24.0,"pm2_5":10.5,"mosquito_risk":0,"arthritis_risk":5,"migraine_risk":7,"frizz_risk":0,"updated_at":"2026-04-26T21:15:43.280393+05:30"},{"city":"Manali","state":"Himachal Pradesh","latitude":32.2396,"longitude":77.1887,"temp":10.7,"humidity":54,"rain":0.0,"pressure":813.5,"uv_index":9.8,"wind_gusts":45.0,"aqi":125,"pm10":24.6,"pm2_5":10.0,"mosquito_risk":0,"arthritis_risk":5,"migraine_risk":7,"frizz_risk":0,"updated_at":"2026-04-26T21:15:43.280399+05:30"},{"city":"Gurgaon","state":"Haryana","latitude":28.4595,"longitude":77.0266,"temp":33.0,"humidity":24,"rain":0.0,"pressure":977.3,"uv_index":7.55,"wind_gusts":49.7,"aqi":1567,"pm10":1538.5,"pm2_5":182.1,"mosquito_risk":0,"arthritis_risk":5,"migraine_risk":7,"frizz_risk":0,"updated_at":"2026-04-26T21:15:43.280407+05:30"},{"city":"Noida","state":"Uttar Pradesh","latitude":28.5355,"longitude":77.391,"temp":35.5,"humidity":20,"rain":0.0,"pressure":980.1,"uv_index":7.45,"wind_gusts":43.9,"aqi":1567,"pm10":1538.5,"pm2_5":182.1,"mosquito_risk":0,"arthritis_risk":5,"migraine_risk":10,"frizz_risk":0,"updated_at":"2026-04-26T21:15:43.280413+05:30"},{"city":"Ghaziabad","state":"Uttar Pradesh","latitude":28.6692,"longitude":77.4538,"temp":36.1,"humidity":18,"rain":0.0,"pressure":978.1,"uv_index":7.4,"wind_gusts":47.9,"aqi":460,"pm10":761.8,"pm2_5":111.1,"mosquito_risk":0,"arthritis_risk":5,"migraine_risk":10,"frizz_risk":0,"updated_at":"2026-04-26T21:15:43.280419+05:30"},{"city":"Faridabad","state":"Haryana","latitude":28.4089,"longitude":77.3178,"temp":35.8,"humidity":20,"rain":0.0,"pressure":979.6,"uv_index":7.5,"wind_gusts":53.3,"aqi":1567,"pm10":1538.5,"pm2_5":182.1,"mosquito_risk":0,"arthritis_risk":5,"migraine_risk":10,"frizz_risk":0,"updated_at":"2026-04-26T21:15:43.280424+05:30"},{"city":"Meerut","state":"Uttar Pradesh","latitude":28.9845,"longitude":77.7064,"temp":32.3,"humidity":24,"rain":0.0,"pressure":976.9,"uv_index":7.3,"wind_gusts":50.8,"aqi":460,"pm10":761.8,"pm2_5":111.1,"mosquito_risk":0,"arthritis_risk":5,"migraine_risk":7,"frizz_risk":0,"updated_at":"2026-04-26T21:15:43.280430+05:30"},{"city":"Agra","state":"Uttar Pradesh","latitude":27.1767,"longitude":78.0081,"temp":34.5,"humidity":24,"rain":0.0,"pressure":983.8,"uv_index":7.8,"wind_gusts":50.4,"aqi":972,"pm10":1020.7,"pm2_5":111.5,"mosquito_risk":0,"arthritis_risk":5,"migraine_risk":7,"frizz_risk":0,"updated_at":"2026-04-26T21:15:43.280437+05:30"},{"city":"Varanasi","state":"Uttar Pradesh","latitude":25.3176,"longitude":82.9739,"temp":33.8,"humidity":38,"rain":0.0,"pressure":993.7,"uv_index":8.5,"wind_gusts":53.3,"aqi":143,"pm10":108.7,"pm2_5":52.5,"mosquito_risk":0,"arthritis_risk":5,"migraine_risk":7,"frizz_risk":1,"updated_at":"2026-04-26T21:15:43.280443+05:30"},{"city":"Prayagraj","state":"Uttar Pradesh","latitude":25.4358,"longitude":81.8463,"temp":35.6,"humidity":21,"rain":0.0,"pressure":991.6,"uv_index":8.4,"wind_gusts":50.8,"aqi":136,"pm10":111.3,"pm2_5":41.1,"mosquito_risk":0,"arthritis_risk":5,"migraine_risk":10,"frizz_risk":0,"updated_at":"2026-04-26T21:15:43.280449+05:30"},{"city":"Gorakhpur","state":"Uttar Pradesh","latitude":26.7606,"longitude":83.3732,"temp":27.9,"humidity":64,"rain":0.0,"pressure":994.6,"uv_index":8.35,"wind_gusts":40.7,"aqi":172,"pm10":75.4,"pm2_5":57.5,"mosquito_risk":7,"arthritis_risk":5,"migraine_risk":7,"frizz_risk":1,"updated_at":"2026-04-26T21:15:43.280455+05:30"},{"city":"Bareilly","state":"Uttar Pradesh","latitude":28.367,"longitude":79.4304,"temp":32.5,"humidity":28,"rain":0.0,"pressure":981.9,"uv_index":7.65,"wind_gusts":54.7,"aqi":116,"pm10":160.7,"pm2_5":42.3,"mosquito_risk":0,"arthritis_risk":5,"migraine_risk":7,"frizz_risk":0,"updated_at":"2026-04-26T21:15:43.280461+05:30"},{"city":"Aligarh","state":"Uttar Pradesh","latitude":27.8974,"longitude":78.088,"temp":33.0,"humidity":26,"rain":0.0,"pressure":981.1,"uv_index":7.6,"wind_gusts":51.8,"aqi":1043,"pm10":1329.9,"pm2_5":178.8,"mosquito_risk":0,"arthritis_risk":5,"migraine_risk":7,"frizz_risk":0,"updated_at":"2026-04-26T21:15:43.280468+05:30"},{"city":"Moradabad","state":"Uttar Pradesh","latitude":28.8386,"longitude":78.7733,"temp":32.8,"humidity":27,"rain":0.0,"pressure":978.8,"uv_index":7.5,"wind_gusts":55.8,"aqi":129,"pm10":244.0,"pm2_5":57.2,"mosquito_risk":0,"arthritis_risk":5,"migraine_risk":7,"frizz_risk":0,"updated_at":"2026-04-26T21:15:43.280474+05:30"},{"city":"Saharanpur","state":"Uttar Pradesh","latitude":29.9637,"longitude":77.546,"temp":32.2,"humidity":21,"rain":0.0,"pressure":970.8,"uv_index":7.1,"wind_gusts":52.2,"aqi":93,"pm10":128.5,"pm2_5":30.4,"mosquito_risk":0,"arthritis_risk":5,"migraine_risk":7,"frizz_risk":0,"updated_at":"2026-04-26T21:15:43.280480+05:30"},{"city":"Jhansi","state":"Uttar Pradesh","latitude":25.4484,"longitude":78.5685,"temp":34.7,"humidity":21,"rain":0.0,"pressure":975.0,"uv_index":8.3,"wind_gusts":49.0,"aqi":92,"pm10":56.2,"pm2_5":22.2,"mosquito_risk":0,"arthritis_risk":5,"migraine_risk":7,"frizz_risk":0,"updated_at":"2026-04-26T21:15:46.570958+05:30"},{"city":"Surat","state":"Gujarat","latitude":21.1702,"longitude":72.8311,"temp":30.5,"humidity":65,"rain":0.0,"pressure":1004.4,"uv_index":7.85,"wind_gusts":36.0,"aqi":114,"pm10":68.9,"pm2_5":43.5,"mosquito_risk":3,"arthritis_risk":5,"migraine_risk":4,"frizz_risk":1,"updated_at":"2026-04-26T21:15:46.570989+05:30"},{"city":"Vadodara","state":"Gujarat","latitude":22.3072,"longitude":73.1812,"temp":36.5,"humidity":20,"rain":0.0,"pressure":1001.5,"uv_index":8.15,"wind_gusts":41.4,"aqi":140,"pm10":53.9,"pm2_5":39.2,"mosquito_risk":0,"arthritis_risk":5,"migraine_risk":7,"frizz_risk":0,"updated_at":"2026-04-26T21:15:46.570999+05:30"},{"city":"Rajkot","state":"Gujarat","latitude":22.3039,"longitude":70.8022,"temp":32.0,"humidity":31,"rain":0.0,"pressure":992.6,"uv_index":7.85,"wind_gusts":39.2,"aqi":59,"pm10":32.9,"pm2_5":14.8,"mosquito_risk":0,"arthritis_risk":5,"migraine_risk":7,"frizz_risk":0,"updated_at":"2026-04-26T21:15:46.571007+05:30"},{"city":"Thane","state":"Maharashtra","latitude":19.2183,"longitude":72.9781,"temp":29.9,"humidity":74,"rain":0.0,"pressure":1006.5,"uv_index":7.6,"wind_gusts":32.8,"aqi":117,"pm10":75.2,"pm2_5":36.9,"mosquito_risk":7,"arthritis_risk":5,"migraine_risk":4,"frizz_risk":1,"updated_at":"2026-04-26T21:15:46.571015+05:30"},{"city":"Nagpur","state":"Maharashtra","latitude":21.1458,"longitude":79.0882,"temp":39.3,"humidity":14,"rain":0.0,"pressure":970.7,"uv_index":8.9,"wind_gusts":34.6,"aqi":186,"pm10":85.0,"pm2_5":44.5,"mosquito_risk":0,"arthritis_risk":5,"migraine_risk":10,"frizz_risk":0,"updated_at":"2026-04-26T21:15:46.571022+05:30"},{"city":"Nashik","state":"Maharashtra","latitude":19.9975,"longitude":73.7898,"temp":31.6,"humidity":30,"rain":0.0,"pressure":944.8,"uv_index":8.1,"wind_gusts":36.0,"aqi":141,"pm10":36.9,"pm2_5":26.3,"mosquito_risk":0,"arthritis_risk":5,"migraine_risk":7,"frizz_risk":0,"updated_at":"2026-04-26T21:15:46.571029+05:30"},{"city":"Aurangabad","state":"Maharashtra","latitude":19.8762,"longitude":75.3433,"temp":35.0,"humidity":15,"rain":0.0,"pressure":942.8,"uv_index":9.05,"wind_gusts":32.4,"aqi":111,"pm10":21.2,"pm2_5":15.8,"mosquito_risk":0,"arthritis_risk":5,"migraine_risk":7,"frizz_risk":0,"updated_at":"2026-04-26T21:15:46.571036+05:30"},{"city":"Solapur","state":"Maharashtra","latitude":17.6599,"longitude":75.9064,"temp":36.8,"humidity":19,"rain":0.0,"pressure":955.4,"uv_index":9.05,"wind_gusts":25.2,"aqi":166,"pm10":54.5,"pm2_5":45.9,"mosquito_risk":0,"arthritis_risk":5,"migraine_risk":10,"frizz_risk":0,"updated_at":"2026-04-26T21:15:46.571043+05:30"},{"city":"Kolhapur","state":"Maharashtra","latitude":16.705,"longitude":74.2433,"temp":26.9,"humidity":76,"rain":0.0,"pressure":947.5,"uv_index":9.0,"wind_gusts":50.8,"aqi":153,"pm10":23.2,"pm2_5":18.9,"mosquito_risk":7,"arthritis_risk":5,"migraine_risk":7,"frizz_risk":1,"updated_at":"2026-04-26T21:15:46.571050+05:30"},{"city":"Goa","state":"Goa","latitude":15.2993,"longitude":74.124,"temp":30.3,"humidity":76,"rain":0.0,"pressure":997.5,"uv_index":8.95,"wind_gusts":34.9,"aqi":89,"pm10":34.8,"pm2_5":25.1,"mosquito_risk":3,"arthritis_risk":5,"migraine_risk":7,"frizz_risk":1,"updated_at":"2026-04-26T21:15:46.571057+05:30"},{"city":"Jodhpur","state":"Rajasthan","latitude":26.2389,"longitude":73.0243,"temp":36.5,"humidity":19,"rain":0.0,"pressure":979.5,"uv_index":8.3,"wind_gusts":34.2,"aqi":80,"pm10":163.0,"pm2_5":24.9,"mosquito_risk":0,"arthritis_risk":5,"migraine_risk":10,"frizz_risk":0,"updated_at":"2026-04-26T21:15:46.571064+05:30"},{"city":"Udaipur","state":"Rajasthan","latitude":24.5854,"longitude":73.7125,"temp":34.3,"humidity":16,"rain":0.0,"pressure":945.5,"uv_index":8.75,"wind_gusts":47.9,"aqi":85,"pm10":15.7,"pm2_5":7.4,"mosquito_risk":0,"arthritis_risk":5,"migraine_risk":7,"frizz_risk":0,"updated_at":"2026-04-26T21:15:46.571070+05:30"},{"city":"Kota","state":"Rajasthan","latitude":25.2138,"longitude":75.8648,"temp":34.0,"humidity":25,"rain":0.0,"pressure":976.1,"uv_index":8.3,"wind_gusts":46.8,"aqi":91,"pm10":58.9,"pm2_5":26.1,"mosquito_risk":0,"arthritis_risk":5,"migraine_risk":7,"frizz_risk":0,"updated_at":"2026-04-26T21:15:46.571077+05:30"},{"city":"Bikaner","state":"Rajasthan","latitude":28.0229,"longitude":73.3119,"temp":35.8,"humidity":22,"rain":0.0,"pressure":978.3,"uv_index":8.15,"wind_gusts":37.1,"aqi":72,"pm10":48.5,"pm2_5":16.8,"mosquito_risk":0,"arthritis_risk":5,"migraine_risk":10,"frizz_risk":0,"updated_at":"2026-04-26T21:15:46.571084+05:30"},{"city":"Ajmer","state":"Rajasthan","latitude":26.4499,"longitude":74.6399,"temp":34.9,"humidity":20,"rain":0.0,"pressure":952.7,"uv_index":8.25,"wind_gusts":41.4,"aqi":67,"pm10":58.3,"pm2_5":20.2,"mosquito_risk":0,"arthritis_risk":5,"migraine_risk":7,"frizz_risk":0,"updated_at":"2026-04-26T21:15:46.571091+05:30"},{"city":"Gwalior","state":"Madhya Pradesh","latitude":26.2183,"longitude":78.1828,"temp":35.6,"humidity":21,"rain":0.0,"pressure":979.9,"uv_index":8.0,"wind_gusts":45.4,"aqi":123,"pm10":63.6,"pm2_5":21.8,"mosquito_risk":0,"arthritis_risk":5,"migraine_risk":10,"frizz_risk":0,"updated_at":"2026-04-26T21:15:46.571098+05:30"},{"city":"Indore","state":"Madhya Pradesh","latitude":22.7196,"longitude":75.8577,"temp":33.5,"humidity":28,"rain":0.0,"pressure":947.1,"uv_index":8.65,"wind_gusts":37.4,"aqi":103,"pm10":48.4,"pm2_5":25.1,"mosquito_risk":0,"arthritis_risk":5,"migraine_risk":7,"frizz_risk":0,"updated_at":"2026-04-26T21:15:46.571104+05:30"},{"city":"Bhopal","state":"Madhya Pradesh","latitude":23.2599,"longitude":77.4126,"temp":33.8,"humidity":25,"rain":0.0,"pressure":952.7,"uv_index":8.65,"wind_gusts":37.8,"aqi":111,"pm10":68.7,"pm2_5":30.6,"mosquito_risk":0,"arthritis_risk":5,"migraine_risk":7,"frizz_risk":0,"updated_at":"2026-04-26T21:15:46.571111+05:30"},{"city":"Jabalpur","state":"Madhya Pradesh","latitude":23.1815,"longitude":79.9864,"temp":33.1,"humidity":22,"rain":0.0,"pressure":959.6,"uv_index":8.7,"wind_gusts":42.1,"aqi":73,"pm10":65.2,"pm2_5":26.3,"mosquito_risk":0,"arthritis_risk":5,"migraine_risk":7,"frizz_risk":0,"updated_at":"2026-04-26T21:15:46.571118+05:30"},{"city":"Ujjain","state":"Madhya Pradesh","latitude":23.1765,"longitude":75.7885,"temp":32.1,"humidity":25,"rain":0.0,"pressure":952.1,"uv_index":8.55,"wind_gusts":41.4,"aqi":77,"pm10":51.5,"pm2_5":27.6,"mosquito_risk":0,"arthritis_risk":5,"migraine_risk":7,"frizz_risk":0,"updated_at":"2026-04-26T21:15:46.571125+05:30"},{"city":"Visakhapatnam","state":"Andhra Pradesh","latitude":17.6868,"longitude":83.2185,"temp":28.6,"humidity":85,"rain":0.0,"pressure":1003.3,"uv_index":8.95,"wind_gusts":47.5,"aqi":56,"pm10":21.8,"pm2_5":14.7,"mosquito_risk":7,"arthritis_risk":5,"migraine_risk":4,"frizz_risk":1,"updated_at":"2026-04-26T21:15:46.571132+05:30"},{"city":"Vijayawada","state":"Andhra Pradesh","latitude":16.5062,"longitude":80.648,"temp":29.0,"humidity":76,"rain":0.0,"pressure":1002.1,"uv_index":8.9,"wind_gusts":37.4,"aqi":57,"pm10":20.6,"pm2_5":15.4,"mosquito_risk":7,"arthritis_risk":5,"migraine_risk":4,"frizz_risk":1,"updated_at":"2026-04-26T21:15:46.571138+05:30"},{"city":"Guntur","state":"Andhra Pradesh","latitude":16.3067,"longitude":80.4365,"temp":28.5,"humidity":84,"rain":0.0,"pressure":1003.3,"uv_index":8.95,"wind_gusts":40.7,"aqi":74,"pm10":21.1,"pm2_5":16.4,"mosquito_risk":7,"arthritis_risk":5,"migraine_risk":4,"frizz_risk":1,"updated_at":"2026-04-26T21:15:46.571145+05:30"},{"city":"Nellore","state":"Andhra Pradesh","latitude":14.4426,"longitude":79.9865,"temp":29.2,"humidity":76,"rain":0.0,"pressure":1005.0,"uv_index":9.1,"wind_gusts":43.9,"aqi":73,"pm10":17.9,"pm2_5":13.2,"mosquito_risk":7,"arthritis_risk":5,"migraine_risk":4,"frizz_risk":1,"updated_at":"2026-04-26T21:15:46.571153+05:30"},{"city":"Kurnool","state":"Andhra Pradesh","latitude":15.8281,"longitude":78.0373,"temp":34.9,"humidity":26,"rain":0.0,"pressure":975.1,"uv_index":9.2,"wind_gusts":33.8,"aqi":144,"pm10":45.1,"pm2_5":38.4,"mosquito_risk":0,"arthritis_risk":5,"migraine_risk":7,"frizz_risk":0,"updated_at":"2026-04-26T21:15:46.571160+05:30"},{"city":"Kakinada","state":"Andhra Pradesh","latitude":16.9891,"longitude":82.2475,"temp":28.8,"humidity":81,"rain":0.0,"pressure":1007.0,"uv_index":8.85,"wind_gusts":40.3,"aqi":47,"pm10":20.5,"pm2_5":12.2,"mosquito_risk":7,"arthritis_risk":5,"migraine_risk":4,"frizz_risk":1,"updated_at":"2026-04-26T21:15:46.571167+05:30"},{"city":"Tirupati","state":"Andhra Pradesh","latitude":13.6288,"longitude":79.4192,"temp":30.6,"humidity":55,"rain":0.0,"pressure":990.9,"uv_index":9.3,"wind_gusts":40.3,"aqi":87,"pm10":22.2,"pm2_5":19.6,"mosquito_risk":0,"arthritis_risk":5,"migraine_risk":7,"frizz_risk":1,"updated_at":"2026-04-26T21:15:46.571174+05:30"},{"city":"Warangal","state":"Telangana","latitude":17.9689,"longitude":79.5941,"temp":33.9,"humidity":29,"rain":0.0,"pressure":977.3,"uv_index":9.0,"wind_gusts":35.3,"aqi":127,"pm10":40.5,"pm2_5":35.7,"mosquito_risk":0,"arthritis_risk":5,"migraine_risk":7,"frizz_risk":0,"updated_at":"2026-04-26T21:15:46.571180+05:30"},{"city":"Nizamabad","state":"Telangana","latitude":18.6725,"longitude":78.0941,"temp":33.2,"humidity":26,"rain":0.0,"pressure":962.7,"uv_index":8.6,"wind_gusts":31.3,"aqi":139,"pm10":46.3,"pm2_5":37.8,"mosquito_risk":0,"arthritis_risk":5,"migraine_risk":7,"frizz_risk":0,"updated_at":"2026-04-26T21:15:46.571187+05:30"},{"city":"Mysore","state":"Karnataka","latitude":12.2958,"longitude":76.6396,"temp":26.9,"humidity":65,"rain":0.0,"pressure":928.1,"uv_index":9.45,"wind_gusts":40.0,"aqi":137,"pm10":43.3,"pm2_5":36.1,"mosquito_risk":7,"arthritis_risk":5,"migraine_risk":7,"frizz_risk":1,"updated_at":"2026-04-26T21:15:46.571193+05:30"},{"city":"Mangalore","state":"Karnataka","latitude":12.9141,"longitude":74.856,"temp":30.3,"humidity":76,"rain":0.0,"pressure":1006.1,"uv_index":9.05,"wind_gusts":39.2,"aqi":81,"pm10":32.8,"pm2_5":25.7,"mosquito_risk":3,"arthritis_risk":5,"migraine_risk":4,"frizz_risk":1,"updated_at":"2026-04-26T21:15:46.571200+05:30"},{"city":"Hubli-Dharwad","state":"Karnataka","latitude":15.3647,"longitude":75.124,"temp":27.0,"humidity":76,"rain":0.0,"pressure":940.7,"uv_index":8.85,"wind_gusts":45.7,"aqi":136,"pm10":37.1,"pm2_5":34.0,"mosquito_risk":7,"arthritis_risk":5,"migraine_risk":7,"frizz_risk":1,"updated_at":"2026-04-26T21:15:46.571207+05:30"},{"city":"Belgaum","state":"Karnataka","latitude":15.8497,"longitude":74.4977,"temp":24.5,"humidity":94,"rain":0.0,"pressure":925.6,"uv_index":8.85,"wind_gusts":48.2,"aqi":139,"pm10":33.8,"pm2_5":29.7,"mosquito_risk":3,"arthritis_risk":5,"migraine_risk":7,"frizz_risk":1,"updated_at":"2026-04-26T21:15:49.855385+05:30"},{"city":"Coimbatore","state":"Tamil Nadu","latitude":11.0168,"longitude":76.9558,"temp":28.6,"humidity":70,"rain":0.0,"pressure":961.7,"uv_index":9.35,"wind_gusts":39.6,"aqi":122,"pm10":37.6,"pm2_5":32.7,"mosquito_risk":7,"arthritis_risk":5,"migraine_risk":7,"frizz_risk":1,"updated_at":"2026-04-26T21:15:49.855415+05:30"},{"city":"Madurai","state":"Tamil Nadu","latitude":9.9252,"longitude":78.1198,"temp":31.0,"humidity":57,"rain":0.0,"pressure":993.4,"uv_index":9.25,"wind_gusts":37.4,"aqi":70,"pm10":10.8,"pm2_5":10.4,"mosquito_risk":0,"arthritis_risk":5,"migraine_risk":7,"frizz_risk":1,"updated_at":"2026-04-26T21:15:49.855424+05:30"},{"city":"Trichy","state":"Tamil Nadu","latitude":10.7905,"longitude":78.7047,"temp":30.2,"humidity":65,"rain":0.0,"pressure":999.7,"uv_index":9.25,"wind_gusts":30.6,"aqi":50,"pm10":14.4,"pm2_5":13.8,"mosquito_risk":3,"arthritis_risk":5,"migraine_risk":7,"frizz_risk":1,"updated_at":"2026-04-26T21:15:49.855433+05:30"},{"city":"Salem","state":"Tamil Nadu","latitude":11.6643,"longitude":78.146,"temp":32.3,"humidity":38,"rain":0.0,"pressure":976.9,"uv_index":9.35,"wind_gusts":41.8,"aqi":101,"pm10":21.1,"pm2_5":19.6,"mosquito_risk":0,"arthritis_risk":5,"migraine_risk":7,"frizz_risk":1,"updated_at":"2026-04-26T21:15:49.855440+05:30"},{"city":"Tirunelveli","state":"Tamil Nadu","latitude":8.7139,"longitude":77.7567,"temp":29.9,"humidity":65,"rain":0.0,"pressure":1003.8,"uv_index":9.2,"wind_gusts":37.4,"aqi":77,"pm10":10.7,"pm2_5":10.2,"mosquito_risk":7,"arthritis_risk":5,"migraine_risk":4,"frizz_risk":1,"updated_at":"2026-04-26T21:15:49.855449+05:30"},{"city":"Vellore","state":"Tamil Nadu","latitude":12.9165,"longitude":79.1325,"temp":29.6,"humidity":66,"rain":0.0,"pressure":984.2,"uv_index":9.3,"wind_gusts":34.6,"aqi":88,"pm10":30.4,"pm2_5":28.1,"mosquito_risk":7,"arthritis_risk":5,"migraine_risk":7,"frizz_risk":1,"updated_at":"2026-04-26T21:15:49.855456+05:30"},{"city":"Erode","state":"Tamil Nadu","latitude":11.341,"longitude":77.7172,"temp":33.9,"humidity":32,"rain":0.0,"pressure":988.3,"uv_index":9.3,"wind_gusts":39.2,"aqi":86,"pm10":18.3,"pm2_5":16.9,"mosquito_risk":0,"arthritis_risk":5,"migraine_risk":7,"frizz_risk":0,"updated_at":"2026-04-26T21:15:49.855464+05:30"},{"city":"Kochi","state":"Kerala","latitude":9.9312,"longitude":76.2673,"temp":30.2,"humidity":73,"rain":0.0,"pressure":1008.8,"uv_index":9.0,"wind_gusts":39.2,"aqi":87,"pm10":22.4,"pm2_5":19.6,"mosquito_risk":3,"arthritis_risk":0,"migraine_risk":4,"frizz_risk":1,"updated_at":"2026-04-26T21:15:49.855471+05:30"},{"city":"Thiruvananthapuram","state":"Kerala","latitude":8.5241,"longitude":76.9366,"temp":28.2,"humidity":81,"rain":0.0,"pressure":1008.3,"uv_index":8.8,"wind_gusts":32.4,"aqi":52,"pm10":11.8,"pm2_5":9.0,"mosquito_risk":7,"arthritis_risk":0,"migraine_risk":4,"frizz_risk":1,"updated_at":"2026-04-26T21:15:49.855479+05:30"},{"city":"Kozhikode","state":"Kerala","latitude":11.2588,"longitude":75.7804,"temp":28.7,"humidity":85,"rain":0.0,"pressure":1007.3,"uv_index":8.4,"wind_gusts":38.2,"aqi":56,"pm10":16.2,"pm2_5":12.1,"mosquito_risk":7,"arthritis_risk":5,"migraine_risk":4,"frizz_risk":1,"updated_at":"2026-04-26T21:15:49.855486+05:30"},{"city":"Thrissur","state":"Kerala","latitude":10.5276,"longitude":76.2144,"temp":29.0,"humidity":82,"rain":0.0,"pressure":1007.0,"uv_index":9.0,"wind_gusts":41.0,"aqi":85,"pm10":16.2,"pm2_5":14.6,"mosquito_risk":7,"arthritis_risk":5,"migraine_risk":4,"frizz_risk":1,"updated_at":"2026-04-26T21:15:49.855493+05:30"},{"city":"Kannur","state":"Kerala","latitude":11.8745,"longitude":75.3704,"temp":29.7,"humidity":80,"rain":0.0,"pressure":1006.5,"uv_index":9.0,"wind_gusts":39.6,"aqi":70,"pm10":23.9,"pm2_5":18.7,"mosquito_risk":7,"arthritis_risk":5,"migraine_risk":4,"frizz_risk":1,"updated_at":"2026-04-26T21:15:49.855500+05:30"},{"city":"Patna","state":"Bihar","latitude":25.5941,"longitude":85.1376,"temp":28.0,"humidity":64,"rain":0.0,"pressure":998.4,"uv_index":8.65,"wind_gusts":45.4,"aqi":200,"pm10":72.9,"pm2_5":62.9,"mosquito_risk":7,"arthritis_risk":5,"migraine_risk":7,"frizz_risk":1,"updated_at":"2026-04-26T21:15:49.855507+05:30"},{"city":"Gaya","state":"Bihar","latitude":24.7914,"longitude":85.0002,"temp":28.8,"humidity":63,"rain":0.0,"pressure":991.2,"uv_index":8.7,"wind_gusts":36.7,"aqi":179,"pm10":70.8,"pm2_5":63.3,"mosquito_risk":7,"arthritis_risk":5,"migraine_risk":7,"frizz_risk":1,"updated_at":"2026-04-26T21:15:49.855513+05:30"},{"city":"Muzaffarpur","state":"Bihar","latitude":26.1209,"longitude":85.3647,"temp":26.5,"humidity":66,"rain":0.0,"pressure":998.7,"uv_index":8.65,"wind_gusts":48.6,"aqi":177,"pm10":75.2,"pm2_5":63.8,"mosquito_risk":7,"arthritis_risk":5,"migraine_risk":7,"frizz_risk":1,"updated_at":"2026-04-26T21:15:49.855520+05:30"},{"city":"Bhagalpur","state":"Bihar","latitude":25.2425,"longitude":87.0117,"temp":26.8,"humidity":73,"rain":0.0,"pressure":1000.3,"uv_index":8.6,"wind_gusts":40.3,"aqi":147,"pm10":33.6,"pm2_5":29.7,"mosquito_risk":7,"arthritis_risk":5,"migraine_risk":4,"frizz_risk":1,"updated_at":"2026-04-26T21:15:49.855526+05:30"},{"city":"Ranchi","state":"Jharkhand","latitude":23.3441,"longitude":85.3096,"temp":27.5,"humidity":38,"rain":0.0,"pressure":935.0,"uv_index":9.15,"wind_gusts":44.3,"aqi":136,"pm10":114.8,"pm2_5":39.8,"mosquito_risk":4,"arthritis_risk":5,"migraine_risk":7,"frizz_risk":0,"updated_at":"2026-04-26T21:15:49.855533+05:30"},{"city":"Jamshedpur","state":"Jharkhand","latitude":22.8046,"longitude":86.2029,"temp":29.7,"humidity":79,"rain":0.0,"pressure":987.9,"uv_index":8.85,"wind_gusts":37.8,"aqi":183,"pm10":48.8,"pm2_5":39.0,"mosquito_risk":7,"arthritis_risk":5,"migraine_risk":7,"frizz_risk":1,"updated_at":"2026-04-26T21:15:49.855540+05:30"},{"city":"Dhanbad","state":"Jharkhand","latitude":23.7957,"longitude":86.4304,"temp":28.5,"humidity":71,"rain":0.0,"pressure":977.8,"uv_index":8.95,"wind_gusts":42.5,"aqi":153,"pm10":91.0,"pm2_5":60.3,"mosquito_risk":7,"arthritis_risk":5,"migraine_risk":7,"frizz_risk":1,"updated_at":"2026-04-26T21:15:49.855547+05:30"},{"city":"Bokaro","state":"Jharkhand","latitude":23.6693,"longitude":86.1511,"temp":29.0,"humidity":69,"rain":0.0,"pressure":981.3,"uv_index":8.95,"wind_gusts":41.0,"aqi":153,"pm10":101.3,"pm2_5":58.4,"mosquito_risk":7,"arthritis_risk":5,"migraine_risk":7,"frizz_risk":1,"updated_at":"2026-04-26T21:15:49.855554+05:30"},{"city":"Bhubaneswar","state":"Odisha","latitude":20.2961,"longitude":85.8245,"temp":27.6,"humidity":89,"rain":0.0,"pressure":1001.3,"uv_index":9.1,"wind_gusts":50.4,"aqi":53,"pm10":16.9,"pm2_5":11.8,"mosquito_risk":7,"arthritis_risk":5,"migraine_risk":4,"frizz_risk":1,"updated_at":"2026-04-26T21:15:49.855561+05:30"},{"city":"Cuttack","state":"Odisha","latitude":20.4625,"longitude":85.8828,"temp":27.9,"humidity":87,"rain":0.0,"pressure":1002.8,"uv_index":9.1,"wind_gusts":47.2,"aqi":53,"pm10":16.9,"pm2_5":11.8,"mosquito_risk":7,"arthritis_risk":5,"migraine_risk":4,"frizz_risk":1,"updated_at":"2026-04-26T21:15:49.855567+05:30"},{"city":"Rourkela","state":"Odisha","latitude":22.2604,"longitude":84.8536,"temp":31.6,"humidity":52,"rain":0.0,"pressure":982.0,"uv_index":8.65,"wind_gusts":46.4,"aqi":209,"pm10":72.2,"pm2_5":43.9,"mosquito_risk":0,"arthritis_risk":5,"migraine_risk":7,"frizz_risk":1,"updated_at":"2026-04-26T21:15:49.855573+05:30"},{"city":"Raipur","state":"Chhattisgarh","latitude":21.2514,"longitude":81.6296,"temp":35.8,"humidity":19,"rain":0.0,"pressure":971.7,"uv_index":8.95,"wind_gusts":41.0,"aqi":182,"pm10":61.2,"pm2_5":55.8,"mosquito_risk":0,"arthritis_risk":5,"migraine_risk":10,"frizz_risk":0,"updated_at":"2026-04-26T21:15:49.855579+05:30"},{"city":"Bhilai","state":"Chhattisgarh","latitude":21.1938,"longitude":81.3509,"temp":35.3,"humidity":20,"rain":0.0,"pressure":971.9,"uv_index":9.0,"wind_gusts":44.3,"aqi":162,"pm10":50.9,"pm2_5":44.6,"mosquito_risk":0,"arthritis_risk":5,"migraine_risk":10,"frizz_risk":0,"updated_at":"2026-04-26T21:15:49.855585+05:30"},{"city":"Guwahati","state":"Assam","latitude":26.1158,"longitude":91.7086,"temp":21.9,"humidity":94,"rain":0.1,"pressure":1002.9,"uv_index":3.7,"wind_gusts":40.3,"aqi":135,"pm10":69.8,"pm2_5":51.2,"mosquito_risk":6,"arthritis_risk":5,"migraine_risk":0,"frizz_risk":1,"updated_at":"2026-04-26T21:15:49.855590+05:30"},{"city":"Agartala","state":"Tripura","latitude":23.8315,"longitude":91.2868,"temp":22.9,"humidity":97,"rain":0.2,"pressure":1006.6,"uv_index":8.8,"wind_gusts":32.0,"aqi":94,"pm10":28.2,"pm2_5":21.9,"mosquito_risk":6,"arthritis_risk":5,"migraine_risk":4,"frizz_risk":1,"updated_at":"2026-04-26T21:15:49.855596+05:30"},{"city":"Shillong","state":"Meghalaya","latitude":25.5788,"longitude":91.8933,"temp":15.4,"humidity":97,"rain":0.0,"pressure":855.7,"uv_index":4.65,"wind_gusts":45.4,"aqi":130,"pm10":65.9,"pm2_5":42.7,"mosquito_risk":3,"arthritis_risk":10,"migraine_risk":3,"frizz_risk":0,"updated_at":"2026-04-26T21:15:49.855601+05:30"},{"city":"Imphal","state":"Manipur","latitude":24.817,"longitude":93.9368,"temp":19.1,"humidity":97,"rain":0.0,"pressure":923.4,"uv_index":5.7,"wind_gusts":24.1,"aqi":152,"pm10":107.3,"pm2_5":69.2,"mosquito_risk":3,"arthritis_risk":10,"migraine_risk":3,"frizz_risk":1,"updated_at":"2026-04-26T21:15:49.855607+05:30"},{"city":"Aizawl","state":"Mizoram","latitude":23.7271,"longitude":92.7176,"temp":17.0,"humidity":99,"rain":0.0,"pressure":892.6,"uv_index":9.0,"wind_gusts":34.9,"aqi":111,"pm10":41.1,"pm2_5":25.2,"mosquito_risk":3,"arthritis_risk":10,"migraine_risk":7,"frizz_risk":1,"updated_at":"2026-04-26T21:15:49.855612+05:30"},{"city":"Kohima","state":"Nagaland","latitude":25.6701,"longitude":94.1077,"temp":17.2,"humidity":86,"rain":0.0,"pressure":854.8,"uv_index":6.95,"wind_gusts":32.0,"aqi":151,"pm10":73.3,"pm2_5":43.4,"mosquito_risk":3,"arthritis_risk":10,"migraine_risk":7,"frizz_risk":0,"updated_at":"2026-04-26T21:15:49.855618+05:30"},{"city":"Gangtok","state":"Sikkim","latitude":27.3314,"longitude":88.6138,"temp":14.0,"humidity":95,"rain":0.3,"pressure":835.7,"uv_index":6.75,"wind_gusts":41.0,"aqi":122,"pm10":44.5,"pm2_5":25.7,"mosquito_risk":6,"arthritis_risk":10,"migraine_risk":7,"frizz_risk":0,"updated_at":"2026-04-26T21:15:49.855623+05:30"},{"city":"Siliguri","state":"West Bengal","latitude":26.7271,"longitude":88.3953,"temp":21.8,"humidity":84,"rain":0.0,"pressure":993.2,"uv_index":8.4,"wind_gusts":33.1,"aqi":124,"pm10":67.8,"pm2_5":44.1,"mosquito_risk":3,"arthritis_risk":5,"migraine_risk":7,"frizz_risk":1,"updated_at":"2026-04-26T21:15:53.136386+05:30"},{"city":"Durgapur","state":"West Bengal","latitude":23.5204,"longitude":87.3119,"temp":27.5,"humidity":86,"rain":0.0,"pressure":992.9,"uv_index":8.85,"wind_gusts":35.6,"aqi":151,"pm10":29.9,"pm2_5":28.6,"mosquito_risk":7,"arthritis_risk":5,"migraine_risk":7,"frizz_risk":1,"updated_at":"2026-04-26T21:15:53.136417+05:30"},{"city":"Asansol","state":"West Bengal","latitude":23.6739,"longitude":86.9524,"temp":27.2,"humidity":83,"rain":0.0,"pressure":991.4,"uv_index":8.9,"wind_gusts":38.5,"aqi":169,"pm10":39.9,"pm2_5":37.5,"mosquito_risk":7,"arthritis_risk":5,"migraine_risk":7,"frizz_risk":1,"updated_at":"2026-04-26T21:15:53.136426+05:30"},{"city":"Pondicherry","state":"Puducherry","latitude":11.9139,"longitude":79.8145,"temp":29.2,"humidity":80,"rain":0.0,"pressure":1008.6,"uv_index":9.2,"wind_gusts":41.8,"aqi":37,"pm10":16.5,"pm2_5":11.2,"mosquito_risk":7,"arthritis_risk":0,"migraine_risk":4,"frizz_risk":1,"updated_at":"2026-04-26T21:15:53.136433+05:30"},{"city":"Port Blair","state":"Andaman and Nicobar Islands","latitude":11.6234,"longitude":92.7265,"temp":28.6,"humidity":74,"rain":0.0,"pressure":1007.7,"uv_index":9.1,"wind_gusts":35.3,"aqi":58,"pm10":19.2,"pm2_5":14.2,"mosquito_risk":7,"arthritis_risk":5,"migraine_risk":4,"frizz_risk":1,"updated_at":"2026-04-26T21:15:53.136442+05:30"},{"city":"Haridwar","state":"Uttarakhand","latitude":29.9457,"longitude":78.1642,"temp":26.5,"humidity":36,"rain":0.0,"pressure":968.9,"uv_index":7.2,"wind_gusts":54.0,"aqi":99,"pm10":34.9,"pm2_5":15.3,"mosquito_risk":4,"arthritis_risk":5,"migraine_risk":7,"frizz_risk":0,"updated_at":"2026-04-26T21:15:53.136450+05:30"},{"city":"Rishikesh","state":"Uttarakhand","latitude":30.0869,"longitude":78.2676,"temp":24.0,"humidity":40,"rain":0.0,"pressure":961.6,"uv_index":7.3,"wind_gusts":42.1,"aqi":102,"pm10":37.1,"pm2_5":14.5,"mosquito_risk":0,"arthritis_risk":5,"migraine_risk":7,"frizz_risk":0,"updated_at":"2026-04-26T21:15:53.136458+05:30"},{"city":"Nainital","state":"Uttarakhand","latitude":29.3919,"longitude":79.4542,"temp":17.0,"humidity":42,"rain":0.0,"pressure":803.5,"uv_index":8.15,"wind_gusts":54.4,"aqi":104,"pm10":81.7,"pm2_5":21.5,"mosquito_risk":0,"arthritis_risk":5,"migraine_risk":7,"frizz_risk":0,"updated_at":"2026-04-26T21:15:53.136465+05:30"},{"city":"Mussoorie","state":"Uttarakhand","latitude":30.4599,"longitude":78.0664,"temp":17.1,"humidity":42,"rain":0.0,"pressure":800.1,"uv_index":7.7,"wind_gusts":65.2,"aqi":104,"pm10":18.2,"pm2_5":12.7,"mosquito_risk":0,"arthritis_risk":5,"migraine_risk":7,"frizz_risk":0,"updated_at":"2026-04-26T21:15:53.136472+05:30"},{"city":"Dharamshala","state":"Himachal Pradesh","latitude":32.219,"longitude":76.3234,"temp":22.4,"humidity":37,"rain":0.0,"pressure":867.2,"uv_index":8.05,"wind_gusts":43.2,"aqi":83,"pm10":32.6,"pm2_5":13.9,"mosquito_risk":0,"arthritis_risk":5,"migraine_risk":7,"frizz_risk":0,"updated_at":"2026-04-26T21:15:53.136479+05:30"},{"city":"Dalhousie","state":"Himachal Pradesh","latitude":32.5387,"longitude":75.971,"temp":14.3,"humidity":59,"rain":0.0,"pressure":801.4,"uv_index":8.3,"wind_gusts":41.0,"aqi":92,"pm10":36.9,"pm2_5":19.4,"mosquito_risk":0,"arthritis_risk":5,"migraine_risk":7,"frizz_risk":0,"updated_at":"2026-04-26T21:15:53.136486+05:30"},{"city":"Patiala","state":"Punjab","latitude":30.3398,"longitude":76.3869,"temp":32.3,"humidity":25,"rain":0.0,"pressure":974.0,"uv_index":7.3,"wind_gusts":47.9,"aqi":378,"pm10":510.4,"pm2_5":68.2,"mosquito_risk":0,"arthritis_risk":5,"migraine_risk":7,"frizz_risk":0,"updated_at":"2026-04-26T21:15:53.136493+05:30"},{"city":"Bhatinda","state":"Punjab","latitude":30.211,"longitude":74.9455,"temp":34.0,"humidity":21,"rain":0.0,"pressure":979.3,"uv_index":8.0,"wind_gusts":37.8,"aqi":95,"pm10":71.5,"pm2_5":25.7,"mosquito_risk":0,"arthritis_risk":5,"migraine_risk":7,"frizz_risk":0,"updated_at":"2026-04-26T21:15:53.136500+05:30"},{"city":"Rohtak","state":"Haryana","latitude":28.8955,"longitude":76.6066,"temp":34.2,"humidity":20,"rain":0.0,"pressure":977.6,"uv_index":7.45,"wind_gusts":44.6,"aqi":718,"pm10":979.8,"pm2_5":130.4,"mosquito_risk":0,"arthritis_risk":5,"migraine_risk":7,"frizz_risk":0,"updated_at":"2026-04-26T21:15:53.136507+05:30"},{"city":"Panipat","state":"Haryana","latitude":29.3909,"longitude":76.9635,"temp":32.7,"humidity":19,"rain":0.0,"pressure":976.0,"uv_index":7.25,"wind_gusts":48.6,"aqi":1473,"pm10":1944.6,"pm2_5":226.8,"mosquito_risk":0,"arthritis_risk":5,"migraine_risk":7,"frizz_risk":0,"updated_at":"2026-04-26T21:15:53.136514+05:30"},{"city":"Mathura","state":"Uttar Pradesh","latitude":27.4924,"longitude":77.6737,"temp":32.8,"humidity":27,"rain":0.0,"pressure":982.7,"uv_index":7.75,"wind_gusts":50.8,"aqi":977,"pm10":642.6,"pm2_5":98.0,"mosquito_risk":0,"arthritis_risk":5,"migraine_risk":7,"frizz_risk":0,"updated_at":"2026-04-26T21:15:53.136521+05:30"},{"city":"Vrindavan","state":"Uttar Pradesh","latitude":27.5823,"longitude":77.7027,"temp":32.6,"humidity":26,"rain":0.0,"pressure":983.0,"uv_index":7.7,"wind_gusts":47.9,"aqi":977,"pm10":642.6,"pm2_5":98.0,"mosquito_risk":0,"arthritis_risk":5,"migraine_risk":7,"frizz_risk":0,"updated_at":"2026-04-26T21:15:53.136527+05:30"},{"city":"Ayodhya","state":"Uttar Pradesh","latitude":26.7922,"longitude":82.1998,"temp":31.0,"humidity":49,"rain":0.0,"pressure":991.7,"uv_index":8.1,"wind_gusts":42.8,"aqi":151,"pm10":93.4,"pm2_5":53.7,"mosquito_risk":0,"arthritis_risk":5,"migraine_risk":7,"frizz_risk":1,"updated_at":"2026-04-26T21:15:53.136534+05:30"},{"city":"Ratlam","state":"Madhya Pradesh","latitude":23.3315,"longitude":75.0367,"temp":33.5,"humidity":17,"rain":0.0,"pressure":953.0,"uv_index":8.5,"wind_gusts":39.2,"aqi":74,"pm10":47.4,"pm2_5":27.0,"mosquito_risk":0,"arthritis_risk":5,"migraine_risk":7,"frizz_risk":0,"updated_at":"2026-04-26T21:15:53.136541+05:30"},{"city":"Sagar","state":"Madhya Pradesh","latitude":23.8388,"longitude":78.7378,"temp":31.8,"humidity":28,"rain":0.0,"pressure":948.8,"uv_index":8.65,"wind_gusts":41.4,"aqi":76,"pm10":62.4,"pm2_5":23.4,"mosquito_risk":0,"arthritis_risk":5,"migraine_risk":7,"frizz_risk":0,"updated_at":"2026-04-26T21:15:53.136548+05:30"},{"city":"Satna","state":"Madhya Pradesh","latitude":24.6005,"longitude":80.8322,"temp":33.9,"humidity":22,"rain":0.0,"pressure":968.8,"uv_index":8.65,"wind_gusts":50.0,"aqi":100,"pm10":78.9,"pm2_5":28.8,"mosquito_risk":0,"arthritis_risk":5,"migraine_risk":7,"frizz_risk":0,"updated_at":"2026-04-26T21:15:53.136555+05:30"},{"city":"Akola","state":"Maharashtra","latitude":20.7002,"longitude":77.0082,"temp":35.5,"humidity":16,"rain":0.0,"pressure":972.5,"uv_index":8.85,"wind_gusts":34.2,"aqi":121,"pm10":38.5,"pm2_5":24.2,"mosquito_risk":0,"arthritis_risk":5,"migraine_risk":10,"frizz_risk":0,"updated_at":"2026-04-26T21:15:53.136562+05:30"},{"city":"Amravati","state":"Maharashtra","latitude":20.9374,"longitude":77.7796,"temp":35.8,"humidity":17,"rain":0.0,"pressure":965.0,"uv_index":8.85,"wind_gusts":33.8,"aqi":138,"pm10":41.2,"pm2_5":26.1,"mosquito_risk":0,"arthritis_risk":5,"migraine_risk":10,"frizz_risk":0,"updated_at":"2026-04-26T21:15:53.136570+05:30"},{"city":"Latur","state":"Maharashtra","latitude":18.4088,"longitude":76.5604,"temp":33.2,"humidity":20,"rain":0.0,"pressure":938.2,"uv_index":8.95,"wind_gusts":26.6,"aqi":149,"pm10":38.0,"pm2_5":30.5,"mosquito_risk":0,"arthritis_risk":5,"migraine_risk":7,"frizz_risk":0,"updated_at":"2026-04-26T21:15:53.136577+05:30"},{"city":"Nanded","state":"Maharashtra","latitude":19.1383,"longitude":77.3091,"temp":34.2,"humidity":20,"rain":0.0,"pressure":965.8,"uv_index":9.0,"wind_gusts":29.9,"aqi":121,"pm10":30.0,"pm2_5":23.6,"mosquito_risk":0,"arthritis_risk":5,"migraine_risk":7,"frizz_risk":0,"updated_at":"2026-04-26T21:15:53.136584+05:30"},{"city":"Gulbarga","state":"Karnataka","latitude":17.3297,"longitude":76.8343,"temp":34.0,"humidity":25,"rain":0.0,"pressure":957.5,"uv_index":7.9,"wind_gusts":24.5,"aqi":177,"pm10":47.4,"pm2_5":41.9,"mosquito_risk":0,"arthritis_risk":5,"migraine_risk":7,"frizz_risk":0,"updated_at":"2026-04-26T21:15:53.136591+05:30"},{"city":"Bidar","state":"Karnataka","latitude":17.9104,"longitude":77.5199,"temp":31.6,"humidity":32,"rain":0.0,"pressure":934.9,"uv_index":7.95,"wind_gusts":33.8,"aqi":163,"pm10":51.9,"pm2_5":46.1,"mosquito_risk":0,"arthritis_risk":5,"migraine_risk":7,"frizz_risk":0,"updated_at":"2026-04-26T21:15:53.136598+05:30"},{"city":"Hospet","state":"Karnataka","latitude":15.2689,"longitude":76.3909,"temp":30.8,"humidity":47,"rain":0.0,"pressure":954.9,"uv_index":8.65,"wind_gusts":32.4,"aqi":182,"pm10":56.2,"pm2_5":49.1,"mosquito_risk":0,"arthritis_risk":5,"migraine_risk":7,"frizz_risk":1,"updated_at":"2026-04-26T21:15:53.136605+05:30"},{"city":"Tirupur","state":"Tamil Nadu","latitude":11.1085,"longitude":77.3411,"temp":33.5,"humidity":31,"rain":0.0,"pressure":974.8,"uv_index":9.4,"wind_gusts":29.9,"aqi":105,"pm10":24.3,"pm2_5":21.4,"mosquito_risk":0,"arthritis_risk":5,"migraine_risk":7,"frizz_risk":0,"updated_at":"2026-04-26T21:15:53.136611+05:30"},{"city":"Alappuzha","state":"Kerala","latitude":9.4981,"longitude":76.3388,"temp":28.8,"humidity":84,"rain":0.0,"pressure":1008.8,"uv_index":8.55,"wind_gusts":37.8,"aqi":65,"pm10":22.5,"pm2_5":18.9,"mosquito_risk":7,"arthritis_risk":0,"migraine_risk":4,"frizz_risk":1,"updated_at":"2026-04-26T21:15:53.136618+05:30"},{"city":"Munnar","state":"Kerala","latitude":10.0889,"longitude":77.0595,"temp":19.5,"humidity":73,"rain":0.0,"pressure":857.9,"uv_index":9.6,"wind_gusts":26.6,"aqi":77,"pm10":27.7,"pm2_5":26.5,"mosquito_risk":3,"arthritis_risk":5,"migraine_risk":7,"frizz_risk":0,"updated_at":"2026-04-26T21:15:53.136625+05:30"},{"city":"Silchar","state":"Assam","latitude":24.8333,"longitude":92.7789,"temp":23.8,"humidity":92,"rain":0.0,"pressure":1006.2,"uv_index":6.8,"wind_gusts":27.4,"aqi":162,"pm10":124.8,"pm2_5":81.7,"mosquito_risk":3,"arthritis_risk":5,"migraine_risk":4,"frizz_risk":1,"updated_at":"2026-04-26T21:15:53.136632+05:30"},{"city":"Dibrugarh","state":"Assam","latitude":27.4728,"longitude":94.912,"temp":21.5,"humidity":95,"rain":0.0,"pressure":996.7,"uv_index":5.15,"wind_gusts":20.5,"aqi":90,"pm10":66.1,"pm2_5":44.2,"mosquito_risk":3,"arthritis_risk":5,"migraine_risk":3,"frizz_risk":1,"updated_at":"2026-04-26T21:15:53.136639+05:30"}]