[{"city":"Delhi","state":"Delhi","latitude":28.6139,"longitude":77.209,"temp":28.0,"humidity":54,"rain":0.0,"pressure":987.8,"uv_index":5.85,"wind_gusts":32.0,"aqi":358,"pm10":464.7,"pm2_5":100.8,"mosquito_risk":4,"arthritis_risk":5,"migraine_risk":3,"frizz_risk":1,"updated_at":"2026-03-05T11:21:36.129107+05:30"},{"city":"Mumbai","state":"Maharashtra","latitude":19.076,"longitude":72.8777,"temp":29.1,"humidity":59,"rain":0.0,"pressure":1012.1,"uv_index":7.4,"wind_gusts":27.7,"aqi":119,"pm10":43.9,"pm2_5":41.2,"mosquito_risk":4,"arthritis_risk":0,"migraine_risk":4,"frizz_risk":1,"updated_at":"2026-03-05T11:21:36.129140+05:30"},{"city":"Bangalore","state":"Karnataka","latitude":12.9716,"longitude":77.5946,"temp":28.6,"humidity":40,"rain":0.0,"pressure":915.6,"uv_index":9.1,"wind_gusts":29.5,"aqi":87,"pm10":25.9,"pm2_5":24.6,"mosquito_risk":4,"arthritis_risk":5,"migraine_risk":7,"frizz_risk":0,"updated_at":"2026-03-05T11:21:36.129155+05:30"},{"city":"Hyderabad","state":"Telangana","latitude":17.385,"longitude":78.4867,"temp":33.6,"humidity":21,"rain":0.0,"pressure":957.8,"uv_index":8.45,"wind_gusts":28.1,"aqi":87,"pm10":19.0,"pm2_5":16.5,"mosquito_risk":0,"arthritis_risk":5,"migraine_risk":7,"frizz_risk":0,"updated_at":"2026-03-05T11:21:36.129164+05:30"},{"city":"Chennai","state":"Tamil Nadu","latitude":13.0827,"longitude":80.2707,"temp":33.8,"humidity":37,"rain":0.0,"pressure":1010.6,"uv_index":8.85,"wind_gusts":31.3,"aqi":95,"pm10":34.7,"pm2_5":31.4,"mosquito_risk":0,"arthritis_risk":0,"migraine_risk":4,"frizz_risk":1,"updated_at":"2026-03-05T11:21:36.129172+05:30"},{"city":"Kolkata","state":"West Bengal","latitude":22.5726,"longitude":88.3639,"temp":30.3,"humidity":45,"rain":0.0,"pressure":1009.3,"uv_index":7.8,"wind_gusts":13.0,"aqi":165,"pm10":99.2,"pm2_5":73.1,"mosquito_risk":0,"arthritis_risk":0,"migraine_risk":4,"frizz_risk":1,"updated_at":"2026-03-05T11:21:36.129179+05:30"},{"city":"Pune","state":"Maharashtra","latitude":18.5204,"longitude":73.8567,"temp":33.6,"humidity":25,"rain":0.0,"pressure":953.5,"uv_index":7.95,"wind_gusts":31.3,"aqi":85,"pm10":19.9,"pm2_5":18.4,"mosquito_risk":0,"arthritis_risk":5,"migraine_risk":7,"frizz_risk":0,"updated_at":"2026-03-05T11:21:36.129189+05:30"},{"city":"Ahmedabad","state":"Gujarat","latitude":23.0225,"longitude":72.5714,"temp":32.5,"humidity":30,"rain":0.0,"pressure":1008.9,"uv_index":7.2,"wind_gusts":27.0,"aqi":68,"pm10":21.7,"pm2_5":13.6,"mosquito_risk":0,"arthritis_risk":0,"migraine_risk":4,"frizz_risk":0,"updated_at":"2026-03-05T11:21:36.129195+05:30"},{"city":"Jaipur","state":"Rajasthan","latitude":26.9124,"longitude":75.7873,"temp":33.2,"humidity":17,"rain":0.0,"pressure":966.0,"uv_index":6.65,"wind_gusts":37.8,"aqi":86,"pm10":145.8,"pm2_5":31.3,"mosquito_risk":0,"arthritis_risk":5,"migraine_risk":7,"frizz_risk":0,"updated_at":"2026-03-05T11:21:36.129202+05:30"},{"city":"Lucknow","state":"Uttar Pradesh","latitude":26.8467,"longitude":80.9462,"temp":28.6,"humidity":52,"rain":0.0,"pressure":997.9,"uv_index":6.4,"wind_gusts":13.7,"aqi":164,"pm10":419.1,"pm2_5":105.0,"mosquito_risk":4,"arthritis_risk":5,"migraine_risk":7,"frizz_risk":1,"updated_at":"2026-03-05T11:21:36.129224+05:30"},{"city":"Kanpur","state":"Uttar Pradesh","latitude":26.4499,"longitude":80.3319,"temp":28.3,"humidity":58,"rain":0.0,"pressure":996.3,"uv_index":6.4,"wind_gusts":29.5,"aqi":173,"pm10":386.5,"pm2_5":92.7,"mosquito_risk":4,"arthritis_risk":5,"migraine_risk":7,"frizz_risk":1,"updated_at":"2026-03-05T11:21:36.129232+05:30"},{"city":"Chandigarh","state":"Chandigarh","latitude":30.7333,"longitude":76.7794,"temp":28.2,"humidity":52,"rain":0.0,"pressure":972.9,"uv_index":5.75,"wind_gusts":30.6,"aqi":89,"pm10":43.8,"pm2_5":29.4,"mosquito_risk":4,"arthritis_risk":5,"migraine_risk":3,"frizz_risk":1,"updated_at":"2026-03-05T11:21:36.129239+05:30"},{"city":"Srinagar","state":"Jammu and Kashmir","latitude":34.0837,"longitude":74.7973,"temp":17.6,"humidity":51,"rain":0.0,"pressure":848.9,"uv_index":6.55,"wind_gusts":15.5,"aqi":153,"pm10":77.5,"pm2_5":43.9,"mosquito_risk":0,"arthritis_risk":5,"migraine_risk":7,"frizz_risk":0,"updated_at":"2026-03-05T11:21:36.129245+05:30"},{"city":"Jammu","state":"Jammu and Kashmir","latitude":32.7266,"longitude":74.857,"temp":29.2,"humidity":48,"rain":0.0,"pressure":976.3,"uv_index":6.4,"wind_gusts":25.2,"aqi":102,"pm10":48.1,"pm2_5":37.4,"mosquito_risk":4,"arthritis_risk":5,"migraine_risk":7,"frizz_risk":1,"updated_at":"2026-03-05T11:21:36.129251+05:30"},{"city":"Amritsar","state":"Punjab","latitude":31.634,"longitude":74.8723,"temp":27.6,"humidity":54,"rain":0.0,"pressure":985.0,"uv_index":6.35,"wind_gusts":21.6,"aqi":152,"pm10":70.5,"pm2_5":56.9,"mosquito_risk":4,"arthritis_risk":5,"migraine_risk":7,"frizz_risk":1,"updated_at":"2026-03-05T11:21:36.129257+05:30"},{"city":"Ludhiana","state":"Punjab","latitude":30.901,"longitude":75.8573,"temp":27.2,"humidity":54,"rain":0.0,"pressure":983.3,"uv_index":6.0,"wind_gusts":24.1,"aqi":156,"pm10":91.5,"pm2_5":72.9,"mosquito_risk":4,"arthritis_risk":5,"migraine_risk":3,"frizz_risk":1,"updated_at":"2026-03-05T11:21:36.129263+05:30"},{"city":"Jalandhar","state":"Punjab","latitude":31.326,"longitude":75.5762,"temp":26.8,"humidity":53,"rain":0.0,"pressure":984.3,"uv_index":6.2,"wind_gusts":23.0,"aqi":158,"pm10":99.9,"pm2_5":74.7,"mosquito_risk":4,"arthritis_risk":5,"migraine_risk":7,"frizz_risk":1,"updated_at":"2026-03-05T11:21:36.129272+05:30"},{"city":"Dehradun","state":"Uttarakhand","latitude":30.6284,"longitude":78.0322,"temp":22.2,"humidity":43,"rain":0.0,"pressure":834.9,"uv_index":6.15,"wind_gusts":32.8,"aqi":64,"pm10":29.5,"pm2_5":12.1,"mosquito_risk":0,"arthritis_risk":5,"migraine_risk":7,"frizz_risk":0,"updated_at":"2026-03-05T11:21:36.129278+05:30"},{"city":"Shimla","state":"Himachal Pradesh","latitude":31.1048,"longitude":77.1734,"temp":22.6,"humidity":30,"rain":0.0,"pressure":791.5,"uv_index":6.2,"wind_gusts":50.4,"aqi":65,"pm10":33.3,"pm2_5":13.0,"mosquito_risk":0,"arthritis_risk":5,"migraine_risk":7,"frizz_risk":0,"updated_at":"2026-03-05T11:21:36.129284+05:30"},{"city":"Manali","state":"Himachal Pradesh","latitude":32.2396,"longitude":77.1887,"temp":26.2,"humidity":17,"rain":0.0,"pressure":827.5,"uv_index":7.8,"wind_gusts":36.7,"aqi":54,"pm10":23.5,"pm2_5":10.0,"mosquito_risk":4,"arthritis_risk":5,"migraine_risk":7,"frizz_risk":1,"updated_at":"2026-03-05T11:21:36.129291+05:30"},{"city":"Gurgaon","state":"Haryana","latitude":28.4595,"longitude":77.0266,"temp":28.4,"humidity":52,"rain":0.0,"pressure":986.4,"uv_index":5.95,"wind_gusts":30.2,"aqi":1352,"pm10":1315.0,"pm2_5":176.0,"mosquito_risk":4,"arthritis_risk":5,"migraine_risk":3,"frizz_risk":1,"updated_at":"2026-03-05T11:21:36.129297+05:30"},{"city":"Noida","state":"Uttar Pradesh","latitude":28.5355,"longitude":77.391,"temp":28.5,"humidity":53,"rain":0.0,"pressure":989.3,"uv_index":5.85,"wind_gusts":31.7,"aqi":1352,"pm10":1315.0,"pm2_5":176.0,"mosquito_risk":4,"arthritis_risk":5,"migraine_risk":3,"frizz_risk":1,"updated_at":"2026-03-05T11:21:36.129303+05:30"},{"city":"Ghaziabad","state":"Uttar Pradesh","latitude":28.6692,"longitude":77.4538,"temp":27.3,"humidity":62,"rain":0.0,"pressure":987.3,"uv_index":5.85,"wind_gusts":28.8,"aqi":231,"pm10":380.0,"pm2_5":96.2,"mosquito_risk":7,"arthritis_risk":5,"migraine_risk":3,"frizz_risk":1,"updated_at":"2026-03-05T11:21:36.129309+05:30"},{"city":"Faridabad","state":"Haryana","latitude":28.4089,"longitude":77.3178,"temp":27.9,"humidity":55,"rain":0.0,"pressure":988.7,"uv_index":5.9,"wind_gusts":31.0,"aqi":1352,"pm10":1315.0,"pm2_5":176.0,"mosquito_risk":4,"arthritis_risk":5,"migraine_risk":3,"frizz_risk":1,"updated_at":"2026-03-05T11:21:36.129314+05:30"},{"city":"Meerut","state":"Uttar Pradesh","latitude":28.9845,"longitude":77.7064,"temp":27.0,"humidity":58,"rain":0.0,"pressure":986.0,"uv_index":5.75,"wind_gusts":28.1,"aqi":231,"pm10":380.0,"pm2_5":96.2,"mosquito_risk":4,"arthritis_risk":5,"migraine_risk":3,"frizz_risk":1,"updated_at":"2026-03-05T11:21:36.129320+05:30"},{"city":"Agra","state":"Uttar Pradesh","latitude":27.1767,"longitude":78.0081,"temp":31.0,"humidity":38,"rain":0.0,"pressure":993.0,"uv_index":6.25,"wind_gusts":36.0,"aqi":439,"pm10":380.0,"pm2_5":69.2,"mosquito_risk":0,"arthritis_risk":5,"migraine_risk":7,"frizz_risk":0,"updated_at":"2026-03-05T11:21:36.129326+05:30"},{"city":"Varanasi","state":"Uttar Pradesh","latitude":25.3176,"longitude":82.9739,"temp":28.4,"humidity":58,"rain":0.0,"pressure":1002.3,"uv_index":7.05,"wind_gusts":16.9,"aqi":155,"pm10":170.9,"pm2_5":60.1,"mosquito_risk":4,"arthritis_risk":5,"migraine_risk":4,"frizz_risk":1,"updated_at":"2026-03-05T11:21:36.129336+05:30"},{"city":"Prayagraj","state":"Uttar Pradesh","latitude":25.4358,"longitude":81.8463,"temp":28.9,"humidity":54,"rain":0.0,"pressure":1000.6,"uv_index":6.9,"wind_gusts":20.9,"aqi":155,"pm10":197.0,"pm2_5":65.0,"mosquito_risk":4,"arthritis_risk":5,"migraine_risk":4,"frizz_risk":1,"updated_at":"2026-03-05T11:21:36.129343+05:30"},{"city":"Gorakhpur","state":"Uttar Pradesh","latitude":26.7606,"longitude":83.3732,"temp":28.1,"humidity":58,"rain":0.0,"pressure":1001.9,"uv_index":6.75,"wind_gusts":13.0,"aqi":172,"pm10":104.3,"pm2_5":82.7,"mosquito_risk":4,"arthritis_risk":5,"migraine_risk":4,"frizz_risk":1,"updated_at":"2026-03-05T11:21:36.129349+05:30"},{"city":"Bareilly","state":"Uttar Pradesh","latitude":28.367,"longitude":79.4304,"temp":26.4,"humidity":68,"rain":0.0,"pressure":991.3,"uv_index":6.05,"wind_gusts":13.3,"aqi":167,"pm10":154.1,"pm2_5":81.0,"mosquito_risk":7,"arthritis_risk":5,"migraine_risk":7,"frizz_risk":1,"updated_at":"2026-03-05T11:21:36.129355+05:30"},{"city":"Aligarh","state":"Uttar Pradesh","latitude":27.8974,"longitude":78.088,"temp":28.5,"humidity":53,"rain":0.0,"pressure":990.3,"uv_index":5.95,"wind_gusts":32.0,"aqi":664,"pm10":644.5,"pm2_5":124.8,"mosquito_risk":4,"arthritis_risk":5,"migraine_risk":3,"frizz_risk":1,"updated_at":"2026-03-05T11:21:36.129361+05:30"},{"city":"Moradabad","state":"Uttar Pradesh","latitude":28.8386,"longitude":78.7733,"temp":25.9,"humidity":69,"rain":0.0,"pressure":988.2,"uv_index":5.9,"wind_gusts":14.4,"aqi":167,"pm10":179.7,"pm2_5":91.0,"mosquito_risk":7,"arthritis_risk":5,"migraine_risk":3,"frizz_risk":1,"updated_at":"2026-03-05T11:21:36.129366+05:30"},{"city":"Saharanpur","state":"Uttar Pradesh","latitude":29.9637,"longitude":77.546,"temp":25.7,"humidity":64,"rain":0.0,"pressure":979.9,"uv_index":5.5,"wind_gusts":16.6,"aqi":153,"pm10":92.2,"pm2_5":54.7,"mosquito_risk":7,"arthritis_risk":5,"migraine_risk":3,"frizz_risk":1,"updated_at":"2026-03-05T11:21:36.129372+05:30"},{"city":"Jhansi","state":"Uttar Pradesh","latitude":25.4484,"longitude":78.5685,"temp":32.9,"humidity":28,"rain":0.0,"pressure":983.2,"uv_index":6.85,"wind_gusts":36.7,"aqi":55,"pm10":28.7,"pm2_5":14.5,"mosquito_risk":0,"arthritis_risk":5,"migraine_risk":7,"frizz_risk":0,"updated_at":"2026-03-05T11:21:39.460883+05:30"},{"city":"Surat","state":"Gujarat","latitude":21.1702,"longitude":72.8311,"temp":31.1,"humidity":41,"rain":0.0,"pressure":1012.6,"uv_index":7.1,"wind_gusts":28.1,"aqi":122,"pm10":35.2,"pm2_5":33.6,"mosquito_risk":0,"arthritis_risk":0,"migraine_risk":4,"frizz_risk":1,"updated_at":"2026-03-05T11:21:39.460908+05:30"},{"city":"Vadodara","state":"Gujarat","latitude":22.3072,"longitude":73.1812,"temp":34.3,"humidity":30,"rain":0.0,"pressure":1010.6,"uv_index":7.2,"wind_gusts":23.4,"aqi":87,"pm10":21.0,"pm2_5":17.7,"mosquito_risk":0,"arthritis_risk":0,"migraine_risk":4,"frizz_risk":0,"updated_at":"2026-03-05T11:21:39.460920+05:30"},{"city":"Rajkot","state":"Gujarat","latitude":22.3039,"longitude":70.8022,"temp":31.1,"humidity":27,"rain":0.0,"pressure":1001.3,"uv_index":7.05,"wind_gusts":33.5,"aqi":59,"pm10":6.9,"pm2_5":6.3,"mosquito_risk":0,"arthritis_risk":5,"migraine_risk":4,"frizz_risk":0,"updated_at":"2026-03-05T11:21:39.460930+05:30"},{"city":"Thane","state":"Maharashtra","latitude":19.2183,"longitude":72.9781,"temp":34.3,"humidity":31,"rain":0.0,"pressure":1011.8,"uv_index":7.4,"wind_gusts":40.7,"aqi":119,"pm10":43.9,"pm2_5":41.2,"mosquito_risk":0,"arthritis_risk":0,"migraine_risk":4,"frizz_risk":0,"updated_at":"2026-03-05T11:21:39.460939+05:30"},{"city":"Nagpur","state":"Maharashtra","latitude":21.1458,"longitude":79.0882,"temp":33.5,"humidity":21,"rain":0.0,"pressure":978.5,"uv_index":7.8,"wind_gusts":27.0,"aqi":65,"pm10":14.1,"pm2_5":11.7,"mosquito_risk":0,"arthritis_risk":5,"migraine_risk":7,"frizz_risk":0,"updated_at":"2026-03-05T11:21:39.460949+05:30"},{"city":"Nashik","state":"Maharashtra","latitude":19.9975,"longitude":73.7898,"temp":32.5,"humidity":24,"rain":0.0,"pressure":951.0,"uv_index":7.6,"wind_gusts":31.3,"aqi":74,"pm10":24.0,"pm2_5":19.4,"mosquito_risk":0,"arthritis_risk":5,"migraine_risk":7,"frizz_risk":0,"updated_at":"2026-03-05T11:21:39.460958+05:30"},{"city":"Aurangabad","state":"Maharashtra","latitude":19.8762,"longitude":75.3433,"temp":32.9,"humidity":23,"rain":0.0,"pressure":949.5,"uv_index":8.1,"wind_gusts":28.1,"aqi":73,"pm10":22.6,"pm2_5":18.6,"mosquito_risk":0,"arthritis_risk":5,"migraine_risk":7,"frizz_risk":0,"updated_at":"2026-03-05T11:21:39.460966+05:30"},{"city":"Solapur","state":"Maharashtra","latitude":17.6599,"longitude":75.9064,"temp":32.3,"humidity":32,"rain":0.0,"pressure":962.2,"uv_index":8.35,"wind_gusts":17.3,"aqi":77,"pm10":28.8,"pm2_5":25.1,"mosquito_risk":0,"arthritis_risk":5,"migraine_risk":7,"frizz_risk":0,"updated_at":"2026-03-05T11:21:39.460975+05:30"},{"city":"Kolhapur","state":"Maharashtra","latitude":16.705,"longitude":74.2433,"temp":31.7,"humidity":30,"rain":0.0,"pressure":952.4,"uv_index":8.5,"wind_gusts":34.6,"aqi":154,"pm10":44.5,"pm2_5":43.3,"mosquito_risk":0,"arthritis_risk":5,"migraine_risk":7,"frizz_risk":0,"updated_at":"2026-03-05T11:21:39.460983+05:30"},{"city":"Goa","state":"Goa","latitude":15.2993,"longitude":74.124,"temp":31.1,"humidity":61,"rain":0.0,"pressure":1001.3,"uv_index":8.55,"wind_gusts":33.8,"aqi":152,"pm10":63.6,"pm2_5":61.0,"mosquito_risk":3,"arthritis_risk":5,"migraine_risk":4,"frizz_risk":1,"updated_at":"2026-03-05T11:21:39.460992+05:30"},{"city":"Jodhpur","state":"Rajasthan","latitude":26.2389,"longitude":73.0243,"temp":32.0,"humidity":26,"rain":0.0,"pressure":989.9,"uv_index":6.9,"wind_gusts":25.9,"aqi":84,"pm10":92.9,"pm2_5":34.6,"mosquito_risk":0,"arthritis_risk":5,"migraine_risk":7,"frizz_risk":0,"updated_at":"2026-03-05T11:21:39.460999+05:30"},{"city":"Udaipur","state":"Rajasthan","latitude":24.5854,"longitude":73.7125,"temp":31.1,"humidity":24,"rain":0.0,"pressure":953.5,"uv_index":7.55,"wind_gusts":25.9,"aqi":60,"pm10":17.3,"pm2_5":13.4,"mosquito_risk":0,"arthritis_risk":5,"migraine_risk":7,"frizz_risk":0,"updated_at":"2026-03-05T11:21:39.461007+05:30"},{"city":"Kota","state":"Rajasthan","latitude":25.2138,"longitude":75.8648,"temp":32.1,"humidity":30,"rain":0.0,"pressure":985.2,"uv_index":6.95,"wind_gusts":29.2,"aqi":72,"pm10":36.9,"pm2_5":19.5,"mosquito_risk":0,"arthritis_risk":5,"migraine_risk":7,"frizz_risk":0,"updated_at":"2026-03-05T11:21:39.461014+05:30"},{"city":"Bikaner","state":"Rajasthan","latitude":28.0229,"longitude":73.3119,"temp":30.3,"humidity":41,"rain":0.0,"pressure":988.0,"uv_index":6.6,"wind_gusts":22.0,"aqi":62,"pm10":29.2,"pm2_5":15.9,"mosquito_risk":0,"arthritis_risk":5,"migraine_risk":7,"frizz_risk":0,"updated_at":"2026-03-05T11:21:39.461022+05:30"},{"city":"Ajmer","state":"Rajasthan","latitude":26.4499,"longitude":74.6399,"temp":29.5,"humidity":35,"rain":0.0,"pressure":961.4,"uv_index":6.9,"wind_gusts":25.6,"aqi":64,"pm10":121.1,"pm2_5":31.8,"mosquito_risk":4,"arthritis_risk":5,"migraine_risk":7,"frizz_risk":0,"updated_at":"2026-03-05T11:21:39.461030+05:30"},{"city":"Gwalior","state":"Madhya Pradesh","latitude":26.2183,"longitude":78.1828,"temp":31.4,"humidity":34,"rain":0.0,"pressure":988.4,"uv_index":6.55,"wind_gusts":32.8,"aqi":67,"pm10":29.2,"pm2_5":15.9,"mosquito_risk":0,"arthritis_risk":5,"migraine_risk":7,"frizz_risk":0,"updated_at":"2026-03-05T11:21:39.461037+05:30"},{"city":"Indore","state":"Madhya Pradesh","latitude":22.7196,"longitude":75.8577,"temp":31.4,"humidity":33,"rain":0.0,"pressure":954.3,"uv_index":7.5,"wind_gusts":25.6,"aqi":79,"pm10":25.5,"pm2_5":16.4,"mosquito_risk":0,"arthritis_risk":5,"migraine_risk":7,"frizz_risk":0,"updated_at":"2026-03-05T11:21:39.461044+05:30"},{"city":"Bhopal","state":"Madhya Pradesh","latitude":23.2599,"longitude":77.4126,"temp":31.6,"humidity":31,"rain":0.0,"pressure":959.8,"uv_index":7.35,"wind_gusts":31.3,"aqi":57,"pm10":28.4,"pm2_5":14.1,"mosquito_risk":0,"arthritis_risk":5,"migraine_risk":7,"frizz_risk":0,"updated_at":"2026-03-05T11:21:39.461052+05:30"},{"city":"Jabalpur","state":"Madhya Pradesh","latitude":23.1815,"longitude":79.9864,"temp":30.0,"humidity":36,"rain":0.0,"pressure":966.8,"uv_index":7.5,"wind_gusts":30.6,"aqi":56,"pm10":14.8,"pm2_5":11.8,"mosquito_risk":4,"arthritis_risk":5,"migraine_risk":7,"frizz_risk":0,"updated_at":"2026-03-05T11:21:39.461059+05:30"},{"city":"Ujjain","state":"Madhya Pradesh","latitude":23.1765,"longitude":75.7885,"temp":31.4,"humidity":37,"rain":0.0,"pressure":960.1,"uv_index":7.4,"wind_gusts":24.1,"aqi":108,"pm10":31.0,"pm2_5":24.0,"mosquito_risk":0,"arthritis_risk":5,"migraine_risk":7,"frizz_risk":0,"updated_at":"2026-03-05T11:21:39.461067+05:30"},{"city":"Visakhapatnam","state":"Andhra Pradesh","latitude":17.6868,"longitude":83.2185,"temp":34.0,"humidity":42,"rain":0.0,"pressure":1006.3,"uv_index":8.45,"wind_gusts":32.4,"aqi":108,"pm10":51.1,"pm2_5":48.5,"mosquito_risk":0,"arthritis_risk":5,"migraine_risk":4,"frizz_risk":1,"updated_at":"2026-03-05T11:21:39.461075+05:30"},{"city":"Vijayawada","state":"Andhra Pradesh","latitude":16.5062,"longitude":80.648,"temp":32.5,"humidity":47,"rain":0.0,"pressure":1006.3,"uv_index":8.5,"wind_gusts":17.6,"aqi":116,"pm10":39.9,"pm2_5":38.1,"mosquito_risk":0,"arthritis_risk":5,"migraine_risk":4,"frizz_risk":1,"updated_at":"2026-03-05T11:21:39.461082+05:30"},{"city":"Guntur","state":"Andhra Pradesh","latitude":16.3067,"longitude":80.4365,"temp":33.5,"humidity":40,"rain":0.0,"pressure":1007.4,"uv_index":8.5,"wind_gusts":20.9,"aqi":112,"pm10":43.2,"pm2_5":41.3,"mosquito_risk":0,"arthritis_risk":5,"migraine_risk":4,"frizz_risk":1,"updated_at":"2026-03-05T11:21:39.461089+05:30"},{"city":"Nellore","state":"Andhra Pradesh","latitude":14.4426,"longitude":79.9865,"temp":34.5,"humidity":31,"rain":0.0,"pressure":1009.3,"uv_index":8.7,"wind_gusts":30.6,"aqi":100,"pm10":36.1,"pm2_5":33.6,"mosquito_risk":0,"arthritis_risk":0,"migraine_risk":4,"frizz_risk":0,"updated_at":"2026-03-05T11:21:39.461098+05:30"},{"city":"Kurnool","state":"Andhra Pradesh","latitude":15.8281,"longitude":78.0373,"temp":34.5,"humidity":27,"rain":0.0,"pressure":981.2,"uv_index":8.5,"wind_gusts":27.0,"aqi":78,"pm10":39.2,"pm2_5":37.3,"mosquito_risk":0,"arthritis_risk":5,"migraine_risk":7,"frizz_risk":0,"updated_at":"2026-03-05T11:21:39.461107+05:30"},{"city":"Kakinada","state":"Andhra Pradesh","latitude":16.9891,"longitude":82.2475,"temp":33.8,"humidity":44,"rain":0.0,"pressure":1010.3,"uv_index":8.45,"wind_gusts":27.7,"aqi":94,"pm10":42.7,"pm2_5":40.4,"mosquito_risk":0,"arthritis_risk":0,"migraine_risk":4,"frizz_risk":1,"updated_at":"2026-03-05T11:21:39.461114+05:30"},{"city":"Tirupati","state":"Andhra Pradesh","latitude":13.6288,"longitude":79.4192,"temp":33.6,"humidity":27,"rain":0.0,"pressure":995.2,"uv_index":8.8,"wind_gusts":28.8,"aqi":132,"pm10":34.0,"pm2_5":31.4,"mosquito_risk":0,"arthritis_risk":5,"migraine_risk":7,"frizz_risk":0,"updated_at":"2026-03-05T11:21:39.461122+05:30"},{"city":"Warangal","state":"Telangana","latitude":17.9689,"longitude":79.5941,"temp":33.4,"humidity":30,"rain":0.0,"pressure":983.1,"uv_index":8.3,"wind_gusts":30.2,"aqi":86,"pm10":27.6,"pm2_5":26.0,"mosquito_risk":0,"arthritis_risk":5,"migraine_risk":7,"frizz_risk":0,"updated_at":"2026-03-05T11:21:39.461129+05:30"},{"city":"Nizamabad","state":"Telangana","latitude":18.6725,"longitude":78.0941,"temp":32.8,"humidity":32,"rain":0.0,"pressure":970.0,"uv_index":8.15,"wind_gusts":22.7,"aqi":88,"pm10":26.3,"pm2_5":24.3,"mosquito_risk":0,"arthritis_risk":5,"migraine_risk":7,"frizz_risk":0,"updated_at":"2026-03-05T11:21:39.461137+05:30"},{"city":"Mysore","state":"Karnataka","latitude":12.2958,"longitude":76.6396,"temp":28.7,"humidity":47,"rain":0.0,"pressure":932.3,"uv_index":9.15,"wind_gusts":23.8,"aqi":93,"pm10":42.8,"pm2_5":41.1,"mosquito_risk":4,"arthritis_risk":5,"migraine_risk":7,"frizz_risk":1,"updated_at":"2026-03-05T11:21:39.461145+05:30"},{"city":"Mangalore","state":"Karnataka","latitude":12.9141,"longitude":74.856,"temp":28.2,"humidity":82,"rain":0.0,"pressure":1009.9,"uv_index":8.75,"wind_gusts":28.4,"aqi":125,"pm10":56.2,"pm2_5":52.5,"mosquito_risk":7,"arthritis_risk":0,"migraine_risk":4,"frizz_risk":1,"updated_at":"2026-03-05T11:21:39.461152+05:30"},{"city":"Hubli-Dharwad","state":"Karnataka","latitude":15.3647,"longitude":75.124,"temp":32.0,"humidity":32,"rain":0.0,"pressure":945.0,"uv_index":8.75,"wind_gusts":26.3,"aqi":82,"pm10":28.6,"pm2_5":27.3,"mosquito_risk":0,"arthritis_risk":5,"migraine_risk":7,"frizz_risk":0,"updated_at":"2026-03-05T11:21:39.461161+05:30"},{"city":"Belgaum","state":"Karnataka","latitude":15.8497,"longitude":74.4977,"temp":32.0,"humidity":28,"rain":0.0,"pressure":929.9,"uv_index":8.75,"wind_gusts":37.1,"aqi":128,"pm10":23.3,"pm2_5":21.0,"mosquito_risk":0,"arthritis_risk":5,"migraine_risk":7,"frizz_risk":0,"updated_at":"2026-03-05T11:21:42.784203+05:30"},{"city":"Coimbatore","state":"Tamil Nadu","latitude":11.0168,"longitude":76.9558,"temp":30.9,"humidity":39,"rain":0.0,"pressure":965.5,"uv_index":9.15,"wind_gusts":34.2,"aqi":102,"pm10":20.1,"pm2_5":19.6,"mosquito_risk":0,"arthritis_risk":5,"migraine_risk":7,"frizz_risk":0,"updated_at":"2026-03-05T11:21:42.784249+05:30"},{"city":"Madurai","state":"Tamil Nadu","latitude":9.9252,"longitude":78.1198,"temp":32.2,"humidity":44,"rain":0.0,"pressure":996.4,"uv_index":9.1,"wind_gusts":31.0,"aqi":75,"pm10":21.5,"pm2_5":20.0,"mosquito_risk":0,"arthritis_risk":5,"migraine_risk":7,"frizz_risk":1,"updated_at":"2026-03-05T11:21:42.784259+05:30"},{"city":"Trichy","state":"Tamil Nadu","latitude":10.7905,"longitude":78.7047,"temp":31.6,"humidity":48,"rain":0.0,"pressure":1003.5,"uv_index":9.0,"wind_gusts":34.2,"aqi":84,"pm10":35.5,"pm2_5":32.8,"mosquito_risk":0,"arthritis_risk":5,"migraine_risk":4,"frizz_risk":1,"updated_at":"2026-03-05T11:21:42.784266+05:30"},{"city":"Salem","state":"Tamil Nadu","latitude":11.6643,"longitude":78.146,"temp":31.5,"humidity":43,"rain":0.0,"pressure":981.1,"uv_index":9.05,"wind_gusts":23.0,"aqi":90,"pm10":32.8,"pm2_5":31.4,"mosquito_risk":0,"arthritis_risk":5,"migraine_risk":7,"frizz_risk":1,"updated_at":"2026-03-05T11:21:42.784272+05:30"},{"city":"Tirunelveli","state":"Tamil Nadu","latitude":8.7139,"longitude":77.7567,"temp":33.5,"humidity":42,"rain":0.0,"pressure":1006.5,"uv_index":9.15,"wind_gusts":47.5,"aqi":71,"pm10":16.6,"pm2_5":15.7,"mosquito_risk":0,"arthritis_risk":5,"migraine_risk":4,"frizz_risk":1,"updated_at":"2026-03-05T11:21:42.784278+05:30"},{"city":"Vellore","state":"Tamil Nadu","latitude":12.9165,"longitude":79.1325,"temp":33.1,"humidity":27,"rain":0.0,"pressure":988.3,"uv_index":8.9,"wind_gusts":28.4,"aqi":121,"pm10":31.0,"pm2_5":28.5,"mosquito_risk":0,"arthritis_risk":5,"migraine_risk":7,"frizz_risk":0,"updated_at":"2026-03-05T11:21:42.784284+05:30"},{"city":"Erode","state":"Tamil Nadu","latitude":11.341,"longitude":77.7172,"temp":31.6,"humidity":47,"rain":0.0,"pressure":992.8,"uv_index":9.05,"wind_gusts":23.4,"aqi":82,"pm10":26.5,"pm2_5":24.7,"mosquito_risk":0,"arthritis_risk":5,"migraine_risk":7,"frizz_risk":1,"updated_at":"2026-03-05T11:21:42.784290+05:30"},{"city":"Kochi","state":"Kerala","latitude":9.9312,"longitude":76.2673,"temp":27.6,"humidity":78,"rain":0.0,"pressure":1011.7,"uv_index":8.95,"wind_gusts":37.4,"aqi":136,"pm10":53.0,"pm2_5":50.2,"mosquito_risk":7,"arthritis_risk":0,"migraine_risk":4,"frizz_risk":1,"updated_at":"2026-03-05T11:21:42.784296+05:30"},{"city":"Thiruvananthapuram","state":"Kerala","latitude":8.5241,"longitude":76.9366,"temp":27.3,"humidity":77,"rain":0.0,"pressure":1011.0,"uv_index":9.0,"wind_gusts":28.1,"aqi":89,"pm10":37.6,"pm2_5":35.2,"mosquito_risk":7,"arthritis_risk":0,"migraine_risk":4,"frizz_risk":1,"updated_at":"2026-03-05T11:21:42.784302+05:30"},{"city":"Kozhikode","state":"Kerala","latitude":11.2588,"longitude":75.7804,"temp":29.2,"humidity":73,"rain":0.0,"pressure":1011.0,"uv_index":8.85,"wind_gusts":30.2,"aqi":122,"pm10":59.1,"pm2_5":55.2,"mosquito_risk":7,"arthritis_risk":0,"migraine_risk":4,"frizz_risk":1,"updated_at":"2026-03-05T11:21:42.784308+05:30"},{"city":"Thrissur","state":"Kerala","latitude":10.5276,"longitude":76.2144,"temp":32.3,"humidity":54,"rain":0.0,"pressure":1009.8,"uv_index":8.95,"wind_gusts":37.1,"aqi":141,"pm10":52.3,"pm2_5":48.9,"mosquito_risk":0,"arthritis_risk":0,"migraine_risk":4,"frizz_risk":1,"updated_at":"2026-03-05T11:21:42.784314+05:30"},{"city":"Kannur","state":"Kerala","latitude":11.8745,"longitude":75.3704,"temp":30.4,"humidity":66,"rain":0.0,"pressure":1010.4,"uv_index":8.85,"wind_gusts":33.8,"aqi":126,"pm10":51.9,"pm2_5":48.1,"mosquito_risk":3,"arthritis_risk":0,"migraine_risk":4,"frizz_risk":1,"updated_at":"2026-03-05T11:21:42.784320+05:30"},{"city":"Patna","state":"Bihar","latitude":25.5941,"longitude":85.1376,"temp":29.3,"humidity":46,"rain":0.0,"pressure":1005.0,"uv_index":7.2,"wind_gusts":15.8,"aqi":169,"pm10":115.5,"pm2_5":80.1,"mosquito_risk":4,"arthritis_risk":5,"migraine_risk":4,"frizz_risk":1,"updated_at":"2026-03-05T11:21:42.784329+05:30"},{"city":"Gaya","state":"Bihar","latitude":24.7914,"longitude":85.0002,"temp":28.4,"humidity":54,"rain":0.0,"pressure":998.2,"uv_index":7.3,"wind_gusts":13.3,"aqi":152,"pm10":128.5,"pm2_5":54.7,"mosquito_risk":4,"arthritis_risk":5,"migraine_risk":7,"frizz_risk":1,"updated_at":"2026-03-05T11:21:42.784335+05:30"},{"city":"Muzaffarpur","state":"Bihar","latitude":26.1209,"longitude":85.3647,"temp":29.6,"humidity":46,"rain":0.0,"pressure":1005.0,"uv_index":7.15,"wind_gusts":16.6,"aqi":175,"pm10":114.6,"pm2_5":84.3,"mosquito_risk":4,"arthritis_risk":5,"migraine_risk":4,"frizz_risk":1,"updated_at":"2026-03-05T11:21:42.784340+05:30"},{"city":"Bhagalpur","state":"Bihar","latitude":25.2425,"longitude":87.0117,"temp":28.7,"humidity":54,"rain":0.0,"pressure":1005.9,"uv_index":7.25,"wind_gusts":14.0,"aqi":164,"pm10":95.0,"pm2_5":72.9,"mosquito_risk":4,"arthritis_risk":5,"migraine_risk":4,"frizz_risk":1,"updated_at":"2026-03-05T11:21:42.784346+05:30"},{"city":"Ranchi","state":"Jharkhand","latitude":23.3441,"longitude":85.3096,"temp":27.4,"humidity":36,"rain":0.0,"pressure":941.3,"uv_index":7.95,"wind_gusts":18.7,"aqi":106,"pm10":177.9,"pm2_5":52.7,"mosquito_risk":4,"arthritis_risk":5,"migraine_risk":7,"frizz_risk":0,"updated_at":"2026-03-05T11:21:42.784352+05:30"},{"city":"Jamshedpur","state":"Jharkhand","latitude":22.8046,"longitude":86.2029,"temp":30.7,"humidity":37,"rain":0.0,"pressure":994.4,"uv_index":7.85,"wind_gusts":10.8,"aqi":154,"pm10":95.2,"pm2_5":65.0,"mosquito_risk":0,"arthritis_risk":5,"migraine_risk":7,"frizz_risk":0,"updated_at":"2026-03-05T11:21:42.784358+05:30"},{"city":"Dhanbad","state":"Jharkhand","latitude":23.7957,"longitude":86.4304,"temp":31.3,"humidity":28,"rain":0.0,"pressure":983.7,"uv_index":7.75,"wind_gusts":16.2,"aqi":155,"pm10":103.8,"pm2_5":72.9,"mosquito_risk":0,"arthritis_risk":5,"migraine_risk":7,"frizz_risk":0,"updated_at":"2026-03-05T11:21:42.784364+05:30"},{"city":"Bokaro","state":"Jharkhand","latitude":23.6693,"longitude":86.1511,"temp":30.8,"humidity":31,"rain":0.0,"pressure":987.6,"uv_index":7.75,"wind_gusts":13.3,"aqi":156,"pm10":111.1,"pm2_5":68.0,"mosquito_risk":0,"arthritis_risk":5,"migraine_risk":7,"frizz_risk":0,"updated_at":"2026-03-05T11:21:42.784370+05:30"},{"city":"Bhubaneswar","state":"Odisha","latitude":20.2961,"longitude":85.8245,"temp":32.5,"humidity":50,"rain":0.0,"pressure":1005.3,"uv_index":8.15,"wind_gusts":29.9,"aqi":153,"pm10":79.4,"pm2_5":71.7,"mosquito_risk":0,"arthritis_risk":5,"migraine_risk":4,"frizz_risk":1,"updated_at":"2026-03-05T11:21:42.784376+05:30"},{"city":"Cuttack","state":"Odisha","latitude":20.4625,"longitude":85.8828,"temp":32.8,"humidity":50,"rain":0.0,"pressure":1007.4,"uv_index":8.2,"wind_gusts":24.8,"aqi":153,"pm10":79.4,"pm2_5":71.7,"mosquito_risk":0,"arthritis_risk":5,"migraine_risk":4,"frizz_risk":1,"updated_at":"2026-03-05T11:21:42.784382+05:30"},{"city":"Rourkela","state":"Odisha","latitude":22.2604,"longitude":84.8536,"temp":31.4,"humidity":30,"rain":0.0,"pressure":988.7,"uv_index":7.8,"wind_gusts":23.4,"aqi":101,"pm10":153.2,"pm2_5":48.4,"mosquito_risk":0,"arthritis_risk":5,"migraine_risk":7,"frizz_risk":0,"updated_at":"2026-03-05T11:21:42.784387+05:30"},{"city":"Raipur","state":"Chhattisgarh","latitude":21.2514,"longitude":81.6296,"temp":33.5,"humidity":23,"rain":0.0,"pressure":979.4,"uv_index":7.85,"wind_gusts":26.3,"aqi":118,"pm10":37.4,"pm2_5":33.4,"mosquito_risk":0,"arthritis_risk":5,"migraine_risk":7,"frizz_risk":0,"updated_at":"2026-03-05T11:21:42.784393+05:30"},{"city":"Bhilai","state":"Chhattisgarh","latitude":21.1938,"longitude":81.3509,"temp":34.2,"humidity":24,"rain":0.0,"pressure":979.7,"uv_index":7.85,"wind_gusts":25.9,"aqi":98,"pm10":33.4,"pm2_5":29.8,"mosquito_risk":0,"arthritis_risk":5,"migraine_risk":7,"frizz_risk":0,"updated_at":"2026-03-05T11:21:42.784399+05:30"},{"city":"Guwahati","state":"Assam","latitude":26.1158,"longitude":91.7086,"temp":28.9,"humidity":54,"rain":0.0,"pressure":1005.4,"uv_index":7.15,"wind_gusts":16.2,"aqi":148,"pm10":53.0,"pm2_5":43.9,"mosquito_risk":4,"arthritis_risk":5,"migraine_risk":4,"frizz_risk":1,"updated_at":"2026-03-05T11:21:42.784404+05:30"},{"city":"Agartala","state":"Tripura","latitude":23.8315,"longitude":91.2868,"temp":30.2,"humidity":50,"rain":0.0,"pressure":1009.5,"uv_index":7.55,"wind_gusts":18.0,"aqi":154,"pm10":64.7,"pm2_5":44.8,"mosquito_risk":0,"arthritis_risk":0,"migraine_risk":4,"frizz_risk":1,"updated_at":"2026-03-05T11:21:42.784410+05:30"},{"city":"Shillong","state":"Meghalaya","latitude":25.5788,"longitude":91.8933,"temp":20.4,"humidity":41,"rain":0.0,"pressure":860.3,"uv_index":7.55,"wind_gusts":14.8,"aqi":115,"pm10":43.9,"pm2_5":35.4,"mosquito_risk":0,"arthritis_risk":5,"migraine_risk":7,"frizz_risk":0,"updated_at":"2026-03-05T11:21:42.784416+05:30"},{"city":"Imphal","state":"Manipur","latitude":24.817,"longitude":93.9368,"temp":24.5,"humidity":46,"rain":0.0,"pressure":926.5,"uv_index":7.75,"wind_gusts":21.2,"aqi":150,"pm10":44.8,"pm2_5":37.8,"mosquito_risk":0,"arthritis_risk":5,"migraine_risk":7,"frizz_risk":0,"updated_at":"2026-03-05T11:21:42.784421+05:30"},{"city":"Aizawl","state":"Mizoram","latitude":23.7271,"longitude":92.7176,"temp":25.4,"humidity":40,"rain":0.0,"pressure":896.1,"uv_index":7.75,"wind_gusts":22.7,"aqi":160,"pm10":67.8,"pm2_5":56.0,"mosquito_risk":4,"arthritis_risk":5,"migraine_risk":7,"frizz_risk":0,"updated_at":"2026-03-05T11:21:42.784427+05:30"},{"city":"Kohima","state":"Nagaland","latitude":25.6701,"longitude":94.1077,"temp":19.9,"humidity":58,"rain":0.0,"pressure":858.6,"uv_index":7.6,"wind_gusts":38.9,"aqi":151,"pm10":45.5,"pm2_5":37.6,"mosquito_risk":0,"arthritis_risk":5,"migraine_risk":7,"frizz_risk":0,"updated_at":"2026-03-05T11:21:42.784433+05:30"},{"city":"Gangtok","state":"Sikkim","latitude":27.3314,"longitude":88.6138,"temp":20.4,"humidity":55,"rain":0.0,"pressure":842.0,"uv_index":7.5,"wind_gusts":23.0,"aqi":114,"pm10":34.8,"pm2_5":29.9,"mosquito_risk":0,"arthritis_risk":5,"migraine_risk":7,"frizz_risk":0,"updated_at":"2026-03-05T11:21:42.784439+05:30"},{"city":"Siliguri","state":"West Bengal","latitude":26.7271,"longitude":88.3953,"temp":25.5,"humidity":62,"rain":0.0,"pressure":998.1,"uv_index":7.15,"wind_gusts":23.8,"aqi":148,"pm10":40.6,"pm2_5":32.4,"mosquito_risk":7,"arthritis_risk":5,"migraine_risk":7,"frizz_risk":1,"updated_at":"2026-03-05T11:21:46.111844+05:30"},{"city":"Durgapur","state":"West Bengal","latitude":23.5204,"longitude":87.3119,"temp":32.6,"humidity":31,"rain":0.0,"pressure":998.8,"uv_index":7.7,"wind_gusts":16.9,"aqi":156,"pm10":100.4,"pm2_5":68.2,"mosquito_risk":0,"arthritis_risk":5,"migraine_risk":7,"frizz_risk":0,"updated_at":"2026-03-05T11:21:46.111870+05:30"},{"city":"Asansol","state":"West Bengal","latitude":23.6739,"longitude":86.9524,"temp":32.1,"humidity":31,"rain":0.0,"pressure":997.3,"uv_index":7.7,"wind_gusts":19.8,"aqi":148,"pm10":98.3,"pm2_5":67.3,"mosquito_risk":0,"arthritis_risk":5,"migraine_risk":7,"frizz_risk":0,"updated_at":"2026-03-05T11:21:46.111880+05:30"},{"city":"Pondicherry","state":"Puducherry","latitude":11.9139,"longitude":79.8145,"temp":32.0,"humidity":53,"rain":0.0,"pressure":1011.9,"uv_index":8.85,"wind_gusts":25.6,"aqi":78,"pm10":26.3,"pm2_5":22.3,"mosquito_risk":0,"arthritis_risk":0,"migraine_risk":4,"frizz_risk":1,"updated_at":"2026-03-05T11:21:46.111887+05:30"},{"city":"Port Blair","state":"Andaman and Nicobar Islands","latitude":11.6234,"longitude":92.7265,"temp":26.7,"humidity":71,"rain":0.0,"pressure":1009.0,"uv_index":8.8,"wind_gusts":23.4,"aqi":83,"pm10":23.9,"pm2_5":20.5,"mosquito_risk":7,"arthritis_risk":0,"migraine_risk":4,"frizz_risk":1,"updated_at":"2026-03-05T11:21:46.111894+05:30"},{"city":"Haridwar","state":"Uttarakhand","latitude":29.9457,"longitude":78.1642,"temp":26.3,"humidity":61,"rain":0.0,"pressure":978.5,"uv_index":5.65,"wind_gusts":22.3,"aqi":132,"pm10":79.6,"pm2_5":46.8,"mosquito_risk":7,"arthritis_risk":5,"migraine_risk":3,"frizz_risk":1,"updated_at":"2026-03-05T11:21:46.111901+05:30"},{"city":"Rishikesh","state":"Uttarakhand","latitude":30.0869,"longitude":78.2676,"temp":26.5,"humidity":56,"rain":0.0,"pressure":971.1,"uv_index":5.7,"wind_gusts":21.6,"aqi":105,"pm10":79.6,"pm2_5":42.3,"mosquito_risk":4,"arthritis_risk":5,"migraine_risk":3,"frizz_risk":1,"updated_at":"2026-03-05T11:21:46.111907+05:30"},{"city":"Nainital","state":"Uttarakhand","latitude":29.3919,"longitude":79.4542,"temp":19.5,"humidity":73,"rain":0.0,"pressure":809.5,"uv_index":6.5,"wind_gusts":53.6,"aqi":151,"pm10":96.4,"pm2_5":51.0,"mosquito_risk":3,"arthritis_risk":5,"migraine_risk":7,"frizz_risk":0,"updated_at":"2026-03-05T11:21:46.111914+05:30"},{"city":"Mussoorie","state":"Uttarakhand","latitude":30.4599,"longitude":78.0664,"temp":20.3,"humidity":57,"rain":0.0,"pressure":807.0,"uv_index":6.05,"wind_gusts":37.4,"aqi":100,"pm10":51.0,"pm2_5":34.2,"mosquito_risk":0,"arthritis_risk":5,"migraine_risk":7,"frizz_risk":0,"updated_at":"2026-03-05T11:21:46.111920+05:30"},{"city":"Dharamshala","state":"Himachal Pradesh","latitude":32.219,"longitude":76.3234,"temp":26.3,"humidity":35,"rain":0.0,"pressure":874.1,"uv_index":6.3,"wind_gusts":24.8,"aqi":51,"pm10":16.0,"pm2_5":5.6,"mosquito_risk":4,"arthritis_risk":5,"migraine_risk":7,"frizz_risk":0,"updated_at":"2026-03-05T11:21:46.111927+05:30"},{"city":"Dalhousie","state":"Himachal Pradesh","latitude":32.5387,"longitude":75.971,"temp":26.4,"humidity":19,"rain":0.0,"pressure":810.5,"uv_index":6.45,"wind_gusts":22.3,"aqi":82,"pm10":30.7,"pm2_5":14.9,"mosquito_risk":4,"arthritis_risk":5,"migraine_risk":7,"frizz_risk":0,"updated_at":"2026-03-05T11:21:46.111934+05:30"},{"city":"Patiala","state":"Punjab","latitude":30.3398,"longitude":76.3869,"temp":28.1,"humidity":50,"rain":0.0,"pressure":982.6,"uv_index":5.7,"wind_gusts":26.6,"aqi":296,"pm10":376.3,"pm2_5":88.9,"mosquito_risk":4,"arthritis_risk":5,"migraine_risk":3,"frizz_risk":1,"updated_at":"2026-03-05T11:21:46.111940+05:30"},{"city":"Bhatinda","state":"Punjab","latitude":30.211,"longitude":74.9455,"temp":29.0,"humidity":55,"rain":0.0,"pressure":988.5,"uv_index":6.35,"wind_gusts":26.6,"aqi":134,"pm10":90.3,"pm2_5":65.9,"mosquito_risk":4,"arthritis_risk":5,"migraine_risk":7,"frizz_risk":1,"updated_at":"2026-03-05T11:21:46.111946+05:30"},{"city":"Rohtak","state":"Haryana","latitude":28.8955,"longitude":76.6066,"temp":28.2,"humidity":54,"rain":0.0,"pressure":986.8,"uv_index":5.85,"wind_gusts":30.2,"aqi":507,"pm10":571.8,"pm2_5":102.4,"mosquito_risk":4,"arthritis_risk":5,"migraine_risk":3,"frizz_risk":1,"updated_at":"2026-03-05T11:21:46.111952+05:30"},{"city":"Panipat","state":"Haryana","latitude":29.3909,"longitude":76.9635,"temp":28.8,"humidity":54,"rain":0.0,"pressure":984.9,"uv_index":5.65,"wind_gusts":29.9,"aqi":1156,"pm10":1091.5,"pm2_5":160.7,"mosquito_risk":4,"arthritis_risk":5,"migraine_risk":3,"frizz_risk":1,"updated_at":"2026-03-05T11:21:46.111958+05:30"},{"city":"Mathura","state":"Uttar Pradesh","latitude":27.4924,"longitude":77.6737,"temp":30.5,"humidity":42,"rain":0.0,"pressure":992.0,"uv_index":6.15,"wind_gusts":32.4,"aqi":552,"pm10":514.1,"pm2_5":81.7,"mosquito_risk":0,"arthritis_risk":5,"migraine_risk":7,"frizz_risk":1,"updated_at":"2026-03-05T11:21:46.111963+05:30"},{"city":"Vrindavan","state":"Uttar Pradesh","latitude":27.5823,"longitude":77.7027,"temp":29.6,"humidity":45,"rain":0.0,"pressure":992.3,"uv_index":6.1,"wind_gusts":34.2,"aqi":552,"pm10":514.1,"pm2_5":81.7,"mosquito_risk":4,"arthritis_risk":5,"migraine_risk":7,"frizz_risk":1,"updated_at":"2026-03-05T11:21:46.111969+05:30"},{"city":"Ayodhya","state":"Uttar Pradesh","latitude":26.7922,"longitude":82.1998,"temp":28.5,"humidity":54,"rain":0.0,"pressure":999.8,"uv_index":6.55,"wind_gusts":10.4,"aqi":175,"pm10":150.4,"pm2_5":85.2,"mosquito_risk":4,"arthritis_risk":5,"migraine_risk":7,"frizz_risk":1,"updated_at":"2026-03-05T11:21:46.111975+05:30"},{"city":"Ratlam","state":"Madhya Pradesh","latitude":23.3315,"longitude":75.0367,"temp":31.1,"humidity":37,"rain":0.0,"pressure":961.0,"uv_index":7.35,"wind_gusts":22.3,"aqi":95,"pm10":31.4,"pm2_5":18.8,"mosquito_risk":0,"arthritis_risk":5,"migraine_risk":7,"frizz_risk":0,"updated_at":"2026-03-05T11:21:46.111981+05:30"},{"city":"Sagar","state":"Madhya Pradesh","latitude":23.8388,"longitude":78.7378,"temp":31.4,"humidity":28,"rain":0.0,"pressure":955.8,"uv_index":7.3,"wind_gusts":33.8,"aqi":47,"pm10":27.9,"pm2_5":12.8,"mosquito_risk":0,"arthritis_risk":5,"migraine_risk":7,"frizz_risk":0,"updated_at":"2026-03-05T11:21:46.111986+05:30"},{"city":"Satna","state":"Madhya Pradesh","latitude":24.6005,"longitude":80.8322,"temp":31.9,"humidity":31,"rain":0.0,"pressure":975.9,"uv_index":7.3,"wind_gusts":41.0,"aqi":64,"pm10":62.4,"pm2_5":20.6,"mosquito_risk":0,"arthritis_risk":5,"migraine_risk":7,"frizz_risk":0,"updated_at":"2026-03-05T11:21:46.111992+05:30"},{"city":"Akola","state":"Maharashtra","latitude":20.7002,"longitude":77.0082,"temp":33.6,"humidity":28,"rain":0.0,"pressure":980.8,"uv_index":7.8,"wind_gusts":23.4,"aqi":79,"pm10":20.1,"pm2_5":16.6,"mosquito_risk":0,"arthritis_risk":5,"migraine_risk":7,"frizz_risk":0,"updated_at":"2026-03-05T11:21:46.111999+05:30"},{"city":"Amravati","state":"Maharashtra","latitude":20.9374,"longitude":77.7796,"temp":34.2,"humidity":19,"rain":0.0,"pressure":973.0,"uv_index":7.8,"wind_gusts":16.9,"aqi":77,"pm10":17.3,"pm2_5":14.0,"mosquito_risk":0,"arthritis_risk":5,"migraine_risk":7,"frizz_risk":0,"updated_at":"2026-03-05T11:21:46.112005+05:30"},{"city":"Latur","state":"Maharashtra","latitude":18.4088,"longitude":76.5604,"temp":32.5,"humidity":20,"rain":0.0,"pressure":945.0,"uv_index":8.3,"wind_gusts":32.0,"aqi":96,"pm10":26.9,"pm2_5":24.6,"mosquito_risk":0,"arthritis_risk":5,"migraine_risk":7,"frizz_risk":0,"updated_at":"2026-03-05T11:21:46.112011+05:30"},{"city":"Nanded","state":"Maharashtra","latitude":19.1383,"longitude":77.3091,"temp":34.1,"humidity":23,"rain":0.0,"pressure":973.8,"uv_index":8.05,"wind_gusts":25.2,"aqi":96,"pm10":26.4,"pm2_5":23.9,"mosquito_risk":0,"arthritis_risk":5,"migraine_risk":7,"frizz_risk":0,"updated_at":"2026-03-05T11:21:46.112016+05:30"},{"city":"Gulbarga","state":"Karnataka","latitude":17.3297,"longitude":76.8343,"temp":34.0,"humidity":24,"rain":0.0,"pressure":963.5,"uv_index":8.35,"wind_gusts":21.6,"aqi":78,"pm10":26.8,"pm2_5":23.5,"mosquito_risk":0,"arthritis_risk":5,"migraine_risk":7,"frizz_risk":0,"updated_at":"2026-03-05T11:21:46.112022+05:30"},{"city":"Bidar","state":"Karnataka","latitude":17.9104,"longitude":77.5199,"temp":32.4,"humidity":26,"rain":0.0,"pressure":940.5,"uv_index":8.3,"wind_gusts":24.1,"aqi":94,"pm10":17.8,"pm2_5":15.5,"mosquito_risk":0,"arthritis_risk":5,"migraine_risk":7,"frizz_risk":0,"updated_at":"2026-03-05T11:21:46.112027+05:30"},{"city":"Hospet","state":"Karnataka","latitude":15.2689,"longitude":76.3909,"temp":30.3,"humidity":45,"rain":0.0,"pressure":960.2,"uv_index":8.7,"wind_gusts":23.8,"aqi":85,"pm10":30.7,"pm2_5":28.9,"mosquito_risk":0,"arthritis_risk":5,"migraine_risk":7,"frizz_risk":1,"updated_at":"2026-03-05T11:21:46.112033+05:30"},{"city":"Tirupur","state":"Tamil Nadu","latitude":11.1085,"longitude":77.3411,"temp":31.5,"humidity":42,"rain":0.0,"pressure":979.1,"uv_index":9.15,"wind_gusts":28.8,"aqi":102,"pm10":24.6,"pm2_5":23.7,"mosquito_risk":0,"arthritis_risk":5,"migraine_risk":7,"frizz_risk":1,"updated_at":"2026-03-05T11:21:46.112038+05:30"},{"city":"Alappuzha","state":"Kerala","latitude":9.4981,"longitude":76.3388,"temp":27.5,"humidity":79,"rain":0.0,"pressure":1011.8,"uv_index":8.95,"wind_gusts":36.4,"aqi":116,"pm10":40.7,"pm2_5":38.5,"mosquito_risk":7,"arthritis_risk":0,"migraine_risk":4,"frizz_risk":1,"updated_at":"2026-03-05T11:21:46.112044+05:30"},{"city":"Munnar","state":"Kerala","latitude":10.0889,"longitude":77.0595,"temp":27.2,"humidity":50,"rain":0.0,"pressure":861.0,"uv_index":9.45,"wind_gusts":24.5,"aqi":74,"pm10":17.3,"pm2_5":16.6,"mosquito_risk":4,"arthritis_risk":5,"migraine_risk":7,"frizz_risk":0,"updated_at":"2026-03-05T11:21:46.112050+05:30"},{"city":"Silchar","state":"Assam","latitude":24.8333,"longitude":92.7789,"temp":30.3,"humidity":41,"rain":0.0,"pressure":1008.4,"uv_index":7.5,"wind_gusts":15.1,"aqi":151,"pm10":62.6,"pm2_5":50.6,"mosquito_risk":0,"arthritis_risk":0,"migraine_risk":4,"frizz_risk":0,"updated_at":"2026-03-05T11:21:46.112056+05:30"},{"city":"Dibrugarh","state":"Assam","latitude":27.4728,"longitude":94.912,"temp":27.1,"humidity":60,"rain":0.0,"pressure":999.4,"uv_index":7.2,"wind_gusts":11.5,"aqi":129,"pm10":54.8,"pm2_5":43.5,"mosquito_risk":4,"arthritis_risk":5,"migraine_risk":7,"frizz_risk":1,"updated_at":"2026-03-05T11:21:46.112062+05:30"}]