[{"city":"Delhi","state":"Delhi","latitude":28.6139,"longitude":77.209,"temp":32.0,"humidity":40,"rain":0.0,"pressure":989.9,"uv_index":6.15,"wind_gusts":23.8,"aqi":178,"pm10":217.0,"pm2_5":78.0,"mosquito_risk":0,"arthritis_risk":5,"migraine_risk":7,"frizz_risk":1,"updated_at":"2026-03-11T11:22:09.902017+05:30"},{"city":"Mumbai","state":"Maharashtra","latitude":19.076,"longitude":72.8777,"temp":28.2,"humidity":80,"rain":0.0,"pressure":1013.5,"uv_index":7.6,"wind_gusts":19.4,"aqi":153,"pm10":79.2,"pm2_5":72.2,"mosquito_risk":7,"arthritis_risk":0,"migraine_risk":4,"frizz_risk":1,"updated_at":"2026-03-11T11:22:09.902065+05:30"},{"city":"Bangalore","state":"Karnataka","latitude":12.9716,"longitude":77.5946,"temp":27.7,"humidity":35,"rain":0.0,"pressure":917.0,"uv_index":9.25,"wind_gusts":27.7,"aqi":69,"pm10":16.9,"pm2_5":14.2,"mosquito_risk":4,"arthritis_risk":5,"migraine_risk":7,"frizz_risk":0,"updated_at":"2026-03-11T11:22:09.902081+05:30"},{"city":"Hyderabad","state":"Telangana","latitude":17.385,"longitude":78.4867,"temp":32.3,"humidity":19,"rain":0.0,"pressure":960.0,"uv_index":8.6,"wind_gusts":22.0,"aqi":100,"pm10":17.8,"pm2_5":13.4,"mosquito_risk":0,"arthritis_risk":5,"migraine_risk":7,"frizz_risk":0,"updated_at":"2026-03-11T11:22:09.902091+05:30"},{"city":"Chennai","state":"Tamil Nadu","latitude":13.0827,"longitude":80.2707,"temp":31.9,"humidity":51,"rain":0.0,"pressure":1013.1,"uv_index":9.0,"wind_gusts":30.6,"aqi":68,"pm10":21.6,"pm2_5":17.4,"mosquito_risk":0,"arthritis_risk":0,"migraine_risk":4,"frizz_risk":1,"updated_at":"2026-03-11T11:22:09.902100+05:30"},{"city":"Kolkata","state":"West Bengal","latitude":22.5726,"longitude":88.3639,"temp":29.8,"humidity":61,"rain":0.0,"pressure":1011.6,"uv_index":6.85,"wind_gusts":21.6,"aqi":143,"pm10":69.8,"pm2_5":56.5,"mosquito_risk":7,"arthritis_risk":0,"migraine_risk":4,"frizz_risk":1,"updated_at":"2026-03-11T11:22:09.902109+05:30"},{"city":"Pune","state":"Maharashtra","latitude":18.5204,"longitude":73.8567,"temp":35.1,"humidity":27,"rain":0.0,"pressure":954.3,"uv_index":8.15,"wind_gusts":30.2,"aqi":118,"pm10":64.3,"pm2_5":53.0,"mosquito_risk":0,"arthritis_risk":5,"migraine_risk":10,"frizz_risk":0,"updated_at":"2026-03-11T11:22:09.902122+05:30"},{"city":"Ahmedabad","state":"Gujarat","latitude":23.0225,"longitude":72.5714,"temp":36.1,"humidity":22,"rain":0.0,"pressure":1009.0,"uv_index":7.4,"wind_gusts":26.3,"aqi":68,"pm10":26.8,"pm2_5":23.5,"mosquito_risk":0,"arthritis_risk":0,"migraine_risk":7,"frizz_risk":0,"updated_at":"2026-03-11T11:22:09.902130+05:30"},{"city":"Jaipur","state":"Rajasthan","latitude":26.9124,"longitude":75.7873,"temp":34.8,"humidity":14,"rain":0.0,"pressure":967.3,"uv_index":6.8,"wind_gusts":38.5,"aqi":99,"pm10":192.8,"pm2_5":38.0,"mosquito_risk":0,"arthritis_risk":5,"migraine_risk":7,"frizz_risk":0,"updated_at":"2026-03-11T11:22:09.902138+05:30"},{"city":"Lucknow","state":"Uttar Pradesh","latitude":26.8467,"longitude":80.9462,"temp":31.1,"humidity":53,"rain":0.0,"pressure":1000.3,"uv_index":6.6,"wind_gusts":31.0,"aqi":193,"pm10":158.8,"pm2_5":94.5,"mosquito_risk":0,"arthritis_risk":5,"migraine_risk":4,"frizz_risk":1,"updated_at":"2026-03-11T11:22:09.902147+05:30"},{"city":"Kanpur","state":"Uttar Pradesh","latitude":26.4499,"longitude":80.3319,"temp":31.0,"humidity":57,"rain":0.0,"pressure":998.8,"uv_index":6.65,"wind_gusts":24.1,"aqi":179,"pm10":186.7,"pm2_5":78.0,"mosquito_risk":0,"arthritis_risk":5,"migraine_risk":7,"frizz_risk":1,"updated_at":"2026-03-11T11:22:09.902155+05:30"},{"city":"Chandigarh","state":"Chandigarh","latitude":30.7333,"longitude":76.7794,"temp":29.3,"humidity":57,"rain":0.0,"pressure":975.7,"uv_index":5.35,"wind_gusts":24.5,"aqi":153,"pm10":62.6,"pm2_5":44.4,"mosquito_risk":4,"arthritis_risk":5,"migraine_risk":3,"frizz_risk":1,"updated_at":"2026-03-11T11:22:09.902163+05:30"},{"city":"Srinagar","state":"Jammu and Kashmir","latitude":34.0837,"longitude":74.7973,"temp":9.5,"humidity":94,"rain":0.9,"pressure":847.6,"uv_index":4.1,"wind_gusts":28.1,"aqi":127,"pm10":51.6,"pm2_5":36.6,"mosquito_risk":6,"arthritis_risk":10,"migraine_risk":3,"frizz_risk":0,"updated_at":"2026-03-11T11:22:09.902170+05:30"},{"city":"Jammu","state":"Jammu and Kashmir","latitude":32.7266,"longitude":74.857,"temp":29.0,"humidity":44,"rain":0.0,"pressure":979.0,"uv_index":5.6,"wind_gusts":43.6,"aqi":115,"pm10":48.4,"pm2_5":32.1,"mosquito_risk":4,"arthritis_risk":5,"migraine_risk":3,"frizz_risk":0,"updated_at":"2026-03-11T11:22:09.902178+05:30"},{"city":"Amritsar","state":"Punjab","latitude":31.634,"longitude":74.8723,"temp":27.0,"humidity":68,"rain":0.0,"pressure":987.3,"uv_index":6.45,"wind_gusts":28.1,"aqi":158,"pm10":116.6,"pm2_5":70.3,"mosquito_risk":7,"arthritis_risk":5,"migraine_risk":7,"frizz_risk":1,"updated_at":"2026-03-11T11:22:09.902185+05:30"},{"city":"Ludhiana","state":"Punjab","latitude":30.901,"longitude":75.8573,"temp":29.2,"humidity":57,"rain":0.0,"pressure":985.8,"uv_index":6.3,"wind_gusts":15.5,"aqi":176,"pm10":137.4,"pm2_5":101.3,"mosquito_risk":4,"arthritis_risk":5,"migraine_risk":7,"frizz_risk":1,"updated_at":"2026-03-11T11:22:09.902192+05:30"},{"city":"Jalandhar","state":"Punjab","latitude":31.326,"longitude":75.5762,"temp":28.7,"humidity":60,"rain":0.0,"pressure":986.9,"uv_index":6.5,"wind_gusts":18.4,"aqi":169,"pm10":145.3,"pm2_5":87.8,"mosquito_risk":4,"arthritis_risk":5,"migraine_risk":7,"frizz_risk":1,"updated_at":"2026-03-11T11:22:09.902202+05:30"},{"city":"Dehradun","state":"Uttarakhand","latitude":30.6284,"longitude":78.0322,"temp":22.4,"humidity":46,"rain":0.0,"pressure":837.3,"uv_index":5.9,"wind_gusts":28.8,"aqi":85,"pm10":26.9,"pm2_5":14.4,"mosquito_risk":0,"arthritis_risk":5,"migraine_risk":3,"frizz_risk":0,"updated_at":"2026-03-11T11:22:09.902212+05:30"},{"city":"Shimla","state":"Himachal Pradesh","latitude":31.1048,"longitude":77.1734,"temp":20.2,"humidity":48,"rain":0.0,"pressure":792.5,"uv_index":5.85,"wind_gusts":45.0,"aqi":112,"pm10":32.5,"pm2_5":18.9,"mosquito_risk":0,"arthritis_risk":5,"migraine_risk":3,"frizz_risk":0,"updated_at":"2026-03-11T11:22:09.902219+05:30"},{"city":"Manali","state":"Himachal Pradesh","latitude":32.2396,"longitude":77.1887,"temp":20.7,"humidity":27,"rain":0.0,"pressure":828.3,"uv_index":6.7,"wind_gusts":42.5,"aqi":55,"pm10":28.8,"pm2_5":10.8,"mosquito_risk":0,"arthritis_risk":5,"migraine_risk":7,"frizz_risk":0,"updated_at":"2026-03-11T11:22:09.902226+05:30"},{"city":"Gurgaon","state":"Haryana","latitude":28.4595,"longitude":77.0266,"temp":31.4,"humidity":46,"rain":0.0,"pressure":988.5,"uv_index":6.15,"wind_gusts":23.4,"aqi":322,"pm10":521.5,"pm2_5":93.6,"mosquito_risk":0,"arthritis_risk":5,"migraine_risk":7,"frizz_risk":1,"updated_at":"2026-03-11T11:22:09.902234+05:30"},{"city":"Noida","state":"Uttar Pradesh","latitude":28.5355,"longitude":77.391,"temp":32.5,"humidity":40,"rain":0.0,"pressure":991.3,"uv_index":6.15,"wind_gusts":23.8,"aqi":322,"pm10":521.5,"pm2_5":93.6,"mosquito_risk":0,"arthritis_risk":5,"migraine_risk":7,"frizz_risk":1,"updated_at":"2026-03-11T11:22:09.902241+05:30"},{"city":"Ghaziabad","state":"Uttar Pradesh","latitude":28.6692,"longitude":77.4538,"temp":30.9,"humidity":50,"rain":0.0,"pressure":989.5,"uv_index":6.1,"wind_gusts":23.0,"aqi":172,"pm10":161.6,"pm2_5":80.3,"mosquito_risk":0,"arthritis_risk":5,"migraine_risk":7,"frizz_risk":1,"updated_at":"2026-03-11T11:22:09.902247+05:30"},{"city":"Faridabad","state":"Haryana","latitude":28.4089,"longitude":77.3178,"temp":31.8,"humidity":45,"rain":0.0,"pressure":990.7,"uv_index":6.15,"wind_gusts":22.0,"aqi":322,"pm10":521.5,"pm2_5":93.6,"mosquito_risk":0,"arthritis_risk":5,"migraine_risk":7,"frizz_risk":1,"updated_at":"2026-03-11T11:22:09.902254+05:30"},{"city":"Meerut","state":"Uttar Pradesh","latitude":28.9845,"longitude":77.7064,"temp":30.4,"humidity":53,"rain":0.0,"pressure":988.4,"uv_index":5.5,"wind_gusts":28.4,"aqi":172,"pm10":161.6,"pm2_5":80.3,"mosquito_risk":0,"arthritis_risk":5,"migraine_risk":3,"frizz_risk":1,"updated_at":"2026-03-11T11:22:09.902261+05:30"},{"city":"Agra","state":"Uttar Pradesh","latitude":27.1767,"longitude":78.0081,"temp":34.0,"humidity":37,"rain":0.0,"pressure":994.7,"uv_index":6.5,"wind_gusts":19.4,"aqi":233,"pm10":357.6,"pm2_5":85.0,"mosquito_risk":0,"arthritis_risk":5,"migraine_risk":7,"frizz_risk":1,"updated_at":"2026-03-11T11:22:09.902268+05:30"},{"city":"Varanasi","state":"Uttar Pradesh","latitude":25.3176,"longitude":82.9739,"temp":30.9,"humidity":58,"rain":0.0,"pressure":1003.9,"uv_index":7.3,"wind_gusts":23.0,"aqi":192,"pm10":159.7,"pm2_5":122.9,"mosquito_risk":0,"arthritis_risk":5,"migraine_risk":4,"frizz_risk":1,"updated_at":"2026-03-11T11:22:09.902277+05:30"},{"city":"Prayagraj","state":"Uttar Pradesh","latitude":25.4358,"longitude":81.8463,"temp":31.0,"humidity":58,"rain":0.0,"pressure":1002.8,"uv_index":7.15,"wind_gusts":23.0,"aqi":191,"pm10":157.4,"pm2_5":120.1,"mosquito_risk":0,"arthritis_risk":5,"migraine_risk":4,"frizz_risk":1,"updated_at":"2026-03-11T11:22:09.902285+05:30"},{"city":"Gorakhpur","state":"Uttar Pradesh","latitude":26.7606,"longitude":83.3732,"temp":28.7,"humidity":70,"rain":0.0,"pressure":1003.8,"uv_index":7.0,"wind_gusts":25.9,"aqi":207,"pm10":154.1,"pm2_5":133.6,"mosquito_risk":7,"arthritis_risk":5,"migraine_risk":4,"frizz_risk":1,"updated_at":"2026-03-11T11:22:09.902292+05:30"},{"city":"Bareilly","state":"Uttar Pradesh","latitude":28.367,"longitude":79.4304,"temp":30.0,"humidity":62,"rain":0.0,"pressure":993.4,"uv_index":6.35,"wind_gusts":32.4,"aqi":209,"pm10":205.8,"pm2_5":155.5,"mosquito_risk":7,"arthritis_risk":5,"migraine_risk":7,"frizz_risk":1,"updated_at":"2026-03-11T11:22:09.902301+05:30"},{"city":"Aligarh","state":"Uttar Pradesh","latitude":27.8974,"longitude":78.088,"temp":32.3,"humidity":42,"rain":0.0,"pressure":992.4,"uv_index":6.25,"wind_gusts":23.8,"aqi":176,"pm10":257.0,"pm2_5":87.8,"mosquito_risk":0,"arthritis_risk":5,"migraine_risk":7,"frizz_risk":1,"updated_at":"2026-03-11T11:22:09.902307+05:30"},{"city":"Moradabad","state":"Uttar Pradesh","latitude":28.8386,"longitude":78.7733,"temp":29.9,"humidity":57,"rain":0.0,"pressure":990.3,"uv_index":6.15,"wind_gusts":34.9,"aqi":197,"pm10":189.1,"pm2_5":156.5,"mosquito_risk":4,"arthritis_risk":5,"migraine_risk":7,"frizz_risk":1,"updated_at":"2026-03-11T11:22:09.902314+05:30"},{"city":"Saharanpur","state":"Uttar Pradesh","latitude":29.9637,"longitude":77.546,"temp":28.7,"humidity":63,"rain":0.0,"pressure":982.3,"uv_index":5.4,"wind_gusts":37.1,"aqi":172,"pm10":115.0,"pm2_5":84.8,"mosquito_risk":7,"arthritis_risk":5,"migraine_risk":3,"frizz_risk":1,"updated_at":"2026-03-11T11:22:09.902320+05:30"},{"city":"Jhansi","state":"Uttar Pradesh","latitude":25.4484,"longitude":78.5685,"temp":34.0,"humidity":30,"rain":0.0,"pressure":985.2,"uv_index":7.1,"wind_gusts":27.4,"aqi":102,"pm10":135.5,"pm2_5":40.3,"mosquito_risk":0,"arthritis_risk":5,"migraine_risk":7,"frizz_risk":0,"updated_at":"2026-03-11T11:22:13.245844+05:30"},{"city":"Surat","state":"Gujarat","latitude":21.1702,"longitude":72.8311,"temp":34.5,"humidity":27,"rain":0.0,"pressure":1012.2,"uv_index":7.3,"wind_gusts":25.9,"aqi":114,"pm10":43.0,"pm2_5":40.5,"mosquito_risk":0,"arthritis_risk":0,"migraine_risk":4,"frizz_risk":0,"updated_at":"2026-03-11T11:22:13.245877+05:30"},{"city":"Vadodara","state":"Gujarat","latitude":22.3072,"longitude":73.1812,"temp":36.8,"humidity":22,"rain":0.0,"pressure":1010.5,"uv_index":7.45,"wind_gusts":20.2,"aqi":71,"pm10":27.8,"pm2_5":21.2,"mosquito_risk":0,"arthritis_risk":0,"migraine_risk":7,"frizz_risk":0,"updated_at":"2026-03-11T11:22:13.245888+05:30"},{"city":"Rajkot","state":"Gujarat","latitude":22.3039,"longitude":70.8022,"temp":33.2,"humidity":28,"rain":0.0,"pressure":1001.6,"uv_index":7.25,"wind_gusts":29.9,"aqi":70,"pm10":24.7,"pm2_5":22.4,"mosquito_risk":0,"arthritis_risk":5,"migraine_risk":4,"frizz_risk":0,"updated_at":"2026-03-11T11:22:13.245897+05:30"},{"city":"Thane","state":"Maharashtra","latitude":19.2183,"longitude":72.9781,"temp":33.3,"humidity":43,"rain":0.0,"pressure":1012.9,"uv_index":7.6,"wind_gusts":36.7,"aqi":153,"pm10":79.2,"pm2_5":72.2,"mosquito_risk":0,"arthritis_risk":0,"migraine_risk":4,"frizz_risk":1,"updated_at":"2026-03-11T11:22:13.245905+05:30"},{"city":"Nagpur","state":"Maharashtra","latitude":21.1458,"longitude":79.0882,"temp":34.2,"humidity":27,"rain":0.0,"pressure":979.9,"uv_index":8.0,"wind_gusts":11.9,"aqi":83,"pm10":54.9,"pm2_5":26.7,"mosquito_risk":0,"arthritis_risk":5,"migraine_risk":7,"frizz_risk":0,"updated_at":"2026-03-11T11:22:13.245914+05:30"},{"city":"Nashik","state":"Maharashtra","latitude":19.9975,"longitude":73.7898,"temp":33.8,"humidity":21,"rain":0.0,"pressure":952.0,"uv_index":7.75,"wind_gusts":25.6,"aqi":73,"pm10":29.9,"pm2_5":23.6,"mosquito_risk":0,"arthritis_risk":5,"migraine_risk":7,"frizz_risk":0,"updated_at":"2026-03-11T11:22:13.245923+05:30"},{"city":"Aurangabad","state":"Maharashtra","latitude":19.8762,"longitude":75.3433,"temp":32.7,"humidity":31,"rain":0.0,"pressure":950.8,"uv_index":8.3,"wind_gusts":18.4,"aqi":88,"pm10":45.4,"pm2_5":36.2,"mosquito_risk":0,"arthritis_risk":5,"migraine_risk":7,"frizz_risk":0,"updated_at":"2026-03-11T11:22:13.245931+05:30"},{"city":"Solapur","state":"Maharashtra","latitude":17.6599,"longitude":75.9064,"temp":31.3,"humidity":37,"rain":0.0,"pressure":963.7,"uv_index":8.5,"wind_gusts":20.5,"aqi":127,"pm10":24.6,"pm2_5":20.8,"mosquito_risk":0,"arthritis_risk":5,"migraine_risk":7,"frizz_risk":0,"updated_at":"2026-03-11T11:22:13.245939+05:30"},{"city":"Kolhapur","state":"Maharashtra","latitude":16.705,"longitude":74.2433,"temp":31.3,"humidity":35,"rain":0.0,"pressure":953.9,"uv_index":8.65,"wind_gusts":30.2,"aqi":153,"pm10":43.8,"pm2_5":37.7,"mosquito_risk":0,"arthritis_risk":5,"migraine_risk":7,"frizz_risk":0,"updated_at":"2026-03-11T11:22:13.245947+05:30"},{"city":"Goa","state":"Goa","latitude":15.2993,"longitude":74.124,"temp":33.1,"humidity":51,"rain":0.0,"pressure":1002.8,"uv_index":8.7,"wind_gusts":37.8,"aqi":153,"pm10":57.5,"pm2_5":50.2,"mosquito_risk":0,"arthritis_risk":5,"migraine_risk":4,"frizz_risk":1,"updated_at":"2026-03-11T11:22:13.245956+05:30"},{"city":"Jodhpur","state":"Rajasthan","latitude":26.2389,"longitude":73.0243,"temp":33.5,"humidity":23,"rain":0.0,"pressure":990.9,"uv_index":7.2,"wind_gusts":32.8,"aqi":85,"pm10":140.2,"pm2_5":42.3,"mosquito_risk":0,"arthritis_risk":5,"migraine_risk":7,"frizz_risk":0,"updated_at":"2026-03-11T11:22:13.245965+05:30"},{"city":"Udaipur","state":"Rajasthan","latitude":24.5854,"longitude":73.7125,"temp":33.5,"humidity":19,"rain":0.0,"pressure":954.6,"uv_index":7.8,"wind_gusts":26.3,"aqi":52,"pm10":21.0,"pm2_5":11.0,"mosquito_risk":0,"arthritis_risk":5,"migraine_risk":7,"frizz_risk":0,"updated_at":"2026-03-11T11:22:13.245973+05:30"},{"city":"Kota","state":"Rajasthan","latitude":25.2138,"longitude":75.8648,"temp":33.9,"humidity":21,"rain":0.0,"pressure":986.6,"uv_index":7.2,"wind_gusts":19.1,"aqi":75,"pm10":58.9,"pm2_5":23.6,"mosquito_risk":0,"arthritis_risk":5,"migraine_risk":7,"frizz_risk":0,"updated_at":"2026-03-11T11:22:13.245981+05:30"},{"city":"Bikaner","state":"Rajasthan","latitude":28.0229,"longitude":73.3119,"temp":31.4,"humidity":24,"rain":0.0,"pressure":989.1,"uv_index":6.2,"wind_gusts":29.9,"aqi":69,"pm10":38.5,"pm2_5":23.8,"mosquito_risk":0,"arthritis_risk":5,"migraine_risk":7,"frizz_risk":0,"updated_at":"2026-03-11T11:22:13.245989+05:30"},{"city":"Ajmer","state":"Rajasthan","latitude":26.4499,"longitude":74.6399,"temp":32.4,"humidity":22,"rain":0.0,"pressure":962.6,"uv_index":7.15,"wind_gusts":31.3,"aqi":84,"pm10":126.2,"pm2_5":31.4,"mosquito_risk":0,"arthritis_risk":5,"migraine_risk":7,"frizz_risk":0,"updated_at":"2026-03-11T11:22:13.245997+05:30"},{"city":"Gwalior","state":"Madhya Pradesh","latitude":26.2183,"longitude":78.1828,"temp":33.7,"humidity":32,"rain":0.0,"pressure":990.2,"uv_index":6.8,"wind_gusts":30.2,"aqi":120,"pm10":116.2,"pm2_5":33.1,"mosquito_risk":0,"arthritis_risk":5,"migraine_risk":7,"frizz_risk":0,"updated_at":"2026-03-11T11:22:13.246005+05:30"},{"city":"Indore","state":"Madhya Pradesh","latitude":22.7196,"longitude":75.8577,"temp":34.3,"humidity":17,"rain":0.0,"pressure":955.5,"uv_index":7.7,"wind_gusts":22.0,"aqi":64,"pm10":35.6,"pm2_5":17.5,"mosquito_risk":0,"arthritis_risk":5,"migraine_risk":7,"frizz_risk":0,"updated_at":"2026-03-11T11:22:13.246013+05:30"},{"city":"Bhopal","state":"Madhya Pradesh","latitude":23.2599,"longitude":77.4126,"temp":34.2,"humidity":27,"rain":0.0,"pressure":961.1,"uv_index":7.55,"wind_gusts":24.8,"aqi":59,"pm10":62.6,"pm2_5":20.9,"mosquito_risk":0,"arthritis_risk":5,"migraine_risk":7,"frizz_risk":0,"updated_at":"2026-03-11T11:22:13.246021+05:30"},{"city":"Jabalpur","state":"Madhya Pradesh","latitude":23.1815,"longitude":79.9864,"temp":32.0,"humidity":39,"rain":0.0,"pressure":968.6,"uv_index":7.7,"wind_gusts":24.8,"aqi":83,"pm10":99.2,"pm2_5":36.0,"mosquito_risk":0,"arthritis_risk":5,"migraine_risk":7,"frizz_risk":1,"updated_at":"2026-03-11T11:22:13.246029+05:30"},{"city":"Ujjain","state":"Madhya Pradesh","latitude":23.1765,"longitude":75.7885,"temp":32.8,"humidity":27,"rain":0.0,"pressure":961.3,"uv_index":7.65,"wind_gusts":15.1,"aqi":75,"pm10":32.9,"pm2_5":18.9,"mosquito_risk":0,"arthritis_risk":5,"migraine_risk":7,"frizz_risk":0,"updated_at":"2026-03-11T11:22:13.246038+05:30"},{"city":"Visakhapatnam","state":"Andhra Pradesh","latitude":17.6868,"longitude":83.2185,"temp":32.3,"humidity":47,"rain":0.0,"pressure":1009.2,"uv_index":8.6,"wind_gusts":38.5,"aqi":106,"pm10":37.0,"pm2_5":32.6,"mosquito_risk":0,"arthritis_risk":0,"migraine_risk":4,"frizz_risk":1,"updated_at":"2026-03-11T11:22:13.246046+05:30"},{"city":"Vijayawada","state":"Andhra Pradesh","latitude":16.5062,"longitude":80.648,"temp":31.0,"humidity":50,"rain":0.0,"pressure":1009.3,"uv_index":8.7,"wind_gusts":16.6,"aqi":97,"pm10":22.8,"pm2_5":20.2,"mosquito_risk":0,"arthritis_risk":0,"migraine_risk":4,"frizz_risk":1,"updated_at":"2026-03-11T11:22:13.246054+05:30"},{"city":"Guntur","state":"Andhra Pradesh","latitude":16.3067,"longitude":80.4365,"temp":31.0,"humidity":51,"rain":0.0,"pressure":1010.6,"uv_index":8.7,"wind_gusts":18.7,"aqi":84,"pm10":20.5,"pm2_5":17.9,"mosquito_risk":0,"arthritis_risk":0,"migraine_risk":4,"frizz_risk":1,"updated_at":"2026-03-11T11:22:13.246063+05:30"},{"city":"Nellore","state":"Andhra Pradesh","latitude":14.4426,"longitude":79.9865,"temp":31.6,"humidity":51,"rain":0.0,"pressure":1012.1,"uv_index":8.9,"wind_gusts":27.4,"aqi":71,"pm10":20.0,"pm2_5":16.8,"mosquito_risk":0,"arthritis_risk":0,"migraine_risk":4,"frizz_risk":1,"updated_at":"2026-03-11T11:22:13.246072+05:30"},{"city":"Kurnool","state":"Andhra Pradesh","latitude":15.8281,"longitude":78.0373,"temp":32.7,"humidity":25,"rain":0.0,"pressure":983.5,"uv_index":8.7,"wind_gusts":23.4,"aqi":74,"pm10":18.3,"pm2_5":16.1,"mosquito_risk":0,"arthritis_risk":5,"migraine_risk":7,"frizz_risk":0,"updated_at":"2026-03-11T11:22:13.246080+05:30"},{"city":"Kakinada","state":"Andhra Pradesh","latitude":16.9891,"longitude":82.2475,"temp":32.5,"humidity":45,"rain":0.0,"pressure":1013.4,"uv_index":8.65,"wind_gusts":20.5,"aqi":94,"pm10":32.7,"pm2_5":29.2,"mosquito_risk":0,"arthritis_risk":0,"migraine_risk":4,"frizz_risk":1,"updated_at":"2026-03-11T11:22:13.246088+05:30"},{"city":"Tirupati","state":"Andhra Pradesh","latitude":13.6288,"longitude":79.4192,"temp":31.2,"humidity":40,"rain":0.0,"pressure":997.6,"uv_index":9.0,"wind_gusts":32.8,"aqi":85,"pm10":20.1,"pm2_5":17.2,"mosquito_risk":0,"arthritis_risk":5,"migraine_risk":7,"frizz_risk":0,"updated_at":"2026-03-11T11:22:13.246096+05:30"},{"city":"Warangal","state":"Telangana","latitude":17.9689,"longitude":79.5941,"temp":31.5,"humidity":36,"rain":0.0,"pressure":985.5,"uv_index":8.45,"wind_gusts":23.4,"aqi":107,"pm10":15.9,"pm2_5":14.3,"mosquito_risk":0,"arthritis_risk":5,"migraine_risk":7,"frizz_risk":0,"updated_at":"2026-03-11T11:22:13.246105+05:30"},{"city":"Nizamabad","state":"Telangana","latitude":18.6725,"longitude":78.0941,"temp":33.1,"humidity":30,"rain":0.0,"pressure":971.5,"uv_index":8.35,"wind_gusts":24.5,"aqi":129,"pm10":40.5,"pm2_5":35.0,"mosquito_risk":0,"arthritis_risk":5,"migraine_risk":7,"frizz_risk":0,"updated_at":"2026-03-11T11:22:13.246112+05:30"},{"city":"Mysore","state":"Karnataka","latitude":12.2958,"longitude":76.6396,"temp":28.1,"humidity":43,"rain":0.0,"pressure":933.4,"uv_index":9.25,"wind_gusts":28.8,"aqi":69,"pm10":18.3,"pm2_5":15.6,"mosquito_risk":4,"arthritis_risk":5,"migraine_risk":7,"frizz_risk":0,"updated_at":"2026-03-11T11:22:13.246121+05:30"},{"city":"Mangalore","state":"Karnataka","latitude":12.9141,"longitude":74.856,"temp":28.8,"humidity":82,"rain":0.0,"pressure":1010.8,"uv_index":8.9,"wind_gusts":27.7,"aqi":118,"pm10":37.6,"pm2_5":33.4,"mosquito_risk":7,"arthritis_risk":0,"migraine_risk":4,"frizz_risk":1,"updated_at":"2026-03-11T11:22:13.246129+05:30"},{"city":"Hubli-Dharwad","state":"Karnataka","latitude":15.3647,"longitude":75.124,"temp":31.0,"humidity":32,"rain":0.0,"pressure":946.6,"uv_index":8.85,"wind_gusts":35.6,"aqi":107,"pm10":22.8,"pm2_5":20.1,"mosquito_risk":0,"arthritis_risk":5,"migraine_risk":7,"frizz_risk":0,"updated_at":"2026-03-11T11:22:13.246137+05:30"},{"city":"Belgaum","state":"Karnataka","latitude":15.8497,"longitude":74.4977,"temp":31.3,"humidity":25,"rain":0.0,"pressure":931.7,"uv_index":8.9,"wind_gusts":40.3,"aqi":126,"pm10":28.9,"pm2_5":23.3,"mosquito_risk":0,"arthritis_risk":5,"migraine_risk":7,"frizz_risk":0,"updated_at":"2026-03-11T11:22:16.585590+05:30"},{"city":"Coimbatore","state":"Tamil Nadu","latitude":11.0168,"longitude":76.9558,"temp":29.6,"humidity":46,"rain":0.0,"pressure":966.8,"uv_index":9.25,"wind_gusts":38.9,"aqi":76,"pm10":18.0,"pm2_5":15.6,"mosquito_risk":4,"arthritis_risk":5,"migraine_risk":7,"frizz_risk":1,"updated_at":"2026-03-11T11:22:16.585623+05:30"},{"city":"Madurai","state":"Tamil Nadu","latitude":9.9252,"longitude":78.1198,"temp":30.9,"humidity":51,"rain":0.0,"pressure":997.7,"uv_index":8.3,"wind_gusts":29.5,"aqi":70,"pm10":20.0,"pm2_5":17.2,"mosquito_risk":0,"arthritis_risk":5,"migraine_risk":7,"frizz_risk":1,"updated_at":"2026-03-11T11:22:16.585634+05:30"},{"city":"Trichy","state":"Tamil Nadu","latitude":10.7905,"longitude":78.7047,"temp":30.8,"humidity":53,"rain":0.0,"pressure":1005.0,"uv_index":9.15,"wind_gusts":28.1,"aqi":69,"pm10":19.6,"pm2_5":16.9,"mosquito_risk":0,"arthritis_risk":5,"migraine_risk":4,"frizz_risk":1,"updated_at":"2026-03-11T11:22:16.585642+05:30"},{"city":"Salem","state":"Tamil Nadu","latitude":11.6643,"longitude":78.146,"temp":30.2,"humidity":47,"rain":0.0,"pressure":982.8,"uv_index":9.15,"wind_gusts":25.2,"aqi":76,"pm10":23.6,"pm2_5":20.1,"mosquito_risk":0,"arthritis_risk":5,"migraine_risk":7,"frizz_risk":1,"updated_at":"2026-03-11T11:22:16.585650+05:30"},{"city":"Tirunelveli","state":"Tamil Nadu","latitude":8.7139,"longitude":77.7567,"temp":30.5,"humidity":56,"rain":0.0,"pressure":1007.9,"uv_index":6.2,"wind_gusts":25.9,"aqi":60,"pm10":14.8,"pm2_5":13.1,"mosquito_risk":0,"arthritis_risk":5,"migraine_risk":4,"frizz_risk":1,"updated_at":"2026-03-11T11:22:16.585658+05:30"},{"city":"Vellore","state":"Tamil Nadu","latitude":12.9165,"longitude":79.1325,"temp":30.1,"humidity":48,"rain":0.0,"pressure":990.6,"uv_index":9.1,"wind_gusts":33.1,"aqi":95,"pm10":20.5,"pm2_5":17.6,"mosquito_risk":0,"arthritis_risk":5,"migraine_risk":7,"frizz_risk":1,"updated_at":"2026-03-11T11:22:16.585667+05:30"},{"city":"Erode","state":"Tamil Nadu","latitude":11.341,"longitude":77.7172,"temp":30.8,"humidity":50,"rain":0.0,"pressure":994.5,"uv_index":9.15,"wind_gusts":20.5,"aqi":80,"pm10":24.9,"pm2_5":21.7,"mosquito_risk":0,"arthritis_risk":5,"migraine_risk":7,"frizz_risk":1,"updated_at":"2026-03-11T11:22:16.585674+05:30"},{"city":"Kochi","state":"Kerala","latitude":9.9312,"longitude":76.2673,"temp":27.7,"humidity":77,"rain":0.0,"pressure":1012.3,"uv_index":8.25,"wind_gusts":40.0,"aqi":126,"pm10":46.0,"pm2_5":38.4,"mosquito_risk":7,"arthritis_risk":0,"migraine_risk":4,"frizz_risk":1,"updated_at":"2026-03-11T11:22:16.585682+05:30"},{"city":"Thiruvananthapuram","state":"Kerala","latitude":8.5241,"longitude":76.9366,"temp":28.5,"humidity":70,"rain":0.0,"pressure":1011.1,"uv_index":7.3,"wind_gusts":29.2,"aqi":73,"pm10":16.3,"pm2_5":14.6,"mosquito_risk":7,"arthritis_risk":0,"migraine_risk":4,"frizz_risk":1,"updated_at":"2026-03-11T11:22:16.585690+05:30"},{"city":"Kozhikode","state":"Kerala","latitude":11.2588,"longitude":75.7804,"temp":29.1,"humidity":73,"rain":0.0,"pressure":1012.0,"uv_index":8.95,"wind_gusts":30.6,"aqi":126,"pm10":52.4,"pm2_5":43.8,"mosquito_risk":7,"arthritis_risk":0,"migraine_risk":4,"frizz_risk":1,"updated_at":"2026-03-11T11:22:16.585698+05:30"},{"city":"Thrissur","state":"Kerala","latitude":10.5276,"longitude":76.2144,"temp":34.6,"humidity":39,"rain":0.0,"pressure":1010.5,"uv_index":9.05,"wind_gusts":38.2,"aqi":95,"pm10":17.2,"pm2_5":15.7,"mosquito_risk":0,"arthritis_risk":0,"migraine_risk":4,"frizz_risk":1,"updated_at":"2026-03-11T11:22:16.585707+05:30"},{"city":"Kannur","state":"Kerala","latitude":11.8745,"longitude":75.3704,"temp":30.1,"humidity":70,"rain":0.0,"pressure":1011.4,"uv_index":8.95,"wind_gusts":36.7,"aqi":138,"pm10":46.1,"pm2_5":39.6,"mosquito_risk":3,"arthritis_risk":0,"migraine_risk":4,"frizz_risk":1,"updated_at":"2026-03-11T11:22:16.585714+05:30"},{"city":"Patna","state":"Bihar","latitude":25.5941,"longitude":85.1376,"temp":29.3,"humidity":63,"rain":0.0,"pressure":1006.7,"uv_index":6.85,"wind_gusts":24.1,"aqi":193,"pm10":150.9,"pm2_5":134.1,"mosquito_risk":7,"arthritis_risk":5,"migraine_risk":4,"frizz_risk":1,"updated_at":"2026-03-11T11:22:16.585722+05:30"},{"city":"Gaya","state":"Bihar","latitude":24.7914,"longitude":85.0002,"temp":29.5,"humidity":67,"rain":0.0,"pressure":999.7,"uv_index":7.5,"wind_gusts":21.2,"aqi":169,"pm10":112.2,"pm2_5":100.1,"mosquito_risk":7,"arthritis_risk":5,"migraine_risk":7,"frizz_risk":1,"updated_at":"2026-03-11T11:22:16.585730+05:30"},{"city":"Muzaffarpur","state":"Bihar","latitude":26.1209,"longitude":85.3647,"temp":29.5,"humidity":62,"rain":0.0,"pressure":1006.7,"uv_index":7.4,"wind_gusts":30.6,"aqi":205,"pm10":174.6,"pm2_5":152.3,"mosquito_risk":7,"arthritis_risk":5,"migraine_risk":4,"frizz_risk":1,"updated_at":"2026-03-11T11:22:16.585737+05:30"},{"city":"Bhagalpur","state":"Bihar","latitude":25.2425,"longitude":87.0117,"temp":28.7,"humidity":68,"rain":0.0,"pressure":1007.4,"uv_index":7.15,"wind_gusts":25.9,"aqi":172,"pm10":97.6,"pm2_5":85.4,"mosquito_risk":7,"arthritis_risk":5,"migraine_risk":4,"frizz_risk":1,"updated_at":"2026-03-11T11:22:16.585744+05:30"},{"city":"Ranchi","state":"Jharkhand","latitude":23.3441,"longitude":85.3096,"temp":29.6,"humidity":46,"rain":0.0,"pressure":943.1,"uv_index":8.15,"wind_gusts":29.9,"aqi":170,"pm10":110.8,"pm2_5":89.6,"mosquito_risk":4,"arthritis_risk":5,"migraine_risk":7,"frizz_risk":1,"updated_at":"2026-03-11T11:22:16.585752+05:30"},{"city":"Jamshedpur","state":"Jharkhand","latitude":22.8046,"longitude":86.2029,"temp":30.2,"humidity":63,"rain":0.0,"pressure":996.0,"uv_index":8.05,"wind_gusts":29.5,"aqi":157,"pm10":88.5,"pm2_5":74.7,"mosquito_risk":3,"arthritis_risk":5,"migraine_risk":7,"frizz_risk":1,"updated_at":"2026-03-11T11:22:16.585759+05:30"},{"city":"Dhanbad","state":"Jharkhand","latitude":23.7957,"longitude":86.4304,"temp":29.6,"humidity":61,"rain":0.0,"pressure":985.2,"uv_index":7.6,"wind_gusts":27.7,"aqi":188,"pm10":108.3,"pm2_5":96.6,"mosquito_risk":7,"arthritis_risk":5,"migraine_risk":7,"frizz_risk":1,"updated_at":"2026-03-11T11:22:16.585768+05:30"},{"city":"Bokaro","state":"Jharkhand","latitude":23.6693,"longitude":86.1511,"temp":30.1,"humidity":57,"rain":0.0,"pressure":989.3,"uv_index":7.75,"wind_gusts":40.7,"aqi":189,"pm10":128.1,"pm2_5":113.4,"mosquito_risk":0,"arthritis_risk":5,"migraine_risk":7,"frizz_risk":1,"updated_at":"2026-03-11T11:22:16.585778+05:30"},{"city":"Bhubaneswar","state":"Odisha","latitude":20.2961,"longitude":85.8245,"temp":31.3,"humidity":62,"rain":0.0,"pressure":1007.8,"uv_index":8.35,"wind_gusts":26.6,"aqi":126,"pm10":33.2,"pm2_5":27.7,"mosquito_risk":3,"arthritis_risk":5,"migraine_risk":4,"frizz_risk":1,"updated_at":"2026-03-11T11:22:16.585786+05:30"},{"city":"Cuttack","state":"Odisha","latitude":20.4625,"longitude":85.8828,"temp":32.1,"humidity":60,"rain":0.0,"pressure":1009.6,"uv_index":8.4,"wind_gusts":29.5,"aqi":126,"pm10":33.2,"pm2_5":27.7,"mosquito_risk":0,"arthritis_risk":0,"migraine_risk":4,"frizz_risk":1,"updated_at":"2026-03-11T11:22:16.585793+05:30"},{"city":"Rourkela","state":"Odisha","latitude":22.2604,"longitude":84.8536,"temp":32.2,"humidity":55,"rain":0.0,"pressure":990.3,"uv_index":7.95,"wind_gusts":27.4,"aqi":162,"pm10":111.3,"pm2_5":91.7,"mosquito_risk":0,"arthritis_risk":5,"migraine_risk":7,"frizz_risk":1,"updated_at":"2026-03-11T11:22:16.585800+05:30"},{"city":"Raipur","state":"Chhattisgarh","latitude":21.2514,"longitude":81.6296,"temp":33.9,"humidity":33,"rain":0.0,"pressure":980.9,"uv_index":8.05,"wind_gusts":24.8,"aqi":152,"pm10":104.1,"pm2_5":82.2,"mosquito_risk":0,"arthritis_risk":5,"migraine_risk":7,"frizz_risk":0,"updated_at":"2026-03-11T11:22:16.585807+05:30"},{"city":"Bhilai","state":"Chhattisgarh","latitude":21.1938,"longitude":81.3509,"temp":34.3,"humidity":33,"rain":0.0,"pressure":981.3,"uv_index":8.05,"wind_gusts":19.8,"aqi":148,"pm10":108.3,"pm2_5":82.7,"mosquito_risk":0,"arthritis_risk":5,"migraine_risk":7,"frizz_risk":0,"updated_at":"2026-03-11T11:22:16.585819+05:30"},{"city":"Guwahati","state":"Assam","latitude":26.1158,"longitude":91.7086,"temp":30.3,"humidity":59,"rain":0.0,"pressure":1006.8,"uv_index":7.35,"wind_gusts":23.8,"aqi":155,"pm10":71.7,"pm2_5":61.7,"mosquito_risk":0,"arthritis_risk":5,"migraine_risk":4,"frizz_risk":1,"updated_at":"2026-03-11T11:22:16.585826+05:30"},{"city":"Agartala","state":"Tripura","latitude":23.8315,"longitude":91.2868,"temp":30.5,"humidity":57,"rain":0.0,"pressure":1011.2,"uv_index":7.75,"wind_gusts":19.8,"aqi":169,"pm10":85.7,"pm2_5":74.5,"mosquito_risk":0,"arthritis_risk":0,"migraine_risk":4,"frizz_risk":1,"updated_at":"2026-03-11T11:22:16.585834+05:30"},{"city":"Shillong","state":"Meghalaya","latitude":25.5788,"longitude":91.8933,"temp":20.1,"humidity":50,"rain":0.0,"pressure":861.8,"uv_index":6.65,"wind_gusts":18.4,"aqi":139,"pm10":49.8,"pm2_5":44.5,"mosquito_risk":0,"arthritis_risk":5,"migraine_risk":7,"frizz_risk":0,"updated_at":"2026-03-11T11:22:16.585841+05:30"},{"city":"Imphal","state":"Manipur","latitude":24.817,"longitude":93.9368,"temp":24.8,"humidity":51,"rain":0.0,"pressure":928.2,"uv_index":7.95,"wind_gusts":36.4,"aqi":154,"pm10":58.2,"pm2_5":49.8,"mosquito_risk":0,"arthritis_risk":5,"migraine_risk":7,"frizz_risk":0,"updated_at":"2026-03-11T11:22:16.585849+05:30"},{"city":"Aizawl","state":"Mizoram","latitude":23.7271,"longitude":92.7176,"temp":24.9,"humidity":50,"rain":0.0,"pressure":898.2,"uv_index":7.9,"wind_gusts":28.8,"aqi":177,"pm10":78.0,"pm2_5":67.3,"mosquito_risk":0,"arthritis_risk":5,"migraine_risk":7,"frizz_risk":0,"updated_at":"2026-03-11T11:22:16.585856+05:30"},{"city":"Kohima","state":"Nagaland","latitude":25.6701,"longitude":94.1077,"temp":18.4,"humidity":72,"rain":0.0,"pressure":860.0,"uv_index":7.05,"wind_gusts":34.2,"aqi":139,"pm10":56.7,"pm2_5":50.2,"mosquito_risk":3,"arthritis_risk":5,"migraine_risk":7,"frizz_risk":0,"updated_at":"2026-03-11T11:22:16.585863+05:30"},{"city":"Gangtok","state":"Sikkim","latitude":27.3314,"longitude":88.6138,"temp":20.7,"humidity":59,"rain":0.0,"pressure":843.8,"uv_index":6.3,"wind_gusts":20.9,"aqi":133,"pm10":55.1,"pm2_5":46.9,"mosquito_risk":0,"arthritis_risk":5,"migraine_risk":7,"frizz_risk":0,"updated_at":"2026-03-11T11:22:16.585870+05:30"},{"city":"Siliguri","state":"West Bengal","latitude":26.7271,"longitude":88.3953,"temp":26.5,"humidity":62,"rain":0.0,"pressure":999.7,"uv_index":5.75,"wind_gusts":21.2,"aqi":163,"pm10":102.7,"pm2_5":87.1,"mosquito_risk":7,"arthritis_risk":5,"migraine_risk":3,"frizz_risk":1,"updated_at":"2026-03-11T11:22:19.924070+05:30"},{"city":"Durgapur","state":"West Bengal","latitude":23.5204,"longitude":87.3119,"temp":28.1,"humidity":71,"rain":0.0,"pressure":1001.0,"uv_index":7.6,"wind_gusts":30.2,"aqi":161,"pm10":79.9,"pm2_5":68.7,"mosquito_risk":7,"arthritis_risk":5,"migraine_risk":4,"frizz_risk":1,"updated_at":"2026-03-11T11:22:19.924100+05:30"},{"city":"Asansol","state":"West Bengal","latitude":23.6739,"longitude":86.9524,"temp":28.7,"humidity":68,"rain":0.0,"pressure":999.4,"uv_index":7.85,"wind_gusts":22.3,"aqi":167,"pm10":77.3,"pm2_5":67.1,"mosquito_risk":7,"arthritis_risk":5,"migraine_risk":7,"frizz_risk":1,"updated_at":"2026-03-11T11:22:19.924110+05:30"},{"city":"Pondicherry","state":"Puducherry","latitude":11.9139,"longitude":79.8145,"temp":31.2,"humidity":56,"rain":0.0,"pressure":1013.8,"uv_index":9.0,"wind_gusts":31.7,"aqi":60,"pm10":22.6,"pm2_5":17.6,"mosquito_risk":0,"arthritis_risk":0,"migraine_risk":4,"frizz_risk":1,"updated_at":"2026-03-11T11:22:19.924118+05:30"},{"city":"Port Blair","state":"Andaman and Nicobar Islands","latitude":11.6234,"longitude":92.7265,"temp":28.1,"humidity":80,"rain":0.0,"pressure":1010.5,"uv_index":8.95,"wind_gusts":20.2,"aqi":62,"pm10":22.0,"pm2_5":17.9,"mosquito_risk":7,"arthritis_risk":0,"migraine_risk":4,"frizz_risk":1,"updated_at":"2026-03-11T11:22:19.924127+05:30"},{"city":"Haridwar","state":"Uttarakhand","latitude":29.9457,"longitude":78.1642,"temp":29.2,"humidity":65,"rain":0.0,"pressure":980.8,"uv_index":5.9,"wind_gusts":38.5,"aqi":160,"pm10":95.5,"pm2_5":64.0,"mosquito_risk":7,"arthritis_risk":5,"migraine_risk":3,"frizz_risk":1,"updated_at":"2026-03-11T11:22:19.924134+05:30"},{"city":"Rishikesh","state":"Uttarakhand","latitude":30.0869,"longitude":78.2676,"temp":29.3,"humidity":55,"rain":0.0,"pressure":973.3,"uv_index":5.9,"wind_gusts":34.2,"aqi":156,"pm10":74.3,"pm2_5":47.7,"mosquito_risk":4,"arthritis_risk":5,"migraine_risk":3,"frizz_risk":1,"updated_at":"2026-03-11T11:22:19.924142+05:30"},{"city":"Nainital","state":"Uttarakhand","latitude":29.3919,"longitude":79.4542,"temp":22.3,"humidity":72,"rain":0.0,"pressure":812.9,"uv_index":6.8,"wind_gusts":67.3,"aqi":176,"pm10":113.2,"pm2_5":76.6,"mosquito_risk":3,"arthritis_risk":5,"migraine_risk":7,"frizz_risk":1,"updated_at":"2026-03-11T11:22:19.924150+05:30"},{"city":"Mussoorie","state":"Uttarakhand","latitude":30.4599,"longitude":78.0664,"temp":21.8,"humidity":55,"rain":0.0,"pressure":809.9,"uv_index":5.6,"wind_gusts":40.7,"aqi":153,"pm10":51.1,"pm2_5":33.4,"mosquito_risk":0,"arthritis_risk":5,"migraine_risk":3,"frizz_risk":0,"updated_at":"2026-03-11T11:22:19.924157+05:30"},{"city":"Dharamshala","state":"Himachal Pradesh","latitude":32.219,"longitude":76.3234,"temp":24.7,"humidity":37,"rain":0.0,"pressure":876.2,"uv_index":5.5,"wind_gusts":25.9,"aqi":60,"pm10":39.1,"pm2_5":18.1,"mosquito_risk":0,"arthritis_risk":5,"migraine_risk":3,"frizz_risk":0,"updated_at":"2026-03-11T11:22:19.924164+05:30"},{"city":"Dalhousie","state":"Himachal Pradesh","latitude":32.5387,"longitude":75.971,"temp":23.0,"humidity":24,"rain":0.0,"pressure":811.2,"uv_index":4.75,"wind_gusts":19.8,"aqi":95,"pm10":42.4,"pm2_5":27.1,"mosquito_risk":0,"arthritis_risk":5,"migraine_risk":3,"frizz_risk":0,"updated_at":"2026-03-11T11:22:19.924172+05:30"},{"city":"Patiala","state":"Punjab","latitude":30.3398,"longitude":76.3869,"temp":29.5,"humidity":59,"rain":0.0,"pressure":985.2,"uv_index":5.3,"wind_gusts":17.6,"aqi":172,"pm10":102.9,"pm2_5":78.2,"mosquito_risk":4,"arthritis_risk":5,"migraine_risk":3,"frizz_risk":1,"updated_at":"2026-03-11T11:22:19.924179+05:30"},{"city":"Bhatinda","state":"Punjab","latitude":30.211,"longitude":74.9455,"temp":29.2,"humidity":52,"rain":0.0,"pressure":990.6,"uv_index":6.6,"wind_gusts":21.6,"aqi":153,"pm10":116.4,"pm2_5":54.7,"mosquito_risk":4,"arthritis_risk":5,"migraine_risk":7,"frizz_risk":1,"updated_at":"2026-03-11T11:22:19.924187+05:30"},{"city":"Rohtak","state":"Haryana","latitude":28.8955,"longitude":76.6066,"temp":31.0,"humidity":49,"rain":0.0,"pressure":988.8,"uv_index":6.1,"wind_gusts":25.6,"aqi":177,"pm10":196.5,"pm2_5":60.5,"mosquito_risk":0,"arthritis_risk":5,"migraine_risk":7,"frizz_risk":1,"updated_at":"2026-03-11T11:22:19.924194+05:30"},{"city":"Panipat","state":"Haryana","latitude":29.3909,"longitude":76.9635,"temp":30.2,"humidity":55,"rain":0.0,"pressure":987.4,"uv_index":5.35,"wind_gusts":22.7,"aqi":194,"pm10":159.3,"pm2_5":60.3,"mosquito_risk":0,"arthritis_risk":5,"migraine_risk":3,"frizz_risk":1,"updated_at":"2026-03-11T11:22:19.924201+05:30"},{"city":"Mathura","state":"Uttar Pradesh","latitude":27.4924,"longitude":77.6737,"temp":33.6,"humidity":38,"rain":0.0,"pressure":993.6,"uv_index":6.4,"wind_gusts":23.4,"aqi":209,"pm10":272.9,"pm2_5":74.5,"mosquito_risk":0,"arthritis_risk":5,"migraine_risk":7,"frizz_risk":1,"updated_at":"2026-03-11T11:22:19.924208+05:30"},{"city":"Vrindavan","state":"Uttar Pradesh","latitude":27.5823,"longitude":77.7027,"temp":33.1,"humidity":42,"rain":0.0,"pressure":994.1,"uv_index":6.4,"wind_gusts":24.1,"aqi":209,"pm10":272.9,"pm2_5":74.5,"mosquito_risk":0,"arthritis_risk":5,"migraine_risk":7,"frizz_risk":1,"updated_at":"2026-03-11T11:22:19.924214+05:30"},{"city":"Ayodhya","state":"Uttar Pradesh","latitude":26.7922,"longitude":82.1998,"temp":30.7,"humidity":59,"rain":0.0,"pressure":1001.8,"uv_index":6.8,"wind_gusts":28.4,"aqi":196,"pm10":163.4,"pm2_5":142.5,"mosquito_risk":0,"arthritis_risk":5,"migraine_risk":4,"frizz_risk":1,"updated_at":"2026-03-11T11:22:19.924221+05:30"},{"city":"Ratlam","state":"Madhya Pradesh","latitude":23.3315,"longitude":75.0367,"temp":33.4,"humidity":24,"rain":0.0,"pressure":962.0,"uv_index":7.6,"wind_gusts":19.8,"aqi":68,"pm10":28.7,"pm2_5":15.7,"mosquito_risk":0,"arthritis_risk":5,"migraine_risk":7,"frizz_risk":0,"updated_at":"2026-03-11T11:22:19.924228+05:30"},{"city":"Sagar","state":"Madhya Pradesh","latitude":23.8388,"longitude":78.7378,"temp":33.9,"humidity":24,"rain":0.0,"pressure":957.5,"uv_index":7.55,"wind_gusts":25.2,"aqi":68,"pm10":95.0,"pm2_5":26.9,"mosquito_risk":0,"arthritis_risk":5,"migraine_risk":7,"frizz_risk":0,"updated_at":"2026-03-11T11:22:19.924234+05:30"},{"city":"Satna","state":"Madhya Pradesh","latitude":24.6005,"longitude":80.8322,"temp":32.9,"humidity":32,"rain":0.0,"pressure":978.3,"uv_index":7.55,"wind_gusts":34.2,"aqi":152,"pm10":115.0,"pm2_5":46.0,"mosquito_risk":0,"arthritis_risk":5,"migraine_risk":7,"frizz_risk":0,"updated_at":"2026-03-11T11:22:19.924241+05:30"},{"city":"Akola","state":"Maharashtra","latitude":20.7002,"longitude":77.0082,"temp":35.5,"humidity":24,"rain":0.0,"pressure":981.5,"uv_index":8.0,"wind_gusts":16.2,"aqi":68,"pm10":26.7,"pm2_5":18.7,"mosquito_risk":0,"arthritis_risk":5,"migraine_risk":10,"frizz_risk":0,"updated_at":"2026-03-11T11:22:19.924248+05:30"},{"city":"Amravati","state":"Maharashtra","latitude":20.9374,"longitude":77.7796,"temp":35.9,"humidity":25,"rain":0.0,"pressure":973.7,"uv_index":8.0,"wind_gusts":9.7,"aqi":70,"pm10":30.4,"pm2_5":18.5,"mosquito_risk":0,"arthritis_risk":5,"migraine_risk":10,"frizz_risk":0,"updated_at":"2026-03-11T11:22:19.924256+05:30"},{"city":"Latur","state":"Maharashtra","latitude":18.4088,"longitude":76.5604,"temp":31.6,"humidity":33,"rain":0.0,"pressure":946.6,"uv_index":8.45,"wind_gusts":24.1,"aqi":114,"pm10":31.5,"pm2_5":26.1,"mosquito_risk":0,"arthritis_risk":5,"migraine_risk":7,"frizz_risk":0,"updated_at":"2026-03-11T11:22:19.924263+05:30"},{"city":"Nanded","state":"Maharashtra","latitude":19.1383,"longitude":77.3091,"temp":33.9,"humidity":34,"rain":0.0,"pressure":975.3,"uv_index":8.25,"wind_gusts":18.0,"aqi":125,"pm10":52.4,"pm2_5":45.2,"mosquito_risk":0,"arthritis_risk":5,"migraine_risk":7,"frizz_risk":0,"updated_at":"2026-03-11T11:22:19.924270+05:30"},{"city":"Gulbarga","state":"Karnataka","latitude":17.3297,"longitude":76.8343,"temp":32.1,"humidity":30,"rain":0.0,"pressure":965.5,"uv_index":8.5,"wind_gusts":21.6,"aqi":113,"pm10":22.4,"pm2_5":18.9,"mosquito_risk":0,"arthritis_risk":5,"migraine_risk":7,"frizz_risk":0,"updated_at":"2026-03-11T11:22:19.924276+05:30"},{"city":"Bidar","state":"Karnataka","latitude":17.9104,"longitude":77.5199,"temp":31.6,"humidity":26,"rain":0.0,"pressure":942.4,"uv_index":8.5,"wind_gusts":22.7,"aqi":115,"pm10":32.8,"pm2_5":26.0,"mosquito_risk":0,"arthritis_risk":5,"migraine_risk":7,"frizz_risk":0,"updated_at":"2026-03-11T11:22:19.924283+05:30"},{"city":"Hospet","state":"Karnataka","latitude":15.2689,"longitude":76.3909,"temp":29.6,"humidity":43,"rain":0.0,"pressure":961.8,"uv_index":8.8,"wind_gusts":25.6,"aqi":89,"pm10":22.1,"pm2_5":19.2,"mosquito_risk":4,"arthritis_risk":5,"migraine_risk":7,"frizz_risk":0,"updated_at":"2026-03-11T11:22:19.924289+05:30"},{"city":"Tirupur","state":"Tamil Nadu","latitude":11.1085,"longitude":77.3411,"temp":30.3,"humidity":47,"rain":0.0,"pressure":980.6,"uv_index":9.3,"wind_gusts":31.0,"aqi":89,"pm10":26.1,"pm2_5":23.2,"mosquito_risk":0,"arthritis_risk":5,"migraine_risk":7,"frizz_risk":1,"updated_at":"2026-03-11T11:22:19.924296+05:30"},{"city":"Alappuzha","state":"Kerala","latitude":9.4981,"longitude":76.3388,"temp":28.2,"humidity":77,"rain":0.0,"pressure":1012.3,"uv_index":8.6,"wind_gusts":37.4,"aqi":125,"pm10":47.6,"pm2_5":40.9,"mosquito_risk":7,"arthritis_risk":0,"migraine_risk":4,"frizz_risk":1,"updated_at":"2026-03-11T11:22:19.924302+05:30"},{"city":"Munnar","state":"Kerala","latitude":10.0889,"longitude":77.0595,"temp":28.4,"humidity":44,"rain":0.0,"pressure":862.0,"uv_index":8.0,"wind_gusts":27.4,"aqi":65,"pm10":14.5,"pm2_5":12.5,"mosquito_risk":4,"arthritis_risk":5,"migraine_risk":7,"frizz_risk":0,"updated_at":"2026-03-11T11:22:19.924309+05:30"},{"city":"Silchar","state":"Assam","latitude":24.8333,"longitude":92.7789,"temp":29.2,"humidity":65,"rain":0.0,"pressure":1010.6,"uv_index":7.65,"wind_gusts":16.6,"aqi":168,"pm10":85.9,"pm2_5":75.2,"mosquito_risk":7,"arthritis_risk":0,"migraine_risk":4,"frizz_risk":1,"updated_at":"2026-03-11T11:22:19.924316+05:30"},{"city":"Dibrugarh","state":"Assam","latitude":27.4728,"longitude":94.912,"temp":27.6,"humidity":66,"rain":0.0,"pressure":1000.6,"uv_index":7.45,"wind_gusts":21.6,"aqi":162,"pm10":92.7,"pm2_5":82.4,"mosquito_risk":7,"arthritis_risk":5,"migraine_risk":4,"frizz_risk":1,"updated_at":"2026-03-11T11:22:19.924322+05:30"}]