[{"city":"Delhi","state":"Delhi","latitude":28.6139,"longitude":77.209,"temp":25.6,"humidity":94,"rain":0.1,"pressure":977.9,"uv_index":5.1,"wind_gusts":34.6,"aqi":130,"pm10":29.3,"pm2_5":27.8,"no2":30.8,"co":273.0,"o3":48.0,"so2":24.5,"mosquito_risk":10,"arthritis_risk":5,"migraine_risk":3,"frizz_risk":1,"updated_at":"2026-07-21T05:27:34.500218+05:30"},{"city":"Mumbai","state":"Maharashtra","latitude":19.076,"longitude":72.8777,"temp":26.2,"humidity":91,"rain":0.4,"pressure":1005.7,"uv_index":6.85,"wind_gusts":53.3,"aqi":59,"pm10":36.9,"pm2_5":16.1,"no2":4.2,"co":119.0,"o3":48.0,"so2":4.2,"mosquito_risk":10,"arthritis_risk":5,"migraine_risk":4,"frizz_risk":1,"updated_at":"2026-07-21T05:27:34.500260+05:30"},{"city":"Bangalore","state":"Karnataka","latitude":12.9716,"longitude":77.5946,"temp":19.7,"humidity":94,"rain":0.0,"pressure":911.1,"uv_index":8.5,"wind_gusts":46.1,"aqi":34,"pm10":5.6,"pm2_5":4.0,"no2":8.2,"co":158.0,"o3":29.0,"so2":4.4,"mosquito_risk":3,"arthritis_risk":10,"migraine_risk":7,"frizz_risk":1,"updated_at":"2026-07-21T05:27:34.500275+05:30"},{"city":"Hyderabad","state":"Telangana","latitude":17.385,"longitude":78.4867,"temp":23.4,"humidity":91,"rain":0.0,"pressure":950.9,"uv_index":3.85,"wind_gusts":47.2,"aqi":31,"pm10":5.5,"pm2_5":4.2,"no2":7.2,"co":138.0,"o3":33.0,"so2":4.4,"mosquito_risk":3,"arthritis_risk":5,"migraine_risk":3,"frizz_risk":1,"updated_at":"2026-07-21T05:27:34.500285+05:30"},{"city":"Chennai","state":"Tamil Nadu","latitude":13.0827,"longitude":80.2707,"temp":26.7,"humidity":78,"rain":0.0,"pressure":1006.5,"uv_index":7.85,"wind_gusts":37.1,"aqi":77,"pm10":14.3,"pm2_5":11.4,"no2":18.4,"co":334.0,"o3":23.0,"so2":8.3,"mosquito_risk":7,"arthritis_risk":5,"migraine_risk":4,"frizz_risk":1,"updated_at":"2026-07-21T05:27:34.500293+05:30"},{"city":"Kolkata","state":"West Bengal","latitude":22.5726,"longitude":88.3639,"temp":25.4,"humidity":97,"rain":0.2,"pressure":1002.1,"uv_index":6.3,"wind_gusts":27.7,"aqi":71,"pm10":13.0,"pm2_5":11.7,"no2":9.8,"co":263.0,"o3":54.0,"so2":6.1,"mosquito_risk":10,"arthritis_risk":5,"migraine_risk":4,"frizz_risk":1,"updated_at":"2026-07-21T05:27:34.500305+05:30"},{"city":"Pune","state":"Maharashtra","latitude":18.5204,"longitude":73.8567,"temp":23.0,"humidity":88,"rain":0.0,"pressure":945.1,"uv_index":2.65,"wind_gusts":54.7,"aqi":23,"pm10":4.0,"pm2_5":2.7,"no2":4.2,"co":106.0,"o3":39.0,"so2":3.8,"mosquito_risk":3,"arthritis_risk":5,"migraine_risk":3,"frizz_risk":1,"updated_at":"2026-07-21T05:27:34.500312+05:30"},{"city":"Ahmedabad","state":"Gujarat","latitude":23.0225,"longitude":72.5714,"temp":27.3,"humidity":82,"rain":0.0,"pressure":996.7,"uv_index":5.9,"wind_gusts":32.0,"aqi":62,"pm10":26.0,"pm2_5":16.8,"no2":11.8,"co":141.0,"o3":28.0,"so2":4.4,"mosquito_risk":7,"arthritis_risk":5,"migraine_risk":3,"frizz_risk":1,"updated_at":"2026-07-21T05:27:34.500319+05:30"},{"city":"Jaipur","state":"Rajasthan","latitude":26.9124,"longitude":75.7873,"temp":24.8,"humidity":97,"rain":0.0,"pressure":954.7,"uv_index":2.5,"wind_gusts":25.9,"aqi":94,"pm10":17.7,"pm2_5":13.9,"no2":11.1,"co":173.0,"o3":58.0,"so2":5.0,"mosquito_risk":3,"arthritis_risk":5,"migraine_risk":3,"frizz_risk":1,"updated_at":"2026-07-21T05:27:34.500325+05:30"},{"city":"Lucknow","state":"Uttar Pradesh","latitude":26.8467,"longitude":80.9462,"temp":24.9,"humidity":98,"rain":0.5,"pressure":989.3,"uv_index":6.15,"wind_gusts":39.2,"aqi":74,"pm10":18.3,"pm2_5":17.9,"no2":13.8,"co":370.0,"o3":69.0,"so2":7.3,"mosquito_risk":6,"arthritis_risk":5,"migraine_risk":7,"frizz_risk":1,"updated_at":"2026-07-21T05:27:34.500334+05:30"},{"city":"Kanpur","state":"Uttar Pradesh","latitude":26.4499,"longitude":80.3319,"temp":25.8,"humidity":99,"rain":0.0,"pressure":987.2,"uv_index":6.85,"wind_gusts":26.3,"aqi":72,"pm10":30.5,"pm2_5":24.9,"no2":20.1,"co":308.0,"o3":44.0,"so2":7.2,"mosquito_risk":7,"arthritis_risk":5,"migraine_risk":7,"frizz_risk":1,"updated_at":"2026-07-21T05:27:34.500341+05:30"},{"city":"Chandigarh","state":"Chandigarh","latitude":30.7333,"longitude":76.7794,"temp":24.8,"humidity":95,"rain":0.0,"pressure":964.7,"uv_index":3.05,"wind_gusts":30.6,"aqi":96,"pm10":13.3,"pm2_5":10.9,"no2":8.7,"co":273.0,"o3":90.0,"so2":3.4,"mosquito_risk":3,"arthritis_risk":5,"migraine_risk":3,"frizz_risk":1,"updated_at":"2026-07-21T05:27:34.500348+05:30"},{"city":"Srinagar","state":"Jammu and Kashmir","latitude":34.0837,"longitude":74.7973,"temp":19.7,"humidity":99,"rain":0.1,"pressure":838.8,"uv_index":8.25,"wind_gusts":18.4,"aqi":57,"pm10":8.6,"pm2_5":8.4,"no2":14.4,"co":205.0,"o3":32.0,"so2":0.6,"mosquito_risk":6,"arthritis_risk":10,"migraine_risk":7,"frizz_risk":1,"updated_at":"2026-07-21T05:27:34.500355+05:30"},{"city":"Jammu","state":"Jammu and Kashmir","latitude":32.7266,"longitude":74.857,"temp":24.8,"humidity":96,"rain":0.1,"pressure":968.2,"uv_index":4.85,"wind_gusts":34.6,"aqi":98,"pm10":56.9,"pm2_5":30.9,"no2":10.8,"co":235.0,"o3":78.0,"so2":2.1,"mosquito_risk":6,"arthritis_risk":5,"migraine_risk":3,"frizz_risk":1,"updated_at":"2026-07-21T05:27:34.500361+05:30"},{"city":"Amritsar","state":"Punjab","latitude":31.634,"longitude":74.8723,"temp":25.6,"humidity":95,"rain":0.1,"pressure":976.1,"uv_index":8.25,"wind_gusts":41.4,"aqi":158,"pm10":60.3,"pm2_5":34.2,"no2":17.2,"co":434.0,"o3":53.0,"so2":8.8,"mosquito_risk":10,"arthritis_risk":5,"migraine_risk":7,"frizz_risk":1,"updated_at":"2026-07-21T05:27:34.500368+05:30"},{"city":"Ludhiana","state":"Punjab","latitude":30.901,"longitude":75.8573,"temp":25.6,"humidity":99,"rain":0.2,"pressure":974.5,"uv_index":6.75,"wind_gusts":42.8,"aqi":122,"pm10":36.2,"pm2_5":27.0,"no2":15.6,"co":388.0,"o3":70.0,"so2":11.6,"mosquito_risk":10,"arthritis_risk":5,"migraine_risk":7,"frizz_risk":1,"updated_at":"2026-07-21T05:27:34.500374+05:30"},{"city":"Jalandhar","state":"Punjab","latitude":31.326,"longitude":75.5762,"temp":25.4,"humidity":98,"rain":0.0,"pressure":975.6,"uv_index":7.6,"wind_gusts":39.2,"aqi":149,"pm10":39.9,"pm2_5":26.3,"no2":17.2,"co":375.0,"o3":62.0,"so2":11.7,"mosquito_risk":7,"arthritis_risk":5,"migraine_risk":7,"frizz_risk":1,"updated_at":"2026-07-21T05:27:34.500381+05:30"},{"city":"Dehradun","state":"Uttarakhand","latitude":30.6284,"longitude":78.0322,"temp":17.1,"humidity":98,"rain":0.1,"pressure":827.7,"uv_index":0.75,"wind_gusts":22.7,"aqi":49,"pm10":2.0,"pm2_5":1.7,"no2":3.2,"co":205.0,"o3":112.0,"so2":1.0,"mosquito_risk":6,"arthritis_risk":10,"migraine_risk":3,"frizz_risk":1,"updated_at":"2026-07-21T05:27:34.500387+05:30"},{"city":"Shimla","state":"Himachal Pradesh","latitude":31.1048,"longitude":77.1734,"temp":14.8,"humidity":98,"rain":0.0,"pressure":782.1,"uv_index":0.7,"wind_gusts":20.2,"aqi":64,"pm10":9.7,"pm2_5":5.9,"no2":4.3,"co":213.0,"o3":103.0,"so2":1.4,"mosquito_risk":3,"arthritis_risk":10,"migraine_risk":3,"frizz_risk":0,"updated_at":"2026-07-21T05:27:34.500394+05:30"},{"city":"Manali","state":"Himachal Pradesh","latitude":32.2396,"longitude":77.1887,"temp":19.2,"humidity":88,"rain":0.0,"pressure":817.2,"uv_index":7.75,"wind_gusts":23.8,"aqi":29,"pm10":3.8,"pm2_5":3.8,"no2":10.4,"co":247.0,"o3":56.0,"so2":0.1,"mosquito_risk":3,"arthritis_risk":10,"migraine_risk":7,"frizz_risk":1,"updated_at":"2026-07-21T05:27:34.500404+05:30"},{"city":"Gurgaon","state":"Haryana","latitude":28.4595,"longitude":77.0266,"temp":25.0,"humidity":97,"rain":0.0,"pressure":976.3,"uv_index":5.85,"wind_gusts":39.6,"aqi":118,"pm10":37.3,"pm2_5":27.1,"no2":26.1,"co":273.0,"o3":53.0,"so2":16.3,"mosquito_risk":7,"arthritis_risk":5,"migraine_risk":3,"frizz_risk":1,"updated_at":"2026-07-21T05:27:34.500411+05:30"},{"city":"Noida","state":"Uttar Pradesh","latitude":28.5355,"longitude":77.391,"temp":25.7,"humidity":96,"rain":0.0,"pressure":979.2,"uv_index":6.15,"wind_gusts":39.2,"aqi":118,"pm10":37.3,"pm2_5":27.1,"no2":26.1,"co":261.0,"o3":53.0,"so2":16.3,"mosquito_risk":7,"arthritis_risk":5,"migraine_risk":7,"frizz_risk":1,"updated_at":"2026-07-21T05:27:34.500417+05:30"},{"city":"Ghaziabad","state":"Uttar Pradesh","latitude":28.6692,"longitude":77.4538,"temp":25.7,"humidity":95,"rain":0.0,"pressure":977.6,"uv_index":5.95,"wind_gusts":43.2,"aqi":105,"pm10":20.4,"pm2_5":20.1,"no2":16.7,"co":316.0,"o3":48.0,"so2":7.2,"mosquito_risk":7,"arthritis_risk":5,"migraine_risk":3,"frizz_risk":1,"updated_at":"2026-07-21T05:27:34.500423+05:30"},{"city":"Faridabad","state":"Haryana","latitude":28.4089,"longitude":77.3178,"temp":25.6,"humidity":95,"rain":0.1,"pressure":978.5,"uv_index":5.85,"wind_gusts":42.5,"aqi":118,"pm10":37.3,"pm2_5":27.1,"no2":26.1,"co":257.0,"o3":53.0,"so2":16.3,"mosquito_risk":10,"arthritis_risk":5,"migraine_risk":3,"frizz_risk":1,"updated_at":"2026-07-21T05:27:34.500428+05:30"},{"city":"Meerut","state":"Uttar Pradesh","latitude":28.9845,"longitude":77.7064,"temp":25.4,"humidity":95,"rain":0.0,"pressure":976.9,"uv_index":6.75,"wind_gusts":42.8,"aqi":105,"pm10":20.4,"pm2_5":20.1,"no2":16.7,"co":365.0,"o3":48.0,"so2":7.2,"mosquito_risk":7,"arthritis_risk":5,"migraine_risk":7,"frizz_risk":1,"updated_at":"2026-07-21T05:27:34.500434+05:30"},{"city":"Agra","state":"Uttar Pradesh","latitude":27.1767,"longitude":78.0081,"temp":25.2,"humidity":96,"rain":0.1,"pressure":982.3,"uv_index":6.65,"wind_gusts":22.0,"aqi":69,"pm10":25.4,"pm2_5":16.5,"no2":14.5,"co":176.0,"o3":54.0,"so2":4.0,"mosquito_risk":10,"arthritis_risk":5,"migraine_risk":7,"frizz_risk":1,"updated_at":"2026-07-21T05:27:34.500441+05:30"},{"city":"Varanasi","state":"Uttar Pradesh","latitude":25.3176,"longitude":82.9739,"temp":25.4,"humidity":98,"rain":0.0,"pressure":993.2,"uv_index":6.4,"wind_gusts":38.2,"aqi":76,"pm10":24.0,"pm2_5":23.9,"no2":15.9,"co":344.0,"o3":57.0,"so2":10.1,"mosquito_risk":7,"arthritis_risk":5,"migraine_risk":7,"frizz_risk":1,"updated_at":"2026-07-21T05:27:34.500448+05:30"},{"city":"Prayagraj","state":"Uttar Pradesh","latitude":25.4358,"longitude":81.8463,"temp":26.2,"humidity":93,"rain":0.0,"pressure":991.2,"uv_index":2.75,"wind_gusts":30.6,"aqi":77,"pm10":14.2,"pm2_5":14.1,"no2":10.7,"co":227.0,"o3":82.0,"so2":4.9,"mosquito_risk":7,"arthritis_risk":5,"migraine_risk":3,"frizz_risk":1,"updated_at":"2026-07-21T05:27:34.500454+05:30"},{"city":"Gorakhpur","state":"Uttar Pradesh","latitude":26.7606,"longitude":83.3732,"temp":24.9,"humidity":96,"rain":0.1,"pressure":994.2,"uv_index":5.25,"wind_gusts":43.2,"aqi":63,"pm10":18.7,"pm2_5":18.5,"no2":12.3,"co":322.0,"o3":52.0,"so2":8.2,"mosquito_risk":6,"arthritis_risk":5,"migraine_risk":3,"frizz_risk":1,"updated_at":"2026-07-21T05:27:34.500460+05:30"},{"city":"Bareilly","state":"Uttar Pradesh","latitude":28.367,"longitude":79.4304,"temp":25.5,"humidity":94,"rain":0.0,"pressure":982.6,"uv_index":3.7,"wind_gusts":47.2,"aqi":67,"pm10":17.8,"pm2_5":17.5,"no2":12.0,"co":348.0,"o3":75.0,"so2":6.3,"mosquito_risk":7,"arthritis_risk":5,"migraine_risk":3,"frizz_risk":1,"updated_at":"2026-07-21T05:27:34.500468+05:30"},{"city":"Aligarh","state":"Uttar Pradesh","latitude":27.8974,"longitude":78.088,"temp":25.2,"humidity":96,"rain":0.8,"pressure":979.5,"uv_index":6.25,"wind_gusts":32.8,"aqi":94,"pm10":34.8,"pm2_5":22.1,"no2":18.3,"co":245.0,"o3":56.0,"so2":8.2,"mosquito_risk":10,"arthritis_risk":5,"migraine_risk":7,"frizz_risk":1,"updated_at":"2026-07-21T05:27:34.500474+05:30"},{"city":"Moradabad","state":"Uttar Pradesh","latitude":28.8386,"longitude":78.7733,"temp":25.5,"humidity":94,"rain":0.0,"pressure":979.4,"uv_index":5.6,"wind_gusts":48.6,"aqi":69,"pm10":19.7,"pm2_5":19.2,"no2":12.0,"co":369.0,"o3":75.0,"so2":8.4,"mosquito_risk":7,"arthritis_risk":5,"migraine_risk":3,"frizz_risk":1,"updated_at":"2026-07-21T05:27:34.500481+05:30"},{"city":"Saharanpur","state":"Uttar Pradesh","latitude":29.9637,"longitude":77.546,"temp":25.3,"humidity":96,"rain":0.1,"pressure":971.8,"uv_index":6.65,"wind_gusts":44.6,"aqi":79,"pm10":33.6,"pm2_5":32.5,"no2":22.4,"co":343.0,"o3":45.0,"so2":8.2,"mosquito_risk":10,"arthritis_risk":5,"migraine_risk":7,"frizz_risk":1,"updated_at":"2026-07-21T05:27:34.500487+05:30"},{"city":"Jhansi","state":"Uttar Pradesh","latitude":25.4484,"longitude":78.5685,"temp":25.6,"humidity":94,"rain":0.0,"pressure":973.0,"uv_index":4.5,"wind_gusts":27.7,"aqi":64,"pm10":23.6,"pm2_5":17.8,"no2":19.7,"co":213.0,"o3":36.0,"so2":5.0,"mosquito_risk":7,"arthritis_risk":5,"migraine_risk":3,"frizz_risk":1,"updated_at":"2026-07-21T05:27:37.742652+05:30"},{"city":"Surat","state":"Gujarat","latitude":21.1702,"longitude":72.8311,"temp":25.6,"humidity":96,"rain":0.1,"pressure":1002.3,"uv_index":6.2,"wind_gusts":51.8,"aqi":65,"pm10":24.3,"pm2_5":16.9,"no2":21.3,"co":304.0,"o3":28.0,"so2":31.4,"mosquito_risk":10,"arthritis_risk":5,"migraine_risk":4,"frizz_risk":1,"updated_at":"2026-07-21T05:27:37.742684+05:30"},{"city":"Vadodara","state":"Gujarat","latitude":22.3072,"longitude":73.1812,"temp":25.4,"humidity":94,"rain":0.1,"pressure":999.5,"uv_index":6.35,"wind_gusts":40.3,"aqi":58,"pm10":18.3,"pm2_5":12.4,"no2":10.0,"co":146.0,"o3":32.0,"so2":5.9,"mosquito_risk":10,"arthritis_risk":5,"migraine_risk":7,"frizz_risk":1,"updated_at":"2026-07-21T05:27:37.742696+05:30"},{"city":"Rajkot","state":"Gujarat","latitude":22.3039,"longitude":70.8022,"temp":25.7,"humidity":91,"rain":0.0,"pressure":988.6,"uv_index":6.65,"wind_gusts":42.8,"aqi":61,"pm10":20.1,"pm2_5":10.4,"no2":5.0,"co":99.0,"o3":39.0,"so2":4.1,"mosquito_risk":7,"arthritis_risk":5,"migraine_risk":7,"frizz_risk":1,"updated_at":"2026-07-21T05:27:37.742742+05:30"},{"city":"Thane","state":"Maharashtra","latitude":19.2183,"longitude":72.9781,"temp":24.8,"humidity":97,"rain":0.1,"pressure":1005.2,"uv_index":7.05,"wind_gusts":44.3,"aqi":59,"pm10":36.9,"pm2_5":16.1,"no2":4.2,"co":138.0,"o3":48.0,"so2":4.2,"mosquito_risk":6,"arthritis_risk":5,"migraine_risk":4,"frizz_risk":1,"updated_at":"2026-07-21T05:27:37.742752+05:30"},{"city":"Nagpur","state":"Maharashtra","latitude":21.1458,"longitude":79.0882,"temp":24.2,"humidity":98,"rain":0.2,"pressure":969.3,"uv_index":1.85,"wind_gusts":37.4,"aqi":61,"pm10":7.1,"pm2_5":5.7,"no2":10.7,"co":163.0,"o3":43.0,"so2":8.7,"mosquito_risk":6,"arthritis_risk":5,"migraine_risk":3,"frizz_risk":1,"updated_at":"2026-07-21T05:27:37.742761+05:30"},{"city":"Nashik","state":"Maharashtra","latitude":19.9975,"longitude":73.7898,"temp":22.2,"humidity":96,"rain":0.0,"pressure":941.7,"uv_index":4.65,"wind_gusts":52.9,"aqi":21,"pm10":5.5,"pm2_5":3.5,"no2":7.0,"co":115.0,"o3":36.0,"so2":6.2,"mosquito_risk":3,"arthritis_risk":5,"migraine_risk":3,"frizz_risk":1,"updated_at":"2026-07-21T05:27:37.742769+05:30"},{"city":"Aurangabad","state":"Maharashtra","latitude":19.8762,"longitude":75.3433,"temp":22.8,"humidity":94,"rain":0.0,"pressure":940.6,"uv_index":5.65,"wind_gusts":57.6,"aqi":28,"pm10":4.2,"pm2_5":2.9,"no2":7.0,"co":127.0,"o3":36.0,"so2":7.7,"mosquito_risk":3,"arthritis_risk":5,"migraine_risk":3,"frizz_risk":1,"updated_at":"2026-07-21T05:27:37.742777+05:30"},{"city":"Solapur","state":"Maharashtra","latitude":17.6599,"longitude":75.9064,"temp":23.7,"humidity":82,"rain":0.0,"pressure":955.4,"uv_index":6.25,"wind_gusts":53.6,"aqi":24,"pm10":7.9,"pm2_5":5.3,"no2":5.8,"co":122.0,"o3":32.0,"so2":2.4,"mosquito_risk":3,"arthritis_risk":5,"migraine_risk":7,"frizz_risk":1,"updated_at":"2026-07-21T05:27:37.742784+05:30"},{"city":"Kolhapur","state":"Maharashtra","latitude":16.705,"longitude":74.2433,"temp":22.3,"humidity":93,"rain":0.0,"pressure":946.4,"uv_index":8.05,"wind_gusts":57.6,"aqi":26,"pm10":6.0,"pm2_5":3.9,"no2":2.9,"co":95.0,"o3":37.0,"so2":1.9,"mosquito_risk":3,"arthritis_risk":5,"migraine_risk":7,"frizz_risk":1,"updated_at":"2026-07-21T05:27:37.742791+05:30"},{"city":"Goa","state":"Goa","latitude":15.2993,"longitude":74.124,"temp":23.5,"humidity":98,"rain":0.1,"pressure":998.2,"uv_index":7.45,"wind_gusts":35.3,"aqi":58,"pm10":22.5,"pm2_5":13.0,"no2":2.9,"co":261.0,"o3":38.0,"so2":0.9,"mosquito_risk":6,"arthritis_risk":5,"migraine_risk":7,"frizz_risk":1,"updated_at":"2026-07-21T05:27:37.742797+05:30"},{"city":"Jodhpur","state":"Rajasthan","latitude":26.2389,"longitude":73.0243,"temp":29.3,"humidity":68,"rain":0.0,"pressure":977.3,"uv_index":7.9,"wind_gusts":34.9,"aqi":80,"pm10":83.6,"pm2_5":20.7,"no2":6.0,"co":132.0,"o3":53.0,"so2":2.8,"mosquito_risk":7,"arthritis_risk":5,"migraine_risk":7,"frizz_risk":1,"updated_at":"2026-07-21T05:27:37.742804+05:30"},{"city":"Udaipur","state":"Rajasthan","latitude":24.5854,"longitude":73.7125,"temp":24.0,"humidity":94,"rain":0.1,"pressure":941.0,"uv_index":7.45,"wind_gusts":31.3,"aqi":60,"pm10":11.8,"pm2_5":7.1,"no2":8.2,"co":136.0,"o3":49.0,"so2":6.8,"mosquito_risk":6,"arthritis_risk":5,"migraine_risk":7,"frizz_risk":1,"updated_at":"2026-07-21T05:27:37.742810+05:30"},{"city":"Kota","state":"Rajasthan","latitude":25.2138,"longitude":75.8648,"temp":26.8,"humidity":90,"rain":0.0,"pressure":973.3,"uv_index":1.2,"wind_gusts":27.7,"aqi":68,"pm10":22.4,"pm2_5":18.8,"no2":16.5,"co":186.0,"o3":39.0,"so2":7.3,"mosquito_risk":7,"arthritis_risk":5,"migraine_risk":3,"frizz_risk":1,"updated_at":"2026-07-21T05:27:37.742817+05:30"},{"city":"Bikaner","state":"Rajasthan","latitude":28.0229,"longitude":73.3119,"temp":31.6,"humidity":57,"rain":0.0,"pressure":975.8,"uv_index":8.4,"wind_gusts":32.4,"aqi":88,"pm10":80.1,"pm2_5":25.4,"no2":3.1,"co":110.0,"o3":47.0,"so2":3.3,"mosquito_risk":0,"arthritis_risk":5,"migraine_risk":7,"frizz_risk":1,"updated_at":"2026-07-21T05:27:37.742827+05:30"},{"city":"Ajmer","state":"Rajasthan","latitude":26.4499,"longitude":74.6399,"temp":27.1,"humidity":77,"rain":0.0,"pressure":949.4,"uv_index":5.15,"wind_gusts":37.8,"aqi":59,"pm10":15.3,"pm2_5":13.2,"no2":14.5,"co":138.0,"o3":40.0,"so2":5.8,"mosquito_risk":7,"arthritis_risk":5,"migraine_risk":3,"frizz_risk":1,"updated_at":"2026-07-21T05:27:37.742834+05:30"},{"city":"Gwalior","state":"Madhya Pradesh","latitude":26.2183,"longitude":78.1828,"temp":24.6,"humidity":91,"rain":0.0,"pressure":978.0,"uv_index":5.15,"wind_gusts":20.2,"aqi":64,"pm10":15.4,"pm2_5":10.9,"no2":13.9,"co":164.0,"o3":45.0,"so2":2.2,"mosquito_risk":3,"arthritis_risk":5,"migraine_risk":3,"frizz_risk":1,"updated_at":"2026-07-21T05:27:37.742840+05:30"},{"city":"Indore","state":"Madhya Pradesh","latitude":22.7196,"longitude":75.8577,"temp":23.8,"humidity":94,"rain":0.0,"pressure":943.2,"uv_index":4.6,"wind_gusts":37.8,"aqi":53,"pm10":8.3,"pm2_5":7.1,"no2":9.8,"co":169.0,"o3":35.0,"so2":9.0,"mosquito_risk":3,"arthritis_risk":5,"migraine_risk":3,"frizz_risk":1,"updated_at":"2026-07-21T05:27:37.742847+05:30"},{"city":"Bhopal","state":"Madhya Pradesh","latitude":23.2599,"longitude":77.4126,"temp":23.6,"humidity":98,"rain":0.4,"pressure":948.6,"uv_index":3.25,"wind_gusts":28.4,"aqi":63,"pm10":9.3,"pm2_5":8.5,"no2":7.9,"co":217.0,"o3":47.0,"so2":2.3,"mosquito_risk":6,"arthritis_risk":5,"migraine_risk":3,"frizz_risk":1,"updated_at":"2026-07-21T05:27:37.742854+05:30"},{"city":"Jabalpur","state":"Madhya Pradesh","latitude":23.1815,"longitude":79.9864,"temp":23.8,"humidity":99,"rain":0.2,"pressure":956.8,"uv_index":1.65,"wind_gusts":22.0,"aqi":62,"pm10":10.5,"pm2_5":9.6,"no2":7.5,"co":200.0,"o3":60.0,"so2":2.2,"mosquito_risk":6,"arthritis_risk":5,"migraine_risk":3,"frizz_risk":1,"updated_at":"2026-07-21T05:27:37.742860+05:30"},{"city":"Ujjain","state":"Madhya Pradesh","latitude":23.1765,"longitude":75.7885,"temp":23.9,"humidity":96,"rain":0.1,"pressure":948.7,"uv_index":1.5,"wind_gusts":31.7,"aqi":53,"pm10":7.6,"pm2_5":6.5,"no2":8.7,"co":196.0,"o3":39.0,"so2":8.3,"mosquito_risk":6,"arthritis_risk":5,"migraine_risk":3,"frizz_risk":1,"updated_at":"2026-07-21T05:27:37.742866+05:30"},{"city":"Visakhapatnam","state":"Andhra Pradesh","latitude":17.6868,"longitude":83.2185,"temp":26.5,"humidity":89,"rain":0.0,"pressure":999.3,"uv_index":7.05,"wind_gusts":35.6,"aqi":79,"pm10":10.5,"pm2_5":9.5,"no2":19.1,"co":291.0,"o3":48.0,"so2":32.2,"mosquito_risk":7,"arthritis_risk":5,"migraine_risk":7,"frizz_risk":1,"updated_at":"2026-07-21T05:27:37.742873+05:30"},{"city":"Vijayawada","state":"Andhra Pradesh","latitude":16.5062,"longitude":80.648,"temp":26.2,"humidity":85,"rain":0.0,"pressure":1000.3,"uv_index":3.95,"wind_gusts":47.5,"aqi":58,"pm10":13.8,"pm2_5":11.8,"no2":12.3,"co":162.0,"o3":33.0,"so2":4.8,"mosquito_risk":7,"arthritis_risk":5,"migraine_risk":0,"frizz_risk":1,"updated_at":"2026-07-21T05:27:37.742879+05:30"},{"city":"Guntur","state":"Andhra Pradesh","latitude":16.3067,"longitude":80.4365,"temp":26.3,"humidity":84,"rain":0.0,"pressure":1001.6,"uv_index":6.9,"wind_gusts":47.2,"aqi":54,"pm10":10.2,"pm2_5":8.0,"no2":11.2,"co":164.0,"o3":33.0,"so2":5.9,"mosquito_risk":7,"arthritis_risk":5,"migraine_risk":4,"frizz_risk":1,"updated_at":"2026-07-21T05:27:37.742885+05:30"},{"city":"Nellore","state":"Andhra Pradesh","latitude":14.4426,"longitude":79.9865,"temp":27.5,"humidity":74,"rain":0.0,"pressure":1004.6,"uv_index":5.85,"wind_gusts":41.0,"aqi":59,"pm10":9.7,"pm2_5":5.4,"no2":6.9,"co":136.0,"o3":34.0,"so2":4.7,"mosquito_risk":7,"arthritis_risk":5,"migraine_risk":0,"frizz_risk":1,"updated_at":"2026-07-21T05:27:37.742893+05:30"},{"city":"Kurnool","state":"Andhra Pradesh","latitude":15.8281,"longitude":78.0373,"temp":24.9,"humidity":79,"rain":0.0,"pressure":976.1,"uv_index":8.05,"wind_gusts":50.8,"aqi":38,"pm10":12.4,"pm2_5":7.5,"no2":8.3,"co":123.0,"o3":32.0,"so2":3.0,"mosquito_risk":3,"arthritis_risk":5,"migraine_risk":7,"frizz_risk":1,"updated_at":"2026-07-21T05:27:37.742900+05:30"},{"city":"Kakinada","state":"Andhra Pradesh","latitude":16.9891,"longitude":82.2475,"temp":26.4,"humidity":82,"rain":0.0,"pressure":1004.2,"uv_index":8.05,"wind_gusts":54.4,"aqi":65,"pm10":12.0,"pm2_5":9.4,"no2":7.5,"co":164.0,"o3":56.0,"so2":4.1,"mosquito_risk":7,"arthritis_risk":5,"migraine_risk":4,"frizz_risk":1,"updated_at":"2026-07-21T05:27:37.742906+05:30"},{"city":"Tirupati","state":"Andhra Pradesh","latitude":13.6288,"longitude":79.4192,"temp":26.1,"humidity":72,"rain":0.0,"pressure":990.3,"uv_index":8.4,"wind_gusts":33.5,"aqi":61,"pm10":9.1,"pm2_5":6.5,"no2":10.5,"co":155.0,"o3":22.0,"so2":1.8,"mosquito_risk":7,"arthritis_risk":5,"migraine_risk":7,"frizz_risk":1,"updated_at":"2026-07-21T05:27:37.742912+05:30"},{"city":"Warangal","state":"Telangana","latitude":17.9689,"longitude":79.5941,"temp":24.6,"humidity":92,"rain":0.1,"pressure":975.9,"uv_index":4.1,"wind_gusts":35.3,"aqi":39,"pm10":5.7,"pm2_5":4.4,"no2":5.9,"co":137.0,"o3":39.0,"so2":1.7,"mosquito_risk":6,"arthritis_risk":5,"migraine_risk":3,"frizz_risk":1,"updated_at":"2026-07-21T05:27:37.742918+05:30"},{"city":"Nizamabad","state":"Telangana","latitude":18.6725,"longitude":78.0941,"temp":23.7,"humidity":94,"rain":0.0,"pressure":962.1,"uv_index":4.3,"wind_gusts":46.8,"aqi":36,"pm10":6.1,"pm2_5":4.2,"no2":6.8,"co":141.0,"o3":34.0,"so2":4.1,"mosquito_risk":3,"arthritis_risk":5,"migraine_risk":3,"frizz_risk":1,"updated_at":"2026-07-21T05:27:37.742924+05:30"},{"city":"Mysore","state":"Karnataka","latitude":12.2958,"longitude":76.6396,"temp":20.7,"humidity":94,"rain":0.0,"pressure":928.6,"uv_index":8.3,"wind_gusts":43.6,"aqi":24,"pm10":5.8,"pm2_5":3.9,"no2":5.3,"co":106.0,"o3":30.0,"so2":2.0,"mosquito_risk":3,"arthritis_risk":5,"migraine_risk":7,"frizz_risk":1,"updated_at":"2026-07-21T05:27:37.742931+05:30"},{"city":"Mangalore","state":"Karnataka","latitude":12.9141,"longitude":74.856,"temp":23.3,"humidity":98,"rain":0.0,"pressure":1007.8,"uv_index":8.0,"wind_gusts":35.3,"aqi":52,"pm10":14.7,"pm2_5":9.9,"no2":9.2,"co":136.0,"o3":22.0,"so2":3.5,"mosquito_risk":3,"arthritis_risk":5,"migraine_risk":4,"frizz_risk":1,"updated_at":"2026-07-21T05:27:37.742937+05:30"},{"city":"Hubli-Dharwad","state":"Karnataka","latitude":15.3647,"longitude":75.124,"temp":21.6,"humidity":97,"rain":0.0,"pressure":940.0,"uv_index":5.85,"wind_gusts":55.4,"aqi":17,"pm10":3.3,"pm2_5":1.8,"no2":2.0,"co":96.0,"o3":39.0,"so2":1.0,"mosquito_risk":3,"arthritis_risk":5,"migraine_risk":3,"frizz_risk":1,"updated_at":"2026-07-21T05:27:37.742943+05:30"},{"city":"Belgaum","state":"Karnataka","latitude":15.8497,"longitude":74.4977,"temp":20.4,"humidity":97,"rain":0.0,"pressure":924.3,"uv_index":8.8,"wind_gusts":53.3,"aqi":19,"pm10":5.4,"pm2_5":3.5,"no2":3.6,"co":118.0,"o3":36.0,"so2":2.2,"mosquito_risk":3,"arthritis_risk":5,"migraine_risk":7,"frizz_risk":1,"updated_at":"2026-07-21T05:27:40.987977+05:30"},{"city":"Coimbatore","state":"Tamil Nadu","latitude":11.0168,"longitude":76.9558,"temp":22.7,"humidity":95,"rain":0.0,"pressure":962.0,"uv_index":8.45,"wind_gusts":47.9,"aqi":32,"pm10":8.0,"pm2_5":6.3,"no2":8.7,"co":163.0,"o3":19.0,"so2":3.1,"mosquito_risk":3,"arthritis_risk":5,"migraine_risk":7,"frizz_risk":1,"updated_at":"2026-07-21T05:27:40.988006+05:30"},{"city":"Madurai","state":"Tamil Nadu","latitude":9.9252,"longitude":78.1198,"temp":27.2,"humidity":63,"rain":0.0,"pressure":993.3,"uv_index":8.6,"wind_gusts":31.7,"aqi":58,"pm10":19.1,"pm2_5":14.6,"no2":22.1,"co":154.0,"o3":12.0,"so2":7.0,"mosquito_risk":7,"arthritis_risk":5,"migraine_risk":7,"frizz_risk":1,"updated_at":"2026-07-21T05:27:40.988016+05:30"},{"city":"Trichy","state":"Tamil Nadu","latitude":10.7905,"longitude":78.7047,"temp":27.1,"humidity":70,"rain":0.0,"pressure":1000.0,"uv_index":8.55,"wind_gusts":45.7,"aqi":40,"pm10":8.8,"pm2_5":6.0,"no2":6.2,"co":118.0,"o3":30.0,"so2":3.2,"mosquito_risk":7,"arthritis_risk":5,"migraine_risk":4,"frizz_risk":1,"updated_at":"2026-07-21T05:27:40.988024+05:30"},{"city":"Salem","state":"Tamil Nadu","latitude":11.6643,"longitude":78.146,"temp":23.9,"humidity":90,"rain":0.0,"pressure":977.8,"uv_index":8.15,"wind_gusts":30.2,"aqi":58,"pm10":17.8,"pm2_5":14.3,"no2":20.9,"co":413.0,"o3":15.0,"so2":7.4,"mosquito_risk":3,"arthritis_risk":5,"migraine_risk":7,"frizz_risk":1,"updated_at":"2026-07-21T05:27:40.988031+05:30"},{"city":"Tirunelveli","state":"Tamil Nadu","latitude":8.7139,"longitude":77.7567,"temp":27.6,"humidity":69,"rain":0.0,"pressure":1004.2,"uv_index":8.2,"wind_gusts":40.3,"aqi":35,"pm10":9.1,"pm2_5":6.0,"no2":7.3,"co":149.0,"o3":25.0,"so2":2.6,"mosquito_risk":7,"arthritis_risk":5,"migraine_risk":4,"frizz_risk":1,"updated_at":"2026-07-21T05:27:40.988039+05:30"},{"city":"Vellore","state":"Tamil Nadu","latitude":12.9165,"longitude":79.1325,"temp":26.0,"humidity":69,"rain":0.0,"pressure":984.2,"uv_index":8.1,"wind_gusts":38.2,"aqi":60,"pm10":15.7,"pm2_5":13.0,"no2":21.3,"co":162.0,"o3":13.0,"so2":5.0,"mosquito_risk":7,"arthritis_risk":5,"migraine_risk":7,"frizz_risk":1,"updated_at":"2026-07-21T05:27:40.988045+05:30"},{"city":"Erode","state":"Tamil Nadu","latitude":11.341,"longitude":77.7172,"temp":25.1,"humidity":82,"rain":0.0,"pressure":989.7,"uv_index":8.35,"wind_gusts":37.4,"aqi":49,"pm10":13.1,"pm2_5":11.0,"no2":15.0,"co":128.0,"o3":20.0,"so2":4.3,"mosquito_risk":7,"arthritis_risk":5,"migraine_risk":7,"frizz_risk":1,"updated_at":"2026-07-21T05:27:40.988052+05:30"},{"city":"Kochi","state":"Kerala","latitude":9.9312,"longitude":76.2673,"temp":25.6,"humidity":92,"rain":0.0,"pressure":1010.3,"uv_index":8.55,"wind_gusts":28.8,"aqi":53,"pm10":13.9,"pm2_5":12.0,"no2":14.3,"co":158.0,"o3":10.0,"so2":4.7,"mosquito_risk":7,"arthritis_risk":0,"migraine_risk":4,"frizz_risk":1,"updated_at":"2026-07-21T05:27:40.988059+05:30"},{"city":"Thiruvananthapuram","state":"Kerala","latitude":8.5241,"longitude":76.9366,"temp":24.8,"humidity":94,"rain":0.0,"pressure":1009.8,"uv_index":7.65,"wind_gusts":38.5,"aqi":47,"pm10":15.7,"pm2_5":10.9,"no2":7.9,"co":152.0,"o3":31.0,"so2":3.9,"mosquito_risk":3,"arthritis_risk":0,"migraine_risk":4,"frizz_risk":1,"updated_at":"2026-07-21T05:27:40.988066+05:30"},{"city":"Kozhikode","state":"Kerala","latitude":11.2588,"longitude":75.7804,"temp":23.8,"humidity":97,"rain":0.0,"pressure":1009.5,"uv_index":8.0,"wind_gusts":33.8,"aqi":34,"pm10":11.5,"pm2_5":6.6,"no2":3.1,"co":219.0,"o3":40.0,"so2":2.3,"mosquito_risk":3,"arthritis_risk":0,"migraine_risk":4,"frizz_risk":1,"updated_at":"2026-07-21T05:27:40.988072+05:30"},{"city":"Thrissur","state":"Kerala","latitude":10.5276,"longitude":76.2144,"temp":23.9,"humidity":98,"rain":0.0,"pressure":1008.7,"uv_index":8.3,"wind_gusts":33.1,"aqi":50,"pm10":13.6,"pm2_5":11.7,"no2":11.7,"co":240.0,"o3":11.0,"so2":3.8,"mosquito_risk":3,"arthritis_risk":0,"migraine_risk":4,"frizz_risk":1,"updated_at":"2026-07-21T05:27:40.988079+05:30"},{"city":"Kannur","state":"Kerala","latitude":11.8745,"longitude":75.3704,"temp":24.0,"humidity":97,"rain":0.0,"pressure":1008.7,"uv_index":7.95,"wind_gusts":31.3,"aqi":41,"pm10":11.9,"pm2_5":7.9,"no2":9.9,"co":201.0,"o3":18.0,"so2":2.6,"mosquito_risk":3,"arthritis_risk":0,"migraine_risk":4,"frizz_risk":1,"updated_at":"2026-07-21T05:27:40.988086+05:30"},{"city":"Patna","state":"Bihar","latitude":25.5941,"longitude":85.1376,"temp":25.8,"humidity":95,"rain":0.0,"pressure":997.3,"uv_index":8.7,"wind_gusts":39.2,"aqi":74,"pm10":27.2,"pm2_5":26.6,"no2":18.9,"co":306.0,"o3":43.0,"so2":15.7,"mosquito_risk":7,"arthritis_risk":5,"migraine_risk":7,"frizz_risk":1,"updated_at":"2026-07-21T05:27:40.988093+05:30"},{"city":"Gaya","state":"Bihar","latitude":24.7914,"longitude":85.0002,"temp":25.6,"humidity":98,"rain":0.1,"pressure":990.0,"uv_index":8.05,"wind_gusts":34.6,"aqi":69,"pm10":35.2,"pm2_5":34.0,"no2":16.1,"co":564.0,"o3":48.0,"so2":16.5,"mosquito_risk":10,"arthritis_risk":5,"migraine_risk":7,"frizz_risk":1,"updated_at":"2026-07-21T05:27:40.988100+05:30"},{"city":"Muzaffarpur","state":"Bihar","latitude":26.1209,"longitude":85.3647,"temp":25.5,"humidity":93,"rain":0.0,"pressure":997.9,"uv_index":8.3,"wind_gusts":42.8,"aqi":65,"pm10":25.6,"pm2_5":25.1,"no2":17.8,"co":257.0,"o3":39.0,"so2":13.0,"mosquito_risk":7,"arthritis_risk":5,"migraine_risk":7,"frizz_risk":1,"updated_at":"2026-07-21T05:27:40.988106+05:30"},{"city":"Bhagalpur","state":"Bihar","latitude":25.2425,"longitude":87.0117,"temp":25.9,"humidity":95,"rain":0.0,"pressure":998.7,"uv_index":5.75,"wind_gusts":38.2,"aqi":63,"pm10":17.1,"pm2_5":16.8,"no2":17.6,"co":296.0,"o3":32.0,"so2":7.9,"mosquito_risk":7,"arthritis_risk":5,"migraine_risk":3,"frizz_risk":1,"updated_at":"2026-07-21T05:27:40.988113+05:30"},{"city":"Ranchi","state":"Jharkhand","latitude":23.3441,"longitude":85.3096,"temp":23.1,"humidity":99,"rain":0.1,"pressure":933.4,"uv_index":3.15,"wind_gusts":28.4,"aqi":72,"pm10":15.8,"pm2_5":15.2,"no2":10.4,"co":415.0,"o3":72.0,"so2":19.7,"mosquito_risk":6,"arthritis_risk":5,"migraine_risk":3,"frizz_risk":1,"updated_at":"2026-07-21T05:27:40.988119+05:30"},{"city":"Jamshedpur","state":"Jharkhand","latitude":22.8046,"longitude":86.2029,"temp":25.1,"humidity":97,"rain":0.2,"pressure":986.4,"uv_index":2.8,"wind_gusts":22.0,"aqi":90,"pm10":20.0,"pm2_5":18.2,"no2":12.0,"co":383.0,"o3":52.0,"so2":12.0,"mosquito_risk":10,"arthritis_risk":5,"migraine_risk":3,"frizz_risk":1,"updated_at":"2026-07-21T05:27:40.988125+05:30"},{"city":"Dhanbad","state":"Jharkhand","latitude":23.7957,"longitude":86.4304,"temp":25.1,"humidity":95,"rain":0.1,"pressure":976.1,"uv_index":6.6,"wind_gusts":35.6,"aqi":139,"pm10":33.9,"pm2_5":32.9,"no2":35.6,"co":287.0,"o3":28.0,"so2":83.0,"mosquito_risk":10,"arthritis_risk":5,"migraine_risk":7,"frizz_risk":1,"updated_at":"2026-07-21T05:27:40.988131+05:30"},{"city":"Bokaro","state":"Jharkhand","latitude":23.6693,"longitude":86.1511,"temp":25.1,"humidity":97,"rain":0.0,"pressure":979.8,"uv_index":6.4,"wind_gusts":33.1,"aqi":141,"pm10":43.3,"pm2_5":42.0,"no2":39.1,"co":1476.0,"o3":26.0,"so2":94.1,"mosquito_risk":7,"arthritis_risk":5,"migraine_risk":7,"frizz_risk":1,"updated_at":"2026-07-21T05:27:40.988138+05:30"},{"city":"Bhubaneswar","state":"Odisha","latitude":20.2961,"longitude":85.8245,"temp":26.1,"humidity":95,"rain":0.1,"pressure":997.7,"uv_index":5.8,"wind_gusts":27.7,"aqi":87,"pm10":35.4,"pm2_5":31.9,"no2":15.5,"co":367.0,"o3":54.0,"so2":6.5,"mosquito_risk":10,"arthritis_risk":5,"migraine_risk":3,"frizz_risk":1,"updated_at":"2026-07-21T05:27:40.988144+05:30"},{"city":"Cuttack","state":"Odisha","latitude":20.4625,"longitude":85.8828,"temp":26.6,"humidity":97,"rain":0.2,"pressure":999.4,"uv_index":6.8,"wind_gusts":30.2,"aqi":87,"pm10":35.4,"pm2_5":31.9,"no2":15.5,"co":290.0,"o3":54.0,"so2":6.5,"mosquito_risk":10,"arthritis_risk":5,"migraine_risk":7,"frizz_risk":1,"updated_at":"2026-07-21T05:27:40.988150+05:30"},{"city":"Rourkela","state":"Odisha","latitude":22.2604,"longitude":84.8536,"temp":25.3,"humidity":98,"rain":0.2,"pressure":980.4,"uv_index":1.05,"wind_gusts":21.6,"aqi":113,"pm10":33.4,"pm2_5":29.7,"no2":13.0,"co":255.0,"o3":79.0,"so2":18.4,"mosquito_risk":10,"arthritis_risk":5,"migraine_risk":3,"frizz_risk":1,"updated_at":"2026-07-21T05:27:40.988157+05:30"},{"city":"Raipur","state":"Chhattisgarh","latitude":21.2514,"longitude":81.6296,"temp":24.3,"humidity":98,"rain":0.2,"pressure":970.4,"uv_index":1.0,"wind_gusts":32.4,"aqi":93,"pm10":16.7,"pm2_5":15.9,"no2":24.9,"co":501.0,"o3":51.0,"so2":38.1,"mosquito_risk":6,"arthritis_risk":5,"migraine_risk":3,"frizz_risk":1,"updated_at":"2026-07-21T05:27:40.988163+05:30"},{"city":"Bhilai","state":"Chhattisgarh","latitude":21.1938,"longitude":81.3509,"temp":24.2,"humidity":98,"rain":0.2,"pressure":970.9,"uv_index":1.05,"wind_gusts":38.2,"aqi":85,"pm10":12.4,"pm2_5":11.9,"no2":19.4,"co":585.0,"o3":53.0,"so2":31.8,"mosquito_risk":6,"arthritis_risk":5,"migraine_risk":3,"frizz_risk":1,"updated_at":"2026-07-21T05:27:40.988170+05:30"},{"city":"Guwahati","state":"Assam","latitude":26.1158,"longitude":91.7086,"temp":24.8,"humidity":99,"rain":0.0,"pressure":1000.8,"uv_index":7.25,"wind_gusts":28.4,"aqi":39,"pm10":7.3,"pm2_5":7.0,"no2":8.0,"co":225.0,"o3":41.0,"so2":1.5,"mosquito_risk":3,"arthritis_risk":5,"migraine_risk":4,"frizz_risk":1,"updated_at":"2026-07-21T05:27:40.988176+05:30"},{"city":"Agartala","state":"Tripura","latitude":23.8315,"longitude":91.2868,"temp":24.9,"humidity":98,"rain":0.0,"pressure":1004.4,"uv_index":8.4,"wind_gusts":27.4,"aqi":52,"pm10":6.8,"pm2_5":6.4,"no2":10.0,"co":162.0,"o3":34.0,"so2":1.9,"mosquito_risk":3,"arthritis_risk":5,"migraine_risk":4,"frizz_risk":1,"updated_at":"2026-07-21T05:27:40.988183+05:30"},{"city":"Shillong","state":"Meghalaya","latitude":25.5788,"longitude":91.8933,"temp":19.1,"humidity":98,"rain":0.1,"pressure":856.7,"uv_index":6.15,"wind_gusts":19.8,"aqi":18,"pm10":1.0,"pm2_5":1.0,"no2":4.6,"co":192.0,"o3":40.0,"so2":1.8,"mosquito_risk":6,"arthritis_risk":10,"migraine_risk":7,"frizz_risk":1,"updated_at":"2026-07-21T05:27:40.988190+05:30"},{"city":"Imphal","state":"Manipur","latitude":24.817,"longitude":93.9368,"temp":22.1,"humidity":90,"rain":0.0,"pressure":922.6,"uv_index":7.8,"wind_gusts":24.1,"aqi":58,"pm10":7.8,"pm2_5":7.5,"no2":11.6,"co":287.0,"o3":30.0,"so2":2.3,"mosquito_risk":3,"arthritis_risk":5,"migraine_risk":7,"frizz_risk":1,"updated_at":"2026-07-21T05:27:40.988196+05:30"},{"city":"Aizawl","state":"Mizoram","latitude":23.7271,"longitude":92.7176,"temp":19.6,"humidity":99,"rain":0.1,"pressure":891.0,"uv_index":3.1,"wind_gusts":30.2,"aqi":27,"pm10":4.6,"pm2_5":4.2,"no2":7.3,"co":138.0,"o3":17.0,"so2":0.5,"mosquito_risk":6,"arthritis_risk":10,"migraine_risk":3,"frizz_risk":1,"updated_at":"2026-07-21T05:27:40.988203+05:30"},{"city":"Kohima","state":"Nagaland","latitude":25.6701,"longitude":94.1077,"temp":19.0,"humidity":95,"rain":0.0,"pressure":855.2,"uv_index":8.3,"wind_gusts":23.0,"aqi":22,"pm10":3.6,"pm2_5":3.5,"no2":6.2,"co":253.0,"o3":23.0,"so2":0.6,"mosquito_risk":3,"arthritis_risk":10,"migraine_risk":7,"frizz_risk":1,"updated_at":"2026-07-21T05:27:40.988209+05:30"},{"city":"Gangtok","state":"Sikkim","latitude":27.3314,"longitude":88.6138,"temp":17.4,"humidity":100,"rain":0.0,"pressure":837.1,"uv_index":8.75,"wind_gusts":25.2,"aqi":28,"pm10":5.0,"pm2_5":4.9,"no2":7.1,"co":272.0,"o3":59.0,"so2":1.1,"mosquito_risk":3,"arthritis_risk":10,"migraine_risk":7,"frizz_risk":1,"updated_at":"2026-07-21T05:27:40.988216+05:30"},{"city":"Siliguri","state":"West Bengal","latitude":26.7271,"longitude":88.3953,"temp":24.4,"humidity":98,"rain":0.0,"pressure":992.2,"uv_index":7.9,"wind_gusts":36.0,"aqi":45,"pm10":8.6,"pm2_5":8.5,"no2":9.0,"co":183.0,"o3":61.0,"so2":2.6,"mosquito_risk":3,"arthritis_risk":5,"migraine_risk":7,"frizz_risk":1,"updated_at":"2026-07-21T05:27:44.264336+05:30"},{"city":"Durgapur","state":"West Bengal","latitude":23.5204,"longitude":87.3119,"temp":25.5,"humidity":96,"rain":0.1,"pressure":991.4,"uv_index":7.3,"wind_gusts":31.7,"aqi":101,"pm10":25.0,"pm2_5":24.3,"no2":24.9,"co":325.0,"o3":34.0,"so2":26.2,"mosquito_risk":10,"arthritis_risk":5,"migraine_risk":7,"frizz_risk":1,"updated_at":"2026-07-21T05:27:44.264366+05:30"},{"city":"Asansol","state":"West Bengal","latitude":23.6739,"longitude":86.9524,"temp":25.2,"humidity":97,"rain":0.1,"pressure":990.1,"uv_index":7.05,"wind_gusts":36.7,"aqi":101,"pm10":24.0,"pm2_5":23.3,"no2":27.3,"co":363.0,"o3":34.0,"so2":32.7,"mosquito_risk":10,"arthritis_risk":5,"migraine_risk":7,"frizz_risk":1,"updated_at":"2026-07-21T05:27:44.264376+05:30"},{"city":"Pondicherry","state":"Puducherry","latitude":11.9139,"longitude":79.8145,"temp":27.6,"humidity":75,"rain":0.0,"pressure":1008.0,"uv_index":7.85,"wind_gusts":37.1,"aqi":80,"pm10":37.8,"pm2_5":29.7,"no2":25.0,"co":311.0,"o3":34.0,"so2":9.0,"mosquito_risk":7,"arthritis_risk":0,"migraine_risk":4,"frizz_risk":1,"updated_at":"2026-07-21T05:27:44.264384+05:30"},{"city":"Port Blair","state":"Andaman and Nicobar Islands","latitude":11.6234,"longitude":92.7265,"temp":26.8,"humidity":86,"rain":0.0,"pressure":1007.8,"uv_index":8.75,"wind_gusts":44.3,"aqi":60,"pm10":18.1,"pm2_5":9.5,"no2":0.2,"co":95.0,"o3":50.0,"so2":0.4,"mosquito_risk":7,"arthritis_risk":5,"migraine_risk":4,"frizz_risk":1,"updated_at":"2026-07-21T05:27:44.264391+05:30"},{"city":"Haridwar","state":"Uttarakhand","latitude":29.9457,"longitude":78.1642,"temp":25.2,"humidity":98,"rain":0.0,"pressure":970.3,"uv_index":6.55,"wind_gusts":31.0,"aqi":79,"pm10":40.6,"pm2_5":38.0,"no2":27.2,"co":328.0,"o3":45.0,"so2":8.2,"mosquito_risk":7,"arthritis_risk":5,"migraine_risk":7,"frizz_risk":1,"updated_at":"2026-07-21T05:27:44.264398+05:30"},{"city":"Rishikesh","state":"Uttarakhand","latitude":30.0869,"longitude":78.2676,"temp":24.6,"humidity":96,"rain":0.0,"pressure":963.0,"uv_index":5.15,"wind_gusts":25.6,"aqi":58,"pm10":14.5,"pm2_5":13.2,"no2":7.2,"co":290.0,"o3":91.0,"so2":3.8,"mosquito_risk":3,"arthritis_risk":5,"migraine_risk":3,"frizz_risk":1,"updated_at":"2026-07-21T05:27:44.264405+05:30"},{"city":"Nainital","state":"Uttarakhand","latitude":29.3919,"longitude":79.4542,"temp":15.9,"humidity":99,"rain":0.0,"pressure":803.3,"uv_index":6.8,"wind_gusts":42.5,"aqi":45,"pm10":6.5,"pm2_5":6.4,"no2":5.8,"co":259.0,"o3":85.0,"so2":1.9,"mosquito_risk":3,"arthritis_risk":10,"migraine_risk":7,"frizz_risk":0,"updated_at":"2026-07-21T05:27:44.264412+05:30"},{"city":"Mussoorie","state":"Uttarakhand","latitude":30.4599,"longitude":78.0664,"temp":16.0,"humidity":100,"rain":0.1,"pressure":800.5,"uv_index":1.05,"wind_gusts":27.0,"aqi":57,"pm10":11.3,"pm2_5":10.0,"no2":9.3,"co":222.0,"o3":99.0,"so2":5.7,"mosquito_risk":6,"arthritis_risk":10,"migraine_risk":3,"frizz_risk":0,"updated_at":"2026-07-21T05:27:44.264419+05:30"},{"city":"Dharamshala","state":"Himachal Pradesh","latitude":32.219,"longitude":76.3234,"temp":20.2,"humidity":100,"rain":0.1,"pressure":866.2,"uv_index":4.0,"wind_gusts":25.6,"aqi":36,"pm10":1.8,"pm2_5":1.3,"no2":6.1,"co":224.0,"o3":74.0,"so2":1.1,"mosquito_risk":6,"arthritis_risk":5,"migraine_risk":3,"frizz_risk":1,"updated_at":"2026-07-21T05:27:44.264426+05:30"},{"city":"Dalhousie","state":"Himachal Pradesh","latitude":32.5387,"longitude":75.971,"temp":17.3,"humidity":100,"rain":0.1,"pressure":802.4,"uv_index":1.65,"wind_gusts":30.2,"aqi":85,"pm10":21.4,"pm2_5":10.5,"no2":4.9,"co":304.0,"o3":100.0,"so2":2.8,"mosquito_risk":6,"arthritis_risk":10,"migraine_risk":3,"frizz_risk":1,"updated_at":"2026-07-21T05:27:44.264433+05:30"},{"city":"Patiala","state":"Punjab","latitude":30.3398,"longitude":76.3869,"temp":26.2,"humidity":94,"rain":0.0,"pressure":973.9,"uv_index":2.8,"wind_gusts":37.4,"aqi":101,"pm10":30.0,"pm2_5":25.8,"no2":14.3,"co":350.0,"o3":77.0,"so2":8.4,"mosquito_risk":7,"arthritis_risk":5,"migraine_risk":3,"frizz_risk":1,"updated_at":"2026-07-21T05:27:44.264440+05:30"},{"city":"Bhatinda","state":"Punjab","latitude":30.211,"longitude":74.9455,"temp":28.6,"humidity":83,"rain":0.0,"pressure":977.9,"uv_index":7.5,"wind_gusts":37.4,"aqi":345,"pm10":510.4,"pm2_5":119.7,"no2":16.4,"co":336.0,"o3":46.0,"so2":6.7,"mosquito_risk":7,"arthritis_risk":5,"migraine_risk":7,"frizz_risk":1,"updated_at":"2026-07-21T05:27:44.264447+05:30"},{"city":"Rohtak","state":"Haryana","latitude":28.8955,"longitude":76.6066,"temp":25.8,"humidity":93,"rain":0.0,"pressure":977.0,"uv_index":5.25,"wind_gusts":27.7,"aqi":138,"pm10":35.6,"pm2_5":30.4,"no2":37.4,"co":368.0,"o3":41.0,"so2":23.8,"mosquito_risk":7,"arthritis_risk":5,"migraine_risk":3,"frizz_risk":1,"updated_at":"2026-07-21T05:27:44.264453+05:30"},{"city":"Panipat","state":"Haryana","latitude":29.3909,"longitude":76.9635,"temp":25.9,"humidity":95,"rain":0.0,"pressure":975.8,"uv_index":4.65,"wind_gusts":36.4,"aqi":144,"pm10":35.4,"pm2_5":31.4,"no2":23.9,"co":327.0,"o3":49.0,"so2":11.7,"mosquito_risk":7,"arthritis_risk":5,"migraine_risk":3,"frizz_risk":1,"updated_at":"2026-07-21T05:27:44.264459+05:30"},{"city":"Mathura","state":"Uttar Pradesh","latitude":27.4924,"longitude":77.6737,"temp":26.0,"humidity":95,"rain":1.4,"pressure":981.0,"uv_index":7.0,"wind_gusts":27.4,"aqi":83,"pm10":24.9,"pm2_5":15.1,"no2":17.5,"co":232.0,"o3":47.0,"so2":3.3,"mosquito_risk":10,"arthritis_risk":5,"migraine_risk":7,"frizz_risk":1,"updated_at":"2026-07-21T05:27:44.264466+05:30"},{"city":"Vrindavan","state":"Uttar Pradesh","latitude":27.5823,"longitude":77.7027,"temp":25.9,"humidity":96,"rain":0.8,"pressure":981.4,"uv_index":6.9,"wind_gusts":28.1,"aqi":83,"pm10":24.9,"pm2_5":15.1,"no2":17.5,"co":206.0,"o3":47.0,"so2":3.3,"mosquito_risk":10,"arthritis_risk":5,"migraine_risk":7,"frizz_risk":1,"updated_at":"2026-07-21T05:27:44.264472+05:30"},{"city":"Ayodhya","state":"Uttar Pradesh","latitude":26.7922,"longitude":82.1998,"temp":25.1,"humidity":96,"rain":0.0,"pressure":991.7,"uv_index":5.3,"wind_gusts":43.9,"aqi":66,"pm10":19.3,"pm2_5":19.3,"no2":11.5,"co":356.0,"o3":67.0,"so2":6.6,"mosquito_risk":7,"arthritis_risk":5,"migraine_risk":3,"frizz_risk":1,"updated_at":"2026-07-21T05:27:44.264478+05:30"},{"city":"Ratlam","state":"Madhya Pradesh","latitude":23.3315,"longitude":75.0367,"temp":23.7,"humidity":98,"rain":0.0,"pressure":949.6,"uv_index":1.0,"wind_gusts":36.0,"aqi":51,"pm10":7.0,"pm2_5":5.5,"no2":8.7,"co":166.0,"o3":39.0,"so2":8.6,"mosquito_risk":3,"arthritis_risk":5,"migraine_risk":3,"frizz_risk":1,"updated_at":"2026-07-21T05:27:44.264485+05:30"},{"city":"Sagar","state":"Madhya Pradesh","latitude":23.8388,"longitude":78.7378,"temp":22.9,"humidity":97,"rain":0.4,"pressure":945.4,"uv_index":1.2,"wind_gusts":29.2,"aqi":54,"pm10":8.0,"pm2_5":7.3,"no2":7.7,"co":189.0,"o3":56.0,"so2":1.1,"mosquito_risk":6,"arthritis_risk":5,"migraine_risk":3,"frizz_risk":1,"updated_at":"2026-07-21T05:27:44.264491+05:30"},{"city":"Satna","state":"Madhya Pradesh","latitude":24.6005,"longitude":80.8322,"temp":24.7,"humidity":96,"rain":0.4,"pressure":966.4,"uv_index":3.85,"wind_gusts":24.5,"aqi":64,"pm10":11.4,"pm2_5":10.0,"no2":7.9,"co":213.0,"o3":68.0,"so2":2.4,"mosquito_risk":6,"arthritis_risk":5,"migraine_risk":3,"frizz_risk":1,"updated_at":"2026-07-21T05:27:44.264497+05:30"},{"city":"Akola","state":"Maharashtra","latitude":20.7002,"longitude":77.0082,"temp":24.9,"humidity":92,"rain":0.0,"pressure":971.5,"uv_index":2.65,"wind_gusts":49.3,"aqi":39,"pm10":6.1,"pm2_5":4.3,"no2":7.6,"co":134.0,"o3":37.0,"so2":5.9,"mosquito_risk":3,"arthritis_risk":5,"migraine_risk":3,"frizz_risk":1,"updated_at":"2026-07-21T05:27:44.264504+05:30"},{"city":"Amravati","state":"Maharashtra","latitude":20.9374,"longitude":77.7796,"temp":24.2,"humidity":96,"rain":0.1,"pressure":963.5,"uv_index":2.0,"wind_gusts":50.8,"aqi":42,"pm10":6.9,"pm2_5":5.0,"no2":8.2,"co":141.0,"o3":37.0,"so2":6.3,"mosquito_risk":6,"arthritis_risk":5,"migraine_risk":3,"frizz_risk":1,"updated_at":"2026-07-21T05:27:44.264511+05:30"},{"city":"Latur","state":"Maharashtra","latitude":18.4088,"longitude":76.5604,"temp":22.9,"humidity":92,"rain":0.0,"pressure":937.2,"uv_index":5.1,"wind_gusts":49.3,"aqi":29,"pm10":5.6,"pm2_5":4.1,"no2":5.3,"co":136.0,"o3":33.0,"so2":2.5,"mosquito_risk":3,"arthritis_risk":5,"migraine_risk":3,"frizz_risk":1,"updated_at":"2026-07-21T05:27:44.264517+05:30"},{"city":"Nanded","state":"Maharashtra","latitude":19.1383,"longitude":77.3091,"temp":24.3,"humidity":91,"rain":0.0,"pressure":965.6,"uv_index":2.9,"wind_gusts":45.4,"aqi":34,"pm10":6.2,"pm2_5":4.4,"no2":6.1,"co":133.0,"o3":34.0,"so2":2.9,"mosquito_risk":3,"arthritis_risk":5,"migraine_risk":3,"frizz_risk":1,"updated_at":"2026-07-21T05:27:44.264523+05:30"},{"city":"Gulbarga","state":"Karnataka","latitude":17.3297,"longitude":76.8343,"temp":23.4,"humidity":83,"rain":0.0,"pressure":957.0,"uv_index":4.95,"wind_gusts":52.9,"aqi":25,"pm10":7.7,"pm2_5":5.1,"no2":6.3,"co":126.0,"o3":32.0,"so2":3.0,"mosquito_risk":3,"arthritis_risk":5,"migraine_risk":3,"frizz_risk":1,"updated_at":"2026-07-21T05:27:44.264529+05:30"},{"city":"Bidar","state":"Karnataka","latitude":17.9104,"longitude":77.5199,"temp":22.5,"humidity":96,"rain":0.0,"pressure":932.9,"uv_index":5.75,"wind_gusts":50.4,"aqi":29,"pm10":4.5,"pm2_5":3.7,"no2":6.4,"co":122.0,"o3":31.0,"so2":2.2,"mosquito_risk":3,"arthritis_risk":5,"migraine_risk":3,"frizz_risk":1,"updated_at":"2026-07-21T05:27:44.264535+05:30"},{"city":"Hospet","state":"Karnataka","latitude":15.2689,"longitude":76.3909,"temp":23.1,"humidity":87,"rain":0.0,"pressure":955.4,"uv_index":7.8,"wind_gusts":52.9,"aqi":23,"pm10":4.8,"pm2_5":3.0,"no2":3.4,"co":99.0,"o3":37.0,"so2":1.6,"mosquito_risk":3,"arthritis_risk":5,"migraine_risk":7,"frizz_risk":1,"updated_at":"2026-07-21T05:27:44.264541+05:30"},{"city":"Tirupur","state":"Tamil Nadu","latitude":11.1085,"longitude":77.3411,"temp":23.5,"humidity":91,"rain":0.0,"pressure":975.8,"uv_index":8.7,"wind_gusts":54.4,"aqi":52,"pm10":16.6,"pm2_5":14.3,"no2":19.5,"co":137.0,"o3":13.0,"so2":5.5,"mosquito_risk":3,"arthritis_risk":5,"migraine_risk":7,"frizz_risk":1,"updated_at":"2026-07-21T05:27:44.264547+05:30"},{"city":"Alappuzha","state":"Kerala","latitude":9.4981,"longitude":76.3388,"temp":25.6,"humidity":91,"rain":0.0,"pressure":1010.5,"uv_index":8.1,"wind_gusts":31.0,"aqi":51,"pm10":13.0,"pm2_5":9.5,"no2":10.7,"co":87.0,"o3":25.0,"so2":4.7,"mosquito_risk":7,"arthritis_risk":0,"migraine_risk":4,"frizz_risk":1,"updated_at":"2026-07-21T05:27:44.264554+05:30"},{"city":"Munnar","state":"Kerala","latitude":10.0889,"longitude":77.0595,"temp":15.9,"humidity":94,"rain":0.0,"pressure":856.7,"uv_index":9.05,"wind_gusts":34.6,"aqi":27,"pm10":6.9,"pm2_5":5.0,"no2":6.9,"co":89.0,"o3":18.0,"so2":1.2,"mosquito_risk":3,"arthritis_risk":10,"migraine_risk":7,"frizz_risk":0,"updated_at":"2026-07-21T05:27:44.264561+05:30"},{"city":"Silchar","state":"Assam","latitude":24.8333,"longitude":92.7789,"temp":24.9,"humidity":96,"rain":0.0,"pressure":1003.9,"uv_index":7.8,"wind_gusts":28.1,"aqi":65,"pm10":15.7,"pm2_5":14.5,"no2":11.5,"co":280.0,"o3":47.0,"so2":5.7,"mosquito_risk":3,"arthritis_risk":5,"migraine_risk":4,"frizz_risk":1,"updated_at":"2026-07-21T05:27:44.264567+05:30"},{"city":"Dibrugarh","state":"Assam","latitude":27.4728,"longitude":94.912,"temp":25.1,"humidity":96,"rain":0.1,"pressure":994.5,"uv_index":8.6,"wind_gusts":23.0,"aqi":68,"pm10":46.3,"pm2_5":45.4,"no2":31.5,"co":171.0,"o3":16.0,"so2":2.8,"mosquito_risk":10,"arthritis_risk":5,"migraine_risk":7,"frizz_risk":1,"updated_at":"2026-07-21T05:27:44.264574+05:30"}]