[{"city":"Delhi","state":"Delhi","latitude":28.6139,"longitude":77.209,"temp":26.1,"humidity":45,"rain":0.0,"pressure":982.7,"uv_index":7.3,"wind_gusts":27.4,"aqi":154,"pm10":125.3,"pm2_5":53.6,"mosquito_risk":4,"arthritis_risk":5,"migraine_risk":7,"frizz_risk":0,"updated_at":"2026-04-15T08:17:52.925604+05:30"},{"city":"Mumbai","state":"Maharashtra","latitude":19.076,"longitude":72.8777,"temp":28.9,"humidity":80,"rain":0.0,"pressure":1008.3,"uv_index":8.0,"wind_gusts":20.2,"aqi":108,"pm10":65.0,"pm2_5":28.6,"mosquito_risk":7,"arthritis_risk":0,"migraine_risk":4,"frizz_risk":1,"updated_at":"2026-04-15T08:17:52.925637+05:30"},{"city":"Bangalore","state":"Karnataka","latitude":12.9716,"longitude":77.5946,"temp":25.4,"humidity":79,"rain":0.0,"pressure":912.9,"uv_index":9.65,"wind_gusts":27.7,"aqi":69,"pm10":29.7,"pm2_5":26.4,"mosquito_risk":7,"arthritis_risk":5,"migraine_risk":7,"frizz_risk":1,"updated_at":"2026-04-15T08:17:52.925651+05:30"},{"city":"Hyderabad","state":"Telangana","latitude":17.385,"longitude":78.4867,"temp":31.4,"humidity":48,"rain":0.0,"pressure":953.6,"uv_index":9.25,"wind_gusts":33.1,"aqi":91,"pm10":20.9,"pm2_5":19.1,"mosquito_risk":0,"arthritis_risk":5,"migraine_risk":7,"frizz_risk":1,"updated_at":"2026-04-15T08:17:52.925660+05:30"},{"city":"Chennai","state":"Tamil Nadu","latitude":13.0827,"longitude":80.2707,"temp":30.5,"humidity":73,"rain":0.0,"pressure":1007.8,"uv_index":9.35,"wind_gusts":33.5,"aqi":32,"pm10":9.5,"pm2_5":7.1,"mosquito_risk":3,"arthritis_risk":5,"migraine_risk":4,"frizz_risk":1,"updated_at":"2026-04-15T08:17:52.925667+05:30"},{"city":"Kolkata","state":"West Bengal","latitude":22.5726,"longitude":88.3639,"temp":29.5,"humidity":81,"rain":0.0,"pressure":1006.0,"uv_index":8.85,"wind_gusts":28.8,"aqi":95,"pm10":35.7,"pm2_5":28.4,"mosquito_risk":7,"arthritis_risk":5,"migraine_risk":4,"frizz_risk":1,"updated_at":"2026-04-15T08:17:52.925675+05:30"},{"city":"Pune","state":"Maharashtra","latitude":18.5204,"longitude":73.8567,"temp":28.9,"humidity":37,"rain":0.0,"pressure":948.8,"uv_index":8.6,"wind_gusts":40.3,"aqi":72,"pm10":77.5,"pm2_5":38.4,"mosquito_risk":4,"arthritis_risk":5,"migraine_risk":7,"frizz_risk":0,"updated_at":"2026-04-15T08:17:52.925685+05:30"},{"city":"Ahmedabad","state":"Gujarat","latitude":23.0225,"longitude":72.5714,"temp":27.8,"humidity":63,"rain":0.0,"pressure":1001.7,"uv_index":8.15,"wind_gusts":22.3,"aqi":63,"pm10":54.0,"pm2_5":24.2,"mosquito_risk":7,"arthritis_risk":5,"migraine_risk":4,"frizz_risk":1,"updated_at":"2026-04-15T08:17:52.925692+05:30"},{"city":"Jaipur","state":"Rajasthan","latitude":26.9124,"longitude":75.7873,"temp":29.8,"humidity":32,"rain":0.0,"pressure":959.3,"uv_index":7.95,"wind_gusts":28.4,"aqi":141,"pm10":542.0,"pm2_5":78.5,"mosquito_risk":4,"arthritis_risk":5,"migraine_risk":7,"frizz_risk":0,"updated_at":"2026-04-15T08:17:52.925699+05:30"},{"city":"Lucknow","state":"Uttar Pradesh","latitude":26.8467,"longitude":80.9462,"temp":27.0,"humidity":52,"rain":0.0,"pressure":992.4,"uv_index":7.8,"wind_gusts":24.8,"aqi":97,"pm10":129.5,"pm2_5":43.7,"mosquito_risk":4,"arthritis_risk":5,"migraine_risk":7,"frizz_risk":1,"updated_at":"2026-04-15T08:17:52.925706+05:30"},{"city":"Kanpur","state":"Uttar Pradesh","latitude":26.4499,"longitude":80.3319,"temp":26.2,"humidity":60,"rain":0.0,"pressure":990.7,"uv_index":7.8,"wind_gusts":21.6,"aqi":159,"pm10":166.2,"pm2_5":44.4,"mosquito_risk":4,"arthritis_risk":5,"migraine_risk":7,"frizz_risk":1,"updated_at":"2026-04-15T08:17:52.925712+05:30"},{"city":"Chandigarh","state":"Chandigarh","latitude":30.7333,"longitude":76.7794,"temp":23.2,"humidity":58,"rain":0.0,"pressure":967.8,"uv_index":7.25,"wind_gusts":31.0,"aqi":53,"pm10":18.0,"pm2_5":17.6,"mosquito_risk":0,"arthritis_risk":5,"migraine_risk":7,"frizz_risk":0,"updated_at":"2026-04-15T08:17:52.925719+05:30"},{"city":"Srinagar","state":"Jammu and Kashmir","latitude":34.0837,"longitude":74.7973,"temp":12.9,"humidity":84,"rain":0.0,"pressure":842.2,"uv_index":7.7,"wind_gusts":16.2,"aqi":76,"pm10":36.6,"pm2_5":29.9,"mosquito_risk":3,"arthritis_risk":10,"migraine_risk":7,"frizz_risk":0,"updated_at":"2026-04-15T08:17:52.925725+05:30"},{"city":"Jammu","state":"Jammu and Kashmir","latitude":32.7266,"longitude":74.857,"temp":23.4,"humidity":69,"rain":0.0,"pressure":971.9,"uv_index":7.95,"wind_gusts":33.1,"aqi":60,"pm10":24.3,"pm2_5":21.9,"mosquito_risk":3,"arthritis_risk":5,"migraine_risk":7,"frizz_risk":1,"updated_at":"2026-04-15T08:17:52.925732+05:30"},{"city":"Amritsar","state":"Punjab","latitude":31.634,"longitude":74.8723,"temp":22.4,"humidity":63,"rain":0.0,"pressure":980.3,"uv_index":7.85,"wind_gusts":26.6,"aqi":90,"pm10":55.9,"pm2_5":53.6,"mosquito_risk":3,"arthritis_risk":5,"migraine_risk":7,"frizz_risk":0,"updated_at":"2026-04-15T08:17:52.925738+05:30"},{"city":"Ludhiana","state":"Punjab","latitude":30.901,"longitude":75.8573,"temp":23.2,"humidity":56,"rain":0.0,"pressure":978.2,"uv_index":7.5,"wind_gusts":27.0,"aqi":71,"pm10":26.7,"pm2_5":25.7,"mosquito_risk":0,"arthritis_risk":5,"migraine_risk":7,"frizz_risk":0,"updated_at":"2026-04-15T08:17:52.925744+05:30"},{"city":"Jalandhar","state":"Punjab","latitude":31.326,"longitude":75.5762,"temp":22.3,"humidity":63,"rain":0.0,"pressure":979.3,"uv_index":7.65,"wind_gusts":25.9,"aqi":63,"pm10":36.6,"pm2_5":29.4,"mosquito_risk":3,"arthritis_risk":5,"migraine_risk":7,"frizz_risk":0,"updated_at":"2026-04-15T08:17:52.925752+05:30"},{"city":"Dehradun","state":"Uttarakhand","latitude":30.6284,"longitude":78.0322,"temp":16.7,"humidity":49,"rain":0.0,"pressure":829.9,"uv_index":7.65,"wind_gusts":29.2,"aqi":35,"pm10":8.6,"pm2_5":7.2,"mosquito_risk":0,"arthritis_risk":5,"migraine_risk":7,"frizz_risk":0,"updated_at":"2026-04-15T08:17:52.925758+05:30"},{"city":"Shimla","state":"Himachal Pradesh","latitude":31.1048,"longitude":77.1734,"temp":15.8,"humidity":61,"rain":0.0,"pressure":784.8,"uv_index":7.75,"wind_gusts":47.5,"aqi":37,"pm10":12.8,"pm2_5":11.5,"mosquito_risk":3,"arthritis_risk":5,"migraine_risk":7,"frizz_risk":0,"updated_at":"2026-04-15T08:17:52.925764+05:30"},{"city":"Manali","state":"Himachal Pradesh","latitude":32.2396,"longitude":77.1887,"temp":18.8,"humidity":26,"rain":0.0,"pressure":820.5,"uv_index":9.15,"wind_gusts":32.4,"aqi":72,"pm10":11.1,"pm2_5":5.7,"mosquito_risk":0,"arthritis_risk":5,"migraine_risk":7,"frizz_risk":1,"updated_at":"2026-04-15T08:17:52.925770+05:30"},{"city":"Gurgaon","state":"Haryana","latitude":28.4595,"longitude":77.0266,"temp":24.3,"humidity":58,"rain":0.0,"pressure":981.0,"uv_index":7.4,"wind_gusts":25.2,"aqi":445,"pm10":191.9,"pm2_5":80.3,"mosquito_risk":0,"arthritis_risk":5,"migraine_risk":7,"frizz_risk":0,"updated_at":"2026-04-15T08:17:52.925777+05:30"},{"city":"Noida","state":"Uttar Pradesh","latitude":28.5355,"longitude":77.391,"temp":26.5,"humidity":46,"rain":0.0,"pressure":984.1,"uv_index":7.35,"wind_gusts":27.7,"aqi":445,"pm10":191.9,"pm2_5":80.3,"mosquito_risk":4,"arthritis_risk":5,"migraine_risk":7,"frizz_risk":0,"updated_at":"2026-04-15T08:17:52.925783+05:30"},{"city":"Ghaziabad","state":"Uttar Pradesh","latitude":28.6692,"longitude":77.4538,"temp":25.0,"humidity":51,"rain":0.0,"pressure":982.1,"uv_index":7.3,"wind_gusts":26.6,"aqi":115,"pm10":44.1,"pm2_5":36.4,"mosquito_risk":4,"arthritis_risk":5,"migraine_risk":7,"frizz_risk":0,"updated_at":"2026-04-15T08:17:52.925791+05:30"},{"city":"Faridabad","state":"Haryana","latitude":28.4089,"longitude":77.3178,"temp":26.5,"humidity":49,"rain":0.0,"pressure":983.4,"uv_index":7.35,"wind_gusts":26.6,"aqi":445,"pm10":191.9,"pm2_5":80.3,"mosquito_risk":4,"arthritis_risk":5,"migraine_risk":7,"frizz_risk":0,"updated_at":"2026-04-15T08:17:52.925798+05:30"},{"city":"Meerut","state":"Uttar Pradesh","latitude":28.9845,"longitude":77.7064,"temp":23.8,"humidity":57,"rain":0.0,"pressure":980.7,"uv_index":7.2,"wind_gusts":30.2,"aqi":115,"pm10":44.1,"pm2_5":36.4,"mosquito_risk":0,"arthritis_risk":5,"migraine_risk":7,"frizz_risk":0,"updated_at":"2026-04-15T08:17:52.925803+05:30"},{"city":"Agra","state":"Uttar Pradesh","latitude":27.1767,"longitude":78.0081,"temp":27.0,"humidity":50,"rain":0.0,"pressure":987.0,"uv_index":7.65,"wind_gusts":19.4,"aqi":299,"pm10":299.9,"pm2_5":85.0,"mosquito_risk":4,"arthritis_risk":5,"migraine_risk":7,"frizz_risk":0,"updated_at":"2026-04-15T08:17:52.925809+05:30"},{"city":"Varanasi","state":"Uttar Pradesh","latitude":25.3176,"longitude":82.9739,"temp":28.4,"humidity":41,"rain":0.0,"pressure":996.3,"uv_index":8.4,"wind_gusts":21.2,"aqi":101,"pm10":63.3,"pm2_5":31.5,"mosquito_risk":4,"arthritis_risk":5,"migraine_risk":7,"frizz_risk":0,"updated_at":"2026-04-15T08:17:52.925817+05:30"},{"city":"Prayagraj","state":"Uttar Pradesh","latitude":25.4358,"longitude":81.8463,"temp":28.0,"humidity":46,"rain":0.0,"pressure":994.8,"uv_index":8.25,"wind_gusts":20.2,"aqi":110,"pm10":86.8,"pm2_5":49.2,"mosquito_risk":4,"arthritis_risk":5,"migraine_risk":7,"frizz_risk":0,"updated_at":"2026-04-15T08:17:52.925824+05:30"},{"city":"Gorakhpur","state":"Uttar Pradesh","latitude":26.7606,"longitude":83.3732,"temp":25.9,"humidity":64,"rain":0.0,"pressure":996.5,"uv_index":8.2,"wind_gusts":26.6,"aqi":85,"pm10":80.1,"pm2_5":48.8,"mosquito_risk":7,"arthritis_risk":5,"migraine_risk":7,"frizz_risk":1,"updated_at":"2026-04-15T08:17:52.925830+05:30"},{"city":"Bareilly","state":"Uttar Pradesh","latitude":28.367,"longitude":79.4304,"temp":23.6,"humidity":63,"rain":0.0,"pressure":985.9,"uv_index":7.55,"wind_gusts":29.2,"aqi":64,"pm10":35.6,"pm2_5":24.5,"mosquito_risk":3,"arthritis_risk":5,"migraine_risk":7,"frizz_risk":1,"updated_at":"2026-04-15T08:17:52.925838+05:30"},{"city":"Aligarh","state":"Uttar Pradesh","latitude":27.8974,"longitude":78.088,"temp":26.3,"humidity":50,"rain":0.0,"pressure":984.8,"uv_index":7.45,"wind_gusts":28.8,"aqi":172,"pm10":144.4,"pm2_5":43.4,"mosquito_risk":4,"arthritis_risk":5,"migraine_risk":7,"frizz_risk":0,"updated_at":"2026-04-15T08:17:52.925844+05:30"},{"city":"Moradabad","state":"Uttar Pradesh","latitude":28.8386,"longitude":78.7733,"temp":23.0,"humidity":60,"rain":0.0,"pressure":982.6,"uv_index":7.35,"wind_gusts":29.9,"aqi":76,"pm10":25.7,"pm2_5":24.2,"mosquito_risk":0,"arthritis_risk":5,"migraine_risk":7,"frizz_risk":0,"updated_at":"2026-04-15T08:17:52.925849+05:30"},{"city":"Saharanpur","state":"Uttar Pradesh","latitude":29.9637,"longitude":77.546,"temp":22.4,"humidity":64,"rain":0.0,"pressure":974.9,"uv_index":6.95,"wind_gusts":33.8,"aqi":76,"pm10":46.9,"pm2_5":44.7,"mosquito_risk":3,"arthritis_risk":5,"migraine_risk":7,"frizz_risk":0,"updated_at":"2026-04-15T08:17:52.925855+05:30"},{"city":"Jhansi","state":"Uttar Pradesh","latitude":25.4484,"longitude":78.5685,"temp":30.0,"humidity":36,"rain":0.0,"pressure":977.1,"uv_index":8.2,"wind_gusts":41.4,"aqi":64,"pm10":96.9,"pm2_5":25.8,"mosquito_risk":4,"arthritis_risk":5,"migraine_risk":7,"frizz_risk":0,"updated_at":"2026-04-15T08:17:56.137190+05:30"},{"city":"Surat","state":"Gujarat","latitude":21.1702,"longitude":72.8311,"temp":29.4,"humidity":67,"rain":0.0,"pressure":1006.5,"uv_index":7.8,"wind_gusts":28.4,"aqi":101,"pm10":67.5,"pm2_5":39.2,"mosquito_risk":7,"arthritis_risk":5,"migraine_risk":4,"frizz_risk":1,"updated_at":"2026-04-15T08:17:56.137218+05:30"},{"city":"Vadodara","state":"Gujarat","latitude":22.3072,"longitude":73.1812,"temp":28.5,"humidity":55,"rain":0.0,"pressure":1004.1,"uv_index":8.1,"wind_gusts":27.0,"aqi":73,"pm10":63.6,"pm2_5":31.9,"mosquito_risk":4,"arthritis_risk":5,"migraine_risk":4,"frizz_risk":1,"updated_at":"2026-04-15T08:17:56.137230+05:30"},{"city":"Rajkot","state":"Gujarat","latitude":22.3039,"longitude":70.8022,"temp":25.2,"humidity":76,"rain":0.0,"pressure":994.1,"uv_index":7.85,"wind_gusts":28.8,"aqi":65,"pm10":35.0,"pm2_5":17.3,"mosquito_risk":7,"arthritis_risk":5,"migraine_risk":7,"frizz_risk":1,"updated_at":"2026-04-15T08:17:56.137239+05:30"},{"city":"Thane","state":"Maharashtra","latitude":19.2183,"longitude":72.9781,"temp":28.2,"humidity":81,"rain":0.0,"pressure":1007.9,"uv_index":8.0,"wind_gusts":32.4,"aqi":108,"pm10":65.0,"pm2_5":28.6,"mosquito_risk":7,"arthritis_risk":5,"migraine_risk":4,"frizz_risk":1,"updated_at":"2026-04-15T08:17:56.137247+05:30"},{"city":"Nagpur","state":"Maharashtra","latitude":21.1458,"longitude":79.0882,"temp":28.8,"humidity":48,"rain":0.0,"pressure":972.9,"uv_index":8.85,"wind_gusts":32.4,"aqi":83,"pm10":36.6,"pm2_5":32.6,"mosquito_risk":4,"arthritis_risk":5,"migraine_risk":7,"frizz_risk":1,"updated_at":"2026-04-15T08:17:56.137255+05:30"},{"city":"Nashik","state":"Maharashtra","latitude":19.9975,"longitude":73.7898,"temp":27.0,"humidity":36,"rain":0.0,"pressure":945.9,"uv_index":8.3,"wind_gusts":35.3,"aqi":64,"pm10":66.1,"pm2_5":25.8,"mosquito_risk":4,"arthritis_risk":5,"migraine_risk":7,"frizz_risk":0,"updated_at":"2026-04-15T08:17:56.137263+05:30"},{"city":"Aurangabad","state":"Maharashtra","latitude":19.8762,"longitude":75.3433,"temp":28.4,"humidity":40,"rain":0.0,"pressure":944.5,"uv_index":8.95,"wind_gusts":32.0,"aqi":60,"pm10":46.8,"pm2_5":19.7,"mosquito_risk":4,"arthritis_risk":5,"migraine_risk":7,"frizz_risk":0,"updated_at":"2026-04-15T08:17:56.137271+05:30"},{"city":"Solapur","state":"Maharashtra","latitude":17.6599,"longitude":75.9064,"temp":30.1,"humidity":42,"rain":0.0,"pressure":957.6,"uv_index":9.05,"wind_gusts":28.4,"aqi":64,"pm10":22.2,"pm2_5":17.5,"mosquito_risk":0,"arthritis_risk":5,"migraine_risk":7,"frizz_risk":0,"updated_at":"2026-04-15T08:17:56.137279+05:30"},{"city":"Kolhapur","state":"Maharashtra","latitude":16.705,"longitude":74.2433,"temp":24.8,"humidity":80,"rain":0.0,"pressure":948.4,"uv_index":9.05,"wind_gusts":42.8,"aqi":88,"pm10":70.3,"pm2_5":55.4,"mosquito_risk":3,"arthritis_risk":5,"migraine_risk":7,"frizz_risk":1,"updated_at":"2026-04-15T08:17:56.137288+05:30"},{"city":"Goa","state":"Goa","latitude":15.2993,"longitude":74.124,"temp":29.3,"humidity":79,"rain":0.0,"pressure":998.4,"uv_index":9.0,"wind_gusts":31.3,"aqi":89,"pm10":57.9,"pm2_5":31.5,"mosquito_risk":7,"arthritis_risk":5,"migraine_risk":7,"frizz_risk":1,"updated_at":"2026-04-15T08:17:56.137296+05:30"},{"city":"Jodhpur","state":"Rajasthan","latitude":26.2389,"longitude":73.0243,"temp":30.2,"humidity":30,"rain":0.0,"pressure":982.0,"uv_index":8.15,"wind_gusts":23.8,"aqi":74,"pm10":89.4,"pm2_5":22.9,"mosquito_risk":0,"arthritis_risk":5,"migraine_risk":7,"frizz_risk":0,"updated_at":"2026-04-15T08:17:56.137303+05:30"},{"city":"Udaipur","state":"Rajasthan","latitude":24.5854,"longitude":73.7125,"temp":28.6,"humidity":38,"rain":0.0,"pressure":946.3,"uv_index":8.7,"wind_gusts":26.6,"aqi":59,"pm10":76.4,"pm2_5":22.9,"mosquito_risk":4,"arthritis_risk":5,"migraine_risk":7,"frizz_risk":0,"updated_at":"2026-04-15T08:17:56.137311+05:30"},{"city":"Kota","state":"Rajasthan","latitude":25.2138,"longitude":75.8648,"temp":28.4,"humidity":41,"rain":0.0,"pressure":977.5,"uv_index":8.2,"wind_gusts":27.0,"aqi":54,"pm10":32.4,"pm2_5":15.4,"mosquito_risk":4,"arthritis_risk":5,"migraine_risk":7,"frizz_risk":0,"updated_at":"2026-04-15T08:17:56.137318+05:30"},{"city":"Bikaner","state":"Rajasthan","latitude":28.0229,"longitude":73.3119,"temp":27.5,"humidity":41,"rain":0.0,"pressure":981.6,"uv_index":7.9,"wind_gusts":14.0,"aqi":66,"pm10":146.7,"pm2_5":23.8,"mosquito_risk":4,"arthritis_risk":5,"migraine_risk":7,"frizz_risk":0,"updated_at":"2026-04-15T08:17:56.137326+05:30"},{"city":"Ajmer","state":"Rajasthan","latitude":26.4499,"longitude":74.6399,"temp":28.3,"humidity":40,"rain":0.0,"pressure":953.8,"uv_index":8.15,"wind_gusts":27.7,"aqi":53,"pm10":249.6,"pm2_5":40.9,"mosquito_risk":4,"arthritis_risk":5,"migraine_risk":7,"frizz_risk":0,"updated_at":"2026-04-15T08:17:56.137333+05:30"},{"city":"Gwalior","state":"Madhya Pradesh","latitude":26.2183,"longitude":78.1828,"temp":29.5,"humidity":43,"rain":0.0,"pressure":981.9,"uv_index":7.95,"wind_gusts":32.4,"aqi":109,"pm10":135.0,"pm2_5":36.6,"mosquito_risk":4,"arthritis_risk":5,"migraine_risk":7,"frizz_risk":0,"updated_at":"2026-04-15T08:17:56.137340+05:30"},{"city":"Indore","state":"Madhya Pradesh","latitude":22.7196,"longitude":75.8577,"temp":27.0,"humidity":51,"rain":0.0,"pressure":948.1,"uv_index":8.55,"wind_gusts":28.4,"aqi":57,"pm10":32.0,"pm2_5":19.0,"mosquito_risk":4,"arthritis_risk":5,"migraine_risk":7,"frizz_risk":0,"updated_at":"2026-04-15T08:17:56.137348+05:30"},{"city":"Bhopal","state":"Madhya Pradesh","latitude":23.2599,"longitude":77.4126,"temp":28.4,"humidity":43,"rain":0.0,"pressure":953.8,"uv_index":8.55,"wind_gusts":29.5,"aqi":60,"pm10":18.9,"pm2_5":13.2,"mosquito_risk":4,"arthritis_risk":5,"migraine_risk":7,"frizz_risk":0,"updated_at":"2026-04-15T08:17:56.137356+05:30"},{"city":"Jabalpur","state":"Madhya Pradesh","latitude":23.1815,"longitude":79.9864,"temp":27.8,"humidity":51,"rain":0.0,"pressure":961.1,"uv_index":8.7,"wind_gusts":33.8,"aqi":71,"pm10":34.6,"pm2_5":20.2,"mosquito_risk":4,"arthritis_risk":5,"migraine_risk":7,"frizz_risk":1,"updated_at":"2026-04-15T08:17:56.137363+05:30"},{"city":"Ujjain","state":"Madhya Pradesh","latitude":23.1765,"longitude":75.7885,"temp":26.9,"humidity":54,"rain":0.0,"pressure":953.7,"uv_index":8.45,"wind_gusts":29.2,"aqi":60,"pm10":34.1,"pm2_5":22.2,"mosquito_risk":4,"arthritis_risk":5,"migraine_risk":7,"frizz_risk":1,"updated_at":"2026-04-15T08:17:56.137371+05:30"},{"city":"Visakhapatnam","state":"Andhra Pradesh","latitude":17.6868,"longitude":83.2185,"temp":29.1,"humidity":76,"rain":0.0,"pressure":1004.6,"uv_index":9.15,"wind_gusts":42.1,"aqi":69,"pm10":25.9,"pm2_5":19.7,"mosquito_risk":7,"arthritis_risk":5,"migraine_risk":4,"frizz_risk":1,"updated_at":"2026-04-15T08:17:56.137378+05:30"},{"city":"Vijayawada","state":"Andhra Pradesh","latitude":16.5062,"longitude":80.648,"temp":29.3,"humidity":79,"rain":0.0,"pressure":1003.1,"uv_index":9.2,"wind_gusts":29.5,"aqi":52,"pm10":10.7,"pm2_5":8.1,"mosquito_risk":7,"arthritis_risk":5,"migraine_risk":4,"frizz_risk":1,"updated_at":"2026-04-15T08:17:56.137385+05:30"},{"city":"Guntur","state":"Andhra Pradesh","latitude":16.3067,"longitude":80.4365,"temp":29.2,"humidity":80,"rain":0.0,"pressure":1004.3,"uv_index":9.2,"wind_gusts":31.7,"aqi":53,"pm10":10.5,"pm2_5":8.2,"mosquito_risk":7,"arthritis_risk":5,"migraine_risk":4,"frizz_risk":1,"updated_at":"2026-04-15T08:17:56.137392+05:30"},{"city":"Nellore","state":"Andhra Pradesh","latitude":14.4426,"longitude":79.9865,"temp":29.5,"humidity":75,"rain":0.0,"pressure":1006.1,"uv_index":9.3,"wind_gusts":34.2,"aqi":46,"pm10":12.3,"pm2_5":11.6,"mosquito_risk":7,"arthritis_risk":5,"migraine_risk":4,"frizz_risk":1,"updated_at":"2026-04-15T08:17:56.137400+05:30"},{"city":"Kurnool","state":"Andhra Pradesh","latitude":15.8281,"longitude":78.0373,"temp":33.4,"humidity":34,"rain":0.0,"pressure":977.2,"uv_index":9.2,"wind_gusts":25.9,"aqi":85,"pm10":22.4,"pm2_5":20.8,"mosquito_risk":0,"arthritis_risk":5,"migraine_risk":7,"frizz_risk":0,"updated_at":"2026-04-15T08:17:56.137409+05:30"},{"city":"Kakinada","state":"Andhra Pradesh","latitude":16.9891,"longitude":82.2475,"temp":29.8,"humidity":74,"rain":0.0,"pressure":1008.6,"uv_index":9.15,"wind_gusts":34.9,"aqi":55,"pm10":17.9,"pm2_5":11.8,"mosquito_risk":7,"arthritis_risk":0,"migraine_risk":4,"frizz_risk":1,"updated_at":"2026-04-15T08:17:56.137416+05:30"},{"city":"Tirupati","state":"Andhra Pradesh","latitude":13.6288,"longitude":79.4192,"temp":28.0,"humidity":80,"rain":0.0,"pressure":993.0,"uv_index":9.4,"wind_gusts":31.0,"aqi":68,"pm10":22.2,"pm2_5":21.5,"mosquito_risk":7,"arthritis_risk":5,"migraine_risk":7,"frizz_risk":1,"updated_at":"2026-04-15T08:17:56.137423+05:30"},{"city":"Warangal","state":"Telangana","latitude":17.9689,"longitude":79.5941,"temp":28.7,"humidity":71,"rain":0.0,"pressure":978.6,"uv_index":9.1,"wind_gusts":29.9,"aqi":74,"pm10":13.2,"pm2_5":12.2,"mosquito_risk":7,"arthritis_risk":5,"migraine_risk":7,"frizz_risk":1,"updated_at":"2026-04-15T08:17:56.137431+05:30"},{"city":"Nizamabad","state":"Telangana","latitude":18.6725,"longitude":78.0941,"temp":31.1,"humidity":49,"rain":0.0,"pressure":965.3,"uv_index":9.05,"wind_gusts":28.1,"aqi":79,"pm10":36.9,"pm2_5":34.5,"mosquito_risk":0,"arthritis_risk":5,"migraine_risk":7,"frizz_risk":1,"updated_at":"2026-04-15T08:17:56.137438+05:30"},{"city":"Mysore","state":"Karnataka","latitude":12.2958,"longitude":76.6396,"temp":25.7,"humidity":78,"rain":0.0,"pressure":929.5,"uv_index":9.55,"wind_gusts":42.1,"aqi":75,"pm10":17.3,"pm2_5":15.5,"mosquito_risk":7,"arthritis_risk":5,"migraine_risk":7,"frizz_risk":1,"updated_at":"2026-04-15T08:17:56.137445+05:30"},{"city":"Mangalore","state":"Karnataka","latitude":12.9141,"longitude":74.856,"temp":30.0,"humidity":77,"rain":0.0,"pressure":1006.8,"uv_index":9.15,"wind_gusts":24.8,"aqi":71,"pm10":31.3,"pm2_5":19.2,"mosquito_risk":7,"arthritis_risk":5,"migraine_risk":4,"frizz_risk":1,"updated_at":"2026-04-15T08:17:56.137453+05:30"},{"city":"Hubli-Dharwad","state":"Karnataka","latitude":15.3647,"longitude":75.124,"temp":25.2,"humidity":83,"rain":0.0,"pressure":941.7,"uv_index":9.2,"wind_gusts":41.0,"aqi":67,"pm10":29.6,"pm2_5":21.4,"mosquito_risk":7,"arthritis_risk":5,"migraine_risk":7,"frizz_risk":1,"updated_at":"2026-04-15T08:17:56.137461+05:30"},{"city":"Belgaum","state":"Karnataka","latitude":15.8497,"longitude":74.4977,"temp":23.9,"humidity":88,"rain":0.0,"pressure":926.3,"uv_index":9.25,"wind_gusts":39.6,"aqi":75,"pm10":50.8,"pm2_5":32.7,"mosquito_risk":3,"arthritis_risk":5,"migraine_risk":7,"frizz_risk":1,"updated_at":"2026-04-15T08:17:59.349346+05:30"},{"city":"Coimbatore","state":"Tamil Nadu","latitude":11.0168,"longitude":76.9558,"temp":28.1,"humidity":73,"rain":0.0,"pressure":963.0,"uv_index":9.45,"wind_gusts":49.7,"aqi":78,"pm10":25.0,"pm2_5":21.0,"mosquito_risk":7,"arthritis_risk":5,"migraine_risk":7,"frizz_risk":1,"updated_at":"2026-04-15T08:17:59.349373+05:30"},{"city":"Madurai","state":"Tamil Nadu","latitude":9.9252,"longitude":78.1198,"temp":29.1,"humidity":76,"rain":0.0,"pressure":994.3,"uv_index":9.35,"wind_gusts":39.6,"aqi":64,"pm10":31.1,"pm2_5":28.9,"mosquito_risk":7,"arthritis_risk":5,"migraine_risk":7,"frizz_risk":1,"updated_at":"2026-04-15T08:17:59.349385+05:30"},{"city":"Trichy","state":"Tamil Nadu","latitude":10.7905,"longitude":78.7047,"temp":29.4,"humidity":77,"rain":0.0,"pressure":1000.8,"uv_index":9.4,"wind_gusts":18.7,"aqi":53,"pm10":19.0,"pm2_5":17.3,"mosquito_risk":7,"arthritis_risk":5,"migraine_risk":4,"frizz_risk":1,"updated_at":"2026-04-15T08:17:59.349395+05:30"},{"city":"Salem","state":"Tamil Nadu","latitude":11.6643,"longitude":78.146,"temp":28.7,"humidity":68,"rain":0.0,"pressure":978.5,"uv_index":9.45,"wind_gusts":19.1,"aqi":62,"pm10":17.2,"pm2_5":16.4,"mosquito_risk":7,"arthritis_risk":5,"migraine_risk":7,"frizz_risk":1,"updated_at":"2026-04-15T08:17:59.349403+05:30"},{"city":"Tirunelveli","state":"Tamil Nadu","latitude":8.7139,"longitude":77.7567,"temp":30.0,"humidity":67,"rain":0.0,"pressure":1004.3,"uv_index":9.3,"wind_gusts":51.1,"aqi":71,"pm10":32.6,"pm2_5":25.6,"mosquito_risk":7,"arthritis_risk":5,"migraine_risk":4,"frizz_risk":1,"updated_at":"2026-04-15T08:17:59.349411+05:30"},{"city":"Vellore","state":"Tamil Nadu","latitude":12.9165,"longitude":79.1325,"temp":27.6,"humidity":79,"rain":0.0,"pressure":985.6,"uv_index":9.45,"wind_gusts":29.5,"aqi":96,"pm10":44.8,"pm2_5":44.0,"mosquito_risk":7,"arthritis_risk":5,"migraine_risk":7,"frizz_risk":1,"updated_at":"2026-04-15T08:17:59.349419+05:30"},{"city":"Erode","state":"Tamil Nadu","latitude":11.341,"longitude":77.7172,"temp":29.5,"humidity":74,"rain":0.0,"pressure":990.2,"uv_index":9.4,"wind_gusts":25.6,"aqi":55,"pm10":23.7,"pm2_5":21.8,"mosquito_risk":7,"arthritis_risk":5,"migraine_risk":7,"frizz_risk":1,"updated_at":"2026-04-15T08:17:59.349428+05:30"},{"city":"Kochi","state":"Kerala","latitude":9.9312,"longitude":76.2673,"temp":28.9,"humidity":82,"rain":0.0,"pressure":1009.0,"uv_index":9.2,"wind_gusts":32.8,"aqi":96,"pm10":43.9,"pm2_5":37.5,"mosquito_risk":7,"arthritis_risk":0,"migraine_risk":4,"frizz_risk":1,"updated_at":"2026-04-15T08:17:59.349435+05:30"},{"city":"Thiruvananthapuram","state":"Kerala","latitude":8.5241,"longitude":76.9366,"temp":28.5,"humidity":86,"rain":0.0,"pressure":1008.3,"uv_index":9.15,"wind_gusts":30.2,"aqi":70,"pm10":32.5,"pm2_5":22.9,"mosquito_risk":7,"arthritis_risk":0,"migraine_risk":4,"frizz_risk":1,"updated_at":"2026-04-15T08:17:59.349443+05:30"},{"city":"Kozhikode","state":"Kerala","latitude":11.2588,"longitude":75.7804,"temp":30.0,"humidity":78,"rain":0.0,"pressure":1008.2,"uv_index":9.15,"wind_gusts":29.5,"aqi":82,"pm10":31.5,"pm2_5":19.8,"mosquito_risk":7,"arthritis_risk":0,"migraine_risk":4,"frizz_risk":1,"updated_at":"2026-04-15T08:17:59.349451+05:30"},{"city":"Thrissur","state":"Kerala","latitude":10.5276,"longitude":76.2144,"temp":29.9,"humidity":77,"rain":0.0,"pressure":1007.4,"uv_index":9.2,"wind_gusts":35.3,"aqi":97,"pm10":46.0,"pm2_5":37.4,"mosquito_risk":7,"arthritis_risk":5,"migraine_risk":4,"frizz_risk":1,"updated_at":"2026-04-15T08:17:59.349460+05:30"},{"city":"Kannur","state":"Kerala","latitude":11.8745,"longitude":75.3704,"temp":29.7,"humidity":81,"rain":0.0,"pressure":1007.5,"uv_index":9.15,"wind_gusts":32.4,"aqi":78,"pm10":30.0,"pm2_5":19.7,"mosquito_risk":7,"arthritis_risk":5,"migraine_risk":4,"frizz_risk":1,"updated_at":"2026-04-15T08:17:59.349468+05:30"},{"city":"Patna","state":"Bihar","latitude":25.5941,"longitude":85.1376,"temp":26.2,"humidity":66,"rain":0.0,"pressure":999.7,"uv_index":8.55,"wind_gusts":22.7,"aqi":128,"pm10":67.8,"pm2_5":51.1,"mosquito_risk":7,"arthritis_risk":5,"migraine_risk":7,"frizz_risk":1,"updated_at":"2026-04-15T08:17:59.349476+05:30"},{"city":"Gaya","state":"Bihar","latitude":24.7914,"longitude":85.0002,"temp":27.8,"humidity":52,"rain":0.0,"pressure":992.8,"uv_index":8.6,"wind_gusts":18.0,"aqi":91,"pm10":46.7,"pm2_5":20.9,"mosquito_risk":4,"arthritis_risk":5,"migraine_risk":7,"frizz_risk":1,"updated_at":"2026-04-15T08:17:59.349484+05:30"},{"city":"Muzaffarpur","state":"Bihar","latitude":26.1209,"longitude":85.3647,"temp":26.0,"humidity":81,"rain":0.0,"pressure":1000.0,"uv_index":8.55,"wind_gusts":22.7,"aqi":149,"pm10":85.9,"pm2_5":68.0,"mosquito_risk":7,"arthritis_risk":5,"migraine_risk":4,"frizz_risk":1,"updated_at":"2026-04-15T08:17:59.349492+05:30"},{"city":"Bhagalpur","state":"Bihar","latitude":25.2425,"longitude":87.0117,"temp":27.0,"humidity":82,"rain":0.0,"pressure":1000.5,"uv_index":8.55,"wind_gusts":20.5,"aqi":145,"pm10":95.9,"pm2_5":82.0,"mosquito_risk":7,"arthritis_risk":5,"migraine_risk":4,"frizz_risk":1,"updated_at":"2026-04-15T08:17:59.349499+05:30"},{"city":"Ranchi","state":"Jharkhand","latitude":23.3441,"longitude":85.3096,"temp":26.6,"humidity":38,"rain":0.0,"pressure":938.4,"uv_index":9.15,"wind_gusts":31.3,"aqi":65,"pm10":73.8,"pm2_5":23.9,"mosquito_risk":4,"arthritis_risk":5,"migraine_risk":7,"frizz_risk":0,"updated_at":"2026-04-15T08:17:59.349508+05:30"},{"city":"Jamshedpur","state":"Jharkhand","latitude":22.8046,"longitude":86.2029,"temp":28.7,"humidity":81,"rain":0.0,"pressure":990.9,"uv_index":8.95,"wind_gusts":23.0,"aqi":113,"pm10":73.1,"pm2_5":55.3,"mosquito_risk":7,"arthritis_risk":5,"migraine_risk":7,"frizz_risk":1,"updated_at":"2026-04-15T08:17:59.349516+05:30"},{"city":"Dhanbad","state":"Jharkhand","latitude":23.7957,"longitude":86.4304,"temp":28.9,"humidity":37,"rain":0.0,"pressure":979.7,"uv_index":8.9,"wind_gusts":31.0,"aqi":143,"pm10":115.3,"pm2_5":74.0,"mosquito_risk":4,"arthritis_risk":5,"migraine_risk":7,"frizz_risk":0,"updated_at":"2026-04-15T08:17:59.349525+05:30"},{"city":"Bokaro","state":"Jharkhand","latitude":23.6693,"longitude":86.1511,"temp":29.1,"humidity":40,"rain":0.0,"pressure":983.7,"uv_index":8.9,"wind_gusts":37.1,"aqi":132,"pm10":90.6,"pm2_5":54.7,"mosquito_risk":4,"arthritis_risk":5,"migraine_risk":7,"frizz_risk":0,"updated_at":"2026-04-15T08:17:59.349533+05:30"},{"city":"Bhubaneswar","state":"Odisha","latitude":20.2961,"longitude":85.8245,"temp":29.6,"humidity":78,"rain":0.0,"pressure":1003.0,"uv_index":9.1,"wind_gusts":34.2,"aqi":82,"pm10":29.0,"pm2_5":21.1,"mosquito_risk":7,"arthritis_risk":5,"migraine_risk":4,"frizz_risk":1,"updated_at":"2026-04-15T08:17:59.349541+05:30"},{"city":"Cuttack","state":"Odisha","latitude":20.4625,"longitude":85.8828,"temp":29.4,"humidity":80,"rain":0.0,"pressure":1005.0,"uv_index":9.15,"wind_gusts":28.8,"aqi":82,"pm10":29.0,"pm2_5":21.1,"mosquito_risk":7,"arthritis_risk":5,"migraine_risk":4,"frizz_risk":1,"updated_at":"2026-04-15T08:17:59.349549+05:30"},{"city":"Rourkela","state":"Odisha","latitude":22.2604,"longitude":84.8536,"temp":29.4,"humidity":76,"rain":0.0,"pressure":985.4,"uv_index":8.9,"wind_gusts":25.2,"aqi":85,"pm10":78.9,"pm2_5":41.3,"mosquito_risk":7,"arthritis_risk":5,"migraine_risk":7,"frizz_risk":1,"updated_at":"2026-04-15T08:17:59.349557+05:30"},{"city":"Raipur","state":"Chhattisgarh","latitude":21.2514,"longitude":81.6296,"temp":30.5,"humidity":43,"rain":0.0,"pressure":974.5,"uv_index":8.95,"wind_gusts":42.8,"aqi":143,"pm10":68.0,"pm2_5":59.4,"mosquito_risk":0,"arthritis_risk":5,"migraine_risk":7,"frizz_risk":1,"updated_at":"2026-04-15T08:17:59.349565+05:30"},{"city":"Bhilai","state":"Chhattisgarh","latitude":21.1938,"longitude":81.3509,"temp":29.7,"humidity":54,"rain":0.0,"pressure":974.7,"uv_index":8.95,"wind_gusts":41.8,"aqi":150,"pm10":64.7,"pm2_5":58.0,"mosquito_risk":4,"arthritis_risk":5,"migraine_risk":7,"frizz_risk":1,"updated_at":"2026-04-15T08:17:59.349574+05:30"},{"city":"Guwahati","state":"Assam","latitude":26.1158,"longitude":91.7086,"temp":24.6,"humidity":86,"rain":0.0,"pressure":1003.0,"uv_index":8.45,"wind_gusts":30.2,"aqi":131,"pm10":47.5,"pm2_5":37.3,"mosquito_risk":3,"arthritis_risk":5,"migraine_risk":4,"frizz_risk":1,"updated_at":"2026-04-15T08:17:59.349582+05:30"},{"city":"Agartala","state":"Tripura","latitude":23.8315,"longitude":91.2868,"temp":27.9,"humidity":84,"rain":0.0,"pressure":1007.1,"uv_index":8.7,"wind_gusts":41.0,"aqi":105,"pm10":39.3,"pm2_5":34.7,"mosquito_risk":7,"arthritis_risk":5,"migraine_risk":4,"frizz_risk":1,"updated_at":"2026-04-15T08:17:59.349590+05:30"},{"city":"Shillong","state":"Meghalaya","latitude":25.5788,"longitude":91.8933,"temp":18.3,"humidity":67,"rain":0.0,"pressure":857.4,"uv_index":8.1,"wind_gusts":63.0,"aqi":108,"pm10":28.7,"pm2_5":21.2,"mosquito_risk":3,"arthritis_risk":5,"migraine_risk":7,"frizz_risk":0,"updated_at":"2026-04-15T08:17:59.349597+05:30"},{"city":"Imphal","state":"Manipur","latitude":24.817,"longitude":93.9368,"temp":19.8,"humidity":87,"rain":0.0,"pressure":924.9,"uv_index":9.05,"wind_gusts":70.2,"aqi":131,"pm10":55.6,"pm2_5":45.6,"mosquito_risk":3,"arthritis_risk":10,"migraine_risk":7,"frizz_risk":1,"updated_at":"2026-04-15T08:17:59.349603+05:30"},{"city":"Aizawl","state":"Mizoram","latitude":23.7271,"longitude":92.7176,"temp":22.6,"humidity":74,"rain":0.0,"pressure":894.8,"uv_index":8.9,"wind_gusts":51.8,"aqi":119,"pm10":48.4,"pm2_5":37.1,"mosquito_risk":3,"arthritis_risk":5,"migraine_risk":7,"frizz_risk":1,"updated_at":"2026-04-15T08:17:59.349610+05:30"},{"city":"Kohima","state":"Nagaland","latitude":25.6701,"longitude":94.1077,"temp":19.4,"humidity":68,"rain":0.0,"pressure":856.6,"uv_index":8.95,"wind_gusts":74.2,"aqi":114,"pm10":44.4,"pm2_5":32.7,"mosquito_risk":3,"arthritis_risk":5,"migraine_risk":7,"frizz_risk":0,"updated_at":"2026-04-15T08:17:59.349616+05:30"},{"city":"Gangtok","state":"Sikkim","latitude":27.3314,"longitude":88.6138,"temp":15.1,"humidity":88,"rain":0.0,"pressure":837.3,"uv_index":8.25,"wind_gusts":21.2,"aqi":118,"pm10":68.2,"pm2_5":39.1,"mosquito_risk":3,"arthritis_risk":10,"migraine_risk":7,"frizz_risk":0,"updated_at":"2026-04-15T08:17:59.349622+05:30"},{"city":"Siliguri","state":"West Bengal","latitude":26.7271,"longitude":88.3953,"temp":21.6,"humidity":81,"rain":0.0,"pressure":995.0,"uv_index":8.3,"wind_gusts":31.7,"aqi":156,"pm10":95.0,"pm2_5":56.3,"mosquito_risk":3,"arthritis_risk":5,"migraine_risk":7,"frizz_risk":1,"updated_at":"2026-04-15T08:18:02.564976+05:30"},{"city":"Durgapur","state":"West Bengal","latitude":23.5204,"longitude":87.3119,"temp":29.2,"humidity":74,"rain":0.0,"pressure":994.6,"uv_index":8.85,"wind_gusts":22.3,"aqi":138,"pm10":70.8,"pm2_5":58.3,"mosquito_risk":7,"arthritis_risk":5,"migraine_risk":7,"frizz_risk":1,"updated_at":"2026-04-15T08:18:02.565003+05:30"},{"city":"Asansol","state":"West Bengal","latitude":23.6739,"longitude":86.9524,"temp":29.3,"humidity":65,"rain":0.0,"pressure":993.1,"uv_index":8.85,"wind_gusts":21.6,"aqi":116,"pm10":88.5,"pm2_5":60.1,"mosquito_risk":7,"arthritis_risk":5,"migraine_risk":7,"frizz_risk":1,"updated_at":"2026-04-15T08:18:02.565012+05:30"},{"city":"Pondicherry","state":"Puducherry","latitude":11.9139,"longitude":79.8145,"temp":29.4,"humidity":82,"rain":0.0,"pressure":1009.4,"uv_index":9.3,"wind_gusts":26.6,"aqi":31,"pm10":10.5,"pm2_5":8.1,"mosquito_risk":7,"arthritis_risk":0,"migraine_risk":4,"frizz_risk":1,"updated_at":"2026-04-15T08:18:02.565019+05:30"},{"city":"Port Blair","state":"Andaman and Nicobar Islands","latitude":11.6234,"longitude":92.7265,"temp":29.2,"humidity":71,"rain":0.0,"pressure":1009.0,"uv_index":9.2,"wind_gusts":17.6,"aqi":72,"pm10":32.1,"pm2_5":22.4,"mosquito_risk":7,"arthritis_risk":0,"migraine_risk":4,"frizz_risk":1,"updated_at":"2026-04-15T08:18:02.565026+05:30"},{"city":"Haridwar","state":"Uttarakhand","latitude":29.9457,"longitude":78.1642,"temp":25.5,"humidity":56,"rain":0.0,"pressure":973.4,"uv_index":7.05,"wind_gusts":30.6,"aqi":55,"pm10":22.6,"pm2_5":22.2,"mosquito_risk":4,"arthritis_risk":5,"migraine_risk":7,"frizz_risk":1,"updated_at":"2026-04-15T08:18:02.565032+05:30"},{"city":"Rishikesh","state":"Uttarakhand","latitude":30.0869,"longitude":78.2676,"temp":25.3,"humidity":52,"rain":0.0,"pressure":966.3,"uv_index":7.15,"wind_gusts":31.0,"aqi":40,"pm10":14.0,"pm2_5":13.3,"mosquito_risk":4,"arthritis_risk":5,"migraine_risk":7,"frizz_risk":0,"updated_at":"2026-04-15T08:18:02.565039+05:30"},{"city":"Nainital","state":"Uttarakhand","latitude":29.3919,"longitude":79.4542,"temp":22.7,"humidity":35,"rain":0.0,"pressure":807.3,"uv_index":8.05,"wind_gusts":47.9,"aqi":41,"pm10":17.4,"pm2_5":12.3,"mosquito_risk":0,"arthritis_risk":5,"migraine_risk":7,"frizz_risk":0,"updated_at":"2026-04-15T08:18:02.565045+05:30"},{"city":"Mussoorie","state":"Uttarakhand","latitude":30.4599,"longitude":78.0664,"temp":18.7,"humidity":47,"rain":0.0,"pressure":802.8,"uv_index":7.55,"wind_gusts":34.9,"aqi":53,"pm10":20.2,"pm2_5":19.7,"mosquito_risk":0,"arthritis_risk":5,"migraine_risk":7,"frizz_risk":0,"updated_at":"2026-04-15T08:18:02.565051+05:30"},{"city":"Dharamshala","state":"Himachal Pradesh","latitude":32.219,"longitude":76.3234,"temp":21.9,"humidity":52,"rain":0.0,"pressure":868.6,"uv_index":7.8,"wind_gusts":22.7,"aqi":43,"pm10":7.9,"pm2_5":5.1,"mosquito_risk":0,"arthritis_risk":5,"migraine_risk":7,"frizz_risk":0,"updated_at":"2026-04-15T08:18:02.565056+05:30"},{"city":"Dalhousie","state":"Himachal Pradesh","latitude":32.5387,"longitude":75.971,"temp":18.7,"humidity":42,"rain":0.0,"pressure":803.4,"uv_index":8.0,"wind_gusts":23.8,"aqi":53,"pm10":13.5,"pm2_5":9.9,"mosquito_risk":0,"arthritis_risk":5,"migraine_risk":7,"frizz_risk":0,"updated_at":"2026-04-15T08:18:02.565063+05:30"},{"city":"Patiala","state":"Punjab","latitude":30.3398,"longitude":76.3869,"temp":23.3,"humidity":55,"rain":0.0,"pressure":977.7,"uv_index":7.15,"wind_gusts":28.8,"aqi":164,"pm10":335.3,"pm2_5":53.1,"mosquito_risk":0,"arthritis_risk":5,"migraine_risk":7,"frizz_risk":0,"updated_at":"2026-04-15T08:18:02.565069+05:30"},{"city":"Bhatinda","state":"Punjab","latitude":30.211,"longitude":74.9455,"temp":25.5,"humidity":47,"rain":0.0,"pressure":983.7,"uv_index":7.85,"wind_gusts":30.2,"aqi":57,"pm10":27.0,"pm2_5":21.8,"mosquito_risk":4,"arthritis_risk":5,"migraine_risk":7,"frizz_risk":0,"updated_at":"2026-04-15T08:18:02.565075+05:30"},{"city":"Rohtak","state":"Haryana","latitude":28.8955,"longitude":76.6066,"temp":24.5,"humidity":54,"rain":0.0,"pressure":981.4,"uv_index":7.3,"wind_gusts":28.8,"aqi":284,"pm10":312.9,"pm2_5":80.8,"mosquito_risk":0,"arthritis_risk":5,"migraine_risk":7,"frizz_risk":0,"updated_at":"2026-04-15T08:18:02.565081+05:30"},{"city":"Panipat","state":"Haryana","latitude":29.3909,"longitude":76.9635,"temp":23.4,"humidity":58,"rain":0.0,"pressure":979.9,"uv_index":7.15,"wind_gusts":28.1,"aqi":674,"pm10":374.4,"pm2_5":70.1,"mosquito_risk":0,"arthritis_risk":5,"migraine_risk":7,"frizz_risk":0,"updated_at":"2026-04-15T08:18:02.565086+05:30"},{"city":"Mathura","state":"Uttar Pradesh","latitude":27.4924,"longitude":77.6737,"temp":26.7,"humidity":50,"rain":0.0,"pressure":986.1,"uv_index":7.6,"wind_gusts":24.1,"aqi":220,"pm10":227.7,"pm2_5":63.6,"mosquito_risk":4,"arthritis_risk":5,"migraine_risk":7,"frizz_risk":0,"updated_at":"2026-04-15T08:18:02.565092+05:30"},{"city":"Vrindavan","state":"Uttar Pradesh","latitude":27.5823,"longitude":77.7027,"temp":26.3,"humidity":53,"rain":0.0,"pressure":986.5,"uv_index":7.6,"wind_gusts":27.0,"aqi":220,"pm10":227.7,"pm2_5":63.6,"mosquito_risk":4,"arthritis_risk":5,"migraine_risk":7,"frizz_risk":0,"updated_at":"2026-04-15T08:18:02.565097+05:30"},{"city":"Ayodhya","state":"Uttar Pradesh","latitude":26.7922,"longitude":82.1998,"temp":27.9,"humidity":37,"rain":0.0,"pressure":994.6,"uv_index":7.95,"wind_gusts":30.2,"aqi":80,"pm10":115.0,"pm2_5":36.4,"mosquito_risk":4,"arthritis_risk":5,"migraine_risk":7,"frizz_risk":0,"updated_at":"2026-04-15T08:18:02.565103+05:30"},{"city":"Ratlam","state":"Madhya Pradesh","latitude":23.3315,"longitude":75.0367,"temp":25.7,"humidity":69,"rain":0.0,"pressure":954.1,"uv_index":8.4,"wind_gusts":28.8,"aqi":52,"pm10":40.3,"pm2_5":22.2,"mosquito_risk":7,"arthritis_risk":5,"migraine_risk":7,"frizz_risk":1,"updated_at":"2026-04-15T08:18:02.565109+05:30"},{"city":"Sagar","state":"Madhya Pradesh","latitude":23.8388,"longitude":78.7378,"temp":29.4,"humidity":39,"rain":0.0,"pressure":949.8,"uv_index":8.6,"wind_gusts":28.4,"aqi":59,"pm10":12.9,"pm2_5":9.8,"mosquito_risk":4,"arthritis_risk":5,"migraine_risk":7,"frizz_risk":0,"updated_at":"2026-04-15T08:18:02.565114+05:30"},{"city":"Satna","state":"Madhya Pradesh","latitude":24.6005,"longitude":80.8322,"temp":29.7,"humidity":41,"rain":0.0,"pressure":970.4,"uv_index":8.6,"wind_gusts":24.1,"aqi":57,"pm10":45.1,"pm2_5":18.5,"mosquito_risk":4,"arthritis_risk":5,"migraine_risk":7,"frizz_risk":0,"updated_at":"2026-04-15T08:18:02.565120+05:30"},{"city":"Akola","state":"Maharashtra","latitude":20.7002,"longitude":77.0082,"temp":28.7,"humidity":52,"rain":0.0,"pressure":975.3,"uv_index":8.75,"wind_gusts":32.8,"aqi":56,"pm10":24.1,"pm2_5":16.6,"mosquito_risk":4,"arthritis_risk":5,"migraine_risk":7,"frizz_risk":1,"updated_at":"2026-04-15T08:18:02.565126+05:30"},{"city":"Amravati","state":"Maharashtra","latitude":20.9374,"longitude":77.7796,"temp":27.9,"humidity":55,"rain":0.0,"pressure":967.3,"uv_index":8.8,"wind_gusts":28.1,"aqi":59,"pm10":20.0,"pm2_5":15.2,"mosquito_risk":4,"arthritis_risk":5,"migraine_risk":7,"frizz_risk":1,"updated_at":"2026-04-15T08:18:02.565132+05:30"},{"city":"Latur","state":"Maharashtra","latitude":18.4088,"longitude":76.5604,"temp":27.2,"humidity":50,"rain":0.0,"pressure":940.7,"uv_index":9.05,"wind_gusts":25.6,"aqi":63,"pm10":29.6,"pm2_5":17.9,"mosquito_risk":4,"arthritis_risk":5,"migraine_risk":7,"frizz_risk":0,"updated_at":"2026-04-15T08:18:02.565138+05:30"},{"city":"Nanded","state":"Maharashtra","latitude":19.1383,"longitude":77.3091,"temp":27.7,"humidity":55,"rain":0.0,"pressure":969.3,"uv_index":8.95,"wind_gusts":16.9,"aqi":61,"pm10":24.6,"pm2_5":20.4,"mosquito_risk":4,"arthritis_risk":5,"migraine_risk":7,"frizz_risk":1,"updated_at":"2026-04-15T08:18:02.565144+05:30"},{"city":"Gulbarga","state":"Karnataka","latitude":17.3297,"longitude":76.8343,"temp":32.2,"humidity":44,"rain":0.0,"pressure":959.1,"uv_index":9.1,"wind_gusts":20.2,"aqi":97,"pm10":34.1,"pm2_5":31.5,"mosquito_risk":0,"arthritis_risk":5,"migraine_risk":7,"frizz_risk":1,"updated_at":"2026-04-15T08:18:02.565149+05:30"},{"city":"Bidar","state":"Karnataka","latitude":17.9104,"longitude":77.5199,"temp":30.6,"humidity":39,"rain":0.0,"pressure":936.5,"uv_index":9.1,"wind_gusts":22.7,"aqi":97,"pm10":46.6,"pm2_5":40.6,"mosquito_risk":0,"arthritis_risk":5,"migraine_risk":7,"frizz_risk":0,"updated_at":"2026-04-15T08:18:02.565155+05:30"},{"city":"Hospet","state":"Karnataka","latitude":15.2689,"longitude":76.3909,"temp":26.8,"humidity":78,"rain":0.0,"pressure":956.6,"uv_index":9.25,"wind_gusts":28.4,"aqi":101,"pm10":19.9,"pm2_5":16.2,"mosquito_risk":7,"arthritis_risk":5,"migraine_risk":7,"frizz_risk":1,"updated_at":"2026-04-15T08:18:02.565161+05:30"},{"city":"Tirupur","state":"Tamil Nadu","latitude":11.1085,"longitude":77.3411,"temp":29.0,"humidity":73,"rain":0.0,"pressure":976.5,"uv_index":9.5,"wind_gusts":33.8,"aqi":71,"pm10":35.9,"pm2_5":31.5,"mosquito_risk":7,"arthritis_risk":5,"migraine_risk":7,"frizz_risk":1,"updated_at":"2026-04-15T08:18:02.565166+05:30"},{"city":"Alappuzha","state":"Kerala","latitude":9.4981,"longitude":76.3388,"temp":28.8,"humidity":84,"rain":0.0,"pressure":1009.1,"uv_index":9.2,"wind_gusts":29.5,"aqi":97,"pm10":49.0,"pm2_5":40.3,"mosquito_risk":7,"arthritis_risk":0,"migraine_risk":4,"frizz_risk":1,"updated_at":"2026-04-15T08:18:02.565172+05:30"},{"city":"Munnar","state":"Kerala","latitude":10.0889,"longitude":77.0595,"temp":24.8,"humidity":60,"rain":0.0,"pressure":858.6,"uv_index":9.75,"wind_gusts":36.7,"aqi":78,"pm10":28.1,"pm2_5":25.0,"mosquito_risk":0,"arthritis_risk":5,"migraine_risk":7,"frizz_risk":1,"updated_at":"2026-04-15T08:18:02.565178+05:30"},{"city":"Silchar","state":"Assam","latitude":24.8333,"longitude":92.7789,"temp":23.7,"humidity":89,"rain":0.0,"pressure":1007.6,"uv_index":8.7,"wind_gusts":37.1,"aqi":151,"pm10":44.9,"pm2_5":35.6,"mosquito_risk":3,"arthritis_risk":5,"migraine_risk":4,"frizz_risk":1,"updated_at":"2026-04-15T08:18:02.565183+05:30"},{"city":"Dibrugarh","state":"Assam","latitude":27.4728,"longitude":94.912,"temp":21.4,"humidity":80,"rain":0.0,"pressure":998.6,"uv_index":8.5,"wind_gusts":29.2,"aqi":88,"pm10":101.7,"pm2_5":46.8,"mosquito_risk":3,"arthritis_risk":5,"migraine_risk":7,"frizz_risk":1,"updated_at":"2026-04-15T08:18:02.565189+05:30"}]