[{"city":"Delhi","state":"Delhi","latitude":28.6139,"longitude":77.209,"temp":36.4,"humidity":42,"rain":0.0,"pressure":975.2,"uv_index":7.75,"wind_gusts":35.3,"aqi":165,"pm10":273.8,"pm2_5":108.0,"no2":41.3,"co":539.0,"o3":73.0,"so2":27.1,"mosquito_risk":0,"arthritis_risk":5,"migraine_risk":10,"frizz_risk":1,"updated_at":"2026-06-28T22:45:50.504183+05:30"},{"city":"Mumbai","state":"Maharashtra","latitude":19.076,"longitude":72.8777,"temp":26.1,"humidity":96,"rain":0.1,"pressure":1005.6,"uv_index":7.5,"wind_gusts":35.6,"aqi":54,"pm10":18.9,"pm2_5":10.7,"no2":8.8,"co":343.0,"o3":44.0,"so2":6.8,"mosquito_risk":10,"arthritis_risk":5,"migraine_risk":4,"frizz_risk":1,"updated_at":"2026-06-28T22:45:50.504230+05:30"},{"city":"Bangalore","state":"Karnataka","latitude":12.9716,"longitude":77.5946,"temp":22.1,"humidity":87,"rain":0.0,"pressure":910.5,"uv_index":8.1,"wind_gusts":55.8,"aqi":36,"pm10":4.6,"pm2_5":4.5,"no2":12.0,"co":264.0,"o3":36.0,"so2":4.5,"mosquito_risk":3,"arthritis_risk":5,"migraine_risk":7,"frizz_risk":1,"updated_at":"2026-06-28T22:45:50.504245+05:30"},{"city":"Hyderabad","state":"Telangana","latitude":17.385,"longitude":78.4867,"temp":23.7,"humidity":96,"rain":0.2,"pressure":950.6,"uv_index":8.55,"wind_gusts":41.4,"aqi":55,"pm10":14.5,"pm2_5":13.5,"no2":20.5,"co":301.0,"o3":47.0,"so2":9.4,"mosquito_risk":6,"arthritis_risk":5,"migraine_risk":7,"frizz_risk":1,"updated_at":"2026-06-28T22:45:50.504255+05:30"},{"city":"Chennai","state":"Tamil Nadu","latitude":13.0827,"longitude":80.2707,"temp":26.0,"humidity":95,"rain":0.0,"pressure":1006.0,"uv_index":8.9,"wind_gusts":40.7,"aqi":69,"pm10":24.0,"pm2_5":17.1,"no2":7.4,"co":274.0,"o3":97.0,"so2":6.8,"mosquito_risk":7,"arthritis_risk":5,"migraine_risk":4,"frizz_risk":1,"updated_at":"2026-06-28T22:45:50.504263+05:30"},{"city":"Kolkata","state":"West Bengal","latitude":22.5726,"longitude":88.3639,"temp":28.4,"humidity":91,"rain":0.0,"pressure":1001.0,"uv_index":8.85,"wind_gusts":33.1,"aqi":71,"pm10":29.8,"pm2_5":26.2,"no2":8.1,"co":274.0,"o3":85.0,"so2":7.7,"mosquito_risk":7,"arthritis_risk":5,"migraine_risk":4,"frizz_risk":1,"updated_at":"2026-06-28T22:45:50.504270+05:30"},{"city":"Pune","state":"Maharashtra","latitude":18.5204,"longitude":73.8567,"temp":23.6,"humidity":94,"rain":0.0,"pressure":945.3,"uv_index":6.1,"wind_gusts":43.6,"aqi":38,"pm10":6.3,"pm2_5":5.8,"no2":11.7,"co":158.0,"o3":40.0,"so2":7.5,"mosquito_risk":3,"arthritis_risk":5,"migraine_risk":7,"frizz_risk":1,"updated_at":"2026-06-28T22:45:50.504277+05:30"},{"city":"Ahmedabad","state":"Gujarat","latitude":23.0225,"longitude":72.5714,"temp":32.8,"humidity":60,"rain":0.0,"pressure":996.6,"uv_index":7.6,"wind_gusts":34.9,"aqi":70,"pm10":33.1,"pm2_5":19.5,"no2":7.9,"co":159.0,"o3":64.0,"so2":4.6,"mosquito_risk":0,"arthritis_risk":5,"migraine_risk":7,"frizz_risk":1,"updated_at":"2026-06-28T22:45:50.504284+05:30"},{"city":"Jaipur","state":"Rajasthan","latitude":26.9124,"longitude":75.7873,"temp":29.4,"humidity":71,"rain":0.2,"pressure":953.9,"uv_index":7.55,"wind_gusts":36.0,"aqi":144,"pm10":111.5,"pm2_5":48.4,"no2":10.1,"co":251.0,"o3":55.0,"so2":5.4,"mosquito_risk":10,"arthritis_risk":5,"migraine_risk":7,"frizz_risk":1,"updated_at":"2026-06-28T22:45:50.504290+05:30"},{"city":"Lucknow","state":"Uttar Pradesh","latitude":26.8467,"longitude":80.9462,"temp":34.3,"humidity":53,"rain":0.0,"pressure":985.7,"uv_index":8.3,"wind_gusts":33.8,"aqi":110,"pm10":118.7,"pm2_5":55.1,"no2":20.0,"co":240.0,"o3":70.0,"so2":10.3,"mosquito_risk":0,"arthritis_risk":5,"migraine_risk":7,"frizz_risk":1,"updated_at":"2026-06-28T22:45:50.504300+05:30"},{"city":"Kanpur","state":"Uttar Pradesh","latitude":26.4499,"longitude":80.3319,"temp":36.4,"humidity":42,"rain":0.0,"pressure":984.1,"uv_index":8.3,"wind_gusts":31.3,"aqi":105,"pm10":120.6,"pm2_5":50.9,"no2":22.3,"co":249.0,"o3":55.0,"so2":7.3,"mosquito_risk":0,"arthritis_risk":5,"migraine_risk":10,"frizz_risk":1,"updated_at":"2026-06-28T22:45:50.504307+05:30"},{"city":"Chandigarh","state":"Chandigarh","latitude":30.7333,"longitude":76.7794,"temp":31.6,"humidity":61,"rain":0.0,"pressure":960.8,"uv_index":7.8,"wind_gusts":28.1,"aqi":151,"pm10":67.3,"pm2_5":60.1,"no2":33.2,"co":650.0,"o3":68.0,"so2":12.4,"mosquito_risk":3,"arthritis_risk":5,"migraine_risk":7,"frizz_risk":1,"updated_at":"2026-06-28T22:45:50.504313+05:30"},{"city":"Srinagar","state":"Jammu and Kashmir","latitude":34.0837,"longitude":74.7973,"temp":25.2,"humidity":59,"rain":0.0,"pressure":837.0,"uv_index":9.1,"wind_gusts":28.1,"aqi":74,"pm10":44.2,"pm2_5":41.8,"no2":30.6,"co":666.0,"o3":20.0,"so2":1.4,"mosquito_risk":4,"arthritis_risk":5,"migraine_risk":7,"frizz_risk":1,"updated_at":"2026-06-28T22:45:50.504319+05:30"},{"city":"Jammu","state":"Jammu and Kashmir","latitude":32.7266,"longitude":74.857,"temp":33.6,"humidity":53,"rain":0.0,"pressure":963.8,"uv_index":8.65,"wind_gusts":31.0,"aqi":115,"pm10":60.1,"pm2_5":51.0,"no2":32.1,"co":431.0,"o3":43.0,"so2":6.5,"mosquito_risk":0,"arthritis_risk":5,"migraine_risk":7,"frizz_risk":1,"updated_at":"2026-06-28T22:45:50.504325+05:30"},{"city":"Amritsar","state":"Punjab","latitude":31.634,"longitude":74.8723,"temp":31.4,"humidity":76,"rain":0.0,"pressure":971.1,"uv_index":8.5,"wind_gusts":44.6,"aqi":156,"pm10":87.5,"pm2_5":75.0,"no2":42.6,"co":591.0,"o3":51.0,"so2":10.4,"mosquito_risk":3,"arthritis_risk":5,"migraine_risk":7,"frizz_risk":1,"updated_at":"2026-06-28T22:45:50.504331+05:30"},{"city":"Ludhiana","state":"Punjab","latitude":30.901,"longitude":75.8573,"temp":33.6,"humidity":60,"rain":0.0,"pressure":969.9,"uv_index":8.0,"wind_gusts":60.8,"aqi":163,"pm10":92.4,"pm2_5":75.7,"no2":31.8,"co":797.0,"o3":76.0,"so2":9.9,"mosquito_risk":0,"arthritis_risk":5,"migraine_risk":7,"frizz_risk":1,"updated_at":"2026-06-28T22:45:50.504353+05:30"},{"city":"Jalandhar","state":"Punjab","latitude":31.326,"longitude":75.5762,"temp":31.7,"humidity":77,"rain":0.0,"pressure":970.6,"uv_index":8.25,"wind_gusts":56.9,"aqi":164,"pm10":100.8,"pm2_5":82.9,"no2":39.3,"co":771.0,"o3":65.0,"so2":8.9,"mosquito_risk":3,"arthritis_risk":5,"migraine_risk":7,"frizz_risk":1,"updated_at":"2026-06-28T22:45:50.504359+05:30"},{"city":"Dehradun","state":"Uttarakhand","latitude":30.6284,"longitude":78.0322,"temp":18.9,"humidity":95,"rain":0.0,"pressure":826.7,"uv_index":7.05,"wind_gusts":34.9,"aqi":96,"pm10":43.4,"pm2_5":33.8,"no2":20.0,"co":266.0,"o3":79.0,"so2":1.9,"mosquito_risk":3,"arthritis_risk":10,"migraine_risk":7,"frizz_risk":1,"updated_at":"2026-06-28T22:45:50.504366+05:30"},{"city":"Shimla","state":"Himachal Pradesh","latitude":31.1048,"longitude":77.1734,"temp":16.3,"humidity":91,"rain":0.0,"pressure":780.9,"uv_index":7.5,"wind_gusts":32.0,"aqi":116,"pm10":51.8,"pm2_5":44.4,"no2":23.2,"co":409.0,"o3":50.0,"so2":0.7,"mosquito_risk":3,"arthritis_risk":10,"migraine_risk":7,"frizz_risk":0,"updated_at":"2026-06-28T22:45:50.504372+05:30"},{"city":"Manali","state":"Himachal Pradesh","latitude":32.2396,"longitude":77.1887,"temp":18.4,"humidity":80,"rain":0.0,"pressure":815.4,"uv_index":9.05,"wind_gusts":35.3,"aqi":55,"pm10":15.0,"pm2_5":13.1,"no2":77.0,"co":287.0,"o3":23.0,"so2":0.0,"mosquito_risk":3,"arthritis_risk":5,"migraine_risk":7,"frizz_risk":0,"updated_at":"2026-06-28T22:45:50.504380+05:30"},{"city":"Gurgaon","state":"Haryana","latitude":28.4595,"longitude":77.0266,"temp":33.4,"humidity":56,"rain":0.0,"pressure":973.6,"uv_index":7.8,"wind_gusts":37.1,"aqi":175,"pm10":271.0,"pm2_5":98.0,"no2":39.7,"co":827.0,"o3":83.0,"so2":27.8,"mosquito_risk":0,"arthritis_risk":5,"migraine_risk":7,"frizz_risk":1,"updated_at":"2026-06-28T22:45:50.504387+05:30"},{"city":"Noida","state":"Uttar Pradesh","latitude":28.5355,"longitude":77.391,"temp":32.3,"humidity":72,"rain":0.0,"pressure":976.4,"uv_index":7.8,"wind_gusts":23.4,"aqi":175,"pm10":271.0,"pm2_5":98.0,"no2":39.7,"co":1336.0,"o3":83.0,"so2":27.8,"mosquito_risk":3,"arthritis_risk":5,"migraine_risk":7,"frizz_risk":1,"updated_at":"2026-06-28T22:45:50.504393+05:30"},{"city":"Ghaziabad","state":"Uttar Pradesh","latitude":28.6692,"longitude":77.4538,"temp":33.3,"humidity":61,"rain":0.0,"pressure":974.7,"uv_index":7.75,"wind_gusts":26.3,"aqi":165,"pm10":199.8,"pm2_5":103.4,"no2":40.3,"co":726.0,"o3":87.0,"so2":28.1,"mosquito_risk":3,"arthritis_risk":5,"migraine_risk":7,"frizz_risk":1,"updated_at":"2026-06-28T22:45:50.504398+05:30"},{"city":"Faridabad","state":"Haryana","latitude":28.4089,"longitude":77.3178,"temp":35.5,"humidity":45,"rain":0.0,"pressure":975.8,"uv_index":7.8,"wind_gusts":28.8,"aqi":175,"pm10":271.0,"pm2_5":98.0,"no2":39.7,"co":1047.0,"o3":83.0,"so2":27.8,"mosquito_risk":0,"arthritis_risk":5,"migraine_risk":10,"frizz_risk":1,"updated_at":"2026-06-28T22:45:50.504404+05:30"},{"city":"Meerut","state":"Uttar Pradesh","latitude":28.9845,"longitude":77.7064,"temp":33.9,"humidity":56,"rain":0.0,"pressure":973.6,"uv_index":7.6,"wind_gusts":28.1,"aqi":165,"pm10":199.8,"pm2_5":103.4,"no2":40.3,"co":616.0,"o3":87.0,"so2":28.1,"mosquito_risk":0,"arthritis_risk":5,"migraine_risk":7,"frizz_risk":1,"updated_at":"2026-06-28T22:45:50.504411+05:30"},{"city":"Agra","state":"Uttar Pradesh","latitude":27.1767,"longitude":78.0081,"temp":34.0,"humidity":52,"rain":0.0,"pressure":979.8,"uv_index":7.9,"wind_gusts":44.3,"aqi":199,"pm10":225.4,"pm2_5":66.6,"no2":26.0,"co":260.0,"o3":48.0,"so2":9.6,"mosquito_risk":0,"arthritis_risk":5,"migraine_risk":7,"frizz_risk":1,"updated_at":"2026-06-28T22:45:50.504417+05:30"},{"city":"Varanasi","state":"Uttar Pradesh","latitude":25.3176,"longitude":82.9739,"temp":33.1,"humidity":58,"rain":0.0,"pressure":990.8,"uv_index":8.8,"wind_gusts":33.8,"aqi":113,"pm10":69.2,"pm2_5":58.6,"no2":26.9,"co":408.0,"o3":57.0,"so2":11.3,"mosquito_risk":0,"arthritis_risk":5,"migraine_risk":7,"frizz_risk":1,"updated_at":"2026-06-28T22:45:50.504423+05:30"},{"city":"Prayagraj","state":"Uttar Pradesh","latitude":25.4358,"longitude":81.8463,"temp":34.0,"humidity":56,"rain":0.0,"pressure":988.9,"uv_index":8.7,"wind_gusts":34.9,"aqi":105,"pm10":49.4,"pm2_5":36.2,"no2":16.0,"co":220.0,"o3":73.0,"so2":8.7,"mosquito_risk":0,"arthritis_risk":5,"migraine_risk":7,"frizz_risk":1,"updated_at":"2026-06-28T22:45:50.504429+05:30"},{"city":"Gorakhpur","state":"Uttar Pradesh","latitude":26.7606,"longitude":83.3732,"temp":31.0,"humidity":78,"rain":0.0,"pressure":990.3,"uv_index":8.4,"wind_gusts":33.5,"aqi":154,"pm10":96.9,"pm2_5":79.6,"no2":39.2,"co":531.0,"o3":38.0,"so2":12.0,"mosquito_risk":3,"arthritis_risk":5,"migraine_risk":7,"frizz_risk":1,"updated_at":"2026-06-28T22:45:50.504435+05:30"},{"city":"Bareilly","state":"Uttar Pradesh","latitude":28.367,"longitude":79.4304,"temp":33.6,"humidity":52,"rain":0.0,"pressure":978.9,"uv_index":8.1,"wind_gusts":24.1,"aqi":151,"pm10":75.4,"pm2_5":47.8,"no2":16.9,"co":714.0,"o3":88.0,"so2":8.0,"mosquito_risk":0,"arthritis_risk":5,"migraine_risk":7,"frizz_risk":1,"updated_at":"2026-06-28T22:45:50.504442+05:30"},{"city":"Aligarh","state":"Uttar Pradesh","latitude":27.8974,"longitude":78.088,"temp":33.4,"humidity":63,"rain":0.0,"pressure":977.3,"uv_index":7.35,"wind_gusts":30.6,"aqi":170,"pm10":224.9,"pm2_5":94.1,"no2":49.0,"co":589.0,"o3":31.0,"so2":12.6,"mosquito_risk":3,"arthritis_risk":5,"migraine_risk":7,"frizz_risk":1,"updated_at":"2026-06-28T22:45:50.504447+05:30"},{"city":"Moradabad","state":"Uttar Pradesh","latitude":28.8386,"longitude":78.7733,"temp":34.0,"humidity":57,"rain":0.0,"pressure":975.6,"uv_index":7.7,"wind_gusts":28.8,"aqi":163,"pm10":170.0,"pm2_5":83.4,"no2":31.2,"co":791.0,"o3":73.0,"so2":14.0,"mosquito_risk":0,"arthritis_risk":5,"migraine_risk":7,"frizz_risk":1,"updated_at":"2026-06-28T22:45:50.504454+05:30"},{"city":"Saharanpur","state":"Uttar Pradesh","latitude":29.9637,"longitude":77.546,"temp":32.3,"humidity":65,"rain":0.0,"pressure":967.8,"uv_index":7.45,"wind_gusts":44.3,"aqi":160,"pm10":130.9,"pm2_5":93.8,"no2":34.5,"co":624.0,"o3":102.0,"so2":22.7,"mosquito_risk":3,"arthritis_risk":5,"migraine_risk":7,"frizz_risk":1,"updated_at":"2026-06-28T22:45:50.504459+05:30"},{"city":"Jhansi","state":"Uttar Pradesh","latitude":25.4484,"longitude":78.5685,"temp":27.5,"humidity":86,"rain":0.0,"pressure":972.1,"uv_index":3.75,"wind_gusts":47.2,"aqi":73,"pm10":36.0,"pm2_5":23.1,"no2":8.1,"co":198.0,"o3":61.0,"so2":2.9,"mosquito_risk":7,"arthritis_risk":5,"migraine_risk":3,"frizz_risk":1,"updated_at":"2026-06-28T22:45:53.809655+05:30"},{"city":"Surat","state":"Gujarat","latitude":21.1702,"longitude":72.8311,"temp":30.4,"humidity":74,"rain":0.0,"pressure":1002.5,"uv_index":7.55,"wind_gusts":44.3,"aqi":76,"pm10":37.4,"pm2_5":22.0,"no2":16.6,"co":181.0,"o3":38.0,"so2":27.7,"mosquito_risk":3,"arthritis_risk":5,"migraine_risk":4,"frizz_risk":1,"updated_at":"2026-06-28T22:45:53.809689+05:30"},{"city":"Vadodara","state":"Gujarat","latitude":22.3072,"longitude":73.1812,"temp":31.3,"humidity":67,"rain":0.0,"pressure":999.3,"uv_index":8.0,"wind_gusts":44.3,"aqi":74,"pm10":28.9,"pm2_5":18.3,"no2":18.0,"co":179.0,"o3":40.0,"so2":21.2,"mosquito_risk":3,"arthritis_risk":5,"migraine_risk":7,"frizz_risk":1,"updated_at":"2026-06-28T22:45:53.809700+05:30"},{"city":"Rajkot","state":"Gujarat","latitude":22.3039,"longitude":70.8022,"temp":30.8,"humidity":64,"rain":0.0,"pressure":990.0,"uv_index":7.55,"wind_gusts":39.6,"aqi":65,"pm10":26.7,"pm2_5":13.5,"no2":4.8,"co":108.0,"o3":51.0,"so2":5.0,"mosquito_risk":3,"arthritis_risk":5,"migraine_risk":7,"frizz_risk":1,"updated_at":"2026-06-28T22:45:53.809710+05:30"},{"city":"Thane","state":"Maharashtra","latitude":19.2183,"longitude":72.9781,"temp":25.4,"humidity":97,"rain":0.0,"pressure":1005.3,"uv_index":5.15,"wind_gusts":25.9,"aqi":54,"pm10":18.9,"pm2_5":10.7,"no2":8.8,"co":248.0,"o3":44.0,"so2":6.8,"mosquito_risk":7,"arthritis_risk":5,"migraine_risk":0,"frizz_risk":1,"updated_at":"2026-06-28T22:45:53.809719+05:30"},{"city":"Nagpur","state":"Maharashtra","latitude":21.1458,"longitude":79.0882,"temp":28.4,"humidity":81,"rain":0.0,"pressure":969.3,"uv_index":8.85,"wind_gusts":38.9,"aqi":93,"pm10":37.6,"pm2_5":32.8,"no2":15.7,"co":299.0,"o3":67.0,"so2":15.4,"mosquito_risk":7,"arthritis_risk":5,"migraine_risk":7,"frizz_risk":1,"updated_at":"2026-06-28T22:45:53.809728+05:30"},{"city":"Nashik","state":"Maharashtra","latitude":19.9975,"longitude":73.7898,"temp":23.9,"humidity":90,"rain":0.0,"pressure":942.6,"uv_index":7.35,"wind_gusts":36.7,"aqi":49,"pm10":16.5,"pm2_5":9.4,"no2":6.1,"co":137.0,"o3":49.0,"so2":3.2,"mosquito_risk":3,"arthritis_risk":5,"migraine_risk":7,"frizz_risk":1,"updated_at":"2026-06-28T22:45:53.809738+05:30"},{"city":"Aurangabad","state":"Maharashtra","latitude":19.8762,"longitude":75.3433,"temp":24.6,"humidity":89,"rain":0.0,"pressure":941.1,"uv_index":6.9,"wind_gusts":28.8,"aqi":60,"pm10":26.5,"pm2_5":19.3,"no2":11.5,"co":182.0,"o3":49.0,"so2":4.0,"mosquito_risk":3,"arthritis_risk":5,"migraine_risk":7,"frizz_risk":1,"updated_at":"2026-06-28T22:45:53.809747+05:30"},{"city":"Solapur","state":"Maharashtra","latitude":17.6599,"longitude":75.9064,"temp":24.8,"humidity":95,"rain":0.1,"pressure":954.8,"uv_index":8.55,"wind_gusts":27.7,"aqi":44,"pm10":9.2,"pm2_5":7.9,"no2":6.4,"co":172.0,"o3":69.0,"so2":1.8,"mosquito_risk":6,"arthritis_risk":5,"migraine_risk":7,"frizz_risk":1,"updated_at":"2026-06-28T22:45:53.809757+05:30"},{"city":"Kolhapur","state":"Maharashtra","latitude":16.705,"longitude":74.2433,"temp":23.3,"humidity":94,"rain":0.0,"pressure":945.7,"uv_index":7.2,"wind_gusts":42.8,"aqi":25,"pm10":4.6,"pm2_5":4.5,"no2":6.3,"co":158.0,"o3":39.0,"so2":2.5,"mosquito_risk":3,"arthritis_risk":5,"migraine_risk":7,"frizz_risk":1,"updated_at":"2026-06-28T22:45:53.809765+05:30"},{"city":"Goa","state":"Goa","latitude":15.2993,"longitude":74.124,"temp":24.5,"humidity":99,"rain":0.1,"pressure":997.1,"uv_index":4.55,"wind_gusts":31.3,"aqi":30,"pm10":13.0,"pm2_5":8.1,"no2":2.7,"co":230.0,"o3":51.0,"so2":1.0,"mosquito_risk":6,"arthritis_risk":5,"migraine_risk":3,"frizz_risk":1,"updated_at":"2026-06-28T22:45:53.809774+05:30"},{"city":"Jodhpur","state":"Rajasthan","latitude":26.2389,"longitude":73.0243,"temp":34.0,"humidity":41,"rain":0.0,"pressure":976.6,"uv_index":8.4,"wind_gusts":38.9,"aqi":134,"pm10":228.2,"pm2_5":51.6,"no2":5.3,"co":144.0,"o3":55.0,"so2":1.6,"mosquito_risk":0,"arthritis_risk":5,"migraine_risk":7,"frizz_risk":1,"updated_at":"2026-06-28T22:45:53.809783+05:30"},{"city":"Udaipur","state":"Rajasthan","latitude":24.5854,"longitude":73.7125,"temp":28.2,"humidity":67,"rain":0.0,"pressure":941.5,"uv_index":8.65,"wind_gusts":28.1,"aqi":67,"pm10":33.4,"pm2_5":17.6,"no2":5.1,"co":152.0,"o3":63.0,"so2":2.1,"mosquito_risk":7,"arthritis_risk":5,"migraine_risk":7,"frizz_risk":1,"updated_at":"2026-06-28T22:45:53.809792+05:30"},{"city":"Kota","state":"Rajasthan","latitude":25.2138,"longitude":75.8648,"temp":31.3,"humidity":61,"rain":0.0,"pressure":972.9,"uv_index":8.3,"wind_gusts":36.7,"aqi":74,"pm10":25.7,"pm2_5":17.8,"no2":8.4,"co":229.0,"o3":58.0,"so2":3.0,"mosquito_risk":3,"arthritis_risk":5,"migraine_risk":7,"frizz_risk":1,"updated_at":"2026-06-28T22:45:53.809801+05:30"},{"city":"Bikaner","state":"Rajasthan","latitude":28.0229,"longitude":73.3119,"temp":36.1,"humidity":34,"rain":0.0,"pressure":973.6,"uv_index":8.45,"wind_gusts":37.4,"aqi":122,"pm10":108.0,"pm2_5":37.4,"no2":2.5,"co":124.0,"o3":67.0,"so2":2.4,"mosquito_risk":0,"arthritis_risk":5,"migraine_risk":10,"frizz_risk":1,"updated_at":"2026-06-28T22:45:53.809809+05:30"},{"city":"Ajmer","state":"Rajasthan","latitude":26.4499,"longitude":74.6399,"temp":31.5,"humidity":49,"rain":0.0,"pressure":949.1,"uv_index":8.35,"wind_gusts":47.2,"aqi":96,"pm10":64.5,"pm2_5":31.4,"no2":8.1,"co":167.0,"o3":56.0,"so2":4.1,"mosquito_risk":0,"arthritis_risk":5,"migraine_risk":7,"frizz_risk":1,"updated_at":"2026-06-28T22:45:53.809818+05:30"},{"city":"Gwalior","state":"Madhya Pradesh","latitude":26.2183,"longitude":78.1828,"temp":31.4,"humidity":59,"rain":0.1,"pressure":976.6,"uv_index":8.25,"wind_gusts":52.2,"aqi":85,"pm10":94.3,"pm2_5":42.0,"no2":8.1,"co":174.0,"o3":60.0,"so2":4.3,"mosquito_risk":3,"arthritis_risk":5,"migraine_risk":7,"frizz_risk":1,"updated_at":"2026-06-28T22:45:53.809827+05:30"},{"city":"Indore","state":"Madhya Pradesh","latitude":22.7196,"longitude":75.8577,"temp":26.5,"humidity":76,"rain":0.0,"pressure":943.8,"uv_index":8.3,"wind_gusts":34.6,"aqi":86,"pm10":49.6,"pm2_5":36.2,"no2":18.4,"co":367.0,"o3":47.0,"so2":7.6,"mosquito_risk":7,"arthritis_risk":5,"migraine_risk":7,"frizz_risk":1,"updated_at":"2026-06-28T22:45:53.809835+05:30"},{"city":"Bhopal","state":"Madhya Pradesh","latitude":23.2599,"longitude":77.4126,"temp":27.6,"humidity":82,"rain":0.0,"pressure":949.2,"uv_index":8.5,"wind_gusts":37.1,"aqi":86,"pm10":36.2,"pm2_5":27.6,"no2":7.4,"co":325.0,"o3":74.0,"so2":4.4,"mosquito_risk":7,"arthritis_risk":5,"migraine_risk":7,"frizz_risk":1,"updated_at":"2026-06-28T22:45:53.809844+05:30"},{"city":"Jabalpur","state":"Madhya Pradesh","latitude":23.1815,"longitude":79.9864,"temp":29.7,"humidity":69,"rain":0.0,"pressure":956.7,"uv_index":8.85,"wind_gusts":25.6,"aqi":80,"pm10":29.5,"pm2_5":25.8,"no2":7.9,"co":273.0,"o3":82.0,"so2":3.4,"mosquito_risk":7,"arthritis_risk":5,"migraine_risk":7,"frizz_risk":1,"updated_at":"2026-06-28T22:45:53.809853+05:30"},{"city":"Ujjain","state":"Madhya Pradesh","latitude":23.1765,"longitude":75.7885,"temp":27.0,"humidity":76,"rain":0.0,"pressure":949.3,"uv_index":8.5,"wind_gusts":37.1,"aqi":80,"pm10":45.3,"pm2_5":35.0,"no2":13.2,"co":366.0,"o3":47.0,"so2":4.3,"mosquito_risk":7,"arthritis_risk":5,"migraine_risk":7,"frizz_risk":1,"updated_at":"2026-06-28T22:45:53.809863+05:30"},{"city":"Visakhapatnam","state":"Andhra Pradesh","latitude":17.6868,"longitude":83.2185,"temp":28.4,"humidity":90,"rain":0.0,"pressure":1000.2,"uv_index":8.25,"wind_gusts":46.1,"aqi":77,"pm10":33.5,"pm2_5":26.8,"no2":20.9,"co":300.0,"o3":86.0,"so2":33.8,"mosquito_risk":7,"arthritis_risk":5,"migraine_risk":4,"frizz_risk":1,"updated_at":"2026-06-28T22:45:53.809871+05:30"},{"city":"Vijayawada","state":"Andhra Pradesh","latitude":16.5062,"longitude":80.648,"temp":29.3,"humidity":80,"rain":0.1,"pressure":999.4,"uv_index":7.45,"wind_gusts":40.3,"aqi":76,"pm10":22.4,"pm2_5":19.6,"no2":8.1,"co":306.0,"o3":79.0,"so2":5.5,"mosquito_risk":10,"arthritis_risk":5,"migraine_risk":7,"frizz_risk":1,"updated_at":"2026-06-28T22:45:53.809880+05:30"},{"city":"Guntur","state":"Andhra Pradesh","latitude":16.3067,"longitude":80.4365,"temp":28.2,"humidity":85,"rain":0.0,"pressure":1000.8,"uv_index":6.6,"wind_gusts":44.3,"aqi":71,"pm10":17.5,"pm2_5":15.6,"no2":8.1,"co":372.0,"o3":77.0,"so2":3.8,"mosquito_risk":7,"arthritis_risk":5,"migraine_risk":4,"frizz_risk":1,"updated_at":"2026-06-28T22:45:53.809889+05:30"},{"city":"Nellore","state":"Andhra Pradesh","latitude":14.4426,"longitude":79.9865,"temp":27.1,"humidity":94,"rain":0.1,"pressure":1004.1,"uv_index":8.1,"wind_gusts":33.1,"aqi":71,"pm10":17.9,"pm2_5":14.3,"no2":5.6,"co":211.0,"o3":89.0,"so2":4.6,"mosquito_risk":10,"arthritis_risk":5,"migraine_risk":4,"frizz_risk":1,"updated_at":"2026-06-28T22:45:53.809898+05:30"},{"city":"Kurnool","state":"Andhra Pradesh","latitude":15.8281,"longitude":78.0373,"temp":25.4,"humidity":93,"rain":0.1,"pressure":974.9,"uv_index":7.65,"wind_gusts":55.8,"aqi":37,"pm10":6.8,"pm2_5":6.7,"no2":10.5,"co":152.0,"o3":44.0,"so2":6.8,"mosquito_risk":10,"arthritis_risk":5,"migraine_risk":7,"frizz_risk":1,"updated_at":"2026-06-28T22:45:53.809908+05:30"},{"city":"Kakinada","state":"Andhra Pradesh","latitude":16.9891,"longitude":82.2475,"temp":28.5,"humidity":89,"rain":0.0,"pressure":1004.0,"uv_index":6.85,"wind_gusts":37.4,"aqi":77,"pm10":30.9,"pm2_5":22.8,"no2":3.0,"co":267.0,"o3":117.0,"so2":4.4,"mosquito_risk":7,"arthritis_risk":5,"migraine_risk":4,"frizz_risk":1,"updated_at":"2026-06-28T22:45:53.809916+05:30"},{"city":"Tirupati","state":"Andhra Pradesh","latitude":13.6288,"longitude":79.4192,"temp":26.0,"humidity":94,"rain":0.2,"pressure":989.8,"uv_index":8.75,"wind_gusts":37.4,"aqi":54,"pm10":15.7,"pm2_5":12.1,"no2":11.7,"co":227.0,"o3":58.0,"so2":2.3,"mosquito_risk":10,"arthritis_risk":5,"migraine_risk":7,"frizz_risk":1,"updated_at":"2026-06-28T22:45:53.809925+05:30"},{"city":"Warangal","state":"Telangana","latitude":17.9689,"longitude":79.5941,"temp":26.5,"humidity":89,"rain":0.0,"pressure":975.2,"uv_index":8.2,"wind_gusts":25.9,"aqi":72,"pm10":34.7,"pm2_5":31.0,"no2":15.3,"co":286.0,"o3":50.0,"so2":4.1,"mosquito_risk":7,"arthritis_risk":5,"migraine_risk":7,"frizz_risk":1,"updated_at":"2026-06-28T22:45:53.809933+05:30"},{"city":"Nizamabad","state":"Telangana","latitude":18.6725,"longitude":78.0941,"temp":25.8,"humidity":93,"rain":0.0,"pressure":961.7,"uv_index":8.4,"wind_gusts":36.0,"aqi":84,"pm10":24.5,"pm2_5":21.0,"no2":11.6,"co":235.0,"o3":66.0,"so2":3.4,"mosquito_risk":7,"arthritis_risk":5,"migraine_risk":7,"frizz_risk":1,"updated_at":"2026-06-28T22:45:53.809942+05:30"},{"city":"Mysore","state":"Karnataka","latitude":12.2958,"longitude":76.6396,"temp":22.5,"humidity":89,"rain":0.0,"pressure":927.9,"uv_index":7.45,"wind_gusts":56.2,"aqi":25,"pm10":3.4,"pm2_5":3.3,"no2":6.9,"co":127.0,"o3":38.0,"so2":2.0,"mosquito_risk":3,"arthritis_risk":5,"migraine_risk":7,"frizz_risk":1,"updated_at":"2026-06-28T22:45:53.809950+05:30"},{"city":"Mangalore","state":"Karnataka","latitude":12.9141,"longitude":74.856,"temp":24.8,"humidity":95,"rain":0.4,"pressure":1006.9,"uv_index":8.1,"wind_gusts":45.0,"aqi":34,"pm10":11.1,"pm2_5":7.4,"no2":4.1,"co":160.0,"o3":45.0,"so2":1.5,"mosquito_risk":6,"arthritis_risk":5,"migraine_risk":4,"frizz_risk":1,"updated_at":"2026-06-28T22:45:53.809976+05:30"},{"city":"Hubli-Dharwad","state":"Karnataka","latitude":15.3647,"longitude":75.124,"temp":22.8,"humidity":94,"rain":0.0,"pressure":939.1,"uv_index":7.75,"wind_gusts":40.3,"aqi":22,"pm10":2.8,"pm2_5":2.5,"no2":4.8,"co":124.0,"o3":42.0,"so2":1.5,"mosquito_risk":3,"arthritis_risk":5,"migraine_risk":7,"frizz_risk":1,"updated_at":"2026-06-28T22:45:53.809985+05:30"},{"city":"Belgaum","state":"Karnataka","latitude":15.8497,"longitude":74.4977,"temp":21.6,"humidity":97,"rain":0.0,"pressure":923.7,"uv_index":7.2,"wind_gusts":45.0,"aqi":22,"pm10":2.9,"pm2_5":2.4,"no2":3.8,"co":119.0,"o3":44.0,"so2":1.2,"mosquito_risk":3,"arthritis_risk":5,"migraine_risk":7,"frizz_risk":1,"updated_at":"2026-06-28T22:45:57.130502+05:30"},{"city":"Coimbatore","state":"Tamil Nadu","latitude":11.0168,"longitude":76.9558,"temp":23.6,"humidity":91,"rain":0.0,"pressure":961.0,"uv_index":8.9,"wind_gusts":60.8,"aqi":25,"pm10":4.2,"pm2_5":3.6,"no2":5.3,"co":169.0,"o3":38.0,"so2":2.3,"mosquito_risk":3,"arthritis_risk":5,"migraine_risk":7,"frizz_risk":1,"updated_at":"2026-06-28T22:45:57.130535+05:30"},{"city":"Madurai","state":"Tamil Nadu","latitude":9.9252,"longitude":78.1198,"temp":28.7,"humidity":67,"rain":0.0,"pressure":992.1,"uv_index":8.8,"wind_gusts":57.6,"aqi":63,"pm10":18.2,"pm2_5":15.5,"no2":25.0,"co":140.0,"o3":18.0,"so2":5.8,"mosquito_risk":7,"arthritis_risk":5,"migraine_risk":7,"frizz_risk":1,"updated_at":"2026-06-28T22:45:57.130546+05:30"},{"city":"Trichy","state":"Tamil Nadu","latitude":10.7905,"longitude":78.7047,"temp":26.5,"humidity":95,"rain":0.0,"pressure":999.1,"uv_index":8.65,"wind_gusts":49.3,"aqi":47,"pm10":16.8,"pm2_5":12.8,"no2":12.8,"co":112.0,"o3":53.0,"so2":3.7,"mosquito_risk":7,"arthritis_risk":5,"migraine_risk":7,"frizz_risk":1,"updated_at":"2026-06-28T22:45:57.130554+05:30"},{"city":"Salem","state":"Tamil Nadu","latitude":11.6643,"longitude":78.146,"temp":26.1,"humidity":93,"rain":0.0,"pressure":976.6,"uv_index":8.85,"wind_gusts":43.6,"aqi":53,"pm10":12.7,"pm2_5":10.5,"no2":12.5,"co":324.0,"o3":45.0,"so2":6.7,"mosquito_risk":7,"arthritis_risk":5,"migraine_risk":7,"frizz_risk":1,"updated_at":"2026-06-28T22:45:57.130562+05:30"},{"city":"Tirunelveli","state":"Tamil Nadu","latitude":8.7139,"longitude":77.7567,"temp":29.2,"humidity":63,"rain":0.0,"pressure":1002.6,"uv_index":8.65,"wind_gusts":46.4,"aqi":30,"pm10":4.1,"pm2_5":3.5,"no2":5.2,"co":141.0,"o3":38.0,"so2":1.4,"mosquito_risk":7,"arthritis_risk":5,"migraine_risk":4,"frizz_risk":1,"updated_at":"2026-06-28T22:45:57.130570+05:30"},{"city":"Vellore","state":"Tamil Nadu","latitude":12.9165,"longitude":79.1325,"temp":25.7,"humidity":96,"rain":0.0,"pressure":983.2,"uv_index":8.95,"wind_gusts":31.0,"aqi":56,"pm10":15.3,"pm2_5":12.7,"no2":10.1,"co":184.0,"o3":56.0,"so2":3.0,"mosquito_risk":7,"arthritis_risk":5,"migraine_risk":7,"frizz_risk":1,"updated_at":"2026-06-28T22:45:57.130577+05:30"},{"city":"Erode","state":"Tamil Nadu","latitude":11.341,"longitude":77.7172,"temp":26.7,"humidity":76,"rain":0.0,"pressure":988.5,"uv_index":8.85,"wind_gusts":51.1,"aqi":41,"pm10":9.3,"pm2_5":8.5,"no2":12.9,"co":160.0,"o3":33.0,"so2":3.2,"mosquito_risk":7,"arthritis_risk":5,"migraine_risk":7,"frizz_risk":1,"updated_at":"2026-06-28T22:45:57.130585+05:30"},{"city":"Kochi","state":"Kerala","latitude":9.9312,"longitude":76.2673,"temp":25.5,"humidity":93,"rain":0.2,"pressure":1010.1,"uv_index":8.55,"wind_gusts":43.9,"aqi":44,"pm10":10.9,"pm2_5":8.4,"no2":9.4,"co":117.0,"o3":31.0,"so2":3.1,"mosquito_risk":10,"arthritis_risk":0,"migraine_risk":4,"frizz_risk":1,"updated_at":"2026-06-28T22:45:57.130593+05:30"},{"city":"Thiruvananthapuram","state":"Kerala","latitude":8.5241,"longitude":76.9366,"temp":24.3,"humidity":97,"rain":0.1,"pressure":1009.2,"uv_index":7.65,"wind_gusts":46.8,"aqi":35,"pm10":10.7,"pm2_5":6.0,"no2":2.6,"co":154.0,"o3":51.0,"so2":1.0,"mosquito_risk":6,"arthritis_risk":0,"migraine_risk":4,"frizz_risk":1,"updated_at":"2026-06-28T22:45:57.130600+05:30"},{"city":"Kozhikode","state":"Kerala","latitude":11.2588,"longitude":75.7804,"temp":23.9,"humidity":99,"rain":0.2,"pressure":1008.9,"uv_index":8.55,"wind_gusts":39.2,"aqi":32,"pm10":10.7,"pm2_5":5.8,"no2":1.0,"co":186.0,"o3":56.0,"so2":0.6,"mosquito_risk":6,"arthritis_risk":0,"migraine_risk":4,"frizz_risk":1,"updated_at":"2026-06-28T22:45:57.130607+05:30"},{"city":"Thrissur","state":"Kerala","latitude":10.5276,"longitude":76.2144,"temp":24.0,"humidity":100,"rain":0.2,"pressure":1008.4,"uv_index":8.55,"wind_gusts":39.2,"aqi":47,"pm10":12.4,"pm2_5":10.5,"no2":8.4,"co":186.0,"o3":31.0,"so2":2.5,"mosquito_risk":6,"arthritis_risk":0,"migraine_risk":4,"frizz_risk":1,"updated_at":"2026-06-28T22:45:57.130615+05:30"},{"city":"Kannur","state":"Kerala","latitude":11.8745,"longitude":75.3704,"temp":24.4,"humidity":98,"rain":0.3,"pressure":1007.8,"uv_index":8.6,"wind_gusts":41.8,"aqi":36,"pm10":10.0,"pm2_5":6.7,"no2":5.4,"co":168.0,"o3":41.0,"so2":1.6,"mosquito_risk":6,"arthritis_risk":5,"migraine_risk":4,"frizz_risk":1,"updated_at":"2026-06-28T22:45:57.130623+05:30"},{"city":"Patna","state":"Bihar","latitude":25.5941,"longitude":85.1376,"temp":30.1,"humidity":86,"rain":0.2,"pressure":993.8,"uv_index":7.55,"wind_gusts":35.3,"aqi":152,"pm10":71.9,"pm2_5":64.5,"no2":22.0,"co":312.0,"o3":89.0,"so2":12.1,"mosquito_risk":6,"arthritis_risk":5,"migraine_risk":7,"frizz_risk":1,"updated_at":"2026-06-28T22:45:57.130629+05:30"},{"city":"Gaya","state":"Bihar","latitude":24.7914,"longitude":85.0002,"temp":31.4,"humidity":67,"rain":0.1,"pressure":987.6,"uv_index":8.6,"wind_gusts":35.6,"aqi":122,"pm10":63.1,"pm2_5":59.6,"no2":21.7,"co":291.0,"o3":74.0,"so2":12.2,"mosquito_risk":6,"arthritis_risk":5,"migraine_risk":7,"frizz_risk":1,"updated_at":"2026-06-28T22:45:57.130636+05:30"},{"city":"Muzaffarpur","state":"Bihar","latitude":26.1209,"longitude":85.3647,"temp":28.4,"humidity":92,"rain":0.0,"pressure":994.0,"uv_index":8.2,"wind_gusts":29.5,"aqi":156,"pm10":63.8,"pm2_5":58.2,"no2":18.2,"co":375.0,"o3":98.0,"so2":9.7,"mosquito_risk":7,"arthritis_risk":5,"migraine_risk":7,"frizz_risk":1,"updated_at":"2026-06-28T22:45:57.130644+05:30"},{"city":"Bhagalpur","state":"Bihar","latitude":25.2425,"longitude":87.0117,"temp":28.3,"humidity":96,"rain":0.1,"pressure":995.2,"uv_index":7.75,"wind_gusts":30.6,"aqi":122,"pm10":49.9,"pm2_5":48.3,"no2":12.0,"co":294.0,"o3":111.0,"so2":15.0,"mosquito_risk":10,"arthritis_risk":5,"migraine_risk":7,"frizz_risk":1,"updated_at":"2026-06-28T22:45:57.130651+05:30"},{"city":"Ranchi","state":"Jharkhand","latitude":23.3441,"longitude":85.3096,"temp":25.7,"humidity":90,"rain":0.0,"pressure":933.5,"uv_index":9.0,"wind_gusts":31.3,"aqi":116,"pm10":46.1,"pm2_5":45.3,"no2":10.1,"co":305.0,"o3":98.0,"so2":7.3,"mosquito_risk":7,"arthritis_risk":5,"migraine_risk":7,"frizz_risk":1,"updated_at":"2026-06-28T22:45:57.130658+05:30"},{"city":"Jamshedpur","state":"Jharkhand","latitude":22.8046,"longitude":86.2029,"temp":29.1,"humidity":84,"rain":0.0,"pressure":986.0,"uv_index":8.85,"wind_gusts":31.3,"aqi":123,"pm10":54.5,"pm2_5":53.0,"no2":22.2,"co":943.0,"o3":80.0,"so2":28.7,"mosquito_risk":7,"arthritis_risk":5,"migraine_risk":7,"frizz_risk":1,"updated_at":"2026-06-28T22:45:57.130665+05:30"},{"city":"Dhanbad","state":"Jharkhand","latitude":23.7957,"longitude":86.4304,"temp":29.4,"humidity":83,"rain":0.0,"pressure":974.6,"uv_index":8.85,"wind_gusts":38.9,"aqi":155,"pm10":64.7,"pm2_5":64.0,"no2":44.3,"co":1433.0,"o3":70.0,"so2":117.2,"mosquito_risk":7,"arthritis_risk":5,"migraine_risk":7,"frizz_risk":1,"updated_at":"2026-06-28T22:45:57.130673+05:30"},{"city":"Bokaro","state":"Jharkhand","latitude":23.6693,"longitude":86.1511,"temp":30.1,"humidity":74,"rain":0.0,"pressure":978.4,"uv_index":8.95,"wind_gusts":35.3,"aqi":153,"pm10":53.9,"pm2_5":53.0,"no2":27.5,"co":1246.0,"o3":81.0,"so2":70.9,"mosquito_risk":3,"arthritis_risk":5,"migraine_risk":7,"frizz_risk":1,"updated_at":"2026-06-28T22:45:57.130680+05:30"},{"city":"Bhubaneswar","state":"Odisha","latitude":20.2961,"longitude":85.8245,"temp":27.7,"humidity":95,"rain":0.0,"pressure":998.2,"uv_index":8.35,"wind_gusts":35.3,"aqi":93,"pm10":35.4,"pm2_5":34.1,"no2":12.4,"co":177.0,"o3":91.0,"so2":8.2,"mosquito_risk":7,"arthritis_risk":5,"migraine_risk":7,"frizz_risk":1,"updated_at":"2026-06-28T22:45:57.130687+05:30"},{"city":"Cuttack","state":"Odisha","latitude":20.4625,"longitude":85.8828,"temp":28.1,"humidity":96,"rain":0.0,"pressure":999.9,"uv_index":8.85,"wind_gusts":27.4,"aqi":93,"pm10":35.4,"pm2_5":34.1,"no2":12.4,"co":216.0,"o3":91.0,"so2":8.2,"mosquito_risk":7,"arthritis_risk":5,"migraine_risk":7,"frizz_risk":1,"updated_at":"2026-06-28T22:45:57.130693+05:30"},{"city":"Rourkela","state":"Odisha","latitude":22.2604,"longitude":84.8536,"temp":28.2,"humidity":86,"rain":0.0,"pressure":980.9,"uv_index":9.0,"wind_gusts":31.3,"aqi":130,"pm10":49.8,"pm2_5":48.0,"no2":11.2,"co":363.0,"o3":120.0,"so2":20.4,"mosquito_risk":7,"arthritis_risk":5,"migraine_risk":7,"frizz_risk":1,"updated_at":"2026-06-28T22:45:57.130701+05:30"},{"city":"Raipur","state":"Chhattisgarh","latitude":21.2514,"longitude":81.6296,"temp":27.6,"humidity":89,"rain":0.0,"pressure":970.4,"uv_index":8.95,"wind_gusts":31.0,"aqi":115,"pm10":37.7,"pm2_5":35.0,"no2":24.4,"co":316.0,"o3":72.0,"so2":44.6,"mosquito_risk":7,"arthritis_risk":5,"migraine_risk":7,"frizz_risk":1,"updated_at":"2026-06-28T22:45:57.130708+05:30"},{"city":"Bhilai","state":"Chhattisgarh","latitude":21.1938,"longitude":81.3509,"temp":28.2,"humidity":88,"rain":0.0,"pressure":971.0,"uv_index":8.65,"wind_gusts":31.3,"aqi":110,"pm10":36.7,"pm2_5":33.9,"no2":22.4,"co":586.0,"o3":80.0,"so2":40.7,"mosquito_risk":7,"arthritis_risk":5,"migraine_risk":7,"frizz_risk":1,"updated_at":"2026-06-28T22:45:57.130715+05:30"},{"city":"Guwahati","state":"Assam","latitude":26.1158,"longitude":91.7086,"temp":27.7,"humidity":93,"rain":0.0,"pressure":995.8,"uv_index":7.05,"wind_gusts":46.4,"aqi":62,"pm10":18.4,"pm2_5":17.8,"no2":8.5,"co":329.0,"o3":60.0,"so2":3.1,"mosquito_risk":7,"arthritis_risk":5,"migraine_risk":7,"frizz_risk":1,"updated_at":"2026-06-28T22:45:57.130722+05:30"},{"city":"Agartala","state":"Tripura","latitude":23.8315,"longitude":91.2868,"temp":27.2,"humidity":86,"rain":0.0,"pressure":1002.2,"uv_index":7.5,"wind_gusts":40.7,"aqi":48,"pm10":13.7,"pm2_5":12.0,"no2":7.9,"co":180.0,"o3":41.0,"so2":1.9,"mosquito_risk":7,"arthritis_risk":5,"migraine_risk":4,"frizz_risk":1,"updated_at":"2026-06-28T22:45:57.130729+05:30"},{"city":"Shillong","state":"Meghalaya","latitude":25.5788,"longitude":91.8933,"temp":21.0,"humidity":91,"rain":0.0,"pressure":854.4,"uv_index":6.65,"wind_gusts":42.1,"aqi":36,"pm10":5.1,"pm2_5":4.9,"no2":6.2,"co":180.0,"o3":64.0,"so2":1.7,"mosquito_risk":3,"arthritis_risk":5,"migraine_risk":7,"frizz_risk":1,"updated_at":"2026-06-28T22:45:57.130736+05:30"},{"city":"Imphal","state":"Manipur","latitude":24.817,"longitude":93.9368,"temp":24.1,"humidity":93,"rain":0.0,"pressure":919.9,"uv_index":8.85,"wind_gusts":36.7,"aqi":50,"pm10":22.3,"pm2_5":22.0,"no2":14.1,"co":370.0,"o3":24.0,"so2":2.7,"mosquito_risk":3,"arthritis_risk":5,"migraine_risk":7,"frizz_risk":1,"updated_at":"2026-06-28T22:45:57.130743+05:30"},{"city":"Aizawl","state":"Mizoram","latitude":23.7271,"longitude":92.7176,"temp":20.3,"humidity":92,"rain":0.0,"pressure":889.7,"uv_index":8.35,"wind_gusts":34.2,"aqi":28,"pm10":4.8,"pm2_5":4.2,"no2":2.8,"co":124.0,"o3":49.0,"so2":0.9,"mosquito_risk":3,"arthritis_risk":5,"migraine_risk":7,"frizz_risk":1,"updated_at":"2026-06-28T22:45:57.130750+05:30"},{"city":"Kohima","state":"Nagaland","latitude":25.6701,"longitude":94.1077,"temp":20.0,"humidity":93,"rain":0.0,"pressure":852.2,"uv_index":9.0,"wind_gusts":28.8,"aqi":34,"pm10":10.2,"pm2_5":9.7,"no2":7.2,"co":314.0,"o3":40.0,"so2":1.3,"mosquito_risk":3,"arthritis_risk":5,"migraine_risk":7,"frizz_risk":1,"updated_at":"2026-06-28T22:45:57.130757+05:30"},{"city":"Gangtok","state":"Sikkim","latitude":27.3314,"longitude":88.6138,"temp":19.0,"humidity":95,"rain":0.8,"pressure":834.3,"uv_index":5.95,"wind_gusts":36.0,"aqi":49,"pm10":10.7,"pm2_5":9.7,"no2":8.9,"co":341.0,"o3":98.0,"so2":2.3,"mosquito_risk":6,"arthritis_risk":10,"migraine_risk":3,"frizz_risk":1,"updated_at":"2026-06-28T22:45:57.130765+05:30"},{"city":"Siliguri","state":"West Bengal","latitude":26.7271,"longitude":88.3953,"temp":25.3,"humidity":98,"rain":0.1,"pressure":987.9,"uv_index":6.9,"wind_gusts":27.0,"aqi":75,"pm10":26.1,"pm2_5":23.9,"no2":11.4,"co":478.0,"o3":105.0,"so2":3.9,"mosquito_risk":10,"arthritis_risk":5,"migraine_risk":7,"frizz_risk":1,"updated_at":"2026-06-28T22:46:00.470465+05:30"},{"city":"Durgapur","state":"West Bengal","latitude":23.5204,"longitude":87.3119,"temp":28.8,"humidity":88,"rain":0.0,"pressure":990.0,"uv_index":8.85,"wind_gusts":30.2,"aqi":149,"pm10":59.8,"pm2_5":58.9,"no2":26.6,"co":512.0,"o3":91.0,"so2":50.3,"mosquito_risk":7,"arthritis_risk":5,"migraine_risk":7,"frizz_risk":1,"updated_at":"2026-06-28T22:46:00.470501+05:30"},{"city":"Asansol","state":"West Bengal","latitude":23.6739,"longitude":86.9524,"temp":29.6,"humidity":84,"rain":0.0,"pressure":988.2,"uv_index":8.85,"wind_gusts":36.7,"aqi":142,"pm10":57.5,"pm2_5":56.6,"no2":31.2,"co":479.0,"o3":86.0,"so2":65.1,"mosquito_risk":7,"arthritis_risk":5,"migraine_risk":7,"frizz_risk":1,"updated_at":"2026-06-28T22:46:00.470513+05:30"},{"city":"Pondicherry","state":"Puducherry","latitude":11.9139,"longitude":79.8145,"temp":26.6,"humidity":89,"rain":0.1,"pressure":1007.7,"uv_index":8.7,"wind_gusts":43.9,"aqi":63,"pm10":16.5,"pm2_5":12.0,"no2":9.6,"co":270.0,"o3":76.0,"so2":8.3,"mosquito_risk":10,"arthritis_risk":5,"migraine_risk":4,"frizz_risk":1,"updated_at":"2026-06-28T22:46:00.470524+05:30"},{"city":"Port Blair","state":"Andaman and Nicobar Islands","latitude":11.6234,"longitude":92.7265,"temp":25.9,"humidity":94,"rain":0.0,"pressure":1007.4,"uv_index":3.8,"wind_gusts":39.6,"aqi":21,"pm10":11.6,"pm2_5":6.9,"no2":0.2,"co":85.0,"o3":50.0,"so2":0.2,"mosquito_risk":7,"arthritis_risk":5,"migraine_risk":0,"frizz_risk":1,"updated_at":"2026-06-28T22:46:00.470534+05:30"},{"city":"Haridwar","state":"Uttarakhand","latitude":29.9457,"longitude":78.1642,"temp":30.2,"humidity":73,"rain":0.0,"pressure":966.4,"uv_index":7.6,"wind_gusts":36.7,"aqi":157,"pm10":88.5,"pm2_5":70.3,"no2":17.5,"co":368.0,"o3":97.0,"so2":10.1,"mosquito_risk":3,"arthritis_risk":5,"migraine_risk":7,"frizz_risk":1,"updated_at":"2026-06-28T22:46:00.470544+05:30"},{"city":"Rishikesh","state":"Uttarakhand","latitude":30.0869,"longitude":78.2676,"temp":28.4,"humidity":77,"rain":0.1,"pressure":959.7,"uv_index":7.7,"wind_gusts":26.3,"aqi":133,"pm10":71.5,"pm2_5":47.5,"no2":10.8,"co":325.0,"o3":98.0,"so2":5.4,"mosquito_risk":10,"arthritis_risk":5,"migraine_risk":7,"frizz_risk":1,"updated_at":"2026-06-28T22:46:00.470553+05:30"},{"city":"Nainital","state":"Uttarakhand","latitude":29.3919,"longitude":79.4542,"temp":17.4,"humidity":98,"rain":0.0,"pressure":802.4,"uv_index":8.0,"wind_gusts":32.0,"aqi":135,"pm10":71.9,"pm2_5":43.7,"no2":8.4,"co":365.0,"o3":106.0,"so2":6.5,"mosquito_risk":3,"arthritis_risk":10,"migraine_risk":7,"frizz_risk":1,"updated_at":"2026-06-28T22:46:00.470562+05:30"},{"city":"Mussoorie","state":"Uttarakhand","latitude":30.4599,"longitude":78.0664,"temp":18.5,"humidity":90,"rain":0.0,"pressure":800.3,"uv_index":7.35,"wind_gusts":39.2,"aqi":142,"pm10":66.1,"pm2_5":48.4,"no2":16.3,"co":358.0,"o3":103.0,"so2":7.5,"mosquito_risk":3,"arthritis_risk":10,"migraine_risk":7,"frizz_risk":1,"updated_at":"2026-06-28T22:46:00.470570+05:30"},{"city":"Dharamshala","state":"Himachal Pradesh","latitude":32.219,"longitude":76.3234,"temp":23.7,"humidity":81,"rain":0.0,"pressure":864.8,"uv_index":7.55,"wind_gusts":33.8,"aqi":57,"pm10":18.3,"pm2_5":16.4,"no2":17.2,"co":388.0,"o3":41.0,"so2":0.3,"mosquito_risk":3,"arthritis_risk":5,"migraine_risk":7,"frizz_risk":1,"updated_at":"2026-06-28T22:46:00.470579+05:30"},{"city":"Dalhousie","state":"Himachal Pradesh","latitude":32.5387,"longitude":75.971,"temp":16.8,"humidity":97,"rain":0.0,"pressure":800.1,"uv_index":7.85,"wind_gusts":30.2,"aqi":105,"pm10":45.9,"pm2_5":37.1,"no2":20.6,"co":587.0,"o3":88.0,"so2":2.6,"mosquito_risk":3,"arthritis_risk":10,"migraine_risk":7,"frizz_risk":1,"updated_at":"2026-06-28T22:46:00.470589+05:30"},{"city":"Patiala","state":"Punjab","latitude":30.3398,"longitude":76.3869,"temp":33.4,"humidity":62,"rain":0.0,"pressure":969.8,"uv_index":7.6,"wind_gusts":38.2,"aqi":168,"pm10":126.2,"pm2_5":80.3,"no2":32.8,"co":764.0,"o3":58.0,"so2":9.2,"mosquito_risk":3,"arthritis_risk":5,"migraine_risk":7,"frizz_risk":1,"updated_at":"2026-06-28T22:46:00.470598+05:30"},{"city":"Bhatinda","state":"Punjab","latitude":30.211,"longitude":74.9455,"temp":34.2,"humidity":57,"rain":0.0,"pressure":974.6,"uv_index":8.3,"wind_gusts":46.1,"aqi":157,"pm10":109.2,"pm2_5":80.6,"no2":61.3,"co":487.0,"o3":25.0,"so2":10.2,"mosquito_risk":0,"arthritis_risk":5,"migraine_risk":7,"frizz_risk":1,"updated_at":"2026-06-28T22:46:00.470606+05:30"},{"city":"Rohtak","state":"Haryana","latitude":28.8955,"longitude":76.6066,"temp":32.5,"humidity":63,"rain":0.0,"pressure":973.6,"uv_index":7.75,"wind_gusts":36.7,"aqi":166,"pm10":259.8,"pm2_5":98.5,"no2":39.2,"co":578.0,"o3":71.0,"so2":15.1,"mosquito_risk":3,"arthritis_risk":5,"migraine_risk":7,"frizz_risk":1,"updated_at":"2026-06-28T22:46:00.470614+05:30"},{"city":"Panipat","state":"Haryana","latitude":29.3909,"longitude":76.9635,"temp":32.6,"humidity":64,"rain":0.0,"pressure":972.2,"uv_index":7.6,"wind_gusts":33.8,"aqi":180,"pm10":344.6,"pm2_5":102.9,"no2":28.4,"co":595.0,"o3":75.0,"so2":9.6,"mosquito_risk":3,"arthritis_risk":5,"migraine_risk":7,"frizz_risk":1,"updated_at":"2026-06-28T22:46:00.470623+05:30"},{"city":"Mathura","state":"Uttar Pradesh","latitude":27.4924,"longitude":77.6737,"temp":33.6,"humidity":56,"rain":0.0,"pressure":978.7,"uv_index":7.45,"wind_gusts":32.4,"aqi":188,"pm10":134.6,"pm2_5":60.1,"no2":40.3,"co":372.0,"o3":38.0,"so2":7.5,"mosquito_risk":0,"arthritis_risk":5,"migraine_risk":7,"frizz_risk":1,"updated_at":"2026-06-28T22:46:00.470631+05:30"},{"city":"Vrindavan","state":"Uttar Pradesh","latitude":27.5823,"longitude":77.7027,"temp":32.9,"humidity":61,"rain":0.0,"pressure":979.1,"uv_index":7.4,"wind_gusts":28.8,"aqi":188,"pm10":134.6,"pm2_5":60.1,"no2":40.3,"co":428.0,"o3":38.0,"so2":7.5,"mosquito_risk":3,"arthritis_risk":5,"migraine_risk":7,"frizz_risk":1,"updated_at":"2026-06-28T22:46:00.470640+05:30"},{"city":"Ayodhya","state":"Uttar Pradesh","latitude":26.7922,"longitude":82.1998,"temp":31.5,"humidity":72,"rain":0.0,"pressure":988.1,"uv_index":8.45,"wind_gusts":22.0,"aqi":136,"pm10":111.3,"pm2_5":78.9,"no2":38.5,"co":533.0,"o3":46.0,"so2":10.2,"mosquito_risk":3,"arthritis_risk":5,"migraine_risk":7,"frizz_risk":1,"updated_at":"2026-06-28T22:46:00.470648+05:30"},{"city":"Ratlam","state":"Madhya Pradesh","latitude":23.3315,"longitude":75.0367,"temp":26.7,"humidity":75,"rain":0.0,"pressure":950.2,"uv_index":8.4,"wind_gusts":31.0,"aqi":79,"pm10":53.8,"pm2_5":39.1,"no2":11.6,"co":255.0,"o3":57.0,"so2":5.0,"mosquito_risk":7,"arthritis_risk":5,"migraine_risk":7,"frizz_risk":1,"updated_at":"2026-06-28T22:46:00.470658+05:30"},{"city":"Sagar","state":"Madhya Pradesh","latitude":23.8388,"longitude":78.7378,"temp":27.4,"humidity":78,"rain":0.0,"pressure":945.4,"uv_index":8.4,"wind_gusts":36.0,"aqi":74,"pm10":33.5,"pm2_5":23.5,"no2":8.3,"co":192.0,"o3":70.0,"so2":2.7,"mosquito_risk":7,"arthritis_risk":5,"migraine_risk":7,"frizz_risk":1,"updated_at":"2026-06-28T22:46:00.470667+05:30"},{"city":"Satna","state":"Madhya Pradesh","latitude":24.6005,"longitude":80.8322,"temp":32.3,"humidity":56,"rain":0.0,"pressure":965.3,"uv_index":8.8,"wind_gusts":32.0,"aqi":76,"pm10":42.1,"pm2_5":30.2,"no2":17.2,"co":219.0,"o3":50.0,"so2":3.5,"mosquito_risk":0,"arthritis_risk":5,"migraine_risk":7,"frizz_risk":1,"updated_at":"2026-06-28T22:46:00.470675+05:30"},{"city":"Akola","state":"Maharashtra","latitude":20.7002,"longitude":77.0082,"temp":28.3,"humidity":78,"rain":0.0,"pressure":971.4,"uv_index":8.2,"wind_gusts":31.7,"aqi":82,"pm10":27.4,"pm2_5":21.0,"no2":12.2,"co":198.0,"o3":57.0,"so2":4.2,"mosquito_risk":7,"arthritis_risk":5,"migraine_risk":7,"frizz_risk":1,"updated_at":"2026-06-28T22:46:00.470684+05:30"},{"city":"Amravati","state":"Maharashtra","latitude":20.9374,"longitude":77.7796,"temp":27.8,"humidity":81,"rain":0.0,"pressure":963.6,"uv_index":8.05,"wind_gusts":26.6,"aqi":79,"pm10":29.3,"pm2_5":22.8,"no2":11.3,"co":213.0,"o3":63.0,"so2":4.5,"mosquito_risk":7,"arthritis_risk":5,"migraine_risk":7,"frizz_risk":1,"updated_at":"2026-06-28T22:46:00.470694+05:30"},{"city":"Latur","state":"Maharashtra","latitude":18.4088,"longitude":76.5604,"temp":23.8,"humidity":94,"rain":0.0,"pressure":936.8,"uv_index":8.1,"wind_gusts":38.9,"aqi":73,"pm10":18.5,"pm2_5":13.3,"no2":4.9,"co":199.0,"o3":85.0,"so2":1.3,"mosquito_risk":3,"arthritis_risk":5,"migraine_risk":7,"frizz_risk":1,"updated_at":"2026-06-28T22:46:00.470703+05:30"},{"city":"Nanded","state":"Maharashtra","latitude":19.1383,"longitude":77.3091,"temp":25.9,"humidity":94,"rain":0.1,"pressure":965.6,"uv_index":7.2,"wind_gusts":36.0,"aqi":71,"pm10":16.8,"pm2_5":13.2,"no2":6.7,"co":210.0,"o3":80.0,"so2":2.1,"mosquito_risk":10,"arthritis_risk":5,"migraine_risk":7,"frizz_risk":1,"updated_at":"2026-06-28T22:46:00.470713+05:30"},{"city":"Gulbarga","state":"Karnataka","latitude":17.3297,"longitude":76.8343,"temp":24.1,"humidity":95,"rain":0.2,"pressure":955.9,"uv_index":7.95,"wind_gusts":26.3,"aqi":42,"pm10":7.3,"pm2_5":6.4,"no2":8.1,"co":172.0,"o3":58.0,"so2":1.9,"mosquito_risk":6,"arthritis_risk":5,"migraine_risk":7,"frizz_risk":1,"updated_at":"2026-06-28T22:46:00.470721+05:30"},{"city":"Bidar","state":"Karnataka","latitude":17.9104,"longitude":77.5199,"temp":23.5,"humidity":97,"rain":0.0,"pressure":932.7,"uv_index":8.15,"wind_gusts":26.3,"aqi":56,"pm10":13.0,"pm2_5":10.9,"no2":8.9,"co":190.0,"o3":72.0,"so2":1.3,"mosquito_risk":3,"arthritis_risk":5,"migraine_risk":7,"frizz_risk":1,"updated_at":"2026-06-28T22:46:00.470730+05:30"},{"city":"Hospet","state":"Karnataka","latitude":15.2689,"longitude":76.3909,"temp":23.8,"humidity":92,"rain":0.0,"pressure":954.1,"uv_index":8.9,"wind_gusts":47.2,"aqi":25,"pm10":4.6,"pm2_5":3.7,"no2":5.5,"co":134.0,"o3":40.0,"so2":1.7,"mosquito_risk":3,"arthritis_risk":5,"migraine_risk":7,"frizz_risk":1,"updated_at":"2026-06-28T22:46:00.470739+05:30"},{"city":"Tirupur","state":"Tamil Nadu","latitude":11.1085,"longitude":77.3411,"temp":24.4,"humidity":86,"rain":0.0,"pressure":974.6,"uv_index":8.9,"wind_gusts":63.4,"aqi":43,"pm10":11.7,"pm2_5":10.8,"no2":15.5,"co":142.0,"o3":30.0,"so2":4.2,"mosquito_risk":3,"arthritis_risk":5,"migraine_risk":7,"frizz_risk":1,"updated_at":"2026-06-28T22:46:00.470747+05:30"},{"city":"Alappuzha","state":"Kerala","latitude":9.4981,"longitude":76.3388,"temp":24.7,"humidity":95,"rain":0.4,"pressure":1010.6,"uv_index":8.5,"wind_gusts":42.1,"aqi":42,"pm10":13.3,"pm2_5":8.8,"no2":5.8,"co":86.0,"o3":43.0,"so2":2.1,"mosquito_risk":6,"arthritis_risk":0,"migraine_risk":4,"frizz_risk":1,"updated_at":"2026-06-28T22:46:00.470755+05:30"},{"city":"Munnar","state":"Kerala","latitude":10.0889,"longitude":77.0595,"temp":17.2,"humidity":100,"rain":0.1,"pressure":856.5,"uv_index":8.25,"wind_gusts":41.4,"aqi":22,"pm10":3.3,"pm2_5":3.2,"no2":6.8,"co":92.0,"o3":29.0,"so2":1.5,"mosquito_risk":6,"arthritis_risk":10,"migraine_risk":7,"frizz_risk":1,"updated_at":"2026-06-28T22:46:00.470762+05:30"},{"city":"Silchar","state":"Assam","latitude":24.8333,"longitude":92.7789,"temp":26.1,"humidity":98,"rain":0.2,"pressure":1001.5,"uv_index":8.3,"wind_gusts":31.7,"aqi":53,"pm10":17.8,"pm2_5":17.2,"no2":8.7,"co":222.0,"o3":56.0,"so2":3.9,"mosquito_risk":10,"arthritis_risk":5,"migraine_risk":4,"frizz_risk":1,"updated_at":"2026-06-28T22:46:00.470769+05:30"},{"city":"Dibrugarh","state":"Assam","latitude":27.4728,"longitude":94.912,"temp":25.0,"humidity":97,"rain":0.1,"pressure":990.3,"uv_index":3.95,"wind_gusts":40.3,"aqi":56,"pm10":9.6,"pm2_5":9.1,"no2":9.4,"co":193.0,"o3":54.0,"so2":1.1,"mosquito_risk":10,"arthritis_risk":5,"migraine_risk":3,"frizz_risk":1,"updated_at":"2026-06-28T22:46:00.470776+05:30"}]