[{"city":"Delhi","state":"Delhi","latitude":28.6139,"longitude":77.209,"temp":31.9,"humidity":76,"rain":0.0,"pressure":974.6,"uv_index":7.4,"wind_gusts":36.7,"aqi":141,"pm10":70.8,"pm2_5":66.4,"no2":58.7,"co":1179.0,"o3":45.0,"so2":36.9,"mosquito_risk":3,"arthritis_risk":5,"migraine_risk":7,"frizz_risk":1,"updated_at":"2026-07-05T01:40:45.025509+05:30"},{"city":"Mumbai","state":"Maharashtra","latitude":19.076,"longitude":72.8777,"temp":25.8,"humidity":95,"rain":0.4,"pressure":1000.7,"uv_index":0.6,"wind_gusts":68.0,"aqi":28,"pm10":12.7,"pm2_5":6.2,"no2":2.9,"co":125.0,"o3":52.0,"so2":2.2,"mosquito_risk":10,"arthritis_risk":5,"migraine_risk":0,"frizz_risk":1,"updated_at":"2026-07-05T01:40:45.025556+05:30"},{"city":"Bangalore","state":"Karnataka","latitude":12.9716,"longitude":77.5946,"temp":21.3,"humidity":88,"rain":0.0,"pressure":909.4,"uv_index":7.95,"wind_gusts":67.0,"aqi":19,"pm10":2.1,"pm2_5":1.8,"no2":6.8,"co":159.0,"o3":39.0,"so2":2.7,"mosquito_risk":3,"arthritis_risk":5,"migraine_risk":7,"frizz_risk":1,"updated_at":"2026-07-05T01:40:45.025572+05:30"},{"city":"Hyderabad","state":"Telangana","latitude":17.385,"longitude":78.4867,"temp":23.8,"humidity":87,"rain":0.0,"pressure":946.7,"uv_index":4.4,"wind_gusts":73.4,"aqi":22,"pm10":2.1,"pm2_5":1.9,"no2":6.0,"co":136.0,"o3":39.0,"so2":2.9,"mosquito_risk":3,"arthritis_risk":5,"migraine_risk":3,"frizz_risk":1,"updated_at":"2026-07-05T01:40:45.025582+05:30"},{"city":"Chennai","state":"Tamil Nadu","latitude":13.0827,"longitude":80.2707,"temp":30.6,"humidity":50,"rain":0.0,"pressure":1003.2,"uv_index":8.4,"wind_gusts":59.0,"aqi":38,"pm10":9.4,"pm2_5":7.3,"no2":13.0,"co":218.0,"o3":38.0,"so2":7.5,"mosquito_risk":0,"arthritis_risk":5,"migraine_risk":4,"frizz_risk":1,"updated_at":"2026-07-05T01:40:45.025591+05:30"},{"city":"Kolkata","state":"West Bengal","latitude":22.5726,"longitude":88.3639,"temp":26.0,"humidity":97,"rain":0.0,"pressure":993.9,"uv_index":8.4,"wind_gusts":44.6,"aqi":41,"pm10":10.8,"pm2_5":9.7,"no2":8.2,"co":216.0,"o3":61.0,"so2":6.4,"mosquito_risk":7,"arthritis_risk":5,"migraine_risk":7,"frizz_risk":1,"updated_at":"2026-07-05T01:40:45.025599+05:30"},{"city":"Pune","state":"Maharashtra","latitude":18.5204,"longitude":73.8567,"temp":23.4,"humidity":93,"rain":0.1,"pressure":940.3,"uv_index":0.8,"wind_gusts":57.6,"aqi":21,"pm10":1.1,"pm2_5":1.1,"no2":4.2,"co":105.0,"o3":46.0,"so2":2.4,"mosquito_risk":6,"arthritis_risk":5,"migraine_risk":3,"frizz_risk":1,"updated_at":"2026-07-05T01:40:45.025606+05:30"},{"city":"Ahmedabad","state":"Gujarat","latitude":23.0225,"longitude":72.5714,"temp":26.4,"humidity":94,"rain":0.0,"pressure":994.0,"uv_index":5.7,"wind_gusts":22.0,"aqi":60,"pm10":27.7,"pm2_5":14.9,"no2":12.3,"co":219.0,"o3":50.0,"so2":4.0,"mosquito_risk":7,"arthritis_risk":5,"migraine_risk":3,"frizz_risk":1,"updated_at":"2026-07-05T01:40:45.025612+05:30"},{"city":"Jaipur","state":"Rajasthan","latitude":26.9124,"longitude":75.7873,"temp":28.2,"humidity":85,"rain":0.0,"pressure":951.3,"uv_index":7.95,"wind_gusts":25.2,"aqi":110,"pm10":46.4,"pm2_5":32.1,"no2":25.5,"co":319.0,"o3":54.0,"so2":7.7,"mosquito_risk":7,"arthritis_risk":5,"migraine_risk":7,"frizz_risk":1,"updated_at":"2026-07-05T01:40:45.025619+05:30"},{"city":"Lucknow","state":"Uttar Pradesh","latitude":26.8467,"longitude":80.9462,"temp":30.3,"humidity":80,"rain":1.0,"pressure":984.5,"uv_index":7.65,"wind_gusts":35.3,"aqi":94,"pm10":35.7,"pm2_5":35.3,"no2":21.9,"co":347.0,"o3":57.0,"so2":8.5,"mosquito_risk":6,"arthritis_risk":5,"migraine_risk":7,"frizz_risk":1,"updated_at":"2026-07-05T01:40:45.025629+05:30"},{"city":"Kanpur","state":"Uttar Pradesh","latitude":26.4499,"longitude":80.3319,"temp":30.6,"humidity":80,"rain":0.1,"pressure":982.8,"uv_index":8.1,"wind_gusts":31.7,"aqi":91,"pm10":30.7,"pm2_5":29.9,"no2":22.4,"co":299.0,"o3":54.0,"so2":6.4,"mosquito_risk":6,"arthritis_risk":5,"migraine_risk":7,"frizz_risk":1,"updated_at":"2026-07-05T01:40:45.025636+05:30"},{"city":"Chandigarh","state":"Chandigarh","latitude":30.7333,"longitude":76.7794,"temp":28.0,"humidity":89,"rain":0.0,"pressure":961.3,"uv_index":7.05,"wind_gusts":23.8,"aqi":107,"pm10":87.5,"pm2_5":86.8,"no2":56.7,"co":1367.0,"o3":28.0,"so2":16.1,"mosquito_risk":7,"arthritis_risk":5,"migraine_risk":7,"frizz_risk":1,"updated_at":"2026-07-05T01:40:45.025642+05:30"},{"city":"Srinagar","state":"Jammu and Kashmir","latitude":34.0837,"longitude":74.7973,"temp":19.6,"humidity":86,"rain":0.0,"pressure":835.3,"uv_index":9.05,"wind_gusts":23.0,"aqi":80,"pm10":51.3,"pm2_5":46.1,"no2":35.4,"co":750.0,"o3":11.0,"so2":2.1,"mosquito_risk":3,"arthritis_risk":10,"migraine_risk":7,"frizz_risk":1,"updated_at":"2026-07-05T01:40:45.025648+05:30"},{"city":"Jammu","state":"Jammu and Kashmir","latitude":32.7266,"longitude":74.857,"temp":29.6,"humidity":80,"rain":0.0,"pressure":964.2,"uv_index":8.6,"wind_gusts":30.2,"aqi":111,"pm10":64.3,"pm2_5":62.4,"no2":64.8,"co":525.0,"o3":9.0,"so2":5.8,"mosquito_risk":7,"arthritis_risk":5,"migraine_risk":7,"frizz_risk":1,"updated_at":"2026-07-05T01:40:45.025657+05:30"},{"city":"Amritsar","state":"Punjab","latitude":31.634,"longitude":74.8723,"temp":30.7,"humidity":74,"rain":0.0,"pressure":972.0,"uv_index":8.45,"wind_gusts":22.3,"aqi":116,"pm10":49.7,"pm2_5":44.5,"no2":17.9,"co":485.0,"o3":93.0,"so2":9.4,"mosquito_risk":3,"arthritis_risk":5,"migraine_risk":7,"frizz_risk":1,"updated_at":"2026-07-05T01:40:45.025663+05:30"},{"city":"Ludhiana","state":"Punjab","latitude":30.901,"longitude":75.8573,"temp":29.2,"humidity":88,"rain":0.0,"pressure":970.2,"uv_index":7.9,"wind_gusts":17.6,"aqi":144,"pm10":84.8,"pm2_5":81.3,"no2":44.8,"co":802.0,"o3":47.0,"so2":11.4,"mosquito_risk":7,"arthritis_risk":5,"migraine_risk":7,"frizz_risk":1,"updated_at":"2026-07-05T01:40:45.025669+05:30"},{"city":"Jalandhar","state":"Punjab","latitude":31.326,"longitude":75.5762,"temp":29.4,"humidity":87,"rain":0.0,"pressure":971.2,"uv_index":7.45,"wind_gusts":19.4,"aqi":146,"pm10":79.9,"pm2_5":70.3,"no2":39.4,"co":739.0,"o3":57.0,"so2":8.2,"mosquito_risk":7,"arthritis_risk":5,"migraine_risk":7,"frizz_risk":1,"updated_at":"2026-07-05T01:40:45.025674+05:30"},{"city":"Dehradun","state":"Uttarakhand","latitude":30.6284,"longitude":78.0322,"temp":18.5,"humidity":100,"rain":0.0,"pressure":826.5,"uv_index":7.4,"wind_gusts":28.4,"aqi":38,"pm10":15.2,"pm2_5":15.1,"no2":17.3,"co":294.0,"o3":73.0,"so2":1.1,"mosquito_risk":3,"arthritis_risk":10,"migraine_risk":7,"frizz_risk":1,"updated_at":"2026-07-05T01:40:45.025680+05:30"},{"city":"Shimla","state":"Himachal Pradesh","latitude":31.1048,"longitude":77.1734,"temp":15.6,"humidity":97,"rain":0.0,"pressure":779.9,"uv_index":7.1,"wind_gusts":36.0,"aqi":50,"pm10":23.2,"pm2_5":23.1,"no2":23.7,"co":405.0,"o3":42.0,"so2":0.0,"mosquito_risk":3,"arthritis_risk":10,"migraine_risk":7,"frizz_risk":0,"updated_at":"2026-07-05T01:40:45.025686+05:30"},{"city":"Manali","state":"Himachal Pradesh","latitude":32.2396,"longitude":77.1887,"temp":19.6,"humidity":84,"rain":0.0,"pressure":815.1,"uv_index":9.25,"wind_gusts":36.7,"aqi":39,"pm10":5.4,"pm2_5":5.3,"no2":51.8,"co":261.0,"o3":67.0,"so2":0.0,"mosquito_risk":3,"arthritis_risk":10,"migraine_risk":7,"frizz_risk":1,"updated_at":"2026-07-05T01:40:45.025695+05:30"},{"city":"Gurgaon","state":"Haryana","latitude":28.4595,"longitude":77.0266,"temp":29.9,"humidity":85,"rain":0.0,"pressure":972.9,"uv_index":6.35,"wind_gusts":23.8,"aqi":136,"pm10":63.6,"pm2_5":50.5,"no2":39.4,"co":975.0,"o3":58.0,"so2":22.3,"mosquito_risk":7,"arthritis_risk":5,"migraine_risk":7,"frizz_risk":1,"updated_at":"2026-07-05T01:40:45.025701+05:30"},{"city":"Noida","state":"Uttar Pradesh","latitude":28.5355,"longitude":77.391,"temp":29.8,"humidity":86,"rain":0.0,"pressure":976.0,"uv_index":7.3,"wind_gusts":27.7,"aqi":136,"pm10":63.6,"pm2_5":50.5,"no2":39.4,"co":1971.0,"o3":58.0,"so2":22.3,"mosquito_risk":7,"arthritis_risk":5,"migraine_risk":7,"frizz_risk":1,"updated_at":"2026-07-05T01:40:45.025707+05:30"},{"city":"Ghaziabad","state":"Uttar Pradesh","latitude":28.6692,"longitude":77.4538,"temp":29.9,"humidity":88,"rain":0.0,"pressure":974.2,"uv_index":6.8,"wind_gusts":30.6,"aqi":124,"pm10":67.1,"pm2_5":67.1,"no2":54.5,"co":943.0,"o3":23.0,"so2":12.9,"mosquito_risk":7,"arthritis_risk":5,"migraine_risk":7,"frizz_risk":1,"updated_at":"2026-07-05T01:40:45.025713+05:30"},{"city":"Faridabad","state":"Haryana","latitude":28.4089,"longitude":77.3178,"temp":31.3,"humidity":78,"rain":0.0,"pressure":975.3,"uv_index":6.2,"wind_gusts":28.8,"aqi":136,"pm10":63.6,"pm2_5":50.5,"no2":39.4,"co":881.0,"o3":58.0,"so2":22.3,"mosquito_risk":3,"arthritis_risk":5,"migraine_risk":7,"frizz_risk":1,"updated_at":"2026-07-05T01:40:45.025721+05:30"},{"city":"Meerut","state":"Uttar Pradesh","latitude":28.9845,"longitude":77.7064,"temp":29.7,"humidity":89,"rain":0.0,"pressure":973.3,"uv_index":7.4,"wind_gusts":41.0,"aqi":124,"pm10":67.1,"pm2_5":67.1,"no2":54.5,"co":843.0,"o3":23.0,"so2":12.9,"mosquito_risk":7,"arthritis_risk":5,"migraine_risk":7,"frizz_risk":1,"updated_at":"2026-07-05T01:40:45.025727+05:30"},{"city":"Agra","state":"Uttar Pradesh","latitude":27.1767,"longitude":78.0081,"temp":27.1,"humidity":99,"rain":0.0,"pressure":978.9,"uv_index":7.25,"wind_gusts":25.2,"aqi":105,"pm10":43.5,"pm2_5":40.5,"no2":19.7,"co":413.0,"o3":77.0,"so2":7.3,"mosquito_risk":7,"arthritis_risk":5,"migraine_risk":7,"frizz_risk":1,"updated_at":"2026-07-05T01:40:45.025733+05:30"},{"city":"Varanasi","state":"Uttar Pradesh","latitude":25.3176,"longitude":82.9739,"temp":30.1,"humidity":75,"rain":0.0,"pressure":987.9,"uv_index":6.5,"wind_gusts":41.4,"aqi":80,"pm10":35.7,"pm2_5":35.5,"no2":20.0,"co":552.0,"o3":62.0,"so2":10.6,"mosquito_risk":3,"arthritis_risk":5,"migraine_risk":7,"frizz_risk":1,"updated_at":"2026-07-05T01:40:45.025739+05:30"},{"city":"Prayagraj","state":"Uttar Pradesh","latitude":25.4358,"longitude":81.8463,"temp":30.5,"humidity":77,"rain":0.0,"pressure":986.3,"uv_index":7.9,"wind_gusts":31.7,"aqi":85,"pm10":33.1,"pm2_5":32.9,"no2":19.0,"co":323.0,"o3":71.0,"so2":9.6,"mosquito_risk":3,"arthritis_risk":5,"migraine_risk":7,"frizz_risk":1,"updated_at":"2026-07-05T01:40:45.025746+05:30"},{"city":"Gorakhpur","state":"Uttar Pradesh","latitude":26.7606,"longitude":83.3732,"temp":30.5,"humidity":78,"rain":0.0,"pressure":988.3,"uv_index":8.5,"wind_gusts":42.5,"aqi":90,"pm10":34.1,"pm2_5":34.0,"no2":18.2,"co":462.0,"o3":75.0,"so2":8.8,"mosquito_risk":3,"arthritis_risk":5,"migraine_risk":7,"frizz_risk":1,"updated_at":"2026-07-05T01:40:45.025751+05:30"},{"city":"Bareilly","state":"Uttar Pradesh","latitude":28.367,"longitude":79.4304,"temp":30.1,"humidity":86,"rain":0.1,"pressure":978.4,"uv_index":5.7,"wind_gusts":33.5,"aqi":113,"pm10":53.1,"pm2_5":52.4,"no2":33.7,"co":380.0,"o3":57.0,"so2":9.1,"mosquito_risk":6,"arthritis_risk":5,"migraine_risk":3,"frizz_risk":1,"updated_at":"2026-07-05T01:40:45.025759+05:30"},{"city":"Aligarh","state":"Uttar Pradesh","latitude":27.8974,"longitude":78.088,"temp":30.2,"humidity":83,"rain":0.0,"pressure":977.0,"uv_index":7.2,"wind_gusts":23.0,"aqi":110,"pm10":54.2,"pm2_5":49.7,"no2":25.3,"co":511.0,"o3":77.0,"so2":12.3,"mosquito_risk":3,"arthritis_risk":5,"migraine_risk":7,"frizz_risk":1,"updated_at":"2026-07-05T01:40:45.025765+05:30"},{"city":"Moradabad","state":"Uttar Pradesh","latitude":28.8386,"longitude":78.7733,"temp":29.9,"humidity":85,"rain":0.0,"pressure":975.6,"uv_index":5.95,"wind_gusts":32.4,"aqi":125,"pm10":77.1,"pm2_5":76.8,"no2":36.2,"co":1065.0,"o3":64.0,"so2":12.5,"mosquito_risk":7,"arthritis_risk":5,"migraine_risk":3,"frizz_risk":1,"updated_at":"2026-07-05T01:40:45.025771+05:30"},{"city":"Saharanpur","state":"Uttar Pradesh","latitude":29.9637,"longitude":77.546,"temp":29.0,"humidity":88,"rain":0.0,"pressure":968.2,"uv_index":7.1,"wind_gusts":30.6,"aqi":130,"pm10":124.3,"pm2_5":123.4,"no2":89.9,"co":909.0,"o3":8.0,"so2":28.3,"mosquito_risk":7,"arthritis_risk":5,"migraine_risk":7,"frizz_risk":1,"updated_at":"2026-07-05T01:40:45.025777+05:30"},{"city":"Jhansi","state":"Uttar Pradesh","latitude":25.4484,"longitude":78.5685,"temp":26.8,"humidity":97,"rain":0.0,"pressure":969.7,"uv_index":7.75,"wind_gusts":25.6,"aqi":72,"pm10":28.3,"pm2_5":28.1,"no2":17.4,"co":250.0,"o3":59.0,"so2":5.1,"mosquito_risk":7,"arthritis_risk":5,"migraine_risk":7,"frizz_risk":1,"updated_at":"2026-07-05T01:40:48.388932+05:30"},{"city":"Surat","state":"Gujarat","latitude":21.1702,"longitude":72.8311,"temp":25.8,"humidity":99,"rain":0.0,"pressure":998.1,"uv_index":6.35,"wind_gusts":16.2,"aqi":68,"pm10":17.1,"pm2_5":13.4,"no2":23.6,"co":516.0,"o3":35.0,"so2":33.2,"mosquito_risk":7,"arthritis_risk":5,"migraine_risk":7,"frizz_risk":1,"updated_at":"2026-07-05T01:40:48.388975+05:30"},{"city":"Vadodara","state":"Gujarat","latitude":22.3072,"longitude":73.1812,"temp":26.2,"humidity":97,"rain":0.2,"pressure":995.6,"uv_index":4.8,"wind_gusts":24.5,"aqi":54,"pm10":15.0,"pm2_5":9.8,"no2":12.0,"co":203.0,"o3":56.0,"so2":4.3,"mosquito_risk":10,"arthritis_risk":5,"migraine_risk":3,"frizz_risk":1,"updated_at":"2026-07-05T01:40:48.388987+05:30"},{"city":"Rajkot","state":"Gujarat","latitude":22.3039,"longitude":70.8022,"temp":28.1,"humidity":89,"rain":0.2,"pressure":985.5,"uv_index":5.95,"wind_gusts":42.1,"aqi":61,"pm10":27.8,"pm2_5":13.1,"no2":6.8,"co":101.0,"o3":39.0,"so2":6.4,"mosquito_risk":10,"arthritis_risk":5,"migraine_risk":3,"frizz_risk":1,"updated_at":"2026-07-05T01:40:48.388998+05:30"},{"city":"Thane","state":"Maharashtra","latitude":19.2183,"longitude":72.9781,"temp":25.3,"humidity":97,"rain":1.1,"pressure":1000.0,"uv_index":0.55,"wind_gusts":52.2,"aqi":28,"pm10":12.7,"pm2_5":6.2,"no2":2.9,"co":140.0,"o3":52.0,"so2":2.2,"mosquito_risk":10,"arthritis_risk":5,"migraine_risk":0,"frizz_risk":1,"updated_at":"2026-07-05T01:40:48.389007+05:30"},{"city":"Nagpur","state":"Maharashtra","latitude":21.1458,"longitude":79.0882,"temp":25.0,"humidity":93,"rain":0.0,"pressure":964.1,"uv_index":7.9,"wind_gusts":31.3,"aqi":47,"pm10":11.0,"pm2_5":10.3,"no2":15.6,"co":196.0,"o3":45.0,"so2":13.3,"mosquito_risk":7,"arthritis_risk":5,"migraine_risk":7,"frizz_risk":1,"updated_at":"2026-07-05T01:40:48.389018+05:30"},{"city":"Nashik","state":"Maharashtra","latitude":19.9975,"longitude":73.7898,"temp":23.0,"humidity":95,"rain":0.3,"pressure":937.0,"uv_index":2.85,"wind_gusts":48.2,"aqi":21,"pm10":1.6,"pm2_5":1.5,"no2":4.5,"co":144.0,"o3":46.0,"so2":0.9,"mosquito_risk":6,"arthritis_risk":5,"migraine_risk":3,"frizz_risk":1,"updated_at":"2026-07-05T01:40:48.389030+05:30"},{"city":"Aurangabad","state":"Maharashtra","latitude":19.8762,"longitude":75.3433,"temp":23.0,"humidity":96,"rain":0.1,"pressure":936.3,"uv_index":5.55,"wind_gusts":49.3,"aqi":22,"pm10":5.6,"pm2_5":5.4,"no2":12.6,"co":175.0,"o3":41.0,"so2":7.2,"mosquito_risk":6,"arthritis_risk":5,"migraine_risk":3,"frizz_risk":1,"updated_at":"2026-07-05T01:40:48.389056+05:30"},{"city":"Solapur","state":"Maharashtra","latitude":17.6599,"longitude":75.9064,"temp":23.5,"humidity":90,"rain":0.2,"pressure":951.4,"uv_index":1.25,"wind_gusts":66.6,"aqi":20,"pm10":1.7,"pm2_5":1.4,"no2":3.3,"co":112.0,"o3":45.0,"so2":1.2,"mosquito_risk":6,"arthritis_risk":5,"migraine_risk":3,"frizz_risk":1,"updated_at":"2026-07-05T01:40:48.389066+05:30"},{"city":"Kolhapur","state":"Maharashtra","latitude":16.705,"longitude":74.2433,"temp":21.9,"humidity":97,"rain":0.1,"pressure":942.8,"uv_index":1.6,"wind_gusts":66.6,"aqi":22,"pm10":1.5,"pm2_5":1.2,"no2":2.3,"co":103.0,"o3":49.0,"so2":1.1,"mosquito_risk":6,"arthritis_risk":5,"migraine_risk":3,"frizz_risk":1,"updated_at":"2026-07-05T01:40:48.389076+05:30"},{"city":"Goa","state":"Goa","latitude":15.2993,"longitude":74.124,"temp":24.3,"humidity":99,"rain":0.9,"pressure":995.6,"uv_index":3.9,"wind_gusts":44.3,"aqi":45,"pm10":23.2,"pm2_5":10.8,"no2":1.1,"co":136.0,"o3":53.0,"so2":0.5,"mosquito_risk":6,"arthritis_risk":5,"migraine_risk":3,"frizz_risk":1,"updated_at":"2026-07-05T01:40:48.389086+05:30"},{"city":"Jodhpur","state":"Rajasthan","latitude":26.2389,"longitude":73.0243,"temp":29.4,"humidity":75,"rain":0.0,"pressure":973.3,"uv_index":8.4,"wind_gusts":25.2,"aqi":150,"pm10":154.6,"pm2_5":44.1,"no2":7.3,"co":183.0,"o3":50.0,"so2":4.6,"mosquito_risk":7,"arthritis_risk":5,"migraine_risk":7,"frizz_risk":1,"updated_at":"2026-07-05T01:40:48.389095+05:30"},{"city":"Udaipur","state":"Rajasthan","latitude":24.5854,"longitude":73.7125,"temp":24.3,"humidity":98,"rain":0.0,"pressure":938.5,"uv_index":8.5,"wind_gusts":30.2,"aqi":69,"pm10":35.9,"pm2_5":17.1,"no2":9.3,"co":180.0,"o3":50.0,"so2":2.6,"mosquito_risk":3,"arthritis_risk":5,"migraine_risk":7,"frizz_risk":1,"updated_at":"2026-07-05T01:40:48.389105+05:30"},{"city":"Kota","state":"Rajasthan","latitude":25.2138,"longitude":75.8648,"temp":27.1,"humidity":93,"rain":0.0,"pressure":969.5,"uv_index":8.25,"wind_gusts":29.9,"aqi":90,"pm10":47.1,"pm2_5":35.0,"no2":20.8,"co":313.0,"o3":54.0,"so2":6.5,"mosquito_risk":7,"arthritis_risk":5,"migraine_risk":7,"frizz_risk":1,"updated_at":"2026-07-05T01:40:48.389114+05:30"},{"city":"Bikaner","state":"Rajasthan","latitude":28.0229,"longitude":73.3119,"temp":33.4,"humidity":55,"rain":0.0,"pressure":971.8,"uv_index":8.45,"wind_gusts":27.4,"aqi":105,"pm10":102.2,"pm2_5":47.3,"no2":5.1,"co":257.0,"o3":77.0,"so2":4.3,"mosquito_risk":0,"arthritis_risk":5,"migraine_risk":7,"frizz_risk":1,"updated_at":"2026-07-05T01:40:48.389123+05:30"},{"city":"Ajmer","state":"Rajasthan","latitude":26.4499,"longitude":74.6399,"temp":27.3,"humidity":82,"rain":0.0,"pressure":946.1,"uv_index":8.35,"wind_gusts":31.7,"aqi":119,"pm10":95.7,"pm2_5":41.3,"no2":11.2,"co":217.0,"o3":54.0,"so2":5.8,"mosquito_risk":7,"arthritis_risk":5,"migraine_risk":7,"frizz_risk":1,"updated_at":"2026-07-05T01:40:48.389132+05:30"},{"city":"Gwalior","state":"Madhya Pradesh","latitude":26.2183,"longitude":78.1828,"temp":26.6,"humidity":99,"rain":0.0,"pressure":974.5,"uv_index":7.5,"wind_gusts":23.4,"aqi":74,"pm10":27.2,"pm2_5":26.3,"no2":14.2,"co":228.0,"o3":66.0,"so2":3.9,"mosquito_risk":7,"arthritis_risk":5,"migraine_risk":7,"frizz_risk":1,"updated_at":"2026-07-05T01:40:48.389141+05:30"},{"city":"Indore","state":"Madhya Pradesh","latitude":22.7196,"longitude":75.8577,"temp":24.0,"humidity":97,"rain":0.0,"pressure":939.0,"uv_index":7.45,"wind_gusts":26.6,"aqi":53,"pm10":30.5,"pm2_5":21.5,"no2":12.6,"co":303.0,"o3":52.0,"so2":4.6,"mosquito_risk":3,"arthritis_risk":5,"migraine_risk":7,"frizz_risk":1,"updated_at":"2026-07-05T01:40:48.389150+05:30"},{"city":"Bhopal","state":"Madhya Pradesh","latitude":23.2599,"longitude":77.4126,"temp":24.8,"humidity":100,"rain":0.0,"pressure":944.5,"uv_index":8.6,"wind_gusts":26.3,"aqi":52,"pm10":14.7,"pm2_5":14.3,"no2":13.8,"co":369.0,"o3":51.0,"so2":2.9,"mosquito_risk":3,"arthritis_risk":5,"migraine_risk":7,"frizz_risk":1,"updated_at":"2026-07-05T01:40:48.389158+05:30"},{"city":"Jabalpur","state":"Madhya Pradesh","latitude":23.1815,"longitude":79.9864,"temp":24.3,"humidity":100,"rain":0.0,"pressure":953.0,"uv_index":7.45,"wind_gusts":27.4,"aqi":64,"pm10":18.6,"pm2_5":18.4,"no2":8.6,"co":252.0,"o3":83.0,"so2":3.9,"mosquito_risk":3,"arthritis_risk":5,"migraine_risk":7,"frizz_risk":1,"updated_at":"2026-07-05T01:40:48.389167+05:30"},{"city":"Ujjain","state":"Madhya Pradesh","latitude":23.1765,"longitude":75.7885,"temp":24.4,"humidity":97,"rain":0.0,"pressure":944.5,"uv_index":8.5,"wind_gusts":21.6,"aqi":53,"pm10":30.9,"pm2_5":18.3,"no2":6.6,"co":274.0,"o3":65.0,"so2":2.8,"mosquito_risk":3,"arthritis_risk":5,"migraine_risk":7,"frizz_risk":1,"updated_at":"2026-07-05T01:40:48.389176+05:30"},{"city":"Visakhapatnam","state":"Andhra Pradesh","latitude":17.6868,"longitude":83.2185,"temp":25.4,"humidity":94,"rain":0.4,"pressure":992.7,"uv_index":2.8,"wind_gusts":65.2,"aqi":37,"pm10":8.5,"pm2_5":7.1,"no2":11.5,"co":196.0,"o3":42.0,"so2":16.1,"mosquito_risk":10,"arthritis_risk":5,"migraine_risk":3,"frizz_risk":1,"updated_at":"2026-07-05T01:40:48.389185+05:30"},{"city":"Vijayawada","state":"Andhra Pradesh","latitude":16.5062,"longitude":80.648,"temp":28.2,"humidity":70,"rain":0.0,"pressure":996.2,"uv_index":2.4,"wind_gusts":59.0,"aqi":30,"pm10":4.5,"pm2_5":3.9,"no2":6.7,"co":129.0,"o3":41.0,"so2":4.4,"mosquito_risk":7,"arthritis_risk":5,"migraine_risk":3,"frizz_risk":1,"updated_at":"2026-07-05T01:40:48.389193+05:30"},{"city":"Guntur","state":"Andhra Pradesh","latitude":16.3067,"longitude":80.4365,"temp":28.1,"humidity":68,"rain":0.0,"pressure":997.7,"uv_index":2.85,"wind_gusts":54.0,"aqi":26,"pm10":3.7,"pm2_5":3.2,"no2":6.8,"co":120.0,"o3":40.0,"so2":4.4,"mosquito_risk":7,"arthritis_risk":5,"migraine_risk":3,"frizz_risk":1,"updated_at":"2026-07-05T01:40:48.389204+05:30"},{"city":"Nellore","state":"Andhra Pradesh","latitude":14.4426,"longitude":79.9865,"temp":30.1,"humidity":57,"rain":0.0,"pressure":1001.3,"uv_index":1.45,"wind_gusts":47.5,"aqi":25,"pm10":3.7,"pm2_5":2.6,"no2":4.1,"co":104.0,"o3":44.0,"so2":2.7,"mosquito_risk":0,"arthritis_risk":5,"migraine_risk":0,"frizz_risk":1,"updated_at":"2026-07-05T01:40:48.389213+05:30"},{"city":"Kurnool","state":"Andhra Pradesh","latitude":15.8281,"longitude":78.0373,"temp":24.8,"humidity":81,"rain":0.0,"pressure":972.5,"uv_index":3.0,"wind_gusts":81.4,"aqi":21,"pm10":2.4,"pm2_5":1.9,"no2":5.2,"co":109.0,"o3":39.0,"so2":2.7,"mosquito_risk":3,"arthritis_risk":5,"migraine_risk":3,"frizz_risk":1,"updated_at":"2026-07-05T01:40:48.389222+05:30"},{"city":"Kakinada","state":"Andhra Pradesh","latitude":16.9891,"longitude":82.2475,"temp":27.6,"humidity":77,"rain":0.0,"pressure":999.1,"uv_index":2.05,"wind_gusts":80.3,"aqi":32,"pm10":8.1,"pm2_5":5.9,"no2":6.8,"co":154.0,"o3":47.0,"so2":4.6,"mosquito_risk":7,"arthritis_risk":5,"migraine_risk":3,"frizz_risk":1,"updated_at":"2026-07-05T01:40:48.389231+05:30"},{"city":"Tirupati","state":"Andhra Pradesh","latitude":13.6288,"longitude":79.4192,"temp":28.7,"humidity":59,"rain":0.0,"pressure":987.4,"uv_index":4.55,"wind_gusts":49.7,"aqi":25,"pm10":4.8,"pm2_5":3.3,"no2":5.3,"co":114.0,"o3":42.0,"so2":1.8,"mosquito_risk":4,"arthritis_risk":5,"migraine_risk":3,"frizz_risk":1,"updated_at":"2026-07-05T01:40:48.389239+05:30"},{"city":"Warangal","state":"Telangana","latitude":17.9689,"longitude":79.5941,"temp":24.4,"humidity":89,"rain":0.2,"pressure":971.7,"uv_index":1.0,"wind_gusts":44.6,"aqi":22,"pm10":3.2,"pm2_5":3.1,"no2":6.8,"co":127.0,"o3":37.0,"so2":2.6,"mosquito_risk":6,"arthritis_risk":5,"migraine_risk":3,"frizz_risk":1,"updated_at":"2026-07-05T01:40:48.389247+05:30"},{"city":"Nizamabad","state":"Telangana","latitude":18.6725,"longitude":78.0941,"temp":24.9,"humidity":84,"rain":0.0,"pressure":957.8,"uv_index":1.65,"wind_gusts":62.6,"aqi":22,"pm10":2.7,"pm2_5":2.7,"no2":5.8,"co":134.0,"o3":39.0,"so2":2.4,"mosquito_risk":3,"arthritis_risk":5,"migraine_risk":3,"frizz_risk":1,"updated_at":"2026-07-05T01:40:48.389255+05:30"},{"city":"Mysore","state":"Karnataka","latitude":12.2958,"longitude":76.6396,"temp":21.7,"humidity":89,"rain":0.0,"pressure":926.7,"uv_index":8.25,"wind_gusts":67.3,"aqi":20,"pm10":1.6,"pm2_5":1.5,"no2":4.9,"co":102.0,"o3":40.0,"so2":1.5,"mosquito_risk":3,"arthritis_risk":5,"migraine_risk":7,"frizz_risk":1,"updated_at":"2026-07-05T01:40:48.389261+05:30"},{"city":"Mangalore","state":"Karnataka","latitude":12.9141,"longitude":74.856,"temp":25.7,"humidity":83,"rain":0.5,"pressure":1006.3,"uv_index":5.55,"wind_gusts":62.6,"aqi":43,"pm10":13.6,"pm2_5":8.8,"no2":9.7,"co":100.0,"o3":29.0,"so2":2.7,"mosquito_risk":10,"arthritis_risk":5,"migraine_risk":0,"frizz_risk":1,"updated_at":"2026-07-05T01:40:48.389268+05:30"},{"city":"Hubli-Dharwad","state":"Karnataka","latitude":15.3647,"longitude":75.124,"temp":21.7,"humidity":98,"rain":0.1,"pressure":936.9,"uv_index":8.35,"wind_gusts":67.0,"aqi":21,"pm10":1.2,"pm2_5":0.8,"no2":1.9,"co":92.0,"o3":46.0,"so2":0.6,"mosquito_risk":6,"arthritis_risk":5,"migraine_risk":7,"frizz_risk":1,"updated_at":"2026-07-05T01:40:48.389277+05:30"},{"city":"Belgaum","state":"Karnataka","latitude":15.8497,"longitude":74.4977,"temp":21.2,"humidity":99,"rain":0.1,"pressure":921.2,"uv_index":3.15,"wind_gusts":67.0,"aqi":21,"pm10":1.5,"pm2_5":1.1,"no2":2.3,"co":98.0,"o3":48.0,"so2":0.9,"mosquito_risk":6,"arthritis_risk":5,"migraine_risk":3,"frizz_risk":1,"updated_at":"2026-07-05T01:40:51.782840+05:30"},{"city":"Coimbatore","state":"Tamil Nadu","latitude":11.0168,"longitude":76.9558,"temp":23.2,"humidity":90,"rain":0.0,"pressure":960.6,"uv_index":6.45,"wind_gusts":59.8,"aqi":20,"pm10":4.0,"pm2_5":2.4,"no2":3.9,"co":111.0,"o3":41.0,"so2":1.7,"mosquito_risk":3,"arthritis_risk":5,"migraine_risk":7,"frizz_risk":1,"updated_at":"2026-07-05T01:40:51.782877+05:30"},{"city":"Madurai","state":"Tamil Nadu","latitude":9.9252,"longitude":78.1198,"temp":28.7,"humidity":62,"rain":0.0,"pressure":991.7,"uv_index":8.0,"wind_gusts":67.0,"aqi":30,"pm10":13.7,"pm2_5":10.9,"no2":19.1,"co":102.0,"o3":21.0,"so2":4.0,"mosquito_risk":7,"arthritis_risk":5,"migraine_risk":7,"frizz_risk":1,"updated_at":"2026-07-05T01:40:51.782888+05:30"},{"city":"Trichy","state":"Tamil Nadu","latitude":10.7905,"longitude":78.7047,"temp":28.8,"humidity":60,"rain":0.0,"pressure":997.8,"uv_index":6.45,"wind_gusts":74.5,"aqi":22,"pm10":10.6,"pm2_5":5.8,"no2":4.1,"co":110.0,"o3":43.0,"so2":1.7,"mosquito_risk":4,"arthritis_risk":5,"migraine_risk":7,"frizz_risk":1,"updated_at":"2026-07-05T01:40:51.782896+05:30"},{"city":"Salem","state":"Tamil Nadu","latitude":11.6643,"longitude":78.146,"temp":24.8,"humidity":83,"rain":0.0,"pressure":975.9,"uv_index":7.7,"wind_gusts":44.3,"aqi":34,"pm10":11.6,"pm2_5":10.0,"no2":17.7,"co":178.0,"o3":25.0,"so2":5.4,"mosquito_risk":3,"arthritis_risk":5,"migraine_risk":7,"frizz_risk":1,"updated_at":"2026-07-05T01:40:51.782906+05:30"},{"city":"Tirunelveli","state":"Tamil Nadu","latitude":8.7139,"longitude":77.7567,"temp":28.4,"humidity":67,"rain":0.0,"pressure":1002.7,"uv_index":8.6,"wind_gusts":51.8,"aqi":19,"pm10":7.6,"pm2_5":5.1,"no2":7.2,"co":127.0,"o3":31.0,"so2":1.8,"mosquito_risk":7,"arthritis_risk":5,"migraine_risk":4,"frizz_risk":1,"updated_at":"2026-07-05T01:40:51.782914+05:30"},{"city":"Vellore","state":"Tamil Nadu","latitude":12.9165,"longitude":79.1325,"temp":28.2,"humidity":60,"rain":0.0,"pressure":981.3,"uv_index":8.25,"wind_gusts":59.8,"aqi":23,"pm10":3.5,"pm2_5":2.8,"no2":5.8,"co":120.0,"o3":41.0,"so2":2.4,"mosquito_risk":4,"arthritis_risk":5,"migraine_risk":7,"frizz_risk":1,"updated_at":"2026-07-05T01:40:51.782921+05:30"},{"city":"Erode","state":"Tamil Nadu","latitude":11.341,"longitude":77.7172,"temp":25.9,"humidity":78,"rain":0.0,"pressure":987.8,"uv_index":8.35,"wind_gusts":61.2,"aqi":24,"pm10":9.3,"pm2_5":7.7,"no2":12.6,"co":122.0,"o3":31.0,"so2":2.9,"mosquito_risk":7,"arthritis_risk":5,"migraine_risk":7,"frizz_risk":1,"updated_at":"2026-07-05T01:40:51.782928+05:30"},{"city":"Kochi","state":"Kerala","latitude":9.9312,"longitude":76.2673,"temp":26.4,"humidity":87,"rain":0.1,"pressure":1009.5,"uv_index":8.2,"wind_gusts":44.6,"aqi":42,"pm10":20.4,"pm2_5":13.0,"no2":14.9,"co":90.0,"o3":21.0,"so2":3.8,"mosquito_risk":10,"arthritis_risk":0,"migraine_risk":4,"frizz_risk":1,"updated_at":"2026-07-05T01:40:51.782936+05:30"},{"city":"Thiruvananthapuram","state":"Kerala","latitude":8.5241,"longitude":76.9366,"temp":24.5,"humidity":96,"rain":0.1,"pressure":1009.2,"uv_index":8.1,"wind_gusts":47.5,"aqi":33,"pm10":29.2,"pm2_5":13.5,"no2":2.0,"co":87.0,"o3":49.0,"so2":0.9,"mosquito_risk":6,"arthritis_risk":0,"migraine_risk":4,"frizz_risk":1,"updated_at":"2026-07-05T01:40:51.782943+05:30"},{"city":"Kozhikode","state":"Kerala","latitude":11.2588,"longitude":75.7804,"temp":23.5,"humidity":98,"rain":0.0,"pressure":1008.9,"uv_index":8.05,"wind_gusts":45.4,"aqi":31,"pm10":17.2,"pm2_5":8.2,"no2":1.2,"co":145.0,"o3":51.0,"so2":0.8,"mosquito_risk":3,"arthritis_risk":0,"migraine_risk":4,"frizz_risk":1,"updated_at":"2026-07-05T01:40:51.782949+05:30"},{"city":"Thrissur","state":"Kerala","latitude":10.5276,"longitude":76.2144,"temp":23.5,"humidity":96,"rain":0.0,"pressure":1008.0,"uv_index":6.05,"wind_gusts":47.5,"aqi":39,"pm10":9.4,"pm2_5":6.4,"no2":9.0,"co":120.0,"o3":31.0,"so2":3.1,"mosquito_risk":3,"arthritis_risk":0,"migraine_risk":4,"frizz_risk":1,"updated_at":"2026-07-05T01:40:51.782957+05:30"},{"city":"Kannur","state":"Kerala","latitude":11.8745,"longitude":75.3704,"temp":23.0,"humidity":100,"rain":0.1,"pressure":1007.8,"uv_index":8.0,"wind_gusts":51.8,"aqi":35,"pm10":9.5,"pm2_5":5.2,"no2":7.6,"co":164.0,"o3":33.0,"so2":1.9,"mosquito_risk":6,"arthritis_risk":5,"migraine_risk":4,"frizz_risk":1,"updated_at":"2026-07-05T01:40:51.782964+05:30"},{"city":"Patna","state":"Bihar","latitude":25.5941,"longitude":85.1376,"temp":30.1,"humidity":78,"rain":0.0,"pressure":990.8,"uv_index":8.0,"wind_gusts":49.0,"aqi":68,"pm10":21.9,"pm2_5":21.8,"no2":13.8,"co":338.0,"o3":83.0,"so2":10.2,"mosquito_risk":3,"arthritis_risk":5,"migraine_risk":7,"frizz_risk":1,"updated_at":"2026-07-05T01:40:51.782970+05:30"},{"city":"Gaya","state":"Bihar","latitude":24.7914,"longitude":85.0002,"temp":29.2,"humidity":77,"rain":0.0,"pressure":984.1,"uv_index":5.6,"wind_gusts":49.0,"aqi":60,"pm10":15.3,"pm2_5":15.1,"no2":12.7,"co":270.0,"o3":64.0,"so2":7.3,"mosquito_risk":7,"arthritis_risk":5,"migraine_risk":3,"frizz_risk":1,"updated_at":"2026-07-05T01:40:51.782977+05:30"},{"city":"Muzaffarpur","state":"Bihar","latitude":26.1209,"longitude":85.3647,"temp":29.7,"humidity":80,"rain":0.0,"pressure":991.1,"uv_index":7.5,"wind_gusts":48.6,"aqi":76,"pm10":26.4,"pm2_5":26.0,"no2":16.1,"co":354.0,"o3":74.0,"so2":8.5,"mosquito_risk":7,"arthritis_risk":5,"migraine_risk":7,"frizz_risk":1,"updated_at":"2026-07-05T01:40:51.782984+05:30"},{"city":"Bhagalpur","state":"Bihar","latitude":25.2425,"longitude":87.0117,"temp":28.3,"humidity":84,"rain":0.0,"pressure":992.5,"uv_index":8.5,"wind_gusts":50.0,"aqi":60,"pm10":15.8,"pm2_5":15.4,"no2":12.9,"co":241.0,"o3":68.0,"so2":5.8,"mosquito_risk":7,"arthritis_risk":5,"migraine_risk":7,"frizz_risk":1,"updated_at":"2026-07-05T01:40:51.782991+05:30"},{"city":"Ranchi","state":"Jharkhand","latitude":23.3441,"longitude":85.3096,"temp":23.6,"humidity":94,"rain":0.0,"pressure":927.9,"uv_index":8.65,"wind_gusts":48.6,"aqi":62,"pm10":10.2,"pm2_5":10.2,"no2":9.8,"co":201.0,"o3":63.0,"so2":15.0,"mosquito_risk":3,"arthritis_risk":5,"migraine_risk":7,"frizz_risk":1,"updated_at":"2026-07-05T01:40:51.782998+05:30"},{"city":"Jamshedpur","state":"Jharkhand","latitude":22.8046,"longitude":86.2029,"temp":26.5,"humidity":89,"rain":0.0,"pressure":979.0,"uv_index":7.2,"wind_gusts":46.4,"aqi":56,"pm10":20.6,"pm2_5":19.8,"no2":26.8,"co":348.0,"o3":41.0,"so2":34.4,"mosquito_risk":7,"arthritis_risk":5,"migraine_risk":7,"frizz_risk":1,"updated_at":"2026-07-05T01:40:51.783005+05:30"},{"city":"Dhanbad","state":"Jharkhand","latitude":23.7957,"longitude":86.4304,"temp":27.3,"humidity":82,"rain":0.0,"pressure":969.6,"uv_index":7.9,"wind_gusts":54.4,"aqi":74,"pm10":23.8,"pm2_5":23.5,"no2":24.8,"co":220.0,"o3":55.0,"so2":51.2,"mosquito_risk":7,"arthritis_risk":5,"migraine_risk":7,"frizz_risk":1,"updated_at":"2026-07-05T01:40:51.783012+05:30"},{"city":"Bokaro","state":"Jharkhand","latitude":23.6693,"longitude":86.1511,"temp":26.3,"humidity":90,"rain":0.0,"pressure":973.4,"uv_index":7.5,"wind_gusts":52.9,"aqi":75,"pm10":25.6,"pm2_5":25.2,"no2":25.6,"co":209.0,"o3":56.0,"so2":54.6,"mosquito_risk":7,"arthritis_risk":5,"migraine_risk":7,"frizz_risk":1,"updated_at":"2026-07-05T01:40:51.783019+05:30"},{"city":"Bhubaneswar","state":"Odisha","latitude":20.2961,"longitude":85.8245,"temp":25.3,"humidity":98,"rain":0.0,"pressure":989.2,"uv_index":7.05,"wind_gusts":59.0,"aqi":54,"pm10":15.4,"pm2_5":14.8,"no2":14.0,"co":248.0,"o3":47.0,"so2":6.2,"mosquito_risk":7,"arthritis_risk":5,"migraine_risk":7,"frizz_risk":1,"updated_at":"2026-07-05T01:40:51.783026+05:30"},{"city":"Cuttack","state":"Odisha","latitude":20.4625,"longitude":85.8828,"temp":25.6,"humidity":97,"rain":0.7,"pressure":990.7,"uv_index":8.2,"wind_gusts":42.5,"aqi":54,"pm10":15.4,"pm2_5":14.8,"no2":14.0,"co":231.0,"o3":47.0,"so2":6.2,"mosquito_risk":10,"arthritis_risk":5,"migraine_risk":7,"frizz_risk":1,"updated_at":"2026-07-05T01:40:51.783032+05:30"},{"city":"Rourkela","state":"Odisha","latitude":22.2604,"longitude":84.8536,"temp":26.1,"humidity":95,"rain":0.0,"pressure":973.1,"uv_index":7.15,"wind_gusts":43.9,"aqi":55,"pm10":13.7,"pm2_5":13.7,"no2":10.3,"co":364.0,"o3":68.0,"so2":11.7,"mosquito_risk":7,"arthritis_risk":5,"migraine_risk":7,"frizz_risk":1,"updated_at":"2026-07-05T01:40:51.783055+05:30"},{"city":"Raipur","state":"Chhattisgarh","latitude":21.2514,"longitude":81.6296,"temp":24.7,"humidity":98,"rain":0.0,"pressure":964.4,"uv_index":4.5,"wind_gusts":35.6,"aqi":69,"pm10":16.1,"pm2_5":16.0,"no2":23.0,"co":225.0,"o3":61.0,"so2":36.6,"mosquito_risk":3,"arthritis_risk":5,"migraine_risk":3,"frizz_risk":1,"updated_at":"2026-07-05T01:40:51.783062+05:30"},{"city":"Bhilai","state":"Chhattisgarh","latitude":21.1938,"longitude":81.3509,"temp":24.7,"humidity":97,"rain":0.1,"pressure":965.0,"uv_index":6.45,"wind_gusts":36.0,"aqi":64,"pm10":13.4,"pm2_5":13.3,"no2":18.6,"co":452.0,"o3":62.0,"so2":30.1,"mosquito_risk":6,"arthritis_risk":5,"migraine_risk":7,"frizz_risk":1,"updated_at":"2026-07-05T01:40:51.783069+05:30"},{"city":"Guwahati","state":"Assam","latitude":26.1158,"longitude":91.7086,"temp":28.0,"humidity":89,"rain":0.0,"pressure":993.3,"uv_index":7.7,"wind_gusts":34.6,"aqi":35,"pm10":14.8,"pm2_5":14.6,"no2":10.3,"co":261.0,"o3":32.0,"so2":1.2,"mosquito_risk":7,"arthritis_risk":5,"migraine_risk":7,"frizz_risk":1,"updated_at":"2026-07-05T01:40:51.783075+05:30"},{"city":"Agartala","state":"Tripura","latitude":23.8315,"longitude":91.2868,"temp":27.4,"humidity":87,"rain":0.0,"pressure":997.8,"uv_index":5.55,"wind_gusts":43.2,"aqi":38,"pm10":5.3,"pm2_5":5.0,"no2":6.3,"co":128.0,"o3":43.0,"so2":1.5,"mosquito_risk":7,"arthritis_risk":5,"migraine_risk":3,"frizz_risk":1,"updated_at":"2026-07-05T01:40:51.783083+05:30"},{"city":"Shillong","state":"Meghalaya","latitude":25.5788,"longitude":91.8933,"temp":19.9,"humidity":97,"rain":0.0,"pressure":852.1,"uv_index":6.05,"wind_gusts":37.4,"aqi":24,"pm10":1.7,"pm2_5":1.7,"no2":5.3,"co":165.0,"o3":48.0,"so2":1.4,"mosquito_risk":3,"arthritis_risk":10,"migraine_risk":7,"frizz_risk":1,"updated_at":"2026-07-05T01:40:51.783089+05:30"},{"city":"Imphal","state":"Manipur","latitude":24.817,"longitude":93.9368,"temp":24.0,"humidity":88,"rain":0.1,"pressure":918.4,"uv_index":3.25,"wind_gusts":28.8,"aqi":20,"pm10":5.3,"pm2_5":5.2,"no2":5.9,"co":304.0,"o3":37.0,"so2":1.3,"mosquito_risk":6,"arthritis_risk":5,"migraine_risk":3,"frizz_risk":1,"updated_at":"2026-07-05T01:40:51.783096+05:30"},{"city":"Aizawl","state":"Mizoram","latitude":23.7271,"longitude":92.7176,"temp":21.1,"humidity":98,"rain":0.1,"pressure":886.0,"uv_index":3.85,"wind_gusts":35.3,"aqi":18,"pm10":3.4,"pm2_5":3.3,"no2":6.6,"co":172.0,"o3":18.0,"so2":0.4,"mosquito_risk":6,"arthritis_risk":5,"migraine_risk":3,"frizz_risk":1,"updated_at":"2026-07-05T01:40:51.783103+05:30"},{"city":"Kohima","state":"Nagaland","latitude":25.6701,"longitude":94.1077,"temp":20.3,"humidity":89,"rain":0.0,"pressure":850.9,"uv_index":6.95,"wind_gusts":23.0,"aqi":21,"pm10":6.2,"pm2_5":6.1,"no2":9.0,"co":152.0,"o3":27.0,"so2":0.8,"mosquito_risk":3,"arthritis_risk":5,"migraine_risk":7,"frizz_risk":1,"updated_at":"2026-07-05T01:40:51.783110+05:30"},{"city":"Gangtok","state":"Sikkim","latitude":27.3314,"longitude":88.6138,"temp":18.5,"humidity":96,"rain":0.0,"pressure":833.0,"uv_index":9.0,"wind_gusts":33.5,"aqi":42,"pm10":9.2,"pm2_5":8.9,"no2":7.9,"co":287.0,"o3":80.0,"so2":1.1,"mosquito_risk":3,"arthritis_risk":10,"migraine_risk":7,"frizz_risk":1,"updated_at":"2026-07-05T01:40:51.783118+05:30"},{"city":"Siliguri","state":"West Bengal","latitude":26.7271,"longitude":88.3953,"temp":26.3,"humidity":86,"rain":0.0,"pressure":984.8,"uv_index":8.2,"wind_gusts":37.8,"aqi":69,"pm10":21.5,"pm2_5":21.1,"no2":14.9,"co":226.0,"o3":76.0,"so2":3.7,"mosquito_risk":7,"arthritis_risk":5,"migraine_risk":7,"frizz_risk":1,"updated_at":"2026-07-05T01:40:55.114173+05:30"},{"city":"Durgapur","state":"West Bengal","latitude":23.5204,"longitude":87.3119,"temp":28.2,"humidity":81,"rain":0.0,"pressure":984.2,"uv_index":7.85,"wind_gusts":53.6,"aqi":62,"pm10":19.8,"pm2_5":19.2,"no2":18.8,"co":241.0,"o3":49.0,"so2":17.8,"mosquito_risk":7,"arthritis_risk":5,"migraine_risk":7,"frizz_risk":1,"updated_at":"2026-07-05T01:40:55.114212+05:30"},{"city":"Asansol","state":"West Bengal","latitude":23.6739,"longitude":86.9524,"temp":27.8,"humidity":81,"rain":0.0,"pressure":982.9,"uv_index":7.05,"wind_gusts":49.3,"aqi":60,"pm10":17.1,"pm2_5":16.8,"no2":18.1,"co":269.0,"o3":55.0,"so2":17.8,"mosquito_risk":7,"arthritis_risk":5,"migraine_risk":7,"frizz_risk":1,"updated_at":"2026-07-05T01:40:55.114224+05:30"},{"city":"Pondicherry","state":"Puducherry","latitude":11.9139,"longitude":79.8145,"temp":28.7,"humidity":62,"rain":0.0,"pressure":1005.4,"uv_index":8.6,"wind_gusts":47.9,"aqi":40,"pm10":10.9,"pm2_5":8.9,"no2":14.4,"co":178.0,"o3":37.0,"so2":9.2,"mosquito_risk":7,"arthritis_risk":5,"migraine_risk":4,"frizz_risk":1,"updated_at":"2026-07-05T01:40:55.114234+05:30"},{"city":"Port Blair","state":"Andaman and Nicobar Islands","latitude":11.6234,"longitude":92.7265,"temp":26.3,"humidity":93,"rain":0.0,"pressure":1005.9,"uv_index":3.9,"wind_gusts":45.4,"aqi":41,"pm10":12.0,"pm2_5":6.9,"no2":0.2,"co":90.0,"o3":58.0,"so2":0.4,"mosquito_risk":7,"arthritis_risk":5,"migraine_risk":0,"frizz_risk":1,"updated_at":"2026-07-05T01:40:55.114242+05:30"},{"city":"Haridwar","state":"Uttarakhand","latitude":29.9457,"longitude":78.1642,"temp":28.6,"humidity":90,"rain":0.0,"pressure":966.7,"uv_index":6.95,"wind_gusts":27.0,"aqi":95,"pm10":67.1,"pm2_5":67.1,"no2":35.2,"co":490.0,"o3":55.0,"so2":15.5,"mosquito_risk":7,"arthritis_risk":5,"migraine_risk":7,"frizz_risk":1,"updated_at":"2026-07-05T01:40:55.114250+05:30"},{"city":"Rishikesh","state":"Uttarakhand","latitude":30.0869,"longitude":78.2676,"temp":27.5,"humidity":86,"rain":0.0,"pressure":959.6,"uv_index":7.05,"wind_gusts":27.7,"aqi":78,"pm10":32.0,"pm2_5":31.9,"no2":11.2,"co":458.0,"o3":103.0,"so2":8.2,"mosquito_risk":7,"arthritis_risk":5,"migraine_risk":7,"frizz_risk":1,"updated_at":"2026-07-05T01:40:55.114259+05:30"},{"city":"Nainital","state":"Uttarakhand","latitude":29.3919,"longitude":79.4542,"temp":16.6,"humidity":100,"rain":0.0,"pressure":801.5,"uv_index":5.9,"wind_gusts":29.2,"aqi":65,"pm10":18.0,"pm2_5":17.7,"no2":11.1,"co":294.0,"o3":75.0,"so2":2.4,"mosquito_risk":3,"arthritis_risk":10,"migraine_risk":3,"frizz_risk":1,"updated_at":"2026-07-05T01:40:55.114268+05:30"},{"city":"Mussoorie","state":"Uttarakhand","latitude":30.4599,"longitude":78.0664,"temp":17.9,"humidity":98,"rain":0.0,"pressure":799.9,"uv_index":7.65,"wind_gusts":37.1,"aqi":66,"pm10":37.0,"pm2_5":36.9,"no2":22.8,"co":355.0,"o3":89.0,"so2":9.8,"mosquito_risk":3,"arthritis_risk":10,"migraine_risk":7,"frizz_risk":1,"updated_at":"2026-07-05T01:40:55.114275+05:30"},{"city":"Dharamshala","state":"Himachal Pradesh","latitude":32.219,"longitude":76.3234,"temp":23.2,"humidity":84,"rain":0.0,"pressure":864.3,"uv_index":7.7,"wind_gusts":31.7,"aqi":37,"pm10":12.1,"pm2_5":12.0,"no2":16.2,"co":451.0,"o3":38.0,"so2":0.1,"mosquito_risk":3,"arthritis_risk":5,"migraine_risk":7,"frizz_risk":1,"updated_at":"2026-07-05T01:40:55.114283+05:30"},{"city":"Dalhousie","state":"Himachal Pradesh","latitude":32.5387,"longitude":75.971,"temp":17.0,"humidity":90,"rain":0.0,"pressure":799.7,"uv_index":7.85,"wind_gusts":28.4,"aqi":72,"pm10":46.1,"pm2_5":45.1,"no2":32.9,"co":596.0,"o3":48.0,"so2":1.7,"mosquito_risk":3,"arthritis_risk":10,"migraine_risk":7,"frizz_risk":0,"updated_at":"2026-07-05T01:40:55.114292+05:30"},{"city":"Patiala","state":"Punjab","latitude":30.3398,"longitude":76.3869,"temp":28.9,"humidity":91,"rain":0.0,"pressure":970.2,"uv_index":6.95,"wind_gusts":28.1,"aqi":137,"pm10":109.0,"pm2_5":106.4,"no2":61.5,"co":997.0,"o3":27.0,"so2":13.1,"mosquito_risk":7,"arthritis_risk":5,"migraine_risk":7,"frizz_risk":1,"updated_at":"2026-07-05T01:40:55.114300+05:30"},{"city":"Bhatinda","state":"Punjab","latitude":30.211,"longitude":74.9455,"temp":30.8,"humidity":80,"rain":0.0,"pressure":974.9,"uv_index":7.5,"wind_gusts":22.0,"aqi":130,"pm10":92.9,"pm2_5":50.6,"no2":24.7,"co":503.0,"o3":69.0,"so2":11.0,"mosquito_risk":3,"arthritis_risk":5,"migraine_risk":7,"frizz_risk":1,"updated_at":"2026-07-05T01:40:55.114307+05:30"},{"city":"Rohtak","state":"Haryana","latitude":28.8955,"longitude":76.6066,"temp":30.2,"humidity":85,"rain":0.0,"pressure":973.3,"uv_index":6.95,"wind_gusts":30.2,"aqi":159,"pm10":198.8,"pm2_5":76.6,"no2":47.2,"co":740.0,"o3":52.0,"so2":34.5,"mosquito_risk":3,"arthritis_risk":5,"migraine_risk":7,"frizz_risk":1,"updated_at":"2026-07-05T01:40:55.114315+05:30"},{"city":"Panipat","state":"Haryana","latitude":29.3909,"longitude":76.9635,"temp":29.5,"humidity":89,"rain":0.0,"pressure":972.3,"uv_index":6.95,"wind_gusts":32.0,"aqi":273,"pm10":310.1,"pm2_5":112.0,"no2":54.5,"co":841.0,"o3":39.0,"so2":25.1,"mosquito_risk":7,"arthritis_risk":5,"migraine_risk":7,"frizz_risk":1,"updated_at":"2026-07-05T01:40:55.114322+05:30"},{"city":"Mathura","state":"Uttar Pradesh","latitude":27.4924,"longitude":77.6737,"temp":29.0,"humidity":87,"rain":0.0,"pressure":978.6,"uv_index":7.7,"wind_gusts":20.5,"aqi":111,"pm10":41.8,"pm2_5":38.5,"no2":20.0,"co":461.0,"o3":84.0,"so2":5.4,"mosquito_risk":7,"arthritis_risk":5,"migraine_risk":7,"frizz_risk":1,"updated_at":"2026-07-05T01:40:55.114329+05:30"},{"city":"Vrindavan","state":"Uttar Pradesh","latitude":27.5823,"longitude":77.7027,"temp":29.9,"humidity":82,"rain":0.0,"pressure":978.8,"uv_index":7.65,"wind_gusts":20.5,"aqi":111,"pm10":41.8,"pm2_5":38.5,"no2":20.0,"co":445.0,"o3":84.0,"so2":5.4,"mosquito_risk":7,"arthritis_risk":5,"migraine_risk":7,"frizz_risk":1,"updated_at":"2026-07-05T01:40:55.114337+05:30"},{"city":"Ayodhya","state":"Uttar Pradesh","latitude":26.7922,"longitude":82.1998,"temp":30.5,"humidity":78,"rain":0.0,"pressure":986.3,"uv_index":6.6,"wind_gusts":33.5,"aqi":93,"pm10":38.1,"pm2_5":37.8,"no2":19.3,"co":432.0,"o3":68.0,"so2":8.6,"mosquito_risk":3,"arthritis_risk":5,"migraine_risk":7,"frizz_risk":1,"updated_at":"2026-07-05T01:40:55.114345+05:30"},{"city":"Ratlam","state":"Madhya Pradesh","latitude":23.3315,"longitude":75.0367,"temp":24.2,"humidity":95,"rain":0.2,"pressure":945.5,"uv_index":8.5,"wind_gusts":23.4,"aqi":51,"pm10":24.2,"pm2_5":15.6,"no2":5.3,"co":180.0,"o3":68.0,"so2":2.0,"mosquito_risk":6,"arthritis_risk":5,"migraine_risk":7,"frizz_risk":1,"updated_at":"2026-07-05T01:40:55.114352+05:30"},{"city":"Sagar","state":"Madhya Pradesh","latitude":23.8388,"longitude":78.7378,"temp":23.6,"humidity":100,"rain":0.0,"pressure":942.1,"uv_index":8.6,"wind_gusts":27.4,"aqi":58,"pm10":18.6,"pm2_5":18.5,"no2":9.2,"co":241.0,"o3":73.0,"so2":2.8,"mosquito_risk":3,"arthritis_risk":5,"migraine_risk":7,"frizz_risk":1,"updated_at":"2026-07-05T01:40:55.114359+05:30"},{"city":"Satna","state":"Madhya Pradesh","latitude":24.6005,"longitude":80.8322,"temp":25.6,"humidity":92,"rain":0.0,"pressure":962.5,"uv_index":7.85,"wind_gusts":35.6,"aqi":73,"pm10":15.4,"pm2_5":15.1,"no2":9.4,"co":281.0,"o3":84.0,"so2":2.9,"mosquito_risk":7,"arthritis_risk":5,"migraine_risk":7,"frizz_risk":1,"updated_at":"2026-07-05T01:40:55.114366+05:30"},{"city":"Akola","state":"Maharashtra","latitude":20.7002,"longitude":77.0082,"temp":24.4,"humidity":94,"rain":0.0,"pressure":967.0,"uv_index":7.9,"wind_gusts":50.0,"aqi":30,"pm10":9.3,"pm2_5":7.9,"no2":11.8,"co":171.0,"o3":52.0,"so2":7.8,"mosquito_risk":3,"arthritis_risk":5,"migraine_risk":7,"frizz_risk":1,"updated_at":"2026-07-05T01:40:55.114375+05:30"},{"city":"Amravati","state":"Maharashtra","latitude":20.9374,"longitude":77.7796,"temp":24.4,"humidity":94,"rain":0.0,"pressure":958.9,"uv_index":6.15,"wind_gusts":36.4,"aqi":31,"pm10":8.7,"pm2_5":7.1,"no2":11.2,"co":166.0,"o3":55.0,"so2":8.6,"mosquito_risk":3,"arthritis_risk":5,"migraine_risk":7,"frizz_risk":1,"updated_at":"2026-07-05T01:40:55.114382+05:30"},{"city":"Latur","state":"Maharashtra","latitude":18.4088,"longitude":76.5604,"temp":22.9,"humidity":94,"rain":0.0,"pressure":933.3,"uv_index":1.2,"wind_gusts":58.7,"aqi":21,"pm10":1.4,"pm2_5":1.4,"no2":3.5,"co":115.0,"o3":46.0,"so2":1.0,"mosquito_risk":3,"arthritis_risk":5,"migraine_risk":3,"frizz_risk":1,"updated_at":"2026-07-05T01:40:55.114390+05:30"},{"city":"Nanded","state":"Maharashtra","latitude":19.1383,"longitude":77.3091,"temp":25.3,"humidity":83,"rain":0.0,"pressure":961.6,"uv_index":2.8,"wind_gusts":50.0,"aqi":22,"pm10":2.5,"pm2_5":2.5,"no2":6.3,"co":136.0,"o3":40.0,"so2":3.1,"mosquito_risk":7,"arthritis_risk":5,"migraine_risk":3,"frizz_risk":1,"updated_at":"2026-07-05T01:40:55.114397+05:30"},{"city":"Gulbarga","state":"Karnataka","latitude":17.3297,"longitude":76.8343,"temp":23.4,"humidity":89,"rain":0.0,"pressure":953.3,"uv_index":1.0,"wind_gusts":70.6,"aqi":20,"pm10":2.1,"pm2_5":1.7,"no2":4.7,"co":118.0,"o3":41.0,"so2":1.8,"mosquito_risk":3,"arthritis_risk":5,"migraine_risk":3,"frizz_risk":1,"updated_at":"2026-07-05T01:40:55.114404+05:30"},{"city":"Bidar","state":"Karnataka","latitude":17.9104,"longitude":77.5199,"temp":22.5,"humidity":95,"rain":0.2,"pressure":929.0,"uv_index":1.75,"wind_gusts":63.7,"aqi":20,"pm10":1.6,"pm2_5":1.5,"no2":5.2,"co":120.0,"o3":40.0,"so2":1.9,"mosquito_risk":6,"arthritis_risk":5,"migraine_risk":3,"frizz_risk":1,"updated_at":"2026-07-05T01:40:55.114411+05:30"},{"city":"Hospet","state":"Karnataka","latitude":15.2689,"longitude":76.3909,"temp":22.4,"humidity":96,"rain":0.1,"pressure":952.1,"uv_index":4.7,"wind_gusts":71.6,"aqi":21,"pm10":1.5,"pm2_5":1.1,"no2":2.7,"co":101.0,"o3":44.0,"so2":1.0,"mosquito_risk":6,"arthritis_risk":5,"migraine_risk":3,"frizz_risk":1,"updated_at":"2026-07-05T01:40:55.114420+05:30"},{"city":"Tirupur","state":"Tamil Nadu","latitude":11.1085,"longitude":77.3411,"temp":24.4,"humidity":86,"rain":0.0,"pressure":973.8,"uv_index":8.55,"wind_gusts":75.2,"aqi":26,"pm10":10.2,"pm2_5":8.8,"no2":15.2,"co":111.0,"o3":27.0,"so2":3.5,"mosquito_risk":3,"arthritis_risk":5,"migraine_risk":7,"frizz_risk":1,"updated_at":"2026-07-05T01:40:55.114426+05:30"},{"city":"Alappuzha","state":"Kerala","latitude":9.4981,"longitude":76.3388,"temp":26.6,"humidity":89,"rain":0.0,"pressure":1009.6,"uv_index":8.1,"wind_gusts":43.9,"aqi":39,"pm10":20.9,"pm2_5":11.0,"no2":6.1,"co":83.0,"o3":39.0,"so2":1.8,"mosquito_risk":7,"arthritis_risk":0,"migraine_risk":4,"frizz_risk":1,"updated_at":"2026-07-05T01:40:55.114433+05:30"},{"city":"Munnar","state":"Kerala","latitude":10.0889,"longitude":77.0595,"temp":16.7,"humidity":99,"rain":0.3,"pressure":856.1,"uv_index":3.75,"wind_gusts":52.9,"aqi":17,"pm10":3.4,"pm2_5":2.2,"no2":4.7,"co":90.0,"o3":30.0,"so2":1.4,"mosquito_risk":6,"arthritis_risk":10,"migraine_risk":3,"frizz_risk":1,"updated_at":"2026-07-05T01:40:55.114441+05:30"},{"city":"Silchar","state":"Assam","latitude":24.8333,"longitude":92.7789,"temp":26.4,"humidity":98,"rain":0.1,"pressure":997.9,"uv_index":7.8,"wind_gusts":34.9,"aqi":46,"pm10":13.7,"pm2_5":13.6,"no2":7.6,"co":229.0,"o3":42.0,"so2":3.3,"mosquito_risk":10,"arthritis_risk":5,"migraine_risk":7,"frizz_risk":1,"updated_at":"2026-07-05T01:40:55.114449+05:30"},{"city":"Dibrugarh","state":"Assam","latitude":27.4728,"longitude":94.912,"temp":28.3,"humidity":77,"rain":0.0,"pressure":988.2,"uv_index":8.95,"wind_gusts":30.2,"aqi":59,"pm10":33.4,"pm2_5":32.8,"no2":33.5,"co":169.0,"o3":0.0,"so2":2.0,"mosquito_risk":7,"arthritis_risk":5,"migraine_risk":7,"frizz_risk":1,"updated_at":"2026-07-05T01:40:55.114455+05:30"}]