[{"city":"Delhi","state":"Delhi","latitude":28.6139,"longitude":77.209,"temp":21.3,"humidity":48,"rain":0.0,"pressure":982.2,"uv_index":5.65,"aqi":155,"mosquito_risk":0,"arthritis_risk":5,"migraine_risk":3,"frizz_risk":0,"updated_at":"2026-02-28T01:05:43.215101+05:30"},{"city":"Mumbai","state":"Maharashtra","latitude":19.076,"longitude":72.8777,"temp":26.0,"humidity":63,"rain":0.0,"pressure":1007.7,"uv_index":7.4,"aqi":68,"mosquito_risk":7,"arthritis_risk":5,"migraine_risk":4,"frizz_risk":1,"updated_at":"2026-02-28T01:05:43.215143+05:30"},{"city":"Bangalore","state":"Karnataka","latitude":12.9716,"longitude":77.5946,"temp":22.3,"humidity":64,"rain":0.0,"pressure":909.5,"uv_index":9.0,"aqi":108,"mosquito_risk":3,"arthritis_risk":5,"migraine_risk":7,"frizz_risk":0,"updated_at":"2026-02-28T01:05:43.215158+05:30"},{"city":"Hyderabad","state":"Telangana","latitude":17.385,"longitude":78.4867,"temp":22.7,"humidity":75,"rain":0.0,"pressure":950.9,"uv_index":8.2,"aqi":123,"mosquito_risk":3,"arthritis_risk":5,"migraine_risk":7,"frizz_risk":1,"updated_at":"2026-02-28T01:05:43.215167+05:30"},{"city":"Chennai","state":"Tamil Nadu","latitude":13.0827,"longitude":80.2707,"temp":25.2,"humidity":85,"rain":0.0,"pressure":1006.3,"uv_index":8.75,"aqi":114,"mosquito_risk":7,"arthritis_risk":5,"migraine_risk":4,"frizz_risk":1,"updated_at":"2026-02-28T01:05:43.215176+05:30"},{"city":"Kolkata","state":"West Bengal","latitude":22.5726,"longitude":88.3639,"temp":19.6,"humidity":85,"rain":0.0,"pressure":1005.5,"uv_index":7.5,"aqi":157,"mosquito_risk":3,"arthritis_risk":10,"migraine_risk":4,"frizz_risk":1,"updated_at":"2026-02-28T01:05:43.215184+05:30"},{"city":"Pune","state":"Maharashtra","latitude":18.5204,"longitude":73.8567,"temp":16.6,"humidity":75,"rain":0.0,"pressure":945.8,"uv_index":7.9,"aqi":73,"mosquito_risk":3,"arthritis_risk":5,"migraine_risk":7,"frizz_risk":0,"updated_at":"2026-02-28T01:05:43.215191+05:30"},{"city":"Ahmedabad","state":"Gujarat","latitude":23.0225,"longitude":72.5714,"temp":21.5,"humidity":79,"rain":0.0,"pressure":1001.4,"uv_index":7.15,"aqi":67,"mosquito_risk":3,"arthritis_risk":5,"migraine_risk":4,"frizz_risk":1,"updated_at":"2026-02-28T01:05:43.215198+05:30"},{"city":"Jaipur","state":"Rajasthan","latitude":26.9124,"longitude":75.7873,"temp":23.2,"humidity":49,"rain":0.0,"pressure":958.1,"uv_index":6.45,"aqi":82,"mosquito_risk":0,"arthritis_risk":5,"migraine_risk":7,"frizz_risk":0,"updated_at":"2026-02-28T01:05:43.215209+05:30"},{"city":"Lucknow","state":"Uttar Pradesh","latitude":26.8467,"longitude":80.9462,"temp":19.6,"humidity":62,"rain":0.0,"pressure":992.7,"uv_index":6.1,"aqi":123,"mosquito_risk":3,"arthritis_risk":5,"migraine_risk":7,"frizz_risk":0,"updated_at":"2026-02-28T01:05:43.215216+05:30"},{"city":"Kanpur","state":"Uttar Pradesh","latitude":26.4499,"longitude":80.3319,"temp":19.4,"humidity":66,"rain":0.0,"pressure":991.0,"uv_index":6.1,"aqi":127,"mosquito_risk":3,"arthritis_risk":5,"migraine_risk":7,"frizz_risk":0,"updated_at":"2026-02-28T01:05:43.215223+05:30"},{"city":"Chandigarh","state":"Chandigarh","latitude":30.7333,"longitude":76.7794,"temp":18.6,"humidity":69,"rain":0.0,"pressure":967.5,"uv_index":5.5,"aqi":117,"mosquito_risk":3,"arthritis_risk":5,"migraine_risk":3,"frizz_risk":0,"updated_at":"2026-02-28T01:05:43.215230+05:30"},{"city":"Srinagar","state":"Jammu and Kashmir","latitude":34.0837,"longitude":74.7973,"temp":6.5,"humidity":67,"rain":0.0,"pressure":837.0,"uv_index":6.4,"aqi":151,"mosquito_risk":3,"arthritis_risk":5,"migraine_risk":7,"frizz_risk":0,"updated_at":"2026-02-28T01:05:43.215236+05:30"},{"city":"Jammu","state":"Jammu and Kashmir","latitude":32.7266,"longitude":74.857,"temp":17.2,"humidity":81,"rain":0.0,"pressure":972.1,"uv_index":6.1,"aqi":121,"mosquito_risk":3,"arthritis_risk":10,"migraine_risk":7,"frizz_risk":0,"updated_at":"2026-02-28T01:05:43.215243+05:30"},{"city":"Amritsar","state":"Punjab","latitude":31.634,"longitude":74.8723,"temp":17.1,"humidity":87,"rain":0.0,"pressure":980.3,"uv_index":6.1,"aqi":168,"mosquito_risk":3,"arthritis_risk":10,"migraine_risk":7,"frizz_risk":0,"updated_at":"2026-02-28T01:05:43.215249+05:30"},{"city":"Ludhiana","state":"Punjab","latitude":30.901,"longitude":75.8573,"temp":19.2,"humidity":74,"rain":0.0,"pressure":977.9,"uv_index":5.75,"aqi":174,"mosquito_risk":3,"arthritis_risk":5,"migraine_risk":3,"frizz_risk":0,"updated_at":"2026-02-28T01:05:43.215256+05:30"},{"city":"Jalandhar","state":"Punjab","latitude":31.326,"longitude":75.5762,"temp":18.1,"humidity":81,"rain":0.0,"pressure":978.7,"uv_index":5.95,"aqi":173,"mosquito_risk":3,"arthritis_risk":10,"migraine_risk":3,"frizz_risk":0,"updated_at":"2026-02-28T01:05:43.215265+05:30"},{"city":"Dehradun","state":"Uttarakhand","latitude":30.6284,"longitude":78.0322,"temp":10.3,"humidity":60,"rain":0.0,"pressure":826.1,"uv_index":5.85,"aqi":72,"mosquito_risk":0,"arthritis_risk":5,"migraine_risk":3,"frizz_risk":0,"updated_at":"2026-02-28T01:05:43.215272+05:30"},{"city":"Shimla","state":"Himachal Pradesh","latitude":31.1048,"longitude":77.1734,"temp":8.1,"humidity":59,"rain":0.0,"pressure":779.3,"uv_index":5.95,"aqi":82,"mosquito_risk":0,"arthritis_risk":5,"migraine_risk":3,"frizz_risk":0,"updated_at":"2026-02-28T01:05:43.215280+05:30"},{"city":"Manali","state":"Himachal Pradesh","latitude":32.2396,"longitude":77.1887,"temp":8.7,"humidity":53,"rain":0.0,"pressure":814.8,"uv_index":7.55,"aqi":104,"mosquito_risk":0,"arthritis_risk":5,"migraine_risk":7,"frizz_risk":1,"updated_at":"2026-02-28T01:05:43.215291+05:30"},{"city":"Gurgaon","state":"Haryana","latitude":28.4595,"longitude":77.0266,"temp":20.3,"humidity":53,"rain":0.0,"pressure":980.3,"uv_index":5.75,"aqi":159,"mosquito_risk":0,"arthritis_risk":5,"migraine_risk":3,"frizz_risk":0,"updated_at":"2026-02-28T01:05:43.215297+05:30"},{"city":"Noida","state":"Uttar Pradesh","latitude":28.5355,"longitude":77.391,"temp":20.7,"humidity":52,"rain":0.0,"pressure":983.7,"uv_index":5.65,"aqi":159,"mosquito_risk":0,"arthritis_risk":5,"migraine_risk":3,"frizz_risk":0,"updated_at":"2026-02-28T01:05:43.215304+05:30"},{"city":"Ghaziabad","state":"Uttar Pradesh","latitude":28.6692,"longitude":77.4538,"temp":18.9,"humidity":62,"rain":0.0,"pressure":981.7,"uv_index":5.6,"aqi":155,"mosquito_risk":3,"arthritis_risk":5,"migraine_risk":3,"frizz_risk":0,"updated_at":"2026-02-28T01:05:43.215310+05:30"},{"city":"Faridabad","state":"Haryana","latitude":28.4089,"longitude":77.3178,"temp":20.5,"humidity":49,"rain":0.0,"pressure":982.8,"uv_index":5.65,"aqi":159,"mosquito_risk":0,"arthritis_risk":5,"migraine_risk":3,"frizz_risk":0,"updated_at":"2026-02-28T01:05:43.215316+05:30"},{"city":"Meerut","state":"Uttar Pradesh","latitude":28.9845,"longitude":77.7064,"temp":17.9,"humidity":75,"rain":0.0,"pressure":980.4,"uv_index":5.5,"aqi":155,"mosquito_risk":3,"arthritis_risk":5,"migraine_risk":3,"frizz_risk":0,"updated_at":"2026-02-28T01:05:43.215323+05:30"},{"city":"Agra","state":"Uttar Pradesh","latitude":27.1767,"longitude":78.0081,"temp":19.4,"humidity":62,"rain":0.0,"pressure":986.7,"uv_index":6.0,"aqi":144,"mosquito_risk":3,"arthritis_risk":5,"migraine_risk":3,"frizz_risk":0,"updated_at":"2026-02-28T01:05:43.215329+05:30"},{"city":"Varanasi","state":"Uttar Pradesh","latitude":25.3176,"longitude":82.9739,"temp":18.3,"humidity":64,"rain":0.0,"pressure":996.8,"uv_index":6.8,"aqi":115,"mosquito_risk":3,"arthritis_risk":5,"migraine_risk":7,"frizz_risk":0,"updated_at":"2026-02-28T01:05:43.215336+05:30"},{"city":"Prayagraj","state":"Uttar Pradesh","latitude":25.4358,"longitude":81.8463,"temp":20.5,"humidity":61,"rain":0.0,"pressure":995.4,"uv_index":6.65,"aqi":139,"mosquito_risk":3,"arthritis_risk":5,"migraine_risk":7,"frizz_risk":0,"updated_at":"2026-02-28T01:05:43.215343+05:30"},{"city":"Gorakhpur","state":"Uttar Pradesh","latitude":26.7606,"longitude":83.3732,"temp":15.7,"humidity":77,"rain":0.0,"pressure":996.2,"uv_index":6.5,"aqi":151,"mosquito_risk":3,"arthritis_risk":5,"migraine_risk":7,"frizz_risk":0,"updated_at":"2026-02-28T01:05:43.215351+05:30"},{"city":"Bareilly","state":"Uttar Pradesh","latitude":28.367,"longitude":79.4304,"temp":17.0,"humidity":71,"rain":0.0,"pressure":985.9,"uv_index":5.75,"aqi":149,"mosquito_risk":3,"arthritis_risk":5,"migraine_risk":3,"frizz_risk":0,"updated_at":"2026-02-28T01:05:43.215357+05:30"},{"city":"Aligarh","state":"Uttar Pradesh","latitude":27.8974,"longitude":78.088,"temp":18.7,"humidity":64,"rain":0.0,"pressure":984.4,"uv_index":5.75,"aqi":153,"mosquito_risk":3,"arthritis_risk":5,"migraine_risk":3,"frizz_risk":0,"updated_at":"2026-02-28T01:05:43.215363+05:30"},{"city":"Moradabad","state":"Uttar Pradesh","latitude":28.8386,"longitude":78.7733,"temp":17.5,"humidity":73,"rain":0.0,"pressure":982.5,"uv_index":5.6,"aqi":153,"mosquito_risk":3,"arthritis_risk":5,"migraine_risk":3,"frizz_risk":0,"updated_at":"2026-02-28T01:05:43.215370+05:30"},{"city":"Saharanpur","state":"Uttar Pradesh","latitude":29.9637,"longitude":77.546,"temp":16.4,"humidity":86,"rain":0.0,"pressure":974.5,"uv_index":5.25,"aqi":156,"mosquito_risk":3,"arthritis_risk":10,"migraine_risk":3,"frizz_risk":0,"updated_at":"2026-02-28T01:05:43.215375+05:30"},{"city":"Jhansi","state":"Uttar Pradesh","latitude":25.4484,"longitude":78.5685,"temp":21.9,"humidity":56,"rain":0.0,"pressure":976.7,"uv_index":6.6,"aqi":81,"mosquito_risk":0,"arthritis_risk":5,"migraine_risk":7,"frizz_risk":0,"updated_at":"2026-02-28T01:05:46.524663+05:30"},{"city":"Surat","state":"Gujarat","latitude":21.1702,"longitude":72.8311,"temp":23.1,"humidity":80,"rain":0.0,"pressure":1006.2,"uv_index":7.1,"aqi":77,"mosquito_risk":3,"arthritis_risk":5,"migraine_risk":4,"frizz_risk":1,"updated_at":"2026-02-28T01:05:46.524696+05:30"},{"city":"Vadodara","state":"Gujarat","latitude":22.3072,"longitude":73.1812,"temp":21.1,"humidity":89,"rain":0.0,"pressure":1003.7,"uv_index":7.15,"aqi":67,"mosquito_risk":3,"arthritis_risk":5,"migraine_risk":4,"frizz_risk":1,"updated_at":"2026-02-28T01:05:46.524707+05:30"},{"city":"Rajkot","state":"Gujarat","latitude":22.3039,"longitude":70.8022,"temp":21.7,"humidity":75,"rain":0.0,"pressure":993.6,"uv_index":7.05,"aqi":61,"mosquito_risk":3,"arthritis_risk":5,"migraine_risk":7,"frizz_risk":1,"updated_at":"2026-02-28T01:05:46.524717+05:30"},{"city":"Thane","state":"Maharashtra","latitude":19.2183,"longitude":72.9781,"temp":23.9,"humidity":70,"rain":0.0,"pressure":1007.2,"uv_index":7.4,"aqi":68,"mosquito_risk":3,"arthritis_risk":5,"migraine_risk":4,"frizz_risk":1,"updated_at":"2026-02-28T01:05:46.524724+05:30"},{"city":"Nagpur","state":"Maharashtra","latitude":21.1458,"longitude":79.0882,"temp":24.2,"humidity":53,"rain":0.0,"pressure":971.2,"uv_index":7.55,"aqi":123,"mosquito_risk":0,"arthritis_risk":5,"migraine_risk":7,"frizz_risk":0,"updated_at":"2026-02-28T01:05:46.524733+05:30"},{"city":"Nashik","state":"Maharashtra","latitude":19.9975,"longitude":73.7898,"temp":17.0,"humidity":90,"rain":0.0,"pressure":943.2,"uv_index":7.55,"aqi":57,"mosquito_risk":3,"arthritis_risk":10,"migraine_risk":7,"frizz_risk":0,"updated_at":"2026-02-28T01:05:46.524741+05:30"},{"city":"Aurangabad","state":"Maharashtra","latitude":19.8762,"longitude":75.3433,"temp":22.0,"humidity":59,"rain":0.0,"pressure":942.1,"uv_index":7.9,"aqi":49,"mosquito_risk":0,"arthritis_risk":5,"migraine_risk":7,"frizz_risk":0,"updated_at":"2026-02-28T01:05:46.524749+05:30"},{"city":"Solapur","state":"Maharashtra","latitude":17.6599,"longitude":75.9064,"temp":22.1,"humidity":61,"rain":0.0,"pressure":954.9,"uv_index":8.15,"aqi":58,"mosquito_risk":3,"arthritis_risk":5,"migraine_risk":7,"frizz_risk":0,"updated_at":"2026-02-28T01:05:46.524758+05:30"},{"city":"Kolhapur","state":"Maharashtra","latitude":16.705,"longitude":74.2433,"temp":17.8,"humidity":67,"rain":0.0,"pressure":945.3,"uv_index":8.35,"aqi":50,"mosquito_risk":3,"arthritis_risk":5,"migraine_risk":7,"frizz_risk":0,"updated_at":"2026-02-28T01:05:46.524765+05:30"},{"city":"Goa","state":"Goa","latitude":15.2993,"longitude":74.124,"temp":24.6,"humidity":71,"rain":0.0,"pressure":996.1,"uv_index":8.35,"aqi":47,"mosquito_risk":3,"arthritis_risk":5,"migraine_risk":7,"frizz_risk":1,"updated_at":"2026-02-28T01:05:46.524773+05:30"},{"city":"Jodhpur","state":"Rajasthan","latitude":26.2389,"longitude":73.0243,"temp":21.3,"humidity":52,"rain":0.0,"pressure":981.2,"uv_index":6.7,"aqi":64,"mosquito_risk":0,"arthritis_risk":5,"migraine_risk":7,"frizz_risk":0,"updated_at":"2026-02-28T01:05:46.524781+05:30"},{"city":"Udaipur","state":"Rajasthan","latitude":24.5854,"longitude":73.7125,"temp":18.3,"humidity":58,"rain":0.0,"pressure":944.7,"uv_index":7.4,"aqi":64,"mosquito_risk":0,"arthritis_risk":5,"migraine_risk":7,"frizz_risk":0,"updated_at":"2026-02-28T01:05:46.524789+05:30"},{"city":"Kota","state":"Rajasthan","latitude":25.2138,"longitude":75.8648,"temp":19.4,"humidity":67,"rain":0.0,"pressure":977.1,"uv_index":6.8,"aqi":89,"mosquito_risk":3,"arthritis_risk":5,"migraine_risk":7,"frizz_risk":0,"updated_at":"2026-02-28T01:05:46.524796+05:30"},{"city":"Bikaner","state":"Rajasthan","latitude":28.0229,"longitude":73.3119,"temp":24.8,"humidity":40,"rain":0.0,"pressure":980.0,"uv_index":6.4,"aqi":62,"mosquito_risk":0,"arthritis_risk":5,"migraine_risk":7,"frizz_risk":0,"updated_at":"2026-02-28T01:05:46.524805+05:30"},{"city":"Ajmer","state":"Rajasthan","latitude":26.4499,"longitude":74.6399,"temp":21.0,"humidity":56,"rain":0.0,"pressure":952.5,"uv_index":6.75,"aqi":71,"mosquito_risk":0,"arthritis_risk":5,"migraine_risk":7,"frizz_risk":0,"updated_at":"2026-02-28T01:05:46.524812+05:30"},{"city":"Gwalior","state":"Madhya Pradesh","latitude":26.2183,"longitude":78.1828,"temp":21.4,"humidity":75,"rain":0.0,"pressure":982.1,"uv_index":6.3,"aqi":75,"mosquito_risk":3,"arthritis_risk":5,"migraine_risk":7,"frizz_risk":1,"updated_at":"2026-02-28T01:05:46.524820+05:30"},{"city":"Indore","state":"Madhya Pradesh","latitude":22.7196,"longitude":75.8577,"temp":18.1,"humidity":83,"rain":0.0,"pressure":945.9,"uv_index":7.3,"aqi":81,"mosquito_risk":3,"arthritis_risk":10,"migraine_risk":7,"frizz_risk":0,"updated_at":"2026-02-28T01:05:46.524828+05:30"},{"city":"Bhopal","state":"Madhya Pradesh","latitude":23.2599,"longitude":77.4126,"temp":21.9,"humidity":62,"rain":0.0,"pressure":951.5,"uv_index":7.15,"aqi":90,"mosquito_risk":3,"arthritis_risk":5,"migraine_risk":7,"frizz_risk":0,"updated_at":"2026-02-28T01:05:46.524835+05:30"},{"city":"Jabalpur","state":"Madhya Pradesh","latitude":23.1815,"longitude":79.9864,"temp":21.7,"humidity":53,"rain":0.0,"pressure":959.7,"uv_index":7.2,"aqi":79,"mosquito_risk":0,"arthritis_risk":5,"migraine_risk":7,"frizz_risk":0,"updated_at":"2026-02-28T01:05:46.524843+05:30"},{"city":"Ujjain","state":"Madhya Pradesh","latitude":23.1765,"longitude":75.7885,"temp":18.7,"humidity":81,"rain":0.0,"pressure":951.8,"uv_index":7.2,"aqi":78,"mosquito_risk":3,"arthritis_risk":10,"migraine_risk":7,"frizz_risk":0,"updated_at":"2026-02-28T01:05:46.524852+05:30"},{"city":"Visakhapatnam","state":"Andhra Pradesh","latitude":17.6868,"longitude":83.2185,"temp":25.0,"humidity":88,"rain":0.0,"pressure":1003.0,"uv_index":8.25,"aqi":103,"mosquito_risk":7,"arthritis_risk":5,"migraine_risk":4,"frizz_risk":1,"updated_at":"2026-02-28T01:05:46.524860+05:30"},{"city":"Vijayawada","state":"Andhra Pradesh","latitude":16.5062,"longitude":80.648,"temp":24.1,"humidity":92,"rain":0.0,"pressure":1001.4,"uv_index":8.3,"aqi":104,"mosquito_risk":3,"arthritis_risk":5,"migraine_risk":4,"frizz_risk":1,"updated_at":"2026-02-28T01:05:46.524867+05:30"},{"city":"Guntur","state":"Andhra Pradesh","latitude":16.3067,"longitude":80.4365,"temp":24.5,"humidity":91,"rain":0.0,"pressure":1002.7,"uv_index":8.3,"aqi":98,"mosquito_risk":3,"arthritis_risk":5,"migraine_risk":4,"frizz_risk":1,"updated_at":"2026-02-28T01:05:46.524876+05:30"},{"city":"Nellore","state":"Andhra Pradesh","latitude":14.4426,"longitude":79.9865,"temp":24.4,"humidity":90,"rain":0.0,"pressure":1004.8,"uv_index":8.55,"aqi":106,"mosquito_risk":3,"arthritis_risk":5,"migraine_risk":4,"frizz_risk":1,"updated_at":"2026-02-28T01:05:46.524884+05:30"},{"city":"Kurnool","state":"Andhra Pradesh","latitude":15.8281,"longitude":78.0373,"temp":25.6,"humidity":58,"rain":0.0,"pressure":974.5,"uv_index":8.3,"aqi":96,"mosquito_risk":4,"arthritis_risk":5,"migraine_risk":7,"frizz_risk":1,"updated_at":"2026-02-28T01:05:46.524892+05:30"},{"city":"Kakinada","state":"Andhra Pradesh","latitude":16.9891,"longitude":82.2475,"temp":23.2,"humidity":92,"rain":0.0,"pressure":1006.6,"uv_index":8.25,"aqi":97,"mosquito_risk":3,"arthritis_risk":5,"migraine_risk":4,"frizz_risk":1,"updated_at":"2026-02-28T01:05:46.524899+05:30"},{"city":"Tirupati","state":"Andhra Pradesh","latitude":13.6288,"longitude":79.4192,"temp":22.5,"humidity":79,"rain":0.0,"pressure":991.0,"uv_index":8.7,"aqi":118,"mosquito_risk":3,"arthritis_risk":5,"migraine_risk":7,"frizz_risk":1,"updated_at":"2026-02-28T01:05:46.524905+05:30"},{"city":"Warangal","state":"Telangana","latitude":17.9689,"longitude":79.5941,"temp":24.3,"humidity":64,"rain":0.0,"pressure":976.5,"uv_index":8.05,"aqi":152,"mosquito_risk":3,"arthritis_risk":5,"migraine_risk":7,"frizz_risk":1,"updated_at":"2026-02-28T01:05:46.524911+05:30"},{"city":"Nizamabad","state":"Telangana","latitude":18.6725,"longitude":78.0941,"temp":25.5,"humidity":57,"rain":0.0,"pressure":962.4,"uv_index":7.95,"aqi":131,"mosquito_risk":4,"arthritis_risk":5,"migraine_risk":7,"frizz_risk":1,"updated_at":"2026-02-28T01:05:46.524916+05:30"},{"city":"Mysore","state":"Karnataka","latitude":12.2958,"longitude":76.6396,"temp":22.2,"humidity":82,"rain":0.0,"pressure":926.2,"uv_index":9.05,"aqi":131,"mosquito_risk":3,"arthritis_risk":5,"migraine_risk":7,"frizz_risk":1,"updated_at":"2026-02-28T01:05:46.524922+05:30"},{"city":"Mangalore","state":"Karnataka","latitude":12.9141,"longitude":74.856,"temp":28.5,"humidity":75,"rain":0.0,"pressure":1004.8,"uv_index":8.65,"aqi":46,"mosquito_risk":7,"arthritis_risk":5,"migraine_risk":4,"frizz_risk":1,"updated_at":"2026-02-28T01:05:46.524928+05:30"},{"city":"Hubli-Dharwad","state":"Karnataka","latitude":15.3647,"longitude":75.124,"temp":21.0,"humidity":58,"rain":0.0,"pressure":938.0,"uv_index":8.5,"aqi":51,"mosquito_risk":0,"arthritis_risk":5,"migraine_risk":7,"frizz_risk":0,"updated_at":"2026-02-28T01:05:46.524934+05:30"},{"city":"Belgaum","state":"Karnataka","latitude":15.8497,"longitude":74.4977,"temp":20.5,"humidity":48,"rain":0.0,"pressure":922.8,"uv_index":8.55,"aqi":39,"mosquito_risk":0,"arthritis_risk":5,"migraine_risk":7,"frizz_risk":0,"updated_at":"2026-02-28T01:05:49.836024+05:30"},{"city":"Coimbatore","state":"Tamil Nadu","latitude":11.0168,"longitude":76.9558,"temp":23.0,"humidity":88,"rain":0.0,"pressure":960.1,"uv_index":9.05,"aqi":121,"mosquito_risk":3,"arthritis_risk":5,"migraine_risk":7,"frizz_risk":1,"updated_at":"2026-02-28T01:05:49.836057+05:30"},{"city":"Madurai","state":"Tamil Nadu","latitude":9.9252,"longitude":78.1198,"temp":24.9,"humidity":90,"rain":0.0,"pressure":992.3,"uv_index":9.0,"aqi":145,"mosquito_risk":3,"arthritis_risk":5,"migraine_risk":7,"frizz_risk":1,"updated_at":"2026-02-28T01:05:49.836100+05:30"},{"city":"Trichy","state":"Tamil Nadu","latitude":10.7905,"longitude":78.7047,"temp":23.9,"humidity":89,"rain":0.0,"pressure":999.1,"uv_index":8.9,"aqi":107,"mosquito_risk":3,"arthritis_risk":5,"migraine_risk":7,"frizz_risk":1,"updated_at":"2026-02-28T01:05:49.836111+05:30"},{"city":"Salem","state":"Tamil Nadu","latitude":11.6643,"longitude":78.146,"temp":25.5,"humidity":74,"rain":0.0,"pressure":976.1,"uv_index":8.9,"aqi":115,"mosquito_risk":7,"arthritis_risk":5,"migraine_risk":7,"frizz_risk":1,"updated_at":"2026-02-28T01:05:49.836119+05:30"},{"city":"Tirunelveli","state":"Tamil Nadu","latitude":8.7139,"longitude":77.7567,"temp":24.8,"humidity":89,"rain":0.0,"pressure":1002.1,"uv_index":9.05,"aqi":111,"mosquito_risk":3,"arthritis_risk":5,"migraine_risk":4,"frizz_risk":1,"updated_at":"2026-02-28T01:05:49.836126+05:30"},{"city":"Vellore","state":"Tamil Nadu","latitude":12.9165,"longitude":79.1325,"temp":21.9,"humidity":74,"rain":0.0,"pressure":983.6,"uv_index":8.8,"aqi":120,"mosquito_risk":3,"arthritis_risk":5,"migraine_risk":7,"frizz_risk":1,"updated_at":"2026-02-28T01:05:49.836133+05:30"},{"city":"Erode","state":"Tamil Nadu","latitude":11.341,"longitude":77.7172,"temp":25.7,"humidity":77,"rain":0.0,"pressure":988.0,"uv_index":8.95,"aqi":125,"mosquito_risk":7,"arthritis_risk":5,"migraine_risk":7,"frizz_risk":1,"updated_at":"2026-02-28T01:05:49.836139+05:30"},{"city":"Kochi","state":"Kerala","latitude":9.9312,"longitude":76.2673,"temp":28.5,"humidity":76,"rain":0.0,"pressure":1006.9,"uv_index":8.75,"aqi":98,"mosquito_risk":7,"arthritis_risk":5,"migraine_risk":4,"frizz_risk":1,"updated_at":"2026-02-28T01:05:49.836146+05:30"},{"city":"Thiruvananthapuram","state":"Kerala","latitude":8.5241,"longitude":76.9366,"temp":27.5,"humidity":81,"rain":0.0,"pressure":1006.2,"uv_index":8.8,"aqi":111,"mosquito_risk":7,"arthritis_risk":5,"migraine_risk":4,"frizz_risk":1,"updated_at":"2026-02-28T01:05:49.836152+05:30"},{"city":"Kozhikode","state":"Kerala","latitude":11.2588,"longitude":75.7804,"temp":28.8,"humidity":74,"rain":0.0,"pressure":1005.8,"uv_index":8.75,"aqi":66,"mosquito_risk":7,"arthritis_risk":5,"migraine_risk":4,"frizz_risk":1,"updated_at":"2026-02-28T01:05:49.836159+05:30"},{"city":"Thrissur","state":"Kerala","latitude":10.5276,"longitude":76.2144,"temp":26.1,"humidity":87,"rain":0.0,"pressure":1005.1,"uv_index":8.8,"aqi":107,"mosquito_risk":7,"arthritis_risk":5,"migraine_risk":4,"frizz_risk":1,"updated_at":"2026-02-28T01:05:49.836166+05:30"},{"city":"Kannur","state":"Kerala","latitude":11.8745,"longitude":75.3704,"temp":27.7,"humidity":76,"rain":0.0,"pressure":1005.2,"uv_index":8.7,"aqi":51,"mosquito_risk":7,"arthritis_risk":5,"migraine_risk":4,"frizz_risk":1,"updated_at":"2026-02-28T01:05:49.836173+05:30"},{"city":"Patna","state":"Bihar","latitude":25.5941,"longitude":85.1376,"temp":19.7,"humidity":66,"rain":0.0,"pressure":999.5,"uv_index":6.95,"aqi":151,"mosquito_risk":3,"arthritis_risk":5,"migraine_risk":7,"frizz_risk":0,"updated_at":"2026-02-28T01:05:49.836180+05:30"},{"city":"Gaya","state":"Bihar","latitude":24.7914,"longitude":85.0002,"temp":18.4,"humidity":64,"rain":0.0,"pressure":993.1,"uv_index":7.05,"aqi":103,"mosquito_risk":3,"arthritis_risk":5,"migraine_risk":7,"frizz_risk":0,"updated_at":"2026-02-28T01:05:49.836186+05:30"},{"city":"Muzaffarpur","state":"Bihar","latitude":26.1209,"longitude":85.3647,"temp":17.6,"humidity":70,"rain":0.0,"pressure":999.2,"uv_index":6.9,"aqi":155,"mosquito_risk":3,"arthritis_risk":5,"migraine_risk":7,"frizz_risk":0,"updated_at":"2026-02-28T01:05:49.836192+05:30"},{"city":"Bhagalpur","state":"Bihar","latitude":25.2425,"longitude":87.0117,"temp":19.1,"humidity":62,"rain":0.0,"pressure":1000.3,"uv_index":7.0,"aqi":136,"mosquito_risk":3,"arthritis_risk":5,"migraine_risk":4,"frizz_risk":0,"updated_at":"2026-02-28T01:05:49.836198+05:30"},{"city":"Ranchi","state":"Jharkhand","latitude":23.3441,"longitude":85.3096,"temp":17.9,"humidity":50,"rain":0.0,"pressure":936.3,"uv_index":7.7,"aqi":75,"mosquito_risk":0,"arthritis_risk":5,"migraine_risk":7,"frizz_risk":0,"updated_at":"2026-02-28T01:05:49.836205+05:30"},{"city":"Jamshedpur","state":"Jharkhand","latitude":22.8046,"longitude":86.2029,"temp":18.9,"humidity":76,"rain":0.0,"pressure":990.4,"uv_index":7.6,"aqi":124,"mosquito_risk":3,"arthritis_risk":5,"migraine_risk":7,"frizz_risk":0,"updated_at":"2026-02-28T01:05:49.836211+05:30"},{"city":"Dhanbad","state":"Jharkhand","latitude":23.7957,"longitude":86.4304,"temp":18.3,"humidity":50,"rain":0.0,"pressure":979.1,"uv_index":7.45,"aqi":132,"mosquito_risk":0,"arthritis_risk":5,"migraine_risk":7,"frizz_risk":0,"updated_at":"2026-02-28T01:05:49.836217+05:30"},{"city":"Bokaro","state":"Jharkhand","latitude":23.6693,"longitude":86.1511,"temp":19.6,"humidity":48,"rain":0.0,"pressure":983.5,"uv_index":7.45,"aqi":127,"mosquito_risk":0,"arthritis_risk":5,"migraine_risk":7,"frizz_risk":0,"updated_at":"2026-02-28T01:05:49.836223+05:30"},{"city":"Bhubaneswar","state":"Odisha","latitude":20.2961,"longitude":85.8245,"temp":22.7,"humidity":95,"rain":0.0,"pressure":1001.7,"uv_index":7.95,"aqi":116,"mosquito_risk":3,"arthritis_risk":5,"migraine_risk":4,"frizz_risk":1,"updated_at":"2026-02-28T01:05:49.836229+05:30"},{"city":"Cuttack","state":"Odisha","latitude":20.4625,"longitude":85.8828,"temp":21.9,"humidity":92,"rain":0.0,"pressure":1003.6,"uv_index":7.95,"aqi":116,"mosquito_risk":3,"arthritis_risk":5,"migraine_risk":4,"frizz_risk":1,"updated_at":"2026-02-28T01:05:49.836235+05:30"},{"city":"Rourkela","state":"Odisha","latitude":22.2604,"longitude":84.8536,"temp":17.8,"humidity":67,"rain":0.0,"pressure":984.3,"uv_index":7.5,"aqi":95,"mosquito_risk":3,"arthritis_risk":5,"migraine_risk":7,"frizz_risk":0,"updated_at":"2026-02-28T01:05:49.836241+05:30"},{"city":"Raipur","state":"Chhattisgarh","latitude":21.2514,"longitude":81.6296,"temp":23.3,"humidity":51,"rain":0.0,"pressure":973.0,"uv_index":7.65,"aqi":152,"mosquito_risk":0,"arthritis_risk":5,"migraine_risk":7,"frizz_risk":0,"updated_at":"2026-02-28T01:05:49.836246+05:30"},{"city":"Bhilai","state":"Chhattisgarh","latitude":21.1938,"longitude":81.3509,"temp":22.2,"humidity":57,"rain":0.0,"pressure":973.3,"uv_index":7.65,"aqi":153,"mosquito_risk":0,"arthritis_risk":5,"migraine_risk":7,"frizz_risk":0,"updated_at":"2026-02-28T01:05:49.836252+05:30"},{"city":"Guwahati","state":"Assam","latitude":26.1158,"longitude":91.7086,"temp":20.4,"humidity":84,"rain":0.0,"pressure":999.9,"uv_index":6.95,"aqi":145,"mosquito_risk":3,"arthritis_risk":5,"migraine_risk":7,"frizz_risk":1,"updated_at":"2026-02-28T01:05:49.836258+05:30"},{"city":"Agartala","state":"Tripura","latitude":23.8315,"longitude":91.2868,"temp":19.4,"humidity":54,"rain":0.0,"pressure":1005.0,"uv_index":7.3,"aqi":166,"mosquito_risk":0,"arthritis_risk":5,"migraine_risk":4,"frizz_risk":0,"updated_at":"2026-02-28T01:05:49.836265+05:30"},{"city":"Shillong","state":"Meghalaya","latitude":25.5788,"longitude":91.8933,"temp":7.0,"humidity":90,"rain":0.0,"pressure":849.9,"uv_index":7.3,"aqi":126,"mosquito_risk":3,"arthritis_risk":10,"migraine_risk":7,"frizz_risk":0,"updated_at":"2026-02-28T01:05:49.836271+05:30"},{"city":"Imphal","state":"Manipur","latitude":24.817,"longitude":93.9368,"temp":13.0,"humidity":75,"rain":0.0,"pressure":919.9,"uv_index":7.5,"aqi":157,"mosquito_risk":3,"arthritis_risk":5,"migraine_risk":7,"frizz_risk":0,"updated_at":"2026-02-28T01:05:49.836277+05:30"},{"city":"Aizawl","state":"Mizoram","latitude":23.7271,"longitude":92.7176,"temp":12.9,"humidity":66,"rain":0.0,"pressure":888.7,"uv_index":7.5,"aqi":170,"mosquito_risk":3,"arthritis_risk":5,"migraine_risk":7,"frizz_risk":0,"updated_at":"2026-02-28T01:05:49.836283+05:30"},{"city":"Kohima","state":"Nagaland","latitude":25.6701,"longitude":94.1077,"temp":10.3,"humidity":79,"rain":0.0,"pressure":849.9,"uv_index":7.05,"aqi":155,"mosquito_risk":3,"arthritis_risk":5,"migraine_risk":7,"frizz_risk":0,"updated_at":"2026-02-28T01:05:49.836289+05:30"},{"city":"Gangtok","state":"Sikkim","latitude":27.3314,"longitude":88.6138,"temp":9.6,"humidity":82,"rain":0.0,"pressure":831.5,"uv_index":5.7,"aqi":150,"mosquito_risk":3,"arthritis_risk":10,"migraine_risk":3,"frizz_risk":0,"updated_at":"2026-02-28T01:05:49.836295+05:30"},{"city":"Siliguri","state":"West Bengal","latitude":26.7271,"longitude":88.3953,"temp":17.8,"humidity":67,"rain":0.0,"pressure":992.2,"uv_index":6.9,"aqi":162,"mosquito_risk":3,"arthritis_risk":5,"migraine_risk":7,"frizz_risk":0,"updated_at":"2026-02-28T01:05:53.166036+05:30"},{"city":"Durgapur","state":"West Bengal","latitude":23.5204,"longitude":87.3119,"temp":20.5,"humidity":42,"rain":0.0,"pressure":994.7,"uv_index":7.45,"aqi":109,"mosquito_risk":0,"arthritis_risk":5,"migraine_risk":7,"frizz_risk":0,"updated_at":"2026-02-28T01:05:53.166065+05:30"},{"city":"Asansol","state":"West Bengal","latitude":23.6739,"longitude":86.9524,"temp":21.2,"humidity":41,"rain":0.0,"pressure":993.1,"uv_index":7.45,"aqi":105,"mosquito_risk":0,"arthritis_risk":5,"migraine_risk":7,"frizz_risk":0,"updated_at":"2026-02-28T01:05:53.166103+05:30"},{"city":"Pondicherry","state":"Puducherry","latitude":11.9139,"longitude":79.8145,"temp":23.3,"humidity":95,"rain":0.0,"pressure":1007.7,"uv_index":8.75,"aqi":108,"mosquito_risk":3,"arthritis_risk":5,"migraine_risk":4,"frizz_risk":1,"updated_at":"2026-02-28T01:05:53.166111+05:30"},{"city":"Port Blair","state":"Andaman and Nicobar Islands","latitude":11.6234,"longitude":92.7265,"temp":25.8,"humidity":86,"rain":0.0,"pressure":1004.4,"uv_index":7.0,"aqi":52,"mosquito_risk":7,"arthritis_risk":5,"migraine_risk":4,"frizz_risk":1,"updated_at":"2026-02-28T01:05:53.166119+05:30"},{"city":"Haridwar","state":"Uttarakhand","latitude":29.9457,"longitude":78.1642,"temp":16.9,"humidity":79,"rain":0.0,"pressure":973.1,"uv_index":5.3,"aqi":132,"mosquito_risk":3,"arthritis_risk":5,"migraine_risk":3,"frizz_risk":0,"updated_at":"2026-02-28T01:05:53.166126+05:30"},{"city":"Rishikesh","state":"Uttarakhand","latitude":30.0869,"longitude":78.2676,"temp":16.9,"humidity":75,"rain":0.0,"pressure":965.9,"uv_index":5.4,"aqi":104,"mosquito_risk":3,"arthritis_risk":5,"migraine_risk":3,"frizz_risk":0,"updated_at":"2026-02-28T01:05:53.166133+05:30"},{"city":"Nainital","state":"Uttarakhand","latitude":29.3919,"longitude":79.4542,"temp":13.5,"humidity":63,"rain":0.0,"pressure":802.1,"uv_index":6.25,"aqi":124,"mosquito_risk":3,"arthritis_risk":5,"migraine_risk":7,"frizz_risk":0,"updated_at":"2026-02-28T01:05:53.166139+05:30"},{"city":"Mussoorie","state":"Uttarakhand","latitude":30.4599,"longitude":78.0664,"temp":12.3,"humidity":64,"rain":0.0,"pressure":798.9,"uv_index":5.75,"aqi":106,"mosquito_risk":3,"arthritis_risk":5,"migraine_risk":3,"frizz_risk":0,"updated_at":"2026-02-28T01:05:53.166146+05:30"},{"city":"Dharamshala","state":"Himachal Pradesh","latitude":32.219,"longitude":76.3234,"temp":16.8,"humidity":30,"rain":0.0,"pressure":866.8,"uv_index":6.0,"aqi":80,"mosquito_risk":0,"arthritis_risk":5,"migraine_risk":3,"frizz_risk":1,"updated_at":"2026-02-28T01:05:53.166153+05:30"},{"city":"Dalhousie","state":"Himachal Pradesh","latitude":32.5387,"longitude":75.971,"temp":13.6,"humidity":37,"rain":0.0,"pressure":800.8,"uv_index":6.25,"aqi":115,"mosquito_risk":0,"arthritis_risk":5,"migraine_risk":7,"frizz_risk":1,"updated_at":"2026-02-28T01:05:53.166161+05:30"},{"city":"Patiala","state":"Punjab","latitude":30.3398,"longitude":76.3869,"temp":17.7,"humidity":80,"rain":0.0,"pressure":977.5,"uv_index":5.45,"aqi":165,"mosquito_risk":3,"arthritis_risk":5,"migraine_risk":3,"frizz_risk":0,"updated_at":"2026-02-28T01:05:53.166168+05:30"},{"city":"Bhatinda","state":"Punjab","latitude":30.211,"longitude":74.9455,"temp":18.9,"humidity":71,"rain":0.0,"pressure":982.0,"uv_index":6.15,"aqi":156,"mosquito_risk":3,"arthritis_risk":5,"migraine_risk":7,"frizz_risk":0,"updated_at":"2026-02-28T01:05:53.166174+05:30"},{"city":"Rohtak","state":"Haryana","latitude":28.8955,"longitude":76.6066,"temp":18.6,"humidity":71,"rain":0.0,"pressure":980.6,"uv_index":5.65,"aqi":154,"mosquito_risk":3,"arthritis_risk":5,"migraine_risk":3,"frizz_risk":0,"updated_at":"2026-02-28T01:05:53.166181+05:30"},{"city":"Panipat","state":"Haryana","latitude":29.3909,"longitude":76.9635,"temp":18.5,"humidity":72,"rain":0.0,"pressure":979.5,"uv_index":5.45,"aqi":156,"mosquito_risk":3,"arthritis_risk":5,"migraine_risk":3,"frizz_risk":0,"updated_at":"2026-02-28T01:05:53.166187+05:30"},{"city":"Mathura","state":"Uttar Pradesh","latitude":27.4924,"longitude":77.6737,"temp":19.0,"humidity":69,"rain":0.0,"pressure":985.5,"uv_index":5.9,"aqi":131,"mosquito_risk":3,"arthritis_risk":5,"migraine_risk":3,"frizz_risk":0,"updated_at":"2026-02-28T01:05:53.166193+05:30"},{"city":"Vrindavan","state":"Uttar Pradesh","latitude":27.5823,"longitude":77.7027,"temp":19.3,"humidity":65,"rain":0.0,"pressure":986.0,"uv_index":5.85,"aqi":131,"mosquito_risk":3,"arthritis_risk":5,"migraine_risk":3,"frizz_risk":0,"updated_at":"2026-02-28T01:05:53.166200+05:30"},{"city":"Ayodhya","state":"Uttar Pradesh","latitude":26.7922,"longitude":82.1998,"temp":16.5,"humidity":73,"rain":0.0,"pressure":994.5,"uv_index":6.25,"aqi":134,"mosquito_risk":3,"arthritis_risk":5,"migraine_risk":7,"frizz_risk":0,"updated_at":"2026-02-28T01:05:53.166206+05:30"},{"city":"Ratlam","state":"Madhya Pradesh","latitude":23.3315,"longitude":75.0367,"temp":20.7,"humidity":69,"rain":0.0,"pressure":953.0,"uv_index":7.2,"aqi":60,"mosquito_risk":3,"arthritis_risk":5,"migraine_risk":7,"frizz_risk":0,"updated_at":"2026-02-28T01:05:53.166213+05:30"},{"city":"Sagar","state":"Madhya Pradesh","latitude":23.8388,"longitude":78.7378,"temp":22.6,"humidity":50,"rain":0.0,"pressure":948.2,"uv_index":7.1,"aqi":67,"mosquito_risk":0,"arthritis_risk":5,"migraine_risk":7,"frizz_risk":0,"updated_at":"2026-02-28T01:05:53.166219+05:30"},{"city":"Satna","state":"Madhya Pradesh","latitude":24.6005,"longitude":80.8322,"temp":20.6,"humidity":50,"rain":0.0,"pressure":970.2,"uv_index":7.0,"aqi":67,"mosquito_risk":0,"arthritis_risk":5,"migraine_risk":7,"frizz_risk":0,"updated_at":"2026-02-28T01:05:53.166225+05:30"},{"city":"Akola","state":"Maharashtra","latitude":20.7002,"longitude":77.0082,"temp":24.8,"humidity":58,"rain":0.0,"pressure":973.0,"uv_index":7.6,"aqi":123,"mosquito_risk":0,"arthritis_risk":5,"migraine_risk":7,"frizz_risk":0,"updated_at":"2026-02-28T01:05:53.166232+05:30"},{"city":"Amravati","state":"Maharashtra","latitude":20.9374,"longitude":77.7796,"temp":24.0,"humidity":64,"rain":0.0,"pressure":964.7,"uv_index":7.55,"aqi":134,"mosquito_risk":3,"arthritis_risk":5,"migraine_risk":7,"frizz_risk":1,"updated_at":"2026-02-28T01:05:53.166239+05:30"},{"city":"Latur","state":"Maharashtra","latitude":18.4088,"longitude":76.5604,"temp":21.2,"humidity":57,"rain":0.0,"pressure":936.9,"uv_index":8.05,"aqi":98,"mosquito_risk":0,"arthritis_risk":5,"migraine_risk":7,"frizz_risk":0,"updated_at":"2026-02-28T01:05:53.166244+05:30"},{"city":"Nanded","state":"Maharashtra","latitude":19.1383,"longitude":77.3091,"temp":24.7,"humidity":60,"rain":0.0,"pressure":966.3,"uv_index":7.85,"aqi":134,"mosquito_risk":0,"arthritis_risk":5,"migraine_risk":7,"frizz_risk":1,"updated_at":"2026-02-28T01:05:53.166250+05:30"},{"city":"Gulbarga","state":"Karnataka","latitude":17.3297,"longitude":76.8343,"temp":23.9,"humidity":53,"rain":0.0,"pressure":956.0,"uv_index":8.15,"aqi":87,"mosquito_risk":0,"arthritis_risk":5,"migraine_risk":7,"frizz_risk":0,"updated_at":"2026-02-28T01:05:53.166256+05:30"},{"city":"Bidar","state":"Karnataka","latitude":17.9104,"longitude":77.5199,"temp":24.0,"humidity":59,"rain":0.0,"pressure":933.1,"uv_index":8.1,"aqi":112,"mosquito_risk":0,"arthritis_risk":5,"migraine_risk":7,"frizz_risk":0,"updated_at":"2026-02-28T01:05:53.166262+05:30"},{"city":"Hospet","state":"Karnataka","latitude":15.2689,"longitude":76.3909,"temp":25.8,"humidity":60,"rain":0.0,"pressure":953.5,"uv_index":8.5,"aqi":126,"mosquito_risk":4,"arthritis_risk":5,"migraine_risk":7,"frizz_risk":1,"updated_at":"2026-02-28T01:05:53.166268+05:30"},{"city":"Tirupur","state":"Tamil Nadu","latitude":11.1085,"longitude":77.3411,"temp":24.8,"humidity":79,"rain":0.0,"pressure":974.0,"uv_index":9.05,"aqi":152,"mosquito_risk":3,"arthritis_risk":5,"migraine_risk":7,"frizz_risk":1,"updated_at":"2026-02-28T01:05:53.166274+05:30"},{"city":"Alappuzha","state":"Kerala","latitude":9.4981,"longitude":76.3388,"temp":27.7,"humidity":80,"rain":0.0,"pressure":1007.2,"uv_index":8.1,"aqi":103,"mosquito_risk":7,"arthritis_risk":5,"migraine_risk":4,"frizz_risk":1,"updated_at":"2026-02-28T01:05:53.166280+05:30"},{"city":"Munnar","state":"Kerala","latitude":10.0889,"longitude":77.0595,"temp":18.7,"humidity":90,"rain":0.0,"pressure":854.4,"uv_index":8.0,"aqi":92,"mosquito_risk":3,"arthritis_risk":10,"migraine_risk":7,"frizz_risk":1,"updated_at":"2026-02-28T01:05:53.166287+05:30"},{"city":"Silchar","state":"Assam","latitude":24.8333,"longitude":92.7789,"temp":18.3,"humidity":76,"rain":0.0,"pressure":1003.7,"uv_index":7.25,"aqi":162,"mosquito_risk":3,"arthritis_risk":5,"migraine_risk":4,"frizz_risk":0,"updated_at":"2026-02-28T01:05:53.166294+05:30"},{"city":"Dibrugarh","state":"Assam","latitude":27.4728,"longitude":94.912,"temp":18.6,"humidity":88,"rain":0.0,"pressure":995.1,"uv_index":6.7,"aqi":140,"mosquito_risk":3,"arthritis_risk":10,"migraine_risk":7,"frizz_risk":1,"updated_at":"2026-02-28T01:05:53.166300+05:30"}]