[{"city":"Delhi","state":"Delhi","latitude":28.6139,"longitude":77.209,"temp":26.3,"humidity":41,"rain":0.0,"pressure":984.0,"uv_index":7.2,"wind_gusts":34.6,"aqi":416,"pm10":901.5,"pm2_5":134.1,"mosquito_risk":4,"arthritis_risk":5,"migraine_risk":7,"frizz_risk":0,"updated_at":"2026-04-12T22:12:52.952100+05:30"},{"city":"Mumbai","state":"Maharashtra","latitude":19.076,"longitude":72.8777,"temp":29.6,"humidity":81,"rain":0.0,"pressure":1007.7,"uv_index":8.0,"wind_gusts":22.3,"aqi":124,"pm10":69.2,"pm2_5":37.1,"mosquito_risk":7,"arthritis_risk":5,"migraine_risk":4,"frizz_risk":1,"updated_at":"2026-04-12T22:12:52.952138+05:30"},{"city":"Bangalore","state":"Karnataka","latitude":12.9716,"longitude":77.5946,"temp":28.0,"humidity":48,"rain":0.0,"pressure":912.6,"uv_index":9.65,"wind_gusts":27.7,"aqi":113,"pm10":31.3,"pm2_5":27.6,"mosquito_risk":4,"arthritis_risk":5,"migraine_risk":7,"frizz_risk":0,"updated_at":"2026-04-12T22:12:52.952153+05:30"},{"city":"Hyderabad","state":"Telangana","latitude":17.385,"longitude":78.4867,"temp":32.5,"humidity":39,"rain":0.0,"pressure":953.0,"uv_index":9.25,"wind_gusts":27.4,"aqi":132,"pm10":37.5,"pm2_5":32.0,"mosquito_risk":0,"arthritis_risk":5,"migraine_risk":7,"frizz_risk":1,"updated_at":"2026-04-12T22:12:52.952163+05:30"},{"city":"Chennai","state":"Tamil Nadu","latitude":13.0827,"longitude":80.2707,"temp":28.3,"humidity":82,"rain":0.0,"pressure":1008.1,"uv_index":9.4,"wind_gusts":34.6,"aqi":43,"pm10":12.8,"pm2_5":7.8,"mosquito_risk":7,"arthritis_risk":0,"migraine_risk":4,"frizz_risk":1,"updated_at":"2026-04-12T22:12:52.952172+05:30"},{"city":"Kolkata","state":"West Bengal","latitude":22.5726,"longitude":88.3639,"temp":27.0,"humidity":92,"rain":0.0,"pressure":1005.4,"uv_index":8.8,"wind_gusts":23.0,"aqi":114,"pm10":31.9,"pm2_5":23.9,"mosquito_risk":7,"arthritis_risk":5,"migraine_risk":4,"frizz_risk":1,"updated_at":"2026-04-12T22:12:52.952180+05:30"},{"city":"Pune","state":"Maharashtra","latitude":18.5204,"longitude":73.8567,"temp":29.9,"humidity":44,"rain":0.0,"pressure":948.6,"uv_index":8.55,"wind_gusts":42.5,"aqi":163,"pm10":43.8,"pm2_5":37.7,"mosquito_risk":4,"arthritis_risk":5,"migraine_risk":7,"frizz_risk":1,"updated_at":"2026-04-12T22:12:52.952191+05:30"},{"city":"Ahmedabad","state":"Gujarat","latitude":23.0225,"longitude":72.5714,"temp":31.4,"humidity":28,"rain":0.0,"pressure":1001.2,"uv_index":8.1,"wind_gusts":22.3,"aqi":109,"pm10":55.2,"pm2_5":28.5,"mosquito_risk":0,"arthritis_risk":5,"migraine_risk":4,"frizz_risk":0,"updated_at":"2026-04-12T22:12:52.952200+05:30"},{"city":"Jaipur","state":"Rajasthan","latitude":26.9124,"longitude":75.7873,"temp":27.6,"humidity":25,"rain":0.0,"pressure":960.8,"uv_index":7.85,"wind_gusts":30.2,"aqi":144,"pm10":165.3,"pm2_5":36.7,"mosquito_risk":4,"arthritis_risk":5,"migraine_risk":7,"frizz_risk":0,"updated_at":"2026-04-12T22:12:52.952208+05:30"},{"city":"Lucknow","state":"Uttar Pradesh","latitude":26.8467,"longitude":80.9462,"temp":27.3,"humidity":41,"rain":0.0,"pressure":993.0,"uv_index":7.7,"wind_gusts":29.2,"aqi":148,"pm10":279.4,"pm2_5":56.6,"mosquito_risk":4,"arthritis_risk":5,"migraine_risk":7,"frizz_risk":0,"updated_at":"2026-04-12T22:12:52.952216+05:30"},{"city":"Kanpur","state":"Uttar Pradesh","latitude":26.4499,"longitude":80.3319,"temp":25.6,"humidity":60,"rain":0.0,"pressure":991.5,"uv_index":7.75,"wind_gusts":24.5,"aqi":331,"pm10":584.9,"pm2_5":84.8,"mosquito_risk":4,"arthritis_risk":5,"migraine_risk":7,"frizz_risk":1,"updated_at":"2026-04-12T22:12:52.952223+05:30"},{"city":"Chandigarh","state":"Chandigarh","latitude":30.7333,"longitude":76.7794,"temp":21.4,"humidity":62,"rain":0.0,"pressure":970.2,"uv_index":7.1,"wind_gusts":31.7,"aqi":124,"pm10":31.2,"pm2_5":19.9,"mosquito_risk":3,"arthritis_risk":5,"migraine_risk":7,"frizz_risk":0,"updated_at":"2026-04-12T22:12:52.952231+05:30"},{"city":"Srinagar","state":"Jammu and Kashmir","latitude":34.0837,"longitude":74.7973,"temp":11.2,"humidity":71,"rain":0.0,"pressure":840.9,"uv_index":8.05,"wind_gusts":20.2,"aqi":103,"pm10":40.2,"pm2_5":35.5,"mosquito_risk":3,"arthritis_risk":5,"migraine_risk":7,"frizz_risk":0,"updated_at":"2026-04-12T22:12:52.952238+05:30"},{"city":"Jammu","state":"Jammu and Kashmir","latitude":32.7266,"longitude":74.857,"temp":22.6,"humidity":63,"rain":0.0,"pressure":974.2,"uv_index":7.8,"wind_gusts":27.7,"aqi":89,"pm10":42.3,"pm2_5":29.8,"mosquito_risk":3,"arthritis_risk":5,"migraine_risk":7,"frizz_risk":0,"updated_at":"2026-04-12T22:12:52.952245+05:30"},{"city":"Amritsar","state":"Punjab","latitude":31.634,"longitude":74.8723,"temp":21.7,"humidity":59,"rain":0.0,"pressure":982.7,"uv_index":7.75,"wind_gusts":25.6,"aqi":107,"pm10":49.8,"pm2_5":32.8,"mosquito_risk":0,"arthritis_risk":5,"migraine_risk":7,"frizz_risk":0,"updated_at":"2026-04-12T22:12:52.952251+05:30"},{"city":"Ludhiana","state":"Punjab","latitude":30.901,"longitude":75.8573,"temp":23.6,"humidity":49,"rain":0.0,"pressure":980.6,"uv_index":7.4,"wind_gusts":30.2,"aqi":100,"pm10":30.3,"pm2_5":23.0,"mosquito_risk":0,"arthritis_risk":5,"migraine_risk":7,"frizz_risk":0,"updated_at":"2026-04-12T22:12:52.952257+05:30"},{"city":"Jalandhar","state":"Punjab","latitude":31.326,"longitude":75.5762,"temp":22.9,"humidity":54,"rain":0.0,"pressure":981.7,"uv_index":7.55,"wind_gusts":27.0,"aqi":107,"pm10":41.9,"pm2_5":26.1,"mosquito_risk":0,"arthritis_risk":5,"migraine_risk":7,"frizz_risk":0,"updated_at":"2026-04-12T22:12:52.952265+05:30"},{"city":"Dehradun","state":"Uttarakhand","latitude":30.6284,"longitude":78.0322,"temp":13.1,"humidity":75,"rain":0.0,"pressure":829.0,"uv_index":7.5,"wind_gusts":33.5,"aqi":128,"pm10":40.7,"pm2_5":22.6,"mosquito_risk":3,"arthritis_risk":5,"migraine_risk":7,"frizz_risk":0,"updated_at":"2026-04-12T22:12:52.952272+05:30"},{"city":"Shimla","state":"Himachal Pradesh","latitude":31.1048,"longitude":77.1734,"temp":12.1,"humidity":71,"rain":0.0,"pressure":783.9,"uv_index":7.65,"wind_gusts":41.0,"aqi":124,"pm10":43.7,"pm2_5":17.5,"mosquito_risk":3,"arthritis_risk":5,"migraine_risk":7,"frizz_risk":0,"updated_at":"2026-04-12T22:12:52.952278+05:30"},{"city":"Manali","state":"Himachal Pradesh","latitude":32.2396,"longitude":77.1887,"temp":12.4,"humidity":82,"rain":0.0,"pressure":818.7,"uv_index":9.85,"wind_gusts":29.2,"aqi":158,"pm10":24.4,"pm2_5":11.4,"mosquito_risk":3,"arthritis_risk":10,"migraine_risk":7,"frizz_risk":0,"updated_at":"2026-04-12T22:12:52.952285+05:30"},{"city":"Gurgaon","state":"Haryana","latitude":28.4595,"longitude":77.0266,"temp":23.6,"humidity":52,"rain":0.0,"pressure":982.3,"uv_index":7.3,"wind_gusts":33.5,"aqi":1120,"pm10":1207.0,"pm2_5":167.2,"mosquito_risk":0,"arthritis_risk":5,"migraine_risk":7,"frizz_risk":0,"updated_at":"2026-04-12T22:12:52.952291+05:30"},{"city":"Noida","state":"Uttar Pradesh","latitude":28.5355,"longitude":77.391,"temp":25.8,"humidity":43,"rain":0.0,"pressure":985.6,"uv_index":7.25,"wind_gusts":33.8,"aqi":1120,"pm10":1207.0,"pm2_5":167.2,"mosquito_risk":4,"arthritis_risk":5,"migraine_risk":7,"frizz_risk":0,"updated_at":"2026-04-12T22:12:52.952298+05:30"},{"city":"Ghaziabad","state":"Uttar Pradesh","latitude":28.6692,"longitude":77.4538,"temp":24.3,"humidity":48,"rain":0.0,"pressure":983.7,"uv_index":7.2,"wind_gusts":32.8,"aqi":198,"pm10":705.9,"pm2_5":107.3,"mosquito_risk":0,"arthritis_risk":5,"migraine_risk":7,"frizz_risk":0,"updated_at":"2026-04-12T22:12:52.952304+05:30"},{"city":"Faridabad","state":"Haryana","latitude":28.4089,"longitude":77.3178,"temp":24.9,"humidity":44,"rain":0.0,"pressure":984.7,"uv_index":7.3,"wind_gusts":33.1,"aqi":1120,"pm10":1207.0,"pm2_5":167.2,"mosquito_risk":0,"arthritis_risk":5,"migraine_risk":7,"frizz_risk":0,"updated_at":"2026-04-12T22:12:52.952310+05:30"},{"city":"Meerut","state":"Uttar Pradesh","latitude":28.9845,"longitude":77.7064,"temp":22.7,"humidity":53,"rain":0.0,"pressure":982.4,"uv_index":7.1,"wind_gusts":33.1,"aqi":198,"pm10":705.9,"pm2_5":107.3,"mosquito_risk":0,"arthritis_risk":5,"migraine_risk":7,"frizz_risk":0,"updated_at":"2026-04-12T22:12:52.952316+05:30"},{"city":"Agra","state":"Uttar Pradesh","latitude":27.1767,"longitude":78.0081,"temp":25.6,"humidity":45,"rain":0.0,"pressure":988.3,"uv_index":7.6,"wind_gusts":33.5,"aqi":674,"pm10":1568.3,"pm2_5":177.0,"mosquito_risk":4,"arthritis_risk":5,"migraine_risk":7,"frizz_risk":0,"updated_at":"2026-04-12T22:12:52.952323+05:30"},{"city":"Varanasi","state":"Uttar Pradesh","latitude":25.3176,"longitude":82.9739,"temp":28.0,"humidity":43,"rain":0.0,"pressure":996.3,"uv_index":8.35,"wind_gusts":25.9,"aqi":133,"pm10":63.3,"pm2_5":28.3,"mosquito_risk":4,"arthritis_risk":5,"migraine_risk":7,"frizz_risk":0,"updated_at":"2026-04-12T22:12:52.952331+05:30"},{"city":"Prayagraj","state":"Uttar Pradesh","latitude":25.4358,"longitude":81.8463,"temp":28.5,"humidity":43,"rain":0.0,"pressure":995.2,"uv_index":8.2,"wind_gusts":23.4,"aqi":147,"pm10":87.8,"pm2_5":33.8,"mosquito_risk":4,"arthritis_risk":5,"migraine_risk":7,"frizz_risk":0,"updated_at":"2026-04-12T22:12:52.952338+05:30"},{"city":"Gorakhpur","state":"Uttar Pradesh","latitude":26.7606,"longitude":83.3732,"temp":26.8,"humidity":37,"rain":0.0,"pressure":995.9,"uv_index":8.15,"wind_gusts":36.0,"aqi":115,"pm10":64.0,"pm2_5":27.0,"mosquito_risk":4,"arthritis_risk":5,"migraine_risk":7,"frizz_risk":0,"updated_at":"2026-04-12T22:12:52.952344+05:30"},{"city":"Bareilly","state":"Uttar Pradesh","latitude":28.367,"longitude":79.4304,"temp":23.5,"humidity":58,"rain":0.0,"pressure":987.0,"uv_index":7.45,"wind_gusts":34.9,"aqi":118,"pm10":48.0,"pm2_5":25.7,"mosquito_risk":0,"arthritis_risk":5,"migraine_risk":7,"frizz_risk":0,"updated_at":"2026-04-12T22:12:52.952351+05:30"},{"city":"Aligarh","state":"Uttar Pradesh","latitude":27.8974,"longitude":78.088,"temp":23.2,"humidity":48,"rain":0.0,"pressure":986.1,"uv_index":7.4,"wind_gusts":34.2,"aqi":576,"pm10":1125.0,"pm2_5":159.7,"mosquito_risk":0,"arthritis_risk":5,"migraine_risk":7,"frizz_risk":0,"updated_at":"2026-04-12T22:12:52.952357+05:30"},{"city":"Moradabad","state":"Uttar Pradesh","latitude":28.8386,"longitude":78.7733,"temp":22.9,"humidity":56,"rain":0.0,"pressure":984.3,"uv_index":7.3,"wind_gusts":36.0,"aqi":105,"pm10":177.4,"pm2_5":47.5,"mosquito_risk":0,"arthritis_risk":5,"migraine_risk":7,"frizz_risk":0,"updated_at":"2026-04-12T22:12:52.952363+05:30"},{"city":"Saharanpur","state":"Uttar Pradesh","latitude":29.9637,"longitude":77.546,"temp":21.1,"humidity":62,"rain":0.0,"pressure":976.7,"uv_index":6.9,"wind_gusts":32.0,"aqi":122,"pm10":45.8,"pm2_5":22.1,"mosquito_risk":3,"arthritis_risk":5,"migraine_risk":7,"frizz_risk":0,"updated_at":"2026-04-12T22:12:52.952371+05:30"},{"city":"Jhansi","state":"Uttar Pradesh","latitude":25.4484,"longitude":78.5685,"temp":27.4,"humidity":40,"rain":0.0,"pressure":978.2,"uv_index":8.15,"wind_gusts":36.0,"aqi":86,"pm10":78.9,"pm2_5":29.2,"mosquito_risk":4,"arthritis_risk":5,"migraine_risk":7,"frizz_risk":0,"updated_at":"2026-04-12T22:12:56.164710+05:30"},{"city":"Surat","state":"Gujarat","latitude":21.1702,"longitude":72.8311,"temp":28.9,"humidity":76,"rain":0.0,"pressure":1005.6,"uv_index":7.8,"wind_gusts":26.6,"aqi":151,"pm10":76.8,"pm2_5":60.3,"mosquito_risk":7,"arthritis_risk":5,"migraine_risk":4,"frizz_risk":1,"updated_at":"2026-04-12T22:12:56.164741+05:30"},{"city":"Vadodara","state":"Gujarat","latitude":22.3072,"longitude":73.1812,"temp":30.3,"humidity":51,"rain":0.0,"pressure":1003.0,"uv_index":8.05,"wind_gusts":22.3,"aqi":127,"pm10":101.3,"pm2_5":63.8,"mosquito_risk":0,"arthritis_risk":5,"migraine_risk":4,"frizz_risk":1,"updated_at":"2026-04-12T22:12:56.164751+05:30"},{"city":"Rajkot","state":"Gujarat","latitude":22.3039,"longitude":70.8022,"temp":30.1,"humidity":39,"rain":0.0,"pressure":993.8,"uv_index":7.8,"wind_gusts":22.7,"aqi":76,"pm10":48.9,"pm2_5":25.5,"mosquito_risk":0,"arthritis_risk":5,"migraine_risk":7,"frizz_risk":0,"updated_at":"2026-04-12T22:12:56.164759+05:30"},{"city":"Thane","state":"Maharashtra","latitude":19.2183,"longitude":72.9781,"temp":28.6,"humidity":83,"rain":0.0,"pressure":1007.1,"uv_index":8.0,"wind_gusts":34.6,"aqi":124,"pm10":69.2,"pm2_5":37.1,"mosquito_risk":7,"arthritis_risk":5,"migraine_risk":4,"frizz_risk":1,"updated_at":"2026-04-12T22:12:56.164766+05:30"},{"city":"Nagpur","state":"Maharashtra","latitude":21.1458,"longitude":79.0882,"temp":27.0,"humidity":61,"rain":0.0,"pressure":971.9,"uv_index":8.8,"wind_gusts":14.8,"aqi":163,"pm10":38.3,"pm2_5":31.1,"mosquito_risk":7,"arthritis_risk":5,"migraine_risk":7,"frizz_risk":1,"updated_at":"2026-04-12T22:12:56.164774+05:30"},{"city":"Nashik","state":"Maharashtra","latitude":19.9975,"longitude":73.7898,"temp":28.5,"humidity":40,"rain":0.0,"pressure":945.9,"uv_index":8.25,"wind_gusts":31.3,"aqi":131,"pm10":49.0,"pm2_5":36.2,"mosquito_risk":4,"arthritis_risk":5,"migraine_risk":7,"frizz_risk":0,"updated_at":"2026-04-12T22:12:56.164780+05:30"},{"city":"Aurangabad","state":"Maharashtra","latitude":19.8762,"longitude":75.3433,"temp":31.4,"humidity":31,"rain":0.0,"pressure":943.6,"uv_index":8.95,"wind_gusts":31.0,"aqi":133,"pm10":43.9,"pm2_5":31.2,"mosquito_risk":0,"arthritis_risk":5,"migraine_risk":7,"frizz_risk":0,"updated_at":"2026-04-12T22:12:56.164786+05:30"},{"city":"Solapur","state":"Maharashtra","latitude":17.6599,"longitude":75.9064,"temp":33.6,"humidity":40,"rain":0.0,"pressure":955.8,"uv_index":9.05,"wind_gusts":27.0,"aqi":128,"pm10":39.1,"pm2_5":31.9,"mosquito_risk":0,"arthritis_risk":5,"migraine_risk":7,"frizz_risk":1,"updated_at":"2026-04-12T22:12:56.164793+05:30"},{"city":"Kolhapur","state":"Maharashtra","latitude":16.705,"longitude":74.2433,"temp":26.0,"humidity":72,"rain":0.0,"pressure":948.0,"uv_index":9.05,"wind_gusts":49.3,"aqi":122,"pm10":35.0,"pm2_5":30.2,"mosquito_risk":7,"arthritis_risk":5,"migraine_risk":7,"frizz_risk":1,"updated_at":"2026-04-12T22:12:56.164800+05:30"},{"city":"Goa","state":"Goa","latitude":15.2993,"longitude":74.124,"temp":29.0,"humidity":78,"rain":0.0,"pressure":998.4,"uv_index":9.05,"wind_gusts":32.8,"aqi":97,"pm10":46.0,"pm2_5":31.3,"mosquito_risk":7,"arthritis_risk":5,"migraine_risk":7,"frizz_risk":1,"updated_at":"2026-04-12T22:12:56.164807+05:30"},{"city":"Jodhpur","state":"Rajasthan","latitude":26.2389,"longitude":73.0243,"temp":28.5,"humidity":36,"rain":0.0,"pressure":983.6,"uv_index":8.1,"wind_gusts":16.2,"aqi":103,"pm10":62.9,"pm2_5":27.5,"mosquito_risk":4,"arthritis_risk":5,"migraine_risk":7,"frizz_risk":0,"updated_at":"2026-04-12T22:12:56.164814+05:30"},{"city":"Udaipur","state":"Rajasthan","latitude":24.5854,"longitude":73.7125,"temp":25.9,"humidity":30,"rain":0.0,"pressure":947.4,"uv_index":8.7,"wind_gusts":28.4,"aqi":95,"pm10":31.4,"pm2_5":12.5,"mosquito_risk":4,"arthritis_risk":5,"migraine_risk":7,"frizz_risk":0,"updated_at":"2026-04-12T22:12:56.164820+05:30"},{"city":"Kota","state":"Rajasthan","latitude":25.2138,"longitude":75.8648,"temp":29.1,"humidity":40,"rain":0.0,"pressure":978.9,"uv_index":8.15,"wind_gusts":24.1,"aqi":106,"pm10":82.0,"pm2_5":30.5,"mosquito_risk":4,"arthritis_risk":5,"migraine_risk":7,"frizz_risk":0,"updated_at":"2026-04-12T22:12:56.164827+05:30"},{"city":"Bikaner","state":"Rajasthan","latitude":28.0229,"longitude":73.3119,"temp":30.1,"humidity":25,"rain":0.0,"pressure":982.6,"uv_index":7.95,"wind_gusts":21.2,"aqi":95,"pm10":35.0,"pm2_5":14.3,"mosquito_risk":0,"arthritis_risk":5,"migraine_risk":7,"frizz_risk":0,"updated_at":"2026-04-12T22:12:56.164834+05:30"},{"city":"Ajmer","state":"Rajasthan","latitude":26.4499,"longitude":74.6399,"temp":27.6,"humidity":29,"rain":0.0,"pressure":955.4,"uv_index":8.05,"wind_gusts":26.3,"aqi":96,"pm10":43.0,"pm2_5":21.1,"mosquito_risk":4,"arthritis_risk":5,"migraine_risk":7,"frizz_risk":0,"updated_at":"2026-04-12T22:12:56.164840+05:30"},{"city":"Gwalior","state":"Madhya Pradesh","latitude":26.2183,"longitude":78.1828,"temp":27.9,"humidity":49,"rain":0.0,"pressure":983.9,"uv_index":7.85,"wind_gusts":33.1,"aqi":116,"pm10":213.7,"pm2_5":41.8,"mosquito_risk":4,"arthritis_risk":5,"migraine_risk":7,"frizz_risk":1,"updated_at":"2026-04-12T22:12:56.164847+05:30"},{"city":"Indore","state":"Madhya Pradesh","latitude":22.7196,"longitude":75.8577,"temp":26.2,"humidity":49,"rain":0.0,"pressure":948.1,"uv_index":8.55,"wind_gusts":27.7,"aqi":78,"pm10":56.2,"pm2_5":41.1,"mosquito_risk":4,"arthritis_risk":5,"migraine_risk":7,"frizz_risk":0,"updated_at":"2026-04-12T22:12:56.164853+05:30"},{"city":"Bhopal","state":"Madhya Pradesh","latitude":23.2599,"longitude":77.4126,"temp":28.6,"humidity":36,"rain":0.0,"pressure":953.4,"uv_index":8.5,"wind_gusts":32.4,"aqi":87,"pm10":33.6,"pm2_5":21.0,"mosquito_risk":4,"arthritis_risk":5,"migraine_risk":7,"frizz_risk":0,"updated_at":"2026-04-12T22:12:56.164860+05:30"},{"city":"Jabalpur","state":"Madhya Pradesh","latitude":23.1815,"longitude":79.9864,"temp":27.9,"humidity":46,"rain":0.0,"pressure":960.6,"uv_index":8.65,"wind_gusts":33.8,"aqi":110,"pm10":25.7,"pm2_5":22.5,"mosquito_risk":4,"arthritis_risk":5,"migraine_risk":7,"frizz_risk":0,"updated_at":"2026-04-12T22:12:56.164866+05:30"},{"city":"Ujjain","state":"Madhya Pradesh","latitude":23.1765,"longitude":75.7885,"temp":26.7,"humidity":44,"rain":0.0,"pressure":953.9,"uv_index":8.45,"wind_gusts":27.4,"aqi":71,"pm10":68.9,"pm2_5":39.0,"mosquito_risk":4,"arthritis_risk":5,"migraine_risk":7,"frizz_risk":0,"updated_at":"2026-04-12T22:12:56.164873+05:30"},{"city":"Visakhapatnam","state":"Andhra Pradesh","latitude":17.6868,"longitude":83.2185,"temp":28.4,"humidity":84,"rain":0.0,"pressure":1004.8,"uv_index":9.15,"wind_gusts":38.9,"aqi":76,"pm10":24.8,"pm2_5":16.0,"mosquito_risk":7,"arthritis_risk":5,"migraine_risk":4,"frizz_risk":1,"updated_at":"2026-04-12T22:12:56.164879+05:30"},{"city":"Vijayawada","state":"Andhra Pradesh","latitude":16.5062,"longitude":80.648,"temp":28.0,"humidity":80,"rain":0.0,"pressure":1003.2,"uv_index":9.25,"wind_gusts":35.3,"aqi":57,"pm10":19.4,"pm2_5":13.6,"mosquito_risk":7,"arthritis_risk":5,"migraine_risk":4,"frizz_risk":1,"updated_at":"2026-04-12T22:12:56.164886+05:30"},{"city":"Guntur","state":"Andhra Pradesh","latitude":16.3067,"longitude":80.4365,"temp":27.7,"humidity":84,"rain":0.0,"pressure":1004.3,"uv_index":9.25,"wind_gusts":34.9,"aqi":55,"pm10":20.8,"pm2_5":14.3,"mosquito_risk":7,"arthritis_risk":5,"migraine_risk":4,"frizz_risk":1,"updated_at":"2026-04-12T22:12:56.164893+05:30"},{"city":"Nellore","state":"Andhra Pradesh","latitude":14.4426,"longitude":79.9865,"temp":27.7,"humidity":85,"rain":0.0,"pressure":1006.4,"uv_index":9.35,"wind_gusts":34.6,"aqi":56,"pm10":16.9,"pm2_5":11.4,"mosquito_risk":7,"arthritis_risk":5,"migraine_risk":4,"frizz_risk":1,"updated_at":"2026-04-12T22:12:56.164900+05:30"},{"city":"Kurnool","state":"Andhra Pradesh","latitude":15.8281,"longitude":78.0373,"temp":34.7,"humidity":35,"rain":0.0,"pressure":975.9,"uv_index":9.25,"wind_gusts":31.7,"aqi":109,"pm10":37.7,"pm2_5":31.4,"mosquito_risk":0,"arthritis_risk":5,"migraine_risk":7,"frizz_risk":1,"updated_at":"2026-04-12T22:12:56.164908+05:30"},{"city":"Kakinada","state":"Andhra Pradesh","latitude":16.9891,"longitude":82.2475,"temp":28.3,"humidity":82,"rain":0.0,"pressure":1008.6,"uv_index":9.2,"wind_gusts":36.7,"aqi":54,"pm10":20.8,"pm2_5":11.0,"mosquito_risk":7,"arthritis_risk":0,"migraine_risk":4,"frizz_risk":1,"updated_at":"2026-04-12T22:12:56.164914+05:30"},{"city":"Tirupati","state":"Andhra Pradesh","latitude":13.6288,"longitude":79.4192,"temp":29.1,"humidity":62,"rain":0.0,"pressure":992.7,"uv_index":9.45,"wind_gusts":32.0,"aqi":73,"pm10":24.0,"pm2_5":19.4,"mosquito_risk":7,"arthritis_risk":5,"migraine_risk":7,"frizz_risk":1,"updated_at":"2026-04-12T22:12:56.164920+05:30"},{"city":"Warangal","state":"Telangana","latitude":17.9689,"longitude":79.5941,"temp":31.4,"humidity":55,"rain":0.0,"pressure":977.6,"uv_index":9.1,"wind_gusts":29.5,"aqi":119,"pm10":31.9,"pm2_5":28.2,"mosquito_risk":0,"arthritis_risk":5,"migraine_risk":7,"frizz_risk":1,"updated_at":"2026-04-12T22:12:56.164947+05:30"},{"city":"Nizamabad","state":"Telangana","latitude":18.6725,"longitude":78.0941,"temp":32.3,"humidity":42,"rain":0.0,"pressure":964.0,"uv_index":9.05,"wind_gusts":26.3,"aqi":140,"pm10":60.3,"pm2_5":48.0,"mosquito_risk":0,"arthritis_risk":5,"migraine_risk":7,"frizz_risk":1,"updated_at":"2026-04-12T22:12:56.164956+05:30"},{"city":"Mysore","state":"Karnataka","latitude":12.2958,"longitude":76.6396,"temp":26.0,"humidity":77,"rain":0.0,"pressure":929.3,"uv_index":9.55,"wind_gusts":39.2,"aqi":101,"pm10":48.2,"pm2_5":40.3,"mosquito_risk":7,"arthritis_risk":5,"migraine_risk":7,"frizz_risk":1,"updated_at":"2026-04-12T22:12:56.164962+05:30"},{"city":"Mangalore","state":"Karnataka","latitude":12.9141,"longitude":74.856,"temp":30.3,"humidity":77,"rain":0.0,"pressure":1007.0,"uv_index":9.2,"wind_gusts":24.1,"aqi":96,"pm10":58.1,"pm2_5":30.2,"mosquito_risk":3,"arthritis_risk":5,"migraine_risk":4,"frizz_risk":1,"updated_at":"2026-04-12T22:12:56.164970+05:30"},{"city":"Hubli-Dharwad","state":"Karnataka","latitude":15.3647,"longitude":75.124,"temp":25.7,"humidity":85,"rain":0.0,"pressure":941.3,"uv_index":9.25,"wind_gusts":35.6,"aqi":143,"pm10":32.2,"pm2_5":26.4,"mosquito_risk":7,"arthritis_risk":5,"migraine_risk":7,"frizz_risk":1,"updated_at":"2026-04-12T22:12:56.164976+05:30"},{"city":"Belgaum","state":"Karnataka","latitude":15.8497,"longitude":74.4977,"temp":24.2,"humidity":89,"rain":0.0,"pressure":926.0,"uv_index":9.25,"wind_gusts":41.8,"aqi":134,"pm10":35.2,"pm2_5":29.3,"mosquito_risk":3,"arthritis_risk":5,"migraine_risk":7,"frizz_risk":1,"updated_at":"2026-04-12T22:12:59.383627+05:30"},{"city":"Coimbatore","state":"Tamil Nadu","latitude":11.0168,"longitude":76.9558,"temp":26.6,"humidity":80,"rain":0.0,"pressure":962.8,"uv_index":9.5,"wind_gusts":37.4,"aqi":94,"pm10":35.4,"pm2_5":29.0,"mosquito_risk":7,"arthritis_risk":5,"migraine_risk":7,"frizz_risk":1,"updated_at":"2026-04-12T22:12:59.383657+05:30"},{"city":"Madurai","state":"Tamil Nadu","latitude":9.9252,"longitude":78.1198,"temp":29.4,"humidity":73,"rain":0.0,"pressure":994.5,"uv_index":9.4,"wind_gusts":27.0,"aqi":87,"pm10":27.9,"pm2_5":24.7,"mosquito_risk":7,"arthritis_risk":5,"migraine_risk":7,"frizz_risk":1,"updated_at":"2026-04-12T22:12:59.383667+05:30"},{"city":"Trichy","state":"Tamil Nadu","latitude":10.7905,"longitude":78.7047,"temp":28.8,"humidity":68,"rain":0.0,"pressure":1000.7,"uv_index":9.4,"wind_gusts":27.4,"aqi":65,"pm10":17.1,"pm2_5":14.8,"mosquito_risk":7,"arthritis_risk":5,"migraine_risk":4,"frizz_risk":1,"updated_at":"2026-04-12T22:12:59.383675+05:30"},{"city":"Salem","state":"Tamil Nadu","latitude":11.6643,"longitude":78.146,"temp":30.2,"humidity":55,"rain":0.0,"pressure":977.7,"uv_index":9.45,"wind_gusts":25.2,"aqi":92,"pm10":26.1,"pm2_5":22.2,"mosquito_risk":0,"arthritis_risk":5,"migraine_risk":7,"frizz_risk":1,"updated_at":"2026-04-12T22:12:59.383682+05:30"},{"city":"Tirunelveli","state":"Tamil Nadu","latitude":8.7139,"longitude":77.7567,"temp":29.1,"humidity":75,"rain":0.0,"pressure":1004.2,"uv_index":9.35,"wind_gusts":37.4,"aqi":84,"pm10":28.9,"pm2_5":23.1,"mosquito_risk":7,"arthritis_risk":5,"migraine_risk":4,"frizz_risk":1,"updated_at":"2026-04-12T22:12:59.383689+05:30"},{"city":"Vellore","state":"Tamil Nadu","latitude":12.9165,"longitude":79.1325,"temp":28.8,"humidity":54,"rain":0.0,"pressure":985.5,"uv_index":9.5,"wind_gusts":32.8,"aqi":86,"pm10":34.7,"pm2_5":29.7,"mosquito_risk":4,"arthritis_risk":5,"migraine_risk":7,"frizz_risk":1,"updated_at":"2026-04-12T22:12:59.383696+05:30"},{"city":"Erode","state":"Tamil Nadu","latitude":11.341,"longitude":77.7172,"temp":31.7,"humidity":49,"rain":0.0,"pressure":989.2,"uv_index":9.4,"wind_gusts":29.2,"aqi":78,"pm10":18.9,"pm2_5":15.8,"mosquito_risk":0,"arthritis_risk":5,"migraine_risk":7,"frizz_risk":1,"updated_at":"2026-04-12T22:12:59.383703+05:30"},{"city":"Kochi","state":"Kerala","latitude":9.9312,"longitude":76.2673,"temp":28.9,"humidity":82,"rain":0.0,"pressure":1009.6,"uv_index":8.9,"wind_gusts":28.1,"aqi":98,"pm10":49.4,"pm2_5":39.9,"mosquito_risk":7,"arthritis_risk":0,"migraine_risk":4,"frizz_risk":1,"updated_at":"2026-04-12T22:12:59.383710+05:30"},{"city":"Thiruvananthapuram","state":"Kerala","latitude":8.5241,"longitude":76.9366,"temp":28.9,"humidity":81,"rain":0.0,"pressure":1008.9,"uv_index":9.2,"wind_gusts":21.6,"aqi":92,"pm10":42.0,"pm2_5":23.5,"mosquito_risk":7,"arthritis_risk":0,"migraine_risk":4,"frizz_risk":1,"updated_at":"2026-04-12T22:12:59.383717+05:30"},{"city":"Kozhikode","state":"Kerala","latitude":11.2588,"longitude":75.7804,"temp":30.2,"humidity":79,"rain":0.0,"pressure":1008.3,"uv_index":9.1,"wind_gusts":32.4,"aqi":92,"pm10":64.3,"pm2_5":32.0,"mosquito_risk":3,"arthritis_risk":0,"migraine_risk":4,"frizz_risk":1,"updated_at":"2026-04-12T22:12:59.383724+05:30"},{"city":"Thrissur","state":"Kerala","latitude":10.5276,"longitude":76.2144,"temp":29.6,"humidity":82,"rain":0.0,"pressure":1007.6,"uv_index":9.15,"wind_gusts":32.0,"aqi":92,"pm10":57.4,"pm2_5":39.1,"mosquito_risk":7,"arthritis_risk":5,"migraine_risk":4,"frizz_risk":1,"updated_at":"2026-04-12T22:12:59.383731+05:30"},{"city":"Kannur","state":"Kerala","latitude":11.8745,"longitude":75.3704,"temp":30.0,"humidity":78,"rain":0.0,"pressure":1007.7,"uv_index":9.2,"wind_gusts":31.3,"aqi":109,"pm10":77.5,"pm2_5":48.8,"mosquito_risk":7,"arthritis_risk":5,"migraine_risk":4,"frizz_risk":1,"updated_at":"2026-04-12T22:12:59.383739+05:30"},{"city":"Patna","state":"Bihar","latitude":25.5941,"longitude":85.1376,"temp":28.3,"humidity":45,"rain":0.0,"pressure":999.0,"uv_index":8.45,"wind_gusts":36.4,"aqi":109,"pm10":91.7,"pm2_5":42.4,"mosquito_risk":4,"arthritis_risk":5,"migraine_risk":7,"frizz_risk":0,"updated_at":"2026-04-12T22:12:59.383745+05:30"},{"city":"Gaya","state":"Bihar","latitude":24.7914,"longitude":85.0002,"temp":28.9,"humidity":41,"rain":0.0,"pressure":992.5,"uv_index":8.55,"wind_gusts":26.3,"aqi":138,"pm10":98.3,"pm2_5":40.7,"mosquito_risk":4,"arthritis_risk":5,"migraine_risk":7,"frizz_risk":0,"updated_at":"2026-04-12T22:12:59.383752+05:30"},{"city":"Muzaffarpur","state":"Bihar","latitude":26.1209,"longitude":85.3647,"temp":26.0,"humidity":61,"rain":0.0,"pressure":999.1,"uv_index":8.45,"wind_gusts":34.6,"aqi":148,"pm10":75.7,"pm2_5":40.5,"mosquito_risk":7,"arthritis_risk":5,"migraine_risk":7,"frizz_risk":1,"updated_at":"2026-04-12T22:12:59.383759+05:30"},{"city":"Bhagalpur","state":"Bihar","latitude":25.2425,"longitude":87.0117,"temp":26.4,"humidity":69,"rain":0.0,"pressure":999.8,"uv_index":8.5,"wind_gusts":26.6,"aqi":141,"pm10":144.4,"pm2_5":59.1,"mosquito_risk":7,"arthritis_risk":5,"migraine_risk":7,"frizz_risk":1,"updated_at":"2026-04-12T22:12:59.383765+05:30"},{"city":"Ranchi","state":"Jharkhand","latitude":23.3441,"longitude":85.3096,"temp":27.3,"humidity":37,"rain":0.0,"pressure":937.9,"uv_index":9.1,"wind_gusts":30.6,"aqi":109,"pm10":35.5,"pm2_5":22.6,"mosquito_risk":4,"arthritis_risk":5,"migraine_risk":7,"frizz_risk":0,"updated_at":"2026-04-12T22:12:59.383771+05:30"},{"city":"Jamshedpur","state":"Jharkhand","latitude":22.8046,"longitude":86.2029,"temp":27.6,"humidity":58,"rain":0.0,"pressure":989.8,"uv_index":8.9,"wind_gusts":18.4,"aqi":113,"pm10":50.5,"pm2_5":26.5,"mosquito_risk":4,"arthritis_risk":5,"migraine_risk":7,"frizz_risk":1,"updated_at":"2026-04-12T22:12:59.383777+05:30"},{"city":"Dhanbad","state":"Jharkhand","latitude":23.7957,"longitude":86.4304,"temp":29.1,"humidity":39,"rain":0.0,"pressure":979.0,"uv_index":8.85,"wind_gusts":29.5,"aqi":122,"pm10":100.4,"pm2_5":76.8,"mosquito_risk":4,"arthritis_risk":5,"migraine_risk":7,"frizz_risk":0,"updated_at":"2026-04-12T22:12:59.383785+05:30"},{"city":"Bokaro","state":"Jharkhand","latitude":23.6693,"longitude":86.1511,"temp":28.5,"humidity":39,"rain":0.0,"pressure":983.4,"uv_index":8.85,"wind_gusts":30.2,"aqi":111,"pm10":76.8,"pm2_5":59.5,"mosquito_risk":4,"arthritis_risk":5,"migraine_risk":7,"frizz_risk":0,"updated_at":"2026-04-12T22:12:59.383791+05:30"},{"city":"Bhubaneswar","state":"Odisha","latitude":20.2961,"longitude":85.8245,"temp":27.5,"humidity":90,"rain":0.0,"pressure":1003.6,"uv_index":9.05,"wind_gusts":31.7,"aqi":97,"pm10":25.0,"pm2_5":20.4,"mosquito_risk":7,"arthritis_risk":5,"migraine_risk":4,"frizz_risk":1,"updated_at":"2026-04-12T22:12:59.383799+05:30"},{"city":"Cuttack","state":"Odisha","latitude":20.4625,"longitude":85.8828,"temp":27.7,"humidity":89,"rain":0.0,"pressure":1005.3,"uv_index":9.1,"wind_gusts":33.8,"aqi":97,"pm10":25.0,"pm2_5":20.4,"mosquito_risk":7,"arthritis_risk":5,"migraine_risk":4,"frizz_risk":1,"updated_at":"2026-04-12T22:12:59.383805+05:30"},{"city":"Rourkela","state":"Odisha","latitude":22.2604,"longitude":84.8536,"temp":29.6,"humidity":37,"rain":0.0,"pressure":984.0,"uv_index":8.85,"wind_gusts":17.6,"aqi":158,"pm10":54.5,"pm2_5":31.9,"mosquito_risk":4,"arthritis_risk":5,"migraine_risk":7,"frizz_risk":0,"updated_at":"2026-04-12T22:12:59.383811+05:30"},{"city":"Raipur","state":"Chhattisgarh","latitude":21.2514,"longitude":81.6296,"temp":30.3,"humidity":34,"rain":0.0,"pressure":973.5,"uv_index":8.9,"wind_gusts":19.8,"aqi":165,"pm10":50.5,"pm2_5":42.8,"mosquito_risk":0,"arthritis_risk":5,"migraine_risk":7,"frizz_risk":0,"updated_at":"2026-04-12T22:12:59.383817+05:30"},{"city":"Bhilai","state":"Chhattisgarh","latitude":21.1938,"longitude":81.3509,"temp":29.7,"humidity":37,"rain":0.0,"pressure":973.8,"uv_index":8.9,"wind_gusts":15.8,"aqi":140,"pm10":50.1,"pm2_5":43.8,"mosquito_risk":4,"arthritis_risk":5,"migraine_risk":7,"frizz_risk":0,"updated_at":"2026-04-12T22:12:59.383824+05:30"},{"city":"Guwahati","state":"Assam","latitude":26.1158,"longitude":91.7086,"temp":22.9,"humidity":89,"rain":0.3,"pressure":1002.3,"uv_index":8.4,"wind_gusts":29.9,"aqi":125,"pm10":59.3,"pm2_5":41.4,"mosquito_risk":6,"arthritis_risk":5,"migraine_risk":4,"frizz_risk":1,"updated_at":"2026-04-12T22:12:59.383830+05:30"},{"city":"Agartala","state":"Tripura","latitude":23.8315,"longitude":91.2868,"temp":25.2,"humidity":87,"rain":0.0,"pressure":1005.8,"uv_index":8.6,"wind_gusts":29.5,"aqi":101,"pm10":43.7,"pm2_5":30.7,"mosquito_risk":7,"arthritis_risk":5,"migraine_risk":4,"frizz_risk":1,"updated_at":"2026-04-12T22:12:59.383838+05:30"},{"city":"Shillong","state":"Meghalaya","latitude":25.5788,"longitude":91.8933,"temp":15.2,"humidity":73,"rain":0.0,"pressure":856.0,"uv_index":7.05,"wind_gusts":64.4,"aqi":113,"pm10":55.2,"pm2_5":37.0,"mosquito_risk":3,"arthritis_risk":5,"migraine_risk":7,"frizz_risk":0,"updated_at":"2026-04-12T22:12:59.383844+05:30"},{"city":"Imphal","state":"Manipur","latitude":24.817,"longitude":93.9368,"temp":18.1,"humidity":80,"rain":0.0,"pressure":923.9,"uv_index":9.0,"wind_gusts":61.6,"aqi":109,"pm10":87.3,"pm2_5":53.6,"mosquito_risk":3,"arthritis_risk":5,"migraine_risk":7,"frizz_risk":0,"updated_at":"2026-04-12T22:12:59.383850+05:30"},{"city":"Aizawl","state":"Mizoram","latitude":23.7271,"longitude":92.7176,"temp":19.4,"humidity":75,"rain":0.0,"pressure":893.1,"uv_index":8.85,"wind_gusts":44.3,"aqi":97,"pm10":69.2,"pm2_5":34.9,"mosquito_risk":3,"arthritis_risk":5,"migraine_risk":7,"frizz_risk":0,"updated_at":"2026-04-12T22:12:59.383856+05:30"},{"city":"Kohima","state":"Nagaland","latitude":25.6701,"longitude":94.1077,"temp":15.0,"humidity":74,"rain":0.0,"pressure":854.8,"uv_index":8.9,"wind_gusts":88.9,"aqi":99,"pm10":67.1,"pm2_5":37.7,"mosquito_risk":3,"arthritis_risk":5,"migraine_risk":7,"frizz_risk":0,"updated_at":"2026-04-12T22:12:59.383862+05:30"},{"city":"Gangtok","state":"Sikkim","latitude":27.3314,"longitude":88.6138,"temp":13.2,"humidity":84,"rain":0.1,"pressure":836.1,"uv_index":8.65,"wind_gusts":16.6,"aqi":135,"pm10":99.7,"pm2_5":40.5,"mosquito_risk":6,"arthritis_risk":10,"migraine_risk":7,"frizz_risk":0,"updated_at":"2026-04-12T22:12:59.383869+05:30"},{"city":"Siliguri","state":"West Bengal","latitude":26.7271,"longitude":88.3953,"temp":21.1,"humidity":67,"rain":0.0,"pressure":993.8,"uv_index":7.3,"wind_gusts":21.2,"aqi":133,"pm10":130.4,"pm2_5":52.4,"mosquito_risk":3,"arthritis_risk":5,"migraine_risk":7,"frizz_risk":0,"updated_at":"2026-04-12T22:13:02.604539+05:30"},{"city":"Durgapur","state":"West Bengal","latitude":23.5204,"longitude":87.3119,"temp":29.3,"humidity":43,"rain":0.0,"pressure":994.0,"uv_index":8.8,"wind_gusts":21.2,"aqi":131,"pm10":68.7,"pm2_5":49.0,"mosquito_risk":4,"arthritis_risk":5,"migraine_risk":7,"frizz_risk":0,"updated_at":"2026-04-12T22:13:02.604569+05:30"},{"city":"Asansol","state":"West Bengal","latitude":23.6739,"longitude":86.9524,"temp":29.5,"humidity":49,"rain":0.0,"pressure":992.5,"uv_index":8.85,"wind_gusts":23.4,"aqi":111,"pm10":67.5,"pm2_5":45.5,"mosquito_risk":4,"arthritis_risk":5,"migraine_risk":7,"frizz_risk":1,"updated_at":"2026-04-12T22:13:02.604580+05:30"},{"city":"Pondicherry","state":"Puducherry","latitude":11.9139,"longitude":79.8145,"temp":26.4,"humidity":92,"rain":0.0,"pressure":1009.4,"uv_index":9.35,"wind_gusts":29.5,"aqi":38,"pm10":9.9,"pm2_5":5.9,"mosquito_risk":7,"arthritis_risk":0,"migraine_risk":4,"frizz_risk":1,"updated_at":"2026-04-12T22:13:02.604589+05:30"},{"city":"Port Blair","state":"Andaman and Nicobar Islands","latitude":11.6234,"longitude":92.7265,"temp":28.9,"humidity":80,"rain":0.0,"pressure":1007.9,"uv_index":9.25,"wind_gusts":14.0,"aqi":55,"pm10":32.4,"pm2_5":16.6,"mosquito_risk":7,"arthritis_risk":5,"migraine_risk":4,"frizz_risk":1,"updated_at":"2026-04-12T22:13:02.604597+05:30"},{"city":"Haridwar","state":"Uttarakhand","latitude":29.9457,"longitude":78.1642,"temp":21.7,"humidity":63,"rain":0.0,"pressure":975.2,"uv_index":7.0,"wind_gusts":33.8,"aqi":126,"pm10":46.1,"pm2_5":24.0,"mosquito_risk":3,"arthritis_risk":5,"migraine_risk":7,"frizz_risk":0,"updated_at":"2026-04-12T22:13:02.604606+05:30"},{"city":"Rishikesh","state":"Uttarakhand","latitude":30.0869,"longitude":78.2676,"temp":18.5,"humidity":76,"rain":0.0,"pressure":967.8,"uv_index":7.1,"wind_gusts":34.2,"aqi":132,"pm10":48.7,"pm2_5":23.0,"mosquito_risk":3,"arthritis_risk":5,"migraine_risk":7,"frizz_risk":0,"updated_at":"2026-04-12T22:13:02.604613+05:30"},{"city":"Nainital","state":"Uttarakhand","latitude":29.3919,"longitude":79.4542,"temp":17.6,"humidity":48,"rain":0.0,"pressure":806.0,"uv_index":7.95,"wind_gusts":52.2,"aqi":121,"pm10":52.4,"pm2_5":22.1,"mosquito_risk":0,"arthritis_risk":5,"migraine_risk":7,"frizz_risk":0,"updated_at":"2026-04-12T22:13:02.604622+05:30"},{"city":"Mussoorie","state":"Uttarakhand","latitude":30.4599,"longitude":78.0664,"temp":14.4,"humidity":62,"rain":0.0,"pressure":801.8,"uv_index":7.35,"wind_gusts":37.8,"aqi":133,"pm10":46.1,"pm2_5":28.4,"mosquito_risk":3,"arthritis_risk":5,"migraine_risk":7,"frizz_risk":0,"updated_at":"2026-04-12T22:13:02.604628+05:30"},{"city":"Dharamshala","state":"Himachal Pradesh","latitude":32.219,"longitude":76.3234,"temp":18.1,"humidity":59,"rain":0.0,"pressure":869.7,"uv_index":7.7,"wind_gusts":23.4,"aqi":111,"pm10":34.5,"pm2_5":15.2,"mosquito_risk":0,"arthritis_risk":5,"migraine_risk":7,"frizz_risk":0,"updated_at":"2026-04-12T22:13:02.604634+05:30"},{"city":"Dalhousie","state":"Himachal Pradesh","latitude":32.5387,"longitude":75.971,"temp":14.7,"humidity":61,"rain":0.0,"pressure":803.3,"uv_index":7.95,"wind_gusts":20.5,"aqi":100,"pm10":50.4,"pm2_5":27.0,"mosquito_risk":3,"arthritis_risk":5,"migraine_risk":7,"frizz_risk":0,"updated_at":"2026-04-12T22:13:02.604641+05:30"},{"city":"Patiala","state":"Punjab","latitude":30.3398,"longitude":76.3869,"temp":22.1,"humidity":54,"rain":0.0,"pressure":979.8,"uv_index":7.0,"wind_gusts":32.0,"aqi":341,"pm10":469.4,"pm2_5":64.3,"mosquito_risk":0,"arthritis_risk":5,"migraine_risk":7,"frizz_risk":0,"updated_at":"2026-04-12T22:13:02.604647+05:30"},{"city":"Bhatinda","state":"Punjab","latitude":30.211,"longitude":74.9455,"temp":24.2,"humidity":42,"rain":0.0,"pressure":985.2,"uv_index":7.75,"wind_gusts":32.0,"aqi":123,"pm10":41.9,"pm2_5":21.2,"mosquito_risk":0,"arthritis_risk":5,"migraine_risk":7,"frizz_risk":0,"updated_at":"2026-04-12T22:13:02.604654+05:30"},{"city":"Rohtak","state":"Haryana","latitude":28.8955,"longitude":76.6066,"temp":23.4,"humidity":48,"rain":0.0,"pressure":982.9,"uv_index":7.25,"wind_gusts":36.0,"aqi":708,"pm10":1024.5,"pm2_5":143.4,"mosquito_risk":0,"arthritis_risk":5,"migraine_risk":7,"frizz_risk":0,"updated_at":"2026-04-12T22:13:02.604660+05:30"},{"city":"Panipat","state":"Haryana","latitude":29.3909,"longitude":76.9635,"temp":22.3,"humidity":51,"rain":0.0,"pressure":981.5,"uv_index":7.05,"wind_gusts":33.8,"aqi":1123,"pm10":1207.0,"pm2_5":161.6,"mosquito_risk":0,"arthritis_risk":5,"migraine_risk":7,"frizz_risk":0,"updated_at":"2026-04-12T22:13:02.604666+05:30"},{"city":"Mathura","state":"Uttar Pradesh","latitude":27.4924,"longitude":77.6737,"temp":25.0,"humidity":44,"rain":0.0,"pressure":987.5,"uv_index":7.55,"wind_gusts":28.8,"aqi":760,"pm10":1162.3,"pm2_5":149.5,"mosquito_risk":4,"arthritis_risk":5,"migraine_risk":7,"frizz_risk":0,"updated_at":"2026-04-12T22:13:02.604672+05:30"},{"city":"Vrindavan","state":"Uttar Pradesh","latitude":27.5823,"longitude":77.7027,"temp":23.4,"humidity":48,"rain":0.0,"pressure":987.8,"uv_index":7.5,"wind_gusts":32.0,"aqi":760,"pm10":1162.3,"pm2_5":149.5,"mosquito_risk":0,"arthritis_risk":5,"migraine_risk":7,"frizz_risk":0,"updated_at":"2026-04-12T22:13:02.604678+05:30"},{"city":"Ayodhya","state":"Uttar Pradesh","latitude":26.7922,"longitude":82.1998,"temp":26.7,"humidity":39,"rain":0.0,"pressure":994.3,"uv_index":7.9,"wind_gusts":36.0,"aqi":113,"pm10":110.6,"pm2_5":34.2,"mosquito_risk":4,"arthritis_risk":5,"migraine_risk":7,"frizz_risk":0,"updated_at":"2026-04-12T22:13:02.604683+05:30"},{"city":"Ratlam","state":"Madhya Pradesh","latitude":23.3315,"longitude":75.0367,"temp":27.6,"humidity":52,"rain":0.0,"pressure":954.6,"uv_index":8.35,"wind_gusts":26.6,"aqi":70,"pm10":54.5,"pm2_5":25.8,"mosquito_risk":4,"arthritis_risk":5,"migraine_risk":7,"frizz_risk":1,"updated_at":"2026-04-12T22:13:02.604690+05:30"},{"city":"Sagar","state":"Madhya Pradesh","latitude":23.8388,"longitude":78.7378,"temp":28.1,"humidity":34,"rain":0.0,"pressure":949.9,"uv_index":8.5,"wind_gusts":33.1,"aqi":96,"pm10":51.3,"pm2_5":20.9,"mosquito_risk":4,"arthritis_risk":5,"migraine_risk":7,"frizz_risk":0,"updated_at":"2026-04-12T22:13:02.604695+05:30"},{"city":"Satna","state":"Madhya Pradesh","latitude":24.6005,"longitude":80.8322,"temp":29.2,"humidity":38,"rain":0.0,"pressure":971.3,"uv_index":8.5,"wind_gusts":37.1,"aqi":113,"pm10":80.6,"pm2_5":25.0,"mosquito_risk":4,"arthritis_risk":5,"migraine_risk":7,"frizz_risk":0,"updated_at":"2026-04-12T22:13:02.604702+05:30"},{"city":"Akola","state":"Maharashtra","latitude":20.7002,"longitude":77.0082,"temp":29.7,"humidity":47,"rain":0.0,"pressure":974.1,"uv_index":8.75,"wind_gusts":27.4,"aqi":135,"pm10":33.4,"pm2_5":22.5,"mosquito_risk":4,"arthritis_risk":5,"migraine_risk":7,"frizz_risk":1,"updated_at":"2026-04-12T22:13:02.604709+05:30"},{"city":"Amravati","state":"Maharashtra","latitude":20.9374,"longitude":77.7796,"temp":28.4,"humidity":50,"rain":0.0,"pressure":966.1,"uv_index":8.75,"wind_gusts":20.5,"aqi":141,"pm10":36.4,"pm2_5":25.9,"mosquito_risk":4,"arthritis_risk":5,"migraine_risk":7,"frizz_risk":1,"updated_at":"2026-04-12T22:13:02.604715+05:30"},{"city":"Latur","state":"Maharashtra","latitude":18.4088,"longitude":76.5604,"temp":29.6,"humidity":49,"rain":0.0,"pressure":939.2,"uv_index":9.05,"wind_gusts":24.5,"aqi":124,"pm10":34.9,"pm2_5":26.7,"mosquito_risk":4,"arthritis_risk":5,"migraine_risk":7,"frizz_risk":1,"updated_at":"2026-04-12T22:13:02.604721+05:30"},{"city":"Nanded","state":"Maharashtra","latitude":19.1383,"longitude":77.3091,"temp":30.6,"humidity":50,"rain":0.0,"pressure":967.4,"uv_index":8.95,"wind_gusts":14.8,"aqi":141,"pm10":56.6,"pm2_5":43.8,"mosquito_risk":0,"arthritis_risk":5,"migraine_risk":7,"frizz_risk":1,"updated_at":"2026-04-12T22:13:02.604727+05:30"},{"city":"Gulbarga","state":"Karnataka","latitude":17.3297,"longitude":76.8343,"temp":33.6,"humidity":39,"rain":0.0,"pressure":957.9,"uv_index":9.1,"wind_gusts":28.4,"aqi":143,"pm10":34.5,"pm2_5":28.6,"mosquito_risk":0,"arthritis_risk":5,"migraine_risk":7,"frizz_risk":1,"updated_at":"2026-04-12T22:13:02.604733+05:30"},{"city":"Bidar","state":"Karnataka","latitude":17.9104,"longitude":77.5199,"temp":31.5,"humidity":51,"rain":0.0,"pressure":935.4,"uv_index":9.1,"wind_gusts":26.6,"aqi":123,"pm10":38.4,"pm2_5":30.7,"mosquito_risk":0,"arthritis_risk":5,"migraine_risk":7,"frizz_risk":1,"updated_at":"2026-04-12T22:13:02.604739+05:30"},{"city":"Hospet","state":"Karnataka","latitude":15.2689,"longitude":76.3909,"temp":32.4,"humidity":61,"rain":0.0,"pressure":955.3,"uv_index":9.3,"wind_gusts":24.8,"aqi":152,"pm10":55.6,"pm2_5":45.8,"mosquito_risk":3,"arthritis_risk":5,"migraine_risk":7,"frizz_risk":1,"updated_at":"2026-04-12T22:13:02.604745+05:30"},{"city":"Tirupur","state":"Tamil Nadu","latitude":11.1085,"longitude":77.3411,"temp":29.8,"humidity":64,"rain":0.0,"pressure":976.2,"uv_index":9.5,"wind_gusts":29.2,"aqi":92,"pm10":25.9,"pm2_5":21.6,"mosquito_risk":7,"arthritis_risk":5,"migraine_risk":7,"frizz_risk":1,"updated_at":"2026-04-12T22:13:02.604751+05:30"},{"city":"Alappuzha","state":"Kerala","latitude":9.4981,"longitude":76.3388,"temp":28.7,"humidity":83,"rain":0.0,"pressure":1009.8,"uv_index":8.8,"wind_gusts":24.5,"aqi":97,"pm10":46.8,"pm2_5":30.3,"mosquito_risk":7,"arthritis_risk":0,"migraine_risk":4,"frizz_risk":1,"updated_at":"2026-04-12T22:13:02.604758+05:30"},{"city":"Munnar","state":"Kerala","latitude":10.0889,"longitude":77.0595,"temp":22.9,"humidity":91,"rain":0.0,"pressure":858.4,"uv_index":9.75,"wind_gusts":30.6,"aqi":89,"pm10":39.8,"pm2_5":33.8,"mosquito_risk":3,"arthritis_risk":5,"migraine_risk":7,"frizz_risk":1,"updated_at":"2026-04-12T22:13:02.604765+05:30"},{"city":"Silchar","state":"Assam","latitude":24.8333,"longitude":92.7789,"temp":24.1,"humidity":85,"rain":0.0,"pressure":1005.2,"uv_index":8.65,"wind_gusts":41.0,"aqi":146,"pm10":92.7,"pm2_5":71.7,"mosquito_risk":3,"arthritis_risk":5,"migraine_risk":4,"frizz_risk":1,"updated_at":"2026-04-12T22:13:02.604771+05:30"},{"city":"Dibrugarh","state":"Assam","latitude":27.4728,"longitude":94.912,"temp":21.7,"humidity":75,"rain":0.0,"pressure":997.3,"uv_index":7.65,"wind_gusts":32.0,"aqi":94,"pm10":37.5,"pm2_5":30.4,"mosquito_risk":3,"arthritis_risk":5,"migraine_risk":7,"frizz_risk":1,"updated_at":"2026-04-12T22:13:02.604777+05:30"}]