[{"city":"Delhi","state":"Delhi","latitude":28.6139,"longitude":77.209,"temp":25.7,"humidity":52,"rain":0.0,"pressure":987.5,"uv_index":5.95,"wind_gusts":20.2,"aqi":169,"pm10":215.6,"pm2_5":118.7,"mosquito_risk":4,"arthritis_risk":5,"migraine_risk":3,"frizz_risk":0,"updated_at":"2026-03-07T22:54:44.670802+05:30"},{"city":"Mumbai","state":"Maharashtra","latitude":19.076,"longitude":72.8777,"temp":27.4,"humidity":78,"rain":0.0,"pressure":1010.2,"uv_index":7.5,"wind_gusts":24.8,"aqi":127,"pm10":41.4,"pm2_5":38.4,"mosquito_risk":7,"arthritis_risk":0,"migraine_risk":4,"frizz_risk":1,"updated_at":"2026-03-07T22:54:44.670841+05:30"},{"city":"Bangalore","state":"Karnataka","latitude":12.9716,"longitude":77.5946,"temp":23.5,"humidity":43,"rain":0.0,"pressure":913.1,"uv_index":9.2,"wind_gusts":24.8,"aqi":108,"pm10":39.7,"pm2_5":36.0,"mosquito_risk":0,"arthritis_risk":5,"migraine_risk":7,"frizz_risk":0,"updated_at":"2026-03-07T22:54:44.670856+05:30"},{"city":"Hyderabad","state":"Telangana","latitude":17.385,"longitude":78.4867,"temp":25.6,"humidity":47,"rain":0.0,"pressure":955.4,"uv_index":8.5,"wind_gusts":27.0,"aqi":103,"pm10":47.5,"pm2_5":38.9,"mosquito_risk":4,"arthritis_risk":5,"migraine_risk":7,"frizz_risk":0,"updated_at":"2026-03-07T22:54:44.670866+05:30"},{"city":"Chennai","state":"Tamil Nadu","latitude":13.0827,"longitude":80.2707,"temp":27.1,"humidity":76,"rain":0.0,"pressure":1010.2,"uv_index":8.9,"wind_gusts":34.6,"aqi":87,"pm10":25.7,"pm2_5":18.7,"mosquito_risk":7,"arthritis_risk":0,"migraine_risk":4,"frizz_risk":1,"updated_at":"2026-03-07T22:54:44.670875+05:30"},{"city":"Kolkata","state":"West Bengal","latitude":22.5726,"longitude":88.3639,"temp":24.5,"humidity":91,"rain":0.0,"pressure":1011.1,"uv_index":7.8,"wind_gusts":18.0,"aqi":145,"pm10":58.6,"pm2_5":51.5,"mosquito_risk":3,"arthritis_risk":0,"migraine_risk":4,"frizz_risk":1,"updated_at":"2026-03-07T22:54:44.670883+05:30"},{"city":"Pune","state":"Maharashtra","latitude":18.5204,"longitude":73.8567,"temp":25.8,"humidity":44,"rain":0.0,"pressure":950.5,"uv_index":8.05,"wind_gusts":24.8,"aqi":103,"pm10":36.1,"pm2_5":35.0,"mosquito_risk":4,"arthritis_risk":5,"migraine_risk":7,"frizz_risk":0,"updated_at":"2026-03-07T22:54:44.670895+05:30"},{"city":"Ahmedabad","state":"Gujarat","latitude":23.0225,"longitude":72.5714,"temp":25.7,"humidity":49,"rain":0.0,"pressure":1004.9,"uv_index":7.3,"wind_gusts":13.7,"aqi":107,"pm10":65.7,"pm2_5":58.9,"mosquito_risk":4,"arthritis_risk":5,"migraine_risk":4,"frizz_risk":0,"updated_at":"2026-03-07T22:54:44.670903+05:30"},{"city":"Jaipur","state":"Rajasthan","latitude":26.9124,"longitude":75.7873,"temp":26.4,"humidity":29,"rain":0.0,"pressure":963.8,"uv_index":6.7,"wind_gusts":20.2,"aqi":83,"pm10":60.8,"pm2_5":43.1,"mosquito_risk":4,"arthritis_risk":5,"migraine_risk":7,"frizz_risk":0,"updated_at":"2026-03-07T22:54:44.670911+05:30"},{"city":"Lucknow","state":"Uttar Pradesh","latitude":26.8467,"longitude":80.9462,"temp":25.1,"humidity":65,"rain":0.0,"pressure":998.2,"uv_index":6.45,"wind_gusts":16.9,"aqi":166,"pm10":169.5,"pm2_5":140.2,"mosquito_risk":7,"arthritis_risk":5,"migraine_risk":7,"frizz_risk":1,"updated_at":"2026-03-07T22:54:44.670919+05:30"},{"city":"Kanpur","state":"Uttar Pradesh","latitude":26.4499,"longitude":80.3319,"temp":24.9,"humidity":69,"rain":0.0,"pressure":996.4,"uv_index":6.5,"wind_gusts":14.4,"aqi":161,"pm10":152.7,"pm2_5":111.5,"mosquito_risk":3,"arthritis_risk":5,"migraine_risk":7,"frizz_risk":1,"updated_at":"2026-03-07T22:54:44.670926+05:30"},{"city":"Chandigarh","state":"Chandigarh","latitude":30.7333,"longitude":76.7794,"temp":23.4,"humidity":66,"rain":0.0,"pressure":973.3,"uv_index":5.85,"wind_gusts":19.1,"aqi":159,"pm10":98.3,"pm2_5":83.6,"mosquito_risk":3,"arthritis_risk":5,"migraine_risk":3,"frizz_risk":1,"updated_at":"2026-03-07T22:54:44.670934+05:30"},{"city":"Srinagar","state":"Jammu and Kashmir","latitude":34.0837,"longitude":74.7973,"temp":10.5,"humidity":77,"rain":0.0,"pressure":845.5,"uv_index":5.45,"wind_gusts":18.4,"aqi":115,"pm10":91.0,"pm2_5":76.4,"mosquito_risk":3,"arthritis_risk":5,"migraine_risk":3,"frizz_risk":0,"updated_at":"2026-03-07T22:54:44.670941+05:30"},{"city":"Jammu","state":"Jammu and Kashmir","latitude":32.7266,"longitude":74.857,"temp":20.9,"humidity":92,"rain":0.0,"pressure":977.5,"uv_index":5.85,"wind_gusts":11.5,"aqi":137,"pm10":85.2,"pm2_5":78.9,"mosquito_risk":3,"arthritis_risk":5,"migraine_risk":3,"frizz_risk":1,"updated_at":"2026-03-07T22:54:44.670948+05:30"},{"city":"Amritsar","state":"Punjab","latitude":31.634,"longitude":74.8723,"temp":21.9,"humidity":86,"rain":0.0,"pressure":985.2,"uv_index":6.4,"wind_gusts":18.7,"aqi":152,"pm10":135.5,"pm2_5":100.8,"mosquito_risk":3,"arthritis_risk":5,"migraine_risk":7,"frizz_risk":1,"updated_at":"2026-03-07T22:54:44.670954+05:30"},{"city":"Ludhiana","state":"Punjab","latitude":30.901,"longitude":75.8573,"temp":24.1,"humidity":65,"rain":0.0,"pressure":983.3,"uv_index":6.1,"wind_gusts":16.2,"aqi":171,"pm10":182.1,"pm2_5":145.8,"mosquito_risk":3,"arthritis_risk":5,"migraine_risk":7,"frizz_risk":1,"updated_at":"2026-03-07T22:54:44.670960+05:30"},{"city":"Jalandhar","state":"Punjab","latitude":31.326,"longitude":75.5762,"temp":22.7,"humidity":74,"rain":0.0,"pressure":984.6,"uv_index":6.25,"wind_gusts":18.4,"aqi":166,"pm10":183.5,"pm2_5":135.5,"mosquito_risk":3,"arthritis_risk":5,"migraine_risk":7,"frizz_risk":1,"updated_at":"2026-03-07T22:54:44.670968+05:30"},{"city":"Dehradun","state":"Uttarakhand","latitude":30.6284,"longitude":78.0322,"temp":15.2,"humidity":94,"rain":0.0,"pressure":834.1,"uv_index":6.2,"wind_gusts":27.0,"aqi":147,"pm10":76.1,"pm2_5":60.8,"mosquito_risk":3,"arthritis_risk":10,"migraine_risk":7,"frizz_risk":0,"updated_at":"2026-03-07T22:54:44.670975+05:30"},{"city":"Shimla","state":"Himachal Pradesh","latitude":31.1048,"longitude":77.1734,"temp":13.4,"humidity":82,"rain":0.0,"pressure":788.0,"uv_index":6.3,"wind_gusts":35.6,"aqi":141,"pm10":80.1,"pm2_5":67.1,"mosquito_risk":3,"arthritis_risk":10,"migraine_risk":7,"frizz_risk":0,"updated_at":"2026-03-07T22:54:44.670982+05:30"},{"city":"Manali","state":"Himachal Pradesh","latitude":32.2396,"longitude":77.1887,"temp":17.0,"humidity":40,"rain":0.0,"pressure":825.7,"uv_index":7.3,"wind_gusts":42.1,"aqi":74,"pm10":19.5,"pm2_5":12.8,"mosquito_risk":0,"arthritis_risk":5,"migraine_risk":7,"frizz_risk":0,"updated_at":"2026-03-07T22:54:44.670989+05:30"},{"city":"Gurgaon","state":"Haryana","latitude":28.4595,"longitude":77.0266,"temp":23.1,"humidity":62,"rain":0.0,"pressure":985.6,"uv_index":6.05,"wind_gusts":13.7,"aqi":186,"pm10":198.4,"pm2_5":100.6,"mosquito_risk":3,"arthritis_risk":5,"migraine_risk":7,"frizz_risk":0,"updated_at":"2026-03-07T22:54:44.670996+05:30"},{"city":"Noida","state":"Uttar Pradesh","latitude":28.5355,"longitude":77.391,"temp":24.6,"humidity":58,"rain":0.0,"pressure":989.0,"uv_index":5.95,"wind_gusts":19.1,"aqi":186,"pm10":198.4,"pm2_5":100.6,"mosquito_risk":0,"arthritis_risk":5,"migraine_risk":3,"frizz_risk":0,"updated_at":"2026-03-07T22:54:44.671002+05:30"},{"city":"Ghaziabad","state":"Uttar Pradesh","latitude":28.6692,"longitude":77.4538,"temp":24.0,"humidity":65,"rain":0.0,"pressure":987.1,"uv_index":5.9,"wind_gusts":17.6,"aqi":171,"pm10":246.8,"pm2_5":140.2,"mosquito_risk":3,"arthritis_risk":5,"migraine_risk":3,"frizz_risk":1,"updated_at":"2026-03-07T22:54:44.671008+05:30"},{"city":"Faridabad","state":"Haryana","latitude":28.4089,"longitude":77.3178,"temp":23.5,"humidity":54,"rain":0.0,"pressure":988.1,"uv_index":6.0,"wind_gusts":14.4,"aqi":186,"pm10":198.4,"pm2_5":100.6,"mosquito_risk":0,"arthritis_risk":5,"migraine_risk":3,"frizz_risk":0,"updated_at":"2026-03-07T22:54:44.671014+05:30"},{"city":"Meerut","state":"Uttar Pradesh","latitude":28.9845,"longitude":77.7064,"temp":24.0,"humidity":68,"rain":0.0,"pressure":986.0,"uv_index":5.8,"wind_gusts":20.2,"aqi":171,"pm10":246.8,"pm2_5":140.2,"mosquito_risk":3,"arthritis_risk":5,"migraine_risk":3,"frizz_risk":1,"updated_at":"2026-03-07T22:54:44.671020+05:30"},{"city":"Agra","state":"Uttar Pradesh","latitude":27.1767,"longitude":78.0081,"temp":22.3,"humidity":76,"rain":0.0,"pressure":992.0,"uv_index":6.3,"wind_gusts":15.8,"aqi":167,"pm10":218.4,"pm2_5":97.1,"mosquito_risk":3,"arthritis_risk":5,"migraine_risk":7,"frizz_risk":1,"updated_at":"2026-03-07T22:54:44.671027+05:30"},{"city":"Varanasi","state":"Uttar Pradesh","latitude":25.3176,"longitude":82.9739,"temp":23.9,"humidity":77,"rain":0.0,"pressure":1002.1,"uv_index":7.1,"wind_gusts":16.9,"aqi":175,"pm10":134.1,"pm2_5":122.0,"mosquito_risk":3,"arthritis_risk":5,"migraine_risk":4,"frizz_risk":1,"updated_at":"2026-03-07T22:54:44.671035+05:30"},{"city":"Prayagraj","state":"Uttar Pradesh","latitude":25.4358,"longitude":81.8463,"temp":24.2,"humidity":74,"rain":0.0,"pressure":1000.7,"uv_index":7.0,"wind_gusts":14.0,"aqi":172,"pm10":107.8,"pm2_5":97.8,"mosquito_risk":3,"arthritis_risk":5,"migraine_risk":4,"frizz_risk":1,"updated_at":"2026-03-07T22:54:44.671042+05:30"},{"city":"Gorakhpur","state":"Uttar Pradesh","latitude":26.7606,"longitude":83.3732,"temp":23.7,"humidity":74,"rain":0.0,"pressure":1001.9,"uv_index":6.85,"wind_gusts":9.4,"aqi":171,"pm10":144.4,"pm2_5":134.6,"mosquito_risk":3,"arthritis_risk":5,"migraine_risk":4,"frizz_risk":1,"updated_at":"2026-03-07T22:54:44.671050+05:30"},{"city":"Bareilly","state":"Uttar Pradesh","latitude":28.367,"longitude":79.4304,"temp":23.4,"humidity":79,"rain":0.0,"pressure":991.5,"uv_index":6.15,"wind_gusts":10.1,"aqi":164,"pm10":116.2,"pm2_5":101.7,"mosquito_risk":3,"arthritis_risk":5,"migraine_risk":7,"frizz_risk":1,"updated_at":"2026-03-07T22:54:44.671057+05:30"},{"city":"Aligarh","state":"Uttar Pradesh","latitude":27.8974,"longitude":78.088,"temp":21.8,"humidity":81,"rain":0.0,"pressure":989.9,"uv_index":6.05,"wind_gusts":17.6,"aqi":175,"pm10":202.1,"pm2_5":101.7,"mosquito_risk":3,"arthritis_risk":5,"migraine_risk":7,"frizz_risk":1,"updated_at":"2026-03-07T22:54:44.671064+05:30"},{"city":"Moradabad","state":"Uttar Pradesh","latitude":28.8386,"longitude":78.7733,"temp":23.1,"humidity":78,"rain":0.0,"pressure":988.3,"uv_index":5.95,"wind_gusts":12.2,"aqi":169,"pm10":154.1,"pm2_5":128.1,"mosquito_risk":3,"arthritis_risk":5,"migraine_risk":3,"frizz_risk":1,"updated_at":"2026-03-07T22:54:44.671070+05:30"},{"city":"Saharanpur","state":"Uttar Pradesh","latitude":29.9637,"longitude":77.546,"temp":23.1,"humidity":71,"rain":0.0,"pressure":980.4,"uv_index":5.6,"wind_gusts":23.0,"aqi":168,"pm10":151.8,"pm2_5":124.8,"mosquito_risk":3,"arthritis_risk":5,"migraine_risk":3,"frizz_risk":1,"updated_at":"2026-03-07T22:54:44.671075+05:30"},{"city":"Jhansi","state":"Uttar Pradesh","latitude":25.4484,"longitude":78.5685,"temp":23.1,"humidity":57,"rain":0.0,"pressure":982.1,"uv_index":6.95,"wind_gusts":25.6,"aqi":105,"pm10":96.9,"pm2_5":39.6,"mosquito_risk":0,"arthritis_risk":5,"migraine_risk":7,"frizz_risk":0,"updated_at":"2026-03-07T22:54:47.950584+05:30"},{"city":"Surat","state":"Gujarat","latitude":21.1702,"longitude":72.8311,"temp":25.6,"humidity":61,"rain":0.0,"pressure":1009.0,"uv_index":7.2,"wind_gusts":24.5,"aqi":155,"pm10":69.4,"pm2_5":67.8,"mosquito_risk":7,"arthritis_risk":0,"migraine_risk":4,"frizz_risk":1,"updated_at":"2026-03-07T22:54:47.950614+05:30"},{"city":"Vadodara","state":"Gujarat","latitude":22.3072,"longitude":73.1812,"temp":26.6,"humidity":58,"rain":0.0,"pressure":1006.9,"uv_index":7.3,"wind_gusts":18.4,"aqi":163,"pm10":63.1,"pm2_5":60.5,"mosquito_risk":4,"arthritis_risk":5,"migraine_risk":4,"frizz_risk":1,"updated_at":"2026-03-07T22:54:47.950625+05:30"},{"city":"Rajkot","state":"Gujarat","latitude":22.3039,"longitude":70.8022,"temp":24.8,"humidity":45,"rain":0.0,"pressure":997.5,"uv_index":7.15,"wind_gusts":19.4,"aqi":101,"pm10":46.6,"pm2_5":31.4,"mosquito_risk":0,"arthritis_risk":5,"migraine_risk":7,"frizz_risk":0,"updated_at":"2026-03-07T22:54:47.950634+05:30"},{"city":"Thane","state":"Maharashtra","latitude":19.2183,"longitude":72.9781,"temp":25.8,"humidity":77,"rain":0.0,"pressure":1009.7,"uv_index":7.5,"wind_gusts":33.8,"aqi":127,"pm10":41.4,"pm2_5":38.4,"mosquito_risk":7,"arthritis_risk":0,"migraine_risk":4,"frizz_risk":1,"updated_at":"2026-03-07T22:54:47.950642+05:30"},{"city":"Nagpur","state":"Maharashtra","latitude":21.1458,"longitude":79.0882,"temp":26.6,"humidity":50,"rain":0.0,"pressure":975.9,"uv_index":7.85,"wind_gusts":21.2,"aqi":74,"pm10":29.3,"pm2_5":21.9,"mosquito_risk":4,"arthritis_risk":5,"migraine_risk":7,"frizz_risk":0,"updated_at":"2026-03-07T22:54:47.950650+05:30"},{"city":"Nashik","state":"Maharashtra","latitude":19.9975,"longitude":73.7898,"temp":25.4,"humidity":48,"rain":0.0,"pressure":947.9,"uv_index":7.65,"wind_gusts":33.8,"aqi":100,"pm10":44.1,"pm2_5":43.2,"mosquito_risk":4,"arthritis_risk":5,"migraine_risk":7,"frizz_risk":0,"updated_at":"2026-03-07T22:54:47.950657+05:30"},{"city":"Aurangabad","state":"Maharashtra","latitude":19.8762,"longitude":75.3433,"temp":26.1,"humidity":39,"rain":0.0,"pressure":946.1,"uv_index":8.15,"wind_gusts":22.7,"aqi":116,"pm10":40.4,"pm2_5":38.9,"mosquito_risk":4,"arthritis_risk":5,"migraine_risk":7,"frizz_risk":0,"updated_at":"2026-03-07T22:54:47.950665+05:30"},{"city":"Solapur","state":"Maharashtra","latitude":17.6599,"longitude":75.9064,"temp":26.0,"humidity":52,"rain":0.0,"pressure":958.4,"uv_index":8.4,"wind_gusts":19.8,"aqi":112,"pm10":24.3,"pm2_5":21.8,"mosquito_risk":4,"arthritis_risk":5,"migraine_risk":7,"frizz_risk":0,"updated_at":"2026-03-07T22:54:47.950673+05:30"},{"city":"Kolhapur","state":"Maharashtra","latitude":16.705,"longitude":74.2433,"temp":21.2,"humidity":56,"rain":0.0,"pressure":949.3,"uv_index":8.55,"wind_gusts":29.2,"aqi":148,"pm10":61.9,"pm2_5":60.1,"mosquito_risk":0,"arthritis_risk":5,"migraine_risk":7,"frizz_risk":0,"updated_at":"2026-03-07T22:54:47.950680+05:30"},{"city":"Goa","state":"Goa","latitude":15.2993,"longitude":74.124,"temp":27.4,"humidity":77,"rain":0.0,"pressure":999.7,"uv_index":8.6,"wind_gusts":31.7,"aqi":151,"pm10":52.6,"pm2_5":49.2,"mosquito_risk":7,"arthritis_risk":5,"migraine_risk":7,"frizz_risk":1,"updated_at":"2026-03-07T22:54:47.950687+05:30"},{"city":"Jodhpur","state":"Rajasthan","latitude":26.2389,"longitude":73.0243,"temp":28.3,"humidity":32,"rain":0.0,"pressure":986.7,"uv_index":7.0,"wind_gusts":20.2,"aqi":64,"pm10":116.6,"pm2_5":25.8,"mosquito_risk":4,"arthritis_risk":5,"migraine_risk":7,"frizz_risk":0,"updated_at":"2026-03-07T22:54:47.950694+05:30"},{"city":"Udaipur","state":"Rajasthan","latitude":24.5854,"longitude":73.7125,"temp":22.0,"humidity":48,"rain":0.0,"pressure":950.2,"uv_index":7.65,"wind_gusts":19.4,"aqi":70,"pm10":15.3,"pm2_5":14.0,"mosquito_risk":0,"arthritis_risk":5,"migraine_risk":7,"frizz_risk":0,"updated_at":"2026-03-07T22:54:47.950701+05:30"},{"city":"Kota","state":"Rajasthan","latitude":25.2138,"longitude":75.8648,"temp":26.3,"humidity":40,"rain":0.0,"pressure":982.4,"uv_index":7.05,"wind_gusts":14.8,"aqi":86,"pm10":45.6,"pm2_5":43.3,"mosquito_risk":4,"arthritis_risk":5,"migraine_risk":7,"frizz_risk":0,"updated_at":"2026-03-07T22:54:47.950709+05:30"},{"city":"Bikaner","state":"Rajasthan","latitude":28.0229,"longitude":73.3119,"temp":26.8,"humidity":41,"rain":0.0,"pressure":985.2,"uv_index":6.75,"wind_gusts":19.4,"aqi":67,"pm10":22.1,"pm2_5":15.7,"mosquito_risk":4,"arthritis_risk":5,"migraine_risk":7,"frizz_risk":0,"updated_at":"2026-03-07T22:54:47.950716+05:30"},{"city":"Ajmer","state":"Rajasthan","latitude":26.4499,"longitude":74.6399,"temp":25.0,"humidity":32,"rain":0.0,"pressure":958.3,"uv_index":7.0,"wind_gusts":16.9,"aqi":66,"pm10":33.3,"pm2_5":31.9,"mosquito_risk":4,"arthritis_risk":5,"migraine_risk":7,"frizz_risk":0,"updated_at":"2026-03-07T22:54:47.950723+05:30"},{"city":"Gwalior","state":"Madhya Pradesh","latitude":26.2183,"longitude":78.1828,"temp":24.0,"humidity":60,"rain":0.0,"pressure":987.5,"uv_index":6.65,"wind_gusts":20.5,"aqi":115,"pm10":134.1,"pm2_5":43.4,"mosquito_risk":0,"arthritis_risk":5,"migraine_risk":7,"frizz_risk":0,"updated_at":"2026-03-07T22:54:47.950730+05:30"},{"city":"Indore","state":"Madhya Pradesh","latitude":22.7196,"longitude":75.8577,"temp":21.5,"humidity":57,"rain":0.0,"pressure":950.7,"uv_index":7.6,"wind_gusts":18.0,"aqi":84,"pm10":37.3,"pm2_5":34.2,"mosquito_risk":0,"arthritis_risk":5,"migraine_risk":7,"frizz_risk":0,"updated_at":"2026-03-07T22:54:47.950737+05:30"},{"city":"Bhopal","state":"Madhya Pradesh","latitude":23.2599,"longitude":77.4126,"temp":23.7,"humidity":47,"rain":0.0,"pressure":956.7,"uv_index":7.5,"wind_gusts":20.9,"aqi":74,"pm10":42.5,"pm2_5":26.5,"mosquito_risk":0,"arthritis_risk":5,"migraine_risk":7,"frizz_risk":0,"updated_at":"2026-03-07T22:54:47.950744+05:30"},{"city":"Jabalpur","state":"Madhya Pradesh","latitude":23.1815,"longitude":79.9864,"temp":24.1,"humidity":49,"rain":0.0,"pressure":964.7,"uv_index":7.55,"wind_gusts":26.3,"aqi":89,"pm10":56.1,"pm2_5":32.7,"mosquito_risk":0,"arthritis_risk":5,"migraine_risk":7,"frizz_risk":0,"updated_at":"2026-03-07T22:54:47.950750+05:30"},{"city":"Ujjain","state":"Madhya Pradesh","latitude":23.1765,"longitude":75.7885,"temp":23.8,"humidity":51,"rain":0.0,"pressure":956.7,"uv_index":7.5,"wind_gusts":13.7,"aqi":91,"pm10":47.8,"pm2_5":46.1,"mosquito_risk":0,"arthritis_risk":5,"migraine_risk":7,"frizz_risk":0,"updated_at":"2026-03-07T22:54:47.950758+05:30"},{"city":"Visakhapatnam","state":"Andhra Pradesh","latitude":17.6868,"longitude":83.2185,"temp":26.4,"humidity":83,"rain":0.0,"pressure":1007.5,"uv_index":7.7,"wind_gusts":38.9,"aqi":132,"pm10":41.8,"pm2_5":35.0,"mosquito_risk":7,"arthritis_risk":5,"migraine_risk":4,"frizz_risk":1,"updated_at":"2026-03-07T22:54:47.950765+05:30"},{"city":"Vijayawada","state":"Andhra Pradesh","latitude":16.5062,"longitude":80.648,"temp":25.9,"humidity":86,"rain":0.0,"pressure":1005.7,"uv_index":8.6,"wind_gusts":29.2,"aqi":139,"pm10":34.1,"pm2_5":30.6,"mosquito_risk":7,"arthritis_risk":5,"migraine_risk":4,"frizz_risk":1,"updated_at":"2026-03-07T22:54:47.950772+05:30"},{"city":"Guntur","state":"Andhra Pradesh","latitude":16.3067,"longitude":80.4365,"temp":25.4,"humidity":86,"rain":0.0,"pressure":1006.9,"uv_index":8.6,"wind_gusts":32.4,"aqi":142,"pm10":36.6,"pm2_5":33.4,"mosquito_risk":7,"arthritis_risk":5,"migraine_risk":4,"frizz_risk":1,"updated_at":"2026-03-07T22:54:47.950779+05:30"},{"city":"Nellore","state":"Andhra Pradesh","latitude":14.4426,"longitude":79.9865,"temp":26.4,"humidity":85,"rain":0.0,"pressure":1009.2,"uv_index":8.75,"wind_gusts":33.8,"aqi":110,"pm10":25.0,"pm2_5":20.6,"mosquito_risk":7,"arthritis_risk":0,"migraine_risk":4,"frizz_risk":1,"updated_at":"2026-03-07T22:54:47.950787+05:30"},{"city":"Kurnool","state":"Andhra Pradesh","latitude":15.8281,"longitude":78.0373,"temp":28.5,"humidity":37,"rain":0.0,"pressure":978.4,"uv_index":8.6,"wind_gusts":24.1,"aqi":94,"pm10":21.4,"pm2_5":17.8,"mosquito_risk":4,"arthritis_risk":5,"migraine_risk":7,"frizz_risk":0,"updated_at":"2026-03-07T22:54:47.950795+05:30"},{"city":"Kakinada","state":"Andhra Pradesh","latitude":16.9891,"longitude":82.2475,"temp":25.7,"humidity":86,"rain":0.0,"pressure":1011.0,"uv_index":8.5,"wind_gusts":32.0,"aqi":101,"pm10":36.3,"pm2_5":28.2,"mosquito_risk":7,"arthritis_risk":0,"migraine_risk":4,"frizz_risk":1,"updated_at":"2026-03-07T22:54:47.950803+05:30"},{"city":"Tirupati","state":"Andhra Pradesh","latitude":13.6288,"longitude":79.4192,"temp":25.8,"humidity":79,"rain":0.0,"pressure":994.7,"uv_index":8.9,"wind_gusts":32.8,"aqi":148,"pm10":34.9,"pm2_5":32.7,"mosquito_risk":7,"arthritis_risk":5,"migraine_risk":7,"frizz_risk":1,"updated_at":"2026-03-07T22:54:47.950810+05:30"},{"city":"Warangal","state":"Telangana","latitude":17.9689,"longitude":79.5941,"temp":26.9,"humidity":45,"rain":0.0,"pressure":980.5,"uv_index":8.3,"wind_gusts":22.0,"aqi":105,"pm10":46.7,"pm2_5":41.2,"mosquito_risk":4,"arthritis_risk":5,"migraine_risk":7,"frizz_risk":0,"updated_at":"2026-03-07T22:54:47.950817+05:30"},{"city":"Nizamabad","state":"Telangana","latitude":18.6725,"longitude":78.0941,"temp":24.1,"humidity":54,"rain":0.0,"pressure":966.5,"uv_index":8.2,"wind_gusts":22.3,"aqi":107,"pm10":55.9,"pm2_5":46.2,"mosquito_risk":0,"arthritis_risk":5,"migraine_risk":7,"frizz_risk":0,"updated_at":"2026-03-07T22:54:47.950824+05:30"},{"city":"Mysore","state":"Karnataka","latitude":12.2958,"longitude":76.6396,"temp":23.6,"humidity":90,"rain":0.0,"pressure":929.9,"uv_index":9.2,"wind_gusts":32.0,"aqi":116,"pm10":63.8,"pm2_5":60.5,"mosquito_risk":3,"arthritis_risk":5,"migraine_risk":7,"frizz_risk":1,"updated_at":"2026-03-07T22:54:47.950831+05:30"},{"city":"Mangalore","state":"Karnataka","latitude":12.9141,"longitude":74.856,"temp":28.8,"humidity":79,"rain":0.0,"pressure":1008.5,"uv_index":8.8,"wind_gusts":26.6,"aqi":151,"pm10":50.1,"pm2_5":45.4,"mosquito_risk":7,"arthritis_risk":0,"migraine_risk":4,"frizz_risk":1,"updated_at":"2026-03-07T22:54:47.950838+05:30"},{"city":"Hubli-Dharwad","state":"Karnataka","latitude":15.3647,"longitude":75.124,"temp":23.7,"humidity":83,"rain":0.0,"pressure":942.5,"uv_index":8.75,"wind_gusts":26.3,"aqi":143,"pm10":30.7,"pm2_5":27.6,"mosquito_risk":3,"arthritis_risk":5,"migraine_risk":7,"frizz_risk":1,"updated_at":"2026-03-07T22:54:47.950845+05:30"},{"city":"Belgaum","state":"Karnataka","latitude":15.8497,"longitude":74.4977,"temp":22.2,"humidity":85,"rain":0.0,"pressure":927.1,"uv_index":8.8,"wind_gusts":41.0,"aqi":130,"pm10":53.8,"pm2_5":52.3,"mosquito_risk":3,"arthritis_risk":5,"migraine_risk":7,"frizz_risk":1,"updated_at":"2026-03-07T22:54:51.228556+05:30"},{"city":"Coimbatore","state":"Tamil Nadu","latitude":11.0168,"longitude":76.9558,"temp":24.4,"humidity":83,"rain":0.0,"pressure":963.6,"uv_index":9.2,"wind_gusts":33.8,"aqi":104,"pm10":40.7,"pm2_5":39.9,"mosquito_risk":3,"arthritis_risk":5,"migraine_risk":7,"frizz_risk":1,"updated_at":"2026-03-07T22:54:51.228583+05:30"},{"city":"Madurai","state":"Tamil Nadu","latitude":9.9252,"longitude":78.1198,"temp":26.2,"humidity":87,"rain":0.0,"pressure":995.9,"uv_index":9.15,"wind_gusts":28.1,"aqi":118,"pm10":35.7,"pm2_5":33.3,"mosquito_risk":7,"arthritis_risk":5,"migraine_risk":7,"frizz_risk":1,"updated_at":"2026-03-07T22:54:51.228592+05:30"},{"city":"Trichy","state":"Tamil Nadu","latitude":10.7905,"longitude":78.7047,"temp":26.3,"humidity":84,"rain":0.0,"pressure":1002.1,"uv_index":9.05,"wind_gusts":27.0,"aqi":92,"pm10":34.6,"pm2_5":32.4,"mosquito_risk":7,"arthritis_risk":5,"migraine_risk":4,"frizz_risk":1,"updated_at":"2026-03-07T22:54:51.228600+05:30"},{"city":"Salem","state":"Tamil Nadu","latitude":11.6643,"longitude":78.146,"temp":27.2,"humidity":70,"rain":0.0,"pressure":979.0,"uv_index":9.05,"wind_gusts":21.6,"aqi":137,"pm10":38.9,"pm2_5":34.8,"mosquito_risk":7,"arthritis_risk":5,"migraine_risk":7,"frizz_risk":1,"updated_at":"2026-03-07T22:54:51.228607+05:30"},{"city":"Tirunelveli","state":"Tamil Nadu","latitude":8.7139,"longitude":77.7567,"temp":27.0,"humidity":71,"rain":0.0,"pressure":1005.6,"uv_index":9.15,"wind_gusts":50.0,"aqi":99,"pm10":41.3,"pm2_5":39.3,"mosquito_risk":7,"arthritis_risk":5,"migraine_risk":4,"frizz_risk":1,"updated_at":"2026-03-07T22:54:51.228613+05:30"},{"city":"Vellore","state":"Tamil Nadu","latitude":12.9165,"longitude":79.1325,"temp":25.9,"humidity":72,"rain":0.0,"pressure":987.4,"uv_index":8.95,"wind_gusts":35.3,"aqi":149,"pm10":43.5,"pm2_5":40.9,"mosquito_risk":7,"arthritis_risk":5,"migraine_risk":7,"frizz_risk":1,"updated_at":"2026-03-07T22:54:51.228619+05:30"},{"city":"Erode","state":"Tamil Nadu","latitude":11.341,"longitude":77.7172,"temp":28.6,"humidity":60,"rain":0.0,"pressure":990.7,"uv_index":9.05,"wind_gusts":21.2,"aqi":134,"pm10":34.3,"pm2_5":31.7,"mosquito_risk":4,"arthritis_risk":5,"migraine_risk":7,"frizz_risk":1,"updated_at":"2026-03-07T22:54:51.228625+05:30"},{"city":"Kochi","state":"Kerala","latitude":9.9312,"longitude":76.2673,"temp":27.9,"humidity":84,"rain":0.0,"pressure":1010.8,"uv_index":9.0,"wind_gusts":30.6,"aqi":125,"pm10":41.0,"pm2_5":40.5,"mosquito_risk":7,"arthritis_risk":0,"migraine_risk":4,"frizz_risk":1,"updated_at":"2026-03-07T22:54:51.228631+05:30"},{"city":"Thiruvananthapuram","state":"Kerala","latitude":8.5241,"longitude":76.9366,"temp":28.3,"humidity":80,"rain":0.0,"pressure":1010.1,"uv_index":8.95,"wind_gusts":33.8,"aqi":100,"pm10":31.8,"pm2_5":29.4,"mosquito_risk":7,"arthritis_risk":0,"migraine_risk":4,"frizz_risk":1,"updated_at":"2026-03-07T22:54:51.228637+05:30"},{"city":"Kozhikode","state":"Kerala","latitude":11.2588,"longitude":75.7804,"temp":28.8,"humidity":79,"rain":0.0,"pressure":1009.6,"uv_index":8.9,"wind_gusts":27.4,"aqi":131,"pm10":43.1,"pm2_5":39.3,"mosquito_risk":7,"arthritis_risk":0,"migraine_risk":4,"frizz_risk":1,"updated_at":"2026-03-07T22:54:51.228643+05:30"},{"city":"Thrissur","state":"Kerala","latitude":10.5276,"longitude":76.2144,"temp":26.7,"humidity":91,"rain":0.0,"pressure":1008.7,"uv_index":8.85,"wind_gusts":31.3,"aqi":122,"pm10":42.8,"pm2_5":41.9,"mosquito_risk":7,"arthritis_risk":0,"migraine_risk":4,"frizz_risk":1,"updated_at":"2026-03-07T22:54:51.228650+05:30"},{"city":"Kannur","state":"Kerala","latitude":11.8745,"longitude":75.3704,"temp":28.3,"humidity":80,"rain":0.0,"pressure":1009.0,"uv_index":8.9,"wind_gusts":32.0,"aqi":146,"pm10":51.9,"pm2_5":47.8,"mosquito_risk":7,"arthritis_risk":0,"migraine_risk":4,"frizz_risk":1,"updated_at":"2026-03-07T22:54:51.228656+05:30"},{"city":"Patna","state":"Bihar","latitude":25.5941,"longitude":85.1376,"temp":25.3,"humidity":73,"rain":0.0,"pressure":1005.0,"uv_index":7.3,"wind_gusts":20.2,"aqi":161,"pm10":104.8,"pm2_5":96.4,"mosquito_risk":7,"arthritis_risk":5,"migraine_risk":4,"frizz_risk":1,"updated_at":"2026-03-07T22:54:51.228662+05:30"},{"city":"Gaya","state":"Bihar","latitude":24.7914,"longitude":85.0002,"temp":24.0,"humidity":80,"rain":0.0,"pressure":998.4,"uv_index":7.4,"wind_gusts":25.2,"aqi":154,"pm10":78.9,"pm2_5":72.2,"mosquito_risk":3,"arthritis_risk":5,"migraine_risk":7,"frizz_risk":1,"updated_at":"2026-03-07T22:54:51.228668+05:30"},{"city":"Muzaffarpur","state":"Bihar","latitude":26.1209,"longitude":85.3647,"temp":24.3,"humidity":75,"rain":0.0,"pressure":1005.0,"uv_index":7.25,"wind_gusts":17.6,"aqi":169,"pm10":113.2,"pm2_5":104.5,"mosquito_risk":3,"arthritis_risk":5,"migraine_risk":4,"frizz_risk":1,"updated_at":"2026-03-07T22:54:51.228674+05:30"},{"city":"Bhagalpur","state":"Bihar","latitude":25.2425,"longitude":87.0117,"temp":24.0,"humidity":76,"rain":0.0,"pressure":1006.1,"uv_index":7.3,"wind_gusts":14.8,"aqi":163,"pm10":82.9,"pm2_5":74.3,"mosquito_risk":3,"arthritis_risk":5,"migraine_risk":4,"frizz_risk":1,"updated_at":"2026-03-07T22:54:51.228680+05:30"},{"city":"Ranchi","state":"Jharkhand","latitude":23.3441,"longitude":85.3096,"temp":23.2,"humidity":55,"rain":0.0,"pressure":941.3,"uv_index":8.0,"wind_gusts":28.8,"aqi":153,"pm10":82.9,"pm2_5":65.2,"mosquito_risk":0,"arthritis_risk":5,"migraine_risk":7,"frizz_risk":0,"updated_at":"2026-03-07T22:54:51.228686+05:30"},{"city":"Jamshedpur","state":"Jharkhand","latitude":22.8046,"longitude":86.2029,"temp":25.2,"humidity":85,"rain":0.0,"pressure":995.3,"uv_index":7.9,"wind_gusts":23.8,"aqi":150,"pm10":65.0,"pm2_5":59.1,"mosquito_risk":7,"arthritis_risk":5,"migraine_risk":7,"frizz_risk":1,"updated_at":"2026-03-07T22:54:51.228693+05:30"},{"city":"Dhanbad","state":"Jharkhand","latitude":23.7957,"longitude":86.4304,"temp":27.1,"humidity":57,"rain":0.0,"pressure":984.4,"uv_index":7.8,"wind_gusts":26.3,"aqi":164,"pm10":79.4,"pm2_5":70.5,"mosquito_risk":4,"arthritis_risk":5,"migraine_risk":7,"frizz_risk":1,"updated_at":"2026-03-07T22:54:51.228699+05:30"},{"city":"Bokaro","state":"Jharkhand","latitude":23.6693,"longitude":86.1511,"temp":25.6,"humidity":62,"rain":0.0,"pressure":988.4,"uv_index":7.8,"wind_gusts":25.9,"aqi":168,"pm10":103.1,"pm2_5":85.7,"mosquito_risk":7,"arthritis_risk":5,"migraine_risk":7,"frizz_risk":1,"updated_at":"2026-03-07T22:54:51.228705+05:30"},{"city":"Bhubaneswar","state":"Odisha","latitude":20.2961,"longitude":85.8245,"temp":26.3,"humidity":83,"rain":0.0,"pressure":1007.3,"uv_index":8.2,"wind_gusts":32.4,"aqi":142,"pm10":45.5,"pm2_5":41.1,"mosquito_risk":7,"arthritis_risk":5,"migraine_risk":4,"frizz_risk":1,"updated_at":"2026-03-07T22:54:51.228711+05:30"},{"city":"Cuttack","state":"Odisha","latitude":20.4625,"longitude":85.8828,"temp":26.5,"humidity":83,"rain":0.0,"pressure":1009.2,"uv_index":8.25,"wind_gusts":29.9,"aqi":142,"pm10":45.5,"pm2_5":41.1,"mosquito_risk":7,"arthritis_risk":0,"migraine_risk":4,"frizz_risk":1,"updated_at":"2026-03-07T22:54:51.228717+05:30"},{"city":"Rourkela","state":"Odisha","latitude":22.2604,"longitude":84.8536,"temp":26.6,"humidity":64,"rain":0.0,"pressure":988.3,"uv_index":7.8,"wind_gusts":20.2,"aqi":160,"pm10":98.0,"pm2_5":80.8,"mosquito_risk":7,"arthritis_risk":5,"migraine_risk":7,"frizz_risk":1,"updated_at":"2026-03-07T22:54:51.228723+05:30"},{"city":"Raipur","state":"Chhattisgarh","latitude":21.2514,"longitude":81.6296,"temp":27.9,"humidity":44,"rain":0.0,"pressure":977.1,"uv_index":7.95,"wind_gusts":22.3,"aqi":153,"pm10":104.1,"pm2_5":68.7,"mosquito_risk":4,"arthritis_risk":5,"migraine_risk":7,"frizz_risk":0,"updated_at":"2026-03-07T22:54:51.228728+05:30"},{"city":"Bhilai","state":"Chhattisgarh","latitude":21.1938,"longitude":81.3509,"temp":26.2,"humidity":52,"rain":0.0,"pressure":977.4,"uv_index":7.95,"wind_gusts":18.4,"aqi":136,"pm10":108.7,"pm2_5":74.0,"mosquito_risk":4,"arthritis_risk":5,"migraine_risk":7,"frizz_risk":0,"updated_at":"2026-03-07T22:54:51.228734+05:30"},{"city":"Guwahati","state":"Assam","latitude":26.1158,"longitude":91.7086,"temp":24.7,"humidity":74,"rain":0.0,"pressure":1005.9,"uv_index":7.25,"wind_gusts":20.2,"aqi":150,"pm10":74.5,"pm2_5":68.9,"mosquito_risk":3,"arthritis_risk":5,"migraine_risk":4,"frizz_risk":1,"updated_at":"2026-03-07T22:54:51.228740+05:30"},{"city":"Agartala","state":"Tripura","latitude":23.8315,"longitude":91.2868,"temp":23.1,"humidity":68,"rain":0.0,"pressure":1011.0,"uv_index":7.6,"wind_gusts":19.1,"aqi":152,"pm10":92.4,"pm2_5":83.4,"mosquito_risk":3,"arthritis_risk":0,"migraine_risk":4,"frizz_risk":1,"updated_at":"2026-03-07T22:54:51.228745+05:30"},{"city":"Shillong","state":"Meghalaya","latitude":25.5788,"longitude":91.8933,"temp":10.5,"humidity":73,"rain":0.0,"pressure":857.8,"uv_index":7.6,"wind_gusts":42.1,"aqi":100,"pm10":50.3,"pm2_5":46.1,"mosquito_risk":3,"arthritis_risk":5,"migraine_risk":7,"frizz_risk":0,"updated_at":"2026-03-07T22:54:51.228751+05:30"},{"city":"Imphal","state":"Manipur","latitude":24.817,"longitude":93.9368,"temp":18.2,"humidity":76,"rain":0.0,"pressure":927.3,"uv_index":7.85,"wind_gusts":40.3,"aqi":159,"pm10":97.6,"pm2_5":91.5,"mosquito_risk":3,"arthritis_risk":5,"migraine_risk":7,"frizz_risk":0,"updated_at":"2026-03-07T22:54:51.228757+05:30"},{"city":"Aizawl","state":"Mizoram","latitude":23.7271,"longitude":92.7176,"temp":19.0,"humidity":71,"rain":0.0,"pressure":896.9,"uv_index":7.8,"wind_gusts":31.0,"aqi":180,"pm10":136.0,"pm2_5":128.5,"mosquito_risk":3,"arthritis_risk":5,"migraine_risk":7,"frizz_risk":0,"updated_at":"2026-03-07T22:54:51.228763+05:30"},{"city":"Kohima","state":"Nagaland","latitude":25.6701,"longitude":94.1077,"temp":15.6,"humidity":82,"rain":0.0,"pressure":858.6,"uv_index":7.7,"wind_gusts":51.1,"aqi":156,"pm10":91.7,"pm2_5":86.6,"mosquito_risk":3,"arthritis_risk":10,"migraine_risk":7,"frizz_risk":0,"updated_at":"2026-03-07T22:54:51.228769+05:30"},{"city":"Gangtok","state":"Sikkim","latitude":27.3314,"longitude":88.6138,"temp":14.0,"humidity":80,"rain":0.0,"pressure":840.8,"uv_index":7.25,"wind_gusts":17.6,"aqi":154,"pm10":67.5,"pm2_5":59.6,"mosquito_risk":3,"arthritis_risk":5,"migraine_risk":7,"frizz_risk":0,"updated_at":"2026-03-07T22:54:51.228775+05:30"},{"city":"Siliguri","state":"West Bengal","latitude":26.7271,"longitude":88.3953,"temp":22.3,"humidity":58,"rain":0.0,"pressure":999.2,"uv_index":7.25,"wind_gusts":17.3,"aqi":152,"pm10":75.2,"pm2_5":64.3,"mosquito_risk":0,"arthritis_risk":5,"migraine_risk":7,"frizz_risk":0,"updated_at":"2026-03-07T22:54:54.501971+05:30"},{"city":"Durgapur","state":"West Bengal","latitude":23.5204,"longitude":87.3119,"temp":25.7,"humidity":72,"rain":0.0,"pressure":1000.1,"uv_index":7.75,"wind_gusts":22.7,"aqi":160,"pm10":76.1,"pm2_5":66.8,"mosquito_risk":7,"arthritis_risk":5,"migraine_risk":4,"frizz_risk":1,"updated_at":"2026-03-07T22:54:54.502002+05:30"},{"city":"Asansol","state":"West Bengal","latitude":23.6739,"longitude":86.9524,"temp":26.3,"humidity":65,"rain":0.0,"pressure":998.6,"uv_index":7.75,"wind_gusts":19.1,"aqi":159,"pm10":71.9,"pm2_5":63.1,"mosquito_risk":7,"arthritis_risk":5,"migraine_risk":7,"frizz_risk":1,"updated_at":"2026-03-07T22:54:54.502013+05:30"},{"city":"Pondicherry","state":"Puducherry","latitude":11.9139,"longitude":79.8145,"temp":25.3,"humidity":94,"rain":0.0,"pressure":1011.1,"uv_index":8.9,"wind_gusts":33.1,"aqi":80,"pm10":26.7,"pm2_5":18.5,"mosquito_risk":7,"arthritis_risk":0,"migraine_risk":4,"frizz_risk":1,"updated_at":"2026-03-07T22:54:54.502022+05:30"},{"city":"Port Blair","state":"Andaman and Nicobar Islands","latitude":11.6234,"longitude":92.7265,"temp":27.6,"humidity":70,"rain":0.0,"pressure":1010.3,"uv_index":8.85,"wind_gusts":15.8,"aqi":95,"pm10":44.7,"pm2_5":29.1,"mosquito_risk":7,"arthritis_risk":0,"migraine_risk":4,"frizz_risk":1,"updated_at":"2026-03-07T22:54:54.502031+05:30"},{"city":"Haridwar","state":"Uttarakhand","latitude":29.9457,"longitude":78.1642,"temp":23.0,"humidity":85,"rain":0.0,"pressure":979.1,"uv_index":5.7,"wind_gusts":21.6,"aqi":161,"pm10":101.3,"pm2_5":87.3,"mosquito_risk":3,"arthritis_risk":5,"migraine_risk":3,"frizz_risk":1,"updated_at":"2026-03-07T22:54:54.502039+05:30"},{"city":"Rishikesh","state":"Uttarakhand","latitude":30.0869,"longitude":78.2676,"temp":22.2,"humidity":84,"rain":0.0,"pressure":972.1,"uv_index":5.75,"wind_gusts":23.8,"aqi":160,"pm10":103.8,"pm2_5":80.6,"mosquito_risk":3,"arthritis_risk":5,"migraine_risk":3,"frizz_risk":1,"updated_at":"2026-03-07T22:54:54.502047+05:30"},{"city":"Nainital","state":"Uttarakhand","latitude":29.3919,"longitude":79.4542,"temp":17.5,"humidity":75,"rain":0.0,"pressure":809.6,"uv_index":6.6,"wind_gusts":54.4,"aqi":160,"pm10":107.3,"pm2_5":86.8,"mosquito_risk":3,"arthritis_risk":5,"migraine_risk":7,"frizz_risk":0,"updated_at":"2026-03-07T22:54:54.502055+05:30"},{"city":"Mussoorie","state":"Uttarakhand","latitude":30.4599,"longitude":78.0664,"temp":16.3,"humidity":86,"rain":0.0,"pressure":806.6,"uv_index":6.1,"wind_gusts":41.8,"aqi":164,"pm10":120.6,"pm2_5":95.7,"mosquito_risk":3,"arthritis_risk":10,"migraine_risk":7,"frizz_risk":0,"updated_at":"2026-03-07T22:54:54.502064+05:30"},{"city":"Dharamshala","state":"Himachal Pradesh","latitude":32.219,"longitude":76.3234,"temp":22.0,"humidity":35,"rain":0.0,"pressure":874.2,"uv_index":6.2,"wind_gusts":21.6,"aqi":65,"pm10":34.0,"pm2_5":21.8,"mosquito_risk":0,"arthritis_risk":5,"migraine_risk":7,"frizz_risk":0,"updated_at":"2026-03-07T22:54:54.502072+05:30"},{"city":"Dalhousie","state":"Himachal Pradesh","latitude":32.5387,"longitude":75.971,"temp":18.3,"humidity":49,"rain":0.0,"pressure":808.1,"uv_index":6.6,"wind_gusts":17.3,"aqi":96,"pm10":64.7,"pm2_5":51.9,"mosquito_risk":0,"arthritis_risk":5,"migraine_risk":7,"frizz_risk":0,"updated_at":"2026-03-07T22:54:54.502081+05:30"},{"city":"Patiala","state":"Punjab","latitude":30.3398,"longitude":76.3869,"temp":23.2,"humidity":72,"rain":0.0,"pressure":982.7,"uv_index":5.75,"wind_gusts":16.9,"aqi":169,"pm10":162.5,"pm2_5":115.9,"mosquito_risk":3,"arthritis_risk":5,"migraine_risk":3,"frizz_risk":1,"updated_at":"2026-03-07T22:54:54.502089+05:30"},{"city":"Bhatinda","state":"Punjab","latitude":30.211,"longitude":74.9455,"temp":23.9,"humidity":61,"rain":0.0,"pressure":987.9,"uv_index":6.45,"wind_gusts":20.5,"aqi":144,"pm10":185.8,"pm2_5":84.5,"mosquito_risk":3,"arthritis_risk":5,"migraine_risk":7,"frizz_risk":0,"updated_at":"2026-03-07T22:54:54.502096+05:30"},{"city":"Rohtak","state":"Haryana","latitude":28.8955,"longitude":76.6066,"temp":23.5,"humidity":59,"rain":0.0,"pressure":986.2,"uv_index":5.95,"wind_gusts":13.3,"aqi":169,"pm10":224.0,"pm2_5":117.6,"mosquito_risk":0,"arthritis_risk":5,"migraine_risk":3,"frizz_risk":0,"updated_at":"2026-03-07T22:54:54.502104+05:30"},{"city":"Panipat","state":"Haryana","latitude":29.3909,"longitude":76.9635,"temp":23.4,"humidity":66,"rain":0.0,"pressure":984.9,"uv_index":5.75,"wind_gusts":18.7,"aqi":173,"pm10":280.3,"pm2_5":139.2,"mosquito_risk":3,"arthritis_risk":5,"migraine_risk":3,"frizz_risk":1,"updated_at":"2026-03-07T22:54:54.502112+05:30"},{"city":"Mathura","state":"Uttar Pradesh","latitude":27.4924,"longitude":77.6737,"temp":20.5,"humidity":71,"rain":0.0,"pressure":990.9,"uv_index":6.2,"wind_gusts":17.3,"aqi":168,"pm10":163.9,"pm2_5":80.1,"mosquito_risk":3,"arthritis_risk":5,"migraine_risk":7,"frizz_risk":0,"updated_at":"2026-03-07T22:54:54.502120+05:30"},{"city":"Vrindavan","state":"Uttar Pradesh","latitude":27.5823,"longitude":77.7027,"temp":21.3,"humidity":72,"rain":0.0,"pressure":991.5,"uv_index":6.2,"wind_gusts":18.0,"aqi":168,"pm10":163.9,"pm2_5":80.1,"mosquito_risk":3,"arthritis_risk":5,"migraine_risk":7,"frizz_risk":0,"updated_at":"2026-03-07T22:54:54.502128+05:30"},{"city":"Ayodhya","state":"Uttar Pradesh","latitude":26.7922,"longitude":82.1998,"temp":24.2,"humidity":74,"rain":0.0,"pressure":1000.2,"uv_index":6.65,"wind_gusts":18.4,"aqi":173,"pm10":126.2,"pm2_5":113.4,"mosquito_risk":3,"arthritis_risk":5,"migraine_risk":4,"frizz_risk":1,"updated_at":"2026-03-07T22:54:54.502135+05:30"},{"city":"Ratlam","state":"Madhya Pradesh","latitude":23.3315,"longitude":75.0367,"temp":24.0,"humidity":57,"rain":0.0,"pressure":957.4,"uv_index":7.45,"wind_gusts":13.7,"aqi":75,"pm10":41.9,"pm2_5":40.9,"mosquito_risk":0,"arthritis_risk":5,"migraine_risk":7,"frizz_risk":0,"updated_at":"2026-03-07T22:54:54.502143+05:30"},{"city":"Sagar","state":"Madhya Pradesh","latitude":23.8388,"longitude":78.7378,"temp":24.1,"humidity":51,"rain":0.0,"pressure":953.5,"uv_index":7.4,"wind_gusts":22.7,"aqi":96,"pm10":58.2,"pm2_5":25.1,"mosquito_risk":0,"arthritis_risk":5,"migraine_risk":7,"frizz_risk":0,"updated_at":"2026-03-07T22:54:54.502150+05:30"},{"city":"Satna","state":"Madhya Pradesh","latitude":24.6005,"longitude":80.8322,"temp":24.0,"humidity":63,"rain":0.0,"pressure":975.8,"uv_index":7.4,"wind_gusts":21.2,"aqi":154,"pm10":84.1,"pm2_5":69.4,"mosquito_risk":3,"arthritis_risk":5,"migraine_risk":7,"frizz_risk":1,"updated_at":"2026-03-07T22:54:54.502157+05:30"},{"city":"Akola","state":"Maharashtra","latitude":20.7002,"longitude":77.0082,"temp":27.0,"humidity":42,"rain":0.0,"pressure":977.1,"uv_index":7.9,"wind_gusts":18.0,"aqi":104,"pm10":41.6,"pm2_5":37.0,"mosquito_risk":4,"arthritis_risk":5,"migraine_risk":7,"frizz_risk":0,"updated_at":"2026-03-07T22:54:54.502166+05:30"},{"city":"Amravati","state":"Maharashtra","latitude":20.9374,"longitude":77.7796,"temp":25.3,"humidity":53,"rain":0.0,"pressure":969.3,"uv_index":7.85,"wind_gusts":13.3,"aqi":101,"pm10":47.3,"pm2_5":39.9,"mosquito_risk":4,"arthritis_risk":5,"migraine_risk":7,"frizz_risk":0,"updated_at":"2026-03-07T22:54:54.502174+05:30"},{"city":"Latur","state":"Maharashtra","latitude":18.4088,"longitude":76.5604,"temp":26.4,"humidity":39,"rain":0.0,"pressure":941.6,"uv_index":8.3,"wind_gusts":28.4,"aqi":113,"pm10":41.7,"pm2_5":35.0,"mosquito_risk":4,"arthritis_risk":5,"migraine_risk":7,"frizz_risk":0,"updated_at":"2026-03-07T22:54:54.502182+05:30"},{"city":"Nanded","state":"Maharashtra","latitude":19.1383,"longitude":77.3091,"temp":26.5,"humidity":49,"rain":0.0,"pressure":970.2,"uv_index":8.1,"wind_gusts":19.8,"aqi":94,"pm10":49.2,"pm2_5":39.5,"mosquito_risk":4,"arthritis_risk":5,"migraine_risk":7,"frizz_risk":0,"updated_at":"2026-03-07T22:54:54.502190+05:30"},{"city":"Gulbarga","state":"Karnataka","latitude":17.3297,"longitude":76.8343,"temp":28.2,"humidity":39,"rain":0.0,"pressure":960.3,"uv_index":8.45,"wind_gusts":21.2,"aqi":110,"pm10":25.3,"pm2_5":22.1,"mosquito_risk":4,"arthritis_risk":5,"migraine_risk":7,"frizz_risk":0,"updated_at":"2026-03-07T22:54:54.502198+05:30"},{"city":"Bidar","state":"Karnataka","latitude":17.9104,"longitude":77.5199,"temp":25.7,"humidity":43,"rain":0.0,"pressure":937.1,"uv_index":8.4,"wind_gusts":20.9,"aqi":103,"pm10":39.8,"pm2_5":31.1,"mosquito_risk":4,"arthritis_risk":5,"migraine_risk":7,"frizz_risk":0,"updated_at":"2026-03-07T22:54:54.502246+05:30"},{"city":"Hospet","state":"Karnataka","latitude":15.2689,"longitude":76.3909,"temp":27.5,"humidity":45,"rain":0.0,"pressure":957.2,"uv_index":8.7,"wind_gusts":19.4,"aqi":151,"pm10":41.1,"pm2_5":32.8,"mosquito_risk":4,"arthritis_risk":5,"migraine_risk":7,"frizz_risk":0,"updated_at":"2026-03-07T22:54:54.502258+05:30"},{"city":"Tirupur","state":"Tamil Nadu","latitude":11.1085,"longitude":77.3411,"temp":27.3,"humidity":74,"rain":0.0,"pressure":977.3,"uv_index":9.2,"wind_gusts":27.7,"aqi":126,"pm10":45.5,"pm2_5":43.4,"mosquito_risk":7,"arthritis_risk":5,"migraine_risk":7,"frizz_risk":1,"updated_at":"2026-03-07T22:54:54.502266+05:30"},{"city":"Alappuzha","state":"Kerala","latitude":9.4981,"longitude":76.3388,"temp":27.8,"humidity":82,"rain":0.0,"pressure":1011.0,"uv_index":8.15,"wind_gusts":28.1,"aqi":120,"pm10":44.9,"pm2_5":43.4,"mosquito_risk":7,"arthritis_risk":0,"migraine_risk":4,"frizz_risk":1,"updated_at":"2026-03-07T22:54:54.502274+05:30"},{"city":"Munnar","state":"Kerala","latitude":10.0889,"longitude":77.0595,"temp":21.0,"humidity":78,"rain":0.0,"pressure":858.4,"uv_index":9.5,"wind_gusts":37.4,"aqi":91,"pm10":44.4,"pm2_5":41.7,"mosquito_risk":3,"arthritis_risk":5,"migraine_risk":7,"frizz_risk":1,"updated_at":"2026-03-07T22:54:54.502282+05:30"},{"city":"Silchar","state":"Assam","latitude":24.8333,"longitude":92.7789,"temp":25.7,"humidity":68,"rain":0.0,"pressure":1009.3,"uv_index":7.55,"wind_gusts":21.2,"aqi":160,"pm10":108.5,"pm2_5":103.8,"mosquito_risk":7,"arthritis_risk":0,"migraine_risk":4,"frizz_risk":1,"updated_at":"2026-03-07T22:54:54.502290+05:30"},{"city":"Dibrugarh","state":"Assam","latitude":27.4728,"longitude":94.912,"temp":24.5,"humidity":77,"rain":0.0,"pressure":999.4,"uv_index":7.3,"wind_gusts":14.0,"aqi":153,"pm10":93.8,"pm2_5":85.7,"mosquito_risk":3,"arthritis_risk":5,"migraine_risk":7,"frizz_risk":1,"updated_at":"2026-03-07T22:54:54.502296+05:30"}]