[{"city":"Delhi","state":"Delhi","latitude":28.6139,"longitude":77.209,"temp":30.0,"humidity":73,"rain":0.0,"pressure":976.4,"uv_index":7.7,"wind_gusts":40.7,"aqi":152,"pm10":168.1,"pm2_5":82.0,"no2":34.7,"co":592.0,"o3":131.0,"so2":41.0,"mosquito_risk":7,"arthritis_risk":5,"migraine_risk":7,"frizz_risk":1,"updated_at":"2026-07-10T10:23:42.421877+05:30"},{"city":"Mumbai","state":"Maharashtra","latitude":19.076,"longitude":72.8777,"temp":29.2,"humidity":77,"rain":0.0,"pressure":1008.8,"uv_index":6.55,"wind_gusts":49.0,"aqi":59,"pm10":36.9,"pm2_5":17.1,"no2":6.7,"co":185.0,"o3":50.0,"so2":6.1,"mosquito_risk":7,"arthritis_risk":0,"migraine_risk":4,"frizz_risk":1,"updated_at":"2026-07-10T10:23:42.421922+05:30"},{"city":"Bangalore","state":"Karnataka","latitude":12.9716,"longitude":77.5946,"temp":26.5,"humidity":60,"rain":0.1,"pressure":914.6,"uv_index":6.2,"wind_gusts":42.5,"aqi":36,"pm10":9.7,"pm2_5":6.0,"no2":6.8,"co":296.0,"o3":45.0,"so2":4.0,"mosquito_risk":7,"arthritis_risk":5,"migraine_risk":7,"frizz_risk":1,"updated_at":"2026-07-10T10:23:42.421934+05:30"},{"city":"Hyderabad","state":"Telangana","latitude":17.385,"longitude":78.4867,"temp":29.6,"humidity":56,"rain":0.0,"pressure":954.2,"uv_index":8.85,"wind_gusts":46.1,"aqi":58,"pm10":25.4,"pm2_5":12.2,"no2":4.3,"co":241.0,"o3":48.0,"so2":4.4,"mosquito_risk":4,"arthritis_risk":5,"migraine_risk":7,"frizz_risk":1,"updated_at":"2026-07-10T10:23:42.421942+05:30"},{"city":"Chennai","state":"Tamil Nadu","latitude":13.0827,"longitude":80.2707,"temp":33.0,"humidity":59,"rain":0.0,"pressure":1008.2,"uv_index":4.95,"wind_gusts":29.2,"aqi":64,"pm10":26.4,"pm2_5":20.1,"no2":17.3,"co":392.0,"o3":66.0,"so2":17.6,"mosquito_risk":0,"arthritis_risk":0,"migraine_risk":0,"frizz_risk":1,"updated_at":"2026-07-10T10:23:42.421948+05:30"},{"city":"Kolkata","state":"West Bengal","latitude":22.5726,"longitude":88.3639,"temp":27.3,"humidity":92,"rain":0.2,"pressure":1001.2,"uv_index":7.2,"wind_gusts":32.8,"aqi":67,"pm10":25.7,"pm2_5":21.5,"no2":7.9,"co":484.0,"o3":89.0,"so2":10.7,"mosquito_risk":10,"arthritis_risk":5,"migraine_risk":4,"frizz_risk":1,"updated_at":"2026-07-10T10:23:42.421954+05:30"},{"city":"Pune","state":"Maharashtra","latitude":18.5204,"longitude":73.8567,"temp":26.9,"humidity":72,"rain":0.0,"pressure":948.3,"uv_index":7.45,"wind_gusts":49.0,"aqi":28,"pm10":13.8,"pm2_5":6.0,"no2":4.4,"co":150.0,"o3":45.0,"so2":4.8,"mosquito_risk":7,"arthritis_risk":5,"migraine_risk":7,"frizz_risk":1,"updated_at":"2026-07-10T10:23:42.421960+05:30"},{"city":"Ahmedabad","state":"Gujarat","latitude":23.0225,"longitude":72.5714,"temp":30.3,"humidity":67,"rain":0.0,"pressure":1000.1,"uv_index":8.15,"wind_gusts":44.3,"aqi":74,"pm10":38.2,"pm2_5":16.5,"no2":4.5,"co":140.0,"o3":48.0,"so2":4.8,"mosquito_risk":3,"arthritis_risk":5,"migraine_risk":4,"frizz_risk":1,"updated_at":"2026-07-10T10:23:42.421966+05:30"},{"city":"Jaipur","state":"Rajasthan","latitude":26.9124,"longitude":75.7873,"temp":31.5,"humidity":64,"rain":0.0,"pressure":954.8,"uv_index":8.2,"wind_gusts":41.8,"aqi":147,"pm10":713.4,"pm2_5":121.1,"no2":3.8,"co":165.0,"o3":73.0,"so2":4.9,"mosquito_risk":3,"arthritis_risk":5,"migraine_risk":7,"frizz_risk":1,"updated_at":"2026-07-10T10:23:42.421971+05:30"},{"city":"Lucknow","state":"Uttar Pradesh","latitude":26.8467,"longitude":80.9462,"temp":28.6,"humidity":87,"rain":0.3,"pressure":988.1,"uv_index":7.25,"wind_gusts":34.6,"aqi":74,"pm10":52.0,"pm2_5":27.3,"no2":11.8,"co":212.0,"o3":87.0,"so2":8.9,"mosquito_risk":10,"arthritis_risk":5,"migraine_risk":7,"frizz_risk":1,"updated_at":"2026-07-10T10:23:42.421980+05:30"},{"city":"Kanpur","state":"Uttar Pradesh","latitude":26.4499,"longitude":80.3319,"temp":31.7,"humidity":71,"rain":0.0,"pressure":986.1,"uv_index":8.15,"wind_gusts":45.7,"aqi":76,"pm10":84.5,"pm2_5":41.9,"no2":12.3,"co":177.0,"o3":77.0,"so2":9.6,"mosquito_risk":3,"arthritis_risk":5,"migraine_risk":7,"frizz_risk":1,"updated_at":"2026-07-10T10:23:42.421985+05:30"},{"city":"Chandigarh","state":"Chandigarh","latitude":30.7333,"longitude":76.7794,"temp":25.5,"humidity":94,"rain":0.8,"pressure":962.6,"uv_index":1.95,"wind_gusts":18.0,"aqi":154,"pm10":38.4,"pm2_5":38.0,"no2":7.8,"co":990.0,"o3":152.0,"so2":13.9,"mosquito_risk":10,"arthritis_risk":5,"migraine_risk":3,"frizz_risk":1,"updated_at":"2026-07-10T10:23:42.421990+05:30"},{"city":"Srinagar","state":"Jammu and Kashmir","latitude":34.0837,"longitude":74.7973,"temp":26.7,"humidity":50,"rain":0.0,"pressure":839.5,"uv_index":9.05,"wind_gusts":23.0,"aqi":84,"pm10":33.2,"pm2_5":29.7,"no2":4.7,"co":508.0,"o3":156.0,"so2":6.9,"mosquito_risk":4,"arthritis_risk":5,"migraine_risk":7,"frizz_risk":0,"updated_at":"2026-07-10T10:23:42.421995+05:30"},{"city":"Jammu","state":"Jammu and Kashmir","latitude":32.7266,"longitude":74.857,"temp":32.6,"humidity":57,"rain":0.0,"pressure":966.3,"uv_index":8.55,"wind_gusts":41.8,"aqi":157,"pm10":76.4,"pm2_5":58.4,"no2":7.1,"co":439.0,"o3":176.0,"so2":8.5,"mosquito_risk":0,"arthritis_risk":5,"migraine_risk":7,"frizz_risk":1,"updated_at":"2026-07-10T10:23:42.422000+05:30"},{"city":"Amritsar","state":"Punjab","latitude":31.634,"longitude":74.8723,"temp":30.7,"humidity":70,"rain":0.0,"pressure":974.3,"uv_index":8.4,"wind_gusts":25.2,"aqi":160,"pm10":104.8,"pm2_5":69.4,"no2":9.9,"co":540.0,"o3":126.0,"so2":11.1,"mosquito_risk":3,"arthritis_risk":5,"migraine_risk":7,"frizz_risk":1,"updated_at":"2026-07-10T10:23:42.422005+05:30"},{"city":"Ludhiana","state":"Punjab","latitude":30.901,"longitude":75.8573,"temp":29.6,"humidity":70,"rain":0.0,"pressure":972.6,"uv_index":7.9,"wind_gusts":25.6,"aqi":160,"pm10":114.6,"pm2_5":53.6,"no2":10.5,"co":452.0,"o3":119.0,"so2":12.5,"mosquito_risk":7,"arthritis_risk":5,"migraine_risk":7,"frizz_risk":1,"updated_at":"2026-07-10T10:23:42.422009+05:30"},{"city":"Jalandhar","state":"Punjab","latitude":31.326,"longitude":75.5762,"temp":30.4,"humidity":68,"rain":0.0,"pressure":973.5,"uv_index":8.15,"wind_gusts":24.1,"aqi":160,"pm10":122.0,"pm2_5":70.3,"no2":12.3,"co":447.0,"o3":127.0,"so2":12.3,"mosquito_risk":3,"arthritis_risk":5,"migraine_risk":7,"frizz_risk":1,"updated_at":"2026-07-10T10:23:42.422014+05:30"},{"city":"Dehradun","state":"Uttarakhand","latitude":30.6284,"longitude":78.0322,"temp":19.2,"humidity":96,"rain":0.3,"pressure":826.8,"uv_index":1.05,"wind_gusts":23.8,"aqi":65,"pm10":18.2,"pm2_5":18.1,"no2":7.6,"co":199.0,"o3":89.0,"so2":1.2,"mosquito_risk":6,"arthritis_risk":10,"migraine_risk":3,"frizz_risk":1,"updated_at":"2026-07-10T10:23:42.422019+05:30"},{"city":"Shimla","state":"Himachal Pradesh","latitude":31.1048,"longitude":77.1734,"temp":16.1,"humidity":97,"rain":0.3,"pressure":781.2,"uv_index":1.9,"wind_gusts":15.1,"aqi":58,"pm10":20.8,"pm2_5":19.0,"no2":2.1,"co":320.0,"o3":123.0,"so2":1.5,"mosquito_risk":6,"arthritis_risk":10,"migraine_risk":3,"frizz_risk":0,"updated_at":"2026-07-10T10:23:42.422024+05:30"},{"city":"Manali","state":"Himachal Pradesh","latitude":32.2396,"longitude":77.1887,"temp":22.3,"humidity":91,"rain":0.2,"pressure":816.5,"uv_index":8.05,"wind_gusts":31.0,"aqi":29,"pm10":5.7,"pm2_5":5.5,"no2":11.6,"co":245.0,"o3":86.0,"so2":1.1,"mosquito_risk":6,"arthritis_risk":5,"migraine_risk":7,"frizz_risk":1,"updated_at":"2026-07-10T10:23:42.422033+05:30"},{"city":"Gurgaon","state":"Haryana","latitude":28.4595,"longitude":77.0266,"temp":30.8,"humidity":69,"rain":0.0,"pressure":975.0,"uv_index":7.75,"wind_gusts":43.9,"aqi":157,"pm10":516.0,"pm2_5":119.0,"no2":30.9,"co":437.0,"o3":99.0,"so2":27.6,"mosquito_risk":3,"arthritis_risk":5,"migraine_risk":7,"frizz_risk":1,"updated_at":"2026-07-10T10:23:42.422037+05:30"},{"city":"Noida","state":"Uttar Pradesh","latitude":28.5355,"longitude":77.391,"temp":30.5,"humidity":70,"rain":0.1,"pressure":977.7,"uv_index":7.75,"wind_gusts":39.2,"aqi":157,"pm10":516.0,"pm2_5":119.0,"no2":30.9,"co":653.0,"o3":99.0,"so2":27.6,"mosquito_risk":6,"arthritis_risk":5,"migraine_risk":7,"frizz_risk":1,"updated_at":"2026-07-10T10:23:42.422042+05:30"},{"city":"Ghaziabad","state":"Uttar Pradesh","latitude":28.6692,"longitude":77.4538,"temp":29.9,"humidity":72,"rain":0.0,"pressure":975.8,"uv_index":7.7,"wind_gusts":43.2,"aqi":130,"pm10":109.2,"pm2_5":65.4,"no2":19.3,"co":318.0,"o3":131.0,"so2":30.4,"mosquito_risk":7,"arthritis_risk":5,"migraine_risk":7,"frizz_risk":1,"updated_at":"2026-07-10T10:23:42.422047+05:30"},{"city":"Faridabad","state":"Haryana","latitude":28.4089,"longitude":77.3178,"temp":30.4,"humidity":72,"rain":0.0,"pressure":977.0,"uv_index":7.75,"wind_gusts":49.0,"aqi":157,"pm10":516.0,"pm2_5":119.0,"no2":30.9,"co":540.0,"o3":99.0,"so2":27.6,"mosquito_risk":3,"arthritis_risk":5,"migraine_risk":7,"frizz_risk":1,"updated_at":"2026-07-10T10:23:42.422051+05:30"},{"city":"Meerut","state":"Uttar Pradesh","latitude":28.9845,"longitude":77.7064,"temp":25.9,"humidity":96,"rain":0.8,"pressure":974.5,"uv_index":7.55,"wind_gusts":34.2,"aqi":130,"pm10":109.2,"pm2_5":65.4,"no2":19.3,"co":337.0,"o3":131.0,"so2":30.4,"mosquito_risk":10,"arthritis_risk":5,"migraine_risk":7,"frizz_risk":1,"updated_at":"2026-07-10T10:23:42.422056+05:30"},{"city":"Agra","state":"Uttar Pradesh","latitude":27.1767,"longitude":78.0081,"temp":32.9,"humidity":65,"rain":0.0,"pressure":981.2,"uv_index":8.0,"wind_gusts":52.2,"aqi":150,"pm10":403.3,"pm2_5":77.3,"no2":9.3,"co":206.0,"o3":77.0,"so2":6.6,"mosquito_risk":3,"arthritis_risk":5,"migraine_risk":7,"frizz_risk":1,"updated_at":"2026-07-10T10:23:42.422061+05:30"},{"city":"Varanasi","state":"Uttar Pradesh","latitude":25.3176,"longitude":82.9739,"temp":31.5,"humidity":72,"rain":0.0,"pressure":992.8,"uv_index":8.3,"wind_gusts":41.0,"aqi":70,"pm10":54.5,"pm2_5":35.5,"no2":9.9,"co":242.0,"o3":74.0,"so2":10.5,"mosquito_risk":3,"arthritis_risk":5,"migraine_risk":7,"frizz_risk":1,"updated_at":"2026-07-10T10:23:42.422065+05:30"},{"city":"Prayagraj","state":"Uttar Pradesh","latitude":25.4358,"longitude":81.8463,"temp":30.6,"humidity":72,"rain":0.0,"pressure":991.4,"uv_index":8.6,"wind_gusts":39.2,"aqi":72,"pm10":58.9,"pm2_5":35.6,"no2":8.8,"co":210.0,"o3":75.0,"so2":9.0,"mosquito_risk":3,"arthritis_risk":5,"migraine_risk":7,"frizz_risk":1,"updated_at":"2026-07-10T10:23:42.422072+05:30"},{"city":"Gorakhpur","state":"Uttar Pradesh","latitude":26.7606,"longitude":83.3732,"temp":30.3,"humidity":78,"rain":0.0,"pressure":991.8,"uv_index":7.35,"wind_gusts":29.5,"aqi":91,"pm10":15.1,"pm2_5":14.7,"no2":4.8,"co":312.0,"o3":111.0,"so2":7.1,"mosquito_risk":3,"arthritis_risk":5,"migraine_risk":7,"frizz_risk":1,"updated_at":"2026-07-10T10:23:42.422077+05:30"},{"city":"Bareilly","state":"Uttar Pradesh","latitude":28.367,"longitude":79.4304,"temp":27.9,"humidity":92,"rain":0.1,"pressure":979.9,"uv_index":7.8,"wind_gusts":38.5,"aqi":75,"pm10":29.2,"pm2_5":25.7,"no2":11.4,"co":412.0,"o3":78.0,"so2":8.0,"mosquito_risk":10,"arthritis_risk":5,"migraine_risk":7,"frizz_risk":1,"updated_at":"2026-07-10T10:23:42.422083+05:30"},{"city":"Aligarh","state":"Uttar Pradesh","latitude":27.8974,"longitude":78.088,"temp":31.5,"humidity":69,"rain":0.0,"pressure":978.4,"uv_index":7.85,"wind_gusts":50.0,"aqi":133,"pm10":287.8,"pm2_5":84.5,"no2":16.5,"co":364.0,"o3":81.0,"so2":12.2,"mosquito_risk":3,"arthritis_risk":5,"migraine_risk":7,"frizz_risk":1,"updated_at":"2026-07-10T10:23:42.422088+05:30"},{"city":"Moradabad","state":"Uttar Pradesh","latitude":28.8386,"longitude":78.7733,"temp":26.6,"humidity":96,"rain":0.2,"pressure":975.7,"uv_index":6.65,"wind_gusts":41.8,"aqi":76,"pm10":31.8,"pm2_5":24.3,"no2":14.1,"co":353.0,"o3":83.0,"so2":13.8,"mosquito_risk":10,"arthritis_risk":5,"migraine_risk":7,"frizz_risk":1,"updated_at":"2026-07-10T10:23:42.422092+05:30"},{"city":"Saharanpur","state":"Uttar Pradesh","latitude":29.9637,"longitude":77.546,"temp":26.4,"humidity":89,"rain":0.1,"pressure":969.6,"uv_index":1.1,"wind_gusts":30.6,"aqi":96,"pm10":29.0,"pm2_5":27.6,"no2":10.7,"co":441.0,"o3":122.0,"so2":10.7,"mosquito_risk":10,"arthritis_risk":5,"migraine_risk":3,"frizz_risk":1,"updated_at":"2026-07-10T10:23:42.422097+05:30"},{"city":"Jhansi","state":"Uttar Pradesh","latitude":25.4484,"longitude":78.5685,"temp":32.5,"humidity":63,"rain":0.0,"pressure":973.3,"uv_index":8.4,"wind_gusts":46.8,"aqi":99,"pm10":59.5,"pm2_5":34.8,"no2":4.6,"co":164.0,"o3":82.0,"so2":9.6,"mosquito_risk":3,"arthritis_risk":5,"migraine_risk":7,"frizz_risk":1,"updated_at":"2026-07-10T10:23:45.788053+05:30"},{"city":"Surat","state":"Gujarat","latitude":21.1702,"longitude":72.8311,"temp":30.1,"humidity":74,"rain":0.0,"pressure":1005.8,"uv_index":7.2,"wind_gusts":56.5,"aqi":66,"pm10":43.2,"pm2_5":21.2,"no2":11.4,"co":307.0,"o3":35.0,"so2":31.8,"mosquito_risk":3,"arthritis_risk":5,"migraine_risk":4,"frizz_risk":1,"updated_at":"2026-07-10T10:23:45.788084+05:30"},{"city":"Vadodara","state":"Gujarat","latitude":22.3072,"longitude":73.1812,"temp":30.9,"humidity":68,"rain":0.0,"pressure":1002.8,"uv_index":8.1,"wind_gusts":46.8,"aqi":68,"pm10":36.0,"pm2_5":15.3,"no2":4.6,"co":151.0,"o3":44.0,"so2":4.1,"mosquito_risk":3,"arthritis_risk":5,"migraine_risk":4,"frizz_risk":1,"updated_at":"2026-07-10T10:23:45.788092+05:30"},{"city":"Rajkot","state":"Gujarat","latitude":22.3039,"longitude":70.8022,"temp":30.9,"humidity":64,"rain":0.0,"pressure":992.1,"uv_index":7.7,"wind_gusts":52.2,"aqi":64,"pm10":37.6,"pm2_5":15.6,"no2":2.3,"co":105.0,"o3":50.0,"so2":3.5,"mosquito_risk":3,"arthritis_risk":5,"migraine_risk":7,"frizz_risk":1,"updated_at":"2026-07-10T10:23:45.788099+05:30"},{"city":"Thane","state":"Maharashtra","latitude":19.2183,"longitude":72.9781,"temp":30.4,"humidity":72,"rain":0.0,"pressure":1008.0,"uv_index":7.2,"wind_gusts":43.2,"aqi":59,"pm10":36.9,"pm2_5":17.1,"no2":6.7,"co":184.0,"o3":50.0,"so2":6.1,"mosquito_risk":3,"arthritis_risk":0,"migraine_risk":4,"frizz_risk":1,"updated_at":"2026-07-10T10:23:45.788105+05:30"},{"city":"Nagpur","state":"Maharashtra","latitude":21.1458,"longitude":79.0882,"temp":30.1,"humidity":64,"rain":0.1,"pressure":971.9,"uv_index":6.85,"wind_gusts":38.9,"aqi":75,"pm10":47.4,"pm2_5":21.4,"no2":8.0,"co":152.0,"o3":49.0,"so2":16.6,"mosquito_risk":6,"arthritis_risk":5,"migraine_risk":7,"frizz_risk":1,"updated_at":"2026-07-10T10:23:45.788112+05:30"},{"city":"Nashik","state":"Maharashtra","latitude":19.9975,"longitude":73.7898,"temp":26.3,"humidity":76,"rain":0.0,"pressure":945.2,"uv_index":7.45,"wind_gusts":55.4,"aqi":33,"pm10":19.9,"pm2_5":8.8,"no2":3.9,"co":124.0,"o3":43.0,"so2":2.7,"mosquito_risk":7,"arthritis_risk":5,"migraine_risk":7,"frizz_risk":1,"updated_at":"2026-07-10T10:23:45.788117+05:30"},{"city":"Aurangabad","state":"Maharashtra","latitude":19.8762,"longitude":75.3433,"temp":27.2,"humidity":68,"rain":0.0,"pressure":944.0,"uv_index":8.85,"wind_gusts":52.6,"aqi":48,"pm10":18.4,"pm2_5":7.7,"no2":3.7,"co":117.0,"o3":48.0,"so2":7.0,"mosquito_risk":7,"arthritis_risk":5,"migraine_risk":7,"frizz_risk":1,"updated_at":"2026-07-10T10:23:45.788123+05:30"},{"city":"Solapur","state":"Maharashtra","latitude":17.6599,"longitude":75.9064,"temp":27.7,"humidity":69,"rain":0.0,"pressure":958.2,"uv_index":7.4,"wind_gusts":40.7,"aqi":47,"pm10":17.5,"pm2_5":7.2,"no2":2.7,"co":112.0,"o3":46.0,"so2":2.4,"mosquito_risk":7,"arthritis_risk":5,"migraine_risk":7,"frizz_risk":1,"updated_at":"2026-07-10T10:23:45.788129+05:30"},{"city":"Kolhapur","state":"Maharashtra","latitude":16.705,"longitude":74.2433,"temp":26.6,"humidity":74,"rain":0.0,"pressure":949.3,"uv_index":7.95,"wind_gusts":49.3,"aqi":35,"pm10":16.2,"pm2_5":7.1,"no2":4.2,"co":124.0,"o3":41.0,"so2":2.3,"mosquito_risk":7,"arthritis_risk":5,"migraine_risk":7,"frizz_risk":1,"updated_at":"2026-07-10T10:23:45.788134+05:30"},{"city":"Goa","state":"Goa","latitude":15.2993,"longitude":74.124,"temp":28.0,"humidity":85,"rain":0.1,"pressure":1000.4,"uv_index":8.4,"wind_gusts":34.6,"aqi":61,"pm10":27.5,"pm2_5":12.7,"no2":2.0,"co":148.0,"o3":44.0,"so2":1.4,"mosquito_risk":10,"arthritis_risk":5,"migraine_risk":4,"frizz_risk":1,"updated_at":"2026-07-10T10:23:45.788141+05:30"},{"city":"Jodhpur","state":"Rajasthan","latitude":26.2389,"longitude":73.0243,"temp":30.4,"humidity":62,"rain":0.0,"pressure":978.6,"uv_index":5.4,"wind_gusts":48.2,"aqi":179,"pm10":317.6,"pm2_5":72.6,"no2":2.0,"co":111.0,"o3":60.0,"so2":3.6,"mosquito_risk":3,"arthritis_risk":5,"migraine_risk":3,"frizz_risk":1,"updated_at":"2026-07-10T10:23:45.788146+05:30"},{"city":"Udaipur","state":"Rajasthan","latitude":24.5854,"longitude":73.7125,"temp":27.8,"humidity":66,"rain":0.0,"pressure":943.5,"uv_index":8.85,"wind_gusts":48.2,"aqi":82,"pm10":46.3,"pm2_5":19.2,"no2":2.4,"co":109.0,"o3":53.0,"so2":4.2,"mosquito_risk":7,"arthritis_risk":5,"migraine_risk":7,"frizz_risk":1,"updated_at":"2026-07-10T10:23:45.788152+05:30"},{"city":"Kota","state":"Rajasthan","latitude":25.2138,"longitude":75.8648,"temp":31.9,"humidity":60,"rain":0.0,"pressure":975.0,"uv_index":6.3,"wind_gusts":38.2,"aqi":102,"pm10":51.8,"pm2_5":27.9,"no2":4.6,"co":134.0,"o3":72.0,"so2":7.7,"mosquito_risk":0,"arthritis_risk":5,"migraine_risk":7,"frizz_risk":1,"updated_at":"2026-07-10T10:23:45.788158+05:30"},{"city":"Bikaner","state":"Rajasthan","latitude":28.0229,"longitude":73.3119,"temp":33.8,"humidity":52,"rain":0.0,"pressure":975.8,"uv_index":8.45,"wind_gusts":38.9,"aqi":153,"pm10":272.9,"pm2_5":94.8,"no2":1.1,"co":118.0,"o3":66.0,"so2":4.0,"mosquito_risk":0,"arthritis_risk":5,"migraine_risk":7,"frizz_risk":1,"updated_at":"2026-07-10T10:23:45.788163+05:30"},{"city":"Ajmer","state":"Rajasthan","latitude":26.4499,"longitude":74.6399,"temp":29.2,"humidity":69,"rain":0.0,"pressure":950.3,"uv_index":8.4,"wind_gusts":54.0,"aqi":102,"pm10":92.7,"pm2_5":35.2,"no2":2.3,"co":119.0,"o3":65.0,"so2":3.9,"mosquito_risk":7,"arthritis_risk":5,"migraine_risk":7,"frizz_risk":1,"updated_at":"2026-07-10T10:23:45.788169+05:30"},{"city":"Gwalior","state":"Madhya Pradesh","latitude":26.2183,"longitude":78.1828,"temp":32.3,"humidity":64,"rain":0.0,"pressure":977.7,"uv_index":8.2,"wind_gusts":44.6,"aqi":88,"pm10":66.8,"pm2_5":36.2,"no2":3.9,"co":166.0,"o3":80.0,"so2":4.4,"mosquito_risk":3,"arthritis_risk":5,"migraine_risk":7,"frizz_risk":1,"updated_at":"2026-07-10T10:23:45.788175+05:30"},{"city":"Indore","state":"Madhya Pradesh","latitude":22.7196,"longitude":75.8577,"temp":27.2,"humidity":74,"rain":0.0,"pressure":946.5,"uv_index":8.45,"wind_gusts":54.4,"aqi":80,"pm10":44.6,"pm2_5":18.3,"no2":5.2,"co":207.0,"o3":48.0,"so2":8.4,"mosquito_risk":7,"arthritis_risk":5,"migraine_risk":7,"frizz_risk":1,"updated_at":"2026-07-10T10:23:45.788180+05:30"},{"city":"Bhopal","state":"Madhya Pradesh","latitude":23.2599,"longitude":77.4126,"temp":28.6,"humidity":74,"rain":0.0,"pressure":951.4,"uv_index":8.25,"wind_gusts":45.0,"aqi":83,"pm10":33.2,"pm2_5":17.9,"no2":4.0,"co":184.0,"o3":53.0,"so2":7.9,"mosquito_risk":7,"arthritis_risk":5,"migraine_risk":7,"frizz_risk":1,"updated_at":"2026-07-10T10:23:45.788185+05:30"},{"city":"Jabalpur","state":"Madhya Pradesh","latitude":23.1815,"longitude":79.9864,"temp":29.9,"humidity":70,"rain":0.0,"pressure":959.2,"uv_index":2.35,"wind_gusts":38.5,"aqi":81,"pm10":55.1,"pm2_5":31.3,"no2":5.0,"co":190.0,"o3":70.0,"so2":7.6,"mosquito_risk":7,"arthritis_risk":5,"migraine_risk":3,"frizz_risk":1,"updated_at":"2026-07-10T10:23:45.788190+05:30"},{"city":"Ujjain","state":"Madhya Pradesh","latitude":23.1765,"longitude":75.7885,"temp":28.1,"humidity":71,"rain":0.0,"pressure":951.9,"uv_index":8.5,"wind_gusts":54.4,"aqi":80,"pm10":44.6,"pm2_5":17.9,"no2":3.6,"co":154.0,"o3":49.0,"so2":5.8,"mosquito_risk":7,"arthritis_risk":5,"migraine_risk":7,"frizz_risk":1,"updated_at":"2026-07-10T10:23:45.788195+05:30"},{"city":"Visakhapatnam","state":"Andhra Pradesh","latitude":17.6868,"longitude":83.2185,"temp":30.8,"humidity":73,"rain":0.0,"pressure":1002.4,"uv_index":7.05,"wind_gusts":47.5,"aqi":77,"pm10":41.4,"pm2_5":28.1,"no2":13.6,"co":345.0,"o3":88.0,"so2":35.0,"mosquito_risk":3,"arthritis_risk":5,"migraine_risk":4,"frizz_risk":1,"updated_at":"2026-07-10T10:23:45.788201+05:30"},{"city":"Vijayawada","state":"Andhra Pradesh","latitude":16.5062,"longitude":80.648,"temp":33.3,"humidity":54,"rain":0.0,"pressure":1002.3,"uv_index":6.35,"wind_gusts":37.8,"aqi":63,"pm10":35.0,"pm2_5":21.1,"no2":6.2,"co":177.0,"o3":64.0,"so2":9.4,"mosquito_risk":0,"arthritis_risk":5,"migraine_risk":4,"frizz_risk":1,"updated_at":"2026-07-10T10:23:45.788205+05:30"},{"city":"Guntur","state":"Andhra Pradesh","latitude":16.3067,"longitude":80.4365,"temp":33.7,"humidity":51,"rain":0.0,"pressure":1003.6,"uv_index":7.1,"wind_gusts":39.2,"aqi":66,"pm10":32.9,"pm2_5":18.9,"no2":5.6,"co":155.0,"o3":58.0,"so2":9.0,"mosquito_risk":0,"arthritis_risk":5,"migraine_risk":4,"frizz_risk":1,"updated_at":"2026-07-10T10:23:45.788210+05:30"},{"city":"Nellore","state":"Andhra Pradesh","latitude":14.4426,"longitude":79.9865,"temp":33.5,"humidity":50,"rain":0.0,"pressure":1006.6,"uv_index":6.0,"wind_gusts":48.2,"aqi":53,"pm10":24.1,"pm2_5":12.3,"no2":4.7,"co":109.0,"o3":54.0,"so2":5.2,"mosquito_risk":0,"arthritis_risk":5,"migraine_risk":0,"frizz_risk":1,"updated_at":"2026-07-10T10:23:45.788216+05:30"},{"city":"Kurnool","state":"Andhra Pradesh","latitude":15.8281,"longitude":78.0373,"temp":30.5,"humidity":55,"rain":0.0,"pressure":978.7,"uv_index":7.25,"wind_gusts":43.2,"aqi":51,"pm10":22.1,"pm2_5":10.5,"no2":4.1,"co":119.0,"o3":43.0,"so2":4.8,"mosquito_risk":0,"arthritis_risk":5,"migraine_risk":7,"frizz_risk":1,"updated_at":"2026-07-10T10:23:45.788222+05:30"},{"city":"Kakinada","state":"Andhra Pradesh","latitude":16.9891,"longitude":82.2475,"temp":31.1,"humidity":68,"rain":0.0,"pressure":1006.9,"uv_index":7.1,"wind_gusts":42.1,"aqi":63,"pm10":33.8,"pm2_5":20.6,"no2":5.6,"co":188.0,"o3":85.0,"so2":5.9,"mosquito_risk":3,"arthritis_risk":5,"migraine_risk":4,"frizz_risk":1,"updated_at":"2026-07-10T10:23:45.788228+05:30"},{"city":"Tirupati","state":"Andhra Pradesh","latitude":13.6288,"longitude":79.4192,"temp":33.7,"humidity":44,"rain":0.0,"pressure":992.4,"uv_index":7.65,"wind_gusts":37.1,"aqi":53,"pm10":23.2,"pm2_5":12.2,"no2":3.7,"co":111.0,"o3":66.0,"so2":2.3,"mosquito_risk":0,"arthritis_risk":5,"migraine_risk":7,"frizz_risk":1,"updated_at":"2026-07-10T10:23:45.788233+05:30"},{"city":"Warangal","state":"Telangana","latitude":17.9689,"longitude":79.5941,"temp":31.0,"humidity":59,"rain":0.0,"pressure":978.7,"uv_index":8.15,"wind_gusts":34.9,"aqi":70,"pm10":33.9,"pm2_5":17.7,"no2":3.3,"co":155.0,"o3":59.0,"so2":3.5,"mosquito_risk":0,"arthritis_risk":5,"migraine_risk":7,"frizz_risk":1,"updated_at":"2026-07-10T10:23:45.788238+05:30"},{"city":"Nizamabad","state":"Telangana","latitude":18.6725,"longitude":78.0941,"temp":29.2,"humidity":62,"rain":0.0,"pressure":965.4,"uv_index":8.4,"wind_gusts":42.5,"aqi":68,"pm10":24.4,"pm2_5":12.3,"no2":3.8,"co":136.0,"o3":46.0,"so2":6.3,"mosquito_risk":7,"arthritis_risk":5,"migraine_risk":7,"frizz_risk":1,"updated_at":"2026-07-10T10:23:45.788243+05:30"},{"city":"Mysore","state":"Karnataka","latitude":12.2958,"longitude":76.6396,"temp":26.7,"humidity":67,"rain":0.1,"pressure":931.4,"uv_index":7.65,"wind_gusts":43.9,"aqi":28,"pm10":6.3,"pm2_5":3.7,"no2":3.9,"co":125.0,"o3":49.0,"so2":2.2,"mosquito_risk":10,"arthritis_risk":5,"migraine_risk":7,"frizz_risk":1,"updated_at":"2026-07-10T10:23:45.788248+05:30"},{"city":"Mangalore","state":"Karnataka","latitude":12.9141,"longitude":74.856,"temp":27.2,"humidity":86,"rain":0.1,"pressure":1010.6,"uv_index":7.65,"wind_gusts":31.7,"aqi":60,"pm10":24.3,"pm2_5":11.5,"no2":2.6,"co":168.0,"o3":47.0,"so2":2.0,"mosquito_risk":10,"arthritis_risk":0,"migraine_risk":4,"frizz_risk":1,"updated_at":"2026-07-10T10:23:45.788254+05:30"},{"city":"Hubli-Dharwad","state":"Karnataka","latitude":15.3647,"longitude":75.124,"temp":26.7,"humidity":72,"rain":0.0,"pressure":942.7,"uv_index":8.45,"wind_gusts":53.3,"aqi":27,"pm10":7.8,"pm2_5":4.1,"no2":3.9,"co":109.0,"o3":41.0,"so2":1.5,"mosquito_risk":7,"arthritis_risk":5,"migraine_risk":7,"frizz_risk":1,"updated_at":"2026-07-10T10:23:45.788259+05:30"},{"city":"Belgaum","state":"Karnataka","latitude":15.8497,"longitude":74.4977,"temp":25.8,"humidity":74,"rain":0.0,"pressure":927.6,"uv_index":8.5,"wind_gusts":48.2,"aqi":26,"pm10":9.5,"pm2_5":4.5,"no2":3.6,"co":108.0,"o3":40.0,"so2":1.7,"mosquito_risk":7,"arthritis_risk":5,"migraine_risk":7,"frizz_risk":1,"updated_at":"2026-07-10T10:23:49.151242+05:30"},{"city":"Coimbatore","state":"Tamil Nadu","latitude":11.0168,"longitude":76.9558,"temp":29.3,"humidity":60,"rain":0.0,"pressure":964.9,"uv_index":7.85,"wind_gusts":43.9,"aqi":33,"pm10":20.1,"pm2_5":9.9,"no2":2.9,"co":170.0,"o3":57.0,"so2":2.8,"mosquito_risk":4,"arthritis_risk":5,"migraine_risk":7,"frizz_risk":1,"updated_at":"2026-07-10T10:23:49.151275+05:30"},{"city":"Madurai","state":"Tamil Nadu","latitude":9.9252,"longitude":78.1198,"temp":34.4,"humidity":44,"rain":0.0,"pressure":995.4,"uv_index":8.75,"wind_gusts":35.3,"aqi":54,"pm10":24.1,"pm2_5":15.3,"no2":7.3,"co":154.0,"o3":67.0,"so2":5.9,"mosquito_risk":0,"arthritis_risk":5,"migraine_risk":7,"frizz_risk":1,"updated_at":"2026-07-10T10:23:49.151284+05:30"},{"city":"Trichy","state":"Tamil Nadu","latitude":10.7905,"longitude":78.7047,"temp":33.7,"humidity":48,"rain":0.0,"pressure":1001.7,"uv_index":8.65,"wind_gusts":53.6,"aqi":41,"pm10":16.5,"pm2_5":9.2,"no2":3.0,"co":120.0,"o3":54.0,"so2":3.1,"mosquito_risk":0,"arthritis_risk":5,"migraine_risk":4,"frizz_risk":1,"updated_at":"2026-07-10T10:23:49.151291+05:30"},{"city":"Salem","state":"Tamil Nadu","latitude":11.6643,"longitude":78.146,"temp":29.6,"humidity":68,"rain":0.0,"pressure":980.4,"uv_index":8.35,"wind_gusts":37.8,"aqi":58,"pm10":25.4,"pm2_5":16.5,"no2":7.4,"co":221.0,"o3":73.0,"so2":12.3,"mosquito_risk":7,"arthritis_risk":5,"migraine_risk":7,"frizz_risk":1,"updated_at":"2026-07-10T10:23:49.151297+05:30"},{"city":"Tirunelveli","state":"Tamil Nadu","latitude":8.7139,"longitude":77.7567,"temp":35.0,"humidity":43,"rain":0.0,"pressure":1005.7,"uv_index":8.6,"wind_gusts":47.5,"aqi":39,"pm10":5.9,"pm2_5":4.1,"no2":2.8,"co":124.0,"o3":54.0,"so2":1.9,"mosquito_risk":0,"arthritis_risk":5,"migraine_risk":4,"frizz_risk":1,"updated_at":"2026-07-10T10:23:49.151331+05:30"},{"city":"Vellore","state":"Tamil Nadu","latitude":12.9165,"longitude":79.1325,"temp":32.9,"humidity":49,"rain":0.0,"pressure":986.2,"uv_index":8.25,"wind_gusts":38.9,"aqi":62,"pm10":22.4,"pm2_5":12.7,"no2":4.2,"co":128.0,"o3":65.0,"so2":4.1,"mosquito_risk":0,"arthritis_risk":5,"migraine_risk":7,"frizz_risk":1,"updated_at":"2026-07-10T10:23:49.151338+05:30"},{"city":"Erode","state":"Tamil Nadu","latitude":11.341,"longitude":77.7172,"temp":33.2,"humidity":48,"rain":0.0,"pressure":991.8,"uv_index":8.3,"wind_gusts":53.3,"aqi":48,"pm10":19.2,"pm2_5":11.9,"no2":5.3,"co":185.0,"o3":61.0,"so2":3.9,"mosquito_risk":0,"arthritis_risk":5,"migraine_risk":7,"frizz_risk":1,"updated_at":"2026-07-10T10:23:49.151344+05:30"},{"city":"Kochi","state":"Kerala","latitude":9.9312,"longitude":76.2673,"temp":26.5,"humidity":86,"rain":0.0,"pressure":1013.5,"uv_index":7.9,"wind_gusts":33.1,"aqi":53,"pm10":17.5,"pm2_5":11.2,"no2":5.7,"co":166.0,"o3":53.0,"so2":3.9,"mosquito_risk":7,"arthritis_risk":0,"migraine_risk":4,"frizz_risk":1,"updated_at":"2026-07-10T10:23:49.151351+05:30"},{"city":"Thiruvananthapuram","state":"Kerala","latitude":8.5241,"longitude":76.9366,"temp":28.0,"humidity":79,"rain":0.0,"pressure":1012.5,"uv_index":7.75,"wind_gusts":43.9,"aqi":51,"pm10":17.8,"pm2_5":10.2,"no2":3.9,"co":153.0,"o3":56.0,"so2":1.8,"mosquito_risk":7,"arthritis_risk":0,"migraine_risk":4,"frizz_risk":1,"updated_at":"2026-07-10T10:23:49.151356+05:30"},{"city":"Kozhikode","state":"Kerala","latitude":11.2588,"longitude":75.7804,"temp":26.9,"humidity":86,"rain":0.1,"pressure":1012.3,"uv_index":7.9,"wind_gusts":36.7,"aqi":46,"pm10":19.7,"pm2_5":8.6,"no2":1.0,"co":171.0,"o3":55.0,"so2":1.1,"mosquito_risk":10,"arthritis_risk":0,"migraine_risk":4,"frizz_risk":1,"updated_at":"2026-07-10T10:23:49.151362+05:30"},{"city":"Thrissur","state":"Kerala","latitude":10.5276,"longitude":76.2144,"temp":27.5,"humidity":86,"rain":0.0,"pressure":1011.5,"uv_index":7.35,"wind_gusts":36.7,"aqi":53,"pm10":14.5,"pm2_5":8.8,"no2":4.0,"co":158.0,"o3":53.0,"so2":2.8,"mosquito_risk":7,"arthritis_risk":0,"migraine_risk":4,"frizz_risk":1,"updated_at":"2026-07-10T10:23:49.151368+05:30"},{"city":"Kannur","state":"Kerala","latitude":11.8745,"longitude":75.3704,"temp":26.0,"humidity":93,"rain":0.1,"pressure":1011.4,"uv_index":8.2,"wind_gusts":33.8,"aqi":54,"pm10":22.6,"pm2_5":10.6,"no2":3.0,"co":160.0,"o3":48.0,"so2":1.7,"mosquito_risk":10,"arthritis_risk":0,"migraine_risk":4,"frizz_risk":1,"updated_at":"2026-07-10T10:23:49.151374+05:30"},{"city":"Patna","state":"Bihar","latitude":25.5941,"longitude":85.1376,"temp":30.0,"humidity":81,"rain":0.1,"pressure":994.9,"uv_index":7.7,"wind_gusts":28.1,"aqi":91,"pm10":14.4,"pm2_5":13.6,"no2":9.8,"co":309.0,"o3":85.0,"so2":12.1,"mosquito_risk":10,"arthritis_risk":5,"migraine_risk":7,"frizz_risk":1,"updated_at":"2026-07-10T10:23:49.151380+05:30"},{"city":"Gaya","state":"Bihar","latitude":24.7914,"longitude":85.0002,"temp":30.8,"humidity":72,"rain":0.1,"pressure":989.0,"uv_index":7.9,"wind_gusts":37.1,"aqi":69,"pm10":13.9,"pm2_5":11.6,"no2":6.3,"co":249.0,"o3":87.0,"so2":10.9,"mosquito_risk":6,"arthritis_risk":5,"migraine_risk":7,"frizz_risk":1,"updated_at":"2026-07-10T10:23:49.151386+05:30"},{"city":"Muzaffarpur","state":"Bihar","latitude":26.1209,"longitude":85.3647,"temp":30.8,"humidity":77,"rain":0.0,"pressure":994.7,"uv_index":7.55,"wind_gusts":24.5,"aqi":104,"pm10":21.5,"pm2_5":20.9,"no2":7.9,"co":293.0,"o3":112.0,"so2":15.7,"mosquito_risk":3,"arthritis_risk":5,"migraine_risk":7,"frizz_risk":1,"updated_at":"2026-07-10T10:23:49.151391+05:30"},{"city":"Bhagalpur","state":"Bihar","latitude":25.2425,"longitude":87.0117,"temp":31.0,"humidity":77,"rain":0.0,"pressure":995.5,"uv_index":7.8,"wind_gusts":22.0,"aqi":108,"pm10":22.5,"pm2_5":22.2,"no2":9.2,"co":286.0,"o3":116.0,"so2":31.3,"mosquito_risk":3,"arthritis_risk":5,"migraine_risk":7,"frizz_risk":1,"updated_at":"2026-07-10T10:23:49.151396+05:30"},{"city":"Ranchi","state":"Jharkhand","latitude":23.3441,"longitude":85.3096,"temp":27.3,"humidity":78,"rain":0.0,"pressure":934.3,"uv_index":7.9,"wind_gusts":39.2,"aqi":62,"pm10":13.5,"pm2_5":10.4,"no2":5.0,"co":195.0,"o3":72.0,"so2":5.3,"mosquito_risk":7,"arthritis_risk":5,"migraine_risk":7,"frizz_risk":1,"updated_at":"2026-07-10T10:23:49.151402+05:30"},{"city":"Jamshedpur","state":"Jharkhand","latitude":22.8046,"longitude":86.2029,"temp":29.7,"humidity":78,"rain":0.0,"pressure":986.5,"uv_index":8.95,"wind_gusts":39.6,"aqi":71,"pm10":16.6,"pm2_5":14.8,"no2":10.4,"co":238.0,"o3":77.0,"so2":22.9,"mosquito_risk":7,"arthritis_risk":5,"migraine_risk":7,"frizz_risk":1,"updated_at":"2026-07-10T10:23:49.151408+05:30"},{"city":"Dhanbad","state":"Jharkhand","latitude":23.7957,"longitude":86.4304,"temp":30.7,"humidity":73,"rain":0.0,"pressure":975.2,"uv_index":7.05,"wind_gusts":31.7,"aqi":103,"pm10":30.2,"pm2_5":27.0,"no2":21.8,"co":256.0,"o3":73.0,"so2":63.5,"mosquito_risk":3,"arthritis_risk":5,"migraine_risk":7,"frizz_risk":1,"updated_at":"2026-07-10T10:23:49.151413+05:30"},{"city":"Bokaro","state":"Jharkhand","latitude":23.6693,"longitude":86.1511,"temp":30.8,"humidity":71,"rain":0.0,"pressure":979.1,"uv_index":8.0,"wind_gusts":35.6,"aqi":83,"pm10":25.0,"pm2_5":21.4,"no2":15.6,"co":247.0,"o3":73.0,"so2":47.7,"mosquito_risk":3,"arthritis_risk":5,"migraine_risk":7,"frizz_risk":1,"updated_at":"2026-07-10T10:23:49.151419+05:30"},{"city":"Bhubaneswar","state":"Odisha","latitude":20.2961,"longitude":85.8245,"temp":30.1,"humidity":83,"rain":0.0,"pressure":999.7,"uv_index":7.85,"wind_gusts":35.6,"aqi":74,"pm10":25.1,"pm2_5":19.3,"no2":9.2,"co":256.0,"o3":70.0,"so2":5.5,"mosquito_risk":3,"arthritis_risk":5,"migraine_risk":7,"frizz_risk":1,"updated_at":"2026-07-10T10:23:49.151423+05:30"},{"city":"Cuttack","state":"Odisha","latitude":20.4625,"longitude":85.8828,"temp":28.9,"humidity":90,"rain":0.1,"pressure":1001.5,"uv_index":7.95,"wind_gusts":45.7,"aqi":74,"pm10":25.1,"pm2_5":19.3,"no2":9.2,"co":248.0,"o3":70.0,"so2":5.5,"mosquito_risk":10,"arthritis_risk":5,"migraine_risk":4,"frizz_risk":1,"updated_at":"2026-07-10T10:23:49.151428+05:30"},{"city":"Rourkela","state":"Odisha","latitude":22.2604,"longitude":84.8536,"temp":29.2,"humidity":81,"rain":0.0,"pressure":981.8,"uv_index":7.45,"wind_gusts":37.4,"aqi":78,"pm10":34.5,"pm2_5":25.3,"no2":13.0,"co":280.0,"o3":61.0,"so2":13.5,"mosquito_risk":7,"arthritis_risk":5,"migraine_risk":7,"frizz_risk":1,"updated_at":"2026-07-10T10:23:49.151433+05:30"},{"city":"Raipur","state":"Chhattisgarh","latitude":21.2514,"longitude":81.6296,"temp":30.2,"humidity":68,"rain":0.0,"pressure":972.6,"uv_index":8.25,"wind_gusts":41.4,"aqi":93,"pm10":57.3,"pm2_5":36.0,"no2":21.0,"co":379.0,"o3":54.0,"so2":47.8,"mosquito_risk":3,"arthritis_risk":5,"migraine_risk":7,"frizz_risk":1,"updated_at":"2026-07-10T10:23:49.151438+05:30"},{"city":"Bhilai","state":"Chhattisgarh","latitude":21.1938,"longitude":81.3509,"temp":30.0,"humidity":68,"rain":0.0,"pressure":973.1,"uv_index":8.1,"wind_gusts":43.9,"aqi":92,"pm10":56.8,"pm2_5":33.2,"no2":16.9,"co":530.0,"o3":58.0,"so2":40.1,"mosquito_risk":7,"arthritis_risk":5,"migraine_risk":7,"frizz_risk":1,"updated_at":"2026-07-10T10:23:49.151443+05:30"},{"city":"Guwahati","state":"Assam","latitude":26.1158,"longitude":91.7086,"temp":29.2,"humidity":81,"rain":0.0,"pressure":996.2,"uv_index":5.85,"wind_gusts":20.9,"aqi":53,"pm10":8.6,"pm2_5":8.1,"no2":2.0,"co":244.0,"o3":96.0,"so2":3.5,"mosquito_risk":7,"arthritis_risk":5,"migraine_risk":3,"frizz_risk":1,"updated_at":"2026-07-10T10:23:49.151448+05:30"},{"city":"Agartala","state":"Tripura","latitude":23.8315,"longitude":91.2868,"temp":27.3,"humidity":96,"rain":0.1,"pressure":1001.1,"uv_index":6.55,"wind_gusts":50.0,"aqi":47,"pm10":10.2,"pm2_5":9.1,"no2":5.7,"co":173.0,"o3":68.0,"so2":2.0,"mosquito_risk":10,"arthritis_risk":5,"migraine_risk":4,"frizz_risk":1,"updated_at":"2026-07-10T10:23:49.151453+05:30"},{"city":"Shillong","state":"Meghalaya","latitude":25.5788,"longitude":91.8933,"temp":24.6,"humidity":74,"rain":0.0,"pressure":855.1,"uv_index":3.1,"wind_gusts":36.7,"aqi":26,"pm10":4.2,"pm2_5":3.7,"no2":2.1,"co":145.0,"o3":85.0,"so2":2.3,"mosquito_risk":3,"arthritis_risk":5,"migraine_risk":3,"frizz_risk":1,"updated_at":"2026-07-10T10:23:49.151459+05:30"},{"city":"Imphal","state":"Manipur","latitude":24.817,"longitude":93.9368,"temp":27.1,"humidity":75,"rain":0.1,"pressure":920.6,"uv_index":2.8,"wind_gusts":35.6,"aqi":42,"pm10":1.8,"pm2_5":1.8,"no2":1.3,"co":139.0,"o3":79.0,"so2":1.8,"mosquito_risk":10,"arthritis_risk":5,"migraine_risk":3,"frizz_risk":1,"updated_at":"2026-07-10T10:23:49.151464+05:30"},{"city":"Aizawl","state":"Mizoram","latitude":23.7271,"longitude":92.7176,"temp":23.8,"humidity":75,"rain":0.0,"pressure":890.4,"uv_index":7.7,"wind_gusts":56.9,"aqi":23,"pm10":3.6,"pm2_5":1.9,"no2":1.7,"co":117.0,"o3":67.0,"so2":1.6,"mosquito_risk":3,"arthritis_risk":5,"migraine_risk":7,"frizz_risk":1,"updated_at":"2026-07-10T10:23:49.151470+05:30"},{"city":"Kohima","state":"Nagaland","latitude":25.6701,"longitude":94.1077,"temp":23.6,"humidity":95,"rain":0.0,"pressure":853.7,"uv_index":7.15,"wind_gusts":24.5,"aqi":28,"pm10":3.6,"pm2_5":2.6,"no2":0.5,"co":153.0,"o3":83.0,"so2":1.3,"mosquito_risk":3,"arthritis_risk":5,"migraine_risk":7,"frizz_risk":1,"updated_at":"2026-07-10T10:23:49.151475+05:30"},{"city":"Gangtok","state":"Sikkim","latitude":27.3314,"longitude":88.6138,"temp":21.7,"humidity":92,"rain":0.1,"pressure":835.7,"uv_index":7.7,"wind_gusts":30.2,"aqi":40,"pm10":2.8,"pm2_5":2.8,"no2":2.2,"co":229.0,"o3":102.0,"so2":2.4,"mosquito_risk":6,"arthritis_risk":5,"migraine_risk":7,"frizz_risk":1,"updated_at":"2026-07-10T10:23:49.151481+05:30"},{"city":"Siliguri","state":"West Bengal","latitude":26.7271,"longitude":88.3953,"temp":26.5,"humidity":96,"rain":0.0,"pressure":988.1,"uv_index":8.2,"wind_gusts":28.1,"aqi":68,"pm10":11.1,"pm2_5":10.8,"no2":2.8,"co":412.0,"o3":114.0,"so2":3.9,"mosquito_risk":7,"arthritis_risk":5,"migraine_risk":7,"frizz_risk":1,"updated_at":"2026-07-10T10:23:52.506008+05:30"},{"city":"Durgapur","state":"West Bengal","latitude":23.5204,"longitude":87.3119,"temp":27.7,"humidity":94,"rain":0.2,"pressure":990.1,"uv_index":8.4,"wind_gusts":29.5,"aqi":91,"pm10":30.7,"pm2_5":27.9,"no2":23.4,"co":507.0,"o3":74.0,"so2":53.6,"mosquito_risk":10,"arthritis_risk":5,"migraine_risk":7,"frizz_risk":1,"updated_at":"2026-07-10T10:23:52.506039+05:30"},{"city":"Asansol","state":"West Bengal","latitude":23.6739,"longitude":86.9524,"temp":29.6,"humidity":84,"rain":0.0,"pressure":988.6,"uv_index":7.7,"wind_gusts":32.4,"aqi":87,"pm10":27.4,"pm2_5":24.4,"no2":20.3,"co":1095.0,"o3":76.0,"so2":47.9,"mosquito_risk":7,"arthritis_risk":5,"migraine_risk":7,"frizz_risk":1,"updated_at":"2026-07-10T10:23:52.506050+05:30"},{"city":"Pondicherry","state":"Puducherry","latitude":11.9139,"longitude":79.8145,"temp":33.1,"humidity":54,"rain":0.0,"pressure":1009.9,"uv_index":6.8,"wind_gusts":40.7,"aqi":63,"pm10":22.6,"pm2_5":16.3,"no2":9.6,"co":214.0,"o3":66.0,"so2":11.1,"mosquito_risk":0,"arthritis_risk":0,"migraine_risk":4,"frizz_risk":1,"updated_at":"2026-07-10T10:23:52.506058+05:30"},{"city":"Port Blair","state":"Andaman and Nicobar Islands","latitude":11.6234,"longitude":92.7265,"temp":31.0,"humidity":67,"rain":0.0,"pressure":1008.9,"uv_index":8.8,"wind_gusts":47.5,"aqi":51,"pm10":21.8,"pm2_5":10.8,"no2":0.3,"co":90.0,"o3":45.0,"so2":0.5,"mosquito_risk":3,"arthritis_risk":0,"migraine_risk":4,"frizz_risk":1,"updated_at":"2026-07-10T10:23:52.506064+05:30"},{"city":"Haridwar","state":"Uttarakhand","latitude":29.9457,"longitude":78.1642,"temp":27.7,"humidity":84,"rain":0.0,"pressure":967.8,"uv_index":3.4,"wind_gusts":23.8,"aqi":67,"pm10":16.6,"pm2_5":16.6,"no2":8.9,"co":318.0,"o3":97.0,"so2":4.0,"mosquito_risk":7,"arthritis_risk":5,"migraine_risk":3,"frizz_risk":1,"updated_at":"2026-07-10T10:23:52.506070+05:30"},{"city":"Rishikesh","state":"Uttarakhand","latitude":30.0869,"longitude":78.2676,"temp":26.9,"humidity":86,"rain":0.0,"pressure":960.5,"uv_index":3.35,"wind_gusts":18.7,"aqi":50,"pm10":8.3,"pm2_5":8.3,"no2":6.8,"co":286.0,"o3":81.0,"so2":0.6,"mosquito_risk":7,"arthritis_risk":5,"migraine_risk":3,"frizz_risk":1,"updated_at":"2026-07-10T10:23:52.506076+05:30"},{"city":"Nainital","state":"Uttarakhand","latitude":29.3919,"longitude":79.4542,"temp":22.7,"humidity":72,"rain":0.1,"pressure":803.9,"uv_index":2.6,"wind_gusts":36.7,"aqi":45,"pm10":8.4,"pm2_5":8.3,"no2":4.5,"co":248.0,"o3":95.0,"so2":1.5,"mosquito_risk":6,"arthritis_risk":5,"migraine_risk":3,"frizz_risk":1,"updated_at":"2026-07-10T10:23:52.506082+05:30"},{"city":"Mussoorie","state":"Uttarakhand","latitude":30.4599,"longitude":78.0664,"temp":17.8,"humidity":99,"rain":0.2,"pressure":799.7,"uv_index":0.95,"wind_gusts":26.3,"aqi":67,"pm10":21.8,"pm2_5":21.7,"no2":8.6,"co":254.0,"o3":100.0,"so2":4.6,"mosquito_risk":6,"arthritis_risk":10,"migraine_risk":3,"frizz_risk":1,"updated_at":"2026-07-10T10:23:52.506088+05:30"},{"city":"Dharamshala","state":"Himachal Pradesh","latitude":32.219,"longitude":76.3234,"temp":22.1,"humidity":90,"rain":0.1,"pressure":865.0,"uv_index":8.45,"wind_gusts":26.3,"aqi":81,"pm10":25.6,"pm2_5":23.3,"no2":1.3,"co":342.0,"o3":133.0,"so2":1.5,"mosquito_risk":6,"arthritis_risk":5,"migraine_risk":7,"frizz_risk":1,"updated_at":"2026-07-10T10:23:52.506094+05:30"},{"city":"Dalhousie","state":"Himachal Pradesh","latitude":32.5387,"longitude":75.971,"temp":22.5,"humidity":76,"rain":0.0,"pressure":803.2,"uv_index":8.65,"wind_gusts":24.5,"aqi":150,"pm10":50.2,"pm2_5":44.0,"no2":4.7,"co":376.0,"o3":160.0,"so2":4.3,"mosquito_risk":3,"arthritis_risk":5,"migraine_risk":7,"frizz_risk":1,"updated_at":"2026-07-10T10:23:52.506101+05:30"},{"city":"Patiala","state":"Punjab","latitude":30.3398,"longitude":76.3869,"temp":27.2,"humidity":90,"rain":0.5,"pressure":972.3,"uv_index":7.3,"wind_gusts":18.0,"aqi":155,"pm10":90.6,"pm2_5":40.2,"no2":8.4,"co":333.0,"o3":115.0,"so2":13.8,"mosquito_risk":10,"arthritis_risk":5,"migraine_risk":7,"frizz_risk":1,"updated_at":"2026-07-10T10:23:52.506107+05:30"},{"city":"Bhatinda","state":"Punjab","latitude":30.211,"longitude":74.9455,"temp":33.1,"humidity":59,"rain":0.0,"pressure":977.1,"uv_index":7.9,"wind_gusts":22.3,"aqi":163,"pm10":297.1,"pm2_5":101.3,"no2":9.2,"co":376.0,"o3":126.0,"so2":12.7,"mosquito_risk":0,"arthritis_risk":5,"migraine_risk":7,"frizz_risk":1,"updated_at":"2026-07-10T10:23:52.506112+05:30"},{"city":"Rohtak","state":"Haryana","latitude":28.8955,"longitude":76.6066,"temp":30.7,"humidity":71,"rain":0.0,"pressure":975.6,"uv_index":7.65,"wind_gusts":35.6,"aqi":154,"pm10":326.0,"pm2_5":91.7,"no2":20.9,"co":375.0,"o3":115.0,"so2":19.4,"mosquito_risk":3,"arthritis_risk":5,"migraine_risk":7,"frizz_risk":1,"updated_at":"2026-07-10T10:23:52.506117+05:30"},{"city":"Panipat","state":"Haryana","latitude":29.3909,"longitude":76.9635,"temp":26.2,"humidity":93,"rain":0.4,"pressure":974.5,"uv_index":5.1,"wind_gusts":24.8,"aqi":157,"pm10":265.4,"pm2_5":79.9,"no2":18.3,"co":406.0,"o3":117.0,"so2":26.1,"mosquito_risk":10,"arthritis_risk":5,"migraine_risk":3,"frizz_risk":1,"updated_at":"2026-07-10T10:23:52.506123+05:30"},{"city":"Mathura","state":"Uttar Pradesh","latitude":27.4924,"longitude":77.6737,"temp":32.8,"humidity":63,"rain":0.0,"pressure":980.0,"uv_index":7.9,"wind_gusts":48.6,"aqi":435,"pm10":1162.3,"pm2_5":165.8,"no2":10.8,"co":307.0,"o3":61.0,"so2":4.9,"mosquito_risk":3,"arthritis_risk":5,"migraine_risk":7,"frizz_risk":1,"updated_at":"2026-07-10T10:23:52.506128+05:30"},{"city":"Vrindavan","state":"Uttar Pradesh","latitude":27.5823,"longitude":77.7027,"temp":32.7,"humidity":64,"rain":0.0,"pressure":980.5,"uv_index":7.95,"wind_gusts":50.4,"aqi":435,"pm10":1162.3,"pm2_5":165.8,"no2":10.8,"co":330.0,"o3":61.0,"so2":4.9,"mosquito_risk":3,"arthritis_risk":5,"migraine_risk":7,"frizz_risk":1,"updated_at":"2026-07-10T10:23:52.506133+05:30"},{"city":"Ayodhya","state":"Uttar Pradesh","latitude":26.7922,"longitude":82.1998,"temp":31.1,"humidity":72,"rain":0.1,"pressure":989.8,"uv_index":7.75,"wind_gusts":32.0,"aqi":92,"pm10":13.0,"pm2_5":10.3,"no2":5.9,"co":325.0,"o3":93.0,"so2":5.2,"mosquito_risk":6,"arthritis_risk":5,"migraine_risk":7,"frizz_risk":1,"updated_at":"2026-07-10T10:23:52.506139+05:30"},{"city":"Ratlam","state":"Madhya Pradesh","latitude":23.3315,"longitude":75.0367,"temp":27.9,"humidity":71,"rain":0.0,"pressure":952.9,"uv_index":8.5,"wind_gusts":50.0,"aqi":79,"pm10":44.1,"pm2_5":17.5,"no2":3.2,"co":121.0,"o3":50.0,"so2":5.2,"mosquito_risk":7,"arthritis_risk":5,"migraine_risk":7,"frizz_risk":1,"updated_at":"2026-07-10T10:23:52.506144+05:30"},{"city":"Sagar","state":"Madhya Pradesh","latitude":23.8388,"longitude":78.7378,"temp":29.0,"humidity":72,"rain":0.0,"pressure":947.5,"uv_index":6.95,"wind_gusts":46.1,"aqi":85,"pm10":46.1,"pm2_5":27.6,"no2":4.9,"co":152.0,"o3":66.0,"so2":7.8,"mosquito_risk":7,"arthritis_risk":5,"migraine_risk":7,"frizz_risk":1,"updated_at":"2026-07-10T10:23:52.506149+05:30"},{"city":"Satna","state":"Madhya Pradesh","latitude":24.6005,"longitude":80.8322,"temp":30.4,"humidity":68,"rain":0.0,"pressure":967.6,"uv_index":8.2,"wind_gusts":38.2,"aqi":69,"pm10":71.5,"pm2_5":34.7,"no2":4.6,"co":227.0,"o3":76.0,"so2":4.6,"mosquito_risk":3,"arthritis_risk":5,"migraine_risk":7,"frizz_risk":1,"updated_at":"2026-07-10T10:23:52.506155+05:30"},{"city":"Akola","state":"Maharashtra","latitude":20.7002,"longitude":77.0082,"temp":30.4,"humidity":59,"rain":0.0,"pressure":974.6,"uv_index":8.5,"wind_gusts":50.0,"aqi":60,"pm10":32.1,"pm2_5":12.0,"no2":3.6,"co":116.0,"o3":50.0,"so2":7.7,"mosquito_risk":0,"arthritis_risk":5,"migraine_risk":7,"frizz_risk":1,"updated_at":"2026-07-10T10:23:52.506160+05:30"},{"city":"Amravati","state":"Maharashtra","latitude":20.9374,"longitude":77.7796,"temp":29.7,"humidity":63,"rain":0.0,"pressure":966.8,"uv_index":5.6,"wind_gusts":58.0,"aqi":62,"pm10":37.7,"pm2_5":13.5,"no2":4.1,"co":120.0,"o3":49.0,"so2":8.8,"mosquito_risk":7,"arthritis_risk":5,"migraine_risk":3,"frizz_risk":1,"updated_at":"2026-07-10T10:23:52.506167+05:30"},{"city":"Latur","state":"Maharashtra","latitude":18.4088,"longitude":76.5604,"temp":27.7,"humidity":65,"rain":0.0,"pressure":940.6,"uv_index":8.75,"wind_gusts":44.3,"aqi":52,"pm10":15.7,"pm2_5":6.6,"no2":2.7,"co":121.0,"o3":43.0,"so2":2.9,"mosquito_risk":7,"arthritis_risk":5,"migraine_risk":7,"frizz_risk":1,"updated_at":"2026-07-10T10:23:52.506172+05:30"},{"city":"Nanded","state":"Maharashtra","latitude":19.1383,"longitude":77.3091,"temp":28.2,"humidity":68,"rain":0.0,"pressure":969.2,"uv_index":8.1,"wind_gusts":43.6,"aqi":62,"pm10":21.9,"pm2_5":10.5,"no2":4.0,"co":133.0,"o3":45.0,"so2":4.3,"mosquito_risk":7,"arthritis_risk":5,"migraine_risk":7,"frizz_risk":1,"updated_at":"2026-07-10T10:23:52.506177+05:30"},{"city":"Gulbarga","state":"Karnataka","latitude":17.3297,"longitude":76.8343,"temp":28.6,"humidity":62,"rain":0.0,"pressure":959.9,"uv_index":7.55,"wind_gusts":41.0,"aqi":51,"pm10":18.5,"pm2_5":8.1,"no2":3.9,"co":124.0,"o3":44.0,"so2":3.1,"mosquito_risk":7,"arthritis_risk":5,"migraine_risk":7,"frizz_risk":1,"updated_at":"2026-07-10T10:23:52.506182+05:30"},{"city":"Bidar","state":"Karnataka","latitude":17.9104,"longitude":77.5199,"temp":28.0,"humidity":61,"rain":0.0,"pressure":936.6,"uv_index":7.55,"wind_gusts":42.8,"aqi":56,"pm10":18.5,"pm2_5":9.4,"no2":3.8,"co":131.0,"o3":44.0,"so2":2.2,"mosquito_risk":7,"arthritis_risk":5,"migraine_risk":7,"frizz_risk":1,"updated_at":"2026-07-10T10:23:52.506188+05:30"},{"city":"Hospet","state":"Karnataka","latitude":15.2689,"longitude":76.3909,"temp":28.1,"humidity":63,"rain":0.0,"pressure":957.9,"uv_index":5.65,"wind_gusts":44.3,"aqi":33,"pm10":14.0,"pm2_5":6.5,"no2":2.8,"co":112.0,"o3":44.0,"so2":2.1,"mosquito_risk":7,"arthritis_risk":5,"migraine_risk":3,"frizz_risk":1,"updated_at":"2026-07-10T10:23:52.506193+05:30"},{"city":"Tirupur","state":"Tamil Nadu","latitude":11.1085,"longitude":77.3411,"temp":30.8,"humidity":55,"rain":0.0,"pressure":978.3,"uv_index":8.2,"wind_gusts":45.4,"aqi":51,"pm10":23.2,"pm2_5":13.8,"no2":5.6,"co":147.0,"o3":62.0,"so2":4.6,"mosquito_risk":0,"arthritis_risk":5,"migraine_risk":7,"frizz_risk":1,"updated_at":"2026-07-10T10:23:52.506199+05:30"},{"city":"Alappuzha","state":"Kerala","latitude":9.4981,"longitude":76.3388,"temp":26.3,"humidity":88,"rain":0.1,"pressure":1013.6,"uv_index":8.4,"wind_gusts":34.9,"aqi":52,"pm10":17.9,"pm2_5":10.4,"no2":5.5,"co":102.0,"o3":58.0,"so2":3.5,"mosquito_risk":10,"arthritis_risk":0,"migraine_risk":4,"frizz_risk":1,"updated_at":"2026-07-10T10:23:52.506204+05:30"},{"city":"Munnar","state":"Kerala","latitude":10.0889,"longitude":77.0595,"temp":18.4,"humidity":98,"rain":0.0,"pressure":860.1,"uv_index":7.85,"wind_gusts":36.4,"aqi":26,"pm10":5.1,"pm2_5":2.9,"no2":2.3,"co":93.0,"o3":49.0,"so2":1.4,"mosquito_risk":3,"arthritis_risk":10,"migraine_risk":7,"frizz_risk":1,"updated_at":"2026-07-10T10:23:52.506211+05:30"},{"city":"Silchar","state":"Assam","latitude":24.8333,"longitude":92.7789,"temp":29.3,"humidity":83,"rain":0.0,"pressure":1000.9,"uv_index":6.5,"wind_gusts":32.8,"aqi":39,"pm10":6.8,"pm2_5":6.4,"no2":3.3,"co":167.0,"o3":66.0,"so2":3.6,"mosquito_risk":7,"arthritis_risk":5,"migraine_risk":4,"frizz_risk":1,"updated_at":"2026-07-10T10:23:52.506216+05:30"},{"city":"Dibrugarh","state":"Assam","latitude":27.4728,"longitude":94.912,"temp":30.8,"humidity":75,"rain":0.0,"pressure":990.0,"uv_index":5.7,"wind_gusts":28.8,"aqi":63,"pm10":13.2,"pm2_5":11.7,"no2":2.0,"co":178.0,"o3":96.0,"so2":2.6,"mosquito_risk":3,"arthritis_risk":5,"migraine_risk":3,"frizz_risk":1,"updated_at":"2026-07-10T10:23:52.506221+05:30"}]