[{"city":"Delhi","state":"Delhi","latitude":28.6139,"longitude":77.209,"temp":27.7,"humidity":46,"rain":0.0,"pressure":983.9,"uv_index":6.1,"wind_gusts":30.2,"aqi":274,"pm10":478.7,"pm2_5":75.7,"mosquito_risk":4,"arthritis_risk":5,"migraine_risk":7,"frizz_risk":0,"updated_at":"2026-03-30T18:57:44.847185+05:30"},{"city":"Mumbai","state":"Maharashtra","latitude":19.076,"longitude":72.8777,"temp":28.0,"humidity":87,"rain":0.0,"pressure":1007.7,"uv_index":8.0,"wind_gusts":26.6,"aqi":84,"pm10":54.0,"pm2_5":28.1,"mosquito_risk":7,"arthritis_risk":5,"migraine_risk":4,"frizz_risk":1,"updated_at":"2026-03-30T18:57:44.847232+05:30"},{"city":"Bangalore","state":"Karnataka","latitude":12.9716,"longitude":77.5946,"temp":29.9,"humidity":30,"rain":0.0,"pressure":911.2,"uv_index":8.7,"wind_gusts":29.2,"aqi":133,"pm10":31.5,"pm2_5":28.4,"mosquito_risk":4,"arthritis_risk":5,"migraine_risk":7,"frizz_risk":0,"updated_at":"2026-03-30T18:57:44.847247+05:30"},{"city":"Hyderabad","state":"Telangana","latitude":17.385,"longitude":78.4867,"temp":27.0,"humidity":74,"rain":0.0,"pressure":953.0,"uv_index":8.25,"wind_gusts":34.2,"aqi":133,"pm10":54.1,"pm2_5":43.8,"mosquito_risk":7,"arthritis_risk":5,"migraine_risk":7,"frizz_risk":1,"updated_at":"2026-03-30T18:57:44.847259+05:30"},{"city":"Chennai","state":"Tamil Nadu","latitude":13.0827,"longitude":80.2707,"temp":29.0,"humidity":71,"rain":0.0,"pressure":1006.6,"uv_index":9.3,"wind_gusts":32.0,"aqi":53,"pm10":13.8,"pm2_5":9.6,"mosquito_risk":7,"arthritis_risk":5,"migraine_risk":4,"frizz_risk":1,"updated_at":"2026-03-30T18:57:44.847268+05:30"},{"city":"Kolkata","state":"West Bengal","latitude":22.5726,"longitude":88.3639,"temp":28.8,"humidity":77,"rain":0.0,"pressure":1005.9,"uv_index":8.5,"wind_gusts":27.7,"aqi":100,"pm10":32.1,"pm2_5":28.2,"mosquito_risk":7,"arthritis_risk":5,"migraine_risk":4,"frizz_risk":1,"updated_at":"2026-03-30T18:57:44.847277+05:30"},{"city":"Pune","state":"Maharashtra","latitude":18.5204,"longitude":73.8567,"temp":29.8,"humidity":55,"rain":0.0,"pressure":947.9,"uv_index":8.55,"wind_gusts":36.4,"aqi":94,"pm10":48.1,"pm2_5":39.7,"mosquito_risk":4,"arthritis_risk":5,"migraine_risk":7,"frizz_risk":1,"updated_at":"2026-03-30T18:57:44.847288+05:30"},{"city":"Ahmedabad","state":"Gujarat","latitude":23.0225,"longitude":72.5714,"temp":32.4,"humidity":43,"rain":0.0,"pressure":1001.3,"uv_index":8.0,"wind_gusts":31.7,"aqi":55,"pm10":36.4,"pm2_5":11.8,"mosquito_risk":0,"arthritis_risk":5,"migraine_risk":4,"frizz_risk":1,"updated_at":"2026-03-30T18:57:44.847296+05:30"},{"city":"Jaipur","state":"Rajasthan","latitude":26.9124,"longitude":75.7873,"temp":28.7,"humidity":38,"rain":0.0,"pressure":961.2,"uv_index":6.05,"wind_gusts":46.1,"aqi":109,"pm10":193.7,"pm2_5":26.0,"mosquito_risk":4,"arthritis_risk":5,"migraine_risk":7,"frizz_risk":0,"updated_at":"2026-03-30T18:57:44.847304+05:30"},{"city":"Lucknow","state":"Uttar Pradesh","latitude":26.8467,"longitude":80.9462,"temp":32.7,"humidity":40,"rain":0.0,"pressure":992.1,"uv_index":7.3,"wind_gusts":18.7,"aqi":123,"pm10":81.7,"pm2_5":25.6,"mosquito_risk":0,"arthritis_risk":5,"migraine_risk":7,"frizz_risk":1,"updated_at":"2026-03-30T18:57:44.847311+05:30"},{"city":"Kanpur","state":"Uttar Pradesh","latitude":26.4499,"longitude":80.3319,"temp":30.9,"humidity":50,"rain":0.0,"pressure":990.7,"uv_index":7.3,"wind_gusts":18.4,"aqi":125,"pm10":525.3,"pm2_5":65.4,"mosquito_risk":0,"arthritis_risk":5,"migraine_risk":7,"frizz_risk":1,"updated_at":"2026-03-30T18:57:44.847318+05:30"},{"city":"Chandigarh","state":"Chandigarh","latitude":30.7333,"longitude":76.7794,"temp":25.5,"humidity":74,"rain":0.0,"pressure":969.4,"uv_index":6.2,"wind_gusts":37.8,"aqi":93,"pm10":331.6,"pm2_5":68.9,"mosquito_risk":7,"arthritis_risk":5,"migraine_risk":7,"frizz_risk":1,"updated_at":"2026-03-30T18:57:44.847326+05:30"},{"city":"Srinagar","state":"Jammu and Kashmir","latitude":34.0837,"longitude":74.7973,"temp":12.8,"humidity":83,"rain":0.0,"pressure":841.3,"uv_index":5.4,"wind_gusts":30.2,"aqi":83,"pm10":40.0,"pm2_5":20.9,"mosquito_risk":3,"arthritis_risk":10,"migraine_risk":3,"frizz_risk":0,"updated_at":"2026-03-30T18:57:44.847333+05:30"},{"city":"Jammu","state":"Jammu and Kashmir","latitude":32.7266,"longitude":74.857,"temp":20.8,"humidity":92,"rain":0.4,"pressure":975.6,"uv_index":6.35,"wind_gusts":39.2,"aqi":74,"pm10":83.6,"pm2_5":28.8,"mosquito_risk":6,"arthritis_risk":5,"migraine_risk":7,"frizz_risk":1,"updated_at":"2026-03-30T18:57:44.847340+05:30"},{"city":"Amritsar","state":"Punjab","latitude":31.634,"longitude":74.8723,"temp":21.7,"humidity":88,"rain":0.0,"pressure":982.0,"uv_index":5.3,"wind_gusts":50.8,"aqi":108,"pm10":53.8,"pm2_5":23.0,"mosquito_risk":3,"arthritis_risk":5,"migraine_risk":3,"frizz_risk":1,"updated_at":"2026-03-30T18:57:44.847347+05:30"},{"city":"Ludhiana","state":"Punjab","latitude":30.901,"longitude":75.8573,"temp":25.1,"humidity":76,"rain":0.0,"pressure":979.4,"uv_index":5.95,"wind_gusts":41.8,"aqi":152,"pm10":233.8,"pm2_5":56.6,"mosquito_risk":7,"arthritis_risk":5,"migraine_risk":3,"frizz_risk":1,"updated_at":"2026-03-30T18:57:44.847354+05:30"},{"city":"Jalandhar","state":"Punjab","latitude":31.326,"longitude":75.5762,"temp":25.2,"humidity":70,"rain":0.0,"pressure":981.3,"uv_index":4.7,"wind_gusts":38.5,"aqi":132,"pm10":147.6,"pm2_5":42.7,"mosquito_risk":7,"arthritis_risk":5,"migraine_risk":3,"frizz_risk":1,"updated_at":"2026-03-30T18:57:44.847363+05:30"},{"city":"Dehradun","state":"Uttarakhand","latitude":30.6284,"longitude":78.0322,"temp":17.8,"humidity":74,"rain":0.0,"pressure":831.5,"uv_index":6.35,"wind_gusts":26.6,"aqi":61,"pm10":60.5,"pm2_5":15.7,"mosquito_risk":3,"arthritis_risk":5,"migraine_risk":7,"frizz_risk":0,"updated_at":"2026-03-30T18:57:44.847370+05:30"},{"city":"Shimla","state":"Himachal Pradesh","latitude":31.1048,"longitude":77.1734,"temp":15.0,"humidity":77,"rain":0.0,"pressure":785.5,"uv_index":6.6,"wind_gusts":23.4,"aqi":71,"pm10":46.6,"pm2_5":15.3,"mosquito_risk":3,"arthritis_risk":5,"migraine_risk":7,"frizz_risk":0,"updated_at":"2026-03-30T18:57:44.847377+05:30"},{"city":"Manali","state":"Himachal Pradesh","latitude":32.2396,"longitude":77.1887,"temp":15.1,"humidity":70,"rain":0.0,"pressure":820.6,"uv_index":8.55,"wind_gusts":30.2,"aqi":74,"pm10":10.0,"pm2_5":5.5,"mosquito_risk":3,"arthritis_risk":5,"migraine_risk":7,"frizz_risk":0,"updated_at":"2026-03-30T18:57:44.847385+05:30"},{"city":"Gurgaon","state":"Haryana","latitude":28.4595,"longitude":77.0266,"temp":27.0,"humidity":53,"rain":0.0,"pressure":982.0,"uv_index":6.15,"wind_gusts":27.0,"aqi":1121,"pm10":789.8,"pm2_5":105.7,"mosquito_risk":4,"arthritis_risk":5,"migraine_risk":7,"frizz_risk":1,"updated_at":"2026-03-30T18:57:44.847392+05:30"},{"city":"Noida","state":"Uttar Pradesh","latitude":28.5355,"longitude":77.391,"temp":27.6,"humidity":45,"rain":0.0,"pressure":985.4,"uv_index":5.9,"wind_gusts":32.0,"aqi":1121,"pm10":789.8,"pm2_5":105.7,"mosquito_risk":4,"arthritis_risk":5,"migraine_risk":3,"frizz_risk":0,"updated_at":"2026-03-30T18:57:44.847398+05:30"},{"city":"Ghaziabad","state":"Uttar Pradesh","latitude":28.6692,"longitude":77.4538,"temp":26.9,"humidity":48,"rain":0.0,"pressure":983.6,"uv_index":5.95,"wind_gusts":31.3,"aqi":170,"pm10":484.3,"pm2_5":79.9,"mosquito_risk":4,"arthritis_risk":5,"migraine_risk":3,"frizz_risk":0,"updated_at":"2026-03-30T18:57:44.847405+05:30"},{"city":"Faridabad","state":"Haryana","latitude":28.4089,"longitude":77.3178,"temp":27.2,"humidity":44,"rain":0.0,"pressure":984.4,"uv_index":5.55,"wind_gusts":32.4,"aqi":1121,"pm10":789.8,"pm2_5":105.7,"mosquito_risk":4,"arthritis_risk":5,"migraine_risk":3,"frizz_risk":0,"updated_at":"2026-03-30T18:57:44.847412+05:30"},{"city":"Meerut","state":"Uttar Pradesh","latitude":28.9845,"longitude":77.7064,"temp":27.0,"humidity":55,"rain":0.0,"pressure":981.7,"uv_index":5.8,"wind_gusts":25.2,"aqi":170,"pm10":484.3,"pm2_5":79.9,"mosquito_risk":4,"arthritis_risk":5,"migraine_risk":3,"frizz_risk":1,"updated_at":"2026-03-30T18:57:44.847418+05:30"},{"city":"Agra","state":"Uttar Pradesh","latitude":27.1767,"longitude":78.0081,"temp":31.0,"humidity":31,"rain":0.0,"pressure":988.3,"uv_index":6.85,"wind_gusts":42.5,"aqi":515,"pm10":864.3,"pm2_5":97.1,"mosquito_risk":0,"arthritis_risk":5,"migraine_risk":7,"frizz_risk":0,"updated_at":"2026-03-30T18:57:44.847425+05:30"},{"city":"Varanasi","state":"Uttar Pradesh","latitude":25.3176,"longitude":82.9739,"temp":31.6,"humidity":43,"rain":0.0,"pressure":995.9,"uv_index":7.95,"wind_gusts":24.8,"aqi":96,"pm10":42.7,"pm2_5":28.5,"mosquito_risk":0,"arthritis_risk":5,"migraine_risk":7,"frizz_risk":1,"updated_at":"2026-03-30T18:57:44.847434+05:30"},{"city":"Prayagraj","state":"Uttar Pradesh","latitude":25.4358,"longitude":81.8463,"temp":32.7,"humidity":44,"rain":0.0,"pressure":994.4,"uv_index":7.85,"wind_gusts":24.5,"aqi":122,"pm10":43.2,"pm2_5":27.1,"mosquito_risk":0,"arthritis_risk":5,"migraine_risk":7,"frizz_risk":1,"updated_at":"2026-03-30T18:57:44.847442+05:30"},{"city":"Gorakhpur","state":"Uttar Pradesh","latitude":26.7606,"longitude":83.3732,"temp":30.2,"humidity":55,"rain":0.0,"pressure":995.6,"uv_index":7.7,"wind_gusts":25.9,"aqi":150,"pm10":78.5,"pm2_5":39.7,"mosquito_risk":0,"arthritis_risk":5,"migraine_risk":7,"frizz_risk":1,"updated_at":"2026-03-30T18:57:44.847450+05:30"},{"city":"Bareilly","state":"Uttar Pradesh","latitude":28.367,"longitude":79.4304,"temp":29.2,"humidity":46,"rain":0.0,"pressure":986.0,"uv_index":6.3,"wind_gusts":20.9,"aqi":125,"pm10":134.6,"pm2_5":44.1,"mosquito_risk":4,"arthritis_risk":5,"migraine_risk":7,"frizz_risk":1,"updated_at":"2026-03-30T18:57:44.847459+05:30"},{"city":"Aligarh","state":"Uttar Pradesh","latitude":27.8974,"longitude":78.088,"temp":27.9,"humidity":47,"rain":0.0,"pressure":986.3,"uv_index":6.3,"wind_gusts":36.4,"aqi":521,"pm10":1277.8,"pm2_5":170.0,"mosquito_risk":4,"arthritis_risk":5,"migraine_risk":7,"frizz_risk":0,"updated_at":"2026-03-30T18:57:44.847465+05:30"},{"city":"Moradabad","state":"Uttar Pradesh","latitude":28.8386,"longitude":78.7733,"temp":28.5,"humidity":53,"rain":0.0,"pressure":983.4,"uv_index":6.0,"wind_gusts":20.2,"aqi":150,"pm10":202.6,"pm2_5":53.8,"mosquito_risk":4,"arthritis_risk":5,"migraine_risk":3,"frizz_risk":1,"updated_at":"2026-03-30T18:57:44.847472+05:30"},{"city":"Saharanpur","state":"Uttar Pradesh","latitude":29.9637,"longitude":77.546,"temp":26.8,"humidity":70,"rain":0.0,"pressure":976.3,"uv_index":6.0,"wind_gusts":25.6,"aqi":102,"pm10":491.7,"pm2_5":93.6,"mosquito_risk":7,"arthritis_risk":5,"migraine_risk":3,"frizz_risk":1,"updated_at":"2026-03-30T18:57:44.847477+05:30"},{"city":"Jhansi","state":"Uttar Pradesh","latitude":25.4484,"longitude":78.5685,"temp":31.8,"humidity":34,"rain":0.0,"pressure":977.7,"uv_index":7.3,"wind_gusts":36.0,"aqi":76,"pm10":27.7,"pm2_5":12.9,"mosquito_risk":0,"arthritis_risk":5,"migraine_risk":7,"frizz_risk":0,"updated_at":"2026-03-30T18:57:48.066168+05:30"},{"city":"Surat","state":"Gujarat","latitude":21.1702,"longitude":72.8311,"temp":28.7,"humidity":72,"rain":0.0,"pressure":1006.0,"uv_index":7.6,"wind_gusts":27.0,"aqi":96,"pm10":63.8,"pm2_5":49.6,"mosquito_risk":7,"arthritis_risk":5,"migraine_risk":4,"frizz_risk":1,"updated_at":"2026-03-30T18:57:48.066203+05:30"},{"city":"Vadodara","state":"Gujarat","latitude":22.3072,"longitude":73.1812,"temp":34.2,"humidity":40,"rain":0.0,"pressure":1002.8,"uv_index":8.0,"wind_gusts":29.5,"aqi":70,"pm10":39.0,"pm2_5":17.8,"mosquito_risk":0,"arthritis_risk":5,"migraine_risk":4,"frizz_risk":1,"updated_at":"2026-03-30T18:57:48.066213+05:30"},{"city":"Rajkot","state":"Gujarat","latitude":22.3039,"longitude":70.8022,"temp":30.4,"humidity":54,"rain":0.0,"pressure":993.7,"uv_index":7.8,"wind_gusts":34.9,"aqi":58,"pm10":23.5,"pm2_5":11.1,"mosquito_risk":0,"arthritis_risk":5,"migraine_risk":7,"frizz_risk":1,"updated_at":"2026-03-30T18:57:48.066222+05:30"},{"city":"Thane","state":"Maharashtra","latitude":19.2183,"longitude":72.9781,"temp":28.2,"humidity":82,"rain":0.0,"pressure":1007.1,"uv_index":8.0,"wind_gusts":39.2,"aqi":84,"pm10":54.0,"pm2_5":28.1,"mosquito_risk":7,"arthritis_risk":5,"migraine_risk":4,"frizz_risk":1,"updated_at":"2026-03-30T18:57:48.066230+05:30"},{"city":"Nagpur","state":"Maharashtra","latitude":21.1458,"longitude":79.0882,"temp":32.0,"humidity":45,"rain":0.0,"pressure":972.1,"uv_index":8.55,"wind_gusts":31.0,"aqi":90,"pm10":23.3,"pm2_5":15.1,"mosquito_risk":0,"arthritis_risk":5,"migraine_risk":7,"frizz_risk":1,"updated_at":"2026-03-30T18:57:48.066238+05:30"},{"city":"Nashik","state":"Maharashtra","latitude":19.9975,"longitude":73.7898,"temp":27.2,"humidity":63,"rain":0.0,"pressure":945.5,"uv_index":8.25,"wind_gusts":32.0,"aqi":82,"pm10":23.5,"pm2_5":16.3,"mosquito_risk":7,"arthritis_risk":5,"migraine_risk":7,"frizz_risk":1,"updated_at":"2026-03-30T18:57:48.066245+05:30"},{"city":"Aurangabad","state":"Maharashtra","latitude":19.8762,"longitude":75.3433,"temp":26.9,"humidity":64,"rain":0.0,"pressure":944.7,"uv_index":8.75,"wind_gusts":48.6,"aqi":77,"pm10":17.2,"pm2_5":12.1,"mosquito_risk":7,"arthritis_risk":5,"migraine_risk":7,"frizz_risk":1,"updated_at":"2026-03-30T18:57:48.066251+05:30"},{"city":"Solapur","state":"Maharashtra","latitude":17.6599,"longitude":75.9064,"temp":34.6,"humidity":29,"rain":0.0,"pressure":955.5,"uv_index":8.85,"wind_gusts":39.2,"aqi":125,"pm10":32.9,"pm2_5":28.8,"mosquito_risk":0,"arthritis_risk":5,"migraine_risk":7,"frizz_risk":0,"updated_at":"2026-03-30T18:57:48.066258+05:30"},{"city":"Kolhapur","state":"Maharashtra","latitude":16.705,"longitude":74.2433,"temp":27.9,"humidity":69,"rain":0.0,"pressure":947.2,"uv_index":8.9,"wind_gusts":38.9,"aqi":115,"pm10":26.4,"pm2_5":22.6,"mosquito_risk":7,"arthritis_risk":5,"migraine_risk":7,"frizz_risk":1,"updated_at":"2026-03-30T18:57:48.066266+05:30"},{"city":"Goa","state":"Goa","latitude":15.2993,"longitude":74.124,"temp":29.3,"humidity":75,"rain":0.0,"pressure":997.2,"uv_index":8.95,"wind_gusts":30.2,"aqi":56,"pm10":23.6,"pm2_5":17.5,"mosquito_risk":7,"arthritis_risk":5,"migraine_risk":7,"frizz_risk":1,"updated_at":"2026-03-30T18:57:48.066273+05:30"},{"city":"Jodhpur","state":"Rajasthan","latitude":26.2389,"longitude":73.0243,"temp":27.5,"humidity":56,"rain":0.0,"pressure":983.2,"uv_index":7.65,"wind_gusts":37.4,"aqi":114,"pm10":177.0,"pm2_5":25.5,"mosquito_risk":4,"arthritis_risk":5,"migraine_risk":7,"frizz_risk":1,"updated_at":"2026-03-30T18:57:48.066280+05:30"},{"city":"Udaipur","state":"Rajasthan","latitude":24.5854,"longitude":73.7125,"temp":25.9,"humidity":56,"rain":0.0,"pressure":947.0,"uv_index":8.25,"wind_gusts":51.5,"aqi":43,"pm10":30.3,"pm2_5":9.9,"mosquito_risk":4,"arthritis_risk":5,"migraine_risk":7,"frizz_risk":1,"updated_at":"2026-03-30T18:57:48.066287+05:30"},{"city":"Kota","state":"Rajasthan","latitude":25.2138,"longitude":75.8648,"temp":30.7,"humidity":34,"rain":0.0,"pressure":980.2,"uv_index":6.2,"wind_gusts":40.3,"aqi":47,"pm10":35.5,"pm2_5":14.3,"mosquito_risk":0,"arthritis_risk":5,"migraine_risk":7,"frizz_risk":0,"updated_at":"2026-03-30T18:57:48.066293+05:30"},{"city":"Bikaner","state":"Rajasthan","latitude":28.0229,"longitude":73.3119,"temp":30.6,"humidity":36,"rain":0.0,"pressure":981.1,"uv_index":6.35,"wind_gusts":45.4,"aqi":107,"pm10":178.8,"pm2_5":39.2,"mosquito_risk":0,"arthritis_risk":5,"migraine_risk":7,"frizz_risk":0,"updated_at":"2026-03-30T18:57:48.066299+05:30"},{"city":"Ajmer","state":"Rajasthan","latitude":26.4499,"longitude":74.6399,"temp":25.5,"humidity":55,"rain":0.0,"pressure":955.7,"uv_index":6.4,"wind_gusts":37.4,"aqi":48,"pm10":21.9,"pm2_5":8.6,"mosquito_risk":4,"arthritis_risk":5,"migraine_risk":7,"frizz_risk":0,"updated_at":"2026-03-30T18:57:48.066306+05:30"},{"city":"Gwalior","state":"Madhya Pradesh","latitude":26.2183,"longitude":78.1828,"temp":31.4,"humidity":38,"rain":0.0,"pressure":983.3,"uv_index":6.4,"wind_gusts":38.9,"aqi":66,"pm10":36.1,"pm2_5":15.0,"mosquito_risk":0,"arthritis_risk":5,"migraine_risk":7,"frizz_risk":0,"updated_at":"2026-03-30T18:57:48.066312+05:30"},{"city":"Indore","state":"Madhya Pradesh","latitude":22.7196,"longitude":75.8577,"temp":30.4,"humidity":39,"rain":0.0,"pressure":948.2,"uv_index":8.15,"wind_gusts":24.1,"aqi":57,"pm10":21.8,"pm2_5":11.7,"mosquito_risk":0,"arthritis_risk":5,"migraine_risk":7,"frizz_risk":0,"updated_at":"2026-03-30T18:57:48.066318+05:30"},{"city":"Bhopal","state":"Madhya Pradesh","latitude":23.2599,"longitude":77.4126,"temp":31.6,"humidity":31,"rain":0.0,"pressure":953.3,"uv_index":8.2,"wind_gusts":29.2,"aqi":81,"pm10":18.7,"pm2_5":9.3,"mosquito_risk":0,"arthritis_risk":5,"migraine_risk":7,"frizz_risk":0,"updated_at":"2026-03-30T18:57:48.066324+05:30"},{"city":"Jabalpur","state":"Madhya Pradesh","latitude":23.1815,"longitude":79.9864,"temp":32.5,"humidity":30,"rain":0.0,"pressure":959.8,"uv_index":8.35,"wind_gusts":29.5,"aqi":59,"pm10":18.2,"pm2_5":11.9,"mosquito_risk":0,"arthritis_risk":5,"migraine_risk":7,"frizz_risk":0,"updated_at":"2026-03-30T18:57:48.066330+05:30"},{"city":"Ujjain","state":"Madhya Pradesh","latitude":23.1765,"longitude":75.7885,"temp":30.6,"humidity":38,"rain":0.0,"pressure":954.1,"uv_index":7.95,"wind_gusts":27.0,"aqi":49,"pm10":23.1,"pm2_5":11.1,"mosquito_risk":0,"arthritis_risk":5,"migraine_risk":7,"frizz_risk":0,"updated_at":"2026-03-30T18:57:48.066336+05:30"},{"city":"Visakhapatnam","state":"Andhra Pradesh","latitude":17.6868,"longitude":83.2185,"temp":28.0,"humidity":77,"rain":0.0,"pressure":1003.8,"uv_index":9.0,"wind_gusts":43.6,"aqi":61,"pm10":22.5,"pm2_5":17.5,"mosquito_risk":7,"arthritis_risk":5,"migraine_risk":4,"frizz_risk":1,"updated_at":"2026-03-30T18:57:48.066342+05:30"},{"city":"Vijayawada","state":"Andhra Pradesh","latitude":16.5062,"longitude":80.648,"temp":30.3,"humidity":57,"rain":0.0,"pressure":1001.8,"uv_index":9.05,"wind_gusts":32.0,"aqi":68,"pm10":23.1,"pm2_5":20.3,"mosquito_risk":0,"arthritis_risk":5,"migraine_risk":4,"frizz_risk":1,"updated_at":"2026-03-30T18:57:48.066348+05:30"},{"city":"Guntur","state":"Andhra Pradesh","latitude":16.3067,"longitude":80.4365,"temp":29.1,"humidity":66,"rain":0.0,"pressure":1003.0,"uv_index":9.1,"wind_gusts":34.2,"aqi":93,"pm10":26.7,"pm2_5":23.7,"mosquito_risk":7,"arthritis_risk":5,"migraine_risk":4,"frizz_risk":1,"updated_at":"2026-03-30T18:57:48.066354+05:30"},{"city":"Nellore","state":"Andhra Pradesh","latitude":14.4426,"longitude":79.9865,"temp":29.3,"humidity":72,"rain":0.0,"pressure":1004.8,"uv_index":9.2,"wind_gusts":32.4,"aqi":95,"pm10":16.5,"pm2_5":13.0,"mosquito_risk":7,"arthritis_risk":5,"migraine_risk":4,"frizz_risk":1,"updated_at":"2026-03-30T18:57:48.066361+05:30"},{"city":"Kurnool","state":"Andhra Pradesh","latitude":15.8281,"longitude":78.0373,"temp":35.5,"humidity":29,"rain":0.0,"pressure":975.0,"uv_index":9.1,"wind_gusts":24.5,"aqi":135,"pm10":41.9,"pm2_5":34.9,"mosquito_risk":0,"arthritis_risk":5,"migraine_risk":10,"frizz_risk":0,"updated_at":"2026-03-30T18:57:48.066368+05:30"},{"city":"Kakinada","state":"Andhra Pradesh","latitude":16.9891,"longitude":82.2475,"temp":28.8,"humidity":69,"rain":0.0,"pressure":1007.3,"uv_index":9.0,"wind_gusts":34.6,"aqi":51,"pm10":16.5,"pm2_5":11.4,"mosquito_risk":7,"arthritis_risk":5,"migraine_risk":4,"frizz_risk":1,"updated_at":"2026-03-30T18:57:48.066375+05:30"},{"city":"Tirupati","state":"Andhra Pradesh","latitude":13.6288,"longitude":79.4192,"temp":31.5,"humidity":45,"rain":0.0,"pressure":990.6,"uv_index":9.3,"wind_gusts":36.4,"aqi":115,"pm10":23.9,"pm2_5":22.0,"mosquito_risk":0,"arthritis_risk":5,"migraine_risk":7,"frizz_risk":1,"updated_at":"2026-03-30T18:57:48.066380+05:30"},{"city":"Warangal","state":"Telangana","latitude":17.9689,"longitude":79.5941,"temp":31.2,"humidity":56,"rain":0.0,"pressure":978.1,"uv_index":8.9,"wind_gusts":27.0,"aqi":134,"pm10":43.4,"pm2_5":38.3,"mosquito_risk":0,"arthritis_risk":5,"migraine_risk":7,"frizz_risk":1,"updated_at":"2026-03-30T18:57:48.066387+05:30"},{"city":"Nizamabad","state":"Telangana","latitude":18.6725,"longitude":78.0941,"temp":30.4,"humidity":53,"rain":0.0,"pressure":964.0,"uv_index":8.85,"wind_gusts":46.8,"aqi":96,"pm10":28.5,"pm2_5":24.2,"mosquito_risk":0,"arthritis_risk":5,"migraine_risk":7,"frizz_risk":1,"updated_at":"2026-03-30T18:57:48.066393+05:30"},{"city":"Mysore","state":"Karnataka","latitude":12.2958,"longitude":76.6396,"temp":28.2,"humidity":57,"rain":0.0,"pressure":927.9,"uv_index":8.75,"wind_gusts":23.8,"aqi":133,"pm10":26.8,"pm2_5":23.7,"mosquito_risk":4,"arthritis_risk":5,"migraine_risk":7,"frizz_risk":1,"updated_at":"2026-03-30T18:57:48.066398+05:30"},{"city":"Mangalore","state":"Karnataka","latitude":12.9141,"longitude":74.856,"temp":29.9,"humidity":77,"rain":0.0,"pressure":1005.4,"uv_index":2.45,"wind_gusts":23.4,"aqi":62,"pm10":18.1,"pm2_5":12.0,"mosquito_risk":7,"arthritis_risk":5,"migraine_risk":0,"frizz_risk":1,"updated_at":"2026-03-30T18:57:48.066404+05:30"},{"city":"Hubli-Dharwad","state":"Karnataka","latitude":15.3647,"longitude":75.124,"temp":28.6,"humidity":58,"rain":0.0,"pressure":940.5,"uv_index":8.1,"wind_gusts":30.6,"aqi":148,"pm10":14.9,"pm2_5":11.8,"mosquito_risk":4,"arthritis_risk":5,"migraine_risk":7,"frizz_risk":1,"updated_at":"2026-03-30T18:57:48.066411+05:30"},{"city":"Belgaum","state":"Karnataka","latitude":15.8497,"longitude":74.4977,"temp":26.4,"humidity":73,"rain":0.0,"pressure":925.2,"uv_index":9.1,"wind_gusts":31.7,"aqi":136,"pm10":18.2,"pm2_5":15.4,"mosquito_risk":7,"arthritis_risk":5,"migraine_risk":7,"frizz_risk":1,"updated_at":"2026-03-30T18:57:51.288996+05:30"},{"city":"Coimbatore","state":"Tamil Nadu","latitude":11.0168,"longitude":76.9558,"temp":28.3,"humidity":70,"rain":0.0,"pressure":960.5,"uv_index":9.45,"wind_gusts":36.4,"aqi":109,"pm10":28.6,"pm2_5":25.8,"mosquito_risk":7,"arthritis_risk":5,"migraine_risk":7,"frizz_risk":1,"updated_at":"2026-03-30T18:57:51.289030+05:30"},{"city":"Madurai","state":"Tamil Nadu","latitude":9.9252,"longitude":78.1198,"temp":34.0,"humidity":39,"rain":0.0,"pressure":991.0,"uv_index":9.4,"wind_gusts":36.0,"aqi":98,"pm10":16.8,"pm2_5":14.8,"mosquito_risk":0,"arthritis_risk":5,"migraine_risk":7,"frizz_risk":1,"updated_at":"2026-03-30T18:57:51.289041+05:30"},{"city":"Trichy","state":"Tamil Nadu","latitude":10.7905,"longitude":78.7047,"temp":32.8,"humidity":49,"rain":0.0,"pressure":998.1,"uv_index":9.35,"wind_gusts":25.6,"aqi":79,"pm10":13.8,"pm2_5":12.9,"mosquito_risk":0,"arthritis_risk":5,"migraine_risk":7,"frizz_risk":1,"updated_at":"2026-03-30T18:57:51.289049+05:30"},{"city":"Salem","state":"Tamil Nadu","latitude":11.6643,"longitude":78.146,"temp":34.1,"humidity":32,"rain":0.0,"pressure":975.7,"uv_index":9.45,"wind_gusts":27.0,"aqi":101,"pm10":18.1,"pm2_5":15.8,"mosquito_risk":0,"arthritis_risk":5,"migraine_risk":7,"frizz_risk":0,"updated_at":"2026-03-30T18:57:51.289057+05:30"},{"city":"Tirunelveli","state":"Tamil Nadu","latitude":8.7139,"longitude":77.7567,"temp":31.8,"humidity":55,"rain":0.0,"pressure":1001.4,"uv_index":9.35,"wind_gusts":52.2,"aqi":118,"pm10":21.9,"pm2_5":19.8,"mosquito_risk":0,"arthritis_risk":5,"migraine_risk":4,"frizz_risk":1,"updated_at":"2026-03-30T18:57:51.289064+05:30"},{"city":"Vellore","state":"Tamil Nadu","latitude":12.9165,"longitude":79.1325,"temp":31.0,"humidity":46,"rain":0.0,"pressure":983.7,"uv_index":9.35,"wind_gusts":33.5,"aqi":117,"pm10":29.0,"pm2_5":27.5,"mosquito_risk":0,"arthritis_risk":5,"migraine_risk":7,"frizz_risk":1,"updated_at":"2026-03-30T18:57:51.289071+05:30"},{"city":"Erode","state":"Tamil Nadu","latitude":11.341,"longitude":77.7172,"temp":35.1,"humidity":27,"rain":0.0,"pressure":986.8,"uv_index":9.4,"wind_gusts":25.2,"aqi":91,"pm10":18.1,"pm2_5":15.9,"mosquito_risk":0,"arthritis_risk":5,"migraine_risk":10,"frizz_risk":0,"updated_at":"2026-03-30T18:57:51.289079+05:30"},{"city":"Kochi","state":"Kerala","latitude":9.9312,"longitude":76.2673,"temp":29.6,"humidity":80,"rain":0.0,"pressure":1007.1,"uv_index":9.2,"wind_gusts":31.7,"aqi":152,"pm10":36.0,"pm2_5":32.0,"mosquito_risk":7,"arthritis_risk":5,"migraine_risk":4,"frizz_risk":1,"updated_at":"2026-03-30T18:57:51.289087+05:30"},{"city":"Thiruvananthapuram","state":"Kerala","latitude":8.5241,"longitude":76.9366,"temp":29.2,"humidity":81,"rain":0.0,"pressure":1006.6,"uv_index":9.2,"wind_gusts":33.1,"aqi":113,"pm10":27.6,"pm2_5":21.9,"mosquito_risk":7,"arthritis_risk":5,"migraine_risk":4,"frizz_risk":1,"updated_at":"2026-03-30T18:57:51.289094+05:30"},{"city":"Kozhikode","state":"Kerala","latitude":11.2588,"longitude":75.7804,"temp":29.8,"humidity":77,"rain":0.0,"pressure":1006.4,"uv_index":9.1,"wind_gusts":28.4,"aqi":113,"pm10":26.8,"pm2_5":18.0,"mosquito_risk":7,"arthritis_risk":5,"migraine_risk":4,"frizz_risk":1,"updated_at":"2026-03-30T18:57:51.289101+05:30"},{"city":"Thrissur","state":"Kerala","latitude":10.5276,"longitude":76.2144,"temp":29.8,"humidity":77,"rain":0.0,"pressure":1005.6,"uv_index":9.2,"wind_gusts":30.6,"aqi":130,"pm10":41.7,"pm2_5":37.6,"mosquito_risk":7,"arthritis_risk":5,"migraine_risk":4,"frizz_risk":1,"updated_at":"2026-03-30T18:57:51.289108+05:30"},{"city":"Kannur","state":"Kerala","latitude":11.8745,"longitude":75.3704,"temp":30.4,"humidity":71,"rain":0.0,"pressure":1005.7,"uv_index":8.15,"wind_gusts":24.8,"aqi":112,"pm10":30.4,"pm2_5":23.0,"mosquito_risk":3,"arthritis_risk":5,"migraine_risk":4,"frizz_risk":1,"updated_at":"2026-03-30T18:57:51.289115+05:30"},{"city":"Patna","state":"Bihar","latitude":25.5941,"longitude":85.1376,"temp":29.7,"humidity":60,"rain":0.0,"pressure":999.5,"uv_index":8.1,"wind_gusts":30.6,"aqi":163,"pm10":79.6,"pm2_5":57.0,"mosquito_risk":4,"arthritis_risk":5,"migraine_risk":7,"frizz_risk":1,"updated_at":"2026-03-30T18:57:51.289122+05:30"},{"city":"Gaya","state":"Bihar","latitude":24.7914,"longitude":85.0002,"temp":29.2,"humidity":65,"rain":0.0,"pressure":992.8,"uv_index":8.2,"wind_gusts":23.4,"aqi":105,"pm10":41.2,"pm2_5":26.0,"mosquito_risk":7,"arthritis_risk":5,"migraine_risk":7,"frizz_risk":1,"updated_at":"2026-03-30T18:57:51.289129+05:30"},{"city":"Muzaffarpur","state":"Bihar","latitude":26.1209,"longitude":85.3647,"temp":27.8,"humidity":65,"rain":0.0,"pressure":999.5,"uv_index":8.05,"wind_gusts":29.2,"aqi":172,"pm10":95.5,"pm2_5":71.7,"mosquito_risk":7,"arthritis_risk":5,"migraine_risk":7,"frizz_risk":1,"updated_at":"2026-03-30T18:57:51.289135+05:30"},{"city":"Bhagalpur","state":"Bihar","latitude":25.2425,"longitude":87.0117,"temp":26.2,"humidity":80,"rain":0.0,"pressure":1000.7,"uv_index":8.1,"wind_gusts":19.4,"aqi":181,"pm10":77.1,"pm2_5":65.0,"mosquito_risk":7,"arthritis_risk":5,"migraine_risk":4,"frizz_risk":1,"updated_at":"2026-03-30T18:57:51.289141+05:30"},{"city":"Ranchi","state":"Jharkhand","latitude":23.3441,"longitude":85.3096,"temp":26.6,"humidity":69,"rain":0.0,"pressure":937.3,"uv_index":8.75,"wind_gusts":27.0,"aqi":167,"pm10":34.2,"pm2_5":26.5,"mosquito_risk":7,"arthritis_risk":5,"migraine_risk":7,"frizz_risk":1,"updated_at":"2026-03-30T18:57:51.289147+05:30"},{"city":"Jamshedpur","state":"Jharkhand","latitude":22.8046,"longitude":86.2029,"temp":27.9,"humidity":75,"rain":0.0,"pressure":990.1,"uv_index":8.6,"wind_gusts":27.7,"aqi":179,"pm10":41.0,"pm2_5":34.1,"mosquito_risk":7,"arthritis_risk":5,"migraine_risk":7,"frizz_risk":1,"updated_at":"2026-03-30T18:57:51.289153+05:30"},{"city":"Dhanbad","state":"Jharkhand","latitude":23.7957,"longitude":86.4304,"temp":28.4,"humidity":70,"rain":0.0,"pressure":979.2,"uv_index":8.5,"wind_gusts":29.5,"aqi":171,"pm10":93.6,"pm2_5":80.3,"mosquito_risk":7,"arthritis_risk":5,"migraine_risk":7,"frizz_risk":1,"updated_at":"2026-03-30T18:57:51.289159+05:30"},{"city":"Bokaro","state":"Jharkhand","latitude":23.6693,"longitude":86.1511,"temp":28.4,"humidity":63,"rain":0.0,"pressure":983.4,"uv_index":8.55,"wind_gusts":30.6,"aqi":163,"pm10":78.5,"pm2_5":65.2,"mosquito_risk":7,"arthritis_risk":5,"migraine_risk":7,"frizz_risk":1,"updated_at":"2026-03-30T18:57:51.289165+05:30"},{"city":"Bhubaneswar","state":"Odisha","latitude":20.2961,"longitude":85.8245,"temp":28.1,"humidity":79,"rain":0.0,"pressure":1002.1,"uv_index":8.8,"wind_gusts":38.9,"aqi":67,"pm10":20.4,"pm2_5":17.6,"mosquito_risk":7,"arthritis_risk":5,"migraine_risk":4,"frizz_risk":1,"updated_at":"2026-03-30T18:57:51.289171+05:30"},{"city":"Cuttack","state":"Odisha","latitude":20.4625,"longitude":85.8828,"temp":29.1,"humidity":75,"rain":0.0,"pressure":1003.9,"uv_index":8.85,"wind_gusts":32.8,"aqi":67,"pm10":20.4,"pm2_5":17.6,"mosquito_risk":7,"arthritis_risk":5,"migraine_risk":4,"frizz_risk":1,"updated_at":"2026-03-30T18:57:51.289177+05:30"},{"city":"Rourkela","state":"Odisha","latitude":22.2604,"longitude":84.8536,"temp":27.4,"humidity":74,"rain":0.0,"pressure":984.3,"uv_index":8.5,"wind_gusts":52.6,"aqi":177,"pm10":39.5,"pm2_5":30.9,"mosquito_risk":7,"arthritis_risk":5,"migraine_risk":7,"frizz_risk":1,"updated_at":"2026-03-30T18:57:51.289183+05:30"},{"city":"Raipur","state":"Chhattisgarh","latitude":21.2514,"longitude":81.6296,"temp":33.4,"humidity":39,"rain":0.0,"pressure":972.9,"uv_index":8.65,"wind_gusts":32.8,"aqi":99,"pm10":40.5,"pm2_5":30.6,"mosquito_risk":0,"arthritis_risk":5,"migraine_risk":7,"frizz_risk":1,"updated_at":"2026-03-30T18:57:51.289189+05:30"},{"city":"Bhilai","state":"Chhattisgarh","latitude":21.1938,"longitude":81.3509,"temp":32.6,"humidity":43,"rain":0.0,"pressure":973.2,"uv_index":8.65,"wind_gusts":31.3,"aqi":74,"pm10":33.4,"pm2_5":23.3,"mosquito_risk":0,"arthritis_risk":5,"migraine_risk":7,"frizz_risk":1,"updated_at":"2026-03-30T18:57:51.289195+05:30"},{"city":"Guwahati","state":"Assam","latitude":26.1158,"longitude":91.7086,"temp":23.9,"humidity":86,"rain":0.0,"pressure":1002.9,"uv_index":7.15,"wind_gusts":27.7,"aqi":97,"pm10":52.0,"pm2_5":43.1,"mosquito_risk":3,"arthritis_risk":5,"migraine_risk":4,"frizz_risk":1,"updated_at":"2026-03-30T18:57:51.289201+05:30"},{"city":"Agartala","state":"Tripura","latitude":23.8315,"longitude":91.2868,"temp":25.5,"humidity":82,"rain":0.0,"pressure":1007.3,"uv_index":8.3,"wind_gusts":29.9,"aqi":123,"pm10":51.7,"pm2_5":46.1,"mosquito_risk":7,"arthritis_risk":5,"migraine_risk":4,"frizz_risk":1,"updated_at":"2026-03-30T18:57:51.289207+05:30"},{"city":"Shillong","state":"Meghalaya","latitude":25.5788,"longitude":91.8933,"temp":14.1,"humidity":89,"rain":0.0,"pressure":856.0,"uv_index":6.25,"wind_gusts":42.1,"aqi":99,"pm10":37.3,"pm2_5":31.8,"mosquito_risk":3,"arthritis_risk":10,"migraine_risk":7,"frizz_risk":0,"updated_at":"2026-03-30T18:57:51.289214+05:30"},{"city":"Imphal","state":"Manipur","latitude":24.817,"longitude":93.9368,"temp":18.4,"humidity":82,"rain":0.0,"pressure":923.9,"uv_index":7.75,"wind_gusts":58.7,"aqi":152,"pm10":44.4,"pm2_5":39.1,"mosquito_risk":3,"arthritis_risk":10,"migraine_risk":7,"frizz_risk":0,"updated_at":"2026-03-30T18:57:51.289220+05:30"},{"city":"Aizawl","state":"Mizoram","latitude":23.7271,"longitude":92.7176,"temp":19.7,"humidity":85,"rain":0.0,"pressure":893.4,"uv_index":8.45,"wind_gusts":50.8,"aqi":128,"pm10":43.7,"pm2_5":35.3,"mosquito_risk":3,"arthritis_risk":10,"migraine_risk":7,"frizz_risk":1,"updated_at":"2026-03-30T18:57:51.289226+05:30"},{"city":"Kohima","state":"Nagaland","latitude":25.6701,"longitude":94.1077,"temp":14.4,"humidity":97,"rain":0.0,"pressure":855.1,"uv_index":8.45,"wind_gusts":77.8,"aqi":128,"pm10":45.6,"pm2_5":33.5,"mosquito_risk":3,"arthritis_risk":10,"migraine_risk":7,"frizz_risk":0,"updated_at":"2026-03-30T18:57:51.289232+05:30"},{"city":"Gangtok","state":"Sikkim","latitude":27.3314,"longitude":88.6138,"temp":15.3,"humidity":88,"rain":0.0,"pressure":836.8,"uv_index":7.6,"wind_gusts":21.2,"aqi":94,"pm10":41.6,"pm2_5":32.8,"mosquito_risk":3,"arthritis_risk":10,"migraine_risk":7,"frizz_risk":0,"updated_at":"2026-03-30T18:57:51.289238+05:30"},{"city":"Siliguri","state":"West Bengal","latitude":26.7271,"longitude":88.3953,"temp":20.4,"humidity":83,"rain":0.0,"pressure":994.5,"uv_index":7.45,"wind_gusts":14.8,"aqi":155,"pm10":76.6,"pm2_5":57.7,"mosquito_risk":3,"arthritis_risk":5,"migraine_risk":7,"frizz_risk":1,"updated_at":"2026-03-30T18:57:54.511119+05:30"},{"city":"Durgapur","state":"West Bengal","latitude":23.5204,"longitude":87.3119,"temp":27.2,"humidity":81,"rain":0.0,"pressure":995.2,"uv_index":8.5,"wind_gusts":25.2,"aqi":160,"pm10":68.2,"pm2_5":62.6,"mosquito_risk":7,"arthritis_risk":5,"migraine_risk":7,"frizz_risk":1,"updated_at":"2026-03-30T18:57:54.511154+05:30"},{"city":"Asansol","state":"West Bengal","latitude":23.6739,"longitude":86.9524,"temp":27.1,"humidity":76,"rain":0.0,"pressure":993.5,"uv_index":8.5,"wind_gusts":28.4,"aqi":160,"pm10":78.7,"pm2_5":68.5,"mosquito_risk":7,"arthritis_risk":5,"migraine_risk":7,"frizz_risk":1,"updated_at":"2026-03-30T18:57:54.511164+05:30"},{"city":"Pondicherry","state":"Puducherry","latitude":11.9139,"longitude":79.8145,"temp":28.4,"humidity":75,"rain":0.0,"pressure":1007.7,"uv_index":9.25,"wind_gusts":27.7,"aqi":50,"pm10":12.7,"pm2_5":8.5,"mosquito_risk":7,"arthritis_risk":5,"migraine_risk":4,"frizz_risk":1,"updated_at":"2026-03-30T18:57:54.511171+05:30"},{"city":"Port Blair","state":"Andaman and Nicobar Islands","latitude":11.6234,"longitude":92.7265,"temp":29.3,"humidity":70,"rain":0.0,"pressure":1007.6,"uv_index":9.2,"wind_gusts":15.1,"aqi":64,"pm10":13.6,"pm2_5":10.3,"mosquito_risk":7,"arthritis_risk":5,"migraine_risk":4,"frizz_risk":1,"updated_at":"2026-03-30T18:57:54.511179+05:30"},{"city":"Haridwar","state":"Uttarakhand","latitude":29.9457,"longitude":78.1642,"temp":27.2,"humidity":63,"rain":0.0,"pressure":975.1,"uv_index":5.65,"wind_gusts":21.2,"aqi":102,"pm10":216.5,"pm2_5":53.6,"mosquito_risk":7,"arthritis_risk":5,"migraine_risk":3,"frizz_risk":1,"updated_at":"2026-03-30T18:57:54.511187+05:30"},{"city":"Rishikesh","state":"Uttarakhand","latitude":30.0869,"longitude":78.2676,"temp":26.1,"humidity":65,"rain":0.0,"pressure":967.9,"uv_index":5.55,"wind_gusts":24.8,"aqi":88,"pm10":90.1,"pm2_5":26.7,"mosquito_risk":7,"arthritis_risk":5,"migraine_risk":3,"frizz_risk":1,"updated_at":"2026-03-30T18:57:54.511194+05:30"},{"city":"Nainital","state":"Uttarakhand","latitude":29.3919,"longitude":79.4542,"temp":20.8,"humidity":58,"rain":0.0,"pressure":807.3,"uv_index":7.25,"wind_gusts":47.9,"aqi":105,"pm10":71.5,"pm2_5":27.1,"mosquito_risk":0,"arthritis_risk":5,"migraine_risk":7,"frizz_risk":0,"updated_at":"2026-03-30T18:57:54.511202+05:30"},{"city":"Mussoorie","state":"Uttarakhand","latitude":30.4599,"longitude":78.0664,"temp":18.2,"humidity":72,"rain":0.0,"pressure":804.1,"uv_index":6.2,"wind_gusts":34.2,"aqi":85,"pm10":132.2,"pm2_5":35.0,"mosquito_risk":3,"arthritis_risk":5,"migraine_risk":7,"frizz_risk":0,"updated_at":"2026-03-30T18:57:54.511210+05:30"},{"city":"Dharamshala","state":"Himachal Pradesh","latitude":32.219,"longitude":76.3234,"temp":20.0,"humidity":69,"rain":0.0,"pressure":869.9,"uv_index":5.9,"wind_gusts":30.2,"aqi":48,"pm10":25.7,"pm2_5":8.8,"mosquito_risk":3,"arthritis_risk":5,"migraine_risk":3,"frizz_risk":0,"updated_at":"2026-03-30T18:57:54.511216+05:30"},{"city":"Dalhousie","state":"Himachal Pradesh","latitude":32.5387,"longitude":75.971,"temp":14.8,"humidity":71,"rain":0.0,"pressure":803.2,"uv_index":5.85,"wind_gusts":45.0,"aqi":63,"pm10":53.9,"pm2_5":18.5,"mosquito_risk":3,"arthritis_risk":5,"migraine_risk":3,"frizz_risk":0,"updated_at":"2026-03-30T18:57:54.511224+05:30"},{"city":"Patiala","state":"Punjab","latitude":30.3398,"longitude":76.3869,"temp":25.3,"humidity":71,"rain":0.0,"pressure":978.8,"uv_index":5.6,"wind_gusts":25.6,"aqi":325,"pm10":767.4,"pm2_5":110.4,"mosquito_risk":7,"arthritis_risk":5,"migraine_risk":3,"frizz_risk":1,"updated_at":"2026-03-30T18:57:54.511232+05:30"},{"city":"Bhatinda","state":"Punjab","latitude":30.211,"longitude":74.9455,"temp":26.9,"humidity":61,"rain":0.0,"pressure":984.1,"uv_index":4.15,"wind_gusts":38.9,"aqi":198,"pm10":44.5,"pm2_5":18.9,"mosquito_risk":7,"arthritis_risk":5,"migraine_risk":3,"frizz_risk":1,"updated_at":"2026-03-30T18:57:54.511238+05:30"},{"city":"Rohtak","state":"Haryana","latitude":28.8955,"longitude":76.6066,"temp":25.8,"humidity":57,"rain":0.0,"pressure":982.2,"uv_index":6.55,"wind_gusts":34.2,"aqi":475,"pm10":320.4,"pm2_5":57.0,"mosquito_risk":4,"arthritis_risk":5,"migraine_risk":7,"frizz_risk":1,"updated_at":"2026-03-30T18:57:54.511245+05:30"},{"city":"Panipat","state":"Haryana","latitude":29.3909,"longitude":76.9635,"temp":25.6,"humidity":58,"rain":0.0,"pressure":981.0,"uv_index":6.6,"wind_gusts":25.9,"aqi":720,"pm10":689.2,"pm2_5":98.7,"mosquito_risk":4,"arthritis_risk":5,"migraine_risk":7,"frizz_risk":1,"updated_at":"2026-03-30T18:57:54.511251+05:30"},{"city":"Mathura","state":"Uttar Pradesh","latitude":27.4924,"longitude":77.6737,"temp":28.9,"humidity":43,"rain":0.0,"pressure":987.4,"uv_index":6.6,"wind_gusts":39.6,"aqi":470,"pm10":666.8,"pm2_5":93.4,"mosquito_risk":4,"arthritis_risk":5,"migraine_risk":7,"frizz_risk":0,"updated_at":"2026-03-30T18:57:54.511259+05:30"},{"city":"Vrindavan","state":"Uttar Pradesh","latitude":27.5823,"longitude":77.7027,"temp":28.2,"humidity":45,"rain":0.0,"pressure":987.9,"uv_index":6.65,"wind_gusts":40.0,"aqi":470,"pm10":666.8,"pm2_5":93.4,"mosquito_risk":4,"arthritis_risk":5,"migraine_risk":7,"frizz_risk":0,"updated_at":"2026-03-30T18:57:54.511265+05:30"},{"city":"Ayodhya","state":"Uttar Pradesh","latitude":26.7922,"longitude":82.1998,"temp":30.9,"humidity":47,"rain":0.0,"pressure":993.8,"uv_index":7.45,"wind_gusts":25.2,"aqi":146,"pm10":68.0,"pm2_5":29.7,"mosquito_risk":0,"arthritis_risk":5,"migraine_risk":7,"frizz_risk":1,"updated_at":"2026-03-30T18:57:54.511272+05:30"},{"city":"Ratlam","state":"Madhya Pradesh","latitude":23.3315,"longitude":75.0367,"temp":28.6,"humidity":51,"rain":0.0,"pressure":954.9,"uv_index":7.95,"wind_gusts":38.2,"aqi":48,"pm10":24.1,"pm2_5":10.6,"mosquito_risk":4,"arthritis_risk":5,"migraine_risk":7,"frizz_risk":1,"updated_at":"2026-03-30T18:57:54.511278+05:30"},{"city":"Sagar","state":"Madhya Pradesh","latitude":23.8388,"longitude":78.7378,"temp":32.2,"humidity":31,"rain":0.0,"pressure":949.6,"uv_index":8.2,"wind_gusts":32.8,"aqi":68,"pm10":24.6,"pm2_5":7.6,"mosquito_risk":0,"arthritis_risk":5,"migraine_risk":7,"frizz_risk":0,"updated_at":"2026-03-30T18:57:54.511285+05:30"},{"city":"Satna","state":"Madhya Pradesh","latitude":24.6005,"longitude":80.8322,"temp":31.4,"humidity":38,"rain":0.0,"pressure":971.2,"uv_index":8.2,"wind_gusts":55.8,"aqi":102,"pm10":17.1,"pm2_5":9.5,"mosquito_risk":0,"arthritis_risk":5,"migraine_risk":7,"frizz_risk":0,"updated_at":"2026-03-30T18:57:54.511291+05:30"},{"city":"Akola","state":"Maharashtra","latitude":20.7002,"longitude":77.0082,"temp":33.2,"humidity":35,"rain":0.0,"pressure":974.4,"uv_index":8.55,"wind_gusts":38.5,"aqi":74,"pm10":20.0,"pm2_5":13.5,"mosquito_risk":0,"arthritis_risk":5,"migraine_risk":7,"frizz_risk":0,"updated_at":"2026-03-30T18:57:54.511298+05:30"},{"city":"Amravati","state":"Maharashtra","latitude":20.9374,"longitude":77.7796,"temp":33.8,"humidity":30,"rain":0.0,"pressure":966.5,"uv_index":8.5,"wind_gusts":27.7,"aqi":74,"pm10":19.3,"pm2_5":12.5,"mosquito_risk":0,"arthritis_risk":5,"migraine_risk":7,"frizz_risk":0,"updated_at":"2026-03-30T18:57:54.511305+05:30"},{"city":"Latur","state":"Maharashtra","latitude":18.4088,"longitude":76.5604,"temp":31.3,"humidity":35,"rain":0.0,"pressure":939.1,"uv_index":8.0,"wind_gusts":36.7,"aqi":100,"pm10":31.4,"pm2_5":27.0,"mosquito_risk":0,"arthritis_risk":5,"migraine_risk":7,"frizz_risk":0,"updated_at":"2026-03-30T18:57:54.511312+05:30"},{"city":"Nanded","state":"Maharashtra","latitude":19.1383,"longitude":77.3091,"temp":33.2,"humidity":41,"rain":0.0,"pressure":967.2,"uv_index":8.7,"wind_gusts":49.0,"aqi":88,"pm10":20.8,"pm2_5":14.9,"mosquito_risk":0,"arthritis_risk":5,"migraine_risk":7,"frizz_risk":1,"updated_at":"2026-03-30T18:57:54.511318+05:30"},{"city":"Gulbarga","state":"Karnataka","latitude":17.3297,"longitude":76.8343,"temp":33.8,"humidity":29,"rain":0.0,"pressure":957.3,"uv_index":8.05,"wind_gusts":38.9,"aqi":150,"pm10":57.0,"pm2_5":48.5,"mosquito_risk":0,"arthritis_risk":5,"migraine_risk":7,"frizz_risk":0,"updated_at":"2026-03-30T18:57:54.511323+05:30"},{"city":"Bidar","state":"Karnataka","latitude":17.9104,"longitude":77.5199,"temp":28.3,"humidity":56,"rain":0.0,"pressure":934.9,"uv_index":8.9,"wind_gusts":42.8,"aqi":145,"pm10":43.1,"pm2_5":38.3,"mosquito_risk":4,"arthritis_risk":5,"migraine_risk":7,"frizz_risk":1,"updated_at":"2026-03-30T18:57:54.511330+05:30"},{"city":"Hospet","state":"Karnataka","latitude":15.2689,"longitude":76.3909,"temp":31.3,"humidity":51,"rain":0.0,"pressure":954.6,"uv_index":8.95,"wind_gusts":23.8,"aqi":145,"pm10":56.8,"pm2_5":48.7,"mosquito_risk":0,"arthritis_risk":5,"migraine_risk":7,"frizz_risk":1,"updated_at":"2026-03-30T18:57:54.511336+05:30"},{"city":"Tirupur","state":"Tamil Nadu","latitude":11.1085,"longitude":77.3411,"temp":34.2,"humidity":29,"rain":0.0,"pressure":973.3,"uv_index":9.45,"wind_gusts":27.7,"aqi":111,"pm10":21.2,"pm2_5":18.6,"mosquito_risk":0,"arthritis_risk":5,"migraine_risk":7,"frizz_risk":0,"updated_at":"2026-03-30T18:57:54.511341+05:30"},{"city":"Alappuzha","state":"Kerala","latitude":9.4981,"longitude":76.3388,"temp":29.8,"humidity":77,"rain":0.0,"pressure":1007.0,"uv_index":9.2,"wind_gusts":27.4,"aqi":139,"pm10":31.7,"pm2_5":27.1,"mosquito_risk":7,"arthritis_risk":5,"migraine_risk":4,"frizz_risk":1,"updated_at":"2026-03-30T18:57:54.511347+05:30"},{"city":"Munnar","state":"Kerala","latitude":10.0889,"longitude":77.0595,"temp":23.9,"humidity":85,"rain":0.0,"pressure":856.7,"uv_index":8.7,"wind_gusts":31.7,"aqi":86,"pm10":25.1,"pm2_5":22.7,"mosquito_risk":3,"arthritis_risk":5,"migraine_risk":7,"frizz_risk":1,"updated_at":"2026-03-30T18:57:54.511354+05:30"},{"city":"Silchar","state":"Assam","latitude":24.8333,"longitude":92.7789,"temp":25.9,"humidity":79,"rain":0.0,"pressure":1005.8,"uv_index":8.3,"wind_gusts":25.9,"aqi":152,"pm10":44.8,"pm2_5":38.0,"mosquito_risk":7,"arthritis_risk":5,"migraine_risk":4,"frizz_risk":1,"updated_at":"2026-03-30T18:57:54.511360+05:30"},{"city":"Dibrugarh","state":"Assam","latitude":27.4728,"longitude":94.912,"temp":24.1,"humidity":72,"rain":0.0,"pressure":997.9,"uv_index":5.55,"wind_gusts":10.1,"aqi":97,"pm10":37.7,"pm2_5":32.2,"mosquito_risk":3,"arthritis_risk":5,"migraine_risk":3,"frizz_risk":1,"updated_at":"2026-03-30T18:57:54.511366+05:30"}]