[{"city":"Delhi","state":"Delhi","latitude":28.6139,"longitude":77.209,"temp":31.7,"humidity":47,"rain":0.0,"pressure":978.3,"uv_index":7.8,"wind_gusts":52.9,"aqi":185,"pm10":472.2,"pm2_5":129.5,"no2":46.1,"co":312.0,"o3":41.0,"so2":22.2,"mosquito_risk":0,"arthritis_risk":5,"migraine_risk":7,"frizz_risk":1,"updated_at":"2026-06-19T03:42:16.642818+05:30"},{"city":"Mumbai","state":"Maharashtra","latitude":19.076,"longitude":72.8777,"temp":29.7,"humidity":65,"rain":0.0,"pressure":1007.2,"uv_index":7.7,"wind_gusts":45.0,"aqi":63,"pm10":26.2,"pm2_5":13.9,"no2":6.9,"co":117.0,"o3":43.0,"so2":7.1,"mosquito_risk":7,"arthritis_risk":5,"migraine_risk":4,"frizz_risk":1,"updated_at":"2026-06-19T03:42:16.642853+05:30"},{"city":"Bangalore","state":"Karnataka","latitude":12.9716,"longitude":77.5946,"temp":21.0,"humidity":93,"rain":0.0,"pressure":910.6,"uv_index":7.9,"wind_gusts":33.8,"aqi":52,"pm10":14.8,"pm2_5":10.4,"no2":13.6,"co":320.0,"o3":52.0,"so2":5.0,"mosquito_risk":3,"arthritis_risk":5,"migraine_risk":7,"frizz_risk":1,"updated_at":"2026-06-19T03:42:16.642869+05:30"},{"city":"Hyderabad","state":"Telangana","latitude":17.385,"longitude":78.4867,"temp":28.4,"humidity":56,"rain":0.1,"pressure":951.3,"uv_index":8.4,"wind_gusts":36.0,"aqi":78,"pm10":30.3,"pm2_5":22.1,"no2":12.3,"co":241.0,"o3":72.0,"so2":5.6,"mosquito_risk":7,"arthritis_risk":5,"migraine_risk":7,"frizz_risk":1,"updated_at":"2026-06-19T03:42:16.642878+05:30"},{"city":"Chennai","state":"Tamil Nadu","latitude":13.0827,"longitude":80.2707,"temp":26.8,"humidity":85,"rain":0.0,"pressure":1005.0,"uv_index":8.4,"wind_gusts":32.4,"aqi":76,"pm10":17.8,"pm2_5":14.1,"no2":13.6,"co":314.0,"o3":62.0,"so2":8.5,"mosquito_risk":7,"arthritis_risk":5,"migraine_risk":4,"frizz_risk":1,"updated_at":"2026-06-19T03:42:16.642887+05:30"},{"city":"Kolkata","state":"West Bengal","latitude":22.5726,"longitude":88.3639,"temp":28.6,"humidity":94,"rain":0.0,"pressure":1002.1,"uv_index":9.0,"wind_gusts":35.3,"aqi":127,"pm10":45.5,"pm2_5":39.1,"no2":9.8,"co":330.0,"o3":94.0,"so2":8.7,"mosquito_risk":7,"arthritis_risk":5,"migraine_risk":4,"frizz_risk":1,"updated_at":"2026-06-19T03:42:16.642914+05:30"},{"city":"Pune","state":"Maharashtra","latitude":18.5204,"longitude":73.8567,"temp":23.3,"humidity":84,"rain":0.0,"pressure":947.2,"uv_index":8.35,"wind_gusts":42.8,"aqi":54,"pm10":24.1,"pm2_5":15.0,"no2":9.1,"co":134.0,"o3":35.0,"so2":7.5,"mosquito_risk":3,"arthritis_risk":5,"migraine_risk":7,"frizz_risk":1,"updated_at":"2026-06-19T03:42:16.642924+05:30"},{"city":"Ahmedabad","state":"Gujarat","latitude":23.0225,"longitude":72.5714,"temp":26.6,"humidity":90,"rain":0.0,"pressure":999.4,"uv_index":7.9,"wind_gusts":44.6,"aqi":63,"pm10":23.2,"pm2_5":13.2,"no2":6.4,"co":149.0,"o3":40.0,"so2":4.3,"mosquito_risk":7,"arthritis_risk":5,"migraine_risk":7,"frizz_risk":1,"updated_at":"2026-06-19T03:42:16.642931+05:30"},{"city":"Jaipur","state":"Rajasthan","latitude":26.9124,"longitude":75.7873,"temp":28.0,"humidity":63,"rain":0.0,"pressure":956.0,"uv_index":8.25,"wind_gusts":31.0,"aqi":119,"pm10":73.3,"pm2_5":29.5,"no2":10.1,"co":188.0,"o3":43.0,"so2":4.9,"mosquito_risk":7,"arthritis_risk":5,"migraine_risk":7,"frizz_risk":1,"updated_at":"2026-06-19T03:42:16.642937+05:30"},{"city":"Lucknow","state":"Uttar Pradesh","latitude":26.8467,"longitude":80.9462,"temp":30.8,"humidity":59,"rain":0.0,"pressure":988.0,"uv_index":8.35,"wind_gusts":34.6,"aqi":157,"pm10":261.7,"pm2_5":89.2,"no2":48.4,"co":469.0,"o3":27.0,"so2":13.6,"mosquito_risk":0,"arthritis_risk":5,"migraine_risk":7,"frizz_risk":1,"updated_at":"2026-06-19T03:42:16.642947+05:30"},{"city":"Kanpur","state":"Uttar Pradesh","latitude":26.4499,"longitude":80.3319,"temp":32.8,"humidity":44,"rain":0.0,"pressure":986.5,"uv_index":8.3,"wind_gusts":36.0,"aqi":157,"pm10":250.5,"pm2_5":83.4,"no2":49.3,"co":285.0,"o3":19.0,"so2":12.3,"mosquito_risk":0,"arthritis_risk":5,"migraine_risk":7,"frizz_risk":1,"updated_at":"2026-06-19T03:42:16.642955+05:30"},{"city":"Chandigarh","state":"Chandigarh","latitude":30.7333,"longitude":76.7794,"temp":25.0,"humidity":79,"rain":0.0,"pressure":963.4,"uv_index":7.8,"wind_gusts":42.8,"aqi":131,"pm10":64.3,"pm2_5":57.0,"no2":43.0,"co":487.0,"o3":16.0,"so2":4.6,"mosquito_risk":7,"arthritis_risk":5,"migraine_risk":7,"frizz_risk":1,"updated_at":"2026-06-19T03:42:16.642961+05:30"},{"city":"Srinagar","state":"Jammu and Kashmir","latitude":34.0837,"longitude":74.7973,"temp":14.5,"humidity":98,"rain":0.0,"pressure":839.5,"uv_index":8.55,"wind_gusts":30.2,"aqi":75,"pm10":26.1,"pm2_5":25.6,"no2":23.4,"co":632.0,"o3":12.0,"so2":0.0,"mosquito_risk":3,"arthritis_risk":10,"migraine_risk":7,"frizz_risk":0,"updated_at":"2026-06-19T03:42:16.642970+05:30"},{"city":"Jammu","state":"Jammu and Kashmir","latitude":32.7266,"longitude":74.857,"temp":26.4,"humidity":61,"rain":0.0,"pressure":967.5,"uv_index":8.45,"wind_gusts":58.3,"aqi":85,"pm10":51.6,"pm2_5":46.1,"no2":51.4,"co":427.0,"o3":15.0,"so2":4.6,"mosquito_risk":7,"arthritis_risk":5,"migraine_risk":7,"frizz_risk":1,"updated_at":"2026-06-19T03:42:16.642977+05:30"},{"city":"Amritsar","state":"Punjab","latitude":31.634,"longitude":74.8723,"temp":27.5,"humidity":68,"rain":0.0,"pressure":975.6,"uv_index":8.5,"wind_gusts":60.5,"aqi":148,"pm10":46.3,"pm2_5":36.4,"no2":13.4,"co":419.0,"o3":73.0,"so2":5.7,"mosquito_risk":7,"arthritis_risk":5,"migraine_risk":7,"frizz_risk":1,"updated_at":"2026-06-19T03:42:16.642982+05:30"},{"city":"Ludhiana","state":"Punjab","latitude":30.901,"longitude":75.8573,"temp":27.9,"humidity":65,"rain":0.0,"pressure":973.7,"uv_index":8.05,"wind_gusts":79.2,"aqi":148,"pm10":63.8,"pm2_5":60.3,"no2":33.1,"co":742.0,"o3":44.0,"so2":9.1,"mosquito_risk":7,"arthritis_risk":5,"migraine_risk":7,"frizz_risk":1,"updated_at":"2026-06-19T03:42:16.642988+05:30"},{"city":"Jalandhar","state":"Punjab","latitude":31.326,"longitude":75.5762,"temp":27.9,"humidity":74,"rain":0.0,"pressure":974.6,"uv_index":8.25,"wind_gusts":74.2,"aqi":150,"pm10":85.4,"pm2_5":68.0,"no2":34.8,"co":586.0,"o3":45.0,"so2":10.9,"mosquito_risk":7,"arthritis_risk":5,"migraine_risk":7,"frizz_risk":1,"updated_at":"2026-06-19T03:42:16.642994+05:30"},{"city":"Dehradun","state":"Uttarakhand","latitude":30.6284,"longitude":78.0322,"temp":15.3,"humidity":97,"rain":0.0,"pressure":826.8,"uv_index":7.7,"wind_gusts":34.2,"aqi":65,"pm10":20.4,"pm2_5":15.1,"no2":20.3,"co":230.0,"o3":29.0,"so2":0.0,"mosquito_risk":3,"arthritis_risk":10,"migraine_risk":7,"frizz_risk":0,"updated_at":"2026-06-19T03:42:16.643000+05:30"},{"city":"Shimla","state":"Himachal Pradesh","latitude":31.1048,"longitude":77.1734,"temp":13.7,"humidity":79,"rain":0.0,"pressure":781.1,"uv_index":7.75,"wind_gusts":40.0,"aqi":83,"pm10":46.9,"pm2_5":25.7,"no2":10.7,"co":271.0,"o3":73.0,"so2":0.0,"mosquito_risk":3,"arthritis_risk":5,"migraine_risk":7,"frizz_risk":0,"updated_at":"2026-06-19T03:42:16.643006+05:30"},{"city":"Manali","state":"Himachal Pradesh","latitude":32.2396,"longitude":77.1887,"temp":11.5,"humidity":88,"rain":0.0,"pressure":813.4,"uv_index":9.2,"wind_gusts":39.6,"aqi":37,"pm10":2.1,"pm2_5":2.1,"no2":15.7,"co":176.0,"o3":100.0,"so2":0.0,"mosquito_risk":3,"arthritis_risk":10,"migraine_risk":7,"frizz_risk":0,"updated_at":"2026-06-19T03:42:16.643014+05:30"},{"city":"Gurgaon","state":"Haryana","latitude":28.4595,"longitude":77.0266,"temp":29.2,"humidity":57,"rain":0.0,"pressure":976.7,"uv_index":7.9,"wind_gusts":48.6,"aqi":239,"pm10":455.4,"pm2_5":122.0,"no2":65.4,"co":290.0,"o3":23.0,"so2":31.4,"mosquito_risk":4,"arthritis_risk":5,"migraine_risk":7,"frizz_risk":1,"updated_at":"2026-06-19T03:42:16.643020+05:30"},{"city":"Noida","state":"Uttar Pradesh","latitude":28.5355,"longitude":77.391,"temp":30.5,"humidity":56,"rain":0.0,"pressure":979.6,"uv_index":7.85,"wind_gusts":33.8,"aqi":239,"pm10":455.4,"pm2_5":122.0,"no2":65.4,"co":379.0,"o3":23.0,"so2":31.4,"mosquito_risk":0,"arthritis_risk":5,"migraine_risk":7,"frizz_risk":1,"updated_at":"2026-06-19T03:42:16.643026+05:30"},{"city":"Ghaziabad","state":"Uttar Pradesh","latitude":28.6692,"longitude":77.4538,"temp":29.7,"humidity":59,"rain":0.0,"pressure":977.7,"uv_index":7.8,"wind_gusts":40.3,"aqi":172,"pm10":421.0,"pm2_5":127.6,"no2":51.1,"co":434.0,"o3":30.0,"so2":19.4,"mosquito_risk":4,"arthritis_risk":5,"migraine_risk":7,"frizz_risk":1,"updated_at":"2026-06-19T03:42:16.643032+05:30"},{"city":"Faridabad","state":"Haryana","latitude":28.4089,"longitude":77.3178,"temp":30.9,"humidity":49,"rain":0.0,"pressure":978.9,"uv_index":7.85,"wind_gusts":34.6,"aqi":239,"pm10":455.4,"pm2_5":122.0,"no2":65.4,"co":334.0,"o3":23.0,"so2":31.4,"mosquito_risk":0,"arthritis_risk":5,"migraine_risk":7,"frizz_risk":1,"updated_at":"2026-06-19T03:42:16.643040+05:30"},{"city":"Meerut","state":"Uttar Pradesh","latitude":28.9845,"longitude":77.7064,"temp":29.2,"humidity":56,"rain":0.0,"pressure":976.4,"uv_index":7.7,"wind_gusts":28.8,"aqi":172,"pm10":421.0,"pm2_5":127.6,"no2":51.1,"co":684.0,"o3":30.0,"so2":19.4,"mosquito_risk":4,"arthritis_risk":5,"migraine_risk":7,"frizz_risk":1,"updated_at":"2026-06-19T03:42:16.643046+05:30"},{"city":"Agra","state":"Uttar Pradesh","latitude":27.1767,"longitude":78.0081,"temp":31.3,"humidity":46,"rain":0.0,"pressure":983.2,"uv_index":8.15,"wind_gusts":29.9,"aqi":221,"pm10":1285.2,"pm2_5":163.0,"no2":19.9,"co":217.0,"o3":39.0,"so2":5.9,"mosquito_risk":0,"arthritis_risk":5,"migraine_risk":7,"frizz_risk":1,"updated_at":"2026-06-19T03:42:16.643051+05:30"},{"city":"Varanasi","state":"Uttar Pradesh","latitude":25.3176,"longitude":82.9739,"temp":32.1,"humidity":53,"rain":0.0,"pressure":992.5,"uv_index":8.8,"wind_gusts":38.5,"aqi":117,"pm10":29.4,"pm2_5":23.4,"no2":14.7,"co":495.0,"o3":62.0,"so2":7.0,"mosquito_risk":0,"arthritis_risk":5,"migraine_risk":7,"frizz_risk":1,"updated_at":"2026-06-19T03:42:16.643058+05:30"},{"city":"Prayagraj","state":"Uttar Pradesh","latitude":25.4358,"longitude":81.8463,"temp":32.1,"humidity":52,"rain":0.0,"pressure":990.9,"uv_index":8.75,"wind_gusts":34.6,"aqi":105,"pm10":42.7,"pm2_5":28.2,"no2":16.5,"co":159.0,"o3":54.0,"so2":6.5,"mosquito_risk":0,"arthritis_risk":5,"migraine_risk":7,"frizz_risk":1,"updated_at":"2026-06-19T03:42:16.643064+05:30"},{"city":"Gorakhpur","state":"Uttar Pradesh","latitude":26.7606,"longitude":83.3732,"temp":29.3,"humidity":66,"rain":0.0,"pressure":992.2,"uv_index":8.7,"wind_gusts":25.2,"aqi":151,"pm10":78.9,"pm2_5":49.6,"no2":24.4,"co":448.0,"o3":49.0,"so2":9.6,"mosquito_risk":7,"arthritis_risk":5,"migraine_risk":7,"frizz_risk":1,"updated_at":"2026-06-19T03:42:16.643070+05:30"},{"city":"Bareilly","state":"Uttar Pradesh","latitude":28.367,"longitude":79.4304,"temp":28.0,"humidity":69,"rain":0.0,"pressure":981.8,"uv_index":8.15,"wind_gusts":30.6,"aqi":156,"pm10":129.0,"pm2_5":88.5,"no2":51.8,"co":504.0,"o3":24.0,"so2":14.6,"mosquito_risk":7,"arthritis_risk":5,"migraine_risk":7,"frizz_risk":1,"updated_at":"2026-06-19T03:42:16.643077+05:30"},{"city":"Aligarh","state":"Uttar Pradesh","latitude":27.8974,"longitude":78.088,"temp":29.4,"humidity":56,"rain":0.0,"pressure":980.8,"uv_index":8.0,"wind_gusts":29.2,"aqi":204,"pm10":346.5,"pm2_5":143.4,"no2":90.0,"co":437.0,"o3":0.0,"so2":23.6,"mosquito_risk":4,"arthritis_risk":5,"migraine_risk":7,"frizz_risk":1,"updated_at":"2026-06-19T03:42:16.643083+05:30"},{"city":"Moradabad","state":"Uttar Pradesh","latitude":28.8386,"longitude":78.7733,"temp":29.7,"humidity":58,"rain":0.0,"pressure":978.5,"uv_index":7.95,"wind_gusts":33.5,"aqi":164,"pm10":185.3,"pm2_5":115.3,"no2":66.8,"co":577.0,"o3":4.0,"so2":16.3,"mosquito_risk":4,"arthritis_risk":5,"migraine_risk":7,"frizz_risk":1,"updated_at":"2026-06-19T03:42:16.643089+05:30"},{"city":"Saharanpur","state":"Uttar Pradesh","latitude":29.9637,"longitude":77.546,"temp":26.8,"humidity":73,"rain":0.0,"pressure":970.7,"uv_index":7.4,"wind_gusts":42.5,"aqi":156,"pm10":97.1,"pm2_5":76.1,"no2":51.6,"co":566.0,"o3":1.0,"so2":9.4,"mosquito_risk":7,"arthritis_risk":5,"migraine_risk":7,"frizz_risk":1,"updated_at":"2026-06-19T03:42:16.643095+05:30"},{"city":"Jhansi","state":"Uttar Pradesh","latitude":25.4484,"longitude":78.5685,"temp":30.8,"humidity":50,"rain":0.0,"pressure":973.8,"uv_index":8.5,"wind_gusts":33.8,"aqi":82,"pm10":32.2,"pm2_5":20.5,"no2":8.9,"co":160.0,"o3":61.0,"so2":13.3,"mosquito_risk":0,"arthritis_risk":5,"migraine_risk":7,"frizz_risk":1,"updated_at":"2026-06-19T03:42:19.980211+05:30"},{"city":"Surat","state":"Gujarat","latitude":21.1702,"longitude":72.8311,"temp":28.5,"humidity":78,"rain":0.0,"pressure":1004.9,"uv_index":7.6,"wind_gusts":46.4,"aqi":71,"pm10":28.4,"pm2_5":18.3,"no2":25.3,"co":267.0,"o3":22.0,"so2":41.2,"mosquito_risk":7,"arthritis_risk":5,"migraine_risk":4,"frizz_risk":1,"updated_at":"2026-06-19T03:42:19.980239+05:30"},{"city":"Vadodara","state":"Gujarat","latitude":22.3072,"longitude":73.1812,"temp":26.8,"humidity":86,"rain":0.2,"pressure":1002.1,"uv_index":7.9,"wind_gusts":41.8,"aqi":63,"pm10":21.8,"pm2_5":14.6,"no2":13.6,"co":119.0,"o3":30.0,"so2":8.7,"mosquito_risk":10,"arthritis_risk":5,"migraine_risk":4,"frizz_risk":1,"updated_at":"2026-06-19T03:42:19.980253+05:30"},{"city":"Rajkot","state":"Gujarat","latitude":22.3039,"longitude":70.8022,"temp":27.9,"humidity":75,"rain":0.0,"pressure":991.7,"uv_index":7.55,"wind_gusts":44.3,"aqi":56,"pm10":22.5,"pm2_5":11.6,"no2":5.7,"co":103.0,"o3":36.0,"so2":4.5,"mosquito_risk":7,"arthritis_risk":5,"migraine_risk":7,"frizz_risk":1,"updated_at":"2026-06-19T03:42:19.980264+05:30"},{"city":"Thane","state":"Maharashtra","latitude":19.2183,"longitude":72.9781,"temp":29.2,"humidity":68,"rain":0.0,"pressure":1006.6,"uv_index":7.7,"wind_gusts":40.3,"aqi":63,"pm10":26.2,"pm2_5":13.9,"no2":6.9,"co":133.0,"o3":43.0,"so2":7.1,"mosquito_risk":7,"arthritis_risk":5,"migraine_risk":4,"frizz_risk":1,"updated_at":"2026-06-19T03:42:19.980273+05:30"},{"city":"Nagpur","state":"Maharashtra","latitude":21.1458,"longitude":79.0882,"temp":30.1,"humidity":63,"rain":0.0,"pressure":970.2,"uv_index":8.65,"wind_gusts":40.0,"aqi":85,"pm10":45.8,"pm2_5":30.6,"no2":21.9,"co":401.0,"o3":36.0,"so2":11.2,"mosquito_risk":3,"arthritis_risk":5,"migraine_risk":7,"frizz_risk":1,"updated_at":"2026-06-19T03:42:19.980281+05:30"},{"city":"Nashik","state":"Maharashtra","latitude":19.9975,"longitude":73.7898,"temp":23.7,"humidity":88,"rain":0.0,"pressure":944.4,"uv_index":8.0,"wind_gusts":43.2,"aqi":53,"pm10":21.4,"pm2_5":13.6,"no2":11.1,"co":129.0,"o3":33.0,"so2":10.4,"mosquito_risk":3,"arthritis_risk":5,"migraine_risk":7,"frizz_risk":1,"updated_at":"2026-06-19T03:42:19.980290+05:30"},{"city":"Aurangabad","state":"Maharashtra","latitude":19.8762,"longitude":75.3433,"temp":25.6,"humidity":68,"rain":0.0,"pressure":943.0,"uv_index":8.5,"wind_gusts":41.4,"aqi":54,"pm10":22.5,"pm2_5":14.3,"no2":8.3,"co":121.0,"o3":41.0,"so2":7.4,"mosquito_risk":7,"arthritis_risk":5,"migraine_risk":7,"frizz_risk":1,"updated_at":"2026-06-19T03:42:19.980299+05:30"},{"city":"Solapur","state":"Maharashtra","latitude":17.6599,"longitude":75.9064,"temp":27.6,"humidity":53,"rain":0.0,"pressure":956.4,"uv_index":8.55,"wind_gusts":42.8,"aqi":57,"pm10":22.5,"pm2_5":15.7,"no2":5.7,"co":124.0,"o3":51.0,"so2":4.0,"mosquito_risk":4,"arthritis_risk":5,"migraine_risk":7,"frizz_risk":1,"updated_at":"2026-06-19T03:42:19.980308+05:30"},{"city":"Kolhapur","state":"Maharashtra","latitude":16.705,"longitude":74.2433,"temp":23.2,"humidity":88,"rain":0.0,"pressure":947.5,"uv_index":8.55,"wind_gusts":53.3,"aqi":55,"pm10":22.6,"pm2_5":13.6,"no2":6.4,"co":121.0,"o3":37.0,"so2":2.9,"mosquito_risk":3,"arthritis_risk":5,"migraine_risk":7,"frizz_risk":1,"updated_at":"2026-06-19T03:42:19.980316+05:30"},{"city":"Goa","state":"Goa","latitude":15.2993,"longitude":74.124,"temp":25.6,"humidity":97,"rain":0.0,"pressure":998.0,"uv_index":8.7,"wind_gusts":30.2,"aqi":62,"pm10":44.9,"pm2_5":22.9,"no2":6.1,"co":382.0,"o3":43.0,"so2":2.3,"mosquito_risk":7,"arthritis_risk":5,"migraine_risk":7,"frizz_risk":1,"updated_at":"2026-06-19T03:42:19.980325+05:30"},{"city":"Jodhpur","state":"Rajasthan","latitude":26.2389,"longitude":73.0243,"temp":30.7,"humidity":54,"rain":0.0,"pressure":978.8,"uv_index":8.45,"wind_gusts":39.2,"aqi":108,"pm10":88.0,"pm2_5":28.6,"no2":6.7,"co":130.0,"o3":45.0,"so2":2.4,"mosquito_risk":0,"arthritis_risk":5,"migraine_risk":7,"frizz_risk":1,"updated_at":"2026-06-19T03:42:19.980333+05:30"},{"city":"Udaipur","state":"Rajasthan","latitude":24.5854,"longitude":73.7125,"temp":25.7,"humidity":73,"rain":0.0,"pressure":943.6,"uv_index":8.8,"wind_gusts":36.7,"aqi":64,"pm10":34.7,"pm2_5":20.4,"no2":9.9,"co":122.0,"o3":47.0,"so2":10.6,"mosquito_risk":7,"arthritis_risk":5,"migraine_risk":7,"frizz_risk":1,"updated_at":"2026-06-19T03:42:19.980341+05:30"},{"city":"Kota","state":"Rajasthan","latitude":25.2138,"longitude":75.8648,"temp":30.5,"humidity":55,"rain":0.0,"pressure":975.4,"uv_index":8.35,"wind_gusts":33.1,"aqi":74,"pm10":31.5,"pm2_5":19.6,"no2":6.8,"co":179.0,"o3":60.0,"so2":4.9,"mosquito_risk":0,"arthritis_risk":5,"migraine_risk":7,"frizz_risk":1,"updated_at":"2026-06-19T03:42:19.980348+05:30"},{"city":"Bikaner","state":"Rajasthan","latitude":28.0229,"longitude":73.3119,"temp":31.1,"humidity":51,"rain":0.0,"pressure":977.0,"uv_index":8.5,"wind_gusts":58.0,"aqi":125,"pm10":185.3,"pm2_5":48.1,"no2":3.7,"co":129.0,"o3":51.0,"so2":3.1,"mosquito_risk":0,"arthritis_risk":5,"migraine_risk":7,"frizz_risk":1,"updated_at":"2026-06-19T03:42:19.980356+05:30"},{"city":"Ajmer","state":"Rajasthan","latitude":26.4499,"longitude":74.6399,"temp":27.9,"humidity":64,"rain":0.0,"pressure":951.1,"uv_index":8.35,"wind_gusts":42.1,"aqi":82,"pm10":25.0,"pm2_5":14.6,"no2":6.1,"co":148.0,"o3":55.0,"so2":3.8,"mosquito_risk":7,"arthritis_risk":5,"migraine_risk":7,"frizz_risk":1,"updated_at":"2026-06-19T03:42:19.980364+05:30"},{"city":"Gwalior","state":"Madhya Pradesh","latitude":26.2183,"longitude":78.1828,"temp":31.7,"humidity":48,"rain":0.0,"pressure":978.9,"uv_index":8.3,"wind_gusts":33.8,"aqi":96,"pm10":32.5,"pm2_5":22.2,"no2":7.4,"co":142.0,"o3":60.0,"so2":8.5,"mosquito_risk":0,"arthritis_risk":5,"migraine_risk":7,"frizz_risk":1,"updated_at":"2026-06-19T03:42:19.980372+05:30"},{"city":"Indore","state":"Madhya Pradesh","latitude":22.7196,"longitude":75.8577,"temp":26.4,"humidity":64,"rain":0.0,"pressure":946.3,"uv_index":8.6,"wind_gusts":42.8,"aqi":67,"pm10":29.7,"pm2_5":20.3,"no2":8.1,"co":185.0,"o3":57.0,"so2":10.2,"mosquito_risk":7,"arthritis_risk":5,"migraine_risk":7,"frizz_risk":1,"updated_at":"2026-06-19T03:42:19.980380+05:30"},{"city":"Bhopal","state":"Madhya Pradesh","latitude":23.2599,"longitude":77.4126,"temp":26.7,"humidity":67,"rain":0.0,"pressure":951.1,"uv_index":8.7,"wind_gusts":30.2,"aqi":72,"pm10":24.1,"pm2_5":17.6,"no2":6.6,"co":213.0,"o3":60.0,"so2":3.6,"mosquito_risk":7,"arthritis_risk":5,"migraine_risk":7,"frizz_risk":1,"updated_at":"2026-06-19T03:42:19.980387+05:30"},{"city":"Jabalpur","state":"Madhya Pradesh","latitude":23.1815,"longitude":79.9864,"temp":27.5,"humidity":74,"rain":0.0,"pressure":958.1,"uv_index":5.05,"wind_gusts":30.2,"aqi":71,"pm10":33.5,"pm2_5":26.7,"no2":14.4,"co":308.0,"o3":56.0,"so2":3.7,"mosquito_risk":7,"arthritis_risk":5,"migraine_risk":3,"frizz_risk":1,"updated_at":"2026-06-19T03:42:19.980395+05:30"},{"city":"Ujjain","state":"Madhya Pradesh","latitude":23.1765,"longitude":75.7885,"temp":26.6,"humidity":66,"rain":0.0,"pressure":951.8,"uv_index":8.35,"wind_gusts":41.0,"aqi":66,"pm10":29.5,"pm2_5":19.1,"no2":6.8,"co":168.0,"o3":55.0,"so2":9.7,"mosquito_risk":7,"arthritis_risk":5,"migraine_risk":7,"frizz_risk":1,"updated_at":"2026-06-19T03:42:19.980404+05:30"},{"city":"Visakhapatnam","state":"Andhra Pradesh","latitude":17.6868,"longitude":83.2185,"temp":28.2,"humidity":93,"rain":0.0,"pressure":1000.0,"uv_index":4.0,"wind_gusts":42.1,"aqi":108,"pm10":38.4,"pm2_5":28.2,"no2":22.7,"co":361.0,"o3":83.0,"so2":39.3,"mosquito_risk":7,"arthritis_risk":5,"migraine_risk":0,"frizz_risk":1,"updated_at":"2026-06-19T03:42:19.980412+05:30"},{"city":"Vijayawada","state":"Andhra Pradesh","latitude":16.5062,"longitude":80.648,"temp":29.8,"humidity":83,"rain":0.0,"pressure":999.4,"uv_index":7.75,"wind_gusts":25.2,"aqi":92,"pm10":28.5,"pm2_5":22.8,"no2":5.7,"co":158.0,"o3":100.0,"so2":6.0,"mosquito_risk":7,"arthritis_risk":5,"migraine_risk":7,"frizz_risk":1,"updated_at":"2026-06-19T03:42:19.980420+05:30"},{"city":"Guntur","state":"Andhra Pradesh","latitude":16.3067,"longitude":80.4365,"temp":29.3,"humidity":76,"rain":0.0,"pressure":1000.7,"uv_index":6.2,"wind_gusts":25.9,"aqi":94,"pm10":30.3,"pm2_5":25.1,"no2":8.2,"co":173.0,"o3":92.0,"so2":6.5,"mosquito_risk":7,"arthritis_risk":5,"migraine_risk":4,"frizz_risk":1,"updated_at":"2026-06-19T03:42:19.980428+05:30"},{"city":"Nellore","state":"Andhra Pradesh","latitude":14.4426,"longitude":79.9865,"temp":28.5,"humidity":75,"rain":0.0,"pressure":1003.1,"uv_index":8.3,"wind_gusts":29.5,"aqi":72,"pm10":25.0,"pm2_5":20.4,"no2":11.7,"co":158.0,"o3":63.0,"so2":7.1,"mosquito_risk":7,"arthritis_risk":5,"migraine_risk":4,"frizz_risk":1,"updated_at":"2026-06-19T03:42:19.980437+05:30"},{"city":"Kurnool","state":"Andhra Pradesh","latitude":15.8281,"longitude":78.0373,"temp":27.8,"humidity":67,"rain":0.0,"pressure":975.2,"uv_index":1.55,"wind_gusts":37.8,"aqi":67,"pm10":24.7,"pm2_5":18.3,"no2":9.0,"co":182.0,"o3":75.0,"so2":5.7,"mosquito_risk":7,"arthritis_risk":5,"migraine_risk":3,"frizz_risk":1,"updated_at":"2026-06-19T03:42:19.980446+05:30"},{"city":"Kakinada","state":"Andhra Pradesh","latitude":16.9891,"longitude":82.2475,"temp":25.8,"humidity":96,"rain":0.2,"pressure":1005.0,"uv_index":8.0,"wind_gusts":40.7,"aqi":87,"pm10":29.8,"pm2_5":18.8,"no2":2.8,"co":320.0,"o3":107.0,"so2":2.7,"mosquito_risk":10,"arthritis_risk":5,"migraine_risk":4,"frizz_risk":1,"updated_at":"2026-06-19T03:42:19.980455+05:30"},{"city":"Tirupati","state":"Andhra Pradesh","latitude":13.6288,"longitude":79.4192,"temp":25.7,"humidity":83,"rain":0.0,"pressure":989.3,"uv_index":8.8,"wind_gusts":34.2,"aqi":70,"pm10":19.0,"pm2_5":16.1,"no2":14.4,"co":207.0,"o3":45.0,"so2":2.9,"mosquito_risk":7,"arthritis_risk":5,"migraine_risk":7,"frizz_risk":1,"updated_at":"2026-06-19T03:42:19.980463+05:30"},{"city":"Warangal","state":"Telangana","latitude":17.9689,"longitude":79.5941,"temp":29.7,"humidity":56,"rain":0.0,"pressure":975.8,"uv_index":8.85,"wind_gusts":33.1,"aqi":103,"pm10":34.6,"pm2_5":29.6,"no2":9.8,"co":351.0,"o3":79.0,"so2":5.1,"mosquito_risk":4,"arthritis_risk":5,"migraine_risk":7,"frizz_risk":1,"updated_at":"2026-06-19T03:42:19.980470+05:30"},{"city":"Nizamabad","state":"Telangana","latitude":18.6725,"longitude":78.0941,"temp":29.8,"humidity":50,"rain":0.0,"pressure":961.9,"uv_index":8.95,"wind_gusts":31.0,"aqi":85,"pm10":50.2,"pm2_5":37.0,"no2":23.7,"co":281.0,"o3":36.0,"so2":4.8,"mosquito_risk":4,"arthritis_risk":5,"migraine_risk":7,"frizz_risk":1,"updated_at":"2026-06-19T03:42:19.980478+05:30"},{"city":"Mysore","state":"Karnataka","latitude":12.2958,"longitude":76.6396,"temp":21.5,"humidity":97,"rain":0.0,"pressure":927.7,"uv_index":6.2,"wind_gusts":42.5,"aqi":52,"pm10":22.2,"pm2_5":16.9,"no2":18.3,"co":199.0,"o3":32.0,"so2":3.2,"mosquito_risk":3,"arthritis_risk":5,"migraine_risk":7,"frizz_risk":1,"updated_at":"2026-06-19T03:42:19.980487+05:30"},{"city":"Mangalore","state":"Karnataka","latitude":12.9141,"longitude":74.856,"temp":25.1,"humidity":96,"rain":0.0,"pressure":1007.2,"uv_index":8.45,"wind_gusts":31.7,"aqi":68,"pm10":34.6,"pm2_5":20.0,"no2":10.0,"co":322.0,"o3":29.0,"so2":3.2,"mosquito_risk":7,"arthritis_risk":5,"migraine_risk":4,"frizz_risk":1,"updated_at":"2026-06-19T03:42:19.980495+05:30"},{"city":"Hubli-Dharwad","state":"Karnataka","latitude":15.3647,"longitude":75.124,"temp":23.5,"humidity":87,"rain":0.0,"pressure":940.6,"uv_index":8.25,"wind_gusts":42.8,"aqi":52,"pm10":19.0,"pm2_5":11.0,"no2":4.6,"co":132.0,"o3":39.0,"so2":2.0,"mosquito_risk":3,"arthritis_risk":5,"migraine_risk":7,"frizz_risk":1,"updated_at":"2026-06-19T03:42:19.980503+05:30"},{"city":"Belgaum","state":"Karnataka","latitude":15.8497,"longitude":74.4977,"temp":21.4,"humidity":95,"rain":0.0,"pressure":925.0,"uv_index":8.95,"wind_gusts":42.5,"aqi":56,"pm10":27.7,"pm2_5":16.8,"no2":6.5,"co":112.0,"o3":34.0,"so2":0.9,"mosquito_risk":3,"arthritis_risk":5,"migraine_risk":7,"frizz_risk":1,"updated_at":"2026-06-19T03:42:23.318705+05:30"},{"city":"Coimbatore","state":"Tamil Nadu","latitude":11.0168,"longitude":76.9558,"temp":23.2,"humidity":99,"rain":0.1,"pressure":961.0,"uv_index":3.65,"wind_gusts":32.8,"aqi":42,"pm10":9.6,"pm2_5":8.0,"no2":12.6,"co":226.0,"o3":31.0,"so2":3.8,"mosquito_risk":6,"arthritis_risk":5,"migraine_risk":3,"frizz_risk":1,"updated_at":"2026-06-19T03:42:23.318734+05:30"},{"city":"Madurai","state":"Tamil Nadu","latitude":9.9252,"longitude":78.1198,"temp":26.4,"humidity":81,"rain":0.0,"pressure":992.2,"uv_index":4.6,"wind_gusts":28.8,"aqi":61,"pm10":28.6,"pm2_5":23.5,"no2":31.2,"co":309.0,"o3":13.0,"so2":5.7,"mosquito_risk":7,"arthritis_risk":5,"migraine_risk":3,"frizz_risk":1,"updated_at":"2026-06-19T03:42:23.318748+05:30"},{"city":"Trichy","state":"Tamil Nadu","latitude":10.7905,"longitude":78.7047,"temp":26.1,"humidity":86,"rain":0.0,"pressure":998.8,"uv_index":6.8,"wind_gusts":37.4,"aqi":53,"pm10":15.2,"pm2_5":12.7,"no2":13.2,"co":178.0,"o3":51.0,"so2":4.8,"mosquito_risk":7,"arthritis_risk":5,"migraine_risk":7,"frizz_risk":1,"updated_at":"2026-06-19T03:42:23.318760+05:30"},{"city":"Salem","state":"Tamil Nadu","latitude":11.6643,"longitude":78.146,"temp":24.5,"humidity":93,"rain":0.0,"pressure":976.8,"uv_index":4.9,"wind_gusts":27.4,"aqi":54,"pm10":23.3,"pm2_5":19.3,"no2":19.3,"co":267.0,"o3":46.0,"so2":8.5,"mosquito_risk":3,"arthritis_risk":5,"migraine_risk":3,"frizz_risk":1,"updated_at":"2026-06-19T03:42:23.318769+05:30"},{"city":"Tirunelveli","state":"Tamil Nadu","latitude":8.7139,"longitude":77.7567,"temp":27.8,"humidity":69,"rain":0.0,"pressure":1002.6,"uv_index":7.05,"wind_gusts":32.8,"aqi":51,"pm10":15.5,"pm2_5":11.4,"no2":8.7,"co":334.0,"o3":35.0,"so2":3.3,"mosquito_risk":7,"arthritis_risk":5,"migraine_risk":4,"frizz_risk":1,"updated_at":"2026-06-19T03:42:23.318778+05:30"},{"city":"Vellore","state":"Tamil Nadu","latitude":12.9165,"longitude":79.1325,"temp":25.5,"humidity":97,"rain":0.0,"pressure":982.8,"uv_index":8.2,"wind_gusts":33.5,"aqi":58,"pm10":19.0,"pm2_5":15.8,"no2":20.4,"co":246.0,"o3":27.0,"so2":5.2,"mosquito_risk":7,"arthritis_risk":5,"migraine_risk":7,"frizz_risk":1,"updated_at":"2026-06-19T03:42:23.318786+05:30"},{"city":"Erode","state":"Tamil Nadu","latitude":11.341,"longitude":77.7172,"temp":24.6,"humidity":94,"rain":0.0,"pressure":988.6,"uv_index":4.65,"wind_gusts":36.0,"aqi":53,"pm10":20.5,"pm2_5":17.3,"no2":21.8,"co":221.0,"o3":28.0,"so2":5.2,"mosquito_risk":3,"arthritis_risk":5,"migraine_risk":3,"frizz_risk":1,"updated_at":"2026-06-19T03:42:23.318793+05:30"},{"city":"Kochi","state":"Kerala","latitude":9.9312,"longitude":76.2673,"temp":25.7,"humidity":96,"rain":0.0,"pressure":1008.7,"uv_index":4.75,"wind_gusts":26.3,"aqi":69,"pm10":23.8,"pm2_5":20.1,"no2":21.2,"co":305.0,"o3":12.0,"so2":5.5,"mosquito_risk":7,"arthritis_risk":0,"migraine_risk":0,"frizz_risk":1,"updated_at":"2026-06-19T03:42:23.318799+05:30"},{"city":"Thiruvananthapuram","state":"Kerala","latitude":8.5241,"longitude":76.9366,"temp":24.5,"humidity":97,"rain":0.0,"pressure":1008.3,"uv_index":7.85,"wind_gusts":38.5,"aqi":53,"pm10":25.7,"pm2_5":13.0,"no2":4.9,"co":321.0,"o3":46.0,"so2":2.6,"mosquito_risk":3,"arthritis_risk":0,"migraine_risk":4,"frizz_risk":1,"updated_at":"2026-06-19T03:42:23.318805+05:30"},{"city":"Kozhikode","state":"Kerala","latitude":11.2588,"longitude":75.7804,"temp":25.0,"humidity":96,"rain":0.0,"pressure":1008.1,"uv_index":8.3,"wind_gusts":34.2,"aqi":52,"pm10":29.8,"pm2_5":13.1,"no2":1.7,"co":534.0,"o3":55.0,"so2":1.2,"mosquito_risk":7,"arthritis_risk":0,"migraine_risk":4,"frizz_risk":1,"updated_at":"2026-06-19T03:42:23.318811+05:30"},{"city":"Thrissur","state":"Kerala","latitude":10.5276,"longitude":76.2144,"temp":24.6,"humidity":99,"rain":0.2,"pressure":1007.2,"uv_index":7.75,"wind_gusts":29.2,"aqi":74,"pm10":25.2,"pm2_5":20.9,"no2":18.5,"co":346.0,"o3":14.0,"so2":4.5,"mosquito_risk":6,"arthritis_risk":5,"migraine_risk":4,"frizz_risk":1,"updated_at":"2026-06-19T03:42:23.318818+05:30"},{"city":"Kannur","state":"Kerala","latitude":11.8745,"longitude":75.3704,"temp":25.3,"humidity":96,"rain":0.0,"pressure":1007.6,"uv_index":8.45,"wind_gusts":36.0,"aqi":66,"pm10":34.7,"pm2_5":20.8,"no2":20.9,"co":402.0,"o3":23.0,"so2":3.7,"mosquito_risk":7,"arthritis_risk":5,"migraine_risk":4,"frizz_risk":1,"updated_at":"2026-06-19T03:42:23.318824+05:30"},{"city":"Patna","state":"Bihar","latitude":25.5941,"longitude":85.1376,"temp":28.3,"humidity":82,"rain":0.0,"pressure":996.1,"uv_index":8.75,"wind_gusts":24.5,"aqi":157,"pm10":75.4,"pm2_5":54.1,"no2":29.7,"co":328.0,"o3":47.0,"so2":9.9,"mosquito_risk":7,"arthritis_risk":5,"migraine_risk":7,"frizz_risk":1,"updated_at":"2026-06-19T03:42:23.318830+05:30"},{"city":"Gaya","state":"Bihar","latitude":24.7914,"longitude":85.0002,"temp":29.7,"humidity":65,"rain":0.0,"pressure":989.5,"uv_index":8.65,"wind_gusts":23.4,"aqi":154,"pm10":53.3,"pm2_5":42.7,"no2":13.7,"co":235.0,"o3":79.0,"so2":17.3,"mosquito_risk":7,"arthritis_risk":5,"migraine_risk":7,"frizz_risk":1,"updated_at":"2026-06-19T03:42:23.318836+05:30"},{"city":"Muzaffarpur","state":"Bihar","latitude":26.1209,"longitude":85.3647,"temp":27.9,"humidity":84,"rain":0.0,"pressure":996.4,"uv_index":8.9,"wind_gusts":30.2,"aqi":157,"pm10":80.8,"pm2_5":62.6,"no2":32.6,"co":602.0,"o3":43.0,"so2":10.1,"mosquito_risk":7,"arthritis_risk":5,"migraine_risk":7,"frizz_risk":1,"updated_at":"2026-06-19T03:42:23.318842+05:30"},{"city":"Bhagalpur","state":"Bihar","latitude":25.2425,"longitude":87.0117,"temp":26.9,"humidity":90,"rain":0.0,"pressure":997.4,"uv_index":8.7,"wind_gusts":31.3,"aqi":154,"pm10":95.9,"pm2_5":85.2,"no2":17.5,"co":620.0,"o3":72.0,"so2":21.4,"mosquito_risk":7,"arthritis_risk":5,"migraine_risk":7,"frizz_risk":1,"updated_at":"2026-06-19T03:42:23.318848+05:30"},{"city":"Ranchi","state":"Jharkhand","latitude":23.3441,"longitude":85.3096,"temp":25.3,"humidity":78,"rain":0.0,"pressure":934.3,"uv_index":8.0,"wind_gusts":32.4,"aqi":150,"pm10":73.1,"pm2_5":61.0,"no2":10.8,"co":289.0,"o3":102.0,"so2":9.9,"mosquito_risk":7,"arthritis_risk":5,"migraine_risk":7,"frizz_risk":1,"updated_at":"2026-06-19T03:42:23.318854+05:30"},{"city":"Jamshedpur","state":"Jharkhand","latitude":22.8046,"longitude":86.2029,"temp":28.4,"humidity":77,"rain":0.0,"pressure":987.2,"uv_index":7.85,"wind_gusts":34.9,"aqi":156,"pm10":91.3,"pm2_5":76.4,"no2":27.1,"co":511.0,"o3":63.0,"so2":31.5,"mosquito_risk":7,"arthritis_risk":5,"migraine_risk":7,"frizz_risk":1,"updated_at":"2026-06-19T03:42:23.318860+05:30"},{"city":"Dhanbad","state":"Jharkhand","latitude":23.7957,"longitude":86.4304,"temp":27.9,"humidity":75,"rain":0.0,"pressure":976.2,"uv_index":8.65,"wind_gusts":42.1,"aqi":171,"pm10":109.2,"pm2_5":92.9,"no2":59.0,"co":388.0,"o3":41.0,"so2":140.8,"mosquito_risk":7,"arthritis_risk":5,"migraine_risk":7,"frizz_risk":1,"updated_at":"2026-06-19T03:42:23.318865+05:30"},{"city":"Bokaro","state":"Jharkhand","latitude":23.6693,"longitude":86.1511,"temp":28.5,"humidity":73,"rain":0.0,"pressure":979.8,"uv_index":5.4,"wind_gusts":36.4,"aqi":167,"pm10":99.0,"pm2_5":84.1,"no2":44.4,"co":303.0,"o3":49.0,"so2":97.7,"mosquito_risk":7,"arthritis_risk":5,"migraine_risk":3,"frizz_risk":1,"updated_at":"2026-06-19T03:42:23.318871+05:30"},{"city":"Bhubaneswar","state":"Odisha","latitude":20.2961,"longitude":85.8245,"temp":29.4,"humidity":89,"rain":0.0,"pressure":998.9,"uv_index":9.05,"wind_gusts":40.7,"aqi":119,"pm10":33.3,"pm2_5":28.6,"no2":7.7,"co":299.0,"o3":107.0,"so2":9.6,"mosquito_risk":7,"arthritis_risk":5,"migraine_risk":7,"frizz_risk":1,"updated_at":"2026-06-19T03:42:23.318877+05:30"},{"city":"Cuttack","state":"Odisha","latitude":20.4625,"longitude":85.8828,"temp":29.6,"humidity":89,"rain":0.0,"pressure":1000.6,"uv_index":9.15,"wind_gusts":35.6,"aqi":119,"pm10":33.3,"pm2_5":28.6,"no2":7.7,"co":332.0,"o3":107.0,"so2":9.6,"mosquito_risk":7,"arthritis_risk":5,"migraine_risk":4,"frizz_risk":1,"updated_at":"2026-06-19T03:42:23.318883+05:30"},{"city":"Rourkela","state":"Odisha","latitude":22.2604,"longitude":84.8536,"temp":28.6,"humidity":84,"rain":0.0,"pressure":981.3,"uv_index":9.05,"wind_gusts":48.2,"aqi":149,"pm10":74.0,"pm2_5":59.5,"no2":12.2,"co":426.0,"o3":80.0,"so2":5.5,"mosquito_risk":7,"arthritis_risk":5,"migraine_risk":7,"frizz_risk":1,"updated_at":"2026-06-19T03:42:23.318889+05:30"},{"city":"Raipur","state":"Chhattisgarh","latitude":21.2514,"longitude":81.6296,"temp":29.6,"humidity":65,"rain":0.0,"pressure":971.0,"uv_index":7.55,"wind_gusts":40.3,"aqi":115,"pm10":55.6,"pm2_5":48.7,"no2":65.3,"co":948.0,"o3":15.0,"so2":80.0,"mosquito_risk":7,"arthritis_risk":5,"migraine_risk":7,"frizz_risk":1,"updated_at":"2026-06-19T03:42:23.318895+05:30"},{"city":"Bhilai","state":"Chhattisgarh","latitude":21.1938,"longitude":81.3509,"temp":28.3,"humidity":72,"rain":0.0,"pressure":971.4,"uv_index":8.7,"wind_gusts":46.8,"aqi":105,"pm10":48.0,"pm2_5":41.8,"no2":48.3,"co":1015.0,"o3":29.0,"so2":61.9,"mosquito_risk":7,"arthritis_risk":5,"migraine_risk":7,"frizz_risk":1,"updated_at":"2026-06-19T03:42:23.318950+05:30"},{"city":"Guwahati","state":"Assam","latitude":26.1158,"longitude":91.7086,"temp":25.3,"humidity":99,"rain":0.0,"pressure":998.8,"uv_index":8.65,"wind_gusts":33.8,"aqi":80,"pm10":20.1,"pm2_5":18.5,"no2":7.8,"co":317.0,"o3":65.0,"so2":2.5,"mosquito_risk":7,"arthritis_risk":5,"migraine_risk":7,"frizz_risk":1,"updated_at":"2026-06-19T03:42:23.318962+05:30"},{"city":"Agartala","state":"Tripura","latitude":23.8315,"longitude":91.2868,"temp":26.1,"humidity":87,"rain":0.0,"pressure":1003.7,"uv_index":8.4,"wind_gusts":31.0,"aqi":78,"pm10":28.8,"pm2_5":21.1,"no2":6.8,"co":175.0,"o3":84.0,"so2":2.3,"mosquito_risk":7,"arthritis_risk":5,"migraine_risk":4,"frizz_risk":1,"updated_at":"2026-06-19T03:42:23.318970+05:30"},{"city":"Shillong","state":"Meghalaya","latitude":25.5788,"longitude":91.8933,"temp":18.8,"humidity":92,"rain":0.0,"pressure":855.1,"uv_index":8.45,"wind_gusts":23.8,"aqi":62,"pm10":5.5,"pm2_5":4.6,"no2":4.2,"co":275.0,"o3":84.0,"so2":3.5,"mosquito_risk":3,"arthritis_risk":10,"migraine_risk":7,"frizz_risk":1,"updated_at":"2026-06-19T03:42:23.318977+05:30"},{"city":"Imphal","state":"Manipur","latitude":24.817,"longitude":93.9368,"temp":22.8,"humidity":90,"rain":0.0,"pressure":921.2,"uv_index":8.15,"wind_gusts":27.7,"aqi":68,"pm10":20.9,"pm2_5":19.4,"no2":9.4,"co":406.0,"o3":34.0,"so2":2.3,"mosquito_risk":3,"arthritis_risk":5,"migraine_risk":7,"frizz_risk":1,"updated_at":"2026-06-19T03:42:23.318983+05:30"},{"city":"Aizawl","state":"Mizoram","latitude":23.7271,"longitude":92.7176,"temp":18.9,"humidity":98,"rain":0.0,"pressure":890.2,"uv_index":8.9,"wind_gusts":30.6,"aqi":45,"pm10":8.5,"pm2_5":7.2,"no2":3.2,"co":181.0,"o3":45.0,"so2":0.6,"mosquito_risk":3,"arthritis_risk":10,"migraine_risk":7,"frizz_risk":1,"updated_at":"2026-06-19T03:42:23.318989+05:30"},{"city":"Kohima","state":"Nagaland","latitude":25.6701,"longitude":94.1077,"temp":19.1,"humidity":95,"rain":0.0,"pressure":853.5,"uv_index":8.4,"wind_gusts":24.5,"aqi":63,"pm10":8.6,"pm2_5":7.8,"no2":4.9,"co":231.0,"o3":44.0,"so2":0.9,"mosquito_risk":3,"arthritis_risk":10,"migraine_risk":7,"frizz_risk":1,"updated_at":"2026-06-19T03:42:23.318996+05:30"},{"city":"Gangtok","state":"Sikkim","latitude":27.3314,"longitude":88.6138,"temp":18.1,"humidity":94,"rain":0.3,"pressure":835.7,"uv_index":9.0,"wind_gusts":33.8,"aqi":70,"pm10":12.5,"pm2_5":11.4,"no2":10.2,"co":471.0,"o3":96.0,"so2":3.9,"mosquito_risk":6,"arthritis_risk":10,"migraine_risk":7,"frizz_risk":1,"updated_at":"2026-06-19T03:42:23.319003+05:30"},{"city":"Siliguri","state":"West Bengal","latitude":26.7271,"longitude":88.3953,"temp":24.1,"humidity":98,"rain":0.2,"pressure":990.6,"uv_index":8.0,"wind_gusts":23.0,"aqi":77,"pm10":32.2,"pm2_5":27.1,"no2":10.1,"co":372.0,"o3":107.0,"so2":4.5,"mosquito_risk":6,"arthritis_risk":5,"migraine_risk":7,"frizz_risk":1,"updated_at":"2026-06-19T03:42:26.660309+05:30"},{"city":"Durgapur","state":"West Bengal","latitude":23.5204,"longitude":87.3119,"temp":27.0,"humidity":85,"rain":0.0,"pressure":991.3,"uv_index":9.05,"wind_gusts":36.7,"aqi":171,"pm10":107.1,"pm2_5":95.2,"no2":50.2,"co":897.0,"o3":33.0,"so2":74.3,"mosquito_risk":7,"arthritis_risk":5,"migraine_risk":7,"frizz_risk":1,"updated_at":"2026-06-19T03:42:26.660336+05:30"},{"city":"Asansol","state":"West Bengal","latitude":23.6739,"longitude":86.9524,"temp":26.8,"humidity":88,"rain":0.0,"pressure":989.9,"uv_index":9.05,"wind_gusts":38.5,"aqi":169,"pm10":99.2,"pm2_5":85.0,"no2":49.7,"co":410.0,"o3":37.0,"so2":81.6,"mosquito_risk":7,"arthritis_risk":5,"migraine_risk":7,"frizz_risk":1,"updated_at":"2026-06-19T03:42:26.660346+05:30"},{"city":"Pondicherry","state":"Puducherry","latitude":11.9139,"longitude":79.8145,"temp":26.4,"humidity":87,"rain":0.0,"pressure":1007.0,"uv_index":7.4,"wind_gusts":53.3,"aqi":65,"pm10":18.3,"pm2_5":15.4,"no2":11.5,"co":344.0,"o3":80.0,"so2":12.3,"mosquito_risk":7,"arthritis_risk":5,"migraine_risk":4,"frizz_risk":1,"updated_at":"2026-06-19T03:42:26.660354+05:30"},{"city":"Port Blair","state":"Andaman and Nicobar Islands","latitude":11.6234,"longitude":92.7265,"temp":25.3,"humidity":96,"rain":0.0,"pressure":1007.0,"uv_index":8.5,"wind_gusts":34.6,"aqi":20,"pm10":7.1,"pm2_5":3.7,"no2":0.2,"co":91.0,"o3":46.0,"so2":0.3,"mosquito_risk":7,"arthritis_risk":5,"migraine_risk":4,"frizz_risk":1,"updated_at":"2026-06-19T03:42:26.660361+05:30"},{"city":"Haridwar","state":"Uttarakhand","latitude":29.9457,"longitude":78.1642,"temp":25.9,"humidity":82,"rain":0.0,"pressure":969.0,"uv_index":7.65,"wind_gusts":23.8,"aqi":123,"pm10":60.1,"pm2_5":49.4,"no2":33.8,"co":297.0,"o3":17.0,"so2":5.5,"mosquito_risk":7,"arthritis_risk":5,"migraine_risk":7,"frizz_risk":1,"updated_at":"2026-06-19T03:42:26.660367+05:30"},{"city":"Rishikesh","state":"Uttarakhand","latitude":30.0869,"longitude":78.2676,"temp":23.4,"humidity":82,"rain":0.0,"pressure":961.5,"uv_index":7.75,"wind_gusts":25.9,"aqi":103,"pm10":61.9,"pm2_5":37.6,"no2":18.0,"co":340.0,"o3":69.0,"so2":4.7,"mosquito_risk":3,"arthritis_risk":5,"migraine_risk":7,"frizz_risk":1,"updated_at":"2026-06-19T03:42:26.660374+05:30"},{"city":"Nainital","state":"Uttarakhand","latitude":29.3919,"longitude":79.4542,"temp":15.7,"humidity":88,"rain":0.0,"pressure":803.0,"uv_index":6.9,"wind_gusts":29.9,"aqi":106,"pm10":52.2,"pm2_5":33.1,"no2":21.8,"co":318.0,"o3":57.0,"so2":2.7,"mosquito_risk":3,"arthritis_risk":10,"migraine_risk":7,"frizz_risk":0,"updated_at":"2026-06-19T03:42:26.660381+05:30"},{"city":"Mussoorie","state":"Uttarakhand","latitude":30.4599,"longitude":78.0664,"temp":14.7,"humidity":87,"rain":0.0,"pressure":799.8,"uv_index":7.6,"wind_gusts":42.8,"aqi":97,"pm10":35.4,"pm2_5":29.2,"no2":26.4,"co":256.0,"o3":26.0,"so2":2.7,"mosquito_risk":3,"arthritis_risk":10,"migraine_risk":7,"frizz_risk":0,"updated_at":"2026-06-19T03:42:26.660388+05:30"},{"city":"Dharamshala","state":"Himachal Pradesh","latitude":32.219,"longitude":76.3234,"temp":21.8,"humidity":68,"rain":0.0,"pressure":866.5,"uv_index":8.55,"wind_gusts":44.3,"aqi":50,"pm10":8.8,"pm2_5":7.5,"no2":9.1,"co":256.0,"o3":65.0,"so2":0.1,"mosquito_risk":3,"arthritis_risk":5,"migraine_risk":7,"frizz_risk":0,"updated_at":"2026-06-19T03:42:26.660394+05:30"},{"city":"Dalhousie","state":"Himachal Pradesh","latitude":32.5387,"longitude":75.971,"temp":12.2,"humidity":92,"rain":0.0,"pressure":799.8,"uv_index":8.8,"wind_gusts":38.5,"aqi":70,"pm10":26.5,"pm2_5":22.5,"no2":29.2,"co":322.0,"o3":21.0,"so2":0.3,"mosquito_risk":3,"arthritis_risk":10,"migraine_risk":7,"frizz_risk":0,"updated_at":"2026-06-19T03:42:26.660401+05:30"},{"city":"Patiala","state":"Punjab","latitude":30.3398,"longitude":76.3869,"temp":28.6,"humidity":66,"rain":0.0,"pressure":973.2,"uv_index":7.7,"wind_gusts":68.8,"aqi":156,"pm10":109.7,"pm2_5":64.7,"no2":25.3,"co":696.0,"o3":50.0,"so2":8.4,"mosquito_risk":7,"arthritis_risk":5,"migraine_risk":7,"frizz_risk":1,"updated_at":"2026-06-19T03:42:26.660408+05:30"},{"city":"Bhatinda","state":"Punjab","latitude":30.211,"longitude":74.9455,"temp":30.1,"humidity":61,"rain":0.0,"pressure":978.6,"uv_index":8.3,"wind_gusts":73.8,"aqi":133,"pm10":60.3,"pm2_5":48.0,"no2":31.8,"co":454.0,"o3":44.0,"so2":8.7,"mosquito_risk":3,"arthritis_risk":5,"migraine_risk":7,"frizz_risk":1,"updated_at":"2026-06-19T03:42:26.660414+05:30"},{"city":"Rohtak","state":"Haryana","latitude":28.8955,"longitude":76.6066,"temp":28.5,"humidity":60,"rain":0.0,"pressure":976.8,"uv_index":7.8,"wind_gusts":59.0,"aqi":205,"pm10":459.1,"pm2_5":122.9,"no2":49.0,"co":293.0,"o3":38.0,"so2":12.5,"mosquito_risk":4,"arthritis_risk":5,"migraine_risk":7,"frizz_risk":1,"updated_at":"2026-06-19T03:42:26.660420+05:30"},{"city":"Panipat","state":"Haryana","latitude":29.3909,"longitude":76.9635,"temp":28.3,"humidity":62,"rain":0.0,"pressure":975.4,"uv_index":7.65,"wind_gusts":49.7,"aqi":475,"pm10":311.1,"pm2_5":103.8,"no2":31.7,"co":694.0,"o3":54.0,"so2":9.0,"mosquito_risk":7,"arthritis_risk":5,"migraine_risk":7,"frizz_risk":1,"updated_at":"2026-06-19T03:42:26.660426+05:30"},{"city":"Mathura","state":"Uttar Pradesh","latitude":27.4924,"longitude":77.6737,"temp":29.0,"humidity":60,"rain":0.0,"pressure":982.0,"uv_index":8.1,"wind_gusts":27.7,"aqi":173,"pm10":651.9,"pm2_5":102.7,"no2":39.7,"co":278.0,"o3":16.0,"so2":5.6,"mosquito_risk":4,"arthritis_risk":5,"migraine_risk":7,"frizz_risk":1,"updated_at":"2026-06-19T03:42:26.660432+05:30"},{"city":"Vrindavan","state":"Uttar Pradesh","latitude":27.5823,"longitude":77.7027,"temp":28.9,"humidity":59,"rain":0.0,"pressure":982.4,"uv_index":8.1,"wind_gusts":27.0,"aqi":173,"pm10":651.9,"pm2_5":102.7,"no2":39.7,"co":324.0,"o3":16.0,"so2":5.6,"mosquito_risk":4,"arthritis_risk":5,"migraine_risk":7,"frizz_risk":1,"updated_at":"2026-06-19T03:42:26.660439+05:30"},{"city":"Ayodhya","state":"Uttar Pradesh","latitude":26.7922,"longitude":82.1998,"temp":29.1,"humidity":74,"rain":0.0,"pressure":989.9,"uv_index":8.45,"wind_gusts":29.9,"aqi":154,"pm10":129.0,"pm2_5":69.8,"no2":37.2,"co":537.0,"o3":26.0,"so2":9.9,"mosquito_risk":7,"arthritis_risk":5,"migraine_risk":7,"frizz_risk":1,"updated_at":"2026-06-19T03:42:26.660445+05:30"},{"city":"Ratlam","state":"Madhya Pradesh","latitude":23.3315,"longitude":75.0367,"temp":26.1,"humidity":74,"rain":0.0,"pressure":952.7,"uv_index":8.15,"wind_gusts":38.9,"aqi":66,"pm10":28.2,"pm2_5":17.6,"no2":7.9,"co":146.0,"o3":46.0,"so2":11.5,"mosquito_risk":7,"arthritis_risk":5,"migraine_risk":7,"frizz_risk":1,"updated_at":"2026-06-19T03:42:26.660451+05:30"},{"city":"Sagar","state":"Madhya Pradesh","latitude":23.8388,"longitude":78.7378,"temp":27.3,"humidity":66,"rain":0.0,"pressure":947.2,"uv_index":8.75,"wind_gusts":30.6,"aqi":67,"pm10":25.5,"pm2_5":18.1,"no2":7.6,"co":192.0,"o3":61.0,"so2":2.7,"mosquito_risk":7,"arthritis_risk":5,"migraine_risk":7,"frizz_risk":1,"updated_at":"2026-06-19T03:42:26.660457+05:30"},{"city":"Satna","state":"Madhya Pradesh","latitude":24.6005,"longitude":80.8322,"temp":30.2,"humidity":56,"rain":0.0,"pressure":967.3,"uv_index":8.35,"wind_gusts":37.8,"aqi":81,"pm10":33.1,"pm2_5":24.4,"no2":14.3,"co":187.0,"o3":44.0,"so2":3.5,"mosquito_risk":0,"arthritis_risk":5,"migraine_risk":7,"frizz_risk":1,"updated_at":"2026-06-19T03:42:26.660464+05:30"},{"city":"Akola","state":"Maharashtra","latitude":20.7002,"longitude":77.0082,"temp":30.2,"humidity":47,"rain":0.0,"pressure":973.4,"uv_index":8.8,"wind_gusts":42.5,"aqi":64,"pm10":26.3,"pm2_5":17.6,"no2":8.5,"co":122.0,"o3":68.0,"so2":9.9,"mosquito_risk":0,"arthritis_risk":5,"migraine_risk":7,"frizz_risk":1,"updated_at":"2026-06-19T03:42:26.660471+05:30"},{"city":"Amravati","state":"Maharashtra","latitude":20.9374,"longitude":77.7796,"temp":29.2,"humidity":51,"rain":0.0,"pressure":965.1,"uv_index":8.7,"wind_gusts":39.6,"aqi":67,"pm10":27.8,"pm2_5":19.0,"no2":9.7,"co":192.0,"o3":65.0,"so2":8.1,"mosquito_risk":4,"arthritis_risk":5,"migraine_risk":7,"frizz_risk":1,"updated_at":"2026-06-19T03:42:26.660478+05:30"},{"city":"Latur","state":"Maharashtra","latitude":18.4088,"longitude":76.5604,"temp":27.8,"humidity":52,"rain":0.0,"pressure":938.6,"uv_index":8.85,"wind_gusts":29.5,"aqi":67,"pm10":24.9,"pm2_5":18.7,"no2":5.2,"co":164.0,"o3":84.0,"so2":7.6,"mosquito_risk":4,"arthritis_risk":5,"migraine_risk":7,"frizz_risk":1,"updated_at":"2026-06-19T03:42:26.660484+05:30"},{"city":"Nanded","state":"Maharashtra","latitude":19.1383,"longitude":77.3091,"temp":31.4,"humidity":38,"rain":0.0,"pressure":966.6,"uv_index":8.85,"wind_gusts":35.6,"aqi":68,"pm10":29.7,"pm2_5":21.9,"no2":14.5,"co":152.0,"o3":52.0,"so2":5.4,"mosquito_risk":0,"arthritis_risk":5,"migraine_risk":7,"frizz_risk":0,"updated_at":"2026-06-19T03:42:26.660491+05:30"},{"city":"Gulbarga","state":"Karnataka","latitude":17.3297,"longitude":76.8343,"temp":28.7,"humidity":50,"rain":0.0,"pressure":957.2,"uv_index":8.85,"wind_gusts":39.6,"aqi":67,"pm10":22.5,"pm2_5":17.4,"no2":13.1,"co":134.0,"o3":44.0,"so2":4.2,"mosquito_risk":4,"arthritis_risk":5,"migraine_risk":7,"frizz_risk":1,"updated_at":"2026-06-19T03:42:26.660497+05:30"},{"city":"Bidar","state":"Karnataka","latitude":17.9104,"longitude":77.5199,"temp":27.8,"humidity":53,"rain":0.0,"pressure":933.2,"uv_index":8.55,"wind_gusts":32.4,"aqi":74,"pm10":38.4,"pm2_5":26.7,"no2":18.2,"co":167.0,"o3":53.0,"so2":4.8,"mosquito_risk":4,"arthritis_risk":5,"migraine_risk":7,"frizz_risk":1,"updated_at":"2026-06-19T03:42:26.660503+05:30"},{"city":"Hospet","state":"Karnataka","latitude":15.2689,"longitude":76.3909,"temp":25.0,"humidity":84,"rain":0.0,"pressure":955.4,"uv_index":8.95,"wind_gusts":36.7,"aqi":52,"pm10":19.2,"pm2_5":11.2,"no2":4.7,"co":139.0,"o3":44.0,"so2":2.0,"mosquito_risk":7,"arthritis_risk":5,"migraine_risk":7,"frizz_risk":1,"updated_at":"2026-06-19T03:42:26.660509+05:30"},{"city":"Tirupur","state":"Tamil Nadu","latitude":11.1085,"longitude":77.3411,"temp":24.0,"humidity":94,"rain":0.0,"pressure":974.5,"uv_index":5.05,"wind_gusts":32.8,"aqi":54,"pm10":19.7,"pm2_5":17.2,"no2":23.5,"co":170.0,"o3":19.0,"so2":5.2,"mosquito_risk":3,"arthritis_risk":5,"migraine_risk":3,"frizz_risk":1,"updated_at":"2026-06-19T03:42:26.660515+05:30"},{"city":"Alappuzha","state":"Kerala","latitude":9.4981,"longitude":76.3388,"temp":25.7,"humidity":96,"rain":0.0,"pressure":1008.8,"uv_index":6.85,"wind_gusts":32.0,"aqi":61,"pm10":25.2,"pm2_5":15.1,"no2":13.0,"co":231.0,"o3":35.0,"so2":4.0,"mosquito_risk":7,"arthritis_risk":0,"migraine_risk":4,"frizz_risk":1,"updated_at":"2026-06-19T03:42:26.660521+05:30"},{"city":"Munnar","state":"Kerala","latitude":10.0889,"longitude":77.0595,"temp":16.2,"humidity":99,"rain":0.1,"pressure":855.4,"uv_index":3.85,"wind_gusts":23.4,"aqi":26,"pm10":5.2,"pm2_5":4.0,"no2":8.9,"co":116.0,"o3":24.0,"so2":1.5,"mosquito_risk":6,"arthritis_risk":10,"migraine_risk":3,"frizz_risk":1,"updated_at":"2026-06-19T03:42:26.660527+05:30"},{"city":"Silchar","state":"Assam","latitude":24.8333,"longitude":92.7789,"temp":25.4,"humidity":97,"rain":0.0,"pressure":1003.1,"uv_index":8.85,"wind_gusts":31.3,"aqi":79,"pm10":25.7,"pm2_5":20.5,"no2":8.0,"co":275.0,"o3":65.0,"so2":3.7,"mosquito_risk":7,"arthritis_risk":5,"migraine_risk":4,"frizz_risk":1,"updated_at":"2026-06-19T03:42:26.660533+05:30"},{"city":"Dibrugarh","state":"Assam","latitude":27.4728,"longitude":94.912,"temp":24.7,"humidity":99,"rain":0.0,"pressure":992.7,"uv_index":8.65,"wind_gusts":22.0,"aqi":62,"pm10":16.9,"pm2_5":14.5,"no2":6.3,"co":304.0,"o3":95.0,"so2":1.5,"mosquito_risk":3,"arthritis_risk":5,"migraine_risk":7,"frizz_risk":1,"updated_at":"2026-06-19T03:42:26.660539+05:30"}]