[{"city":"Delhi","state":"Delhi","latitude":28.6139,"longitude":77.209,"temp":36.4,"humidity":34,"rain":0.0,"pressure":977.1,"uv_index":7.75,"wind_gusts":38.5,"aqi":188,"pm10":250.5,"pm2_5":64.7,"no2":11.1,"co":289.0,"o3":144.0,"so2":12.2,"mosquito_risk":0,"arthritis_risk":5,"migraine_risk":10,"frizz_risk":1,"updated_at":"2026-06-18T18:25:59.080607+05:30"},{"city":"Mumbai","state":"Maharashtra","latitude":19.076,"longitude":72.8777,"temp":31.2,"humidity":61,"rain":0.0,"pressure":1006.0,"uv_index":7.7,"wind_gusts":43.2,"aqi":61,"pm10":38.3,"pm2_5":18.7,"no2":6.4,"co":170.0,"o3":61.0,"so2":5.1,"mosquito_risk":3,"arthritis_risk":5,"migraine_risk":4,"frizz_risk":1,"updated_at":"2026-06-18T18:25:59.080658+05:30"},{"city":"Bangalore","state":"Karnataka","latitude":12.9716,"longitude":77.5946,"temp":23.5,"humidity":84,"rain":0.1,"pressure":910.4,"uv_index":7.0,"wind_gusts":34.6,"aqi":59,"pm10":20.0,"pm2_5":15.1,"no2":27.1,"co":906.0,"o3":50.0,"so2":5.2,"mosquito_risk":6,"arthritis_risk":5,"migraine_risk":7,"frizz_risk":1,"updated_at":"2026-06-18T18:25:59.080673+05:30"},{"city":"Hyderabad","state":"Telangana","latitude":17.385,"longitude":78.4867,"temp":33.7,"humidity":37,"rain":0.0,"pressure":950.3,"uv_index":9.05,"wind_gusts":37.8,"aqi":84,"pm10":32.1,"pm2_5":19.3,"no2":6.3,"co":269.0,"o3":111.0,"so2":4.2,"mosquito_risk":0,"arthritis_risk":5,"migraine_risk":7,"frizz_risk":1,"updated_at":"2026-06-18T18:25:59.080682+05:30"},{"city":"Chennai","state":"Tamil Nadu","latitude":13.0827,"longitude":80.2707,"temp":30.2,"humidity":78,"rain":0.0,"pressure":1004.3,"uv_index":6.6,"wind_gusts":31.0,"aqi":112,"pm10":40.5,"pm2_5":29.4,"no2":7.6,"co":257.0,"o3":173.0,"so2":11.3,"mosquito_risk":3,"arthritis_risk":5,"migraine_risk":4,"frizz_risk":1,"updated_at":"2026-06-18T18:25:59.080691+05:30"},{"city":"Kolkata","state":"West Bengal","latitude":22.5726,"longitude":88.3639,"temp":29.2,"humidity":83,"rain":0.0,"pressure":1001.5,"uv_index":8.95,"wind_gusts":42.1,"aqi":128,"pm10":57.7,"pm2_5":48.5,"no2":14.1,"co":557.0,"o3":99.0,"so2":10.7,"mosquito_risk":7,"arthritis_risk":5,"migraine_risk":4,"frizz_risk":1,"updated_at":"2026-06-18T18:25:59.080699+05:30"},{"city":"Pune","state":"Maharashtra","latitude":18.5204,"longitude":73.8567,"temp":29.4,"humidity":50,"rain":0.0,"pressure":946.1,"uv_index":8.3,"wind_gusts":43.9,"aqi":50,"pm10":24.3,"pm2_5":14.2,"no2":3.3,"co":140.0,"o3":81.0,"so2":3.1,"mosquito_risk":4,"arthritis_risk":5,"migraine_risk":7,"frizz_risk":1,"updated_at":"2026-06-18T18:25:59.080706+05:30"},{"city":"Ahmedabad","state":"Gujarat","latitude":23.0225,"longitude":72.5714,"temp":33.1,"humidity":51,"rain":0.0,"pressure":997.4,"uv_index":4.45,"wind_gusts":30.2,"aqi":68,"pm10":54.9,"pm2_5":19.5,"no2":3.8,"co":166.0,"o3":80.0,"so2":3.0,"mosquito_risk":0,"arthritis_risk":5,"migraine_risk":3,"frizz_risk":1,"updated_at":"2026-06-18T18:25:59.080714+05:30"},{"city":"Jaipur","state":"Rajasthan","latitude":26.9124,"longitude":75.7873,"temp":34.9,"humidity":35,"rain":0.0,"pressure":955.2,"uv_index":8.2,"wind_gusts":33.1,"aqi":116,"pm10":126.2,"pm2_5":40.5,"no2":6.0,"co":156.0,"o3":85.0,"so2":3.3,"mosquito_risk":0,"arthritis_risk":5,"migraine_risk":7,"frizz_risk":1,"updated_at":"2026-06-18T18:25:59.080725+05:30"},{"city":"Lucknow","state":"Uttar Pradesh","latitude":26.8467,"longitude":80.9462,"temp":35.1,"humidity":44,"rain":0.0,"pressure":987.0,"uv_index":8.35,"wind_gusts":43.2,"aqi":156,"pm10":189.1,"pm2_5":55.6,"no2":3.4,"co":219.0,"o3":135.0,"so2":6.9,"mosquito_risk":0,"arthritis_risk":5,"migraine_risk":10,"frizz_risk":1,"updated_at":"2026-06-18T18:25:59.080733+05:30"},{"city":"Kanpur","state":"Uttar Pradesh","latitude":26.4499,"longitude":80.3319,"temp":35.9,"humidity":42,"rain":0.0,"pressure":985.3,"uv_index":8.25,"wind_gusts":43.2,"aqi":154,"pm10":281.3,"pm2_5":58.3,"no2":3.1,"co":185.0,"o3":131.0,"so2":5.2,"mosquito_risk":0,"arthritis_risk":5,"migraine_risk":10,"frizz_risk":1,"updated_at":"2026-06-18T18:25:59.080740+05:30"},{"city":"Chandigarh","state":"Chandigarh","latitude":30.7333,"longitude":76.7794,"temp":32.6,"humidity":46,"rain":0.0,"pressure":963.6,"uv_index":7.8,"wind_gusts":28.8,"aqi":170,"pm10":51.8,"pm2_5":34.3,"no2":4.6,"co":427.0,"o3":173.0,"so2":9.5,"mosquito_risk":0,"arthritis_risk":5,"migraine_risk":7,"frizz_risk":1,"updated_at":"2026-06-18T18:25:59.080747+05:30"},{"city":"Srinagar","state":"Jammu and Kashmir","latitude":34.0837,"longitude":74.7973,"temp":22.2,"humidity":59,"rain":0.0,"pressure":841.6,"uv_index":8.85,"wind_gusts":34.9,"aqi":101,"pm10":21.0,"pm2_5":16.5,"no2":7.2,"co":388.0,"o3":118.0,"so2":2.3,"mosquito_risk":0,"arthritis_risk":5,"migraine_risk":7,"frizz_risk":0,"updated_at":"2026-06-18T18:25:59.080754+05:30"},{"city":"Jammu","state":"Jammu and Kashmir","latitude":32.7266,"longitude":74.857,"temp":35.8,"humidity":30,"rain":0.0,"pressure":967.6,"uv_index":8.65,"wind_gusts":29.9,"aqi":147,"pm10":31.9,"pm2_5":19.8,"no2":3.4,"co":233.0,"o3":161.0,"so2":2.3,"mosquito_risk":0,"arthritis_risk":5,"migraine_risk":10,"frizz_risk":0,"updated_at":"2026-06-18T18:25:59.080761+05:30"},{"city":"Amritsar","state":"Punjab","latitude":31.634,"longitude":74.8723,"temp":33.1,"humidity":58,"rain":0.0,"pressure":975.5,"uv_index":8.5,"wind_gusts":25.2,"aqi":176,"pm10":55.3,"pm2_5":39.3,"no2":4.2,"co":391.0,"o3":190.0,"so2":9.7,"mosquito_risk":0,"arthritis_risk":5,"migraine_risk":7,"frizz_risk":1,"updated_at":"2026-06-18T18:25:59.080767+05:30"},{"city":"Ludhiana","state":"Punjab","latitude":30.901,"longitude":75.8573,"temp":34.1,"humidity":39,"rain":0.0,"pressure":973.2,"uv_index":7.4,"wind_gusts":28.8,"aqi":161,"pm10":58.4,"pm2_5":34.0,"no2":3.3,"co":285.0,"o3":159.0,"so2":3.6,"mosquito_risk":0,"arthritis_risk":5,"migraine_risk":7,"frizz_risk":1,"updated_at":"2026-06-18T18:25:59.080773+05:30"},{"city":"Jalandhar","state":"Punjab","latitude":31.326,"longitude":75.5762,"temp":34.3,"humidity":43,"rain":0.0,"pressure":974.3,"uv_index":8.25,"wind_gusts":27.7,"aqi":162,"pm10":57.9,"pm2_5":36.4,"no2":3.2,"co":373.0,"o3":167.0,"so2":4.8,"mosquito_risk":0,"arthritis_risk":5,"migraine_risk":7,"frizz_risk":1,"updated_at":"2026-06-18T18:25:59.080798+05:30"},{"city":"Dehradun","state":"Uttarakhand","latitude":30.6284,"longitude":78.0322,"temp":21.9,"humidity":69,"rain":0.0,"pressure":829.1,"uv_index":7.7,"wind_gusts":24.5,"aqi":113,"pm10":52.7,"pm2_5":23.0,"no2":2.4,"co":223.0,"o3":143.0,"so2":2.8,"mosquito_risk":3,"arthritis_risk":5,"migraine_risk":7,"frizz_risk":0,"updated_at":"2026-06-18T18:25:59.080807+05:30"},{"city":"Shimla","state":"Himachal Pradesh","latitude":31.1048,"longitude":77.1734,"temp":18.6,"humidity":62,"rain":0.0,"pressure":783.9,"uv_index":7.75,"wind_gusts":35.6,"aqi":123,"pm10":64.5,"pm2_5":31.4,"no2":2.5,"co":270.0,"o3":155.0,"so2":6.5,"mosquito_risk":3,"arthritis_risk":5,"migraine_risk":7,"frizz_risk":0,"updated_at":"2026-06-18T18:25:59.080819+05:30"},{"city":"Manali","state":"Himachal Pradesh","latitude":32.2396,"longitude":77.1887,"temp":20.7,"humidity":77,"rain":0.0,"pressure":818.0,"uv_index":9.6,"wind_gusts":29.5,"aqi":85,"pm10":5.9,"pm2_5":4.4,"no2":27.7,"co":157.0,"o3":104.0,"so2":0.3,"mosquito_risk":3,"arthritis_risk":5,"migraine_risk":7,"frizz_risk":1,"updated_at":"2026-06-18T18:25:59.080826+05:30"},{"city":"Gurgaon","state":"Haryana","latitude":28.4595,"longitude":77.0266,"temp":35.7,"humidity":36,"rain":0.0,"pressure":975.5,"uv_index":7.85,"wind_gusts":36.4,"aqi":214,"pm10":237.0,"pm2_5":59.4,"no2":11.7,"co":339.0,"o3":136.0,"so2":9.9,"mosquito_risk":0,"arthritis_risk":5,"migraine_risk":10,"frizz_risk":1,"updated_at":"2026-06-18T18:25:59.080833+05:30"},{"city":"Noida","state":"Uttar Pradesh","latitude":28.5355,"longitude":77.391,"temp":35.4,"humidity":38,"rain":0.0,"pressure":978.2,"uv_index":7.8,"wind_gusts":26.3,"aqi":214,"pm10":237.0,"pm2_5":59.4,"no2":11.7,"co":400.0,"o3":136.0,"so2":9.9,"mosquito_risk":0,"arthritis_risk":5,"migraine_risk":10,"frizz_risk":1,"updated_at":"2026-06-18T18:25:59.080841+05:30"},{"city":"Ghaziabad","state":"Uttar Pradesh","latitude":28.6692,"longitude":77.4538,"temp":34.2,"humidity":44,"rain":0.0,"pressure":976.5,"uv_index":7.35,"wind_gusts":31.3,"aqi":215,"pm10":159.7,"pm2_5":58.2,"no2":10.1,"co":287.0,"o3":166.0,"so2":16.8,"mosquito_risk":0,"arthritis_risk":5,"migraine_risk":7,"frizz_risk":1,"updated_at":"2026-06-18T18:25:59.080848+05:30"},{"city":"Faridabad","state":"Haryana","latitude":28.4089,"longitude":77.3178,"temp":36.3,"humidity":34,"rain":0.0,"pressure":977.7,"uv_index":7.85,"wind_gusts":37.8,"aqi":214,"pm10":237.0,"pm2_5":59.4,"no2":11.7,"co":255.0,"o3":136.0,"so2":9.9,"mosquito_risk":0,"arthritis_risk":5,"migraine_risk":10,"frizz_risk":1,"updated_at":"2026-06-18T18:25:59.080854+05:30"},{"city":"Meerut","state":"Uttar Pradesh","latitude":28.9845,"longitude":77.7064,"temp":35.1,"humidity":41,"rain":0.0,"pressure":975.3,"uv_index":7.7,"wind_gusts":42.1,"aqi":215,"pm10":159.7,"pm2_5":58.2,"no2":10.1,"co":240.0,"o3":166.0,"so2":16.8,"mosquito_risk":0,"arthritis_risk":5,"migraine_risk":10,"frizz_risk":1,"updated_at":"2026-06-18T18:25:59.080861+05:30"},{"city":"Agra","state":"Uttar Pradesh","latitude":27.1767,"longitude":78.0081,"temp":37.8,"humidity":29,"rain":0.0,"pressure":981.3,"uv_index":8.15,"wind_gusts":31.7,"aqi":188,"pm10":512.2,"pm2_5":79.4,"no2":4.3,"co":160.0,"o3":117.0,"so2":4.6,"mosquito_risk":0,"arthritis_risk":5,"migraine_risk":10,"frizz_risk":1,"updated_at":"2026-06-18T18:25:59.080868+05:30"},{"city":"Varanasi","state":"Uttar Pradesh","latitude":25.3176,"longitude":82.9739,"temp":37.6,"humidity":36,"rain":0.0,"pressure":990.7,"uv_index":8.8,"wind_gusts":31.3,"aqi":151,"pm10":82.0,"pm2_5":37.6,"no2":3.9,"co":215.0,"o3":133.0,"so2":6.1,"mosquito_risk":0,"arthritis_risk":5,"migraine_risk":10,"frizz_risk":1,"updated_at":"2026-06-18T18:25:59.080875+05:30"},{"city":"Prayagraj","state":"Uttar Pradesh","latitude":25.4358,"longitude":81.8463,"temp":37.9,"humidity":33,"rain":0.0,"pressure":989.2,"uv_index":8.3,"wind_gusts":32.0,"aqi":138,"pm10":78.2,"pm2_5":32.6,"no2":3.4,"co":167.0,"o3":122.0,"so2":5.7,"mosquito_risk":0,"arthritis_risk":5,"migraine_risk":10,"frizz_risk":1,"updated_at":"2026-06-18T18:25:59.080882+05:30"},{"city":"Gorakhpur","state":"Uttar Pradesh","latitude":26.7606,"longitude":83.3732,"temp":34.7,"humidity":52,"rain":0.0,"pressure":990.2,"uv_index":8.7,"wind_gusts":31.0,"aqi":152,"pm10":115.3,"pm2_5":45.5,"no2":6.4,"co":254.0,"o3":140.0,"so2":8.9,"mosquito_risk":0,"arthritis_risk":5,"migraine_risk":7,"frizz_risk":1,"updated_at":"2026-06-18T18:25:59.080890+05:30"},{"city":"Bareilly","state":"Uttar Pradesh","latitude":28.367,"longitude":79.4304,"temp":34.0,"humidity":50,"rain":0.0,"pressure":980.2,"uv_index":8.15,"wind_gusts":26.3,"aqi":158,"pm10":115.0,"pm2_5":46.2,"no2":3.8,"co":241.0,"o3":145.0,"so2":8.4,"mosquito_risk":0,"arthritis_risk":5,"migraine_risk":7,"frizz_risk":1,"updated_at":"2026-06-18T18:25:59.080896+05:30"},{"city":"Aligarh","state":"Uttar Pradesh","latitude":27.8974,"longitude":78.088,"temp":35.6,"humidity":38,"rain":0.0,"pressure":979.2,"uv_index":7.95,"wind_gusts":32.4,"aqi":233,"pm10":393.9,"pm2_5":85.0,"no2":8.2,"co":191.0,"o3":155.0,"so2":12.7,"mosquito_risk":0,"arthritis_risk":5,"migraine_risk":10,"frizz_risk":1,"updated_at":"2026-06-18T18:25:59.080903+05:30"},{"city":"Moradabad","state":"Uttar Pradesh","latitude":28.8386,"longitude":78.7733,"temp":34.7,"humidity":44,"rain":0.0,"pressure":977.4,"uv_index":7.95,"wind_gusts":32.0,"aqi":168,"pm10":96.2,"pm2_5":46.6,"no2":7.5,"co":258.0,"o3":138.0,"so2":9.0,"mosquito_risk":0,"arthritis_risk":5,"migraine_risk":7,"frizz_risk":1,"updated_at":"2026-06-18T18:25:59.080909+05:30"},{"city":"Saharanpur","state":"Uttar Pradesh","latitude":29.9637,"longitude":77.546,"temp":33.2,"humidity":50,"rain":0.0,"pressure":969.8,"uv_index":7.55,"wind_gusts":24.5,"aqi":172,"pm10":112.9,"pm2_5":45.9,"no2":5.6,"co":296.0,"o3":163.0,"so2":11.6,"mosquito_risk":0,"arthritis_risk":5,"migraine_risk":7,"frizz_risk":1,"updated_at":"2026-06-18T18:25:59.080915+05:30"},{"city":"Jhansi","state":"Uttar Pradesh","latitude":25.4484,"longitude":78.5685,"temp":35.3,"humidity":40,"rain":0.0,"pressure":972.7,"uv_index":8.5,"wind_gusts":32.0,"aqi":79,"pm10":87.3,"pm2_5":33.2,"no2":2.0,"co":135.0,"o3":95.0,"so2":3.2,"mosquito_risk":0,"arthritis_risk":5,"migraine_risk":10,"frizz_risk":1,"updated_at":"2026-06-18T18:26:02.380138+05:30"},{"city":"Surat","state":"Gujarat","latitude":21.1702,"longitude":72.8311,"temp":30.9,"humidity":67,"rain":0.0,"pressure":1003.4,"uv_index":7.6,"wind_gusts":49.7,"aqi":72,"pm10":41.3,"pm2_5":21.1,"no2":12.2,"co":214.0,"o3":42.0,"so2":29.9,"mosquito_risk":3,"arthritis_risk":5,"migraine_risk":4,"frizz_risk":1,"updated_at":"2026-06-18T18:26:02.380170+05:30"},{"city":"Vadodara","state":"Gujarat","latitude":22.3072,"longitude":73.1812,"temp":32.7,"humidity":52,"rain":0.0,"pressure":999.9,"uv_index":5.25,"wind_gusts":50.4,"aqi":64,"pm10":40.9,"pm2_5":19.4,"no2":5.4,"co":139.0,"o3":81.0,"so2":5.3,"mosquito_risk":0,"arthritis_risk":5,"migraine_risk":3,"frizz_risk":1,"updated_at":"2026-06-18T18:26:02.380180+05:30"},{"city":"Rajkot","state":"Gujarat","latitude":22.3039,"longitude":70.8022,"temp":32.2,"humidity":55,"rain":0.1,"pressure":990.0,"uv_index":4.15,"wind_gusts":45.7,"aqi":59,"pm10":42.6,"pm2_5":17.6,"no2":2.0,"co":104.0,"o3":78.0,"so2":3.8,"mosquito_risk":3,"arthritis_risk":5,"migraine_risk":3,"frizz_risk":1,"updated_at":"2026-06-18T18:26:02.380189+05:30"},{"city":"Thane","state":"Maharashtra","latitude":19.2183,"longitude":72.9781,"temp":31.8,"humidity":58,"rain":0.0,"pressure":1005.3,"uv_index":7.7,"wind_gusts":40.7,"aqi":61,"pm10":38.3,"pm2_5":18.7,"no2":6.4,"co":161.0,"o3":61.0,"so2":5.1,"mosquito_risk":0,"arthritis_risk":5,"migraine_risk":4,"frizz_risk":1,"updated_at":"2026-06-18T18:26:02.380197+05:30"},{"city":"Nagpur","state":"Maharashtra","latitude":21.1458,"longitude":79.0882,"temp":33.5,"humidity":46,"rain":0.0,"pressure":969.3,"uv_index":7.55,"wind_gusts":50.4,"aqi":78,"pm10":41.4,"pm2_5":21.4,"no2":7.1,"co":182.0,"o3":111.0,"so2":16.7,"mosquito_risk":0,"arthritis_risk":5,"migraine_risk":7,"frizz_risk":1,"updated_at":"2026-06-18T18:26:02.380205+05:30"},{"city":"Nashik","state":"Maharashtra","latitude":19.9975,"longitude":73.7898,"temp":30.3,"humidity":45,"rain":0.0,"pressure":943.3,"uv_index":8.0,"wind_gusts":45.4,"aqi":49,"pm10":30.2,"pm2_5":14.7,"no2":1.5,"co":115.0,"o3":72.0,"so2":1.0,"mosquito_risk":0,"arthritis_risk":5,"migraine_risk":7,"frizz_risk":1,"updated_at":"2026-06-18T18:26:02.380212+05:30"},{"city":"Aurangabad","state":"Maharashtra","latitude":19.8762,"longitude":75.3433,"temp":34.3,"humidity":25,"rain":0.0,"pressure":941.3,"uv_index":8.9,"wind_gusts":43.2,"aqi":49,"pm10":32.6,"pm2_5":16.3,"no2":1.8,"co":135.0,"o3":114.0,"so2":3.6,"mosquito_risk":0,"arthritis_risk":5,"migraine_risk":7,"frizz_risk":0,"updated_at":"2026-06-18T18:26:02.380220+05:30"},{"city":"Solapur","state":"Maharashtra","latitude":17.6599,"longitude":75.9064,"temp":34.6,"humidity":31,"rain":0.0,"pressure":954.1,"uv_index":8.7,"wind_gusts":43.9,"aqi":55,"pm10":25.8,"pm2_5":13.5,"no2":1.8,"co":130.0,"o3":116.0,"so2":2.5,"mosquito_risk":0,"arthritis_risk":5,"migraine_risk":7,"frizz_risk":0,"updated_at":"2026-06-18T18:26:02.380227+05:30"},{"city":"Kolhapur","state":"Maharashtra","latitude":16.705,"longitude":74.2433,"temp":29.5,"humidity":45,"rain":0.0,"pressure":946.4,"uv_index":8.75,"wind_gusts":43.6,"aqi":52,"pm10":28.3,"pm2_5":15.7,"no2":2.3,"co":124.0,"o3":84.0,"so2":1.6,"mosquito_risk":4,"arthritis_risk":5,"migraine_risk":7,"frizz_risk":1,"updated_at":"2026-06-18T18:26:02.380235+05:30"},{"city":"Goa","state":"Goa","latitude":15.2993,"longitude":74.124,"temp":30.2,"humidity":65,"rain":0.0,"pressure":996.5,"uv_index":8.65,"wind_gusts":33.5,"aqi":60,"pm10":34.7,"pm2_5":16.5,"no2":1.1,"co":112.0,"o3":60.0,"so2":1.3,"mosquito_risk":3,"arthritis_risk":5,"migraine_risk":7,"frizz_risk":1,"updated_at":"2026-06-18T18:26:02.380242+05:30"},{"city":"Jodhpur","state":"Rajasthan","latitude":26.2389,"longitude":73.0243,"temp":35.7,"humidity":40,"rain":0.1,"pressure":977.9,"uv_index":8.4,"wind_gusts":42.5,"aqi":104,"pm10":137.4,"pm2_5":30.3,"no2":1.2,"co":122.0,"o3":87.0,"so2":1.5,"mosquito_risk":3,"arthritis_risk":5,"migraine_risk":10,"frizz_risk":1,"updated_at":"2026-06-18T18:26:02.380250+05:30"},{"city":"Udaipur","state":"Rajasthan","latitude":24.5854,"longitude":73.7125,"temp":29.9,"humidity":56,"rain":0.0,"pressure":943.1,"uv_index":7.9,"wind_gusts":33.1,"aqi":66,"pm10":47.8,"pm2_5":20.1,"no2":1.2,"co":118.0,"o3":82.0,"so2":1.6,"mosquito_risk":4,"arthritis_risk":5,"migraine_risk":7,"frizz_risk":1,"updated_at":"2026-06-18T18:26:02.380257+05:30"},{"city":"Kota","state":"Rajasthan","latitude":25.2138,"longitude":75.8648,"temp":33.1,"humidity":50,"rain":0.0,"pressure":974.2,"uv_index":8.35,"wind_gusts":41.0,"aqi":72,"pm10":67.3,"pm2_5":28.9,"no2":2.7,"co":194.0,"o3":97.0,"so2":4.6,"mosquito_risk":0,"arthritis_risk":5,"migraine_risk":7,"frizz_risk":1,"updated_at":"2026-06-18T18:26:02.380265+05:30"},{"city":"Bikaner","state":"Rajasthan","latitude":28.0229,"longitude":73.3119,"temp":35.3,"humidity":44,"rain":0.0,"pressure":976.8,"uv_index":8.45,"wind_gusts":54.7,"aqi":125,"pm10":122.5,"pm2_5":38.0,"no2":0.7,"co":126.0,"o3":88.0,"so2":2.0,"mosquito_risk":0,"arthritis_risk":5,"migraine_risk":10,"frizz_risk":1,"updated_at":"2026-06-18T18:26:02.380272+05:30"},{"city":"Ajmer","state":"Rajasthan","latitude":26.4499,"longitude":74.6399,"temp":32.6,"humidity":48,"rain":0.0,"pressure":950.5,"uv_index":8.35,"wind_gusts":41.4,"aqi":85,"pm10":101.5,"pm2_5":32.6,"no2":1.3,"co":126.0,"o3":91.0,"so2":2.3,"mosquito_risk":0,"arthritis_risk":5,"migraine_risk":7,"frizz_risk":1,"updated_at":"2026-06-18T18:26:02.380279+05:30"},{"city":"Gwalior","state":"Madhya Pradesh","latitude":26.2183,"longitude":78.1828,"temp":37.1,"humidity":29,"rain":0.0,"pressure":977.4,"uv_index":8.25,"wind_gusts":34.6,"aqi":92,"pm10":122.0,"pm2_5":38.9,"no2":1.3,"co":139.0,"o3":101.0,"so2":2.1,"mosquito_risk":0,"arthritis_risk":5,"migraine_risk":10,"frizz_risk":0,"updated_at":"2026-06-18T18:26:02.380285+05:30"},{"city":"Indore","state":"Madhya Pradesh","latitude":22.7196,"longitude":75.8577,"temp":32.7,"humidity":39,"rain":0.0,"pressure":944.9,"uv_index":8.6,"wind_gusts":40.7,"aqi":77,"pm10":33.6,"pm2_5":18.1,"no2":2.6,"co":221.0,"o3":93.0,"so2":2.1,"mosquito_risk":0,"arthritis_risk":5,"migraine_risk":7,"frizz_risk":1,"updated_at":"2026-06-18T18:26:02.380292+05:30"},{"city":"Bhopal","state":"Madhya Pradesh","latitude":23.2599,"longitude":77.4126,"temp":33.3,"humidity":46,"rain":0.0,"pressure":949.5,"uv_index":8.65,"wind_gusts":35.3,"aqi":78,"pm10":42.7,"pm2_5":20.7,"no2":1.4,"co":273.0,"o3":101.0,"so2":2.6,"mosquito_risk":0,"arthritis_risk":5,"migraine_risk":7,"frizz_risk":1,"updated_at":"2026-06-18T18:26:02.380299+05:30"},{"city":"Jabalpur","state":"Madhya Pradesh","latitude":23.1815,"longitude":79.9864,"temp":29.8,"humidity":71,"rain":0.1,"pressure":957.4,"uv_index":3.75,"wind_gusts":36.0,"aqi":77,"pm10":31.9,"pm2_5":19.0,"no2":1.8,"co":232.0,"o3":112.0,"so2":2.4,"mosquito_risk":10,"arthritis_risk":5,"migraine_risk":3,"frizz_risk":1,"updated_at":"2026-06-18T18:26:02.380306+05:30"},{"city":"Ujjain","state":"Madhya Pradesh","latitude":23.1765,"longitude":75.7885,"temp":31.3,"humidity":48,"rain":0.0,"pressure":950.5,"uv_index":8.55,"wind_gusts":45.4,"aqi":68,"pm10":25.1,"pm2_5":14.9,"no2":1.7,"co":163.0,"o3":86.0,"so2":2.1,"mosquito_risk":0,"arthritis_risk":5,"migraine_risk":7,"frizz_risk":1,"updated_at":"2026-06-18T18:26:02.380313+05:30"},{"city":"Visakhapatnam","state":"Andhra Pradesh","latitude":17.6868,"longitude":83.2185,"temp":29.6,"humidity":85,"rain":0.0,"pressure":999.4,"uv_index":8.15,"wind_gusts":28.4,"aqi":125,"pm10":46.2,"pm2_5":34.8,"no2":18.2,"co":451.0,"o3":134.0,"so2":39.2,"mosquito_risk":7,"arthritis_risk":5,"migraine_risk":7,"frizz_risk":1,"updated_at":"2026-06-18T18:26:02.380320+05:30"},{"city":"Vijayawada","state":"Andhra Pradesh","latitude":16.5062,"longitude":80.648,"temp":33.8,"humidity":61,"rain":0.0,"pressure":997.9,"uv_index":8.65,"wind_gusts":27.4,"aqi":97,"pm10":34.5,"pm2_5":23.7,"no2":5.3,"co":261.0,"o3":136.0,"so2":7.6,"mosquito_risk":3,"arthritis_risk":5,"migraine_risk":7,"frizz_risk":1,"updated_at":"2026-06-18T18:26:02.380326+05:30"},{"city":"Guntur","state":"Andhra Pradesh","latitude":16.3067,"longitude":80.4365,"temp":33.6,"humidity":59,"rain":0.0,"pressure":999.1,"uv_index":8.7,"wind_gusts":38.5,"aqi":100,"pm10":32.0,"pm2_5":22.3,"no2":3.9,"co":284.0,"o3":142.0,"so2":6.4,"mosquito_risk":0,"arthritis_risk":5,"migraine_risk":7,"frizz_risk":1,"updated_at":"2026-06-18T18:26:02.380333+05:30"},{"city":"Nellore","state":"Andhra Pradesh","latitude":14.4426,"longitude":79.9865,"temp":33.9,"humidity":56,"rain":0.0,"pressure":1001.3,"uv_index":8.05,"wind_gusts":37.8,"aqi":81,"pm10":34.2,"pm2_5":24.6,"no2":7.6,"co":173.0,"o3":130.0,"so2":6.6,"mosquito_risk":0,"arthritis_risk":5,"migraine_risk":4,"frizz_risk":1,"updated_at":"2026-06-18T18:26:02.380340+05:30"},{"city":"Kurnool","state":"Andhra Pradesh","latitude":15.8281,"longitude":78.0373,"temp":33.6,"humidity":45,"rain":0.0,"pressure":973.4,"uv_index":8.7,"wind_gusts":36.0,"aqi":67,"pm10":27.2,"pm2_5":17.2,"no2":2.2,"co":149.0,"o3":127.0,"so2":6.7,"mosquito_risk":0,"arthritis_risk":5,"migraine_risk":7,"frizz_risk":1,"updated_at":"2026-06-18T18:26:02.380347+05:30"},{"city":"Kakinada","state":"Andhra Pradesh","latitude":16.9891,"longitude":82.2475,"temp":31.3,"humidity":75,"rain":0.0,"pressure":1003.0,"uv_index":5.6,"wind_gusts":24.8,"aqi":105,"pm10":44.1,"pm2_5":28.2,"no2":3.3,"co":275.0,"o3":143.0,"so2":5.2,"mosquito_risk":3,"arthritis_risk":5,"migraine_risk":0,"frizz_risk":1,"updated_at":"2026-06-18T18:26:02.380354+05:30"},{"city":"Tirupati","state":"Andhra Pradesh","latitude":13.6288,"longitude":79.4192,"temp":30.0,"humidity":67,"rain":0.0,"pressure":988.0,"uv_index":7.2,"wind_gusts":30.6,"aqi":81,"pm10":27.9,"pm2_5":18.5,"no2":8.0,"co":181.0,"o3":110.0,"so2":4.7,"mosquito_risk":7,"arthritis_risk":5,"migraine_risk":7,"frizz_risk":1,"updated_at":"2026-06-18T18:26:02.380361+05:30"},{"city":"Warangal","state":"Telangana","latitude":17.9689,"longitude":79.5941,"temp":34.1,"humidity":47,"rain":0.0,"pressure":974.6,"uv_index":8.9,"wind_gusts":32.0,"aqi":123,"pm10":39.5,"pm2_5":27.6,"no2":3.9,"co":170.0,"o3":136.0,"so2":10.4,"mosquito_risk":0,"arthritis_risk":5,"migraine_risk":7,"frizz_risk":1,"updated_at":"2026-06-18T18:26:02.380367+05:30"},{"city":"Nizamabad","state":"Telangana","latitude":18.6725,"longitude":78.0941,"temp":35.2,"humidity":33,"rain":0.0,"pressure":961.1,"uv_index":8.9,"wind_gusts":34.2,"aqi":80,"pm10":36.1,"pm2_5":16.8,"no2":1.8,"co":146.0,"o3":100.0,"so2":2.2,"mosquito_risk":0,"arthritis_risk":5,"migraine_risk":10,"frizz_risk":1,"updated_at":"2026-06-18T18:26:02.380374+05:30"},{"city":"Mysore","state":"Karnataka","latitude":12.2958,"longitude":76.6396,"temp":23.3,"humidity":90,"rain":0.1,"pressure":927.5,"uv_index":8.3,"wind_gusts":25.6,"aqi":45,"pm10":18.7,"pm2_5":12.3,"no2":15.4,"co":246.0,"o3":56.0,"so2":2.7,"mosquito_risk":6,"arthritis_risk":5,"migraine_risk":7,"frizz_risk":1,"updated_at":"2026-06-18T18:26:02.380381+05:30"},{"city":"Mangalore","state":"Karnataka","latitude":12.9141,"longitude":74.856,"temp":28.9,"humidity":76,"rain":0.0,"pressure":1005.8,"uv_index":7.7,"wind_gusts":24.8,"aqi":66,"pm10":32.9,"pm2_5":15.3,"no2":3.0,"co":134.0,"o3":59.0,"so2":2.1,"mosquito_risk":7,"arthritis_risk":5,"migraine_risk":4,"frizz_risk":1,"updated_at":"2026-06-18T18:26:02.380387+05:30"},{"city":"Hubli-Dharwad","state":"Karnataka","latitude":15.3647,"longitude":75.124,"temp":27.1,"humidity":67,"rain":0.0,"pressure":939.5,"uv_index":8.85,"wind_gusts":38.5,"aqi":50,"pm10":26.1,"pm2_5":13.8,"no2":3.0,"co":140.0,"o3":82.0,"so2":1.3,"mosquito_risk":7,"arthritis_risk":5,"migraine_risk":7,"frizz_risk":1,"updated_at":"2026-06-18T18:26:02.380394+05:30"},{"city":"Belgaum","state":"Karnataka","latitude":15.8497,"longitude":74.4977,"temp":26.8,"humidity":61,"rain":0.0,"pressure":924.4,"uv_index":8.95,"wind_gusts":37.4,"aqi":53,"pm10":30.5,"pm2_5":15.9,"no2":2.0,"co":112.0,"o3":72.0,"so2":1.3,"mosquito_risk":7,"arthritis_risk":5,"migraine_risk":7,"frizz_risk":1,"updated_at":"2026-06-18T18:26:05.673923+05:30"},{"city":"Coimbatore","state":"Tamil Nadu","latitude":11.0168,"longitude":76.9558,"temp":25.7,"humidity":81,"rain":0.0,"pressure":961.1,"uv_index":8.75,"wind_gusts":33.5,"aqi":41,"pm10":14.5,"pm2_5":10.6,"no2":9.1,"co":232.0,"o3":72.0,"so2":2.5,"mosquito_risk":7,"arthritis_risk":5,"migraine_risk":7,"frizz_risk":1,"updated_at":"2026-06-18T18:26:05.673957+05:30"},{"city":"Madurai","state":"Tamil Nadu","latitude":9.9252,"longitude":78.1198,"temp":29.1,"humidity":67,"rain":0.0,"pressure":992.1,"uv_index":7.6,"wind_gusts":42.5,"aqi":70,"pm10":25.7,"pm2_5":15.9,"no2":9.8,"co":292.0,"o3":100.0,"so2":2.9,"mosquito_risk":7,"arthritis_risk":5,"migraine_risk":7,"frizz_risk":1,"updated_at":"2026-06-18T18:26:05.673968+05:30"},{"city":"Trichy","state":"Tamil Nadu","latitude":10.7905,"longitude":78.7047,"temp":31.6,"humidity":57,"rain":0.0,"pressure":997.9,"uv_index":8.5,"wind_gusts":45.0,"aqi":64,"pm10":17.2,"pm2_5":11.6,"no2":4.4,"co":242.0,"o3":123.0,"so2":3.8,"mosquito_risk":0,"arthritis_risk":5,"migraine_risk":7,"frizz_risk":1,"updated_at":"2026-06-18T18:26:05.673977+05:30"},{"city":"Salem","state":"Tamil Nadu","latitude":11.6643,"longitude":78.146,"temp":29.1,"humidity":66,"rain":0.0,"pressure":975.9,"uv_index":8.05,"wind_gusts":38.2,"aqi":60,"pm10":16.0,"pm2_5":11.3,"no2":9.1,"co":226.0,"o3":99.0,"so2":9.0,"mosquito_risk":7,"arthritis_risk":5,"migraine_risk":7,"frizz_risk":1,"updated_at":"2026-06-18T18:26:05.673986+05:30"},{"city":"Tirunelveli","state":"Tamil Nadu","latitude":8.7139,"longitude":77.7567,"temp":32.0,"humidity":50,"rain":0.0,"pressure":1001.4,"uv_index":8.0,"wind_gusts":30.2,"aqi":52,"pm10":14.5,"pm2_5":9.5,"no2":4.3,"co":186.0,"o3":73.0,"so2":1.4,"mosquito_risk":0,"arthritis_risk":5,"migraine_risk":4,"frizz_risk":1,"updated_at":"2026-06-18T18:26:05.673994+05:30"},{"city":"Vellore","state":"Tamil Nadu","latitude":12.9165,"longitude":79.1325,"temp":29.3,"humidity":85,"rain":0.0,"pressure":981.9,"uv_index":8.2,"wind_gusts":45.0,"aqi":69,"pm10":26.0,"pm2_5":16.9,"no2":5.8,"co":186.0,"o3":102.0,"so2":3.2,"mosquito_risk":7,"arthritis_risk":5,"migraine_risk":7,"frizz_risk":1,"updated_at":"2026-06-18T18:26:05.674002+05:30"},{"city":"Erode","state":"Tamil Nadu","latitude":11.341,"longitude":77.7172,"temp":29.7,"humidity":62,"rain":0.0,"pressure":987.9,"uv_index":7.7,"wind_gusts":31.3,"aqi":53,"pm10":17.3,"pm2_5":11.6,"no2":6.4,"co":250.0,"o3":111.0,"so2":2.2,"mosquito_risk":7,"arthritis_risk":5,"migraine_risk":7,"frizz_risk":1,"updated_at":"2026-06-18T18:26:05.674009+05:30"},{"city":"Kochi","state":"Kerala","latitude":9.9312,"longitude":76.2673,"temp":27.3,"humidity":83,"rain":0.0,"pressure":1008.3,"uv_index":5.15,"wind_gusts":36.0,"aqi":75,"pm10":19.6,"pm2_5":13.4,"no2":12.3,"co":154.0,"o3":48.0,"so2":3.7,"mosquito_risk":7,"arthritis_risk":0,"migraine_risk":0,"frizz_risk":1,"updated_at":"2026-06-18T18:26:05.674017+05:30"},{"city":"Thiruvananthapuram","state":"Kerala","latitude":8.5241,"longitude":76.9366,"temp":25.8,"humidity":94,"rain":0.1,"pressure":1007.6,"uv_index":7.1,"wind_gusts":42.1,"aqi":58,"pm10":20.7,"pm2_5":10.5,"no2":2.7,"co":171.0,"o3":63.0,"so2":1.2,"mosquito_risk":10,"arthritis_risk":5,"migraine_risk":4,"frizz_risk":1,"updated_at":"2026-06-18T18:26:05.674024+05:30"},{"city":"Kozhikode","state":"Kerala","latitude":11.2588,"longitude":75.7804,"temp":26.4,"humidity":97,"rain":0.1,"pressure":1007.2,"uv_index":6.6,"wind_gusts":33.5,"aqi":55,"pm10":22.2,"pm2_5":11.5,"no2":1.3,"co":172.0,"o3":71.0,"so2":1.3,"mosquito_risk":10,"arthritis_risk":5,"migraine_risk":4,"frizz_risk":1,"updated_at":"2026-06-18T18:26:05.674031+05:30"},{"city":"Thrissur","state":"Kerala","latitude":10.5276,"longitude":76.2144,"temp":25.9,"humidity":96,"rain":0.1,"pressure":1006.7,"uv_index":4.1,"wind_gusts":28.1,"aqi":87,"pm10":17.8,"pm2_5":13.2,"no2":11.5,"co":191.0,"o3":51.0,"so2":2.7,"mosquito_risk":10,"arthritis_risk":5,"migraine_risk":0,"frizz_risk":1,"updated_at":"2026-06-18T18:26:05.674040+05:30"},{"city":"Kannur","state":"Kerala","latitude":11.8745,"longitude":75.3704,"temp":26.9,"humidity":89,"rain":0.0,"pressure":1006.3,"uv_index":8.05,"wind_gusts":36.4,"aqi":54,"pm10":29.7,"pm2_5":15.9,"no2":4.2,"co":174.0,"o3":69.0,"so2":2.1,"mosquito_risk":7,"arthritis_risk":5,"migraine_risk":4,"frizz_risk":1,"updated_at":"2026-06-18T18:26:05.674048+05:30"},{"city":"Patna","state":"Bihar","latitude":25.5941,"longitude":85.1376,"temp":36.1,"humidity":45,"rain":0.0,"pressure":993.6,"uv_index":8.85,"wind_gusts":35.6,"aqi":160,"pm10":97.6,"pm2_5":44.8,"no2":13.7,"co":254.0,"o3":105.0,"so2":6.6,"mosquito_risk":0,"arthritis_risk":5,"migraine_risk":10,"frizz_risk":1,"updated_at":"2026-06-18T18:26:05.674054+05:30"},{"city":"Gaya","state":"Bihar","latitude":24.7914,"longitude":85.0002,"temp":34.2,"humidity":58,"rain":0.0,"pressure":987.8,"uv_index":8.85,"wind_gusts":34.2,"aqi":161,"pm10":85.9,"pm2_5":47.6,"no2":8.4,"co":232.0,"o3":124.0,"so2":6.9,"mosquito_risk":0,"arthritis_risk":5,"migraine_risk":7,"frizz_risk":1,"updated_at":"2026-06-18T18:26:05.674061+05:30"},{"city":"Muzaffarpur","state":"Bihar","latitude":26.1209,"longitude":85.3647,"temp":33.6,"humidity":67,"rain":0.0,"pressure":993.6,"uv_index":8.85,"wind_gusts":23.8,"aqi":160,"pm10":104.3,"pm2_5":48.3,"no2":14.4,"co":318.0,"o3":104.0,"so2":7.1,"mosquito_risk":3,"arthritis_risk":5,"migraine_risk":7,"frizz_risk":1,"updated_at":"2026-06-18T18:26:05.674068+05:30"},{"city":"Bhagalpur","state":"Bihar","latitude":25.2425,"longitude":87.0117,"temp":33.5,"humidity":59,"rain":0.0,"pressure":994.9,"uv_index":8.45,"wind_gusts":26.6,"aqi":177,"pm10":105.5,"pm2_5":56.2,"no2":7.3,"co":324.0,"o3":154.0,"so2":12.3,"mosquito_risk":0,"arthritis_risk":5,"migraine_risk":7,"frizz_risk":1,"updated_at":"2026-06-18T18:26:05.674076+05:30"},{"city":"Ranchi","state":"Jharkhand","latitude":23.3441,"longitude":85.3096,"temp":28.5,"humidity":69,"rain":0.0,"pressure":934.3,"uv_index":7.6,"wind_gusts":34.9,"aqi":151,"pm10":66.6,"pm2_5":54.0,"no2":6.0,"co":223.0,"o3":136.0,"so2":8.7,"mosquito_risk":7,"arthritis_risk":5,"migraine_risk":7,"frizz_risk":1,"updated_at":"2026-06-18T18:26:05.674083+05:30"},{"city":"Jamshedpur","state":"Jharkhand","latitude":22.8046,"longitude":86.2029,"temp":32.9,"humidity":60,"rain":0.0,"pressure":986.1,"uv_index":8.9,"wind_gusts":34.2,"aqi":193,"pm10":86.6,"pm2_5":60.3,"no2":12.5,"co":333.0,"o3":152.0,"so2":27.9,"mosquito_risk":0,"arthritis_risk":5,"migraine_risk":7,"frizz_risk":1,"updated_at":"2026-06-18T18:26:05.674090+05:30"},{"city":"Dhanbad","state":"Jharkhand","latitude":23.7957,"longitude":86.4304,"temp":31.4,"humidity":65,"rain":0.0,"pressure":975.1,"uv_index":8.85,"wind_gusts":50.4,"aqi":189,"pm10":143.0,"pm2_5":88.7,"no2":30.5,"co":210.0,"o3":173.0,"so2":77.4,"mosquito_risk":3,"arthritis_risk":5,"migraine_risk":7,"frizz_risk":1,"updated_at":"2026-06-18T18:26:05.674097+05:30"},{"city":"Bokaro","state":"Jharkhand","latitude":23.6693,"longitude":86.1511,"temp":31.4,"humidity":63,"rain":0.0,"pressure":978.9,"uv_index":8.85,"wind_gusts":28.8,"aqi":170,"pm10":134.6,"pm2_5":73.1,"no2":23.0,"co":242.0,"o3":157.0,"so2":67.9,"mosquito_risk":3,"arthritis_risk":5,"migraine_risk":7,"frizz_risk":1,"updated_at":"2026-06-18T18:26:05.674104+05:30"},{"city":"Bhubaneswar","state":"Odisha","latitude":20.2961,"longitude":85.8245,"temp":30.0,"humidity":84,"rain":0.0,"pressure":998.1,"uv_index":8.75,"wind_gusts":32.4,"aqi":142,"pm10":56.8,"pm2_5":44.6,"no2":8.1,"co":410.0,"o3":141.0,"so2":9.5,"mosquito_risk":7,"arthritis_risk":5,"migraine_risk":7,"frizz_risk":1,"updated_at":"2026-06-18T18:26:05.674111+05:30"},{"city":"Cuttack","state":"Odisha","latitude":20.4625,"longitude":85.8828,"temp":30.1,"humidity":82,"rain":0.0,"pressure":1000.1,"uv_index":9.1,"wind_gusts":33.1,"aqi":142,"pm10":56.8,"pm2_5":44.6,"no2":8.1,"co":415.0,"o3":141.0,"so2":9.5,"mosquito_risk":3,"arthritis_risk":5,"migraine_risk":4,"frizz_risk":1,"updated_at":"2026-06-18T18:26:05.674118+05:30"},{"city":"Rourkela","state":"Odisha","latitude":22.2604,"longitude":84.8536,"temp":32.6,"humidity":64,"rain":0.0,"pressure":980.5,"uv_index":8.7,"wind_gusts":31.0,"aqi":161,"pm10":81.7,"pm2_5":54.5,"no2":3.9,"co":343.0,"o3":174.0,"so2":12.1,"mosquito_risk":3,"arthritis_risk":5,"migraine_risk":7,"frizz_risk":1,"updated_at":"2026-06-18T18:26:05.674124+05:30"},{"city":"Raipur","state":"Chhattisgarh","latitude":21.2514,"longitude":81.6296,"temp":27.6,"humidity":80,"rain":0.2,"pressure":971.6,"uv_index":8.95,"wind_gusts":49.3,"aqi":117,"pm10":41.7,"pm2_5":30.9,"no2":12.2,"co":153.0,"o3":123.0,"so2":30.7,"mosquito_risk":10,"arthritis_risk":5,"migraine_risk":7,"frizz_risk":1,"updated_at":"2026-06-18T18:26:05.674131+05:30"},{"city":"Bhilai","state":"Chhattisgarh","latitude":21.1938,"longitude":81.3509,"temp":27.7,"humidity":78,"rain":0.3,"pressure":972.2,"uv_index":8.9,"wind_gusts":37.1,"aqi":111,"pm10":32.5,"pm2_5":23.8,"no2":11.4,"co":213.0,"o3":108.0,"so2":24.1,"mosquito_risk":10,"arthritis_risk":5,"migraine_risk":7,"frizz_risk":1,"updated_at":"2026-06-18T18:26:05.674138+05:30"},{"city":"Guwahati","state":"Assam","latitude":26.1158,"longitude":91.7086,"temp":26.8,"humidity":98,"rain":0.0,"pressure":996.7,"uv_index":8.8,"wind_gusts":33.1,"aqi":94,"pm10":23.3,"pm2_5":20.6,"no2":5.9,"co":377.0,"o3":86.0,"so2":2.3,"mosquito_risk":7,"arthritis_risk":5,"migraine_risk":7,"frizz_risk":1,"updated_at":"2026-06-18T18:26:05.674144+05:30"},{"city":"Agartala","state":"Tripura","latitude":23.8315,"longitude":91.2868,"temp":28.0,"humidity":87,"rain":0.0,"pressure":1002.5,"uv_index":8.55,"wind_gusts":32.0,"aqi":83,"pm10":26.7,"pm2_5":22.5,"no2":8.3,"co":251.0,"o3":83.0,"so2":3.5,"mosquito_risk":7,"arthritis_risk":5,"migraine_risk":4,"frizz_risk":1,"updated_at":"2026-06-18T18:26:05.674151+05:30"},{"city":"Shillong","state":"Meghalaya","latitude":25.5788,"longitude":91.8933,"temp":20.4,"humidity":95,"rain":0.0,"pressure":854.8,"uv_index":7.8,"wind_gusts":23.0,"aqi":75,"pm10":21.0,"pm2_5":17.5,"no2":6.1,"co":314.0,"o3":100.0,"so2":3.1,"mosquito_risk":3,"arthritis_risk":5,"migraine_risk":7,"frizz_risk":1,"updated_at":"2026-06-18T18:26:05.674158+05:30"},{"city":"Imphal","state":"Manipur","latitude":24.817,"longitude":93.9368,"temp":25.2,"humidity":76,"rain":0.0,"pressure":920.0,"uv_index":9.15,"wind_gusts":29.9,"aqi":86,"pm10":18.7,"pm2_5":15.7,"no2":5.4,"co":258.0,"o3":84.0,"so2":2.1,"mosquito_risk":7,"arthritis_risk":5,"migraine_risk":7,"frizz_risk":1,"updated_at":"2026-06-18T18:26:05.674164+05:30"},{"city":"Aizawl","state":"Mizoram","latitude":23.7271,"longitude":92.7176,"temp":21.9,"humidity":87,"rain":0.0,"pressure":890.2,"uv_index":8.9,"wind_gusts":24.1,"aqi":52,"pm10":18.5,"pm2_5":14.8,"no2":2.8,"co":206.0,"o3":85.0,"so2":1.5,"mosquito_risk":3,"arthritis_risk":5,"migraine_risk":7,"frizz_risk":1,"updated_at":"2026-06-18T18:26:05.674171+05:30"},{"city":"Kohima","state":"Nagaland","latitude":25.6701,"longitude":94.1077,"temp":21.2,"humidity":93,"rain":0.1,"pressure":853.1,"uv_index":7.65,"wind_gusts":25.9,"aqi":62,"pm10":25.3,"pm2_5":20.5,"no2":5.3,"co":221.0,"o3":79.0,"so2":1.8,"mosquito_risk":6,"arthritis_risk":5,"migraine_risk":7,"frizz_risk":1,"updated_at":"2026-06-18T18:26:05.674178+05:30"},{"city":"Gangtok","state":"Sikkim","latitude":27.3314,"longitude":88.6138,"temp":19.0,"humidity":97,"rain":0.1,"pressure":834.9,"uv_index":8.15,"wind_gusts":33.5,"aqi":94,"pm10":8.7,"pm2_5":7.3,"no2":5.7,"co":369.0,"o3":131.0,"so2":3.5,"mosquito_risk":6,"arthritis_risk":10,"migraine_risk":7,"frizz_risk":1,"updated_at":"2026-06-18T18:26:05.674185+05:30"},{"city":"Siliguri","state":"West Bengal","latitude":26.7271,"longitude":88.3953,"temp":25.2,"humidity":99,"rain":0.1,"pressure":988.4,"uv_index":8.75,"wind_gusts":23.0,"aqi":135,"pm10":37.1,"pm2_5":28.9,"no2":7.1,"co":706.0,"o3":142.0,"so2":6.3,"mosquito_risk":10,"arthritis_risk":5,"migraine_risk":7,"frizz_risk":1,"updated_at":"2026-06-18T18:26:08.968956+05:30"},{"city":"Durgapur","state":"West Bengal","latitude":23.5204,"longitude":87.3119,"temp":31.6,"humidity":68,"rain":0.0,"pressure":990.0,"uv_index":8.85,"wind_gusts":41.4,"aqi":217,"pm10":133.6,"pm2_5":104.5,"no2":28.6,"co":732.0,"o3":195.0,"so2":63.5,"mosquito_risk":3,"arthritis_risk":5,"migraine_risk":7,"frizz_risk":1,"updated_at":"2026-06-18T18:26:08.969008+05:30"},{"city":"Asansol","state":"West Bengal","latitude":23.6739,"longitude":86.9524,"temp":31.5,"humidity":67,"rain":0.0,"pressure":988.5,"uv_index":8.85,"wind_gusts":41.8,"aqi":204,"pm10":126.2,"pm2_5":105.0,"no2":33.8,"co":380.0,"o3":200.0,"so2":66.7,"mosquito_risk":3,"arthritis_risk":5,"migraine_risk":7,"frizz_risk":1,"updated_at":"2026-06-18T18:26:08.969019+05:30"},{"city":"Pondicherry","state":"Puducherry","latitude":11.9139,"longitude":79.8145,"temp":32.6,"humidity":60,"rain":0.0,"pressure":1005.4,"uv_index":7.95,"wind_gusts":41.0,"aqi":69,"pm10":28.6,"pm2_5":20.5,"no2":14.2,"co":270.0,"o3":121.0,"so2":5.3,"mosquito_risk":0,"arthritis_risk":5,"migraine_risk":4,"frizz_risk":1,"updated_at":"2026-06-18T18:26:08.969028+05:30"},{"city":"Port Blair","state":"Andaman and Nicobar Islands","latitude":11.6234,"longitude":92.7265,"temp":27.3,"humidity":87,"rain":0.0,"pressure":1007.2,"uv_index":8.7,"wind_gusts":32.4,"aqi":23,"pm10":9.4,"pm2_5":4.8,"no2":0.5,"co":106.0,"o3":43.0,"so2":0.3,"mosquito_risk":7,"arthritis_risk":5,"migraine_risk":4,"frizz_risk":1,"updated_at":"2026-06-18T18:26:08.969037+05:30"},{"city":"Haridwar","state":"Uttarakhand","latitude":29.9457,"longitude":78.1642,"temp":32.2,"humidity":56,"rain":0.0,"pressure":968.3,"uv_index":7.5,"wind_gusts":41.4,"aqi":155,"pm10":82.4,"pm2_5":39.6,"no2":2.8,"co":282.0,"o3":166.0,"so2":9.4,"mosquito_risk":0,"arthritis_risk":5,"migraine_risk":7,"frizz_risk":1,"updated_at":"2026-06-18T18:26:08.969045+05:30"},{"city":"Rishikesh","state":"Uttarakhand","latitude":30.0869,"longitude":78.2676,"temp":30.3,"humidity":63,"rain":0.0,"pressure":961.4,"uv_index":7.6,"wind_gusts":22.0,"aqi":142,"pm10":86.4,"pm2_5":38.3,"no2":1.5,"co":266.0,"o3":163.0,"so2":8.3,"mosquito_risk":3,"arthritis_risk":5,"migraine_risk":7,"frizz_risk":1,"updated_at":"2026-06-18T18:26:08.969053+05:30"},{"city":"Nainital","state":"Uttarakhand","latitude":29.3919,"longitude":79.4542,"temp":19.3,"humidity":84,"rain":0.0,"pressure":804.0,"uv_index":6.9,"wind_gusts":23.8,"aqi":154,"pm10":80.1,"pm2_5":32.9,"no2":2.1,"co":254.0,"o3":157.0,"so2":6.7,"mosquito_risk":3,"arthritis_risk":10,"migraine_risk":7,"frizz_risk":1,"updated_at":"2026-06-18T18:26:08.969062+05:30"},{"city":"Mussoorie","state":"Uttarakhand","latitude":30.4599,"longitude":78.0664,"temp":19.6,"humidity":76,"rain":0.0,"pressure":802.1,"uv_index":7.55,"wind_gusts":29.9,"aqi":151,"pm10":78.0,"pm2_5":36.4,"no2":2.4,"co":245.0,"o3":165.0,"so2":6.6,"mosquito_risk":3,"arthritis_risk":5,"migraine_risk":7,"frizz_risk":0,"updated_at":"2026-06-18T18:26:08.969069+05:30"},{"city":"Dharamshala","state":"Himachal Pradesh","latitude":32.219,"longitude":76.3234,"temp":23.0,"humidity":77,"rain":0.1,"pressure":867.2,"uv_index":8.5,"wind_gusts":43.9,"aqi":102,"pm10":26.1,"pm2_5":12.7,"no2":2.0,"co":237.0,"o3":133.0,"so2":1.1,"mosquito_risk":6,"arthritis_risk":5,"migraine_risk":7,"frizz_risk":1,"updated_at":"2026-06-18T18:26:08.969077+05:30"},{"city":"Dalhousie","state":"Himachal Pradesh","latitude":32.5387,"longitude":75.971,"temp":19.5,"humidity":80,"rain":0.1,"pressure":804.1,"uv_index":8.45,"wind_gusts":34.2,"aqi":132,"pm10":39.3,"pm2_5":18.1,"no2":2.7,"co":213.0,"o3":158.0,"so2":2.0,"mosquito_risk":6,"arthritis_risk":5,"migraine_risk":7,"frizz_risk":0,"updated_at":"2026-06-18T18:26:08.969085+05:30"},{"city":"Patiala","state":"Punjab","latitude":30.3398,"longitude":76.3869,"temp":35.0,"humidity":37,"rain":0.0,"pressure":972.8,"uv_index":7.7,"wind_gusts":32.8,"aqi":160,"pm10":217.0,"pm2_5":56.2,"no2":3.0,"co":280.0,"o3":162.0,"so2":5.5,"mosquito_risk":0,"arthritis_risk":5,"migraine_risk":7,"frizz_risk":1,"updated_at":"2026-06-18T18:26:08.969093+05:30"},{"city":"Bhatinda","state":"Punjab","latitude":30.211,"longitude":74.9455,"temp":35.7,"humidity":36,"rain":0.0,"pressure":978.3,"uv_index":8.3,"wind_gusts":29.9,"aqi":163,"pm10":58.2,"pm2_5":35.5,"no2":4.8,"co":219.0,"o3":146.0,"so2":9.9,"mosquito_risk":0,"arthritis_risk":5,"migraine_risk":10,"frizz_risk":1,"updated_at":"2026-06-18T18:26:08.969100+05:30"},{"city":"Rohtak","state":"Haryana","latitude":28.8955,"longitude":76.6066,"temp":33.3,"humidity":48,"rain":0.0,"pressure":976.1,"uv_index":7.8,"wind_gusts":34.9,"aqi":163,"pm10":343.7,"pm2_5":67.1,"no2":5.6,"co":230.0,"o3":138.0,"so2":5.2,"mosquito_risk":0,"arthritis_risk":5,"migraine_risk":7,"frizz_risk":1,"updated_at":"2026-06-18T18:26:08.969107+05:30"},{"city":"Panipat","state":"Haryana","latitude":29.3909,"longitude":76.9635,"temp":34.8,"humidity":42,"rain":0.0,"pressure":974.4,"uv_index":7.6,"wind_gusts":31.7,"aqi":309,"pm10":449.8,"pm2_5":80.3,"no2":5.6,"co":237.0,"o3":144.0,"so2":10.6,"mosquito_risk":0,"arthritis_risk":5,"migraine_risk":7,"frizz_risk":1,"updated_at":"2026-06-18T18:26:08.969114+05:30"},{"city":"Mathura","state":"Uttar Pradesh","latitude":27.4924,"longitude":77.6737,"temp":35.4,"humidity":42,"rain":0.0,"pressure":980.3,"uv_index":8.1,"wind_gusts":27.0,"aqi":188,"pm10":325.0,"pm2_5":64.3,"no2":6.1,"co":204.0,"o3":116.0,"so2":5.4,"mosquito_risk":0,"arthritis_risk":5,"migraine_risk":10,"frizz_risk":1,"updated_at":"2026-06-18T18:26:08.969121+05:30"},{"city":"Vrindavan","state":"Uttar Pradesh","latitude":27.5823,"longitude":77.7027,"temp":35.4,"humidity":42,"rain":0.0,"pressure":980.8,"uv_index":8.05,"wind_gusts":27.0,"aqi":188,"pm10":325.0,"pm2_5":64.3,"no2":6.1,"co":207.0,"o3":116.0,"so2":5.4,"mosquito_risk":0,"arthritis_risk":5,"migraine_risk":10,"frizz_risk":1,"updated_at":"2026-06-18T18:26:08.969128+05:30"},{"city":"Ayodhya","state":"Uttar Pradesh","latitude":26.7922,"longitude":82.1998,"temp":34.2,"humidity":54,"rain":0.0,"pressure":988.5,"uv_index":8.4,"wind_gusts":29.9,"aqi":153,"pm10":127.6,"pm2_5":51.2,"no2":5.6,"co":238.0,"o3":141.0,"so2":9.2,"mosquito_risk":0,"arthritis_risk":5,"migraine_risk":7,"frizz_risk":1,"updated_at":"2026-06-18T18:26:08.969136+05:30"},{"city":"Ratlam","state":"Madhya Pradesh","latitude":23.3315,"longitude":75.0367,"temp":30.5,"humidity":54,"rain":0.0,"pressure":951.7,"uv_index":8.45,"wind_gusts":46.4,"aqi":66,"pm10":24.7,"pm2_5":14.3,"no2":1.4,"co":133.0,"o3":85.0,"so2":2.1,"mosquito_risk":0,"arthritis_risk":5,"migraine_risk":7,"frizz_risk":1,"updated_at":"2026-06-18T18:26:08.969143+05:30"},{"city":"Sagar","state":"Madhya Pradesh","latitude":23.8388,"longitude":78.7378,"temp":32.5,"humidity":55,"rain":0.0,"pressure":946.1,"uv_index":8.55,"wind_gusts":46.4,"aqi":73,"pm10":35.9,"pm2_5":20.5,"no2":1.5,"co":147.0,"o3":107.0,"so2":2.2,"mosquito_risk":0,"arthritis_risk":5,"migraine_risk":7,"frizz_risk":1,"updated_at":"2026-06-18T18:26:08.969150+05:30"},{"city":"Satna","state":"Madhya Pradesh","latitude":24.6005,"longitude":80.8322,"temp":35.0,"humidity":41,"rain":0.0,"pressure":966.4,"uv_index":8.8,"wind_gusts":30.6,"aqi":91,"pm10":60.8,"pm2_5":24.8,"no2":1.1,"co":164.0,"o3":107.0,"so2":2.3,"mosquito_risk":0,"arthritis_risk":5,"migraine_risk":7,"frizz_risk":1,"updated_at":"2026-06-18T18:26:08.969158+05:30"},{"city":"Akola","state":"Maharashtra","latitude":20.7002,"longitude":77.0082,"temp":37.2,"humidity":24,"rain":0.0,"pressure":970.8,"uv_index":8.8,"wind_gusts":45.7,"aqi":63,"pm10":46.9,"pm2_5":19.9,"no2":2.3,"co":121.0,"o3":105.0,"so2":4.8,"mosquito_risk":0,"arthritis_risk":5,"migraine_risk":10,"frizz_risk":0,"updated_at":"2026-06-18T18:26:08.969166+05:30"},{"city":"Amravati","state":"Maharashtra","latitude":20.9374,"longitude":77.7796,"temp":35.5,"humidity":31,"rain":0.0,"pressure":963.6,"uv_index":8.8,"wind_gusts":42.1,"aqi":68,"pm10":45.4,"pm2_5":19.8,"no2":2.7,"co":127.0,"o3":105.0,"so2":5.8,"mosquito_risk":0,"arthritis_risk":5,"migraine_risk":10,"frizz_risk":0,"updated_at":"2026-06-18T18:26:08.969174+05:30"},{"city":"Latur","state":"Maharashtra","latitude":18.4088,"longitude":76.5604,"temp":33.4,"humidity":31,"rain":0.0,"pressure":937.1,"uv_index":8.55,"wind_gusts":42.8,"aqi":58,"pm10":32.4,"pm2_5":15.0,"no2":1.5,"co":138.0,"o3":107.0,"so2":2.4,"mosquito_risk":0,"arthritis_risk":5,"migraine_risk":7,"frizz_risk":0,"updated_at":"2026-06-18T18:26:08.969181+05:30"},{"city":"Nanded","state":"Maharashtra","latitude":19.1383,"longitude":77.3091,"temp":36.2,"humidity":31,"rain":0.0,"pressure":964.9,"uv_index":8.8,"wind_gusts":38.9,"aqi":61,"pm10":40.7,"pm2_5":16.8,"no2":1.7,"co":138.0,"o3":99.0,"so2":1.7,"mosquito_risk":0,"arthritis_risk":5,"migraine_risk":10,"frizz_risk":1,"updated_at":"2026-06-18T18:26:08.969188+05:30"},{"city":"Gulbarga","state":"Karnataka","latitude":17.3297,"longitude":76.8343,"temp":34.1,"humidity":31,"rain":0.0,"pressure":955.6,"uv_index":8.9,"wind_gusts":42.1,"aqi":61,"pm10":31.2,"pm2_5":16.2,"no2":2.7,"co":142.0,"o3":126.0,"so2":4.1,"mosquito_risk":0,"arthritis_risk":5,"migraine_risk":7,"frizz_risk":0,"updated_at":"2026-06-18T18:26:08.969195+05:30"},{"city":"Bidar","state":"Karnataka","latitude":17.9104,"longitude":77.5199,"temp":31.9,"humidity":47,"rain":0.0,"pressure":932.6,"uv_index":8.95,"wind_gusts":35.3,"aqi":62,"pm10":38.3,"pm2_5":18.1,"no2":2.4,"co":159.0,"o3":111.0,"so2":3.6,"mosquito_risk":0,"arthritis_risk":5,"migraine_risk":7,"frizz_risk":1,"updated_at":"2026-06-18T18:26:08.969202+05:30"},{"city":"Hospet","state":"Karnataka","latitude":15.2689,"longitude":76.3909,"temp":27.3,"humidity":64,"rain":0.0,"pressure":953.9,"uv_index":8.45,"wind_gusts":44.6,"aqi":52,"pm10":27.9,"pm2_5":15.3,"no2":3.6,"co":185.0,"o3":110.0,"so2":2.9,"mosquito_risk":7,"arthritis_risk":5,"migraine_risk":7,"frizz_risk":1,"updated_at":"2026-06-18T18:26:08.969209+05:30"},{"city":"Tirupur","state":"Tamil Nadu","latitude":11.1085,"longitude":77.3411,"temp":27.4,"humidity":74,"rain":0.0,"pressure":974.2,"uv_index":8.5,"wind_gusts":33.5,"aqi":54,"pm10":16.1,"pm2_5":11.3,"no2":8.2,"co":222.0,"o3":93.0,"so2":3.1,"mosquito_risk":7,"arthritis_risk":5,"migraine_risk":7,"frizz_risk":1,"updated_at":"2026-06-18T18:26:08.969216+05:30"},{"city":"Alappuzha","state":"Kerala","latitude":9.4981,"longitude":76.3388,"temp":27.3,"humidity":84,"rain":0.0,"pressure":1008.4,"uv_index":7.35,"wind_gusts":32.0,"aqi":65,"pm10":18.6,"pm2_5":11.3,"no2":8.4,"co":96.0,"o3":58.0,"so2":3.0,"mosquito_risk":7,"arthritis_risk":0,"migraine_risk":4,"frizz_risk":1,"updated_at":"2026-06-18T18:26:08.969223+05:30"},{"city":"Munnar","state":"Kerala","latitude":10.0889,"longitude":77.0595,"temp":17.2,"humidity":100,"rain":0.1,"pressure":856.0,"uv_index":2.35,"wind_gusts":25.9,"aqi":34,"pm10":5.4,"pm2_5":4.5,"no2":7.4,"co":145.0,"o3":57.0,"so2":1.3,"mosquito_risk":6,"arthritis_risk":10,"migraine_risk":3,"frizz_risk":1,"updated_at":"2026-06-18T18:26:08.969231+05:30"},{"city":"Silchar","state":"Assam","latitude":24.8333,"longitude":92.7789,"temp":26.6,"humidity":95,"rain":0.1,"pressure":1001.4,"uv_index":8.5,"wind_gusts":40.3,"aqi":118,"pm10":20.8,"pm2_5":16.2,"no2":3.3,"co":288.0,"o3":92.0,"so2":2.9,"mosquito_risk":10,"arthritis_risk":5,"migraine_risk":4,"frizz_risk":1,"updated_at":"2026-06-18T18:26:08.969238+05:30"},{"city":"Dibrugarh","state":"Assam","latitude":27.4728,"longitude":94.912,"temp":28.0,"humidity":91,"rain":0.0,"pressure":990.3,"uv_index":8.45,"wind_gusts":22.7,"aqi":87,"pm10":24.1,"pm2_5":21.1,"no2":7.2,"co":316.0,"o3":104.0,"so2":2.7,"mosquito_risk":7,"arthritis_risk":5,"migraine_risk":7,"frizz_risk":1,"updated_at":"2026-06-18T18:26:08.969244+05:30"}]