[{"city":"Delhi","state":"Delhi","latitude":28.6139,"longitude":77.209,"temp":29.1,"humidity":38,"rain":0.0,"pressure":983.8,"uv_index":5.9,"wind_gusts":22.3,"aqi":195,"pm10":143.0,"pm2_5":44.0,"mosquito_risk":4,"arthritis_risk":5,"migraine_risk":3,"frizz_risk":0,"updated_at":"2026-03-17T14:27:24.109633+05:30"},{"city":"Mumbai","state":"Maharashtra","latitude":19.076,"longitude":72.8777,"temp":26.8,"humidity":73,"rain":0.0,"pressure":1008.7,"uv_index":7.7,"wind_gusts":18.7,"aqi":105,"pm10":97.3,"pm2_5":42.5,"mosquito_risk":7,"arthritis_risk":0,"migraine_risk":4,"frizz_risk":1,"updated_at":"2026-03-17T14:27:24.109677+05:30"},{"city":"Bangalore","state":"Karnataka","latitude":12.9716,"longitude":77.5946,"temp":30.8,"humidity":36,"rain":0.0,"pressure":911.3,"uv_index":9.35,"wind_gusts":44.6,"aqi":98,"pm10":44.0,"pm2_5":36.4,"mosquito_risk":0,"arthritis_risk":5,"migraine_risk":7,"frizz_risk":0,"updated_at":"2026-03-17T14:27:24.109692+05:30"},{"city":"Hyderabad","state":"Telangana","latitude":17.385,"longitude":78.4867,"temp":28.4,"humidity":54,"rain":0.0,"pressure":954.2,"uv_index":8.05,"wind_gusts":21.2,"aqi":89,"pm10":31.0,"pm2_5":23.7,"mosquito_risk":4,"arthritis_risk":5,"migraine_risk":7,"frizz_risk":1,"updated_at":"2026-03-17T14:27:24.109701+05:30"},{"city":"Chennai","state":"Tamil Nadu","latitude":13.0827,"longitude":80.2707,"temp":32.1,"humidity":54,"rain":0.0,"pressure":1007.1,"uv_index":9.1,"wind_gusts":31.7,"aqi":34,"pm10":10.6,"pm2_5":7.7,"mosquito_risk":0,"arthritis_risk":5,"migraine_risk":4,"frizz_risk":1,"updated_at":"2026-03-17T14:27:24.109714+05:30"},{"city":"Kolkata","state":"West Bengal","latitude":22.5726,"longitude":88.3639,"temp":32.8,"humidity":50,"rain":0.0,"pressure":1005.1,"uv_index":7.9,"wind_gusts":53.6,"aqi":90,"pm10":50.1,"pm2_5":41.6,"mosquito_risk":0,"arthritis_risk":5,"migraine_risk":4,"frizz_risk":1,"updated_at":"2026-03-17T14:27:24.109723+05:30"},{"city":"Pune","state":"Maharashtra","latitude":18.5204,"longitude":73.8567,"temp":34.7,"humidity":21,"rain":0.0,"pressure":948.1,"uv_index":8.25,"wind_gusts":34.9,"aqi":87,"pm10":33.9,"pm2_5":20.3,"mosquito_risk":0,"arthritis_risk":5,"migraine_risk":7,"frizz_risk":0,"updated_at":"2026-03-17T14:27:24.109733+05:30"},{"city":"Ahmedabad","state":"Gujarat","latitude":23.0225,"longitude":72.5714,"temp":36.1,"humidity":23,"rain":0.0,"pressure":1001.5,"uv_index":7.5,"wind_gusts":22.3,"aqi":56,"pm10":51.9,"pm2_5":14.6,"mosquito_risk":0,"arthritis_risk":5,"migraine_risk":7,"frizz_risk":0,"updated_at":"2026-03-17T14:27:24.109741+05:30"},{"city":"Jaipur","state":"Rajasthan","latitude":26.9124,"longitude":75.7873,"temp":33.4,"humidity":19,"rain":0.0,"pressure":959.2,"uv_index":6.65,"wind_gusts":38.5,"aqi":230,"pm10":234.2,"pm2_5":47.6,"mosquito_risk":0,"arthritis_risk":5,"migraine_risk":7,"frizz_risk":0,"updated_at":"2026-03-17T14:27:24.109749+05:30"},{"city":"Lucknow","state":"Uttar Pradesh","latitude":26.8467,"longitude":80.9462,"temp":34.5,"humidity":21,"rain":0.0,"pressure":992.4,"uv_index":6.6,"wind_gusts":25.2,"aqi":97,"pm10":84.3,"pm2_5":28.6,"mosquito_risk":0,"arthritis_risk":5,"migraine_risk":7,"frizz_risk":0,"updated_at":"2026-03-17T14:27:24.109758+05:30"},{"city":"Kanpur","state":"Uttar Pradesh","latitude":26.4499,"longitude":80.3319,"temp":35.2,"humidity":19,"rain":0.0,"pressure":990.5,"uv_index":6.7,"wind_gusts":21.6,"aqi":122,"pm10":125.7,"pm2_5":37.3,"mosquito_risk":0,"arthritis_risk":5,"migraine_risk":10,"frizz_risk":0,"updated_at":"2026-03-17T14:27:24.109766+05:30"},{"city":"Chandigarh","state":"Chandigarh","latitude":30.7333,"longitude":76.7794,"temp":27.2,"humidity":39,"rain":0.0,"pressure":970.6,"uv_index":5.5,"wind_gusts":12.2,"aqi":63,"pm10":127.6,"pm2_5":25.8,"mosquito_risk":4,"arthritis_risk":5,"migraine_risk":3,"frizz_risk":0,"updated_at":"2026-03-17T14:27:24.109774+05:30"},{"city":"Srinagar","state":"Jammu and Kashmir","latitude":34.0837,"longitude":74.7973,"temp":11.2,"humidity":57,"rain":0.0,"pressure":841.7,"uv_index":7.0,"wind_gusts":13.0,"aqi":81,"pm10":36.8,"pm2_5":23.1,"mosquito_risk":0,"arthritis_risk":5,"migraine_risk":7,"frizz_risk":0,"updated_at":"2026-03-17T14:27:24.109782+05:30"},{"city":"Jammu","state":"Jammu and Kashmir","latitude":32.7266,"longitude":74.857,"temp":26.1,"humidity":34,"rain":0.0,"pressure":974.9,"uv_index":6.7,"wind_gusts":16.9,"aqi":77,"pm10":101.3,"pm2_5":24.6,"mosquito_risk":4,"arthritis_risk":5,"migraine_risk":7,"frizz_risk":0,"updated_at":"2026-03-17T14:27:24.109790+05:30"},{"city":"Amritsar","state":"Punjab","latitude":31.634,"longitude":74.8723,"temp":26.8,"humidity":30,"rain":0.0,"pressure":983.2,"uv_index":6.45,"wind_gusts":16.6,"aqi":85,"pm10":109.4,"pm2_5":27.4,"mosquito_risk":4,"arthritis_risk":5,"migraine_risk":7,"frizz_risk":0,"updated_at":"2026-03-17T14:27:24.109797+05:30"},{"city":"Ludhiana","state":"Punjab","latitude":30.901,"longitude":75.8573,"temp":26.3,"humidity":37,"rain":0.0,"pressure":981.0,"uv_index":6.25,"wind_gusts":16.2,"aqi":76,"pm10":83.6,"pm2_5":27.9,"mosquito_risk":4,"arthritis_risk":5,"migraine_risk":7,"frizz_risk":0,"updated_at":"2026-03-17T14:27:24.109804+05:30"},{"city":"Jalandhar","state":"Punjab","latitude":31.326,"longitude":75.5762,"temp":25.8,"humidity":38,"rain":0.0,"pressure":982.2,"uv_index":6.5,"wind_gusts":16.6,"aqi":74,"pm10":115.7,"pm2_5":30.6,"mosquito_risk":4,"arthritis_risk":5,"migraine_risk":7,"frizz_risk":0,"updated_at":"2026-03-17T14:27:24.109812+05:30"},{"city":"Dehradun","state":"Uttarakhand","latitude":30.6284,"longitude":78.0322,"temp":16.8,"humidity":36,"rain":0.0,"pressure":830.7,"uv_index":4.85,"wind_gusts":23.8,"aqi":43,"pm10":92.9,"pm2_5":15.1,"mosquito_risk":0,"arthritis_risk":5,"migraine_risk":3,"frizz_risk":0,"updated_at":"2026-03-17T14:27:24.109819+05:30"},{"city":"Shimla","state":"Himachal Pradesh","latitude":31.1048,"longitude":77.1734,"temp":15.0,"humidity":49,"rain":0.0,"pressure":785.0,"uv_index":5.4,"wind_gusts":23.0,"aqi":46,"pm10":85.2,"pm2_5":14.3,"mosquito_risk":0,"arthritis_risk":5,"migraine_risk":3,"frizz_risk":0,"updated_at":"2026-03-17T14:27:24.109826+05:30"},{"city":"Manali","state":"Himachal Pradesh","latitude":32.2396,"longitude":77.1887,"temp":15.0,"humidity":30,"rain":0.0,"pressure":818.6,"uv_index":6.95,"wind_gusts":38.2,"aqi":69,"pm10":25.1,"pm2_5":6.7,"mosquito_risk":0,"arthritis_risk":5,"migraine_risk":7,"frizz_risk":1,"updated_at":"2026-03-17T14:27:24.109833+05:30"},{"city":"Gurgaon","state":"Haryana","latitude":28.4595,"longitude":77.0266,"temp":29.2,"humidity":38,"rain":0.0,"pressure":982.3,"uv_index":6.25,"wind_gusts":22.7,"aqi":1323,"pm10":700.4,"pm2_5":98.3,"mosquito_risk":4,"arthritis_risk":5,"migraine_risk":7,"frizz_risk":0,"updated_at":"2026-03-17T14:27:24.109840+05:30"},{"city":"Noida","state":"Uttar Pradesh","latitude":28.5355,"longitude":77.391,"temp":29.6,"humidity":38,"rain":0.0,"pressure":985.3,"uv_index":5.9,"wind_gusts":22.3,"aqi":1323,"pm10":700.4,"pm2_5":98.3,"mosquito_risk":4,"arthritis_risk":5,"migraine_risk":3,"frizz_risk":0,"updated_at":"2026-03-17T14:27:24.109847+05:30"},{"city":"Ghaziabad","state":"Uttar Pradesh","latitude":28.6692,"longitude":77.4538,"temp":28.8,"humidity":42,"rain":0.0,"pressure":983.5,"uv_index":5.8,"wind_gusts":19.8,"aqi":121,"pm10":158.8,"pm2_5":40.6,"mosquito_risk":4,"arthritis_risk":5,"migraine_risk":3,"frizz_risk":0,"updated_at":"2026-03-17T14:27:24.109853+05:30"},{"city":"Faridabad","state":"Haryana","latitude":28.4089,"longitude":77.3178,"temp":30.0,"humidity":35,"rain":0.0,"pressure":984.4,"uv_index":6.2,"wind_gusts":21.2,"aqi":1323,"pm10":700.4,"pm2_5":98.3,"mosquito_risk":4,"arthritis_risk":5,"migraine_risk":7,"frizz_risk":0,"updated_at":"2026-03-17T14:27:24.109860+05:30"},{"city":"Meerut","state":"Uttar Pradesh","latitude":28.9845,"longitude":77.7064,"temp":28.5,"humidity":39,"rain":0.0,"pressure":982.5,"uv_index":5.65,"wind_gusts":15.1,"aqi":121,"pm10":158.8,"pm2_5":40.6,"mosquito_risk":4,"arthritis_risk":5,"migraine_risk":3,"frizz_risk":0,"updated_at":"2026-03-17T14:27:24.109867+05:30"},{"city":"Agra","state":"Uttar Pradesh","latitude":27.1767,"longitude":78.0081,"temp":33.2,"humidity":31,"rain":0.0,"pressure":987.3,"uv_index":6.45,"wind_gusts":16.6,"aqi":473,"pm10":432.1,"pm2_5":76.1,"mosquito_risk":0,"arthritis_risk":5,"migraine_risk":7,"frizz_risk":0,"updated_at":"2026-03-17T14:27:24.109873+05:30"},{"city":"Varanasi","state":"Uttar Pradesh","latitude":25.3176,"longitude":82.9739,"temp":35.7,"humidity":19,"rain":0.0,"pressure":996.6,"uv_index":7.35,"wind_gusts":21.6,"aqi":150,"pm10":53.2,"pm2_5":17.6,"mosquito_risk":0,"arthritis_risk":5,"migraine_risk":10,"frizz_risk":0,"updated_at":"2026-03-17T14:27:24.109883+05:30"},{"city":"Prayagraj","state":"Uttar Pradesh","latitude":25.4358,"longitude":81.8463,"temp":35.0,"humidity":24,"rain":0.0,"pressure":994.9,"uv_index":7.2,"wind_gusts":20.9,"aqi":130,"pm10":66.6,"pm2_5":22.9,"mosquito_risk":0,"arthritis_risk":5,"migraine_risk":7,"frizz_risk":0,"updated_at":"2026-03-17T14:27:24.109890+05:30"},{"city":"Gorakhpur","state":"Uttar Pradesh","latitude":26.7606,"longitude":83.3732,"temp":33.6,"humidity":29,"rain":0.0,"pressure":996.5,"uv_index":7.05,"wind_gusts":23.0,"aqi":93,"pm10":63.1,"pm2_5":28.4,"mosquito_risk":0,"arthritis_risk":5,"migraine_risk":7,"frizz_risk":0,"updated_at":"2026-03-17T14:27:24.109897+05:30"},{"city":"Bareilly","state":"Uttar Pradesh","latitude":28.367,"longitude":79.4304,"temp":29.7,"humidity":37,"rain":0.0,"pressure":987.5,"uv_index":5.45,"wind_gusts":16.6,"aqi":99,"pm10":63.8,"pm2_5":24.0,"mosquito_risk":4,"arthritis_risk":5,"migraine_risk":3,"frizz_risk":0,"updated_at":"2026-03-17T14:27:24.109903+05:30"},{"city":"Aligarh","state":"Uttar Pradesh","latitude":27.8974,"longitude":78.088,"temp":32.2,"humidity":33,"rain":0.0,"pressure":985.5,"uv_index":6.15,"wind_gusts":18.0,"aqi":310,"pm10":292.4,"pm2_5":60.5,"mosquito_risk":0,"arthritis_risk":5,"migraine_risk":7,"frizz_risk":0,"updated_at":"2026-03-17T14:27:24.109912+05:30"},{"city":"Moradabad","state":"Uttar Pradesh","latitude":28.8386,"longitude":78.7733,"temp":28.4,"humidity":42,"rain":0.0,"pressure":984.6,"uv_index":5.45,"wind_gusts":16.2,"aqi":110,"pm10":46.7,"pm2_5":24.4,"mosquito_risk":4,"arthritis_risk":5,"migraine_risk":3,"frizz_risk":0,"updated_at":"2026-03-17T14:27:24.109918+05:30"},{"city":"Saharanpur","state":"Uttar Pradesh","latitude":29.9637,"longitude":77.546,"temp":27.1,"humidity":32,"rain":0.0,"pressure":977.5,"uv_index":4.55,"wind_gusts":14.8,"aqi":124,"pm10":97.3,"pm2_5":21.9,"mosquito_risk":4,"arthritis_risk":5,"migraine_risk":3,"frizz_risk":0,"updated_at":"2026-03-17T14:27:24.109924+05:30"},{"city":"Jhansi","state":"Uttar Pradesh","latitude":25.4484,"longitude":78.5685,"temp":36.8,"humidity":13,"rain":0.0,"pressure":976.3,"uv_index":7.2,"wind_gusts":25.2,"aqi":84,"pm10":30.4,"pm2_5":11.6,"mosquito_risk":0,"arthritis_risk":5,"migraine_risk":10,"frizz_risk":0,"updated_at":"2026-03-17T14:27:27.370284+05:30"},{"city":"Surat","state":"Gujarat","latitude":21.1702,"longitude":72.8311,"temp":29.2,"humidity":62,"rain":0.0,"pressure":1007.2,"uv_index":7.4,"wind_gusts":29.5,"aqi":95,"pm10":68.5,"pm2_5":35.9,"mosquito_risk":7,"arthritis_risk":5,"migraine_risk":4,"frizz_risk":1,"updated_at":"2026-03-17T14:27:27.370319+05:30"},{"city":"Vadodara","state":"Gujarat","latitude":22.3072,"longitude":73.1812,"temp":36.5,"humidity":26,"rain":0.0,"pressure":1003.7,"uv_index":7.55,"wind_gusts":28.1,"aqi":71,"pm10":31.9,"pm2_5":16.2,"mosquito_risk":0,"arthritis_risk":5,"migraine_risk":7,"frizz_risk":0,"updated_at":"2026-03-17T14:27:27.370332+05:30"},{"city":"Rajkot","state":"Gujarat","latitude":22.3039,"longitude":70.8022,"temp":35.7,"humidity":25,"rain":0.0,"pressure":993.6,"uv_index":7.35,"wind_gusts":24.5,"aqi":55,"pm10":60.5,"pm2_5":15.5,"mosquito_risk":0,"arthritis_risk":5,"migraine_risk":10,"frizz_risk":0,"updated_at":"2026-03-17T14:27:27.370342+05:30"},{"city":"Thane","state":"Maharashtra","latitude":19.2183,"longitude":72.9781,"temp":30.9,"humidity":50,"rain":0.0,"pressure":1008.2,"uv_index":7.7,"wind_gusts":30.2,"aqi":105,"pm10":97.3,"pm2_5":42.5,"mosquito_risk":0,"arthritis_risk":0,"migraine_risk":4,"frizz_risk":1,"updated_at":"2026-03-17T14:27:27.370351+05:30"},{"city":"Nagpur","state":"Maharashtra","latitude":21.1458,"longitude":79.0882,"temp":35.7,"humidity":20,"rain":0.0,"pressure":972.0,"uv_index":8.05,"wind_gusts":18.0,"aqi":112,"pm10":43.2,"pm2_5":30.9,"mosquito_risk":0,"arthritis_risk":5,"migraine_risk":10,"frizz_risk":0,"updated_at":"2026-03-17T14:27:27.370360+05:30"},{"city":"Nashik","state":"Maharashtra","latitude":19.9975,"longitude":73.7898,"temp":32.2,"humidity":24,"rain":0.0,"pressure":945.7,"uv_index":7.9,"wind_gusts":27.4,"aqi":72,"pm10":60.8,"pm2_5":14.6,"mosquito_risk":0,"arthritis_risk":5,"migraine_risk":7,"frizz_risk":0,"updated_at":"2026-03-17T14:27:27.370368+05:30"},{"city":"Aurangabad","state":"Maharashtra","latitude":19.8762,"longitude":75.3433,"temp":34.5,"humidity":16,"rain":0.0,"pressure":944.0,"uv_index":8.4,"wind_gusts":27.4,"aqi":60,"pm10":30.0,"pm2_5":13.0,"mosquito_risk":0,"arthritis_risk":5,"migraine_risk":7,"frizz_risk":0,"updated_at":"2026-03-17T14:27:27.370377+05:30"},{"city":"Solapur","state":"Maharashtra","latitude":17.6599,"longitude":75.9064,"temp":35.2,"humidity":22,"rain":0.0,"pressure":956.2,"uv_index":8.6,"wind_gusts":26.6,"aqi":90,"pm10":34.9,"pm2_5":26.6,"mosquito_risk":0,"arthritis_risk":5,"migraine_risk":10,"frizz_risk":0,"updated_at":"2026-03-17T14:27:27.370420+05:30"},{"city":"Kolhapur","state":"Maharashtra","latitude":16.705,"longitude":74.2433,"temp":31.9,"humidity":32,"rain":0.0,"pressure":947.8,"uv_index":8.75,"wind_gusts":37.4,"aqi":89,"pm10":31.4,"pm2_5":25.4,"mosquito_risk":0,"arthritis_risk":5,"migraine_risk":7,"frizz_risk":0,"updated_at":"2026-03-17T14:27:27.370430+05:30"},{"city":"Goa","state":"Goa","latitude":15.2993,"longitude":74.124,"temp":31.5,"humidity":58,"rain":0.0,"pressure":997.6,"uv_index":8.75,"wind_gusts":36.0,"aqi":74,"pm10":48.4,"pm2_5":20.3,"mosquito_risk":0,"arthritis_risk":5,"migraine_risk":7,"frizz_risk":1,"updated_at":"2026-03-17T14:27:27.370439+05:30"},{"city":"Jodhpur","state":"Rajasthan","latitude":26.2389,"longitude":73.0243,"temp":35.3,"humidity":15,"rain":0.0,"pressure":982.3,"uv_index":6.1,"wind_gusts":30.6,"aqi":116,"pm10":139.2,"pm2_5":33.2,"mosquito_risk":0,"arthritis_risk":5,"migraine_risk":10,"frizz_risk":0,"updated_at":"2026-03-17T14:27:27.370446+05:30"},{"city":"Udaipur","state":"Rajasthan","latitude":24.5854,"longitude":73.7125,"temp":33.7,"humidity":14,"rain":0.0,"pressure":946.1,"uv_index":7.85,"wind_gusts":34.2,"aqi":44,"pm10":30.3,"pm2_5":9.3,"mosquito_risk":0,"arthritis_risk":5,"migraine_risk":7,"frizz_risk":0,"updated_at":"2026-03-17T14:27:27.370453+05:30"},{"city":"Kota","state":"Rajasthan","latitude":25.2138,"longitude":75.8648,"temp":36.1,"humidity":15,"rain":0.0,"pressure":977.3,"uv_index":7.25,"wind_gusts":28.8,"aqi":85,"pm10":134.6,"pm2_5":28.1,"mosquito_risk":0,"arthritis_risk":5,"migraine_risk":10,"frizz_risk":0,"updated_at":"2026-03-17T14:27:27.370459+05:30"},{"city":"Bikaner","state":"Rajasthan","latitude":28.0229,"longitude":73.3119,"temp":29.9,"humidity":23,"rain":0.0,"pressure":982.9,"uv_index":6.8,"wind_gusts":19.8,"aqi":89,"pm10":66.6,"pm2_5":20.4,"mosquito_risk":4,"arthritis_risk":5,"migraine_risk":7,"frizz_risk":0,"updated_at":"2026-03-17T14:27:27.370465+05:30"},{"city":"Ajmer","state":"Rajasthan","latitude":26.4499,"longitude":74.6399,"temp":33.2,"humidity":18,"rain":0.0,"pressure":954.1,"uv_index":6.9,"wind_gusts":37.4,"aqi":127,"pm10":198.8,"pm2_5":40.5,"mosquito_risk":0,"arthritis_risk":5,"migraine_risk":7,"frizz_risk":0,"updated_at":"2026-03-17T14:27:27.370472+05:30"},{"city":"Gwalior","state":"Madhya Pradesh","latitude":26.2183,"longitude":78.1828,"temp":32.0,"humidity":40,"rain":0.0,"pressure":982.4,"uv_index":6.9,"wind_gusts":34.9,"aqi":88,"pm10":91.5,"pm2_5":27.8,"mosquito_risk":0,"arthritis_risk":5,"migraine_risk":7,"frizz_risk":1,"updated_at":"2026-03-17T14:27:27.370480+05:30"},{"city":"Indore","state":"Madhya Pradesh","latitude":22.7196,"longitude":75.8577,"temp":34.2,"humidity":18,"rain":0.0,"pressure":947.6,"uv_index":7.75,"wind_gusts":31.7,"aqi":57,"pm10":22.8,"pm2_5":10.2,"mosquito_risk":0,"arthritis_risk":5,"migraine_risk":7,"frizz_risk":0,"updated_at":"2026-03-17T14:27:27.370486+05:30"},{"city":"Bhopal","state":"Madhya Pradesh","latitude":23.2599,"longitude":77.4126,"temp":34.6,"humidity":16,"rain":0.0,"pressure":953.2,"uv_index":7.7,"wind_gusts":32.0,"aqi":53,"pm10":17.1,"pm2_5":9.6,"mosquito_risk":0,"arthritis_risk":5,"migraine_risk":7,"frizz_risk":0,"updated_at":"2026-03-17T14:27:27.370492+05:30"},{"city":"Jabalpur","state":"Madhya Pradesh","latitude":23.1815,"longitude":79.9864,"temp":33.9,"humidity":22,"rain":0.0,"pressure":960.8,"uv_index":7.8,"wind_gusts":32.0,"aqi":55,"pm10":14.2,"pm2_5":8.0,"mosquito_risk":0,"arthritis_risk":5,"migraine_risk":7,"frizz_risk":0,"updated_at":"2026-03-17T14:27:27.370499+05:30"},{"city":"Ujjain","state":"Madhya Pradesh","latitude":23.1765,"longitude":75.7885,"temp":33.2,"humidity":22,"rain":0.0,"pressure":953.5,"uv_index":7.65,"wind_gusts":28.4,"aqi":56,"pm10":23.0,"pm2_5":8.6,"mosquito_risk":0,"arthritis_risk":5,"migraine_risk":7,"frizz_risk":0,"updated_at":"2026-03-17T14:27:27.370505+05:30"},{"city":"Visakhapatnam","state":"Andhra Pradesh","latitude":17.6868,"longitude":83.2185,"temp":30.8,"humidity":51,"rain":0.0,"pressure":1004.4,"uv_index":8.7,"wind_gusts":37.4,"aqi":57,"pm10":14.5,"pm2_5":11.2,"mosquito_risk":0,"arthritis_risk":5,"migraine_risk":4,"frizz_risk":1,"updated_at":"2026-03-17T14:27:27.370512+05:30"},{"city":"Vijayawada","state":"Andhra Pradesh","latitude":16.5062,"longitude":80.648,"temp":32.4,"humidity":50,"rain":0.0,"pressure":1002.6,"uv_index":8.8,"wind_gusts":27.0,"aqi":51,"pm10":10.9,"pm2_5":8.4,"mosquito_risk":0,"arthritis_risk":5,"migraine_risk":4,"frizz_risk":1,"updated_at":"2026-03-17T14:27:27.370518+05:30"},{"city":"Guntur","state":"Andhra Pradesh","latitude":16.3067,"longitude":80.4365,"temp":33.0,"humidity":45,"rain":0.0,"pressure":1003.7,"uv_index":8.8,"wind_gusts":31.0,"aqi":48,"pm10":10.5,"pm2_5":7.6,"mosquito_risk":0,"arthritis_risk":5,"migraine_risk":4,"frizz_risk":1,"updated_at":"2026-03-17T14:27:27.370524+05:30"},{"city":"Nellore","state":"Andhra Pradesh","latitude":14.4426,"longitude":79.9865,"temp":33.7,"humidity":45,"rain":0.0,"pressure":1005.3,"uv_index":8.95,"wind_gusts":30.6,"aqi":39,"pm10":15.0,"pm2_5":11.7,"mosquito_risk":0,"arthritis_risk":5,"migraine_risk":4,"frizz_risk":1,"updated_at":"2026-03-17T14:27:27.370531+05:30"},{"city":"Kurnool","state":"Andhra Pradesh","latitude":15.8281,"longitude":78.0373,"temp":33.3,"humidity":38,"rain":0.0,"pressure":976.3,"uv_index":8.4,"wind_gusts":37.4,"aqi":72,"pm10":29.9,"pm2_5":23.6,"mosquito_risk":0,"arthritis_risk":5,"migraine_risk":7,"frizz_risk":1,"updated_at":"2026-03-17T14:27:27.370538+05:30"},{"city":"Kakinada","state":"Andhra Pradesh","latitude":16.9891,"longitude":82.2475,"temp":32.3,"humidity":50,"rain":0.0,"pressure":1007.7,"uv_index":8.75,"wind_gusts":29.2,"aqi":41,"pm10":10.8,"pm2_5":7.7,"mosquito_risk":0,"arthritis_risk":5,"migraine_risk":4,"frizz_risk":1,"updated_at":"2026-03-17T14:27:27.370544+05:30"},{"city":"Tirupati","state":"Andhra Pradesh","latitude":13.6288,"longitude":79.4192,"temp":33.5,"humidity":35,"rain":0.0,"pressure":991.0,"uv_index":9.1,"wind_gusts":28.1,"aqi":54,"pm10":12.8,"pm2_5":10.7,"mosquito_risk":0,"arthritis_risk":5,"migraine_risk":7,"frizz_risk":0,"updated_at":"2026-03-17T14:27:27.370550+05:30"},{"city":"Warangal","state":"Telangana","latitude":17.9689,"longitude":79.5941,"temp":30.8,"humidity":51,"rain":0.0,"pressure":979.1,"uv_index":8.5,"wind_gusts":29.9,"aqi":66,"pm10":15.1,"pm2_5":11.9,"mosquito_risk":0,"arthritis_risk":5,"migraine_risk":7,"frizz_risk":1,"updated_at":"2026-03-17T14:27:27.370556+05:30"},{"city":"Nizamabad","state":"Telangana","latitude":18.6725,"longitude":78.0941,"temp":34.7,"humidity":24,"rain":0.0,"pressure":964.4,"uv_index":8.45,"wind_gusts":26.3,"aqi":120,"pm10":45.5,"pm2_5":37.5,"mosquito_risk":0,"arthritis_risk":5,"migraine_risk":7,"frizz_risk":0,"updated_at":"2026-03-17T14:27:27.370562+05:30"},{"city":"Mysore","state":"Karnataka","latitude":12.2958,"longitude":76.6396,"temp":31.9,"humidity":34,"rain":0.0,"pressure":927.4,"uv_index":9.35,"wind_gusts":39.2,"aqi":121,"pm10":27.4,"pm2_5":24.0,"mosquito_risk":0,"arthritis_risk":5,"migraine_risk":7,"frizz_risk":0,"updated_at":"2026-03-17T14:27:27.370569+05:30"},{"city":"Mangalore","state":"Karnataka","latitude":12.9141,"longitude":74.856,"temp":27.4,"humidity":83,"rain":0.0,"pressure":1006.3,"uv_index":8.95,"wind_gusts":20.9,"aqi":101,"pm10":36.8,"pm2_5":25.7,"mosquito_risk":7,"arthritis_risk":5,"migraine_risk":4,"frizz_risk":1,"updated_at":"2026-03-17T14:27:27.370575+05:30"},{"city":"Hubli-Dharwad","state":"Karnataka","latitude":15.3647,"longitude":75.124,"temp":33.0,"humidity":26,"rain":0.0,"pressure":940.3,"uv_index":8.6,"wind_gusts":25.6,"aqi":78,"pm10":38.5,"pm2_5":31.5,"mosquito_risk":0,"arthritis_risk":5,"migraine_risk":7,"frizz_risk":0,"updated_at":"2026-03-17T14:27:27.370582+05:30"},{"city":"Belgaum","state":"Karnataka","latitude":15.8497,"longitude":74.4977,"temp":30.9,"humidity":30,"rain":0.0,"pressure":925.9,"uv_index":8.95,"wind_gusts":35.3,"aqi":77,"pm10":32.8,"pm2_5":25.8,"mosquito_risk":0,"arthritis_risk":5,"migraine_risk":7,"frizz_risk":0,"updated_at":"2026-03-17T14:27:30.626726+05:30"},{"city":"Coimbatore","state":"Tamil Nadu","latitude":11.0168,"longitude":76.9558,"temp":34.3,"humidity":34,"rain":0.0,"pressure":960.5,"uv_index":9.3,"wind_gusts":34.9,"aqi":100,"pm10":25.3,"pm2_5":22.5,"mosquito_risk":0,"arthritis_risk":5,"migraine_risk":7,"frizz_risk":1,"updated_at":"2026-03-17T14:27:30.626758+05:30"},{"city":"Madurai","state":"Tamil Nadu","latitude":9.9252,"longitude":78.1198,"temp":34.9,"humidity":41,"rain":0.0,"pressure":991.2,"uv_index":7.55,"wind_gusts":25.9,"aqi":48,"pm10":9.4,"pm2_5":8.1,"mosquito_risk":0,"arthritis_risk":5,"migraine_risk":7,"frizz_risk":1,"updated_at":"2026-03-17T14:27:30.626768+05:30"},{"city":"Trichy","state":"Tamil Nadu","latitude":10.7905,"longitude":78.7047,"temp":34.3,"humidity":42,"rain":0.0,"pressure":998.4,"uv_index":9.2,"wind_gusts":20.9,"aqi":53,"pm10":15.9,"pm2_5":13.5,"mosquito_risk":0,"arthritis_risk":5,"migraine_risk":7,"frizz_risk":1,"updated_at":"2026-03-17T14:27:30.626776+05:30"},{"city":"Salem","state":"Tamil Nadu","latitude":11.6643,"longitude":78.146,"temp":34.3,"humidity":39,"rain":0.0,"pressure":976.0,"uv_index":9.25,"wind_gusts":19.1,"aqi":72,"pm10":27.5,"pm2_5":24.2,"mosquito_risk":0,"arthritis_risk":5,"migraine_risk":7,"frizz_risk":1,"updated_at":"2026-03-17T14:27:30.626783+05:30"},{"city":"Tirunelveli","state":"Tamil Nadu","latitude":8.7139,"longitude":77.7567,"temp":36.3,"humidity":37,"rain":0.0,"pressure":1001.2,"uv_index":7.05,"wind_gusts":39.2,"aqi":62,"pm10":15.2,"pm2_5":13.7,"mosquito_risk":0,"arthritis_risk":5,"migraine_risk":7,"frizz_risk":1,"updated_at":"2026-03-17T14:27:30.626791+05:30"},{"city":"Vellore","state":"Tamil Nadu","latitude":12.9165,"longitude":79.1325,"temp":33.5,"humidity":38,"rain":0.0,"pressure":983.9,"uv_index":9.15,"wind_gusts":32.0,"aqi":62,"pm10":20.5,"pm2_5":17.9,"mosquito_risk":0,"arthritis_risk":5,"migraine_risk":7,"frizz_risk":1,"updated_at":"2026-03-17T14:27:30.626797+05:30"},{"city":"Erode","state":"Tamil Nadu","latitude":11.341,"longitude":77.7172,"temp":35.7,"humidity":37,"rain":0.0,"pressure":987.3,"uv_index":9.25,"wind_gusts":28.8,"aqi":50,"pm10":15.8,"pm2_5":13.6,"mosquito_risk":0,"arthritis_risk":5,"migraine_risk":10,"frizz_risk":1,"updated_at":"2026-03-17T14:27:30.626804+05:30"},{"city":"Kochi","state":"Kerala","latitude":9.9312,"longitude":76.2673,"temp":28.3,"humidity":80,"rain":0.0,"pressure":1007.1,"uv_index":8.9,"wind_gusts":32.4,"aqi":86,"pm10":29.9,"pm2_5":27.2,"mosquito_risk":7,"arthritis_risk":5,"migraine_risk":4,"frizz_risk":1,"updated_at":"2026-03-17T14:27:30.626811+05:30"},{"city":"Thiruvananthapuram","state":"Kerala","latitude":8.5241,"longitude":76.9366,"temp":28.2,"humidity":79,"rain":0.0,"pressure":1006.4,"uv_index":8.5,"wind_gusts":24.8,"aqi":54,"pm10":17.3,"pm2_5":15.6,"mosquito_risk":7,"arthritis_risk":5,"migraine_risk":4,"frizz_risk":1,"updated_at":"2026-03-17T14:27:30.626818+05:30"},{"city":"Kozhikode","state":"Kerala","latitude":11.2588,"longitude":75.7804,"temp":29.6,"humidity":75,"rain":0.0,"pressure":1006.8,"uv_index":8.9,"wind_gusts":29.9,"aqi":100,"pm10":34.6,"pm2_5":30.2,"mosquito_risk":7,"arthritis_risk":5,"migraine_risk":4,"frizz_risk":1,"updated_at":"2026-03-17T14:27:30.626826+05:30"},{"city":"Thrissur","state":"Kerala","latitude":10.5276,"longitude":76.2144,"temp":32.6,"humidity":59,"rain":0.0,"pressure":1005.7,"uv_index":8.85,"wind_gusts":34.2,"aqi":89,"pm10":35.9,"pm2_5":32.4,"mosquito_risk":0,"arthritis_risk":5,"migraine_risk":4,"frizz_risk":1,"updated_at":"2026-03-17T14:27:30.626837+05:30"},{"city":"Kannur","state":"Kerala","latitude":11.8745,"longitude":75.3704,"temp":30.7,"humidity":65,"rain":0.0,"pressure":1006.4,"uv_index":9.0,"wind_gusts":27.4,"aqi":111,"pm10":36.4,"pm2_5":29.9,"mosquito_risk":3,"arthritis_risk":5,"migraine_risk":4,"frizz_risk":1,"updated_at":"2026-03-17T14:27:30.626844+05:30"},{"city":"Patna","state":"Bihar","latitude":25.5941,"longitude":85.1376,"temp":34.4,"humidity":25,"rain":0.0,"pressure":999.5,"uv_index":7.5,"wind_gusts":27.0,"aqi":152,"pm10":67.5,"pm2_5":35.5,"mosquito_risk":0,"arthritis_risk":5,"migraine_risk":7,"frizz_risk":0,"updated_at":"2026-03-17T14:27:30.626851+05:30"},{"city":"Gaya","state":"Bihar","latitude":24.7914,"longitude":85.0002,"temp":34.7,"humidity":21,"rain":0.0,"pressure":993.0,"uv_index":7.6,"wind_gusts":27.7,"aqi":103,"pm10":51.9,"pm2_5":20.4,"mosquito_risk":0,"arthritis_risk":5,"migraine_risk":7,"frizz_risk":0,"updated_at":"2026-03-17T14:27:30.626858+05:30"},{"city":"Muzaffarpur","state":"Bihar","latitude":26.1209,"longitude":85.3647,"temp":33.6,"humidity":32,"rain":0.0,"pressure":999.4,"uv_index":7.45,"wind_gusts":27.7,"aqi":155,"pm10":69.2,"pm2_5":31.7,"mosquito_risk":0,"arthritis_risk":5,"migraine_risk":7,"frizz_risk":0,"updated_at":"2026-03-17T14:27:30.626864+05:30"},{"city":"Bhagalpur","state":"Bihar","latitude":25.2425,"longitude":87.0117,"temp":33.5,"humidity":34,"rain":0.0,"pressure":999.9,"uv_index":7.5,"wind_gusts":28.8,"aqi":143,"pm10":59.8,"pm2_5":48.1,"mosquito_risk":0,"arthritis_risk":5,"migraine_risk":7,"frizz_risk":0,"updated_at":"2026-03-17T14:27:30.626870+05:30"},{"city":"Ranchi","state":"Jharkhand","latitude":23.3441,"longitude":85.3096,"temp":26.9,"humidity":48,"rain":0.0,"pressure":938.4,"uv_index":8.2,"wind_gusts":54.7,"aqi":114,"pm10":37.6,"pm2_5":30.2,"mosquito_risk":4,"arthritis_risk":5,"migraine_risk":7,"frizz_risk":0,"updated_at":"2026-03-17T14:27:30.626876+05:30"},{"city":"Jamshedpur","state":"Jharkhand","latitude":22.8046,"longitude":86.2029,"temp":33.6,"humidity":32,"rain":0.0,"pressure":990.6,"uv_index":8.15,"wind_gusts":36.0,"aqi":131,"pm10":63.8,"pm2_5":53.7,"mosquito_risk":0,"arthritis_risk":5,"migraine_risk":7,"frizz_risk":0,"updated_at":"2026-03-17T14:27:30.626882+05:30"},{"city":"Dhanbad","state":"Jharkhand","latitude":23.7957,"longitude":86.4304,"temp":34.5,"humidity":23,"rain":0.0,"pressure":978.9,"uv_index":8.0,"wind_gusts":37.8,"aqi":152,"pm10":51.9,"pm2_5":43.1,"mosquito_risk":0,"arthritis_risk":5,"migraine_risk":7,"frizz_risk":0,"updated_at":"2026-03-17T14:27:30.626889+05:30"},{"city":"Bokaro","state":"Jharkhand","latitude":23.6693,"longitude":86.1511,"temp":34.1,"humidity":23,"rain":0.0,"pressure":983.1,"uv_index":8.0,"wind_gusts":40.7,"aqi":138,"pm10":46.3,"pm2_5":36.6,"mosquito_risk":0,"arthritis_risk":5,"migraine_risk":7,"frizz_risk":0,"updated_at":"2026-03-17T14:27:30.626896+05:30"},{"city":"Bhubaneswar","state":"Odisha","latitude":20.2961,"longitude":85.8245,"temp":30.8,"humidity":57,"rain":0.0,"pressure":1002.4,"uv_index":8.05,"wind_gusts":36.7,"aqi":66,"pm10":36.3,"pm2_5":28.6,"mosquito_risk":0,"arthritis_risk":5,"migraine_risk":4,"frizz_risk":1,"updated_at":"2026-03-17T14:27:30.626903+05:30"},{"city":"Cuttack","state":"Odisha","latitude":20.4625,"longitude":85.8828,"temp":32.8,"humidity":52,"rain":0.0,"pressure":1003.8,"uv_index":8.0,"wind_gusts":33.8,"aqi":66,"pm10":36.3,"pm2_5":28.6,"mosquito_risk":0,"arthritis_risk":5,"migraine_risk":4,"frizz_risk":1,"updated_at":"2026-03-17T14:27:30.626910+05:30"},{"city":"Rourkela","state":"Odisha","latitude":22.2604,"longitude":84.8536,"temp":31.9,"humidity":45,"rain":0.0,"pressure":985.2,"uv_index":8.05,"wind_gusts":45.0,"aqi":151,"pm10":58.8,"pm2_5":51.8,"mosquito_risk":0,"arthritis_risk":5,"migraine_risk":7,"frizz_risk":1,"updated_at":"2026-03-17T14:27:30.626917+05:30"},{"city":"Raipur","state":"Chhattisgarh","latitude":21.2514,"longitude":81.6296,"temp":31.7,"humidity":40,"rain":0.0,"pressure":975.4,"uv_index":8.15,"wind_gusts":43.2,"aqi":146,"pm10":47.3,"pm2_5":39.5,"mosquito_risk":0,"arthritis_risk":5,"migraine_risk":7,"frizz_risk":1,"updated_at":"2026-03-17T14:27:30.626923+05:30"},{"city":"Bhilai","state":"Chhattisgarh","latitude":21.1938,"longitude":81.3509,"temp":33.2,"humidity":37,"rain":0.0,"pressure":975.3,"uv_index":8.15,"wind_gusts":40.0,"aqi":134,"pm10":43.8,"pm2_5":35.4,"mosquito_risk":0,"arthritis_risk":5,"migraine_risk":7,"frizz_risk":1,"updated_at":"2026-03-17T14:27:30.626929+05:30"},{"city":"Guwahati","state":"Assam","latitude":26.1158,"longitude":91.7086,"temp":24.4,"humidity":76,"rain":0.0,"pressure":1001.1,"uv_index":7.5,"wind_gusts":46.4,"aqi":84,"pm10":38.3,"pm2_5":30.3,"mosquito_risk":3,"arthritis_risk":5,"migraine_risk":4,"frizz_risk":1,"updated_at":"2026-03-17T14:27:30.626935+05:30"},{"city":"Agartala","state":"Tripura","latitude":23.8315,"longitude":91.2868,"temp":32.6,"humidity":41,"rain":0.0,"pressure":1005.5,"uv_index":7.15,"wind_gusts":43.6,"aqi":68,"pm10":32.6,"pm2_5":28.2,"mosquito_risk":0,"arthritis_risk":5,"migraine_risk":4,"frizz_risk":1,"updated_at":"2026-03-17T14:27:30.626942+05:30"},{"city":"Shillong","state":"Meghalaya","latitude":25.5788,"longitude":91.8933,"temp":16.3,"humidity":65,"rain":0.0,"pressure":855.2,"uv_index":7.45,"wind_gusts":77.8,"aqi":60,"pm10":31.7,"pm2_5":24.3,"mosquito_risk":3,"arthritis_risk":5,"migraine_risk":7,"frizz_risk":0,"updated_at":"2026-03-17T14:27:30.626948+05:30"},{"city":"Imphal","state":"Manipur","latitude":24.817,"longitude":93.9368,"temp":20.7,"humidity":62,"rain":0.0,"pressure":923.0,"uv_index":8.05,"wind_gusts":91.4,"aqi":106,"pm10":31.3,"pm2_5":23.5,"mosquito_risk":3,"arthritis_risk":5,"migraine_risk":7,"frizz_risk":0,"updated_at":"2026-03-17T14:27:30.626955+05:30"},{"city":"Aizawl","state":"Mizoram","latitude":23.7271,"longitude":92.7176,"temp":21.9,"humidity":62,"rain":0.0,"pressure":894.2,"uv_index":8.1,"wind_gusts":61.9,"aqi":95,"pm10":29.3,"pm2_5":22.1,"mosquito_risk":3,"arthritis_risk":5,"migraine_risk":7,"frizz_risk":0,"updated_at":"2026-03-17T14:27:30.626961+05:30"},{"city":"Kohima","state":"Nagaland","latitude":25.6701,"longitude":94.1077,"temp":19.1,"humidity":48,"rain":0.0,"pressure":854.4,"uv_index":7.95,"wind_gusts":102.2,"aqi":88,"pm10":30.0,"pm2_5":20.6,"mosquito_risk":0,"arthritis_risk":5,"migraine_risk":7,"frizz_risk":0,"updated_at":"2026-03-17T14:27:30.626967+05:30"},{"city":"Gangtok","state":"Sikkim","latitude":27.3314,"longitude":88.6138,"temp":18.2,"humidity":47,"rain":0.0,"pressure":836.0,"uv_index":7.55,"wind_gusts":19.4,"aqi":88,"pm10":45.1,"pm2_5":21.0,"mosquito_risk":0,"arthritis_risk":5,"migraine_risk":7,"frizz_risk":0,"updated_at":"2026-03-17T14:27:30.626974+05:30"},{"city":"Siliguri","state":"West Bengal","latitude":26.7271,"longitude":88.3953,"temp":23.5,"humidity":67,"rain":0.0,"pressure":993.0,"uv_index":7.45,"wind_gusts":42.5,"aqi":134,"pm10":58.6,"pm2_5":37.8,"mosquito_risk":3,"arthritis_risk":5,"migraine_risk":7,"frizz_risk":1,"updated_at":"2026-03-17T14:27:33.883610+05:30"},{"city":"Durgapur","state":"West Bengal","latitude":23.5204,"longitude":87.3119,"temp":33.9,"humidity":30,"rain":0.0,"pressure":994.1,"uv_index":8.05,"wind_gusts":33.5,"aqi":154,"pm10":74.5,"pm2_5":65.9,"mosquito_risk":0,"arthritis_risk":5,"migraine_risk":7,"frizz_risk":0,"updated_at":"2026-03-17T14:27:33.883643+05:30"},{"city":"Asansol","state":"West Bengal","latitude":23.6739,"longitude":86.9524,"temp":35.2,"humidity":24,"rain":0.0,"pressure":992.1,"uv_index":8.0,"wind_gusts":33.8,"aqi":148,"pm10":61.5,"pm2_5":52.6,"mosquito_risk":0,"arthritis_risk":5,"migraine_risk":10,"frizz_risk":0,"updated_at":"2026-03-17T14:27:33.883655+05:30"},{"city":"Pondicherry","state":"Puducherry","latitude":11.9139,"longitude":79.8145,"temp":33.1,"humidity":49,"rain":0.0,"pressure":1007.6,"uv_index":9.05,"wind_gusts":27.4,"aqi":31,"pm10":8.5,"pm2_5":5.6,"mosquito_risk":0,"arthritis_risk":5,"migraine_risk":4,"frizz_risk":1,"updated_at":"2026-03-17T14:27:33.883665+05:30"},{"city":"Port Blair","state":"Andaman and Nicobar Islands","latitude":11.6234,"longitude":92.7265,"temp":27.8,"humidity":79,"rain":0.0,"pressure":1007.0,"uv_index":9.0,"wind_gusts":20.5,"aqi":75,"pm10":15.5,"pm2_5":12.4,"mosquito_risk":7,"arthritis_risk":5,"migraine_risk":4,"frizz_risk":1,"updated_at":"2026-03-17T14:27:33.883673+05:30"},{"city":"Haridwar","state":"Uttarakhand","latitude":29.9457,"longitude":78.1642,"temp":27.7,"humidity":34,"rain":0.0,"pressure":975.9,"uv_index":4.2,"wind_gusts":18.4,"aqi":64,"pm10":144.8,"pm2_5":25.1,"mosquito_risk":4,"arthritis_risk":5,"migraine_risk":3,"frizz_risk":0,"updated_at":"2026-03-17T14:27:33.883683+05:30"},{"city":"Rishikesh","state":"Uttarakhand","latitude":30.0869,"longitude":78.2676,"temp":27.1,"humidity":31,"rain":0.0,"pressure":968.6,"uv_index":4.4,"wind_gusts":19.8,"aqi":55,"pm10":148.5,"pm2_5":23.0,"mosquito_risk":4,"arthritis_risk":5,"migraine_risk":3,"frizz_risk":0,"updated_at":"2026-03-17T14:27:33.883690+05:30"},{"city":"Nainital","state":"Uttarakhand","latitude":29.3919,"longitude":79.4542,"temp":20.7,"humidity":36,"rain":0.0,"pressure":807.5,"uv_index":5.3,"wind_gusts":37.8,"aqi":59,"pm10":78.5,"pm2_5":15.6,"mosquito_risk":0,"arthritis_risk":5,"migraine_risk":3,"frizz_risk":0,"updated_at":"2026-03-17T14:27:33.883699+05:30"},{"city":"Mussoorie","state":"Uttarakhand","latitude":30.4599,"longitude":78.0664,"temp":17.8,"humidity":40,"rain":0.0,"pressure":803.6,"uv_index":4.85,"wind_gusts":29.5,"aqi":58,"pm10":144.8,"pm2_5":21.9,"mosquito_risk":0,"arthritis_risk":5,"migraine_risk":3,"frizz_risk":0,"updated_at":"2026-03-17T14:27:33.883707+05:30"},{"city":"Dharamshala","state":"Himachal Pradesh","latitude":32.219,"longitude":76.3234,"temp":19.6,"humidity":36,"rain":0.0,"pressure":869.8,"uv_index":5.1,"wind_gusts":26.3,"aqi":65,"pm10":62.4,"pm2_5":12.1,"mosquito_risk":0,"arthritis_risk":5,"migraine_risk":3,"frizz_risk":0,"updated_at":"2026-03-17T14:27:33.883716+05:30"},{"city":"Dalhousie","state":"Himachal Pradesh","latitude":32.5387,"longitude":75.971,"temp":18.0,"humidity":29,"rain":0.0,"pressure":804.7,"uv_index":5.05,"wind_gusts":24.1,"aqi":58,"pm10":98.5,"pm2_5":20.3,"mosquito_risk":0,"arthritis_risk":5,"migraine_risk":3,"frizz_risk":1,"updated_at":"2026-03-17T14:27:33.883725+05:30"},{"city":"Patiala","state":"Punjab","latitude":30.3398,"longitude":76.3869,"temp":27.0,"humidity":42,"rain":0.0,"pressure":980.3,"uv_index":5.55,"wind_gusts":16.9,"aqi":87,"pm10":111.5,"pm2_5":30.0,"mosquito_risk":4,"arthritis_risk":5,"migraine_risk":3,"frizz_risk":0,"updated_at":"2026-03-17T14:27:33.883734+05:30"},{"city":"Bhatinda","state":"Punjab","latitude":30.211,"longitude":74.9455,"temp":26.5,"humidity":33,"rain":0.0,"pressure":985.9,"uv_index":6.5,"wind_gusts":18.4,"aqi":92,"pm10":125.3,"pm2_5":31.7,"mosquito_risk":4,"arthritis_risk":5,"migraine_risk":7,"frizz_risk":0,"updated_at":"2026-03-17T14:27:33.883741+05:30"},{"city":"Rohtak","state":"Haryana","latitude":28.8955,"longitude":76.6066,"temp":28.3,"humidity":39,"rain":0.0,"pressure":982.8,"uv_index":6.15,"wind_gusts":18.7,"aqi":386,"pm10":179.7,"pm2_5":44.1,"mosquito_risk":4,"arthritis_risk":5,"migraine_risk":7,"frizz_risk":0,"updated_at":"2026-03-17T14:27:33.883749+05:30"},{"city":"Panipat","state":"Haryana","latitude":29.3909,"longitude":76.9635,"temp":28.5,"humidity":37,"rain":0.0,"pressure":981.8,"uv_index":5.75,"wind_gusts":15.1,"aqi":210,"pm10":195.6,"pm2_5":44.0,"mosquito_risk":4,"arthritis_risk":5,"migraine_risk":3,"frizz_risk":0,"updated_at":"2026-03-17T14:27:33.883757+05:30"},{"city":"Mathura","state":"Uttar Pradesh","latitude":27.4924,"longitude":77.6737,"temp":33.2,"humidity":31,"rain":0.0,"pressure":986.5,"uv_index":6.45,"wind_gusts":20.5,"aqi":477,"pm10":640.7,"pm2_5":93.1,"mosquito_risk":0,"arthritis_risk":5,"migraine_risk":7,"frizz_risk":0,"updated_at":"2026-03-17T14:27:33.883764+05:30"},{"city":"Vrindavan","state":"Uttar Pradesh","latitude":27.5823,"longitude":77.7027,"temp":32.8,"humidity":32,"rain":0.0,"pressure":987.1,"uv_index":6.35,"wind_gusts":20.2,"aqi":477,"pm10":640.7,"pm2_5":93.1,"mosquito_risk":0,"arthritis_risk":5,"migraine_risk":7,"frizz_risk":0,"updated_at":"2026-03-17T14:27:33.883772+05:30"},{"city":"Ayodhya","state":"Uttar Pradesh","latitude":26.7922,"longitude":82.1998,"temp":34.2,"humidity":25,"rain":0.0,"pressure":994.4,"uv_index":6.85,"wind_gusts":25.9,"aqi":101,"pm10":65.9,"pm2_5":26.5,"mosquito_risk":0,"arthritis_risk":5,"migraine_risk":7,"frizz_risk":0,"updated_at":"2026-03-17T14:27:33.883779+05:30"},{"city":"Ratlam","state":"Madhya Pradesh","latitude":23.3315,"longitude":75.0367,"temp":33.6,"humidity":22,"rain":0.0,"pressure":954.5,"uv_index":7.6,"wind_gusts":35.3,"aqi":55,"pm10":24.7,"pm2_5":8.9,"mosquito_risk":0,"arthritis_risk":5,"migraine_risk":7,"frizz_risk":0,"updated_at":"2026-03-17T14:27:33.883787+05:30"},{"city":"Sagar","state":"Madhya Pradesh","latitude":23.8388,"longitude":78.7378,"temp":33.9,"humidity":16,"rain":0.0,"pressure":949.6,"uv_index":7.65,"wind_gusts":31.7,"aqi":46,"pm10":21.1,"pm2_5":8.1,"mosquito_risk":0,"arthritis_risk":5,"migraine_risk":7,"frizz_risk":0,"updated_at":"2026-03-17T14:27:33.883794+05:30"},{"city":"Satna","state":"Madhya Pradesh","latitude":24.6005,"longitude":80.8322,"temp":36.5,"humidity":13,"rain":0.0,"pressure":969.9,"uv_index":7.55,"wind_gusts":34.9,"aqi":93,"pm10":30.6,"pm2_5":15.2,"mosquito_risk":0,"arthritis_risk":5,"migraine_risk":10,"frizz_risk":0,"updated_at":"2026-03-17T14:27:33.883802+05:30"},{"city":"Akola","state":"Maharashtra","latitude":20.7002,"longitude":77.0082,"temp":37.2,"humidity":16,"rain":0.0,"pressure":974.1,"uv_index":8.1,"wind_gusts":25.6,"aqi":72,"pm10":39.0,"pm2_5":21.4,"mosquito_risk":0,"arthritis_risk":5,"migraine_risk":10,"frizz_risk":0,"updated_at":"2026-03-17T14:27:33.883811+05:30"},{"city":"Amravati","state":"Maharashtra","latitude":20.9374,"longitude":77.7796,"temp":37.4,"humidity":16,"rain":0.0,"pressure":966.2,"uv_index":8.05,"wind_gusts":32.4,"aqi":80,"pm10":31.4,"pm2_5":16.7,"mosquito_risk":0,"arthritis_risk":5,"migraine_risk":10,"frizz_risk":0,"updated_at":"2026-03-17T14:27:33.883820+05:30"},{"city":"Latur","state":"Maharashtra","latitude":18.4088,"longitude":76.5604,"temp":33.4,"humidity":25,"rain":0.0,"pressure":939.2,"uv_index":8.5,"wind_gusts":27.7,"aqi":93,"pm10":47.5,"pm2_5":36.7,"mosquito_risk":0,"arthritis_risk":5,"migraine_risk":7,"frizz_risk":0,"updated_at":"2026-03-17T14:27:33.883827+05:30"},{"city":"Nanded","state":"Maharashtra","latitude":19.1383,"longitude":77.3091,"temp":37.1,"humidity":20,"rain":0.0,"pressure":967.6,"uv_index":8.3,"wind_gusts":20.9,"aqi":101,"pm10":46.1,"pm2_5":32.2,"mosquito_risk":0,"arthritis_risk":5,"migraine_risk":10,"frizz_risk":0,"updated_at":"2026-03-17T14:27:33.883835+05:30"},{"city":"Gulbarga","state":"Karnataka","latitude":17.3297,"longitude":76.8343,"temp":33.6,"humidity":29,"rain":0.0,"pressure":958.4,"uv_index":8.45,"wind_gusts":37.4,"aqi":112,"pm10":43.4,"pm2_5":36.9,"mosquito_risk":0,"arthritis_risk":5,"migraine_risk":7,"frizz_risk":0,"updated_at":"2026-03-17T14:27:33.883842+05:30"},{"city":"Bidar","state":"Karnataka","latitude":17.9104,"longitude":77.5199,"temp":30.9,"humidity":36,"rain":0.0,"pressure":936.0,"uv_index":7.85,"wind_gusts":33.8,"aqi":112,"pm10":40.7,"pm2_5":33.3,"mosquito_risk":0,"arthritis_risk":5,"migraine_risk":7,"frizz_risk":0,"updated_at":"2026-03-17T14:27:33.883850+05:30"},{"city":"Hospet","state":"Karnataka","latitude":15.2689,"longitude":76.3909,"temp":31.6,"humidity":41,"rain":0.0,"pressure":955.5,"uv_index":8.8,"wind_gusts":23.8,"aqi":112,"pm10":41.0,"pm2_5":33.9,"mosquito_risk":0,"arthritis_risk":5,"migraine_risk":7,"frizz_risk":1,"updated_at":"2026-03-17T14:27:33.883856+05:30"},{"city":"Tirupur","state":"Tamil Nadu","latitude":11.1085,"longitude":77.3411,"temp":34.6,"humidity":39,"rain":0.0,"pressure":973.7,"uv_index":9.3,"wind_gusts":32.0,"aqi":76,"pm10":18.7,"pm2_5":16.4,"mosquito_risk":0,"arthritis_risk":5,"migraine_risk":7,"frizz_risk":1,"updated_at":"2026-03-17T14:27:33.883862+05:30"},{"city":"Alappuzha","state":"Kerala","latitude":9.4981,"longitude":76.3388,"temp":28.3,"humidity":80,"rain":0.0,"pressure":1007.2,"uv_index":9.05,"wind_gusts":30.6,"aqi":80,"pm10":28.6,"pm2_5":25.9,"mosquito_risk":7,"arthritis_risk":5,"migraine_risk":4,"frizz_risk":1,"updated_at":"2026-03-17T14:27:33.883868+05:30"},{"city":"Munnar","state":"Kerala","latitude":10.0889,"longitude":77.0595,"temp":28.1,"humidity":50,"rain":0.0,"pressure":857.9,"uv_index":9.6,"wind_gusts":32.4,"aqi":80,"pm10":21.0,"pm2_5":18.8,"mosquito_risk":4,"arthritis_risk":5,"migraine_risk":7,"frizz_risk":1,"updated_at":"2026-03-17T14:27:33.883875+05:30"},{"city":"Silchar","state":"Assam","latitude":24.8333,"longitude":92.7789,"temp":24.9,"humidity":69,"rain":0.0,"pressure":1006.4,"uv_index":7.9,"wind_gusts":49.7,"aqi":84,"pm10":28.6,"pm2_5":22.7,"mosquito_risk":3,"arthritis_risk":5,"migraine_risk":4,"frizz_risk":1,"updated_at":"2026-03-17T14:27:33.883882+05:30"},{"city":"Dibrugarh","state":"Assam","latitude":27.4728,"longitude":94.912,"temp":21.5,"humidity":78,"rain":0.0,"pressure":995.4,"uv_index":7.4,"wind_gusts":51.8,"aqi":98,"pm10":45.6,"pm2_5":35.3,"mosquito_risk":3,"arthritis_risk":5,"migraine_risk":7,"frizz_risk":1,"updated_at":"2026-03-17T14:27:33.883888+05:30"}]