[{"city":"Delhi","state":"Delhi","latitude":28.6139,"longitude":77.209,"temp":23.7,"humidity":68,"rain":0.0,"pressure":987.7,"uv_index":6.1,"wind_gusts":24.8,"aqi":309,"pm10":305.5,"pm2_5":147.6,"mosquito_risk":3,"arthritis_risk":5,"migraine_risk":7,"frizz_risk":1,"updated_at":"2026-03-11T01:10:17.011002+05:30"},{"city":"Mumbai","state":"Maharashtra","latitude":19.076,"longitude":72.8777,"temp":27.9,"humidity":78,"rain":0.0,"pressure":1010.0,"uv_index":7.6,"wind_gusts":19.1,"aqi":168,"pm10":31.0,"pm2_5":30.2,"mosquito_risk":7,"arthritis_risk":0,"migraine_risk":4,"frizz_risk":1,"updated_at":"2026-03-11T01:10:17.011051+05:30"},{"city":"Bangalore","state":"Karnataka","latitude":12.9716,"longitude":77.5946,"temp":20.6,"humidity":74,"rain":0.0,"pressure":913.7,"uv_index":9.25,"wind_gusts":20.9,"aqi":92,"pm10":22.5,"pm2_5":21.4,"mosquito_risk":3,"arthritis_risk":5,"migraine_risk":7,"frizz_risk":0,"updated_at":"2026-03-11T01:10:17.011067+05:30"},{"city":"Hyderabad","state":"Telangana","latitude":17.385,"longitude":78.4867,"temp":22.3,"humidity":64,"rain":0.0,"pressure":956.5,"uv_index":8.6,"wind_gusts":21.2,"aqi":134,"pm10":38.9,"pm2_5":34.3,"mosquito_risk":3,"arthritis_risk":5,"migraine_risk":7,"frizz_risk":0,"updated_at":"2026-03-11T01:10:17.011077+05:30"},{"city":"Chennai","state":"Tamil Nadu","latitude":13.0827,"longitude":80.2707,"temp":24.5,"humidity":80,"rain":0.0,"pressure":1011.4,"uv_index":9.0,"wind_gusts":28.4,"aqi":74,"pm10":24.5,"pm2_5":19.6,"mosquito_risk":3,"arthritis_risk":0,"migraine_risk":4,"frizz_risk":1,"updated_at":"2026-03-11T01:10:17.011085+05:30"},{"city":"Kolkata","state":"West Bengal","latitude":22.5726,"longitude":88.3639,"temp":24.1,"humidity":95,"rain":0.0,"pressure":1010.5,"uv_index":7.35,"wind_gusts":19.4,"aqi":135,"pm10":56.1,"pm2_5":48.9,"mosquito_risk":3,"arthritis_risk":0,"migraine_risk":4,"frizz_risk":1,"updated_at":"2026-03-11T01:10:17.011093+05:30"},{"city":"Pune","state":"Maharashtra","latitude":18.5204,"longitude":73.8567,"temp":21.6,"humidity":64,"rain":0.0,"pressure":950.4,"uv_index":8.15,"wind_gusts":33.8,"aqi":75,"pm10":28.8,"pm2_5":26.4,"mosquito_risk":3,"arthritis_risk":5,"migraine_risk":7,"frizz_risk":0,"updated_at":"2026-03-11T01:10:17.011104+05:30"},{"city":"Ahmedabad","state":"Gujarat","latitude":23.0225,"longitude":72.5714,"temp":25.3,"humidity":40,"rain":0.0,"pressure":1005.8,"uv_index":7.45,"wind_gusts":29.2,"aqi":64,"pm10":25.3,"pm2_5":24.5,"mosquito_risk":4,"arthritis_risk":5,"migraine_risk":4,"frizz_risk":0,"updated_at":"2026-03-11T01:10:17.011111+05:30"},{"city":"Jaipur","state":"Rajasthan","latitude":26.9124,"longitude":75.7873,"temp":23.3,"humidity":27,"rain":0.0,"pressure":964.1,"uv_index":6.8,"wind_gusts":37.8,"aqi":119,"pm10":141.1,"pm2_5":45.9,"mosquito_risk":0,"arthritis_risk":5,"migraine_risk":7,"frizz_risk":0,"updated_at":"2026-03-11T01:10:17.011118+05:30"},{"city":"Lucknow","state":"Uttar Pradesh","latitude":26.8467,"longitude":80.9462,"temp":25.2,"humidity":76,"rain":0.0,"pressure":998.4,"uv_index":6.6,"wind_gusts":28.8,"aqi":185,"pm10":176.0,"pm2_5":142.5,"mosquito_risk":7,"arthritis_risk":5,"migraine_risk":7,"frizz_risk":1,"updated_at":"2026-03-11T01:10:17.011125+05:30"},{"city":"Kanpur","state":"Uttar Pradesh","latitude":26.4499,"longitude":80.3319,"temp":24.7,"humidity":70,"rain":0.0,"pressure":996.4,"uv_index":6.65,"wind_gusts":22.0,"aqi":176,"pm10":210.9,"pm2_5":128.5,"mosquito_risk":3,"arthritis_risk":5,"migraine_risk":7,"frizz_risk":1,"updated_at":"2026-03-11T01:10:17.011131+05:30"},{"city":"Chandigarh","state":"Chandigarh","latitude":30.7333,"longitude":76.7794,"temp":22.8,"humidity":76,"rain":0.0,"pressure":973.8,"uv_index":5.4,"wind_gusts":18.4,"aqi":151,"pm10":84.3,"pm2_5":74.5,"mosquito_risk":3,"arthritis_risk":5,"migraine_risk":3,"frizz_risk":1,"updated_at":"2026-03-11T01:10:17.011137+05:30"},{"city":"Srinagar","state":"Jammu and Kashmir","latitude":34.0837,"longitude":74.7973,"temp":9.5,"humidity":94,"rain":0.2,"pressure":846.9,"uv_index":4.8,"wind_gusts":13.7,"aqi":121,"pm10":65.2,"pm2_5":53.1,"mosquito_risk":6,"arthritis_risk":10,"migraine_risk":3,"frizz_risk":0,"updated_at":"2026-03-11T01:10:17.011144+05:30"},{"city":"Jammu","state":"Jammu and Kashmir","latitude":32.7266,"longitude":74.857,"temp":19.9,"humidity":59,"rain":0.0,"pressure":977.1,"uv_index":5.8,"wind_gusts":37.8,"aqi":112,"pm10":51.8,"pm2_5":45.9,"mosquito_risk":0,"arthritis_risk":5,"migraine_risk":3,"frizz_risk":0,"updated_at":"2026-03-11T01:10:17.011150+05:30"},{"city":"Amritsar","state":"Punjab","latitude":31.634,"longitude":74.8723,"temp":22.2,"humidity":85,"rain":0.0,"pressure":985.0,"uv_index":6.4,"wind_gusts":22.0,"aqi":159,"pm10":125.3,"pm2_5":79.6,"mosquito_risk":3,"arthritis_risk":5,"migraine_risk":7,"frizz_risk":1,"updated_at":"2026-03-11T01:10:17.011156+05:30"},{"city":"Ludhiana","state":"Punjab","latitude":30.901,"longitude":75.8573,"temp":22.6,"humidity":73,"rain":0.0,"pressure":983.4,"uv_index":5.95,"wind_gusts":17.6,"aqi":176,"pm10":200.7,"pm2_5":159.7,"mosquito_risk":3,"arthritis_risk":5,"migraine_risk":3,"frizz_risk":1,"updated_at":"2026-03-11T01:10:17.011162+05:30"},{"city":"Jalandhar","state":"Punjab","latitude":31.326,"longitude":75.5762,"temp":21.8,"humidity":85,"rain":0.0,"pressure":984.6,"uv_index":5.85,"wind_gusts":18.7,"aqi":169,"pm10":204.9,"pm2_5":142.5,"mosquito_risk":3,"arthritis_risk":5,"migraine_risk":3,"frizz_risk":1,"updated_at":"2026-03-11T01:10:17.011169+05:30"},{"city":"Dehradun","state":"Uttarakhand","latitude":30.6284,"longitude":78.0322,"temp":14.2,"humidity":95,"rain":0.0,"pressure":834.0,"uv_index":5.85,"wind_gusts":29.5,"aqi":83,"pm10":44.9,"pm2_5":33.5,"mosquito_risk":3,"arthritis_risk":10,"migraine_risk":3,"frizz_risk":0,"updated_at":"2026-03-11T01:10:17.011175+05:30"},{"city":"Shimla","state":"Himachal Pradesh","latitude":31.1048,"longitude":77.1734,"temp":13.9,"humidity":79,"rain":0.0,"pressure":788.7,"uv_index":5.5,"wind_gusts":44.3,"aqi":97,"pm10":78.9,"pm2_5":58.2,"mosquito_risk":3,"arthritis_risk":5,"migraine_risk":3,"frizz_risk":0,"updated_at":"2026-03-11T01:10:17.011181+05:30"},{"city":"Manali","state":"Himachal Pradesh","latitude":32.2396,"longitude":77.1887,"temp":15.2,"humidity":49,"rain":0.0,"pressure":825.8,"uv_index":4.85,"wind_gusts":40.3,"aqi":54,"pm10":31.9,"pm2_5":20.8,"mosquito_risk":0,"arthritis_risk":5,"migraine_risk":3,"frizz_risk":0,"updated_at":"2026-03-11T01:10:17.011187+05:30"},{"city":"Gurgaon","state":"Haryana","latitude":28.4595,"longitude":77.0266,"temp":21.9,"humidity":73,"rain":0.0,"pressure":986.1,"uv_index":6.05,"wind_gusts":24.8,"aqi":499,"pm10":349.2,"pm2_5":137.4,"mosquito_risk":3,"arthritis_risk":5,"migraine_risk":7,"frizz_risk":1,"updated_at":"2026-03-11T01:10:17.011193+05:30"},{"city":"Noida","state":"Uttar Pradesh","latitude":28.5355,"longitude":77.391,"temp":22.7,"humidity":73,"rain":0.0,"pressure":989.2,"uv_index":6.15,"wind_gusts":24.5,"aqi":499,"pm10":349.2,"pm2_5":137.4,"mosquito_risk":3,"arthritis_risk":5,"migraine_risk":7,"frizz_risk":1,"updated_at":"2026-03-11T01:10:17.011198+05:30"},{"city":"Ghaziabad","state":"Uttar Pradesh","latitude":28.6692,"longitude":77.4538,"temp":21.1,"humidity":79,"rain":0.0,"pressure":987.3,"uv_index":6.1,"wind_gusts":22.7,"aqi":183,"pm10":242.1,"pm2_5":134.1,"mosquito_risk":3,"arthritis_risk":5,"migraine_risk":7,"frizz_risk":1,"updated_at":"2026-03-11T01:10:17.011204+05:30"},{"city":"Faridabad","state":"Haryana","latitude":28.4089,"longitude":77.3178,"temp":22.6,"humidity":66,"rain":0.0,"pressure":988.4,"uv_index":6.15,"wind_gusts":23.4,"aqi":499,"pm10":349.2,"pm2_5":137.4,"mosquito_risk":3,"arthritis_risk":5,"migraine_risk":7,"frizz_risk":0,"updated_at":"2026-03-11T01:10:17.011209+05:30"},{"city":"Meerut","state":"Uttar Pradesh","latitude":28.9845,"longitude":77.7064,"temp":20.9,"humidity":86,"rain":0.0,"pressure":986.1,"uv_index":5.45,"wind_gusts":27.7,"aqi":183,"pm10":242.1,"pm2_5":134.1,"mosquito_risk":3,"arthritis_risk":5,"migraine_risk":3,"frizz_risk":1,"updated_at":"2026-03-11T01:10:17.011215+05:30"},{"city":"Agra","state":"Uttar Pradesh","latitude":27.1767,"longitude":78.0081,"temp":21.8,"humidity":75,"rain":0.0,"pressure":992.5,"uv_index":6.5,"wind_gusts":20.5,"aqi":242,"pm10":407.0,"pm2_5":142.0,"mosquito_risk":3,"arthritis_risk":5,"migraine_risk":7,"frizz_risk":1,"updated_at":"2026-03-11T01:10:17.011221+05:30"},{"city":"Varanasi","state":"Uttar Pradesh","latitude":25.3176,"longitude":82.9739,"temp":24.0,"humidity":88,"rain":0.0,"pressure":1002.4,"uv_index":7.3,"wind_gusts":23.4,"aqi":187,"pm10":165.3,"pm2_5":157.4,"mosquito_risk":3,"arthritis_risk":5,"migraine_risk":4,"frizz_risk":1,"updated_at":"2026-03-11T01:10:17.011228+05:30"},{"city":"Prayagraj","state":"Uttar Pradesh","latitude":25.4358,"longitude":81.8463,"temp":24.3,"humidity":82,"rain":0.0,"pressure":1000.8,"uv_index":7.15,"wind_gusts":21.6,"aqi":184,"pm10":130.9,"pm2_5":125.3,"mosquito_risk":3,"arthritis_risk":5,"migraine_risk":4,"frizz_risk":1,"updated_at":"2026-03-11T01:10:17.011234+05:30"},{"city":"Gorakhpur","state":"Uttar Pradesh","latitude":26.7606,"longitude":83.3732,"temp":23.4,"humidity":84,"rain":0.0,"pressure":1002.2,"uv_index":7.0,"wind_gusts":28.1,"aqi":183,"pm10":191.4,"pm2_5":176.0,"mosquito_risk":3,"arthritis_risk":5,"migraine_risk":4,"frizz_risk":1,"updated_at":"2026-03-11T01:10:17.011241+05:30"},{"city":"Bareilly","state":"Uttar Pradesh","latitude":28.367,"longitude":79.4304,"temp":22.1,"humidity":86,"rain":0.0,"pressure":991.6,"uv_index":6.35,"wind_gusts":28.1,"aqi":186,"pm10":176.5,"pm2_5":156.5,"mosquito_risk":3,"arthritis_risk":5,"migraine_risk":7,"frizz_risk":1,"updated_at":"2026-03-11T01:10:17.011246+05:30"},{"city":"Aligarh","state":"Uttar Pradesh","latitude":27.8974,"longitude":78.088,"temp":21.0,"humidity":79,"rain":0.0,"pressure":990.1,"uv_index":6.25,"wind_gusts":24.8,"aqi":189,"pm10":446.1,"pm2_5":166.2,"mosquito_risk":3,"arthritis_risk":5,"migraine_risk":7,"frizz_risk":1,"updated_at":"2026-03-11T01:10:17.011251+05:30"},{"city":"Moradabad","state":"Uttar Pradesh","latitude":28.8386,"longitude":78.7733,"temp":22.2,"humidity":85,"rain":0.0,"pressure":988.6,"uv_index":6.15,"wind_gusts":31.3,"aqi":185,"pm10":201.6,"pm2_5":161.1,"mosquito_risk":3,"arthritis_risk":5,"migraine_risk":7,"frizz_risk":1,"updated_at":"2026-03-11T01:10:17.011257+05:30"},{"city":"Saharanpur","state":"Uttar Pradesh","latitude":29.9637,"longitude":77.546,"temp":20.8,"humidity":92,"rain":0.0,"pressure":980.8,"uv_index":5.25,"wind_gusts":30.2,"aqi":165,"pm10":168.6,"pm2_5":128.1,"mosquito_risk":3,"arthritis_risk":5,"migraine_risk":3,"frizz_risk":1,"updated_at":"2026-03-11T01:10:17.011263+05:30"},{"city":"Jhansi","state":"Uttar Pradesh","latitude":25.4484,"longitude":78.5685,"temp":23.2,"humidity":47,"rain":0.0,"pressure":982.2,"uv_index":7.1,"wind_gusts":26.6,"aqi":107,"pm10":131.3,"pm2_5":39.8,"mosquito_risk":0,"arthritis_risk":5,"migraine_risk":7,"frizz_risk":0,"updated_at":"2026-03-11T01:10:20.273088+05:30"},{"city":"Surat","state":"Gujarat","latitude":21.1702,"longitude":72.8311,"temp":27.6,"humidity":43,"rain":0.0,"pressure":1008.6,"uv_index":7.3,"wind_gusts":23.8,"aqi":107,"pm10":32.8,"pm2_5":31.4,"mosquito_risk":4,"arthritis_risk":0,"migraine_risk":4,"frizz_risk":0,"updated_at":"2026-03-11T01:10:20.273116+05:30"},{"city":"Vadodara","state":"Gujarat","latitude":22.3072,"longitude":73.1812,"temp":25.9,"humidity":44,"rain":0.0,"pressure":1007.2,"uv_index":7.45,"wind_gusts":29.2,"aqi":70,"pm10":32.1,"pm2_5":30.7,"mosquito_risk":4,"arthritis_risk":5,"migraine_risk":4,"frizz_risk":0,"updated_at":"2026-03-11T01:10:20.273125+05:30"},{"city":"Rajkot","state":"Gujarat","latitude":22.3039,"longitude":70.8022,"temp":25.7,"humidity":39,"rain":0.0,"pressure":998.1,"uv_index":7.3,"wind_gusts":31.7,"aqi":65,"pm10":24.5,"pm2_5":23.1,"mosquito_risk":4,"arthritis_risk":5,"migraine_risk":7,"frizz_risk":0,"updated_at":"2026-03-11T01:10:20.273134+05:30"},{"city":"Thane","state":"Maharashtra","latitude":19.2183,"longitude":72.9781,"temp":25.8,"humidity":82,"rain":0.0,"pressure":1009.6,"uv_index":7.6,"wind_gusts":34.6,"aqi":168,"pm10":31.0,"pm2_5":30.2,"mosquito_risk":7,"arthritis_risk":0,"migraine_risk":4,"frizz_risk":1,"updated_at":"2026-03-11T01:10:20.273142+05:30"},{"city":"Nagpur","state":"Maharashtra","latitude":21.1458,"longitude":79.0882,"temp":23.0,"humidity":60,"rain":0.0,"pressure":976.2,"uv_index":8.0,"wind_gusts":12.6,"aqi":79,"pm10":44.7,"pm2_5":37.3,"mosquito_risk":0,"arthritis_risk":5,"migraine_risk":7,"frizz_risk":0,"updated_at":"2026-03-11T01:10:20.273149+05:30"},{"city":"Nashik","state":"Maharashtra","latitude":19.9975,"longitude":73.7898,"temp":24.6,"humidity":41,"rain":0.0,"pressure":948.0,"uv_index":7.8,"wind_gusts":20.5,"aqi":69,"pm10":22.5,"pm2_5":20.4,"mosquito_risk":0,"arthritis_risk":5,"migraine_risk":7,"frizz_risk":0,"updated_at":"2026-03-11T01:10:20.273157+05:30"},{"city":"Aurangabad","state":"Maharashtra","latitude":19.8762,"longitude":75.3433,"temp":24.1,"humidity":54,"rain":0.0,"pressure":946.5,"uv_index":8.3,"wind_gusts":19.8,"aqi":75,"pm10":41.0,"pm2_5":36.4,"mosquito_risk":0,"arthritis_risk":5,"migraine_risk":7,"frizz_risk":0,"updated_at":"2026-03-11T01:10:20.273164+05:30"},{"city":"Solapur","state":"Maharashtra","latitude":17.6599,"longitude":75.9064,"temp":25.3,"humidity":66,"rain":0.0,"pressure":959.9,"uv_index":8.5,"wind_gusts":17.3,"aqi":116,"pm10":51.9,"pm2_5":46.8,"mosquito_risk":7,"arthritis_risk":5,"migraine_risk":7,"frizz_risk":1,"updated_at":"2026-03-11T01:10:20.273171+05:30"},{"city":"Kolhapur","state":"Maharashtra","latitude":16.705,"longitude":74.2433,"temp":22.3,"humidity":81,"rain":0.0,"pressure":950.0,"uv_index":8.65,"wind_gusts":32.8,"aqi":128,"pm10":61.0,"pm2_5":55.6,"mosquito_risk":3,"arthritis_risk":5,"migraine_risk":7,"frizz_risk":1,"updated_at":"2026-03-11T01:10:20.273178+05:30"},{"city":"Goa","state":"Goa","latitude":15.2993,"longitude":74.124,"temp":27.5,"humidity":92,"rain":0.0,"pressure":1000.4,"uv_index":8.65,"wind_gusts":39.2,"aqi":150,"pm10":69.4,"pm2_5":61.2,"mosquito_risk":7,"arthritis_risk":5,"migraine_risk":4,"frizz_risk":1,"updated_at":"2026-03-11T01:10:20.273185+05:30"},{"city":"Jodhpur","state":"Rajasthan","latitude":26.2389,"longitude":73.0243,"temp":24.9,"humidity":31,"rain":0.0,"pressure":987.8,"uv_index":7.15,"wind_gusts":32.4,"aqi":80,"pm10":54.1,"pm2_5":20.5,"mosquito_risk":0,"arthritis_risk":5,"migraine_risk":7,"frizz_risk":0,"updated_at":"2026-03-11T01:10:20.273192+05:30"},{"city":"Udaipur","state":"Rajasthan","latitude":24.5854,"longitude":73.7125,"temp":20.3,"humidity":42,"rain":0.0,"pressure":950.8,"uv_index":7.8,"wind_gusts":27.7,"aqi":60,"pm10":20.6,"pm2_5":15.4,"mosquito_risk":0,"arthritis_risk":5,"migraine_risk":7,"frizz_risk":0,"updated_at":"2026-03-11T01:10:20.273199+05:30"},{"city":"Kota","state":"Rajasthan","latitude":25.2138,"longitude":75.8648,"temp":21.4,"humidity":51,"rain":0.0,"pressure":982.7,"uv_index":7.2,"wind_gusts":18.0,"aqi":75,"pm10":70.1,"pm2_5":31.7,"mosquito_risk":0,"arthritis_risk":5,"migraine_risk":7,"frizz_risk":0,"updated_at":"2026-03-11T01:10:20.273206+05:30"},{"city":"Bikaner","state":"Rajasthan","latitude":28.0229,"longitude":73.3119,"temp":24.6,"humidity":37,"rain":0.0,"pressure":986.5,"uv_index":6.0,"wind_gusts":31.3,"aqi":67,"pm10":101.0,"pm2_5":28.1,"mosquito_risk":0,"arthritis_risk":5,"migraine_risk":3,"frizz_risk":0,"updated_at":"2026-03-11T01:10:20.273212+05:30"},{"city":"Ajmer","state":"Rajasthan","latitude":26.4499,"longitude":74.6399,"temp":24.7,"humidity":29,"rain":0.0,"pressure":959.0,"uv_index":7.1,"wind_gusts":32.4,"aqi":68,"pm10":52.9,"pm2_5":30.0,"mosquito_risk":0,"arthritis_risk":5,"migraine_risk":7,"frizz_risk":0,"updated_at":"2026-03-11T01:10:20.273220+05:30"},{"city":"Gwalior","state":"Madhya Pradesh","latitude":26.2183,"longitude":78.1828,"temp":24.7,"humidity":53,"rain":0.0,"pressure":987.6,"uv_index":6.8,"wind_gusts":31.3,"aqi":134,"pm10":280.3,"pm2_5":64.7,"mosquito_risk":0,"arthritis_risk":5,"migraine_risk":7,"frizz_risk":0,"updated_at":"2026-03-11T01:10:20.273226+05:30"},{"city":"Indore","state":"Madhya Pradesh","latitude":22.7196,"longitude":75.8577,"temp":19.4,"humidity":56,"rain":0.0,"pressure":950.8,"uv_index":7.7,"wind_gusts":23.8,"aqi":65,"pm10":31.2,"pm2_5":22.3,"mosquito_risk":0,"arthritis_risk":5,"migraine_risk":7,"frizz_risk":0,"updated_at":"2026-03-11T01:10:20.273233+05:30"},{"city":"Bhopal","state":"Madhya Pradesh","latitude":23.2599,"longitude":77.4126,"temp":22.8,"humidity":41,"rain":0.0,"pressure":957.0,"uv_index":7.6,"wind_gusts":25.9,"aqi":54,"pm10":27.1,"pm2_5":18.1,"mosquito_risk":0,"arthritis_risk":5,"migraine_risk":7,"frizz_risk":0,"updated_at":"2026-03-11T01:10:20.273240+05:30"},{"city":"Jabalpur","state":"Madhya Pradesh","latitude":23.1815,"longitude":79.9864,"temp":24.7,"humidity":54,"rain":0.0,"pressure":965.0,"uv_index":7.7,"wind_gusts":19.4,"aqi":85,"pm10":50.8,"pm2_5":27.1,"mosquito_risk":0,"arthritis_risk":5,"migraine_risk":7,"frizz_risk":0,"updated_at":"2026-03-11T01:10:20.273246+05:30"},{"city":"Ujjain","state":"Madhya Pradesh","latitude":23.1765,"longitude":75.7885,"temp":21.9,"humidity":49,"rain":0.0,"pressure":957.1,"uv_index":7.65,"wind_gusts":14.4,"aqi":83,"pm10":41.1,"pm2_5":30.7,"mosquito_risk":0,"arthritis_risk":5,"migraine_risk":7,"frizz_risk":0,"updated_at":"2026-03-11T01:10:20.273254+05:30"},{"city":"Visakhapatnam","state":"Andhra Pradesh","latitude":17.6868,"longitude":83.2185,"temp":23.5,"humidity":90,"rain":0.0,"pressure":1008.1,"uv_index":8.6,"wind_gusts":39.2,"aqi":120,"pm10":34.6,"pm2_5":30.2,"mosquito_risk":3,"arthritis_risk":0,"migraine_risk":4,"frizz_risk":1,"updated_at":"2026-03-11T01:10:20.273261+05:30"},{"city":"Vijayawada","state":"Andhra Pradesh","latitude":16.5062,"longitude":80.648,"temp":22.4,"humidity":89,"rain":0.0,"pressure":1007.2,"uv_index":8.7,"wind_gusts":18.7,"aqi":120,"pm10":38.2,"pm2_5":34.9,"mosquito_risk":3,"arthritis_risk":5,"migraine_risk":4,"frizz_risk":1,"updated_at":"2026-03-11T01:10:20.273267+05:30"},{"city":"Guntur","state":"Andhra Pradesh","latitude":16.3067,"longitude":80.4365,"temp":21.5,"humidity":91,"rain":0.0,"pressure":1008.3,"uv_index":8.7,"wind_gusts":19.1,"aqi":112,"pm10":33.6,"pm2_5":31.1,"mosquito_risk":3,"arthritis_risk":0,"migraine_risk":4,"frizz_risk":1,"updated_at":"2026-03-11T01:10:20.273274+05:30"},{"city":"Nellore","state":"Andhra Pradesh","latitude":14.4426,"longitude":79.9865,"temp":22.8,"humidity":88,"rain":0.0,"pressure":1010.2,"uv_index":8.9,"wind_gusts":27.0,"aqi":83,"pm10":21.8,"pm2_5":17.8,"mosquito_risk":3,"arthritis_risk":0,"migraine_risk":4,"frizz_risk":1,"updated_at":"2026-03-11T01:10:20.273282+05:30"},{"city":"Kurnool","state":"Andhra Pradesh","latitude":15.8281,"longitude":78.0373,"temp":24.3,"humidity":51,"rain":0.0,"pressure":980.4,"uv_index":8.7,"wind_gusts":19.4,"aqi":99,"pm10":17.6,"pm2_5":15.3,"mosquito_risk":0,"arthritis_risk":5,"migraine_risk":7,"frizz_risk":0,"updated_at":"2026-03-11T01:10:20.273289+05:30"},{"city":"Kakinada","state":"Andhra Pradesh","latitude":16.9891,"longitude":82.2475,"temp":20.6,"humidity":94,"rain":0.0,"pressure":1012.2,"uv_index":8.65,"wind_gusts":19.4,"aqi":105,"pm10":31.8,"pm2_5":27.1,"mosquito_risk":3,"arthritis_risk":0,"migraine_risk":4,"frizz_risk":1,"updated_at":"2026-03-11T01:10:20.273296+05:30"},{"city":"Tirupati","state":"Andhra Pradesh","latitude":13.6288,"longitude":79.4192,"temp":20.8,"humidity":73,"rain":0.0,"pressure":996.0,"uv_index":9.0,"wind_gusts":28.4,"aqi":109,"pm10":35.4,"pm2_5":32.6,"mosquito_risk":3,"arthritis_risk":5,"migraine_risk":7,"frizz_risk":0,"updated_at":"2026-03-11T01:10:20.273303+05:30"},{"city":"Warangal","state":"Telangana","latitude":17.9689,"longitude":79.5941,"temp":24.6,"humidity":65,"rain":0.0,"pressure":982.1,"uv_index":8.45,"wind_gusts":20.5,"aqi":134,"pm10":35.7,"pm2_5":32.9,"mosquito_risk":3,"arthritis_risk":5,"migraine_risk":7,"frizz_risk":1,"updated_at":"2026-03-11T01:10:20.273309+05:30"},{"city":"Nizamabad","state":"Telangana","latitude":18.6725,"longitude":78.0941,"temp":25.4,"humidity":63,"rain":0.0,"pressure":967.9,"uv_index":8.35,"wind_gusts":25.6,"aqi":133,"pm10":53.4,"pm2_5":48.0,"mosquito_risk":7,"arthritis_risk":5,"migraine_risk":7,"frizz_risk":1,"updated_at":"2026-03-11T01:10:20.273317+05:30"},{"city":"Mysore","state":"Karnataka","latitude":12.2958,"longitude":76.6396,"temp":22.2,"humidity":59,"rain":0.0,"pressure":930.0,"uv_index":9.25,"wind_gusts":28.1,"aqi":93,"pm10":19.2,"pm2_5":18.4,"mosquito_risk":0,"arthritis_risk":5,"migraine_risk":7,"frizz_risk":0,"updated_at":"2026-03-11T01:10:20.273323+05:30"},{"city":"Mangalore","state":"Karnataka","latitude":12.9141,"longitude":74.856,"temp":28.6,"humidity":81,"rain":0.0,"pressure":1008.7,"uv_index":8.9,"wind_gusts":31.0,"aqi":109,"pm10":49.6,"pm2_5":41.9,"mosquito_risk":7,"arthritis_risk":0,"migraine_risk":4,"frizz_risk":1,"updated_at":"2026-03-11T01:10:20.273330+05:30"},{"city":"Hubli-Dharwad","state":"Karnataka","latitude":15.3647,"longitude":75.124,"temp":23.8,"humidity":49,"rain":0.0,"pressure":943.0,"uv_index":8.85,"wind_gusts":32.0,"aqi":122,"pm10":51.8,"pm2_5":46.0,"mosquito_risk":0,"arthritis_risk":5,"migraine_risk":7,"frizz_risk":0,"updated_at":"2026-03-11T01:10:20.273338+05:30"},{"city":"Belgaum","state":"Karnataka","latitude":15.8497,"longitude":74.4977,"temp":23.9,"humidity":56,"rain":0.0,"pressure":927.9,"uv_index":8.9,"wind_gusts":43.2,"aqi":119,"pm10":56.8,"pm2_5":50.1,"mosquito_risk":0,"arthritis_risk":5,"migraine_risk":7,"frizz_risk":0,"updated_at":"2026-03-11T01:10:23.532125+05:30"},{"city":"Coimbatore","state":"Tamil Nadu","latitude":11.0168,"longitude":76.9558,"temp":23.0,"humidity":81,"rain":0.0,"pressure":965.0,"uv_index":9.25,"wind_gusts":40.0,"aqi":96,"pm10":20.1,"pm2_5":19.5,"mosquito_risk":3,"arthritis_risk":5,"migraine_risk":7,"frizz_risk":1,"updated_at":"2026-03-11T01:10:23.532155+05:30"},{"city":"Madurai","state":"Tamil Nadu","latitude":9.9252,"longitude":78.1198,"temp":24.6,"humidity":82,"rain":0.0,"pressure":996.6,"uv_index":8.3,"wind_gusts":29.2,"aqi":89,"pm10":18.9,"pm2_5":18.0,"mosquito_risk":3,"arthritis_risk":5,"migraine_risk":7,"frizz_risk":1,"updated_at":"2026-03-11T01:10:23.532164+05:30"},{"city":"Trichy","state":"Tamil Nadu","latitude":10.7905,"longitude":78.7047,"temp":23.8,"humidity":95,"rain":0.0,"pressure":1003.5,"uv_index":9.15,"wind_gusts":25.9,"aqi":84,"pm10":20.4,"pm2_5":17.8,"mosquito_risk":3,"arthritis_risk":5,"migraine_risk":4,"frizz_risk":1,"updated_at":"2026-03-11T01:10:23.532172+05:30"},{"city":"Salem","state":"Tamil Nadu","latitude":11.6643,"longitude":78.146,"temp":23.4,"humidity":83,"rain":0.0,"pressure":980.7,"uv_index":9.15,"wind_gusts":22.3,"aqi":101,"pm10":23.5,"pm2_5":21.8,"mosquito_risk":3,"arthritis_risk":5,"migraine_risk":7,"frizz_risk":1,"updated_at":"2026-03-11T01:10:23.532179+05:30"},{"city":"Tirunelveli","state":"Tamil Nadu","latitude":8.7139,"longitude":77.7567,"temp":24.9,"humidity":82,"rain":0.0,"pressure":1006.7,"uv_index":6.45,"wind_gusts":25.2,"aqi":76,"pm10":10.2,"pm2_5":9.7,"mosquito_risk":3,"arthritis_risk":5,"migraine_risk":4,"frizz_risk":1,"updated_at":"2026-03-11T01:10:23.532187+05:30"},{"city":"Vellore","state":"Tamil Nadu","latitude":12.9165,"longitude":79.1325,"temp":21.5,"humidity":85,"rain":0.0,"pressure":988.9,"uv_index":9.1,"wind_gusts":31.7,"aqi":119,"pm10":41.2,"pm2_5":37.0,"mosquito_risk":3,"arthritis_risk":5,"migraine_risk":7,"frizz_risk":1,"updated_at":"2026-03-11T01:10:23.532194+05:30"},{"city":"Erode","state":"Tamil Nadu","latitude":11.341,"longitude":77.7172,"temp":24.5,"humidity":86,"rain":0.0,"pressure":992.7,"uv_index":9.15,"wind_gusts":20.9,"aqi":98,"pm10":19.2,"pm2_5":18.0,"mosquito_risk":3,"arthritis_risk":5,"migraine_risk":7,"frizz_risk":1,"updated_at":"2026-03-11T01:10:23.532201+05:30"},{"city":"Kochi","state":"Kerala","latitude":9.9312,"longitude":76.2673,"temp":27.8,"humidity":81,"rain":0.0,"pressure":1010.6,"uv_index":9.1,"wind_gusts":33.8,"aqi":148,"pm10":71.0,"pm2_5":66.8,"mosquito_risk":7,"arthritis_risk":0,"migraine_risk":4,"frizz_risk":1,"updated_at":"2026-03-11T01:10:23.532208+05:30"},{"city":"Thiruvananthapuram","state":"Kerala","latitude":8.5241,"longitude":76.9366,"temp":28.4,"humidity":76,"rain":0.0,"pressure":1009.4,"uv_index":6.45,"wind_gusts":26.3,"aqi":96,"pm10":18.9,"pm2_5":15.1,"mosquito_risk":7,"arthritis_risk":0,"migraine_risk":4,"frizz_risk":1,"updated_at":"2026-03-11T01:10:23.532215+05:30"},{"city":"Kozhikode","state":"Kerala","latitude":11.2588,"longitude":75.7804,"temp":28.4,"humidity":79,"rain":0.0,"pressure":1009.5,"uv_index":8.95,"wind_gusts":31.7,"aqi":126,"pm10":48.7,"pm2_5":38.5,"mosquito_risk":7,"arthritis_risk":0,"migraine_risk":4,"frizz_risk":1,"updated_at":"2026-03-11T01:10:23.532222+05:30"},{"city":"Thrissur","state":"Kerala","latitude":10.5276,"longitude":76.2144,"temp":26.7,"humidity":86,"rain":0.0,"pressure":1008.9,"uv_index":8.95,"wind_gusts":37.8,"aqi":127,"pm10":60.8,"pm2_5":56.5,"mosquito_risk":7,"arthritis_risk":0,"migraine_risk":4,"frizz_risk":1,"updated_at":"2026-03-11T01:10:23.532229+05:30"},{"city":"Kannur","state":"Kerala","latitude":11.8745,"longitude":75.3704,"temp":27.5,"humidity":84,"rain":0.0,"pressure":1008.7,"uv_index":8.95,"wind_gusts":34.6,"aqi":109,"pm10":54.8,"pm2_5":46.6,"mosquito_risk":7,"arthritis_risk":0,"migraine_risk":4,"frizz_risk":1,"updated_at":"2026-03-11T01:10:23.532236+05:30"},{"city":"Patna","state":"Bihar","latitude":25.5941,"longitude":85.1376,"temp":25.8,"humidity":81,"rain":0.0,"pressure":1005.3,"uv_index":7.3,"wind_gusts":24.8,"aqi":173,"pm10":142.0,"pm2_5":133.6,"mosquito_risk":7,"arthritis_risk":5,"migraine_risk":4,"frizz_risk":1,"updated_at":"2026-03-11T01:10:23.532243+05:30"},{"city":"Gaya","state":"Bihar","latitude":24.7914,"longitude":85.0002,"temp":23.8,"humidity":90,"rain":0.0,"pressure":998.6,"uv_index":7.5,"wind_gusts":21.2,"aqi":168,"pm10":139.7,"pm2_5":129.5,"mosquito_risk":3,"arthritis_risk":5,"migraine_risk":7,"frizz_risk":1,"updated_at":"2026-03-11T01:10:23.532249+05:30"},{"city":"Muzaffarpur","state":"Bihar","latitude":26.1209,"longitude":85.3647,"temp":24.0,"humidity":85,"rain":0.0,"pressure":1005.2,"uv_index":7.4,"wind_gusts":20.9,"aqi":179,"pm10":188.6,"pm2_5":178.8,"mosquito_risk":3,"arthritis_risk":5,"migraine_risk":4,"frizz_risk":1,"updated_at":"2026-03-11T01:10:23.532257+05:30"},{"city":"Bhagalpur","state":"Bihar","latitude":25.2425,"longitude":87.0117,"temp":25.1,"humidity":84,"rain":0.0,"pressure":1005.9,"uv_index":7.45,"wind_gusts":17.6,"aqi":164,"pm10":70.5,"pm2_5":66.1,"mosquito_risk":7,"arthritis_risk":5,"migraine_risk":4,"frizz_risk":1,"updated_at":"2026-03-11T01:10:23.532264+05:30"},{"city":"Ranchi","state":"Jharkhand","latitude":23.3441,"longitude":85.3096,"temp":20.9,"humidity":93,"rain":0.0,"pressure":941.7,"uv_index":8.15,"wind_gusts":29.2,"aqi":161,"pm10":109.0,"pm2_5":97.1,"mosquito_risk":3,"arthritis_risk":5,"migraine_risk":7,"frizz_risk":1,"updated_at":"2026-03-11T01:10:23.532270+05:30"},{"city":"Jamshedpur","state":"Jharkhand","latitude":22.8046,"longitude":86.2029,"temp":23.7,"humidity":86,"rain":0.0,"pressure":996.0,"uv_index":8.05,"wind_gusts":28.4,"aqi":144,"pm10":72.9,"pm2_5":61.7,"mosquito_risk":3,"arthritis_risk":5,"migraine_risk":7,"frizz_risk":1,"updated_at":"2026-03-11T01:10:23.532277+05:30"},{"city":"Dhanbad","state":"Jharkhand","latitude":23.7957,"longitude":86.4304,"temp":23.4,"humidity":89,"rain":0.0,"pressure":984.6,"uv_index":7.95,"wind_gusts":23.8,"aqi":169,"pm10":144.4,"pm2_5":133.2,"mosquito_risk":3,"arthritis_risk":5,"migraine_risk":7,"frizz_risk":1,"updated_at":"2026-03-11T01:10:23.532284+05:30"},{"city":"Bokaro","state":"Jharkhand","latitude":23.6693,"longitude":86.1511,"temp":22.9,"humidity":90,"rain":0.0,"pressure":988.8,"uv_index":7.95,"wind_gusts":29.5,"aqi":178,"pm10":180.7,"pm2_5":166.2,"mosquito_risk":3,"arthritis_risk":5,"migraine_risk":7,"frizz_risk":1,"updated_at":"2026-03-11T01:10:23.532291+05:30"},{"city":"Bhubaneswar","state":"Odisha","latitude":20.2961,"longitude":85.8245,"temp":23.7,"humidity":90,"rain":0.0,"pressure":1007.0,"uv_index":8.35,"wind_gusts":28.1,"aqi":118,"pm10":44.7,"pm2_5":38.8,"mosquito_risk":3,"arthritis_risk":5,"migraine_risk":4,"frizz_risk":1,"updated_at":"2026-03-11T01:10:23.532298+05:30"},{"city":"Cuttack","state":"Odisha","latitude":20.4625,"longitude":85.8828,"temp":24.3,"humidity":87,"rain":0.0,"pressure":1009.0,"uv_index":8.4,"wind_gusts":30.2,"aqi":118,"pm10":44.7,"pm2_5":38.8,"mosquito_risk":3,"arthritis_risk":0,"migraine_risk":4,"frizz_risk":1,"updated_at":"2026-03-11T01:10:23.532305+05:30"},{"city":"Rourkela","state":"Odisha","latitude":22.2604,"longitude":84.8536,"temp":24.4,"humidity":77,"rain":0.0,"pressure":989.3,"uv_index":7.95,"wind_gusts":25.6,"aqi":158,"pm10":88.7,"pm2_5":80.6,"mosquito_risk":3,"arthritis_risk":5,"migraine_risk":7,"frizz_risk":1,"updated_at":"2026-03-11T01:10:23.532312+05:30"},{"city":"Raipur","state":"Chhattisgarh","latitude":21.2514,"longitude":81.6296,"temp":26.6,"humidity":48,"rain":0.0,"pressure":977.7,"uv_index":8.05,"wind_gusts":20.9,"aqi":154,"pm10":95.5,"pm2_5":75.9,"mosquito_risk":4,"arthritis_risk":5,"migraine_risk":7,"frizz_risk":0,"updated_at":"2026-03-11T01:10:23.532319+05:30"},{"city":"Bhilai","state":"Chhattisgarh","latitude":21.1938,"longitude":81.3509,"temp":24.5,"humidity":57,"rain":0.0,"pressure":977.9,"uv_index":8.05,"wind_gusts":17.3,"aqi":151,"pm10":86.8,"pm2_5":69.2,"mosquito_risk":0,"arthritis_risk":5,"migraine_risk":7,"frizz_risk":0,"updated_at":"2026-03-11T01:10:23.532325+05:30"},{"city":"Guwahati","state":"Assam","latitude":26.1158,"longitude":91.7086,"temp":23.6,"humidity":85,"rain":0.0,"pressure":1005.6,"uv_index":7.35,"wind_gusts":14.4,"aqi":155,"pm10":56.0,"pm2_5":52.0,"mosquito_risk":3,"arthritis_risk":5,"migraine_risk":4,"frizz_risk":1,"updated_at":"2026-03-11T01:10:23.532331+05:30"},{"city":"Agartala","state":"Tripura","latitude":23.8315,"longitude":91.2868,"temp":21.3,"humidity":88,"rain":0.0,"pressure":1010.3,"uv_index":7.7,"wind_gusts":20.2,"aqi":169,"pm10":100.6,"pm2_5":93.4,"mosquito_risk":3,"arthritis_risk":0,"migraine_risk":4,"frizz_risk":1,"updated_at":"2026-03-11T01:10:23.532338+05:30"},{"city":"Shillong","state":"Meghalaya","latitude":25.5788,"longitude":91.8933,"temp":11.2,"humidity":90,"rain":0.0,"pressure":857.6,"uv_index":6.8,"wind_gusts":17.6,"aqi":142,"pm10":44.5,"pm2_5":41.2,"mosquito_risk":3,"arthritis_risk":10,"migraine_risk":7,"frizz_risk":0,"updated_at":"2026-03-11T01:10:23.532345+05:30"},{"city":"Imphal","state":"Manipur","latitude":24.817,"longitude":93.9368,"temp":16.6,"humidity":84,"rain":0.0,"pressure":926.6,"uv_index":7.95,"wind_gusts":46.1,"aqi":153,"pm10":72.9,"pm2_5":69.6,"mosquito_risk":3,"arthritis_risk":10,"migraine_risk":7,"frizz_risk":0,"updated_at":"2026-03-11T01:10:23.532352+05:30"},{"city":"Aizawl","state":"Mizoram","latitude":23.7271,"longitude":92.7176,"temp":16.5,"humidity":75,"rain":0.0,"pressure":895.0,"uv_index":7.9,"wind_gusts":30.6,"aqi":129,"pm10":35.5,"pm2_5":30.9,"mosquito_risk":3,"arthritis_risk":5,"migraine_risk":7,"frizz_risk":0,"updated_at":"2026-03-11T01:10:23.532358+05:30"},{"city":"Kohima","state":"Nagaland","latitude":25.6701,"longitude":94.1077,"temp":14.7,"humidity":81,"rain":0.0,"pressure":857.7,"uv_index":7.0,"wind_gusts":39.6,"aqi":134,"pm10":48.8,"pm2_5":46.2,"mosquito_risk":3,"arthritis_risk":10,"migraine_risk":7,"frizz_risk":0,"updated_at":"2026-03-11T01:10:23.532365+05:30"},{"city":"Gangtok","state":"Sikkim","latitude":27.3314,"longitude":88.6138,"temp":14.4,"humidity":78,"rain":0.0,"pressure":840.5,"uv_index":6.45,"wind_gusts":20.5,"aqi":144,"pm10":70.5,"pm2_5":61.9,"mosquito_risk":3,"arthritis_risk":5,"migraine_risk":7,"frizz_risk":0,"updated_at":"2026-03-11T01:10:23.532372+05:30"},{"city":"Siliguri","state":"West Bengal","latitude":26.7271,"longitude":88.3953,"temp":21.3,"humidity":68,"rain":0.0,"pressure":998.9,"uv_index":7.4,"wind_gusts":20.9,"aqi":163,"pm10":115.5,"pm2_5":102.2,"mosquito_risk":3,"arthritis_risk":5,"migraine_risk":7,"frizz_risk":0,"updated_at":"2026-03-11T01:10:26.805048+05:30"},{"city":"Durgapur","state":"West Bengal","latitude":23.5204,"longitude":87.3119,"temp":23.0,"humidity":86,"rain":0.0,"pressure":1000.0,"uv_index":7.9,"wind_gusts":22.0,"aqi":153,"pm10":83.6,"pm2_5":76.8,"mosquito_risk":3,"arthritis_risk":5,"migraine_risk":4,"frizz_risk":1,"updated_at":"2026-03-11T01:10:26.805078+05:30"},{"city":"Asansol","state":"West Bengal","latitude":23.6739,"longitude":86.9524,"temp":23.4,"humidity":84,"rain":0.0,"pressure":998.4,"uv_index":7.95,"wind_gusts":19.4,"aqi":158,"pm10":98.3,"pm2_5":89.4,"mosquito_risk":3,"arthritis_risk":5,"migraine_risk":7,"frizz_risk":1,"updated_at":"2026-03-11T01:10:26.805087+05:30"},{"city":"Pondicherry","state":"Puducherry","latitude":11.9139,"longitude":79.8145,"temp":22.9,"humidity":90,"rain":0.0,"pressure":1012.5,"uv_index":9.0,"wind_gusts":28.1,"aqi":67,"pm10":21.7,"pm2_5":16.2,"mosquito_risk":3,"arthritis_risk":0,"migraine_risk":4,"frizz_risk":1,"updated_at":"2026-03-11T01:10:26.805095+05:30"},{"city":"Port Blair","state":"Andaman and Nicobar Islands","latitude":11.6234,"longitude":92.7265,"temp":27.7,"humidity":82,"rain":0.0,"pressure":1009.4,"uv_index":8.95,"wind_gusts":20.2,"aqi":69,"pm10":26.0,"pm2_5":21.9,"mosquito_risk":7,"arthritis_risk":0,"migraine_risk":4,"frizz_risk":1,"updated_at":"2026-03-11T01:10:26.805104+05:30"},{"city":"Haridwar","state":"Uttarakhand","latitude":29.9457,"longitude":78.1642,"temp":22.0,"humidity":92,"rain":0.0,"pressure":979.6,"uv_index":5.6,"wind_gusts":35.3,"aqi":157,"pm10":104.8,"pm2_5":87.8,"mosquito_risk":3,"arthritis_risk":5,"migraine_risk":3,"frizz_risk":1,"updated_at":"2026-03-11T01:10:26.805111+05:30"},{"city":"Rishikesh","state":"Uttarakhand","latitude":30.0869,"longitude":78.2676,"temp":21.6,"humidity":87,"rain":0.0,"pressure":972.5,"uv_index":5.75,"wind_gusts":34.2,"aqi":155,"pm10":107.6,"pm2_5":75.4,"mosquito_risk":3,"arthritis_risk":5,"migraine_risk":3,"frizz_risk":1,"updated_at":"2026-03-11T01:10:26.805119+05:30"},{"city":"Nainital","state":"Uttarakhand","latitude":29.3919,"longitude":79.4542,"temp":17.2,"humidity":81,"rain":0.0,"pressure":809.7,"uv_index":6.8,"wind_gusts":67.3,"aqi":176,"pm10":127.6,"pm2_5":105.2,"mosquito_risk":3,"arthritis_risk":10,"migraine_risk":7,"frizz_risk":0,"updated_at":"2026-03-11T01:10:26.805126+05:30"},{"city":"Mussoorie","state":"Uttarakhand","latitude":30.4599,"longitude":78.0664,"temp":15.8,"humidity":88,"rain":0.0,"pressure":806.6,"uv_index":5.65,"wind_gusts":40.7,"aqi":152,"pm10":106.4,"pm2_5":79.9,"mosquito_risk":3,"arthritis_risk":10,"migraine_risk":3,"frizz_risk":0,"updated_at":"2026-03-11T01:10:26.805133+05:30"},{"city":"Dharamshala","state":"Himachal Pradesh","latitude":32.219,"longitude":76.3234,"temp":21.1,"humidity":48,"rain":0.0,"pressure":874.2,"uv_index":4.7,"wind_gusts":22.0,"aqi":55,"pm10":29.6,"pm2_5":17.4,"mosquito_risk":0,"arthritis_risk":5,"migraine_risk":3,"frizz_risk":0,"updated_at":"2026-03-11T01:10:26.805140+05:30"},{"city":"Dalhousie","state":"Himachal Pradesh","latitude":32.5387,"longitude":75.971,"temp":18.4,"humidity":28,"rain":0.0,"pressure":808.4,"uv_index":5.2,"wind_gusts":23.4,"aqi":87,"pm10":52.9,"pm2_5":39.8,"mosquito_risk":0,"arthritis_risk":5,"migraine_risk":3,"frizz_risk":1,"updated_at":"2026-03-11T01:10:26.805148+05:30"},{"city":"Patiala","state":"Punjab","latitude":30.3398,"longitude":76.3869,"temp":21.7,"humidity":81,"rain":0.0,"pressure":983.0,"uv_index":5.35,"wind_gusts":18.7,"aqi":171,"pm10":167.6,"pm2_5":125.7,"mosquito_risk":3,"arthritis_risk":5,"migraine_risk":3,"frizz_risk":1,"updated_at":"2026-03-11T01:10:26.805155+05:30"},{"city":"Bhatinda","state":"Punjab","latitude":30.211,"longitude":74.9455,"temp":20.4,"humidity":78,"rain":0.0,"pressure":988.4,"uv_index":6.1,"wind_gusts":22.3,"aqi":153,"pm10":136.4,"pm2_5":80.6,"mosquito_risk":3,"arthritis_risk":5,"migraine_risk":7,"frizz_risk":1,"updated_at":"2026-03-11T01:10:26.805162+05:30"},{"city":"Rohtak","state":"Haryana","latitude":28.8955,"longitude":76.6066,"temp":20.7,"humidity":73,"rain":0.0,"pressure":986.3,"uv_index":6.15,"wind_gusts":25.9,"aqi":331,"pm10":314.8,"pm2_5":143.9,"mosquito_risk":3,"arthritis_risk":5,"migraine_risk":7,"frizz_risk":0,"updated_at":"2026-03-11T01:10:26.805168+05:30"},{"city":"Panipat","state":"Haryana","latitude":29.3909,"longitude":76.9635,"temp":20.4,"humidity":78,"rain":0.0,"pressure":984.9,"uv_index":5.6,"wind_gusts":23.8,"aqi":277,"pm10":285.0,"pm2_5":134.6,"mosquito_risk":3,"arthritis_risk":5,"migraine_risk":3,"frizz_risk":1,"updated_at":"2026-03-11T01:10:26.805175+05:30"},{"city":"Mathura","state":"Uttar Pradesh","latitude":27.4924,"longitude":77.6737,"temp":20.6,"humidity":76,"rain":0.0,"pressure":991.6,"uv_index":6.4,"wind_gusts":24.1,"aqi":338,"pm10":434.9,"pm2_5":136.9,"mosquito_risk":3,"arthritis_risk":5,"migraine_risk":7,"frizz_risk":1,"updated_at":"2026-03-11T01:10:26.805181+05:30"},{"city":"Vrindavan","state":"Uttar Pradesh","latitude":27.5823,"longitude":77.7027,"temp":21.0,"humidity":71,"rain":0.0,"pressure":992.0,"uv_index":6.35,"wind_gusts":25.6,"aqi":338,"pm10":434.9,"pm2_5":136.9,"mosquito_risk":3,"arthritis_risk":5,"migraine_risk":7,"frizz_risk":0,"updated_at":"2026-03-11T01:10:26.805188+05:30"},{"city":"Ayodhya","state":"Uttar Pradesh","latitude":26.7922,"longitude":82.1998,"temp":24.8,"humidity":84,"rain":0.0,"pressure":1000.2,"uv_index":6.8,"wind_gusts":26.6,"aqi":188,"pm10":154.1,"pm2_5":143.9,"mosquito_risk":3,"arthritis_risk":5,"migraine_risk":4,"frizz_risk":1,"updated_at":"2026-03-11T01:10:26.805195+05:30"},{"city":"Ratlam","state":"Madhya Pradesh","latitude":23.3315,"longitude":75.0367,"temp":19.2,"humidity":65,"rain":0.0,"pressure":957.3,"uv_index":7.6,"wind_gusts":23.8,"aqi":68,"pm10":36.9,"pm2_5":27.3,"mosquito_risk":3,"arthritis_risk":5,"migraine_risk":7,"frizz_risk":0,"updated_at":"2026-03-11T01:10:26.805201+05:30"},{"city":"Sagar","state":"Madhya Pradesh","latitude":23.8388,"longitude":78.7378,"temp":25.1,"humidity":42,"rain":0.0,"pressure":953.8,"uv_index":7.55,"wind_gusts":26.3,"aqi":78,"pm10":66.6,"pm2_5":23.9,"mosquito_risk":4,"arthritis_risk":5,"migraine_risk":7,"frizz_risk":0,"updated_at":"2026-03-11T01:10:26.805208+05:30"},{"city":"Satna","state":"Madhya Pradesh","latitude":24.6005,"longitude":80.8322,"temp":23.6,"humidity":71,"rain":0.0,"pressure":975.8,"uv_index":7.55,"wind_gusts":33.5,"aqi":151,"pm10":115.7,"pm2_5":76.1,"mosquito_risk":3,"arthritis_risk":5,"migraine_risk":7,"frizz_risk":1,"updated_at":"2026-03-11T01:10:26.805215+05:30"},{"city":"Akola","state":"Maharashtra","latitude":20.7002,"longitude":77.0082,"temp":28.1,"humidity":39,"rain":0.0,"pressure":977.7,"uv_index":8.0,"wind_gusts":16.6,"aqi":69,"pm10":36.0,"pm2_5":30.6,"mosquito_risk":4,"arthritis_risk":5,"migraine_risk":7,"frizz_risk":0,"updated_at":"2026-03-11T01:10:26.805222+05:30"},{"city":"Amravati","state":"Maharashtra","latitude":20.9374,"longitude":77.7796,"temp":23.2,"humidity":62,"rain":0.0,"pressure":970.0,"uv_index":8.0,"wind_gusts":13.7,"aqi":70,"pm10":39.5,"pm2_5":32.9,"mosquito_risk":3,"arthritis_risk":5,"migraine_risk":7,"frizz_risk":0,"updated_at":"2026-03-11T01:10:26.805229+05:30"},{"city":"Latur","state":"Maharashtra","latitude":18.4088,"longitude":76.5604,"temp":23.7,"humidity":59,"rain":0.0,"pressure":942.7,"uv_index":8.45,"wind_gusts":21.2,"aqi":107,"pm10":45.5,"pm2_5":39.2,"mosquito_risk":0,"arthritis_risk":5,"migraine_risk":7,"frizz_risk":0,"updated_at":"2026-03-11T01:10:26.805236+05:30"},{"city":"Nanded","state":"Maharashtra","latitude":19.1383,"longitude":77.3091,"temp":26.1,"humidity":47,"rain":0.0,"pressure":971.3,"uv_index":8.2,"wind_gusts":21.6,"aqi":124,"pm10":57.5,"pm2_5":50.8,"mosquito_risk":4,"arthritis_risk":5,"migraine_risk":7,"frizz_risk":0,"updated_at":"2026-03-11T01:10:26.805243+05:30"},{"city":"Gulbarga","state":"Karnataka","latitude":17.3297,"longitude":76.8343,"temp":25.6,"humidity":56,"rain":0.0,"pressure":961.9,"uv_index":8.5,"wind_gusts":19.1,"aqi":127,"pm10":51.6,"pm2_5":46.6,"mosquito_risk":4,"arthritis_risk":5,"migraine_risk":7,"frizz_risk":1,"updated_at":"2026-03-11T01:10:26.805249+05:30"},{"city":"Bidar","state":"Karnataka","latitude":17.9104,"longitude":77.5199,"temp":23.6,"humidity":64,"rain":0.0,"pressure":938.3,"uv_index":8.5,"wind_gusts":22.3,"aqi":132,"pm10":55.9,"pm2_5":50.3,"mosquito_risk":3,"arthritis_risk":5,"migraine_risk":7,"frizz_risk":1,"updated_at":"2026-03-11T01:10:26.805256+05:30"},{"city":"Hospet","state":"Karnataka","latitude":15.2689,"longitude":76.3909,"temp":25.4,"humidity":46,"rain":0.0,"pressure":958.6,"uv_index":8.85,"wind_gusts":22.3,"aqi":117,"pm10":32.4,"pm2_5":28.2,"mosquito_risk":4,"arthritis_risk":5,"migraine_risk":7,"frizz_risk":0,"updated_at":"2026-03-11T01:10:26.805263+05:30"},{"city":"Tirupur","state":"Tamil Nadu","latitude":11.1085,"longitude":77.3411,"temp":24.1,"humidity":80,"rain":0.0,"pressure":978.8,"uv_index":9.3,"wind_gusts":29.2,"aqi":105,"pm10":22.0,"pm2_5":20.9,"mosquito_risk":3,"arthritis_risk":5,"migraine_risk":7,"frizz_risk":1,"updated_at":"2026-03-11T01:10:26.805269+05:30"},{"city":"Alappuzha","state":"Kerala","latitude":9.4981,"longitude":76.3388,"temp":29.3,"humidity":64,"rain":0.0,"pressure":1010.5,"uv_index":8.85,"wind_gusts":33.5,"aqi":144,"pm10":59.6,"pm2_5":48.7,"mosquito_risk":7,"arthritis_risk":0,"migraine_risk":4,"frizz_risk":1,"updated_at":"2026-03-11T01:10:26.805276+05:30"},{"city":"Munnar","state":"Kerala","latitude":10.0889,"longitude":77.0595,"temp":20.0,"humidity":83,"rain":0.0,"pressure":857.8,"uv_index":5.55,"wind_gusts":25.2,"aqi":90,"pm10":16.8,"pm2_5":16.3,"mosquito_risk":3,"arthritis_risk":5,"migraine_risk":3,"frizz_risk":1,"updated_at":"2026-03-11T01:10:26.805283+05:30"},{"city":"Silchar","state":"Assam","latitude":24.8333,"longitude":92.7789,"temp":22.8,"humidity":86,"rain":0.0,"pressure":1009.1,"uv_index":7.65,"wind_gusts":15.8,"aqi":163,"pm10":86.8,"pm2_5":80.3,"mosquito_risk":3,"arthritis_risk":0,"migraine_risk":4,"frizz_risk":1,"updated_at":"2026-03-11T01:10:26.805289+05:30"},{"city":"Dibrugarh","state":"Assam","latitude":27.4728,"longitude":94.912,"temp":23.8,"humidity":82,"rain":0.0,"pressure":999.7,"uv_index":7.45,"wind_gusts":26.6,"aqi":163,"pm10":65.7,"pm2_5":61.2,"mosquito_risk":3,"arthritis_risk":5,"migraine_risk":7,"frizz_risk":1,"updated_at":"2026-03-11T01:10:26.805296+05:30"}]