[{"city":"Delhi","state":"Delhi","latitude":28.6139,"longitude":77.209,"temp":27.8,"humidity":47,"rain":0.0,"pressure":983.9,"uv_index":7.0,"wind_gusts":13.3,"aqi":154,"pm10":200.2,"pm2_5":80.8,"mosquito_risk":4,"arthritis_risk":5,"migraine_risk":7,"frizz_risk":0,"updated_at":"2026-04-18T08:11:13.648542+05:30"},{"city":"Mumbai","state":"Maharashtra","latitude":19.076,"longitude":72.8777,"temp":29.0,"humidity":84,"rain":0.0,"pressure":1008.6,"uv_index":6.95,"wind_gusts":23.8,"aqi":98,"pm10":92.4,"pm2_5":35.7,"mosquito_risk":7,"arthritis_risk":0,"migraine_risk":4,"frizz_risk":1,"updated_at":"2026-04-18T08:11:13.648582+05:30"},{"city":"Bangalore","state":"Karnataka","latitude":12.9716,"longitude":77.5946,"temp":25.2,"humidity":71,"rain":0.0,"pressure":913.2,"uv_index":8.9,"wind_gusts":34.6,"aqi":97,"pm10":54.1,"pm2_5":49.7,"mosquito_risk":7,"arthritis_risk":5,"migraine_risk":7,"frizz_risk":1,"updated_at":"2026-04-18T08:11:13.648597+05:30"},{"city":"Hyderabad","state":"Telangana","latitude":17.385,"longitude":78.4867,"temp":30.2,"humidity":62,"rain":0.0,"pressure":954.5,"uv_index":9.25,"wind_gusts":32.8,"aqi":91,"pm10":38.9,"pm2_5":34.8,"mosquito_risk":3,"arthritis_risk":5,"migraine_risk":7,"frizz_risk":1,"updated_at":"2026-04-18T08:11:13.648607+05:30"},{"city":"Chennai","state":"Tamil Nadu","latitude":13.0827,"longitude":80.2707,"temp":29.8,"humidity":75,"rain":0.0,"pressure":1008.6,"uv_index":8.65,"wind_gusts":32.0,"aqi":44,"pm10":14.4,"pm2_5":9.3,"mosquito_risk":7,"arthritis_risk":0,"migraine_risk":4,"frizz_risk":1,"updated_at":"2026-04-18T08:11:13.648616+05:30"},{"city":"Kolkata","state":"West Bengal","latitude":22.5726,"longitude":88.3639,"temp":29.2,"humidity":86,"rain":0.0,"pressure":1008.1,"uv_index":8.85,"wind_gusts":22.3,"aqi":64,"pm10":20.7,"pm2_5":16.5,"mosquito_risk":7,"arthritis_risk":0,"migraine_risk":4,"frizz_risk":1,"updated_at":"2026-04-18T08:11:13.648629+05:30"},{"city":"Pune","state":"Maharashtra","latitude":18.5204,"longitude":73.8567,"temp":27.1,"humidity":63,"rain":0.0,"pressure":949.1,"uv_index":8.6,"wind_gusts":36.7,"aqi":87,"pm10":70.3,"pm2_5":49.8,"mosquito_risk":7,"arthritis_risk":5,"migraine_risk":7,"frizz_risk":1,"updated_at":"2026-04-18T08:11:13.648637+05:30"},{"city":"Ahmedabad","state":"Gujarat","latitude":23.0225,"longitude":72.5714,"temp":27.1,"humidity":68,"rain":0.0,"pressure":1003.3,"uv_index":8.15,"wind_gusts":25.9,"aqi":63,"pm10":27.4,"pm2_5":14.3,"mosquito_risk":7,"arthritis_risk":5,"migraine_risk":4,"frizz_risk":1,"updated_at":"2026-04-18T08:11:13.648644+05:30"},{"city":"Jaipur","state":"Rajasthan","latitude":26.9124,"longitude":75.7873,"temp":30.2,"humidity":36,"rain":0.0,"pressure":961.0,"uv_index":7.95,"wind_gusts":26.6,"aqi":162,"pm10":415.4,"pm2_5":85.9,"mosquito_risk":0,"arthritis_risk":5,"migraine_risk":7,"frizz_risk":0,"updated_at":"2026-04-18T08:11:13.648653+05:30"},{"city":"Lucknow","state":"Uttar Pradesh","latitude":26.8467,"longitude":80.9462,"temp":27.8,"humidity":61,"rain":0.0,"pressure":993.8,"uv_index":7.85,"wind_gusts":30.6,"aqi":124,"pm10":127.1,"pm2_5":53.0,"mosquito_risk":7,"arthritis_risk":5,"migraine_risk":7,"frizz_risk":1,"updated_at":"2026-04-18T08:11:13.648660+05:30"},{"city":"Kanpur","state":"Uttar Pradesh","latitude":26.4499,"longitude":80.3319,"temp":27.2,"humidity":68,"rain":0.0,"pressure":992.1,"uv_index":7.85,"wind_gusts":23.8,"aqi":109,"pm10":130.4,"pm2_5":45.8,"mosquito_risk":7,"arthritis_risk":5,"migraine_risk":7,"frizz_risk":1,"updated_at":"2026-04-18T08:11:13.648667+05:30"},{"city":"Chandigarh","state":"Chandigarh","latitude":30.7333,"longitude":76.7794,"temp":23.9,"humidity":62,"rain":0.0,"pressure":969.4,"uv_index":7.15,"wind_gusts":31.7,"aqi":58,"pm10":22.1,"pm2_5":16.9,"mosquito_risk":3,"arthritis_risk":5,"migraine_risk":7,"frizz_risk":1,"updated_at":"2026-04-18T08:11:13.648674+05:30"},{"city":"Srinagar","state":"Jammu and Kashmir","latitude":34.0837,"longitude":74.7973,"temp":12.0,"humidity":88,"rain":0.0,"pressure":845.6,"uv_index":6.85,"wind_gusts":24.5,"aqi":74,"pm10":39.5,"pm2_5":23.7,"mosquito_risk":3,"arthritis_risk":10,"migraine_risk":7,"frizz_risk":0,"updated_at":"2026-04-18T08:11:13.648681+05:30"},{"city":"Jammu","state":"Jammu and Kashmir","latitude":32.7266,"longitude":74.857,"temp":24.8,"humidity":56,"rain":0.0,"pressure":975.8,"uv_index":6.9,"wind_gusts":43.9,"aqi":59,"pm10":20.5,"pm2_5":11.5,"mosquito_risk":0,"arthritis_risk":5,"migraine_risk":7,"frizz_risk":0,"updated_at":"2026-04-18T08:11:13.648688+05:30"},{"city":"Amritsar","state":"Punjab","latitude":31.634,"longitude":74.8723,"temp":23.7,"humidity":56,"rain":0.0,"pressure":983.3,"uv_index":6.75,"wind_gusts":45.7,"aqi":61,"pm10":28.5,"pm2_5":15.8,"mosquito_risk":0,"arthritis_risk":5,"migraine_risk":7,"frizz_risk":0,"updated_at":"2026-04-18T08:11:13.648695+05:30"},{"city":"Ludhiana","state":"Punjab","latitude":30.901,"longitude":75.8573,"temp":25.1,"humidity":45,"rain":0.0,"pressure":980.5,"uv_index":7.2,"wind_gusts":34.9,"aqi":69,"pm10":26.0,"pm2_5":21.4,"mosquito_risk":4,"arthritis_risk":5,"migraine_risk":7,"frizz_risk":0,"updated_at":"2026-04-18T08:11:13.648704+05:30"},{"city":"Jalandhar","state":"Punjab","latitude":31.326,"longitude":75.5762,"temp":25.1,"humidity":46,"rain":0.0,"pressure":982.3,"uv_index":6.45,"wind_gusts":39.6,"aqi":60,"pm10":34.5,"pm2_5":19.7,"mosquito_risk":4,"arthritis_risk":5,"migraine_risk":7,"frizz_risk":0,"updated_at":"2026-04-18T08:11:13.648711+05:30"},{"city":"Dehradun","state":"Uttarakhand","latitude":30.6284,"longitude":78.0322,"temp":19.1,"humidity":44,"rain":0.0,"pressure":833.4,"uv_index":7.65,"wind_gusts":41.4,"aqi":35,"pm10":6.5,"pm2_5":4.1,"mosquito_risk":0,"arthritis_risk":5,"migraine_risk":7,"frizz_risk":0,"updated_at":"2026-04-18T08:11:13.648718+05:30"},{"city":"Shimla","state":"Himachal Pradesh","latitude":31.1048,"longitude":77.1734,"temp":17.9,"humidity":46,"rain":0.0,"pressure":788.5,"uv_index":7.2,"wind_gusts":45.0,"aqi":43,"pm10":15.3,"pm2_5":9.5,"mosquito_risk":0,"arthritis_risk":5,"migraine_risk":7,"frizz_risk":0,"updated_at":"2026-04-18T08:11:13.648724+05:30"},{"city":"Manali","state":"Himachal Pradesh","latitude":32.2396,"longitude":77.1887,"temp":17.8,"humidity":43,"rain":0.0,"pressure":824.5,"uv_index":8.35,"wind_gusts":31.3,"aqi":48,"pm10":5.0,"pm2_5":1.7,"mosquito_risk":0,"arthritis_risk":5,"migraine_risk":7,"frizz_risk":0,"updated_at":"2026-04-18T08:11:13.648730+05:30"},{"city":"Gurgaon","state":"Haryana","latitude":28.4595,"longitude":77.0266,"temp":25.5,"humidity":64,"rain":0.0,"pressure":982.3,"uv_index":7.0,"wind_gusts":12.2,"aqi":544,"pm10":289.6,"pm2_5":93.8,"mosquito_risk":7,"arthritis_risk":5,"migraine_risk":7,"frizz_risk":1,"updated_at":"2026-04-18T08:11:13.648757+05:30"},{"city":"Noida","state":"Uttar Pradesh","latitude":28.5355,"longitude":77.391,"temp":27.8,"humidity":49,"rain":0.0,"pressure":985.3,"uv_index":7.1,"wind_gusts":13.7,"aqi":544,"pm10":289.6,"pm2_5":93.8,"mosquito_risk":4,"arthritis_risk":5,"migraine_risk":7,"frizz_risk":1,"updated_at":"2026-04-18T08:11:13.648765+05:30"},{"city":"Ghaziabad","state":"Uttar Pradesh","latitude":28.6692,"longitude":77.4538,"temp":26.2,"humidity":54,"rain":0.0,"pressure":983.4,"uv_index":6.95,"wind_gusts":14.8,"aqi":134,"pm10":112.9,"pm2_5":55.4,"mosquito_risk":4,"arthritis_risk":5,"migraine_risk":7,"frizz_risk":1,"updated_at":"2026-04-18T08:11:13.648772+05:30"},{"city":"Faridabad","state":"Haryana","latitude":28.4089,"longitude":77.3178,"temp":26.7,"humidity":58,"rain":0.0,"pressure":984.7,"uv_index":6.9,"wind_gusts":14.8,"aqi":544,"pm10":289.6,"pm2_5":93.8,"mosquito_risk":4,"arthritis_risk":5,"migraine_risk":7,"frizz_risk":1,"updated_at":"2026-04-18T08:11:13.648779+05:30"},{"city":"Meerut","state":"Uttar Pradesh","latitude":28.9845,"longitude":77.7064,"temp":25.2,"humidity":62,"rain":0.0,"pressure":982.0,"uv_index":6.75,"wind_gusts":18.4,"aqi":134,"pm10":112.9,"pm2_5":55.4,"mosquito_risk":7,"arthritis_risk":5,"migraine_risk":7,"frizz_risk":1,"updated_at":"2026-04-18T08:11:13.648785+05:30"},{"city":"Agra","state":"Uttar Pradesh","latitude":27.1767,"longitude":78.0081,"temp":26.5,"humidity":64,"rain":0.0,"pressure":988.6,"uv_index":7.7,"wind_gusts":12.6,"aqi":604,"pm10":308.3,"pm2_5":105.2,"mosquito_risk":7,"arthritis_risk":5,"migraine_risk":7,"frizz_risk":1,"updated_at":"2026-04-18T08:11:13.648794+05:30"},{"city":"Varanasi","state":"Uttar Pradesh","latitude":25.3176,"longitude":82.9739,"temp":29.1,"humidity":57,"rain":0.0,"pressure":997.6,"uv_index":8.0,"wind_gusts":25.6,"aqi":116,"pm10":61.2,"pm2_5":48.1,"mosquito_risk":4,"arthritis_risk":5,"migraine_risk":7,"frizz_risk":1,"updated_at":"2026-04-18T08:11:13.648803+05:30"},{"city":"Prayagraj","state":"Uttar Pradesh","latitude":25.4358,"longitude":81.8463,"temp":28.9,"humidity":54,"rain":0.0,"pressure":996.4,"uv_index":7.95,"wind_gusts":28.1,"aqi":109,"pm10":69.8,"pm2_5":55.2,"mosquito_risk":4,"arthritis_risk":5,"migraine_risk":7,"frizz_risk":1,"updated_at":"2026-04-18T08:11:13.648810+05:30"},{"city":"Gorakhpur","state":"Uttar Pradesh","latitude":26.7606,"longitude":83.3732,"temp":28.2,"humidity":70,"rain":0.0,"pressure":998.3,"uv_index":8.2,"wind_gusts":26.6,"aqi":156,"pm10":78.9,"pm2_5":70.1,"mosquito_risk":7,"arthritis_risk":5,"migraine_risk":7,"frizz_risk":1,"updated_at":"2026-04-18T08:11:13.648816+05:30"},{"city":"Bareilly","state":"Uttar Pradesh","latitude":28.367,"longitude":79.4304,"temp":25.7,"humidity":63,"rain":0.0,"pressure":987.3,"uv_index":7.6,"wind_gusts":25.9,"aqi":77,"pm10":35.9,"pm2_5":30.6,"mosquito_risk":7,"arthritis_risk":5,"migraine_risk":7,"frizz_risk":1,"updated_at":"2026-04-18T08:11:13.648822+05:30"},{"city":"Aligarh","state":"Uttar Pradesh","latitude":27.8974,"longitude":78.088,"temp":27.0,"humidity":57,"rain":0.0,"pressure":986.3,"uv_index":7.35,"wind_gusts":20.9,"aqi":173,"pm10":194.6,"pm2_5":59.3,"mosquito_risk":4,"arthritis_risk":5,"migraine_risk":7,"frizz_risk":1,"updated_at":"2026-04-18T08:11:13.648828+05:30"},{"city":"Moradabad","state":"Uttar Pradesh","latitude":28.8386,"longitude":78.7733,"temp":25.3,"humidity":63,"rain":0.0,"pressure":984.0,"uv_index":7.45,"wind_gusts":24.5,"aqi":90,"pm10":39.2,"pm2_5":33.9,"mosquito_risk":7,"arthritis_risk":5,"migraine_risk":7,"frizz_risk":1,"updated_at":"2026-04-18T08:11:13.648834+05:30"},{"city":"Saharanpur","state":"Uttar Pradesh","latitude":29.9637,"longitude":77.546,"temp":24.0,"humidity":61,"rain":0.0,"pressure":976.0,"uv_index":7.0,"wind_gusts":22.3,"aqi":99,"pm10":41.3,"pm2_5":36.1,"mosquito_risk":3,"arthritis_risk":5,"migraine_risk":7,"frizz_risk":1,"updated_at":"2026-04-18T08:11:13.648840+05:30"},{"city":"Jhansi","state":"Uttar Pradesh","latitude":25.4484,"longitude":78.5685,"temp":29.9,"humidity":47,"rain":0.0,"pressure":978.8,"uv_index":7.75,"wind_gusts":21.2,"aqi":77,"pm10":79.9,"pm2_5":31.1,"mosquito_risk":4,"arthritis_risk":5,"migraine_risk":7,"frizz_risk":1,"updated_at":"2026-04-18T08:11:16.965433+05:30"},{"city":"Surat","state":"Gujarat","latitude":21.1702,"longitude":72.8311,"temp":27.1,"humidity":88,"rain":0.0,"pressure":1007.2,"uv_index":7.85,"wind_gusts":27.0,"aqi":118,"pm10":57.3,"pm2_5":41.2,"mosquito_risk":7,"arthritis_risk":5,"migraine_risk":4,"frizz_risk":1,"updated_at":"2026-04-18T08:11:16.965464+05:30"},{"city":"Vadodara","state":"Gujarat","latitude":22.3072,"longitude":73.1812,"temp":27.5,"humidity":61,"rain":0.0,"pressure":1005.5,"uv_index":8.15,"wind_gusts":18.4,"aqi":90,"pm10":50.8,"pm2_5":38.5,"mosquito_risk":7,"arthritis_risk":5,"migraine_risk":4,"frizz_risk":1,"updated_at":"2026-04-18T08:11:16.965475+05:30"},{"city":"Rajkot","state":"Gujarat","latitude":22.3039,"longitude":70.8022,"temp":24.9,"humidity":76,"rain":0.0,"pressure":995.7,"uv_index":7.85,"wind_gusts":26.3,"aqi":61,"pm10":39.0,"pm2_5":15.3,"mosquito_risk":3,"arthritis_risk":5,"migraine_risk":7,"frizz_risk":1,"updated_at":"2026-04-18T08:11:16.965484+05:30"},{"city":"Thane","state":"Maharashtra","latitude":19.2183,"longitude":72.9781,"temp":26.8,"humidity":89,"rain":0.0,"pressure":1008.1,"uv_index":7.8,"wind_gusts":33.8,"aqi":98,"pm10":92.4,"pm2_5":35.7,"mosquito_risk":7,"arthritis_risk":0,"migraine_risk":4,"frizz_risk":1,"updated_at":"2026-04-18T08:11:16.965492+05:30"},{"city":"Nagpur","state":"Maharashtra","latitude":21.1458,"longitude":79.0882,"temp":28.9,"humidity":45,"rain":0.0,"pressure":973.4,"uv_index":7.55,"wind_gusts":18.0,"aqi":97,"pm10":41.6,"pm2_5":35.7,"mosquito_risk":4,"arthritis_risk":5,"migraine_risk":7,"frizz_risk":0,"updated_at":"2026-04-18T08:11:16.965500+05:30"},{"city":"Nashik","state":"Maharashtra","latitude":19.9975,"longitude":73.7898,"temp":26.4,"humidity":49,"rain":0.0,"pressure":946.4,"uv_index":7.9,"wind_gusts":26.3,"aqi":70,"pm10":66.6,"pm2_5":38.5,"mosquito_risk":4,"arthritis_risk":5,"migraine_risk":7,"frizz_risk":0,"updated_at":"2026-04-18T08:11:16.965508+05:30"},{"city":"Aurangabad","state":"Maharashtra","latitude":19.8762,"longitude":75.3433,"temp":28.4,"humidity":45,"rain":0.0,"pressure":945.2,"uv_index":8.4,"wind_gusts":32.0,"aqi":55,"pm10":31.9,"pm2_5":19.6,"mosquito_risk":4,"arthritis_risk":5,"migraine_risk":7,"frizz_risk":0,"updated_at":"2026-04-18T08:11:16.965515+05:30"},{"city":"Solapur","state":"Maharashtra","latitude":17.6599,"longitude":75.9064,"temp":29.2,"humidity":58,"rain":0.0,"pressure":957.9,"uv_index":3.9,"wind_gusts":22.0,"aqi":106,"pm10":46.3,"pm2_5":42.5,"mosquito_risk":4,"arthritis_risk":5,"migraine_risk":3,"frizz_risk":1,"updated_at":"2026-04-18T08:11:16.965523+05:30"},{"city":"Kolhapur","state":"Maharashtra","latitude":16.705,"longitude":74.2433,"temp":26.6,"humidity":68,"rain":0.0,"pressure":948.4,"uv_index":8.95,"wind_gusts":46.4,"aqi":78,"pm10":50.8,"pm2_5":42.4,"mosquito_risk":7,"arthritis_risk":5,"migraine_risk":7,"frizz_risk":1,"updated_at":"2026-04-18T08:11:16.965530+05:30"},{"city":"Goa","state":"Goa","latitude":15.2993,"longitude":74.124,"temp":28.5,"humidity":77,"rain":0.0,"pressure":998.6,"uv_index":9.05,"wind_gusts":28.4,"aqi":69,"pm10":48.3,"pm2_5":23.2,"mosquito_risk":7,"arthritis_risk":5,"migraine_risk":7,"frizz_risk":1,"updated_at":"2026-04-18T08:11:16.965538+05:30"},{"city":"Jodhpur","state":"Rajasthan","latitude":26.2389,"longitude":73.0243,"temp":27.5,"humidity":58,"rain":0.0,"pressure":983.7,"uv_index":8.15,"wind_gusts":28.4,"aqi":87,"pm10":172.3,"pm2_5":35.6,"mosquito_risk":4,"arthritis_risk":5,"migraine_risk":7,"frizz_risk":1,"updated_at":"2026-04-18T08:11:16.965545+05:30"},{"city":"Udaipur","state":"Rajasthan","latitude":24.5854,"longitude":73.7125,"temp":28.1,"humidity":49,"rain":0.0,"pressure":948.0,"uv_index":8.7,"wind_gusts":31.0,"aqi":37,"pm10":20.7,"pm2_5":11.1,"mosquito_risk":4,"arthritis_risk":5,"migraine_risk":7,"frizz_risk":1,"updated_at":"2026-04-18T08:11:16.965553+05:30"},{"city":"Kota","state":"Rajasthan","latitude":25.2138,"longitude":75.8648,"temp":29.7,"humidity":36,"rain":0.0,"pressure":979.5,"uv_index":8.25,"wind_gusts":25.9,"aqi":62,"pm10":13.5,"pm2_5":8.8,"mosquito_risk":4,"arthritis_risk":5,"migraine_risk":7,"frizz_risk":0,"updated_at":"2026-04-18T08:11:16.965560+05:30"},{"city":"Bikaner","state":"Rajasthan","latitude":28.0229,"longitude":73.3119,"temp":29.3,"humidity":38,"rain":0.0,"pressure":981.2,"uv_index":7.25,"wind_gusts":28.1,"aqi":72,"pm10":118.7,"pm2_5":28.2,"mosquito_risk":4,"arthritis_risk":5,"migraine_risk":7,"frizz_risk":0,"updated_at":"2026-04-18T08:11:16.965567+05:30"},{"city":"Ajmer","state":"Rajasthan","latitude":26.4499,"longitude":74.6399,"temp":26.1,"humidity":50,"rain":0.0,"pressure":955.7,"uv_index":8.15,"wind_gusts":31.7,"aqi":55,"pm10":19.7,"pm2_5":9.6,"mosquito_risk":4,"arthritis_risk":5,"migraine_risk":7,"frizz_risk":0,"updated_at":"2026-04-18T08:11:16.965574+05:30"},{"city":"Gwalior","state":"Madhya Pradesh","latitude":26.2183,"longitude":78.1828,"temp":30.4,"humidity":49,"rain":0.0,"pressure":983.9,"uv_index":7.95,"wind_gusts":25.2,"aqi":116,"pm10":190.9,"pm2_5":49.6,"mosquito_risk":0,"arthritis_risk":5,"migraine_risk":7,"frizz_risk":1,"updated_at":"2026-04-18T08:11:16.965581+05:30"},{"city":"Indore","state":"Madhya Pradesh","latitude":22.7196,"longitude":75.8577,"temp":26.0,"humidity":44,"rain":0.0,"pressure":949.2,"uv_index":8.2,"wind_gusts":24.1,"aqi":64,"pm10":15.8,"pm2_5":12.9,"mosquito_risk":4,"arthritis_risk":5,"migraine_risk":7,"frizz_risk":0,"updated_at":"2026-04-18T08:11:16.965589+05:30"},{"city":"Bhopal","state":"Madhya Pradesh","latitude":23.2599,"longitude":77.4126,"temp":28.3,"humidity":40,"rain":0.0,"pressure":954.8,"uv_index":7.75,"wind_gusts":21.6,"aqi":68,"pm10":14.8,"pm2_5":12.8,"mosquito_risk":4,"arthritis_risk":5,"migraine_risk":7,"frizz_risk":0,"updated_at":"2026-04-18T08:11:16.965596+05:30"},{"city":"Jabalpur","state":"Madhya Pradesh","latitude":23.1815,"longitude":79.9864,"temp":28.7,"humidity":48,"rain":0.0,"pressure":961.8,"uv_index":8.05,"wind_gusts":22.7,"aqi":73,"pm10":41.3,"pm2_5":19.6,"mosquito_risk":4,"arthritis_risk":5,"migraine_risk":7,"frizz_risk":1,"updated_at":"2026-04-18T08:11:16.965603+05:30"},{"city":"Ujjain","state":"Madhya Pradesh","latitude":23.1765,"longitude":75.7885,"temp":26.3,"humidity":43,"rain":0.0,"pressure":954.7,"uv_index":8.45,"wind_gusts":21.2,"aqi":62,"pm10":19.2,"pm2_5":15.3,"mosquito_risk":4,"arthritis_risk":5,"migraine_risk":7,"frizz_risk":0,"updated_at":"2026-04-18T08:11:16.965611+05:30"},{"city":"Visakhapatnam","state":"Andhra Pradesh","latitude":17.6868,"longitude":83.2185,"temp":29.4,"humidity":78,"rain":0.0,"pressure":1005.3,"uv_index":9.15,"wind_gusts":36.0,"aqi":55,"pm10":26.8,"pm2_5":20.2,"mosquito_risk":7,"arthritis_risk":5,"migraine_risk":4,"frizz_risk":1,"updated_at":"2026-04-18T08:11:16.965618+05:30"},{"city":"Vijayawada","state":"Andhra Pradesh","latitude":16.5062,"longitude":80.648,"temp":28.8,"humidity":83,"rain":0.0,"pressure":1003.9,"uv_index":9.2,"wind_gusts":25.9,"aqi":53,"pm10":18.5,"pm2_5":12.8,"mosquito_risk":7,"arthritis_risk":5,"migraine_risk":4,"frizz_risk":1,"updated_at":"2026-04-18T08:11:16.965625+05:30"},{"city":"Guntur","state":"Andhra Pradesh","latitude":16.3067,"longitude":80.4365,"temp":29.2,"humidity":80,"rain":0.0,"pressure":1005.1,"uv_index":9.25,"wind_gusts":28.1,"aqi":57,"pm10":17.0,"pm2_5":12.0,"mosquito_risk":7,"arthritis_risk":5,"migraine_risk":4,"frizz_risk":1,"updated_at":"2026-04-18T08:11:16.965632+05:30"},{"city":"Nellore","state":"Andhra Pradesh","latitude":14.4426,"longitude":79.9865,"temp":29.0,"humidity":78,"rain":0.0,"pressure":1006.6,"uv_index":8.75,"wind_gusts":32.0,"aqi":56,"pm10":14.8,"pm2_5":11.2,"mosquito_risk":7,"arthritis_risk":5,"migraine_risk":4,"frizz_risk":1,"updated_at":"2026-04-18T08:11:16.965640+05:30"},{"city":"Kurnool","state":"Andhra Pradesh","latitude":15.8281,"longitude":78.0373,"temp":31.5,"humidity":62,"rain":0.0,"pressure":977.8,"uv_index":9.2,"wind_gusts":31.3,"aqi":89,"pm10":27.4,"pm2_5":25.0,"mosquito_risk":3,"arthritis_risk":5,"migraine_risk":7,"frizz_risk":1,"updated_at":"2026-04-18T08:11:16.965647+05:30"},{"city":"Kakinada","state":"Andhra Pradesh","latitude":16.9891,"longitude":82.2475,"temp":29.7,"humidity":79,"rain":0.0,"pressure":1009.3,"uv_index":9.15,"wind_gusts":28.8,"aqi":44,"pm10":24.2,"pm2_5":14.8,"mosquito_risk":7,"arthritis_risk":0,"migraine_risk":4,"frizz_risk":1,"updated_at":"2026-04-18T08:11:16.965654+05:30"},{"city":"Tirupati","state":"Andhra Pradesh","latitude":13.6288,"longitude":79.4192,"temp":27.4,"humidity":84,"rain":0.0,"pressure":993.3,"uv_index":8.65,"wind_gusts":33.1,"aqi":73,"pm10":16.1,"pm2_5":12.2,"mosquito_risk":7,"arthritis_risk":5,"migraine_risk":7,"frizz_risk":1,"updated_at":"2026-04-18T08:11:16.965661+05:30"},{"city":"Warangal","state":"Telangana","latitude":17.9689,"longitude":79.5941,"temp":27.6,"humidity":81,"rain":0.0,"pressure":980.1,"uv_index":9.0,"wind_gusts":26.6,"aqi":82,"pm10":26.5,"pm2_5":22.9,"mosquito_risk":7,"arthritis_risk":5,"migraine_risk":7,"frizz_risk":1,"updated_at":"2026-04-18T08:11:16.965668+05:30"},{"city":"Nizamabad","state":"Telangana","latitude":18.6725,"longitude":78.0941,"temp":31.3,"humidity":48,"rain":0.0,"pressure":965.9,"uv_index":8.75,"wind_gusts":25.6,"aqi":113,"pm10":51.0,"pm2_5":48.8,"mosquito_risk":0,"arthritis_risk":5,"migraine_risk":7,"frizz_risk":1,"updated_at":"2026-04-18T08:11:16.965675+05:30"},{"city":"Mysore","state":"Karnataka","latitude":12.2958,"longitude":76.6396,"temp":25.4,"humidity":82,"rain":0.0,"pressure":930.0,"uv_index":8.95,"wind_gusts":38.5,"aqi":96,"pm10":47.5,"pm2_5":41.7,"mosquito_risk":7,"arthritis_risk":5,"migraine_risk":7,"frizz_risk":1,"updated_at":"2026-04-18T08:11:16.965682+05:30"},{"city":"Mangalore","state":"Karnataka","latitude":12.9141,"longitude":74.856,"temp":29.7,"humidity":78,"rain":0.0,"pressure":1007.3,"uv_index":9.1,"wind_gusts":22.0,"aqi":72,"pm10":27.9,"pm2_5":16.7,"mosquito_risk":7,"arthritis_risk":5,"migraine_risk":4,"frizz_risk":1,"updated_at":"2026-04-18T08:11:16.965689+05:30"},{"city":"Hubli-Dharwad","state":"Karnataka","latitude":15.3647,"longitude":75.124,"temp":24.6,"humidity":90,"rain":0.0,"pressure":941.6,"uv_index":9.25,"wind_gusts":34.9,"aqi":70,"pm10":24.0,"pm2_5":16.9,"mosquito_risk":3,"arthritis_risk":5,"migraine_risk":7,"frizz_risk":1,"updated_at":"2026-04-18T08:11:16.965696+05:30"},{"city":"Belgaum","state":"Karnataka","latitude":15.8497,"longitude":74.4977,"temp":25.3,"humidity":73,"rain":0.0,"pressure":926.3,"uv_index":9.3,"wind_gusts":27.7,"aqi":66,"pm10":42.7,"pm2_5":30.7,"mosquito_risk":7,"arthritis_risk":5,"migraine_risk":7,"frizz_risk":1,"updated_at":"2026-04-18T08:11:20.279343+05:30"},{"city":"Coimbatore","state":"Tamil Nadu","latitude":11.0168,"longitude":76.9558,"temp":27.6,"humidity":76,"rain":0.0,"pressure":963.6,"uv_index":9.25,"wind_gusts":33.8,"aqi":103,"pm10":49.5,"pm2_5":44.4,"mosquito_risk":7,"arthritis_risk":5,"migraine_risk":7,"frizz_risk":1,"updated_at":"2026-04-18T08:11:20.279370+05:30"},{"city":"Madurai","state":"Tamil Nadu","latitude":9.9252,"longitude":78.1198,"temp":28.6,"humidity":81,"rain":0.0,"pressure":994.8,"uv_index":9.35,"wind_gusts":29.5,"aqi":82,"pm10":37.1,"pm2_5":35.2,"mosquito_risk":7,"arthritis_risk":5,"migraine_risk":7,"frizz_risk":1,"updated_at":"2026-04-18T08:11:20.279379+05:30"},{"city":"Trichy","state":"Tamil Nadu","latitude":10.7905,"longitude":78.7047,"temp":29.0,"humidity":82,"rain":0.0,"pressure":1001.6,"uv_index":9.35,"wind_gusts":20.5,"aqi":74,"pm10":22.9,"pm2_5":19.7,"mosquito_risk":7,"arthritis_risk":5,"migraine_risk":4,"frizz_risk":1,"updated_at":"2026-04-18T08:11:20.279387+05:30"},{"city":"Salem","state":"Tamil Nadu","latitude":11.6643,"longitude":78.146,"temp":28.4,"humidity":82,"rain":0.0,"pressure":979.1,"uv_index":9.4,"wind_gusts":20.2,"aqi":88,"pm10":28.4,"pm2_5":26.1,"mosquito_risk":7,"arthritis_risk":5,"migraine_risk":7,"frizz_risk":1,"updated_at":"2026-04-18T08:11:20.279394+05:30"},{"city":"Tirunelveli","state":"Tamil Nadu","latitude":8.7139,"longitude":77.7567,"temp":29.1,"humidity":66,"rain":0.0,"pressure":1004.7,"uv_index":9.25,"wind_gusts":49.0,"aqi":96,"pm10":49.8,"pm2_5":43.7,"mosquito_risk":7,"arthritis_risk":5,"migraine_risk":4,"frizz_risk":1,"updated_at":"2026-04-18T08:11:20.279400+05:30"},{"city":"Vellore","state":"Tamil Nadu","latitude":12.9165,"longitude":79.1325,"temp":27.1,"humidity":86,"rain":0.0,"pressure":986.5,"uv_index":9.05,"wind_gusts":29.2,"aqi":98,"pm10":31.9,"pm2_5":29.5,"mosquito_risk":7,"arthritis_risk":5,"migraine_risk":7,"frizz_risk":1,"updated_at":"2026-04-18T08:11:20.279407+05:30"},{"city":"Erode","state":"Tamil Nadu","latitude":11.341,"longitude":77.7172,"temp":29.0,"humidity":80,"rain":0.0,"pressure":990.8,"uv_index":9.3,"wind_gusts":27.0,"aqi":80,"pm10":21.8,"pm2_5":20.2,"mosquito_risk":7,"arthritis_risk":5,"migraine_risk":7,"frizz_risk":1,"updated_at":"2026-04-18T08:11:20.279414+05:30"},{"city":"Kochi","state":"Kerala","latitude":9.9312,"longitude":76.2673,"temp":29.1,"humidity":82,"rain":0.0,"pressure":1009.4,"uv_index":9.15,"wind_gusts":31.7,"aqi":95,"pm10":44.2,"pm2_5":34.7,"mosquito_risk":7,"arthritis_risk":0,"migraine_risk":4,"frizz_risk":1,"updated_at":"2026-04-18T08:11:20.279420+05:30"},{"city":"Thiruvananthapuram","state":"Kerala","latitude":8.5241,"longitude":76.9366,"temp":28.4,"humidity":86,"rain":0.0,"pressure":1008.6,"uv_index":9.1,"wind_gusts":27.7,"aqi":83,"pm10":41.6,"pm2_5":30.3,"mosquito_risk":7,"arthritis_risk":0,"migraine_risk":4,"frizz_risk":1,"updated_at":"2026-04-18T08:11:20.279427+05:30"},{"city":"Kozhikode","state":"Kerala","latitude":11.2588,"longitude":75.7804,"temp":29.7,"humidity":81,"rain":0.0,"pressure":1008.6,"uv_index":8.5,"wind_gusts":30.2,"aqi":84,"pm10":33.3,"pm2_5":21.9,"mosquito_risk":7,"arthritis_risk":0,"migraine_risk":4,"frizz_risk":1,"updated_at":"2026-04-18T08:11:20.279432+05:30"},{"city":"Thrissur","state":"Kerala","latitude":10.5276,"longitude":76.2144,"temp":29.3,"humidity":83,"rain":0.0,"pressure":1007.9,"uv_index":8.65,"wind_gusts":39.6,"aqi":90,"pm10":38.1,"pm2_5":27.0,"mosquito_risk":7,"arthritis_risk":5,"migraine_risk":4,"frizz_risk":1,"updated_at":"2026-04-18T08:11:20.279439+05:30"},{"city":"Kannur","state":"Kerala","latitude":11.8745,"longitude":75.3704,"temp":29.9,"humidity":80,"rain":0.0,"pressure":1007.8,"uv_index":8.65,"wind_gusts":31.0,"aqi":79,"pm10":30.6,"pm2_5":20.5,"mosquito_risk":7,"arthritis_risk":5,"migraine_risk":4,"frizz_risk":1,"updated_at":"2026-04-18T08:11:20.279445+05:30"},{"city":"Patna","state":"Bihar","latitude":25.5941,"longitude":85.1376,"temp":29.6,"humidity":73,"rain":0.0,"pressure":1001.0,"uv_index":8.6,"wind_gusts":27.7,"aqi":151,"pm10":70.5,"pm2_5":64.0,"mosquito_risk":7,"arthritis_risk":5,"migraine_risk":4,"frizz_risk":1,"updated_at":"2026-04-18T08:11:20.279451+05:30"},{"city":"Gaya","state":"Bihar","latitude":24.7914,"longitude":85.0002,"temp":30.5,"humidity":62,"rain":0.0,"pressure":994.1,"uv_index":8.6,"wind_gusts":30.6,"aqi":119,"pm10":48.9,"pm2_5":43.2,"mosquito_risk":3,"arthritis_risk":5,"migraine_risk":7,"frizz_risk":1,"updated_at":"2026-04-18T08:11:20.279457+05:30"},{"city":"Muzaffarpur","state":"Bihar","latitude":26.1209,"longitude":85.3647,"temp":28.5,"humidity":76,"rain":0.0,"pressure":1001.5,"uv_index":8.6,"wind_gusts":24.8,"aqi":153,"pm10":74.0,"pm2_5":66.8,"mosquito_risk":7,"arthritis_risk":5,"migraine_risk":4,"frizz_risk":1,"updated_at":"2026-04-18T08:11:20.279462+05:30"},{"city":"Bhagalpur","state":"Bihar","latitude":25.2425,"longitude":87.0117,"temp":28.6,"humidity":80,"rain":0.0,"pressure":1002.6,"uv_index":8.4,"wind_gusts":27.0,"aqi":155,"pm10":70.5,"pm2_5":63.3,"mosquito_risk":7,"arthritis_risk":5,"migraine_risk":4,"frizz_risk":1,"updated_at":"2026-04-18T08:11:20.279468+05:30"},{"city":"Ranchi","state":"Jharkhand","latitude":23.3441,"longitude":85.3096,"temp":28.0,"humidity":71,"rain":0.0,"pressure":940.2,"uv_index":9.15,"wind_gusts":49.7,"aqi":87,"pm10":41.7,"pm2_5":25.4,"mosquito_risk":7,"arthritis_risk":5,"migraine_risk":7,"frizz_risk":1,"updated_at":"2026-04-18T08:11:20.279474+05:30"},{"city":"Jamshedpur","state":"Jharkhand","latitude":22.8046,"longitude":86.2029,"temp":29.2,"humidity":81,"rain":0.0,"pressure":992.9,"uv_index":9.0,"wind_gusts":33.1,"aqi":91,"pm10":39.7,"pm2_5":37.5,"mosquito_risk":7,"arthritis_risk":5,"migraine_risk":7,"frizz_risk":1,"updated_at":"2026-04-18T08:11:20.279480+05:30"},{"city":"Dhanbad","state":"Jharkhand","latitude":23.7957,"longitude":86.4304,"temp":29.4,"humidity":75,"rain":0.0,"pressure":981.7,"uv_index":8.95,"wind_gusts":32.0,"aqi":147,"pm10":54.1,"pm2_5":52.2,"mosquito_risk":7,"arthritis_risk":5,"migraine_risk":7,"frizz_risk":1,"updated_at":"2026-04-18T08:11:20.279485+05:30"},{"city":"Bokaro","state":"Jharkhand","latitude":23.6693,"longitude":86.1511,"temp":29.2,"humidity":77,"rain":0.0,"pressure":985.7,"uv_index":8.95,"wind_gusts":32.0,"aqi":154,"pm10":76.8,"pm2_5":73.8,"mosquito_risk":7,"arthritis_risk":5,"migraine_risk":7,"frizz_risk":1,"updated_at":"2026-04-18T08:11:20.279491+05:30"},{"city":"Bhubaneswar","state":"Odisha","latitude":20.2961,"longitude":85.8245,"temp":29.1,"humidity":83,"rain":0.0,"pressure":1004.7,"uv_index":8.65,"wind_gusts":29.5,"aqi":59,"pm10":25.8,"pm2_5":16.8,"mosquito_risk":7,"arthritis_risk":5,"migraine_risk":4,"frizz_risk":1,"updated_at":"2026-04-18T08:11:20.279497+05:30"},{"city":"Cuttack","state":"Odisha","latitude":20.4625,"longitude":85.8828,"temp":29.4,"humidity":81,"rain":0.0,"pressure":1006.6,"uv_index":8.75,"wind_gusts":26.3,"aqi":59,"pm10":25.8,"pm2_5":16.8,"mosquito_risk":7,"arthritis_risk":5,"migraine_risk":4,"frizz_risk":1,"updated_at":"2026-04-18T08:11:20.279502+05:30"},{"city":"Rourkela","state":"Odisha","latitude":22.2604,"longitude":84.8536,"temp":30.0,"humidity":77,"rain":0.0,"pressure":987.1,"uv_index":8.45,"wind_gusts":43.2,"aqi":125,"pm10":59.3,"pm2_5":53.7,"mosquito_risk":7,"arthritis_risk":5,"migraine_risk":7,"frizz_risk":1,"updated_at":"2026-04-18T08:11:20.279508+05:30"},{"city":"Raipur","state":"Chhattisgarh","latitude":21.2514,"longitude":81.6296,"temp":31.5,"humidity":54,"rain":0.0,"pressure":975.5,"uv_index":8.95,"wind_gusts":44.3,"aqi":119,"pm10":69.6,"pm2_5":55.9,"mosquito_risk":0,"arthritis_risk":5,"migraine_risk":7,"frizz_risk":1,"updated_at":"2026-04-18T08:11:20.279513+05:30"},{"city":"Bhilai","state":"Chhattisgarh","latitude":21.1938,"longitude":81.3509,"temp":30.2,"humidity":62,"rain":0.0,"pressure":975.8,"uv_index":8.95,"wind_gusts":36.4,"aqi":126,"pm10":81.3,"pm2_5":69.4,"mosquito_risk":3,"arthritis_risk":5,"migraine_risk":7,"frizz_risk":1,"updated_at":"2026-04-18T08:11:20.279519+05:30"},{"city":"Guwahati","state":"Assam","latitude":26.1158,"longitude":91.7086,"temp":28.0,"humidity":74,"rain":0.0,"pressure":1004.7,"uv_index":8.5,"wind_gusts":26.3,"aqi":151,"pm10":76.1,"pm2_5":60.1,"mosquito_risk":7,"arthritis_risk":5,"migraine_risk":4,"frizz_risk":1,"updated_at":"2026-04-18T08:11:20.279524+05:30"},{"city":"Agartala","state":"Tripura","latitude":23.8315,"longitude":91.2868,"temp":25.9,"humidity":89,"rain":0.0,"pressure":1009.5,"uv_index":8.7,"wind_gusts":14.8,"aqi":142,"pm10":32.8,"pm2_5":26.1,"mosquito_risk":7,"arthritis_risk":0,"migraine_risk":4,"frizz_risk":1,"updated_at":"2026-04-18T08:11:20.279530+05:30"},{"city":"Shillong","state":"Meghalaya","latitude":25.5788,"longitude":91.8933,"temp":19.4,"humidity":50,"rain":0.0,"pressure":860.1,"uv_index":7.95,"wind_gusts":32.8,"aqi":134,"pm10":68.2,"pm2_5":48.2,"mosquito_risk":0,"arthritis_risk":5,"migraine_risk":7,"frizz_risk":0,"updated_at":"2026-04-18T08:11:20.279537+05:30"},{"city":"Imphal","state":"Manipur","latitude":24.817,"longitude":93.9368,"temp":22.2,"humidity":78,"rain":0.0,"pressure":926.6,"uv_index":9.1,"wind_gusts":45.4,"aqi":157,"pm10":94.8,"pm2_5":71.2,"mosquito_risk":3,"arthritis_risk":5,"migraine_risk":7,"frizz_risk":1,"updated_at":"2026-04-18T08:11:20.279543+05:30"},{"city":"Aizawl","state":"Mizoram","latitude":23.7271,"longitude":92.7176,"temp":23.3,"humidity":73,"rain":0.0,"pressure":896.4,"uv_index":8.9,"wind_gusts":35.3,"aqi":141,"pm10":52.0,"pm2_5":38.3,"mosquito_risk":3,"arthritis_risk":5,"migraine_risk":7,"frizz_risk":1,"updated_at":"2026-04-18T08:11:20.279548+05:30"},{"city":"Kohima","state":"Nagaland","latitude":25.6701,"longitude":94.1077,"temp":19.3,"humidity":80,"rain":0.0,"pressure":858.6,"uv_index":8.45,"wind_gusts":45.0,"aqi":133,"pm10":81.5,"pm2_5":53.3,"mosquito_risk":3,"arthritis_risk":5,"migraine_risk":7,"frizz_risk":0,"updated_at":"2026-04-18T08:11:20.279554+05:30"},{"city":"Gangtok","state":"Sikkim","latitude":27.3314,"longitude":88.6138,"temp":17.6,"humidity":91,"rain":0.0,"pressure":840.7,"uv_index":8.85,"wind_gusts":20.2,"aqi":131,"pm10":49.1,"pm2_5":31.9,"mosquito_risk":3,"arthritis_risk":10,"migraine_risk":7,"frizz_risk":1,"updated_at":"2026-04-18T08:11:20.279560+05:30"},{"city":"Siliguri","state":"West Bengal","latitude":26.7271,"longitude":88.3953,"temp":22.8,"humidity":84,"rain":0.0,"pressure":997.4,"uv_index":6.55,"wind_gusts":19.1,"aqi":164,"pm10":123.4,"pm2_5":84.3,"mosquito_risk":3,"arthritis_risk":5,"migraine_risk":7,"frizz_risk":1,"updated_at":"2026-04-18T08:11:23.594183+05:30"},{"city":"Durgapur","state":"West Bengal","latitude":23.5204,"longitude":87.3119,"temp":29.1,"humidity":84,"rain":0.0,"pressure":996.9,"uv_index":8.85,"wind_gusts":25.6,"aqi":119,"pm10":34.9,"pm2_5":32.8,"mosquito_risk":7,"arthritis_risk":5,"migraine_risk":7,"frizz_risk":1,"updated_at":"2026-04-18T08:11:23.594216+05:30"},{"city":"Asansol","state":"West Bengal","latitude":23.6739,"longitude":86.9524,"temp":29.6,"humidity":80,"rain":0.0,"pressure":995.3,"uv_index":8.9,"wind_gusts":33.5,"aqi":117,"pm10":35.7,"pm2_5":34.0,"mosquito_risk":7,"arthritis_risk":5,"migraine_risk":7,"frizz_risk":1,"updated_at":"2026-04-18T08:11:23.594227+05:30"},{"city":"Pondicherry","state":"Puducherry","latitude":11.9139,"longitude":79.8145,"temp":29.1,"humidity":83,"rain":0.0,"pressure":1010.2,"uv_index":8.7,"wind_gusts":28.1,"aqi":39,"pm10":13.5,"pm2_5":9.1,"mosquito_risk":7,"arthritis_risk":0,"migraine_risk":4,"frizz_risk":1,"updated_at":"2026-04-18T08:11:23.594237+05:30"},{"city":"Port Blair","state":"Andaman and Nicobar Islands","latitude":11.6234,"longitude":92.7265,"temp":28.7,"humidity":72,"rain":0.0,"pressure":1008.7,"uv_index":9.2,"wind_gusts":11.2,"aqi":43,"pm10":16.5,"pm2_5":11.9,"mosquito_risk":7,"arthritis_risk":0,"migraine_risk":4,"frizz_risk":1,"updated_at":"2026-04-18T08:11:23.594246+05:30"},{"city":"Haridwar","state":"Uttarakhand","latitude":29.9457,"longitude":78.1642,"temp":26.1,"humidity":56,"rain":0.0,"pressure":974.9,"uv_index":7.0,"wind_gusts":32.0,"aqi":62,"pm10":16.9,"pm2_5":13.9,"mosquito_risk":4,"arthritis_risk":5,"migraine_risk":7,"frizz_risk":1,"updated_at":"2026-04-18T08:11:23.594256+05:30"},{"city":"Rishikesh","state":"Uttarakhand","latitude":30.0869,"longitude":78.2676,"temp":25.7,"humidity":56,"rain":0.0,"pressure":968.0,"uv_index":7.2,"wind_gusts":37.1,"aqi":54,"pm10":14.5,"pm2_5":12.6,"mosquito_risk":4,"arthritis_risk":5,"migraine_risk":7,"frizz_risk":1,"updated_at":"2026-04-18T08:11:23.594264+05:30"},{"city":"Nainital","state":"Uttarakhand","latitude":29.3919,"longitude":79.4542,"temp":25.1,"humidity":33,"rain":0.0,"pressure":810.1,"uv_index":7.9,"wind_gusts":59.0,"aqi":55,"pm10":19.2,"pm2_5":13.1,"mosquito_risk":4,"arthritis_risk":5,"migraine_risk":7,"frizz_risk":0,"updated_at":"2026-04-18T08:11:23.594273+05:30"},{"city":"Mussoorie","state":"Uttarakhand","latitude":30.4599,"longitude":78.0664,"temp":20.8,"humidity":41,"rain":0.0,"pressure":806.0,"uv_index":7.55,"wind_gusts":42.5,"aqi":57,"pm10":13.2,"pm2_5":10.4,"mosquito_risk":0,"arthritis_risk":5,"migraine_risk":7,"frizz_risk":0,"updated_at":"2026-04-18T08:11:23.594282+05:30"},{"city":"Dharamshala","state":"Himachal Pradesh","latitude":32.219,"longitude":76.3234,"temp":21.7,"humidity":45,"rain":0.0,"pressure":872.6,"uv_index":6.9,"wind_gusts":45.0,"aqi":31,"pm10":16.6,"pm2_5":4.9,"mosquito_risk":0,"arthritis_risk":5,"migraine_risk":7,"frizz_risk":0,"updated_at":"2026-04-18T08:11:23.594290+05:30"},{"city":"Dalhousie","state":"Himachal Pradesh","latitude":32.5387,"longitude":75.971,"temp":18.1,"humidity":45,"rain":0.0,"pressure":807.3,"uv_index":6.95,"wind_gusts":32.0,"aqi":54,"pm10":14.0,"pm2_5":7.9,"mosquito_risk":0,"arthritis_risk":5,"migraine_risk":7,"frizz_risk":0,"updated_at":"2026-04-18T08:11:23.594299+05:30"},{"city":"Patiala","state":"Punjab","latitude":30.3398,"longitude":76.3869,"temp":24.2,"humidity":55,"rain":0.0,"pressure":979.2,"uv_index":7.0,"wind_gusts":26.3,"aqi":132,"pm10":308.3,"pm2_5":51.7,"mosquito_risk":0,"arthritis_risk":5,"migraine_risk":7,"frizz_risk":0,"updated_at":"2026-04-18T08:11:23.594308+05:30"},{"city":"Bhatinda","state":"Punjab","latitude":30.211,"longitude":74.9455,"temp":26.0,"humidity":42,"rain":0.0,"pressure":985.9,"uv_index":7.65,"wind_gusts":39.6,"aqi":79,"pm10":36.0,"pm2_5":18.7,"mosquito_risk":4,"arthritis_risk":5,"migraine_risk":7,"frizz_risk":0,"updated_at":"2026-04-18T08:11:23.594316+05:30"},{"city":"Rohtak","state":"Haryana","latitude":28.8955,"longitude":76.6066,"temp":24.7,"humidity":64,"rain":0.0,"pressure":982.7,"uv_index":6.9,"wind_gusts":14.4,"aqi":347,"pm10":311.1,"pm2_5":99.9,"mosquito_risk":3,"arthritis_risk":5,"migraine_risk":7,"frizz_risk":1,"updated_at":"2026-04-18T08:11:23.594324+05:30"},{"city":"Panipat","state":"Haryana","latitude":29.3909,"longitude":76.9635,"temp":24.9,"humidity":59,"rain":0.0,"pressure":980.9,"uv_index":7.05,"wind_gusts":16.2,"aqi":624,"pm10":326.0,"pm2_5":88.9,"mosquito_risk":0,"arthritis_risk":5,"migraine_risk":7,"frizz_risk":1,"updated_at":"2026-04-18T08:11:23.594332+05:30"},{"city":"Mathura","state":"Uttar Pradesh","latitude":27.4924,"longitude":77.6737,"temp":26.4,"humidity":60,"rain":0.0,"pressure":987.9,"uv_index":7.6,"wind_gusts":15.8,"aqi":534,"pm10":264.5,"pm2_5":76.1,"mosquito_risk":4,"arthritis_risk":5,"migraine_risk":7,"frizz_risk":1,"updated_at":"2026-04-18T08:11:23.594339+05:30"},{"city":"Vrindavan","state":"Uttar Pradesh","latitude":27.5823,"longitude":77.7027,"temp":26.3,"humidity":62,"rain":0.0,"pressure":988.3,"uv_index":7.45,"wind_gusts":17.3,"aqi":534,"pm10":264.5,"pm2_5":76.1,"mosquito_risk":7,"arthritis_risk":5,"migraine_risk":7,"frizz_risk":1,"updated_at":"2026-04-18T08:11:23.594345+05:30"},{"city":"Ayodhya","state":"Uttar Pradesh","latitude":26.7922,"longitude":82.1998,"temp":27.8,"humidity":71,"rain":0.0,"pressure":995.9,"uv_index":7.75,"wind_gusts":32.8,"aqi":144,"pm10":81.3,"pm2_5":66.1,"mosquito_risk":7,"arthritis_risk":5,"migraine_risk":7,"frizz_risk":1,"updated_at":"2026-04-18T08:11:23.594352+05:30"},{"city":"Ratlam","state":"Madhya Pradesh","latitude":23.3315,"longitude":75.0367,"temp":26.5,"humidity":47,"rain":0.0,"pressure":955.5,"uv_index":8.2,"wind_gusts":21.2,"aqi":53,"pm10":19.4,"pm2_5":14.9,"mosquito_risk":4,"arthritis_risk":5,"migraine_risk":7,"frizz_risk":0,"updated_at":"2026-04-18T08:11:23.594358+05:30"},{"city":"Sagar","state":"Madhya Pradesh","latitude":23.8388,"longitude":78.7378,"temp":29.4,"humidity":46,"rain":0.0,"pressure":951.1,"uv_index":8.0,"wind_gusts":28.1,"aqi":65,"pm10":41.9,"pm2_5":22.7,"mosquito_risk":4,"arthritis_risk":5,"migraine_risk":7,"frizz_risk":1,"updated_at":"2026-04-18T08:11:23.594365+05:30"},{"city":"Satna","state":"Madhya Pradesh","latitude":24.6005,"longitude":80.8322,"temp":30.1,"humidity":43,"rain":0.0,"pressure":972.0,"uv_index":8.45,"wind_gusts":18.4,"aqi":70,"pm10":38.6,"pm2_5":22.1,"mosquito_risk":0,"arthritis_risk":5,"migraine_risk":7,"frizz_risk":1,"updated_at":"2026-04-18T08:11:23.594371+05:30"},{"city":"Akola","state":"Maharashtra","latitude":20.7002,"longitude":77.0082,"temp":28.7,"humidity":54,"rain":0.0,"pressure":976.0,"uv_index":8.4,"wind_gusts":26.6,"aqi":65,"pm10":23.3,"pm2_5":19.2,"mosquito_risk":4,"arthritis_risk":5,"migraine_risk":7,"frizz_risk":1,"updated_at":"2026-04-18T08:11:23.594378+05:30"},{"city":"Amravati","state":"Maharashtra","latitude":20.9374,"longitude":77.7796,"temp":28.0,"humidity":53,"rain":0.0,"pressure":967.8,"uv_index":7.95,"wind_gusts":19.1,"aqi":66,"pm10":23.1,"pm2_5":19.4,"mosquito_risk":4,"arthritis_risk":5,"migraine_risk":7,"frizz_risk":1,"updated_at":"2026-04-18T08:11:23.594384+05:30"},{"city":"Latur","state":"Maharashtra","latitude":18.4088,"longitude":76.5604,"temp":28.3,"humidity":46,"rain":0.0,"pressure":941.1,"uv_index":8.95,"wind_gusts":15.8,"aqi":104,"pm10":35.5,"pm2_5":30.6,"mosquito_risk":4,"arthritis_risk":5,"migraine_risk":7,"frizz_risk":0,"updated_at":"2026-04-18T08:11:23.594391+05:30"},{"city":"Nanded","state":"Maharashtra","latitude":19.1383,"longitude":77.3091,"temp":28.5,"humidity":52,"rain":0.0,"pressure":969.7,"uv_index":8.7,"wind_gusts":19.8,"aqi":86,"pm10":32.6,"pm2_5":28.9,"mosquito_risk":4,"arthritis_risk":5,"migraine_risk":7,"frizz_risk":1,"updated_at":"2026-04-18T08:11:23.594396+05:30"},{"city":"Gulbarga","state":"Karnataka","latitude":17.3297,"longitude":76.8343,"temp":31.3,"humidity":46,"rain":0.0,"pressure":960.3,"uv_index":9.05,"wind_gusts":24.8,"aqi":89,"pm10":34.3,"pm2_5":31.5,"mosquito_risk":0,"arthritis_risk":5,"migraine_risk":7,"frizz_risk":1,"updated_at":"2026-04-18T08:11:23.594403+05:30"},{"city":"Bidar","state":"Karnataka","latitude":17.9104,"longitude":77.5199,"temp":28.6,"humidity":54,"rain":0.0,"pressure":937.0,"uv_index":9.05,"wind_gusts":25.2,"aqi":99,"pm10":42.3,"pm2_5":38.9,"mosquito_risk":4,"arthritis_risk":5,"migraine_risk":7,"frizz_risk":1,"updated_at":"2026-04-18T08:11:23.594409+05:30"},{"city":"Hospet","state":"Karnataka","latitude":15.2689,"longitude":76.3909,"temp":27.0,"humidity":77,"rain":0.0,"pressure":956.9,"uv_index":9.25,"wind_gusts":18.7,"aqi":97,"pm10":24.7,"pm2_5":22.6,"mosquito_risk":7,"arthritis_risk":5,"migraine_risk":7,"frizz_risk":1,"updated_at":"2026-04-18T08:11:23.594416+05:30"},{"city":"Tirupur","state":"Tamil Nadu","latitude":11.1085,"longitude":77.3411,"temp":28.5,"humidity":79,"rain":0.0,"pressure":977.0,"uv_index":9.25,"wind_gusts":32.4,"aqi":90,"pm10":32.6,"pm2_5":29.9,"mosquito_risk":7,"arthritis_risk":5,"migraine_risk":7,"frizz_risk":1,"updated_at":"2026-04-18T08:11:23.594423+05:30"},{"city":"Alappuzha","state":"Kerala","latitude":9.4981,"longitude":76.3388,"temp":28.8,"humidity":86,"rain":0.0,"pressure":1009.5,"uv_index":9.05,"wind_gusts":28.4,"aqi":100,"pm10":48.3,"pm2_5":37.7,"mosquito_risk":7,"arthritis_risk":0,"migraine_risk":4,"frizz_risk":1,"updated_at":"2026-04-18T08:11:23.594430+05:30"},{"city":"Munnar","state":"Kerala","latitude":10.0889,"longitude":77.0595,"temp":24.1,"humidity":70,"rain":0.0,"pressure":858.8,"uv_index":9.7,"wind_gusts":22.3,"aqi":90,"pm10":49.0,"pm2_5":46.6,"mosquito_risk":3,"arthritis_risk":5,"migraine_risk":7,"frizz_risk":1,"updated_at":"2026-04-18T08:11:23.594436+05:30"},{"city":"Silchar","state":"Assam","latitude":24.8333,"longitude":92.7789,"temp":26.8,"humidity":79,"rain":0.0,"pressure":1008.4,"uv_index":8.75,"wind_gusts":23.8,"aqi":160,"pm10":102.7,"pm2_5":80.8,"mosquito_risk":7,"arthritis_risk":0,"migraine_risk":4,"frizz_risk":1,"updated_at":"2026-04-18T08:11:23.594443+05:30"},{"city":"Dibrugarh","state":"Assam","latitude":27.4728,"longitude":94.912,"temp":26.1,"humidity":81,"rain":0.0,"pressure":998.5,"uv_index":8.65,"wind_gusts":11.5,"aqi":134,"pm10":58.8,"pm2_5":39.8,"mosquito_risk":7,"arthritis_risk":5,"migraine_risk":7,"frizz_risk":1,"updated_at":"2026-04-18T08:11:23.594450+05:30"}]