[{"city":"Delhi","state":"Delhi","latitude":28.6139,"longitude":77.209,"temp":36.0,"humidity":41,"rain":0.0,"pressure":979.6,"uv_index":7.75,"wind_gusts":34.2,"aqi":156,"pm10":309.2,"pm2_5":96.2,"no2":25.5,"co":520.0,"o3":88.0,"so2":19.0,"mosquito_risk":0,"arthritis_risk":5,"migraine_risk":10,"frizz_risk":1,"updated_at":"2026-06-27T09:11:24.973751+05:30"},{"city":"Mumbai","state":"Maharashtra","latitude":19.076,"longitude":72.8777,"temp":28.3,"humidity":81,"rain":0.0,"pressure":1007.2,"uv_index":6.8,"wind_gusts":35.6,"aqi":64,"pm10":21.6,"pm2_5":13.4,"no2":14.2,"co":267.0,"o3":44.0,"so2":18.5,"mosquito_risk":7,"arthritis_risk":5,"migraine_risk":4,"frizz_risk":1,"updated_at":"2026-06-27T09:11:24.973798+05:30"},{"city":"Bangalore","state":"Karnataka","latitude":12.9716,"longitude":77.5946,"temp":24.6,"humidity":73,"rain":0.0,"pressure":911.5,"uv_index":9.15,"wind_gusts":37.8,"aqi":38,"pm10":15.3,"pm2_5":9.5,"no2":8.8,"co":342.0,"o3":45.0,"so2":4.7,"mosquito_risk":3,"arthritis_risk":5,"migraine_risk":7,"frizz_risk":1,"updated_at":"2026-06-27T09:11:24.973813+05:30"},{"city":"Hyderabad","state":"Telangana","latitude":17.385,"longitude":78.4867,"temp":27.9,"humidity":69,"rain":0.0,"pressure":952.0,"uv_index":8.0,"wind_gusts":38.5,"aqi":79,"pm10":34.8,"pm2_5":18.2,"no2":9.5,"co":381.0,"o3":58.0,"so2":6.3,"mosquito_risk":7,"arthritis_risk":5,"migraine_risk":7,"frizz_risk":1,"updated_at":"2026-06-27T09:11:24.973823+05:30"},{"city":"Chennai","state":"Tamil Nadu","latitude":13.0827,"longitude":80.2707,"temp":32.3,"humidity":56,"rain":0.0,"pressure":1005.4,"uv_index":8.2,"wind_gusts":44.6,"aqi":78,"pm10":32.7,"pm2_5":24.8,"no2":19.4,"co":446.0,"o3":62.0,"so2":13.9,"mosquito_risk":0,"arthritis_risk":5,"migraine_risk":4,"frizz_risk":1,"updated_at":"2026-06-27T09:11:24.973833+05:30"},{"city":"Kolkata","state":"West Bengal","latitude":22.5726,"longitude":88.3639,"temp":31.1,"humidity":73,"rain":0.0,"pressure":1003.8,"uv_index":8.8,"wind_gusts":27.7,"aqi":85,"pm10":18.3,"pm2_5":15.0,"no2":4.0,"co":355.0,"o3":93.0,"so2":6.3,"mosquito_risk":3,"arthritis_risk":5,"migraine_risk":4,"frizz_risk":1,"updated_at":"2026-06-27T09:11:24.973841+05:30"},{"city":"Pune","state":"Maharashtra","latitude":18.5204,"longitude":73.8567,"temp":27.2,"humidity":68,"rain":0.0,"pressure":947.3,"uv_index":7.45,"wind_gusts":39.2,"aqi":48,"pm10":12.5,"pm2_5":7.7,"no2":6.3,"co":159.0,"o3":49.0,"so2":8.2,"mosquito_risk":7,"arthritis_risk":5,"migraine_risk":7,"frizz_risk":1,"updated_at":"2026-06-27T09:11:24.973848+05:30"},{"city":"Ahmedabad","state":"Gujarat","latitude":23.0225,"longitude":72.5714,"temp":32.5,"humidity":58,"rain":0.0,"pressure":1000.1,"uv_index":8.05,"wind_gusts":37.8,"aqi":74,"pm10":48.3,"pm2_5":19.8,"no2":4.6,"co":146.0,"o3":50.0,"so2":3.6,"mosquito_risk":0,"arthritis_risk":5,"migraine_risk":4,"frizz_risk":1,"updated_at":"2026-06-27T09:11:24.973854+05:30"},{"city":"Jaipur","state":"Rajasthan","latitude":26.9124,"longitude":75.7873,"temp":32.9,"humidity":50,"rain":0.0,"pressure":957.6,"uv_index":8.2,"wind_gusts":33.8,"aqi":122,"pm10":190.5,"pm2_5":45.3,"no2":7.2,"co":227.0,"o3":66.0,"so2":5.4,"mosquito_risk":0,"arthritis_risk":5,"migraine_risk":7,"frizz_risk":1,"updated_at":"2026-06-27T09:11:24.973866+05:30"},{"city":"Lucknow","state":"Uttar Pradesh","latitude":26.8467,"longitude":80.9462,"temp":35.2,"humidity":54,"rain":0.0,"pressure":989.9,"uv_index":7.85,"wind_gusts":26.6,"aqi":127,"pm10":83.1,"pm2_5":39.6,"no2":9.0,"co":270.0,"o3":112.0,"so2":9.3,"mosquito_risk":0,"arthritis_risk":5,"migraine_risk":10,"frizz_risk":1,"updated_at":"2026-06-27T09:11:24.973875+05:30"},{"city":"Kanpur","state":"Uttar Pradesh","latitude":26.4499,"longitude":80.3319,"temp":35.9,"humidity":46,"rain":0.0,"pressure":988.1,"uv_index":8.2,"wind_gusts":31.3,"aqi":126,"pm10":141.6,"pm2_5":39.1,"no2":7.8,"co":209.0,"o3":99.0,"so2":6.4,"mosquito_risk":0,"arthritis_risk":5,"migraine_risk":10,"frizz_risk":1,"updated_at":"2026-06-27T09:11:24.973882+05:30"},{"city":"Chandigarh","state":"Chandigarh","latitude":30.7333,"longitude":76.7794,"temp":34.3,"humidity":45,"rain":0.0,"pressure":965.8,"uv_index":7.8,"wind_gusts":27.4,"aqi":153,"pm10":92.4,"pm2_5":48.7,"no2":11.5,"co":612.0,"o3":152.0,"so2":17.4,"mosquito_risk":0,"arthritis_risk":5,"migraine_risk":7,"frizz_risk":1,"updated_at":"2026-06-27T09:11:24.973889+05:30"},{"city":"Srinagar","state":"Jammu and Kashmir","latitude":34.0837,"longitude":74.7973,"temp":23.3,"humidity":54,"rain":0.0,"pressure":843.7,"uv_index":9.1,"wind_gusts":24.8,"aqi":74,"pm10":29.0,"pm2_5":25.6,"no2":7.9,"co":440.0,"o3":106.0,"so2":5.0,"mosquito_risk":0,"arthritis_risk":5,"migraine_risk":7,"frizz_risk":0,"updated_at":"2026-06-27T09:11:24.973896+05:30"},{"city":"Jammu","state":"Jammu and Kashmir","latitude":32.7266,"longitude":74.857,"temp":34.8,"humidity":41,"rain":0.0,"pressure":969.8,"uv_index":8.65,"wind_gusts":30.6,"aqi":138,"pm10":50.5,"pm2_5":32.2,"no2":12.6,"co":380.0,"o3":122.0,"so2":4.4,"mosquito_risk":0,"arthritis_risk":5,"migraine_risk":7,"frizz_risk":1,"updated_at":"2026-06-27T09:11:24.973902+05:30"},{"city":"Amritsar","state":"Punjab","latitude":31.634,"longitude":74.8723,"temp":32.3,"humidity":63,"rain":0.0,"pressure":977.3,"uv_index":8.45,"wind_gusts":13.3,"aqi":167,"pm10":120.1,"pm2_5":77.1,"no2":14.0,"co":699.0,"o3":144.0,"so2":11.2,"mosquito_risk":3,"arthritis_risk":5,"migraine_risk":7,"frizz_risk":1,"updated_at":"2026-06-27T09:11:24.973909+05:30"},{"city":"Ludhiana","state":"Punjab","latitude":30.901,"longitude":75.8573,"temp":34.9,"humidity":47,"rain":0.0,"pressure":975.3,"uv_index":8.05,"wind_gusts":25.2,"aqi":159,"pm10":122.5,"pm2_5":72.6,"no2":13.8,"co":572.0,"o3":128.0,"so2":14.8,"mosquito_risk":0,"arthritis_risk":5,"migraine_risk":7,"frizz_risk":1,"updated_at":"2026-06-27T09:11:24.973915+05:30"},{"city":"Jalandhar","state":"Punjab","latitude":31.326,"longitude":75.5762,"temp":34.7,"humidity":47,"rain":0.0,"pressure":976.3,"uv_index":8.25,"wind_gusts":23.4,"aqi":162,"pm10":129.5,"pm2_5":80.6,"no2":17.2,"co":568.0,"o3":133.0,"so2":11.5,"mosquito_risk":0,"arthritis_risk":5,"migraine_risk":7,"frizz_risk":1,"updated_at":"2026-06-27T09:11:24.973921+05:30"},{"city":"Dehradun","state":"Uttarakhand","latitude":30.6284,"longitude":78.0322,"temp":23.5,"humidity":66,"rain":0.0,"pressure":832.0,"uv_index":8.25,"wind_gusts":30.2,"aqi":70,"pm10":28.9,"pm2_5":10.9,"no2":2.4,"co":203.0,"o3":122.0,"so2":0.8,"mosquito_risk":3,"arthritis_risk":5,"migraine_risk":7,"frizz_risk":1,"updated_at":"2026-06-27T09:11:24.973928+05:30"},{"city":"Shimla","state":"Himachal Pradesh","latitude":31.1048,"longitude":77.1734,"temp":21.7,"humidity":52,"rain":0.0,"pressure":787.2,"uv_index":7.35,"wind_gusts":37.8,"aqi":90,"pm10":52.0,"pm2_5":23.7,"no2":2.9,"co":242.0,"o3":132.0,"so2":4.3,"mosquito_risk":0,"arthritis_risk":5,"migraine_risk":7,"frizz_risk":0,"updated_at":"2026-06-27T09:11:24.973934+05:30"},{"city":"Manali","state":"Himachal Pradesh","latitude":32.2396,"longitude":77.1887,"temp":23.9,"humidity":52,"rain":0.0,"pressure":821.2,"uv_index":8.35,"wind_gusts":34.9,"aqi":53,"pm10":3.0,"pm2_5":2.9,"no2":12.4,"co":212.0,"o3":98.0,"so2":0.0,"mosquito_risk":0,"arthritis_risk":5,"migraine_risk":7,"frizz_risk":0,"updated_at":"2026-06-27T09:11:24.973943+05:30"},{"city":"Gurgaon","state":"Haryana","latitude":28.4595,"longitude":77.0266,"temp":34.9,"humidity":45,"rain":0.0,"pressure":978.2,"uv_index":7.25,"wind_gusts":38.5,"aqi":163,"pm10":262.6,"pm2_5":76.6,"no2":27.8,"co":403.0,"o3":77.0,"so2":21.1,"mosquito_risk":0,"arthritis_risk":5,"migraine_risk":7,"frizz_risk":1,"updated_at":"2026-06-27T09:11:24.973951+05:30"},{"city":"Noida","state":"Uttar Pradesh","latitude":28.5355,"longitude":77.391,"temp":34.3,"humidity":54,"rain":0.0,"pressure":981.0,"uv_index":7.8,"wind_gusts":16.6,"aqi":163,"pm10":262.6,"pm2_5":76.6,"no2":27.8,"co":616.0,"o3":77.0,"so2":21.1,"mosquito_risk":0,"arthritis_risk":5,"migraine_risk":7,"frizz_risk":1,"updated_at":"2026-06-27T09:11:24.973957+05:30"},{"city":"Ghaziabad","state":"Uttar Pradesh","latitude":28.6692,"longitude":77.4538,"temp":33.8,"humidity":56,"rain":0.0,"pressure":979.2,"uv_index":7.75,"wind_gusts":24.5,"aqi":158,"pm10":261.7,"pm2_5":90.6,"no2":20.6,"co":664.0,"o3":114.0,"so2":19.6,"mosquito_risk":0,"arthritis_risk":5,"migraine_risk":7,"frizz_risk":1,"updated_at":"2026-06-27T09:11:24.973963+05:30"},{"city":"Faridabad","state":"Haryana","latitude":28.4089,"longitude":77.3178,"temp":35.0,"humidity":46,"rain":0.0,"pressure":980.3,"uv_index":7.8,"wind_gusts":31.3,"aqi":163,"pm10":262.6,"pm2_5":76.6,"no2":27.8,"co":458.0,"o3":77.0,"so2":21.1,"mosquito_risk":0,"arthritis_risk":5,"migraine_risk":7,"frizz_risk":1,"updated_at":"2026-06-27T09:11:24.973969+05:30"},{"city":"Meerut","state":"Uttar Pradesh","latitude":28.9845,"longitude":77.7064,"temp":34.1,"humidity":52,"rain":0.0,"pressure":978.1,"uv_index":7.7,"wind_gusts":29.2,"aqi":158,"pm10":261.7,"pm2_5":90.6,"no2":20.6,"co":705.0,"o3":114.0,"so2":19.6,"mosquito_risk":0,"arthritis_risk":5,"migraine_risk":7,"frizz_risk":1,"updated_at":"2026-06-27T09:11:24.973975+05:30"},{"city":"Agra","state":"Uttar Pradesh","latitude":27.1767,"longitude":78.0081,"temp":35.2,"humidity":46,"rain":0.0,"pressure":984.4,"uv_index":8.1,"wind_gusts":29.5,"aqi":132,"pm10":136.9,"pm2_5":49.8,"no2":17.7,"co":258.0,"o3":85.0,"so2":8.9,"mosquito_risk":0,"arthritis_risk":5,"migraine_risk":10,"frizz_risk":1,"updated_at":"2026-06-27T09:11:24.973982+05:30"},{"city":"Varanasi","state":"Uttar Pradesh","latitude":25.3176,"longitude":82.9739,"temp":34.1,"humidity":56,"rain":0.0,"pressure":994.8,"uv_index":8.4,"wind_gusts":23.4,"aqi":99,"pm10":37.5,"pm2_5":33.6,"no2":8.1,"co":305.0,"o3":116.0,"so2":11.3,"mosquito_risk":0,"arthritis_risk":5,"migraine_risk":7,"frizz_risk":1,"updated_at":"2026-06-27T09:11:24.973988+05:30"},{"city":"Prayagraj","state":"Uttar Pradesh","latitude":25.4358,"longitude":81.8463,"temp":34.2,"humidity":54,"rain":0.0,"pressure":993.0,"uv_index":8.55,"wind_gusts":51.1,"aqi":106,"pm10":38.1,"pm2_5":30.7,"no2":7.8,"co":206.0,"o3":108.0,"so2":10.2,"mosquito_risk":0,"arthritis_risk":5,"migraine_risk":7,"frizz_risk":1,"updated_at":"2026-06-27T09:11:24.973995+05:30"},{"city":"Gorakhpur","state":"Uttar Pradesh","latitude":26.7606,"longitude":83.3732,"temp":32.4,"humidity":63,"rain":0.0,"pressure":994.5,"uv_index":8.3,"wind_gusts":30.2,"aqi":159,"pm10":60.3,"pm2_5":51.2,"no2":8.0,"co":390.0,"o3":147.0,"so2":11.0,"mosquito_risk":3,"arthritis_risk":5,"migraine_risk":7,"frizz_risk":1,"updated_at":"2026-06-27T09:11:24.974002+05:30"},{"city":"Bareilly","state":"Uttar Pradesh","latitude":28.367,"longitude":79.4304,"temp":34.8,"humidity":49,"rain":0.0,"pressure":983.0,"uv_index":8.1,"wind_gusts":25.9,"aqi":159,"pm10":139.2,"pm2_5":83.6,"no2":18.0,"co":506.0,"o3":130.0,"so2":15.3,"mosquito_risk":0,"arthritis_risk":5,"migraine_risk":7,"frizz_risk":1,"updated_at":"2026-06-27T09:11:24.974010+05:30"},{"city":"Aligarh","state":"Uttar Pradesh","latitude":27.8974,"longitude":78.088,"temp":34.5,"humidity":51,"rain":0.0,"pressure":982.2,"uv_index":7.95,"wind_gusts":23.8,"aqi":158,"pm10":226.3,"pm2_5":84.8,"no2":19.7,"co":324.0,"o3":94.0,"so2":18.9,"mosquito_risk":0,"arthritis_risk":5,"migraine_risk":7,"frizz_risk":1,"updated_at":"2026-06-27T09:11:24.974016+05:30"},{"city":"Moradabad","state":"Uttar Pradesh","latitude":28.8386,"longitude":78.7733,"temp":35.3,"humidity":45,"rain":0.0,"pressure":980.1,"uv_index":7.95,"wind_gusts":31.3,"aqi":163,"pm10":135.5,"pm2_5":74.7,"no2":17.4,"co":567.0,"o3":158.0,"so2":14.8,"mosquito_risk":0,"arthritis_risk":5,"migraine_risk":10,"frizz_risk":1,"updated_at":"2026-06-27T09:11:24.974023+05:30"},{"city":"Saharanpur","state":"Uttar Pradesh","latitude":29.9637,"longitude":77.546,"temp":34.0,"humidity":52,"rain":0.0,"pressure":972.4,"uv_index":7.45,"wind_gusts":23.8,"aqi":166,"pm10":138.3,"pm2_5":64.3,"no2":12.3,"co":421.0,"o3":165.0,"so2":13.1,"mosquito_risk":0,"arthritis_risk":5,"migraine_risk":7,"frizz_risk":1,"updated_at":"2026-06-27T09:11:24.974028+05:30"},{"city":"Jhansi","state":"Uttar Pradesh","latitude":25.4484,"longitude":78.5685,"temp":34.3,"humidity":52,"rain":0.0,"pressure":975.1,"uv_index":8.45,"wind_gusts":29.2,"aqi":86,"pm10":47.6,"pm2_5":27.2,"no2":5.4,"co":195.0,"o3":84.0,"so2":10.9,"mosquito_risk":0,"arthritis_risk":5,"migraine_risk":7,"frizz_risk":1,"updated_at":"2026-06-27T09:11:28.200709+05:30"},{"city":"Surat","state":"Gujarat","latitude":21.1702,"longitude":72.8311,"temp":31.7,"humidity":62,"rain":0.0,"pressure":1005.0,"uv_index":7.6,"wind_gusts":41.0,"aqi":87,"pm10":53.6,"pm2_5":27.4,"no2":18.3,"co":236.0,"o3":34.0,"so2":53.0,"mosquito_risk":3,"arthritis_risk":5,"migraine_risk":4,"frizz_risk":1,"updated_at":"2026-06-27T09:11:28.200741+05:30"},{"city":"Vadodara","state":"Gujarat","latitude":22.3072,"longitude":73.1812,"temp":33.1,"humidity":55,"rain":0.0,"pressure":1002.4,"uv_index":8.0,"wind_gusts":40.0,"aqi":79,"pm10":40.5,"pm2_5":21.1,"no2":7.6,"co":168.0,"o3":46.0,"so2":8.1,"mosquito_risk":0,"arthritis_risk":5,"migraine_risk":4,"frizz_risk":1,"updated_at":"2026-06-27T09:11:28.200752+05:30"},{"city":"Rajkot","state":"Gujarat","latitude":22.3039,"longitude":70.8022,"temp":31.0,"humidity":63,"rain":0.0,"pressure":992.3,"uv_index":7.55,"wind_gusts":49.7,"aqi":65,"pm10":41.9,"pm2_5":16.5,"no2":4.5,"co":111.0,"o3":51.0,"so2":7.0,"mosquito_risk":3,"arthritis_risk":5,"migraine_risk":7,"frizz_risk":1,"updated_at":"2026-06-27T09:11:28.200760+05:30"},{"city":"Thane","state":"Maharashtra","latitude":19.2183,"longitude":72.9781,"temp":28.7,"humidity":79,"rain":0.0,"pressure":1006.5,"uv_index":6.8,"wind_gusts":33.1,"aqi":64,"pm10":21.6,"pm2_5":13.4,"no2":14.2,"co":251.0,"o3":44.0,"so2":18.5,"mosquito_risk":7,"arthritis_risk":5,"migraine_risk":4,"frizz_risk":1,"updated_at":"2026-06-27T09:11:28.200768+05:30"},{"city":"Nagpur","state":"Maharashtra","latitude":21.1458,"longitude":79.0882,"temp":29.5,"humidity":75,"rain":0.0,"pressure":971.3,"uv_index":7.8,"wind_gusts":43.2,"aqi":92,"pm10":27.5,"pm2_5":21.9,"no2":13.9,"co":305.0,"o3":73.0,"so2":23.8,"mosquito_risk":7,"arthritis_risk":5,"migraine_risk":7,"frizz_risk":1,"updated_at":"2026-06-27T09:11:28.200775+05:30"},{"city":"Nashik","state":"Maharashtra","latitude":19.9975,"longitude":73.7898,"temp":27.2,"humidity":72,"rain":0.0,"pressure":944.5,"uv_index":7.85,"wind_gusts":38.5,"aqi":59,"pm10":26.3,"pm2_5":13.6,"no2":7.0,"co":128.0,"o3":44.0,"so2":11.0,"mosquito_risk":7,"arthritis_risk":5,"migraine_risk":7,"frizz_risk":1,"updated_at":"2026-06-27T09:11:28.200782+05:30"},{"city":"Aurangabad","state":"Maharashtra","latitude":19.8762,"longitude":75.3433,"temp":27.5,"humidity":70,"rain":0.0,"pressure":943.3,"uv_index":5.6,"wind_gusts":29.9,"aqi":65,"pm10":41.6,"pm2_5":18.7,"no2":5.4,"co":131.0,"o3":53.0,"so2":7.8,"mosquito_risk":7,"arthritis_risk":5,"migraine_risk":3,"frizz_risk":1,"updated_at":"2026-06-27T09:11:28.200789+05:30"},{"city":"Solapur","state":"Maharashtra","latitude":17.6599,"longitude":75.9064,"temp":28.2,"humidity":65,"rain":0.0,"pressure":956.5,"uv_index":3.35,"wind_gusts":31.7,"aqi":54,"pm10":15.0,"pm2_5":9.5,"no2":5.0,"co":129.0,"o3":62.0,"so2":4.9,"mosquito_risk":7,"arthritis_risk":5,"migraine_risk":3,"frizz_risk":1,"updated_at":"2026-06-27T09:11:28.200796+05:30"},{"city":"Kolhapur","state":"Maharashtra","latitude":16.705,"longitude":74.2433,"temp":26.5,"humidity":71,"rain":0.0,"pressure":947.5,"uv_index":6.9,"wind_gusts":39.6,"aqi":34,"pm10":10.7,"pm2_5":6.3,"no2":3.6,"co":151.0,"o3":50.0,"so2":2.2,"mosquito_risk":7,"arthritis_risk":5,"migraine_risk":7,"frizz_risk":1,"updated_at":"2026-06-27T09:11:28.200803+05:30"},{"city":"Goa","state":"Goa","latitude":15.2993,"longitude":74.124,"temp":27.3,"humidity":88,"rain":0.0,"pressure":998.0,"uv_index":5.7,"wind_gusts":28.4,"aqi":51,"pm10":15.9,"pm2_5":8.5,"no2":2.0,"co":139.0,"o3":53.0,"so2":0.8,"mosquito_risk":7,"arthritis_risk":5,"migraine_risk":3,"frizz_risk":1,"updated_at":"2026-06-27T09:11:28.200810+05:30"},{"city":"Jodhpur","state":"Rajasthan","latitude":26.2389,"longitude":73.0243,"temp":32.7,"humidity":56,"rain":0.0,"pressure":980.4,"uv_index":8.4,"wind_gusts":26.3,"aqi":93,"pm10":217.9,"pm2_5":50.9,"no2":3.2,"co":124.0,"o3":53.0,"so2":3.5,"mosquito_risk":0,"arthritis_risk":5,"migraine_risk":7,"frizz_risk":1,"updated_at":"2026-06-27T09:11:28.200818+05:30"},{"city":"Udaipur","state":"Rajasthan","latitude":24.5854,"longitude":73.7125,"temp":30.1,"humidity":59,"rain":0.0,"pressure":944.8,"uv_index":7.2,"wind_gusts":44.3,"aqi":67,"pm10":46.3,"pm2_5":24.1,"no2":4.4,"co":140.0,"o3":65.0,"so2":4.4,"mosquito_risk":0,"arthritis_risk":5,"migraine_risk":7,"frizz_risk":1,"updated_at":"2026-06-27T09:11:28.200824+05:30"},{"city":"Kota","state":"Rajasthan","latitude":25.2138,"longitude":75.8648,"temp":33.3,"humidity":53,"rain":0.0,"pressure":976.2,"uv_index":8.3,"wind_gusts":42.5,"aqi":90,"pm10":52.3,"pm2_5":25.6,"no2":5.2,"co":201.0,"o3":72.0,"so2":4.4,"mosquito_risk":0,"arthritis_risk":5,"migraine_risk":7,"frizz_risk":1,"updated_at":"2026-06-27T09:11:28.200831+05:30"},{"city":"Bikaner","state":"Rajasthan","latitude":28.0229,"longitude":73.3119,"temp":35.4,"humidity":40,"rain":0.0,"pressure":978.7,"uv_index":8.45,"wind_gusts":32.0,"aqi":109,"pm10":60.5,"pm2_5":20.4,"no2":1.9,"co":139.0,"o3":65.0,"so2":3.9,"mosquito_risk":0,"arthritis_risk":5,"migraine_risk":10,"frizz_risk":1,"updated_at":"2026-06-27T09:11:28.200838+05:30"},{"city":"Ajmer","state":"Rajasthan","latitude":26.4499,"longitude":74.6399,"temp":31.3,"humidity":54,"rain":0.0,"pressure":952.8,"uv_index":8.35,"wind_gusts":33.8,"aqi":86,"pm10":47.1,"pm2_5":23.2,"no2":5.3,"co":187.0,"o3":67.0,"so2":4.9,"mosquito_risk":0,"arthritis_risk":5,"migraine_risk":7,"frizz_risk":1,"updated_at":"2026-06-27T09:11:28.200844+05:30"},{"city":"Gwalior","state":"Madhya Pradesh","latitude":26.2183,"longitude":78.1828,"temp":35.6,"humidity":45,"rain":0.0,"pressure":980.0,"uv_index":8.25,"wind_gusts":32.0,"aqi":79,"pm10":56.6,"pm2_5":32.6,"no2":5.5,"co":171.0,"o3":80.0,"so2":8.1,"mosquito_risk":0,"arthritis_risk":5,"migraine_risk":10,"frizz_risk":1,"updated_at":"2026-06-27T09:11:28.200850+05:30"},{"city":"Indore","state":"Madhya Pradesh","latitude":22.7196,"longitude":75.8577,"temp":28.4,"humidity":73,"rain":0.0,"pressure":946.7,"uv_index":8.2,"wind_gusts":40.7,"aqi":88,"pm10":54.0,"pm2_5":30.4,"no2":8.1,"co":242.0,"o3":58.0,"so2":12.6,"mosquito_risk":7,"arthritis_risk":5,"migraine_risk":7,"frizz_risk":1,"updated_at":"2026-06-27T09:11:28.200857+05:30"},{"city":"Bhopal","state":"Madhya Pradesh","latitude":23.2599,"longitude":77.4126,"temp":30.3,"humidity":66,"rain":0.0,"pressure":952.0,"uv_index":8.6,"wind_gusts":25.9,"aqi":83,"pm10":46.6,"pm2_5":27.8,"no2":5.3,"co":445.0,"o3":79.0,"so2":3.5,"mosquito_risk":3,"arthritis_risk":5,"migraine_risk":7,"frizz_risk":1,"updated_at":"2026-06-27T09:11:28.200864+05:30"},{"city":"Jabalpur","state":"Madhya Pradesh","latitude":23.1815,"longitude":79.9864,"temp":31.5,"humidity":60,"rain":0.0,"pressure":959.8,"uv_index":8.85,"wind_gusts":31.3,"aqi":70,"pm10":22.7,"pm2_5":17.7,"no2":5.1,"co":241.0,"o3":88.0,"so2":3.3,"mosquito_risk":0,"arthritis_risk":5,"migraine_risk":7,"frizz_risk":1,"updated_at":"2026-06-27T09:11:28.200871+05:30"},{"city":"Ujjain","state":"Madhya Pradesh","latitude":23.1765,"longitude":75.7885,"temp":29.2,"humidity":69,"rain":0.0,"pressure":952.4,"uv_index":8.3,"wind_gusts":31.3,"aqi":85,"pm10":45.2,"pm2_5":27.6,"no2":7.4,"co":249.0,"o3":50.0,"so2":13.9,"mosquito_risk":7,"arthritis_risk":5,"migraine_risk":7,"frizz_risk":1,"updated_at":"2026-06-27T09:11:28.200878+05:30"},{"city":"Visakhapatnam","state":"Andhra Pradesh","latitude":17.6868,"longitude":83.2185,"temp":29.8,"humidity":76,"rain":0.0,"pressure":1001.5,"uv_index":6.85,"wind_gusts":31.0,"aqi":96,"pm10":31.2,"pm2_5":26.8,"no2":23.5,"co":528.0,"o3":79.0,"so2":45.4,"mosquito_risk":7,"arthritis_risk":5,"migraine_risk":4,"frizz_risk":1,"updated_at":"2026-06-27T09:11:28.200885+05:30"},{"city":"Vijayawada","state":"Andhra Pradesh","latitude":16.5062,"longitude":80.648,"temp":30.2,"humidity":67,"rain":0.0,"pressure":1000.4,"uv_index":8.5,"wind_gusts":29.9,"aqi":70,"pm10":34.8,"pm2_5":23.2,"no2":5.6,"co":197.0,"o3":92.0,"so2":6.2,"mosquito_risk":3,"arthritis_risk":5,"migraine_risk":4,"frizz_risk":1,"updated_at":"2026-06-27T09:11:28.200892+05:30"},{"city":"Guntur","state":"Andhra Pradesh","latitude":16.3067,"longitude":80.4365,"temp":30.0,"humidity":67,"rain":0.0,"pressure":1001.6,"uv_index":7.75,"wind_gusts":33.5,"aqi":69,"pm10":34.1,"pm2_5":22.6,"no2":5.7,"co":197.0,"o3":89.0,"so2":5.7,"mosquito_risk":7,"arthritis_risk":5,"migraine_risk":4,"frizz_risk":1,"updated_at":"2026-06-27T09:11:28.200898+05:30"},{"city":"Nellore","state":"Andhra Pradesh","latitude":14.4426,"longitude":79.9865,"temp":31.5,"humidity":59,"rain":0.0,"pressure":1003.9,"uv_index":8.75,"wind_gusts":35.3,"aqi":61,"pm10":18.1,"pm2_5":11.0,"no2":5.7,"co":160.0,"o3":57.0,"so2":6.9,"mosquito_risk":0,"arthritis_risk":5,"migraine_risk":4,"frizz_risk":1,"updated_at":"2026-06-27T09:11:28.200905+05:30"},{"city":"Kurnool","state":"Andhra Pradesh","latitude":15.8281,"longitude":78.0373,"temp":29.6,"humidity":60,"rain":0.0,"pressure":976.1,"uv_index":7.7,"wind_gusts":35.3,"aqi":54,"pm10":16.3,"pm2_5":10.0,"no2":5.3,"co":179.0,"o3":45.0,"so2":4.4,"mosquito_risk":4,"arthritis_risk":5,"migraine_risk":7,"frizz_risk":1,"updated_at":"2026-06-27T09:11:28.200913+05:30"},{"city":"Kakinada","state":"Andhra Pradesh","latitude":16.9891,"longitude":82.2475,"temp":28.6,"humidity":81,"rain":0.0,"pressure":1005.2,"uv_index":6.5,"wind_gusts":32.4,"aqi":72,"pm10":26.1,"pm2_5":19.4,"no2":5.4,"co":264.0,"o3":98.0,"so2":5.9,"mosquito_risk":7,"arthritis_risk":5,"migraine_risk":4,"frizz_risk":1,"updated_at":"2026-06-27T09:11:28.200920+05:30"},{"city":"Tirupati","state":"Andhra Pradesh","latitude":13.6288,"longitude":79.4192,"temp":31.6,"humidity":52,"rain":0.0,"pressure":989.6,"uv_index":8.35,"wind_gusts":36.4,"aqi":55,"pm10":22.1,"pm2_5":12.2,"no2":4.6,"co":135.0,"o3":64.0,"so2":1.8,"mosquito_risk":0,"arthritis_risk":5,"migraine_risk":7,"frizz_risk":1,"updated_at":"2026-06-27T09:11:28.200926+05:30"},{"city":"Warangal","state":"Telangana","latitude":17.9689,"longitude":79.5941,"temp":29.7,"humidity":69,"rain":0.0,"pressure":976.8,"uv_index":8.95,"wind_gusts":33.5,"aqi":81,"pm10":48.1,"pm2_5":27.6,"no2":5.1,"co":200.0,"o3":82.0,"so2":6.1,"mosquito_risk":7,"arthritis_risk":5,"migraine_risk":7,"frizz_risk":1,"updated_at":"2026-06-27T09:11:28.200932+05:30"},{"city":"Nizamabad","state":"Telangana","latitude":18.6725,"longitude":78.0941,"temp":28.3,"humidity":71,"rain":0.1,"pressure":963.8,"uv_index":8.3,"wind_gusts":35.6,"aqi":88,"pm10":50.3,"pm2_5":26.2,"no2":4.2,"co":188.0,"o3":89.0,"so2":4.8,"mosquito_risk":10,"arthritis_risk":5,"migraine_risk":7,"frizz_risk":1,"updated_at":"2026-06-27T09:11:28.200939+05:30"},{"city":"Mysore","state":"Karnataka","latitude":12.2958,"longitude":76.6396,"temp":26.1,"humidity":67,"rain":0.0,"pressure":928.8,"uv_index":9.0,"wind_gusts":38.9,"aqi":30,"pm10":11.0,"pm2_5":7.1,"no2":4.8,"co":134.0,"o3":49.0,"so2":2.1,"mosquito_risk":7,"arthritis_risk":5,"migraine_risk":7,"frizz_risk":1,"updated_at":"2026-06-27T09:11:28.200945+05:30"},{"city":"Mangalore","state":"Karnataka","latitude":12.9141,"longitude":74.856,"temp":27.1,"humidity":84,"rain":0.0,"pressure":1007.4,"uv_index":8.5,"wind_gusts":36.4,"aqi":44,"pm10":15.2,"pm2_5":8.5,"no2":4.5,"co":180.0,"o3":49.0,"so2":2.6,"mosquito_risk":7,"arthritis_risk":5,"migraine_risk":4,"frizz_risk":1,"updated_at":"2026-06-27T09:11:28.200952+05:30"},{"city":"Hubli-Dharwad","state":"Karnataka","latitude":15.3647,"longitude":75.124,"temp":25.9,"humidity":75,"rain":0.0,"pressure":940.7,"uv_index":7.1,"wind_gusts":41.8,"aqi":22,"pm10":4.1,"pm2_5":2.2,"no2":2.7,"co":119.0,"o3":47.0,"so2":1.0,"mosquito_risk":7,"arthritis_risk":5,"migraine_risk":7,"frizz_risk":1,"updated_at":"2026-06-27T09:11:28.200959+05:30"},{"city":"Belgaum","state":"Karnataka","latitude":15.8497,"longitude":74.4977,"temp":25.1,"humidity":76,"rain":0.0,"pressure":925.5,"uv_index":8.8,"wind_gusts":38.9,"aqi":25,"pm10":5.4,"pm2_5":3.4,"no2":3.2,"co":119.0,"o3":50.0,"so2":2.4,"mosquito_risk":7,"arthritis_risk":5,"migraine_risk":7,"frizz_risk":1,"updated_at":"2026-06-27T09:11:31.441350+05:30"},{"city":"Coimbatore","state":"Tamil Nadu","latitude":11.0168,"longitude":76.9558,"temp":27.1,"humidity":72,"rain":0.0,"pressure":961.7,"uv_index":8.85,"wind_gusts":45.0,"aqi":33,"pm10":17.1,"pm2_5":9.4,"no2":3.7,"co":199.0,"o3":56.0,"so2":3.2,"mosquito_risk":7,"arthritis_risk":5,"migraine_risk":7,"frizz_risk":1,"updated_at":"2026-06-27T09:11:31.441383+05:30"},{"city":"Madurai","state":"Tamil Nadu","latitude":9.9252,"longitude":78.1198,"temp":32.4,"humidity":46,"rain":0.0,"pressure":992.5,"uv_index":8.5,"wind_gusts":36.0,"aqi":67,"pm10":18.7,"pm2_5":13.2,"no2":10.9,"co":151.0,"o3":59.0,"so2":6.0,"mosquito_risk":0,"arthritis_risk":5,"migraine_risk":7,"frizz_risk":1,"updated_at":"2026-06-27T09:11:31.441394+05:30"},{"city":"Trichy","state":"Tamil Nadu","latitude":10.7905,"longitude":78.7047,"temp":31.5,"humidity":56,"rain":0.0,"pressure":998.8,"uv_index":7.5,"wind_gusts":36.0,"aqi":46,"pm10":18.9,"pm2_5":11.2,"no2":4.3,"co":147.0,"o3":54.0,"so2":3.7,"mosquito_risk":0,"arthritis_risk":5,"migraine_risk":7,"frizz_risk":1,"updated_at":"2026-06-27T09:11:31.441402+05:30"},{"city":"Salem","state":"Tamil Nadu","latitude":11.6643,"longitude":78.146,"temp":29.3,"humidity":59,"rain":0.0,"pressure":977.1,"uv_index":8.8,"wind_gusts":45.0,"aqi":56,"pm10":23.3,"pm2_5":16.9,"no2":12.2,"co":214.0,"o3":58.0,"so2":15.0,"mosquito_risk":4,"arthritis_risk":5,"migraine_risk":7,"frizz_risk":1,"updated_at":"2026-06-27T09:11:31.441411+05:30"},{"city":"Tirunelveli","state":"Tamil Nadu","latitude":8.7139,"longitude":77.7567,"temp":32.9,"humidity":47,"rain":0.0,"pressure":1002.6,"uv_index":8.55,"wind_gusts":39.6,"aqi":34,"pm10":12.0,"pm2_5":8.1,"no2":4.2,"co":133.0,"o3":53.0,"so2":2.4,"mosquito_risk":0,"arthritis_risk":5,"migraine_risk":4,"frizz_risk":1,"updated_at":"2026-06-27T09:11:31.441418+05:30"},{"city":"Vellore","state":"Tamil Nadu","latitude":12.9165,"longitude":79.1325,"temp":30.4,"humidity":57,"rain":0.0,"pressure":983.0,"uv_index":8.9,"wind_gusts":43.6,"aqi":59,"pm10":23.1,"pm2_5":13.4,"no2":6.6,"co":173.0,"o3":67.0,"so2":4.9,"mosquito_risk":0,"arthritis_risk":5,"migraine_risk":7,"frizz_risk":1,"updated_at":"2026-06-27T09:11:31.441425+05:30"},{"city":"Erode","state":"Tamil Nadu","latitude":11.341,"longitude":77.7172,"temp":30.8,"humidity":56,"rain":0.0,"pressure":988.8,"uv_index":8.55,"wind_gusts":44.6,"aqi":50,"pm10":19.0,"pm2_5":13.0,"no2":8.3,"co":203.0,"o3":50.0,"so2":3.8,"mosquito_risk":0,"arthritis_risk":5,"migraine_risk":7,"frizz_risk":1,"updated_at":"2026-06-27T09:11:31.441433+05:30"},{"city":"Kochi","state":"Kerala","latitude":9.9312,"longitude":76.2673,"temp":27.8,"humidity":83,"rain":0.0,"pressure":1009.5,"uv_index":8.55,"wind_gusts":36.0,"aqi":55,"pm10":12.8,"pm2_5":8.9,"no2":5.8,"co":150.0,"o3":50.0,"so2":3.9,"mosquito_risk":7,"arthritis_risk":0,"migraine_risk":4,"frizz_risk":1,"updated_at":"2026-06-27T09:11:31.441441+05:30"},{"city":"Thiruvananthapuram","state":"Kerala","latitude":8.5241,"longitude":76.9366,"temp":27.3,"humidity":84,"rain":0.1,"pressure":1009.0,"uv_index":8.1,"wind_gusts":40.0,"aqi":41,"pm10":17.0,"pm2_5":10.1,"no2":3.7,"co":140.0,"o3":49.0,"so2":2.3,"mosquito_risk":10,"arthritis_risk":0,"migraine_risk":4,"frizz_risk":1,"updated_at":"2026-06-27T09:11:31.441449+05:30"},{"city":"Kozhikode","state":"Kerala","latitude":11.2588,"longitude":75.7804,"temp":27.8,"humidity":84,"rain":0.0,"pressure":1008.5,"uv_index":8.6,"wind_gusts":37.1,"aqi":30,"pm10":11.1,"pm2_5":5.3,"no2":1.1,"co":208.0,"o3":55.0,"so2":1.1,"mosquito_risk":7,"arthritis_risk":0,"migraine_risk":4,"frizz_risk":1,"updated_at":"2026-06-27T09:11:31.441456+05:30"},{"city":"Thrissur","state":"Kerala","latitude":10.5276,"longitude":76.2144,"temp":28.3,"humidity":80,"rain":0.0,"pressure":1007.7,"uv_index":8.55,"wind_gusts":34.6,"aqi":56,"pm10":12.6,"pm2_5":9.1,"no2":4.8,"co":188.0,"o3":54.0,"so2":3.2,"mosquito_risk":7,"arthritis_risk":5,"migraine_risk":4,"frizz_risk":1,"updated_at":"2026-06-27T09:11:31.441464+05:30"},{"city":"Kannur","state":"Kerala","latitude":11.8745,"longitude":75.3704,"temp":27.7,"humidity":83,"rain":0.0,"pressure":1007.7,"uv_index":8.65,"wind_gusts":37.8,"aqi":43,"pm10":14.5,"pm2_5":8.1,"no2":3.7,"co":171.0,"o3":53.0,"so2":2.1,"mosquito_risk":7,"arthritis_risk":5,"migraine_risk":4,"frizz_risk":1,"updated_at":"2026-06-27T09:11:31.441471+05:30"},{"city":"Patna","state":"Bihar","latitude":25.5941,"longitude":85.1376,"temp":34.2,"humidity":57,"rain":0.0,"pressure":997.6,"uv_index":8.8,"wind_gusts":23.4,"aqi":150,"pm10":74.5,"pm2_5":65.0,"no2":10.8,"co":385.0,"o3":156.0,"so2":19.9,"mosquito_risk":0,"arthritis_risk":5,"migraine_risk":7,"frizz_risk":1,"updated_at":"2026-06-27T09:11:31.441478+05:30"},{"city":"Gaya","state":"Bihar","latitude":24.7914,"longitude":85.0002,"temp":34.0,"humidity":58,"rain":0.0,"pressure":991.3,"uv_index":8.6,"wind_gusts":21.2,"aqi":94,"pm10":35.0,"pm2_5":34.2,"no2":4.3,"co":263.0,"o3":140.0,"so2":9.6,"mosquito_risk":0,"arthritis_risk":5,"migraine_risk":7,"frizz_risk":1,"updated_at":"2026-06-27T09:11:31.441485+05:30"},{"city":"Muzaffarpur","state":"Bihar","latitude":26.1209,"longitude":85.3647,"temp":32.0,"humidity":75,"rain":0.0,"pressure":997.7,"uv_index":8.85,"wind_gusts":22.7,"aqi":154,"pm10":69.8,"pm2_5":64.0,"no2":10.2,"co":481.0,"o3":135.0,"so2":18.9,"mosquito_risk":3,"arthritis_risk":5,"migraine_risk":7,"frizz_risk":1,"updated_at":"2026-06-27T09:11:31.441492+05:30"},{"city":"Bhagalpur","state":"Bihar","latitude":25.2425,"longitude":87.0117,"temp":33.9,"humidity":64,"rain":0.0,"pressure":998.1,"uv_index":7.75,"wind_gusts":25.9,"aqi":106,"pm10":34.6,"pm2_5":31.2,"no2":12.0,"co":343.0,"o3":105.0,"so2":28.2,"mosquito_risk":3,"arthritis_risk":5,"migraine_risk":7,"frizz_risk":1,"updated_at":"2026-06-27T09:11:31.441499+05:30"},{"city":"Ranchi","state":"Jharkhand","latitude":23.3441,"longitude":85.3096,"temp":29.9,"humidity":65,"rain":0.0,"pressure":936.7,"uv_index":8.15,"wind_gusts":22.7,"aqi":99,"pm10":36.3,"pm2_5":33.5,"no2":4.3,"co":392.0,"o3":139.0,"so2":20.9,"mosquito_risk":7,"arthritis_risk":5,"migraine_risk":7,"frizz_risk":1,"updated_at":"2026-06-27T09:11:31.441506+05:30"},{"city":"Jamshedpur","state":"Jharkhand","latitude":22.8046,"longitude":86.2029,"temp":31.1,"humidity":73,"rain":0.0,"pressure":988.9,"uv_index":8.85,"wind_gusts":27.0,"aqi":106,"pm10":45.1,"pm2_5":40.0,"no2":13.9,"co":358.0,"o3":115.0,"so2":31.1,"mosquito_risk":3,"arthritis_risk":5,"migraine_risk":7,"frizz_risk":1,"updated_at":"2026-06-27T09:11:31.441513+05:30"},{"city":"Dhanbad","state":"Jharkhand","latitude":23.7957,"longitude":86.4304,"temp":33.2,"humidity":56,"rain":0.0,"pressure":978.0,"uv_index":8.85,"wind_gusts":27.4,"aqi":152,"pm10":60.3,"pm2_5":56.1,"no2":39.1,"co":660.0,"o3":71.0,"so2":101.6,"mosquito_risk":0,"arthritis_risk":5,"migraine_risk":7,"frizz_risk":1,"updated_at":"2026-06-27T09:11:31.441519+05:30"},{"city":"Bokaro","state":"Jharkhand","latitude":23.6693,"longitude":86.1511,"temp":33.4,"humidity":54,"rain":0.0,"pressure":981.7,"uv_index":9.1,"wind_gusts":31.0,"aqi":153,"pm10":58.9,"pm2_5":54.5,"no2":23.5,"co":304.0,"o3":108.0,"so2":75.9,"mosquito_risk":0,"arthritis_risk":5,"migraine_risk":7,"frizz_risk":1,"updated_at":"2026-06-27T09:11:31.441526+05:30"},{"city":"Bhubaneswar","state":"Odisha","latitude":20.2961,"longitude":85.8245,"temp":30.5,"humidity":80,"rain":0.0,"pressure":1000.3,"uv_index":8.8,"wind_gusts":39.6,"aqi":77,"pm10":25.5,"pm2_5":20.6,"no2":4.7,"co":229.0,"o3":109.0,"so2":7.8,"mosquito_risk":3,"arthritis_risk":5,"migraine_risk":4,"frizz_risk":1,"updated_at":"2026-06-27T09:11:31.441533+05:30"},{"city":"Cuttack","state":"Odisha","latitude":20.4625,"longitude":85.8828,"temp":30.4,"humidity":81,"rain":0.0,"pressure":1002.2,"uv_index":8.85,"wind_gusts":41.0,"aqi":77,"pm10":25.5,"pm2_5":20.6,"no2":4.7,"co":231.0,"o3":109.0,"so2":7.8,"mosquito_risk":3,"arthritis_risk":5,"migraine_risk":4,"frizz_risk":1,"updated_at":"2026-06-27T09:11:31.441539+05:30"},{"city":"Rourkela","state":"Odisha","latitude":22.2604,"longitude":84.8536,"temp":32.7,"humidity":62,"rain":0.0,"pressure":983.0,"uv_index":8.95,"wind_gusts":46.4,"aqi":91,"pm10":30.7,"pm2_5":27.6,"no2":6.2,"co":325.0,"o3":123.0,"so2":23.9,"mosquito_risk":3,"arthritis_risk":5,"migraine_risk":7,"frizz_risk":1,"updated_at":"2026-06-27T09:11:31.441545+05:30"},{"city":"Raipur","state":"Chhattisgarh","latitude":21.2514,"longitude":81.6296,"temp":32.4,"humidity":54,"rain":0.0,"pressure":972.8,"uv_index":8.85,"wind_gusts":36.0,"aqi":105,"pm10":42.4,"pm2_5":40.3,"no2":26.3,"co":588.0,"o3":87.0,"so2":60.1,"mosquito_risk":0,"arthritis_risk":5,"migraine_risk":7,"frizz_risk":1,"updated_at":"2026-06-27T09:11:31.441552+05:30"},{"city":"Bhilai","state":"Chhattisgarh","latitude":21.1938,"longitude":81.3509,"temp":32.1,"humidity":53,"rain":0.0,"pressure":973.3,"uv_index":8.95,"wind_gusts":36.0,"aqi":113,"pm10":38.4,"pm2_5":36.3,"no2":20.2,"co":851.0,"o3":90.0,"so2":49.9,"mosquito_risk":0,"arthritis_risk":5,"migraine_risk":7,"frizz_risk":1,"updated_at":"2026-06-27T09:11:31.441558+05:30"},{"city":"Guwahati","state":"Assam","latitude":26.1158,"longitude":91.7086,"temp":28.9,"humidity":84,"rain":0.0,"pressure":999.6,"uv_index":8.75,"wind_gusts":35.3,"aqi":86,"pm10":20.8,"pm2_5":17.9,"no2":2.6,"co":273.0,"o3":104.0,"so2":3.3,"mosquito_risk":7,"arthritis_risk":5,"migraine_risk":7,"frizz_risk":1,"updated_at":"2026-06-27T09:11:31.441564+05:30"},{"city":"Agartala","state":"Tripura","latitude":23.8315,"longitude":91.2868,"temp":31.0,"humidity":72,"rain":0.0,"pressure":1004.9,"uv_index":8.7,"wind_gusts":33.5,"aqi":67,"pm10":17.1,"pm2_5":13.4,"no2":4.6,"co":161.0,"o3":84.0,"so2":2.3,"mosquito_risk":3,"arthritis_risk":5,"migraine_risk":4,"frizz_risk":1,"updated_at":"2026-06-27T09:11:31.441570+05:30"},{"city":"Shillong","state":"Meghalaya","latitude":25.5788,"longitude":91.8933,"temp":23.9,"humidity":77,"rain":0.0,"pressure":857.9,"uv_index":7.1,"wind_gusts":30.2,"aqi":58,"pm10":7.5,"pm2_5":6.5,"no2":4.2,"co":190.0,"o3":87.0,"so2":2.9,"mosquito_risk":3,"arthritis_risk":5,"migraine_risk":7,"frizz_risk":1,"updated_at":"2026-06-27T09:11:31.441576+05:30"},{"city":"Imphal","state":"Manipur","latitude":24.817,"longitude":93.9368,"temp":27.4,"humidity":73,"rain":0.0,"pressure":922.8,"uv_index":8.05,"wind_gusts":33.1,"aqi":62,"pm10":12.0,"pm2_5":9.1,"no2":1.9,"co":162.0,"o3":92.0,"so2":2.4,"mosquito_risk":7,"arthritis_risk":5,"migraine_risk":7,"frizz_risk":1,"updated_at":"2026-06-27T09:11:31.441582+05:30"},{"city":"Aizawl","state":"Mizoram","latitude":23.7271,"longitude":92.7176,"temp":24.7,"humidity":70,"rain":0.0,"pressure":893.0,"uv_index":7.9,"wind_gusts":26.6,"aqi":56,"pm10":5.3,"pm2_5":4.2,"no2":1.0,"co":120.0,"o3":70.0,"so2":0.7,"mosquito_risk":3,"arthritis_risk":5,"migraine_risk":7,"frizz_risk":1,"updated_at":"2026-06-27T09:11:31.441589+05:30"},{"city":"Kohima","state":"Nagaland","latitude":25.6701,"longitude":94.1077,"temp":22.8,"humidity":88,"rain":0.0,"pressure":855.9,"uv_index":7.65,"wind_gusts":22.0,"aqi":55,"pm10":16.4,"pm2_5":11.6,"no2":1.3,"co":233.0,"o3":103.0,"so2":1.8,"mosquito_risk":3,"arthritis_risk":5,"migraine_risk":7,"frizz_risk":1,"updated_at":"2026-06-27T09:11:31.441596+05:30"},{"city":"Gangtok","state":"Sikkim","latitude":27.3314,"longitude":88.6138,"temp":22.7,"humidity":81,"rain":0.1,"pressure":838.4,"uv_index":8.75,"wind_gusts":38.5,"aqi":75,"pm10":6.5,"pm2_5":5.9,"no2":2.0,"co":368.0,"o3":147.0,"so2":3.5,"mosquito_risk":6,"arthritis_risk":5,"migraine_risk":7,"frizz_risk":1,"updated_at":"2026-06-27T09:11:31.441603+05:30"},{"city":"Siliguri","state":"West Bengal","latitude":26.7271,"longitude":88.3953,"temp":27.7,"humidity":83,"rain":0.0,"pressure":991.2,"uv_index":8.65,"wind_gusts":19.4,"aqi":104,"pm10":22.1,"pm2_5":19.5,"no2":4.0,"co":488.0,"o3":150.0,"so2":4.7,"mosquito_risk":7,"arthritis_risk":5,"migraine_risk":7,"frizz_risk":1,"updated_at":"2026-06-27T09:11:34.669853+05:30"},{"city":"Durgapur","state":"West Bengal","latitude":23.5204,"longitude":87.3119,"temp":31.6,"humidity":74,"rain":0.0,"pressure":992.9,"uv_index":9.05,"wind_gusts":30.2,"aqi":138,"pm10":43.5,"pm2_5":38.0,"no2":20.7,"co":693.0,"o3":75.0,"so2":49.9,"mosquito_risk":3,"arthritis_risk":5,"migraine_risk":7,"frizz_risk":1,"updated_at":"2026-06-27T09:11:34.669886+05:30"},{"city":"Asansol","state":"West Bengal","latitude":23.6739,"longitude":86.9524,"temp":32.2,"humidity":70,"rain":0.0,"pressure":991.5,"uv_index":8.85,"wind_gusts":28.1,"aqi":119,"pm10":42.3,"pm2_5":37.8,"no2":23.7,"co":432.0,"o3":75.0,"so2":54.4,"mosquito_risk":3,"arthritis_risk":5,"migraine_risk":7,"frizz_risk":1,"updated_at":"2026-06-27T09:11:34.669898+05:30"},{"city":"Pondicherry","state":"Puducherry","latitude":11.9139,"longitude":79.8145,"temp":32.3,"humidity":54,"rain":0.0,"pressure":1006.9,"uv_index":8.0,"wind_gusts":41.8,"aqi":77,"pm10":25.3,"pm2_5":19.5,"no2":12.9,"co":342.0,"o3":56.0,"so2":6.6,"mosquito_risk":0,"arthritis_risk":5,"migraine_risk":4,"frizz_risk":1,"updated_at":"2026-06-27T09:11:34.669907+05:30"},{"city":"Port Blair","state":"Andaman and Nicobar Islands","latitude":11.6234,"longitude":92.7265,"temp":27.4,"humidity":88,"rain":0.2,"pressure":1008.4,"uv_index":8.75,"wind_gusts":39.6,"aqi":21,"pm10":3.7,"pm2_5":2.2,"no2":0.3,"co":94.0,"o3":46.0,"so2":0.3,"mosquito_risk":10,"arthritis_risk":0,"migraine_risk":4,"frizz_risk":1,"updated_at":"2026-06-27T09:11:34.669915+05:30"},{"city":"Haridwar","state":"Uttarakhand","latitude":29.9457,"longitude":78.1642,"temp":34.3,"humidity":52,"rain":0.0,"pressure":970.7,"uv_index":7.6,"wind_gusts":26.3,"aqi":152,"pm10":78.9,"pm2_5":33.6,"no2":4.8,"co":277.0,"o3":146.0,"so2":5.2,"mosquito_risk":0,"arthritis_risk":5,"migraine_risk":7,"frizz_risk":1,"updated_at":"2026-06-27T09:11:34.669922+05:30"},{"city":"Rishikesh","state":"Uttarakhand","latitude":30.0869,"longitude":78.2676,"temp":33.1,"humidity":54,"rain":0.0,"pressure":963.8,"uv_index":7.7,"wind_gusts":24.1,"aqi":102,"pm10":52.5,"pm2_5":22.9,"no2":2.8,"co":264.0,"o3":127.0,"so2":1.9,"mosquito_risk":0,"arthritis_risk":5,"migraine_risk":7,"frizz_risk":1,"updated_at":"2026-06-27T09:11:34.669930+05:30"},{"city":"Nainital","state":"Uttarakhand","latitude":29.3919,"longitude":79.4542,"temp":22.9,"humidity":53,"rain":0.1,"pressure":807.9,"uv_index":6.85,"wind_gusts":28.8,"aqi":96,"pm10":102.2,"pm2_5":40.4,"no2":2.0,"co":220.0,"o3":149.0,"so2":5.1,"mosquito_risk":3,"arthritis_risk":5,"migraine_risk":7,"frizz_risk":0,"updated_at":"2026-06-27T09:11:34.669937+05:30"},{"city":"Mussoorie","state":"Uttarakhand","latitude":30.4599,"longitude":78.0664,"temp":21.3,"humidity":73,"rain":0.0,"pressure":804.9,"uv_index":8.15,"wind_gusts":39.2,"aqi":115,"pm10":68.0,"pm2_5":26.8,"no2":4.0,"co":236.0,"o3":147.0,"so2":4.5,"mosquito_risk":3,"arthritis_risk":5,"migraine_risk":7,"frizz_risk":1,"updated_at":"2026-06-27T09:11:34.669944+05:30"},{"city":"Dharamshala","state":"Himachal Pradesh","latitude":32.219,"longitude":76.3234,"temp":26.0,"humidity":60,"rain":0.0,"pressure":869.5,"uv_index":8.5,"wind_gusts":32.4,"aqi":61,"pm10":22.9,"pm2_5":11.9,"no2":2.2,"co":258.0,"o3":106.0,"so2":1.1,"mosquito_risk":4,"arthritis_risk":5,"migraine_risk":7,"frizz_risk":1,"updated_at":"2026-06-27T09:11:34.669951+05:30"},{"city":"Dalhousie","state":"Himachal Pradesh","latitude":32.5387,"longitude":75.971,"temp":22.7,"humidity":67,"rain":0.0,"pressure":806.9,"uv_index":8.55,"wind_gusts":31.0,"aqi":116,"pm10":49.1,"pm2_5":23.2,"no2":5.1,"co":283.0,"o3":129.0,"so2":2.5,"mosquito_risk":3,"arthritis_risk":5,"migraine_risk":7,"frizz_risk":1,"updated_at":"2026-06-27T09:11:34.669959+05:30"},{"city":"Patiala","state":"Punjab","latitude":30.3398,"longitude":76.3869,"temp":35.0,"humidity":46,"rain":0.0,"pressure":974.9,"uv_index":7.7,"wind_gusts":28.4,"aqi":163,"pm10":147.6,"pm2_5":79.9,"no2":13.7,"co":503.0,"o3":121.0,"so2":14.3,"mosquito_risk":0,"arthritis_risk":5,"migraine_risk":7,"frizz_risk":1,"updated_at":"2026-06-27T09:11:34.669966+05:30"},{"city":"Bhatinda","state":"Punjab","latitude":30.211,"longitude":74.9455,"temp":34.5,"humidity":48,"rain":0.0,"pressure":980.2,"uv_index":8.3,"wind_gusts":29.2,"aqi":155,"pm10":114.8,"pm2_5":58.8,"no2":12.0,"co":301.0,"o3":102.0,"so2":10.2,"mosquito_risk":0,"arthritis_risk":5,"migraine_risk":7,"frizz_risk":1,"updated_at":"2026-06-27T09:11:34.669973+05:30"},{"city":"Rohtak","state":"Haryana","latitude":28.8955,"longitude":76.6066,"temp":34.1,"humidity":52,"rain":0.0,"pressure":978.5,"uv_index":7.75,"wind_gusts":28.4,"aqi":157,"pm10":339.9,"pm2_5":101.5,"no2":18.3,"co":398.0,"o3":91.0,"so2":7.8,"mosquito_risk":0,"arthritis_risk":5,"migraine_risk":7,"frizz_risk":1,"updated_at":"2026-06-27T09:11:34.669979+05:30"},{"city":"Panipat","state":"Haryana","latitude":29.3909,"longitude":76.9635,"temp":33.6,"humidity":58,"rain":0.0,"pressure":976.9,"uv_index":7.65,"wind_gusts":23.0,"aqi":240,"pm10":601.6,"pm2_5":145.3,"no2":18.7,"co":640.0,"o3":95.0,"so2":10.2,"mosquito_risk":0,"arthritis_risk":5,"migraine_risk":7,"frizz_risk":1,"updated_at":"2026-06-27T09:11:34.669986+05:30"},{"city":"Mathura","state":"Uttar Pradesh","latitude":27.4924,"longitude":77.6737,"temp":34.8,"humidity":50,"rain":0.0,"pressure":983.4,"uv_index":7.85,"wind_gusts":24.8,"aqi":139,"pm10":128.1,"pm2_5":48.1,"no2":16.1,"co":309.0,"o3":74.0,"so2":6.4,"mosquito_risk":0,"arthritis_risk":5,"migraine_risk":7,"frizz_risk":1,"updated_at":"2026-06-27T09:11:34.669993+05:30"},{"city":"Vrindavan","state":"Uttar Pradesh","latitude":27.5823,"longitude":77.7027,"temp":34.5,"humidity":52,"rain":0.0,"pressure":983.8,"uv_index":8.0,"wind_gusts":22.7,"aqi":139,"pm10":128.1,"pm2_5":48.1,"no2":16.1,"co":301.0,"o3":74.0,"so2":6.4,"mosquito_risk":0,"arthritis_risk":5,"migraine_risk":7,"frizz_risk":1,"updated_at":"2026-06-27T09:11:34.670000+05:30"},{"city":"Ayodhya","state":"Uttar Pradesh","latitude":26.7922,"longitude":82.1998,"temp":32.1,"humidity":66,"rain":0.0,"pressure":992.4,"uv_index":8.0,"wind_gusts":29.2,"aqi":142,"pm10":61.5,"pm2_5":48.0,"no2":8.5,"co":368.0,"o3":122.0,"so2":9.8,"mosquito_risk":3,"arthritis_risk":5,"migraine_risk":7,"frizz_risk":1,"updated_at":"2026-06-27T09:11:34.670007+05:30"},{"city":"Ratlam","state":"Madhya Pradesh","latitude":23.3315,"longitude":75.0367,"temp":29.6,"humidity":68,"rain":0.0,"pressure":953.2,"uv_index":8.45,"wind_gusts":31.0,"aqi":80,"pm10":39.5,"pm2_5":24.4,"no2":7.8,"co":165.0,"o3":45.0,"so2":15.5,"mosquito_risk":7,"arthritis_risk":5,"migraine_risk":7,"frizz_risk":1,"updated_at":"2026-06-27T09:11:34.670014+05:30"},{"city":"Sagar","state":"Madhya Pradesh","latitude":23.8388,"longitude":78.7378,"temp":31.0,"humidity":63,"rain":0.0,"pressure":948.7,"uv_index":8.65,"wind_gusts":36.7,"aqi":63,"pm10":28.3,"pm2_5":20.1,"no2":4.1,"co":203.0,"o3":94.0,"so2":3.1,"mosquito_risk":3,"arthritis_risk":5,"migraine_risk":7,"frizz_risk":1,"updated_at":"2026-06-27T09:11:34.670020+05:30"},{"city":"Satna","state":"Madhya Pradesh","latitude":24.6005,"longitude":80.8322,"temp":32.4,"humidity":55,"rain":0.0,"pressure":969.2,"uv_index":8.3,"wind_gusts":42.1,"aqi":75,"pm10":33.3,"pm2_5":20.4,"no2":3.9,"co":188.0,"o3":103.0,"so2":3.6,"mosquito_risk":0,"arthritis_risk":5,"migraine_risk":7,"frizz_risk":1,"updated_at":"2026-06-27T09:11:34.670028+05:30"},{"city":"Akola","state":"Maharashtra","latitude":20.7002,"longitude":77.0082,"temp":30.0,"humidity":67,"rain":0.0,"pressure":973.7,"uv_index":8.1,"wind_gusts":39.6,"aqi":79,"pm10":50.4,"pm2_5":24.8,"no2":4.8,"co":139.0,"o3":85.0,"so2":5.9,"mosquito_risk":7,"arthritis_risk":5,"migraine_risk":7,"frizz_risk":1,"updated_at":"2026-06-27T09:11:34.670035+05:30"},{"city":"Amravati","state":"Maharashtra","latitude":20.9374,"longitude":77.7796,"temp":29.5,"humidity":70,"rain":0.0,"pressure":965.8,"uv_index":6.4,"wind_gusts":37.4,"aqi":78,"pm10":38.6,"pm2_5":19.6,"no2":5.4,"co":173.0,"o3":81.0,"so2":5.3,"mosquito_risk":7,"arthritis_risk":5,"migraine_risk":7,"frizz_risk":1,"updated_at":"2026-06-27T09:11:34.670043+05:30"},{"city":"Latur","state":"Maharashtra","latitude":18.4088,"longitude":76.5604,"temp":26.9,"humidity":73,"rain":0.0,"pressure":938.9,"uv_index":3.45,"wind_gusts":28.1,"aqi":83,"pm10":28.3,"pm2_5":17.5,"no2":4.7,"co":187.0,"o3":86.0,"so2":9.3,"mosquito_risk":7,"arthritis_risk":5,"migraine_risk":3,"frizz_risk":1,"updated_at":"2026-06-27T09:11:34.670050+05:30"},{"city":"Nanded","state":"Maharashtra","latitude":19.1383,"longitude":77.3091,"temp":26.9,"humidity":86,"rain":0.0,"pressure":967.6,"uv_index":5.1,"wind_gusts":40.0,"aqi":89,"pm10":52.7,"pm2_5":28.3,"no2":5.9,"co":231.0,"o3":80.0,"so2":4.1,"mosquito_risk":7,"arthritis_risk":5,"migraine_risk":3,"frizz_risk":1,"updated_at":"2026-06-27T09:11:34.670057+05:30"},{"city":"Gulbarga","state":"Karnataka","latitude":17.3297,"longitude":76.8343,"temp":28.6,"humidity":66,"rain":0.0,"pressure":957.8,"uv_index":5.75,"wind_gusts":31.7,"aqi":54,"pm10":14.0,"pm2_5":9.3,"no2":5.6,"co":153.0,"o3":56.0,"so2":4.5,"mosquito_risk":7,"arthritis_risk":5,"migraine_risk":3,"frizz_risk":1,"updated_at":"2026-06-27T09:11:34.670064+05:30"},{"city":"Bidar","state":"Karnataka","latitude":17.9104,"longitude":77.5199,"temp":27.7,"humidity":69,"rain":0.0,"pressure":934.7,"uv_index":3.3,"wind_gusts":34.2,"aqi":82,"pm10":48.9,"pm2_5":27.5,"no2":7.3,"co":218.0,"o3":66.0,"so2":4.8,"mosquito_risk":7,"arthritis_risk":5,"migraine_risk":3,"frizz_risk":1,"updated_at":"2026-06-27T09:11:34.670070+05:30"},{"city":"Hospet","state":"Karnataka","latitude":15.2689,"longitude":76.3909,"temp":27.2,"humidity":68,"rain":0.0,"pressure":955.8,"uv_index":6.7,"wind_gusts":52.9,"aqi":29,"pm10":7.3,"pm2_5":4.1,"no2":3.5,"co":127.0,"o3":44.0,"so2":1.8,"mosquito_risk":7,"arthritis_risk":5,"migraine_risk":7,"frizz_risk":1,"updated_at":"2026-06-27T09:11:34.670077+05:30"},{"city":"Tirupur","state":"Tamil Nadu","latitude":11.1085,"longitude":77.3411,"temp":29.2,"humidity":63,"rain":0.0,"pressure":975.0,"uv_index":8.9,"wind_gusts":44.6,"aqi":53,"pm10":20.8,"pm2_5":13.6,"no2":8.2,"co":173.0,"o3":54.0,"so2":4.2,"mosquito_risk":7,"arthritis_risk":5,"migraine_risk":7,"frizz_risk":1,"updated_at":"2026-06-27T09:11:34.670083+05:30"},{"city":"Alappuzha","state":"Kerala","latitude":9.4981,"longitude":76.3388,"temp":26.9,"humidity":87,"rain":0.0,"pressure":1009.8,"uv_index":8.45,"wind_gusts":35.6,"aqi":50,"pm10":15.4,"pm2_5":9.6,"no2":5.6,"co":105.0,"o3":53.0,"so2":3.1,"mosquito_risk":7,"arthritis_risk":0,"migraine_risk":4,"frizz_risk":1,"updated_at":"2026-06-27T09:11:34.670089+05:30"},{"city":"Munnar","state":"Kerala","latitude":10.0889,"longitude":77.0595,"temp":20.2,"humidity":78,"rain":0.0,"pressure":857.9,"uv_index":8.6,"wind_gusts":31.3,"aqi":25,"pm10":11.8,"pm2_5":6.8,"no2":2.2,"co":97.0,"o3":53.0,"so2":1.2,"mosquito_risk":3,"arthritis_risk":5,"migraine_risk":7,"frizz_risk":1,"updated_at":"2026-06-27T09:11:34.670095+05:30"},{"city":"Silchar","state":"Assam","latitude":24.8333,"longitude":92.7789,"temp":28.9,"humidity":82,"rain":0.0,"pressure":1004.2,"uv_index":8.8,"wind_gusts":29.9,"aqi":88,"pm10":12.1,"pm2_5":10.2,"no2":4.7,"co":177.0,"o3":57.0,"so2":4.4,"mosquito_risk":7,"arthritis_risk":5,"migraine_risk":4,"frizz_risk":1,"updated_at":"2026-06-27T09:11:34.670102+05:30"},{"city":"Dibrugarh","state":"Assam","latitude":27.4728,"longitude":94.912,"temp":27.5,"humidity":90,"rain":0.1,"pressure":993.2,"uv_index":7.0,"wind_gusts":30.2,"aqi":74,"pm10":21.6,"pm2_5":17.3,"no2":2.7,"co":311.0,"o3":114.0,"so2":2.8,"mosquito_risk":10,"arthritis_risk":5,"migraine_risk":7,"frizz_risk":1,"updated_at":"2026-06-27T09:11:34.670109+05:30"}]