[{"city":"Delhi","state":"Delhi","latitude":28.6139,"longitude":77.209,"temp":26.2,"humidity":57,"rain":0.0,"pressure":981.7,"uv_index":7.55,"wind_gusts":32.8,"aqi":308,"pm10":465.7,"pm2_5":72.6,"mosquito_risk":4,"arthritis_risk":5,"migraine_risk":7,"frizz_risk":1,"updated_at":"2026-05-01T09:09:53.115863+05:30"},{"city":"Mumbai","state":"Maharashtra","latitude":19.076,"longitude":72.8777,"temp":30.7,"humidity":65,"rain":0.0,"pressure":1009.7,"uv_index":7.9,"wind_gusts":42.8,"aqi":68,"pm10":51.2,"pm2_5":20.0,"mosquito_risk":3,"arthritis_risk":0,"migraine_risk":4,"frizz_risk":1,"updated_at":"2026-05-01T09:09:53.115910+05:30"},{"city":"Bangalore","state":"Karnataka","latitude":12.9716,"longitude":77.5946,"temp":25.9,"humidity":72,"rain":0.0,"pressure":914.6,"uv_index":9.55,"wind_gusts":41.0,"aqi":95,"pm10":38.8,"pm2_5":32.4,"mosquito_risk":7,"arthritis_risk":5,"migraine_risk":7,"frizz_risk":1,"updated_at":"2026-05-01T09:09:53.115924+05:30"},{"city":"Hyderabad","state":"Telangana","latitude":17.385,"longitude":78.4867,"temp":32.5,"humidity":26,"rain":0.0,"pressure":954.6,"uv_index":9.3,"wind_gusts":38.2,"aqi":72,"pm10":32.2,"pm2_5":21.7,"mosquito_risk":0,"arthritis_risk":5,"migraine_risk":7,"frizz_risk":0,"updated_at":"2026-05-01T09:09:53.115934+05:30"},{"city":"Chennai","state":"Tamil Nadu","latitude":13.0827,"longitude":80.2707,"temp":33.8,"humidity":57,"rain":0.0,"pressure":1008.4,"uv_index":9.25,"wind_gusts":55.8,"aqi":45,"pm10":13.5,"pm2_5":11.0,"mosquito_risk":0,"arthritis_risk":0,"migraine_risk":4,"frizz_risk":1,"updated_at":"2026-05-01T09:09:53.115942+05:30"},{"city":"Kolkata","state":"West Bengal","latitude":22.5726,"longitude":88.3639,"temp":27.1,"humidity":73,"rain":0.0,"pressure":1006.0,"uv_index":8.85,"wind_gusts":30.2,"aqi":59,"pm10":20.3,"pm2_5":17.8,"mosquito_risk":7,"arthritis_risk":5,"migraine_risk":4,"frizz_risk":1,"updated_at":"2026-05-01T09:09:53.115949+05:30"},{"city":"Pune","state":"Maharashtra","latitude":18.5204,"longitude":73.8567,"temp":28.5,"humidity":51,"rain":0.0,"pressure":949.7,"uv_index":8.5,"wind_gusts":49.7,"aqi":56,"pm10":51.8,"pm2_5":18.7,"mosquito_risk":4,"arthritis_risk":5,"migraine_risk":7,"frizz_risk":1,"updated_at":"2026-05-01T09:09:53.115960+05:30"},{"city":"Ahmedabad","state":"Gujarat","latitude":23.0225,"longitude":72.5714,"temp":30.8,"humidity":61,"rain":0.0,"pressure":1001.0,"uv_index":8.1,"wind_gusts":44.3,"aqi":59,"pm10":31.2,"pm2_5":13.1,"mosquito_risk":3,"arthritis_risk":5,"migraine_risk":4,"frizz_risk":1,"updated_at":"2026-05-01T09:09:53.115967+05:30"},{"city":"Jaipur","state":"Rajasthan","latitude":26.9124,"longitude":75.7873,"temp":30.4,"humidity":33,"rain":0.0,"pressure":957.1,"uv_index":8.1,"wind_gusts":42.8,"aqi":179,"pm10":293.4,"pm2_5":46.2,"mosquito_risk":0,"arthritis_risk":5,"migraine_risk":7,"frizz_risk":0,"updated_at":"2026-05-01T09:09:53.115973+05:30"},{"city":"Lucknow","state":"Uttar Pradesh","latitude":26.8467,"longitude":80.9462,"temp":26.6,"humidity":66,"rain":0.0,"pressure":993.7,"uv_index":8.0,"wind_gusts":31.0,"aqi":96,"pm10":48.9,"pm2_5":32.2,"mosquito_risk":7,"arthritis_risk":5,"migraine_risk":7,"frizz_risk":1,"updated_at":"2026-05-01T09:09:53.115980+05:30"},{"city":"Kanpur","state":"Uttar Pradesh","latitude":26.4499,"longitude":80.3319,"temp":28.0,"humidity":60,"rain":0.0,"pressure":991.3,"uv_index":8.05,"wind_gusts":32.0,"aqi":125,"pm10":343.7,"pm2_5":57.5,"mosquito_risk":4,"arthritis_risk":5,"migraine_risk":7,"frizz_risk":1,"updated_at":"2026-05-01T09:09:53.115986+05:30"},{"city":"Chandigarh","state":"Chandigarh","latitude":30.7333,"longitude":76.7794,"temp":26.7,"humidity":57,"rain":0.0,"pressure":967.7,"uv_index":7.6,"wind_gusts":33.1,"aqi":73,"pm10":116.6,"pm2_5":29.9,"mosquito_risk":4,"arthritis_risk":5,"migraine_risk":7,"frizz_risk":1,"updated_at":"2026-05-01T09:09:53.115993+05:30"},{"city":"Srinagar","state":"Jammu and Kashmir","latitude":34.0837,"longitude":74.7973,"temp":12.1,"humidity":90,"rain":0.0,"pressure":841.0,"uv_index":8.75,"wind_gusts":24.5,"aqi":79,"pm10":25.5,"pm2_5":22.2,"mosquito_risk":3,"arthritis_risk":10,"migraine_risk":7,"frizz_risk":0,"updated_at":"2026-05-01T09:09:53.116000+05:30"},{"city":"Jammu","state":"Jammu and Kashmir","latitude":32.7266,"longitude":74.857,"temp":26.8,"humidity":54,"rain":0.0,"pressure":971.3,"uv_index":8.35,"wind_gusts":31.3,"aqi":57,"pm10":20.8,"pm2_5":18.8,"mosquito_risk":4,"arthritis_risk":5,"migraine_risk":7,"frizz_risk":1,"updated_at":"2026-05-01T09:09:53.116006+05:30"},{"city":"Amritsar","state":"Punjab","latitude":31.634,"longitude":74.8723,"temp":27.4,"humidity":52,"rain":0.0,"pressure":979.1,"uv_index":8.25,"wind_gusts":40.0,"aqi":84,"pm10":178.3,"pm2_5":54.6,"mosquito_risk":4,"arthritis_risk":5,"migraine_risk":7,"frizz_risk":1,"updated_at":"2026-05-01T09:09:53.116012+05:30"},{"city":"Ludhiana","state":"Punjab","latitude":30.901,"longitude":75.8573,"temp":26.9,"humidity":58,"rain":0.0,"pressure":977.3,"uv_index":7.85,"wind_gusts":32.4,"aqi":129,"pm10":173.2,"pm2_5":43.4,"mosquito_risk":4,"arthritis_risk":5,"migraine_risk":7,"frizz_risk":1,"updated_at":"2026-05-01T09:09:53.116017+05:30"},{"city":"Jalandhar","state":"Punjab","latitude":31.326,"longitude":75.5762,"temp":26.5,"humidity":58,"rain":0.0,"pressure":978.4,"uv_index":8.0,"wind_gusts":31.3,"aqi":96,"pm10":101.0,"pm2_5":38.0,"mosquito_risk":4,"arthritis_risk":5,"migraine_risk":7,"frizz_risk":1,"updated_at":"2026-05-01T09:09:53.116026+05:30"},{"city":"Dehradun","state":"Uttarakhand","latitude":30.6284,"longitude":78.0322,"temp":17.7,"humidity":65,"rain":0.0,"pressure":829.4,"uv_index":8.0,"wind_gusts":34.9,"aqi":53,"pm10":19.7,"pm2_5":8.1,"mosquito_risk":3,"arthritis_risk":5,"migraine_risk":7,"frizz_risk":0,"updated_at":"2026-05-01T09:09:53.116032+05:30"},{"city":"Shimla","state":"Himachal Pradesh","latitude":31.1048,"longitude":77.1734,"temp":16.0,"humidity":50,"rain":0.0,"pressure":783.7,"uv_index":8.1,"wind_gusts":47.2,"aqi":58,"pm10":35.3,"pm2_5":13.5,"mosquito_risk":0,"arthritis_risk":5,"migraine_risk":7,"frizz_risk":0,"updated_at":"2026-05-01T09:09:53.116038+05:30"},{"city":"Manali","state":"Himachal Pradesh","latitude":32.2396,"longitude":77.1887,"temp":16.3,"humidity":39,"rain":0.0,"pressure":816.0,"uv_index":9.5,"wind_gusts":41.8,"aqi":44,"pm10":4.0,"pm2_5":3.9,"mosquito_risk":0,"arthritis_risk":5,"migraine_risk":7,"frizz_risk":0,"updated_at":"2026-05-01T09:09:53.116044+05:30"},{"city":"Gurgaon","state":"Haryana","latitude":28.4595,"longitude":77.0266,"temp":26.7,"humidity":54,"rain":0.0,"pressure":979.9,"uv_index":7.7,"wind_gusts":34.9,"aqi":1320,"pm10":2585.4,"pm2_5":273.8,"mosquito_risk":4,"arthritis_risk":5,"migraine_risk":7,"frizz_risk":1,"updated_at":"2026-05-01T09:09:53.116050+05:30"},{"city":"Noida","state":"Uttar Pradesh","latitude":28.5355,"longitude":77.391,"temp":26.2,"humidity":60,"rain":0.0,"pressure":983.4,"uv_index":7.6,"wind_gusts":32.0,"aqi":1320,"pm10":2585.4,"pm2_5":273.8,"mosquito_risk":4,"arthritis_risk":5,"migraine_risk":7,"frizz_risk":1,"updated_at":"2026-05-01T09:09:53.116056+05:30"},{"city":"Ghaziabad","state":"Uttar Pradesh","latitude":28.6692,"longitude":77.4538,"temp":26.1,"humidity":62,"rain":0.0,"pressure":981.7,"uv_index":7.4,"wind_gusts":34.6,"aqi":197,"pm10":360.4,"pm2_5":51.1,"mosquito_risk":7,"arthritis_risk":5,"migraine_risk":7,"frizz_risk":1,"updated_at":"2026-05-01T09:09:53.116061+05:30"},{"city":"Faridabad","state":"Haryana","latitude":28.4089,"longitude":77.3178,"temp":25.9,"humidity":58,"rain":0.0,"pressure":982.6,"uv_index":7.65,"wind_gusts":33.8,"aqi":1320,"pm10":2585.4,"pm2_5":273.8,"mosquito_risk":4,"arthritis_risk":5,"migraine_risk":7,"frizz_risk":1,"updated_at":"2026-05-01T09:09:53.116072+05:30"},{"city":"Meerut","state":"Uttar Pradesh","latitude":28.9845,"longitude":77.7064,"temp":25.5,"humidity":66,"rain":0.0,"pressure":981.0,"uv_index":7.5,"wind_gusts":38.5,"aqi":197,"pm10":360.4,"pm2_5":51.1,"mosquito_risk":7,"arthritis_risk":5,"migraine_risk":7,"frizz_risk":1,"updated_at":"2026-05-01T09:09:53.116078+05:30"},{"city":"Agra","state":"Uttar Pradesh","latitude":27.1767,"longitude":78.0081,"temp":28.3,"humidity":50,"rain":0.0,"pressure":986.4,"uv_index":7.9,"wind_gusts":28.4,"aqi":481,"pm10":1397.0,"pm2_5":150.4,"mosquito_risk":4,"arthritis_risk":5,"migraine_risk":7,"frizz_risk":1,"updated_at":"2026-05-01T09:09:53.116085+05:30"},{"city":"Varanasi","state":"Uttar Pradesh","latitude":25.3176,"longitude":82.9739,"temp":29.4,"humidity":53,"rain":0.0,"pressure":997.3,"uv_index":8.55,"wind_gusts":27.7,"aqi":92,"pm10":50.1,"pm2_5":41.6,"mosquito_risk":4,"arthritis_risk":5,"migraine_risk":7,"frizz_risk":1,"updated_at":"2026-05-01T09:09:53.116093+05:30"},{"city":"Prayagraj","state":"Uttar Pradesh","latitude":25.4358,"longitude":81.8463,"temp":29.7,"humidity":52,"rain":0.0,"pressure":995.6,"uv_index":8.4,"wind_gusts":28.4,"aqi":94,"pm10":45.4,"pm2_5":36.7,"mosquito_risk":4,"arthritis_risk":5,"migraine_risk":7,"frizz_risk":1,"updated_at":"2026-05-01T09:09:53.116099+05:30"},{"city":"Gorakhpur","state":"Uttar Pradesh","latitude":26.7606,"longitude":83.3732,"temp":22.6,"humidity":80,"rain":0.0,"pressure":998.9,"uv_index":8.3,"wind_gusts":37.1,"aqi":78,"pm10":41.2,"pm2_5":23.9,"mosquito_risk":3,"arthritis_risk":5,"migraine_risk":7,"frizz_risk":1,"updated_at":"2026-05-01T09:09:53.116105+05:30"},{"city":"Bareilly","state":"Uttar Pradesh","latitude":28.367,"longitude":79.4304,"temp":26.1,"humidity":62,"rain":0.0,"pressure":987.1,"uv_index":7.85,"wind_gusts":33.1,"aqi":116,"pm10":65.2,"pm2_5":25.7,"mosquito_risk":7,"arthritis_risk":5,"migraine_risk":7,"frizz_risk":1,"updated_at":"2026-05-01T09:09:53.116110+05:30"},{"city":"Aligarh","state":"Uttar Pradesh","latitude":27.8974,"longitude":78.088,"temp":26.8,"humidity":59,"rain":0.0,"pressure":984.8,"uv_index":7.75,"wind_gusts":34.6,"aqi":615,"pm10":1374.6,"pm2_5":154.1,"mosquito_risk":4,"arthritis_risk":5,"migraine_risk":7,"frizz_risk":1,"updated_at":"2026-05-01T09:09:53.116116+05:30"},{"city":"Moradabad","state":"Uttar Pradesh","latitude":28.8386,"longitude":78.7733,"temp":25.8,"humidity":66,"rain":0.0,"pressure":983.7,"uv_index":7.7,"wind_gusts":36.0,"aqi":106,"pm10":94.8,"pm2_5":30.4,"mosquito_risk":7,"arthritis_risk":5,"migraine_risk":7,"frizz_risk":1,"updated_at":"2026-05-01T09:09:53.116121+05:30"},{"city":"Saharanpur","state":"Uttar Pradesh","latitude":29.9637,"longitude":77.546,"temp":25.0,"humidity":71,"rain":0.0,"pressure":975.2,"uv_index":7.3,"wind_gusts":34.6,"aqi":100,"pm10":101.0,"pm2_5":33.6,"mosquito_risk":7,"arthritis_risk":5,"migraine_risk":7,"frizz_risk":1,"updated_at":"2026-05-01T09:09:53.116127+05:30"},{"city":"Jhansi","state":"Uttar Pradesh","latitude":25.4484,"longitude":78.5685,"temp":31.5,"humidity":43,"rain":0.0,"pressure":975.9,"uv_index":8.35,"wind_gusts":46.4,"aqi":76,"pm10":44.9,"pm2_5":19.6,"mosquito_risk":0,"arthritis_risk":5,"migraine_risk":7,"frizz_risk":1,"updated_at":"2026-05-01T09:09:56.485359+05:30"},{"city":"Surat","state":"Gujarat","latitude":21.1702,"longitude":72.8311,"temp":31.5,"humidity":63,"rain":0.0,"pressure":1006.7,"uv_index":7.7,"wind_gusts":53.6,"aqi":65,"pm10":40.4,"pm2_5":19.4,"mosquito_risk":3,"arthritis_risk":5,"migraine_risk":4,"frizz_risk":1,"updated_at":"2026-05-01T09:09:56.485384+05:30"},{"city":"Vadodara","state":"Gujarat","latitude":22.3072,"longitude":73.1812,"temp":31.0,"humidity":62,"rain":0.0,"pressure":1003.7,"uv_index":8.1,"wind_gusts":49.7,"aqi":59,"pm10":31.4,"pm2_5":14.6,"mosquito_risk":3,"arthritis_risk":5,"migraine_risk":4,"frizz_risk":1,"updated_at":"2026-05-01T09:09:56.485396+05:30"},{"city":"Rajkot","state":"Gujarat","latitude":22.3039,"longitude":70.8022,"temp":31.2,"humidity":62,"rain":0.0,"pressure":993.0,"uv_index":7.7,"wind_gusts":56.9,"aqi":53,"pm10":22.4,"pm2_5":10.2,"mosquito_risk":3,"arthritis_risk":5,"migraine_risk":7,"frizz_risk":1,"updated_at":"2026-05-01T09:09:56.485406+05:30"},{"city":"Thane","state":"Maharashtra","latitude":19.2183,"longitude":72.9781,"temp":31.4,"humidity":63,"rain":0.0,"pressure":1009.0,"uv_index":7.9,"wind_gusts":39.6,"aqi":68,"pm10":51.2,"pm2_5":20.0,"mosquito_risk":3,"arthritis_risk":0,"migraine_risk":4,"frizz_risk":1,"updated_at":"2026-05-01T09:09:56.485415+05:30"},{"city":"Nagpur","state":"Maharashtra","latitude":21.1458,"longitude":79.0882,"temp":33.8,"humidity":28,"rain":0.0,"pressure":973.4,"uv_index":8.9,"wind_gusts":38.9,"aqi":64,"pm10":51.2,"pm2_5":27.2,"mosquito_risk":0,"arthritis_risk":5,"migraine_risk":7,"frizz_risk":0,"updated_at":"2026-05-01T09:09:56.485423+05:30"},{"city":"Nashik","state":"Maharashtra","latitude":19.9975,"longitude":73.7898,"temp":28.5,"humidity":55,"rain":0.0,"pressure":946.4,"uv_index":8.2,"wind_gusts":52.6,"aqi":63,"pm10":45.3,"pm2_5":19.6,"mosquito_risk":4,"arthritis_risk":5,"migraine_risk":7,"frizz_risk":1,"updated_at":"2026-05-01T09:09:56.485431+05:30"},{"city":"Aurangabad","state":"Maharashtra","latitude":19.8762,"longitude":75.3433,"temp":29.2,"humidity":45,"rain":0.0,"pressure":945.7,"uv_index":9.05,"wind_gusts":50.0,"aqi":55,"pm10":43.4,"pm2_5":17.3,"mosquito_risk":4,"arthritis_risk":5,"migraine_risk":7,"frizz_risk":1,"updated_at":"2026-05-01T09:09:56.485439+05:30"},{"city":"Solapur","state":"Maharashtra","latitude":17.6599,"longitude":75.9064,"temp":31.4,"humidity":30,"rain":0.0,"pressure":959.2,"uv_index":9.1,"wind_gusts":46.1,"aqi":54,"pm10":48.0,"pm2_5":16.6,"mosquito_risk":0,"arthritis_risk":5,"migraine_risk":7,"frizz_risk":0,"updated_at":"2026-05-01T09:09:56.485447+05:30"},{"city":"Kolhapur","state":"Maharashtra","latitude":16.705,"longitude":74.2433,"temp":28.5,"humidity":52,"rain":0.0,"pressure":950.1,"uv_index":8.95,"wind_gusts":45.7,"aqi":59,"pm10":35.4,"pm2_5":19.3,"mosquito_risk":4,"arthritis_risk":5,"migraine_risk":7,"frizz_risk":1,"updated_at":"2026-05-01T09:09:56.485455+05:30"},{"city":"Goa","state":"Goa","latitude":15.2993,"longitude":74.124,"temp":30.8,"humidity":71,"rain":0.0,"pressure":1000.0,"uv_index":8.95,"wind_gusts":37.8,"aqi":63,"pm10":28.4,"pm2_5":16.4,"mosquito_risk":3,"arthritis_risk":5,"migraine_risk":4,"frizz_risk":1,"updated_at":"2026-05-01T09:09:56.485462+05:30"},{"city":"Jodhpur","state":"Rajasthan","latitude":26.2389,"longitude":73.0243,"temp":31.6,"humidity":42,"rain":0.0,"pressure":979.8,"uv_index":8.3,"wind_gusts":55.8,"aqi":147,"pm10":188.6,"pm2_5":31.5,"mosquito_risk":0,"arthritis_risk":5,"migraine_risk":7,"frizz_risk":1,"updated_at":"2026-05-01T09:09:56.485470+05:30"},{"city":"Udaipur","state":"Rajasthan","latitude":24.5854,"longitude":73.7125,"temp":29.1,"humidity":49,"rain":0.0,"pressure":945.1,"uv_index":8.75,"wind_gusts":43.9,"aqi":63,"pm10":33.2,"pm2_5":12.7,"mosquito_risk":4,"arthritis_risk":5,"migraine_risk":7,"frizz_risk":1,"updated_at":"2026-05-01T09:09:56.485478+05:30"},{"city":"Kota","state":"Rajasthan","latitude":25.2138,"longitude":75.8648,"temp":33.2,"humidity":42,"rain":0.0,"pressure":976.5,"uv_index":8.3,"wind_gusts":42.5,"aqi":70,"pm10":23.3,"pm2_5":14.1,"mosquito_risk":0,"arthritis_risk":5,"migraine_risk":7,"frizz_risk":1,"updated_at":"2026-05-01T09:09:56.485486+05:30"},{"city":"Bikaner","state":"Rajasthan","latitude":28.0229,"longitude":73.3119,"temp":32.2,"humidity":22,"rain":0.0,"pressure":977.5,"uv_index":8.25,"wind_gusts":30.6,"aqi":81,"pm10":143.0,"pm2_5":39.0,"mosquito_risk":0,"arthritis_risk":5,"migraine_risk":7,"frizz_risk":0,"updated_at":"2026-05-01T09:09:56.485493+05:30"},{"city":"Ajmer","state":"Rajasthan","latitude":26.4499,"longitude":74.6399,"temp":31.2,"humidity":38,"rain":0.0,"pressure":952.0,"uv_index":8.25,"wind_gusts":51.5,"aqi":76,"pm10":71.0,"pm2_5":19.7,"mosquito_risk":0,"arthritis_risk":5,"migraine_risk":7,"frizz_risk":0,"updated_at":"2026-05-01T09:09:56.485500+05:30"},{"city":"Gwalior","state":"Madhya Pradesh","latitude":26.2183,"longitude":78.1828,"temp":29.5,"humidity":48,"rain":0.0,"pressure":981.1,"uv_index":8.15,"wind_gusts":35.3,"aqi":76,"pm10":75.0,"pm2_5":24.7,"mosquito_risk":4,"arthritis_risk":5,"migraine_risk":7,"frizz_risk":1,"updated_at":"2026-05-01T09:09:56.485508+05:30"},{"city":"Indore","state":"Madhya Pradesh","latitude":22.7196,"longitude":75.8577,"temp":30.1,"humidity":51,"rain":0.0,"pressure":948.0,"uv_index":8.65,"wind_gusts":42.1,"aqi":61,"pm10":30.6,"pm2_5":15.5,"mosquito_risk":0,"arthritis_risk":5,"migraine_risk":7,"frizz_risk":1,"updated_at":"2026-05-01T09:09:56.485515+05:30"},{"city":"Bhopal","state":"Madhya Pradesh","latitude":23.2599,"longitude":77.4126,"temp":33.0,"humidity":32,"rain":0.0,"pressure":953.2,"uv_index":8.65,"wind_gusts":40.7,"aqi":69,"pm10":37.7,"pm2_5":20.2,"mosquito_risk":0,"arthritis_risk":5,"migraine_risk":7,"frizz_risk":0,"updated_at":"2026-05-01T09:09:56.485523+05:30"},{"city":"Jabalpur","state":"Madhya Pradesh","latitude":23.1815,"longitude":79.9864,"temp":32.5,"humidity":33,"rain":0.0,"pressure":961.0,"uv_index":8.8,"wind_gusts":38.9,"aqi":59,"pm10":48.1,"pm2_5":20.4,"mosquito_risk":0,"arthritis_risk":5,"migraine_risk":7,"frizz_risk":0,"updated_at":"2026-05-01T09:09:56.485531+05:30"},{"city":"Ujjain","state":"Madhya Pradesh","latitude":23.1765,"longitude":75.7885,"temp":30.1,"humidity":53,"rain":0.0,"pressure":953.4,"uv_index":8.55,"wind_gusts":42.8,"aqi":61,"pm10":29.5,"pm2_5":14.8,"mosquito_risk":0,"arthritis_risk":5,"migraine_risk":7,"frizz_risk":1,"updated_at":"2026-05-01T09:09:56.485539+05:30"},{"city":"Visakhapatnam","state":"Andhra Pradesh","latitude":17.6868,"longitude":83.2185,"temp":32.2,"humidity":64,"rain":0.0,"pressure":1004.5,"uv_index":9.15,"wind_gusts":50.4,"aqi":55,"pm10":15.5,"pm2_5":12.0,"mosquito_risk":3,"arthritis_risk":5,"migraine_risk":4,"frizz_risk":1,"updated_at":"2026-05-01T09:09:56.485546+05:30"},{"city":"Vijayawada","state":"Andhra Pradesh","latitude":16.5062,"longitude":80.648,"temp":34.0,"humidity":62,"rain":0.0,"pressure":1002.2,"uv_index":9.2,"wind_gusts":37.4,"aqi":62,"pm10":18.1,"pm2_5":16.4,"mosquito_risk":3,"arthritis_risk":5,"migraine_risk":4,"frizz_risk":1,"updated_at":"2026-05-01T09:09:56.485554+05:30"},{"city":"Guntur","state":"Andhra Pradesh","latitude":16.3067,"longitude":80.4365,"temp":35.4,"humidity":52,"rain":0.0,"pressure":1003.6,"uv_index":9.2,"wind_gusts":38.5,"aqi":68,"pm10":22.8,"pm2_5":20.7,"mosquito_risk":0,"arthritis_risk":5,"migraine_risk":7,"frizz_risk":1,"updated_at":"2026-05-01T09:09:56.485561+05:30"},{"city":"Nellore","state":"Andhra Pradesh","latitude":14.4426,"longitude":79.9865,"temp":35.4,"humidity":47,"rain":0.0,"pressure":1006.3,"uv_index":9.25,"wind_gusts":47.2,"aqi":55,"pm10":30.5,"pm2_5":25.8,"mosquito_risk":0,"arthritis_risk":5,"migraine_risk":7,"frizz_risk":1,"updated_at":"2026-05-01T09:09:56.485569+05:30"},{"city":"Kurnool","state":"Andhra Pradesh","latitude":15.8281,"longitude":78.0373,"temp":33.9,"humidity":40,"rain":0.0,"pressure":978.5,"uv_index":9.2,"wind_gusts":38.5,"aqi":74,"pm10":21.0,"pm2_5":14.0,"mosquito_risk":0,"arthritis_risk":5,"migraine_risk":7,"frizz_risk":1,"updated_at":"2026-05-01T09:09:56.485578+05:30"},{"city":"Kakinada","state":"Andhra Pradesh","latitude":16.9891,"longitude":82.2475,"temp":30.9,"humidity":71,"rain":0.0,"pressure":1008.0,"uv_index":9.15,"wind_gusts":51.5,"aqi":46,"pm10":15.1,"pm2_5":10.6,"mosquito_risk":3,"arthritis_risk":0,"migraine_risk":4,"frizz_risk":1,"updated_at":"2026-05-01T09:09:56.485585+05:30"},{"city":"Tirupati","state":"Andhra Pradesh","latitude":13.6288,"longitude":79.4192,"temp":33.8,"humidity":50,"rain":0.0,"pressure":992.7,"uv_index":9.3,"wind_gusts":30.6,"aqi":71,"pm10":42.5,"pm2_5":35.2,"mosquito_risk":0,"arthritis_risk":5,"migraine_risk":7,"frizz_risk":1,"updated_at":"2026-05-01T09:09:56.485593+05:30"},{"city":"Warangal","state":"Telangana","latitude":17.9689,"longitude":79.5941,"temp":34.1,"humidity":36,"rain":0.0,"pressure":978.9,"uv_index":9.15,"wind_gusts":36.4,"aqi":85,"pm10":24.6,"pm2_5":22.2,"mosquito_risk":0,"arthritis_risk":5,"migraine_risk":7,"frizz_risk":1,"updated_at":"2026-05-01T09:09:56.485600+05:30"},{"city":"Nizamabad","state":"Telangana","latitude":18.6725,"longitude":78.0941,"temp":32.7,"humidity":29,"rain":0.0,"pressure":966.0,"uv_index":9.15,"wind_gusts":34.6,"aqi":69,"pm10":28.0,"pm2_5":16.9,"mosquito_risk":0,"arthritis_risk":5,"migraine_risk":7,"frizz_risk":0,"updated_at":"2026-05-01T09:09:56.485608+05:30"},{"city":"Mysore","state":"Karnataka","latitude":12.2958,"longitude":76.6396,"temp":27.5,"humidity":65,"rain":0.0,"pressure":931.5,"uv_index":9.4,"wind_gusts":50.4,"aqi":73,"pm10":27.1,"pm2_5":20.4,"mosquito_risk":7,"arthritis_risk":5,"migraine_risk":7,"frizz_risk":1,"updated_at":"2026-05-01T09:09:56.485616+05:30"},{"city":"Mangalore","state":"Karnataka","latitude":12.9141,"longitude":74.856,"temp":31.2,"humidity":64,"rain":0.0,"pressure":1009.1,"uv_index":8.85,"wind_gusts":36.0,"aqi":67,"pm10":34.5,"pm2_5":19.3,"mosquito_risk":3,"arthritis_risk":0,"migraine_risk":4,"frizz_risk":1,"updated_at":"2026-05-01T09:09:56.485624+05:30"},{"city":"Hubli-Dharwad","state":"Karnataka","latitude":15.3647,"longitude":75.124,"temp":28.2,"humidity":66,"rain":0.0,"pressure":943.3,"uv_index":9.2,"wind_gusts":49.3,"aqi":56,"pm10":23.0,"pm2_5":15.5,"mosquito_risk":7,"arthritis_risk":5,"migraine_risk":7,"frizz_risk":1,"updated_at":"2026-05-01T09:09:56.485632+05:30"},{"city":"Belgaum","state":"Karnataka","latitude":15.8497,"longitude":74.4977,"temp":27.3,"humidity":54,"rain":0.0,"pressure":928.3,"uv_index":9.2,"wind_gusts":43.9,"aqi":54,"pm10":28.4,"pm2_5":13.6,"mosquito_risk":4,"arthritis_risk":5,"migraine_risk":7,"frizz_risk":1,"updated_at":"2026-05-01T09:09:59.861277+05:30"},{"city":"Coimbatore","state":"Tamil Nadu","latitude":11.0168,"longitude":76.9558,"temp":29.5,"humidity":60,"rain":0.0,"pressure":964.7,"uv_index":9.3,"wind_gusts":49.0,"aqi":61,"pm10":20.7,"pm2_5":14.9,"mosquito_risk":4,"arthritis_risk":5,"migraine_risk":7,"frizz_risk":1,"updated_at":"2026-05-01T09:09:59.861298+05:30"},{"city":"Madurai","state":"Tamil Nadu","latitude":9.9252,"longitude":78.1198,"temp":33.7,"humidity":45,"rain":0.0,"pressure":995.4,"uv_index":9.15,"wind_gusts":51.8,"aqi":75,"pm10":28.2,"pm2_5":25.8,"mosquito_risk":0,"arthritis_risk":5,"migraine_risk":7,"frizz_risk":1,"updated_at":"2026-05-01T09:09:59.861307+05:30"},{"city":"Trichy","state":"Tamil Nadu","latitude":10.7905,"longitude":78.7047,"temp":32.9,"humidity":55,"rain":0.0,"pressure":1002.0,"uv_index":8.8,"wind_gusts":43.9,"aqi":61,"pm10":30.9,"pm2_5":25.4,"mosquito_risk":0,"arthritis_risk":5,"migraine_risk":4,"frizz_risk":1,"updated_at":"2026-05-01T09:09:59.861315+05:30"},{"city":"Salem","state":"Tamil Nadu","latitude":11.6643,"longitude":78.146,"temp":31.8,"humidity":52,"rain":0.0,"pressure":979.9,"uv_index":9.25,"wind_gusts":47.5,"aqi":96,"pm10":47.7,"pm2_5":36.3,"mosquito_risk":0,"arthritis_risk":5,"migraine_risk":7,"frizz_risk":1,"updated_at":"2026-05-01T09:09:59.861322+05:30"},{"city":"Tirunelveli","state":"Tamil Nadu","latitude":8.7139,"longitude":77.7567,"temp":32.8,"humidity":52,"rain":0.0,"pressure":1005.6,"uv_index":9.1,"wind_gusts":38.9,"aqi":45,"pm10":10.7,"pm2_5":9.4,"mosquito_risk":0,"arthritis_risk":5,"migraine_risk":4,"frizz_risk":1,"updated_at":"2026-05-01T09:09:59.861328+05:30"},{"city":"Vellore","state":"Tamil Nadu","latitude":12.9165,"longitude":79.1325,"temp":34.0,"humidity":41,"rain":0.0,"pressure":986.4,"uv_index":9.35,"wind_gusts":58.7,"aqi":85,"pm10":49.7,"pm2_5":40.3,"mosquito_risk":0,"arthritis_risk":5,"migraine_risk":7,"frizz_risk":1,"updated_at":"2026-05-01T09:09:59.861334+05:30"},{"city":"Erode","state":"Tamil Nadu","latitude":11.341,"longitude":77.7172,"temp":32.2,"humidity":50,"rain":0.0,"pressure":991.6,"uv_index":8.1,"wind_gusts":45.4,"aqi":79,"pm10":25.3,"pm2_5":19.7,"mosquito_risk":0,"arthritis_risk":5,"migraine_risk":7,"frizz_risk":1,"updated_at":"2026-05-01T09:09:59.861340+05:30"},{"city":"Kochi","state":"Kerala","latitude":9.9312,"longitude":76.2673,"temp":29.0,"humidity":79,"rain":0.0,"pressure":1011.3,"uv_index":8.95,"wind_gusts":37.4,"aqi":56,"pm10":18.3,"pm2_5":14.6,"mosquito_risk":7,"arthritis_risk":0,"migraine_risk":4,"frizz_risk":1,"updated_at":"2026-05-01T09:09:59.861346+05:30"},{"city":"Thiruvananthapuram","state":"Kerala","latitude":8.5241,"longitude":76.9366,"temp":28.0,"humidity":80,"rain":0.0,"pressure":1011.1,"uv_index":8.7,"wind_gusts":32.4,"aqi":38,"pm10":10.9,"pm2_5":8.5,"mosquito_risk":7,"arthritis_risk":0,"migraine_risk":4,"frizz_risk":1,"updated_at":"2026-05-01T09:09:59.861352+05:30"},{"city":"Kozhikode","state":"Kerala","latitude":11.2588,"longitude":75.7804,"temp":29.8,"humidity":72,"rain":0.0,"pressure":1010.3,"uv_index":8.35,"wind_gusts":37.8,"aqi":56,"pm10":27.2,"pm2_5":16.4,"mosquito_risk":7,"arthritis_risk":0,"migraine_risk":4,"frizz_risk":1,"updated_at":"2026-05-01T09:09:59.861358+05:30"},{"city":"Thrissur","state":"Kerala","latitude":10.5276,"longitude":76.2144,"temp":30.8,"humidity":68,"rain":0.0,"pressure":1009.6,"uv_index":8.85,"wind_gusts":36.0,"aqi":63,"pm10":19.2,"pm2_5":14.4,"mosquito_risk":3,"arthritis_risk":0,"migraine_risk":4,"frizz_risk":1,"updated_at":"2026-05-01T09:09:59.861364+05:30"},{"city":"Kannur","state":"Kerala","latitude":11.8745,"longitude":75.3704,"temp":30.6,"humidity":67,"rain":0.0,"pressure":1009.7,"uv_index":8.95,"wind_gusts":35.3,"aqi":69,"pm10":36.2,"pm2_5":20.3,"mosquito_risk":3,"arthritis_risk":0,"migraine_risk":4,"frizz_risk":1,"updated_at":"2026-05-01T09:09:59.861370+05:30"},{"city":"Patna","state":"Bihar","latitude":25.5941,"longitude":85.1376,"temp":26.3,"humidity":70,"rain":0.0,"pressure":1000.6,"uv_index":8.6,"wind_gusts":32.4,"aqi":94,"pm10":43.7,"pm2_5":37.4,"mosquito_risk":7,"arthritis_risk":5,"migraine_risk":4,"frizz_risk":1,"updated_at":"2026-05-01T09:09:59.861376+05:30"},{"city":"Gaya","state":"Bihar","latitude":24.7914,"longitude":85.0002,"temp":28.1,"humidity":55,"rain":0.0,"pressure":993.9,"uv_index":8.7,"wind_gusts":33.8,"aqi":100,"pm10":46.4,"pm2_5":40.4,"mosquito_risk":4,"arthritis_risk":5,"migraine_risk":7,"frizz_risk":1,"updated_at":"2026-05-01T09:09:59.861382+05:30"},{"city":"Muzaffarpur","state":"Bihar","latitude":26.1209,"longitude":85.3647,"temp":25.5,"humidity":73,"rain":0.0,"pressure":1000.9,"uv_index":8.05,"wind_gusts":33.1,"aqi":87,"pm10":37.7,"pm2_5":31.8,"mosquito_risk":7,"arthritis_risk":5,"migraine_risk":4,"frizz_risk":1,"updated_at":"2026-05-01T09:09:59.861388+05:30"},{"city":"Bhagalpur","state":"Bihar","latitude":25.2425,"longitude":87.0117,"temp":27.3,"humidity":67,"rain":0.0,"pressure":1001.2,"uv_index":8.5,"wind_gusts":35.6,"aqi":96,"pm10":24.3,"pm2_5":20.8,"mosquito_risk":7,"arthritis_risk":5,"migraine_risk":4,"frizz_risk":1,"updated_at":"2026-05-01T09:09:59.861393+05:30"},{"city":"Ranchi","state":"Jharkhand","latitude":23.3441,"longitude":85.3096,"temp":27.7,"humidity":48,"rain":0.0,"pressure":937.1,"uv_index":9.2,"wind_gusts":37.4,"aqi":98,"pm10":48.9,"pm2_5":33.2,"mosquito_risk":4,"arthritis_risk":5,"migraine_risk":7,"frizz_risk":0,"updated_at":"2026-05-01T09:09:59.861400+05:30"},{"city":"Jamshedpur","state":"Jharkhand","latitude":22.8046,"longitude":86.2029,"temp":29.6,"humidity":54,"rain":0.0,"pressure":990.0,"uv_index":9.0,"wind_gusts":46.4,"aqi":117,"pm10":51.1,"pm2_5":44.4,"mosquito_risk":4,"arthritis_risk":5,"migraine_risk":7,"frizz_risk":1,"updated_at":"2026-05-01T09:09:59.861405+05:30"},{"city":"Dhanbad","state":"Jharkhand","latitude":23.7957,"longitude":86.4304,"temp":27.0,"humidity":60,"rain":0.0,"pressure":978.8,"uv_index":8.9,"wind_gusts":41.4,"aqi":153,"pm10":71.7,"pm2_5":61.7,"mosquito_risk":4,"arthritis_risk":5,"migraine_risk":7,"frizz_risk":1,"updated_at":"2026-05-01T09:09:59.861411+05:30"},{"city":"Bokaro","state":"Jharkhand","latitude":23.6693,"longitude":86.1511,"temp":29.0,"humidity":48,"rain":0.0,"pressure":982.8,"uv_index":8.95,"wind_gusts":46.4,"aqi":153,"pm10":72.2,"pm2_5":62.4,"mosquito_risk":4,"arthritis_risk":5,"migraine_risk":7,"frizz_risk":1,"updated_at":"2026-05-01T09:09:59.861417+05:30"},{"city":"Bhubaneswar","state":"Odisha","latitude":20.2961,"longitude":85.8245,"temp":31.6,"humidity":65,"rain":0.0,"pressure":1002.0,"uv_index":9.1,"wind_gusts":51.8,"aqi":55,"pm10":14.2,"pm2_5":11.6,"mosquito_risk":3,"arthritis_risk":5,"migraine_risk":4,"frizz_risk":1,"updated_at":"2026-05-01T09:09:59.861422+05:30"},{"city":"Cuttack","state":"Odisha","latitude":20.4625,"longitude":85.8828,"temp":31.0,"humidity":69,"rain":0.0,"pressure":1003.7,"uv_index":9.1,"wind_gusts":62.6,"aqi":55,"pm10":14.2,"pm2_5":11.6,"mosquito_risk":3,"arthritis_risk":5,"migraine_risk":4,"frizz_risk":1,"updated_at":"2026-05-01T09:09:59.861428+05:30"},{"city":"Rourkela","state":"Odisha","latitude":22.2604,"longitude":84.8536,"temp":29.0,"humidity":62,"rain":0.0,"pressure":984.7,"uv_index":8.95,"wind_gusts":48.2,"aqi":111,"pm10":64.7,"pm2_5":40.6,"mosquito_risk":7,"arthritis_risk":5,"migraine_risk":7,"frizz_risk":1,"updated_at":"2026-05-01T09:09:59.861433+05:30"},{"city":"Raipur","state":"Chhattisgarh","latitude":21.2514,"longitude":81.6296,"temp":32.1,"humidity":39,"rain":0.0,"pressure":974.8,"uv_index":8.9,"wind_gusts":45.7,"aqi":89,"pm10":59.0,"pm2_5":48.3,"mosquito_risk":0,"arthritis_risk":5,"migraine_risk":7,"frizz_risk":1,"updated_at":"2026-05-01T09:09:59.861439+05:30"},{"city":"Bhilai","state":"Chhattisgarh","latitude":21.1938,"longitude":81.3509,"temp":31.7,"humidity":41,"rain":0.0,"pressure":975.2,"uv_index":8.95,"wind_gusts":44.3,"aqi":87,"pm10":61.9,"pm2_5":50.8,"mosquito_risk":0,"arthritis_risk":5,"migraine_risk":7,"frizz_risk":1,"updated_at":"2026-05-01T09:09:59.861445+05:30"},{"city":"Guwahati","state":"Assam","latitude":26.1158,"longitude":91.7086,"temp":22.4,"humidity":85,"rain":0.0,"pressure":1002.8,"uv_index":6.9,"wind_gusts":23.4,"aqi":66,"pm10":28.5,"pm2_5":21.8,"mosquito_risk":3,"arthritis_risk":5,"migraine_risk":4,"frizz_risk":1,"updated_at":"2026-05-01T09:09:59.861450+05:30"},{"city":"Agartala","state":"Tripura","latitude":23.8315,"longitude":91.2868,"temp":22.9,"humidity":90,"rain":0.2,"pressure":1006.1,"uv_index":7.7,"wind_gusts":51.8,"aqi":69,"pm10":18.0,"pm2_5":16.3,"mosquito_risk":6,"arthritis_risk":5,"migraine_risk":4,"frizz_risk":1,"updated_at":"2026-05-01T09:09:59.861456+05:30"},{"city":"Shillong","state":"Meghalaya","latitude":25.5788,"longitude":91.8933,"temp":16.4,"humidity":97,"rain":0.4,"pressure":856.0,"uv_index":7.4,"wind_gusts":26.3,"aqi":57,"pm10":20.8,"pm2_5":13.8,"mosquito_risk":6,"arthritis_risk":10,"migraine_risk":7,"frizz_risk":0,"updated_at":"2026-05-01T09:09:59.861462+05:30"},{"city":"Imphal","state":"Manipur","latitude":24.817,"longitude":93.9368,"temp":21.6,"humidity":75,"rain":0.0,"pressure":923.7,"uv_index":3.15,"wind_gusts":24.5,"aqi":74,"pm10":16.8,"pm2_5":12.5,"mosquito_risk":3,"arthritis_risk":5,"migraine_risk":3,"frizz_risk":1,"updated_at":"2026-05-01T09:09:59.861468+05:30"},{"city":"Aizawl","state":"Mizoram","latitude":23.7271,"longitude":92.7176,"temp":16.4,"humidity":95,"rain":0.1,"pressure":892.1,"uv_index":6.5,"wind_gusts":56.9,"aqi":54,"pm10":20.0,"pm2_5":15.9,"mosquito_risk":6,"arthritis_risk":10,"migraine_risk":7,"frizz_risk":0,"updated_at":"2026-05-01T09:09:59.861474+05:30"},{"city":"Kohima","state":"Nagaland","latitude":25.6701,"longitude":94.1077,"temp":19.6,"humidity":74,"rain":0.0,"pressure":855.9,"uv_index":5.6,"wind_gusts":19.1,"aqi":53,"pm10":17.6,"pm2_5":10.0,"mosquito_risk":3,"arthritis_risk":5,"migraine_risk":3,"frizz_risk":0,"updated_at":"2026-05-01T09:09:59.861480+05:30"},{"city":"Gangtok","state":"Sikkim","latitude":27.3314,"longitude":88.6138,"temp":16.2,"humidity":81,"rain":0.1,"pressure":836.8,"uv_index":8.05,"wind_gusts":43.6,"aqi":40,"pm10":15.7,"pm2_5":8.4,"mosquito_risk":6,"arthritis_risk":10,"migraine_risk":7,"frizz_risk":0,"updated_at":"2026-05-01T09:09:59.861486+05:30"},{"city":"Siliguri","state":"West Bengal","latitude":26.7271,"longitude":88.3953,"temp":25.7,"humidity":69,"rain":0.0,"pressure":993.6,"uv_index":6.1,"wind_gusts":34.6,"aqi":67,"pm10":34.0,"pm2_5":22.5,"mosquito_risk":7,"arthritis_risk":5,"migraine_risk":7,"frizz_risk":1,"updated_at":"2026-05-01T09:10:20.443654+05:30"},{"city":"Durgapur","state":"West Bengal","latitude":23.5204,"longitude":87.3119,"temp":26.4,"humidity":75,"rain":0.0,"pressure":994.4,"uv_index":8.45,"wind_gusts":35.6,"aqi":128,"pm10":47.0,"pm2_5":43.3,"mosquito_risk":7,"arthritis_risk":5,"migraine_risk":7,"frizz_risk":1,"updated_at":"2026-05-01T09:10:20.443679+05:30"},{"city":"Asansol","state":"West Bengal","latitude":23.6739,"longitude":86.9524,"temp":27.2,"humidity":66,"rain":0.0,"pressure":992.9,"uv_index":8.65,"wind_gusts":48.2,"aqi":120,"pm10":50.9,"pm2_5":42.6,"mosquito_risk":7,"arthritis_risk":5,"migraine_risk":7,"frizz_risk":1,"updated_at":"2026-05-01T09:10:20.443687+05:30"},{"city":"Pondicherry","state":"Puducherry","latitude":11.9139,"longitude":79.8145,"temp":31.7,"humidity":67,"rain":0.0,"pressure":1010.1,"uv_index":7.25,"wind_gusts":53.3,"aqi":38,"pm10":11.2,"pm2_5":9.3,"mosquito_risk":3,"arthritis_risk":0,"migraine_risk":4,"frizz_risk":1,"updated_at":"2026-05-01T09:10:20.443694+05:30"},{"city":"Port Blair","state":"Andaman and Nicobar Islands","latitude":11.6234,"longitude":92.7265,"temp":32.9,"humidity":54,"rain":0.0,"pressure":1009.6,"uv_index":9.1,"wind_gusts":32.0,"aqi":30,"pm10":7.5,"pm2_5":5.3,"mosquito_risk":0,"arthritis_risk":0,"migraine_risk":4,"frizz_risk":1,"updated_at":"2026-05-01T09:10:20.443701+05:30"},{"city":"Haridwar","state":"Uttarakhand","latitude":29.9457,"longitude":78.1642,"temp":25.6,"humidity":67,"rain":0.0,"pressure":973.7,"uv_index":7.4,"wind_gusts":29.2,"aqi":87,"pm10":96.4,"pm2_5":28.8,"mosquito_risk":7,"arthritis_risk":5,"migraine_risk":7,"frizz_risk":1,"updated_at":"2026-05-01T09:10:20.443707+05:30"},{"city":"Rishikesh","state":"Uttarakhand","latitude":30.0869,"longitude":78.2676,"temp":25.0,"humidity":66,"rain":0.0,"pressure":966.1,"uv_index":7.5,"wind_gusts":28.8,"aqi":73,"pm10":117.8,"pm2_5":28.5,"mosquito_risk":7,"arthritis_risk":5,"migraine_risk":7,"frizz_risk":1,"updated_at":"2026-05-01T09:10:20.443713+05:30"},{"city":"Nainital","state":"Uttarakhand","latitude":29.3919,"longitude":79.4542,"temp":15.6,"humidity":77,"rain":0.0,"pressure":804.7,"uv_index":7.3,"wind_gusts":39.2,"aqi":82,"pm10":124.3,"pm2_5":29.7,"mosquito_risk":3,"arthritis_risk":5,"migraine_risk":7,"frizz_risk":0,"updated_at":"2026-05-01T09:10:20.443719+05:30"},{"city":"Mussoorie","state":"Uttarakhand","latitude":30.4599,"longitude":78.0664,"temp":15.4,"humidity":75,"rain":0.0,"pressure":801.5,"uv_index":7.9,"wind_gusts":45.4,"aqi":72,"pm10":84.5,"pm2_5":23.4,"mosquito_risk":3,"arthritis_risk":5,"migraine_risk":7,"frizz_risk":0,"updated_at":"2026-05-01T09:10:20.443725+05:30"},{"city":"Dharamshala","state":"Himachal Pradesh","latitude":32.219,"longitude":76.3234,"temp":20.7,"humidity":53,"rain":0.0,"pressure":867.9,"uv_index":8.25,"wind_gusts":42.1,"aqi":27,"pm10":5.6,"pm2_5":4.2,"mosquito_risk":0,"arthritis_risk":5,"migraine_risk":7,"frizz_risk":0,"updated_at":"2026-05-01T09:10:20.443731+05:30"},{"city":"Dalhousie","state":"Himachal Pradesh","latitude":32.5387,"longitude":75.971,"temp":17.6,"humidity":51,"rain":0.0,"pressure":803.8,"uv_index":8.5,"wind_gusts":38.9,"aqi":57,"pm10":10.4,"pm2_5":7.2,"mosquito_risk":0,"arthritis_risk":5,"migraine_risk":7,"frizz_risk":0,"updated_at":"2026-05-01T09:10:20.443738+05:30"},{"city":"Patiala","state":"Punjab","latitude":30.3398,"longitude":76.3869,"temp":26.0,"humidity":63,"rain":0.0,"pressure":977.0,"uv_index":7.5,"wind_gusts":36.0,"aqi":421,"pm10":683.6,"pm2_5":81.0,"mosquito_risk":7,"arthritis_risk":5,"migraine_risk":7,"frizz_risk":1,"updated_at":"2026-05-01T09:10:20.443744+05:30"},{"city":"Bhatinda","state":"Punjab","latitude":30.211,"longitude":74.9455,"temp":28.1,"humidity":51,"rain":0.0,"pressure":981.6,"uv_index":8.15,"wind_gusts":33.5,"aqi":186,"pm10":525.3,"pm2_5":109.4,"mosquito_risk":4,"arthritis_risk":5,"migraine_risk":7,"frizz_risk":1,"updated_at":"2026-05-01T09:10:20.443749+05:30"},{"city":"Rohtak","state":"Haryana","latitude":28.8955,"longitude":76.6066,"temp":26.9,"humidity":54,"rain":0.0,"pressure":980.2,"uv_index":7.6,"wind_gusts":34.6,"aqi":545,"pm10":961.1,"pm2_5":121.5,"mosquito_risk":4,"arthritis_risk":5,"migraine_risk":7,"frizz_risk":1,"updated_at":"2026-05-01T09:10:20.443755+05:30"},{"city":"Panipat","state":"Haryana","latitude":29.3909,"longitude":76.9635,"temp":26.0,"humidity":63,"rain":0.0,"pressure":979.2,"uv_index":7.45,"wind_gusts":35.3,"aqi":1007,"pm10":1721.1,"pm2_5":165.8,"mosquito_risk":7,"arthritis_risk":5,"migraine_risk":7,"frizz_risk":1,"updated_at":"2026-05-01T09:10:20.443761+05:30"},{"city":"Mathura","state":"Uttar Pradesh","latitude":27.4924,"longitude":77.6737,"temp":28.0,"humidity":52,"rain":0.0,"pressure":985.4,"uv_index":7.85,"wind_gusts":31.7,"aqi":709,"pm10":1519.9,"pm2_5":175.1,"mosquito_risk":4,"arthritis_risk":5,"migraine_risk":7,"frizz_risk":1,"updated_at":"2026-05-01T09:10:20.443767+05:30"},{"city":"Vrindavan","state":"Uttar Pradesh","latitude":27.5823,"longitude":77.7027,"temp":28.0,"humidity":51,"rain":0.0,"pressure":985.9,"uv_index":7.85,"wind_gusts":31.7,"aqi":709,"pm10":1519.9,"pm2_5":175.1,"mosquito_risk":4,"arthritis_risk":5,"migraine_risk":7,"frizz_risk":1,"updated_at":"2026-05-01T09:10:20.443772+05:30"},{"city":"Ayodhya","state":"Uttar Pradesh","latitude":26.7922,"longitude":82.1998,"temp":23.5,"humidity":78,"rain":0.0,"pressure":996.5,"uv_index":8.15,"wind_gusts":33.1,"aqi":83,"pm10":41.3,"pm2_5":27.0,"mosquito_risk":3,"arthritis_risk":5,"migraine_risk":7,"frizz_risk":1,"updated_at":"2026-05-01T09:10:20.443778+05:30"},{"city":"Ratlam","state":"Madhya Pradesh","latitude":23.3315,"longitude":75.0367,"temp":29.2,"humidity":59,"rain":0.0,"pressure":954.1,"uv_index":8.5,"wind_gusts":46.8,"aqi":60,"pm10":28.7,"pm2_5":14.2,"mosquito_risk":4,"arthritis_risk":5,"migraine_risk":7,"frizz_risk":1,"updated_at":"2026-05-01T09:10:20.443783+05:30"},{"city":"Sagar","state":"Madhya Pradesh","latitude":23.8388,"longitude":78.7378,"temp":32.9,"humidity":29,"rain":0.0,"pressure":949.3,"uv_index":8.65,"wind_gusts":44.3,"aqi":74,"pm10":55.1,"pm2_5":21.9,"mosquito_risk":0,"arthritis_risk":5,"migraine_risk":7,"frizz_risk":0,"updated_at":"2026-05-01T09:10:20.443789+05:30"},{"city":"Satna","state":"Madhya Pradesh","latitude":24.6005,"longitude":80.8322,"temp":30.5,"humidity":42,"rain":0.0,"pressure":970.4,"uv_index":8.65,"wind_gusts":51.5,"aqi":72,"pm10":54.9,"pm2_5":20.4,"mosquito_risk":0,"arthritis_risk":5,"migraine_risk":7,"frizz_risk":1,"updated_at":"2026-05-01T09:10:20.443794+05:30"},{"city":"Akola","state":"Maharashtra","latitude":20.7002,"longitude":77.0082,"temp":32.0,"humidity":41,"rain":0.0,"pressure":975.8,"uv_index":8.9,"wind_gusts":39.6,"aqi":53,"pm10":34.6,"pm2_5":15.1,"mosquito_risk":0,"arthritis_risk":5,"migraine_risk":7,"frizz_risk":1,"updated_at":"2026-05-01T09:10:20.443801+05:30"},{"city":"Amravati","state":"Maharashtra","latitude":20.9374,"longitude":77.7796,"temp":32.8,"humidity":30,"rain":0.0,"pressure":968.1,"uv_index":8.85,"wind_gusts":39.6,"aqi":53,"pm10":29.7,"pm2_5":13.8,"mosquito_risk":0,"arthritis_risk":5,"migraine_risk":7,"frizz_risk":0,"updated_at":"2026-05-01T09:10:20.443807+05:30"},{"city":"Latur","state":"Maharashtra","latitude":18.4088,"longitude":76.5604,"temp":31.8,"humidity":27,"rain":0.0,"pressure":941.8,"uv_index":9.1,"wind_gusts":41.0,"aqi":59,"pm10":45.6,"pm2_5":17.6,"mosquito_risk":0,"arthritis_risk":5,"migraine_risk":7,"frizz_risk":0,"updated_at":"2026-05-01T09:10:20.443813+05:30"},{"city":"Nanded","state":"Maharashtra","latitude":19.1383,"longitude":77.3091,"temp":32.4,"humidity":33,"rain":0.0,"pressure":969.8,"uv_index":9.0,"wind_gusts":33.8,"aqi":56,"pm10":34.7,"pm2_5":16.7,"mosquito_risk":0,"arthritis_risk":5,"migraine_risk":7,"frizz_risk":0,"updated_at":"2026-05-01T09:10:20.443847+05:30"},{"city":"Gulbarga","state":"Karnataka","latitude":17.3297,"longitude":76.8343,"temp":32.2,"humidity":30,"rain":0.0,"pressure":960.5,"uv_index":9.1,"wind_gusts":44.6,"aqi":55,"pm10":40.2,"pm2_5":15.9,"mosquito_risk":0,"arthritis_risk":5,"migraine_risk":7,"frizz_risk":0,"updated_at":"2026-05-01T09:10:20.443856+05:30"},{"city":"Bidar","state":"Karnataka","latitude":17.9104,"longitude":77.5199,"temp":31.3,"humidity":28,"rain":0.0,"pressure":937.6,"uv_index":9.15,"wind_gusts":39.2,"aqi":67,"pm10":39.0,"pm2_5":17.4,"mosquito_risk":0,"arthritis_risk":5,"migraine_risk":7,"frizz_risk":0,"updated_at":"2026-05-01T09:10:20.443862+05:30"},{"city":"Hospet","state":"Karnataka","latitude":15.2689,"longitude":76.3909,"temp":29.3,"humidity":65,"rain":0.0,"pressure":958.1,"uv_index":9.25,"wind_gusts":45.0,"aqi":67,"pm10":20.3,"pm2_5":14.8,"mosquito_risk":7,"arthritis_risk":5,"migraine_risk":7,"frizz_risk":1,"updated_at":"2026-05-01T09:10:20.443868+05:30"},{"city":"Tirupur","state":"Tamil Nadu","latitude":11.1085,"longitude":77.3411,"temp":31.2,"humidity":55,"rain":0.0,"pressure":978.0,"uv_index":8.95,"wind_gusts":47.2,"aqi":78,"pm10":26.8,"pm2_5":21.1,"mosquito_risk":0,"arthritis_risk":5,"migraine_risk":7,"frizz_risk":1,"updated_at":"2026-05-01T09:10:20.443874+05:30"},{"city":"Alappuzha","state":"Kerala","latitude":9.4981,"longitude":76.3388,"temp":28.6,"humidity":80,"rain":0.0,"pressure":1011.4,"uv_index":8.85,"wind_gusts":37.8,"aqi":53,"pm10":18.5,"pm2_5":14.8,"mosquito_risk":7,"arthritis_risk":0,"migraine_risk":4,"frizz_risk":1,"updated_at":"2026-05-01T09:10:20.443879+05:30"},{"city":"Munnar","state":"Kerala","latitude":10.0889,"longitude":77.0595,"temp":22.0,"humidity":73,"rain":0.0,"pressure":860.6,"uv_index":6.95,"wind_gusts":27.7,"aqi":54,"pm10":10.9,"pm2_5":7.6,"mosquito_risk":3,"arthritis_risk":5,"migraine_risk":7,"frizz_risk":1,"updated_at":"2026-05-01T09:10:20.443885+05:30"},{"city":"Silchar","state":"Assam","latitude":24.8333,"longitude":92.7789,"temp":23.0,"humidity":94,"rain":0.4,"pressure":1005.9,"uv_index":4.3,"wind_gusts":22.0,"aqi":102,"pm10":34.5,"pm2_5":29.9,"mosquito_risk":6,"arthritis_risk":5,"migraine_risk":0,"frizz_risk":1,"updated_at":"2026-05-01T09:10:20.443891+05:30"},{"city":"Dibrugarh","state":"Assam","latitude":27.4728,"longitude":94.912,"temp":23.2,"humidity":82,"rain":0.0,"pressure":997.8,"uv_index":6.7,"wind_gusts":18.0,"aqi":62,"pm10":23.0,"pm2_5":14.6,"mosquito_risk":3,"arthritis_risk":5,"migraine_risk":7,"frizz_risk":1,"updated_at":"2026-05-01T09:10:20.443897+05:30"}]