[{"city":"Delhi","state":"Delhi","latitude":28.6139,"longitude":77.209,"temp":31.9,"humidity":32,"rain":0.0,"pressure":984.4,"uv_index":7.55,"wind_gusts":26.6,"aqi":145,"pm10":168.1,"pm2_5":41.0,"no2":7.9,"co":393.0,"o3":208.0,"so2":30.4,"mosquito_risk":0,"arthritis_risk":5,"migraine_risk":7,"frizz_risk":0,"updated_at":"2026-05-06T12:01:31.988824+05:30"},{"city":"Mumbai","state":"Maharashtra","latitude":19.076,"longitude":72.8777,"temp":33.4,"humidity":50,"rain":0.0,"pressure":1008.0,"uv_index":7.9,"wind_gusts":46.4,"aqi":82,"pm10":75.0,"pm2_5":38.5,"no2":7.0,"co":326.0,"o3":161.0,"so2":48.1,"mosquito_risk":0,"arthritis_risk":0,"migraine_risk":4,"frizz_risk":1,"updated_at":"2026-05-06T12:01:31.988868+05:30"},{"city":"Bangalore","state":"Karnataka","latitude":12.9716,"longitude":77.5946,"temp":32.7,"humidity":31,"rain":0.0,"pressure":912.4,"uv_index":9.55,"wind_gusts":30.2,"aqi":116,"pm10":52.0,"pm2_5":28.8,"no2":4.8,"co":274.0,"o3":185.0,"so2":11.5,"mosquito_risk":0,"arthritis_risk":5,"migraine_risk":7,"frizz_risk":0,"updated_at":"2026-05-06T12:01:31.988884+05:30"},{"city":"Hyderabad","state":"Telangana","latitude":17.385,"longitude":78.4867,"temp":35.3,"humidity":32,"rain":0.0,"pressure":953.4,"uv_index":9.3,"wind_gusts":35.3,"aqi":79,"pm10":48.9,"pm2_5":27.0,"no2":1.8,"co":321.0,"o3":149.0,"so2":5.6,"mosquito_risk":0,"arthritis_risk":5,"migraine_risk":10,"frizz_risk":0,"updated_at":"2026-05-06T12:01:31.988894+05:30"},{"city":"Chennai","state":"Tamil Nadu","latitude":13.0827,"longitude":80.2707,"temp":33.0,"humidity":59,"rain":0.0,"pressure":1006.5,"uv_index":9.25,"wind_gusts":41.4,"aqi":53,"pm10":19.4,"pm2_5":11.8,"no2":2.0,"co":199.0,"o3":100.0,"so2":6.2,"mosquito_risk":0,"arthritis_risk":5,"migraine_risk":4,"frizz_risk":1,"updated_at":"2026-05-06T12:01:31.988904+05:30"},{"city":"Kolkata","state":"West Bengal","latitude":22.5726,"longitude":88.3639,"temp":31.9,"humidity":64,"rain":0.0,"pressure":1006.3,"uv_index":8.95,"wind_gusts":40.3,"aqi":88,"pm10":35.7,"pm2_5":25.5,"no2":2.4,"co":334.0,"o3":129.0,"so2":12.9,"mosquito_risk":3,"arthritis_risk":5,"migraine_risk":4,"frizz_risk":1,"updated_at":"2026-05-06T12:01:31.988918+05:30"},{"city":"Pune","state":"Maharashtra","latitude":18.5204,"longitude":73.8567,"temp":35.3,"humidity":19,"rain":0.0,"pressure":948.7,"uv_index":8.5,"wind_gusts":46.8,"aqi":67,"pm10":59.3,"pm2_5":19.8,"no2":1.8,"co":228.0,"o3":139.0,"so2":5.0,"mosquito_risk":0,"arthritis_risk":5,"migraine_risk":10,"frizz_risk":0,"updated_at":"2026-05-06T12:01:31.988927+05:30"},{"city":"Ahmedabad","state":"Gujarat","latitude":23.0225,"longitude":72.5714,"temp":37.5,"humidity":28,"rain":0.0,"pressure":1002.3,"uv_index":8.1,"wind_gusts":22.7,"aqi":94,"pm10":88.9,"pm2_5":29.3,"no2":3.4,"co":237.0,"o3":154.0,"so2":13.0,"mosquito_risk":0,"arthritis_risk":5,"migraine_risk":7,"frizz_risk":0,"updated_at":"2026-05-06T12:01:31.988937+05:30"},{"city":"Jaipur","state":"Rajasthan","latitude":26.9124,"longitude":75.7873,"temp":32.6,"humidity":27,"rain":0.0,"pressure":961.6,"uv_index":8.1,"wind_gusts":34.2,"aqi":110,"pm10":135.0,"pm2_5":34.0,"no2":1.5,"co":298.0,"o3":174.0,"so2":6.9,"mosquito_risk":0,"arthritis_risk":5,"migraine_risk":7,"frizz_risk":0,"updated_at":"2026-05-06T12:01:31.988946+05:30"},{"city":"Lucknow","state":"Uttar Pradesh","latitude":26.8467,"longitude":80.9462,"temp":31.0,"humidity":49,"rain":0.0,"pressure":994.4,"uv_index":8.05,"wind_gusts":34.2,"aqi":138,"pm10":57.6,"pm2_5":28.9,"no2":1.7,"co":374.0,"o3":183.0,"so2":10.2,"mosquito_risk":0,"arthritis_risk":5,"migraine_risk":7,"frizz_risk":1,"updated_at":"2026-05-06T12:01:31.988954+05:30"},{"city":"Kanpur","state":"Uttar Pradesh","latitude":26.4499,"longitude":80.3319,"temp":31.3,"humidity":45,"rain":0.0,"pressure":992.7,"uv_index":8.05,"wind_gusts":31.7,"aqi":122,"pm10":125.7,"pm2_5":33.6,"no2":1.8,"co":358.0,"o3":182.0,"so2":8.5,"mosquito_risk":0,"arthritis_risk":5,"migraine_risk":7,"frizz_risk":1,"updated_at":"2026-05-06T12:01:31.988962+05:30"},{"city":"Chandigarh","state":"Chandigarh","latitude":30.7333,"longitude":76.7794,"temp":31.5,"humidity":29,"rain":0.0,"pressure":969.9,"uv_index":7.5,"wind_gusts":43.9,"aqi":73,"pm10":59.5,"pm2_5":22.8,"no2":2.6,"co":262.0,"o3":184.0,"so2":21.2,"mosquito_risk":0,"arthritis_risk":5,"migraine_risk":7,"frizz_risk":0,"updated_at":"2026-05-06T12:01:31.988970+05:30"},{"city":"Srinagar","state":"Jammu and Kashmir","latitude":34.0837,"longitude":74.7973,"temp":19.0,"humidity":49,"rain":0.0,"pressure":843.5,"uv_index":8.65,"wind_gusts":23.0,"aqi":75,"pm10":18.0,"pm2_5":11.6,"no2":1.8,"co":309.0,"o3":165.0,"so2":2.8,"mosquito_risk":0,"arthritis_risk":5,"migraine_risk":7,"frizz_risk":0,"updated_at":"2026-05-06T12:01:31.988978+05:30"},{"city":"Jammu","state":"Jammu and Kashmir","latitude":32.7266,"longitude":74.857,"temp":30.5,"humidity":32,"rain":0.0,"pressure":974.2,"uv_index":8.25,"wind_gusts":32.4,"aqi":63,"pm10":35.3,"pm2_5":15.8,"no2":1.9,"co":278.0,"o3":170.0,"so2":4.8,"mosquito_risk":0,"arthritis_risk":5,"migraine_risk":7,"frizz_risk":0,"updated_at":"2026-05-06T12:01:31.988986+05:30"},{"city":"Amritsar","state":"Punjab","latitude":31.634,"longitude":74.8723,"temp":33.3,"humidity":25,"rain":0.0,"pressure":981.8,"uv_index":8.15,"wind_gusts":34.9,"aqi":115,"pm10":58.1,"pm2_5":24.3,"no2":2.2,"co":393.0,"o3":182.0,"so2":8.0,"mosquito_risk":0,"arthritis_risk":5,"migraine_risk":7,"frizz_risk":0,"updated_at":"2026-05-06T12:01:31.988993+05:30"},{"city":"Ludhiana","state":"Punjab","latitude":30.901,"longitude":75.8573,"temp":31.0,"humidity":40,"rain":0.0,"pressure":979.9,"uv_index":7.8,"wind_gusts":46.4,"aqi":130,"pm10":164.4,"pm2_5":41.2,"no2":1.7,"co":297.0,"o3":175.0,"so2":8.1,"mosquito_risk":0,"arthritis_risk":5,"migraine_risk":7,"frizz_risk":0,"updated_at":"2026-05-06T12:01:31.989000+05:30"},{"city":"Jalandhar","state":"Punjab","latitude":31.326,"longitude":75.5762,"temp":31.4,"humidity":35,"rain":0.0,"pressure":981.2,"uv_index":7.95,"wind_gusts":53.3,"aqi":129,"pm10":206.8,"pm2_5":50.5,"no2":1.7,"co":345.0,"o3":174.0,"so2":10.6,"mosquito_risk":0,"arthritis_risk":5,"migraine_risk":7,"frizz_risk":0,"updated_at":"2026-05-06T12:01:31.989007+05:30"},{"city":"Dehradun","state":"Uttarakhand","latitude":30.6284,"longitude":78.0322,"temp":19.7,"humidity":44,"rain":0.0,"pressure":832.0,"uv_index":7.45,"wind_gusts":51.1,"aqi":58,"pm10":36.8,"pm2_5":10.3,"no2":0.6,"co":166.0,"o3":143.0,"so2":1.0,"mosquito_risk":0,"arthritis_risk":5,"migraine_risk":7,"frizz_risk":0,"updated_at":"2026-05-06T12:01:31.989017+05:30"},{"city":"Shimla","state":"Himachal Pradesh","latitude":31.1048,"longitude":77.1734,"temp":18.2,"humidity":40,"rain":0.0,"pressure":786.5,"uv_index":7.45,"wind_gusts":42.5,"aqi":64,"pm10":34.3,"pm2_5":9.3,"no2":0.8,"co":190.0,"o3":153.0,"so2":1.9,"mosquito_risk":0,"arthritis_risk":5,"migraine_risk":7,"frizz_risk":0,"updated_at":"2026-05-06T12:01:31.989024+05:30"},{"city":"Manali","state":"Himachal Pradesh","latitude":32.2396,"longitude":77.1887,"temp":16.3,"humidity":47,"rain":0.0,"pressure":818.0,"uv_index":9.55,"wind_gusts":35.6,"aqi":101,"pm10":9.1,"pm2_5":4.4,"no2":0.9,"co":162.0,"o3":172.0,"so2":0.5,"mosquito_risk":0,"arthritis_risk":5,"migraine_risk":7,"frizz_risk":0,"updated_at":"2026-05-06T12:01:31.989031+05:30"},{"city":"Gurgaon","state":"Haryana","latitude":28.4595,"longitude":77.0266,"temp":32.2,"humidity":29,"rain":0.0,"pressure":982.9,"uv_index":7.65,"wind_gusts":29.5,"aqi":155,"pm10":536.4,"pm2_5":83.1,"no2":8.9,"co":289.0,"o3":225.0,"so2":41.8,"mosquito_risk":0,"arthritis_risk":5,"migraine_risk":7,"frizz_risk":0,"updated_at":"2026-05-06T12:01:31.989039+05:30"},{"city":"Noida","state":"Uttar Pradesh","latitude":28.5355,"longitude":77.391,"temp":31.9,"humidity":33,"rain":0.0,"pressure":985.9,"uv_index":7.55,"wind_gusts":21.2,"aqi":155,"pm10":536.4,"pm2_5":83.1,"no2":8.9,"co":429.0,"o3":225.0,"so2":41.8,"mosquito_risk":0,"arthritis_risk":5,"migraine_risk":7,"frizz_risk":0,"updated_at":"2026-05-06T12:01:31.989046+05:30"},{"city":"Ghaziabad","state":"Uttar Pradesh","latitude":28.6692,"longitude":77.4538,"temp":32.5,"humidity":30,"rain":0.0,"pressure":984.1,"uv_index":7.55,"wind_gusts":24.5,"aqi":124,"pm10":136.4,"pm2_5":32.9,"no2":4.7,"co":259.0,"o3":188.0,"so2":13.0,"mosquito_risk":0,"arthritis_risk":5,"migraine_risk":7,"frizz_risk":0,"updated_at":"2026-05-06T12:01:31.989054+05:30"},{"city":"Faridabad","state":"Haryana","latitude":28.4089,"longitude":77.3178,"temp":31.2,"humidity":36,"rain":0.0,"pressure":985.1,"uv_index":7.6,"wind_gusts":20.5,"aqi":155,"pm10":536.4,"pm2_5":83.1,"no2":8.9,"co":391.0,"o3":225.0,"so2":41.8,"mosquito_risk":0,"arthritis_risk":5,"migraine_risk":7,"frizz_risk":0,"updated_at":"2026-05-06T12:01:31.989060+05:30"},{"city":"Meerut","state":"Uttar Pradesh","latitude":28.9845,"longitude":77.7064,"temp":31.1,"humidity":36,"rain":0.0,"pressure":982.9,"uv_index":7.45,"wind_gusts":28.1,"aqi":124,"pm10":136.4,"pm2_5":32.9,"no2":4.7,"co":276.0,"o3":188.0,"so2":13.0,"mosquito_risk":0,"arthritis_risk":5,"migraine_risk":7,"frizz_risk":0,"updated_at":"2026-05-06T12:01:31.989067+05:30"},{"city":"Agra","state":"Uttar Pradesh","latitude":27.1767,"longitude":78.0081,"temp":31.5,"humidity":40,"rain":0.0,"pressure":989.1,"uv_index":7.9,"wind_gusts":21.6,"aqi":156,"pm10":493.6,"pm2_5":70.5,"no2":1.8,"co":329.0,"o3":188.0,"so2":12.7,"mosquito_risk":0,"arthritis_risk":5,"migraine_risk":7,"frizz_risk":1,"updated_at":"2026-05-06T12:01:31.989074+05:30"},{"city":"Varanasi","state":"Uttar Pradesh","latitude":25.3176,"longitude":82.9739,"temp":30.4,"humidity":56,"rain":0.0,"pressure":998.7,"uv_index":8.6,"wind_gusts":47.2,"aqi":152,"pm10":80.1,"pm2_5":49.8,"no2":2.1,"co":391.0,"o3":199.0,"so2":16.9,"mosquito_risk":0,"arthritis_risk":5,"migraine_risk":7,"frizz_risk":1,"updated_at":"2026-05-06T12:01:31.989080+05:30"},{"city":"Prayagraj","state":"Uttar Pradesh","latitude":25.4358,"longitude":81.8463,"temp":31.9,"humidity":46,"rain":0.0,"pressure":996.9,"uv_index":8.45,"wind_gusts":20.5,"aqi":137,"pm10":76.8,"pm2_5":44.7,"no2":2.1,"co":341.0,"o3":195.0,"so2":14.4,"mosquito_risk":0,"arthritis_risk":5,"migraine_risk":7,"frizz_risk":1,"updated_at":"2026-05-06T12:01:31.989089+05:30"},{"city":"Gorakhpur","state":"Uttar Pradesh","latitude":26.7606,"longitude":83.3732,"temp":30.1,"humidity":52,"rain":0.0,"pressure":998.5,"uv_index":8.45,"wind_gusts":36.0,"aqi":119,"pm10":47.0,"pm2_5":26.3,"no2":1.6,"co":343.0,"o3":180.0,"so2":7.7,"mosquito_risk":0,"arthritis_risk":5,"migraine_risk":7,"frizz_risk":1,"updated_at":"2026-05-06T12:01:31.989097+05:30"},{"city":"Bareilly","state":"Uttar Pradesh","latitude":28.367,"longitude":79.4304,"temp":30.9,"humidity":41,"rain":0.0,"pressure":988.0,"uv_index":7.85,"wind_gusts":24.5,"aqi":135,"pm10":85.7,"pm2_5":31.7,"no2":1.8,"co":270.0,"o3":188.0,"so2":12.7,"mosquito_risk":0,"arthritis_risk":5,"migraine_risk":7,"frizz_risk":1,"updated_at":"2026-05-06T12:01:31.989103+05:30"},{"city":"Aligarh","state":"Uttar Pradesh","latitude":27.8974,"longitude":78.088,"temp":33.0,"humidity":29,"rain":0.0,"pressure":986.9,"uv_index":7.7,"wind_gusts":24.1,"aqi":151,"pm10":280.3,"pm2_5":53.4,"no2":2.7,"co":319.0,"o3":194.0,"so2":17.6,"mosquito_risk":0,"arthritis_risk":5,"migraine_risk":7,"frizz_risk":0,"updated_at":"2026-05-06T12:01:31.989110+05:30"},{"city":"Moradabad","state":"Uttar Pradesh","latitude":28.8386,"longitude":78.7733,"temp":31.5,"humidity":33,"rain":0.0,"pressure":984.9,"uv_index":7.65,"wind_gusts":27.4,"aqi":151,"pm10":78.0,"pm2_5":35.3,"no2":2.9,"co":293.0,"o3":200.0,"so2":34.4,"mosquito_risk":0,"arthritis_risk":5,"migraine_risk":7,"frizz_risk":0,"updated_at":"2026-05-06T12:01:31.989116+05:30"},{"city":"Saharanpur","state":"Uttar Pradesh","latitude":29.9637,"longitude":77.546,"temp":29.8,"humidity":41,"rain":0.0,"pressure":977.0,"uv_index":7.25,"wind_gusts":29.5,"aqi":101,"pm10":70.8,"pm2_5":24.8,"no2":2.6,"co":347.0,"o3":181.0,"so2":9.1,"mosquito_risk":4,"arthritis_risk":5,"migraine_risk":7,"frizz_risk":0,"updated_at":"2026-05-06T12:01:31.989123+05:30"},{"city":"Jhansi","state":"Uttar Pradesh","latitude":25.4484,"longitude":78.5685,"temp":33.5,"humidity":32,"rain":0.0,"pressure":979.3,"uv_index":8.35,"wind_gusts":29.2,"aqi":102,"pm10":82.7,"pm2_5":28.3,"no2":1.4,"co":267.0,"o3":167.0,"so2":18.3,"mosquito_risk":0,"arthritis_risk":5,"migraine_risk":7,"frizz_risk":0,"updated_at":"2026-05-06T12:01:35.382149+05:30"},{"city":"Surat","state":"Gujarat","latitude":21.1702,"longitude":72.8311,"temp":36.2,"humidity":45,"rain":0.0,"pressure":1006.5,"uv_index":7.7,"wind_gusts":36.4,"aqi":88,"pm10":85.4,"pm2_5":40.2,"no2":29.0,"co":806.0,"o3":62.0,"so2":73.5,"mosquito_risk":0,"arthritis_risk":5,"migraine_risk":7,"frizz_risk":1,"updated_at":"2026-05-06T12:01:35.382183+05:30"},{"city":"Vadodara","state":"Gujarat","latitude":22.3072,"longitude":73.1812,"temp":38.0,"humidity":26,"rain":0.0,"pressure":1004.2,"uv_index":8.05,"wind_gusts":29.2,"aqi":78,"pm10":68.2,"pm2_5":29.3,"no2":3.5,"co":227.0,"o3":145.0,"so2":11.9,"mosquito_risk":0,"arthritis_risk":5,"migraine_risk":7,"frizz_risk":0,"updated_at":"2026-05-06T12:01:35.382195+05:30"},{"city":"Rajkot","state":"Gujarat","latitude":22.3039,"longitude":70.8022,"temp":36.8,"humidity":31,"rain":0.0,"pressure":994.8,"uv_index":7.7,"wind_gusts":44.6,"aqi":69,"pm10":98.5,"pm2_5":26.3,"no2":1.7,"co":175.0,"o3":120.0,"so2":7.2,"mosquito_risk":0,"arthritis_risk":5,"migraine_risk":10,"frizz_risk":1,"updated_at":"2026-05-06T12:01:35.382203+05:30"},{"city":"Thane","state":"Maharashtra","latitude":19.2183,"longitude":72.9781,"temp":36.5,"humidity":38,"rain":0.0,"pressure":1007.0,"uv_index":7.9,"wind_gusts":42.5,"aqi":82,"pm10":75.0,"pm2_5":38.5,"no2":7.0,"co":229.0,"o3":161.0,"so2":48.1,"mosquito_risk":0,"arthritis_risk":5,"migraine_risk":7,"frizz_risk":1,"updated_at":"2026-05-06T12:01:35.382211+05:30"},{"city":"Nagpur","state":"Maharashtra","latitude":21.1458,"longitude":79.0882,"temp":37.8,"humidity":23,"rain":0.0,"pressure":973.3,"uv_index":8.9,"wind_gusts":35.3,"aqi":75,"pm10":58.2,"pm2_5":35.4,"no2":7.4,"co":231.0,"o3":224.0,"so2":31.9,"mosquito_risk":0,"arthritis_risk":5,"migraine_risk":10,"frizz_risk":0,"updated_at":"2026-05-06T12:01:35.382218+05:30"},{"city":"Nashik","state":"Maharashtra","latitude":19.9975,"longitude":73.7898,"temp":35.1,"humidity":21,"rain":0.0,"pressure":946.2,"uv_index":8.2,"wind_gusts":39.6,"aqi":69,"pm10":79.9,"pm2_5":23.2,"no2":1.4,"co":158.0,"o3":134.0,"so2":3.3,"mosquito_risk":0,"arthritis_risk":5,"migraine_risk":10,"frizz_risk":0,"updated_at":"2026-05-06T12:01:35.382225+05:30"},{"city":"Aurangabad","state":"Maharashtra","latitude":19.8762,"longitude":75.3433,"temp":35.7,"humidity":20,"rain":0.0,"pressure":944.9,"uv_index":9.05,"wind_gusts":37.8,"aqi":63,"pm10":65.7,"pm2_5":21.8,"no2":1.1,"co":164.0,"o3":141.0,"so2":7.1,"mosquito_risk":0,"arthritis_risk":5,"migraine_risk":10,"frizz_risk":0,"updated_at":"2026-05-06T12:01:35.382232+05:30"},{"city":"Solapur","state":"Maharashtra","latitude":17.6599,"longitude":75.9064,"temp":38.2,"humidity":18,"rain":0.0,"pressure":956.5,"uv_index":9.05,"wind_gusts":42.5,"aqi":60,"pm10":42.0,"pm2_5":17.3,"no2":1.4,"co":164.0,"o3":143.0,"so2":9.1,"mosquito_risk":0,"arthritis_risk":5,"migraine_risk":10,"frizz_risk":0,"updated_at":"2026-05-06T12:01:35.382240+05:30"},{"city":"Kolhapur","state":"Maharashtra","latitude":16.705,"longitude":74.2433,"temp":35.5,"humidity":24,"rain":0.0,"pressure":948.2,"uv_index":8.95,"wind_gusts":49.7,"aqi":64,"pm10":56.7,"pm2_5":19.7,"no2":1.9,"co":176.0,"o3":120.0,"so2":2.4,"mosquito_risk":0,"arthritis_risk":5,"migraine_risk":10,"frizz_risk":0,"updated_at":"2026-05-06T12:01:35.382248+05:30"},{"city":"Goa","state":"Goa","latitude":15.2993,"longitude":74.124,"temp":38.1,"humidity":28,"rain":0.0,"pressure":996.3,"uv_index":8.3,"wind_gusts":40.3,"aqi":66,"pm10":58.2,"pm2_5":21.2,"no2":1.1,"co":157.0,"o3":96.0,"so2":1.8,"mosquito_risk":0,"arthritis_risk":5,"migraine_risk":10,"frizz_risk":1,"updated_at":"2026-05-06T12:01:35.382255+05:30"},{"city":"Jodhpur","state":"Rajasthan","latitude":26.2389,"longitude":73.0243,"temp":36.2,"humidity":22,"rain":0.0,"pressure":984.2,"uv_index":8.3,"wind_gusts":28.8,"aqi":85,"pm10":80.1,"pm2_5":22.4,"no2":1.0,"co":240.0,"o3":161.0,"so2":4.9,"mosquito_risk":0,"arthritis_risk":5,"migraine_risk":10,"frizz_risk":0,"updated_at":"2026-05-06T12:01:35.382262+05:30"},{"city":"Udaipur","state":"Rajasthan","latitude":24.5854,"longitude":73.7125,"temp":33.3,"humidity":25,"rain":0.0,"pressure":948.2,"uv_index":8.75,"wind_gusts":22.0,"aqi":79,"pm10":86.1,"pm2_5":22.5,"no2":0.9,"co":197.0,"o3":152.0,"so2":5.6,"mosquito_risk":0,"arthritis_risk":5,"migraine_risk":7,"frizz_risk":0,"updated_at":"2026-05-06T12:01:35.382269+05:30"},{"city":"Kota","state":"Rajasthan","latitude":25.2138,"longitude":75.8648,"temp":35.8,"humidity":24,"rain":0.0,"pressure":979.9,"uv_index":8.3,"wind_gusts":28.8,"aqi":79,"pm10":47.1,"pm2_5":18.5,"no2":1.3,"co":271.0,"o3":165.0,"so2":9.8,"mosquito_risk":0,"arthritis_risk":5,"migraine_risk":10,"frizz_risk":0,"updated_at":"2026-05-06T12:01:35.382299+05:30"},{"city":"Bikaner","state":"Rajasthan","latitude":28.0229,"longitude":73.3119,"temp":35.3,"humidity":21,"rain":0.0,"pressure":983.1,"uv_index":8.25,"wind_gusts":29.9,"aqi":87,"pm10":150.4,"pm2_5":36.2,"no2":1.0,"co":257.0,"o3":173.0,"so2":13.6,"mosquito_risk":0,"arthritis_risk":5,"migraine_risk":10,"frizz_risk":0,"updated_at":"2026-05-06T12:01:35.382308+05:30"},{"city":"Ajmer","state":"Rajasthan","latitude":26.4499,"longitude":74.6399,"temp":33.8,"humidity":21,"rain":0.0,"pressure":956.5,"uv_index":8.25,"wind_gusts":34.6,"aqi":72,"pm10":82.9,"pm2_5":23.6,"no2":0.9,"co":240.0,"o3":158.0,"so2":5.6,"mosquito_risk":0,"arthritis_risk":5,"migraine_risk":7,"frizz_risk":0,"updated_at":"2026-05-06T12:01:35.382315+05:30"},{"city":"Gwalior","state":"Madhya Pradesh","latitude":26.2183,"longitude":78.1828,"temp":31.1,"humidity":42,"rain":0.0,"pressure":984.5,"uv_index":8.1,"wind_gusts":21.2,"aqi":99,"pm10":143.9,"pm2_5":34.1,"no2":0.8,"co":301.0,"o3":163.0,"so2":6.1,"mosquito_risk":0,"arthritis_risk":5,"migraine_risk":7,"frizz_risk":1,"updated_at":"2026-05-06T12:01:35.382322+05:30"},{"city":"Indore","state":"Madhya Pradesh","latitude":22.7196,"longitude":75.8577,"temp":36.2,"humidity":16,"rain":0.0,"pressure":949.1,"uv_index":8.6,"wind_gusts":37.8,"aqi":75,"pm10":81.7,"pm2_5":24.0,"no2":1.1,"co":232.0,"o3":155.0,"so2":6.7,"mosquito_risk":0,"arthritis_risk":5,"migraine_risk":10,"frizz_risk":0,"updated_at":"2026-05-06T12:01:35.382329+05:30"},{"city":"Bhopal","state":"Madhya Pradesh","latitude":23.2599,"longitude":77.4126,"temp":36.5,"humidity":15,"rain":0.0,"pressure":954.3,"uv_index":8.65,"wind_gusts":36.0,"aqi":65,"pm10":45.1,"pm2_5":14.8,"no2":0.7,"co":197.0,"o3":155.0,"so2":4.0,"mosquito_risk":0,"arthritis_risk":5,"migraine_risk":10,"frizz_risk":0,"updated_at":"2026-05-06T12:01:35.382335+05:30"},{"city":"Jabalpur","state":"Madhya Pradesh","latitude":23.1815,"longitude":79.9864,"temp":35.5,"humidity":20,"rain":0.0,"pressure":962.0,"uv_index":8.8,"wind_gusts":37.1,"aqi":84,"pm10":48.4,"pm2_5":22.2,"no2":1.2,"co":199.0,"o3":165.0,"so2":5.7,"mosquito_risk":0,"arthritis_risk":5,"migraine_risk":10,"frizz_risk":0,"updated_at":"2026-05-06T12:01:35.382342+05:30"},{"city":"Ujjain","state":"Madhya Pradesh","latitude":23.1765,"longitude":75.7885,"temp":36.2,"humidity":17,"rain":0.0,"pressure":954.7,"uv_index":8.55,"wind_gusts":28.4,"aqi":85,"pm10":96.6,"pm2_5":27.8,"no2":1.0,"co":192.0,"o3":147.0,"so2":6.3,"mosquito_risk":0,"arthritis_risk":5,"migraine_risk":10,"frizz_risk":0,"updated_at":"2026-05-06T12:01:35.382350+05:30"},{"city":"Visakhapatnam","state":"Andhra Pradesh","latitude":17.6868,"longitude":83.2185,"temp":32.8,"humidity":60,"rain":0.0,"pressure":1003.8,"uv_index":9.15,"wind_gusts":36.0,"aqi":78,"pm10":28.5,"pm2_5":18.8,"no2":13.6,"co":363.0,"o3":66.0,"so2":18.4,"mosquito_risk":0,"arthritis_risk":5,"migraine_risk":4,"frizz_risk":1,"updated_at":"2026-05-06T12:01:35.382357+05:30"},{"city":"Vijayawada","state":"Andhra Pradesh","latitude":16.5062,"longitude":80.648,"temp":35.8,"humidity":48,"rain":0.0,"pressure":1002.1,"uv_index":9.2,"wind_gusts":40.0,"aqi":66,"pm10":26.4,"pm2_5":15.8,"no2":1.6,"co":198.0,"o3":104.0,"so2":5.8,"mosquito_risk":0,"arthritis_risk":5,"migraine_risk":7,"frizz_risk":1,"updated_at":"2026-05-06T12:01:35.382364+05:30"},{"city":"Guntur","state":"Andhra Pradesh","latitude":16.3067,"longitude":80.4365,"temp":36.0,"humidity":48,"rain":0.0,"pressure":1003.2,"uv_index":9.2,"wind_gusts":37.1,"aqi":70,"pm10":26.6,"pm2_5":15.8,"no2":1.2,"co":185.0,"o3":106.0,"so2":2.1,"mosquito_risk":0,"arthritis_risk":5,"migraine_risk":7,"frizz_risk":1,"updated_at":"2026-05-06T12:01:35.382370+05:30"},{"city":"Nellore","state":"Andhra Pradesh","latitude":14.4426,"longitude":79.9865,"temp":35.0,"humidity":51,"rain":0.0,"pressure":1004.7,"uv_index":9.25,"wind_gusts":41.4,"aqi":61,"pm10":22.9,"pm2_5":15.3,"no2":1.7,"co":188.0,"o3":121.0,"so2":6.7,"mosquito_risk":0,"arthritis_risk":5,"migraine_risk":4,"frizz_risk":1,"updated_at":"2026-05-06T12:01:35.382378+05:30"},{"city":"Kurnool","state":"Andhra Pradesh","latitude":15.8281,"longitude":78.0373,"temp":38.1,"humidity":31,"rain":0.0,"pressure":975.7,"uv_index":9.2,"wind_gusts":51.5,"aqi":76,"pm10":48.5,"pm2_5":30.5,"no2":1.4,"co":224.0,"o3":163.0,"so2":11.2,"mosquito_risk":0,"arthritis_risk":5,"migraine_risk":10,"frizz_risk":1,"updated_at":"2026-05-06T12:01:35.382385+05:30"},{"city":"Kakinada","state":"Andhra Pradesh","latitude":16.9891,"longitude":82.2475,"temp":32.8,"humidity":66,"rain":0.0,"pressure":1007.2,"uv_index":9.15,"wind_gusts":31.7,"aqi":52,"pm10":17.9,"pm2_5":9.6,"no2":0.8,"co":180.0,"o3":69.0,"so2":1.0,"mosquito_risk":3,"arthritis_risk":5,"migraine_risk":4,"frizz_risk":1,"updated_at":"2026-05-06T12:01:35.382392+05:30"},{"city":"Tirupati","state":"Andhra Pradesh","latitude":13.6288,"longitude":79.4192,"temp":36.5,"humidity":35,"rain":0.0,"pressure":990.1,"uv_index":9.3,"wind_gusts":34.2,"aqi":84,"pm10":19.8,"pm2_5":13.2,"no2":1.7,"co":208.0,"o3":124.0,"so2":4.2,"mosquito_risk":0,"arthritis_risk":5,"migraine_risk":10,"frizz_risk":1,"updated_at":"2026-05-06T12:01:35.382399+05:30"},{"city":"Warangal","state":"Telangana","latitude":17.9689,"longitude":79.5941,"temp":36.2,"humidity":39,"rain":0.0,"pressure":978.6,"uv_index":9.2,"wind_gusts":51.1,"aqi":77,"pm10":32.0,"pm2_5":22.0,"no2":1.5,"co":215.0,"o3":128.0,"so2":4.5,"mosquito_risk":0,"arthritis_risk":5,"migraine_risk":10,"frizz_risk":1,"updated_at":"2026-05-06T12:01:35.382406+05:30"},{"city":"Nizamabad","state":"Telangana","latitude":18.6725,"longitude":78.0941,"temp":37.3,"humidity":21,"rain":0.0,"pressure":964.7,"uv_index":9.15,"wind_gusts":39.6,"aqi":91,"pm10":50.4,"pm2_5":29.2,"no2":1.7,"co":204.0,"o3":160.0,"so2":5.7,"mosquito_risk":0,"arthritis_risk":5,"migraine_risk":10,"frizz_risk":0,"updated_at":"2026-05-06T12:01:35.382413+05:30"},{"city":"Mysore","state":"Karnataka","latitude":12.2958,"longitude":76.6396,"temp":31.5,"humidity":44,"rain":0.0,"pressure":928.6,"uv_index":9.4,"wind_gusts":26.3,"aqi":70,"pm10":43.5,"pm2_5":19.4,"no2":2.2,"co":190.0,"o3":135.0,"so2":2.5,"mosquito_risk":0,"arthritis_risk":5,"migraine_risk":7,"frizz_risk":1,"updated_at":"2026-05-06T12:01:35.382420+05:30"},{"city":"Mangalore","state":"Karnataka","latitude":12.9141,"longitude":74.856,"temp":33.8,"humidity":54,"rain":0.0,"pressure":1004.9,"uv_index":9.05,"wind_gusts":52.2,"aqi":65,"pm10":48.7,"pm2_5":18.6,"no2":1.1,"co":158.0,"o3":91.0,"so2":1.1,"mosquito_risk":0,"arthritis_risk":5,"migraine_risk":4,"frizz_risk":1,"updated_at":"2026-05-06T12:01:35.382427+05:30"},{"city":"Hubli-Dharwad","state":"Karnataka","latitude":15.3647,"longitude":75.124,"temp":35.3,"humidity":25,"rain":0.0,"pressure":940.7,"uv_index":9.05,"wind_gusts":38.9,"aqi":61,"pm10":56.5,"pm2_5":19.4,"no2":1.8,"co":170.0,"o3":123.0,"so2":2.4,"mosquito_risk":0,"arthritis_risk":5,"migraine_risk":10,"frizz_risk":0,"updated_at":"2026-05-06T12:01:35.382433+05:30"},{"city":"Belgaum","state":"Karnataka","latitude":15.8497,"longitude":74.4977,"temp":33.1,"humidity":29,"rain":0.0,"pressure":926.4,"uv_index":8.8,"wind_gusts":45.0,"aqi":61,"pm10":53.9,"pm2_5":17.8,"no2":1.6,"co":159.0,"o3":117.0,"so2":2.7,"mosquito_risk":0,"arthritis_risk":5,"migraine_risk":7,"frizz_risk":0,"updated_at":"2026-05-06T12:01:38.768780+05:30"},{"city":"Coimbatore","state":"Tamil Nadu","latitude":11.0168,"longitude":76.9558,"temp":33.1,"humidity":45,"rain":0.0,"pressure":960.7,"uv_index":9.35,"wind_gusts":33.1,"aqi":66,"pm10":42.6,"pm2_5":22.0,"no2":1.9,"co":284.0,"o3":167.0,"so2":6.4,"mosquito_risk":0,"arthritis_risk":5,"migraine_risk":7,"frizz_risk":1,"updated_at":"2026-05-06T12:01:38.768813+05:30"},{"city":"Madurai","state":"Tamil Nadu","latitude":9.9252,"longitude":78.1198,"temp":36.0,"humidity":42,"rain":0.0,"pressure":991.6,"uv_index":8.9,"wind_gusts":41.8,"aqi":86,"pm10":47.0,"pm2_5":28.3,"no2":2.2,"co":268.0,"o3":161.0,"so2":6.0,"mosquito_risk":0,"arthritis_risk":5,"migraine_risk":10,"frizz_risk":1,"updated_at":"2026-05-06T12:01:38.768825+05:30"},{"city":"Trichy","state":"Tamil Nadu","latitude":10.7905,"longitude":78.7047,"temp":33.7,"humidity":51,"rain":0.0,"pressure":998.6,"uv_index":8.9,"wind_gusts":29.2,"aqi":82,"pm10":36.9,"pm2_5":23.9,"no2":1.9,"co":262.0,"o3":145.0,"so2":6.0,"mosquito_risk":0,"arthritis_risk":5,"migraine_risk":7,"frizz_risk":1,"updated_at":"2026-05-06T12:01:38.768833+05:30"},{"city":"Salem","state":"Tamil Nadu","latitude":11.6643,"longitude":78.146,"temp":34.5,"humidity":41,"rain":0.0,"pressure":976.4,"uv_index":9.25,"wind_gusts":43.2,"aqi":91,"pm10":49.4,"pm2_5":30.4,"no2":3.6,"co":224.0,"o3":190.0,"so2":16.5,"mosquito_risk":0,"arthritis_risk":5,"migraine_risk":7,"frizz_risk":1,"updated_at":"2026-05-06T12:01:38.768841+05:30"},{"city":"Tirunelveli","state":"Tamil Nadu","latitude":8.7139,"longitude":77.7567,"temp":37.6,"humidity":37,"rain":0.0,"pressure":1001.1,"uv_index":8.8,"wind_gusts":38.5,"aqi":58,"pm10":39.5,"pm2_5":24.4,"no2":2.0,"co":232.0,"o3":161.0,"so2":4.1,"mosquito_risk":0,"arthritis_risk":5,"migraine_risk":7,"frizz_risk":1,"updated_at":"2026-05-06T12:01:38.768849+05:30"},{"city":"Vellore","state":"Tamil Nadu","latitude":12.9165,"longitude":79.1325,"temp":35.1,"humidity":43,"rain":0.0,"pressure":983.7,"uv_index":9.3,"wind_gusts":35.3,"aqi":96,"pm10":26.2,"pm2_5":19.3,"no2":1.7,"co":243.0,"o3":127.0,"so2":6.3,"mosquito_risk":0,"arthritis_risk":5,"migraine_risk":10,"frizz_risk":1,"updated_at":"2026-05-06T12:01:38.768856+05:30"},{"city":"Erode","state":"Tamil Nadu","latitude":11.341,"longitude":77.7172,"temp":36.5,"humidity":34,"rain":0.0,"pressure":987.8,"uv_index":9.25,"wind_gusts":45.0,"aqi":77,"pm10":45.3,"pm2_5":23.6,"no2":2.5,"co":288.0,"o3":172.0,"so2":4.8,"mosquito_risk":0,"arthritis_risk":5,"migraine_risk":10,"frizz_risk":1,"updated_at":"2026-05-06T12:01:38.768864+05:30"},{"city":"Kochi","state":"Kerala","latitude":9.9312,"longitude":76.2673,"temp":31.3,"humidity":72,"rain":0.0,"pressure":1006.8,"uv_index":7.95,"wind_gusts":32.0,"aqi":63,"pm10":32.4,"pm2_5":17.5,"no2":2.5,"co":168.0,"o3":106.0,"so2":2.1,"mosquito_risk":3,"arthritis_risk":5,"migraine_risk":4,"frizz_risk":1,"updated_at":"2026-05-06T12:01:38.768871+05:30"},{"city":"Thiruvananthapuram","state":"Kerala","latitude":8.5241,"longitude":76.9366,"temp":33.2,"humidity":60,"rain":0.0,"pressure":1006.1,"uv_index":8.35,"wind_gusts":30.6,"aqi":47,"pm10":12.5,"pm2_5":8.7,"no2":1.8,"co":208.0,"o3":121.0,"so2":2.7,"mosquito_risk":0,"arthritis_risk":5,"migraine_risk":4,"frizz_risk":1,"updated_at":"2026-05-06T12:01:38.768877+05:30"},{"city":"Kozhikode","state":"Kerala","latitude":11.2588,"longitude":75.7804,"temp":33.4,"humidity":61,"rain":0.0,"pressure":1005.4,"uv_index":9.05,"wind_gusts":42.5,"aqi":65,"pm10":42.0,"pm2_5":19.2,"no2":0.9,"co":170.0,"o3":88.0,"so2":2.0,"mosquito_risk":3,"arthritis_risk":5,"migraine_risk":4,"frizz_risk":1,"updated_at":"2026-05-06T12:01:38.768884+05:30"},{"city":"Thrissur","state":"Kerala","latitude":10.5276,"longitude":76.2144,"temp":33.5,"humidity":62,"rain":0.0,"pressure":1004.8,"uv_index":9.05,"wind_gusts":31.3,"aqi":71,"pm10":42.5,"pm2_5":21.8,"no2":1.8,"co":174.0,"o3":109.0,"so2":2.2,"mosquito_risk":3,"arthritis_risk":5,"migraine_risk":4,"frizz_risk":1,"updated_at":"2026-05-06T12:01:38.768891+05:30"},{"city":"Kannur","state":"Kerala","latitude":11.8745,"longitude":75.3704,"temp":35.3,"humidity":49,"rain":0.0,"pressure":1004.6,"uv_index":9.05,"wind_gusts":58.3,"aqi":65,"pm10":43.2,"pm2_5":18.2,"no2":1.2,"co":171.0,"o3":96.0,"so2":1.1,"mosquito_risk":0,"arthritis_risk":5,"migraine_risk":7,"frizz_risk":1,"updated_at":"2026-05-06T12:01:38.768898+05:30"},{"city":"Patna","state":"Bihar","latitude":25.5941,"longitude":85.1376,"temp":30.0,"humidity":56,"rain":0.0,"pressure":1001.8,"uv_index":8.7,"wind_gusts":55.1,"aqi":142,"pm10":61.0,"pm2_5":36.2,"no2":2.2,"co":357.0,"o3":190.0,"so2":10.2,"mosquito_risk":4,"arthritis_risk":5,"migraine_risk":4,"frizz_risk":1,"updated_at":"2026-05-06T12:01:38.768905+05:30"},{"city":"Gaya","state":"Bihar","latitude":24.7914,"longitude":85.0002,"temp":30.9,"humidity":52,"rain":0.0,"pressure":995.2,"uv_index":8.75,"wind_gusts":48.2,"aqi":139,"pm10":64.0,"pm2_5":40.6,"no2":1.7,"co":338.0,"o3":196.0,"so2":9.3,"mosquito_risk":0,"arthritis_risk":5,"migraine_risk":7,"frizz_risk":1,"updated_at":"2026-05-06T12:01:38.768912+05:30"},{"city":"Muzaffarpur","state":"Bihar","latitude":26.1209,"longitude":85.3647,"temp":28.1,"humidity":65,"rain":0.0,"pressure":1002.0,"uv_index":8.7,"wind_gusts":33.1,"aqi":140,"pm10":54.4,"pm2_5":34.5,"no2":2.4,"co":339.0,"o3":192.0,"so2":11.5,"mosquito_risk":7,"arthritis_risk":5,"migraine_risk":4,"frizz_risk":1,"updated_at":"2026-05-06T12:01:38.768919+05:30"},{"city":"Bhagalpur","state":"Bihar","latitude":25.2425,"longitude":87.0117,"temp":29.9,"humidity":61,"rain":0.0,"pressure":1002.5,"uv_index":8.7,"wind_gusts":32.8,"aqi":113,"pm10":59.6,"pm2_5":46.3,"no2":4.3,"co":390.0,"o3":203.0,"so2":18.5,"mosquito_risk":7,"arthritis_risk":5,"migraine_risk":4,"frizz_risk":1,"updated_at":"2026-05-06T12:01:38.768925+05:30"},{"city":"Ranchi","state":"Jharkhand","latitude":23.3441,"longitude":85.3096,"temp":30.4,"humidity":41,"rain":0.0,"pressure":938.9,"uv_index":9.2,"wind_gusts":29.9,"aqi":107,"pm10":54.9,"pm2_5":37.8,"no2":1.8,"co":242.0,"o3":185.0,"so2":16.1,"mosquito_risk":0,"arthritis_risk":5,"migraine_risk":7,"frizz_risk":0,"updated_at":"2026-05-06T12:01:38.768932+05:30"},{"city":"Jamshedpur","state":"Jharkhand","latitude":22.8046,"longitude":86.2029,"temp":33.2,"humidity":43,"rain":0.0,"pressure":991.4,"uv_index":9.05,"wind_gusts":26.6,"aqi":102,"pm10":58.9,"pm2_5":44.2,"no2":4.4,"co":254.0,"o3":212.0,"so2":34.6,"mosquito_risk":0,"arthritis_risk":5,"migraine_risk":7,"frizz_risk":1,"updated_at":"2026-05-06T12:01:38.768938+05:30"},{"city":"Dhanbad","state":"Jharkhand","latitude":23.7957,"longitude":86.4304,"temp":31.2,"humidity":52,"rain":0.0,"pressure":980.8,"uv_index":8.95,"wind_gusts":27.0,"aqi":157,"pm10":83.1,"pm2_5":60.5,"no2":13.4,"co":293.0,"o3":218.0,"so2":44.5,"mosquito_risk":0,"arthritis_risk":5,"migraine_risk":7,"frizz_risk":1,"updated_at":"2026-05-06T12:01:38.768944+05:30"},{"city":"Bokaro","state":"Jharkhand","latitude":23.6693,"longitude":86.1511,"temp":32.0,"humidity":48,"rain":0.0,"pressure":984.6,"uv_index":9.0,"wind_gusts":27.7,"aqi":156,"pm10":78.7,"pm2_5":59.4,"no2":14.5,"co":284.0,"o3":222.0,"so2":53.5,"mosquito_risk":0,"arthritis_risk":5,"migraine_risk":7,"frizz_risk":1,"updated_at":"2026-05-06T12:01:38.768951+05:30"},{"city":"Bhubaneswar","state":"Odisha","latitude":20.2961,"longitude":85.8245,"temp":33.6,"humidity":54,"rain":0.0,"pressure":1002.6,"uv_index":9.1,"wind_gusts":32.4,"aqi":53,"pm10":25.5,"pm2_5":19.2,"no2":2.2,"co":239.0,"o3":116.0,"so2":4.1,"mosquito_risk":0,"arthritis_risk":5,"migraine_risk":4,"frizz_risk":1,"updated_at":"2026-05-06T12:01:38.768957+05:30"},{"city":"Cuttack","state":"Odisha","latitude":20.4625,"longitude":85.8828,"temp":33.5,"humidity":55,"rain":0.0,"pressure":1004.3,"uv_index":9.15,"wind_gusts":33.1,"aqi":53,"pm10":25.5,"pm2_5":19.2,"no2":2.2,"co":270.0,"o3":116.0,"so2":4.1,"mosquito_risk":0,"arthritis_risk":5,"migraine_risk":4,"frizz_risk":1,"updated_at":"2026-05-06T12:01:38.768963+05:30"},{"city":"Rourkela","state":"Odisha","latitude":22.2604,"longitude":84.8536,"temp":35.7,"humidity":30,"rain":0.0,"pressure":985.0,"uv_index":8.95,"wind_gusts":37.1,"aqi":113,"pm10":65.0,"pm2_5":48.0,"no2":2.9,"co":274.0,"o3":214.0,"so2":44.3,"mosquito_risk":0,"arthritis_risk":5,"migraine_risk":10,"frizz_risk":0,"updated_at":"2026-05-06T12:01:38.768969+05:30"},{"city":"Raipur","state":"Chhattisgarh","latitude":21.2514,"longitude":81.6296,"temp":37.2,"humidity":25,"rain":0.0,"pressure":974.6,"uv_index":9.0,"wind_gusts":33.8,"aqi":110,"pm10":63.1,"pm2_5":43.0,"no2":13.5,"co":589.0,"o3":198.0,"so2":9.9,"mosquito_risk":0,"arthritis_risk":5,"migraine_risk":10,"frizz_risk":0,"updated_at":"2026-05-06T12:01:38.768976+05:30"},{"city":"Bhilai","state":"Chhattisgarh","latitude":21.1938,"longitude":81.3509,"temp":36.8,"humidity":26,"rain":0.0,"pressure":975.0,"uv_index":9.0,"wind_gusts":33.1,"aqi":118,"pm10":64.3,"pm2_5":43.0,"no2":17.1,"co":1129.0,"o3":187.0,"so2":9.7,"mosquito_risk":0,"arthritis_risk":5,"migraine_risk":10,"frizz_risk":0,"updated_at":"2026-05-06T12:01:38.768982+05:30"},{"city":"Guwahati","state":"Assam","latitude":26.1158,"longitude":91.7086,"temp":29.5,"humidity":60,"rain":0.0,"pressure":1002.0,"uv_index":8.65,"wind_gusts":28.1,"aqi":80,"pm10":26.9,"pm2_5":19.8,"no2":1.0,"co":281.0,"o3":136.0,"so2":1.3,"mosquito_risk":4,"arthritis_risk":5,"migraine_risk":4,"frizz_risk":1,"updated_at":"2026-05-06T12:01:38.768989+05:30"},{"city":"Agartala","state":"Tripura","latitude":23.8315,"longitude":91.2868,"temp":30.0,"humidity":64,"rain":0.0,"pressure":1007.2,"uv_index":8.85,"wind_gusts":17.6,"aqi":79,"pm10":23.6,"pm2_5":17.4,"no2":4.7,"co":208.0,"o3":142.0,"so2":2.8,"mosquito_risk":7,"arthritis_risk":5,"migraine_risk":4,"frizz_risk":1,"updated_at":"2026-05-06T12:01:38.768995+05:30"},{"city":"Shillong","state":"Meghalaya","latitude":25.5788,"longitude":91.8933,"temp":21.7,"humidity":61,"rain":0.0,"pressure":859.0,"uv_index":8.25,"wind_gusts":27.4,"aqi":76,"pm10":25.6,"pm2_5":16.5,"no2":1.0,"co":238.0,"o3":136.0,"so2":1.3,"mosquito_risk":3,"arthritis_risk":5,"migraine_risk":7,"frizz_risk":0,"updated_at":"2026-05-06T12:01:38.769002+05:30"},{"city":"Imphal","state":"Manipur","latitude":24.817,"longitude":93.9368,"temp":28.1,"humidity":53,"rain":0.0,"pressure":924.1,"uv_index":8.85,"wind_gusts":28.8,"aqi":78,"pm10":23.6,"pm2_5":14.2,"no2":0.8,"co":190.0,"o3":104.0,"so2":1.0,"mosquito_risk":4,"arthritis_risk":5,"migraine_risk":7,"frizz_risk":1,"updated_at":"2026-05-06T12:01:38.769008+05:30"},{"city":"Aizawl","state":"Mizoram","latitude":23.7271,"longitude":92.7176,"temp":24.4,"humidity":53,"rain":0.0,"pressure":894.5,"uv_index":8.75,"wind_gusts":18.7,"aqi":64,"pm10":25.4,"pm2_5":14.1,"no2":0.6,"co":169.0,"o3":100.0,"so2":1.7,"mosquito_risk":0,"arthritis_risk":5,"migraine_risk":7,"frizz_risk":0,"updated_at":"2026-05-06T12:01:38.769015+05:30"},{"city":"Kohima","state":"Nagaland","latitude":25.6701,"longitude":94.1077,"temp":22.0,"humidity":71,"rain":0.1,"pressure":857.2,"uv_index":9.15,"wind_gusts":28.8,"aqi":75,"pm10":26.0,"pm2_5":16.2,"no2":0.6,"co":236.0,"o3":119.0,"so2":1.3,"mosquito_risk":6,"arthritis_risk":5,"migraine_risk":7,"frizz_risk":1,"updated_at":"2026-05-06T12:01:38.769022+05:30"},{"city":"Gangtok","state":"Sikkim","latitude":27.3314,"longitude":88.6138,"temp":17.8,"humidity":72,"rain":0.2,"pressure":839.2,"uv_index":8.7,"wind_gusts":30.6,"aqi":56,"pm10":27.2,"pm2_5":15.1,"no2":0.6,"co":216.0,"o3":133.0,"so2":1.0,"mosquito_risk":6,"arthritis_risk":5,"migraine_risk":7,"frizz_risk":0,"updated_at":"2026-05-06T12:01:38.769028+05:30"},{"city":"Siliguri","state":"West Bengal","latitude":26.7271,"longitude":88.3953,"temp":27.6,"humidity":61,"rain":0.0,"pressure":994.1,"uv_index":8.4,"wind_gusts":23.8,"aqi":102,"pm10":33.8,"pm2_5":26.5,"no2":1.4,"co":379.0,"o3":152.0,"so2":2.2,"mosquito_risk":7,"arthritis_risk":5,"migraine_risk":7,"frizz_risk":1,"updated_at":"2026-05-06T12:01:42.158833+05:30"},{"city":"Durgapur","state":"West Bengal","latitude":23.5204,"longitude":87.3119,"temp":30.8,"humidity":60,"rain":0.0,"pressure":995.8,"uv_index":8.9,"wind_gusts":25.9,"aqi":139,"pm10":85.4,"pm2_5":66.4,"no2":13.7,"co":666.0,"o3":236.0,"so2":63.2,"mosquito_risk":0,"arthritis_risk":5,"migraine_risk":7,"frizz_risk":1,"updated_at":"2026-05-06T12:01:42.158866+05:30"},{"city":"Asansol","state":"West Bengal","latitude":23.6739,"longitude":86.9524,"temp":31.9,"humidity":53,"rain":0.0,"pressure":994.3,"uv_index":8.95,"wind_gusts":25.9,"aqi":137,"pm10":86.1,"pm2_5":63.1,"no2":11.4,"co":432.0,"o3":231.0,"so2":49.3,"mosquito_risk":0,"arthritis_risk":5,"migraine_risk":7,"frizz_risk":1,"updated_at":"2026-05-06T12:01:42.158877+05:30"},{"city":"Pondicherry","state":"Puducherry","latitude":11.9139,"longitude":79.8145,"temp":31.6,"humidity":67,"rain":0.0,"pressure":1007.8,"uv_index":8.75,"wind_gusts":38.9,"aqi":52,"pm10":18.2,"pm2_5":12.7,"no2":2.3,"co":227.0,"o3":129.0,"so2":5.4,"mosquito_risk":3,"arthritis_risk":5,"migraine_risk":4,"frizz_risk":1,"updated_at":"2026-05-06T12:01:42.158885+05:30"},{"city":"Port Blair","state":"Andaman and Nicobar Islands","latitude":11.6234,"longitude":92.7265,"temp":31.0,"humidity":68,"rain":0.0,"pressure":1006.3,"uv_index":9.05,"wind_gusts":34.9,"aqi":31,"pm10":7.9,"pm2_5":5.9,"no2":0.2,"co":146.0,"o3":66.0,"so2":0.1,"mosquito_risk":3,"arthritis_risk":5,"migraine_risk":4,"frizz_risk":1,"updated_at":"2026-05-06T12:01:42.158893+05:30"},{"city":"Haridwar","state":"Uttarakhand","latitude":29.9457,"longitude":78.1642,"temp":29.9,"humidity":38,"rain":0.0,"pressure":975.1,"uv_index":7.35,"wind_gusts":25.2,"aqi":80,"pm10":69.4,"pm2_5":21.7,"no2":1.6,"co":240.0,"o3":170.0,"so2":5.0,"mosquito_risk":4,"arthritis_risk":5,"migraine_risk":7,"frizz_risk":0,"updated_at":"2026-05-06T12:01:42.158901+05:30"},{"city":"Rishikesh","state":"Uttarakhand","latitude":30.0869,"longitude":78.2676,"temp":29.6,"humidity":35,"rain":0.0,"pressure":967.6,"uv_index":7.45,"wind_gusts":27.7,"aqi":73,"pm10":65.2,"pm2_5":18.6,"no2":0.9,"co":184.0,"o3":152.0,"so2":2.5,"mosquito_risk":4,"arthritis_risk":5,"migraine_risk":7,"frizz_risk":0,"updated_at":"2026-05-06T12:01:42.158908+05:30"},{"city":"Nainital","state":"Uttarakhand","latitude":29.3919,"longitude":79.4542,"temp":15.7,"humidity":60,"rain":0.0,"pressure":806.5,"uv_index":6.55,"wind_gusts":31.7,"aqi":75,"pm10":65.4,"pm2_5":19.3,"no2":1.0,"co":184.0,"o3":155.0,"so2":3.8,"mosquito_risk":0,"arthritis_risk":5,"migraine_risk":7,"frizz_risk":0,"updated_at":"2026-05-06T12:01:42.158915+05:30"},{"city":"Mussoorie","state":"Uttarakhand","latitude":30.4599,"longitude":78.0664,"temp":18.3,"humidity":46,"rain":0.0,"pressure":804.5,"uv_index":7.3,"wind_gusts":39.6,"aqi":69,"pm10":58.2,"pm2_5":16.4,"no2":1.1,"co":181.0,"o3":152.0,"so2":3.2,"mosquito_risk":0,"arthritis_risk":5,"migraine_risk":7,"frizz_risk":0,"updated_at":"2026-05-06T12:01:42.158922+05:30"},{"city":"Dharamshala","state":"Himachal Pradesh","latitude":32.219,"longitude":76.3234,"temp":18.4,"humidity":63,"rain":0.1,"pressure":870.1,"uv_index":8.15,"wind_gusts":36.0,"aqi":50,"pm10":25.4,"pm2_5":9.7,"no2":0.6,"co":203.0,"o3":155.0,"so2":1.7,"mosquito_risk":6,"arthritis_risk":5,"migraine_risk":7,"frizz_risk":0,"updated_at":"2026-05-06T12:01:42.158929+05:30"},{"city":"Dalhousie","state":"Himachal Pradesh","latitude":32.5387,"longitude":75.971,"temp":14.9,"humidity":62,"rain":0.0,"pressure":805.4,"uv_index":8.35,"wind_gusts":33.5,"aqi":56,"pm10":45.6,"pm2_5":15.4,"no2":1.2,"co":211.0,"o3":166.0,"so2":5.7,"mosquito_risk":3,"arthritis_risk":5,"migraine_risk":7,"frizz_risk":0,"updated_at":"2026-05-06T12:01:42.158936+05:30"},{"city":"Patiala","state":"Punjab","latitude":30.3398,"longitude":76.3869,"temp":31.6,"humidity":33,"rain":0.0,"pressure":979.4,"uv_index":7.45,"wind_gusts":43.6,"aqi":194,"pm10":217.0,"pm2_5":40.9,"no2":1.8,"co":239.0,"o3":176.0,"so2":13.7,"mosquito_risk":0,"arthritis_risk":5,"migraine_risk":7,"frizz_risk":0,"updated_at":"2026-05-06T12:01:42.158944+05:30"},{"city":"Bhatinda","state":"Punjab","latitude":30.211,"longitude":74.9455,"temp":34.5,"humidity":23,"rain":0.0,"pressure":984.8,"uv_index":8.1,"wind_gusts":28.1,"aqi":161,"pm10":131.3,"pm2_5":34.3,"no2":2.4,"co":236.0,"o3":181.0,"so2":14.9,"mosquito_risk":0,"arthritis_risk":5,"migraine_risk":7,"frizz_risk":0,"updated_at":"2026-05-06T12:01:42.158950+05:30"},{"city":"Rohtak","state":"Haryana","latitude":28.8955,"longitude":76.6066,"temp":33.2,"humidity":27,"rain":0.0,"pressure":983.2,"uv_index":7.55,"wind_gusts":46.8,"aqi":154,"pm10":270.1,"pm2_5":51.6,"no2":2.7,"co":236.0,"o3":199.0,"so2":18.4,"mosquito_risk":0,"arthritis_risk":5,"migraine_risk":7,"frizz_risk":0,"updated_at":"2026-05-06T12:01:42.158957+05:30"},{"city":"Panipat","state":"Haryana","latitude":29.3909,"longitude":76.9635,"temp":32.2,"humidity":31,"rain":0.0,"pressure":981.7,"uv_index":7.4,"wind_gusts":52.9,"aqi":302,"pm10":394.9,"pm2_5":59.3,"no2":4.6,"co":240.0,"o3":188.0,"so2":24.9,"mosquito_risk":0,"arthritis_risk":5,"migraine_risk":7,"frizz_risk":0,"updated_at":"2026-05-06T12:01:42.158964+05:30"},{"city":"Mathura","state":"Uttar Pradesh","latitude":27.4924,"longitude":77.6737,"temp":32.7,"humidity":33,"rain":0.0,"pressure":988.2,"uv_index":7.8,"wind_gusts":27.7,"aqi":146,"pm10":527.1,"pm2_5":72.4,"no2":1.8,"co":301.0,"o3":182.0,"so2":13.2,"mosquito_risk":0,"arthritis_risk":5,"migraine_risk":7,"frizz_risk":0,"updated_at":"2026-05-06T12:01:42.158970+05:30"},{"city":"Vrindavan","state":"Uttar Pradesh","latitude":27.5823,"longitude":77.7027,"temp":33.0,"humidity":31,"rain":0.0,"pressure":988.5,"uv_index":7.8,"wind_gusts":27.4,"aqi":146,"pm10":527.1,"pm2_5":72.4,"no2":1.8,"co":292.0,"o3":182.0,"so2":13.2,"mosquito_risk":0,"arthritis_risk":5,"migraine_risk":7,"frizz_risk":0,"updated_at":"2026-05-06T12:01:42.158977+05:30"},{"city":"Ayodhya","state":"Uttar Pradesh","latitude":26.7922,"longitude":82.1998,"temp":29.4,"humidity":57,"rain":0.0,"pressure":996.7,"uv_index":8.2,"wind_gusts":34.9,"aqi":122,"pm10":41.6,"pm2_5":23.7,"no2":1.4,"co":317.0,"o3":171.0,"so2":7.1,"mosquito_risk":4,"arthritis_risk":5,"migraine_risk":7,"frizz_risk":1,"updated_at":"2026-05-06T12:01:42.158984+05:30"},{"city":"Ratlam","state":"Madhya Pradesh","latitude":23.3315,"longitude":75.0367,"temp":35.3,"humidity":22,"rain":0.0,"pressure":956.1,"uv_index":8.45,"wind_gusts":33.1,"aqi":78,"pm10":102.4,"pm2_5":28.9,"no2":1.0,"co":178.0,"o3":146.0,"so2":8.1,"mosquito_risk":0,"arthritis_risk":5,"migraine_risk":10,"frizz_risk":0,"updated_at":"2026-05-06T12:01:42.158991+05:30"},{"city":"Sagar","state":"Madhya Pradesh","latitude":23.8388,"longitude":78.7378,"temp":34.5,"humidity":19,"rain":0.0,"pressure":951.4,"uv_index":8.65,"wind_gusts":36.0,"aqi":74,"pm10":43.5,"pm2_5":15.0,"no2":0.6,"co":191.0,"o3":154.0,"so2":3.5,"mosquito_risk":0,"arthritis_risk":5,"migraine_risk":7,"frizz_risk":0,"updated_at":"2026-05-06T12:01:42.158998+05:30"},{"city":"Satna","state":"Madhya Pradesh","latitude":24.6005,"longitude":80.8322,"temp":33.0,"humidity":32,"rain":0.0,"pressure":972.1,"uv_index":8.7,"wind_gusts":35.6,"aqi":120,"pm10":70.8,"pm2_5":27.6,"no2":0.9,"co":225.0,"o3":161.0,"so2":5.3,"mosquito_risk":0,"arthritis_risk":5,"migraine_risk":7,"frizz_risk":0,"updated_at":"2026-05-06T12:01:42.159004+05:30"},{"city":"Akola","state":"Maharashtra","latitude":20.7002,"longitude":77.0082,"temp":38.2,"humidity":18,"rain":0.0,"pressure":974.9,"uv_index":8.85,"wind_gusts":32.0,"aqi":61,"pm10":51.0,"pm2_5":17.3,"no2":1.6,"co":184.0,"o3":150.0,"so2":9.5,"mosquito_risk":0,"arthritis_risk":5,"migraine_risk":10,"frizz_risk":0,"updated_at":"2026-05-06T12:01:42.159011+05:30"},{"city":"Amravati","state":"Maharashtra","latitude":20.9374,"longitude":77.7796,"temp":37.6,"humidity":16,"rain":0.0,"pressure":967.4,"uv_index":8.85,"wind_gusts":33.1,"aqi":65,"pm10":46.6,"pm2_5":17.5,"no2":2.2,"co":194.0,"o3":159.0,"so2":6.4,"mosquito_risk":0,"arthritis_risk":5,"migraine_risk":10,"frizz_risk":0,"updated_at":"2026-05-06T12:01:42.159018+05:30"},{"city":"Latur","state":"Maharashtra","latitude":18.4088,"longitude":76.5604,"temp":36.8,"humidity":20,"rain":0.0,"pressure":940.2,"uv_index":9.05,"wind_gusts":36.4,"aqi":64,"pm10":43.1,"pm2_5":17.6,"no2":1.5,"co":164.0,"o3":145.0,"so2":12.2,"mosquito_risk":0,"arthritis_risk":5,"migraine_risk":10,"frizz_risk":0,"updated_at":"2026-05-06T12:01:42.159025+05:30"},{"city":"Nanded","state":"Maharashtra","latitude":19.1383,"longitude":77.3091,"temp":38.4,"humidity":19,"rain":0.0,"pressure":968.3,"uv_index":9.0,"wind_gusts":27.4,"aqi":70,"pm10":49.0,"pm2_5":20.0,"no2":1.8,"co":171.0,"o3":154.0,"so2":7.5,"mosquito_risk":0,"arthritis_risk":5,"migraine_risk":10,"frizz_risk":0,"updated_at":"2026-05-06T12:01:42.159031+05:30"},{"city":"Gulbarga","state":"Karnataka","latitude":17.3297,"longitude":76.8343,"temp":37.2,"humidity":23,"rain":0.0,"pressure":958.3,"uv_index":9.1,"wind_gusts":35.6,"aqi":63,"pm10":37.7,"pm2_5":21.4,"no2":3.1,"co":211.0,"o3":175.0,"so2":10.4,"mosquito_risk":0,"arthritis_risk":5,"migraine_risk":10,"frizz_risk":0,"updated_at":"2026-05-06T12:01:42.159037+05:30"},{"city":"Bidar","state":"Karnataka","latitude":17.9104,"longitude":77.5199,"temp":36.1,"humidity":22,"rain":0.0,"pressure":936.2,"uv_index":9.15,"wind_gusts":38.2,"aqi":83,"pm10":43.5,"pm2_5":25.7,"no2":2.1,"co":195.0,"o3":162.0,"so2":7.7,"mosquito_risk":0,"arthritis_risk":5,"migraine_risk":10,"frizz_risk":0,"updated_at":"2026-05-06T12:01:42.159044+05:30"},{"city":"Hospet","state":"Karnataka","latitude":15.2689,"longitude":76.3909,"temp":34.5,"humidity":35,"rain":0.0,"pressure":955.2,"uv_index":8.85,"wind_gusts":48.2,"aqi":68,"pm10":45.9,"pm2_5":19.7,"no2":2.5,"co":196.0,"o3":135.0,"so2":4.7,"mosquito_risk":0,"arthritis_risk":5,"migraine_risk":7,"frizz_risk":1,"updated_at":"2026-05-06T12:01:42.159050+05:30"},{"city":"Tirupur","state":"Tamil Nadu","latitude":11.1085,"longitude":77.3411,"temp":35.4,"humidity":37,"rain":0.0,"pressure":974.2,"uv_index":9.35,"wind_gusts":29.9,"aqi":77,"pm10":40.7,"pm2_5":23.2,"no2":2.8,"co":255.0,"o3":187.0,"so2":6.4,"mosquito_risk":0,"arthritis_risk":5,"migraine_risk":10,"frizz_risk":1,"updated_at":"2026-05-06T12:01:42.159056+05:30"},{"city":"Alappuzha","state":"Kerala","latitude":9.4981,"longitude":76.3388,"temp":31.6,"humidity":71,"rain":0.0,"pressure":1007.0,"uv_index":8.65,"wind_gusts":31.3,"aqi":59,"pm10":28.5,"pm2_5":15.8,"no2":2.5,"co":132.0,"o3":114.0,"so2":2.9,"mosquito_risk":3,"arthritis_risk":5,"migraine_risk":4,"frizz_risk":1,"updated_at":"2026-05-06T12:01:42.159062+05:30"},{"city":"Munnar","state":"Kerala","latitude":10.0889,"longitude":77.0595,"temp":23.0,"humidity":63,"rain":0.1,"pressure":857.5,"uv_index":6.35,"wind_gusts":22.3,"aqi":62,"pm10":43.9,"pm2_5":22.6,"no2":1.1,"co":202.0,"o3":145.0,"so2":3.8,"mosquito_risk":6,"arthritis_risk":5,"migraine_risk":7,"frizz_risk":0,"updated_at":"2026-05-06T12:01:42.159069+05:30"},{"city":"Silchar","state":"Assam","latitude":24.8333,"longitude":92.7789,"temp":30.5,"humidity":59,"rain":0.0,"pressure":1005.8,"uv_index":8.75,"wind_gusts":19.8,"aqi":111,"pm10":28.4,"pm2_5":19.4,"no2":1.2,"co":198.0,"o3":112.0,"so2":3.8,"mosquito_risk":0,"arthritis_risk":5,"migraine_risk":4,"frizz_risk":1,"updated_at":"2026-05-06T12:01:42.159076+05:30"},{"city":"Dibrugarh","state":"Assam","latitude":27.4728,"longitude":94.912,"temp":27.4,"humidity":68,"rain":0.0,"pressure":996.6,"uv_index":8.8,"wind_gusts":29.9,"aqi":75,"pm10":34.3,"pm2_5":20.3,"no2":1.0,"co":253.0,"o3":133.0,"so2":1.1,"mosquito_risk":7,"arthritis_risk":5,"migraine_risk":7,"frizz_risk":1,"updated_at":"2026-05-06T12:01:42.159082+05:30"}]