[{"city":"Delhi","state":"Delhi","latitude":28.6139,"longitude":77.209,"temp":22.6,"humidity":62,"rain":0.0,"pressure":988.0,"uv_index":5.85,"wind_gusts":23.8,"aqi":160,"pm10":131.3,"pm2_5":63.8,"mosquito_risk":3,"arthritis_risk":5,"migraine_risk":3,"frizz_risk":0,"updated_at":"2026-03-21T20:00:55.296396+05:30"},{"city":"Mumbai","state":"Maharashtra","latitude":19.076,"longitude":72.8777,"temp":27.9,"humidity":65,"rain":0.0,"pressure":1009.8,"uv_index":7.9,"wind_gusts":28.8,"aqi":116,"pm10":33.5,"pm2_5":24.0,"mosquito_risk":7,"arthritis_risk":0,"migraine_risk":4,"frizz_risk":1,"updated_at":"2026-03-21T20:00:55.296443+05:30"},{"city":"Bangalore","state":"Karnataka","latitude":12.9716,"longitude":77.5946,"temp":27.3,"humidity":48,"rain":0.0,"pressure":912.6,"uv_index":9.4,"wind_gusts":21.2,"aqi":167,"pm10":41.3,"pm2_5":35.2,"mosquito_risk":4,"arthritis_risk":5,"migraine_risk":7,"frizz_risk":0,"updated_at":"2026-03-21T20:00:55.296460+05:30"},{"city":"Hyderabad","state":"Telangana","latitude":17.385,"longitude":78.4867,"temp":28.1,"humidity":52,"rain":0.0,"pressure":954.7,"uv_index":8.85,"wind_gusts":31.0,"aqi":165,"pm10":38.8,"pm2_5":30.4,"mosquito_risk":4,"arthritis_risk":5,"migraine_risk":7,"frizz_risk":1,"updated_at":"2026-03-21T20:00:55.296471+05:30"},{"city":"Chennai","state":"Tamil Nadu","latitude":13.0827,"longitude":80.2707,"temp":27.9,"humidity":78,"rain":0.0,"pressure":1008.9,"uv_index":9.1,"wind_gusts":35.6,"aqi":37,"pm10":13.8,"pm2_5":9.2,"mosquito_risk":7,"arthritis_risk":0,"migraine_risk":4,"frizz_risk":1,"updated_at":"2026-03-21T20:00:55.296480+05:30"},{"city":"Kolkata","state":"West Bengal","latitude":22.5726,"longitude":88.3639,"temp":22.5,"humidity":84,"rain":0.0,"pressure":1010.6,"uv_index":7.5,"wind_gusts":19.8,"aqi":62,"pm10":32.7,"pm2_5":31.3,"mosquito_risk":3,"arthritis_risk":0,"migraine_risk":4,"frizz_risk":1,"updated_at":"2026-03-21T20:00:55.296489+05:30"},{"city":"Pune","state":"Maharashtra","latitude":18.5204,"longitude":73.8567,"temp":27.0,"humidity":55,"rain":0.0,"pressure":949.6,"uv_index":8.4,"wind_gusts":28.8,"aqi":98,"pm10":32.2,"pm2_5":19.4,"mosquito_risk":4,"arthritis_risk":5,"migraine_risk":7,"frizz_risk":1,"updated_at":"2026-03-21T20:00:55.296502+05:30"},{"city":"Ahmedabad","state":"Gujarat","latitude":23.0225,"longitude":72.5714,"temp":29.6,"humidity":30,"rain":0.0,"pressure":1004.9,"uv_index":7.6,"wind_gusts":15.1,"aqi":129,"pm10":34.0,"pm2_5":24.2,"mosquito_risk":4,"arthritis_risk":5,"migraine_risk":4,"frizz_risk":0,"updated_at":"2026-03-21T20:00:55.296510+05:30"},{"city":"Jaipur","state":"Rajasthan","latitude":26.9124,"longitude":75.7873,"temp":23.5,"humidity":58,"rain":0.0,"pressure":964.6,"uv_index":6.75,"wind_gusts":36.4,"aqi":95,"pm10":103.4,"pm2_5":28.5,"mosquito_risk":0,"arthritis_risk":5,"migraine_risk":7,"frizz_risk":0,"updated_at":"2026-03-21T20:00:55.296518+05:30"},{"city":"Lucknow","state":"Uttar Pradesh","latitude":26.8467,"longitude":80.9462,"temp":22.2,"humidity":72,"rain":0.0,"pressure":999.2,"uv_index":6.25,"wind_gusts":24.5,"aqi":107,"pm10":52.3,"pm2_5":31.4,"mosquito_risk":3,"arthritis_risk":5,"migraine_risk":7,"frizz_risk":1,"updated_at":"2026-03-21T20:00:55.296526+05:30"},{"city":"Kanpur","state":"Uttar Pradesh","latitude":26.4499,"longitude":80.3319,"temp":21.1,"humidity":70,"rain":0.0,"pressure":997.3,"uv_index":6.7,"wind_gusts":25.6,"aqi":113,"pm10":244.9,"pm2_5":47.7,"mosquito_risk":3,"arthritis_risk":5,"migraine_risk":7,"frizz_risk":0,"updated_at":"2026-03-21T20:00:55.296534+05:30"},{"city":"Chandigarh","state":"Chandigarh","latitude":30.7333,"longitude":76.7794,"temp":18.7,"humidity":76,"rain":0.0,"pressure":973.6,"uv_index":6.35,"wind_gusts":28.4,"aqi":98,"pm10":36.8,"pm2_5":32.2,"mosquito_risk":3,"arthritis_risk":5,"migraine_risk":7,"frizz_risk":0,"updated_at":"2026-03-21T20:00:55.296542+05:30"},{"city":"Srinagar","state":"Jammu and Kashmir","latitude":34.0837,"longitude":74.7973,"temp":11.9,"humidity":55,"rain":0.0,"pressure":842.5,"uv_index":6.7,"wind_gusts":14.0,"aqi":144,"pm10":51.0,"pm2_5":45.5,"mosquito_risk":0,"arthritis_risk":5,"migraine_risk":7,"frizz_risk":0,"updated_at":"2026-03-21T20:00:55.296550+05:30"},{"city":"Jammu","state":"Jammu and Kashmir","latitude":32.7266,"longitude":74.857,"temp":21.2,"humidity":64,"rain":0.0,"pressure":978.0,"uv_index":6.45,"wind_gusts":16.9,"aqi":93,"pm10":52.7,"pm2_5":39.8,"mosquito_risk":3,"arthritis_risk":5,"migraine_risk":7,"frizz_risk":0,"updated_at":"2026-03-21T20:00:55.296557+05:30"},{"city":"Amritsar","state":"Punjab","latitude":31.634,"longitude":74.8723,"temp":20.1,"humidity":68,"rain":0.0,"pressure":986.5,"uv_index":6.1,"wind_gusts":15.8,"aqi":106,"pm10":69.2,"pm2_5":58.0,"mosquito_risk":3,"arthritis_risk":5,"migraine_risk":7,"frizz_risk":0,"updated_at":"2026-03-21T20:00:55.296564+05:30"},{"city":"Ludhiana","state":"Punjab","latitude":30.901,"longitude":75.8573,"temp":19.9,"humidity":68,"rain":0.0,"pressure":984.3,"uv_index":6.0,"wind_gusts":23.0,"aqi":154,"pm10":51.0,"pm2_5":43.3,"mosquito_risk":3,"arthritis_risk":5,"migraine_risk":3,"frizz_risk":0,"updated_at":"2026-03-21T20:00:55.296570+05:30"},{"city":"Jalandhar","state":"Punjab","latitude":31.326,"longitude":75.5762,"temp":19.9,"humidity":70,"rain":0.0,"pressure":985.6,"uv_index":6.3,"wind_gusts":20.5,"aqi":138,"pm10":50.9,"pm2_5":40.0,"mosquito_risk":3,"arthritis_risk":5,"migraine_risk":7,"frizz_risk":0,"updated_at":"2026-03-21T20:00:55.296580+05:30"},{"city":"Dehradun","state":"Uttarakhand","latitude":30.6284,"longitude":78.0322,"temp":11.8,"humidity":84,"rain":0.0,"pressure":830.6,"uv_index":6.7,"wind_gusts":22.7,"aqi":93,"pm10":21.1,"pm2_5":16.9,"mosquito_risk":3,"arthritis_risk":10,"migraine_risk":7,"frizz_risk":0,"updated_at":"2026-03-21T20:00:55.296587+05:30"},{"city":"Shimla","state":"Himachal Pradesh","latitude":31.1048,"longitude":77.1734,"temp":9.1,"humidity":87,"rain":0.0,"pressure":783.9,"uv_index":6.6,"wind_gusts":33.5,"aqi":88,"pm10":30.3,"pm2_5":23.7,"mosquito_risk":3,"arthritis_risk":10,"migraine_risk":7,"frizz_risk":0,"updated_at":"2026-03-21T20:00:55.296595+05:30"},{"city":"Manali","state":"Himachal Pradesh","latitude":32.2396,"longitude":77.1887,"temp":12.1,"humidity":59,"rain":0.0,"pressure":818.6,"uv_index":8.65,"wind_gusts":22.0,"aqi":116,"pm10":13.9,"pm2_5":9.6,"mosquito_risk":0,"arthritis_risk":5,"migraine_risk":7,"frizz_risk":0,"updated_at":"2026-03-21T20:00:55.296603+05:30"},{"city":"Gurgaon","state":"Haryana","latitude":28.4595,"longitude":77.0266,"temp":21.0,"humidity":72,"rain":0.0,"pressure":986.4,"uv_index":6.1,"wind_gusts":20.5,"aqi":171,"pm10":237.0,"pm2_5":82.0,"mosquito_risk":3,"arthritis_risk":5,"migraine_risk":7,"frizz_risk":0,"updated_at":"2026-03-21T20:00:55.296610+05:30"},{"city":"Noida","state":"Uttar Pradesh","latitude":28.5355,"longitude":77.391,"temp":22.5,"humidity":62,"rain":0.0,"pressure":989.6,"uv_index":6.15,"wind_gusts":22.7,"aqi":171,"pm10":237.0,"pm2_5":82.0,"mosquito_risk":3,"arthritis_risk":5,"migraine_risk":7,"frizz_risk":0,"updated_at":"2026-03-21T20:00:55.296617+05:30"},{"city":"Ghaziabad","state":"Uttar Pradesh","latitude":28.6692,"longitude":77.4538,"temp":21.3,"humidity":67,"rain":0.0,"pressure":987.8,"uv_index":5.85,"wind_gusts":21.6,"aqi":158,"pm10":88.2,"pm2_5":51.9,"mosquito_risk":3,"arthritis_risk":5,"migraine_risk":3,"frizz_risk":0,"updated_at":"2026-03-21T20:00:55.296624+05:30"},{"city":"Faridabad","state":"Haryana","latitude":28.4089,"longitude":77.3178,"temp":21.4,"humidity":66,"rain":0.0,"pressure":988.8,"uv_index":6.4,"wind_gusts":20.9,"aqi":171,"pm10":237.0,"pm2_5":82.0,"mosquito_risk":3,"arthritis_risk":5,"migraine_risk":7,"frizz_risk":0,"updated_at":"2026-03-21T20:00:55.296630+05:30"},{"city":"Meerut","state":"Uttar Pradesh","latitude":28.9845,"longitude":77.7064,"temp":20.1,"humidity":72,"rain":0.0,"pressure":986.5,"uv_index":6.15,"wind_gusts":22.0,"aqi":158,"pm10":88.2,"pm2_5":51.9,"mosquito_risk":3,"arthritis_risk":5,"migraine_risk":7,"frizz_risk":0,"updated_at":"2026-03-21T20:00:55.296637+05:30"},{"city":"Agra","state":"Uttar Pradesh","latitude":27.1767,"longitude":78.0081,"temp":22.5,"humidity":55,"rain":0.0,"pressure":993.0,"uv_index":6.8,"wind_gusts":28.1,"aqi":171,"pm10":547.6,"pm2_5":88.7,"mosquito_risk":0,"arthritis_risk":5,"migraine_risk":7,"frizz_risk":0,"updated_at":"2026-03-21T20:00:55.296643+05:30"},{"city":"Varanasi","state":"Uttar Pradesh","latitude":25.3176,"longitude":82.9739,"temp":21.0,"humidity":76,"rain":0.0,"pressure":1003.3,"uv_index":5.1,"wind_gusts":26.3,"aqi":101,"pm10":58.2,"pm2_5":43.0,"mosquito_risk":3,"arthritis_risk":5,"migraine_risk":0,"frizz_risk":1,"updated_at":"2026-03-21T20:00:55.296652+05:30"},{"city":"Prayagraj","state":"Uttar Pradesh","latitude":25.4358,"longitude":81.8463,"temp":21.6,"humidity":77,"rain":0.0,"pressure":1001.8,"uv_index":7.35,"wind_gusts":25.2,"aqi":99,"pm10":46.2,"pm2_5":35.2,"mosquito_risk":3,"arthritis_risk":5,"migraine_risk":4,"frizz_risk":1,"updated_at":"2026-03-21T20:00:55.296660+05:30"},{"city":"Gorakhpur","state":"Uttar Pradesh","latitude":26.7606,"longitude":83.3732,"temp":18.8,"humidity":92,"rain":0.0,"pressure":1003.2,"uv_index":5.7,"wind_gusts":17.3,"aqi":113,"pm10":43.0,"pm2_5":39.8,"mosquito_risk":3,"arthritis_risk":10,"migraine_risk":0,"frizz_risk":1,"updated_at":"2026-03-21T20:00:55.296667+05:30"},{"city":"Bareilly","state":"Uttar Pradesh","latitude":28.367,"longitude":79.4304,"temp":19.8,"humidity":80,"rain":0.0,"pressure":992.2,"uv_index":6.6,"wind_gusts":18.0,"aqi":136,"pm10":25.3,"pm2_5":22.7,"mosquito_risk":3,"arthritis_risk":5,"migraine_risk":7,"frizz_risk":1,"updated_at":"2026-03-21T20:00:55.296676+05:30"},{"city":"Aligarh","state":"Uttar Pradesh","latitude":27.8974,"longitude":78.088,"temp":20.7,"humidity":69,"rain":0.0,"pressure":990.7,"uv_index":6.5,"wind_gusts":20.2,"aqi":162,"pm10":286.8,"pm2_5":68.9,"mosquito_risk":3,"arthritis_risk":5,"migraine_risk":7,"frizz_risk":0,"updated_at":"2026-03-21T20:00:55.296682+05:30"},{"city":"Moradabad","state":"Uttar Pradesh","latitude":28.8386,"longitude":78.7733,"temp":21.6,"humidity":70,"rain":0.0,"pressure":988.8,"uv_index":6.45,"wind_gusts":18.4,"aqi":146,"pm10":46.3,"pm2_5":40.2,"mosquito_risk":3,"arthritis_risk":5,"migraine_risk":7,"frizz_risk":0,"updated_at":"2026-03-21T20:00:55.296689+05:30"},{"city":"Saharanpur","state":"Uttar Pradesh","latitude":29.9637,"longitude":77.546,"temp":19.6,"humidity":70,"rain":0.0,"pressure":980.4,"uv_index":6.1,"wind_gusts":27.0,"aqi":150,"pm10":83.4,"pm2_5":44.6,"mosquito_risk":3,"arthritis_risk":5,"migraine_risk":7,"frizz_risk":0,"updated_at":"2026-03-21T20:00:55.296695+05:30"},{"city":"Jhansi","state":"Uttar Pradesh","latitude":25.4484,"longitude":78.5685,"temp":23.8,"humidity":48,"rain":0.0,"pressure":982.8,"uv_index":7.4,"wind_gusts":24.5,"aqi":91,"pm10":35.9,"pm2_5":21.3,"mosquito_risk":0,"arthritis_risk":5,"migraine_risk":7,"frizz_risk":0,"updated_at":"2026-03-21T20:00:58.522744+05:30"},{"city":"Surat","state":"Gujarat","latitude":21.1702,"longitude":72.8311,"temp":26.7,"humidity":52,"rain":0.0,"pressure":1008.8,"uv_index":7.55,"wind_gusts":28.1,"aqi":110,"pm10":40.4,"pm2_5":36.4,"mosquito_risk":4,"arthritis_risk":0,"migraine_risk":4,"frizz_risk":1,"updated_at":"2026-03-21T20:00:58.522779+05:30"},{"city":"Vadodara","state":"Gujarat","latitude":22.3072,"longitude":73.1812,"temp":28.8,"humidity":39,"rain":0.0,"pressure":1006.6,"uv_index":7.55,"wind_gusts":15.5,"aqi":104,"pm10":25.0,"pm2_5":19.3,"mosquito_risk":4,"arthritis_risk":5,"migraine_risk":4,"frizz_risk":0,"updated_at":"2026-03-21T20:00:58.522790+05:30"},{"city":"Rajkot","state":"Gujarat","latitude":22.3039,"longitude":70.8022,"temp":28.7,"humidity":44,"rain":0.0,"pressure":997.0,"uv_index":7.05,"wind_gusts":20.5,"aqi":88,"pm10":31.2,"pm2_5":14.6,"mosquito_risk":4,"arthritis_risk":5,"migraine_risk":7,"frizz_risk":0,"updated_at":"2026-03-21T20:00:58.522799+05:30"},{"city":"Thane","state":"Maharashtra","latitude":19.2183,"longitude":72.9781,"temp":27.2,"humidity":58,"rain":0.0,"pressure":1009.2,"uv_index":7.85,"wind_gusts":42.8,"aqi":116,"pm10":33.5,"pm2_5":24.0,"mosquito_risk":4,"arthritis_risk":0,"migraine_risk":4,"frizz_risk":1,"updated_at":"2026-03-21T20:00:58.522808+05:30"},{"city":"Nagpur","state":"Maharashtra","latitude":21.1458,"longitude":79.0882,"temp":28.2,"humidity":31,"rain":0.0,"pressure":975.5,"uv_index":8.3,"wind_gusts":24.8,"aqi":89,"pm10":25.0,"pm2_5":18.1,"mosquito_risk":4,"arthritis_risk":5,"migraine_risk":7,"frizz_risk":0,"updated_at":"2026-03-21T20:00:58.522816+05:30"},{"city":"Nashik","state":"Maharashtra","latitude":19.9975,"longitude":73.7898,"temp":26.3,"humidity":31,"rain":0.0,"pressure":947.0,"uv_index":8.05,"wind_gusts":22.7,"aqi":95,"pm10":17.7,"pm2_5":14.7,"mosquito_risk":4,"arthritis_risk":5,"migraine_risk":7,"frizz_risk":0,"updated_at":"2026-03-21T20:00:58.522825+05:30"},{"city":"Aurangabad","state":"Maharashtra","latitude":19.8762,"longitude":75.3433,"temp":27.9,"humidity":28,"rain":0.0,"pressure":945.7,"uv_index":8.6,"wind_gusts":24.5,"aqi":103,"pm10":17.6,"pm2_5":14.0,"mosquito_risk":4,"arthritis_risk":5,"migraine_risk":7,"frizz_risk":0,"updated_at":"2026-03-21T20:00:58.522833+05:30"},{"city":"Solapur","state":"Maharashtra","latitude":17.6599,"longitude":75.9064,"temp":29.9,"humidity":33,"rain":0.0,"pressure":957.8,"uv_index":8.75,"wind_gusts":27.7,"aqi":120,"pm10":36.6,"pm2_5":22.4,"mosquito_risk":4,"arthritis_risk":5,"migraine_risk":7,"frizz_risk":0,"updated_at":"2026-03-21T20:00:58.522842+05:30"},{"city":"Kolhapur","state":"Maharashtra","latitude":16.705,"longitude":74.2433,"temp":24.8,"humidity":43,"rain":0.0,"pressure":948.7,"uv_index":8.85,"wind_gusts":28.8,"aqi":82,"pm10":47.0,"pm2_5":34.9,"mosquito_risk":0,"arthritis_risk":5,"migraine_risk":7,"frizz_risk":0,"updated_at":"2026-03-21T20:00:58.522850+05:30"},{"city":"Goa","state":"Goa","latitude":15.2993,"longitude":74.124,"temp":27.8,"humidity":75,"rain":0.0,"pressure":998.8,"uv_index":8.85,"wind_gusts":35.3,"aqi":114,"pm10":50.8,"pm2_5":27.4,"mosquito_risk":7,"arthritis_risk":5,"migraine_risk":7,"frizz_risk":1,"updated_at":"2026-03-21T20:00:58.522858+05:30"},{"city":"Jodhpur","state":"Rajasthan","latitude":26.2389,"longitude":73.0243,"temp":26.6,"humidity":43,"rain":0.0,"pressure":987.0,"uv_index":6.6,"wind_gusts":24.1,"aqi":88,"pm10":56.3,"pm2_5":16.1,"mosquito_risk":4,"arthritis_risk":5,"migraine_risk":7,"frizz_risk":0,"updated_at":"2026-03-21T20:00:58.522866+05:30"},{"city":"Udaipur","state":"Rajasthan","latitude":24.5854,"longitude":73.7125,"temp":25.1,"humidity":41,"rain":0.0,"pressure":949.9,"uv_index":7.1,"wind_gusts":11.9,"aqi":84,"pm10":24.4,"pm2_5":9.9,"mosquito_risk":4,"arthritis_risk":5,"migraine_risk":7,"frizz_risk":0,"updated_at":"2026-03-21T20:00:58.522875+05:30"},{"city":"Kota","state":"Rajasthan","latitude":25.2138,"longitude":75.8648,"temp":24.9,"humidity":37,"rain":0.0,"pressure":982.7,"uv_index":7.5,"wind_gusts":22.0,"aqi":97,"pm10":31.7,"pm2_5":19.8,"mosquito_risk":0,"arthritis_risk":5,"migraine_risk":7,"frizz_risk":0,"updated_at":"2026-03-21T20:00:58.522882+05:30"},{"city":"Bikaner","state":"Rajasthan","latitude":28.0229,"longitude":73.3119,"temp":25.1,"humidity":48,"rain":0.0,"pressure":987.3,"uv_index":6.25,"wind_gusts":28.4,"aqi":62,"pm10":27.5,"pm2_5":10.0,"mosquito_risk":4,"arthritis_risk":5,"migraine_risk":7,"frizz_risk":0,"updated_at":"2026-03-21T20:00:58.522891+05:30"},{"city":"Ajmer","state":"Rajasthan","latitude":26.4499,"longitude":74.6399,"temp":24.0,"humidity":46,"rain":0.0,"pressure":958.7,"uv_index":7.4,"wind_gusts":25.2,"aqi":93,"pm10":40.3,"pm2_5":16.5,"mosquito_risk":0,"arthritis_risk":5,"migraine_risk":7,"frizz_risk":0,"updated_at":"2026-03-21T20:00:58.522922+05:30"},{"city":"Gwalior","state":"Madhya Pradesh","latitude":26.2183,"longitude":78.1828,"temp":24.6,"humidity":54,"rain":0.0,"pressure":988.2,"uv_index":7.1,"wind_gusts":25.6,"aqi":111,"pm10":120.6,"pm2_5":34.2,"mosquito_risk":0,"arthritis_risk":5,"migraine_risk":7,"frizz_risk":0,"updated_at":"2026-03-21T20:00:58.522938+05:30"},{"city":"Indore","state":"Madhya Pradesh","latitude":22.7196,"longitude":75.8577,"temp":23.7,"humidity":44,"rain":0.0,"pressure":950.8,"uv_index":7.95,"wind_gusts":22.7,"aqi":82,"pm10":22.7,"pm2_5":16.2,"mosquito_risk":0,"arthritis_risk":5,"migraine_risk":7,"frizz_risk":0,"updated_at":"2026-03-21T20:00:58.522947+05:30"},{"city":"Bhopal","state":"Madhya Pradesh","latitude":23.2599,"longitude":77.4126,"temp":23.3,"humidity":38,"rain":0.0,"pressure":957.2,"uv_index":7.9,"wind_gusts":23.8,"aqi":83,"pm10":19.0,"pm2_5":12.6,"mosquito_risk":0,"arthritis_risk":5,"migraine_risk":7,"frizz_risk":0,"updated_at":"2026-03-21T20:00:58.522955+05:30"},{"city":"Jabalpur","state":"Madhya Pradesh","latitude":23.1815,"longitude":79.9864,"temp":23.5,"humidity":47,"rain":0.0,"pressure":965.4,"uv_index":8.0,"wind_gusts":31.3,"aqi":74,"pm10":20.4,"pm2_5":13.6,"mosquito_risk":0,"arthritis_risk":5,"migraine_risk":7,"frizz_risk":0,"updated_at":"2026-03-21T20:00:58.522963+05:30"},{"city":"Ujjain","state":"Madhya Pradesh","latitude":23.1765,"longitude":75.7885,"temp":24.9,"humidity":43,"rain":0.0,"pressure":956.8,"uv_index":7.75,"wind_gusts":19.4,"aqi":80,"pm10":34.1,"pm2_5":24.4,"mosquito_risk":0,"arthritis_risk":5,"migraine_risk":7,"frizz_risk":0,"updated_at":"2026-03-21T20:00:58.522971+05:30"},{"city":"Visakhapatnam","state":"Andhra Pradesh","latitude":17.6868,"longitude":83.2185,"temp":25.8,"humidity":84,"rain":0.0,"pressure":1006.3,"uv_index":8.8,"wind_gusts":35.3,"aqi":74,"pm10":16.2,"pm2_5":13.1,"mosquito_risk":7,"arthritis_risk":5,"migraine_risk":4,"frizz_risk":1,"updated_at":"2026-03-21T20:00:58.522980+05:30"},{"city":"Vijayawada","state":"Andhra Pradesh","latitude":16.5062,"longitude":80.648,"temp":28.2,"humidity":71,"rain":0.0,"pressure":1004.6,"uv_index":8.85,"wind_gusts":24.8,"aqi":60,"pm10":32.1,"pm2_5":27.1,"mosquito_risk":7,"arthritis_risk":5,"migraine_risk":4,"frizz_risk":1,"updated_at":"2026-03-21T20:00:58.522988+05:30"},{"city":"Guntur","state":"Andhra Pradesh","latitude":16.3067,"longitude":80.4365,"temp":27.1,"humidity":79,"rain":0.0,"pressure":1005.7,"uv_index":8.85,"wind_gusts":23.8,"aqi":55,"pm10":34.2,"pm2_5":27.9,"mosquito_risk":7,"arthritis_risk":5,"migraine_risk":4,"frizz_risk":1,"updated_at":"2026-03-21T20:00:58.522997+05:30"},{"city":"Nellore","state":"Andhra Pradesh","latitude":14.4426,"longitude":79.9865,"temp":27.4,"humidity":80,"rain":0.0,"pressure":1007.8,"uv_index":9.0,"wind_gusts":35.3,"aqi":55,"pm10":13.7,"pm2_5":9.8,"mosquito_risk":7,"arthritis_risk":5,"migraine_risk":4,"frizz_risk":1,"updated_at":"2026-03-21T20:00:58.523005+05:30"},{"city":"Kurnool","state":"Andhra Pradesh","latitude":15.8281,"longitude":78.0373,"temp":32.2,"humidity":32,"rain":0.0,"pressure":977.0,"uv_index":8.9,"wind_gusts":19.4,"aqi":152,"pm10":36.2,"pm2_5":27.8,"mosquito_risk":0,"arthritis_risk":5,"migraine_risk":7,"frizz_risk":0,"updated_at":"2026-03-21T20:00:58.523014+05:30"},{"city":"Kakinada","state":"Andhra Pradesh","latitude":16.9891,"longitude":82.2475,"temp":26.3,"humidity":79,"rain":0.0,"pressure":1009.7,"uv_index":8.85,"wind_gusts":26.6,"aqi":40,"pm10":10.7,"pm2_5":7.6,"mosquito_risk":7,"arthritis_risk":0,"migraine_risk":4,"frizz_risk":1,"updated_at":"2026-03-21T20:00:58.523022+05:30"},{"city":"Tirupati","state":"Andhra Pradesh","latitude":13.6288,"longitude":79.4192,"temp":28.3,"humidity":67,"rain":0.0,"pressure":993.1,"uv_index":8.85,"wind_gusts":26.3,"aqi":99,"pm10":32.7,"pm2_5":27.1,"mosquito_risk":7,"arthritis_risk":5,"migraine_risk":7,"frizz_risk":1,"updated_at":"2026-03-21T20:00:58.523030+05:30"},{"city":"Warangal","state":"Telangana","latitude":17.9689,"longitude":79.5941,"temp":26.3,"humidity":70,"rain":0.0,"pressure":980.6,"uv_index":8.65,"wind_gusts":28.4,"aqi":109,"pm10":56.8,"pm2_5":47.5,"mosquito_risk":7,"arthritis_risk":5,"migraine_risk":7,"frizz_risk":1,"updated_at":"2026-03-21T20:00:58.523038+05:30"},{"city":"Nizamabad","state":"Telangana","latitude":18.6725,"longitude":78.0941,"temp":29.3,"humidity":42,"rain":0.0,"pressure":966.0,"uv_index":8.6,"wind_gusts":34.9,"aqi":88,"pm10":47.0,"pm2_5":30.6,"mosquito_risk":4,"arthritis_risk":5,"migraine_risk":7,"frizz_risk":0,"updated_at":"2026-03-21T20:00:58.523046+05:30"},{"city":"Mysore","state":"Karnataka","latitude":12.2958,"longitude":76.6396,"temp":26.5,"humidity":62,"rain":0.0,"pressure":929.3,"uv_index":9.4,"wind_gusts":44.3,"aqi":165,"pm10":42.7,"pm2_5":32.8,"mosquito_risk":7,"arthritis_risk":5,"migraine_risk":7,"frizz_risk":1,"updated_at":"2026-03-21T20:00:58.523054+05:30"},{"city":"Mangalore","state":"Karnataka","latitude":12.9141,"longitude":74.856,"temp":29.5,"humidity":74,"rain":0.0,"pressure":1007.4,"uv_index":9.05,"wind_gusts":29.2,"aqi":78,"pm10":31.5,"pm2_5":16.9,"mosquito_risk":7,"arthritis_risk":5,"migraine_risk":4,"frizz_risk":1,"updated_at":"2026-03-21T20:00:58.523061+05:30"},{"city":"Hubli-Dharwad","state":"Karnataka","latitude":15.3647,"longitude":75.124,"temp":27.0,"humidity":43,"rain":0.0,"pressure":941.3,"uv_index":9.05,"wind_gusts":28.8,"aqi":134,"pm10":35.0,"pm2_5":26.9,"mosquito_risk":4,"arthritis_risk":5,"migraine_risk":7,"frizz_risk":0,"updated_at":"2026-03-21T20:00:58.523069+05:30"},{"city":"Belgaum","state":"Karnataka","latitude":15.8497,"longitude":74.4977,"temp":24.9,"humidity":53,"rain":0.0,"pressure":926.5,"uv_index":9.1,"wind_gusts":36.4,"aqi":126,"pm10":27.5,"pm2_5":20.9,"mosquito_risk":0,"arthritis_risk":5,"migraine_risk":7,"frizz_risk":0,"updated_at":"2026-03-21T20:01:01.760011+05:30"},{"city":"Coimbatore","state":"Tamil Nadu","latitude":11.0168,"longitude":76.9558,"temp":26.6,"humidity":69,"rain":0.0,"pressure":962.5,"uv_index":9.35,"wind_gusts":47.2,"aqi":150,"pm10":29.0,"pm2_5":22.8,"mosquito_risk":7,"arthritis_risk":5,"migraine_risk":7,"frizz_risk":1,"updated_at":"2026-03-21T20:01:01.760041+05:30"},{"city":"Madurai","state":"Tamil Nadu","latitude":9.9252,"longitude":78.1198,"temp":29.9,"humidity":63,"rain":0.0,"pressure":994.0,"uv_index":9.3,"wind_gusts":38.9,"aqi":102,"pm10":12.2,"pm2_5":9.2,"mosquito_risk":7,"arthritis_risk":5,"migraine_risk":7,"frizz_risk":1,"updated_at":"2026-03-21T20:01:01.760052+05:30"},{"city":"Trichy","state":"Tamil Nadu","latitude":10.7905,"longitude":78.7047,"temp":29.1,"humidity":70,"rain":0.0,"pressure":1000.7,"uv_index":9.25,"wind_gusts":29.5,"aqi":88,"pm10":15.8,"pm2_5":13.9,"mosquito_risk":7,"arthritis_risk":5,"migraine_risk":4,"frizz_risk":1,"updated_at":"2026-03-21T20:01:01.760060+05:30"},{"city":"Salem","state":"Tamil Nadu","latitude":11.6643,"longitude":78.146,"temp":30.3,"humidity":52,"rain":0.0,"pressure":977.6,"uv_index":9.3,"wind_gusts":26.6,"aqi":141,"pm10":33.3,"pm2_5":28.2,"mosquito_risk":0,"arthritis_risk":5,"migraine_risk":7,"frizz_risk":1,"updated_at":"2026-03-21T20:01:01.760068+05:30"},{"city":"Tirunelveli","state":"Tamil Nadu","latitude":8.7139,"longitude":77.7567,"temp":28.7,"humidity":70,"rain":0.0,"pressure":1004.2,"uv_index":9.3,"wind_gusts":42.8,"aqi":127,"pm10":17.3,"pm2_5":15.2,"mosquito_risk":7,"arthritis_risk":5,"migraine_risk":4,"frizz_risk":1,"updated_at":"2026-03-21T20:01:01.760075+05:30"},{"city":"Vellore","state":"Tamil Nadu","latitude":12.9165,"longitude":79.1325,"temp":28.6,"humidity":61,"rain":0.0,"pressure":985.9,"uv_index":9.2,"wind_gusts":37.1,"aqi":102,"pm10":16.2,"pm2_5":14.4,"mosquito_risk":7,"arthritis_risk":5,"migraine_risk":7,"frizz_risk":1,"updated_at":"2026-03-21T20:01:01.760083+05:30"},{"city":"Erode","state":"Tamil Nadu","latitude":11.341,"longitude":77.7172,"temp":31.5,"humidity":51,"rain":0.0,"pressure":989.0,"uv_index":9.3,"wind_gusts":24.5,"aqi":118,"pm10":20.9,"pm2_5":16.7,"mosquito_risk":0,"arthritis_risk":5,"migraine_risk":7,"frizz_risk":1,"updated_at":"2026-03-21T20:01:01.760091+05:30"},{"city":"Kochi","state":"Kerala","latitude":9.9312,"longitude":76.2673,"temp":29.2,"humidity":72,"rain":0.0,"pressure":1009.7,"uv_index":9.15,"wind_gusts":33.8,"aqi":102,"pm10":27.0,"pm2_5":22.8,"mosquito_risk":7,"arthritis_risk":0,"migraine_risk":4,"frizz_risk":1,"updated_at":"2026-03-21T20:01:01.760099+05:30"},{"city":"Thiruvananthapuram","state":"Kerala","latitude":8.5241,"longitude":76.9366,"temp":28.0,"humidity":80,"rain":0.0,"pressure":1009.3,"uv_index":8.55,"wind_gusts":24.8,"aqi":108,"pm10":24.0,"pm2_5":17.5,"mosquito_risk":7,"arthritis_risk":0,"migraine_risk":4,"frizz_risk":1,"updated_at":"2026-03-21T20:01:01.760106+05:30"},{"city":"Kozhikode","state":"Kerala","latitude":11.2588,"longitude":75.7804,"temp":29.2,"humidity":78,"rain":0.0,"pressure":1008.7,"uv_index":9.05,"wind_gusts":31.3,"aqi":73,"pm10":22.0,"pm2_5":14.8,"mosquito_risk":7,"arthritis_risk":0,"migraine_risk":4,"frizz_risk":1,"updated_at":"2026-03-21T20:01:01.760113+05:30"},{"city":"Thrissur","state":"Kerala","latitude":10.5276,"longitude":76.2144,"temp":28.8,"humidity":71,"rain":0.0,"pressure":1007.9,"uv_index":9.15,"wind_gusts":38.9,"aqi":88,"pm10":18.3,"pm2_5":15.3,"mosquito_risk":7,"arthritis_risk":5,"migraine_risk":4,"frizz_risk":1,"updated_at":"2026-03-21T20:01:01.760122+05:30"},{"city":"Kannur","state":"Kerala","latitude":11.8745,"longitude":75.3704,"temp":28.9,"humidity":77,"rain":0.0,"pressure":1008.0,"uv_index":9.1,"wind_gusts":34.9,"aqi":91,"pm10":25.3,"pm2_5":15.6,"mosquito_risk":7,"arthritis_risk":0,"migraine_risk":4,"frizz_risk":1,"updated_at":"2026-03-21T20:01:01.760133+05:30"},{"city":"Patna","state":"Bihar","latitude":25.5941,"longitude":85.1376,"temp":20.7,"humidity":84,"rain":0.0,"pressure":1006.3,"uv_index":7.2,"wind_gusts":24.5,"aqi":140,"pm10":59.5,"pm2_5":55.8,"mosquito_risk":3,"arthritis_risk":5,"migraine_risk":4,"frizz_risk":1,"updated_at":"2026-03-21T20:01:01.760140+05:30"},{"city":"Gaya","state":"Bihar","latitude":24.7914,"longitude":85.0002,"temp":20.4,"humidity":84,"rain":0.0,"pressure":999.5,"uv_index":7.65,"wind_gusts":24.8,"aqi":118,"pm10":46.2,"pm2_5":42.3,"mosquito_risk":3,"arthritis_risk":5,"migraine_risk":7,"frizz_risk":1,"updated_at":"2026-03-21T20:01:01.760147+05:30"},{"city":"Muzaffarpur","state":"Bihar","latitude":26.1209,"longitude":85.3647,"temp":18.7,"humidity":93,"rain":0.0,"pressure":1006.4,"uv_index":5.2,"wind_gusts":23.8,"aqi":145,"pm10":56.6,"pm2_5":54.2,"mosquito_risk":3,"arthritis_risk":10,"migraine_risk":0,"frizz_risk":1,"updated_at":"2026-03-21T20:01:01.760154+05:30"},{"city":"Bhagalpur","state":"Bihar","latitude":25.2425,"longitude":87.0117,"temp":20.3,"humidity":90,"rain":0.0,"pressure":1007.0,"uv_index":5.85,"wind_gusts":24.5,"aqi":121,"pm10":36.1,"pm2_5":33.3,"mosquito_risk":3,"arthritis_risk":5,"migraine_risk":0,"frizz_risk":1,"updated_at":"2026-03-21T20:01:01.760161+05:30"},{"city":"Ranchi","state":"Jharkhand","latitude":23.3441,"longitude":85.3096,"temp":19.7,"humidity":71,"rain":0.0,"pressure":940.8,"uv_index":8.35,"wind_gusts":32.0,"aqi":114,"pm10":28.5,"pm2_5":26.1,"mosquito_risk":3,"arthritis_risk":5,"migraine_risk":7,"frizz_risk":0,"updated_at":"2026-03-21T20:01:01.760169+05:30"},{"city":"Jamshedpur","state":"Jharkhand","latitude":22.8046,"longitude":86.2029,"temp":23.0,"humidity":71,"rain":0.0,"pressure":995.4,"uv_index":7.75,"wind_gusts":29.9,"aqi":120,"pm10":36.1,"pm2_5":34.0,"mosquito_risk":3,"arthritis_risk":5,"migraine_risk":7,"frizz_risk":1,"updated_at":"2026-03-21T20:01:01.760176+05:30"},{"city":"Dhanbad","state":"Jharkhand","latitude":23.7957,"longitude":86.4304,"temp":21.4,"humidity":74,"rain":0.0,"pressure":984.7,"uv_index":7.6,"wind_gusts":27.0,"aqi":150,"pm10":52.6,"pm2_5":49.2,"mosquito_risk":3,"arthritis_risk":5,"migraine_risk":7,"frizz_risk":1,"updated_at":"2026-03-21T20:01:01.760183+05:30"},{"city":"Bokaro","state":"Jharkhand","latitude":23.6693,"longitude":86.1511,"temp":20.6,"humidity":79,"rain":0.0,"pressure":988.7,"uv_index":5.8,"wind_gusts":37.4,"aqi":144,"pm10":54.2,"pm2_5":52.0,"mosquito_risk":3,"arthritis_risk":5,"migraine_risk":3,"frizz_risk":1,"updated_at":"2026-03-21T20:01:01.760190+05:30"},{"city":"Bhubaneswar","state":"Odisha","latitude":20.2961,"longitude":85.8245,"temp":25.1,"humidity":77,"rain":0.0,"pressure":1005.5,"uv_index":8.55,"wind_gusts":28.1,"aqi":156,"pm10":44.1,"pm2_5":39.6,"mosquito_risk":7,"arthritis_risk":5,"migraine_risk":4,"frizz_risk":1,"updated_at":"2026-03-21T20:01:01.760198+05:30"},{"city":"Cuttack","state":"Odisha","latitude":20.4625,"longitude":85.8828,"temp":27.5,"humidity":61,"rain":0.0,"pressure":1007.1,"uv_index":8.6,"wind_gusts":25.9,"aqi":156,"pm10":44.1,"pm2_5":39.6,"mosquito_risk":7,"arthritis_risk":5,"migraine_risk":4,"frizz_risk":1,"updated_at":"2026-03-21T20:01:01.760205+05:30"},{"city":"Rourkela","state":"Odisha","latitude":22.2604,"longitude":84.8536,"temp":27.1,"humidity":48,"rain":0.0,"pressure":987.7,"uv_index":8.15,"wind_gusts":29.9,"aqi":152,"pm10":51.9,"pm2_5":41.4,"mosquito_risk":4,"arthritis_risk":5,"migraine_risk":7,"frizz_risk":0,"updated_at":"2026-03-21T20:01:01.760212+05:30"},{"city":"Raipur","state":"Chhattisgarh","latitude":21.2514,"longitude":81.6296,"temp":27.4,"humidity":24,"rain":0.0,"pressure":977.3,"uv_index":8.35,"wind_gusts":31.7,"aqi":116,"pm10":53.2,"pm2_5":42.5,"mosquito_risk":4,"arthritis_risk":5,"migraine_risk":7,"frizz_risk":0,"updated_at":"2026-03-21T20:01:01.760219+05:30"},{"city":"Bhilai","state":"Chhattisgarh","latitude":21.1938,"longitude":81.3509,"temp":26.1,"humidity":28,"rain":0.0,"pressure":977.6,"uv_index":8.35,"wind_gusts":33.8,"aqi":109,"pm10":28.0,"pm2_5":23.1,"mosquito_risk":4,"arthritis_risk":5,"migraine_risk":7,"frizz_risk":0,"updated_at":"2026-03-21T20:01:01.760226+05:30"},{"city":"Guwahati","state":"Assam","latitude":26.1158,"longitude":91.7086,"temp":22.5,"humidity":92,"rain":0.0,"pressure":1006.6,"uv_index":2.65,"wind_gusts":18.7,"aqi":87,"pm10":42.0,"pm2_5":36.8,"mosquito_risk":3,"arthritis_risk":5,"migraine_risk":0,"frizz_risk":1,"updated_at":"2026-03-21T20:01:01.760232+05:30"},{"city":"Agartala","state":"Tripura","latitude":23.8315,"longitude":91.2868,"temp":22.5,"humidity":79,"rain":0.0,"pressure":1010.1,"uv_index":5.1,"wind_gusts":18.4,"aqi":115,"pm10":41.7,"pm2_5":34.6,"mosquito_risk":3,"arthritis_risk":0,"migraine_risk":0,"frizz_risk":1,"updated_at":"2026-03-21T20:01:01.760239+05:30"},{"city":"Shillong","state":"Meghalaya","latitude":25.5788,"longitude":91.8933,"temp":11.9,"humidity":91,"rain":0.1,"pressure":857.2,"uv_index":5.05,"wind_gusts":23.8,"aqi":74,"pm10":40.9,"pm2_5":29.3,"mosquito_risk":6,"arthritis_risk":10,"migraine_risk":3,"frizz_risk":0,"updated_at":"2026-03-21T20:01:01.760246+05:30"},{"city":"Imphal","state":"Manipur","latitude":24.817,"longitude":93.9368,"temp":17.0,"humidity":85,"rain":0.0,"pressure":925.3,"uv_index":7.45,"wind_gusts":35.3,"aqi":89,"pm10":39.2,"pm2_5":32.2,"mosquito_risk":3,"arthritis_risk":10,"migraine_risk":7,"frizz_risk":0,"updated_at":"2026-03-21T20:01:01.760254+05:30"},{"city":"Aizawl","state":"Mizoram","latitude":23.7271,"longitude":92.7176,"temp":16.7,"humidity":87,"rain":0.0,"pressure":894.2,"uv_index":5.35,"wind_gusts":34.6,"aqi":112,"pm10":55.2,"pm2_5":42.5,"mosquito_risk":3,"arthritis_risk":10,"migraine_risk":3,"frizz_risk":0,"updated_at":"2026-03-21T20:01:01.760262+05:30"},{"city":"Kohima","state":"Nagaland","latitude":25.6701,"longitude":94.1077,"temp":13.9,"humidity":95,"rain":0.2,"pressure":856.5,"uv_index":7.0,"wind_gusts":57.2,"aqi":73,"pm10":34.2,"pm2_5":25.2,"mosquito_risk":6,"arthritis_risk":10,"migraine_risk":7,"frizz_risk":0,"updated_at":"2026-03-21T20:01:01.760269+05:30"},{"city":"Gangtok","state":"Sikkim","latitude":27.3314,"longitude":88.6138,"temp":9.9,"humidity":94,"rain":0.2,"pressure":837.7,"uv_index":1.95,"wind_gusts":16.6,"aqi":105,"pm10":34.3,"pm2_5":27.3,"mosquito_risk":6,"arthritis_risk":10,"migraine_risk":3,"frizz_risk":0,"updated_at":"2026-03-21T20:01:01.760276+05:30"},{"city":"Siliguri","state":"West Bengal","latitude":26.7271,"longitude":88.3953,"temp":17.3,"humidity":67,"rain":0.0,"pressure":998.9,"uv_index":0.45,"wind_gusts":29.2,"aqi":103,"pm10":63.3,"pm2_5":48.5,"mosquito_risk":3,"arthritis_risk":5,"migraine_risk":3,"frizz_risk":0,"updated_at":"2026-03-21T20:01:04.988681+05:30"},{"city":"Durgapur","state":"West Bengal","latitude":23.5204,"longitude":87.3119,"temp":22.5,"humidity":73,"rain":0.0,"pressure":1000.1,"uv_index":7.8,"wind_gusts":19.1,"aqi":125,"pm10":39.3,"pm2_5":36.2,"mosquito_risk":3,"arthritis_risk":5,"migraine_risk":4,"frizz_risk":1,"updated_at":"2026-03-21T20:01:04.988712+05:30"},{"city":"Asansol","state":"West Bengal","latitude":23.6739,"longitude":86.9524,"temp":22.4,"humidity":72,"rain":0.0,"pressure":998.7,"uv_index":6.55,"wind_gusts":21.2,"aqi":132,"pm10":40.7,"pm2_5":36.9,"mosquito_risk":3,"arthritis_risk":5,"migraine_risk":7,"frizz_risk":1,"updated_at":"2026-03-21T20:01:04.988724+05:30"},{"city":"Pondicherry","state":"Puducherry","latitude":11.9139,"longitude":79.8145,"temp":26.9,"humidity":85,"rain":0.0,"pressure":1010.0,"uv_index":9.15,"wind_gusts":30.6,"aqi":33,"pm10":13.0,"pm2_5":8.2,"mosquito_risk":7,"arthritis_risk":0,"migraine_risk":4,"frizz_risk":1,"updated_at":"2026-03-21T20:01:04.988734+05:30"},{"city":"Port Blair","state":"Andaman and Nicobar Islands","latitude":11.6234,"longitude":92.7265,"temp":28.7,"humidity":76,"rain":0.0,"pressure":1008.8,"uv_index":9.1,"wind_gusts":14.8,"aqi":50,"pm10":13.3,"pm2_5":10.0,"mosquito_risk":7,"arthritis_risk":0,"migraine_risk":4,"frizz_risk":1,"updated_at":"2026-03-21T20:01:04.988744+05:30"},{"city":"Haridwar","state":"Uttarakhand","latitude":29.9457,"longitude":78.1642,"temp":20.2,"humidity":72,"rain":0.0,"pressure":978.8,"uv_index":6.2,"wind_gusts":21.6,"aqi":106,"pm10":40.5,"pm2_5":34.3,"mosquito_risk":3,"arthritis_risk":5,"migraine_risk":7,"frizz_risk":0,"updated_at":"2026-03-21T20:01:04.988753+05:30"},{"city":"Rishikesh","state":"Uttarakhand","latitude":30.0869,"longitude":78.2676,"temp":20.2,"humidity":70,"rain":0.0,"pressure":971.4,"uv_index":6.25,"wind_gusts":20.9,"aqi":97,"pm10":23.7,"pm2_5":20.4,"mosquito_risk":3,"arthritis_risk":5,"migraine_risk":7,"frizz_risk":0,"updated_at":"2026-03-21T20:01:04.988762+05:30"},{"city":"Nainital","state":"Uttarakhand","latitude":29.3919,"longitude":79.4542,"temp":12.4,"humidity":90,"rain":0.0,"pressure":806.4,"uv_index":6.9,"wind_gusts":34.2,"aqi":69,"pm10":19.0,"pm2_5":16.1,"mosquito_risk":3,"arthritis_risk":10,"migraine_risk":7,"frizz_risk":0,"updated_at":"2026-03-21T20:01:04.988771+05:30"},{"city":"Mussoorie","state":"Uttarakhand","latitude":30.4599,"longitude":78.0664,"temp":12.0,"humidity":79,"rain":0.0,"pressure":802.9,"uv_index":6.6,"wind_gusts":26.3,"aqi":102,"pm10":33.1,"pm2_5":29.6,"mosquito_risk":3,"arthritis_risk":5,"migraine_risk":7,"frizz_risk":0,"updated_at":"2026-03-21T20:01:04.988780+05:30"},{"city":"Dharamshala","state":"Himachal Pradesh","latitude":32.219,"longitude":76.3234,"temp":14.8,"humidity":77,"rain":0.0,"pressure":870.7,"uv_index":6.6,"wind_gusts":17.6,"aqi":91,"pm10":27.0,"pm2_5":18.5,"mosquito_risk":3,"arthritis_risk":5,"migraine_risk":7,"frizz_risk":0,"updated_at":"2026-03-21T20:01:04.988788+05:30"},{"city":"Dalhousie","state":"Himachal Pradesh","latitude":32.5387,"longitude":75.971,"temp":12.1,"humidity":78,"rain":0.0,"pressure":804.2,"uv_index":6.25,"wind_gusts":17.3,"aqi":74,"pm10":41.4,"pm2_5":32.4,"mosquito_risk":3,"arthritis_risk":5,"migraine_risk":7,"frizz_risk":0,"updated_at":"2026-03-21T20:01:04.988797+05:30"},{"city":"Patiala","state":"Punjab","latitude":30.3398,"longitude":76.3869,"temp":19.0,"humidity":71,"rain":0.0,"pressure":983.4,"uv_index":5.85,"wind_gusts":23.8,"aqi":153,"pm10":200.7,"pm2_5":48.7,"mosquito_risk":3,"arthritis_risk":5,"migraine_risk":3,"frizz_risk":0,"updated_at":"2026-03-21T20:01:04.988806+05:30"},{"city":"Bhatinda","state":"Punjab","latitude":30.211,"longitude":74.9455,"temp":20.8,"humidity":71,"rain":0.0,"pressure":989.6,"uv_index":5.55,"wind_gusts":18.0,"aqi":131,"pm10":87.8,"pm2_5":63.3,"mosquito_risk":3,"arthritis_risk":5,"migraine_risk":3,"frizz_risk":0,"updated_at":"2026-03-21T20:01:04.988814+05:30"},{"city":"Rohtak","state":"Haryana","latitude":28.8955,"longitude":76.6066,"temp":20.6,"humidity":72,"rain":0.0,"pressure":986.9,"uv_index":5.9,"wind_gusts":22.7,"aqi":165,"pm10":134.1,"pm2_5":67.3,"mosquito_risk":3,"arthritis_risk":5,"migraine_risk":3,"frizz_risk":0,"updated_at":"2026-03-21T20:01:04.988822+05:30"},{"city":"Panipat","state":"Haryana","latitude":29.3909,"longitude":76.9635,"temp":19.6,"humidity":76,"rain":0.0,"pressure":985.4,"uv_index":6.0,"wind_gusts":24.8,"aqi":164,"pm10":227.7,"pm2_5":63.1,"mosquito_risk":3,"arthritis_risk":5,"migraine_risk":3,"frizz_risk":0,"updated_at":"2026-03-21T20:01:04.988831+05:30"},{"city":"Mathura","state":"Uttar Pradesh","latitude":27.4924,"longitude":77.6737,"temp":22.5,"humidity":62,"rain":0.0,"pressure":992.1,"uv_index":6.7,"wind_gusts":23.8,"aqi":159,"pm10":372.5,"pm2_5":80.6,"mosquito_risk":3,"arthritis_risk":5,"migraine_risk":7,"frizz_risk":0,"updated_at":"2026-03-21T20:01:04.988839+05:30"},{"city":"Vrindavan","state":"Uttar Pradesh","latitude":27.5823,"longitude":77.7027,"temp":21.6,"humidity":68,"rain":0.0,"pressure":992.5,"uv_index":6.65,"wind_gusts":21.6,"aqi":159,"pm10":372.5,"pm2_5":80.6,"mosquito_risk":3,"arthritis_risk":5,"migraine_risk":7,"frizz_risk":0,"updated_at":"2026-03-21T20:01:04.988848+05:30"},{"city":"Ayodhya","state":"Uttar Pradesh","latitude":26.7922,"longitude":82.1998,"temp":20.9,"humidity":78,"rain":0.0,"pressure":1001.2,"uv_index":6.95,"wind_gusts":22.0,"aqi":92,"pm10":48.8,"pm2_5":39.5,"mosquito_risk":3,"arthritis_risk":5,"migraine_risk":4,"frizz_risk":1,"updated_at":"2026-03-21T20:01:04.988856+05:30"},{"city":"Ratlam","state":"Madhya Pradesh","latitude":23.3315,"longitude":75.0367,"temp":24.8,"humidity":48,"rain":0.0,"pressure":957.2,"uv_index":7.55,"wind_gusts":21.2,"aqi":80,"pm10":28.8,"pm2_5":18.7,"mosquito_risk":0,"arthritis_risk":5,"migraine_risk":7,"frizz_risk":0,"updated_at":"2026-03-21T20:01:04.988865+05:30"},{"city":"Sagar","state":"Madhya Pradesh","latitude":23.8388,"longitude":78.7378,"temp":23.6,"humidity":44,"rain":0.0,"pressure":954.2,"uv_index":7.9,"wind_gusts":28.4,"aqi":89,"pm10":18.0,"pm2_5":12.1,"mosquito_risk":0,"arthritis_risk":5,"migraine_risk":7,"frizz_risk":0,"updated_at":"2026-03-21T20:01:04.988873+05:30"},{"city":"Satna","state":"Madhya Pradesh","latitude":24.6005,"longitude":80.8322,"temp":21.8,"humidity":64,"rain":0.0,"pressure":976.1,"uv_index":7.8,"wind_gusts":32.8,"aqi":76,"pm10":22.2,"pm2_5":12.2,"mosquito_risk":3,"arthritis_risk":5,"migraine_risk":7,"frizz_risk":0,"updated_at":"2026-03-21T20:01:04.988881+05:30"},{"city":"Akola","state":"Maharashtra","latitude":20.7002,"longitude":77.0082,"temp":27.5,"humidity":29,"rain":0.0,"pressure":977.3,"uv_index":8.25,"wind_gusts":23.0,"aqi":103,"pm10":28.1,"pm2_5":21.9,"mosquito_risk":4,"arthritis_risk":5,"migraine_risk":7,"frizz_risk":0,"updated_at":"2026-03-21T20:01:04.988890+05:30"},{"city":"Amravati","state":"Maharashtra","latitude":20.9374,"longitude":77.7796,"temp":28.1,"humidity":36,"rain":0.0,"pressure":969.2,"uv_index":8.3,"wind_gusts":25.2,"aqi":98,"pm10":24.1,"pm2_5":18.1,"mosquito_risk":4,"arthritis_risk":5,"migraine_risk":7,"frizz_risk":0,"updated_at":"2026-03-21T20:01:04.988936+05:30"},{"city":"Latur","state":"Maharashtra","latitude":18.4088,"longitude":76.5604,"temp":27.4,"humidity":35,"rain":0.0,"pressure":940.7,"uv_index":8.65,"wind_gusts":34.2,"aqi":111,"pm10":31.1,"pm2_5":20.9,"mosquito_risk":4,"arthritis_risk":5,"migraine_risk":7,"frizz_risk":0,"updated_at":"2026-03-21T20:01:04.988955+05:30"},{"city":"Nanded","state":"Maharashtra","latitude":19.1383,"longitude":77.3091,"temp":29.8,"humidity":32,"rain":0.0,"pressure":969.8,"uv_index":8.5,"wind_gusts":28.1,"aqi":87,"pm10":45.2,"pm2_5":25.6,"mosquito_risk":4,"arthritis_risk":5,"migraine_risk":7,"frizz_risk":0,"updated_at":"2026-03-21T20:01:04.988964+05:30"},{"city":"Gulbarga","state":"Karnataka","latitude":17.3297,"longitude":76.8343,"temp":31.3,"humidity":27,"rain":0.0,"pressure":959.4,"uv_index":8.75,"wind_gusts":42.1,"aqi":144,"pm10":32.6,"pm2_5":22.2,"mosquito_risk":0,"arthritis_risk":5,"migraine_risk":7,"frizz_risk":0,"updated_at":"2026-03-21T20:01:04.988972+05:30"},{"city":"Bidar","state":"Karnataka","latitude":17.9104,"longitude":77.5199,"temp":29.2,"humidity":35,"rain":0.0,"pressure":936.6,"uv_index":8.75,"wind_gusts":40.3,"aqi":97,"pm10":27.9,"pm2_5":19.6,"mosquito_risk":4,"arthritis_risk":5,"migraine_risk":7,"frizz_risk":0,"updated_at":"2026-03-21T20:01:04.988981+05:30"},{"city":"Hospet","state":"Karnataka","latitude":15.2689,"longitude":76.3909,"temp":30.3,"humidity":44,"rain":0.0,"pressure":956.2,"uv_index":9.0,"wind_gusts":19.4,"aqi":175,"pm10":29.3,"pm2_5":23.7,"mosquito_risk":0,"arthritis_risk":5,"migraine_risk":7,"frizz_risk":1,"updated_at":"2026-03-21T20:01:04.988989+05:30"},{"city":"Tirupur","state":"Tamil Nadu","latitude":11.1085,"longitude":77.3411,"temp":30.8,"humidity":50,"rain":0.0,"pressure":975.6,"uv_index":9.4,"wind_gusts":33.5,"aqi":141,"pm10":27.4,"pm2_5":20.3,"mosquito_risk":0,"arthritis_risk":5,"migraine_risk":7,"frizz_risk":1,"updated_at":"2026-03-21T20:01:04.988999+05:30"},{"city":"Alappuzha","state":"Kerala","latitude":9.4981,"longitude":76.3388,"temp":29.0,"humidity":74,"rain":0.0,"pressure":1009.8,"uv_index":9.1,"wind_gusts":29.2,"aqi":91,"pm10":21.4,"pm2_5":16.4,"mosquito_risk":7,"arthritis_risk":0,"migraine_risk":4,"frizz_risk":1,"updated_at":"2026-03-21T20:01:04.989008+05:30"},{"city":"Munnar","state":"Kerala","latitude":10.0889,"longitude":77.0595,"temp":20.9,"humidity":88,"rain":0.0,"pressure":857.6,"uv_index":9.65,"wind_gusts":30.6,"aqi":104,"pm10":27.5,"pm2_5":22.5,"mosquito_risk":3,"arthritis_risk":5,"migraine_risk":7,"frizz_risk":1,"updated_at":"2026-03-21T20:01:04.989017+05:30"},{"city":"Silchar","state":"Assam","latitude":24.8333,"longitude":92.7789,"temp":23.4,"humidity":75,"rain":0.0,"pressure":1008.3,"uv_index":6.8,"wind_gusts":22.3,"aqi":99,"pm10":57.6,"pm2_5":45.5,"mosquito_risk":3,"arthritis_risk":0,"migraine_risk":4,"frizz_risk":1,"updated_at":"2026-03-21T20:01:04.989026+05:30"},{"city":"Dibrugarh","state":"Assam","latitude":27.4728,"longitude":94.912,"temp":23.7,"humidity":83,"rain":0.0,"pressure":999.1,"uv_index":7.6,"wind_gusts":20.5,"aqi":91,"pm10":57.9,"pm2_5":46.8,"mosquito_risk":3,"arthritis_risk":5,"migraine_risk":7,"frizz_risk":1,"updated_at":"2026-03-21T20:01:04.989034+05:30"}]