[{"city":"Delhi","state":"Delhi","latitude":28.6139,"longitude":77.209,"temp":16.2,"humidity":79,"rain":0.0,"pressure":985.5,"uv_index":5.8,"wind_gusts":35.6,"aqi":211,"pm10":318.5,"pm2_5":76.1,"mosquito_risk":3,"arthritis_risk":5,"migraine_risk":3,"frizz_risk":0,"updated_at":"2026-03-03T05:00:24.670313+05:30"},{"city":"Mumbai","state":"Maharashtra","latitude":19.076,"longitude":72.8777,"temp":26.7,"humidity":75,"rain":0.0,"pressure":1009.5,"uv_index":7.35,"wind_gusts":27.4,"aqi":91,"pm10":40.0,"pm2_5":32.9,"mosquito_risk":7,"arthritis_risk":0,"migraine_risk":4,"frizz_risk":1,"updated_at":"2026-03-03T05:00:24.670361+05:30"},{"city":"Bangalore","state":"Karnataka","latitude":12.9716,"longitude":77.5946,"temp":20.0,"humidity":72,"rain":0.0,"pressure":911.5,"uv_index":9.1,"wind_gusts":39.2,"aqi":128,"pm10":42.1,"pm2_5":41.1,"mosquito_risk":3,"arthritis_risk":5,"migraine_risk":7,"frizz_risk":0,"updated_at":"2026-03-03T05:00:24.670394+05:30"},{"city":"Hyderabad","state":"Telangana","latitude":17.385,"longitude":78.4867,"temp":22.1,"humidity":74,"rain":0.0,"pressure":954.2,"uv_index":8.35,"wind_gusts":23.8,"aqi":142,"pm10":61.9,"pm2_5":60.8,"mosquito_risk":3,"arthritis_risk":5,"migraine_risk":7,"frizz_risk":1,"updated_at":"2026-03-03T05:00:24.670405+05:30"},{"city":"Chennai","state":"Tamil Nadu","latitude":13.0827,"longitude":80.2707,"temp":22.6,"humidity":92,"rain":0.0,"pressure":1008.5,"uv_index":8.8,"wind_gusts":29.5,"aqi":122,"pm10":51.9,"pm2_5":47.6,"mosquito_risk":3,"arthritis_risk":0,"migraine_risk":4,"frizz_risk":1,"updated_at":"2026-03-03T05:00:24.670424+05:30"},{"city":"Kolkata","state":"West Bengal","latitude":22.5726,"longitude":88.3639,"temp":19.6,"humidity":82,"rain":0.0,"pressure":1008.8,"uv_index":7.7,"wind_gusts":18.0,"aqi":167,"pm10":159.3,"pm2_5":147.1,"mosquito_risk":3,"arthritis_risk":5,"migraine_risk":4,"frizz_risk":1,"updated_at":"2026-03-03T05:00:24.670434+05:30"},{"city":"Pune","state":"Maharashtra","latitude":18.5204,"longitude":73.8567,"temp":21.3,"humidity":72,"rain":0.0,"pressure":949.1,"uv_index":7.9,"wind_gusts":32.0,"aqi":91,"pm10":34.3,"pm2_5":31.5,"mosquito_risk":3,"arthritis_risk":5,"migraine_risk":7,"frizz_risk":1,"updated_at":"2026-03-03T05:00:24.670442+05:30"},{"city":"Ahmedabad","state":"Gujarat","latitude":23.0225,"longitude":72.5714,"temp":21.9,"humidity":67,"rain":0.0,"pressure":1004.8,"uv_index":7.15,"wind_gusts":20.2,"aqi":103,"pm10":53.2,"pm2_5":44.8,"mosquito_risk":3,"arthritis_risk":5,"migraine_risk":4,"frizz_risk":0,"updated_at":"2026-03-03T05:00:24.670450+05:30"},{"city":"Jaipur","state":"Rajasthan","latitude":26.9124,"longitude":75.7873,"temp":19.6,"humidity":55,"rain":0.0,"pressure":962.5,"uv_index":6.6,"wind_gusts":28.8,"aqi":96,"pm10":168.6,"pm2_5":44.8,"mosquito_risk":0,"arthritis_risk":5,"migraine_risk":7,"frizz_risk":0,"updated_at":"2026-03-03T05:00:24.670458+05:30"},{"city":"Lucknow","state":"Uttar Pradesh","latitude":26.8467,"longitude":80.9462,"temp":17.8,"humidity":71,"rain":0.0,"pressure":995.6,"uv_index":6.3,"wind_gusts":34.6,"aqi":153,"pm10":219.8,"pm2_5":65.2,"mosquito_risk":3,"arthritis_risk":5,"migraine_risk":7,"frizz_risk":0,"updated_at":"2026-03-03T05:00:24.670466+05:30"},{"city":"Kanpur","state":"Uttar Pradesh","latitude":26.4499,"longitude":80.3319,"temp":16.5,"humidity":86,"rain":0.0,"pressure":994.3,"uv_index":6.3,"wind_gusts":28.8,"aqi":177,"pm10":370.7,"pm2_5":77.5,"mosquito_risk":3,"arthritis_risk":10,"migraine_risk":7,"frizz_risk":0,"updated_at":"2026-03-03T05:00:24.670473+05:30"},{"city":"Chandigarh","state":"Chandigarh","latitude":30.7333,"longitude":76.7794,"temp":16.0,"humidity":70,"rain":0.0,"pressure":970.4,"uv_index":5.7,"wind_gusts":34.2,"aqi":81,"pm10":29.1,"pm2_5":26.0,"mosquito_risk":3,"arthritis_risk":5,"migraine_risk":3,"frizz_risk":0,"updated_at":"2026-03-03T05:00:24.670481+05:30"},{"city":"Srinagar","state":"Jammu and Kashmir","latitude":34.0837,"longitude":74.7973,"temp":2.6,"humidity":63,"rain":0.0,"pressure":839.7,"uv_index":6.6,"wind_gusts":15.8,"aqi":143,"pm10":66.1,"pm2_5":54.4,"mosquito_risk":3,"arthritis_risk":5,"migraine_risk":7,"frizz_risk":1,"updated_at":"2026-03-03T05:00:24.670490+05:30"},{"city":"Jammu","state":"Jammu and Kashmir","latitude":32.7266,"longitude":74.857,"temp":13.6,"humidity":60,"rain":0.0,"pressure":974.8,"uv_index":6.3,"wind_gusts":24.5,"aqi":104,"pm10":42.4,"pm2_5":38.8,"mosquito_risk":0,"arthritis_risk":5,"migraine_risk":7,"frizz_risk":0,"updated_at":"2026-03-03T05:00:24.670498+05:30"},{"city":"Amritsar","state":"Punjab","latitude":31.634,"longitude":74.8723,"temp":14.4,"humidity":83,"rain":0.0,"pressure":983.5,"uv_index":6.25,"wind_gusts":28.4,"aqi":120,"pm10":39.1,"pm2_5":33.8,"mosquito_risk":3,"arthritis_risk":10,"migraine_risk":7,"frizz_risk":0,"updated_at":"2026-03-03T05:00:24.670507+05:30"},{"city":"Ludhiana","state":"Punjab","latitude":30.901,"longitude":75.8573,"temp":16.0,"humidity":73,"rain":0.0,"pressure":981.3,"uv_index":5.9,"wind_gusts":30.6,"aqi":152,"pm10":67.8,"pm2_5":54.0,"mosquito_risk":3,"arthritis_risk":5,"migraine_risk":3,"frizz_risk":0,"updated_at":"2026-03-03T05:00:24.670515+05:30"},{"city":"Jalandhar","state":"Punjab","latitude":31.326,"longitude":75.5762,"temp":15.5,"humidity":77,"rain":0.0,"pressure":982.5,"uv_index":6.1,"wind_gusts":26.6,"aqi":152,"pm10":84.5,"pm2_5":65.0,"mosquito_risk":3,"arthritis_risk":5,"migraine_risk":7,"frizz_risk":0,"updated_at":"2026-03-03T05:00:24.670522+05:30"},{"city":"Dehradun","state":"Uttarakhand","latitude":30.6284,"longitude":78.0322,"temp":10.2,"humidity":62,"rain":0.0,"pressure":827.2,"uv_index":6.05,"wind_gusts":31.0,"aqi":58,"pm10":15.8,"pm2_5":14.4,"mosquito_risk":3,"arthritis_risk":5,"migraine_risk":7,"frizz_risk":0,"updated_at":"2026-03-03T05:00:24.670529+05:30"},{"city":"Shimla","state":"Himachal Pradesh","latitude":31.1048,"longitude":77.1734,"temp":7.7,"humidity":60,"rain":0.0,"pressure":781.0,"uv_index":6.1,"wind_gusts":43.6,"aqi":73,"pm10":34.5,"pm2_5":29.8,"mosquito_risk":0,"arthritis_risk":5,"migraine_risk":7,"frizz_risk":0,"updated_at":"2026-03-03T05:00:24.670539+05:30"},{"city":"Manali","state":"Himachal Pradesh","latitude":32.2396,"longitude":77.1887,"temp":14.4,"humidity":10,"rain":0.0,"pressure":818.4,"uv_index":7.45,"wind_gusts":35.3,"aqi":54,"pm10":17.1,"pm2_5":13.4,"mosquito_risk":0,"arthritis_risk":5,"migraine_risk":7,"frizz_risk":1,"updated_at":"2026-03-03T05:00:24.670546+05:30"},{"city":"Gurgaon","state":"Haryana","latitude":28.4595,"longitude":77.0266,"temp":13.2,"humidity":91,"rain":0.0,"pressure":984.0,"uv_index":5.9,"wind_gusts":32.4,"aqi":903,"pm10":1076.6,"pm2_5":150.4,"mosquito_risk":3,"arthritis_risk":10,"migraine_risk":3,"frizz_risk":0,"updated_at":"2026-03-03T05:00:24.670554+05:30"},{"city":"Noida","state":"Uttar Pradesh","latitude":28.5355,"longitude":77.391,"temp":16.5,"humidity":77,"rain":0.0,"pressure":987.0,"uv_index":5.85,"wind_gusts":34.9,"aqi":903,"pm10":1076.6,"pm2_5":150.4,"mosquito_risk":3,"arthritis_risk":5,"migraine_risk":3,"frizz_risk":0,"updated_at":"2026-03-03T05:00:24.670561+05:30"},{"city":"Ghaziabad","state":"Uttar Pradesh","latitude":28.6692,"longitude":77.4538,"temp":16.4,"humidity":77,"rain":0.0,"pressure":984.9,"uv_index":5.8,"wind_gusts":34.9,"aqi":180,"pm10":260.8,"pm2_5":68.5,"mosquito_risk":3,"arthritis_risk":5,"migraine_risk":3,"frizz_risk":0,"updated_at":"2026-03-03T05:00:24.670568+05:30"},{"city":"Faridabad","state":"Haryana","latitude":28.4089,"longitude":77.3178,"temp":15.7,"humidity":76,"rain":0.0,"pressure":986.3,"uv_index":5.85,"wind_gusts":31.7,"aqi":903,"pm10":1076.6,"pm2_5":150.4,"mosquito_risk":3,"arthritis_risk":5,"migraine_risk":3,"frizz_risk":0,"updated_at":"2026-03-03T05:00:24.670574+05:30"},{"city":"Meerut","state":"Uttar Pradesh","latitude":28.9845,"longitude":77.7064,"temp":15.0,"humidity":81,"rain":0.0,"pressure":983.2,"uv_index":5.65,"wind_gusts":41.0,"aqi":180,"pm10":260.8,"pm2_5":68.5,"mosquito_risk":3,"arthritis_risk":10,"migraine_risk":3,"frizz_risk":0,"updated_at":"2026-03-03T05:00:24.670583+05:30"},{"city":"Agra","state":"Uttar Pradesh","latitude":27.1767,"longitude":78.0081,"temp":16.0,"humidity":88,"rain":0.0,"pressure":990.8,"uv_index":6.15,"wind_gusts":29.5,"aqi":413,"pm10":517.8,"pm2_5":95.2,"mosquito_risk":3,"arthritis_risk":10,"migraine_risk":7,"frizz_risk":0,"updated_at":"2026-03-03T05:00:24.670590+05:30"},{"city":"Varanasi","state":"Uttar Pradesh","latitude":25.3176,"longitude":82.9739,"temp":17.7,"humidity":74,"rain":0.0,"pressure":1000.2,"uv_index":6.95,"wind_gusts":25.2,"aqi":92,"pm10":73.8,"pm2_5":31.7,"mosquito_risk":3,"arthritis_risk":5,"migraine_risk":4,"frizz_risk":0,"updated_at":"2026-03-03T05:00:24.670597+05:30"},{"city":"Prayagraj","state":"Uttar Pradesh","latitude":25.4358,"longitude":81.8463,"temp":17.1,"humidity":72,"rain":0.0,"pressure":999.0,"uv_index":6.8,"wind_gusts":24.5,"aqi":105,"pm10":143.9,"pm2_5":48.3,"mosquito_risk":3,"arthritis_risk":5,"migraine_risk":7,"frizz_risk":0,"updated_at":"2026-03-03T05:00:24.670605+05:30"},{"city":"Gorakhpur","state":"Uttar Pradesh","latitude":26.7606,"longitude":83.3732,"temp":15.5,"humidity":74,"rain":0.0,"pressure":999.3,"uv_index":6.7,"wind_gusts":21.6,"aqi":131,"pm10":141.1,"pm2_5":58.7,"mosquito_risk":3,"arthritis_risk":5,"migraine_risk":7,"frizz_risk":0,"updated_at":"2026-03-03T05:00:24.670614+05:30"},{"city":"Bareilly","state":"Uttar Pradesh","latitude":28.367,"longitude":79.4304,"temp":15.2,"humidity":80,"rain":0.0,"pressure":988.5,"uv_index":6.0,"wind_gusts":31.0,"aqi":128,"pm10":97.6,"pm2_5":55.9,"mosquito_risk":3,"arthritis_risk":5,"migraine_risk":3,"frizz_risk":0,"updated_at":"2026-03-03T05:00:24.670621+05:30"},{"city":"Aligarh","state":"Uttar Pradesh","latitude":27.8974,"longitude":78.088,"temp":15.4,"humidity":83,"rain":0.0,"pressure":988.1,"uv_index":5.95,"wind_gusts":34.9,"aqi":528,"pm10":583.0,"pm2_5":112.2,"mosquito_risk":3,"arthritis_risk":10,"migraine_risk":3,"frizz_risk":0,"updated_at":"2026-03-03T05:00:24.670628+05:30"},{"city":"Moradabad","state":"Uttar Pradesh","latitude":28.8386,"longitude":78.7733,"temp":15.0,"humidity":81,"rain":0.0,"pressure":985.2,"uv_index":5.85,"wind_gusts":30.2,"aqi":136,"pm10":105.9,"pm2_5":60.5,"mosquito_risk":3,"arthritis_risk":10,"migraine_risk":3,"frizz_risk":0,"updated_at":"2026-03-03T05:00:24.670634+05:30"},{"city":"Saharanpur","state":"Uttar Pradesh","latitude":29.9637,"longitude":77.546,"temp":14.7,"humidity":85,"rain":0.0,"pressure":977.0,"uv_index":5.45,"wind_gusts":44.3,"aqi":112,"pm10":78.5,"pm2_5":56.7,"mosquito_risk":3,"arthritis_risk":10,"migraine_risk":3,"frizz_risk":0,"updated_at":"2026-03-03T05:00:24.670640+05:30"},{"city":"Jhansi","state":"Uttar Pradesh","latitude":25.4484,"longitude":78.5685,"temp":16.7,"humidity":79,"rain":0.0,"pressure":980.6,"uv_index":6.75,"wind_gusts":25.2,"aqi":74,"pm10":85.9,"pm2_5":28.4,"mosquito_risk":3,"arthritis_risk":5,"migraine_risk":7,"frizz_risk":0,"updated_at":"2026-03-03T05:00:27.932558+05:30"},{"city":"Surat","state":"Gujarat","latitude":21.1702,"longitude":72.8311,"temp":22.6,"humidity":70,"rain":0.0,"pressure":1008.6,"uv_index":7.05,"wind_gusts":24.8,"aqi":154,"pm10":86.1,"pm2_5":77.5,"mosquito_risk":3,"arthritis_risk":0,"migraine_risk":4,"frizz_risk":1,"updated_at":"2026-03-03T05:00:27.932588+05:30"},{"city":"Vadodara","state":"Gujarat","latitude":22.3072,"longitude":73.1812,"temp":20.8,"humidity":66,"rain":0.0,"pressure":1006.8,"uv_index":7.15,"wind_gusts":15.8,"aqi":152,"pm10":107.6,"pm2_5":101.5,"mosquito_risk":3,"arthritis_risk":5,"migraine_risk":4,"frizz_risk":0,"updated_at":"2026-03-03T05:00:27.932598+05:30"},{"city":"Rajkot","state":"Gujarat","latitude":22.3039,"longitude":70.8022,"temp":20.7,"humidity":82,"rain":0.0,"pressure":997.0,"uv_index":7.0,"wind_gusts":21.2,"aqi":66,"pm10":30.2,"pm2_5":17.9,"mosquito_risk":3,"arthritis_risk":5,"migraine_risk":7,"frizz_risk":1,"updated_at":"2026-03-03T05:00:27.932607+05:30"},{"city":"Thane","state":"Maharashtra","latitude":19.2183,"longitude":72.9781,"temp":23.4,"humidity":84,"rain":0.0,"pressure":1009.0,"uv_index":7.35,"wind_gusts":38.2,"aqi":91,"pm10":40.0,"pm2_5":32.9,"mosquito_risk":3,"arthritis_risk":0,"migraine_risk":4,"frizz_risk":1,"updated_at":"2026-03-03T05:00:27.932615+05:30"},{"city":"Nagpur","state":"Maharashtra","latitude":21.1458,"longitude":79.0882,"temp":19.3,"humidity":66,"rain":0.0,"pressure":975.4,"uv_index":7.75,"wind_gusts":19.1,"aqi":69,"pm10":21.7,"pm2_5":18.5,"mosquito_risk":3,"arthritis_risk":5,"migraine_risk":7,"frizz_risk":0,"updated_at":"2026-03-03T05:00:27.932622+05:30"},{"city":"Nashik","state":"Maharashtra","latitude":19.9975,"longitude":73.7898,"temp":22.5,"humidity":54,"rain":0.0,"pressure":946.9,"uv_index":7.55,"wind_gusts":28.8,"aqi":87,"pm10":42.7,"pm2_5":40.9,"mosquito_risk":0,"arthritis_risk":5,"migraine_risk":7,"frizz_risk":0,"updated_at":"2026-03-03T05:00:27.932630+05:30"},{"city":"Aurangabad","state":"Maharashtra","latitude":19.8762,"longitude":75.3433,"temp":22.0,"humidity":53,"rain":0.0,"pressure":945.5,"uv_index":8.05,"wind_gusts":24.1,"aqi":77,"pm10":25.4,"pm2_5":24.6,"mosquito_risk":0,"arthritis_risk":5,"migraine_risk":7,"frizz_risk":0,"updated_at":"2026-03-03T05:00:27.932637+05:30"},{"city":"Solapur","state":"Maharashtra","latitude":17.6599,"longitude":75.9064,"temp":22.9,"humidity":70,"rain":0.0,"pressure":957.6,"uv_index":8.3,"wind_gusts":18.0,"aqi":129,"pm10":32.4,"pm2_5":32.1,"mosquito_risk":3,"arthritis_risk":5,"migraine_risk":7,"frizz_risk":1,"updated_at":"2026-03-03T05:00:27.932644+05:30"},{"city":"Kolhapur","state":"Maharashtra","latitude":16.705,"longitude":74.2433,"temp":19.2,"humidity":96,"rain":0.0,"pressure":947.8,"uv_index":8.4,"wind_gusts":40.0,"aqi":119,"pm10":48.0,"pm2_5":45.6,"mosquito_risk":3,"arthritis_risk":10,"migraine_risk":7,"frizz_risk":1,"updated_at":"2026-03-03T05:00:27.932651+05:30"},{"city":"Goa","state":"Goa","latitude":15.2993,"longitude":74.124,"temp":26.0,"humidity":81,"rain":0.0,"pressure":998.3,"uv_index":8.4,"wind_gusts":36.0,"aqi":73,"pm10":32.9,"pm2_5":26.8,"mosquito_risk":7,"arthritis_risk":5,"migraine_risk":7,"frizz_risk":1,"updated_at":"2026-03-03T05:00:27.932659+05:30"},{"city":"Jodhpur","state":"Rajasthan","latitude":26.2389,"longitude":73.0243,"temp":19.0,"humidity":56,"rain":0.0,"pressure":986.2,"uv_index":6.85,"wind_gusts":12.2,"aqi":80,"pm10":43.3,"pm2_5":21.9,"mosquito_risk":0,"arthritis_risk":5,"migraine_risk":7,"frizz_risk":0,"updated_at":"2026-03-03T05:00:27.932666+05:30"},{"city":"Udaipur","state":"Rajasthan","latitude":24.5854,"longitude":73.7125,"temp":16.7,"humidity":61,"rain":0.0,"pressure":948.7,"uv_index":7.45,"wind_gusts":16.6,"aqi":67,"pm10":27.5,"pm2_5":19.4,"mosquito_risk":3,"arthritis_risk":5,"migraine_risk":7,"frizz_risk":0,"updated_at":"2026-03-03T05:00:27.932673+05:30"},{"city":"Kota","state":"Rajasthan","latitude":25.2138,"longitude":75.8648,"temp":17.8,"humidity":71,"rain":0.0,"pressure":981.2,"uv_index":6.85,"wind_gusts":19.8,"aqi":89,"pm10":44.2,"pm2_5":33.2,"mosquito_risk":3,"arthritis_risk":5,"migraine_risk":7,"frizz_risk":0,"updated_at":"2026-03-03T05:00:27.932680+05:30"},{"city":"Bikaner","state":"Rajasthan","latitude":28.0229,"longitude":73.3119,"temp":20.4,"humidity":62,"rain":0.0,"pressure":985.2,"uv_index":6.55,"wind_gusts":19.8,"aqi":67,"pm10":44.6,"pm2_5":22.1,"mosquito_risk":3,"arthritis_risk":5,"migraine_risk":7,"frizz_risk":0,"updated_at":"2026-03-03T05:00:27.932686+05:30"},{"city":"Ajmer","state":"Rajasthan","latitude":26.4499,"longitude":74.6399,"temp":19.0,"humidity":53,"rain":0.0,"pressure":957.0,"uv_index":6.8,"wind_gusts":24.1,"aqi":76,"pm10":54.6,"pm2_5":26.2,"mosquito_risk":0,"arthritis_risk":5,"migraine_risk":7,"frizz_risk":0,"updated_at":"2026-03-03T05:00:27.932693+05:30"},{"city":"Gwalior","state":"Madhya Pradesh","latitude":26.2183,"longitude":78.1828,"temp":18.6,"humidity":72,"rain":0.0,"pressure":986.1,"uv_index":6.45,"wind_gusts":27.4,"aqi":109,"pm10":435.9,"pm2_5":73.1,"mosquito_risk":3,"arthritis_risk":5,"migraine_risk":7,"frizz_risk":0,"updated_at":"2026-03-03T05:00:27.932700+05:30"},{"city":"Indore","state":"Madhya Pradesh","latitude":22.7196,"longitude":75.8577,"temp":18.1,"humidity":65,"rain":0.0,"pressure":949.9,"uv_index":7.45,"wind_gusts":15.1,"aqi":88,"pm10":49.6,"pm2_5":44.7,"mosquito_risk":3,"arthritis_risk":5,"migraine_risk":7,"frizz_risk":0,"updated_at":"2026-03-03T05:00:27.932707+05:30"},{"city":"Bhopal","state":"Madhya Pradesh","latitude":23.2599,"longitude":77.4126,"temp":19.5,"humidity":54,"rain":0.0,"pressure":955.8,"uv_index":7.3,"wind_gusts":23.0,"aqi":77,"pm10":44.1,"pm2_5":33.2,"mosquito_risk":0,"arthritis_risk":5,"migraine_risk":7,"frizz_risk":0,"updated_at":"2026-03-03T05:00:27.932714+05:30"},{"city":"Jabalpur","state":"Madhya Pradesh","latitude":23.1815,"longitude":79.9864,"temp":17.2,"humidity":61,"rain":0.0,"pressure":963.8,"uv_index":7.4,"wind_gusts":18.4,"aqi":71,"pm10":39.1,"pm2_5":28.3,"mosquito_risk":3,"arthritis_risk":5,"migraine_risk":7,"frizz_risk":0,"updated_at":"2026-03-03T05:00:27.932721+05:30"},{"city":"Ujjain","state":"Madhya Pradesh","latitude":23.1765,"longitude":75.7885,"temp":17.1,"humidity":72,"rain":0.0,"pressure":955.8,"uv_index":7.35,"wind_gusts":15.1,"aqi":107,"pm10":53.6,"pm2_5":50.8,"mosquito_risk":3,"arthritis_risk":5,"migraine_risk":7,"frizz_risk":0,"updated_at":"2026-03-03T05:00:27.932728+05:30"},{"city":"Visakhapatnam","state":"Andhra Pradesh","latitude":17.6868,"longitude":83.2185,"temp":24.8,"humidity":74,"rain":0.0,"pressure":1005.0,"uv_index":8.35,"wind_gusts":34.6,"aqi":135,"pm10":49.0,"pm2_5":47.5,"mosquito_risk":3,"arthritis_risk":5,"migraine_risk":4,"frizz_risk":1,"updated_at":"2026-03-03T05:00:27.932735+05:30"},{"city":"Vijayawada","state":"Andhra Pradesh","latitude":16.5062,"longitude":80.648,"temp":23.1,"humidity":87,"rain":0.0,"pressure":1004.3,"uv_index":8.4,"wind_gusts":24.5,"aqi":143,"pm10":55.2,"pm2_5":52.7,"mosquito_risk":3,"arthritis_risk":5,"migraine_risk":4,"frizz_risk":1,"updated_at":"2026-03-03T05:00:27.932741+05:30"},{"city":"Guntur","state":"Andhra Pradesh","latitude":16.3067,"longitude":80.4365,"temp":22.6,"humidity":88,"rain":0.0,"pressure":1005.4,"uv_index":8.4,"wind_gusts":27.4,"aqi":136,"pm10":48.9,"pm2_5":46.9,"mosquito_risk":3,"arthritis_risk":5,"migraine_risk":4,"frizz_risk":1,"updated_at":"2026-03-03T05:00:27.932748+05:30"},{"city":"Nellore","state":"Andhra Pradesh","latitude":14.4426,"longitude":79.9865,"temp":22.7,"humidity":84,"rain":0.0,"pressure":1007.3,"uv_index":8.65,"wind_gusts":29.5,"aqi":120,"pm10":43.1,"pm2_5":40.9,"mosquito_risk":3,"arthritis_risk":5,"migraine_risk":4,"frizz_risk":1,"updated_at":"2026-03-03T05:00:27.932755+05:30"},{"city":"Kurnool","state":"Andhra Pradesh","latitude":15.8281,"longitude":78.0373,"temp":25.3,"humidity":60,"rain":0.0,"pressure":977.8,"uv_index":8.45,"wind_gusts":29.2,"aqi":121,"pm10":47.5,"pm2_5":46.4,"mosquito_risk":4,"arthritis_risk":5,"migraine_risk":7,"frizz_risk":1,"updated_at":"2026-03-03T05:00:27.932763+05:30"},{"city":"Kakinada","state":"Andhra Pradesh","latitude":16.9891,"longitude":82.2475,"temp":22.8,"humidity":87,"rain":0.0,"pressure":1009.2,"uv_index":8.35,"wind_gusts":34.6,"aqi":131,"pm10":52.3,"pm2_5":49.6,"mosquito_risk":3,"arthritis_risk":0,"migraine_risk":4,"frizz_risk":1,"updated_at":"2026-03-03T05:00:27.932770+05:30"},{"city":"Tirupati","state":"Andhra Pradesh","latitude":13.6288,"longitude":79.4192,"temp":19.7,"humidity":75,"rain":0.0,"pressure":992.8,"uv_index":8.75,"wind_gusts":38.2,"aqi":151,"pm10":82.4,"pm2_5":80.3,"mosquito_risk":3,"arthritis_risk":5,"migraine_risk":7,"frizz_risk":0,"updated_at":"2026-03-03T05:00:27.932777+05:30"},{"city":"Warangal","state":"Telangana","latitude":17.9689,"longitude":79.5941,"temp":23.5,"humidity":73,"rain":0.0,"pressure":979.9,"uv_index":8.2,"wind_gusts":18.7,"aqi":150,"pm10":58.9,"pm2_5":58.2,"mosquito_risk":3,"arthritis_risk":5,"migraine_risk":7,"frizz_risk":1,"updated_at":"2026-03-03T05:00:27.932783+05:30"},{"city":"Nizamabad","state":"Telangana","latitude":18.6725,"longitude":78.0941,"temp":20.6,"humidity":73,"rain":0.0,"pressure":966.0,"uv_index":8.1,"wind_gusts":29.2,"aqi":95,"pm10":32.5,"pm2_5":31.5,"mosquito_risk":3,"arthritis_risk":5,"migraine_risk":7,"frizz_risk":0,"updated_at":"2026-03-03T05:00:27.932789+05:30"},{"city":"Mysore","state":"Karnataka","latitude":12.2958,"longitude":76.6396,"temp":20.4,"humidity":94,"rain":0.0,"pressure":928.2,"uv_index":9.15,"wind_gusts":33.8,"aqi":140,"pm10":50.4,"pm2_5":49.5,"mosquito_risk":3,"arthritis_risk":5,"migraine_risk":7,"frizz_risk":1,"updated_at":"2026-03-03T05:00:27.932796+05:30"},{"city":"Mangalore","state":"Karnataka","latitude":12.9141,"longitude":74.856,"temp":27.9,"humidity":79,"rain":0.0,"pressure":1007.2,"uv_index":8.75,"wind_gusts":29.5,"aqi":59,"pm10":21.5,"pm2_5":16.8,"mosquito_risk":7,"arthritis_risk":5,"migraine_risk":4,"frizz_risk":1,"updated_at":"2026-03-03T05:00:27.932802+05:30"},{"city":"Hubli-Dharwad","state":"Karnataka","latitude":15.3647,"longitude":75.124,"temp":20.2,"humidity":95,"rain":0.0,"pressure":940.4,"uv_index":8.6,"wind_gusts":28.4,"aqi":83,"pm10":25.8,"pm2_5":23.2,"mosquito_risk":3,"arthritis_risk":5,"migraine_risk":7,"frizz_risk":1,"updated_at":"2026-03-03T05:00:27.932809+05:30"},{"city":"Belgaum","state":"Karnataka","latitude":15.8497,"longitude":74.4977,"temp":19.7,"humidity":92,"rain":0.0,"pressure":925.0,"uv_index":8.65,"wind_gusts":33.1,"aqi":81,"pm10":30.2,"pm2_5":27.2,"mosquito_risk":3,"arthritis_risk":10,"migraine_risk":7,"frizz_risk":1,"updated_at":"2026-03-03T05:00:31.190572+05:30"},{"city":"Coimbatore","state":"Tamil Nadu","latitude":11.0168,"longitude":76.9558,"temp":21.7,"humidity":81,"rain":0.0,"pressure":962.2,"uv_index":9.15,"wind_gusts":43.2,"aqi":135,"pm10":51.7,"pm2_5":51.1,"mosquito_risk":3,"arthritis_risk":5,"migraine_risk":7,"frizz_risk":1,"updated_at":"2026-03-03T05:00:31.190605+05:30"},{"city":"Madurai","state":"Tamil Nadu","latitude":9.9252,"longitude":78.1198,"temp":22.6,"humidity":88,"rain":0.0,"pressure":994.2,"uv_index":9.1,"wind_gusts":34.9,"aqi":115,"pm10":56.8,"pm2_5":55.6,"mosquito_risk":3,"arthritis_risk":5,"migraine_risk":7,"frizz_risk":1,"updated_at":"2026-03-03T05:00:31.190616+05:30"},{"city":"Trichy","state":"Tamil Nadu","latitude":10.7905,"longitude":78.7047,"temp":21.2,"humidity":96,"rain":0.0,"pressure":1001.3,"uv_index":9.0,"wind_gusts":31.7,"aqi":130,"pm10":49.6,"pm2_5":46.9,"mosquito_risk":3,"arthritis_risk":5,"migraine_risk":4,"frizz_risk":1,"updated_at":"2026-03-03T05:00:31.190624+05:30"},{"city":"Salem","state":"Tamil Nadu","latitude":11.6643,"longitude":78.146,"temp":21.8,"humidity":82,"rain":0.0,"pressure":978.3,"uv_index":9.0,"wind_gusts":40.7,"aqi":137,"pm10":60.8,"pm2_5":59.8,"mosquito_risk":3,"arthritis_risk":5,"migraine_risk":7,"frizz_risk":1,"updated_at":"2026-03-03T05:00:31.190632+05:30"},{"city":"Tirunelveli","state":"Tamil Nadu","latitude":8.7139,"longitude":77.7567,"temp":21.5,"humidity":95,"rain":0.0,"pressure":1004.3,"uv_index":9.1,"wind_gusts":37.8,"aqi":119,"pm10":56.3,"pm2_5":55.2,"mosquito_risk":3,"arthritis_risk":5,"migraine_risk":4,"frizz_risk":1,"updated_at":"2026-03-03T05:00:31.190639+05:30"},{"city":"Vellore","state":"Tamil Nadu","latitude":12.9165,"longitude":79.1325,"temp":19.6,"humidity":88,"rain":0.0,"pressure":986.0,"uv_index":8.9,"wind_gusts":38.9,"aqi":151,"pm10":78.7,"pm2_5":76.6,"mosquito_risk":3,"arthritis_risk":10,"migraine_risk":7,"frizz_risk":1,"updated_at":"2026-03-03T05:00:31.190647+05:30"},{"city":"Erode","state":"Tamil Nadu","latitude":11.341,"longitude":77.7172,"temp":23.4,"humidity":85,"rain":0.0,"pressure":990.3,"uv_index":9.05,"wind_gusts":36.4,"aqi":120,"pm10":46.4,"pm2_5":45.3,"mosquito_risk":3,"arthritis_risk":5,"migraine_risk":7,"frizz_risk":1,"updated_at":"2026-03-03T05:00:31.190655+05:30"},{"city":"Kochi","state":"Kerala","latitude":9.9312,"longitude":76.2673,"temp":27.4,"humidity":80,"rain":0.0,"pressure":1008.8,"uv_index":8.95,"wind_gusts":33.8,"aqi":101,"pm10":44.5,"pm2_5":43.5,"mosquito_risk":7,"arthritis_risk":0,"migraine_risk":4,"frizz_risk":1,"updated_at":"2026-03-03T05:00:31.190662+05:30"},{"city":"Thiruvananthapuram","state":"Kerala","latitude":8.5241,"longitude":76.9366,"temp":27.4,"humidity":80,"rain":0.0,"pressure":1008.0,"uv_index":9.0,"wind_gusts":27.0,"aqi":74,"pm10":30.4,"pm2_5":28.6,"mosquito_risk":7,"arthritis_risk":0,"migraine_risk":4,"frizz_risk":1,"updated_at":"2026-03-03T05:00:31.190670+05:30"},{"city":"Kozhikode","state":"Kerala","latitude":11.2588,"longitude":75.7804,"temp":27.4,"humidity":82,"rain":0.0,"pressure":1008.1,"uv_index":8.85,"wind_gusts":36.0,"aqi":61,"pm10":23.8,"pm2_5":19.6,"mosquito_risk":7,"arthritis_risk":0,"migraine_risk":4,"frizz_risk":1,"updated_at":"2026-03-03T05:00:31.190677+05:30"},{"city":"Thrissur","state":"Kerala","latitude":10.5276,"longitude":76.2144,"temp":25.2,"humidity":93,"rain":0.0,"pressure":1007.2,"uv_index":8.95,"wind_gusts":38.9,"aqi":97,"pm10":48.2,"pm2_5":46.3,"mosquito_risk":7,"arthritis_risk":5,"migraine_risk":4,"frizz_risk":1,"updated_at":"2026-03-03T05:00:31.190684+05:30"},{"city":"Kannur","state":"Kerala","latitude":11.8745,"longitude":75.3704,"temp":26.6,"humidity":77,"rain":0.0,"pressure":1007.5,"uv_index":8.85,"wind_gusts":40.0,"aqi":59,"pm10":19.2,"pm2_5":16.9,"mosquito_risk":7,"arthritis_risk":5,"migraine_risk":4,"frizz_risk":1,"updated_at":"2026-03-03T05:00:31.190691+05:30"},{"city":"Patna","state":"Bihar","latitude":25.5941,"longitude":85.1376,"temp":17.6,"humidity":72,"rain":0.0,"pressure":1003.1,"uv_index":7.15,"wind_gusts":17.6,"aqi":121,"pm10":70.5,"pm2_5":56.9,"mosquito_risk":3,"arthritis_risk":5,"migraine_risk":4,"frizz_risk":0,"updated_at":"2026-03-03T05:00:31.190699+05:30"},{"city":"Gaya","state":"Bihar","latitude":24.7914,"longitude":85.0002,"temp":16.8,"humidity":56,"rain":0.0,"pressure":996.7,"uv_index":7.25,"wind_gusts":22.7,"aqi":97,"pm10":45.9,"pm2_5":30.7,"mosquito_risk":0,"arthritis_risk":5,"migraine_risk":7,"frizz_risk":0,"updated_at":"2026-03-03T05:00:31.190705+05:30"},{"city":"Muzaffarpur","state":"Bihar","latitude":26.1209,"longitude":85.3647,"temp":16.1,"humidity":74,"rain":0.0,"pressure":1003.0,"uv_index":7.1,"wind_gusts":14.0,"aqi":134,"pm10":95.9,"pm2_5":82.2,"mosquito_risk":3,"arthritis_risk":5,"migraine_risk":4,"frizz_risk":0,"updated_at":"2026-03-03T05:00:31.190712+05:30"},{"city":"Bhagalpur","state":"Bihar","latitude":25.2425,"longitude":87.0117,"temp":13.9,"humidity":91,"rain":0.0,"pressure":1004.0,"uv_index":7.15,"wind_gusts":11.5,"aqi":121,"pm10":71.0,"pm2_5":41.7,"mosquito_risk":3,"arthritis_risk":10,"migraine_risk":4,"frizz_risk":0,"updated_at":"2026-03-03T05:00:31.190719+05:30"},{"city":"Ranchi","state":"Jharkhand","latitude":23.3441,"longitude":85.3096,"temp":18.1,"humidity":37,"rain":0.0,"pressure":939.6,"uv_index":7.9,"wind_gusts":44.6,"aqi":68,"pm10":38.3,"pm2_5":18.3,"mosquito_risk":0,"arthritis_risk":5,"migraine_risk":7,"frizz_risk":0,"updated_at":"2026-03-03T05:00:31.190726+05:30"},{"city":"Jamshedpur","state":"Jharkhand","latitude":22.8046,"longitude":86.2029,"temp":16.3,"humidity":81,"rain":0.0,"pressure":993.9,"uv_index":7.75,"wind_gusts":13.7,"aqi":98,"pm10":68.2,"pm2_5":45.8,"mosquito_risk":3,"arthritis_risk":10,"migraine_risk":7,"frizz_risk":0,"updated_at":"2026-03-03T05:00:31.190732+05:30"},{"city":"Dhanbad","state":"Jharkhand","latitude":23.7957,"longitude":86.4304,"temp":16.9,"humidity":62,"rain":0.0,"pressure":982.5,"uv_index":7.65,"wind_gusts":28.8,"aqi":104,"pm10":69.4,"pm2_5":47.7,"mosquito_risk":3,"arthritis_risk":5,"migraine_risk":7,"frizz_risk":0,"updated_at":"2026-03-03T05:00:31.190739+05:30"},{"city":"Bokaro","state":"Jharkhand","latitude":23.6693,"longitude":86.1511,"temp":16.0,"humidity":63,"rain":0.0,"pressure":986.9,"uv_index":7.65,"wind_gusts":31.7,"aqi":107,"pm10":67.1,"pm2_5":50.8,"mosquito_risk":3,"arthritis_risk":5,"migraine_risk":7,"frizz_risk":0,"updated_at":"2026-03-03T05:00:31.190746+05:30"},{"city":"Bhubaneswar","state":"Odisha","latitude":20.2961,"longitude":85.8245,"temp":22.5,"humidity":97,"rain":0.0,"pressure":1004.8,"uv_index":8.1,"wind_gusts":24.5,"aqi":153,"pm10":78.9,"pm2_5":76.1,"mosquito_risk":3,"arthritis_risk":5,"migraine_risk":4,"frizz_risk":1,"updated_at":"2026-03-03T05:00:31.190753+05:30"},{"city":"Cuttack","state":"Odisha","latitude":20.4625,"longitude":85.8828,"temp":22.0,"humidity":92,"rain":0.0,"pressure":1006.8,"uv_index":8.1,"wind_gusts":24.8,"aqi":153,"pm10":78.9,"pm2_5":76.1,"mosquito_risk":3,"arthritis_risk":5,"migraine_risk":4,"frizz_risk":1,"updated_at":"2026-03-03T05:00:31.190760+05:30"},{"city":"Rourkela","state":"Odisha","latitude":22.2604,"longitude":84.8536,"temp":18.7,"humidity":61,"rain":0.0,"pressure":988.2,"uv_index":7.7,"wind_gusts":23.0,"aqi":78,"pm10":42.0,"pm2_5":27.5,"mosquito_risk":3,"arthritis_risk":5,"migraine_risk":7,"frizz_risk":0,"updated_at":"2026-03-03T05:00:31.190767+05:30"},{"city":"Raipur","state":"Chhattisgarh","latitude":21.2514,"longitude":81.6296,"temp":20.4,"humidity":57,"rain":0.0,"pressure":977.2,"uv_index":7.8,"wind_gusts":16.2,"aqi":101,"pm10":58.3,"pm2_5":51.9,"mosquito_risk":0,"arthritis_risk":5,"migraine_risk":7,"frizz_risk":0,"updated_at":"2026-03-03T05:00:31.190774+05:30"},{"city":"Bhilai","state":"Chhattisgarh","latitude":21.1938,"longitude":81.3509,"temp":19.9,"humidity":59,"rain":0.0,"pressure":977.3,"uv_index":7.8,"wind_gusts":14.8,"aqi":102,"pm10":47.8,"pm2_5":40.6,"mosquito_risk":0,"arthritis_risk":5,"migraine_risk":7,"frizz_risk":0,"updated_at":"2026-03-03T05:00:31.190780+05:30"},{"city":"Guwahati","state":"Assam","latitude":26.1158,"longitude":91.7086,"temp":19.9,"humidity":88,"rain":0.0,"pressure":1005.4,"uv_index":7.1,"wind_gusts":22.3,"aqi":153,"pm10":75.4,"pm2_5":63.8,"mosquito_risk":3,"arthritis_risk":10,"migraine_risk":4,"frizz_risk":1,"updated_at":"2026-03-03T05:00:31.190787+05:30"},{"city":"Agartala","state":"Tripura","latitude":23.8315,"longitude":91.2868,"temp":20.1,"humidity":93,"rain":0.0,"pressure":1008.5,"uv_index":7.45,"wind_gusts":19.8,"aqi":169,"pm10":125.7,"pm2_5":121.1,"mosquito_risk":3,"arthritis_risk":0,"migraine_risk":4,"frizz_risk":1,"updated_at":"2026-03-03T05:00:31.190798+05:30"},{"city":"Shillong","state":"Meghalaya","latitude":25.5788,"longitude":91.8933,"temp":5.8,"humidity":80,"rain":0.0,"pressure":853.0,"uv_index":7.45,"wind_gusts":28.1,"aqi":123,"pm10":58.8,"pm2_5":45.8,"mosquito_risk":3,"arthritis_risk":5,"migraine_risk":7,"frizz_risk":0,"updated_at":"2026-03-03T05:00:31.190805+05:30"},{"city":"Imphal","state":"Manipur","latitude":24.817,"longitude":93.9368,"temp":13.6,"humidity":81,"rain":0.0,"pressure":924.5,"uv_index":7.6,"wind_gusts":28.8,"aqi":154,"pm10":106.2,"pm2_5":87.5,"mosquito_risk":3,"arthritis_risk":10,"migraine_risk":7,"frizz_risk":0,"updated_at":"2026-03-03T05:00:31.190811+05:30"},{"city":"Aizawl","state":"Mizoram","latitude":23.7271,"longitude":92.7176,"temp":13.4,"humidity":94,"rain":0.0,"pressure":893.1,"uv_index":7.65,"wind_gusts":34.2,"aqi":159,"pm10":86.4,"pm2_5":82.0,"mosquito_risk":3,"arthritis_risk":10,"migraine_risk":7,"frizz_risk":0,"updated_at":"2026-03-03T05:00:31.190818+05:30"},{"city":"Kohima","state":"Nagaland","latitude":25.6701,"longitude":94.1077,"temp":11.3,"humidity":79,"rain":0.0,"pressure":854.6,"uv_index":6.5,"wind_gusts":45.0,"aqi":145,"pm10":68.2,"pm2_5":58.2,"mosquito_risk":3,"arthritis_risk":5,"migraine_risk":7,"frizz_risk":0,"updated_at":"2026-03-03T05:00:31.190824+05:30"},{"city":"Gangtok","state":"Sikkim","latitude":27.3314,"longitude":88.6138,"temp":9.9,"humidity":82,"rain":0.0,"pressure":835.6,"uv_index":7.4,"wind_gusts":19.1,"aqi":140,"pm10":76.6,"pm2_5":56.7,"mosquito_risk":3,"arthritis_risk":10,"migraine_risk":7,"frizz_risk":0,"updated_at":"2026-03-03T05:00:31.190831+05:30"},{"city":"Siliguri","state":"West Bengal","latitude":26.7271,"longitude":88.3953,"temp":17.6,"humidity":74,"rain":0.0,"pressure":996.9,"uv_index":7.1,"wind_gusts":18.4,"aqi":166,"pm10":136.9,"pm2_5":105.5,"mosquito_risk":3,"arthritis_risk":5,"migraine_risk":7,"frizz_risk":0,"updated_at":"2026-03-03T05:00:34.452675+05:30"},{"city":"Durgapur","state":"West Bengal","latitude":23.5204,"longitude":87.3119,"temp":20.5,"humidity":46,"rain":0.0,"pressure":998.0,"uv_index":7.65,"wind_gusts":28.1,"aqi":93,"pm10":51.3,"pm2_5":27.2,"mosquito_risk":0,"arthritis_risk":5,"migraine_risk":7,"frizz_risk":0,"updated_at":"2026-03-03T05:00:34.452707+05:30"},{"city":"Asansol","state":"West Bengal","latitude":23.6739,"longitude":86.9524,"temp":21.9,"humidity":41,"rain":0.0,"pressure":996.6,"uv_index":7.65,"wind_gusts":23.4,"aqi":85,"pm10":49.2,"pm2_5":27.1,"mosquito_risk":0,"arthritis_risk":5,"migraine_risk":7,"frizz_risk":0,"updated_at":"2026-03-03T05:00:34.452717+05:30"},{"city":"Pondicherry","state":"Puducherry","latitude":11.9139,"longitude":79.8145,"temp":21.6,"humidity":95,"rain":0.0,"pressure":1009.8,"uv_index":8.85,"wind_gusts":27.7,"aqi":113,"pm10":45.6,"pm2_5":41.4,"mosquito_risk":3,"arthritis_risk":0,"migraine_risk":4,"frizz_risk":1,"updated_at":"2026-03-03T05:00:34.452726+05:30"},{"city":"Port Blair","state":"Andaman and Nicobar Islands","latitude":11.6234,"longitude":92.7265,"temp":26.8,"humidity":76,"rain":0.0,"pressure":1007.6,"uv_index":8.8,"wind_gusts":16.2,"aqi":84,"pm10":37.4,"pm2_5":27.3,"mosquito_risk":7,"arthritis_risk":5,"migraine_risk":4,"frizz_risk":1,"updated_at":"2026-03-03T05:00:34.452734+05:30"},{"city":"Haridwar","state":"Uttarakhand","latitude":29.9457,"longitude":78.1642,"temp":13.8,"humidity":85,"rain":0.0,"pressure":975.4,"uv_index":5.55,"wind_gusts":24.5,"aqi":95,"pm10":46.6,"pm2_5":44.7,"mosquito_risk":3,"arthritis_risk":10,"migraine_risk":3,"frizz_risk":0,"updated_at":"2026-03-03T05:00:34.452742+05:30"},{"city":"Rishikesh","state":"Uttarakhand","latitude":30.0869,"longitude":78.2676,"temp":14.7,"humidity":77,"rain":0.0,"pressure":967.8,"uv_index":5.6,"wind_gusts":23.4,"aqi":74,"pm10":29.0,"pm2_5":28.6,"mosquito_risk":3,"arthritis_risk":5,"migraine_risk":3,"frizz_risk":0,"updated_at":"2026-03-03T05:00:34.452750+05:30"},{"city":"Nainital","state":"Uttarakhand","latitude":29.3919,"longitude":79.4542,"temp":14.4,"humidity":55,"rain":0.0,"pressure":803.9,"uv_index":6.45,"wind_gusts":54.4,"aqi":79,"pm10":34.0,"pm2_5":31.5,"mosquito_risk":0,"arthritis_risk":5,"migraine_risk":7,"frizz_risk":0,"updated_at":"2026-03-03T05:00:34.452758+05:30"},{"city":"Mussoorie","state":"Uttarakhand","latitude":30.4599,"longitude":78.0664,"temp":12.6,"humidity":56,"rain":0.0,"pressure":800.3,"uv_index":5.95,"wind_gusts":40.7,"aqi":78,"pm10":25.5,"pm2_5":25.1,"mosquito_risk":0,"arthritis_risk":5,"migraine_risk":3,"frizz_risk":0,"updated_at":"2026-03-03T05:00:34.452765+05:30"},{"city":"Dharamshala","state":"Himachal Pradesh","latitude":32.219,"longitude":76.3234,"temp":16.8,"humidity":28,"rain":0.0,"pressure":868.9,"uv_index":6.2,"wind_gusts":22.7,"aqi":53,"pm10":9.1,"pm2_5":5.8,"mosquito_risk":0,"arthritis_risk":5,"migraine_risk":7,"frizz_risk":1,"updated_at":"2026-03-03T05:00:34.452772+05:30"},{"city":"Dalhousie","state":"Himachal Pradesh","latitude":32.5387,"longitude":75.971,"temp":13.1,"humidity":20,"rain":0.0,"pressure":802.7,"uv_index":6.4,"wind_gusts":20.9,"aqi":96,"pm10":25.6,"pm2_5":23.6,"mosquito_risk":0,"arthritis_risk":5,"migraine_risk":7,"frizz_risk":1,"updated_at":"2026-03-03T05:00:34.452780+05:30"},{"city":"Patiala","state":"Punjab","latitude":30.3398,"longitude":76.3869,"temp":15.1,"humidity":81,"rain":0.0,"pressure":980.5,"uv_index":5.6,"wind_gusts":35.3,"aqi":157,"pm10":349.2,"pm2_5":71.5,"mosquito_risk":3,"arthritis_risk":10,"migraine_risk":3,"frizz_risk":0,"updated_at":"2026-03-03T05:00:34.452788+05:30"},{"city":"Bhatinda","state":"Punjab","latitude":30.211,"longitude":74.9455,"temp":15.1,"humidity":81,"rain":0.0,"pressure":986.6,"uv_index":6.25,"wind_gusts":28.8,"aqi":152,"pm10":69.6,"pm2_5":55.3,"mosquito_risk":3,"arthritis_risk":10,"migraine_risk":7,"frizz_risk":0,"updated_at":"2026-03-03T05:00:34.452796+05:30"},{"city":"Rohtak","state":"Haryana","latitude":28.8955,"longitude":76.6066,"temp":14.8,"humidity":83,"rain":0.0,"pressure":984.4,"uv_index":5.8,"wind_gusts":33.5,"aqi":297,"pm10":444.2,"pm2_5":85.4,"mosquito_risk":3,"arthritis_risk":10,"migraine_risk":3,"frizz_risk":0,"updated_at":"2026-03-03T05:00:34.452803+05:30"},{"city":"Panipat","state":"Haryana","latitude":29.3909,"longitude":76.9635,"temp":14.5,"humidity":84,"rain":0.0,"pressure":982.5,"uv_index":5.6,"wind_gusts":37.1,"aqi":778,"pm10":1002.1,"pm2_5":139.7,"mosquito_risk":3,"arthritis_risk":10,"migraine_risk":3,"frizz_risk":0,"updated_at":"2026-03-03T05:00:34.452810+05:30"},{"city":"Mathura","state":"Uttar Pradesh","latitude":27.4924,"longitude":77.6737,"temp":18.4,"humidity":72,"rain":0.0,"pressure":989.8,"uv_index":6.1,"wind_gusts":28.8,"aqi":451,"pm10":491.7,"pm2_5":92.9,"mosquito_risk":3,"arthritis_risk":5,"migraine_risk":7,"frizz_risk":0,"updated_at":"2026-03-03T05:00:34.452817+05:30"},{"city":"Vrindavan","state":"Uttar Pradesh","latitude":27.5823,"longitude":77.7027,"temp":16.4,"humidity":82,"rain":0.0,"pressure":990.0,"uv_index":6.05,"wind_gusts":31.7,"aqi":451,"pm10":491.7,"pm2_5":92.9,"mosquito_risk":3,"arthritis_risk":10,"migraine_risk":7,"frizz_risk":0,"updated_at":"2026-03-03T05:00:34.452823+05:30"},{"city":"Ayodhya","state":"Uttar Pradesh","latitude":26.7922,"longitude":82.1998,"temp":16.5,"humidity":80,"rain":0.0,"pressure":997.5,"uv_index":6.45,"wind_gusts":30.6,"aqi":137,"pm10":192.8,"pm2_5":61.5,"mosquito_risk":3,"arthritis_risk":5,"migraine_risk":7,"frizz_risk":0,"updated_at":"2026-03-03T05:00:34.452830+05:30"},{"city":"Ratlam","state":"Madhya Pradesh","latitude":23.3315,"longitude":75.0367,"temp":17.9,"humidity":82,"rain":0.0,"pressure":956.3,"uv_index":7.3,"wind_gusts":10.1,"aqi":96,"pm10":40.5,"pm2_5":37.4,"mosquito_risk":3,"arthritis_risk":10,"migraine_risk":7,"frizz_risk":0,"updated_at":"2026-03-03T05:00:34.452838+05:30"},{"city":"Sagar","state":"Madhya Pradesh","latitude":23.8388,"longitude":78.7378,"temp":18.2,"humidity":64,"rain":0.0,"pressure":952.3,"uv_index":7.25,"wind_gusts":28.4,"aqi":65,"pm10":29.2,"pm2_5":21.8,"mosquito_risk":3,"arthritis_risk":5,"migraine_risk":7,"frizz_risk":0,"updated_at":"2026-03-03T05:00:34.452845+05:30"},{"city":"Satna","state":"Madhya Pradesh","latitude":24.6005,"longitude":80.8322,"temp":20.2,"humidity":45,"rain":0.0,"pressure":973.9,"uv_index":7.2,"wind_gusts":32.0,"aqi":64,"pm10":39.3,"pm2_5":21.7,"mosquito_risk":0,"arthritis_risk":5,"migraine_risk":7,"frizz_risk":0,"updated_at":"2026-03-03T05:00:34.452851+05:30"},{"city":"Akola","state":"Maharashtra","latitude":20.7002,"longitude":77.0082,"temp":22.2,"humidity":63,"rain":0.0,"pressure":977.2,"uv_index":7.8,"wind_gusts":21.2,"aqi":77,"pm10":27.8,"pm2_5":24.8,"mosquito_risk":3,"arthritis_risk":5,"migraine_risk":7,"frizz_risk":0,"updated_at":"2026-03-03T05:00:34.452859+05:30"},{"city":"Amravati","state":"Maharashtra","latitude":20.9374,"longitude":77.7796,"temp":20.8,"humidity":58,"rain":0.0,"pressure":969.4,"uv_index":7.75,"wind_gusts":17.3,"aqi":76,"pm10":26.5,"pm2_5":21.7,"mosquito_risk":0,"arthritis_risk":5,"migraine_risk":7,"frizz_risk":0,"updated_at":"2026-03-03T05:00:34.452867+05:30"},{"city":"Latur","state":"Maharashtra","latitude":18.4088,"longitude":76.5604,"temp":21.0,"humidity":59,"rain":0.0,"pressure":940.3,"uv_index":8.2,"wind_gusts":34.2,"aqi":81,"pm10":34.0,"pm2_5":33.4,"mosquito_risk":0,"arthritis_risk":5,"migraine_risk":7,"frizz_risk":0,"updated_at":"2026-03-03T05:00:34.452874+05:30"},{"city":"Nanded","state":"Maharashtra","latitude":19.1383,"longitude":77.3091,"temp":23.3,"humidity":57,"rain":0.0,"pressure":970.3,"uv_index":8.0,"wind_gusts":22.3,"aqi":94,"pm10":38.3,"pm2_5":37.6,"mosquito_risk":0,"arthritis_risk":5,"migraine_risk":7,"frizz_risk":0,"updated_at":"2026-03-03T05:00:34.452881+05:30"},{"city":"Gulbarga","state":"Karnataka","latitude":17.3297,"longitude":76.8343,"temp":23.4,"humidity":64,"rain":0.0,"pressure":959.5,"uv_index":8.3,"wind_gusts":22.3,"aqi":140,"pm10":43.0,"pm2_5":42.6,"mosquito_risk":3,"arthritis_risk":5,"migraine_risk":7,"frizz_risk":1,"updated_at":"2026-03-03T05:00:34.452888+05:30"},{"city":"Bidar","state":"Karnataka","latitude":17.9104,"longitude":77.5199,"temp":22.9,"humidity":67,"rain":0.0,"pressure":936.3,"uv_index":8.25,"wind_gusts":24.5,"aqi":127,"pm10":44.6,"pm2_5":43.9,"mosquito_risk":3,"arthritis_risk":5,"migraine_risk":7,"frizz_risk":1,"updated_at":"2026-03-03T05:00:34.452895+05:30"},{"city":"Hospet","state":"Karnataka","latitude":15.2689,"longitude":76.3909,"temp":24.4,"humidity":81,"rain":0.0,"pressure":956.3,"uv_index":8.6,"wind_gusts":27.4,"aqi":107,"pm10":41.2,"pm2_5":40.9,"mosquito_risk":3,"arthritis_risk":5,"migraine_risk":7,"frizz_risk":1,"updated_at":"2026-03-03T05:00:34.452901+05:30"},{"city":"Tirupur","state":"Tamil Nadu","latitude":11.1085,"longitude":77.3411,"temp":23.7,"humidity":78,"rain":0.0,"pressure":976.3,"uv_index":9.15,"wind_gusts":33.5,"aqi":136,"pm10":50.6,"pm2_5":49.9,"mosquito_risk":3,"arthritis_risk":5,"migraine_risk":7,"frizz_risk":1,"updated_at":"2026-03-03T05:00:34.452908+05:30"},{"city":"Alappuzha","state":"Kerala","latitude":9.4981,"longitude":76.3388,"temp":27.1,"humidity":82,"rain":0.0,"pressure":1008.9,"uv_index":8.95,"wind_gusts":30.2,"aqi":95,"pm10":36.4,"pm2_5":34.3,"mosquito_risk":7,"arthritis_risk":0,"migraine_risk":4,"frizz_risk":1,"updated_at":"2026-03-03T05:00:34.452915+05:30"},{"city":"Munnar","state":"Kerala","latitude":10.0889,"longitude":77.0595,"temp":17.1,"humidity":65,"rain":0.0,"pressure":854.9,"uv_index":9.45,"wind_gusts":22.7,"aqi":112,"pm10":39.5,"pm2_5":39.0,"mosquito_risk":3,"arthritis_risk":5,"migraine_risk":7,"frizz_risk":0,"updated_at":"2026-03-03T05:00:34.452922+05:30"},{"city":"Silchar","state":"Assam","latitude":24.8333,"longitude":92.7789,"temp":19.4,"humidity":91,"rain":0.0,"pressure":1008.6,"uv_index":7.4,"wind_gusts":20.2,"aqi":158,"pm10":85.9,"pm2_5":73.6,"mosquito_risk":3,"arthritis_risk":5,"migraine_risk":4,"frizz_risk":1,"updated_at":"2026-03-03T05:00:34.452930+05:30"},{"city":"Dibrugarh","state":"Assam","latitude":27.4728,"longitude":94.912,"temp":18.3,"humidity":94,"rain":0.0,"pressure":1000.2,"uv_index":7.1,"wind_gusts":9.0,"aqi":155,"pm10":58.3,"pm2_5":49.4,"mosquito_risk":3,"arthritis_risk":10,"migraine_risk":4,"frizz_risk":1,"updated_at":"2026-03-03T05:00:34.452937+05:30"}]