[{"city":"Delhi","state":"Delhi","latitude":28.6139,"longitude":77.209,"temp":42.2,"humidity":13,"rain":0.0,"pressure":978.3,"uv_index":7.75,"wind_gusts":43.9,"aqi":642,"pm10":719.0,"pm2_5":101.7,"no2":3.1,"co":213.0,"o3":159.0,"so2":8.3,"mosquito_risk":0,"arthritis_risk":5,"migraine_risk":10,"frizz_risk":0,"updated_at":"2026-05-24T15:27:33.396292+05:30"},{"city":"Mumbai","state":"Maharashtra","latitude":19.076,"longitude":72.8777,"temp":32.5,"humidity":67,"rain":0.0,"pressure":1008.8,"uv_index":7.15,"wind_gusts":46.8,"aqi":38,"pm10":13.2,"pm2_5":9.9,"no2":3.4,"co":162.0,"o3":89.0,"so2":5.1,"mosquito_risk":3,"arthritis_risk":0,"migraine_risk":4,"frizz_risk":1,"updated_at":"2026-05-24T15:27:33.396341+05:30"},{"city":"Bangalore","state":"Karnataka","latitude":12.9716,"longitude":77.5946,"temp":27.9,"humidity":64,"rain":0.1,"pressure":911.9,"uv_index":4.45,"wind_gusts":33.8,"aqi":53,"pm10":19.8,"pm2_5":14.8,"no2":2.4,"co":233.0,"o3":106.0,"so2":2.6,"mosquito_risk":10,"arthritis_risk":5,"migraine_risk":3,"frizz_risk":1,"updated_at":"2026-05-24T15:27:33.396357+05:30"},{"city":"Hyderabad","state":"Telangana","latitude":17.385,"longitude":78.4867,"temp":38.2,"humidity":24,"rain":0.0,"pressure":951.8,"uv_index":9.25,"wind_gusts":47.5,"aqi":77,"pm10":19.6,"pm2_5":13.9,"no2":1.5,"co":194.0,"o3":123.0,"so2":4.5,"mosquito_risk":0,"arthritis_risk":5,"migraine_risk":10,"frizz_risk":0,"updated_at":"2026-05-24T15:27:33.396367+05:30"},{"city":"Chennai","state":"Tamil Nadu","latitude":13.0827,"longitude":80.2707,"temp":36.2,"humidity":52,"rain":0.0,"pressure":1003.6,"uv_index":8.6,"wind_gusts":40.0,"aqi":79,"pm10":32.0,"pm2_5":25.3,"no2":3.1,"co":271.0,"o3":172.0,"so2":7.3,"mosquito_risk":0,"arthritis_risk":5,"migraine_risk":7,"frizz_risk":1,"updated_at":"2026-05-24T15:27:33.396375+05:30"},{"city":"Kolkata","state":"West Bengal","latitude":22.5726,"longitude":88.3639,"temp":35.0,"humidity":61,"rain":0.0,"pressure":1000.0,"uv_index":8.95,"wind_gusts":40.3,"aqi":94,"pm10":48.3,"pm2_5":35.0,"no2":2.0,"co":253.0,"o3":126.0,"so2":6.7,"mosquito_risk":3,"arthritis_risk":5,"migraine_risk":4,"frizz_risk":1,"updated_at":"2026-05-24T15:27:33.396383+05:30"},{"city":"Pune","state":"Maharashtra","latitude":18.5204,"longitude":73.8567,"temp":29.6,"humidity":64,"rain":0.0,"pressure":949.0,"uv_index":8.2,"wind_gusts":44.3,"aqi":37,"pm10":15.0,"pm2_5":9.9,"no2":1.3,"co":149.0,"o3":93.0,"so2":3.6,"mosquito_risk":7,"arthritis_risk":5,"migraine_risk":7,"frizz_risk":1,"updated_at":"2026-05-24T15:27:33.396390+05:30"},{"city":"Ahmedabad","state":"Gujarat","latitude":23.0225,"longitude":72.5714,"temp":41.2,"humidity":28,"rain":0.0,"pressure":999.9,"uv_index":8.15,"wind_gusts":39.2,"aqi":60,"pm10":18.1,"pm2_5":11.3,"no2":1.0,"co":131.0,"o3":83.0,"so2":2.5,"mosquito_risk":0,"arthritis_risk":5,"migraine_risk":10,"frizz_risk":1,"updated_at":"2026-05-24T15:27:33.396396+05:30"},{"city":"Jaipur","state":"Rajasthan","latitude":26.9124,"longitude":75.7873,"temp":42.0,"humidity":13,"rain":0.0,"pressure":957.2,"uv_index":8.25,"wind_gusts":47.9,"aqi":197,"pm10":426.5,"pm2_5":75.2,"no2":0.7,"co":139.0,"o3":109.0,"so2":2.6,"mosquito_risk":0,"arthritis_risk":5,"migraine_risk":10,"frizz_risk":0,"updated_at":"2026-05-24T15:27:33.396406+05:30"},{"city":"Lucknow","state":"Uttar Pradesh","latitude":26.8467,"longitude":80.9462,"temp":42.2,"humidity":15,"rain":0.0,"pressure":987.5,"uv_index":8.2,"wind_gusts":48.6,"aqi":190,"pm10":166.7,"pm2_5":43.2,"no2":1.1,"co":208.0,"o3":155.0,"so2":5.8,"mosquito_risk":0,"arthritis_risk":5,"migraine_risk":10,"frizz_risk":0,"updated_at":"2026-05-24T15:27:33.396413+05:30"},{"city":"Kanpur","state":"Uttar Pradesh","latitude":26.4499,"longitude":80.3319,"temp":42.8,"humidity":13,"rain":0.0,"pressure":986.3,"uv_index":8.2,"wind_gusts":44.3,"aqi":510,"pm10":570.0,"pm2_5":82.7,"no2":1.1,"co":194.0,"o3":156.0,"so2":6.5,"mosquito_risk":0,"arthritis_risk":5,"migraine_risk":10,"frizz_risk":0,"updated_at":"2026-05-24T15:27:33.396419+05:30"},{"city":"Chandigarh","state":"Chandigarh","latitude":30.7333,"longitude":76.7794,"temp":39.7,"humidity":15,"rain":0.0,"pressure":964.1,"uv_index":7.75,"wind_gusts":47.9,"aqi":89,"pm10":45.3,"pm2_5":18.9,"no2":1.4,"co":194.0,"o3":149.0,"so2":6.6,"mosquito_risk":0,"arthritis_risk":5,"migraine_risk":10,"frizz_risk":0,"updated_at":"2026-05-24T15:27:33.396426+05:30"},{"city":"Srinagar","state":"Jammu and Kashmir","latitude":34.0837,"longitude":74.7973,"temp":23.0,"humidity":45,"rain":0.0,"pressure":842.9,"uv_index":8.7,"wind_gusts":29.9,"aqi":79,"pm10":24.6,"pm2_5":10.8,"no2":1.4,"co":214.0,"o3":133.0,"so2":2.1,"mosquito_risk":0,"arthritis_risk":5,"migraine_risk":7,"frizz_risk":0,"updated_at":"2026-05-24T15:27:33.396432+05:30"},{"city":"Jammu","state":"Jammu and Kashmir","latitude":32.7266,"longitude":74.857,"temp":37.2,"humidity":20,"rain":0.0,"pressure":968.4,"uv_index":8.55,"wind_gusts":36.4,"aqi":68,"pm10":61.2,"pm2_5":21.1,"no2":1.1,"co":154.0,"o3":139.0,"so2":3.4,"mosquito_risk":0,"arthritis_risk":5,"migraine_risk":10,"frizz_risk":0,"updated_at":"2026-05-24T15:27:33.396439+05:30"},{"city":"Amritsar","state":"Punjab","latitude":31.634,"longitude":74.8723,"temp":39.3,"humidity":18,"rain":0.0,"pressure":975.7,"uv_index":8.4,"wind_gusts":42.5,"aqi":90,"pm10":52.4,"pm2_5":19.9,"no2":1.1,"co":183.0,"o3":147.0,"so2":3.6,"mosquito_risk":0,"arthritis_risk":5,"migraine_risk":10,"frizz_risk":0,"updated_at":"2026-05-24T15:27:33.396444+05:30"},{"city":"Ludhiana","state":"Punjab","latitude":30.901,"longitude":75.8573,"temp":40.2,"humidity":14,"rain":0.0,"pressure":973.7,"uv_index":8.0,"wind_gusts":30.6,"aqi":78,"pm10":63.3,"pm2_5":21.0,"no2":1.0,"co":190.0,"o3":142.0,"so2":3.0,"mosquito_risk":0,"arthritis_risk":5,"migraine_risk":10,"frizz_risk":0,"updated_at":"2026-05-24T15:27:33.396450+05:30"},{"city":"Jalandhar","state":"Punjab","latitude":31.326,"longitude":75.5762,"temp":40.2,"humidity":18,"rain":0.0,"pressure":974.6,"uv_index":8.2,"wind_gusts":30.6,"aqi":85,"pm10":68.5,"pm2_5":21.9,"no2":0.9,"co":193.0,"o3":145.0,"so2":3.0,"mosquito_risk":0,"arthritis_risk":5,"migraine_risk":10,"frizz_risk":0,"updated_at":"2026-05-24T15:27:33.396456+05:30"},{"city":"Dehradun","state":"Uttarakhand","latitude":30.6284,"longitude":78.0322,"temp":28.4,"humidity":23,"rain":0.0,"pressure":831.5,"uv_index":8.2,"wind_gusts":47.2,"aqi":58,"pm10":44.6,"pm2_5":15.1,"no2":0.5,"co":194.0,"o3":123.0,"so2":1.3,"mosquito_risk":4,"arthritis_risk":5,"migraine_risk":7,"frizz_risk":0,"updated_at":"2026-05-24T15:27:33.396462+05:30"},{"city":"Shimla","state":"Himachal Pradesh","latitude":31.1048,"longitude":77.1734,"temp":24.2,"humidity":24,"rain":0.0,"pressure":787.8,"uv_index":8.25,"wind_gusts":65.5,"aqi":65,"pm10":51.8,"pm2_5":18.5,"no2":0.6,"co":151.0,"o3":128.0,"so2":3.1,"mosquito_risk":0,"arthritis_risk":5,"migraine_risk":7,"frizz_risk":0,"updated_at":"2026-05-24T15:27:33.396470+05:30"},{"city":"Manali","state":"Himachal Pradesh","latitude":32.2396,"longitude":77.1887,"temp":22.7,"humidity":39,"rain":0.0,"pressure":820.9,"uv_index":9.45,"wind_gusts":49.7,"aqi":83,"pm10":25.1,"pm2_5":8.7,"no2":1.0,"co":129.0,"o3":149.0,"so2":0.3,"mosquito_risk":0,"arthritis_risk":5,"migraine_risk":7,"frizz_risk":0,"updated_at":"2026-05-24T15:27:33.396476+05:30"},{"city":"Gurgaon","state":"Haryana","latitude":28.4595,"longitude":77.0266,"temp":42.1,"humidity":13,"rain":0.0,"pressure":976.8,"uv_index":7.8,"wind_gusts":38.9,"aqi":1151,"pm10":1628.0,"pm2_5":196.0,"no2":2.8,"co":202.0,"o3":159.0,"so2":7.9,"mosquito_risk":0,"arthritis_risk":5,"migraine_risk":10,"frizz_risk":0,"updated_at":"2026-05-24T15:27:33.396482+05:30"},{"city":"Noida","state":"Uttar Pradesh","latitude":28.5355,"longitude":77.391,"temp":42.4,"humidity":13,"rain":0.0,"pressure":979.5,"uv_index":7.75,"wind_gusts":40.0,"aqi":1151,"pm10":1628.0,"pm2_5":196.0,"no2":2.8,"co":213.0,"o3":159.0,"so2":7.9,"mosquito_risk":0,"arthritis_risk":5,"migraine_risk":10,"frizz_risk":0,"updated_at":"2026-05-24T15:27:33.396489+05:30"},{"city":"Ghaziabad","state":"Uttar Pradesh","latitude":28.6692,"longitude":77.4538,"temp":42.3,"humidity":12,"rain":0.0,"pressure":977.6,"uv_index":7.75,"wind_gusts":42.8,"aqi":450,"pm10":659.4,"pm2_5":98.0,"no2":2.6,"co":207.0,"o3":169.0,"so2":10.5,"mosquito_risk":0,"arthritis_risk":5,"migraine_risk":10,"frizz_risk":0,"updated_at":"2026-05-24T15:27:33.396497+05:30"},{"city":"Faridabad","state":"Haryana","latitude":28.4089,"longitude":77.3178,"temp":42.0,"humidity":13,"rain":0.0,"pressure":979.0,"uv_index":7.8,"wind_gusts":46.1,"aqi":1151,"pm10":1628.0,"pm2_5":196.0,"no2":2.8,"co":200.0,"o3":159.0,"so2":7.9,"mosquito_risk":0,"arthritis_risk":5,"migraine_risk":10,"frizz_risk":0,"updated_at":"2026-05-24T15:27:33.396503+05:30"},{"city":"Meerut","state":"Uttar Pradesh","latitude":28.9845,"longitude":77.7064,"temp":41.2,"humidity":15,"rain":0.0,"pressure":976.4,"uv_index":7.65,"wind_gusts":45.4,"aqi":450,"pm10":659.4,"pm2_5":98.0,"no2":2.6,"co":185.0,"o3":169.0,"so2":10.5,"mosquito_risk":0,"arthritis_risk":5,"migraine_risk":10,"frizz_risk":0,"updated_at":"2026-05-24T15:27:33.396510+05:30"},{"city":"Agra","state":"Uttar Pradesh","latitude":27.1767,"longitude":78.0081,"temp":43.2,"humidity":11,"rain":0.0,"pressure":983.1,"uv_index":8.1,"wind_gusts":41.8,"aqi":822,"pm10":964.9,"pm2_5":112.5,"no2":1.1,"co":181.0,"o3":149.0,"so2":5.1,"mosquito_risk":0,"arthritis_risk":5,"migraine_risk":10,"frizz_risk":0,"updated_at":"2026-05-24T15:27:33.396515+05:30"},{"city":"Varanasi","state":"Uttar Pradesh","latitude":25.3176,"longitude":82.9739,"temp":42.8,"humidity":14,"rain":0.0,"pressure":991.2,"uv_index":8.75,"wind_gusts":46.4,"aqi":152,"pm10":214.2,"pm2_5":51.8,"no2":1.3,"co":193.0,"o3":145.0,"so2":5.0,"mosquito_risk":0,"arthritis_risk":5,"migraine_risk":10,"frizz_risk":0,"updated_at":"2026-05-24T15:27:33.396521+05:30"},{"city":"Prayagraj","state":"Uttar Pradesh","latitude":25.4358,"longitude":81.8463,"temp":42.8,"humidity":15,"rain":0.0,"pressure":989.9,"uv_index":8.6,"wind_gusts":46.4,"aqi":153,"pm10":144.8,"pm2_5":41.2,"no2":1.2,"co":170.0,"o3":141.0,"so2":5.0,"mosquito_risk":0,"arthritis_risk":5,"migraine_risk":10,"frizz_risk":0,"updated_at":"2026-05-24T15:27:33.396527+05:30"},{"city":"Gorakhpur","state":"Uttar Pradesh","latitude":26.7606,"longitude":83.3732,"temp":39.4,"humidity":23,"rain":0.0,"pressure":990.9,"uv_index":8.6,"wind_gusts":34.9,"aqi":151,"pm10":188.6,"pm2_5":59.8,"no2":1.7,"co":222.0,"o3":200.0,"so2":11.0,"mosquito_risk":0,"arthritis_risk":5,"migraine_risk":10,"frizz_risk":0,"updated_at":"2026-05-24T15:27:33.396535+05:30"},{"city":"Bareilly","state":"Uttar Pradesh","latitude":28.367,"longitude":79.4304,"temp":39.0,"humidity":26,"rain":0.0,"pressure":981.2,"uv_index":8.05,"wind_gusts":43.6,"aqi":122,"pm10":65.9,"pm2_5":32.5,"no2":1.5,"co":210.0,"o3":182.0,"so2":7.6,"mosquito_risk":0,"arthritis_risk":5,"migraine_risk":10,"frizz_risk":1,"updated_at":"2026-05-24T15:27:33.396540+05:30"},{"city":"Aligarh","state":"Uttar Pradesh","latitude":27.8974,"longitude":78.088,"temp":41.5,"humidity":15,"rain":0.0,"pressure":980.9,"uv_index":7.9,"wind_gusts":42.8,"aqi":750,"pm10":1352.3,"pm2_5":174.2,"no2":1.9,"co":220.0,"o3":178.0,"so2":10.3,"mosquito_risk":0,"arthritis_risk":5,"migraine_risk":10,"frizz_risk":0,"updated_at":"2026-05-24T15:27:33.396546+05:30"},{"city":"Moradabad","state":"Uttar Pradesh","latitude":28.8386,"longitude":78.7733,"temp":40.5,"humidity":18,"rain":0.0,"pressure":978.3,"uv_index":7.85,"wind_gusts":48.2,"aqi":132,"pm10":92.4,"pm2_5":34.5,"no2":1.8,"co":193.0,"o3":170.0,"so2":7.5,"mosquito_risk":0,"arthritis_risk":5,"migraine_risk":10,"frizz_risk":0,"updated_at":"2026-05-24T15:27:33.396551+05:30"},{"city":"Saharanpur","state":"Uttar Pradesh","latitude":29.9637,"longitude":77.546,"temp":39.7,"humidity":16,"rain":0.0,"pressure":970.8,"uv_index":7.4,"wind_gusts":54.0,"aqi":89,"pm10":186.7,"pm2_5":39.2,"no2":2.0,"co":186.0,"o3":151.0,"so2":8.4,"mosquito_risk":0,"arthritis_risk":5,"migraine_risk":10,"frizz_risk":0,"updated_at":"2026-05-24T15:27:33.396557+05:30"},{"city":"Jhansi","state":"Uttar Pradesh","latitude":25.4484,"longitude":78.5685,"temp":42.8,"humidity":12,"rain":0.0,"pressure":974.2,"uv_index":8.45,"wind_gusts":45.7,"aqi":91,"pm10":82.9,"pm2_5":30.2,"no2":0.8,"co":150.0,"o3":128.0,"so2":4.4,"mosquito_risk":0,"arthritis_risk":5,"migraine_risk":10,"frizz_risk":0,"updated_at":"2026-05-24T15:27:36.758101+05:30"},{"city":"Surat","state":"Gujarat","latitude":21.1702,"longitude":72.8311,"temp":36.0,"humidity":52,"rain":0.0,"pressure":1005.9,"uv_index":7.7,"wind_gusts":43.9,"aqi":55,"pm10":22.6,"pm2_5":17.3,"no2":9.4,"co":225.0,"o3":65.0,"so2":33.5,"mosquito_risk":0,"arthritis_risk":5,"migraine_risk":7,"frizz_risk":1,"updated_at":"2026-05-24T15:27:36.758132+05:30"},{"city":"Vadodara","state":"Gujarat","latitude":22.3072,"longitude":73.1812,"temp":40.8,"humidity":28,"rain":0.0,"pressure":1002.3,"uv_index":8.1,"wind_gusts":42.8,"aqi":54,"pm10":20.0,"pm2_5":12.5,"no2":1.1,"co":132.0,"o3":100.0,"so2":3.3,"mosquito_risk":0,"arthritis_risk":5,"migraine_risk":7,"frizz_risk":1,"updated_at":"2026-05-24T15:27:36.758141+05:30"},{"city":"Rajkot","state":"Gujarat","latitude":22.3039,"longitude":70.8022,"temp":38.9,"humidity":35,"rain":0.0,"pressure":993.2,"uv_index":7.7,"wind_gusts":47.2,"aqi":58,"pm10":18.9,"pm2_5":12.3,"no2":0.9,"co":115.0,"o3":86.0,"so2":4.2,"mosquito_risk":0,"arthritis_risk":5,"migraine_risk":10,"frizz_risk":1,"updated_at":"2026-05-24T15:27:36.758150+05:30"},{"city":"Thane","state":"Maharashtra","latitude":19.2183,"longitude":72.9781,"temp":33.0,"humidity":60,"rain":0.1,"pressure":1008.0,"uv_index":7.3,"wind_gusts":40.0,"aqi":38,"pm10":13.2,"pm2_5":9.9,"no2":3.4,"co":154.0,"o3":89.0,"so2":5.1,"mosquito_risk":3,"arthritis_risk":0,"migraine_risk":4,"frizz_risk":1,"updated_at":"2026-05-24T15:27:36.758158+05:30"},{"city":"Nagpur","state":"Maharashtra","latitude":21.1458,"longitude":79.0882,"temp":43.4,"humidity":12,"rain":0.0,"pressure":969.6,"uv_index":8.9,"wind_gusts":46.8,"aqi":69,"pm10":58.8,"pm2_5":26.3,"no2":3.5,"co":152.0,"o3":147.0,"so2":12.8,"mosquito_risk":0,"arthritis_risk":5,"migraine_risk":10,"frizz_risk":0,"updated_at":"2026-05-24T15:27:36.758166+05:30"},{"city":"Nashik","state":"Maharashtra","latitude":19.9975,"longitude":73.7898,"temp":30.1,"humidity":63,"rain":0.1,"pressure":946.7,"uv_index":8.15,"wind_gusts":46.8,"aqi":31,"pm10":9.1,"pm2_5":6.0,"no2":0.7,"co":126.0,"o3":69.0,"so2":0.7,"mosquito_risk":6,"arthritis_risk":5,"migraine_risk":7,"frizz_risk":1,"updated_at":"2026-05-24T15:27:36.758174+05:30"},{"city":"Aurangabad","state":"Maharashtra","latitude":19.8762,"longitude":75.3433,"temp":38.3,"humidity":21,"rain":0.0,"pressure":944.1,"uv_index":8.95,"wind_gusts":49.0,"aqi":51,"pm10":27.6,"pm2_5":12.7,"no2":0.8,"co":134.0,"o3":108.0,"so2":2.1,"mosquito_risk":0,"arthritis_risk":5,"migraine_risk":10,"frizz_risk":0,"updated_at":"2026-05-24T15:27:36.758182+05:30"},{"city":"Solapur","state":"Maharashtra","latitude":17.6599,"longitude":75.9064,"temp":37.2,"humidity":32,"rain":0.0,"pressure":956.6,"uv_index":9.05,"wind_gusts":46.8,"aqi":67,"pm10":23.8,"pm2_5":16.4,"no2":1.0,"co":143.0,"o3":111.0,"so2":2.5,"mosquito_risk":0,"arthritis_risk":5,"migraine_risk":10,"frizz_risk":1,"updated_at":"2026-05-24T15:27:36.758190+05:30"},{"city":"Kolhapur","state":"Maharashtra","latitude":16.705,"longitude":74.2433,"temp":32.2,"humidity":53,"rain":0.0,"pressure":948.5,"uv_index":8.7,"wind_gusts":42.8,"aqi":39,"pm10":16.1,"pm2_5":11.5,"no2":1.3,"co":143.0,"o3":90.0,"so2":1.6,"mosquito_risk":0,"arthritis_risk":5,"migraine_risk":7,"frizz_risk":1,"updated_at":"2026-05-24T15:27:36.758198+05:30"},{"city":"Goa","state":"Goa","latitude":15.2993,"longitude":74.124,"temp":34.4,"humidity":53,"rain":0.0,"pressure":997.4,"uv_index":5.75,"wind_gusts":28.8,"aqi":40,"pm10":12.1,"pm2_5":8.2,"no2":0.6,"co":145.0,"o3":63.0,"so2":0.8,"mosquito_risk":0,"arthritis_risk":5,"migraine_risk":3,"frizz_risk":1,"updated_at":"2026-05-24T15:27:36.758205+05:30"},{"city":"Jodhpur","state":"Rajasthan","latitude":26.2389,"longitude":73.0243,"temp":41.5,"humidity":16,"rain":0.0,"pressure":980.1,"uv_index":8.45,"wind_gusts":54.7,"aqi":187,"pm10":455.4,"pm2_5":78.5,"no2":0.5,"co":121.0,"o3":98.0,"so2":2.3,"mosquito_risk":0,"arthritis_risk":5,"migraine_risk":10,"frizz_risk":0,"updated_at":"2026-05-24T15:27:36.758212+05:30"},{"city":"Udaipur","state":"Rajasthan","latitude":24.5854,"longitude":73.7125,"temp":38.1,"humidity":22,"rain":0.0,"pressure":946.4,"uv_index":8.8,"wind_gusts":54.0,"aqi":76,"pm10":66.8,"pm2_5":22.1,"no2":0.5,"co":128.0,"o3":100.0,"so2":2.4,"mosquito_risk":0,"arthritis_risk":5,"migraine_risk":10,"frizz_risk":0,"updated_at":"2026-05-24T15:27:36.758219+05:30"},{"city":"Kota","state":"Rajasthan","latitude":25.2138,"longitude":75.8648,"temp":43.3,"humidity":12,"rain":0.0,"pressure":975.8,"uv_index":8.4,"wind_gusts":44.3,"aqi":90,"pm10":163.4,"pm2_5":42.5,"no2":0.7,"co":133.0,"o3":108.0,"so2":3.4,"mosquito_risk":0,"arthritis_risk":5,"migraine_risk":10,"frizz_risk":0,"updated_at":"2026-05-24T15:27:36.758226+05:30"},{"city":"Bikaner","state":"Rajasthan","latitude":28.0229,"longitude":73.3119,"temp":44.7,"humidity":9,"rain":0.0,"pressure":976.4,"uv_index":8.45,"wind_gusts":57.2,"aqi":153,"pm10":133.6,"pm2_5":60.8,"no2":0.3,"co":121.0,"o3":109.0,"so2":2.0,"mosquito_risk":0,"arthritis_risk":5,"migraine_risk":10,"frizz_risk":0,"updated_at":"2026-05-24T15:27:36.758234+05:30"},{"city":"Ajmer","state":"Rajasthan","latitude":26.4499,"longitude":74.6399,"temp":39.2,"humidity":16,"rain":0.0,"pressure":952.7,"uv_index":8.4,"wind_gusts":63.0,"aqi":110,"pm10":141.1,"pm2_5":40.9,"no2":0.5,"co":127.0,"o3":105.0,"so2":2.5,"mosquito_risk":0,"arthritis_risk":5,"migraine_risk":10,"frizz_risk":0,"updated_at":"2026-05-24T15:27:36.758241+05:30"},{"city":"Gwalior","state":"Madhya Pradesh","latitude":26.2183,"longitude":78.1828,"temp":43.2,"humidity":11,"rain":0.0,"pressure":979.1,"uv_index":8.25,"wind_gusts":46.1,"aqi":106,"pm10":75.0,"pm2_5":27.1,"no2":0.5,"co":160.0,"o3":134.0,"so2":3.4,"mosquito_risk":0,"arthritis_risk":5,"migraine_risk":10,"frizz_risk":0,"updated_at":"2026-05-24T15:27:36.758249+05:30"},{"city":"Indore","state":"Madhya Pradesh","latitude":22.7196,"longitude":75.8577,"temp":39.0,"humidity":25,"rain":0.0,"pressure":948.0,"uv_index":8.7,"wind_gusts":45.4,"aqi":63,"pm10":53.8,"pm2_5":20.9,"no2":0.8,"co":153.0,"o3":119.0,"so2":3.5,"mosquito_risk":0,"arthritis_risk":5,"migraine_risk":10,"frizz_risk":0,"updated_at":"2026-05-24T15:27:36.758256+05:30"},{"city":"Bhopal","state":"Madhya Pradesh","latitude":23.2599,"longitude":77.4126,"temp":41.6,"humidity":14,"rain":0.0,"pressure":951.9,"uv_index":8.7,"wind_gusts":45.7,"aqi":77,"pm10":99.2,"pm2_5":29.6,"no2":0.5,"co":144.0,"o3":116.0,"so2":2.8,"mosquito_risk":0,"arthritis_risk":5,"migraine_risk":10,"frizz_risk":0,"updated_at":"2026-05-24T15:27:36.758263+05:30"},{"city":"Jabalpur","state":"Madhya Pradesh","latitude":23.1815,"longitude":79.9864,"temp":42.3,"humidity":13,"rain":0.0,"pressure":958.5,"uv_index":8.85,"wind_gusts":38.5,"aqi":78,"pm10":98.0,"pm2_5":31.3,"no2":0.8,"co":145.0,"o3":130.0,"so2":4.1,"mosquito_risk":0,"arthritis_risk":5,"migraine_risk":10,"frizz_risk":0,"updated_at":"2026-05-24T15:27:36.758270+05:30"},{"city":"Ujjain","state":"Madhya Pradesh","latitude":23.1765,"longitude":75.7885,"temp":39.6,"humidity":23,"rain":0.0,"pressure":953.2,"uv_index":8.6,"wind_gusts":45.4,"aqi":64,"pm10":51.3,"pm2_5":20.7,"no2":0.6,"co":140.0,"o3":112.0,"so2":3.5,"mosquito_risk":0,"arthritis_risk":5,"migraine_risk":10,"frizz_risk":0,"updated_at":"2026-05-24T15:27:36.758278+05:30"},{"city":"Visakhapatnam","state":"Andhra Pradesh","latitude":17.6868,"longitude":83.2185,"temp":39.2,"humidity":46,"rain":0.0,"pressure":997.5,"uv_index":9.1,"wind_gusts":32.8,"aqi":160,"pm10":70.5,"pm2_5":64.5,"no2":12.1,"co":663.0,"o3":264.0,"so2":47.2,"mosquito_risk":0,"arthritis_risk":5,"migraine_risk":10,"frizz_risk":1,"updated_at":"2026-05-24T15:27:36.758285+05:30"},{"city":"Vijayawada","state":"Andhra Pradesh","latitude":16.5062,"longitude":80.648,"temp":42.2,"humidity":28,"rain":0.0,"pressure":997.2,"uv_index":9.1,"wind_gusts":49.3,"aqi":104,"pm10":34.7,"pm2_5":25.7,"no2":1.9,"co":215.0,"o3":152.0,"so2":6.3,"mosquito_risk":0,"arthritis_risk":5,"migraine_risk":10,"frizz_risk":1,"updated_at":"2026-05-24T15:27:36.758292+05:30"},{"city":"Guntur","state":"Andhra Pradesh","latitude":16.3067,"longitude":80.4365,"temp":41.8,"humidity":28,"rain":0.0,"pressure":998.6,"uv_index":9.15,"wind_gusts":48.2,"aqi":96,"pm10":32.4,"pm2_5":22.6,"no2":1.4,"co":205.0,"o3":143.0,"so2":5.1,"mosquito_risk":0,"arthritis_risk":5,"migraine_risk":10,"frizz_risk":1,"updated_at":"2026-05-24T15:27:36.758299+05:30"},{"city":"Nellore","state":"Andhra Pradesh","latitude":14.4426,"longitude":79.9865,"temp":39.6,"humidity":34,"rain":0.1,"pressure":1001.5,"uv_index":8.9,"wind_gusts":45.0,"aqi":66,"pm10":26.5,"pm2_5":21.7,"no2":2.2,"co":174.0,"o3":151.0,"so2":6.0,"mosquito_risk":3,"arthritis_risk":5,"migraine_risk":7,"frizz_risk":1,"updated_at":"2026-05-24T15:27:36.758307+05:30"},{"city":"Kurnool","state":"Andhra Pradesh","latitude":15.8281,"longitude":78.0373,"temp":38.3,"humidity":34,"rain":0.0,"pressure":974.7,"uv_index":9.05,"wind_gusts":47.2,"aqi":61,"pm10":19.7,"pm2_5":16.2,"no2":1.2,"co":165.0,"o3":135.0,"so2":7.3,"mosquito_risk":0,"arthritis_risk":5,"migraine_risk":10,"frizz_risk":1,"updated_at":"2026-05-24T15:27:36.758314+05:30"},{"city":"Kakinada","state":"Andhra Pradesh","latitude":16.9891,"longitude":82.2475,"temp":42.8,"humidity":26,"rain":0.0,"pressure":1000.9,"uv_index":8.65,"wind_gusts":36.4,"aqi":127,"pm10":42.7,"pm2_5":34.7,"no2":3.3,"co":179.0,"o3":203.0,"so2":6.4,"mosquito_risk":0,"arthritis_risk":5,"migraine_risk":7,"frizz_risk":1,"updated_at":"2026-05-24T15:27:36.758321+05:30"},{"city":"Tirupati","state":"Andhra Pradesh","latitude":13.6288,"longitude":79.4192,"temp":35.0,"humidity":50,"rain":0.1,"pressure":988.2,"uv_index":9.1,"wind_gusts":42.5,"aqi":71,"pm10":38.9,"pm2_5":32.8,"no2":2.4,"co":169.0,"o3":158.0,"so2":4.7,"mosquito_risk":3,"arthritis_risk":5,"migraine_risk":7,"frizz_risk":1,"updated_at":"2026-05-24T15:27:36.758328+05:30"},{"city":"Warangal","state":"Telangana","latitude":17.9689,"longitude":79.5941,"temp":41.3,"humidity":18,"rain":0.0,"pressure":975.1,"uv_index":9.0,"wind_gusts":49.3,"aqi":103,"pm10":48.7,"pm2_5":28.0,"no2":2.0,"co":209.0,"o3":153.0,"so2":6.7,"mosquito_risk":0,"arthritis_risk":5,"migraine_risk":10,"frizz_risk":0,"updated_at":"2026-05-24T15:27:36.758335+05:30"},{"city":"Nizamabad","state":"Telangana","latitude":18.6725,"longitude":78.0941,"temp":40.2,"humidity":19,"rain":0.0,"pressure":963.0,"uv_index":9.1,"wind_gusts":45.4,"aqi":79,"pm10":43.0,"pm2_5":19.4,"no2":0.8,"co":150.0,"o3":119.0,"so2":2.9,"mosquito_risk":0,"arthritis_risk":5,"migraine_risk":10,"frizz_risk":0,"updated_at":"2026-05-24T15:27:36.758342+05:30"},{"city":"Mysore","state":"Karnataka","latitude":12.2958,"longitude":76.6396,"temp":27.2,"humidity":69,"rain":0.0,"pressure":928.5,"uv_index":7.55,"wind_gusts":42.5,"aqi":43,"pm10":15.4,"pm2_5":11.0,"no2":2.1,"co":145.0,"o3":90.0,"so2":1.5,"mosquito_risk":7,"arthritis_risk":5,"migraine_risk":7,"frizz_risk":1,"updated_at":"2026-05-24T15:27:36.758349+05:30"},{"city":"Mangalore","state":"Karnataka","latitude":12.9141,"longitude":74.856,"temp":29.9,"humidity":73,"rain":0.0,"pressure":1007.2,"uv_index":8.3,"wind_gusts":35.3,"aqi":55,"pm10":10.6,"pm2_5":7.0,"no2":1.3,"co":108.0,"o3":67.0,"so2":1.4,"mosquito_risk":7,"arthritis_risk":5,"migraine_risk":4,"frizz_risk":1,"updated_at":"2026-05-24T15:27:36.758356+05:30"},{"city":"Hubli-Dharwad","state":"Karnataka","latitude":15.3647,"longitude":75.124,"temp":32.8,"humidity":47,"rain":0.0,"pressure":941.0,"uv_index":9.1,"wind_gusts":35.6,"aqi":29,"pm10":10.7,"pm2_5":7.9,"no2":1.0,"co":145.0,"o3":84.0,"so2":1.1,"mosquito_risk":0,"arthritis_risk":5,"migraine_risk":7,"frizz_risk":1,"updated_at":"2026-05-24T15:27:36.758362+05:30"},{"city":"Belgaum","state":"Karnataka","latitude":15.8497,"longitude":74.4977,"temp":31.6,"humidity":49,"rain":0.0,"pressure":926.7,"uv_index":9.05,"wind_gusts":38.2,"aqi":27,"pm10":8.0,"pm2_5":5.8,"no2":0.9,"co":139.0,"o3":71.0,"so2":1.0,"mosquito_risk":0,"arthritis_risk":5,"migraine_risk":7,"frizz_risk":1,"updated_at":"2026-05-24T15:27:40.118242+05:30"},{"city":"Coimbatore","state":"Tamil Nadu","latitude":11.0168,"longitude":76.9558,"temp":31.5,"humidity":58,"rain":0.1,"pressure":961.2,"uv_index":8.6,"wind_gusts":48.2,"aqi":36,"pm10":10.8,"pm2_5":8.1,"no2":1.6,"co":152.0,"o3":85.0,"so2":1.9,"mosquito_risk":3,"arthritis_risk":5,"migraine_risk":7,"frizz_risk":1,"updated_at":"2026-05-24T15:27:40.118268+05:30"},{"city":"Madurai","state":"Tamil Nadu","latitude":9.9252,"longitude":78.1198,"temp":31.0,"humidity":60,"rain":0.2,"pressure":992.9,"uv_index":8.9,"wind_gusts":44.3,"aqi":60,"pm10":20.4,"pm2_5":10.9,"no2":1.4,"co":145.0,"o3":111.0,"so2":1.9,"mosquito_risk":3,"arthritis_risk":5,"migraine_risk":7,"frizz_risk":1,"updated_at":"2026-05-24T15:27:40.118277+05:30"},{"city":"Trichy","state":"Tamil Nadu","latitude":10.7905,"longitude":78.7047,"temp":36.7,"humidity":42,"rain":0.0,"pressure":997.0,"uv_index":8.4,"wind_gusts":52.6,"aqi":54,"pm10":19.1,"pm2_5":11.7,"no2":1.3,"co":148.0,"o3":105.0,"so2":2.1,"mosquito_risk":0,"arthritis_risk":5,"migraine_risk":10,"frizz_risk":1,"updated_at":"2026-05-24T15:27:40.118286+05:30"},{"city":"Salem","state":"Tamil Nadu","latitude":11.6643,"longitude":78.146,"temp":32.1,"humidity":56,"rain":0.0,"pressure":975.8,"uv_index":8.9,"wind_gusts":49.0,"aqi":67,"pm10":16.4,"pm2_5":10.5,"no2":2.4,"co":157.0,"o3":108.0,"so2":5.9,"mosquito_risk":0,"arthritis_risk":5,"migraine_risk":7,"frizz_risk":1,"updated_at":"2026-05-24T15:27:40.118293+05:30"},{"city":"Tirunelveli","state":"Tamil Nadu","latitude":8.7139,"longitude":77.7567,"temp":34.7,"humidity":48,"rain":0.0,"pressure":1001.8,"uv_index":8.85,"wind_gusts":44.3,"aqi":30,"pm10":5.7,"pm2_5":4.3,"no2":1.1,"co":120.0,"o3":79.0,"so2":1.0,"mosquito_risk":0,"arthritis_risk":5,"migraine_risk":4,"frizz_risk":1,"updated_at":"2026-05-24T15:27:40.118299+05:30"},{"city":"Vellore","state":"Tamil Nadu","latitude":12.9165,"longitude":79.1325,"temp":31.8,"humidity":64,"rain":0.0,"pressure":982.2,"uv_index":9.05,"wind_gusts":47.2,"aqi":66,"pm10":25.9,"pm2_5":19.6,"no2":1.0,"co":169.0,"o3":125.0,"so2":2.4,"mosquito_risk":3,"arthritis_risk":5,"migraine_risk":7,"frizz_risk":1,"updated_at":"2026-05-24T15:27:40.118305+05:30"},{"city":"Erode","state":"Tamil Nadu","latitude":11.341,"longitude":77.7172,"temp":30.0,"humidity":65,"rain":0.1,"pressure":987.6,"uv_index":8.95,"wind_gusts":62.6,"aqi":52,"pm10":18.2,"pm2_5":11.5,"no2":1.6,"co":159.0,"o3":106.0,"so2":2.0,"mosquito_risk":10,"arthritis_risk":5,"migraine_risk":7,"frizz_risk":1,"updated_at":"2026-05-24T15:27:40.118311+05:30"},{"city":"Kochi","state":"Kerala","latitude":9.9312,"longitude":76.2673,"temp":28.8,"humidity":78,"rain":0.0,"pressure":1009.3,"uv_index":8.6,"wind_gusts":36.4,"aqi":54,"pm10":12.1,"pm2_5":8.6,"no2":2.7,"co":110.0,"o3":73.0,"so2":2.4,"mosquito_risk":7,"arthritis_risk":0,"migraine_risk":4,"frizz_risk":1,"updated_at":"2026-05-24T15:27:40.118317+05:30"},{"city":"Thiruvananthapuram","state":"Kerala","latitude":8.5241,"longitude":76.9366,"temp":28.7,"humidity":77,"rain":0.2,"pressure":1008.7,"uv_index":8.3,"wind_gusts":46.4,"aqi":35,"pm10":11.7,"pm2_5":6.8,"no2":0.8,"co":100.0,"o3":69.0,"so2":0.6,"mosquito_risk":10,"arthritis_risk":0,"migraine_risk":4,"frizz_risk":1,"updated_at":"2026-05-24T15:27:40.118323+05:30"},{"city":"Kozhikode","state":"Kerala","latitude":11.2588,"longitude":75.7804,"temp":26.9,"humidity":89,"rain":0.0,"pressure":1008.7,"uv_index":8.35,"wind_gusts":37.4,"aqi":34,"pm10":10.4,"pm2_5":6.4,"no2":0.8,"co":111.0,"o3":73.0,"so2":0.9,"mosquito_risk":7,"arthritis_risk":0,"migraine_risk":4,"frizz_risk":1,"updated_at":"2026-05-24T15:27:40.118329+05:30"},{"city":"Thrissur","state":"Kerala","latitude":10.5276,"longitude":76.2144,"temp":27.5,"humidity":84,"rain":0.0,"pressure":1007.9,"uv_index":8.2,"wind_gusts":37.4,"aqi":57,"pm10":10.6,"pm2_5":8.0,"no2":1.9,"co":111.0,"o3":69.0,"so2":1.5,"mosquito_risk":7,"arthritis_risk":5,"migraine_risk":4,"frizz_risk":1,"updated_at":"2026-05-24T15:27:40.118336+05:30"},{"city":"Kannur","state":"Kerala","latitude":11.8745,"longitude":75.3704,"temp":30.4,"humidity":71,"rain":0.0,"pressure":1007.7,"uv_index":7.2,"wind_gusts":41.4,"aqi":50,"pm10":10.3,"pm2_5":7.2,"no2":1.7,"co":110.0,"o3":66.0,"so2":1.3,"mosquito_risk":3,"arthritis_risk":5,"migraine_risk":4,"frizz_risk":1,"updated_at":"2026-05-24T15:27:40.118342+05:30"},{"city":"Patna","state":"Bihar","latitude":25.5941,"longitude":85.1376,"temp":40.0,"humidity":25,"rain":0.0,"pressure":994.0,"uv_index":8.8,"wind_gusts":31.7,"aqi":164,"pm10":222.6,"pm2_5":69.4,"no2":2.3,"co":249.0,"o3":218.0,"so2":12.4,"mosquito_risk":0,"arthritis_risk":5,"migraine_risk":10,"frizz_risk":0,"updated_at":"2026-05-24T15:27:40.118348+05:30"},{"city":"Gaya","state":"Bihar","latitude":24.7914,"longitude":85.0002,"temp":41.5,"humidity":19,"rain":0.0,"pressure":987.6,"uv_index":8.65,"wind_gusts":30.6,"aqi":156,"pm10":293.4,"pm2_5":59.8,"no2":1.2,"co":202.0,"o3":159.0,"so2":6.1,"mosquito_risk":0,"arthritis_risk":5,"migraine_risk":10,"frizz_risk":0,"updated_at":"2026-05-24T15:27:40.118354+05:30"},{"city":"Muzaffarpur","state":"Bihar","latitude":26.1209,"longitude":85.3647,"temp":36.5,"humidity":48,"rain":0.0,"pressure":994.3,"uv_index":8.8,"wind_gusts":29.9,"aqi":159,"pm10":147.1,"pm2_5":60.3,"no2":2.7,"co":351.0,"o3":218.0,"so2":15.0,"mosquito_risk":0,"arthritis_risk":5,"migraine_risk":10,"frizz_risk":1,"updated_at":"2026-05-24T15:27:40.118360+05:30"},{"city":"Bhagalpur","state":"Bihar","latitude":25.2425,"longitude":87.0117,"temp":38.2,"humidity":40,"rain":0.0,"pressure":994.3,"uv_index":8.75,"wind_gusts":25.6,"aqi":153,"pm10":141.1,"pm2_5":53.2,"no2":3.1,"co":287.0,"o3":200.0,"so2":17.0,"mosquito_risk":0,"arthritis_risk":5,"migraine_risk":10,"frizz_risk":1,"updated_at":"2026-05-24T15:27:40.118377+05:30"},{"city":"Ranchi","state":"Jharkhand","latitude":23.3441,"longitude":85.3096,"temp":36.7,"humidity":25,"rain":0.0,"pressure":934.8,"uv_index":9.3,"wind_gusts":34.6,"aqi":116,"pm10":219.3,"pm2_5":48.4,"no2":1.0,"co":161.0,"o3":145.0,"so2":5.7,"mosquito_risk":0,"arthritis_risk":5,"migraine_risk":10,"frizz_risk":0,"updated_at":"2026-05-24T15:27:40.118387+05:30"},{"city":"Jamshedpur","state":"Jharkhand","latitude":22.8046,"longitude":86.2029,"temp":33.6,"humidity":58,"rain":0.2,"pressure":986.4,"uv_index":9.1,"wind_gusts":49.7,"aqi":146,"pm10":140.6,"pm2_5":53.3,"no2":2.5,"co":198.0,"o3":192.0,"so2":17.4,"mosquito_risk":3,"arthritis_risk":5,"migraine_risk":7,"frizz_risk":1,"updated_at":"2026-05-24T15:27:40.118396+05:30"},{"city":"Dhanbad","state":"Jharkhand","latitude":23.7957,"longitude":86.4304,"temp":40.7,"humidity":19,"rain":0.0,"pressure":974.2,"uv_index":9.05,"wind_gusts":36.0,"aqi":157,"pm10":261.7,"pm2_5":64.3,"no2":5.8,"co":176.0,"o3":183.0,"so2":29.8,"mosquito_risk":0,"arthritis_risk":5,"migraine_risk":10,"frizz_risk":0,"updated_at":"2026-05-24T15:27:40.118405+05:30"},{"city":"Bokaro","state":"Jharkhand","latitude":23.6693,"longitude":86.1511,"temp":40.7,"humidity":19,"rain":0.0,"pressure":977.9,"uv_index":9.1,"wind_gusts":30.2,"aqi":159,"pm10":275.7,"pm2_5":62.2,"no2":6.1,"co":182.0,"o3":175.0,"so2":29.8,"mosquito_risk":0,"arthritis_risk":5,"migraine_risk":10,"frizz_risk":0,"updated_at":"2026-05-24T15:27:40.118414+05:30"},{"city":"Bhubaneswar","state":"Odisha","latitude":20.2961,"longitude":85.8245,"temp":35.3,"humidity":64,"rain":0.0,"pressure":997.2,"uv_index":9.15,"wind_gusts":42.8,"aqi":108,"pm10":36.9,"pm2_5":28.3,"no2":1.6,"co":218.0,"o3":136.0,"so2":6.2,"mosquito_risk":3,"arthritis_risk":5,"migraine_risk":10,"frizz_risk":1,"updated_at":"2026-05-24T15:27:40.118422+05:30"},{"city":"Cuttack","state":"Odisha","latitude":20.4625,"longitude":85.8828,"temp":35.6,"humidity":64,"rain":0.0,"pressure":998.8,"uv_index":9.2,"wind_gusts":40.0,"aqi":108,"pm10":36.9,"pm2_5":28.3,"no2":1.6,"co":237.0,"o3":136.0,"so2":6.2,"mosquito_risk":3,"arthritis_risk":5,"migraine_risk":10,"frizz_risk":1,"updated_at":"2026-05-24T15:27:40.118433+05:30"},{"city":"Rourkela","state":"Odisha","latitude":22.2604,"longitude":84.8536,"temp":39.5,"humidity":28,"rain":0.0,"pressure":980.6,"uv_index":8.95,"wind_gusts":44.3,"aqi":147,"pm10":169.0,"pm2_5":51.2,"no2":1.4,"co":202.0,"o3":167.0,"so2":9.4,"mosquito_risk":0,"arthritis_risk":5,"migraine_risk":10,"frizz_risk":1,"updated_at":"2026-05-24T15:27:40.118443+05:30"},{"city":"Raipur","state":"Chhattisgarh","latitude":21.2514,"longitude":81.6296,"temp":41.9,"humidity":17,"rain":0.0,"pressure":970.6,"uv_index":9.0,"wind_gusts":36.7,"aqi":107,"pm10":67.3,"pm2_5":29.2,"no2":5.2,"co":143.0,"o3":130.0,"so2":14.6,"mosquito_risk":0,"arthritis_risk":5,"migraine_risk":10,"frizz_risk":0,"updated_at":"2026-05-24T15:27:40.118452+05:30"},{"city":"Bhilai","state":"Chhattisgarh","latitude":21.1938,"longitude":81.3509,"temp":40.5,"humidity":19,"rain":0.0,"pressure":971.1,"uv_index":9.0,"wind_gusts":30.2,"aqi":95,"pm10":68.5,"pm2_5":28.8,"no2":6.0,"co":144.0,"o3":123.0,"so2":15.7,"mosquito_risk":0,"arthritis_risk":5,"migraine_risk":10,"frizz_risk":0,"updated_at":"2026-05-24T15:27:40.118462+05:30"},{"city":"Guwahati","state":"Assam","latitude":26.1158,"longitude":91.7086,"temp":29.9,"humidity":74,"rain":0.0,"pressure":996.5,"uv_index":8.75,"wind_gusts":24.8,"aqi":70,"pm10":30.0,"pm2_5":14.9,"no2":1.3,"co":280.0,"o3":110.0,"so2":3.0,"mosquito_risk":7,"arthritis_risk":5,"migraine_risk":7,"frizz_risk":1,"updated_at":"2026-05-24T15:27:40.118474+05:30"},{"city":"Agartala","state":"Tripura","latitude":23.8315,"longitude":91.2868,"temp":30.5,"humidity":82,"rain":0.1,"pressure":1001.9,"uv_index":7.8,"wind_gusts":43.9,"aqi":76,"pm10":48.9,"pm2_5":22.7,"no2":3.4,"co":166.0,"o3":106.0,"so2":2.8,"mosquito_risk":6,"arthritis_risk":5,"migraine_risk":4,"frizz_risk":1,"updated_at":"2026-05-24T15:27:40.118480+05:30"},{"city":"Shillong","state":"Meghalaya","latitude":25.5788,"longitude":91.8933,"temp":23.7,"humidity":73,"rain":0.2,"pressure":855.8,"uv_index":9.15,"wind_gusts":49.0,"aqi":50,"pm10":39.2,"pm2_5":15.7,"no2":1.1,"co":206.0,"o3":116.0,"so2":3.0,"mosquito_risk":6,"arthritis_risk":5,"migraine_risk":7,"frizz_risk":1,"updated_at":"2026-05-24T15:27:40.118486+05:30"},{"city":"Imphal","state":"Manipur","latitude":24.817,"longitude":93.9368,"temp":29.2,"humidity":60,"rain":0.0,"pressure":920.8,"uv_index":9.05,"wind_gusts":38.9,"aqi":75,"pm10":54.0,"pm2_5":20.0,"no2":0.6,"co":196.0,"o3":88.0,"so2":1.9,"mosquito_risk":4,"arthritis_risk":5,"migraine_risk":7,"frizz_risk":1,"updated_at":"2026-05-24T15:27:40.118492+05:30"},{"city":"Aizawl","state":"Mizoram","latitude":23.7271,"longitude":92.7176,"temp":24.5,"humidity":77,"rain":0.0,"pressure":891.1,"uv_index":8.65,"wind_gusts":38.9,"aqi":70,"pm10":39.8,"pm2_5":15.1,"no2":0.5,"co":166.0,"o3":87.0,"so2":1.5,"mosquito_risk":3,"arthritis_risk":5,"migraine_risk":7,"frizz_risk":1,"updated_at":"2026-05-24T15:27:40.118497+05:30"},{"city":"Kohima","state":"Nagaland","latitude":25.6701,"longitude":94.1077,"temp":26.3,"humidity":59,"rain":0.0,"pressure":854.5,"uv_index":9.3,"wind_gusts":33.1,"aqi":54,"pm10":51.1,"pm2_5":18.3,"no2":0.4,"co":197.0,"o3":98.0,"so2":1.9,"mosquito_risk":4,"arthritis_risk":5,"migraine_risk":7,"frizz_risk":1,"updated_at":"2026-05-24T15:27:40.118504+05:30"},{"city":"Gangtok","state":"Sikkim","latitude":27.3314,"longitude":88.6138,"temp":23.0,"humidity":67,"rain":0.1,"pressure":836.9,"uv_index":8.8,"wind_gusts":34.9,"aqi":114,"pm10":51.9,"pm2_5":23.7,"no2":0.8,"co":281.0,"o3":148.0,"so2":3.6,"mosquito_risk":6,"arthritis_risk":5,"migraine_risk":7,"frizz_risk":1,"updated_at":"2026-05-24T15:27:40.118509+05:30"},{"city":"Siliguri","state":"West Bengal","latitude":26.7271,"longitude":88.3953,"temp":31.1,"humidity":62,"rain":0.0,"pressure":987.6,"uv_index":8.7,"wind_gusts":26.6,"aqi":128,"pm10":63.6,"pm2_5":38.2,"no2":2.1,"co":409.0,"o3":155.0,"so2":8.1,"mosquito_risk":3,"arthritis_risk":5,"migraine_risk":7,"frizz_risk":1,"updated_at":"2026-05-24T15:27:43.482442+05:30"},{"city":"Durgapur","state":"West Bengal","latitude":23.5204,"longitude":87.3119,"temp":28.5,"humidity":89,"rain":0.1,"pressure":989.7,"uv_index":8.9,"wind_gusts":48.6,"aqi":152,"pm10":108.7,"pm2_5":72.9,"no2":8.6,"co":599.0,"o3":256.0,"so2":49.6,"mosquito_risk":10,"arthritis_risk":5,"migraine_risk":7,"frizz_risk":1,"updated_at":"2026-05-24T15:27:43.482469+05:30"},{"city":"Asansol","state":"West Bengal","latitude":23.6739,"longitude":86.9524,"temp":33.0,"humidity":56,"rain":0.0,"pressure":988.0,"uv_index":8.9,"wind_gusts":37.8,"aqi":151,"pm10":191.9,"pm2_5":68.7,"no2":6.4,"co":301.0,"o3":220.0,"so2":35.2,"mosquito_risk":0,"arthritis_risk":5,"migraine_risk":7,"frizz_risk":1,"updated_at":"2026-05-24T15:27:43.482478+05:30"},{"city":"Pondicherry","state":"Puducherry","latitude":11.9139,"longitude":79.8145,"temp":34.1,"humidity":69,"rain":0.0,"pressure":1004.9,"uv_index":8.7,"wind_gusts":47.9,"aqi":92,"pm10":34.0,"pm2_5":26.9,"no2":6.3,"co":233.0,"o3":160.0,"so2":14.2,"mosquito_risk":3,"arthritis_risk":5,"migraine_risk":4,"frizz_risk":1,"updated_at":"2026-05-24T15:27:43.482485+05:30"},{"city":"Port Blair","state":"Andaman and Nicobar Islands","latitude":11.6234,"longitude":92.7265,"temp":27.9,"humidity":85,"rain":0.0,"pressure":1006.2,"uv_index":8.9,"wind_gusts":34.2,"aqi":29,"pm10":8.5,"pm2_5":5.0,"no2":0.3,"co":102.0,"o3":58.0,"so2":0.5,"mosquito_risk":7,"arthritis_risk":5,"migraine_risk":4,"frizz_risk":1,"updated_at":"2026-05-24T15:27:43.482493+05:30"},{"city":"Haridwar","state":"Uttarakhand","latitude":29.9457,"longitude":78.1642,"temp":40.3,"humidity":15,"rain":0.0,"pressure":968.5,"uv_index":7.55,"wind_gusts":57.2,"aqi":103,"pm10":61.2,"pm2_5":21.8,"no2":1.3,"co":191.0,"o3":157.0,"so2":7.9,"mosquito_risk":0,"arthritis_risk":5,"migraine_risk":10,"frizz_risk":0,"updated_at":"2026-05-24T15:27:43.482500+05:30"},{"city":"Rishikesh","state":"Uttarakhand","latitude":30.0869,"longitude":78.2676,"temp":39.1,"humidity":16,"rain":0.0,"pressure":961.4,"uv_index":7.65,"wind_gusts":49.7,"aqi":95,"pm10":28.2,"pm2_5":15.6,"no2":0.9,"co":177.0,"o3":162.0,"so2":6.7,"mosquito_risk":0,"arthritis_risk":5,"migraine_risk":10,"frizz_risk":0,"updated_at":"2026-05-24T15:27:43.482506+05:30"},{"city":"Nainital","state":"Uttarakhand","latitude":29.3919,"longitude":79.4542,"temp":25.3,"humidity":30,"rain":0.0,"pressure":807.3,"uv_index":8.5,"wind_gusts":53.3,"aqi":109,"pm10":34.2,"pm2_5":18.7,"no2":1.4,"co":232.0,"o3":174.0,"so2":7.3,"mosquito_risk":4,"arthritis_risk":5,"migraine_risk":7,"frizz_risk":0,"updated_at":"2026-05-24T15:27:43.482512+05:30"},{"city":"Mussoorie","state":"Uttarakhand","latitude":30.4599,"longitude":78.0664,"temp":25.4,"humidity":26,"rain":0.0,"pressure":804.8,"uv_index":8.05,"wind_gusts":67.0,"aqi":86,"pm10":40.3,"pm2_5":18.0,"no2":0.8,"co":174.0,"o3":138.0,"so2":4.4,"mosquito_risk":4,"arthritis_risk":5,"migraine_risk":7,"frizz_risk":0,"updated_at":"2026-05-24T15:27:43.482518+05:30"},{"city":"Dharamshala","state":"Himachal Pradesh","latitude":32.219,"longitude":76.3234,"temp":27.6,"humidity":31,"rain":0.0,"pressure":869.0,"uv_index":8.4,"wind_gusts":37.1,"aqi":64,"pm10":33.8,"pm2_5":11.4,"no2":0.4,"co":149.0,"o3":128.0,"so2":1.2,"mosquito_risk":4,"arthritis_risk":5,"migraine_risk":7,"frizz_risk":0,"updated_at":"2026-05-24T15:27:43.482524+05:30"},{"city":"Dalhousie","state":"Himachal Pradesh","latitude":32.5387,"longitude":75.971,"temp":24.6,"humidity":27,"rain":0.0,"pressure":806.7,"uv_index":8.65,"wind_gusts":43.2,"aqi":67,"pm10":46.3,"pm2_5":18.0,"no2":1.4,"co":142.0,"o3":141.0,"so2":2.0,"mosquito_risk":0,"arthritis_risk":5,"migraine_risk":7,"frizz_risk":0,"updated_at":"2026-05-24T15:27:43.482531+05:30"},{"city":"Patiala","state":"Punjab","latitude":30.3398,"longitude":76.3869,"temp":40.5,"humidity":15,"rain":0.0,"pressure":973.2,"uv_index":7.65,"wind_gusts":38.9,"aqi":502,"pm10":743.2,"pm2_5":85.2,"no2":1.0,"co":171.0,"o3":144.0,"so2":4.1,"mosquito_risk":0,"arthritis_risk":5,"migraine_risk":10,"frizz_risk":0,"updated_at":"2026-05-24T15:27:43.482538+05:30"},{"city":"Bhatinda","state":"Punjab","latitude":30.211,"longitude":74.9455,"temp":43.0,"humidity":13,"rain":0.0,"pressure":977.5,"uv_index":8.3,"wind_gusts":34.9,"aqi":90,"pm10":83.4,"pm2_5":28.5,"no2":2.0,"co":192.0,"o3":179.0,"so2":13.4,"mosquito_risk":0,"arthritis_risk":5,"migraine_risk":10,"frizz_risk":0,"updated_at":"2026-05-24T15:27:43.482543+05:30"},{"city":"Rohtak","state":"Haryana","latitude":28.8955,"longitude":76.6066,"temp":41.5,"humidity":15,"rain":0.0,"pressure":977.0,"uv_index":7.75,"wind_gusts":32.0,"aqi":852,"pm10":853.1,"pm2_5":105.2,"no2":1.4,"co":188.0,"o3":151.0,"so2":4.7,"mosquito_risk":0,"arthritis_risk":5,"migraine_risk":10,"frizz_risk":0,"updated_at":"2026-05-24T15:27:43.482549+05:30"},{"city":"Panipat","state":"Haryana","latitude":29.3909,"longitude":76.9635,"temp":42.1,"humidity":12,"rain":0.0,"pressure":975.2,"uv_index":7.6,"wind_gusts":44.6,"aqi":1751,"pm10":2078.7,"pm2_5":222.1,"no2":2.1,"co":167.0,"o3":148.0,"so2":7.2,"mosquito_risk":0,"arthritis_risk":5,"migraine_risk":10,"frizz_risk":0,"updated_at":"2026-05-24T15:27:43.482555+05:30"},{"city":"Mathura","state":"Uttar Pradesh","latitude":27.4924,"longitude":77.6737,"temp":43.2,"humidity":12,"rain":0.0,"pressure":982.1,"uv_index":8.0,"wind_gusts":40.0,"aqi":689,"pm10":987.2,"pm2_5":115.3,"no2":1.0,"co":180.0,"o3":145.0,"so2":4.5,"mosquito_risk":0,"arthritis_risk":5,"migraine_risk":10,"frizz_risk":0,"updated_at":"2026-05-24T15:27:43.482560+05:30"},{"city":"Vrindavan","state":"Uttar Pradesh","latitude":27.5823,"longitude":77.7027,"temp":42.8,"humidity":12,"rain":0.0,"pressure":982.5,"uv_index":8.0,"wind_gusts":38.2,"aqi":689,"pm10":987.2,"pm2_5":115.3,"no2":1.0,"co":184.0,"o3":145.0,"so2":4.5,"mosquito_risk":0,"arthritis_risk":5,"migraine_risk":10,"frizz_risk":0,"updated_at":"2026-05-24T15:27:43.482566+05:30"},{"city":"Ayodhya","state":"Uttar Pradesh","latitude":26.7922,"longitude":82.1998,"temp":40.5,"humidity":20,"rain":0.0,"pressure":988.9,"uv_index":8.35,"wind_gusts":37.1,"aqi":155,"pm10":354.8,"pm2_5":78.0,"no2":1.2,"co":204.0,"o3":174.0,"so2":9.1,"mosquito_risk":0,"arthritis_risk":5,"migraine_risk":10,"frizz_risk":0,"updated_at":"2026-05-24T15:27:43.482571+05:30"},{"city":"Ratlam","state":"Madhya Pradesh","latitude":23.3315,"longitude":75.0367,"temp":38.8,"humidity":25,"rain":0.0,"pressure":954.5,"uv_index":8.55,"wind_gusts":49.7,"aqi":63,"pm10":39.9,"pm2_5":18.5,"no2":0.5,"co":130.0,"o3":108.0,"so2":3.8,"mosquito_risk":0,"arthritis_risk":5,"migraine_risk":10,"frizz_risk":0,"updated_at":"2026-05-24T15:27:43.482578+05:30"},{"city":"Sagar","state":"Madhya Pradesh","latitude":23.8388,"longitude":78.7378,"temp":41.2,"humidity":13,"rain":0.0,"pressure":948.3,"uv_index":8.75,"wind_gusts":46.4,"aqi":80,"pm10":122.5,"pm2_5":35.0,"no2":0.5,"co":134.0,"o3":119.0,"so2":3.5,"mosquito_risk":0,"arthritis_risk":5,"migraine_risk":10,"frizz_risk":0,"updated_at":"2026-05-24T15:27:43.482583+05:30"},{"city":"Satna","state":"Madhya Pradesh","latitude":24.6005,"longitude":80.8322,"temp":41.6,"humidity":14,"rain":0.0,"pressure":967.6,"uv_index":8.8,"wind_gusts":47.2,"aqi":139,"pm10":92.9,"pm2_5":29.8,"no2":0.7,"co":165.0,"o3":132.0,"so2":3.4,"mosquito_risk":0,"arthritis_risk":5,"migraine_risk":10,"frizz_risk":0,"updated_at":"2026-05-24T15:27:43.482588+05:30"},{"city":"Akola","state":"Maharashtra","latitude":20.7002,"longitude":77.0082,"temp":41.3,"humidity":22,"rain":0.0,"pressure":973.1,"uv_index":8.85,"wind_gusts":51.5,"aqi":57,"pm10":49.7,"pm2_5":20.1,"no2":1.1,"co":134.0,"o3":115.0,"so2":4.7,"mosquito_risk":0,"arthritis_risk":5,"migraine_risk":10,"frizz_risk":0,"updated_at":"2026-05-24T15:27:43.482595+05:30"},{"city":"Amravati","state":"Maharashtra","latitude":20.9374,"longitude":77.7796,"temp":41.3,"humidity":18,"rain":0.0,"pressure":965.2,"uv_index":8.85,"wind_gusts":47.5,"aqi":59,"pm10":50.5,"pm2_5":20.4,"no2":1.3,"co":140.0,"o3":120.0,"so2":5.4,"mosquito_risk":0,"arthritis_risk":5,"migraine_risk":10,"frizz_risk":0,"updated_at":"2026-05-24T15:27:43.482601+05:30"},{"city":"Latur","state":"Maharashtra","latitude":18.4088,"longitude":76.5604,"temp":37.5,"humidity":24,"rain":0.0,"pressure":939.4,"uv_index":9.05,"wind_gusts":38.9,"aqi":68,"pm10":20.0,"pm2_5":11.1,"no2":0.8,"co":148.0,"o3":118.0,"so2":3.6,"mosquito_risk":0,"arthritis_risk":5,"migraine_risk":10,"frizz_risk":0,"updated_at":"2026-05-24T15:27:43.482607+05:30"},{"city":"Nanded","state":"Maharashtra","latitude":19.1383,"longitude":77.3091,"temp":40.4,"humidity":20,"rain":0.0,"pressure":966.8,"uv_index":9.0,"wind_gusts":38.9,"aqi":61,"pm10":41.3,"pm2_5":18.3,"no2":0.8,"co":143.0,"o3":114.0,"so2":2.7,"mosquito_risk":0,"arthritis_risk":5,"migraine_risk":10,"frizz_risk":0,"updated_at":"2026-05-24T15:27:43.482613+05:30"},{"city":"Gulbarga","state":"Karnataka","latitude":17.3297,"longitude":76.8343,"temp":38.3,"humidity":29,"rain":0.0,"pressure":957.6,"uv_index":6.65,"wind_gusts":45.4,"aqi":69,"pm10":21.0,"pm2_5":15.0,"no2":1.2,"co":154.0,"o3":115.0,"so2":2.7,"mosquito_risk":0,"arthritis_risk":5,"migraine_risk":10,"frizz_risk":1,"updated_at":"2026-05-24T15:27:43.482618+05:30"},{"city":"Bidar","state":"Karnataka","latitude":17.9104,"longitude":77.5199,"temp":37.1,"humidity":27,"rain":0.0,"pressure":935.1,"uv_index":9.1,"wind_gusts":46.4,"aqi":79,"pm10":25.0,"pm2_5":14.4,"no2":1.0,"co":152.0,"o3":125.0,"so2":4.6,"mosquito_risk":0,"arthritis_risk":5,"migraine_risk":10,"frizz_risk":0,"updated_at":"2026-05-24T15:27:43.482624+05:30"},{"city":"Hospet","state":"Karnataka","latitude":15.2689,"longitude":76.3909,"temp":34.0,"humidity":41,"rain":0.0,"pressure":955.3,"uv_index":8.9,"wind_gusts":40.7,"aqi":38,"pm10":18.8,"pm2_5":14.0,"no2":1.3,"co":178.0,"o3":105.0,"so2":2.6,"mosquito_risk":0,"arthritis_risk":5,"migraine_risk":7,"frizz_risk":1,"updated_at":"2026-05-24T15:27:43.482630+05:30"},{"city":"Tirupur","state":"Tamil Nadu","latitude":11.1085,"longitude":77.3411,"temp":32.4,"humidity":55,"rain":0.1,"pressure":974.1,"uv_index":8.9,"wind_gusts":49.7,"aqi":53,"pm10":15.4,"pm2_5":10.2,"no2":1.9,"co":149.0,"o3":98.0,"so2":2.3,"mosquito_risk":3,"arthritis_risk":5,"migraine_risk":7,"frizz_risk":1,"updated_at":"2026-05-24T15:27:43.482635+05:30"},{"city":"Alappuzha","state":"Kerala","latitude":9.4981,"longitude":76.3388,"temp":28.0,"humidity":85,"rain":0.2,"pressure":1009.7,"uv_index":8.5,"wind_gusts":37.4,"aqi":46,"pm10":13.1,"pm2_5":8.7,"no2":2.2,"co":96.0,"o3":74.0,"so2":2.0,"mosquito_risk":10,"arthritis_risk":0,"migraine_risk":4,"frizz_risk":1,"updated_at":"2026-05-24T15:27:43.482641+05:30"},{"city":"Munnar","state":"Kerala","latitude":10.0889,"longitude":77.0595,"temp":20.0,"humidity":95,"rain":0.2,"pressure":857.8,"uv_index":8.95,"wind_gusts":31.3,"aqi":27,"pm10":5.4,"pm2_5":4.1,"no2":1.3,"co":127.0,"o3":72.0,"so2":1.0,"mosquito_risk":6,"arthritis_risk":5,"migraine_risk":7,"frizz_risk":1,"updated_at":"2026-05-24T15:27:43.482647+05:30"},{"city":"Silchar","state":"Assam","latitude":24.8333,"longitude":92.7789,"temp":31.8,"humidity":69,"rain":0.0,"pressure":1000.7,"uv_index":8.95,"wind_gusts":43.2,"aqi":66,"pm10":23.9,"pm2_5":12.8,"no2":1.2,"co":232.0,"o3":95.0,"so2":2.6,"mosquito_risk":3,"arthritis_risk":5,"migraine_risk":4,"frizz_risk":1,"updated_at":"2026-05-24T15:27:43.482652+05:30"},{"city":"Dibrugarh","state":"Assam","latitude":27.4728,"longitude":94.912,"temp":27.6,"humidity":83,"rain":0.1,"pressure":991.6,"uv_index":8.45,"wind_gusts":37.1,"aqi":60,"pm10":17.4,"pm2_5":11.3,"no2":1.9,"co":221.0,"o3":103.0,"so2":1.6,"mosquito_risk":10,"arthritis_risk":5,"migraine_risk":7,"frizz_risk":1,"updated_at":"2026-05-24T15:27:43.482658+05:30"}]