[{"city":"Delhi","state":"Delhi","latitude":28.6139,"longitude":77.209,"temp":35.9,"humidity":20,"rain":0.0,"pressure":983.6,"uv_index":7.4,"wind_gusts":29.5,"aqi":362,"pm10":426.5,"pm2_5":61.2,"mosquito_risk":0,"arthritis_risk":5,"migraine_risk":10,"frizz_risk":0,"updated_at":"2026-04-23T11:03:48.532302+05:30"},{"city":"Mumbai","state":"Maharashtra","latitude":19.076,"longitude":72.8777,"temp":29.7,"humidity":75,"rain":0.0,"pressure":1008.0,"uv_index":8.05,"wind_gusts":23.4,"aqi":79,"pm10":37.7,"pm2_5":26.5,"mosquito_risk":7,"arthritis_risk":0,"migraine_risk":4,"frizz_risk":1,"updated_at":"2026-04-23T11:03:48.532356+05:30"},{"city":"Bangalore","state":"Karnataka","latitude":12.9716,"longitude":77.5946,"temp":31.8,"humidity":40,"rain":0.0,"pressure":913.0,"uv_index":9.4,"wind_gusts":31.7,"aqi":72,"pm10":25.5,"pm2_5":20.9,"mosquito_risk":0,"arthritis_risk":5,"migraine_risk":7,"frizz_risk":1,"updated_at":"2026-04-23T11:03:48.532372+05:30"},{"city":"Hyderabad","state":"Telangana","latitude":17.385,"longitude":78.4867,"temp":36.9,"humidity":30,"rain":0.0,"pressure":954.0,"uv_index":8.75,"wind_gusts":39.2,"aqi":118,"pm10":39.9,"pm2_5":34.0,"mosquito_risk":0,"arthritis_risk":5,"migraine_risk":10,"frizz_risk":1,"updated_at":"2026-04-23T11:03:48.532382+05:30"},{"city":"Chennai","state":"Tamil Nadu","latitude":13.0827,"longitude":80.2707,"temp":35.4,"humidity":50,"rain":0.0,"pressure":1007.0,"uv_index":9.3,"wind_gusts":33.8,"aqi":31,"pm10":12.4,"pm2_5":8.7,"mosquito_risk":0,"arthritis_risk":5,"migraine_risk":7,"frizz_risk":1,"updated_at":"2026-04-23T11:03:48.532392+05:30"},{"city":"Kolkata","state":"West Bengal","latitude":22.5726,"longitude":88.3639,"temp":33.6,"humidity":70,"rain":0.0,"pressure":1004.5,"uv_index":8.85,"wind_gusts":23.4,"aqi":83,"pm10":30.7,"pm2_5":27.4,"mosquito_risk":3,"arthritis_risk":5,"migraine_risk":4,"frizz_risk":1,"updated_at":"2026-04-23T11:03:48.532406+05:30"},{"city":"Pune","state":"Maharashtra","latitude":18.5204,"longitude":73.8567,"temp":36.8,"humidity":25,"rain":0.0,"pressure":949.7,"uv_index":8.65,"wind_gusts":37.4,"aqi":113,"pm10":34.9,"pm2_5":27.4,"mosquito_risk":0,"arthritis_risk":5,"migraine_risk":10,"frizz_risk":0,"updated_at":"2026-04-23T11:03:48.532414+05:30"},{"city":"Ahmedabad","state":"Gujarat","latitude":23.0225,"longitude":72.5714,"temp":33.8,"humidity":43,"rain":0.0,"pressure":1003.3,"uv_index":8.2,"wind_gusts":27.0,"aqi":44,"pm10":31.1,"pm2_5":13.4,"mosquito_risk":0,"arthritis_risk":5,"migraine_risk":4,"frizz_risk":1,"updated_at":"2026-04-23T11:03:48.532425+05:30"},{"city":"Jaipur","state":"Rajasthan","latitude":26.9124,"longitude":75.7873,"temp":35.6,"humidity":18,"rain":0.0,"pressure":961.5,"uv_index":8.05,"wind_gusts":29.9,"aqi":146,"pm10":216.1,"pm2_5":26.8,"mosquito_risk":0,"arthritis_risk":5,"migraine_risk":10,"frizz_risk":0,"updated_at":"2026-04-23T11:03:48.532433+05:30"},{"city":"Lucknow","state":"Uttar Pradesh","latitude":26.8467,"longitude":80.9462,"temp":38.7,"humidity":22,"rain":0.0,"pressure":992.8,"uv_index":7.85,"wind_gusts":37.4,"aqi":197,"pm10":422.8,"pm2_5":71.7,"mosquito_risk":0,"arthritis_risk":5,"migraine_risk":10,"frizz_risk":0,"updated_at":"2026-04-23T11:03:48.532441+05:30"},{"city":"Kanpur","state":"Uttar Pradesh","latitude":26.4499,"longitude":80.3319,"temp":36.2,"humidity":28,"rain":0.0,"pressure":991.7,"uv_index":7.9,"wind_gusts":29.2,"aqi":428,"pm10":534.6,"pm2_5":67.1,"mosquito_risk":0,"arthritis_risk":5,"migraine_risk":10,"frizz_risk":0,"updated_at":"2026-04-23T11:03:48.532448+05:30"},{"city":"Chandigarh","state":"Chandigarh","latitude":30.7333,"longitude":76.7794,"temp":34.8,"humidity":37,"rain":0.0,"pressure":969.2,"uv_index":7.4,"wind_gusts":30.6,"aqi":59,"pm10":35.0,"pm2_5":17.1,"mosquito_risk":0,"arthritis_risk":5,"migraine_risk":7,"frizz_risk":1,"updated_at":"2026-04-23T11:03:48.532457+05:30"},{"city":"Srinagar","state":"Jammu and Kashmir","latitude":34.0837,"longitude":74.7973,"temp":20.8,"humidity":57,"rain":0.0,"pressure":845.7,"uv_index":7.65,"wind_gusts":17.3,"aqi":70,"pm10":22.4,"pm2_5":13.4,"mosquito_risk":0,"arthritis_risk":5,"migraine_risk":7,"frizz_risk":0,"updated_at":"2026-04-23T11:03:48.532464+05:30"},{"city":"Jammu","state":"Jammu and Kashmir","latitude":32.7266,"longitude":74.857,"temp":34.9,"humidity":39,"rain":0.0,"pressure":972.5,"uv_index":8.2,"wind_gusts":32.0,"aqi":63,"pm10":20.4,"pm2_5":13.2,"mosquito_risk":0,"arthritis_risk":5,"migraine_risk":7,"frizz_risk":1,"updated_at":"2026-04-23T11:03:48.532471+05:30"},{"city":"Amritsar","state":"Punjab","latitude":31.634,"longitude":74.8723,"temp":36.7,"humidity":31,"rain":0.0,"pressure":980.3,"uv_index":7.55,"wind_gusts":33.8,"aqi":94,"pm10":45.5,"pm2_5":27.9,"mosquito_risk":0,"arthritis_risk":5,"migraine_risk":10,"frizz_risk":1,"updated_at":"2026-04-23T11:03:48.532478+05:30"},{"city":"Ludhiana","state":"Punjab","latitude":30.901,"longitude":75.8573,"temp":37.7,"humidity":26,"rain":0.0,"pressure":978.6,"uv_index":7.7,"wind_gusts":22.0,"aqi":85,"pm10":74.3,"pm2_5":27.9,"mosquito_risk":0,"arthritis_risk":5,"migraine_risk":10,"frizz_risk":0,"updated_at":"2026-04-23T11:03:48.532493+05:30"},{"city":"Jalandhar","state":"Punjab","latitude":31.326,"longitude":75.5762,"temp":37.2,"humidity":27,"rain":0.0,"pressure":979.6,"uv_index":7.85,"wind_gusts":33.8,"aqi":86,"pm10":47.3,"pm2_5":21.5,"mosquito_risk":0,"arthritis_risk":5,"migraine_risk":10,"frizz_risk":0,"updated_at":"2026-04-23T11:03:48.532500+05:30"},{"city":"Dehradun","state":"Uttarakhand","latitude":30.6284,"longitude":78.0322,"temp":26.9,"humidity":38,"rain":0.0,"pressure":835.0,"uv_index":7.85,"wind_gusts":38.5,"aqi":44,"pm10":16.1,"pm2_5":8.6,"mosquito_risk":4,"arthritis_risk":5,"migraine_risk":7,"frizz_risk":0,"updated_at":"2026-04-23T11:03:48.532508+05:30"},{"city":"Shimla","state":"Himachal Pradesh","latitude":31.1048,"longitude":77.1734,"temp":25.7,"humidity":31,"rain":0.0,"pressure":790.9,"uv_index":7.9,"wind_gusts":52.6,"aqi":52,"pm10":20.0,"pm2_5":9.2,"mosquito_risk":4,"arthritis_risk":5,"migraine_risk":7,"frizz_risk":0,"updated_at":"2026-04-23T11:03:48.532515+05:30"},{"city":"Manali","state":"Himachal Pradesh","latitude":32.2396,"longitude":77.1887,"temp":27.9,"humidity":24,"rain":0.0,"pressure":826.4,"uv_index":9.9,"wind_gusts":31.3,"aqi":81,"pm10":20.7,"pm2_5":10.6,"mosquito_risk":4,"arthritis_risk":5,"migraine_risk":7,"frizz_risk":0,"updated_at":"2026-04-23T11:03:48.532522+05:30"},{"city":"Gurgaon","state":"Haryana","latitude":28.4595,"longitude":77.0266,"temp":34.9,"humidity":26,"rain":0.0,"pressure":982.1,"uv_index":7.5,"wind_gusts":23.4,"aqi":1171,"pm10":1668.9,"pm2_5":173.7,"mosquito_risk":0,"arthritis_risk":5,"migraine_risk":7,"frizz_risk":0,"updated_at":"2026-04-23T11:03:48.532530+05:30"},{"city":"Noida","state":"Uttar Pradesh","latitude":28.5355,"longitude":77.391,"temp":36.9,"humidity":18,"rain":0.0,"pressure":985.1,"uv_index":7.4,"wind_gusts":31.0,"aqi":1171,"pm10":1668.9,"pm2_5":173.7,"mosquito_risk":0,"arthritis_risk":5,"migraine_risk":10,"frizz_risk":0,"updated_at":"2026-04-23T11:03:48.532536+05:30"},{"city":"Ghaziabad","state":"Uttar Pradesh","latitude":28.6692,"longitude":77.4538,"temp":35.8,"humidity":22,"rain":0.0,"pressure":983.3,"uv_index":7.4,"wind_gusts":29.5,"aqi":280,"pm10":312.0,"pm2_5":53.9,"mosquito_risk":0,"arthritis_risk":5,"migraine_risk":10,"frizz_risk":0,"updated_at":"2026-04-23T11:03:48.532543+05:30"},{"city":"Faridabad","state":"Haryana","latitude":28.4089,"longitude":77.3178,"temp":38.0,"humidity":14,"rain":0.0,"pressure":984.5,"uv_index":7.45,"wind_gusts":29.9,"aqi":1171,"pm10":1668.9,"pm2_5":173.7,"mosquito_risk":0,"arthritis_risk":5,"migraine_risk":10,"frizz_risk":0,"updated_at":"2026-04-23T11:03:48.532549+05:30"},{"city":"Meerut","state":"Uttar Pradesh","latitude":28.9845,"longitude":77.7064,"temp":36.3,"humidity":26,"rain":0.0,"pressure":981.8,"uv_index":7.3,"wind_gusts":28.1,"aqi":280,"pm10":312.0,"pm2_5":53.9,"mosquito_risk":0,"arthritis_risk":5,"migraine_risk":10,"frizz_risk":0,"updated_at":"2026-04-23T11:03:48.532555+05:30"},{"city":"Agra","state":"Uttar Pradesh","latitude":27.1767,"longitude":78.0081,"temp":37.7,"humidity":17,"rain":0.0,"pressure":988.8,"uv_index":7.75,"wind_gusts":31.3,"aqi":698,"pm10":817.7,"pm2_5":76.8,"mosquito_risk":0,"arthritis_risk":5,"migraine_risk":10,"frizz_risk":0,"updated_at":"2026-04-23T11:03:48.532564+05:30"},{"city":"Varanasi","state":"Uttar Pradesh","latitude":25.3176,"longitude":82.9739,"temp":40.3,"humidity":19,"rain":0.0,"pressure":996.5,"uv_index":8.45,"wind_gusts":36.0,"aqi":109,"pm10":357.6,"pm2_5":53.9,"mosquito_risk":0,"arthritis_risk":5,"migraine_risk":10,"frizz_risk":0,"updated_at":"2026-04-23T11:03:48.532571+05:30"},{"city":"Prayagraj","state":"Uttar Pradesh","latitude":25.4358,"longitude":81.8463,"temp":39.9,"humidity":17,"rain":0.0,"pressure":995.3,"uv_index":8.35,"wind_gusts":32.4,"aqi":119,"pm10":295.2,"pm2_5":48.2,"mosquito_risk":0,"arthritis_risk":5,"migraine_risk":10,"frizz_risk":0,"updated_at":"2026-04-23T11:03:48.532578+05:30"},{"city":"Gorakhpur","state":"Uttar Pradesh","latitude":26.7606,"longitude":83.3732,"temp":37.4,"humidity":23,"rain":0.0,"pressure":996.4,"uv_index":8.3,"wind_gusts":30.6,"aqi":115,"pm10":105.7,"pm2_5":46.9,"mosquito_risk":0,"arthritis_risk":5,"migraine_risk":10,"frizz_risk":0,"updated_at":"2026-04-23T11:03:48.532587+05:30"},{"city":"Bareilly","state":"Uttar Pradesh","latitude":28.367,"longitude":79.4304,"temp":36.9,"humidity":27,"rain":0.0,"pressure":986.8,"uv_index":7.65,"wind_gusts":28.8,"aqi":100,"pm10":148.5,"pm2_5":50.8,"mosquito_risk":0,"arthritis_risk":5,"migraine_risk":10,"frizz_risk":0,"updated_at":"2026-04-23T11:03:48.532594+05:30"},{"city":"Aligarh","state":"Uttar Pradesh","latitude":27.8974,"longitude":78.088,"temp":38.1,"humidity":15,"rain":0.0,"pressure":986.2,"uv_index":7.55,"wind_gusts":30.6,"aqi":649,"pm10":936.9,"pm2_5":109.4,"mosquito_risk":0,"arthritis_risk":5,"migraine_risk":10,"frizz_risk":0,"updated_at":"2026-04-23T11:03:48.532600+05:30"},{"city":"Moradabad","state":"Uttar Pradesh","latitude":28.8386,"longitude":78.7733,"temp":36.6,"humidity":30,"rain":0.0,"pressure":983.6,"uv_index":7.5,"wind_gusts":32.0,"aqi":120,"pm10":169.0,"pm2_5":57.5,"mosquito_risk":0,"arthritis_risk":5,"migraine_risk":10,"frizz_risk":1,"updated_at":"2026-04-23T11:03:48.532606+05:30"},{"city":"Saharanpur","state":"Uttar Pradesh","latitude":29.9637,"longitude":77.546,"temp":34.0,"humidity":37,"rain":0.0,"pressure":976.2,"uv_index":7.1,"wind_gusts":33.1,"aqi":91,"pm10":116.9,"pm2_5":42.4,"mosquito_risk":0,"arthritis_risk":5,"migraine_risk":7,"frizz_risk":1,"updated_at":"2026-04-23T11:03:48.532612+05:30"},{"city":"Jhansi","state":"Uttar Pradesh","latitude":25.4484,"longitude":78.5685,"temp":39.7,"humidity":13,"rain":0.0,"pressure":978.9,"uv_index":8.25,"wind_gusts":29.2,"aqi":43,"pm10":8.8,"pm2_5":7.4,"mosquito_risk":0,"arthritis_risk":5,"migraine_risk":10,"frizz_risk":0,"updated_at":"2026-04-23T11:03:51.748973+05:30"},{"city":"Surat","state":"Gujarat","latitude":21.1702,"longitude":72.8311,"temp":32.5,"humidity":57,"rain":0.0,"pressure":1007.4,"uv_index":7.9,"wind_gusts":21.2,"aqi":102,"pm10":43.1,"pm2_5":31.1,"mosquito_risk":0,"arthritis_risk":5,"migraine_risk":4,"frizz_risk":1,"updated_at":"2026-04-23T11:03:51.749031+05:30"},{"city":"Vadodara","state":"Gujarat","latitude":22.3072,"longitude":73.1812,"temp":35.3,"humidity":33,"rain":0.0,"pressure":1005.4,"uv_index":8.2,"wind_gusts":24.8,"aqi":78,"pm10":30.9,"pm2_5":16.0,"mosquito_risk":0,"arthritis_risk":5,"migraine_risk":7,"frizz_risk":1,"updated_at":"2026-04-23T11:03:51.749046+05:30"},{"city":"Rajkot","state":"Gujarat","latitude":22.3039,"longitude":70.8022,"temp":32.2,"humidity":52,"rain":0.0,"pressure":995.6,"uv_index":7.9,"wind_gusts":30.6,"aqi":49,"pm10":24.4,"pm2_5":10.2,"mosquito_risk":0,"arthritis_risk":5,"migraine_risk":7,"frizz_risk":1,"updated_at":"2026-04-23T11:03:51.749059+05:30"},{"city":"Thane","state":"Maharashtra","latitude":19.2183,"longitude":72.9781,"temp":34.0,"humidity":49,"rain":0.0,"pressure":1007.7,"uv_index":8.05,"wind_gusts":35.6,"aqi":79,"pm10":37.7,"pm2_5":26.5,"mosquito_risk":0,"arthritis_risk":5,"migraine_risk":4,"frizz_risk":1,"updated_at":"2026-04-23T11:03:51.749070+05:30"},{"city":"Nagpur","state":"Maharashtra","latitude":21.1458,"longitude":79.0882,"temp":36.7,"humidity":25,"rain":0.0,"pressure":974.2,"uv_index":8.95,"wind_gusts":24.1,"aqi":71,"pm10":18.3,"pm2_5":17.0,"mosquito_risk":0,"arthritis_risk":5,"migraine_risk":10,"frizz_risk":0,"updated_at":"2026-04-23T11:03:51.749082+05:30"},{"city":"Nashik","state":"Maharashtra","latitude":19.9975,"longitude":73.7898,"temp":35.0,"humidity":26,"rain":0.0,"pressure":947.1,"uv_index":8.35,"wind_gusts":24.8,"aqi":85,"pm10":23.5,"pm2_5":16.4,"mosquito_risk":0,"arthritis_risk":5,"migraine_risk":7,"frizz_risk":0,"updated_at":"2026-04-23T11:03:51.749093+05:30"},{"city":"Aurangabad","state":"Maharashtra","latitude":19.8762,"longitude":75.3433,"temp":37.5,"humidity":19,"rain":0.0,"pressure":945.7,"uv_index":9.05,"wind_gusts":33.8,"aqi":81,"pm10":26.3,"pm2_5":20.4,"mosquito_risk":0,"arthritis_risk":5,"migraine_risk":10,"frizz_risk":0,"updated_at":"2026-04-23T11:03:51.749104+05:30"},{"city":"Solapur","state":"Maharashtra","latitude":17.6599,"longitude":75.9064,"temp":36.3,"humidity":30,"rain":0.0,"pressure":957.9,"uv_index":9.1,"wind_gusts":32.0,"aqi":99,"pm10":40.4,"pm2_5":34.9,"mosquito_risk":0,"arthritis_risk":5,"migraine_risk":10,"frizz_risk":0,"updated_at":"2026-04-23T11:03:51.749116+05:30"},{"city":"Kolhapur","state":"Maharashtra","latitude":16.705,"longitude":74.2433,"temp":34.9,"humidity":38,"rain":0.0,"pressure":948.9,"uv_index":9.05,"wind_gusts":46.4,"aqi":121,"pm10":44.8,"pm2_5":38.8,"mosquito_risk":0,"arthritis_risk":5,"migraine_risk":7,"frizz_risk":1,"updated_at":"2026-04-23T11:03:51.749129+05:30"},{"city":"Goa","state":"Goa","latitude":15.2993,"longitude":74.124,"temp":33.7,"humidity":64,"rain":0.0,"pressure":997.1,"uv_index":9.0,"wind_gusts":32.0,"aqi":85,"pm10":36.2,"pm2_5":27.4,"mosquito_risk":3,"arthritis_risk":5,"migraine_risk":7,"frizz_risk":1,"updated_at":"2026-04-23T11:03:51.749140+05:30"},{"city":"Jodhpur","state":"Rajasthan","latitude":26.2389,"longitude":73.0243,"temp":35.4,"humidity":34,"rain":0.0,"pressure":983.7,"uv_index":8.25,"wind_gusts":22.7,"aqi":87,"pm10":120.1,"pm2_5":21.9,"mosquito_risk":0,"arthritis_risk":5,"migraine_risk":10,"frizz_risk":1,"updated_at":"2026-04-23T11:03:51.749152+05:30"},{"city":"Udaipur","state":"Rajasthan","latitude":24.5854,"longitude":73.7125,"temp":33.9,"humidity":18,"rain":0.0,"pressure":948.3,"uv_index":8.75,"wind_gusts":31.3,"aqi":43,"pm10":17.9,"pm2_5":7.2,"mosquito_risk":0,"arthritis_risk":5,"migraine_risk":7,"frizz_risk":0,"updated_at":"2026-04-23T11:03:51.749162+05:30"},{"city":"Kota","state":"Rajasthan","latitude":25.2138,"longitude":75.8648,"temp":37.5,"humidity":19,"rain":0.0,"pressure":979.9,"uv_index":8.25,"wind_gusts":31.0,"aqi":51,"pm10":10.7,"pm2_5":8.1,"mosquito_risk":0,"arthritis_risk":5,"migraine_risk":10,"frizz_risk":0,"updated_at":"2026-04-23T11:03:51.749174+05:30"},{"city":"Bikaner","state":"Rajasthan","latitude":28.0229,"longitude":73.3119,"temp":36.6,"humidity":27,"rain":0.0,"pressure":982.3,"uv_index":8.15,"wind_gusts":23.4,"aqi":60,"pm10":163.4,"pm2_5":40.0,"mosquito_risk":0,"arthritis_risk":5,"migraine_risk":10,"frizz_risk":0,"updated_at":"2026-04-23T11:03:51.749186+05:30"},{"city":"Ajmer","state":"Rajasthan","latitude":26.4499,"longitude":74.6399,"temp":34.4,"humidity":27,"rain":0.0,"pressure":956.3,"uv_index":8.2,"wind_gusts":26.6,"aqi":40,"pm10":35.7,"pm2_5":10.2,"mosquito_risk":0,"arthritis_risk":5,"migraine_risk":7,"frizz_risk":0,"updated_at":"2026-04-23T11:03:51.749196+05:30"},{"city":"Gwalior","state":"Madhya Pradesh","latitude":26.2183,"longitude":78.1828,"temp":37.9,"humidity":15,"rain":0.0,"pressure":984.2,"uv_index":8.0,"wind_gusts":38.2,"aqi":44,"pm10":26.3,"pm2_5":7.9,"mosquito_risk":0,"arthritis_risk":5,"migraine_risk":10,"frizz_risk":0,"updated_at":"2026-04-23T11:03:51.749207+05:30"},{"city":"Indore","state":"Madhya Pradesh","latitude":22.7196,"longitude":75.8577,"temp":35.9,"humidity":23,"rain":0.0,"pressure":950.1,"uv_index":8.4,"wind_gusts":32.8,"aqi":64,"pm10":19.6,"pm2_5":14.4,"mosquito_risk":0,"arthritis_risk":5,"migraine_risk":10,"frizz_risk":0,"updated_at":"2026-04-23T11:03:51.749217+05:30"},{"city":"Bhopal","state":"Madhya Pradesh","latitude":23.2599,"longitude":77.4126,"temp":36.4,"humidity":20,"rain":0.0,"pressure":955.7,"uv_index":8.5,"wind_gusts":28.4,"aqi":60,"pm10":18.0,"pm2_5":14.7,"mosquito_risk":0,"arthritis_risk":5,"migraine_risk":10,"frizz_risk":0,"updated_at":"2026-04-23T11:03:51.749227+05:30"},{"city":"Jabalpur","state":"Madhya Pradesh","latitude":23.1815,"longitude":79.9864,"temp":35.5,"humidity":26,"rain":0.0,"pressure":962.9,"uv_index":8.8,"wind_gusts":25.2,"aqi":65,"pm10":17.6,"pm2_5":16.1,"mosquito_risk":0,"arthritis_risk":5,"migraine_risk":10,"frizz_risk":0,"updated_at":"2026-04-23T11:03:51.749237+05:30"},{"city":"Ujjain","state":"Madhya Pradesh","latitude":23.1765,"longitude":75.7885,"temp":36.2,"humidity":24,"rain":0.0,"pressure":955.8,"uv_index":8.55,"wind_gusts":33.5,"aqi":67,"pm10":18.7,"pm2_5":13.5,"mosquito_risk":0,"arthritis_risk":5,"migraine_risk":10,"frizz_risk":0,"updated_at":"2026-04-23T11:03:51.749248+05:30"},{"city":"Visakhapatnam","state":"Andhra Pradesh","latitude":17.6868,"longitude":83.2185,"temp":34.1,"humidity":58,"rain":0.0,"pressure":1002.9,"uv_index":9.25,"wind_gusts":33.8,"aqi":65,"pm10":26.5,"pm2_5":21.6,"mosquito_risk":0,"arthritis_risk":5,"migraine_risk":4,"frizz_risk":1,"updated_at":"2026-04-23T11:03:51.749258+05:30"},{"city":"Vijayawada","state":"Andhra Pradesh","latitude":16.5062,"longitude":80.648,"temp":33.7,"humidity":59,"rain":0.0,"pressure":1002.6,"uv_index":9.25,"wind_gusts":22.7,"aqi":62,"pm10":20.9,"pm2_5":14.0,"mosquito_risk":0,"arthritis_risk":5,"migraine_risk":4,"frizz_risk":1,"updated_at":"2026-04-23T11:03:51.749267+05:30"},{"city":"Guntur","state":"Andhra Pradesh","latitude":16.3067,"longitude":80.4365,"temp":34.8,"humidity":52,"rain":0.0,"pressure":1003.6,"uv_index":9.3,"wind_gusts":26.6,"aqi":65,"pm10":18.8,"pm2_5":13.4,"mosquito_risk":0,"arthritis_risk":5,"migraine_risk":4,"frizz_risk":1,"updated_at":"2026-04-23T11:03:51.749278+05:30"},{"city":"Nellore","state":"Andhra Pradesh","latitude":14.4426,"longitude":79.9865,"temp":36.1,"humidity":43,"rain":0.0,"pressure":1005.4,"uv_index":9.3,"wind_gusts":32.0,"aqi":46,"pm10":15.9,"pm2_5":12.0,"mosquito_risk":0,"arthritis_risk":5,"migraine_risk":7,"frizz_risk":1,"updated_at":"2026-04-23T11:03:51.749289+05:30"},{"city":"Kurnool","state":"Andhra Pradesh","latitude":15.8281,"longitude":78.0373,"temp":37.5,"humidity":33,"rain":0.0,"pressure":976.8,"uv_index":8.8,"wind_gusts":44.6,"aqi":92,"pm10":30.0,"pm2_5":23.9,"mosquito_risk":0,"arthritis_risk":5,"migraine_risk":10,"frizz_risk":1,"updated_at":"2026-04-23T11:03:51.749300+05:30"},{"city":"Kakinada","state":"Andhra Pradesh","latitude":16.9891,"longitude":82.2475,"temp":34.4,"humidity":58,"rain":0.0,"pressure":1007.2,"uv_index":9.25,"wind_gusts":29.5,"aqi":46,"pm10":19.9,"pm2_5":12.9,"mosquito_risk":0,"arthritis_risk":5,"migraine_risk":4,"frizz_risk":1,"updated_at":"2026-04-23T11:03:51.749311+05:30"},{"city":"Tirupati","state":"Andhra Pradesh","latitude":13.6288,"longitude":79.4192,"temp":34.6,"humidity":48,"rain":0.0,"pressure":992.0,"uv_index":9.35,"wind_gusts":33.8,"aqi":66,"pm10":17.3,"pm2_5":14.3,"mosquito_risk":0,"arthritis_risk":5,"migraine_risk":7,"frizz_risk":1,"updated_at":"2026-04-23T11:03:51.749322+05:30"},{"city":"Warangal","state":"Telangana","latitude":17.9689,"longitude":79.5941,"temp":35.3,"humidity":40,"rain":0.0,"pressure":979.2,"uv_index":8.4,"wind_gusts":20.5,"aqi":118,"pm10":36.7,"pm2_5":31.8,"mosquito_risk":0,"arthritis_risk":5,"migraine_risk":10,"frizz_risk":1,"updated_at":"2026-04-23T11:03:51.749332+05:30"},{"city":"Nizamabad","state":"Telangana","latitude":18.6725,"longitude":78.0941,"temp":35.8,"humidity":32,"rain":0.0,"pressure":965.7,"uv_index":8.6,"wind_gusts":32.0,"aqi":116,"pm10":40.3,"pm2_5":35.5,"mosquito_risk":0,"arthritis_risk":5,"migraine_risk":10,"frizz_risk":1,"updated_at":"2026-04-23T11:03:51.749343+05:30"},{"city":"Mysore","state":"Karnataka","latitude":12.2958,"longitude":76.6396,"temp":33.3,"humidity":39,"rain":0.0,"pressure":929.2,"uv_index":9.2,"wind_gusts":39.6,"aqi":83,"pm10":29.8,"pm2_5":26.2,"mosquito_risk":0,"arthritis_risk":5,"migraine_risk":7,"frizz_risk":1,"updated_at":"2026-04-23T11:03:51.749354+05:30"},{"city":"Mangalore","state":"Karnataka","latitude":12.9141,"longitude":74.856,"temp":29.8,"humidity":84,"rain":0.0,"pressure":1005.9,"uv_index":8.7,"wind_gusts":25.9,"aqi":82,"pm10":40.9,"pm2_5":31.1,"mosquito_risk":7,"arthritis_risk":5,"migraine_risk":4,"frizz_risk":1,"updated_at":"2026-04-23T11:03:51.749365+05:30"},{"city":"Hubli-Dharwad","state":"Karnataka","latitude":15.3647,"longitude":75.124,"temp":34.7,"humidity":40,"rain":0.0,"pressure":941.5,"uv_index":9.25,"wind_gusts":40.7,"aqi":95,"pm10":35.3,"pm2_5":31.7,"mosquito_risk":0,"arthritis_risk":5,"migraine_risk":7,"frizz_risk":1,"updated_at":"2026-04-23T11:03:51.749377+05:30"},{"city":"Belgaum","state":"Karnataka","latitude":15.8497,"longitude":74.4977,"temp":33.6,"humidity":38,"rain":0.0,"pressure":926.8,"uv_index":9.25,"wind_gusts":34.9,"aqi":99,"pm10":34.7,"pm2_5":31.0,"mosquito_risk":0,"arthritis_risk":5,"migraine_risk":7,"frizz_risk":1,"updated_at":"2026-04-23T11:03:54.965628+05:30"},{"city":"Coimbatore","state":"Tamil Nadu","latitude":11.0168,"longitude":76.9558,"temp":33.3,"humidity":46,"rain":0.0,"pressure":962.2,"uv_index":9.4,"wind_gusts":33.8,"aqi":89,"pm10":23.1,"pm2_5":20.1,"mosquito_risk":0,"arthritis_risk":5,"migraine_risk":7,"frizz_risk":1,"updated_at":"2026-04-23T11:03:54.965662+05:30"},{"city":"Madurai","state":"Tamil Nadu","latitude":9.9252,"longitude":78.1198,"temp":34.9,"humidity":45,"rain":0.0,"pressure":992.8,"uv_index":9.3,"wind_gusts":31.0,"aqi":51,"pm10":10.7,"pm2_5":9.4,"mosquito_risk":0,"arthritis_risk":5,"migraine_risk":7,"frizz_risk":1,"updated_at":"2026-04-23T11:03:54.965672+05:30"},{"city":"Trichy","state":"Tamil Nadu","latitude":10.7905,"longitude":78.7047,"temp":34.4,"humidity":53,"rain":0.0,"pressure":999.5,"uv_index":9.3,"wind_gusts":23.4,"aqi":47,"pm10":9.2,"pm2_5":7.9,"mosquito_risk":0,"arthritis_risk":5,"migraine_risk":7,"frizz_risk":1,"updated_at":"2026-04-23T11:03:54.965681+05:30"},{"city":"Salem","state":"Tamil Nadu","latitude":11.6643,"longitude":78.146,"temp":34.2,"humidity":48,"rain":0.0,"pressure":977.5,"uv_index":9.4,"wind_gusts":29.9,"aqi":65,"pm10":11.7,"pm2_5":10.4,"mosquito_risk":0,"arthritis_risk":5,"migraine_risk":7,"frizz_risk":1,"updated_at":"2026-04-23T11:03:54.965689+05:30"},{"city":"Tirunelveli","state":"Tamil Nadu","latitude":8.7139,"longitude":77.7567,"temp":34.7,"humidity":48,"rain":0.0,"pressure":1002.7,"uv_index":9.25,"wind_gusts":36.0,"aqi":70,"pm10":17.1,"pm2_5":14.7,"mosquito_risk":0,"arthritis_risk":5,"migraine_risk":4,"frizz_risk":1,"updated_at":"2026-04-23T11:03:54.965696+05:30"},{"city":"Vellore","state":"Tamil Nadu","latitude":12.9165,"longitude":79.1325,"temp":33.5,"humidity":50,"rain":0.0,"pressure":985.0,"uv_index":9.4,"wind_gusts":30.6,"aqi":81,"pm10":17.3,"pm2_5":15.3,"mosquito_risk":0,"arthritis_risk":5,"migraine_risk":7,"frizz_risk":1,"updated_at":"2026-04-23T11:03:54.965703+05:30"},{"city":"Erode","state":"Tamil Nadu","latitude":11.341,"longitude":77.7172,"temp":35.6,"humidity":45,"rain":0.0,"pressure":988.9,"uv_index":9.35,"wind_gusts":30.2,"aqi":44,"pm10":8.7,"pm2_5":7.5,"mosquito_risk":0,"arthritis_risk":5,"migraine_risk":10,"frizz_risk":1,"updated_at":"2026-04-23T11:03:54.965710+05:30"},{"city":"Kochi","state":"Kerala","latitude":9.9312,"longitude":76.2673,"temp":29.5,"humidity":81,"rain":0.0,"pressure":1008.0,"uv_index":9.05,"wind_gusts":29.9,"aqi":79,"pm10":24.0,"pm2_5":21.0,"mosquito_risk":7,"arthritis_risk":0,"migraine_risk":4,"frizz_risk":1,"updated_at":"2026-04-23T11:03:54.965718+05:30"},{"city":"Thiruvananthapuram","state":"Kerala","latitude":8.5241,"longitude":76.9366,"temp":29.2,"humidity":82,"rain":0.0,"pressure":1007.4,"uv_index":8.7,"wind_gusts":18.7,"aqi":61,"pm10":21.2,"pm2_5":18.0,"mosquito_risk":7,"arthritis_risk":5,"migraine_risk":4,"frizz_risk":1,"updated_at":"2026-04-23T11:03:54.965725+05:30"},{"city":"Kozhikode","state":"Kerala","latitude":11.2588,"longitude":75.7804,"temp":31.0,"humidity":76,"rain":0.0,"pressure":1007.0,"uv_index":9.1,"wind_gusts":30.2,"aqi":72,"pm10":32.0,"pm2_5":26.0,"mosquito_risk":3,"arthritis_risk":5,"migraine_risk":4,"frizz_risk":1,"updated_at":"2026-04-23T11:03:54.965732+05:30"},{"city":"Thrissur","state":"Kerala","latitude":10.5276,"longitude":76.2144,"temp":34.4,"humidity":58,"rain":0.0,"pressure":1006.2,"uv_index":9.15,"wind_gusts":37.4,"aqi":81,"pm10":22.8,"pm2_5":19.8,"mosquito_risk":0,"arthritis_risk":5,"migraine_risk":4,"frizz_risk":1,"updated_at":"2026-04-23T11:03:54.965739+05:30"},{"city":"Kannur","state":"Kerala","latitude":11.8745,"longitude":75.3704,"temp":32.5,"humidity":67,"rain":0.0,"pressure":1006.2,"uv_index":9.1,"wind_gusts":31.7,"aqi":84,"pm10":39.0,"pm2_5":31.0,"mosquito_risk":3,"arthritis_risk":5,"migraine_risk":4,"frizz_risk":1,"updated_at":"2026-04-23T11:03:54.965747+05:30"},{"city":"Patna","state":"Bihar","latitude":25.5941,"longitude":85.1376,"temp":35.2,"humidity":42,"rain":0.0,"pressure":999.6,"uv_index":8.6,"wind_gusts":23.8,"aqi":144,"pm10":107.3,"pm2_5":52.0,"mosquito_risk":0,"arthritis_risk":5,"migraine_risk":10,"frizz_risk":1,"updated_at":"2026-04-23T11:03:54.965754+05:30"},{"city":"Gaya","state":"Bihar","latitude":24.7914,"longitude":85.0002,"temp":39.4,"humidity":19,"rain":0.0,"pressure":992.7,"uv_index":8.5,"wind_gusts":33.5,"aqi":131,"pm10":159.7,"pm2_5":42.0,"mosquito_risk":0,"arthritis_risk":5,"migraine_risk":10,"frizz_risk":0,"updated_at":"2026-04-23T11:03:54.965760+05:30"},{"city":"Muzaffarpur","state":"Bihar","latitude":26.1209,"longitude":85.3647,"temp":34.5,"humidity":55,"rain":0.0,"pressure":999.6,"uv_index":8.65,"wind_gusts":25.9,"aqi":150,"pm10":86.6,"pm2_5":48.0,"mosquito_risk":0,"arthritis_risk":5,"migraine_risk":7,"frizz_risk":1,"updated_at":"2026-04-23T11:03:54.965767+05:30"},{"city":"Bhagalpur","state":"Bihar","latitude":25.2425,"longitude":87.0117,"temp":33.7,"humidity":62,"rain":0.0,"pressure":1000.0,"uv_index":8.55,"wind_gusts":19.1,"aqi":139,"pm10":83.8,"pm2_5":59.4,"mosquito_risk":3,"arthritis_risk":5,"migraine_risk":4,"frizz_risk":1,"updated_at":"2026-04-23T11:03:54.965773+05:30"},{"city":"Ranchi","state":"Jharkhand","latitude":23.3441,"longitude":85.3096,"temp":37.1,"humidity":16,"rain":0.0,"pressure":939.0,"uv_index":8.8,"wind_gusts":37.4,"aqi":91,"pm10":146.7,"pm2_5":26.6,"mosquito_risk":0,"arthritis_risk":5,"migraine_risk":10,"frizz_risk":0,"updated_at":"2026-04-23T11:03:54.965779+05:30"},{"city":"Jamshedpur","state":"Jharkhand","latitude":22.8046,"longitude":86.2029,"temp":38.1,"humidity":38,"rain":0.0,"pressure":989.5,"uv_index":8.85,"wind_gusts":16.2,"aqi":151,"pm10":128.1,"pm2_5":59.6,"mosquito_risk":0,"arthritis_risk":5,"migraine_risk":10,"frizz_risk":1,"updated_at":"2026-04-23T11:03:54.965786+05:30"},{"city":"Dhanbad","state":"Jharkhand","latitude":23.7957,"longitude":86.4304,"temp":39.7,"humidity":17,"rain":0.0,"pressure":978.9,"uv_index":8.8,"wind_gusts":34.2,"aqi":163,"pm10":153.7,"pm2_5":55.3,"mosquito_risk":0,"arthritis_risk":5,"migraine_risk":10,"frizz_risk":0,"updated_at":"2026-04-23T11:03:54.965792+05:30"},{"city":"Bokaro","state":"Jharkhand","latitude":23.6693,"longitude":86.1511,"temp":39.3,"humidity":17,"rain":0.0,"pressure":983.0,"uv_index":8.65,"wind_gusts":37.1,"aqi":155,"pm10":201.2,"pm2_5":48.1,"mosquito_risk":0,"arthritis_risk":5,"migraine_risk":10,"frizz_risk":0,"updated_at":"2026-04-23T11:03:54.965798+05:30"},{"city":"Bhubaneswar","state":"Odisha","latitude":20.2961,"longitude":85.8245,"temp":34.5,"humidity":67,"rain":0.0,"pressure":1001.4,"uv_index":9.15,"wind_gusts":35.6,"aqi":87,"pm10":40.6,"pm2_5":37.1,"mosquito_risk":3,"arthritis_risk":5,"migraine_risk":4,"frizz_risk":1,"updated_at":"2026-04-23T11:03:54.965804+05:30"},{"city":"Cuttack","state":"Odisha","latitude":20.4625,"longitude":85.8828,"temp":37.7,"humidity":48,"rain":0.0,"pressure":1002.9,"uv_index":9.2,"wind_gusts":40.3,"aqi":87,"pm10":40.6,"pm2_5":37.1,"mosquito_risk":0,"arthritis_risk":5,"migraine_risk":7,"frizz_risk":1,"updated_at":"2026-04-23T11:03:54.965810+05:30"},{"city":"Rourkela","state":"Odisha","latitude":22.2604,"longitude":84.8536,"temp":37.1,"humidity":35,"rain":0.0,"pressure":984.5,"uv_index":8.8,"wind_gusts":19.1,"aqi":99,"pm10":138.3,"pm2_5":36.4,"mosquito_risk":0,"arthritis_risk":5,"migraine_risk":10,"frizz_risk":1,"updated_at":"2026-04-23T11:03:54.965815+05:30"},{"city":"Raipur","state":"Chhattisgarh","latitude":21.2514,"longitude":81.6296,"temp":38.6,"humidity":27,"rain":0.0,"pressure":975.1,"uv_index":7.9,"wind_gusts":29.5,"aqi":120,"pm10":51.8,"pm2_5":46.3,"mosquito_risk":0,"arthritis_risk":5,"migraine_risk":10,"frizz_risk":1,"updated_at":"2026-04-23T11:03:54.965821+05:30"},{"city":"Bhilai","state":"Chhattisgarh","latitude":21.1938,"longitude":81.3509,"temp":38.0,"humidity":32,"rain":0.0,"pressure":975.4,"uv_index":7.7,"wind_gusts":25.9,"aqi":110,"pm10":47.7,"pm2_5":42.5,"mosquito_risk":0,"arthritis_risk":5,"migraine_risk":10,"frizz_risk":1,"updated_at":"2026-04-23T11:03:54.965827+05:30"},{"city":"Guwahati","state":"Assam","latitude":26.1158,"longitude":91.7086,"temp":29.7,"humidity":69,"rain":0.0,"pressure":1001.9,"uv_index":8.55,"wind_gusts":20.9,"aqi":95,"pm10":62.9,"pm2_5":29.2,"mosquito_risk":7,"arthritis_risk":5,"migraine_risk":4,"frizz_risk":1,"updated_at":"2026-04-23T11:03:54.965833+05:30"},{"city":"Agartala","state":"Tripura","latitude":23.8315,"longitude":91.2868,"temp":33.3,"humidity":58,"rain":0.0,"pressure":1005.7,"uv_index":8.4,"wind_gusts":20.5,"aqi":79,"pm10":38.0,"pm2_5":24.9,"mosquito_risk":0,"arthritis_risk":5,"migraine_risk":4,"frizz_risk":1,"updated_at":"2026-04-23T11:03:54.965839+05:30"},{"city":"Shillong","state":"Meghalaya","latitude":25.5788,"longitude":91.8933,"temp":23.6,"humidity":49,"rain":0.0,"pressure":859.1,"uv_index":8.95,"wind_gusts":36.0,"aqi":84,"pm10":89.4,"pm2_5":31.3,"mosquito_risk":0,"arthritis_risk":5,"migraine_risk":7,"frizz_risk":0,"updated_at":"2026-04-23T11:03:54.965845+05:30"},{"city":"Imphal","state":"Manipur","latitude":24.817,"longitude":93.9368,"temp":25.0,"humidity":64,"rain":0.0,"pressure":924.4,"uv_index":9.15,"wind_gusts":48.2,"aqi":110,"pm10":67.1,"pm2_5":30.5,"mosquito_risk":7,"arthritis_risk":5,"migraine_risk":7,"frizz_risk":1,"updated_at":"2026-04-23T11:03:54.965851+05:30"},{"city":"Aizawl","state":"Mizoram","latitude":23.7271,"longitude":92.7176,"temp":27.5,"humidity":56,"rain":0.0,"pressure":895.2,"uv_index":8.95,"wind_gusts":35.3,"aqi":106,"pm10":87.3,"pm2_5":32.0,"mosquito_risk":4,"arthritis_risk":5,"migraine_risk":7,"frizz_risk":1,"updated_at":"2026-04-23T11:03:54.965857+05:30"},{"city":"Kohima","state":"Nagaland","latitude":25.6701,"longitude":94.1077,"temp":21.4,"humidity":69,"rain":0.0,"pressure":857.3,"uv_index":9.05,"wind_gusts":50.0,"aqi":92,"pm10":66.8,"pm2_5":26.3,"mosquito_risk":3,"arthritis_risk":5,"migraine_risk":7,"frizz_risk":0,"updated_at":"2026-04-23T11:03:54.965863+05:30"},{"city":"Gangtok","state":"Sikkim","latitude":27.3314,"longitude":88.6138,"temp":23.6,"humidity":64,"rain":0.0,"pressure":840.9,"uv_index":8.9,"wind_gusts":22.0,"aqi":92,"pm10":52.4,"pm2_5":30.2,"mosquito_risk":3,"arthritis_risk":5,"migraine_risk":7,"frizz_risk":1,"updated_at":"2026-04-23T11:03:54.965870+05:30"},{"city":"Siliguri","state":"West Bengal","latitude":26.7271,"longitude":88.3953,"temp":27.2,"humidity":74,"rain":0.0,"pressure":994.4,"uv_index":8.55,"wind_gusts":22.3,"aqi":150,"pm10":72.6,"pm2_5":39.1,"mosquito_risk":7,"arthritis_risk":5,"migraine_risk":7,"frizz_risk":1,"updated_at":"2026-04-23T11:03:58.186733+05:30"},{"city":"Durgapur","state":"West Bengal","latitude":23.5204,"longitude":87.3119,"temp":38.1,"humidity":42,"rain":0.0,"pressure":993.3,"uv_index":8.95,"wind_gusts":25.9,"aqi":153,"pm10":99.4,"pm2_5":66.8,"mosquito_risk":0,"arthritis_risk":5,"migraine_risk":10,"frizz_risk":1,"updated_at":"2026-04-23T11:03:58.186768+05:30"},{"city":"Asansol","state":"West Bengal","latitude":23.6739,"longitude":86.9524,"temp":39.4,"humidity":32,"rain":0.0,"pressure":991.6,"uv_index":8.95,"wind_gusts":29.2,"aqi":154,"pm10":122.0,"pm2_5":63.8,"mosquito_risk":0,"arthritis_risk":5,"migraine_risk":10,"frizz_risk":1,"updated_at":"2026-04-23T11:03:58.186779+05:30"},{"city":"Pondicherry","state":"Puducherry","latitude":11.9139,"longitude":79.8145,"temp":34.6,"humidity":54,"rain":0.0,"pressure":1008.1,"uv_index":9.25,"wind_gusts":28.8,"aqi":25,"pm10":10.4,"pm2_5":7.1,"mosquito_risk":0,"arthritis_risk":0,"migraine_risk":4,"frizz_risk":1,"updated_at":"2026-04-23T11:03:58.186787+05:30"},{"city":"Port Blair","state":"Andaman and Nicobar Islands","latitude":11.6234,"longitude":92.7265,"temp":30.4,"humidity":70,"rain":0.0,"pressure":1006.7,"uv_index":9.15,"wind_gusts":23.8,"aqi":30,"pm10":12.0,"pm2_5":5.9,"mosquito_risk":3,"arthritis_risk":5,"migraine_risk":4,"frizz_risk":1,"updated_at":"2026-04-23T11:03:58.186795+05:30"},{"city":"Haridwar","state":"Uttarakhand","latitude":29.9457,"longitude":78.1642,"temp":35.2,"humidity":32,"rain":0.0,"pressure":974.8,"uv_index":7.2,"wind_gusts":36.7,"aqi":72,"pm10":39.2,"pm2_5":22.5,"mosquito_risk":0,"arthritis_risk":5,"migraine_risk":10,"frizz_risk":0,"updated_at":"2026-04-23T11:03:58.186803+05:30"},{"city":"Rishikesh","state":"Uttarakhand","latitude":30.0869,"longitude":78.2676,"temp":34.8,"humidity":31,"rain":0.0,"pressure":967.7,"uv_index":7.3,"wind_gusts":34.9,"aqi":62,"pm10":23.5,"pm2_5":14.2,"mosquito_risk":0,"arthritis_risk":5,"migraine_risk":7,"frizz_risk":0,"updated_at":"2026-04-23T11:03:58.186810+05:30"},{"city":"Nainital","state":"Uttarakhand","latitude":29.3919,"longitude":79.4542,"temp":28.6,"humidity":36,"rain":0.0,"pressure":811.8,"uv_index":8.15,"wind_gusts":47.9,"aqi":59,"pm10":26.5,"pm2_5":15.5,"mosquito_risk":4,"arthritis_risk":5,"migraine_risk":7,"frizz_risk":0,"updated_at":"2026-04-23T11:03:58.186818+05:30"},{"city":"Mussoorie","state":"Uttarakhand","latitude":30.4599,"longitude":78.0664,"temp":27.1,"humidity":36,"rain":0.0,"pressure":808.3,"uv_index":7.7,"wind_gusts":40.7,"aqi":63,"pm10":21.7,"pm2_5":12.8,"mosquito_risk":4,"arthritis_risk":5,"migraine_risk":7,"frizz_risk":0,"updated_at":"2026-04-23T11:03:58.186825+05:30"},{"city":"Dharamshala","state":"Himachal Pradesh","latitude":32.219,"longitude":76.3234,"temp":30.2,"humidity":36,"rain":0.0,"pressure":872.7,"uv_index":8.05,"wind_gusts":33.5,"aqi":49,"pm10":14.7,"pm2_5":7.1,"mosquito_risk":0,"arthritis_risk":5,"migraine_risk":7,"frizz_risk":0,"updated_at":"2026-04-23T11:03:58.186832+05:30"},{"city":"Dalhousie","state":"Himachal Pradesh","latitude":32.5387,"longitude":75.971,"temp":29.5,"humidity":25,"rain":0.0,"pressure":809.4,"uv_index":8.35,"wind_gusts":32.4,"aqi":58,"pm10":16.4,"pm2_5":8.9,"mosquito_risk":4,"arthritis_risk":5,"migraine_risk":7,"frizz_risk":0,"updated_at":"2026-04-23T11:03:58.186841+05:30"},{"city":"Patiala","state":"Punjab","latitude":30.3398,"longitude":76.3869,"temp":36.4,"humidity":33,"rain":0.0,"pressure":978.3,"uv_index":7.3,"wind_gusts":16.9,"aqi":259,"pm10":353.0,"pm2_5":55.8,"mosquito_risk":0,"arthritis_risk":5,"migraine_risk":10,"frizz_risk":1,"updated_at":"2026-04-23T11:03:58.186849+05:30"},{"city":"Bhatinda","state":"Punjab","latitude":30.211,"longitude":74.9455,"temp":39.5,"humidity":21,"rain":0.0,"pressure":983.3,"uv_index":8.0,"wind_gusts":28.1,"aqi":79,"pm10":56.6,"pm2_5":23.6,"mosquito_risk":0,"arthritis_risk":5,"migraine_risk":10,"frizz_risk":0,"updated_at":"2026-04-23T11:03:58.186855+05:30"},{"city":"Rohtak","state":"Haryana","latitude":28.8955,"longitude":76.6066,"temp":35.5,"humidity":25,"rain":0.0,"pressure":982.3,"uv_index":7.45,"wind_gusts":23.8,"aqi":501,"pm10":735.7,"pm2_5":80.6,"mosquito_risk":0,"arthritis_risk":5,"migraine_risk":10,"frizz_risk":0,"updated_at":"2026-04-23T11:03:58.186862+05:30"},{"city":"Panipat","state":"Haryana","latitude":29.3909,"longitude":76.9635,"temp":36.8,"humidity":28,"rain":0.0,"pressure":980.8,"uv_index":7.25,"wind_gusts":21.2,"aqi":968,"pm10":1214.4,"pm2_5":122.9,"mosquito_risk":0,"arthritis_risk":5,"migraine_risk":10,"frizz_risk":0,"updated_at":"2026-04-23T11:03:58.186869+05:30"},{"city":"Mathura","state":"Uttar Pradesh","latitude":27.4924,"longitude":77.6737,"temp":37.4,"humidity":17,"rain":0.0,"pressure":987.7,"uv_index":7.7,"wind_gusts":24.8,"aqi":637,"pm10":733.9,"pm2_5":70.1,"mosquito_risk":0,"arthritis_risk":5,"migraine_risk":10,"frizz_risk":0,"updated_at":"2026-04-23T11:03:58.186876+05:30"},{"city":"Vrindavan","state":"Uttar Pradesh","latitude":27.5823,"longitude":77.7027,"temp":37.5,"humidity":17,"rain":0.0,"pressure":988.0,"uv_index":7.65,"wind_gusts":27.0,"aqi":637,"pm10":733.9,"pm2_5":70.1,"mosquito_risk":0,"arthritis_risk":5,"migraine_risk":10,"frizz_risk":0,"updated_at":"2026-04-23T11:03:58.186882+05:30"},{"city":"Ayodhya","state":"Uttar Pradesh","latitude":26.7922,"longitude":82.1998,"temp":38.3,"humidity":23,"rain":0.0,"pressure":994.5,"uv_index":8.05,"wind_gusts":39.6,"aqi":134,"pm10":367.9,"pm2_5":70.8,"mosquito_risk":0,"arthritis_risk":5,"migraine_risk":10,"frizz_risk":0,"updated_at":"2026-04-23T11:03:58.186888+05:30"},{"city":"Ratlam","state":"Madhya Pradesh","latitude":23.3315,"longitude":75.0367,"temp":33.4,"humidity":34,"rain":0.0,"pressure":956.4,"uv_index":8.5,"wind_gusts":31.7,"aqi":67,"pm10":18.5,"pm2_5":13.3,"mosquito_risk":0,"arthritis_risk":5,"migraine_risk":7,"frizz_risk":0,"updated_at":"2026-04-23T11:03:58.186896+05:30"},{"city":"Sagar","state":"Madhya Pradesh","latitude":23.8388,"longitude":78.7378,"temp":36.7,"humidity":18,"rain":0.0,"pressure":952.2,"uv_index":8.65,"wind_gusts":32.0,"aqi":45,"pm10":16.5,"pm2_5":13.4,"mosquito_risk":0,"arthritis_risk":5,"migraine_risk":10,"frizz_risk":0,"updated_at":"2026-04-23T11:03:58.186902+05:30"},{"city":"Satna","state":"Madhya Pradesh","latitude":24.6005,"longitude":80.8322,"temp":38.9,"humidity":16,"rain":0.0,"pressure":972.3,"uv_index":8.65,"wind_gusts":29.2,"aqi":58,"pm10":39.3,"pm2_5":11.2,"mosquito_risk":0,"arthritis_risk":5,"migraine_risk":10,"frizz_risk":0,"updated_at":"2026-04-23T11:03:58.186909+05:30"},{"city":"Akola","state":"Maharashtra","latitude":20.7002,"longitude":77.0082,"temp":38.1,"humidity":24,"rain":0.0,"pressure":976.2,"uv_index":8.75,"wind_gusts":23.8,"aqi":76,"pm10":26.5,"pm2_5":22.5,"mosquito_risk":0,"arthritis_risk":5,"migraine_risk":10,"frizz_risk":0,"updated_at":"2026-04-23T11:03:58.186916+05:30"},{"city":"Amravati","state":"Maharashtra","latitude":20.9374,"longitude":77.7796,"temp":37.2,"humidity":22,"rain":0.0,"pressure":968.5,"uv_index":8.4,"wind_gusts":20.9,"aqi":75,"pm10":24.9,"pm2_5":21.4,"mosquito_risk":0,"arthritis_risk":5,"migraine_risk":10,"frizz_risk":0,"updated_at":"2026-04-23T11:03:58.186923+05:30"},{"city":"Latur","state":"Maharashtra","latitude":18.4088,"longitude":76.5604,"temp":35.5,"humidity":23,"rain":0.0,"pressure":941.4,"uv_index":9.1,"wind_gusts":41.0,"aqi":111,"pm10":33.2,"pm2_5":28.4,"mosquito_risk":0,"arthritis_risk":5,"migraine_risk":10,"frizz_risk":0,"updated_at":"2026-04-23T11:03:58.186929+05:30"},{"city":"Nanded","state":"Maharashtra","latitude":19.1383,"longitude":77.3091,"temp":37.7,"humidity":24,"rain":0.0,"pressure":969.6,"uv_index":9.05,"wind_gusts":29.9,"aqi":118,"pm10":30.4,"pm2_5":26.6,"mosquito_risk":0,"arthritis_risk":5,"migraine_risk":10,"frizz_risk":0,"updated_at":"2026-04-23T11:03:58.186935+05:30"},{"city":"Gulbarga","state":"Karnataka","latitude":17.3297,"longitude":76.8343,"temp":36.3,"humidity":31,"rain":0.0,"pressure":959.5,"uv_index":8.8,"wind_gusts":49.7,"aqi":94,"pm10":39.7,"pm2_5":35.2,"mosquito_risk":0,"arthritis_risk":5,"migraine_risk":10,"frizz_risk":1,"updated_at":"2026-04-23T11:03:58.186941+05:30"},{"city":"Bidar","state":"Karnataka","latitude":17.9104,"longitude":77.5199,"temp":35.3,"humidity":29,"rain":0.0,"pressure":937.0,"uv_index":7.95,"wind_gusts":33.5,"aqi":114,"pm10":45.9,"pm2_5":40.4,"mosquito_risk":0,"arthritis_risk":5,"migraine_risk":10,"frizz_risk":0,"updated_at":"2026-04-23T11:03:58.186947+05:30"},{"city":"Hospet","state":"Karnataka","latitude":15.2689,"longitude":76.3909,"temp":33.6,"humidity":44,"rain":0.0,"pressure":956.2,"uv_index":8.75,"wind_gusts":27.7,"aqi":91,"pm10":33.6,"pm2_5":28.8,"mosquito_risk":0,"arthritis_risk":5,"migraine_risk":7,"frizz_risk":1,"updated_at":"2026-04-23T11:03:58.186953+05:30"},{"city":"Tirupur","state":"Tamil Nadu","latitude":11.1085,"longitude":77.3411,"temp":34.7,"humidity":44,"rain":0.0,"pressure":975.4,"uv_index":9.45,"wind_gusts":33.8,"aqi":66,"pm10":12.8,"pm2_5":11.4,"mosquito_risk":0,"arthritis_risk":5,"migraine_risk":7,"frizz_risk":1,"updated_at":"2026-04-23T11:03:58.186960+05:30"},{"city":"Alappuzha","state":"Kerala","latitude":9.4981,"longitude":76.3388,"temp":29.3,"humidity":82,"rain":0.0,"pressure":1008.2,"uv_index":9.1,"wind_gusts":28.1,"aqi":81,"pm10":26.8,"pm2_5":22.9,"mosquito_risk":7,"arthritis_risk":0,"migraine_risk":4,"frizz_risk":1,"updated_at":"2026-04-23T11:03:58.186966+05:30"},{"city":"Munnar","state":"Kerala","latitude":10.0889,"longitude":77.0595,"temp":29.1,"humidity":52,"rain":0.0,"pressure":859.2,"uv_index":9.65,"wind_gusts":20.5,"aqi":69,"pm10":14.4,"pm2_5":12.7,"mosquito_risk":4,"arthritis_risk":5,"migraine_risk":7,"frizz_risk":1,"updated_at":"2026-04-23T11:03:58.186973+05:30"},{"city":"Silchar","state":"Assam","latitude":24.8333,"longitude":92.7789,"temp":29.3,"humidity":71,"rain":0.0,"pressure":1005.9,"uv_index":8.7,"wind_gusts":19.1,"aqi":114,"pm10":75.0,"pm2_5":39.3,"mosquito_risk":7,"arthritis_risk":5,"migraine_risk":4,"frizz_risk":1,"updated_at":"2026-04-23T11:03:58.186980+05:30"},{"city":"Dibrugarh","state":"Assam","latitude":27.4728,"longitude":94.912,"temp":27.8,"humidity":69,"rain":0.0,"pressure":996.0,"uv_index":8.65,"wind_gusts":11.2,"aqi":73,"pm10":19.0,"pm2_5":13.1,"mosquito_risk":7,"arthritis_risk":5,"migraine_risk":7,"frizz_risk":1,"updated_at":"2026-04-23T11:03:58.186986+05:30"}]