[{"city":"Delhi","state":"Delhi","latitude":28.6139,"longitude":77.209,"temp":31.4,"humidity":24,"rain":0.0,"pressure":978.0,"uv_index":7.75,"wind_gusts":39.6,"aqi":479,"pm10":666.8,"pm2_5":142.0,"no2":25.1,"co":187.0,"o3":43.0,"so2":12.5,"mosquito_risk":0,"arthritis_risk":5,"migraine_risk":7,"frizz_risk":0,"updated_at":"2026-05-25T05:33:19.161881+05:30"},{"city":"Mumbai","state":"Maharashtra","latitude":19.076,"longitude":72.8777,"temp":29.2,"humidity":81,"rain":0.0,"pressure":1008.6,"uv_index":7.8,"wind_gusts":44.6,"aqi":46,"pm10":21.8,"pm2_5":14.9,"no2":7.2,"co":229.0,"o3":42.0,"so2":5.5,"mosquito_risk":7,"arthritis_risk":0,"migraine_risk":4,"frizz_risk":1,"updated_at":"2026-05-25T05:33:19.161930+05:30"},{"city":"Bangalore","state":"Karnataka","latitude":12.9716,"longitude":77.5946,"temp":21.1,"humidity":97,"rain":0.0,"pressure":911.7,"uv_index":8.1,"wind_gusts":27.0,"aqi":57,"pm10":20.5,"pm2_5":18.7,"no2":12.1,"co":266.0,"o3":50.0,"so2":4.6,"mosquito_risk":3,"arthritis_risk":5,"migraine_risk":7,"frizz_risk":1,"updated_at":"2026-05-25T05:33:19.161947+05:30"},{"city":"Hyderabad","state":"Telangana","latitude":17.385,"longitude":78.4867,"temp":29.2,"humidity":52,"rain":0.0,"pressure":952.1,"uv_index":9.2,"wind_gusts":37.8,"aqi":57,"pm10":17.2,"pm2_5":14.8,"no2":8.6,"co":205.0,"o3":56.0,"so2":5.6,"mosquito_risk":4,"arthritis_risk":5,"migraine_risk":7,"frizz_risk":1,"updated_at":"2026-05-25T05:33:19.161959+05:30"},{"city":"Chennai","state":"Tamil Nadu","latitude":13.0827,"longitude":80.2707,"temp":30.0,"humidity":58,"rain":0.0,"pressure":1004.5,"uv_index":9.05,"wind_gusts":46.8,"aqi":77,"pm10":22.7,"pm2_5":21.0,"no2":12.5,"co":296.0,"o3":62.0,"so2":7.3,"mosquito_risk":4,"arthritis_risk":5,"migraine_risk":4,"frizz_risk":1,"updated_at":"2026-05-25T05:33:19.161968+05:30"},{"city":"Kolkata","state":"West Bengal","latitude":22.5726,"longitude":88.3639,"temp":29.5,"humidity":89,"rain":0.0,"pressure":1003.5,"uv_index":8.95,"wind_gusts":45.4,"aqi":104,"pm10":38.4,"pm2_5":32.0,"no2":5.5,"co":243.0,"o3":85.0,"so2":5.1,"mosquito_risk":7,"arthritis_risk":5,"migraine_risk":4,"frizz_risk":1,"updated_at":"2026-05-25T05:33:19.161978+05:30"},{"city":"Pune","state":"Maharashtra","latitude":18.5204,"longitude":73.8567,"temp":23.6,"humidity":96,"rain":0.0,"pressure":948.3,"uv_index":8.45,"wind_gusts":42.8,"aqi":34,"pm10":10.7,"pm2_5":8.8,"no2":10.8,"co":147.0,"o3":30.0,"so2":9.3,"mosquito_risk":3,"arthritis_risk":5,"migraine_risk":7,"frizz_risk":1,"updated_at":"2026-05-25T05:33:19.161986+05:30"},{"city":"Ahmedabad","state":"Gujarat","latitude":23.0225,"longitude":72.5714,"temp":28.5,"humidity":76,"rain":0.0,"pressure":1001.8,"uv_index":8.15,"wind_gusts":34.9,"aqi":48,"pm10":23.1,"pm2_5":13.4,"no2":5.1,"co":124.0,"o3":43.0,"so2":4.7,"mosquito_risk":7,"arthritis_risk":5,"migraine_risk":4,"frizz_risk":1,"updated_at":"2026-05-25T05:33:19.161995+05:30"},{"city":"Jaipur","state":"Rajasthan","latitude":26.9124,"longitude":75.7873,"temp":30.9,"humidity":35,"rain":0.0,"pressure":956.8,"uv_index":8.25,"wind_gusts":47.2,"aqi":248,"pm10":339.9,"pm2_5":64.5,"no2":2.6,"co":140.0,"o3":63.0,"so2":2.8,"mosquito_risk":0,"arthritis_risk":5,"migraine_risk":7,"frizz_risk":0,"updated_at":"2026-05-25T05:33:19.162003+05:30"},{"city":"Lucknow","state":"Uttar Pradesh","latitude":26.8467,"longitude":80.9462,"temp":31.5,"humidity":36,"rain":0.0,"pressure":988.1,"uv_index":8.2,"wind_gusts":65.2,"aqi":218,"pm10":429.3,"pm2_5":113.6,"no2":47.0,"co":286.0,"o3":29.0,"so2":16.8,"mosquito_risk":0,"arthritis_risk":5,"migraine_risk":7,"frizz_risk":0,"updated_at":"2026-05-25T05:33:19.162010+05:30"},{"city":"Kanpur","state":"Uttar Pradesh","latitude":26.4499,"longitude":80.3319,"temp":32.2,"humidity":27,"rain":0.0,"pressure":986.8,"uv_index":8.2,"wind_gusts":50.8,"aqi":489,"pm10":360.4,"pm2_5":76.6,"no2":20.9,"co":197.0,"o3":41.0,"so2":7.8,"mosquito_risk":0,"arthritis_risk":5,"migraine_risk":7,"frizz_risk":0,"updated_at":"2026-05-25T05:33:19.162025+05:30"},{"city":"Chandigarh","state":"Chandigarh","latitude":30.7333,"longitude":76.7794,"temp":24.5,"humidity":51,"rain":0.0,"pressure":962.3,"uv_index":7.75,"wind_gusts":32.4,"aqi":83,"pm10":55.1,"pm2_5":33.3,"no2":30.6,"co":282.0,"o3":11.0,"so2":4.1,"mosquito_risk":0,"arthritis_risk":5,"migraine_risk":7,"frizz_risk":0,"updated_at":"2026-05-25T05:33:19.162033+05:30"},{"city":"Srinagar","state":"Jammu and Kashmir","latitude":34.0837,"longitude":74.7973,"temp":10.9,"humidity":93,"rain":0.0,"pressure":840.3,"uv_index":8.95,"wind_gusts":36.7,"aqi":69,"pm10":26.1,"pm2_5":18.9,"no2":13.5,"co":232.0,"o3":45.0,"so2":1.0,"mosquito_risk":3,"arthritis_risk":10,"migraine_risk":7,"frizz_risk":0,"updated_at":"2026-05-25T05:33:19.162042+05:30"},{"city":"Jammu","state":"Jammu and Kashmir","latitude":32.7266,"longitude":74.857,"temp":24.1,"humidity":44,"rain":0.0,"pressure":967.5,"uv_index":8.55,"wind_gusts":40.0,"aqi":80,"pm10":28.3,"pm2_5":22.1,"no2":15.1,"co":195.0,"o3":29.0,"so2":0.8,"mosquito_risk":0,"arthritis_risk":5,"migraine_risk":7,"frizz_risk":0,"updated_at":"2026-05-25T05:33:19.162049+05:30"},{"city":"Amritsar","state":"Punjab","latitude":31.634,"longitude":74.8723,"temp":27.0,"humidity":42,"rain":0.0,"pressure":976.0,"uv_index":8.4,"wind_gusts":27.4,"aqi":81,"pm10":55.6,"pm2_5":35.5,"no2":20.8,"co":518.0,"o3":50.0,"so2":5.0,"mosquito_risk":4,"arthritis_risk":5,"migraine_risk":7,"frizz_risk":0,"updated_at":"2026-05-25T05:33:19.162056+05:30"},{"city":"Ludhiana","state":"Punjab","latitude":30.901,"longitude":75.8573,"temp":26.6,"humidity":42,"rain":0.0,"pressure":973.2,"uv_index":8.0,"wind_gusts":33.1,"aqi":79,"pm10":55.3,"pm2_5":36.2,"no2":19.4,"co":411.0,"o3":40.0,"so2":7.1,"mosquito_risk":4,"arthritis_risk":5,"migraine_risk":7,"frizz_risk":0,"updated_at":"2026-05-25T05:33:19.162076+05:30"},{"city":"Jalandhar","state":"Punjab","latitude":31.326,"longitude":75.5762,"temp":26.8,"humidity":42,"rain":0.0,"pressure":974.4,"uv_index":8.2,"wind_gusts":36.0,"aqi":80,"pm10":49.9,"pm2_5":28.3,"no2":15.1,"co":425.0,"o3":54.0,"so2":4.1,"mosquito_risk":4,"arthritis_risk":5,"migraine_risk":7,"frizz_risk":0,"updated_at":"2026-05-25T05:33:19.162084+05:30"},{"city":"Dehradun","state":"Uttarakhand","latitude":30.6284,"longitude":78.0322,"temp":12.5,"humidity":62,"rain":0.0,"pressure":824.4,"uv_index":7.8,"wind_gusts":50.8,"aqi":61,"pm10":21.2,"pm2_5":9.6,"no2":13.9,"co":185.0,"o3":29.0,"so2":0.1,"mosquito_risk":3,"arthritis_risk":5,"migraine_risk":7,"frizz_risk":0,"updated_at":"2026-05-25T05:33:19.162090+05:30"},{"city":"Shimla","state":"Himachal Pradesh","latitude":31.1048,"longitude":77.1734,"temp":11.3,"humidity":53,"rain":0.0,"pressure":779.0,"uv_index":8.25,"wind_gusts":45.0,"aqi":66,"pm10":26.2,"pm2_5":14.7,"no2":19.6,"co":150.0,"o3":27.0,"so2":0.8,"mosquito_risk":0,"arthritis_risk":5,"migraine_risk":7,"frizz_risk":0,"updated_at":"2026-05-25T05:33:19.162097+05:30"},{"city":"Manali","state":"Himachal Pradesh","latitude":32.2396,"longitude":77.1887,"temp":9.2,"humidity":75,"rain":0.0,"pressure":814.9,"uv_index":9.4,"wind_gusts":49.3,"aqi":45,"pm10":4.2,"pm2_5":1.4,"no2":6.1,"co":131.0,"o3":104.0,"so2":0.0,"mosquito_risk":3,"arthritis_risk":5,"migraine_risk":7,"frizz_risk":0,"updated_at":"2026-05-25T05:33:19.162106+05:30"},{"city":"Gurgaon","state":"Haryana","latitude":28.4595,"longitude":77.0266,"temp":30.0,"humidity":27,"rain":0.0,"pressure":976.5,"uv_index":7.8,"wind_gusts":38.5,"aqi":1526,"pm10":2875.9,"pm2_5":434.9,"no2":7.4,"co":173.0,"o3":70.0,"so2":6.9,"mosquito_risk":4,"arthritis_risk":5,"migraine_risk":7,"frizz_risk":0,"updated_at":"2026-05-25T05:33:19.162115+05:30"},{"city":"Noida","state":"Uttar Pradesh","latitude":28.5355,"longitude":77.391,"temp":31.7,"humidity":23,"rain":0.0,"pressure":979.2,"uv_index":7.75,"wind_gusts":37.4,"aqi":1526,"pm10":2875.9,"pm2_5":434.9,"no2":7.4,"co":174.0,"o3":70.0,"so2":6.9,"mosquito_risk":0,"arthritis_risk":5,"migraine_risk":7,"frizz_risk":0,"updated_at":"2026-05-25T05:33:19.162121+05:30"},{"city":"Ghaziabad","state":"Uttar Pradesh","latitude":28.6692,"longitude":77.4538,"temp":30.4,"humidity":30,"rain":0.0,"pressure":977.4,"uv_index":7.75,"wind_gusts":42.5,"aqi":422,"pm10":631.4,"pm2_5":139.2,"no2":28.9,"co":205.0,"o3":42.0,"so2":18.3,"mosquito_risk":0,"arthritis_risk":5,"migraine_risk":7,"frizz_risk":0,"updated_at":"2026-05-25T05:33:19.162128+05:30"},{"city":"Faridabad","state":"Haryana","latitude":28.4089,"longitude":77.3178,"temp":32.2,"humidity":23,"rain":0.0,"pressure":978.6,"uv_index":7.8,"wind_gusts":40.0,"aqi":1526,"pm10":2875.9,"pm2_5":434.9,"no2":7.4,"co":166.0,"o3":70.0,"so2":6.9,"mosquito_risk":0,"arthritis_risk":5,"migraine_risk":7,"frizz_risk":0,"updated_at":"2026-05-25T05:33:19.162135+05:30"},{"city":"Meerut","state":"Uttar Pradesh","latitude":28.9845,"longitude":77.7064,"temp":28.1,"humidity":44,"rain":0.0,"pressure":975.7,"uv_index":7.65,"wind_gusts":36.7,"aqi":422,"pm10":631.4,"pm2_5":139.2,"no2":28.9,"co":480.0,"o3":42.0,"so2":18.3,"mosquito_risk":4,"arthritis_risk":5,"migraine_risk":7,"frizz_risk":0,"updated_at":"2026-05-25T05:33:19.162141+05:30"},{"city":"Agra","state":"Uttar Pradesh","latitude":27.1767,"longitude":78.0081,"temp":32.7,"humidity":31,"rain":0.0,"pressure":983.2,"uv_index":8.05,"wind_gusts":43.2,"aqi":1089,"pm10":2034.0,"pm2_5":252.4,"no2":4.8,"co":152.0,"o3":67.0,"so2":3.6,"mosquito_risk":0,"arthritis_risk":5,"migraine_risk":7,"frizz_risk":0,"updated_at":"2026-05-25T05:33:19.162147+05:30"},{"city":"Varanasi","state":"Uttar Pradesh","latitude":25.3176,"longitude":82.9739,"temp":31.5,"humidity":31,"rain":0.0,"pressure":992.4,"uv_index":8.75,"wind_gusts":49.3,"aqi":152,"pm10":122.9,"pm2_5":55.4,"no2":41.8,"co":434.0,"o3":27.0,"so2":11.7,"mosquito_risk":0,"arthritis_risk":5,"migraine_risk":7,"frizz_risk":0,"updated_at":"2026-05-25T05:33:19.162154+05:30"},{"city":"Prayagraj","state":"Uttar Pradesh","latitude":25.4358,"longitude":81.8463,"temp":30.4,"humidity":40,"rain":0.0,"pressure":990.8,"uv_index":8.65,"wind_gusts":46.8,"aqi":156,"pm10":158.3,"pm2_5":73.6,"no2":61.2,"co":227.0,"o3":11.0,"so2":15.1,"mosquito_risk":0,"arthritis_risk":5,"migraine_risk":7,"frizz_risk":0,"updated_at":"2026-05-25T05:33:19.162161+05:30"},{"city":"Gorakhpur","state":"Uttar Pradesh","latitude":26.7606,"longitude":83.3732,"temp":28.1,"humidity":74,"rain":0.0,"pressure":993.2,"uv_index":8.6,"wind_gusts":33.1,"aqi":150,"pm10":74.0,"pm2_5":60.5,"no2":18.8,"co":573.0,"o3":65.0,"so2":14.8,"mosquito_risk":7,"arthritis_risk":5,"migraine_risk":7,"frizz_risk":1,"updated_at":"2026-05-25T05:33:19.162167+05:30"},{"city":"Bareilly","state":"Uttar Pradesh","latitude":28.367,"longitude":79.4304,"temp":27.1,"humidity":56,"rain":0.0,"pressure":981.1,"uv_index":8.05,"wind_gusts":22.7,"aqi":131,"pm10":254.3,"pm2_5":70.8,"no2":34.1,"co":337.0,"o3":39.0,"so2":10.7,"mosquito_risk":4,"arthritis_risk":5,"migraine_risk":7,"frizz_risk":1,"updated_at":"2026-05-25T05:33:19.162173+05:30"},{"city":"Aligarh","state":"Uttar Pradesh","latitude":27.8974,"longitude":78.088,"temp":31.0,"humidity":29,"rain":0.0,"pressure":980.4,"uv_index":7.9,"wind_gusts":35.3,"aqi":858,"pm10":1397.0,"pm2_5":244.9,"no2":8.7,"co":162.0,"o3":61.0,"so2":4.0,"mosquito_risk":0,"arthritis_risk":5,"migraine_risk":7,"frizz_risk":0,"updated_at":"2026-05-25T05:33:19.162186+05:30"},{"city":"Moradabad","state":"Uttar Pradesh","latitude":28.8386,"longitude":78.7733,"temp":27.0,"humidity":46,"rain":0.0,"pressure":978.3,"uv_index":7.85,"wind_gusts":38.2,"aqi":150,"pm10":315.7,"pm2_5":92.0,"no2":40.4,"co":496.0,"o3":26.0,"so2":11.6,"mosquito_risk":4,"arthritis_risk":5,"migraine_risk":7,"frizz_risk":0,"updated_at":"2026-05-25T05:33:19.162192+05:30"},{"city":"Saharanpur","state":"Uttar Pradesh","latitude":29.9637,"longitude":77.546,"temp":26.6,"humidity":43,"rain":0.0,"pressure":970.0,"uv_index":7.35,"wind_gusts":25.9,"aqi":100,"pm10":69.6,"pm2_5":53.0,"no2":43.1,"co":580.0,"o3":8.0,"so2":8.2,"mosquito_risk":4,"arthritis_risk":5,"migraine_risk":7,"frizz_risk":0,"updated_at":"2026-05-25T05:33:19.162198+05:30"},{"city":"Jhansi","state":"Uttar Pradesh","latitude":25.4484,"longitude":78.5685,"temp":33.0,"humidity":29,"rain":0.0,"pressure":974.5,"uv_index":8.45,"wind_gusts":47.9,"aqi":75,"pm10":24.1,"pm2_5":14.8,"no2":4.7,"co":168.0,"o3":64.0,"so2":5.3,"mosquito_risk":0,"arthritis_risk":5,"migraine_risk":7,"frizz_risk":0,"updated_at":"2026-05-25T05:33:34.883779+05:30"},{"city":"Surat","state":"Gujarat","latitude":21.1702,"longitude":72.8311,"temp":29.4,"humidity":83,"rain":0.0,"pressure":1006.4,"uv_index":7.7,"wind_gusts":43.2,"aqi":56,"pm10":19.1,"pm2_5":15.0,"no2":18.4,"co":340.0,"o3":28.0,"so2":30.7,"mosquito_risk":7,"arthritis_risk":5,"migraine_risk":4,"frizz_risk":1,"updated_at":"2026-05-25T05:33:34.883814+05:30"},{"city":"Vadodara","state":"Gujarat","latitude":22.3072,"longitude":73.1812,"temp":30.1,"humidity":75,"rain":0.0,"pressure":1003.6,"uv_index":8.1,"wind_gusts":40.3,"aqi":52,"pm10":14.7,"pm2_5":11.9,"no2":10.8,"co":217.0,"o3":28.0,"so2":9.8,"mosquito_risk":3,"arthritis_risk":5,"migraine_risk":4,"frizz_risk":1,"updated_at":"2026-05-25T05:33:34.883825+05:30"},{"city":"Rajkot","state":"Gujarat","latitude":22.3039,"longitude":70.8022,"temp":27.4,"humidity":82,"rain":0.0,"pressure":994.0,"uv_index":7.75,"wind_gusts":49.3,"aqi":49,"pm10":12.7,"pm2_5":8.8,"no2":3.6,"co":115.0,"o3":45.0,"so2":3.9,"mosquito_risk":7,"arthritis_risk":5,"migraine_risk":7,"frizz_risk":1,"updated_at":"2026-05-25T05:33:34.883834+05:30"},{"city":"Thane","state":"Maharashtra","latitude":19.2183,"longitude":72.9781,"temp":27.9,"humidity":95,"rain":0.0,"pressure":1008.0,"uv_index":7.8,"wind_gusts":39.6,"aqi":46,"pm10":21.8,"pm2_5":14.9,"no2":7.2,"co":234.0,"o3":42.0,"so2":5.5,"mosquito_risk":7,"arthritis_risk":0,"migraine_risk":4,"frizz_risk":1,"updated_at":"2026-05-25T05:33:34.883842+05:30"},{"city":"Nagpur","state":"Maharashtra","latitude":21.1458,"longitude":79.0882,"temp":33.3,"humidity":31,"rain":0.0,"pressure":970.9,"uv_index":8.85,"wind_gusts":44.3,"aqi":73,"pm10":28.5,"pm2_5":19.6,"no2":7.5,"co":198.0,"o3":82.0,"so2":10.6,"mosquito_risk":0,"arthritis_risk":5,"migraine_risk":7,"frizz_risk":0,"updated_at":"2026-05-25T05:33:34.883851+05:30"},{"city":"Nashik","state":"Maharashtra","latitude":19.9975,"longitude":73.7898,"temp":24.4,"humidity":90,"rain":0.0,"pressure":945.7,"uv_index":8.15,"wind_gusts":42.5,"aqi":27,"pm10":11.9,"pm2_5":8.6,"no2":5.0,"co":127.0,"o3":38.0,"so2":3.6,"mosquito_risk":3,"arthritis_risk":5,"migraine_risk":7,"frizz_risk":1,"updated_at":"2026-05-25T05:33:34.883858+05:30"},{"city":"Aurangabad","state":"Maharashtra","latitude":19.8762,"longitude":75.3433,"temp":26.1,"humidity":73,"rain":0.0,"pressure":944.0,"uv_index":9.0,"wind_gusts":43.6,"aqi":47,"pm10":7.2,"pm2_5":5.8,"no2":7.5,"co":151.0,"o3":33.0,"so2":3.9,"mosquito_risk":7,"arthritis_risk":5,"migraine_risk":7,"frizz_risk":1,"updated_at":"2026-05-25T05:33:34.883866+05:30"},{"city":"Solapur","state":"Maharashtra","latitude":17.6599,"longitude":75.9064,"temp":26.8,"humidity":74,"rain":0.0,"pressure":957.1,"uv_index":9.0,"wind_gusts":37.8,"aqi":54,"pm10":10.9,"pm2_5":8.7,"no2":8.4,"co":180.0,"o3":39.0,"so2":6.0,"mosquito_risk":7,"arthritis_risk":5,"migraine_risk":7,"frizz_risk":1,"updated_at":"2026-05-25T05:33:34.883874+05:30"},{"city":"Kolhapur","state":"Maharashtra","latitude":16.705,"longitude":74.2433,"temp":23.2,"humidity":97,"rain":0.0,"pressure":948.3,"uv_index":8.8,"wind_gusts":44.3,"aqi":38,"pm10":9.1,"pm2_5":7.4,"no2":6.3,"co":173.0,"o3":35.0,"so2":2.3,"mosquito_risk":3,"arthritis_risk":5,"migraine_risk":7,"frizz_risk":1,"updated_at":"2026-05-25T05:33:34.883881+05:30"},{"city":"Goa","state":"Goa","latitude":15.2993,"longitude":74.124,"temp":26.6,"humidity":91,"rain":0.0,"pressure":998.6,"uv_index":8.75,"wind_gusts":29.9,"aqi":50,"pm10":21.5,"pm2_5":17.3,"no2":7.5,"co":410.0,"o3":42.0,"so2":1.9,"mosquito_risk":7,"arthritis_risk":5,"migraine_risk":7,"frizz_risk":1,"updated_at":"2026-05-25T05:33:34.883888+05:30"},{"city":"Jodhpur","state":"Rajasthan","latitude":26.2389,"longitude":73.0243,"temp":29.2,"humidity":58,"rain":0.0,"pressure":979.7,"uv_index":8.4,"wind_gusts":47.2,"aqi":207,"pm10":392.1,"pm2_5":91.7,"no2":2.0,"co":117.0,"o3":62.0,"so2":3.2,"mosquito_risk":4,"arthritis_risk":5,"migraine_risk":7,"frizz_risk":1,"updated_at":"2026-05-25T05:33:34.883895+05:30"},{"city":"Udaipur","state":"Rajasthan","latitude":24.5854,"longitude":73.7125,"temp":26.6,"humidity":65,"rain":0.0,"pressure":945.2,"uv_index":8.8,"wind_gusts":47.2,"aqi":59,"pm10":29.3,"pm2_5":15.5,"no2":2.6,"co":124.0,"o3":53.0,"so2":2.1,"mosquito_risk":7,"arthritis_risk":5,"migraine_risk":7,"frizz_risk":1,"updated_at":"2026-05-25T05:33:34.883902+05:30"},{"city":"Kota","state":"Rajasthan","latitude":25.2138,"longitude":75.8648,"temp":32.5,"humidity":42,"rain":0.0,"pressure":976.2,"uv_index":8.4,"wind_gusts":42.5,"aqi":73,"pm10":9.8,"pm2_5":7.8,"no2":3.9,"co":148.0,"o3":51.0,"so2":4.2,"mosquito_risk":0,"arthritis_risk":5,"migraine_risk":7,"frizz_risk":1,"updated_at":"2026-05-25T05:33:34.883909+05:30"},{"city":"Bikaner","state":"Rajasthan","latitude":28.0229,"longitude":73.3119,"temp":31.7,"humidity":37,"rain":0.0,"pressure":977.5,"uv_index":8.4,"wind_gusts":40.0,"aqi":174,"pm10":379.0,"pm2_5":150.9,"no2":1.0,"co":123.0,"o3":78.0,"so2":2.7,"mosquito_risk":0,"arthritis_risk":5,"migraine_risk":7,"frizz_risk":0,"updated_at":"2026-05-25T05:33:34.883916+05:30"},{"city":"Ajmer","state":"Rajasthan","latitude":26.4499,"longitude":74.6399,"temp":28.9,"humidity":42,"rain":0.0,"pressure":951.9,"uv_index":8.35,"wind_gusts":55.4,"aqi":84,"pm10":49.6,"pm2_5":22.7,"no2":2.2,"co":127.0,"o3":65.0,"so2":2.7,"mosquito_risk":4,"arthritis_risk":5,"migraine_risk":7,"frizz_risk":0,"updated_at":"2026-05-25T05:33:34.883924+05:30"},{"city":"Gwalior","state":"Madhya Pradesh","latitude":26.2183,"longitude":78.1828,"temp":33.2,"humidity":31,"rain":0.0,"pressure":979.3,"uv_index":8.25,"wind_gusts":56.2,"aqi":78,"pm10":20.8,"pm2_5":12.1,"no2":3.2,"co":139.0,"o3":66.0,"so2":2.3,"mosquito_risk":0,"arthritis_risk":5,"migraine_risk":7,"frizz_risk":0,"updated_at":"2026-05-25T05:33:34.883930+05:30"},{"city":"Indore","state":"Madhya Pradesh","latitude":22.7196,"longitude":75.8577,"temp":28.3,"humidity":62,"rain":0.0,"pressure":947.6,"uv_index":8.65,"wind_gusts":42.1,"aqi":65,"pm10":12.7,"pm2_5":10.2,"no2":6.4,"co":178.0,"o3":44.0,"so2":10.5,"mosquito_risk":7,"arthritis_risk":5,"migraine_risk":7,"frizz_risk":1,"updated_at":"2026-05-25T05:33:34.883937+05:30"},{"city":"Bhopal","state":"Madhya Pradesh","latitude":23.2599,"longitude":77.4126,"temp":31.5,"humidity":38,"rain":0.0,"pressure":952.2,"uv_index":8.7,"wind_gusts":41.0,"aqi":75,"pm10":24.8,"pm2_5":17.8,"no2":2.8,"co":172.0,"o3":84.0,"so2":5.2,"mosquito_risk":0,"arthritis_risk":5,"migraine_risk":7,"frizz_risk":0,"updated_at":"2026-05-25T05:33:34.883944+05:30"},{"city":"Jabalpur","state":"Madhya Pradesh","latitude":23.1815,"longitude":79.9864,"temp":31.0,"humidity":27,"rain":0.0,"pressure":959.2,"uv_index":8.85,"wind_gusts":30.6,"aqi":84,"pm10":44.1,"pm2_5":25.7,"no2":14.7,"co":229.0,"o3":47.0,"so2":4.0,"mosquito_risk":0,"arthritis_risk":5,"migraine_risk":7,"frizz_risk":0,"updated_at":"2026-05-25T05:33:34.883951+05:30"},{"city":"Ujjain","state":"Madhya Pradesh","latitude":23.1765,"longitude":75.7885,"temp":28.5,"humidity":62,"rain":0.0,"pressure":953.0,"uv_index":8.6,"wind_gusts":45.4,"aqi":64,"pm10":12.4,"pm2_5":9.9,"no2":6.8,"co":192.0,"o3":39.0,"so2":11.0,"mosquito_risk":7,"arthritis_risk":5,"migraine_risk":7,"frizz_risk":1,"updated_at":"2026-05-25T05:33:34.883958+05:30"},{"city":"Visakhapatnam","state":"Andhra Pradesh","latitude":17.6868,"longitude":83.2185,"temp":29.9,"humidity":87,"rain":0.0,"pressure":1000.6,"uv_index":8.7,"wind_gusts":35.6,"aqi":136,"pm10":61.2,"pm2_5":54.1,"no2":33.6,"co":555.0,"o3":73.0,"so2":47.0,"mosquito_risk":7,"arthritis_risk":5,"migraine_risk":4,"frizz_risk":1,"updated_at":"2026-05-25T05:33:34.883966+05:30"},{"city":"Vijayawada","state":"Andhra Pradesh","latitude":16.5062,"longitude":80.648,"temp":31.5,"humidity":51,"rain":0.0,"pressure":999.1,"uv_index":9.1,"wind_gusts":40.7,"aqi":91,"pm10":37.3,"pm2_5":35.7,"no2":20.3,"co":287.0,"o3":52.0,"so2":7.6,"mosquito_risk":0,"arthritis_risk":5,"migraine_risk":7,"frizz_risk":1,"updated_at":"2026-05-25T05:33:34.883972+05:30"},{"city":"Guntur","state":"Andhra Pradesh","latitude":16.3067,"longitude":80.4365,"temp":31.4,"humidity":52,"rain":0.0,"pressure":1000.3,"uv_index":9.1,"wind_gusts":42.8,"aqi":78,"pm10":15.4,"pm2_5":14.3,"no2":9.0,"co":229.0,"o3":69.0,"so2":8.3,"mosquito_risk":0,"arthritis_risk":5,"migraine_risk":4,"frizz_risk":1,"updated_at":"2026-05-25T05:33:34.883979+05:30"},{"city":"Nellore","state":"Andhra Pradesh","latitude":14.4426,"longitude":79.9865,"temp":31.2,"humidity":54,"rain":0.0,"pressure":1002.9,"uv_index":9.05,"wind_gusts":40.0,"aqi":73,"pm10":14.8,"pm2_5":13.6,"no2":4.9,"co":169.0,"o3":88.0,"so2":4.9,"mosquito_risk":0,"arthritis_risk":5,"migraine_risk":4,"frizz_risk":1,"updated_at":"2026-05-25T05:33:34.883987+05:30"},{"city":"Kurnool","state":"Andhra Pradesh","latitude":15.8281,"longitude":78.0373,"temp":27.7,"humidity":70,"rain":0.0,"pressure":976.4,"uv_index":9.05,"wind_gusts":52.6,"aqi":51,"pm10":10.2,"pm2_5":9.6,"no2":9.9,"co":179.0,"o3":44.0,"so2":3.3,"mosquito_risk":7,"arthritis_risk":5,"migraine_risk":7,"frizz_risk":1,"updated_at":"2026-05-25T05:33:34.883995+05:30"},{"city":"Kakinada","state":"Andhra Pradesh","latitude":16.9891,"longitude":82.2475,"temp":30.5,"humidity":79,"rain":0.0,"pressure":1003.7,"uv_index":9.1,"wind_gusts":30.2,"aqi":103,"pm10":32.7,"pm2_5":25.3,"no2":2.9,"co":483.0,"o3":125.0,"so2":3.5,"mosquito_risk":3,"arthritis_risk":5,"migraine_risk":4,"frizz_risk":1,"updated_at":"2026-05-25T05:33:34.884001+05:30"},{"city":"Tirupati","state":"Andhra Pradesh","latitude":13.6288,"longitude":79.4192,"temp":29.5,"humidity":58,"rain":0.0,"pressure":988.6,"uv_index":9.1,"wind_gusts":42.5,"aqi":84,"pm10":18.6,"pm2_5":17.5,"no2":8.9,"co":234.0,"o3":69.0,"so2":3.5,"mosquito_risk":4,"arthritis_risk":5,"migraine_risk":7,"frizz_risk":1,"updated_at":"2026-05-25T05:33:34.884008+05:30"},{"city":"Warangal","state":"Telangana","latitude":17.9689,"longitude":79.5941,"temp":32.5,"humidity":39,"rain":0.0,"pressure":975.7,"uv_index":9.05,"wind_gusts":42.8,"aqi":85,"pm10":22.1,"pm2_5":18.4,"no2":10.9,"co":248.0,"o3":62.0,"so2":5.4,"mosquito_risk":0,"arthritis_risk":5,"migraine_risk":7,"frizz_risk":1,"updated_at":"2026-05-25T05:33:34.884015+05:30"},{"city":"Nizamabad","state":"Telangana","latitude":18.6725,"longitude":78.0941,"temp":31.4,"humidity":39,"rain":0.0,"pressure":963.6,"uv_index":9.1,"wind_gusts":38.5,"aqi":71,"pm10":26.3,"pm2_5":20.5,"no2":7.6,"co":167.0,"o3":67.0,"so2":6.9,"mosquito_risk":0,"arthritis_risk":5,"migraine_risk":7,"frizz_risk":0,"updated_at":"2026-05-25T05:33:34.884021+05:30"},{"city":"Mysore","state":"Karnataka","latitude":12.2958,"longitude":76.6396,"temp":21.5,"humidity":98,"rain":0.0,"pressure":928.6,"uv_index":8.9,"wind_gusts":40.3,"aqi":46,"pm10":10.4,"pm2_5":9.6,"no2":8.4,"co":321.0,"o3":41.0,"so2":2.2,"mosquito_risk":3,"arthritis_risk":5,"migraine_risk":7,"frizz_risk":1,"updated_at":"2026-05-25T05:33:34.884027+05:30"},{"city":"Mangalore","state":"Karnataka","latitude":12.9141,"longitude":74.856,"temp":25.0,"humidity":96,"rain":0.0,"pressure":1007.7,"uv_index":7.4,"wind_gusts":29.5,"aqi":55,"pm10":25.9,"pm2_5":23.1,"no2":16.8,"co":233.0,"o3":18.0,"so2":4.2,"mosquito_risk":7,"arthritis_risk":5,"migraine_risk":4,"frizz_risk":1,"updated_at":"2026-05-25T05:33:34.884034+05:30"},{"city":"Hubli-Dharwad","state":"Karnataka","latitude":15.3647,"longitude":75.124,"temp":23.4,"humidity":94,"rain":0.0,"pressure":941.3,"uv_index":9.0,"wind_gusts":52.6,"aqi":29,"pm10":7.0,"pm2_5":5.3,"no2":2.5,"co":143.0,"o3":45.0,"so2":1.2,"mosquito_risk":3,"arthritis_risk":5,"migraine_risk":7,"frizz_risk":1,"updated_at":"2026-05-25T05:33:34.884041+05:30"},{"city":"Belgaum","state":"Karnataka","latitude":15.8497,"longitude":74.4977,"temp":22.1,"humidity":99,"rain":0.0,"pressure":925.7,"uv_index":9.0,"wind_gusts":48.2,"aqi":32,"pm10":8.4,"pm2_5":6.3,"no2":3.4,"co":160.0,"o3":42.0,"so2":1.1,"mosquito_risk":3,"arthritis_risk":5,"migraine_risk":7,"frizz_risk":1,"updated_at":"2026-05-25T05:33:49.389888+05:30"},{"city":"Coimbatore","state":"Tamil Nadu","latitude":11.0168,"longitude":76.9558,"temp":24.4,"humidity":88,"rain":0.0,"pressure":961.9,"uv_index":8.45,"wind_gusts":50.4,"aqi":26,"pm10":7.1,"pm2_5":5.5,"no2":7.2,"co":169.0,"o3":37.0,"so2":2.2,"mosquito_risk":3,"arthritis_risk":5,"migraine_risk":7,"frizz_risk":1,"updated_at":"2026-05-25T05:33:49.389923+05:30"},{"city":"Madurai","state":"Tamil Nadu","latitude":9.9252,"longitude":78.1198,"temp":27.6,"humidity":67,"rain":0.0,"pressure":992.6,"uv_index":8.95,"wind_gusts":33.8,"aqi":64,"pm10":28.8,"pm2_5":26.9,"no2":29.5,"co":192.0,"o3":2.0,"so2":5.7,"mosquito_risk":7,"arthritis_risk":5,"migraine_risk":7,"frizz_risk":1,"updated_at":"2026-05-25T05:33:49.389934+05:30"},{"city":"Trichy","state":"Tamil Nadu","latitude":10.7905,"longitude":78.7047,"temp":28.2,"humidity":70,"rain":0.0,"pressure":998.9,"uv_index":8.85,"wind_gusts":38.5,"aqi":48,"pm10":5.7,"pm2_5":5.1,"no2":7.4,"co":163.0,"o3":42.0,"so2":3.0,"mosquito_risk":7,"arthritis_risk":5,"migraine_risk":7,"frizz_risk":1,"updated_at":"2026-05-25T05:33:49.389942+05:30"},{"city":"Salem","state":"Tamil Nadu","latitude":11.6643,"longitude":78.146,"temp":26.8,"humidity":72,"rain":0.0,"pressure":977.5,"uv_index":8.95,"wind_gusts":37.8,"aqi":66,"pm10":36.0,"pm2_5":30.6,"no2":23.3,"co":197.0,"o3":27.0,"so2":9.2,"mosquito_risk":7,"arthritis_risk":5,"migraine_risk":7,"frizz_risk":1,"updated_at":"2026-05-25T05:33:49.389951+05:30"},{"city":"Tirunelveli","state":"Tamil Nadu","latitude":8.7139,"longitude":77.7567,"temp":28.5,"humidity":65,"rain":0.0,"pressure":1002.9,"uv_index":8.85,"wind_gusts":34.9,"aqi":23,"pm10":8.5,"pm2_5":7.4,"no2":6.7,"co":191.0,"o3":31.0,"so2":2.0,"mosquito_risk":7,"arthritis_risk":5,"migraine_risk":4,"frizz_risk":1,"updated_at":"2026-05-25T05:33:49.389959+05:30"},{"city":"Vellore","state":"Tamil Nadu","latitude":12.9165,"longitude":79.1325,"temp":27.7,"humidity":65,"rain":0.0,"pressure":982.9,"uv_index":9.1,"wind_gusts":42.8,"aqi":68,"pm10":20.4,"pm2_5":18.9,"no2":10.3,"co":220.0,"o3":59.0,"so2":4.6,"mosquito_risk":7,"arthritis_risk":5,"migraine_risk":7,"frizz_risk":1,"updated_at":"2026-05-25T05:33:49.389966+05:30"},{"city":"Erode","state":"Tamil Nadu","latitude":11.341,"longitude":77.7172,"temp":26.6,"humidity":76,"rain":0.0,"pressure":989.3,"uv_index":8.95,"wind_gusts":40.7,"aqi":47,"pm10":11.9,"pm2_5":10.0,"no2":12.5,"co":262.0,"o3":34.0,"so2":3.1,"mosquito_risk":7,"arthritis_risk":5,"migraine_risk":7,"frizz_risk":1,"updated_at":"2026-05-25T05:33:49.389974+05:30"},{"city":"Kochi","state":"Kerala","latitude":9.9312,"longitude":76.2673,"temp":25.6,"humidity":95,"rain":0.0,"pressure":1009.5,"uv_index":4.35,"wind_gusts":30.6,"aqi":51,"pm10":19.3,"pm2_5":18.2,"no2":16.8,"co":149.0,"o3":9.0,"so2":4.5,"mosquito_risk":7,"arthritis_risk":0,"migraine_risk":0,"frizz_risk":1,"updated_at":"2026-05-25T05:33:49.389981+05:30"},{"city":"Thiruvananthapuram","state":"Kerala","latitude":8.5241,"longitude":76.9366,"temp":24.4,"humidity":94,"rain":0.0,"pressure":1008.9,"uv_index":7.6,"wind_gusts":36.0,"aqi":33,"pm10":10.3,"pm2_5":7.4,"no2":4.4,"co":137.0,"o3":49.0,"so2":2.5,"mosquito_risk":3,"arthritis_risk":0,"migraine_risk":4,"frizz_risk":1,"updated_at":"2026-05-25T05:33:49.389988+05:30"},{"city":"Kozhikode","state":"Kerala","latitude":11.2588,"longitude":75.7804,"temp":24.7,"humidity":98,"rain":0.0,"pressure":1009.0,"uv_index":8.0,"wind_gusts":31.7,"aqi":33,"pm10":12.7,"pm2_5":8.5,"no2":2.7,"co":308.0,"o3":56.0,"so2":1.7,"mosquito_risk":3,"arthritis_risk":0,"migraine_risk":4,"frizz_risk":1,"updated_at":"2026-05-25T05:33:49.389996+05:30"},{"city":"Thrissur","state":"Kerala","latitude":10.5276,"longitude":76.2144,"temp":24.0,"humidity":99,"rain":0.0,"pressure":1008.0,"uv_index":7.85,"wind_gusts":33.8,"aqi":47,"pm10":15.5,"pm2_5":14.5,"no2":12.2,"co":218.0,"o3":18.0,"so2":3.3,"mosquito_risk":3,"arthritis_risk":0,"migraine_risk":4,"frizz_risk":1,"updated_at":"2026-05-25T05:33:49.390003+05:30"},{"city":"Kannur","state":"Kerala","latitude":11.8745,"longitude":75.3704,"temp":25.3,"humidity":94,"rain":0.0,"pressure":1008.1,"uv_index":8.2,"wind_gusts":28.4,"aqi":49,"pm10":19.4,"pm2_5":16.9,"no2":14.0,"co":241.0,"o3":18.0,"so2":2.9,"mosquito_risk":7,"arthritis_risk":0,"migraine_risk":4,"frizz_risk":1,"updated_at":"2026-05-25T05:33:49.390010+05:30"},{"city":"Patna","state":"Bihar","latitude":25.5941,"longitude":85.1376,"temp":27.7,"humidity":84,"rain":0.0,"pressure":996.0,"uv_index":8.8,"wind_gusts":32.4,"aqi":154,"pm10":88.2,"pm2_5":75.2,"no2":11.1,"co":443.0,"o3":86.0,"so2":13.4,"mosquito_risk":7,"arthritis_risk":5,"migraine_risk":7,"frizz_risk":1,"updated_at":"2026-05-25T05:33:49.390016+05:30"},{"city":"Gaya","state":"Bihar","latitude":24.7914,"longitude":85.0002,"temp":27.7,"humidity":52,"rain":0.0,"pressure":989.1,"uv_index":8.9,"wind_gusts":30.6,"aqi":154,"pm10":151.3,"pm2_5":69.6,"no2":36.8,"co":291.0,"o3":34.0,"so2":11.3,"mosquito_risk":4,"arthritis_risk":5,"migraine_risk":7,"frizz_risk":1,"updated_at":"2026-05-25T05:33:49.390023+05:30"},{"city":"Muzaffarpur","state":"Bihar","latitude":26.1209,"longitude":85.3647,"temp":26.9,"humidity":84,"rain":0.0,"pressure":996.3,"uv_index":8.85,"wind_gusts":33.1,"aqi":154,"pm10":84.8,"pm2_5":70.1,"no2":10.4,"co":431.0,"o3":90.0,"so2":11.8,"mosquito_risk":7,"arthritis_risk":5,"migraine_risk":7,"frizz_risk":1,"updated_at":"2026-05-25T05:33:49.390030+05:30"},{"city":"Bhagalpur","state":"Bihar","latitude":25.2425,"longitude":87.0117,"temp":28.8,"humidity":88,"rain":0.0,"pressure":997.2,"uv_index":8.8,"wind_gusts":36.4,"aqi":154,"pm10":71.7,"pm2_5":49.1,"no2":8.7,"co":462.0,"o3":98.0,"so2":10.3,"mosquito_risk":7,"arthritis_risk":5,"migraine_risk":7,"frizz_risk":1,"updated_at":"2026-05-25T05:33:49.390036+05:30"},{"city":"Ranchi","state":"Jharkhand","latitude":23.3441,"longitude":85.3096,"temp":24.5,"humidity":80,"rain":0.0,"pressure":934.9,"uv_index":9.3,"wind_gusts":49.3,"aqi":142,"pm10":103.1,"pm2_5":51.5,"no2":21.6,"co":299.0,"o3":57.0,"so2":13.5,"mosquito_risk":3,"arthritis_risk":5,"migraine_risk":7,"frizz_risk":1,"updated_at":"2026-05-25T05:33:49.390043+05:30"},{"city":"Jamshedpur","state":"Jharkhand","latitude":22.8046,"longitude":86.2029,"temp":28.4,"humidity":89,"rain":0.0,"pressure":988.1,"uv_index":9.1,"wind_gusts":40.3,"aqi":125,"pm10":32.7,"pm2_5":30.5,"no2":14.5,"co":277.0,"o3":64.0,"so2":19.3,"mosquito_risk":7,"arthritis_risk":5,"migraine_risk":7,"frizz_risk":1,"updated_at":"2026-05-25T05:33:49.390050+05:30"},{"city":"Dhanbad","state":"Jharkhand","latitude":23.7957,"longitude":86.4304,"temp":28.0,"humidity":81,"rain":0.0,"pressure":976.4,"uv_index":9.05,"wind_gusts":40.3,"aqi":155,"pm10":60.3,"pm2_5":51.0,"no2":37.2,"co":348.0,"o3":49.0,"so2":82.0,"mosquito_risk":7,"arthritis_risk":5,"migraine_risk":7,"frizz_risk":1,"updated_at":"2026-05-25T05:33:49.390056+05:30"},{"city":"Bokaro","state":"Jharkhand","latitude":23.6693,"longitude":86.1511,"temp":29.0,"humidity":57,"rain":0.0,"pressure":980.0,"uv_index":9.1,"wind_gusts":40.0,"aqi":154,"pm10":96.4,"pm2_5":58.0,"no2":29.8,"co":365.0,"o3":48.0,"so2":49.5,"mosquito_risk":4,"arthritis_risk":5,"migraine_risk":7,"frizz_risk":1,"updated_at":"2026-05-25T05:33:49.390063+05:30"},{"city":"Bhubaneswar","state":"Odisha","latitude":20.2961,"longitude":85.8245,"temp":29.2,"humidity":90,"rain":0.0,"pressure":1000.2,"uv_index":9.1,"wind_gusts":43.2,"aqi":90,"pm10":39.7,"pm2_5":33.6,"no2":4.5,"co":227.0,"o3":98.0,"so2":3.8,"mosquito_risk":7,"arthritis_risk":5,"migraine_risk":4,"frizz_risk":1,"updated_at":"2026-05-25T05:33:49.390070+05:30"},{"city":"Cuttack","state":"Odisha","latitude":20.4625,"longitude":85.8828,"temp":29.3,"humidity":91,"rain":0.0,"pressure":1002.1,"uv_index":9.15,"wind_gusts":38.2,"aqi":90,"pm10":39.7,"pm2_5":33.6,"no2":4.5,"co":247.0,"o3":98.0,"so2":3.8,"mosquito_risk":7,"arthritis_risk":5,"migraine_risk":4,"frizz_risk":1,"updated_at":"2026-05-25T05:33:49.390076+05:30"},{"city":"Rourkela","state":"Odisha","latitude":22.2604,"longitude":84.8536,"temp":27.9,"humidity":93,"rain":0.0,"pressure":982.8,"uv_index":9.0,"wind_gusts":46.4,"aqi":151,"pm10":67.8,"pm2_5":51.9,"no2":25.0,"co":262.0,"o3":43.0,"so2":22.0,"mosquito_risk":7,"arthritis_risk":5,"migraine_risk":7,"frizz_risk":1,"updated_at":"2026-05-25T05:33:49.390083+05:30"},{"city":"Raipur","state":"Chhattisgarh","latitude":21.2514,"longitude":81.6296,"temp":31.8,"humidity":31,"rain":0.0,"pressure":971.0,"uv_index":8.95,"wind_gusts":42.1,"aqi":141,"pm10":89.4,"pm2_5":61.7,"no2":43.8,"co":684.0,"o3":25.0,"so2":31.0,"mosquito_risk":0,"arthritis_risk":5,"migraine_risk":7,"frizz_risk":0,"updated_at":"2026-05-25T05:33:49.390091+05:30"},{"city":"Bhilai","state":"Chhattisgarh","latitude":21.1938,"longitude":81.3509,"temp":30.0,"humidity":44,"rain":0.0,"pressure":971.5,"uv_index":8.95,"wind_gusts":27.0,"aqi":120,"pm10":72.6,"pm2_5":51.5,"no2":47.5,"co":1045.0,"o3":25.0,"so2":47.5,"mosquito_risk":4,"arthritis_risk":5,"migraine_risk":7,"frizz_risk":1,"updated_at":"2026-05-25T05:33:49.390098+05:30"},{"city":"Guwahati","state":"Assam","latitude":26.1158,"longitude":91.7086,"temp":22.8,"humidity":96,"rain":0.0,"pressure":1001.2,"uv_index":8.8,"wind_gusts":32.4,"aqi":77,"pm10":25.0,"pm2_5":18.7,"no2":5.7,"co":286.0,"o3":76.0,"so2":2.1,"mosquito_risk":3,"arthritis_risk":5,"migraine_risk":4,"frizz_risk":1,"updated_at":"2026-05-25T05:33:49.390105+05:30"},{"city":"Agartala","state":"Tripura","latitude":23.8315,"longitude":91.2868,"temp":27.1,"humidity":87,"rain":0.0,"pressure":1005.1,"uv_index":8.25,"wind_gusts":48.6,"aqi":63,"pm10":18.5,"pm2_5":14.9,"no2":8.9,"co":199.0,"o3":56.0,"so2":2.7,"mosquito_risk":7,"arthritis_risk":5,"migraine_risk":4,"frizz_risk":1,"updated_at":"2026-05-25T05:33:49.390112+05:30"},{"city":"Shillong","state":"Meghalaya","latitude":25.5788,"longitude":91.8933,"temp":18.9,"humidity":90,"rain":0.0,"pressure":856.1,"uv_index":7.8,"wind_gusts":43.6,"aqi":52,"pm10":4.4,"pm2_5":2.5,"no2":4.1,"co":191.0,"o3":65.0,"so2":2.2,"mosquito_risk":3,"arthritis_risk":10,"migraine_risk":7,"frizz_risk":1,"updated_at":"2026-05-25T05:33:49.390119+05:30"},{"city":"Imphal","state":"Manipur","latitude":24.817,"longitude":93.9368,"temp":21.5,"humidity":94,"rain":0.0,"pressure":923.6,"uv_index":9.3,"wind_gusts":30.2,"aqi":86,"pm10":48.9,"pm2_5":33.6,"no2":7.3,"co":376.0,"o3":47.0,"so2":1.8,"mosquito_risk":3,"arthritis_risk":5,"migraine_risk":7,"frizz_risk":1,"updated_at":"2026-05-25T05:33:49.390126+05:30"},{"city":"Aizawl","state":"Mizoram","latitude":23.7271,"longitude":92.7176,"temp":19.4,"humidity":90,"rain":0.0,"pressure":892.0,"uv_index":9.15,"wind_gusts":43.2,"aqi":57,"pm10":22.9,"pm2_5":14.1,"no2":3.1,"co":165.0,"o3":42.0,"so2":0.8,"mosquito_risk":3,"arthritis_risk":10,"migraine_risk":7,"frizz_risk":1,"updated_at":"2026-05-25T05:33:49.390133+05:30"},{"city":"Kohima","state":"Nagaland","latitude":25.6701,"longitude":94.1077,"temp":19.2,"humidity":85,"rain":0.0,"pressure":855.0,"uv_index":9.3,"wind_gusts":33.5,"aqi":65,"pm10":26.8,"pm2_5":16.1,"no2":4.4,"co":209.0,"o3":50.0,"so2":1.0,"mosquito_risk":3,"arthritis_risk":10,"migraine_risk":7,"frizz_risk":1,"updated_at":"2026-05-25T05:33:49.390140+05:30"},{"city":"Gangtok","state":"Sikkim","latitude":27.3314,"longitude":88.6138,"temp":15.4,"humidity":84,"rain":0.0,"pressure":835.7,"uv_index":9.15,"wind_gusts":40.0,"aqi":78,"pm10":52.2,"pm2_5":34.2,"no2":10.5,"co":557.0,"o3":65.0,"so2":2.1,"mosquito_risk":3,"arthritis_risk":10,"migraine_risk":7,"frizz_risk":0,"updated_at":"2026-05-25T05:33:49.390146+05:30"},{"city":"Siliguri","state":"West Bengal","latitude":26.7271,"longitude":88.3953,"temp":22.6,"humidity":96,"rain":0.0,"pressure":991.3,"uv_index":8.7,"wind_gusts":30.6,"aqi":112,"pm10":87.8,"pm2_5":65.7,"no2":18.6,"co":414.0,"o3":63.0,"so2":5.9,"mosquito_risk":3,"arthritis_risk":5,"migraine_risk":7,"frizz_risk":1,"updated_at":"2026-05-25T05:34:01.610984+05:30"},{"city":"Durgapur","state":"West Bengal","latitude":23.5204,"longitude":87.3119,"temp":28.5,"humidity":92,"rain":0.0,"pressure":992.0,"uv_index":9.0,"wind_gusts":39.2,"aqi":152,"pm10":40.2,"pm2_5":38.1,"no2":22.5,"co":557.0,"o3":55.0,"so2":35.4,"mosquito_risk":7,"arthritis_risk":5,"migraine_risk":7,"frizz_risk":1,"updated_at":"2026-05-25T05:34:01.611022+05:30"},{"city":"Asansol","state":"West Bengal","latitude":23.6739,"longitude":86.9524,"temp":28.0,"humidity":95,"rain":0.0,"pressure":990.2,"uv_index":9.05,"wind_gusts":33.1,"aqi":152,"pm10":43.1,"pm2_5":40.9,"no2":27.9,"co":387.0,"o3":49.0,"so2":44.9,"mosquito_risk":7,"arthritis_risk":5,"migraine_risk":7,"frizz_risk":1,"updated_at":"2026-05-25T05:34:01.611033+05:30"},{"city":"Pondicherry","state":"Puducherry","latitude":11.9139,"longitude":79.8145,"temp":28.2,"humidity":67,"rain":0.0,"pressure":1006.5,"uv_index":8.95,"wind_gusts":41.0,"aqi":75,"pm10":25.2,"pm2_5":22.4,"no2":12.1,"co":348.0,"o3":55.0,"so2":5.4,"mosquito_risk":7,"arthritis_risk":5,"migraine_risk":4,"frizz_risk":1,"updated_at":"2026-05-25T05:34:01.611042+05:30"},{"city":"Port Blair","state":"Andaman and Nicobar Islands","latitude":11.6234,"longitude":92.7265,"temp":25.4,"humidity":97,"rain":0.0,"pressure":1008.3,"uv_index":8.9,"wind_gusts":32.8,"aqi":29,"pm10":10.0,"pm2_5":5.8,"no2":0.2,"co":121.0,"o3":75.0,"so2":0.4,"mosquito_risk":7,"arthritis_risk":0,"migraine_risk":4,"frizz_risk":1,"updated_at":"2026-05-25T05:34:01.611051+05:30"},{"city":"Haridwar","state":"Uttarakhand","latitude":29.9457,"longitude":78.1642,"temp":23.8,"humidity":53,"rain":0.0,"pressure":968.2,"uv_index":7.5,"wind_gusts":30.2,"aqi":84,"pm10":45.4,"pm2_5":34.6,"no2":29.3,"co":257.0,"o3":19.0,"so2":3.9,"mosquito_risk":0,"arthritis_risk":5,"migraine_risk":7,"frizz_risk":0,"updated_at":"2026-05-25T05:34:01.611059+05:30"},{"city":"Rishikesh","state":"Uttarakhand","latitude":30.0869,"longitude":78.2676,"temp":21.4,"humidity":61,"rain":0.0,"pressure":961.0,"uv_index":7.6,"wind_gusts":36.4,"aqi":78,"pm10":57.2,"pm2_5":35.4,"no2":16.2,"co":273.0,"o3":49.0,"so2":3.2,"mosquito_risk":3,"arthritis_risk":5,"migraine_risk":7,"frizz_risk":0,"updated_at":"2026-05-25T05:34:01.611066+05:30"},{"city":"Nainital","state":"Uttarakhand","latitude":29.3919,"longitude":79.4542,"temp":16.7,"humidity":40,"rain":0.0,"pressure":803.0,"uv_index":8.45,"wind_gusts":47.9,"aqi":76,"pm10":55.5,"pm2_5":32.0,"no2":21.0,"co":176.0,"o3":45.0,"so2":2.6,"mosquito_risk":0,"arthritis_risk":5,"migraine_risk":7,"frizz_risk":0,"updated_at":"2026-05-25T05:34:01.611073+05:30"},{"city":"Mussoorie","state":"Uttarakhand","latitude":30.4599,"longitude":78.0664,"temp":17.4,"humidity":40,"rain":0.0,"pressure":800.4,"uv_index":8.05,"wind_gusts":54.7,"aqi":76,"pm10":44.0,"pm2_5":24.9,"no2":28.5,"co":163.0,"o3":18.0,"so2":2.9,"mosquito_risk":0,"arthritis_risk":5,"migraine_risk":7,"frizz_risk":0,"updated_at":"2026-05-25T05:34:01.611081+05:30"},{"city":"Dharamshala","state":"Himachal Pradesh","latitude":32.219,"longitude":76.3234,"temp":22.0,"humidity":36,"rain":0.0,"pressure":866.2,"uv_index":8.45,"wind_gusts":43.2,"aqi":44,"pm10":7.1,"pm2_5":4.4,"no2":10.7,"co":148.0,"o3":37.0,"so2":0.1,"mosquito_risk":0,"arthritis_risk":5,"migraine_risk":7,"frizz_risk":0,"updated_at":"2026-05-25T05:34:01.611089+05:30"},{"city":"Dalhousie","state":"Himachal Pradesh","latitude":32.5387,"longitude":75.971,"temp":12.8,"humidity":57,"rain":0.0,"pressure":799.9,"uv_index":8.7,"wind_gusts":43.6,"aqi":63,"pm10":18.9,"pm2_5":13.8,"no2":23.6,"co":178.0,"o3":9.0,"so2":0.3,"mosquito_risk":0,"arthritis_risk":5,"migraine_risk":7,"frizz_risk":0,"updated_at":"2026-05-25T05:34:01.611096+05:30"},{"city":"Patiala","state":"Punjab","latitude":30.3398,"longitude":76.3869,"temp":28.0,"humidity":38,"rain":0.0,"pressure":972.1,"uv_index":7.6,"wind_gusts":31.7,"aqi":190,"pm10":109.0,"pm2_5":52.6,"no2":24.6,"co":442.0,"o3":40.0,"so2":11.6,"mosquito_risk":4,"arthritis_risk":5,"migraine_risk":7,"frizz_risk":0,"updated_at":"2026-05-25T05:34:01.611104+05:30"},{"city":"Bhatinda","state":"Punjab","latitude":30.211,"longitude":74.9455,"temp":28.9,"humidity":39,"rain":0.0,"pressure":978.5,"uv_index":8.3,"wind_gusts":30.2,"aqi":110,"pm10":101.5,"pm2_5":38.5,"no2":12.0,"co":294.0,"o3":58.0,"so2":3.5,"mosquito_risk":4,"arthritis_risk":5,"migraine_risk":7,"frizz_risk":0,"updated_at":"2026-05-25T05:34:01.611110+05:30"},{"city":"Rohtak","state":"Haryana","latitude":28.8955,"longitude":76.6066,"temp":28.2,"humidity":42,"rain":0.0,"pressure":976.2,"uv_index":7.75,"wind_gusts":36.7,"aqi":530,"pm10":672.4,"pm2_5":143.4,"no2":15.6,"co":178.0,"o3":43.0,"so2":2.8,"mosquito_risk":4,"arthritis_risk":5,"migraine_risk":7,"frizz_risk":0,"updated_at":"2026-05-25T05:34:01.611117+05:30"},{"city":"Panipat","state":"Haryana","latitude":29.3909,"longitude":76.9635,"temp":28.6,"humidity":35,"rain":0.0,"pressure":974.6,"uv_index":7.6,"wind_gusts":28.1,"aqi":1015,"pm10":475.9,"pm2_5":122.0,"no2":43.7,"co":466.0,"o3":13.0,"so2":9.0,"mosquito_risk":4,"arthritis_risk":5,"migraine_risk":7,"frizz_risk":0,"updated_at":"2026-05-25T05:34:01.611124+05:30"},{"city":"Mathura","state":"Uttar Pradesh","latitude":27.4924,"longitude":77.6737,"temp":31.5,"humidity":31,"rain":0.0,"pressure":982.0,"uv_index":8.0,"wind_gusts":38.2,"aqi":989,"pm10":1534.8,"pm2_5":192.8,"no2":4.6,"co":166.0,"o3":68.0,"so2":3.0,"mosquito_risk":0,"arthritis_risk":5,"migraine_risk":7,"frizz_risk":0,"updated_at":"2026-05-25T05:34:01.611131+05:30"},{"city":"Vrindavan","state":"Uttar Pradesh","latitude":27.5823,"longitude":77.7027,"temp":31.2,"humidity":31,"rain":0.0,"pressure":982.3,"uv_index":8.0,"wind_gusts":36.7,"aqi":989,"pm10":1534.8,"pm2_5":192.8,"no2":4.6,"co":160.0,"o3":68.0,"so2":3.0,"mosquito_risk":0,"arthritis_risk":5,"migraine_risk":7,"frizz_risk":0,"updated_at":"2026-05-25T05:34:01.611137+05:30"},{"city":"Ayodhya","state":"Uttar Pradesh","latitude":26.7922,"longitude":82.1998,"temp":27.6,"humidity":70,"rain":0.0,"pressure":990.7,"uv_index":8.35,"wind_gusts":31.0,"aqi":155,"pm10":53.8,"pm2_5":44.1,"no2":20.1,"co":618.0,"o3":66.0,"so2":11.9,"mosquito_risk":7,"arthritis_risk":5,"migraine_risk":7,"frizz_risk":1,"updated_at":"2026-05-25T05:34:01.611144+05:30"},{"city":"Ratlam","state":"Madhya Pradesh","latitude":23.3315,"longitude":75.0367,"temp":27.4,"humidity":69,"rain":0.0,"pressure":954.1,"uv_index":8.55,"wind_gusts":47.9,"aqi":61,"pm10":12.0,"pm2_5":9.5,"no2":7.6,"co":157.0,"o3":35.0,"so2":11.4,"mosquito_risk":7,"arthritis_risk":5,"migraine_risk":7,"frizz_risk":1,"updated_at":"2026-05-25T05:34:01.611150+05:30"},{"city":"Sagar","state":"Madhya Pradesh","latitude":23.8388,"longitude":78.7378,"temp":31.0,"humidity":34,"rain":0.0,"pressure":948.5,"uv_index":8.75,"wind_gusts":41.0,"aqi":79,"pm10":29.4,"pm2_5":15.9,"no2":4.2,"co":177.0,"o3":74.0,"so2":2.7,"mosquito_risk":0,"arthritis_risk":5,"migraine_risk":7,"frizz_risk":0,"updated_at":"2026-05-25T05:34:01.611157+05:30"},{"city":"Satna","state":"Madhya Pradesh","latitude":24.6005,"longitude":80.8322,"temp":31.0,"humidity":30,"rain":0.0,"pressure":967.8,"uv_index":8.4,"wind_gusts":48.6,"aqi":82,"pm10":31.8,"pm2_5":17.5,"no2":14.7,"co":187.0,"o3":52.0,"so2":4.4,"mosquito_risk":0,"arthritis_risk":5,"migraine_risk":7,"frizz_risk":0,"updated_at":"2026-05-25T05:34:01.611164+05:30"},{"city":"Akola","state":"Maharashtra","latitude":20.7002,"longitude":77.0082,"temp":30.4,"humidity":53,"rain":0.0,"pressure":974.0,"uv_index":7.75,"wind_gusts":47.5,"aqi":65,"pm10":19.3,"pm2_5":14.6,"no2":5.9,"co":144.0,"o3":66.0,"so2":9.5,"mosquito_risk":0,"arthritis_risk":5,"migraine_risk":7,"frizz_risk":1,"updated_at":"2026-05-25T05:34:01.611171+05:30"},{"city":"Amravati","state":"Maharashtra","latitude":20.9374,"longitude":77.7796,"temp":31.8,"humidity":42,"rain":0.0,"pressure":965.9,"uv_index":8.85,"wind_gusts":42.8,"aqi":67,"pm10":24.2,"pm2_5":18.3,"no2":5.2,"co":167.0,"o3":80.0,"so2":9.2,"mosquito_risk":0,"arthritis_risk":5,"migraine_risk":7,"frizz_risk":1,"updated_at":"2026-05-25T05:34:01.611180+05:30"},{"city":"Latur","state":"Maharashtra","latitude":18.4088,"longitude":76.5604,"temp":27.1,"humidity":65,"rain":0.0,"pressure":939.3,"uv_index":9.0,"wind_gusts":36.7,"aqi":57,"pm10":14.6,"pm2_5":10.8,"no2":6.9,"co":152.0,"o3":59.0,"so2":6.6,"mosquito_risk":7,"arthritis_risk":5,"migraine_risk":7,"frizz_risk":1,"updated_at":"2026-05-25T05:34:01.611187+05:30"},{"city":"Nanded","state":"Maharashtra","latitude":19.1383,"longitude":77.3091,"temp":31.2,"humidity":50,"rain":0.0,"pressure":967.8,"uv_index":8.95,"wind_gusts":37.1,"aqi":62,"pm10":18.5,"pm2_5":13.2,"no2":5.7,"co":158.0,"o3":57.0,"so2":4.5,"mosquito_risk":0,"arthritis_risk":5,"migraine_risk":7,"frizz_risk":1,"updated_at":"2026-05-25T05:34:01.611193+05:30"},{"city":"Gulbarga","state":"Karnataka","latitude":17.3297,"longitude":76.8343,"temp":26.8,"humidity":72,"rain":0.0,"pressure":958.2,"uv_index":9.05,"wind_gusts":37.4,"aqi":53,"pm10":11.0,"pm2_5":8.8,"no2":7.6,"co":166.0,"o3":47.0,"so2":5.4,"mosquito_risk":7,"arthritis_risk":5,"migraine_risk":7,"frizz_risk":1,"updated_at":"2026-05-25T05:34:01.611199+05:30"},{"city":"Bidar","state":"Karnataka","latitude":17.9104,"longitude":77.5199,"temp":27.5,"humidity":62,"rain":0.0,"pressure":934.8,"uv_index":9.05,"wind_gusts":41.4,"aqi":62,"pm10":18.1,"pm2_5":14.4,"no2":7.4,"co":164.0,"o3":64.0,"so2":6.1,"mosquito_risk":7,"arthritis_risk":5,"migraine_risk":7,"frizz_risk":1,"updated_at":"2026-05-25T05:34:01.611205+05:30"},{"city":"Hospet","state":"Karnataka","latitude":15.2689,"longitude":76.3909,"temp":24.4,"humidity":93,"rain":0.0,"pressure":956.3,"uv_index":9.1,"wind_gusts":49.7,"aqi":39,"pm10":6.1,"pm2_5":5.4,"no2":4.8,"co":163.0,"o3":45.0,"so2":1.5,"mosquito_risk":3,"arthritis_risk":5,"migraine_risk":7,"frizz_risk":1,"updated_at":"2026-05-25T05:34:01.611211+05:30"},{"city":"Tirupur","state":"Tamil Nadu","latitude":11.1085,"longitude":77.3411,"temp":24.7,"humidity":87,"rain":0.0,"pressure":975.4,"uv_index":8.75,"wind_gusts":51.1,"aqi":46,"pm10":13.4,"pm2_5":11.2,"no2":13.1,"co":155.0,"o3":33.0,"so2":3.6,"mosquito_risk":3,"arthritis_risk":5,"migraine_risk":7,"frizz_risk":1,"updated_at":"2026-05-25T05:34:01.611217+05:30"},{"city":"Alappuzha","state":"Kerala","latitude":9.4981,"longitude":76.3388,"temp":25.8,"humidity":96,"rain":0.0,"pressure":1009.6,"uv_index":7.55,"wind_gusts":29.9,"aqi":40,"pm10":12.4,"pm2_5":9.9,"no2":8.1,"co":106.0,"o3":40.0,"so2":3.6,"mosquito_risk":7,"arthritis_risk":0,"migraine_risk":4,"frizz_risk":1,"updated_at":"2026-05-25T05:34:01.611223+05:30"},{"city":"Munnar","state":"Kerala","latitude":10.0889,"longitude":77.0595,"temp":17.2,"humidity":83,"rain":0.0,"pressure":856.4,"uv_index":8.85,"wind_gusts":28.4,"aqi":15,"pm10":4.5,"pm2_5":4.0,"no2":5.4,"co":143.0,"o3":28.0,"so2":0.5,"mosquito_risk":3,"arthritis_risk":10,"migraine_risk":7,"frizz_risk":0,"updated_at":"2026-05-25T05:34:01.611230+05:30"},{"city":"Silchar","state":"Assam","latitude":24.8333,"longitude":92.7789,"temp":24.4,"humidity":98,"rain":0.0,"pressure":1004.8,"uv_index":8.85,"wind_gusts":36.4,"aqi":80,"pm10":28.5,"pm2_5":13.9,"no2":6.7,"co":298.0,"o3":59.0,"so2":2.4,"mosquito_risk":3,"arthritis_risk":5,"migraine_risk":4,"frizz_risk":1,"updated_at":"2026-05-25T05:34:01.611237+05:30"},{"city":"Dibrugarh","state":"Assam","latitude":27.4728,"longitude":94.912,"temp":22.6,"humidity":96,"rain":0.1,"pressure":995.5,"uv_index":8.95,"wind_gusts":30.2,"aqi":74,"pm10":58.8,"pm2_5":28.8,"no2":13.5,"co":220.0,"o3":43.0,"so2":2.0,"mosquito_risk":6,"arthritis_risk":5,"migraine_risk":7,"frizz_risk":1,"updated_at":"2026-05-25T05:34:01.611243+05:30"}]