[{"city":"Delhi","state":"Delhi","latitude":28.6139,"longitude":77.209,"temp":37.7,"humidity":36,"rain":0.0,"pressure":976.4,"uv_index":7.3,"wind_gusts":37.8,"aqi":428,"pm10":566.2,"pm2_5":122.9,"no2":17.5,"co":362.0,"o3":121.0,"so2":26.8,"mosquito_risk":0,"arthritis_risk":5,"migraine_risk":10,"frizz_risk":1,"updated_at":"2026-06-30T10:36:17.538975+05:30"},{"city":"Mumbai","state":"Maharashtra","latitude":19.076,"longitude":72.8777,"temp":26.7,"humidity":92,"rain":0.1,"pressure":1006.7,"uv_index":1.15,"wind_gusts":40.3,"aqi":46,"pm10":15.7,"pm2_5":9.5,"no2":10.2,"co":405.0,"o3":53.0,"so2":8.9,"mosquito_risk":10,"arthritis_risk":5,"migraine_risk":0,"frizz_risk":1,"updated_at":"2026-06-30T10:36:17.539030+05:30"},{"city":"Bangalore","state":"Karnataka","latitude":12.9716,"longitude":77.5946,"temp":25.5,"humidity":65,"rain":0.0,"pressure":912.2,"uv_index":8.2,"wind_gusts":58.7,"aqi":19,"pm10":3.5,"pm2_5":3.0,"no2":5.2,"co":240.0,"o3":57.0,"so2":3.0,"mosquito_risk":7,"arthritis_risk":5,"migraine_risk":7,"frizz_risk":1,"updated_at":"2026-06-30T10:36:17.539047+05:30"},{"city":"Hyderabad","state":"Telangana","latitude":17.385,"longitude":78.4867,"temp":27.9,"humidity":67,"rain":0.0,"pressure":951.6,"uv_index":4.75,"wind_gusts":45.0,"aqi":25,"pm10":5.5,"pm2_5":4.2,"no2":3.6,"co":230.0,"o3":60.0,"so2":3.5,"mosquito_risk":7,"arthritis_risk":5,"migraine_risk":3,"frizz_risk":1,"updated_at":"2026-06-30T10:36:17.539058+05:30"},{"city":"Chennai","state":"Tamil Nadu","latitude":13.0827,"longitude":80.2707,"temp":32.9,"humidity":53,"rain":0.0,"pressure":1005.7,"uv_index":7.75,"wind_gusts":46.1,"aqi":45,"pm10":7.5,"pm2_5":6.5,"no2":6.6,"co":387.0,"o3":83.0,"so2":12.3,"mosquito_risk":0,"arthritis_risk":5,"migraine_risk":4,"frizz_risk":1,"updated_at":"2026-06-30T10:36:17.539069+05:30"},{"city":"Kolkata","state":"West Bengal","latitude":22.5726,"longitude":88.3639,"temp":27.5,"humidity":91,"rain":0.3,"pressure":1002.0,"uv_index":6.9,"wind_gusts":22.3,"aqi":115,"pm10":34.3,"pm2_5":33.9,"no2":10.3,"co":547.0,"o3":143.0,"so2":16.3,"mosquito_risk":10,"arthritis_risk":5,"migraine_risk":4,"frizz_risk":1,"updated_at":"2026-06-30T10:36:17.539078+05:30"},{"city":"Pune","state":"Maharashtra","latitude":18.5204,"longitude":73.8567,"temp":25.8,"humidity":80,"rain":0.0,"pressure":946.4,"uv_index":1.6,"wind_gusts":41.4,"aqi":25,"pm10":2.6,"pm2_5":2.3,"no2":4.0,"co":164.0,"o3":56.0,"so2":4.5,"mosquito_risk":7,"arthritis_risk":5,"migraine_risk":3,"frizz_risk":1,"updated_at":"2026-06-30T10:36:17.539086+05:30"},{"city":"Ahmedabad","state":"Gujarat","latitude":23.0225,"longitude":72.5714,"temp":33.8,"humidity":51,"rain":0.0,"pressure":997.9,"uv_index":7.95,"wind_gusts":49.7,"aqi":59,"pm10":40.2,"pm2_5":16.6,"no2":2.4,"co":135.0,"o3":71.0,"so2":3.7,"mosquito_risk":0,"arthritis_risk":5,"migraine_risk":7,"frizz_risk":1,"updated_at":"2026-06-30T10:36:17.539093+05:30"},{"city":"Jaipur","state":"Rajasthan","latitude":26.9124,"longitude":75.7873,"temp":35.4,"humidity":43,"rain":0.0,"pressure":955.0,"uv_index":8.15,"wind_gusts":42.1,"aqi":169,"pm10":525.3,"pm2_5":91.0,"no2":2.1,"co":146.0,"o3":85.0,"so2":3.5,"mosquito_risk":0,"arthritis_risk":5,"migraine_risk":10,"frizz_risk":1,"updated_at":"2026-06-30T10:36:17.539102+05:30"},{"city":"Lucknow","state":"Uttar Pradesh","latitude":26.8467,"longitude":80.9462,"temp":34.1,"humidity":58,"rain":0.0,"pressure":987.8,"uv_index":5.75,"wind_gusts":27.0,"aqi":115,"pm10":31.4,"pm2_5":20.4,"no2":6.6,"co":270.0,"o3":116.0,"so2":8.0,"mosquito_risk":0,"arthritis_risk":5,"migraine_risk":3,"frizz_risk":1,"updated_at":"2026-06-30T10:36:17.539114+05:30"},{"city":"Kanpur","state":"Uttar Pradesh","latitude":26.4499,"longitude":80.3319,"temp":31.5,"humidity":73,"rain":0.0,"pressure":986.2,"uv_index":5.7,"wind_gusts":40.0,"aqi":139,"pm10":79.6,"pm2_5":36.1,"no2":5.5,"co":180.0,"o3":139.0,"so2":9.3,"mosquito_risk":3,"arthritis_risk":5,"migraine_risk":3,"frizz_risk":1,"updated_at":"2026-06-30T10:36:17.539122+05:30"},{"city":"Chandigarh","state":"Chandigarh","latitude":30.7333,"longitude":76.7794,"temp":32.5,"humidity":62,"rain":0.0,"pressure":962.8,"uv_index":7.8,"wind_gusts":34.9,"aqi":131,"pm10":167.2,"pm2_5":68.2,"no2":4.0,"co":372.0,"o3":184.0,"so2":16.2,"mosquito_risk":3,"arthritis_risk":5,"migraine_risk":7,"frizz_risk":1,"updated_at":"2026-06-30T10:36:17.539129+05:30"},{"city":"Srinagar","state":"Jammu and Kashmir","latitude":34.0837,"longitude":74.7973,"temp":30.0,"humidity":43,"rain":0.0,"pressure":840.2,"uv_index":9.1,"wind_gusts":22.3,"aqi":96,"pm10":47.1,"pm2_5":35.6,"no2":2.3,"co":409.0,"o3":178.0,"so2":8.1,"mosquito_risk":4,"arthritis_risk":5,"migraine_risk":7,"frizz_risk":0,"updated_at":"2026-06-30T10:36:17.539137+05:30"},{"city":"Jammu","state":"Jammu and Kashmir","latitude":32.7266,"longitude":74.857,"temp":34.0,"humidity":56,"rain":0.0,"pressure":966.0,"uv_index":8.65,"wind_gusts":51.1,"aqi":148,"pm10":113.9,"pm2_5":55.6,"no2":3.7,"co":279.0,"o3":159.0,"so2":9.1,"mosquito_risk":0,"arthritis_risk":5,"migraine_risk":7,"frizz_risk":1,"updated_at":"2026-06-30T10:36:17.539145+05:30"},{"city":"Amritsar","state":"Punjab","latitude":31.634,"longitude":74.8723,"temp":34.0,"humidity":62,"rain":0.0,"pressure":973.5,"uv_index":8.5,"wind_gusts":31.7,"aqi":152,"pm10":209.5,"pm2_5":85.0,"no2":6.2,"co":326.0,"o3":180.0,"so2":12.9,"mosquito_risk":3,"arthritis_risk":5,"migraine_risk":7,"frizz_risk":1,"updated_at":"2026-06-30T10:36:17.539154+05:30"},{"city":"Ludhiana","state":"Punjab","latitude":30.901,"longitude":75.8573,"temp":36.0,"humidity":51,"rain":0.0,"pressure":971.7,"uv_index":7.85,"wind_gusts":37.8,"aqi":165,"pm10":735.7,"pm2_5":168.1,"no2":6.7,"co":329.0,"o3":200.0,"so2":17.6,"mosquito_risk":0,"arthritis_risk":5,"migraine_risk":10,"frizz_risk":1,"updated_at":"2026-06-30T10:36:17.539164+05:30"},{"city":"Jalandhar","state":"Punjab","latitude":31.326,"longitude":75.5762,"temp":35.9,"humidity":51,"rain":0.0,"pressure":972.7,"uv_index":7.15,"wind_gusts":36.4,"aqi":158,"pm10":434.0,"pm2_5":130.9,"no2":7.1,"co":311.0,"o3":204.0,"so2":16.7,"mosquito_risk":0,"arthritis_risk":5,"migraine_risk":10,"frizz_risk":1,"updated_at":"2026-06-30T10:36:17.539171+05:30"},{"city":"Dehradun","state":"Uttarakhand","latitude":30.6284,"longitude":78.0322,"temp":23.4,"humidity":78,"rain":0.1,"pressure":828.9,"uv_index":5.1,"wind_gusts":28.4,"aqi":67,"pm10":36.4,"pm2_5":18.6,"no2":1.2,"co":197.0,"o3":131.0,"so2":3.9,"mosquito_risk":6,"arthritis_risk":5,"migraine_risk":3,"frizz_risk":1,"updated_at":"2026-06-30T10:36:17.539178+05:30"},{"city":"Shimla","state":"Himachal Pradesh","latitude":31.1048,"longitude":77.1734,"temp":23.3,"humidity":58,"rain":0.0,"pressure":785.2,"uv_index":4.35,"wind_gusts":37.1,"aqi":90,"pm10":61.7,"pm2_5":27.6,"no2":1.4,"co":185.0,"o3":135.0,"so2":5.0,"mosquito_risk":0,"arthritis_risk":5,"migraine_risk":3,"frizz_risk":0,"updated_at":"2026-06-30T10:36:17.539186+05:30"},{"city":"Manali","state":"Himachal Pradesh","latitude":32.2396,"longitude":77.1887,"temp":25.1,"humidity":72,"rain":0.0,"pressure":818.8,"uv_index":7.9,"wind_gusts":32.4,"aqi":58,"pm10":10.7,"pm2_5":8.7,"no2":18.0,"co":215.0,"o3":92.0,"so2":0.9,"mosquito_risk":7,"arthritis_risk":5,"migraine_risk":7,"frizz_risk":1,"updated_at":"2026-06-30T10:36:17.539195+05:30"},{"city":"Gurgaon","state":"Haryana","latitude":28.4595,"longitude":77.0266,"temp":37.0,"humidity":39,"rain":0.0,"pressure":975.1,"uv_index":7.0,"wind_gusts":32.4,"aqi":624,"pm10":940.6,"pm2_5":149.5,"no2":10.6,"co":223.0,"o3":113.0,"so2":14.1,"mosquito_risk":0,"arthritis_risk":5,"migraine_risk":10,"frizz_risk":1,"updated_at":"2026-06-30T10:36:17.539203+05:30"},{"city":"Noida","state":"Uttar Pradesh","latitude":28.5355,"longitude":77.391,"temp":34.1,"humidity":59,"rain":0.0,"pressure":978.1,"uv_index":7.6,"wind_gusts":31.7,"aqi":624,"pm10":940.6,"pm2_5":149.5,"no2":10.6,"co":411.0,"o3":113.0,"so2":14.1,"mosquito_risk":0,"arthritis_risk":5,"migraine_risk":7,"frizz_risk":1,"updated_at":"2026-06-30T10:36:17.539210+05:30"},{"city":"Ghaziabad","state":"Uttar Pradesh","latitude":28.6692,"longitude":77.4538,"temp":33.6,"humidity":57,"rain":0.0,"pressure":976.4,"uv_index":7.4,"wind_gusts":30.6,"aqi":185,"pm10":268.2,"pm2_5":75.7,"no2":8.2,"co":421.0,"o3":156.0,"so2":19.3,"mosquito_risk":0,"arthritis_risk":5,"migraine_risk":7,"frizz_risk":1,"updated_at":"2026-06-30T10:36:17.539217+05:30"},{"city":"Faridabad","state":"Haryana","latitude":28.4089,"longitude":77.3178,"temp":35.8,"humidity":47,"rain":0.0,"pressure":977.2,"uv_index":7.6,"wind_gusts":29.9,"aqi":624,"pm10":940.6,"pm2_5":149.5,"no2":10.6,"co":300.0,"o3":113.0,"so2":14.1,"mosquito_risk":0,"arthritis_risk":5,"migraine_risk":10,"frizz_risk":1,"updated_at":"2026-06-30T10:36:17.539224+05:30"},{"city":"Meerut","state":"Uttar Pradesh","latitude":28.9845,"longitude":77.7064,"temp":31.2,"humidity":71,"rain":0.0,"pressure":975.5,"uv_index":7.1,"wind_gusts":39.2,"aqi":185,"pm10":268.2,"pm2_5":75.7,"no2":8.2,"co":301.0,"o3":156.0,"so2":19.3,"mosquito_risk":3,"arthritis_risk":5,"migraine_risk":7,"frizz_risk":1,"updated_at":"2026-06-30T10:36:17.539231+05:30"},{"city":"Agra","state":"Uttar Pradesh","latitude":27.1767,"longitude":78.0081,"temp":35.3,"humidity":49,"rain":0.0,"pressure":982.1,"uv_index":7.55,"wind_gusts":33.8,"aqi":250,"pm10":427.5,"pm2_5":63.3,"no2":4.4,"co":181.0,"o3":117.0,"so2":6.0,"mosquito_risk":0,"arthritis_risk":5,"migraine_risk":10,"frizz_risk":1,"updated_at":"2026-06-30T10:36:17.539238+05:30"},{"city":"Varanasi","state":"Uttar Pradesh","latitude":25.3176,"longitude":82.9739,"temp":34.8,"humidity":54,"rain":0.0,"pressure":992.5,"uv_index":8.05,"wind_gusts":25.9,"aqi":72,"pm10":36.0,"pm2_5":21.5,"no2":4.6,"co":436.0,"o3":120.0,"so2":7.5,"mosquito_risk":0,"arthritis_risk":5,"migraine_risk":7,"frizz_risk":1,"updated_at":"2026-06-30T10:36:17.539245+05:30"},{"city":"Prayagraj","state":"Uttar Pradesh","latitude":25.4358,"longitude":81.8463,"temp":35.0,"humidity":54,"rain":0.0,"pressure":990.5,"uv_index":8.2,"wind_gusts":32.0,"aqi":77,"pm10":45.6,"pm2_5":25.3,"no2":5.6,"co":186.0,"o3":123.0,"so2":8.7,"mosquito_risk":0,"arthritis_risk":5,"migraine_risk":7,"frizz_risk":1,"updated_at":"2026-06-30T10:36:17.539252+05:30"},{"city":"Gorakhpur","state":"Uttar Pradesh","latitude":26.7606,"longitude":83.3732,"temp":30.0,"humidity":75,"rain":0.0,"pressure":993.2,"uv_index":7.7,"wind_gusts":30.2,"aqi":98,"pm10":16.4,"pm2_5":13.5,"no2":5.1,"co":298.0,"o3":119.0,"so2":5.1,"mosquito_risk":7,"arthritis_risk":5,"migraine_risk":7,"frizz_risk":1,"updated_at":"2026-06-30T10:36:17.539260+05:30"},{"city":"Bareilly","state":"Uttar Pradesh","latitude":28.367,"longitude":79.4304,"temp":29.1,"humidity":83,"rain":0.0,"pressure":981.6,"uv_index":8.1,"wind_gusts":43.6,"aqi":122,"pm10":42.1,"pm2_5":20.0,"no2":4.9,"co":285.0,"o3":133.0,"so2":9.9,"mosquito_risk":7,"arthritis_risk":5,"migraine_risk":7,"frizz_risk":1,"updated_at":"2026-06-30T10:36:17.539268+05:30"},{"city":"Aligarh","state":"Uttar Pradesh","latitude":27.8974,"longitude":78.088,"temp":32.0,"humidity":64,"rain":0.0,"pressure":979.6,"uv_index":7.6,"wind_gusts":39.2,"aqi":331,"pm10":240.3,"pm2_5":66.8,"no2":5.5,"co":311.0,"o3":145.0,"so2":12.2,"mosquito_risk":3,"arthritis_risk":5,"migraine_risk":7,"frizz_risk":1,"updated_at":"2026-06-30T10:36:17.539275+05:30"},{"city":"Moradabad","state":"Uttar Pradesh","latitude":28.8386,"longitude":78.7733,"temp":27.2,"humidity":94,"rain":0.2,"pressure":978.5,"uv_index":6.65,"wind_gusts":37.8,"aqi":152,"pm10":92.0,"pm2_5":34.8,"no2":5.3,"co":276.0,"o3":141.0,"so2":11.1,"mosquito_risk":10,"arthritis_risk":5,"migraine_risk":7,"frizz_risk":1,"updated_at":"2026-06-30T10:36:17.539283+05:30"},{"city":"Saharanpur","state":"Uttar Pradesh","latitude":29.9637,"longitude":77.546,"temp":31.1,"humidity":72,"rain":0.0,"pressure":969.9,"uv_index":7.5,"wind_gusts":36.0,"aqi":154,"pm10":144.4,"pm2_5":57.0,"no2":3.6,"co":319.0,"o3":162.0,"so2":12.9,"mosquito_risk":3,"arthritis_risk":5,"migraine_risk":7,"frizz_risk":1,"updated_at":"2026-06-30T10:36:17.539290+05:30"},{"city":"Jhansi","state":"Uttar Pradesh","latitude":25.4484,"longitude":78.5685,"temp":35.9,"humidity":46,"rain":0.0,"pressure":973.3,"uv_index":7.35,"wind_gusts":41.0,"aqi":81,"pm10":31.4,"pm2_5":16.0,"no2":2.2,"co":180.0,"o3":98.0,"so2":5.5,"mosquito_risk":0,"arthritis_risk":5,"migraine_risk":10,"frizz_risk":1,"updated_at":"2026-06-30T10:36:20.779033+05:30"},{"city":"Surat","state":"Gujarat","latitude":21.1702,"longitude":72.8311,"temp":27.8,"humidity":83,"rain":0.0,"pressure":1004.1,"uv_index":4.5,"wind_gusts":43.9,"aqi":67,"pm10":26.6,"pm2_5":18.9,"no2":20.5,"co":330.0,"o3":39.0,"so2":50.8,"mosquito_risk":7,"arthritis_risk":5,"migraine_risk":0,"frizz_risk":1,"updated_at":"2026-06-30T10:36:20.779075+05:30"},{"city":"Vadodara","state":"Gujarat","latitude":22.3072,"longitude":73.1812,"temp":34.4,"humidity":51,"rain":0.0,"pressure":1000.3,"uv_index":6.2,"wind_gusts":51.1,"aqi":61,"pm10":35.6,"pm2_5":17.3,"no2":3.2,"co":151.0,"o3":74.0,"so2":5.1,"mosquito_risk":0,"arthritis_risk":5,"migraine_risk":4,"frizz_risk":1,"updated_at":"2026-06-30T10:36:20.779086+05:30"},{"city":"Rajkot","state":"Gujarat","latitude":22.3039,"longitude":70.8022,"temp":33.8,"humidity":51,"rain":0.0,"pressure":990.0,"uv_index":6.8,"wind_gusts":38.9,"aqi":54,"pm10":23.2,"pm2_5":11.9,"no2":1.7,"co":106.0,"o3":69.0,"so2":3.9,"mosquito_risk":0,"arthritis_risk":5,"migraine_risk":7,"frizz_risk":1,"updated_at":"2026-06-30T10:36:20.779095+05:30"},{"city":"Thane","state":"Maharashtra","latitude":19.2183,"longitude":72.9781,"temp":26.0,"humidity":97,"rain":0.2,"pressure":1006.1,"uv_index":1.05,"wind_gusts":26.3,"aqi":46,"pm10":15.7,"pm2_5":9.5,"no2":10.2,"co":407.0,"o3":53.0,"so2":8.9,"mosquito_risk":10,"arthritis_risk":5,"migraine_risk":0,"frizz_risk":1,"updated_at":"2026-06-30T10:36:20.779104+05:30"},{"city":"Nagpur","state":"Maharashtra","latitude":21.1458,"longitude":79.0882,"temp":27.7,"humidity":82,"rain":0.0,"pressure":970.3,"uv_index":4.5,"wind_gusts":38.5,"aqi":73,"pm10":17.6,"pm2_5":15.8,"no2":12.4,"co":208.0,"o3":78.0,"so2":19.8,"mosquito_risk":7,"arthritis_risk":5,"migraine_risk":3,"frizz_risk":1,"updated_at":"2026-06-30T10:36:20.779113+05:30"},{"city":"Nashik","state":"Maharashtra","latitude":19.9975,"longitude":73.7898,"temp":27.1,"humidity":74,"rain":0.0,"pressure":943.6,"uv_index":6.85,"wind_gusts":43.2,"aqi":37,"pm10":4.3,"pm2_5":2.7,"no2":3.8,"co":126.0,"o3":56.0,"so2":5.1,"mosquito_risk":7,"arthritis_risk":5,"migraine_risk":7,"frizz_risk":1,"updated_at":"2026-06-30T10:36:20.779122+05:30"},{"city":"Aurangabad","state":"Maharashtra","latitude":19.8762,"longitude":75.3433,"temp":28.3,"humidity":63,"rain":0.0,"pressure":942.4,"uv_index":5.55,"wind_gusts":49.3,"aqi":45,"pm10":13.2,"pm2_5":8.2,"no2":3.6,"co":125.0,"o3":71.0,"so2":9.3,"mosquito_risk":7,"arthritis_risk":5,"migraine_risk":3,"frizz_risk":1,"updated_at":"2026-06-30T10:36:20.779132+05:30"},{"city":"Solapur","state":"Maharashtra","latitude":17.6599,"longitude":75.9064,"temp":28.7,"humidity":67,"rain":0.0,"pressure":955.9,"uv_index":7.2,"wind_gusts":52.2,"aqi":19,"pm10":2.0,"pm2_5":1.9,"no2":1.7,"co":118.0,"o3":60.0,"so2":1.4,"mosquito_risk":7,"arthritis_risk":5,"migraine_risk":7,"frizz_risk":1,"updated_at":"2026-06-30T10:36:20.779139+05:30"},{"city":"Kolhapur","state":"Maharashtra","latitude":16.705,"longitude":74.2433,"temp":25.9,"humidity":77,"rain":0.0,"pressure":947.2,"uv_index":7.55,"wind_gusts":50.4,"aqi":21,"pm10":3.1,"pm2_5":2.9,"no2":3.5,"co":133.0,"o3":51.0,"so2":1.6,"mosquito_risk":7,"arthritis_risk":5,"migraine_risk":7,"frizz_risk":1,"updated_at":"2026-06-30T10:36:20.779147+05:30"},{"city":"Goa","state":"Goa","latitude":15.2993,"longitude":74.124,"temp":25.7,"humidity":94,"rain":0.0,"pressure":998.7,"uv_index":2.85,"wind_gusts":30.6,"aqi":30,"pm10":14.3,"pm2_5":8.0,"no2":1.7,"co":197.0,"o3":54.0,"so2":0.5,"mosquito_risk":7,"arthritis_risk":5,"migraine_risk":3,"frizz_risk":1,"updated_at":"2026-06-30T10:36:20.779155+05:30"},{"city":"Jodhpur","state":"Rajasthan","latitude":26.2389,"longitude":73.0243,"temp":33.2,"humidity":48,"rain":0.0,"pressure":978.0,"uv_index":8.4,"wind_gusts":46.8,"aqi":154,"pm10":257.0,"pm2_5":56.1,"no2":1.1,"co":112.0,"o3":69.0,"so2":2.5,"mosquito_risk":0,"arthritis_risk":5,"migraine_risk":7,"frizz_risk":1,"updated_at":"2026-06-30T10:36:20.779162+05:30"},{"city":"Udaipur","state":"Rajasthan","latitude":24.5854,"longitude":73.7125,"temp":29.7,"humidity":61,"rain":0.0,"pressure":942.8,"uv_index":8.9,"wind_gusts":36.7,"aqi":55,"pm10":34.3,"pm2_5":15.3,"no2":1.0,"co":113.0,"o3":70.0,"so2":2.3,"mosquito_risk":7,"arthritis_risk":5,"migraine_risk":7,"frizz_risk":1,"updated_at":"2026-06-30T10:36:20.779169+05:30"},{"city":"Kota","state":"Rajasthan","latitude":25.2138,"longitude":75.8648,"temp":34.7,"humidity":50,"rain":0.0,"pressure":974.1,"uv_index":8.35,"wind_gusts":36.4,"aqi":66,"pm10":27.0,"pm2_5":18.9,"no2":3.2,"co":150.0,"o3":96.0,"so2":8.4,"mosquito_risk":0,"arthritis_risk":5,"migraine_risk":7,"frizz_risk":1,"updated_at":"2026-06-30T10:36:20.779176+05:30"},{"city":"Bikaner","state":"Rajasthan","latitude":28.0229,"longitude":73.3119,"temp":36.2,"humidity":37,"rain":0.0,"pressure":975.3,"uv_index":8.5,"wind_gusts":41.8,"aqi":160,"pm10":261.7,"pm2_5":90.3,"no2":0.6,"co":108.0,"o3":70.0,"so2":2.2,"mosquito_risk":0,"arthritis_risk":5,"migraine_risk":10,"frizz_risk":1,"updated_at":"2026-06-30T10:36:20.779183+05:30"},{"city":"Ajmer","state":"Rajasthan","latitude":26.4499,"longitude":74.6399,"temp":32.0,"humidity":53,"rain":0.0,"pressure":950.4,"uv_index":8.35,"wind_gusts":49.0,"aqi":73,"pm10":81.5,"pm2_5":32.9,"no2":1.2,"co":121.0,"o3":80.0,"so2":2.9,"mosquito_risk":0,"arthritis_risk":5,"migraine_risk":7,"frizz_risk":1,"updated_at":"2026-06-30T10:36:20.779190+05:30"},{"city":"Gwalior","state":"Madhya Pradesh","latitude":26.2183,"longitude":78.1828,"temp":33.8,"humidity":54,"rain":0.0,"pressure":978.0,"uv_index":7.0,"wind_gusts":38.5,"aqi":88,"pm10":58.9,"pm2_5":21.1,"no2":2.0,"co":164.0,"o3":100.0,"so2":3.9,"mosquito_risk":0,"arthritis_risk":5,"migraine_risk":7,"frizz_risk":1,"updated_at":"2026-06-30T10:36:20.779196+05:30"},{"city":"Indore","state":"Madhya Pradesh","latitude":22.7196,"longitude":75.8577,"temp":28.9,"humidity":72,"rain":0.0,"pressure":945.3,"uv_index":6.15,"wind_gusts":43.6,"aqi":66,"pm10":27.4,"pm2_5":17.5,"no2":4.5,"co":201.0,"o3":67.0,"so2":7.0,"mosquito_risk":7,"arthritis_risk":5,"migraine_risk":7,"frizz_risk":1,"updated_at":"2026-06-30T10:36:20.779204+05:30"},{"city":"Bhopal","state":"Madhya Pradesh","latitude":23.2599,"longitude":77.4126,"temp":25.1,"humidity":95,"rain":0.3,"pressure":950.8,"uv_index":8.6,"wind_gusts":36.4,"aqi":70,"pm10":29.7,"pm2_5":18.7,"no2":2.6,"co":195.0,"o3":100.0,"so2":6.1,"mosquito_risk":10,"arthritis_risk":5,"migraine_risk":7,"frizz_risk":1,"updated_at":"2026-06-30T10:36:20.779210+05:30"},{"city":"Jabalpur","state":"Madhya Pradesh","latitude":23.1815,"longitude":79.9864,"temp":31.2,"humidity":64,"rain":0.0,"pressure":958.2,"uv_index":5.25,"wind_gusts":40.0,"aqi":62,"pm10":31.9,"pm2_5":16.2,"no2":2.1,"co":171.0,"o3":103.0,"so2":3.1,"mosquito_risk":3,"arthritis_risk":5,"migraine_risk":3,"frizz_risk":1,"updated_at":"2026-06-30T10:36:20.779218+05:30"},{"city":"Ujjain","state":"Madhya Pradesh","latitude":23.1765,"longitude":75.7885,"temp":30.2,"humidity":68,"rain":0.0,"pressure":950.8,"uv_index":6.95,"wind_gusts":43.2,"aqi":64,"pm10":27.8,"pm2_5":17.4,"no2":3.3,"co":166.0,"o3":72.0,"so2":8.1,"mosquito_risk":3,"arthritis_risk":5,"migraine_risk":7,"frizz_risk":1,"updated_at":"2026-06-30T10:36:20.779225+05:30"},{"city":"Visakhapatnam","state":"Andhra Pradesh","latitude":17.6868,"longitude":83.2185,"temp":33.2,"humidity":61,"rain":0.0,"pressure":998.8,"uv_index":8.7,"wind_gusts":37.4,"aqi":62,"pm10":20.7,"pm2_5":19.7,"no2":19.1,"co":501.0,"o3":88.0,"so2":46.9,"mosquito_risk":3,"arthritis_risk":5,"migraine_risk":7,"frizz_risk":1,"updated_at":"2026-06-30T10:36:20.779233+05:30"},{"city":"Vijayawada","state":"Andhra Pradesh","latitude":16.5062,"longitude":80.648,"temp":32.3,"humidity":58,"rain":0.0,"pressure":999.5,"uv_index":6.25,"wind_gusts":42.1,"aqi":52,"pm10":6.7,"pm2_5":5.6,"no2":3.1,"co":150.0,"o3":70.0,"so2":5.6,"mosquito_risk":0,"arthritis_risk":5,"migraine_risk":7,"frizz_risk":1,"updated_at":"2026-06-30T10:36:20.779239+05:30"},{"city":"Guntur","state":"Andhra Pradesh","latitude":16.3067,"longitude":80.4365,"temp":32.6,"humidity":56,"rain":0.0,"pressure":1000.8,"uv_index":6.45,"wind_gusts":46.1,"aqi":47,"pm10":6.7,"pm2_5":5.2,"no2":2.8,"co":150.0,"o3":68.0,"so2":5.1,"mosquito_risk":0,"arthritis_risk":5,"migraine_risk":4,"frizz_risk":1,"updated_at":"2026-06-30T10:36:20.779247+05:30"},{"city":"Nellore","state":"Andhra Pradesh","latitude":14.4426,"longitude":79.9865,"temp":33.3,"humidity":50,"rain":0.0,"pressure":1003.7,"uv_index":7.55,"wind_gusts":54.0,"aqi":32,"pm10":4.5,"pm2_5":3.6,"no2":2.3,"co":112.0,"o3":73.0,"so2":4.4,"mosquito_risk":0,"arthritis_risk":5,"migraine_risk":4,"frizz_risk":1,"updated_at":"2026-06-30T10:36:20.779254+05:30"},{"city":"Kurnool","state":"Andhra Pradesh","latitude":15.8281,"longitude":78.0373,"temp":29.8,"humidity":59,"rain":0.0,"pressure":976.1,"uv_index":7.05,"wind_gusts":55.4,"aqi":20,"pm10":2.8,"pm2_5":2.2,"no2":2.2,"co":115.0,"o3":58.0,"so2":2.2,"mosquito_risk":4,"arthritis_risk":5,"migraine_risk":7,"frizz_risk":1,"updated_at":"2026-06-30T10:36:20.779263+05:30"},{"city":"Kakinada","state":"Andhra Pradesh","latitude":16.9891,"longitude":82.2475,"temp":32.3,"humidity":64,"rain":0.0,"pressure":1003.4,"uv_index":8.35,"wind_gusts":45.7,"aqi":47,"pm10":9.7,"pm2_5":9.2,"no2":4.0,"co":194.0,"o3":92.0,"so2":5.7,"mosquito_risk":3,"arthritis_risk":5,"migraine_risk":4,"frizz_risk":1,"updated_at":"2026-06-30T10:36:20.779270+05:30"},{"city":"Tirupati","state":"Andhra Pradesh","latitude":13.6288,"longitude":79.4192,"temp":33.4,"humidity":47,"rain":0.0,"pressure":989.8,"uv_index":8.1,"wind_gusts":47.9,"aqi":22,"pm10":4.0,"pm2_5":3.0,"no2":1.9,"co":120.0,"o3":64.0,"so2":1.2,"mosquito_risk":0,"arthritis_risk":5,"migraine_risk":7,"frizz_risk":1,"updated_at":"2026-06-30T10:36:20.779277+05:30"},{"city":"Warangal","state":"Telangana","latitude":17.9689,"longitude":79.5941,"temp":31.6,"humidity":58,"rain":0.0,"pressure":976.0,"uv_index":3.35,"wind_gusts":37.8,"aqi":44,"pm10":11.0,"pm2_5":8.9,"no2":2.7,"co":159.0,"o3":86.0,"so2":3.8,"mosquito_risk":0,"arthritis_risk":5,"migraine_risk":3,"frizz_risk":1,"updated_at":"2026-06-30T10:36:20.779284+05:30"},{"city":"Nizamabad","state":"Telangana","latitude":18.6725,"longitude":78.0941,"temp":30.1,"humidity":61,"rain":0.0,"pressure":962.9,"uv_index":2.95,"wind_gusts":38.2,"aqi":54,"pm10":25.2,"pm2_5":15.3,"no2":3.7,"co":142.0,"o3":81.0,"so2":7.0,"mosquito_risk":3,"arthritis_risk":5,"migraine_risk":3,"frizz_risk":1,"updated_at":"2026-06-30T10:36:20.779291+05:30"},{"city":"Mysore","state":"Karnataka","latitude":12.2958,"longitude":76.6396,"temp":26.2,"humidity":67,"rain":0.0,"pressure":929.7,"uv_index":6.55,"wind_gusts":55.8,"aqi":20,"pm10":3.3,"pm2_5":2.2,"no2":2.3,"co":121.0,"o3":59.0,"so2":1.2,"mosquito_risk":7,"arthritis_risk":5,"migraine_risk":7,"frizz_risk":1,"updated_at":"2026-06-30T10:36:20.779298+05:30"},{"city":"Mangalore","state":"Karnataka","latitude":12.9141,"longitude":74.856,"temp":26.3,"humidity":88,"rain":0.0,"pressure":1009.0,"uv_index":5.95,"wind_gusts":48.2,"aqi":31,"pm10":13.9,"pm2_5":7.9,"no2":3.7,"co":152.0,"o3":43.0,"so2":1.2,"mosquito_risk":7,"arthritis_risk":0,"migraine_risk":0,"frizz_risk":1,"updated_at":"2026-06-30T10:36:20.779305+05:30"},{"city":"Hubli-Dharwad","state":"Karnataka","latitude":15.3647,"longitude":75.124,"temp":26.4,"humidity":73,"rain":0.0,"pressure":940.7,"uv_index":6.55,"wind_gusts":60.1,"aqi":21,"pm10":1.7,"pm2_5":1.4,"no2":3.1,"co":110.0,"o3":51.0,"so2":0.8,"mosquito_risk":7,"arthritis_risk":5,"migraine_risk":7,"frizz_risk":1,"updated_at":"2026-06-30T10:36:20.779313+05:30"},{"city":"Belgaum","state":"Karnataka","latitude":15.8497,"longitude":74.4977,"temp":24.9,"humidity":78,"rain":0.1,"pressure":925.5,"uv_index":6.0,"wind_gusts":58.0,"aqi":21,"pm10":2.5,"pm2_5":2.0,"no2":3.0,"co":125.0,"o3":50.0,"so2":1.1,"mosquito_risk":6,"arthritis_risk":5,"migraine_risk":3,"frizz_risk":1,"updated_at":"2026-06-30T10:36:24.018179+05:30"},{"city":"Coimbatore","state":"Tamil Nadu","latitude":11.0168,"longitude":76.9558,"temp":30.3,"humidity":55,"rain":0.0,"pressure":962.6,"uv_index":8.2,"wind_gusts":61.2,"aqi":19,"pm10":9.0,"pm2_5":5.2,"no2":2.0,"co":148.0,"o3":62.0,"so2":1.9,"mosquito_risk":0,"arthritis_risk":5,"migraine_risk":7,"frizz_risk":1,"updated_at":"2026-06-30T10:36:24.018218+05:30"},{"city":"Madurai","state":"Tamil Nadu","latitude":9.9252,"longitude":78.1198,"temp":33.8,"humidity":43,"rain":0.0,"pressure":993.5,"uv_index":7.4,"wind_gusts":35.3,"aqi":56,"pm10":18.5,"pm2_5":11.1,"no2":3.3,"co":172.0,"o3":89.0,"so2":4.0,"mosquito_risk":0,"arthritis_risk":5,"migraine_risk":7,"frizz_risk":1,"updated_at":"2026-06-30T10:36:24.018230+05:30"},{"city":"Trichy","state":"Tamil Nadu","latitude":10.7905,"longitude":78.7047,"temp":33.2,"humidity":48,"rain":0.0,"pressure":999.8,"uv_index":8.15,"wind_gusts":63.7,"aqi":21,"pm10":11.2,"pm2_5":6.3,"no2":1.9,"co":117.0,"o3":69.0,"so2":2.1,"mosquito_risk":0,"arthritis_risk":5,"migraine_risk":7,"frizz_risk":1,"updated_at":"2026-06-30T10:36:24.018239+05:30"},{"city":"Salem","state":"Tamil Nadu","latitude":11.6643,"longitude":78.146,"temp":29.9,"humidity":63,"rain":0.0,"pressure":978.2,"uv_index":7.3,"wind_gusts":36.0,"aqi":40,"pm10":11.2,"pm2_5":7.7,"no2":4.1,"co":202.0,"o3":77.0,"so2":6.8,"mosquito_risk":7,"arthritis_risk":5,"migraine_risk":7,"frizz_risk":1,"updated_at":"2026-06-30T10:36:24.018247+05:30"},{"city":"Tirunelveli","state":"Tamil Nadu","latitude":8.7139,"longitude":77.7567,"temp":34.6,"humidity":43,"rain":0.0,"pressure":1004.1,"uv_index":8.6,"wind_gusts":46.1,"aqi":24,"pm10":10.6,"pm2_5":5.6,"no2":1.7,"co":117.0,"o3":57.0,"so2":1.2,"mosquito_risk":0,"arthritis_risk":5,"migraine_risk":4,"frizz_risk":1,"updated_at":"2026-06-30T10:36:24.018255+05:30"},{"city":"Vellore","state":"Tamil Nadu","latitude":12.9165,"longitude":79.1325,"temp":32.0,"humidity":52,"rain":0.0,"pressure":983.7,"uv_index":8.35,"wind_gusts":49.3,"aqi":22,"pm10":3.5,"pm2_5":3.3,"no2":2.2,"co":144.0,"o3":74.0,"so2":2.5,"mosquito_risk":0,"arthritis_risk":5,"migraine_risk":7,"frizz_risk":1,"updated_at":"2026-06-30T10:36:24.018262+05:30"},{"city":"Erode","state":"Tamil Nadu","latitude":11.341,"longitude":77.7172,"temp":33.3,"humidity":45,"rain":0.0,"pressure":989.7,"uv_index":8.2,"wind_gusts":46.1,"aqi":38,"pm10":11.7,"pm2_5":7.6,"no2":3.4,"co":161.0,"o3":73.0,"so2":2.7,"mosquito_risk":0,"arthritis_risk":5,"migraine_risk":7,"frizz_risk":1,"updated_at":"2026-06-30T10:36:24.018270+05:30"},{"city":"Kochi","state":"Kerala","latitude":9.9312,"longitude":76.2673,"temp":27.5,"humidity":82,"rain":0.0,"pressure":1011.9,"uv_index":7.95,"wind_gusts":42.1,"aqi":39,"pm10":13.9,"pm2_5":8.1,"no2":3.4,"co":145.0,"o3":57.0,"so2":3.1,"mosquito_risk":7,"arthritis_risk":0,"migraine_risk":4,"frizz_risk":1,"updated_at":"2026-06-30T10:36:24.018278+05:30"},{"city":"Thiruvananthapuram","state":"Kerala","latitude":8.5241,"longitude":76.9366,"temp":27.3,"humidity":81,"rain":0.1,"pressure":1010.9,"uv_index":8.35,"wind_gusts":50.0,"aqi":31,"pm10":15.2,"pm2_5":9.4,"no2":2.1,"co":109.0,"o3":64.0,"so2":2.0,"mosquito_risk":10,"arthritis_risk":0,"migraine_risk":4,"frizz_risk":1,"updated_at":"2026-06-30T10:36:24.018286+05:30"},{"city":"Kozhikode","state":"Kerala","latitude":11.2588,"longitude":75.7804,"temp":27.4,"humidity":82,"rain":0.0,"pressure":1010.7,"uv_index":7.8,"wind_gusts":41.0,"aqi":23,"pm10":15.9,"pm2_5":7.5,"no2":0.8,"co":158.0,"o3":55.0,"so2":0.7,"mosquito_risk":7,"arthritis_risk":0,"migraine_risk":4,"frizz_risk":1,"updated_at":"2026-06-30T10:36:24.018294+05:30"},{"city":"Thrissur","state":"Kerala","latitude":10.5276,"longitude":76.2144,"temp":27.7,"humidity":84,"rain":0.0,"pressure":1009.8,"uv_index":8.0,"wind_gusts":40.3,"aqi":36,"pm10":12.1,"pm2_5":6.7,"no2":2.1,"co":129.0,"o3":59.0,"so2":2.0,"mosquito_risk":7,"arthritis_risk":0,"migraine_risk":4,"frizz_risk":1,"updated_at":"2026-06-30T10:36:24.018304+05:30"},{"city":"Kannur","state":"Kerala","latitude":11.8745,"longitude":75.3704,"temp":27.6,"humidity":82,"rain":0.1,"pressure":1009.9,"uv_index":8.15,"wind_gusts":43.2,"aqi":26,"pm10":13.2,"pm2_5":7.4,"no2":3.4,"co":152.0,"o3":49.0,"so2":1.3,"mosquito_risk":10,"arthritis_risk":0,"migraine_risk":4,"frizz_risk":1,"updated_at":"2026-06-30T10:36:24.018312+05:30"},{"city":"Patna","state":"Bihar","latitude":25.5941,"longitude":85.1376,"temp":30.0,"humidity":78,"rain":0.0,"pressure":996.4,"uv_index":8.25,"wind_gusts":31.0,"aqi":103,"pm10":20.1,"pm2_5":19.2,"no2":5.2,"co":301.0,"o3":149.0,"so2":15.0,"mosquito_risk":7,"arthritis_risk":5,"migraine_risk":7,"frizz_risk":1,"updated_at":"2026-06-30T10:36:24.018319+05:30"},{"city":"Gaya","state":"Bihar","latitude":24.7914,"longitude":85.0002,"temp":32.1,"humidity":68,"rain":0.0,"pressure":989.5,"uv_index":8.15,"wind_gusts":24.1,"aqi":90,"pm10":28.1,"pm2_5":26.5,"no2":3.5,"co":216.0,"o3":158.0,"so2":12.2,"mosquito_risk":3,"arthritis_risk":5,"migraine_risk":7,"frizz_risk":1,"updated_at":"2026-06-30T10:36:24.018326+05:30"},{"city":"Muzaffarpur","state":"Bihar","latitude":26.1209,"longitude":85.3647,"temp":28.8,"humidity":82,"rain":0.2,"pressure":996.6,"uv_index":8.45,"wind_gusts":29.5,"aqi":103,"pm10":16.1,"pm2_5":15.0,"no2":5.1,"co":274.0,"o3":142.0,"so2":12.0,"mosquito_risk":10,"arthritis_risk":5,"migraine_risk":7,"frizz_risk":1,"updated_at":"2026-06-30T10:36:24.018333+05:30"},{"city":"Bhagalpur","state":"Bihar","latitude":25.2425,"longitude":87.0117,"temp":30.7,"humidity":73,"rain":0.0,"pressure":997.3,"uv_index":7.55,"wind_gusts":22.7,"aqi":124,"pm10":21.6,"pm2_5":20.6,"no2":7.4,"co":325.0,"o3":142.0,"so2":22.7,"mosquito_risk":3,"arthritis_risk":5,"migraine_risk":7,"frizz_risk":1,"updated_at":"2026-06-30T10:36:24.018339+05:30"},{"city":"Ranchi","state":"Jharkhand","latitude":23.3441,"longitude":85.3096,"temp":28.1,"humidity":74,"rain":0.1,"pressure":934.4,"uv_index":8.9,"wind_gusts":26.6,"aqi":93,"pm10":32.5,"pm2_5":31.2,"no2":2.2,"co":213.0,"o3":148.0,"so2":14.9,"mosquito_risk":10,"arthritis_risk":5,"migraine_risk":7,"frizz_risk":1,"updated_at":"2026-06-30T10:36:24.018346+05:30"},{"city":"Jamshedpur","state":"Jharkhand","latitude":22.8046,"longitude":86.2029,"temp":32.1,"humidity":68,"rain":0.0,"pressure":986.4,"uv_index":8.5,"wind_gusts":25.2,"aqi":151,"pm10":41.1,"pm2_5":40.2,"no2":7.1,"co":266.0,"o3":172.0,"so2":33.2,"mosquito_risk":3,"arthritis_risk":5,"migraine_risk":7,"frizz_risk":1,"updated_at":"2026-06-30T10:36:24.018353+05:30"},{"city":"Dhanbad","state":"Jharkhand","latitude":23.7957,"longitude":86.4304,"temp":30.3,"humidity":74,"rain":0.0,"pressure":975.8,"uv_index":8.4,"wind_gusts":23.0,"aqi":163,"pm10":50.3,"pm2_5":49.5,"no2":27.4,"co":245.0,"o3":152.0,"so2":77.0,"mosquito_risk":3,"arthritis_risk":5,"migraine_risk":7,"frizz_risk":1,"updated_at":"2026-06-30T10:36:24.018360+05:30"},{"city":"Bokaro","state":"Jharkhand","latitude":23.6693,"longitude":86.1511,"temp":29.7,"humidity":73,"rain":0.0,"pressure":979.7,"uv_index":8.85,"wind_gusts":22.7,"aqi":154,"pm10":38.4,"pm2_5":37.4,"no2":17.7,"co":251.0,"o3":146.0,"so2":57.1,"mosquito_risk":7,"arthritis_risk":5,"migraine_risk":7,"frizz_risk":1,"updated_at":"2026-06-30T10:36:24.018367+05:30"},{"city":"Bhubaneswar","state":"Odisha","latitude":20.2961,"longitude":85.8245,"temp":31.1,"humidity":73,"rain":0.0,"pressure":998.3,"uv_index":7.3,"wind_gusts":31.0,"aqi":78,"pm10":21.0,"pm2_5":20.2,"no2":5.5,"co":266.0,"o3":128.0,"so2":11.7,"mosquito_risk":3,"arthritis_risk":5,"migraine_risk":7,"frizz_risk":1,"updated_at":"2026-06-30T10:36:24.018373+05:30"},{"city":"Cuttack","state":"Odisha","latitude":20.4625,"longitude":85.8828,"temp":31.9,"humidity":71,"rain":0.0,"pressure":999.9,"uv_index":8.05,"wind_gusts":33.1,"aqi":78,"pm10":21.0,"pm2_5":20.2,"no2":5.5,"co":244.0,"o3":128.0,"so2":11.7,"mosquito_risk":3,"arthritis_risk":5,"migraine_risk":7,"frizz_risk":1,"updated_at":"2026-06-30T10:36:24.018380+05:30"},{"city":"Rourkela","state":"Odisha","latitude":22.2604,"longitude":84.8536,"temp":31.3,"humidity":66,"rain":0.0,"pressure":981.1,"uv_index":8.8,"wind_gusts":30.6,"aqi":96,"pm10":29.6,"pm2_5":28.5,"no2":4.6,"co":270.0,"o3":153.0,"so2":23.1,"mosquito_risk":3,"arthritis_risk":5,"migraine_risk":7,"frizz_risk":1,"updated_at":"2026-06-30T10:36:24.018387+05:30"},{"city":"Raipur","state":"Chhattisgarh","latitude":21.2514,"longitude":81.6296,"temp":30.8,"humidity":67,"rain":0.0,"pressure":971.1,"uv_index":4.9,"wind_gusts":38.5,"aqi":91,"pm10":19.1,"pm2_5":17.4,"no2":19.4,"co":245.0,"o3":86.0,"so2":45.0,"mosquito_risk":3,"arthritis_risk":5,"migraine_risk":3,"frizz_risk":1,"updated_at":"2026-06-30T10:36:24.018395+05:30"},{"city":"Bhilai","state":"Chhattisgarh","latitude":21.1938,"longitude":81.3509,"temp":32.1,"humidity":59,"rain":0.0,"pressure":971.6,"uv_index":2.9,"wind_gusts":37.8,"aqi":86,"pm10":17.8,"pm2_5":15.8,"no2":16.5,"co":444.0,"o3":87.0,"so2":38.6,"mosquito_risk":0,"arthritis_risk":5,"migraine_risk":3,"frizz_risk":1,"updated_at":"2026-06-30T10:36:24.018401+05:30"},{"city":"Guwahati","state":"Assam","latitude":26.1158,"longitude":91.7086,"temp":30.8,"humidity":74,"rain":0.0,"pressure":997.2,"uv_index":7.0,"wind_gusts":19.1,"aqi":55,"pm10":10.2,"pm2_5":9.8,"no2":1.6,"co":282.0,"o3":115.0,"so2":2.1,"mosquito_risk":3,"arthritis_risk":5,"migraine_risk":7,"frizz_risk":1,"updated_at":"2026-06-30T10:36:24.018408+05:30"},{"city":"Agartala","state":"Tripura","latitude":23.8315,"longitude":91.2868,"temp":31.0,"humidity":72,"rain":0.0,"pressure":1001.6,"uv_index":6.95,"wind_gusts":27.4,"aqi":54,"pm10":7.3,"pm2_5":6.5,"no2":2.8,"co":182.0,"o3":99.0,"so2":1.5,"mosquito_risk":3,"arthritis_risk":5,"migraine_risk":4,"frizz_risk":1,"updated_at":"2026-06-30T10:36:24.018416+05:30"},{"city":"Shillong","state":"Meghalaya","latitude":25.5788,"longitude":91.8933,"temp":21.6,"humidity":94,"rain":0.2,"pressure":854.9,"uv_index":7.2,"wind_gusts":20.9,"aqi":34,"pm10":4.8,"pm2_5":4.6,"no2":1.5,"co":224.0,"o3":99.0,"so2":1.9,"mosquito_risk":6,"arthritis_risk":5,"migraine_risk":7,"frizz_risk":1,"updated_at":"2026-06-30T10:36:24.018425+05:30"},{"city":"Imphal","state":"Manipur","latitude":24.817,"longitude":93.9368,"temp":27.8,"humidity":73,"rain":0.0,"pressure":920.5,"uv_index":7.35,"wind_gusts":19.4,"aqi":37,"pm10":3.8,"pm2_5":3.5,"no2":2.1,"co":188.0,"o3":70.0,"so2":1.1,"mosquito_risk":7,"arthritis_risk":5,"migraine_risk":7,"frizz_risk":1,"updated_at":"2026-06-30T10:36:24.018434+05:30"},{"city":"Aizawl","state":"Mizoram","latitude":23.7271,"longitude":92.7176,"temp":26.1,"humidity":69,"rain":0.0,"pressure":890.3,"uv_index":7.45,"wind_gusts":21.2,"aqi":26,"pm10":3.8,"pm2_5":3.3,"no2":0.4,"co":124.0,"o3":81.0,"so2":0.5,"mosquito_risk":7,"arthritis_risk":5,"migraine_risk":7,"frizz_risk":1,"updated_at":"2026-06-30T10:36:24.018440+05:30"},{"city":"Kohima","state":"Nagaland","latitude":25.6701,"longitude":94.1077,"temp":23.2,"humidity":86,"rain":0.0,"pressure":854.2,"uv_index":7.35,"wind_gusts":19.4,"aqi":23,"pm10":5.2,"pm2_5":4.6,"no2":1.6,"co":154.0,"o3":72.0,"so2":0.7,"mosquito_risk":3,"arthritis_risk":5,"migraine_risk":7,"frizz_risk":1,"updated_at":"2026-06-30T10:36:24.018446+05:30"},{"city":"Gangtok","state":"Sikkim","latitude":27.3314,"longitude":88.6138,"temp":19.8,"humidity":99,"rain":0.1,"pressure":836.6,"uv_index":6.15,"wind_gusts":27.0,"aqi":48,"pm10":6.8,"pm2_5":6.2,"no2":2.8,"co":272.0,"o3":111.0,"so2":1.7,"mosquito_risk":6,"arthritis_risk":10,"migraine_risk":7,"frizz_risk":1,"updated_at":"2026-06-30T10:36:24.018453+05:30"},{"city":"Siliguri","state":"West Bengal","latitude":26.7271,"longitude":88.3953,"temp":29.6,"humidity":76,"rain":0.0,"pressure":989.8,"uv_index":6.15,"wind_gusts":23.0,"aqi":60,"pm10":15.8,"pm2_5":14.5,"no2":3.3,"co":379.0,"o3":134.0,"so2":4.4,"mosquito_risk":7,"arthritis_risk":5,"migraine_risk":7,"frizz_risk":1,"updated_at":"2026-06-30T10:36:27.264544+05:30"},{"city":"Durgapur","state":"West Bengal","latitude":23.5204,"longitude":87.3119,"temp":28.7,"humidity":83,"rain":0.0,"pressure":990.8,"uv_index":9.0,"wind_gusts":28.8,"aqi":172,"pm10":82.4,"pm2_5":81.5,"no2":30.5,"co":631.0,"o3":152.0,"so2":89.5,"mosquito_risk":7,"arthritis_risk":5,"migraine_risk":7,"frizz_risk":1,"updated_at":"2026-06-30T10:36:27.264583+05:30"},{"city":"Asansol","state":"West Bengal","latitude":23.6739,"longitude":86.9524,"temp":30.3,"humidity":81,"rain":0.0,"pressure":989.4,"uv_index":8.8,"wind_gusts":26.6,"aqi":164,"pm10":60.1,"pm2_5":59.4,"no2":30.7,"co":622.0,"o3":148.0,"so2":82.2,"mosquito_risk":3,"arthritis_risk":5,"migraine_risk":7,"frizz_risk":1,"updated_at":"2026-06-30T10:36:27.264595+05:30"},{"city":"Pondicherry","state":"Puducherry","latitude":11.9139,"longitude":79.8145,"temp":33.5,"humidity":47,"rain":0.0,"pressure":1007.6,"uv_index":8.1,"wind_gusts":46.1,"aqi":46,"pm10":10.2,"pm2_5":7.9,"no2":4.1,"co":201.0,"o3":81.0,"so2":6.9,"mosquito_risk":0,"arthritis_risk":5,"migraine_risk":4,"frizz_risk":1,"updated_at":"2026-06-30T10:36:27.264603+05:30"},{"city":"Port Blair","state":"Andaman and Nicobar Islands","latitude":11.6234,"longitude":92.7265,"temp":29.4,"humidity":76,"rain":0.1,"pressure":1006.8,"uv_index":7.95,"wind_gusts":43.2,"aqi":28,"pm10":10.6,"pm2_5":6.1,"no2":0.2,"co":88.0,"o3":56.0,"so2":0.3,"mosquito_risk":10,"arthritis_risk":5,"migraine_risk":4,"frizz_risk":1,"updated_at":"2026-06-30T10:36:27.264612+05:30"},{"city":"Haridwar","state":"Uttarakhand","latitude":29.9457,"longitude":78.1642,"temp":30.8,"humidity":71,"rain":0.0,"pressure":968.6,"uv_index":7.05,"wind_gusts":42.5,"aqi":140,"pm10":149.0,"pm2_5":58.6,"no2":2.8,"co":264.0,"o3":167.0,"so2":13.9,"mosquito_risk":3,"arthritis_risk":5,"migraine_risk":7,"frizz_risk":1,"updated_at":"2026-06-30T10:36:27.264620+05:30"},{"city":"Rishikesh","state":"Uttarakhand","latitude":30.0869,"longitude":78.2676,"temp":30.3,"humidity":74,"rain":0.1,"pressure":961.3,"uv_index":6.9,"wind_gusts":32.4,"aqi":123,"pm10":154.1,"pm2_5":58.1,"no2":1.7,"co":241.0,"o3":161.0,"so2":12.1,"mosquito_risk":6,"arthritis_risk":5,"migraine_risk":7,"frizz_risk":1,"updated_at":"2026-06-30T10:36:27.264629+05:30"},{"city":"Nainital","state":"Uttarakhand","latitude":29.3919,"longitude":79.4542,"temp":21.0,"humidity":79,"rain":0.1,"pressure":804.7,"uv_index":6.6,"wind_gusts":22.0,"aqi":103,"pm10":58.3,"pm2_5":26.7,"no2":2.1,"co":231.0,"o3":145.0,"so2":5.3,"mosquito_risk":6,"arthritis_risk":5,"migraine_risk":7,"frizz_risk":1,"updated_at":"2026-06-30T10:36:27.264638+05:30"},{"city":"Mussoorie","state":"Uttarakhand","latitude":30.4599,"longitude":78.0664,"temp":21.2,"humidity":82,"rain":0.1,"pressure":802.0,"uv_index":5.3,"wind_gusts":37.1,"aqi":105,"pm10":103.4,"pm2_5":44.9,"no2":1.8,"co":192.0,"o3":164.0,"so2":12.4,"mosquito_risk":6,"arthritis_risk":5,"migraine_risk":3,"frizz_risk":1,"updated_at":"2026-06-30T10:36:27.264646+05:30"},{"city":"Dharamshala","state":"Himachal Pradesh","latitude":32.219,"longitude":76.3234,"temp":24.0,"humidity":88,"rain":0.2,"pressure":866.3,"uv_index":6.55,"wind_gusts":26.3,"aqi":68,"pm10":29.2,"pm2_5":14.6,"no2":1.3,"co":251.0,"o3":132.0,"so2":3.2,"mosquito_risk":6,"arthritis_risk":5,"migraine_risk":7,"frizz_risk":1,"updated_at":"2026-06-30T10:36:27.264655+05:30"},{"city":"Dalhousie","state":"Himachal Pradesh","latitude":32.5387,"longitude":75.971,"temp":22.6,"humidity":81,"rain":0.1,"pressure":804.1,"uv_index":8.7,"wind_gusts":23.8,"aqi":114,"pm10":92.2,"pm2_5":43.1,"no2":2.5,"co":266.0,"o3":149.0,"so2":6.0,"mosquito_risk":6,"arthritis_risk":5,"migraine_risk":7,"frizz_risk":1,"updated_at":"2026-06-30T10:36:27.264663+05:30"},{"city":"Patiala","state":"Punjab","latitude":30.3398,"longitude":76.3869,"temp":35.1,"humidity":54,"rain":0.0,"pressure":971.5,"uv_index":7.5,"wind_gusts":40.3,"aqi":409,"pm10":1382.1,"pm2_5":230.0,"no2":6.0,"co":302.0,"o3":192.0,"so2":18.3,"mosquito_risk":0,"arthritis_risk":5,"migraine_risk":10,"frizz_risk":1,"updated_at":"2026-06-30T10:36:27.264673+05:30"},{"city":"Bhatinda","state":"Punjab","latitude":30.211,"longitude":74.9455,"temp":37.8,"humidity":40,"rain":0.0,"pressure":976.5,"uv_index":8.1,"wind_gusts":32.0,"aqi":159,"pm10":214.7,"pm2_5":77.8,"no2":6.7,"co":162.0,"o3":123.0,"so2":6.7,"mosquito_risk":0,"arthritis_risk":5,"migraine_risk":10,"frizz_risk":1,"updated_at":"2026-06-30T10:36:27.264681+05:30"},{"city":"Rohtak","state":"Haryana","latitude":28.8955,"longitude":76.6066,"temp":36.4,"humidity":43,"rain":0.0,"pressure":975.1,"uv_index":7.55,"wind_gusts":32.4,"aqi":699,"pm10":1322.5,"pm2_5":194.2,"no2":4.3,"co":188.0,"o3":96.0,"so2":3.4,"mosquito_risk":0,"arthritis_risk":5,"migraine_risk":10,"frizz_risk":1,"updated_at":"2026-06-30T10:36:27.264689+05:30"},{"city":"Panipat","state":"Haryana","latitude":29.3909,"longitude":76.9635,"temp":33.2,"humidity":67,"rain":0.0,"pressure":974.0,"uv_index":7.0,"wind_gusts":29.2,"aqi":1036,"pm10":1672.7,"pm2_5":237.0,"no2":11.3,"co":339.0,"o3":109.0,"so2":17.7,"mosquito_risk":3,"arthritis_risk":5,"migraine_risk":7,"frizz_risk":1,"updated_at":"2026-06-30T10:36:27.264698+05:30"},{"city":"Mathura","state":"Uttar Pradesh","latitude":27.4924,"longitude":77.6737,"temp":33.9,"humidity":55,"rain":0.0,"pressure":980.9,"uv_index":7.1,"wind_gusts":31.0,"aqi":355,"pm10":447.0,"pm2_5":70.5,"no2":5.1,"co":191.0,"o3":103.0,"so2":4.4,"mosquito_risk":0,"arthritis_risk":5,"migraine_risk":7,"frizz_risk":1,"updated_at":"2026-06-30T10:36:27.264706+05:30"},{"city":"Vrindavan","state":"Uttar Pradesh","latitude":27.5823,"longitude":77.7027,"temp":33.5,"humidity":57,"rain":0.0,"pressure":981.2,"uv_index":7.95,"wind_gusts":29.9,"aqi":355,"pm10":447.0,"pm2_5":70.5,"no2":5.1,"co":216.0,"o3":103.0,"so2":4.4,"mosquito_risk":0,"arthritis_risk":5,"migraine_risk":7,"frizz_risk":1,"updated_at":"2026-06-30T10:36:27.264714+05:30"},{"city":"Ayodhya","state":"Uttar Pradesh","latitude":26.7922,"longitude":82.1998,"temp":31.6,"humidity":72,"rain":0.0,"pressure":990.5,"uv_index":7.25,"wind_gusts":32.0,"aqi":92,"pm10":15.2,"pm2_5":12.8,"no2":6.1,"co":320.0,"o3":107.0,"so2":4.9,"mosquito_risk":3,"arthritis_risk":5,"migraine_risk":7,"frizz_risk":1,"updated_at":"2026-06-30T10:36:27.264721+05:30"},{"city":"Ratlam","state":"Madhya Pradesh","latitude":23.3315,"longitude":75.0367,"temp":30.8,"humidity":65,"rain":0.0,"pressure":951.7,"uv_index":5.5,"wind_gusts":40.7,"aqi":62,"pm10":27.6,"pm2_5":17.0,"no2":3.1,"co":134.0,"o3":79.0,"so2":8.5,"mosquito_risk":3,"arthritis_risk":5,"migraine_risk":3,"frizz_risk":1,"updated_at":"2026-06-30T10:36:27.264729+05:30"},{"city":"Sagar","state":"Madhya Pradesh","latitude":23.8388,"longitude":78.7378,"temp":29.4,"humidity":69,"rain":0.0,"pressure":946.7,"uv_index":8.25,"wind_gusts":37.8,"aqi":66,"pm10":22.5,"pm2_5":14.5,"no2":1.5,"co":164.0,"o3":110.0,"so2":4.1,"mosquito_risk":7,"arthritis_risk":5,"migraine_risk":7,"frizz_risk":1,"updated_at":"2026-06-30T10:36:27.264737+05:30"},{"city":"Satna","state":"Madhya Pradesh","latitude":24.6005,"longitude":80.8322,"temp":29.8,"humidity":72,"rain":0.0,"pressure":966.9,"uv_index":7.85,"wind_gusts":37.1,"aqi":72,"pm10":61.7,"pm2_5":28.2,"no2":2.4,"co":192.0,"o3":115.0,"so2":6.3,"mosquito_risk":7,"arthritis_risk":5,"migraine_risk":7,"frizz_risk":1,"updated_at":"2026-06-30T10:36:27.264744+05:30"},{"city":"Akola","state":"Maharashtra","latitude":20.7002,"longitude":77.0082,"temp":30.0,"humidity":68,"rain":0.0,"pressure":973.1,"uv_index":1.85,"wind_gusts":34.2,"aqi":59,"pm10":17.2,"pm2_5":11.7,"no2":5.1,"co":130.0,"o3":75.0,"so2":7.2,"mosquito_risk":7,"arthritis_risk":5,"migraine_risk":3,"frizz_risk":1,"updated_at":"2026-06-30T10:36:27.264752+05:30"},{"city":"Amravati","state":"Maharashtra","latitude":20.9374,"longitude":77.7796,"temp":28.5,"humidity":75,"rain":0.0,"pressure":965.1,"uv_index":2.0,"wind_gusts":41.8,"aqi":61,"pm10":16.5,"pm2_5":11.5,"no2":6.1,"co":148.0,"o3":74.0,"so2":9.0,"mosquito_risk":7,"arthritis_risk":5,"migraine_risk":3,"frizz_risk":1,"updated_at":"2026-06-30T10:36:27.264759+05:30"},{"city":"Latur","state":"Maharashtra","latitude":18.4088,"longitude":76.5604,"temp":28.0,"humidity":65,"rain":0.0,"pressure":938.3,"uv_index":4.75,"wind_gusts":46.1,"aqi":36,"pm10":4.8,"pm2_5":3.8,"no2":1.7,"co":120.0,"o3":62.0,"so2":1.8,"mosquito_risk":7,"arthritis_risk":5,"migraine_risk":3,"frizz_risk":1,"updated_at":"2026-06-30T10:36:27.264767+05:30"},{"city":"Nanded","state":"Maharashtra","latitude":19.1383,"longitude":77.3091,"temp":29.7,"humidity":63,"rain":0.0,"pressure":966.9,"uv_index":4.6,"wind_gusts":34.2,"aqi":54,"pm10":31.3,"pm2_5":16.4,"no2":2.5,"co":135.0,"o3":77.0,"so2":4.5,"mosquito_risk":7,"arthritis_risk":5,"migraine_risk":3,"frizz_risk":1,"updated_at":"2026-06-30T10:36:27.264774+05:30"},{"city":"Gulbarga","state":"Karnataka","latitude":17.3297,"longitude":76.8343,"temp":28.3,"humidity":67,"rain":0.0,"pressure":957.5,"uv_index":4.6,"wind_gusts":47.9,"aqi":19,"pm10":2.4,"pm2_5":2.2,"no2":2.6,"co":123.0,"o3":64.0,"so2":2.3,"mosquito_risk":7,"arthritis_risk":5,"migraine_risk":3,"frizz_risk":1,"updated_at":"2026-06-30T10:36:27.264781+05:30"},{"city":"Bidar","state":"Karnataka","latitude":17.9104,"longitude":77.5199,"temp":28.0,"humidity":66,"rain":0.0,"pressure":934.2,"uv_index":5.0,"wind_gusts":45.0,"aqi":37,"pm10":8.8,"pm2_5":5.4,"no2":2.2,"co":128.0,"o3":66.0,"so2":1.6,"mosquito_risk":7,"arthritis_risk":5,"migraine_risk":3,"frizz_risk":1,"updated_at":"2026-06-30T10:36:27.264787+05:30"},{"city":"Hospet","state":"Karnataka","latitude":15.2689,"longitude":76.3909,"temp":28.4,"humidity":63,"rain":0.0,"pressure":955.7,"uv_index":6.25,"wind_gusts":53.6,"aqi":21,"pm10":2.3,"pm2_5":1.7,"no2":2.2,"co":111.0,"o3":56.0,"so2":1.4,"mosquito_risk":7,"arthritis_risk":5,"migraine_risk":7,"frizz_risk":1,"updated_at":"2026-06-30T10:36:27.264810+05:30"},{"city":"Tirupur","state":"Tamil Nadu","latitude":11.1085,"longitude":77.3411,"temp":31.8,"humidity":52,"rain":0.0,"pressure":975.9,"uv_index":8.3,"wind_gusts":61.6,"aqi":44,"pm10":11.7,"pm2_5":7.9,"no2":3.5,"co":149.0,"o3":73.0,"so2":3.2,"mosquito_risk":0,"arthritis_risk":5,"migraine_risk":7,"frizz_risk":1,"updated_at":"2026-06-30T10:36:27.264817+05:30"},{"city":"Alappuzha","state":"Kerala","latitude":9.4981,"longitude":76.3388,"temp":26.9,"humidity":86,"rain":0.2,"pressure":1012.0,"uv_index":8.25,"wind_gusts":44.3,"aqi":35,"pm10":17.6,"pm2_5":11.1,"no2":3.8,"co":86.0,"o3":67.0,"so2":3.5,"mosquito_risk":10,"arthritis_risk":0,"migraine_risk":4,"frizz_risk":1,"updated_at":"2026-06-30T10:36:27.264823+05:30"},{"city":"Munnar","state":"Kerala","latitude":10.0889,"longitude":77.0595,"temp":18.6,"humidity":89,"rain":0.1,"pressure":858.9,"uv_index":6.85,"wind_gusts":53.3,"aqi":17,"pm10":15.7,"pm2_5":6.4,"no2":1.0,"co":95.0,"o3":52.0,"so2":0.8,"mosquito_risk":6,"arthritis_risk":10,"migraine_risk":7,"frizz_risk":1,"updated_at":"2026-06-30T10:36:27.264831+05:30"},{"city":"Silchar","state":"Assam","latitude":24.8333,"longitude":92.7789,"temp":32.2,"humidity":70,"rain":0.0,"pressure":1000.3,"uv_index":8.35,"wind_gusts":30.6,"aqi":63,"pm10":8.0,"pm2_5":7.5,"no2":1.0,"co":184.0,"o3":95.0,"so2":2.6,"mosquito_risk":3,"arthritis_risk":5,"migraine_risk":4,"frizz_risk":1,"updated_at":"2026-06-30T10:36:27.264837+05:30"},{"city":"Dibrugarh","state":"Assam","latitude":27.4728,"longitude":94.912,"temp":29.8,"humidity":74,"rain":0.0,"pressure":991.8,"uv_index":7.8,"wind_gusts":17.6,"aqi":74,"pm10":13.4,"pm2_5":11.9,"no2":0.6,"co":166.0,"o3":110.0,"so2":1.2,"mosquito_risk":7,"arthritis_risk":5,"migraine_risk":7,"frizz_risk":1,"updated_at":"2026-06-30T10:36:27.264844+05:30"}]