[{"city":"Delhi","state":"Delhi","latitude":28.6139,"longitude":77.209,"temp":25.0,"humidity":68,"rain":0.0,"pressure":980.4,"uv_index":7.45,"wind_gusts":58.7,"aqi":490,"pm10":461.9,"pm2_5":81.5,"no2":11.9,"co":366.0,"o3":113.0,"so2":18.7,"mosquito_risk":7,"arthritis_risk":5,"migraine_risk":7,"frizz_risk":1,"updated_at":"2026-05-04T04:18:21.787998+05:30"},{"city":"Mumbai","state":"Maharashtra","latitude":19.076,"longitude":72.8777,"temp":28.2,"humidity":79,"rain":0.0,"pressure":1005.7,"uv_index":7.85,"wind_gusts":43.2,"aqi":68,"pm10":33.6,"pm2_5":14.8,"no2":8.2,"co":208.0,"o3":65.0,"so2":13.2,"mosquito_risk":7,"arthritis_risk":5,"migraine_risk":4,"frizz_risk":1,"updated_at":"2026-05-04T04:18:21.788040+05:30"},{"city":"Bangalore","state":"Karnataka","latitude":12.9716,"longitude":77.5946,"temp":21.3,"humidity":94,"rain":0.0,"pressure":909.6,"uv_index":9.5,"wind_gusts":29.9,"aqi":78,"pm10":37.5,"pm2_5":21.3,"no2":13.9,"co":243.0,"o3":51.0,"so2":7.5,"mosquito_risk":3,"arthritis_risk":5,"migraine_risk":7,"frizz_risk":1,"updated_at":"2026-05-04T04:18:21.788056+05:30"},{"city":"Hyderabad","state":"Telangana","latitude":17.385,"longitude":78.4867,"temp":27.0,"humidity":60,"rain":0.0,"pressure":950.4,"uv_index":9.25,"wind_gusts":36.0,"aqi":78,"pm10":46.3,"pm2_5":27.8,"no2":17.2,"co":253.0,"o3":60.0,"so2":6.3,"mosquito_risk":4,"arthritis_risk":5,"migraine_risk":7,"frizz_risk":1,"updated_at":"2026-05-04T04:18:21.788066+05:30"},{"city":"Chennai","state":"Tamil Nadu","latitude":13.0827,"longitude":80.2707,"temp":29.6,"humidity":75,"rain":0.0,"pressure":1003.8,"uv_index":9.2,"wind_gusts":53.3,"aqi":99,"pm10":27.4,"pm2_5":21.2,"no2":6.1,"co":211.0,"o3":111.0,"so2":7.3,"mosquito_risk":7,"arthritis_risk":5,"migraine_risk":4,"frizz_risk":1,"updated_at":"2026-05-04T04:18:21.788074+05:30"},{"city":"Kolkata","state":"West Bengal","latitude":22.5726,"longitude":88.3639,"temp":26.0,"humidity":94,"rain":0.0,"pressure":1005.5,"uv_index":6.75,"wind_gusts":34.6,"aqi":111,"pm10":24.6,"pm2_5":19.7,"no2":7.8,"co":317.0,"o3":83.0,"so2":4.7,"mosquito_risk":7,"arthritis_risk":5,"migraine_risk":4,"frizz_risk":1,"updated_at":"2026-05-04T04:18:21.788083+05:30"},{"city":"Pune","state":"Maharashtra","latitude":18.5204,"longitude":73.8567,"temp":21.3,"humidity":89,"rain":0.0,"pressure":945.3,"uv_index":8.45,"wind_gusts":47.5,"aqi":59,"pm10":30.9,"pm2_5":15.7,"no2":12.4,"co":200.0,"o3":42.0,"so2":9.7,"mosquito_risk":3,"arthritis_risk":5,"migraine_risk":7,"frizz_risk":1,"updated_at":"2026-05-04T04:18:21.788096+05:30"},{"city":"Ahmedabad","state":"Gujarat","latitude":23.0225,"longitude":72.5714,"temp":28.4,"humidity":67,"rain":0.0,"pressure":997.1,"uv_index":8.1,"wind_gusts":48.2,"aqi":54,"pm10":26.0,"pm2_5":12.1,"no2":5.0,"co":247.0,"o3":61.0,"so2":6.2,"mosquito_risk":7,"arthritis_risk":5,"migraine_risk":7,"frizz_risk":1,"updated_at":"2026-05-04T04:18:21.788106+05:30"},{"city":"Jaipur","state":"Rajasthan","latitude":26.9124,"longitude":75.7873,"temp":26.6,"humidity":42,"rain":0.0,"pressure":954.8,"uv_index":7.8,"wind_gusts":58.3,"aqi":132,"pm10":616.5,"pm2_5":96.6,"no2":6.1,"co":263.0,"o3":103.0,"so2":6.3,"mosquito_risk":4,"arthritis_risk":5,"migraine_risk":7,"frizz_risk":0,"updated_at":"2026-05-04T04:18:21.788114+05:30"},{"city":"Lucknow","state":"Uttar Pradesh","latitude":26.8467,"longitude":80.9462,"temp":24.2,"humidity":76,"rain":0.0,"pressure":992.3,"uv_index":8.05,"wind_gusts":54.0,"aqi":87,"pm10":37.0,"pm2_5":25.4,"no2":7.2,"co":340.0,"o3":113.0,"so2":7.6,"mosquito_risk":3,"arthritis_risk":5,"migraine_risk":7,"frizz_risk":1,"updated_at":"2026-05-04T04:18:21.788123+05:30"},{"city":"Kanpur","state":"Uttar Pradesh","latitude":26.4499,"longitude":80.3319,"temp":25.8,"humidity":68,"rain":0.0,"pressure":989.8,"uv_index":8.05,"wind_gusts":48.2,"aqi":194,"pm10":441.4,"pm2_5":62.2,"no2":5.7,"co":333.0,"o3":117.0,"so2":7.5,"mosquito_risk":7,"arthritis_risk":5,"migraine_risk":7,"frizz_risk":1,"updated_at":"2026-05-04T04:18:21.788130+05:30"},{"city":"Chandigarh","state":"Chandigarh","latitude":30.7333,"longitude":76.7794,"temp":22.4,"humidity":67,"rain":0.0,"pressure":967.0,"uv_index":7.25,"wind_gusts":55.8,"aqi":100,"pm10":27.2,"pm2_5":20.7,"no2":16.8,"co":327.0,"o3":60.0,"so2":4.6,"mosquito_risk":3,"arthritis_risk":5,"migraine_risk":7,"frizz_risk":0,"updated_at":"2026-05-04T04:18:21.788140+05:30"},{"city":"Srinagar","state":"Jammu and Kashmir","latitude":34.0837,"longitude":74.7973,"temp":8.2,"humidity":100,"rain":0.0,"pressure":840.5,"uv_index":6.6,"wind_gusts":23.4,"aqi":68,"pm10":38.4,"pm2_5":31.8,"no2":15.8,"co":378.0,"o3":72.0,"so2":2.0,"mosquito_risk":3,"arthritis_risk":10,"migraine_risk":7,"frizz_risk":0,"updated_at":"2026-05-04T04:18:21.788149+05:30"},{"city":"Jammu","state":"Jammu and Kashmir","latitude":32.7266,"longitude":74.857,"temp":20.0,"humidity":54,"rain":0.0,"pressure":968.4,"uv_index":7.1,"wind_gusts":58.0,"aqi":71,"pm10":22.3,"pm2_5":18.7,"no2":15.0,"co":265.0,"o3":46.0,"so2":2.2,"mosquito_risk":0,"arthritis_risk":5,"migraine_risk":7,"frizz_risk":0,"updated_at":"2026-05-04T04:18:21.788157+05:30"},{"city":"Amritsar","state":"Punjab","latitude":31.634,"longitude":74.8723,"temp":23.2,"humidity":59,"rain":0.0,"pressure":977.6,"uv_index":8.0,"wind_gusts":53.3,"aqi":121,"pm10":214.2,"pm2_5":54.2,"no2":4.0,"co":388.0,"o3":116.0,"so2":5.5,"mosquito_risk":0,"arthritis_risk":5,"migraine_risk":7,"frizz_risk":0,"updated_at":"2026-05-04T04:18:21.788164+05:30"},{"city":"Ludhiana","state":"Punjab","latitude":30.901,"longitude":75.8573,"temp":19.7,"humidity":90,"rain":0.0,"pressure":976.7,"uv_index":7.7,"wind_gusts":56.2,"aqi":238,"pm10":105.5,"pm2_5":43.0,"no2":10.1,"co":421.0,"o3":82.0,"so2":11.6,"mosquito_risk":3,"arthritis_risk":10,"migraine_risk":7,"frizz_risk":1,"updated_at":"2026-05-04T04:18:21.788172+05:30"},{"city":"Jalandhar","state":"Punjab","latitude":31.326,"longitude":75.5762,"temp":22.0,"humidity":68,"rain":0.0,"pressure":977.4,"uv_index":7.85,"wind_gusts":61.9,"aqi":137,"pm10":109.0,"pm2_5":39.3,"no2":7.4,"co":393.0,"o3":93.0,"so2":8.0,"mosquito_risk":3,"arthritis_risk":5,"migraine_risk":7,"frizz_risk":0,"updated_at":"2026-05-04T04:18:21.788179+05:30"},{"city":"Dehradun","state":"Uttarakhand","latitude":30.6284,"longitude":78.0322,"temp":11.6,"humidity":91,"rain":0.0,"pressure":827.5,"uv_index":5.35,"wind_gusts":34.2,"aqi":58,"pm10":10.6,"pm2_5":9.5,"no2":23.4,"co":270.0,"o3":20.0,"so2":0.0,"mosquito_risk":3,"arthritis_risk":10,"migraine_risk":3,"frizz_risk":0,"updated_at":"2026-05-04T04:18:21.788188+05:30"},{"city":"Shimla","state":"Himachal Pradesh","latitude":31.1048,"longitude":77.1734,"temp":9.8,"humidity":62,"rain":0.0,"pressure":780.3,"uv_index":6.75,"wind_gusts":36.7,"aqi":61,"pm10":23.8,"pm2_5":10.7,"no2":8.5,"co":229.0,"o3":105.0,"so2":0.9,"mosquito_risk":3,"arthritis_risk":5,"migraine_risk":7,"frizz_risk":0,"updated_at":"2026-05-04T04:18:21.788196+05:30"},{"city":"Manali","state":"Himachal Pradesh","latitude":32.2396,"longitude":77.1887,"temp":6.5,"humidity":72,"rain":0.0,"pressure":811.2,"uv_index":7.4,"wind_gusts":44.3,"aqi":93,"pm10":3.2,"pm2_5":2.5,"no2":4.6,"co":167.0,"o3":134.0,"so2":0.0,"mosquito_risk":3,"arthritis_risk":5,"migraine_risk":7,"frizz_risk":0,"updated_at":"2026-05-04T04:18:21.788203+05:30"},{"city":"Gurgaon","state":"Haryana","latitude":28.4595,"longitude":77.0266,"temp":23.9,"humidity":72,"rain":0.0,"pressure":979.2,"uv_index":7.45,"wind_gusts":59.0,"aqi":1814,"pm10":2004.2,"pm2_5":229.6,"no2":7.4,"co":355.0,"o3":118.0,"so2":14.0,"mosquito_risk":3,"arthritis_risk":5,"migraine_risk":7,"frizz_risk":1,"updated_at":"2026-05-04T04:18:21.788210+05:30"},{"city":"Noida","state":"Uttar Pradesh","latitude":28.5355,"longitude":77.391,"temp":24.5,"humidity":72,"rain":0.0,"pressure":981.6,"uv_index":7.5,"wind_gusts":58.7,"aqi":1814,"pm10":2004.2,"pm2_5":229.6,"no2":7.4,"co":335.0,"o3":118.0,"so2":14.0,"mosquito_risk":3,"arthritis_risk":5,"migraine_risk":7,"frizz_risk":1,"updated_at":"2026-05-04T04:18:21.788217+05:30"},{"city":"Ghaziabad","state":"Uttar Pradesh","latitude":28.6692,"longitude":77.4538,"temp":24.4,"humidity":74,"rain":0.0,"pressure":979.9,"uv_index":7.45,"wind_gusts":61.2,"aqi":297,"pm10":314.8,"pm2_5":53.4,"no2":7.6,"co":306.0,"o3":111.0,"so2":14.4,"mosquito_risk":3,"arthritis_risk":5,"migraine_risk":7,"frizz_risk":1,"updated_at":"2026-05-04T04:18:21.788224+05:30"},{"city":"Faridabad","state":"Haryana","latitude":28.4089,"longitude":77.3178,"temp":24.9,"humidity":71,"rain":0.0,"pressure":980.6,"uv_index":7.55,"wind_gusts":61.6,"aqi":1814,"pm10":2004.2,"pm2_5":229.6,"no2":7.4,"co":348.0,"o3":118.0,"so2":14.0,"mosquito_risk":3,"arthritis_risk":5,"migraine_risk":7,"frizz_risk":1,"updated_at":"2026-05-04T04:18:21.788230+05:30"},{"city":"Meerut","state":"Uttar Pradesh","latitude":28.9845,"longitude":77.7064,"temp":21.9,"humidity":80,"rain":0.0,"pressure":978.8,"uv_index":7.4,"wind_gusts":65.5,"aqi":297,"pm10":314.8,"pm2_5":53.4,"no2":7.6,"co":296.0,"o3":111.0,"so2":14.4,"mosquito_risk":3,"arthritis_risk":5,"migraine_risk":7,"frizz_risk":1,"updated_at":"2026-05-04T04:18:21.788237+05:30"},{"city":"Agra","state":"Uttar Pradesh","latitude":27.1767,"longitude":78.0081,"temp":26.5,"humidity":68,"rain":0.0,"pressure":985.1,"uv_index":7.15,"wind_gusts":68.0,"aqi":1005,"pm10":1482.7,"pm2_5":173.2,"no2":5.5,"co":300.0,"o3":113.0,"so2":11.1,"mosquito_risk":7,"arthritis_risk":5,"migraine_risk":7,"frizz_risk":1,"updated_at":"2026-05-04T04:18:21.788244+05:30"},{"city":"Varanasi","state":"Uttar Pradesh","latitude":25.3176,"longitude":82.9739,"temp":25.3,"humidity":80,"rain":0.0,"pressure":996.7,"uv_index":8.6,"wind_gusts":38.5,"aqi":129,"pm10":60.3,"pm2_5":55.1,"no2":9.8,"co":435.0,"o3":109.0,"so2":13.4,"mosquito_risk":7,"arthritis_risk":5,"migraine_risk":7,"frizz_risk":1,"updated_at":"2026-05-04T04:18:21.788251+05:30"},{"city":"Prayagraj","state":"Uttar Pradesh","latitude":25.4358,"longitude":81.8463,"temp":26.0,"humidity":74,"rain":0.0,"pressure":994.5,"uv_index":8.5,"wind_gusts":57.2,"aqi":112,"pm10":57.7,"pm2_5":52.5,"no2":10.4,"co":408.0,"o3":102.0,"so2":9.9,"mosquito_risk":7,"arthritis_risk":5,"migraine_risk":7,"frizz_risk":1,"updated_at":"2026-05-04T04:18:21.788261+05:30"},{"city":"Gorakhpur","state":"Uttar Pradesh","latitude":26.7606,"longitude":83.3732,"temp":23.2,"humidity":84,"rain":0.0,"pressure":997.7,"uv_index":8.45,"wind_gusts":38.5,"aqi":84,"pm10":31.0,"pm2_5":26.9,"no2":10.6,"co":431.0,"o3":91.0,"so2":8.7,"mosquito_risk":3,"arthritis_risk":5,"migraine_risk":7,"frizz_risk":1,"updated_at":"2026-05-04T04:18:21.788268+05:30"},{"city":"Bareilly","state":"Uttar Pradesh","latitude":28.367,"longitude":79.4304,"temp":23.1,"humidity":75,"rain":0.0,"pressure":985.0,"uv_index":7.65,"wind_gusts":49.0,"aqi":112,"pm10":109.0,"pm2_5":36.2,"no2":5.9,"co":311.0,"o3":107.0,"so2":4.1,"mosquito_risk":3,"arthritis_risk":5,"migraine_risk":7,"frizz_risk":1,"updated_at":"2026-05-04T04:18:21.788294+05:30"},{"city":"Aligarh","state":"Uttar Pradesh","latitude":27.8974,"longitude":78.088,"temp":24.8,"humidity":72,"rain":0.0,"pressure":983.0,"uv_index":7.6,"wind_gusts":59.0,"aqi":850,"pm10":905.2,"pm2_5":115.0,"no2":5.5,"co":334.0,"o3":114.0,"so2":11.2,"mosquito_risk":3,"arthritis_risk":5,"migraine_risk":7,"frizz_risk":1,"updated_at":"2026-05-04T04:18:21.788303+05:30"},{"city":"Moradabad","state":"Uttar Pradesh","latitude":28.8386,"longitude":78.7733,"temp":22.6,"humidity":80,"rain":0.0,"pressure":983.2,"uv_index":7.55,"wind_gusts":56.2,"aqi":113,"pm10":61.7,"pm2_5":31.1,"no2":5.5,"co":298.0,"o3":119.0,"so2":5.9,"mosquito_risk":3,"arthritis_risk":5,"migraine_risk":7,"frizz_risk":1,"updated_at":"2026-05-04T04:18:21.788310+05:30"},{"city":"Saharanpur","state":"Uttar Pradesh","latitude":29.9637,"longitude":77.546,"temp":21.8,"humidity":79,"rain":0.0,"pressure":975.1,"uv_index":7.2,"wind_gusts":54.7,"aqi":145,"pm10":116.9,"pm2_5":48.4,"no2":10.4,"co":340.0,"o3":96.0,"so2":12.5,"mosquito_risk":3,"arthritis_risk":5,"migraine_risk":7,"frizz_risk":1,"updated_at":"2026-05-04T04:18:21.788316+05:30"},{"city":"Jhansi","state":"Uttar Pradesh","latitude":25.4484,"longitude":78.5685,"temp":27.0,"humidity":63,"rain":0.0,"pressure":973.7,"uv_index":7.75,"wind_gusts":50.0,"aqi":95,"pm10":28.1,"pm2_5":23.9,"no2":3.3,"co":303.0,"o3":138.0,"so2":12.9,"mosquito_risk":7,"arthritis_risk":5,"migraine_risk":7,"frizz_risk":1,"updated_at":"2026-05-04T04:18:25.071481+05:30"},{"city":"Surat","state":"Gujarat","latitude":21.1702,"longitude":72.8311,"temp":28.0,"humidity":83,"rain":0.0,"pressure":1002.8,"uv_index":7.7,"wind_gusts":51.8,"aqi":59,"pm10":24.5,"pm2_5":14.9,"no2":17.1,"co":242.0,"o3":56.0,"so2":29.0,"mosquito_risk":7,"arthritis_risk":5,"migraine_risk":4,"frizz_risk":1,"updated_at":"2026-05-04T04:18:25.071513+05:30"},{"city":"Vadodara","state":"Gujarat","latitude":22.3072,"longitude":73.1812,"temp":27.4,"humidity":85,"rain":0.0,"pressure":1000.0,"uv_index":8.05,"wind_gusts":46.8,"aqi":52,"pm10":16.8,"pm2_5":10.6,"no2":9.6,"co":162.0,"o3":55.0,"so2":12.6,"mosquito_risk":7,"arthritis_risk":5,"migraine_risk":4,"frizz_risk":1,"updated_at":"2026-05-04T04:18:25.071523+05:30"},{"city":"Rajkot","state":"Gujarat","latitude":22.3039,"longitude":70.8022,"temp":25.8,"humidity":91,"rain":0.0,"pressure":989.1,"uv_index":7.7,"wind_gusts":45.4,"aqi":45,"pm10":19.7,"pm2_5":8.6,"no2":3.1,"co":158.0,"o3":64.0,"so2":4.0,"mosquito_risk":7,"arthritis_risk":5,"migraine_risk":7,"frizz_risk":1,"updated_at":"2026-05-04T04:18:25.071532+05:30"},{"city":"Thane","state":"Maharashtra","latitude":19.2183,"longitude":72.9781,"temp":27.0,"humidity":87,"rain":0.0,"pressure":1005.1,"uv_index":7.9,"wind_gusts":40.3,"aqi":68,"pm10":33.6,"pm2_5":14.8,"no2":8.2,"co":227.0,"o3":65.0,"so2":13.2,"mosquito_risk":7,"arthritis_risk":5,"migraine_risk":4,"frizz_risk":1,"updated_at":"2026-05-04T04:18:25.071540+05:30"},{"city":"Nagpur","state":"Maharashtra","latitude":21.1458,"longitude":79.0882,"temp":28.9,"humidity":29,"rain":0.0,"pressure":969.5,"uv_index":8.9,"wind_gusts":47.5,"aqi":75,"pm10":22.2,"pm2_5":12.5,"no2":9.6,"co":278.0,"o3":75.0,"so2":10.1,"mosquito_risk":4,"arthritis_risk":5,"migraine_risk":7,"frizz_risk":0,"updated_at":"2026-05-04T04:18:25.071548+05:30"},{"city":"Nashik","state":"Maharashtra","latitude":19.9975,"longitude":73.7898,"temp":22.3,"humidity":93,"rain":0.0,"pressure":942.2,"uv_index":8.2,"wind_gusts":45.0,"aqi":61,"pm10":32.1,"pm2_5":18.7,"no2":16.6,"co":220.0,"o3":41.0,"so2":14.8,"mosquito_risk":3,"arthritis_risk":5,"migraine_risk":7,"frizz_risk":1,"updated_at":"2026-05-04T04:18:25.071555+05:30"},{"city":"Aurangabad","state":"Maharashtra","latitude":19.8762,"longitude":75.3433,"temp":23.2,"humidity":67,"rain":0.0,"pressure":940.7,"uv_index":9.05,"wind_gusts":42.8,"aqi":55,"pm10":31.1,"pm2_5":13.2,"no2":11.3,"co":204.0,"o3":60.0,"so2":14.4,"mosquito_risk":3,"arthritis_risk":5,"migraine_risk":7,"frizz_risk":1,"updated_at":"2026-05-04T04:18:25.071562+05:30"},{"city":"Solapur","state":"Maharashtra","latitude":17.6599,"longitude":75.9064,"temp":26.2,"humidity":50,"rain":0.0,"pressure":954.6,"uv_index":9.1,"wind_gusts":32.4,"aqi":56,"pm10":25.7,"pm2_5":11.5,"no2":7.8,"co":190.0,"o3":54.0,"so2":3.7,"mosquito_risk":4,"arthritis_risk":5,"migraine_risk":7,"frizz_risk":0,"updated_at":"2026-05-04T04:18:25.071570+05:30"},{"city":"Kolhapur","state":"Maharashtra","latitude":16.705,"longitude":74.2433,"temp":22.0,"humidity":96,"rain":0.0,"pressure":945.6,"uv_index":8.95,"wind_gusts":46.4,"aqi":61,"pm10":31.8,"pm2_5":15.2,"no2":6.7,"co":172.0,"o3":49.0,"so2":1.1,"mosquito_risk":3,"arthritis_risk":5,"migraine_risk":7,"frizz_risk":1,"updated_at":"2026-05-04T04:18:25.071578+05:30"},{"city":"Goa","state":"Goa","latitude":15.2993,"longitude":74.124,"temp":26.8,"humidity":91,"rain":0.0,"pressure":996.1,"uv_index":8.9,"wind_gusts":37.8,"aqi":66,"pm10":60.5,"pm2_5":24.0,"no2":8.3,"co":223.0,"o3":56.0,"so2":1.9,"mosquito_risk":7,"arthritis_risk":5,"migraine_risk":7,"frizz_risk":1,"updated_at":"2026-05-04T04:18:25.071585+05:30"},{"city":"Jodhpur","state":"Rajasthan","latitude":26.2389,"longitude":73.0243,"temp":28.1,"humidity":43,"rain":0.0,"pressure":976.6,"uv_index":8.25,"wind_gusts":49.0,"aqi":115,"pm10":156.0,"pm2_5":28.2,"no2":7.1,"co":206.0,"o3":64.0,"so2":3.6,"mosquito_risk":4,"arthritis_risk":5,"migraine_risk":7,"frizz_risk":0,"updated_at":"2026-05-04T04:18:25.071593+05:30"},{"city":"Udaipur","state":"Rajasthan","latitude":24.5854,"longitude":73.7125,"temp":23.5,"humidity":75,"rain":0.0,"pressure":941.3,"uv_index":8.75,"wind_gusts":33.5,"aqi":50,"pm10":17.3,"pm2_5":11.5,"no2":8.3,"co":187.0,"o3":52.0,"so2":12.8,"mosquito_risk":3,"arthritis_risk":5,"migraine_risk":7,"frizz_risk":1,"updated_at":"2026-05-04T04:18:25.071600+05:30"},{"city":"Kota","state":"Rajasthan","latitude":25.2138,"longitude":75.8648,"temp":28.2,"humidity":54,"rain":0.0,"pressure":973.3,"uv_index":8.3,"wind_gusts":73.8,"aqi":68,"pm10":13.9,"pm2_5":9.7,"no2":3.2,"co":200.0,"o3":102.0,"so2":7.8,"mosquito_risk":4,"arthritis_risk":5,"migraine_risk":7,"frizz_risk":1,"updated_at":"2026-05-04T04:18:25.071607+05:30"},{"city":"Bikaner","state":"Rajasthan","latitude":28.0229,"longitude":73.3119,"temp":27.0,"humidity":44,"rain":0.0,"pressure":974.4,"uv_index":8.15,"wind_gusts":60.1,"aqi":82,"pm10":114.8,"pm2_5":22.5,"no2":2.0,"co":220.0,"o3":90.0,"so2":4.3,"mosquito_risk":4,"arthritis_risk":5,"migraine_risk":7,"frizz_risk":0,"updated_at":"2026-05-04T04:18:25.071614+05:30"},{"city":"Ajmer","state":"Rajasthan","latitude":26.4499,"longitude":74.6399,"temp":26.4,"humidity":40,"rain":0.0,"pressure":948.8,"uv_index":8.2,"wind_gusts":58.7,"aqi":64,"pm10":64.5,"pm2_5":17.8,"no2":4.4,"co":187.0,"o3":77.0,"so2":3.5,"mosquito_risk":4,"arthritis_risk":5,"migraine_risk":7,"frizz_risk":0,"updated_at":"2026-05-04T04:18:25.071621+05:30"},{"city":"Gwalior","state":"Madhya Pradesh","latitude":26.2183,"longitude":78.1828,"temp":27.2,"humidity":61,"rain":0.0,"pressure":979.3,"uv_index":8.1,"wind_gusts":49.7,"aqi":94,"pm10":24.5,"pm2_5":22.4,"no2":3.3,"co":311.0,"o3":133.0,"so2":11.4,"mosquito_risk":7,"arthritis_risk":5,"migraine_risk":7,"frizz_risk":1,"updated_at":"2026-05-04T04:18:25.071628+05:30"},{"city":"Indore","state":"Madhya Pradesh","latitude":22.7196,"longitude":75.8577,"temp":25.4,"humidity":62,"rain":0.0,"pressure":944.4,"uv_index":8.6,"wind_gusts":39.2,"aqi":50,"pm10":17.0,"pm2_5":10.6,"no2":4.5,"co":169.0,"o3":79.0,"so2":10.7,"mosquito_risk":7,"arthritis_risk":5,"migraine_risk":7,"frizz_risk":1,"updated_at":"2026-05-04T04:18:25.071635+05:30"},{"city":"Bhopal","state":"Madhya Pradesh","latitude":23.2599,"longitude":77.4126,"temp":27.7,"humidity":38,"rain":0.0,"pressure":949.4,"uv_index":8.65,"wind_gusts":48.2,"aqi":67,"pm10":13.9,"pm2_5":13.0,"no2":4.3,"co":204.0,"o3":76.0,"so2":5.3,"mosquito_risk":4,"arthritis_risk":5,"migraine_risk":7,"frizz_risk":0,"updated_at":"2026-05-04T04:18:25.071642+05:30"},{"city":"Jabalpur","state":"Madhya Pradesh","latitude":23.1815,"longitude":79.9864,"temp":26.7,"humidity":38,"rain":0.0,"pressure":956.7,"uv_index":8.8,"wind_gusts":58.3,"aqi":66,"pm10":40.9,"pm2_5":17.6,"no2":12.1,"co":248.0,"o3":62.0,"so2":4.6,"mosquito_risk":4,"arthritis_risk":5,"migraine_risk":7,"frizz_risk":0,"updated_at":"2026-05-04T04:18:25.071649+05:30"},{"city":"Ujjain","state":"Madhya Pradesh","latitude":23.1765,"longitude":75.7885,"temp":25.2,"humidity":69,"rain":0.0,"pressure":949.8,"uv_index":8.55,"wind_gusts":36.0,"aqi":49,"pm10":17.2,"pm2_5":10.3,"no2":4.2,"co":170.0,"o3":73.0,"so2":10.3,"mosquito_risk":7,"arthritis_risk":5,"migraine_risk":7,"frizz_risk":1,"updated_at":"2026-05-04T04:18:25.071657+05:30"},{"city":"Visakhapatnam","state":"Andhra Pradesh","latitude":17.6868,"longitude":83.2185,"temp":26.5,"humidity":99,"rain":0.0,"pressure":1001.5,"uv_index":8.3,"wind_gusts":37.1,"aqi":72,"pm10":29.7,"pm2_5":23.2,"no2":24.1,"co":336.0,"o3":68.0,"so2":3.1,"mosquito_risk":7,"arthritis_risk":5,"migraine_risk":4,"frizz_risk":1,"updated_at":"2026-05-04T04:18:25.071664+05:30"},{"city":"Vijayawada","state":"Andhra Pradesh","latitude":16.5062,"longitude":80.648,"temp":27.9,"humidity":93,"rain":0.0,"pressure":999.5,"uv_index":9.2,"wind_gusts":43.9,"aqi":89,"pm10":30.5,"pm2_5":25.7,"no2":4.9,"co":228.0,"o3":107.0,"so2":4.6,"mosquito_risk":7,"arthritis_risk":5,"migraine_risk":7,"frizz_risk":1,"updated_at":"2026-05-04T04:18:25.071671+05:30"},{"city":"Guntur","state":"Andhra Pradesh","latitude":16.3067,"longitude":80.4365,"temp":28.2,"humidity":92,"rain":0.0,"pressure":1000.7,"uv_index":9.2,"wind_gusts":36.7,"aqi":89,"pm10":31.4,"pm2_5":26.7,"no2":5.2,"co":217.0,"o3":116.0,"so2":5.1,"mosquito_risk":7,"arthritis_risk":5,"migraine_risk":4,"frizz_risk":1,"updated_at":"2026-05-04T04:18:25.071678+05:30"},{"city":"Nellore","state":"Andhra Pradesh","latitude":14.4426,"longitude":79.9865,"temp":29.5,"humidity":77,"rain":0.0,"pressure":1001.7,"uv_index":9.25,"wind_gusts":37.8,"aqi":114,"pm10":33.3,"pm2_5":29.9,"no2":8.1,"co":243.0,"o3":121.0,"so2":12.5,"mosquito_risk":7,"arthritis_risk":5,"migraine_risk":4,"frizz_risk":1,"updated_at":"2026-05-04T04:18:25.071686+05:30"},{"city":"Kurnool","state":"Andhra Pradesh","latitude":15.8281,"longitude":78.0373,"temp":29.4,"humidity":54,"rain":0.0,"pressure":974.1,"uv_index":9.15,"wind_gusts":37.4,"aqi":66,"pm10":27.8,"pm2_5":17.2,"no2":15.3,"co":214.0,"o3":47.0,"so2":5.1,"mosquito_risk":4,"arthritis_risk":5,"migraine_risk":7,"frizz_risk":1,"updated_at":"2026-05-04T04:18:25.071694+05:30"},{"city":"Kakinada","state":"Andhra Pradesh","latitude":16.9891,"longitude":82.2475,"temp":27.1,"humidity":96,"rain":0.0,"pressure":1005.0,"uv_index":9.05,"wind_gusts":32.4,"aqi":64,"pm10":26.1,"pm2_5":18.1,"no2":1.8,"co":212.0,"o3":95.0,"so2":1.4,"mosquito_risk":7,"arthritis_risk":5,"migraine_risk":4,"frizz_risk":1,"updated_at":"2026-05-04T04:18:25.071702+05:30"},{"city":"Tirupati","state":"Andhra Pradesh","latitude":13.6288,"longitude":79.4192,"temp":28.5,"humidity":74,"rain":0.0,"pressure":988.1,"uv_index":9.3,"wind_gusts":58.3,"aqi":84,"pm10":32.2,"pm2_5":29.3,"no2":12.5,"co":304.0,"o3":97.0,"so2":13.0,"mosquito_risk":7,"arthritis_risk":5,"migraine_risk":7,"frizz_risk":1,"updated_at":"2026-05-04T04:18:25.071709+05:30"},{"city":"Warangal","state":"Telangana","latitude":17.9689,"longitude":79.5941,"temp":26.7,"humidity":80,"rain":0.0,"pressure":975.3,"uv_index":9.15,"wind_gusts":41.8,"aqi":94,"pm10":41.7,"pm2_5":37.5,"no2":7.9,"co":318.0,"o3":109.0,"so2":11.9,"mosquito_risk":7,"arthritis_risk":5,"migraine_risk":7,"frizz_risk":1,"updated_at":"2026-05-04T04:18:25.071717+05:30"},{"city":"Nizamabad","state":"Telangana","latitude":18.6725,"longitude":78.0941,"temp":28.1,"humidity":32,"rain":0.0,"pressure":961.3,"uv_index":9.15,"wind_gusts":29.9,"aqi":77,"pm10":37.6,"pm2_5":23.4,"no2":18.2,"co":288.0,"o3":52.0,"so2":5.2,"mosquito_risk":4,"arthritis_risk":5,"migraine_risk":7,"frizz_risk":0,"updated_at":"2026-05-04T04:18:25.071724+05:30"},{"city":"Mysore","state":"Karnataka","latitude":12.2958,"longitude":76.6396,"temp":22.0,"humidity":94,"rain":0.0,"pressure":926.3,"uv_index":9.35,"wind_gusts":35.3,"aqi":66,"pm10":38.2,"pm2_5":19.3,"no2":8.5,"co":178.0,"o3":50.0,"so2":2.0,"mosquito_risk":3,"arthritis_risk":5,"migraine_risk":7,"frizz_risk":1,"updated_at":"2026-05-04T04:18:25.071731+05:30"},{"city":"Mangalore","state":"Karnataka","latitude":12.9141,"longitude":74.856,"temp":27.1,"humidity":84,"rain":0.0,"pressure":1005.2,"uv_index":9.0,"wind_gusts":45.7,"aqi":70,"pm10":58.6,"pm2_5":22.6,"no2":8.2,"co":263.0,"o3":44.0,"so2":2.5,"mosquito_risk":7,"arthritis_risk":5,"migraine_risk":4,"frizz_risk":1,"updated_at":"2026-05-04T04:18:25.071738+05:30"},{"city":"Hubli-Dharwad","state":"Karnataka","latitude":15.3647,"longitude":75.124,"temp":22.4,"humidity":96,"rain":0.0,"pressure":939.0,"uv_index":9.15,"wind_gusts":43.6,"aqi":57,"pm10":30.7,"pm2_5":12.5,"no2":4.0,"co":189.0,"o3":56.0,"so2":1.3,"mosquito_risk":3,"arthritis_risk":5,"migraine_risk":7,"frizz_risk":1,"updated_at":"2026-05-04T04:18:25.071745+05:30"},{"city":"Belgaum","state":"Karnataka","latitude":15.8497,"longitude":74.4977,"temp":20.5,"humidity":100,"rain":0.0,"pressure":923.3,"uv_index":9.15,"wind_gusts":41.0,"aqi":58,"pm10":33.1,"pm2_5":15.2,"no2":6.9,"co":160.0,"o3":47.0,"so2":0.7,"mosquito_risk":3,"arthritis_risk":5,"migraine_risk":7,"frizz_risk":1,"updated_at":"2026-05-04T04:18:28.409502+05:30"},{"city":"Coimbatore","state":"Tamil Nadu","latitude":11.0168,"longitude":76.9558,"temp":24.8,"humidity":87,"rain":0.0,"pressure":959.4,"uv_index":9.35,"wind_gusts":47.5,"aqi":64,"pm10":47.0,"pm2_5":20.7,"no2":5.6,"co":186.0,"o3":58.0,"so2":2.6,"mosquito_risk":3,"arthritis_risk":5,"migraine_risk":7,"frizz_risk":1,"updated_at":"2026-05-04T04:18:28.409531+05:30"},{"city":"Madurai","state":"Tamil Nadu","latitude":9.9252,"longitude":78.1198,"temp":28.0,"humidity":70,"rain":0.0,"pressure":990.4,"uv_index":6.35,"wind_gusts":46.4,"aqi":87,"pm10":42.0,"pm2_5":36.0,"no2":43.0,"co":362.0,"o3":1.0,"so2":5.8,"mosquito_risk":7,"arthritis_risk":5,"migraine_risk":7,"frizz_risk":1,"updated_at":"2026-05-04T04:18:28.409542+05:30"},{"city":"Trichy","state":"Tamil Nadu","latitude":10.7905,"longitude":78.7047,"temp":29.1,"humidity":63,"rain":0.0,"pressure":997.2,"uv_index":8.95,"wind_gusts":40.3,"aqi":76,"pm10":27.8,"pm2_5":25.6,"no2":22.8,"co":277.0,"o3":38.0,"so2":5.1,"mosquito_risk":7,"arthritis_risk":5,"migraine_risk":7,"frizz_risk":1,"updated_at":"2026-05-04T04:18:28.409549+05:30"},{"city":"Salem","state":"Tamil Nadu","latitude":11.6643,"longitude":78.146,"temp":27.6,"humidity":70,"rain":0.0,"pressure":975.3,"uv_index":9.3,"wind_gusts":61.9,"aqi":79,"pm10":33.9,"pm2_5":22.9,"no2":16.8,"co":222.0,"o3":37.0,"so2":5.9,"mosquito_risk":7,"arthritis_risk":5,"migraine_risk":7,"frizz_risk":1,"updated_at":"2026-05-04T04:18:28.409556+05:30"},{"city":"Tirunelveli","state":"Tamil Nadu","latitude":8.7139,"longitude":77.7567,"temp":27.5,"humidity":78,"rain":0.0,"pressure":1000.5,"uv_index":8.55,"wind_gusts":33.5,"aqi":72,"pm10":30.7,"pm2_5":24.2,"no2":6.9,"co":218.0,"o3":51.0,"so2":1.6,"mosquito_risk":7,"arthritis_risk":5,"migraine_risk":4,"frizz_risk":1,"updated_at":"2026-05-04T04:18:28.409564+05:30"},{"city":"Vellore","state":"Tamil Nadu","latitude":12.9165,"longitude":79.1325,"temp":28.1,"humidity":66,"rain":0.0,"pressure":981.6,"uv_index":9.05,"wind_gusts":45.7,"aqi":85,"pm10":33.8,"pm2_5":31.9,"no2":16.7,"co":320.0,"o3":57.0,"so2":14.5,"mosquito_risk":7,"arthritis_risk":5,"migraine_risk":7,"frizz_risk":1,"updated_at":"2026-05-04T04:18:28.409571+05:30"},{"city":"Erode","state":"Tamil Nadu","latitude":11.341,"longitude":77.7172,"temp":26.9,"humidity":78,"rain":0.0,"pressure":986.9,"uv_index":9.3,"wind_gusts":51.5,"aqi":67,"pm10":34.7,"pm2_5":20.3,"no2":12.4,"co":200.0,"o3":44.0,"so2":3.5,"mosquito_risk":7,"arthritis_risk":5,"migraine_risk":7,"frizz_risk":1,"updated_at":"2026-05-04T04:18:28.409578+05:30"},{"city":"Kochi","state":"Kerala","latitude":9.9312,"longitude":76.2673,"temp":26.9,"humidity":95,"rain":0.0,"pressure":1007.1,"uv_index":8.9,"wind_gusts":30.2,"aqi":98,"pm10":72.2,"pm2_5":56.0,"no2":39.5,"co":501.0,"o3":5.0,"so2":5.1,"mosquito_risk":7,"arthritis_risk":5,"migraine_risk":4,"frizz_risk":1,"updated_at":"2026-05-04T04:18:28.409585+05:30"},{"city":"Thiruvananthapuram","state":"Kerala","latitude":8.5241,"longitude":76.9366,"temp":25.1,"humidity":99,"rain":0.0,"pressure":1006.4,"uv_index":8.45,"wind_gusts":40.3,"aqi":59,"pm10":33.4,"pm2_5":18.9,"no2":4.0,"co":288.0,"o3":61.0,"so2":1.8,"mosquito_risk":7,"arthritis_risk":5,"migraine_risk":4,"frizz_risk":1,"updated_at":"2026-05-04T04:18:28.409592+05:30"},{"city":"Kozhikode","state":"Kerala","latitude":11.2588,"longitude":75.7804,"temp":25.8,"humidity":95,"rain":0.0,"pressure":1006.2,"uv_index":9.05,"wind_gusts":41.0,"aqi":67,"pm10":75.2,"pm2_5":22.4,"no2":2.3,"co":351.0,"o3":69.0,"so2":0.8,"mosquito_risk":7,"arthritis_risk":5,"migraine_risk":4,"frizz_risk":1,"updated_at":"2026-05-04T04:18:28.409598+05:30"},{"city":"Thrissur","state":"Kerala","latitude":10.5276,"longitude":76.2144,"temp":25.5,"humidity":91,"rain":0.0,"pressure":1005.4,"uv_index":9.05,"wind_gusts":34.2,"aqi":89,"pm10":73.3,"pm2_5":46.3,"no2":29.8,"co":226.0,"o3":17.0,"so2":3.1,"mosquito_risk":7,"arthritis_risk":5,"migraine_risk":4,"frizz_risk":1,"updated_at":"2026-05-04T04:18:28.409605+05:30"},{"city":"Kannur","state":"Kerala","latitude":11.8745,"longitude":75.3704,"temp":27.0,"humidity":82,"rain":0.0,"pressure":1005.5,"uv_index":8.6,"wind_gusts":48.2,"aqi":68,"pm10":50.9,"pm2_5":19.8,"no2":9.4,"co":408.0,"o3":38.0,"so2":1.6,"mosquito_risk":7,"arthritis_risk":5,"migraine_risk":4,"frizz_risk":1,"updated_at":"2026-05-04T04:18:28.409611+05:30"},{"city":"Patna","state":"Bihar","latitude":25.5941,"longitude":85.1376,"temp":23.9,"humidity":87,"rain":0.0,"pressure":1000.7,"uv_index":8.7,"wind_gusts":59.0,"aqi":126,"pm10":41.2,"pm2_5":34.6,"no2":12.2,"co":361.0,"o3":80.0,"so2":10.2,"mosquito_risk":3,"arthritis_risk":5,"migraine_risk":4,"frizz_risk":1,"updated_at":"2026-05-04T04:18:28.409618+05:30"},{"city":"Gaya","state":"Bihar","latitude":24.7914,"longitude":85.0002,"temp":24.2,"humidity":82,"rain":0.0,"pressure":993.1,"uv_index":8.8,"wind_gusts":41.8,"aqi":149,"pm10":57.0,"pm2_5":50.4,"no2":11.0,"co":359.0,"o3":85.0,"so2":12.3,"mosquito_risk":3,"arthritis_risk":5,"migraine_risk":7,"frizz_risk":1,"updated_at":"2026-05-04T04:18:28.409624+05:30"},{"city":"Muzaffarpur","state":"Bihar","latitude":26.1209,"longitude":85.3647,"temp":23.3,"humidity":83,"rain":0.0,"pressure":1001.2,"uv_index":8.7,"wind_gusts":39.6,"aqi":102,"pm10":36.1,"pm2_5":31.3,"no2":12.1,"co":374.0,"o3":74.0,"so2":8.5,"mosquito_risk":3,"arthritis_risk":5,"migraine_risk":4,"frizz_risk":1,"updated_at":"2026-05-04T04:18:28.409630+05:30"},{"city":"Bhagalpur","state":"Bihar","latitude":25.2425,"longitude":87.0117,"temp":22.2,"humidity":95,"rain":0.0,"pressure":1002.3,"uv_index":8.7,"wind_gusts":31.7,"aqi":128,"pm10":61.2,"pm2_5":47.3,"no2":9.3,"co":331.0,"o3":90.0,"so2":5.4,"mosquito_risk":3,"arthritis_risk":5,"migraine_risk":4,"frizz_risk":1,"updated_at":"2026-05-04T04:18:28.409636+05:30"},{"city":"Ranchi","state":"Jharkhand","latitude":23.3441,"longitude":85.3096,"temp":22.4,"humidity":99,"rain":0.0,"pressure":936.3,"uv_index":9.25,"wind_gusts":43.2,"aqi":82,"pm10":59.6,"pm2_5":53.0,"no2":30.9,"co":385.0,"o3":46.0,"so2":39.7,"mosquito_risk":3,"arthritis_risk":5,"migraine_risk":7,"frizz_risk":1,"updated_at":"2026-05-04T04:18:28.409642+05:30"},{"city":"Jamshedpur","state":"Jharkhand","latitude":22.8046,"longitude":86.2029,"temp":25.3,"humidity":92,"rain":0.0,"pressure":989.7,"uv_index":9.1,"wind_gusts":30.2,"aqi":111,"pm10":41.8,"pm2_5":33.8,"no2":20.9,"co":299.0,"o3":53.0,"so2":14.3,"mosquito_risk":7,"arthritis_risk":5,"migraine_risk":7,"frizz_risk":1,"updated_at":"2026-05-04T04:18:28.409649+05:30"},{"city":"Dhanbad","state":"Jharkhand","latitude":23.7957,"longitude":86.4304,"temp":24.4,"humidity":89,"rain":0.0,"pressure":979.4,"uv_index":9.0,"wind_gusts":34.9,"aqi":153,"pm10":62.4,"pm2_5":57.5,"no2":37.5,"co":547.0,"o3":51.0,"so2":43.2,"mosquito_risk":3,"arthritis_risk":5,"migraine_risk":7,"frizz_risk":1,"updated_at":"2026-05-04T04:18:28.409655+05:30"},{"city":"Bokaro","state":"Jharkhand","latitude":23.6693,"longitude":86.1511,"temp":24.7,"humidity":92,"rain":0.0,"pressure":983.2,"uv_index":9.05,"wind_gusts":38.5,"aqi":156,"pm10":66.1,"pm2_5":59.8,"no2":36.4,"co":582.0,"o3":57.0,"so2":51.1,"mosquito_risk":3,"arthritis_risk":5,"migraine_risk":7,"frizz_risk":1,"updated_at":"2026-05-04T04:18:28.409661+05:30"},{"city":"Bhubaneswar","state":"Odisha","latitude":20.2961,"longitude":85.8245,"temp":25.5,"humidity":97,"rain":0.0,"pressure":1001.4,"uv_index":9.1,"wind_gusts":36.0,"aqi":73,"pm10":20.5,"pm2_5":16.1,"no2":5.0,"co":167.0,"o3":72.0,"so2":2.9,"mosquito_risk":7,"arthritis_risk":5,"migraine_risk":4,"frizz_risk":1,"updated_at":"2026-05-04T04:18:28.409667+05:30"},{"city":"Cuttack","state":"Odisha","latitude":20.4625,"longitude":85.8828,"temp":25.7,"humidity":97,"rain":0.0,"pressure":1003.3,"uv_index":9.15,"wind_gusts":33.5,"aqi":73,"pm10":20.5,"pm2_5":16.1,"no2":5.0,"co":179.0,"o3":72.0,"so2":2.9,"mosquito_risk":7,"arthritis_risk":5,"migraine_risk":4,"frizz_risk":1,"updated_at":"2026-05-04T04:18:28.409673+05:30"},{"city":"Rourkela","state":"Odisha","latitude":22.2604,"longitude":84.8536,"temp":25.9,"humidity":78,"rain":0.0,"pressure":983.1,"uv_index":8.7,"wind_gusts":28.4,"aqi":104,"pm10":52.4,"pm2_5":40.6,"no2":24.9,"co":414.0,"o3":61.0,"so2":42.8,"mosquito_risk":7,"arthritis_risk":5,"migraine_risk":7,"frizz_risk":1,"updated_at":"2026-05-04T04:18:28.409680+05:30"},{"city":"Raipur","state":"Chhattisgarh","latitude":21.2514,"longitude":81.6296,"temp":27.9,"humidity":41,"rain":0.0,"pressure":971.1,"uv_index":9.0,"wind_gusts":57.2,"aqi":96,"pm10":49.8,"pm2_5":36.6,"no2":29.4,"co":327.0,"o3":43.0,"so2":6.3,"mosquito_risk":4,"arthritis_risk":5,"migraine_risk":7,"frizz_risk":0,"updated_at":"2026-05-04T04:18:28.409686+05:30"},{"city":"Bhilai","state":"Chhattisgarh","latitude":21.1938,"longitude":81.3509,"temp":27.4,"humidity":46,"rain":0.0,"pressure":971.4,"uv_index":9.0,"wind_gusts":59.8,"aqi":102,"pm10":66.4,"pm2_5":45.9,"no2":41.5,"co":467.0,"o3":28.0,"so2":7.5,"mosquito_risk":4,"arthritis_risk":5,"migraine_risk":7,"frizz_risk":0,"updated_at":"2026-05-04T04:18:28.409692+05:30"},{"city":"Guwahati","state":"Assam","latitude":26.1158,"longitude":91.7086,"temp":19.6,"humidity":93,"rain":0.0,"pressure":1003.7,"uv_index":8.35,"wind_gusts":28.8,"aqi":67,"pm10":36.2,"pm2_5":31.7,"no2":13.1,"co":348.0,"o3":42.0,"so2":2.7,"mosquito_risk":3,"arthritis_risk":10,"migraine_risk":4,"frizz_risk":1,"updated_at":"2026-05-04T04:18:28.409698+05:30"},{"city":"Agartala","state":"Tripura","latitude":23.8315,"longitude":91.2868,"temp":21.5,"humidity":98,"rain":0.2,"pressure":1007.8,"uv_index":8.85,"wind_gusts":31.3,"aqi":50,"pm10":19.0,"pm2_5":10.3,"no2":7.6,"co":175.0,"o3":77.0,"so2":1.2,"mosquito_risk":6,"arthritis_risk":5,"migraine_risk":4,"frizz_risk":1,"updated_at":"2026-05-04T04:18:28.409705+05:30"},{"city":"Shillong","state":"Meghalaya","latitude":25.5788,"longitude":91.8933,"temp":13.8,"humidity":92,"rain":0.0,"pressure":856.0,"uv_index":8.5,"wind_gusts":31.0,"aqi":56,"pm10":27.4,"pm2_5":20.5,"no2":8.1,"co":274.0,"o3":56.0,"so2":0.7,"mosquito_risk":3,"arthritis_risk":10,"migraine_risk":7,"frizz_risk":0,"updated_at":"2026-05-04T04:18:28.409711+05:30"},{"city":"Imphal","state":"Manipur","latitude":24.817,"longitude":93.9368,"temp":17.6,"humidity":97,"rain":0.0,"pressure":924.4,"uv_index":8.0,"wind_gusts":25.2,"aqi":79,"pm10":72.2,"pm2_5":51.6,"no2":26.7,"co":216.0,"o3":29.0,"so2":4.1,"mosquito_risk":3,"arthritis_risk":10,"migraine_risk":7,"frizz_risk":1,"updated_at":"2026-05-04T04:18:28.409717+05:30"},{"city":"Aizawl","state":"Mizoram","latitude":23.7271,"longitude":92.7176,"temp":13.4,"humidity":99,"rain":0.0,"pressure":891.2,"uv_index":8.85,"wind_gusts":36.7,"aqi":32,"pm10":7.7,"pm2_5":6.8,"no2":13.3,"co":322.0,"o3":10.0,"so2":0.2,"mosquito_risk":3,"arthritis_risk":10,"migraine_risk":7,"frizz_risk":0,"updated_at":"2026-05-04T04:18:28.409724+05:30"},{"city":"Kohima","state":"Nagaland","latitude":25.6701,"longitude":94.1077,"temp":12.4,"humidity":95,"rain":0.0,"pressure":853.8,"uv_index":8.6,"wind_gusts":29.2,"aqi":55,"pm10":39.0,"pm2_5":29.3,"no2":14.8,"co":216.0,"o3":25.0,"so2":0.6,"mosquito_risk":3,"arthritis_risk":10,"migraine_risk":7,"frizz_risk":0,"updated_at":"2026-05-04T04:18:28.409730+05:30"},{"city":"Gangtok","state":"Sikkim","latitude":27.3314,"longitude":88.6138,"temp":11.9,"humidity":98,"rain":0.2,"pressure":836.5,"uv_index":8.9,"wind_gusts":41.8,"aqi":50,"pm10":35.5,"pm2_5":29.5,"no2":10.6,"co":348.0,"o3":97.0,"so2":1.0,"mosquito_risk":6,"arthritis_risk":10,"migraine_risk":7,"frizz_risk":0,"updated_at":"2026-05-04T04:18:28.409736+05:30"},{"city":"Siliguri","state":"West Bengal","latitude":26.7271,"longitude":88.3953,"temp":20.4,"humidity":85,"rain":0.1,"pressure":995.2,"uv_index":8.35,"wind_gusts":31.7,"aqi":67,"pm10":48.7,"pm2_5":43.0,"no2":17.9,"co":334.0,"o3":89.0,"so2":4.3,"mosquito_risk":6,"arthritis_risk":5,"migraine_risk":7,"frizz_risk":1,"updated_at":"2026-05-04T04:18:31.749661+05:30"},{"city":"Durgapur","state":"West Bengal","latitude":23.5204,"longitude":87.3119,"temp":24.8,"humidity":95,"rain":0.0,"pressure":994.6,"uv_index":8.95,"wind_gusts":36.4,"aqi":138,"pm10":54.0,"pm2_5":49.0,"no2":23.2,"co":470.0,"o3":73.0,"so2":23.3,"mosquito_risk":3,"arthritis_risk":5,"migraine_risk":7,"frizz_risk":1,"updated_at":"2026-05-04T04:18:31.749692+05:30"},{"city":"Asansol","state":"West Bengal","latitude":23.6739,"longitude":86.9524,"temp":24.9,"humidity":92,"rain":0.0,"pressure":993.3,"uv_index":9.0,"wind_gusts":38.2,"aqi":148,"pm10":55.2,"pm2_5":51.2,"no2":24.4,"co":433.0,"o3":65.0,"so2":24.8,"mosquito_risk":3,"arthritis_risk":5,"migraine_risk":7,"frizz_risk":1,"updated_at":"2026-05-04T04:18:31.749702+05:30"},{"city":"Pondicherry","state":"Puducherry","latitude":11.9139,"longitude":79.8145,"temp":27.0,"humidity":89,"rain":0.0,"pressure":1005.1,"uv_index":9.2,"wind_gusts":46.4,"aqi":77,"pm10":20.2,"pm2_5":15.8,"no2":6.2,"co":197.0,"o3":91.0,"so2":5.2,"mosquito_risk":7,"arthritis_risk":5,"migraine_risk":4,"frizz_risk":1,"updated_at":"2026-05-04T04:18:31.749710+05:30"},{"city":"Port Blair","state":"Andaman and Nicobar Islands","latitude":11.6234,"longitude":92.7265,"temp":26.0,"humidity":87,"rain":0.0,"pressure":1006.7,"uv_index":9.1,"wind_gusts":33.1,"aqi":27,"pm10":6.1,"pm2_5":4.4,"no2":0.5,"co":192.0,"o3":56.0,"so2":0.3,"mosquito_risk":7,"arthritis_risk":5,"migraine_risk":4,"frizz_risk":1,"updated_at":"2026-05-04T04:18:31.749717+05:30"},{"city":"Haridwar","state":"Uttarakhand","latitude":29.9457,"longitude":78.1642,"temp":21.8,"humidity":78,"rain":0.0,"pressure":972.7,"uv_index":6.65,"wind_gusts":45.7,"aqi":127,"pm10":100.1,"pm2_5":43.8,"no2":11.4,"co":312.0,"o3":88.0,"so2":8.9,"mosquito_risk":3,"arthritis_risk":5,"migraine_risk":7,"frizz_risk":1,"updated_at":"2026-05-04T04:18:31.749724+05:30"},{"city":"Rishikesh","state":"Uttarakhand","latitude":30.0869,"longitude":78.2676,"temp":19.3,"humidity":85,"rain":0.0,"pressure":965.1,"uv_index":6.3,"wind_gusts":49.7,"aqi":113,"pm10":111.1,"pm2_5":36.7,"no2":10.9,"co":360.0,"o3":87.0,"so2":5.6,"mosquito_risk":3,"arthritis_risk":10,"migraine_risk":7,"frizz_risk":1,"updated_at":"2026-05-04T04:18:31.749732+05:30"},{"city":"Nainital","state":"Uttarakhand","latitude":29.3919,"longitude":79.4542,"temp":10.9,"humidity":90,"rain":0.0,"pressure":801.5,"uv_index":5.4,"wind_gusts":35.6,"aqi":106,"pm10":74.3,"pm2_5":33.2,"no2":8.2,"co":267.0,"o3":97.0,"so2":2.6,"mosquito_risk":3,"arthritis_risk":10,"migraine_risk":3,"frizz_risk":0,"updated_at":"2026-05-04T04:18:31.749739+05:30"},{"city":"Mussoorie","state":"Uttarakhand","latitude":30.4599,"longitude":78.0664,"temp":10.1,"humidity":88,"rain":0.0,"pressure":799.6,"uv_index":5.95,"wind_gusts":47.9,"aqi":94,"pm10":46.0,"pm2_5":25.6,"no2":24.4,"co":266.0,"o3":47.0,"so2":5.5,"mosquito_risk":3,"arthritis_risk":10,"migraine_risk":3,"frizz_risk":0,"updated_at":"2026-05-04T04:18:31.749746+05:30"},{"city":"Dharamshala","state":"Himachal Pradesh","latitude":32.219,"longitude":76.3234,"temp":18.3,"humidity":42,"rain":0.0,"pressure":865.9,"uv_index":6.7,"wind_gusts":54.4,"aqi":45,"pm10":16.0,"pm2_5":8.0,"no2":2.0,"co":168.0,"o3":128.0,"so2":0.0,"mosquito_risk":0,"arthritis_risk":5,"migraine_risk":7,"frizz_risk":0,"updated_at":"2026-05-04T04:18:31.749753+05:30"},{"city":"Dalhousie","state":"Himachal Pradesh","latitude":32.5387,"longitude":75.971,"temp":8.5,"humidity":91,"rain":0.0,"pressure":797.7,"uv_index":5.4,"wind_gusts":50.8,"aqi":59,"pm10":27.3,"pm2_5":17.2,"no2":8.2,"co":161.0,"o3":87.0,"so2":0.4,"mosquito_risk":3,"arthritis_risk":10,"migraine_risk":3,"frizz_risk":0,"updated_at":"2026-05-04T04:18:31.749761+05:30"},{"city":"Patiala","state":"Punjab","latitude":30.3398,"longitude":76.3869,"temp":22.6,"humidity":84,"rain":0.1,"pressure":974.9,"uv_index":7.35,"wind_gusts":70.6,"aqi":838,"pm10":89.9,"pm2_5":41.1,"no2":8.2,"co":373.0,"o3":100.0,"so2":9.2,"mosquito_risk":6,"arthritis_risk":5,"migraine_risk":7,"frizz_risk":1,"updated_at":"2026-05-04T04:18:31.749769+05:30"},{"city":"Bhatinda","state":"Punjab","latitude":30.211,"longitude":74.9455,"temp":24.6,"humidity":61,"rain":0.0,"pressure":979.4,"uv_index":8.0,"wind_gusts":55.1,"aqi":593,"pm10":301.7,"pm2_5":66.4,"no2":5.2,"co":396.0,"o3":114.0,"so2":10.9,"mosquito_risk":3,"arthritis_risk":5,"migraine_risk":7,"frizz_risk":1,"updated_at":"2026-05-04T04:18:31.749776+05:30"},{"city":"Rohtak","state":"Haryana","latitude":28.8955,"longitude":76.6066,"temp":25.0,"humidity":67,"rain":0.0,"pressure":979.0,"uv_index":7.5,"wind_gusts":63.4,"aqi":855,"pm10":1065.4,"pm2_5":152.3,"no2":9.7,"co":342.0,"o3":117.0,"so2":17.4,"mosquito_risk":7,"arthritis_risk":5,"migraine_risk":7,"frizz_risk":1,"updated_at":"2026-05-04T04:18:31.749783+05:30"},{"city":"Panipat","state":"Haryana","latitude":29.3909,"longitude":76.9635,"temp":21.6,"humidity":83,"rain":0.0,"pressure":978.7,"uv_index":7.35,"wind_gusts":63.0,"aqi":1414,"pm10":1348.6,"pm2_5":160.7,"no2":9.3,"co":332.0,"o3":111.0,"so2":15.7,"mosquito_risk":3,"arthritis_risk":5,"migraine_risk":7,"frizz_risk":1,"updated_at":"2026-05-04T04:18:31.749789+05:30"},{"city":"Mathura","state":"Uttar Pradesh","latitude":27.4924,"longitude":77.6737,"temp":24.6,"humidity":73,"rain":0.0,"pressure":984.0,"uv_index":7.8,"wind_gusts":57.6,"aqi":1029,"pm10":1043.1,"pm2_5":135.5,"no2":4.9,"co":292.0,"o3":113.0,"so2":8.8,"mosquito_risk":3,"arthritis_risk":5,"migraine_risk":7,"frizz_risk":1,"updated_at":"2026-05-04T04:18:31.749796+05:30"},{"city":"Vrindavan","state":"Uttar Pradesh","latitude":27.5823,"longitude":77.7027,"temp":24.8,"humidity":71,"rain":0.0,"pressure":984.5,"uv_index":7.75,"wind_gusts":57.2,"aqi":1029,"pm10":1043.1,"pm2_5":135.5,"no2":4.9,"co":292.0,"o3":113.0,"so2":8.8,"mosquito_risk":3,"arthritis_risk":5,"migraine_risk":7,"frizz_risk":1,"updated_at":"2026-05-04T04:18:31.749802+05:30"},{"city":"Ayodhya","state":"Uttar Pradesh","latitude":26.7922,"longitude":82.1998,"temp":23.4,"humidity":84,"rain":0.0,"pressure":995.1,"uv_index":8.2,"wind_gusts":49.3,"aqi":89,"pm10":36.6,"pm2_5":31.5,"no2":9.5,"co":408.0,"o3":100.0,"so2":8.5,"mosquito_risk":3,"arthritis_risk":5,"migraine_risk":7,"frizz_risk":1,"updated_at":"2026-05-04T04:18:31.749809+05:30"},{"city":"Ratlam","state":"Madhya Pradesh","latitude":23.3315,"longitude":75.0367,"temp":24.5,"humidity":82,"rain":0.0,"pressure":950.5,"uv_index":8.5,"wind_gusts":37.8,"aqi":47,"pm10":18.3,"pm2_5":10.0,"no2":4.8,"co":165.0,"o3":65.0,"so2":11.6,"mosquito_risk":3,"arthritis_risk":5,"migraine_risk":7,"frizz_risk":1,"updated_at":"2026-05-04T04:18:31.749816+05:30"},{"city":"Sagar","state":"Madhya Pradesh","latitude":23.8388,"longitude":78.7378,"temp":25.1,"humidity":48,"rain":0.0,"pressure":945.4,"uv_index":8.65,"wind_gusts":43.2,"aqi":65,"pm10":47.6,"pm2_5":18.1,"no2":8.9,"co":235.0,"o3":66.0,"so2":2.5,"mosquito_risk":4,"arthritis_risk":5,"migraine_risk":7,"frizz_risk":0,"updated_at":"2026-05-04T04:18:31.749822+05:30"},{"city":"Satna","state":"Madhya Pradesh","latitude":24.6005,"longitude":80.8322,"temp":25.2,"humidity":70,"rain":0.0,"pressure":968.2,"uv_index":8.25,"wind_gusts":67.0,"aqi":126,"pm10":50.2,"pm2_5":44.4,"no2":6.8,"co":397.0,"o3":123.0,"so2":15.4,"mosquito_risk":7,"arthritis_risk":5,"migraine_risk":7,"frizz_risk":1,"updated_at":"2026-05-04T04:18:31.749829+05:30"},{"city":"Akola","state":"Maharashtra","latitude":20.7002,"longitude":77.0082,"temp":27.6,"humidity":31,"rain":0.0,"pressure":971.7,"uv_index":8.85,"wind_gusts":33.1,"aqi":54,"pm10":13.7,"pm2_5":8.1,"no2":5.9,"co":181.0,"o3":76.0,"so2":11.3,"mosquito_risk":4,"arthritis_risk":5,"migraine_risk":7,"frizz_risk":0,"updated_at":"2026-05-04T04:18:31.749836+05:30"},{"city":"Amravati","state":"Maharashtra","latitude":20.9374,"longitude":77.7796,"temp":28.0,"humidity":26,"rain":0.0,"pressure":963.7,"uv_index":8.9,"wind_gusts":32.4,"aqi":57,"pm10":11.8,"pm2_5":7.3,"no2":6.1,"co":179.0,"o3":80.0,"so2":11.1,"mosquito_risk":4,"arthritis_risk":5,"migraine_risk":7,"frizz_risk":0,"updated_at":"2026-05-04T04:18:31.749844+05:30"},{"city":"Latur","state":"Maharashtra","latitude":18.4088,"longitude":76.5604,"temp":26.2,"humidity":31,"rain":0.0,"pressure":936.6,"uv_index":9.1,"wind_gusts":45.0,"aqi":62,"pm10":30.4,"pm2_5":12.4,"no2":6.0,"co":204.0,"o3":75.0,"so2":3.7,"mosquito_risk":4,"arthritis_risk":5,"migraine_risk":7,"frizz_risk":0,"updated_at":"2026-05-04T04:18:31.749851+05:30"},{"city":"Nanded","state":"Maharashtra","latitude":19.1383,"longitude":77.3091,"temp":28.2,"humidity":29,"rain":0.0,"pressure":965.1,"uv_index":9.0,"wind_gusts":28.8,"aqi":61,"pm10":20.1,"pm2_5":13.3,"no2":8.5,"co":194.0,"o3":71.0,"so2":5.8,"mosquito_risk":4,"arthritis_risk":5,"migraine_risk":7,"frizz_risk":0,"updated_at":"2026-05-04T04:18:31.749857+05:30"},{"city":"Gulbarga","state":"Karnataka","latitude":17.3297,"longitude":76.8343,"temp":27.8,"humidity":40,"rain":0.0,"pressure":955.8,"uv_index":9.1,"wind_gusts":40.7,"aqi":58,"pm10":21.2,"pm2_5":10.7,"no2":5.0,"co":202.0,"o3":68.0,"so2":3.6,"mosquito_risk":4,"arthritis_risk":5,"migraine_risk":7,"frizz_risk":0,"updated_at":"2026-05-04T04:18:31.749863+05:30"},{"city":"Bidar","state":"Karnataka","latitude":17.9104,"longitude":77.5199,"temp":25.3,"humidity":36,"rain":0.0,"pressure":932.4,"uv_index":9.15,"wind_gusts":33.5,"aqi":75,"pm10":56.0,"pm2_5":32.0,"no2":24.2,"co":301.0,"o3":45.0,"so2":6.2,"mosquito_risk":4,"arthritis_risk":5,"migraine_risk":7,"frizz_risk":0,"updated_at":"2026-05-04T04:18:31.749870+05:30"},{"city":"Hospet","state":"Karnataka","latitude":15.2689,"longitude":76.3909,"temp":24.0,"humidity":88,"rain":0.0,"pressure":953.7,"uv_index":9.2,"wind_gusts":36.0,"aqi":60,"pm10":25.0,"pm2_5":12.4,"no2":6.2,"co":178.0,"o3":50.0,"so2":1.8,"mosquito_risk":3,"arthritis_risk":5,"migraine_risk":7,"frizz_risk":1,"updated_at":"2026-05-04T04:18:31.749876+05:30"},{"city":"Tirupur","state":"Tamil Nadu","latitude":11.1085,"longitude":77.3411,"temp":25.6,"humidity":85,"rain":0.0,"pressure":973.0,"uv_index":9.4,"wind_gusts":47.5,"aqi":69,"pm10":41.2,"pm2_5":22.5,"no2":13.8,"co":178.0,"o3":41.0,"so2":4.2,"mosquito_risk":7,"arthritis_risk":5,"migraine_risk":7,"frizz_risk":1,"updated_at":"2026-05-04T04:18:31.749882+05:30"},{"city":"Alappuzha","state":"Kerala","latitude":9.4981,"longitude":76.3388,"temp":26.2,"humidity":97,"rain":0.0,"pressure":1007.0,"uv_index":8.7,"wind_gusts":34.9,"aqi":81,"pm10":61.5,"pm2_5":29.8,"no2":10.5,"co":181.0,"o3":54.0,"so2":2.7,"mosquito_risk":7,"arthritis_risk":5,"migraine_risk":4,"frizz_risk":1,"updated_at":"2026-05-04T04:18:31.749889+05:30"},{"city":"Munnar","state":"Kerala","latitude":10.0889,"longitude":77.0595,"temp":16.4,"humidity":79,"rain":0.0,"pressure":854.2,"uv_index":8.65,"wind_gusts":28.1,"aqi":73,"pm10":36.4,"pm2_5":29.8,"no2":9.8,"co":232.0,"o3":34.0,"so2":0.4,"mosquito_risk":3,"arthritis_risk":5,"migraine_risk":7,"frizz_risk":0,"updated_at":"2026-05-04T04:18:31.749896+05:30"},{"city":"Silchar","state":"Assam","latitude":24.8333,"longitude":92.7789,"temp":20.8,"humidity":100,"rain":0.0,"pressure":1006.9,"uv_index":8.6,"wind_gusts":26.6,"aqi":79,"pm10":63.1,"pm2_5":43.8,"no2":18.5,"co":336.0,"o3":27.0,"so2":3.8,"mosquito_risk":3,"arthritis_risk":5,"migraine_risk":4,"frizz_risk":1,"updated_at":"2026-05-04T04:18:31.749902+05:30"},{"city":"Dibrugarh","state":"Assam","latitude":27.4728,"longitude":94.912,"temp":19.6,"humidity":99,"rain":0.0,"pressure":998.3,"uv_index":8.8,"wind_gusts":20.5,"aqi":80,"pm10":38.4,"pm2_5":35.5,"no2":30.3,"co":397.0,"o3":14.0,"so2":1.2,"mosquito_risk":3,"arthritis_risk":10,"migraine_risk":7,"frizz_risk":1,"updated_at":"2026-05-04T04:18:31.749908+05:30"}]