[{"city":"Delhi","state":"Delhi","latitude":28.6139,"longitude":77.209,"temp":33.8,"humidity":43,"rain":0.0,"pressure":980.9,"uv_index":7.75,"wind_gusts":47.5,"aqi":676,"pm10":472.2,"pm2_5":118.0,"no2":32.0,"co":902.0,"o3":107.0,"so2":34.3,"mosquito_risk":0,"arthritis_risk":5,"migraine_risk":7,"frizz_risk":1,"updated_at":"2026-05-28T09:24:04.234301+05:30"},{"city":"Mumbai","state":"Maharashtra","latitude":19.076,"longitude":72.8777,"temp":32.3,"humidity":62,"rain":0.0,"pressure":1010.9,"uv_index":7.8,"wind_gusts":39.2,"aqi":43,"pm10":39.2,"pm2_5":16.0,"no2":6.2,"co":206.0,"o3":57.0,"so2":6.6,"mosquito_risk":3,"arthritis_risk":0,"migraine_risk":4,"frizz_risk":1,"updated_at":"2026-05-28T09:24:04.234354+05:30"},{"city":"Bangalore","state":"Karnataka","latitude":12.9716,"longitude":77.5946,"temp":26.1,"humidity":73,"rain":0.0,"pressure":915.1,"uv_index":8.75,"wind_gusts":35.3,"aqi":69,"pm10":15.9,"pm2_5":14.3,"no2":13.2,"co":484.0,"o3":74.0,"so2":6.3,"mosquito_risk":7,"arthritis_risk":5,"migraine_risk":7,"frizz_risk":1,"updated_at":"2026-05-28T09:24:04.234367+05:30"},{"city":"Hyderabad","state":"Telangana","latitude":17.385,"longitude":78.4867,"temp":30.7,"humidity":59,"rain":0.0,"pressure":955.3,"uv_index":8.9,"wind_gusts":31.7,"aqi":66,"pm10":19.2,"pm2_5":17.9,"no2":12.9,"co":528.0,"o3":75.0,"so2":8.0,"mosquito_risk":0,"arthritis_risk":5,"migraine_risk":7,"frizz_risk":1,"updated_at":"2026-05-28T09:24:04.234375+05:30"},{"city":"Chennai","state":"Tamil Nadu","latitude":13.0827,"longitude":80.2707,"temp":35.0,"humidity":49,"rain":0.0,"pressure":1008.2,"uv_index":8.55,"wind_gusts":38.2,"aqi":75,"pm10":28.8,"pm2_5":24.1,"no2":17.8,"co":416.0,"o3":68.0,"so2":19.9,"mosquito_risk":0,"arthritis_risk":0,"migraine_risk":4,"frizz_risk":1,"updated_at":"2026-05-28T09:24:04.234381+05:30"},{"city":"Kolkata","state":"West Bengal","latitude":22.5726,"longitude":88.3639,"temp":32.0,"humidity":69,"rain":0.0,"pressure":1005.7,"uv_index":8.9,"wind_gusts":36.7,"aqi":104,"pm10":56.7,"pm2_5":38.1,"no2":3.9,"co":348.0,"o3":120.0,"so2":7.2,"mosquito_risk":3,"arthritis_risk":5,"migraine_risk":4,"frizz_risk":1,"updated_at":"2026-05-28T09:24:04.234388+05:30"},{"city":"Pune","state":"Maharashtra","latitude":18.5204,"longitude":73.8567,"temp":29.7,"humidity":57,"rain":0.0,"pressure":951.2,"uv_index":8.4,"wind_gusts":39.2,"aqi":33,"pm10":8.7,"pm2_5":6.9,"no2":5.9,"co":188.0,"o3":55.0,"so2":8.1,"mosquito_risk":4,"arthritis_risk":5,"migraine_risk":7,"frizz_risk":1,"updated_at":"2026-05-28T09:24:04.234393+05:30"},{"city":"Ahmedabad","state":"Gujarat","latitude":23.0225,"longitude":72.5714,"temp":32.0,"humidity":60,"rain":0.0,"pressure":1003.5,"uv_index":8.1,"wind_gusts":42.8,"aqi":69,"pm10":50.8,"pm2_5":23.3,"no2":4.0,"co":162.0,"o3":51.0,"so2":5.6,"mosquito_risk":0,"arthritis_risk":5,"migraine_risk":4,"frizz_risk":1,"updated_at":"2026-05-28T09:24:04.234399+05:30"},{"city":"Jaipur","state":"Rajasthan","latitude":26.9124,"longitude":75.7873,"temp":36.4,"humidity":31,"rain":0.0,"pressure":958.6,"uv_index":8.25,"wind_gusts":48.6,"aqi":204,"pm10":385.6,"pm2_5":69.2,"no2":3.0,"co":169.0,"o3":78.0,"so2":4.2,"mosquito_risk":0,"arthritis_risk":5,"migraine_risk":10,"frizz_risk":1,"updated_at":"2026-05-28T09:24:04.234408+05:30"},{"city":"Lucknow","state":"Uttar Pradesh","latitude":26.8467,"longitude":80.9462,"temp":32.2,"humidity":52,"rain":0.0,"pressure":992.7,"uv_index":8.2,"wind_gusts":44.6,"aqi":99,"pm10":49.5,"pm2_5":35.3,"no2":6.1,"co":399.0,"o3":122.0,"so2":13.4,"mosquito_risk":0,"arthritis_risk":5,"migraine_risk":7,"frizz_risk":1,"updated_at":"2026-05-28T09:24:04.234413+05:30"},{"city":"Kanpur","state":"Uttar Pradesh","latitude":26.4499,"longitude":80.3319,"temp":33.8,"humidity":48,"rain":0.0,"pressure":990.1,"uv_index":8.2,"wind_gusts":39.2,"aqi":202,"pm10":435.9,"pm2_5":73.8,"no2":6.3,"co":403.0,"o3":136.0,"so2":16.5,"mosquito_risk":0,"arthritis_risk":5,"migraine_risk":7,"frizz_risk":1,"updated_at":"2026-05-28T09:24:04.234419+05:30"},{"city":"Chandigarh","state":"Chandigarh","latitude":30.7333,"longitude":76.7794,"temp":33.0,"humidity":41,"rain":0.0,"pressure":967.1,"uv_index":7.75,"wind_gusts":55.8,"aqi":87,"pm10":73.6,"pm2_5":38.8,"no2":9.9,"co":385.0,"o3":156.0,"so2":12.5,"mosquito_risk":0,"arthritis_risk":5,"migraine_risk":7,"frizz_risk":1,"updated_at":"2026-05-28T09:24:04.234425+05:30"},{"city":"Srinagar","state":"Jammu and Kashmir","latitude":34.0837,"longitude":74.7973,"temp":20.9,"humidity":48,"rain":0.0,"pressure":844.5,"uv_index":8.9,"wind_gusts":37.8,"aqi":70,"pm10":35.5,"pm2_5":17.3,"no2":7.7,"co":393.0,"o3":108.0,"so2":5.8,"mosquito_risk":0,"arthritis_risk":5,"migraine_risk":7,"frizz_risk":0,"updated_at":"2026-05-28T09:24:04.234432+05:30"},{"city":"Jammu","state":"Jammu and Kashmir","latitude":32.7266,"longitude":74.857,"temp":34.0,"humidity":25,"rain":0.0,"pressure":969.2,"uv_index":8.45,"wind_gusts":42.5,"aqi":85,"pm10":42.0,"pm2_5":31.7,"no2":18.4,"co":377.0,"o3":115.0,"so2":4.4,"mosquito_risk":0,"arthritis_risk":5,"migraine_risk":7,"frizz_risk":0,"updated_at":"2026-05-28T09:24:04.234437+05:30"},{"city":"Amritsar","state":"Punjab","latitude":31.634,"longitude":74.8723,"temp":34.2,"humidity":32,"rain":0.0,"pressure":977.1,"uv_index":8.35,"wind_gusts":35.6,"aqi":105,"pm10":64.3,"pm2_5":49.5,"no2":20.9,"co":661.0,"o3":107.0,"so2":10.7,"mosquito_risk":0,"arthritis_risk":5,"migraine_risk":7,"frizz_risk":0,"updated_at":"2026-05-28T09:24:04.234442+05:30"},{"city":"Ludhiana","state":"Punjab","latitude":30.901,"longitude":75.8573,"temp":33.6,"humidity":39,"rain":0.0,"pressure":975.8,"uv_index":8.05,"wind_gusts":65.9,"aqi":92,"pm10":139.7,"pm2_5":52.7,"no2":15.3,"co":565.0,"o3":132.0,"so2":12.9,"mosquito_risk":0,"arthritis_risk":5,"migraine_risk":7,"frizz_risk":1,"updated_at":"2026-05-28T09:24:04.234447+05:30"},{"city":"Jalandhar","state":"Punjab","latitude":31.326,"longitude":75.5762,"temp":34.5,"humidity":32,"rain":0.0,"pressure":976.6,"uv_index":8.1,"wind_gusts":51.8,"aqi":107,"pm10":70.3,"pm2_5":50.3,"no2":19.2,"co":714.0,"o3":137.0,"so2":8.8,"mosquito_risk":0,"arthritis_risk":5,"migraine_risk":7,"frizz_risk":0,"updated_at":"2026-05-28T09:24:04.234455+05:30"},{"city":"Dehradun","state":"Uttarakhand","latitude":30.6284,"longitude":78.0322,"temp":22.7,"humidity":52,"rain":0.0,"pressure":833.4,"uv_index":8.25,"wind_gusts":43.6,"aqi":66,"pm10":32.5,"pm2_5":15.7,"no2":2.6,"co":222.0,"o3":150.0,"so2":2.4,"mosquito_risk":0,"arthritis_risk":5,"migraine_risk":7,"frizz_risk":0,"updated_at":"2026-05-28T09:24:04.234460+05:30"},{"city":"Shimla","state":"Himachal Pradesh","latitude":31.1048,"longitude":77.1734,"temp":24.3,"humidity":21,"rain":0.0,"pressure":788.9,"uv_index":8.3,"wind_gusts":43.9,"aqi":59,"pm10":29.8,"pm2_5":14.6,"no2":3.1,"co":184.0,"o3":148.0,"so2":1.5,"mosquito_risk":0,"arthritis_risk":5,"migraine_risk":7,"frizz_risk":0,"updated_at":"2026-05-28T09:24:04.234471+05:30"},{"city":"Manali","state":"Himachal Pradesh","latitude":32.2396,"longitude":77.1887,"temp":24.5,"humidity":25,"rain":0.0,"pressure":821.9,"uv_index":9.6,"wind_gusts":42.1,"aqi":61,"pm10":14.7,"pm2_5":7.2,"no2":12.4,"co":163.0,"o3":126.0,"so2":0.4,"mosquito_risk":0,"arthritis_risk":5,"migraine_risk":7,"frizz_risk":0,"updated_at":"2026-05-28T09:24:04.234476+05:30"},{"city":"Gurgaon","state":"Haryana","latitude":28.4595,"longitude":77.0266,"temp":34.1,"humidity":37,"rain":0.0,"pressure":979.3,"uv_index":7.85,"wind_gusts":61.9,"aqi":994,"pm10":584.9,"pm2_5":125.3,"no2":28.2,"co":345.0,"o3":81.0,"so2":23.3,"mosquito_risk":0,"arthritis_risk":5,"migraine_risk":7,"frizz_risk":1,"updated_at":"2026-05-28T09:24:04.234483+05:30"},{"city":"Noida","state":"Uttar Pradesh","latitude":28.5355,"longitude":77.391,"temp":33.6,"humidity":47,"rain":0.0,"pressure":982.5,"uv_index":7.75,"wind_gusts":51.8,"aqi":994,"pm10":584.9,"pm2_5":125.3,"no2":28.2,"co":807.0,"o3":81.0,"so2":23.3,"mosquito_risk":0,"arthritis_risk":5,"migraine_risk":7,"frizz_risk":1,"updated_at":"2026-05-28T09:24:04.234488+05:30"},{"city":"Ghaziabad","state":"Uttar Pradesh","latitude":28.6692,"longitude":77.4538,"temp":33.1,"humidity":48,"rain":0.0,"pressure":980.9,"uv_index":7.75,"wind_gusts":47.2,"aqi":512,"pm10":571.8,"pm2_5":110.6,"no2":8.7,"co":463.0,"o3":131.0,"so2":16.4,"mosquito_risk":0,"arthritis_risk":5,"migraine_risk":7,"frizz_risk":1,"updated_at":"2026-05-28T09:24:04.234493+05:30"},{"city":"Faridabad","state":"Haryana","latitude":28.4089,"longitude":77.3178,"temp":33.3,"humidity":46,"rain":0.0,"pressure":981.7,"uv_index":7.8,"wind_gusts":59.4,"aqi":994,"pm10":584.9,"pm2_5":125.3,"no2":28.2,"co":703.0,"o3":81.0,"so2":23.3,"mosquito_risk":0,"arthritis_risk":5,"migraine_risk":7,"frizz_risk":1,"updated_at":"2026-05-28T09:24:04.234498+05:30"},{"city":"Meerut","state":"Uttar Pradesh","latitude":28.9845,"longitude":77.7064,"temp":31.9,"humidity":53,"rain":0.0,"pressure":980.1,"uv_index":7.65,"wind_gusts":46.8,"aqi":512,"pm10":571.8,"pm2_5":110.6,"no2":8.7,"co":448.0,"o3":131.0,"so2":16.4,"mosquito_risk":0,"arthritis_risk":5,"migraine_risk":7,"frizz_risk":1,"updated_at":"2026-05-28T09:24:04.234503+05:30"},{"city":"Agra","state":"Uttar Pradesh","latitude":27.1767,"longitude":78.0081,"temp":37.4,"humidity":26,"rain":0.0,"pressure":984.9,"uv_index":8.1,"wind_gusts":43.6,"aqi":732,"pm10":455.4,"pm2_5":110.1,"no2":23.3,"co":290.0,"o3":102.0,"so2":14.0,"mosquito_risk":0,"arthritis_risk":5,"migraine_risk":10,"frizz_risk":0,"updated_at":"2026-05-28T09:24:04.234508+05:30"},{"city":"Varanasi","state":"Uttar Pradesh","latitude":25.3176,"longitude":82.9739,"temp":32.4,"humidity":53,"rain":0.0,"pressure":997.0,"uv_index":8.7,"wind_gusts":39.2,"aqi":111,"pm10":46.3,"pm2_5":40.9,"no2":9.8,"co":411.0,"o3":109.0,"so2":24.6,"mosquito_risk":0,"arthritis_risk":5,"migraine_risk":7,"frizz_risk":1,"updated_at":"2026-05-28T09:24:04.234514+05:30"},{"city":"Prayagraj","state":"Uttar Pradesh","latitude":25.4358,"longitude":81.8463,"temp":33.1,"humidity":50,"rain":0.0,"pressure":994.8,"uv_index":8.6,"wind_gusts":36.4,"aqi":97,"pm10":48.4,"pm2_5":41.2,"no2":8.1,"co":424.0,"o3":118.0,"so2":20.7,"mosquito_risk":0,"arthritis_risk":5,"migraine_risk":7,"frizz_risk":1,"updated_at":"2026-05-28T09:24:04.234519+05:30"},{"city":"Gorakhpur","state":"Uttar Pradesh","latitude":26.7606,"longitude":83.3732,"temp":30.2,"humidity":57,"rain":0.0,"pressure":998.4,"uv_index":8.6,"wind_gusts":41.4,"aqi":88,"pm10":41.9,"pm2_5":35.2,"no2":4.7,"co":356.0,"o3":120.0,"so2":8.5,"mosquito_risk":0,"arthritis_risk":5,"migraine_risk":7,"frizz_risk":1,"updated_at":"2026-05-28T09:24:04.234526+05:30"},{"city":"Bareilly","state":"Uttar Pradesh","latitude":28.367,"longitude":79.4304,"temp":31.4,"humidity":54,"rain":0.0,"pressure":986.4,"uv_index":8.0,"wind_gusts":41.4,"aqi":108,"pm10":156.9,"pm2_5":43.1,"no2":5.2,"co":366.0,"o3":132.0,"so2":10.8,"mosquito_risk":0,"arthritis_risk":5,"migraine_risk":7,"frizz_risk":1,"updated_at":"2026-05-28T09:24:04.234531+05:30"},{"city":"Aligarh","state":"Uttar Pradesh","latitude":27.8974,"longitude":78.088,"temp":34.2,"humidity":45,"rain":0.0,"pressure":983.2,"uv_index":7.9,"wind_gusts":39.2,"aqi":734,"pm10":1337.4,"pm2_5":224.4,"no2":13.1,"co":474.0,"o3":123.0,"so2":16.7,"mosquito_risk":0,"arthritis_risk":5,"migraine_risk":7,"frizz_risk":1,"updated_at":"2026-05-28T09:24:04.234535+05:30"},{"city":"Moradabad","state":"Uttar Pradesh","latitude":28.8386,"longitude":78.7733,"temp":31.7,"humidity":52,"rain":0.0,"pressure":982.9,"uv_index":7.85,"wind_gusts":47.9,"aqi":104,"pm10":47.4,"pm2_5":31.5,"no2":6.3,"co":379.0,"o3":139.0,"so2":13.6,"mosquito_risk":0,"arthritis_risk":5,"migraine_risk":7,"frizz_risk":1,"updated_at":"2026-05-28T09:24:04.234540+05:30"},{"city":"Saharanpur","state":"Uttar Pradesh","latitude":29.9637,"longitude":77.546,"temp":31.5,"humidity":52,"rain":0.0,"pressure":974.8,"uv_index":7.5,"wind_gusts":48.2,"aqi":109,"pm10":61.9,"pm2_5":32.1,"no2":6.0,"co":404.0,"o3":155.0,"so2":13.8,"mosquito_risk":0,"arthritis_risk":5,"migraine_risk":7,"frizz_risk":1,"updated_at":"2026-05-28T09:24:04.234545+05:30"},{"city":"Jhansi","state":"Uttar Pradesh","latitude":25.4484,"longitude":78.5685,"temp":38.2,"humidity":26,"rain":0.0,"pressure":976.4,"uv_index":8.45,"wind_gusts":44.6,"aqi":66,"pm10":32.6,"pm2_5":16.1,"no2":3.2,"co":190.0,"o3":85.0,"so2":4.9,"mosquito_risk":0,"arthritis_risk":5,"migraine_risk":10,"frizz_risk":0,"updated_at":"2026-05-28T09:24:07.651458+05:30"},{"city":"Surat","state":"Gujarat","latitude":21.1702,"longitude":72.8311,"temp":32.6,"humidity":61,"rain":0.0,"pressure":1008.9,"uv_index":7.7,"wind_gusts":48.2,"aqi":79,"pm10":62.2,"pm2_5":29.0,"no2":14.4,"co":277.0,"o3":42.0,"so2":36.8,"mosquito_risk":3,"arthritis_risk":0,"migraine_risk":4,"frizz_risk":1,"updated_at":"2026-05-28T09:24:07.651495+05:30"},{"city":"Vadodara","state":"Gujarat","latitude":22.3072,"longitude":73.1812,"temp":32.7,"humidity":58,"rain":0.0,"pressure":1006.2,"uv_index":8.05,"wind_gusts":46.8,"aqi":77,"pm10":45.6,"pm2_5":23.2,"no2":4.6,"co":176.0,"o3":51.0,"so2":5.0,"mosquito_risk":0,"arthritis_risk":5,"migraine_risk":4,"frizz_risk":1,"updated_at":"2026-05-28T09:24:07.651506+05:30"},{"city":"Rajkot","state":"Gujarat","latitude":22.3039,"longitude":70.8022,"temp":31.9,"humidity":61,"rain":0.0,"pressure":995.6,"uv_index":7.7,"wind_gusts":50.4,"aqi":70,"pm10":58.6,"pm2_5":24.9,"no2":2.5,"co":121.0,"o3":56.0,"so2":4.4,"mosquito_risk":3,"arthritis_risk":5,"migraine_risk":7,"frizz_risk":1,"updated_at":"2026-05-28T09:24:07.651516+05:30"},{"city":"Thane","state":"Maharashtra","latitude":19.2183,"longitude":72.9781,"temp":33.2,"humidity":58,"rain":0.0,"pressure":1010.2,"uv_index":7.8,"wind_gusts":39.2,"aqi":43,"pm10":39.2,"pm2_5":16.0,"no2":6.2,"co":183.0,"o3":57.0,"so2":6.6,"mosquito_risk":0,"arthritis_risk":0,"migraine_risk":4,"frizz_risk":1,"updated_at":"2026-05-28T09:24:07.651525+05:30"},{"city":"Nagpur","state":"Maharashtra","latitude":21.1458,"longitude":79.0882,"temp":38.0,"humidity":28,"rain":0.0,"pressure":972.9,"uv_index":8.9,"wind_gusts":42.8,"aqi":62,"pm10":43.1,"pm2_5":25.7,"no2":7.7,"co":219.0,"o3":116.0,"so2":17.9,"mosquito_risk":0,"arthritis_risk":5,"migraine_risk":10,"frizz_risk":1,"updated_at":"2026-05-28T09:24:07.651534+05:30"},{"city":"Nashik","state":"Maharashtra","latitude":19.9975,"longitude":73.7898,"temp":29.6,"humidity":59,"rain":0.0,"pressure":948.3,"uv_index":8.15,"wind_gusts":41.4,"aqi":34,"pm10":31.4,"pm2_5":12.6,"no2":3.6,"co":137.0,"o3":56.0,"so2":2.4,"mosquito_risk":4,"arthritis_risk":5,"migraine_risk":7,"frizz_risk":1,"updated_at":"2026-05-28T09:24:07.651542+05:30"},{"city":"Aurangabad","state":"Maharashtra","latitude":19.8762,"longitude":75.3433,"temp":30.2,"humidity":55,"rain":0.0,"pressure":946.6,"uv_index":9.0,"wind_gusts":41.8,"aqi":40,"pm10":23.6,"pm2_5":10.9,"no2":4.2,"co":153.0,"o3":57.0,"so2":4.6,"mosquito_risk":0,"arthritis_risk":5,"migraine_risk":7,"frizz_risk":1,"updated_at":"2026-05-28T09:24:07.651550+05:30"},{"city":"Solapur","state":"Maharashtra","latitude":17.6599,"longitude":75.9064,"temp":30.9,"humidity":57,"rain":0.0,"pressure":960.1,"uv_index":8.95,"wind_gusts":37.4,"aqi":56,"pm10":7.9,"pm2_5":6.4,"no2":4.3,"co":147.0,"o3":64.0,"so2":5.7,"mosquito_risk":0,"arthritis_risk":5,"migraine_risk":7,"frizz_risk":1,"updated_at":"2026-05-28T09:24:07.651559+05:30"},{"city":"Kolhapur","state":"Maharashtra","latitude":16.705,"longitude":74.2433,"temp":29.1,"humidity":64,"rain":0.0,"pressure":951.3,"uv_index":8.8,"wind_gusts":46.1,"aqi":32,"pm10":8.9,"pm2_5":6.9,"no2":3.9,"co":156.0,"o3":58.0,"so2":2.4,"mosquito_risk":7,"arthritis_risk":5,"migraine_risk":7,"frizz_risk":1,"updated_at":"2026-05-28T09:24:07.651567+05:30"},{"city":"Goa","state":"Goa","latitude":15.2993,"longitude":74.124,"temp":29.4,"humidity":79,"rain":0.1,"pressure":1001.3,"uv_index":6.45,"wind_gusts":27.4,"aqi":42,"pm10":11.3,"pm2_5":8.1,"no2":2.2,"co":180.0,"o3":64.0,"so2":1.7,"mosquito_risk":10,"arthritis_risk":5,"migraine_risk":4,"frizz_risk":1,"updated_at":"2026-05-28T09:24:07.651578+05:30"},{"city":"Jodhpur","state":"Rajasthan","latitude":26.2389,"longitude":73.0243,"temp":32.1,"humidity":49,"rain":0.0,"pressure":982.0,"uv_index":8.4,"wind_gusts":52.2,"aqi":171,"pm10":353.0,"pm2_5":73.6,"no2":2.2,"co":125.0,"o3":68.0,"so2":3.7,"mosquito_risk":0,"arthritis_risk":5,"migraine_risk":7,"frizz_risk":1,"updated_at":"2026-05-28T09:24:07.651584+05:30"},{"city":"Udaipur","state":"Rajasthan","latitude":24.5854,"longitude":73.7125,"temp":31.6,"humidity":46,"rain":0.0,"pressure":946.9,"uv_index":8.8,"wind_gusts":50.0,"aqi":64,"pm10":42.3,"pm2_5":20.8,"no2":2.0,"co":143.0,"o3":63.0,"so2":3.2,"mosquito_risk":0,"arthritis_risk":5,"migraine_risk":7,"frizz_risk":1,"updated_at":"2026-05-28T09:24:07.651590+05:30"},{"city":"Kota","state":"Rajasthan","latitude":25.2138,"longitude":75.8648,"temp":36.8,"humidity":36,"rain":0.0,"pressure":977.7,"uv_index":8.35,"wind_gusts":43.6,"aqi":67,"pm10":34.5,"pm2_5":21.2,"no2":4.7,"co":201.0,"o3":78.0,"so2":8.5,"mosquito_risk":0,"arthritis_risk":5,"migraine_risk":10,"frizz_risk":1,"updated_at":"2026-05-28T09:24:07.651596+05:30"},{"city":"Bikaner","state":"Rajasthan","latitude":28.0229,"longitude":73.3119,"temp":35.8,"humidity":38,"rain":0.0,"pressure":978.4,"uv_index":8.4,"wind_gusts":43.6,"aqi":153,"pm10":346.5,"pm2_5":117.6,"no2":1.2,"co":132.0,"o3":74.0,"so2":3.4,"mosquito_risk":0,"arthritis_risk":5,"migraine_risk":10,"frizz_risk":1,"updated_at":"2026-05-28T09:24:07.651602+05:30"},{"city":"Ajmer","state":"Rajasthan","latitude":26.4499,"longitude":74.6399,"temp":33.2,"humidity":38,"rain":0.0,"pressure":953.7,"uv_index":8.35,"wind_gusts":56.5,"aqi":68,"pm10":57.5,"pm2_5":25.6,"no2":2.4,"co":141.0,"o3":78.0,"so2":3.9,"mosquito_risk":0,"arthritis_risk":5,"migraine_risk":7,"frizz_risk":1,"updated_at":"2026-05-28T09:24:07.651608+05:30"},{"city":"Gwalior","state":"Madhya Pradesh","latitude":26.2183,"longitude":78.1828,"temp":38.2,"humidity":26,"rain":0.0,"pressure":981.0,"uv_index":8.25,"wind_gusts":49.3,"aqi":90,"pm10":60.5,"pm2_5":21.8,"no2":3.1,"co":157.0,"o3":83.0,"so2":4.0,"mosquito_risk":0,"arthritis_risk":5,"migraine_risk":10,"frizz_risk":0,"updated_at":"2026-05-28T09:24:07.651613+05:30"},{"city":"Indore","state":"Madhya Pradesh","latitude":22.7196,"longitude":75.8577,"temp":31.9,"humidity":56,"rain":0.0,"pressure":949.4,"uv_index":8.65,"wind_gusts":47.5,"aqi":69,"pm10":33.9,"pm2_5":20.6,"no2":6.5,"co":226.0,"o3":53.0,"so2":12.8,"mosquito_risk":0,"arthritis_risk":5,"migraine_risk":7,"frizz_risk":1,"updated_at":"2026-05-28T09:24:07.651619+05:30"},{"city":"Bhopal","state":"Madhya Pradesh","latitude":23.2599,"longitude":77.4126,"temp":35.8,"humidity":36,"rain":0.0,"pressure":954.0,"uv_index":8.65,"wind_gusts":40.0,"aqi":63,"pm10":42.1,"pm2_5":25.7,"no2":3.4,"co":234.0,"o3":95.0,"so2":11.0,"mosquito_risk":0,"arthritis_risk":5,"migraine_risk":10,"frizz_risk":1,"updated_at":"2026-05-28T09:24:07.651624+05:30"},{"city":"Jabalpur","state":"Madhya Pradesh","latitude":23.1815,"longitude":79.9864,"temp":38.6,"humidity":22,"rain":0.0,"pressure":961.1,"uv_index":8.85,"wind_gusts":38.5,"aqi":62,"pm10":29.5,"pm2_5":17.3,"no2":3.6,"co":213.0,"o3":105.0,"so2":5.7,"mosquito_risk":0,"arthritis_risk":5,"migraine_risk":10,"frizz_risk":0,"updated_at":"2026-05-28T09:24:07.651630+05:30"},{"city":"Ujjain","state":"Madhya Pradesh","latitude":23.1765,"longitude":75.7885,"temp":32.0,"humidity":57,"rain":0.0,"pressure":955.0,"uv_index":8.6,"wind_gusts":49.0,"aqi":70,"pm10":31.8,"pm2_5":19.8,"no2":5.5,"co":177.0,"o3":53.0,"so2":12.5,"mosquito_risk":0,"arthritis_risk":5,"migraine_risk":7,"frizz_risk":1,"updated_at":"2026-05-28T09:24:07.651636+05:30"},{"city":"Visakhapatnam","state":"Andhra Pradesh","latitude":17.6868,"longitude":83.2185,"temp":35.7,"humidity":53,"rain":0.0,"pressure":1002.5,"uv_index":9.0,"wind_gusts":47.2,"aqi":123,"pm10":34.1,"pm2_5":27.5,"no2":16.6,"co":660.0,"o3":114.0,"so2":38.8,"mosquito_risk":0,"arthritis_risk":5,"migraine_risk":7,"frizz_risk":1,"updated_at":"2026-05-28T09:24:07.651642+05:30"},{"city":"Vijayawada","state":"Andhra Pradesh","latitude":16.5062,"longitude":80.648,"temp":35.2,"humidity":46,"rain":0.0,"pressure":1002.9,"uv_index":8.95,"wind_gusts":37.8,"aqi":95,"pm10":32.5,"pm2_5":28.6,"no2":9.0,"co":251.0,"o3":101.0,"so2":10.8,"mosquito_risk":0,"arthritis_risk":5,"migraine_risk":7,"frizz_risk":1,"updated_at":"2026-05-28T09:24:07.651647+05:30"},{"city":"Guntur","state":"Andhra Pradesh","latitude":16.3067,"longitude":80.4365,"temp":34.7,"humidity":48,"rain":0.0,"pressure":1004.1,"uv_index":8.6,"wind_gusts":34.2,"aqi":82,"pm10":27.6,"pm2_5":23.9,"no2":8.5,"co":250.0,"o3":97.0,"so2":14.7,"mosquito_risk":0,"arthritis_risk":5,"migraine_risk":4,"frizz_risk":1,"updated_at":"2026-05-28T09:24:07.651653+05:30"},{"city":"Nellore","state":"Andhra Pradesh","latitude":14.4426,"longitude":79.9865,"temp":33.7,"humidity":52,"rain":0.0,"pressure":1006.6,"uv_index":9.0,"wind_gusts":34.9,"aqi":69,"pm10":26.8,"pm2_5":23.3,"no2":9.5,"co":228.0,"o3":101.0,"so2":10.9,"mosquito_risk":0,"arthritis_risk":5,"migraine_risk":4,"frizz_risk":1,"updated_at":"2026-05-28T09:24:07.651659+05:30"},{"city":"Kurnool","state":"Andhra Pradesh","latitude":15.8281,"longitude":78.0373,"temp":31.5,"humidity":62,"rain":0.0,"pressure":979.4,"uv_index":8.9,"wind_gusts":65.2,"aqi":60,"pm10":9.7,"pm2_5":8.6,"no2":4.9,"co":188.0,"o3":68.0,"so2":4.3,"mosquito_risk":3,"arthritis_risk":5,"migraine_risk":7,"frizz_risk":1,"updated_at":"2026-05-28T09:24:07.651665+05:30"},{"city":"Kakinada","state":"Andhra Pradesh","latitude":16.9891,"longitude":82.2475,"temp":35.0,"humidity":49,"rain":0.0,"pressure":1006.4,"uv_index":9.0,"wind_gusts":51.5,"aqi":86,"pm10":28.9,"pm2_5":22.2,"no2":3.5,"co":283.0,"o3":138.0,"so2":5.9,"mosquito_risk":0,"arthritis_risk":5,"migraine_risk":4,"frizz_risk":1,"updated_at":"2026-05-28T09:24:07.651671+05:30"},{"city":"Tirupati","state":"Andhra Pradesh","latitude":13.6288,"longitude":79.4192,"temp":33.0,"humidity":53,"rain":0.0,"pressure":992.8,"uv_index":9.0,"wind_gusts":51.5,"aqi":84,"pm10":34.5,"pm2_5":28.7,"no2":10.7,"co":213.0,"o3":121.0,"so2":6.8,"mosquito_risk":0,"arthritis_risk":5,"migraine_risk":7,"frizz_risk":1,"updated_at":"2026-05-28T09:24:07.651676+05:30"},{"city":"Warangal","state":"Telangana","latitude":17.9689,"longitude":79.5941,"temp":34.2,"humidity":44,"rain":0.0,"pressure":979.6,"uv_index":9.05,"wind_gusts":34.9,"aqi":73,"pm10":26.3,"pm2_5":22.8,"no2":7.6,"co":259.0,"o3":102.0,"so2":7.8,"mosquito_risk":0,"arthritis_risk":5,"migraine_risk":7,"frizz_risk":1,"updated_at":"2026-05-28T09:24:07.651681+05:30"},{"city":"Nizamabad","state":"Telangana","latitude":18.6725,"longitude":78.0941,"temp":33.6,"humidity":48,"rain":0.0,"pressure":966.4,"uv_index":8.25,"wind_gusts":35.6,"aqi":66,"pm10":27.5,"pm2_5":18.0,"no2":5.4,"co":214.0,"o3":87.0,"so2":7.2,"mosquito_risk":0,"arthritis_risk":5,"migraine_risk":7,"frizz_risk":1,"updated_at":"2026-05-28T09:24:07.651686+05:30"},{"city":"Mysore","state":"Karnataka","latitude":12.2958,"longitude":76.6396,"temp":27.2,"humidity":68,"rain":0.0,"pressure":932.3,"uv_index":9.05,"wind_gusts":45.0,"aqi":54,"pm10":8.6,"pm2_5":7.3,"no2":5.4,"co":171.0,"o3":71.0,"so2":2.6,"mosquito_risk":7,"arthritis_risk":5,"migraine_risk":7,"frizz_risk":1,"updated_at":"2026-05-28T09:24:07.651691+05:30"},{"city":"Mangalore","state":"Karnataka","latitude":12.9141,"longitude":74.856,"temp":28.2,"humidity":80,"rain":0.0,"pressure":1010.6,"uv_index":7.05,"wind_gusts":28.4,"aqi":48,"pm10":10.2,"pm2_5":8.4,"no2":5.1,"co":189.0,"o3":71.0,"so2":3.5,"mosquito_risk":7,"arthritis_risk":0,"migraine_risk":4,"frizz_risk":1,"updated_at":"2026-05-28T09:24:07.651697+05:30"},{"city":"Hubli-Dharwad","state":"Karnataka","latitude":15.3647,"longitude":75.124,"temp":28.5,"humidity":67,"rain":0.0,"pressure":944.3,"uv_index":8.9,"wind_gusts":45.4,"aqi":28,"pm10":6.8,"pm2_5":4.9,"no2":2.7,"co":146.0,"o3":57.0,"so2":1.2,"mosquito_risk":7,"arthritis_risk":5,"migraine_risk":7,"frizz_risk":1,"updated_at":"2026-05-28T09:24:07.651702+05:30"},{"city":"Belgaum","state":"Karnataka","latitude":15.8497,"longitude":74.4977,"temp":27.6,"humidity":66,"rain":0.0,"pressure":929.3,"uv_index":8.95,"wind_gusts":40.7,"aqi":30,"pm10":7.3,"pm2_5":5.4,"no2":2.9,"co":140.0,"o3":53.0,"so2":1.5,"mosquito_risk":7,"arthritis_risk":5,"migraine_risk":7,"frizz_risk":1,"updated_at":"2026-05-28T09:24:11.037158+05:30"},{"city":"Coimbatore","state":"Tamil Nadu","latitude":11.0168,"longitude":76.9558,"temp":29.9,"humidity":62,"rain":0.0,"pressure":965.4,"uv_index":8.95,"wind_gusts":53.3,"aqi":40,"pm10":12.2,"pm2_5":9.0,"no2":4.3,"co":169.0,"o3":71.0,"so2":3.2,"mosquito_risk":7,"arthritis_risk":5,"migraine_risk":7,"frizz_risk":1,"updated_at":"2026-05-28T09:24:11.037190+05:30"},{"city":"Madurai","state":"Tamil Nadu","latitude":9.9252,"longitude":78.1198,"temp":32.0,"humidity":59,"rain":0.0,"pressure":995.8,"uv_index":7.55,"wind_gusts":41.0,"aqi":85,"pm10":25.1,"pm2_5":22.1,"no2":14.2,"co":205.0,"o3":78.0,"so2":8.0,"mosquito_risk":0,"arthritis_risk":5,"migraine_risk":7,"frizz_risk":1,"updated_at":"2026-05-28T09:24:11.037199+05:30"},{"city":"Trichy","state":"Tamil Nadu","latitude":10.7905,"longitude":78.7047,"temp":32.2,"humidity":59,"rain":0.0,"pressure":1002.3,"uv_index":7.45,"wind_gusts":36.7,"aqi":61,"pm10":10.4,"pm2_5":8.7,"no2":6.8,"co":154.0,"o3":57.0,"so2":4.5,"mosquito_risk":0,"arthritis_risk":5,"migraine_risk":4,"frizz_risk":1,"updated_at":"2026-05-28T09:24:11.037206+05:30"},{"city":"Salem","state":"Tamil Nadu","latitude":11.6643,"longitude":78.146,"temp":31.8,"humidity":53,"rain":0.0,"pressure":980.5,"uv_index":8.9,"wind_gusts":30.6,"aqi":67,"pm10":21.0,"pm2_5":17.5,"no2":11.0,"co":190.0,"o3":79.0,"so2":14.6,"mosquito_risk":0,"arthritis_risk":5,"migraine_risk":7,"frizz_risk":1,"updated_at":"2026-05-28T09:24:11.037213+05:30"},{"city":"Tirunelveli","state":"Tamil Nadu","latitude":8.7139,"longitude":77.7567,"temp":33.2,"humidity":54,"rain":0.0,"pressure":1006.1,"uv_index":7.85,"wind_gusts":32.8,"aqi":29,"pm10":8.3,"pm2_5":6.2,"no2":3.6,"co":163.0,"o3":54.0,"so2":2.1,"mosquito_risk":0,"arthritis_risk":5,"migraine_risk":4,"frizz_risk":1,"updated_at":"2026-05-28T09:24:11.037219+05:30"},{"city":"Vellore","state":"Tamil Nadu","latitude":12.9165,"longitude":79.1325,"temp":31.8,"humidity":60,"rain":0.0,"pressure":986.7,"uv_index":8.65,"wind_gusts":35.3,"aqi":85,"pm10":28.3,"pm2_5":25.4,"no2":11.9,"co":270.0,"o3":98.0,"so2":7.7,"mosquito_risk":0,"arthritis_risk":5,"migraine_risk":7,"frizz_risk":1,"updated_at":"2026-05-28T09:24:11.037225+05:30"},{"city":"Erode","state":"Tamil Nadu","latitude":11.341,"longitude":77.7172,"temp":31.3,"humidity":58,"rain":0.0,"pressure":992.3,"uv_index":8.8,"wind_gusts":50.8,"aqi":53,"pm10":13.5,"pm2_5":11.0,"no2":6.9,"co":223.0,"o3":63.0,"so2":3.9,"mosquito_risk":0,"arthritis_risk":5,"migraine_risk":7,"frizz_risk":1,"updated_at":"2026-05-28T09:24:11.037231+05:30"},{"city":"Kochi","state":"Kerala","latitude":9.9312,"longitude":76.2673,"temp":26.6,"humidity":90,"rain":0.0,"pressure":1013.3,"uv_index":8.0,"wind_gusts":30.6,"aqi":52,"pm10":13.5,"pm2_5":10.8,"no2":9.2,"co":224.0,"o3":51.0,"so2":5.3,"mosquito_risk":7,"arthritis_risk":0,"migraine_risk":4,"frizz_risk":1,"updated_at":"2026-05-28T09:24:11.037237+05:30"},{"city":"Thiruvananthapuram","state":"Kerala","latitude":8.5241,"longitude":76.9366,"temp":27.0,"humidity":84,"rain":0.0,"pressure":1012.8,"uv_index":7.0,"wind_gusts":31.0,"aqi":32,"pm10":11.1,"pm2_5":5.8,"no2":2.1,"co":117.0,"o3":49.0,"so2":0.7,"mosquito_risk":7,"arthritis_risk":0,"migraine_risk":4,"frizz_risk":1,"updated_at":"2026-05-28T09:24:11.037243+05:30"},{"city":"Kozhikode","state":"Kerala","latitude":11.2588,"longitude":75.7804,"temp":27.4,"humidity":86,"rain":0.0,"pressure":1012.0,"uv_index":8.4,"wind_gusts":32.8,"aqi":30,"pm10":9.1,"pm2_5":6.2,"no2":1.8,"co":255.0,"o3":68.0,"so2":1.9,"mosquito_risk":7,"arthritis_risk":0,"migraine_risk":4,"frizz_risk":1,"updated_at":"2026-05-28T09:24:11.037249+05:30"},{"city":"Thrissur","state":"Kerala","latitude":10.5276,"longitude":76.2144,"temp":26.0,"humidity":90,"rain":0.1,"pressure":1011.4,"uv_index":7.55,"wind_gusts":28.4,"aqi":53,"pm10":14.2,"pm2_5":12.3,"no2":10.6,"co":263.0,"o3":47.0,"so2":6.2,"mosquito_risk":10,"arthritis_risk":0,"migraine_risk":4,"frizz_risk":1,"updated_at":"2026-05-28T09:24:11.037256+05:30"},{"city":"Kannur","state":"Kerala","latitude":11.8745,"longitude":75.3704,"temp":27.7,"humidity":84,"rain":0.0,"pressure":1011.0,"uv_index":8.4,"wind_gusts":37.4,"aqi":39,"pm10":9.7,"pm2_5":7.4,"no2":3.7,"co":181.0,"o3":68.0,"so2":2.6,"mosquito_risk":7,"arthritis_risk":0,"migraine_risk":4,"frizz_risk":1,"updated_at":"2026-05-28T09:24:11.037261+05:30"},{"city":"Patna","state":"Bihar","latitude":25.5941,"longitude":85.1376,"temp":29.9,"humidity":64,"rain":0.0,"pressure":1000.7,"uv_index":8.75,"wind_gusts":50.4,"aqi":108,"pm10":36.3,"pm2_5":30.0,"no2":9.6,"co":352.0,"o3":102.0,"so2":16.6,"mosquito_risk":7,"arthritis_risk":5,"migraine_risk":4,"frizz_risk":1,"updated_at":"2026-05-28T09:24:11.037267+05:30"},{"city":"Gaya","state":"Bihar","latitude":24.7914,"longitude":85.0002,"temp":32.2,"humidity":48,"rain":0.0,"pressure":993.0,"uv_index":8.8,"wind_gusts":34.6,"aqi":128,"pm10":45.3,"pm2_5":38.4,"no2":9.4,"co":443.0,"o3":105.0,"so2":21.6,"mosquito_risk":0,"arthritis_risk":5,"migraine_risk":7,"frizz_risk":1,"updated_at":"2026-05-28T09:24:11.037273+05:30"},{"city":"Muzaffarpur","state":"Bihar","latitude":26.1209,"longitude":85.3647,"temp":27.9,"humidity":73,"rain":0.0,"pressure":1001.7,"uv_index":8.75,"wind_gusts":47.9,"aqi":99,"pm10":33.6,"pm2_5":27.6,"no2":7.5,"co":307.0,"o3":112.0,"so2":11.2,"mosquito_risk":7,"arthritis_risk":5,"migraine_risk":4,"frizz_risk":1,"updated_at":"2026-05-28T09:24:11.037278+05:30"},{"city":"Bhagalpur","state":"Bihar","latitude":25.2425,"longitude":87.0117,"temp":28.2,"humidity":75,"rain":0.0,"pressure":1002.8,"uv_index":8.7,"wind_gusts":37.8,"aqi":93,"pm10":40.5,"pm2_5":25.0,"no2":9.7,"co":257.0,"o3":101.0,"so2":11.5,"mosquito_risk":7,"arthritis_risk":5,"migraine_risk":4,"frizz_risk":1,"updated_at":"2026-05-28T09:24:11.037283+05:30"},{"city":"Ranchi","state":"Jharkhand","latitude":23.3441,"longitude":85.3096,"temp":29.5,"humidity":58,"rain":0.0,"pressure":937.3,"uv_index":9.0,"wind_gusts":36.4,"aqi":142,"pm10":90.3,"pm2_5":63.8,"no2":5.1,"co":235.0,"o3":169.0,"so2":33.2,"mosquito_risk":4,"arthritis_risk":5,"migraine_risk":7,"frizz_risk":1,"updated_at":"2026-05-28T09:24:11.037288+05:30"},{"city":"Jamshedpur","state":"Jharkhand","latitude":22.8046,"longitude":86.2029,"temp":30.5,"humidity":61,"rain":0.0,"pressure":990.2,"uv_index":9.05,"wind_gusts":42.5,"aqi":156,"pm10":74.7,"pm2_5":54.0,"no2":12.5,"co":494.0,"o3":127.0,"so2":37.6,"mosquito_risk":3,"arthritis_risk":5,"migraine_risk":7,"frizz_risk":1,"updated_at":"2026-05-28T09:24:11.037293+05:30"},{"city":"Dhanbad","state":"Jharkhand","latitude":23.7957,"longitude":86.4304,"temp":30.8,"humidity":58,"rain":0.0,"pressure":979.8,"uv_index":9.0,"wind_gusts":35.3,"aqi":162,"pm10":69.8,"pm2_5":54.2,"no2":27.7,"co":356.0,"o3":99.0,"so2":78.6,"mosquito_risk":0,"arthritis_risk":5,"migraine_risk":7,"frizz_risk":1,"updated_at":"2026-05-28T09:24:11.037299+05:30"},{"city":"Bokaro","state":"Jharkhand","latitude":23.6693,"longitude":86.1511,"temp":31.0,"humidity":55,"rain":0.0,"pressure":983.4,"uv_index":9.0,"wind_gusts":35.6,"aqi":167,"pm10":82.4,"pm2_5":66.1,"no2":37.2,"co":475.0,"o3":96.0,"so2":101.0,"mosquito_risk":0,"arthritis_risk":5,"migraine_risk":7,"frizz_risk":1,"updated_at":"2026-05-28T09:24:11.037304+05:30"},{"city":"Bhubaneswar","state":"Odisha","latitude":20.2961,"longitude":85.8245,"temp":32.8,"humidity":69,"rain":0.0,"pressure":1001.8,"uv_index":9.0,"wind_gusts":43.9,"aqi":103,"pm10":42.5,"pm2_5":29.8,"no2":3.3,"co":253.0,"o3":138.0,"so2":5.2,"mosquito_risk":3,"arthritis_risk":5,"migraine_risk":4,"frizz_risk":1,"updated_at":"2026-05-28T09:24:11.037310+05:30"},{"city":"Cuttack","state":"Odisha","latitude":20.4625,"longitude":85.8828,"temp":32.2,"humidity":70,"rain":0.0,"pressure":1003.6,"uv_index":9.1,"wind_gusts":39.2,"aqi":103,"pm10":42.5,"pm2_5":29.8,"no2":3.3,"co":279.0,"o3":138.0,"so2":5.2,"mosquito_risk":3,"arthritis_risk":5,"migraine_risk":4,"frizz_risk":1,"updated_at":"2026-05-28T09:24:11.037315+05:30"},{"city":"Rourkela","state":"Odisha","latitude":22.2604,"longitude":84.8536,"temp":31.1,"humidity":64,"rain":0.0,"pressure":984.1,"uv_index":8.95,"wind_gusts":25.9,"aqi":155,"pm10":77.8,"pm2_5":56.9,"no2":7.3,"co":355.0,"o3":150.0,"so2":23.9,"mosquito_risk":3,"arthritis_risk":5,"migraine_risk":7,"frizz_risk":1,"updated_at":"2026-05-28T09:24:11.037320+05:30"},{"city":"Raipur","state":"Chhattisgarh","latitude":21.2514,"longitude":81.6296,"temp":38.8,"humidity":20,"rain":0.0,"pressure":973.7,"uv_index":8.9,"wind_gusts":36.0,"aqi":94,"pm10":39.2,"pm2_5":32.8,"no2":32.6,"co":530.0,"o3":63.0,"so2":76.6,"mosquito_risk":0,"arthritis_risk":5,"migraine_risk":10,"frizz_risk":0,"updated_at":"2026-05-28T09:24:11.037326+05:30"},{"city":"Bhilai","state":"Chhattisgarh","latitude":21.1938,"longitude":81.3509,"temp":37.5,"humidity":22,"rain":0.0,"pressure":974.3,"uv_index":8.95,"wind_gusts":40.7,"aqi":86,"pm10":36.4,"pm2_5":29.3,"no2":24.8,"co":946.0,"o3":77.0,"so2":61.8,"mosquito_risk":0,"arthritis_risk":5,"migraine_risk":10,"frizz_risk":0,"updated_at":"2026-05-28T09:24:11.037331+05:30"},{"city":"Guwahati","state":"Assam","latitude":26.1158,"longitude":91.7086,"temp":26.8,"humidity":80,"rain":0.1,"pressure":1004.5,"uv_index":8.75,"wind_gusts":37.4,"aqi":81,"pm10":40.6,"pm2_5":25.3,"no2":2.3,"co":355.0,"o3":122.0,"so2":3.3,"mosquito_risk":10,"arthritis_risk":5,"migraine_risk":4,"frizz_risk":1,"updated_at":"2026-05-28T09:24:11.037336+05:30"},{"city":"Agartala","state":"Tripura","latitude":23.8315,"longitude":91.2868,"temp":26.6,"humidity":82,"rain":0.0,"pressure":1008.8,"uv_index":8.85,"wind_gusts":20.9,"aqi":88,"pm10":31.5,"pm2_5":19.6,"no2":6.7,"co":182.0,"o3":100.0,"so2":3.1,"mosquito_risk":7,"arthritis_risk":0,"migraine_risk":4,"frizz_risk":1,"updated_at":"2026-05-28T09:24:11.037342+05:30"},{"city":"Shillong","state":"Meghalaya","latitude":25.5788,"longitude":91.8933,"temp":23.2,"humidity":55,"rain":0.0,"pressure":860.7,"uv_index":8.6,"wind_gusts":24.5,"aqi":62,"pm10":45.2,"pm2_5":20.1,"no2":1.4,"co":209.0,"o3":140.0,"so2":4.3,"mosquito_risk":0,"arthritis_risk":5,"migraine_risk":7,"frizz_risk":0,"updated_at":"2026-05-28T09:24:11.037347+05:30"},{"city":"Imphal","state":"Manipur","latitude":24.817,"longitude":93.9368,"temp":27.5,"humidity":55,"rain":0.0,"pressure":925.9,"uv_index":9.25,"wind_gusts":32.8,"aqi":104,"pm10":44.1,"pm2_5":20.8,"no2":1.4,"co":405.0,"o3":113.0,"so2":2.7,"mosquito_risk":4,"arthritis_risk":5,"migraine_risk":7,"frizz_risk":1,"updated_at":"2026-05-28T09:24:11.037352+05:30"},{"city":"Aizawl","state":"Mizoram","latitude":23.7271,"longitude":92.7176,"temp":25.3,"humidity":50,"rain":0.0,"pressure":895.7,"uv_index":9.05,"wind_gusts":28.8,"aqi":73,"pm10":28.2,"pm2_5":13.3,"no2":1.2,"co":182.0,"o3":97.0,"so2":1.6,"mosquito_risk":4,"arthritis_risk":5,"migraine_risk":7,"frizz_risk":0,"updated_at":"2026-05-28T09:24:11.037357+05:30"},{"city":"Kohima","state":"Nagaland","latitude":25.6701,"longitude":94.1077,"temp":22.8,"humidity":73,"rain":0.2,"pressure":858.3,"uv_index":9.25,"wind_gusts":30.6,"aqi":65,"pm10":39.2,"pm2_5":19.1,"no2":0.9,"co":195.0,"o3":106.0,"so2":1.9,"mosquito_risk":6,"arthritis_risk":5,"migraine_risk":7,"frizz_risk":1,"updated_at":"2026-05-28T09:24:11.037362+05:30"},{"city":"Gangtok","state":"Sikkim","latitude":27.3314,"longitude":88.6138,"temp":20.6,"humidity":64,"rain":0.1,"pressure":841.3,"uv_index":9.0,"wind_gusts":34.6,"aqi":66,"pm10":24.2,"pm2_5":14.7,"no2":1.7,"co":305.0,"o3":125.0,"so2":2.2,"mosquito_risk":6,"arthritis_risk":5,"migraine_risk":7,"frizz_risk":0,"updated_at":"2026-05-28T09:24:11.037366+05:30"},{"city":"Siliguri","state":"West Bengal","latitude":26.7271,"longitude":88.3953,"temp":26.5,"humidity":79,"rain":0.1,"pressure":996.1,"uv_index":6.5,"wind_gusts":27.0,"aqi":109,"pm10":45.8,"pm2_5":31.3,"no2":3.9,"co":456.0,"o3":131.0,"so2":4.8,"mosquito_risk":10,"arthritis_risk":5,"migraine_risk":7,"frizz_risk":1,"updated_at":"2026-05-28T09:24:14.419985+05:30"},{"city":"Durgapur","state":"West Bengal","latitude":23.5204,"longitude":87.3119,"temp":30.0,"humidity":72,"rain":0.0,"pressure":995.3,"uv_index":8.95,"wind_gusts":36.0,"aqi":153,"pm10":58.3,"pm2_5":45.5,"no2":16.1,"co":525.0,"o3":103.0,"so2":34.6,"mosquito_risk":7,"arthritis_risk":5,"migraine_risk":7,"frizz_risk":1,"updated_at":"2026-05-28T09:24:14.420039+05:30"},{"city":"Asansol","state":"West Bengal","latitude":23.6739,"longitude":86.9524,"temp":30.0,"humidity":68,"rain":0.0,"pressure":993.9,"uv_index":8.95,"wind_gusts":37.4,"aqi":154,"pm10":57.0,"pm2_5":43.3,"no2":16.8,"co":520.0,"o3":103.0,"so2":37.2,"mosquito_risk":7,"arthritis_risk":5,"migraine_risk":7,"frizz_risk":1,"updated_at":"2026-05-28T09:24:14.420049+05:30"},{"city":"Pondicherry","state":"Puducherry","latitude":11.9139,"longitude":79.8145,"temp":32.3,"humidity":63,"rain":0.0,"pressure":1010.1,"uv_index":8.05,"wind_gusts":38.2,"aqi":75,"pm10":25.3,"pm2_5":22.1,"no2":13.6,"co":355.0,"o3":70.0,"so2":8.8,"mosquito_risk":3,"arthritis_risk":0,"migraine_risk":4,"frizz_risk":1,"updated_at":"2026-05-28T09:24:14.420056+05:30"},{"city":"Port Blair","state":"Andaman and Nicobar Islands","latitude":11.6234,"longitude":92.7265,"temp":25.5,"humidity":96,"rain":0.3,"pressure":1009.0,"uv_index":8.8,"wind_gusts":34.9,"aqi":35,"pm10":15.6,"pm2_5":7.0,"no2":0.5,"co":128.0,"o3":86.0,"so2":0.4,"mosquito_risk":10,"arthritis_risk":0,"migraine_risk":4,"frizz_risk":1,"updated_at":"2026-05-28T09:24:14.420063+05:30"},{"city":"Haridwar","state":"Uttarakhand","latitude":29.9457,"longitude":78.1642,"temp":32.4,"humidity":48,"rain":0.0,"pressure":973.7,"uv_index":7.6,"wind_gusts":39.2,"aqi":80,"pm10":93.6,"pm2_5":37.3,"no2":3.9,"co":338.0,"o3":173.0,"so2":13.6,"mosquito_risk":0,"arthritis_risk":5,"migraine_risk":7,"frizz_risk":1,"updated_at":"2026-05-28T09:24:14.420070+05:30"},{"city":"Rishikesh","state":"Uttarakhand","latitude":30.0869,"longitude":78.2676,"temp":32.5,"humidity":43,"rain":0.0,"pressure":966.6,"uv_index":7.7,"wind_gusts":33.8,"aqi":95,"pm10":110.6,"pm2_5":40.9,"no2":3.1,"co":360.0,"o3":186.0,"so2":12.9,"mosquito_risk":0,"arthritis_risk":5,"migraine_risk":7,"frizz_risk":1,"updated_at":"2026-05-28T09:24:14.420076+05:30"},{"city":"Nainital","state":"Uttarakhand","latitude":29.3919,"longitude":79.4542,"temp":21.1,"humidity":57,"rain":0.0,"pressure":808.8,"uv_index":8.5,"wind_gusts":34.6,"aqi":116,"pm10":55.1,"pm2_5":24.2,"no2":1.7,"co":317.0,"o3":158.0,"so2":8.1,"mosquito_risk":0,"arthritis_risk":5,"migraine_risk":7,"frizz_risk":0,"updated_at":"2026-05-28T09:24:14.420081+05:30"},{"city":"Mussoorie","state":"Uttarakhand","latitude":30.4599,"longitude":78.0664,"temp":21.2,"humidity":54,"rain":0.0,"pressure":806.3,"uv_index":8.1,"wind_gusts":45.7,"aqi":74,"pm10":81.3,"pm2_5":35.3,"no2":4.5,"co":239.0,"o3":174.0,"so2":13.6,"mosquito_risk":0,"arthritis_risk":5,"migraine_risk":7,"frizz_risk":0,"updated_at":"2026-05-28T09:24:14.420088+05:30"},{"city":"Dharamshala","state":"Himachal Pradesh","latitude":32.219,"longitude":76.3234,"temp":28.0,"humidity":25,"rain":0.0,"pressure":870.5,"uv_index":8.1,"wind_gusts":46.8,"aqi":49,"pm10":23.4,"pm2_5":9.5,"no2":1.6,"co":201.0,"o3":129.0,"so2":0.9,"mosquito_risk":4,"arthritis_risk":5,"migraine_risk":7,"frizz_risk":0,"updated_at":"2026-05-28T09:24:14.420094+05:30"},{"city":"Dalhousie","state":"Himachal Pradesh","latitude":32.5387,"longitude":75.971,"temp":25.0,"humidity":23,"rain":0.0,"pressure":807.8,"uv_index":8.05,"wind_gusts":29.9,"aqi":65,"pm10":31.3,"pm2_5":15.3,"no2":5.8,"co":219.0,"o3":141.0,"so2":1.5,"mosquito_risk":4,"arthritis_risk":5,"migraine_risk":7,"frizz_risk":0,"updated_at":"2026-05-28T09:24:14.420101+05:30"},{"city":"Patiala","state":"Punjab","latitude":30.3398,"longitude":76.3869,"temp":33.1,"humidity":44,"rain":0.0,"pressure":976.1,"uv_index":7.7,"wind_gusts":59.0,"aqi":541,"pm10":1620.5,"pm2_5":221.2,"no2":10.9,"co":509.0,"o3":129.0,"so2":15.5,"mosquito_risk":0,"arthritis_risk":5,"migraine_risk":7,"frizz_risk":1,"updated_at":"2026-05-28T09:24:14.420107+05:30"},{"city":"Bhatinda","state":"Punjab","latitude":30.211,"longitude":74.9455,"temp":38.2,"humidity":20,"rain":0.0,"pressure":979.7,"uv_index":8.35,"wind_gusts":62.6,"aqi":81,"pm10":66.1,"pm2_5":36.6,"no2":14.4,"co":505.0,"o3":112.0,"so2":9.2,"mosquito_risk":0,"arthritis_risk":5,"migraine_risk":10,"frizz_risk":0,"updated_at":"2026-05-28T09:24:14.420113+05:30"},{"city":"Rohtak","state":"Haryana","latitude":28.8955,"longitude":76.6066,"temp":34.3,"humidity":36,"rain":0.0,"pressure":979.3,"uv_index":7.8,"wind_gusts":60.5,"aqi":683,"pm10":443.3,"pm2_5":94.5,"no2":19.4,"co":393.0,"o3":80.0,"so2":10.4,"mosquito_risk":0,"arthritis_risk":5,"migraine_risk":7,"frizz_risk":1,"updated_at":"2026-05-28T09:24:14.420119+05:30"},{"city":"Panipat","state":"Haryana","latitude":29.3909,"longitude":76.9635,"temp":32.9,"humidity":48,"rain":0.0,"pressure":978.1,"uv_index":7.65,"wind_gusts":43.6,"aqi":1347,"pm10":1553.4,"pm2_5":218.9,"no2":20.0,"co":491.0,"o3":99.0,"so2":17.3,"mosquito_risk":0,"arthritis_risk":5,"migraine_risk":7,"frizz_risk":1,"updated_at":"2026-05-28T09:24:14.420124+05:30"},{"city":"Mathura","state":"Uttar Pradesh","latitude":27.4924,"longitude":77.6737,"temp":36.0,"humidity":29,"rain":0.0,"pressure":984.1,"uv_index":8.0,"wind_gusts":58.3,"aqi":608,"pm10":184.4,"pm2_5":51.0,"no2":14.4,"co":283.0,"o3":73.0,"so2":6.1,"mosquito_risk":0,"arthritis_risk":5,"migraine_risk":10,"frizz_risk":0,"updated_at":"2026-05-28T09:24:14.420130+05:30"},{"city":"Vrindavan","state":"Uttar Pradesh","latitude":27.5823,"longitude":77.7027,"temp":35.5,"humidity":32,"rain":0.0,"pressure":984.6,"uv_index":8.0,"wind_gusts":56.9,"aqi":608,"pm10":184.4,"pm2_5":51.0,"no2":14.4,"co":275.0,"o3":73.0,"so2":6.1,"mosquito_risk":0,"arthritis_risk":5,"migraine_risk":10,"frizz_risk":1,"updated_at":"2026-05-28T09:24:14.420135+05:30"},{"city":"Ayodhya","state":"Uttar Pradesh","latitude":26.7922,"longitude":82.1998,"temp":30.6,"humidity":59,"rain":0.0,"pressure":995.9,"uv_index":8.35,"wind_gusts":45.4,"aqi":91,"pm10":43.1,"pm2_5":36.7,"no2":5.2,"co":405.0,"o3":118.0,"so2":10.3,"mosquito_risk":0,"arthritis_risk":5,"migraine_risk":7,"frizz_risk":1,"updated_at":"2026-05-28T09:24:14.420141+05:30"},{"city":"Ratlam","state":"Madhya Pradesh","latitude":23.3315,"longitude":75.0367,"temp":31.3,"humidity":58,"rain":0.0,"pressure":956.3,"uv_index":8.5,"wind_gusts":51.5,"aqi":73,"pm10":31.0,"pm2_5":19.3,"no2":5.2,"co":149.0,"o3":53.0,"so2":11.8,"mosquito_risk":0,"arthritis_risk":5,"migraine_risk":7,"frizz_risk":1,"updated_at":"2026-05-28T09:24:14.420147+05:30"},{"city":"Sagar","state":"Madhya Pradesh","latitude":23.8388,"longitude":78.7378,"temp":37.7,"humidity":24,"rain":0.0,"pressure":950.5,"uv_index":8.7,"wind_gusts":41.8,"aqi":61,"pm10":37.6,"pm2_5":18.2,"no2":2.2,"co":174.0,"o3":105.0,"so2":5.6,"mosquito_risk":0,"arthritis_risk":5,"migraine_risk":10,"frizz_risk":0,"updated_at":"2026-05-28T09:24:14.420152+05:30"},{"city":"Satna","state":"Madhya Pradesh","latitude":24.6005,"longitude":80.8322,"temp":36.7,"humidity":33,"rain":0.0,"pressure":970.0,"uv_index":8.75,"wind_gusts":53.6,"aqi":76,"pm10":38.8,"pm2_5":22.4,"no2":7.1,"co":215.0,"o3":111.0,"so2":11.1,"mosquito_risk":0,"arthritis_risk":5,"migraine_risk":10,"frizz_risk":1,"updated_at":"2026-05-28T09:24:14.420157+05:30"},{"city":"Akola","state":"Maharashtra","latitude":20.7002,"longitude":77.0082,"temp":34.2,"humidity":45,"rain":0.0,"pressure":976.3,"uv_index":8.8,"wind_gusts":42.8,"aqi":58,"pm10":39.7,"pm2_5":19.0,"no2":4.9,"co":146.0,"o3":70.0,"so2":8.7,"mosquito_risk":0,"arthritis_risk":5,"migraine_risk":7,"frizz_risk":1,"updated_at":"2026-05-28T09:24:14.420163+05:30"},{"city":"Amravati","state":"Maharashtra","latitude":20.9374,"longitude":77.7796,"temp":35.0,"humidity":41,"rain":0.0,"pressure":968.2,"uv_index":8.85,"wind_gusts":40.7,"aqi":58,"pm10":43.4,"pm2_5":22.4,"no2":5.3,"co":175.0,"o3":82.0,"so2":11.1,"mosquito_risk":0,"arthritis_risk":5,"migraine_risk":7,"frizz_risk":1,"updated_at":"2026-05-28T09:24:14.420170+05:30"},{"city":"Latur","state":"Maharashtra","latitude":18.4088,"longitude":76.5604,"temp":31.3,"humidity":49,"rain":0.0,"pressure":942.5,"uv_index":8.95,"wind_gusts":33.5,"aqi":58,"pm10":12.2,"pm2_5":11.5,"no2":4.7,"co":191.0,"o3":96.0,"so2":12.1,"mosquito_risk":0,"arthritis_risk":5,"migraine_risk":7,"frizz_risk":1,"updated_at":"2026-05-28T09:24:14.420176+05:30"},{"city":"Nanded","state":"Maharashtra","latitude":19.1383,"longitude":77.3091,"temp":34.1,"humidity":42,"rain":0.0,"pressure":970.4,"uv_index":8.9,"wind_gusts":36.0,"aqi":61,"pm10":21.3,"pm2_5":13.0,"no2":4.4,"co":181.0,"o3":82.0,"so2":4.8,"mosquito_risk":0,"arthritis_risk":5,"migraine_risk":7,"frizz_risk":1,"updated_at":"2026-05-28T09:24:14.420181+05:30"},{"city":"Gulbarga","state":"Karnataka","latitude":17.3297,"longitude":76.8343,"temp":31.1,"humidity":59,"rain":0.0,"pressure":961.4,"uv_index":9.0,"wind_gusts":38.5,"aqi":58,"pm10":7.8,"pm2_5":6.7,"no2":5.1,"co":173.0,"o3":69.0,"so2":5.5,"mosquito_risk":0,"arthritis_risk":5,"migraine_risk":7,"frizz_risk":1,"updated_at":"2026-05-28T09:24:14.420186+05:30"},{"city":"Bidar","state":"Karnataka","latitude":17.9104,"longitude":77.5199,"temp":31.1,"humidity":56,"rain":0.0,"pressure":938.2,"uv_index":8.4,"wind_gusts":33.8,"aqi":67,"pm10":16.2,"pm2_5":13.9,"no2":6.2,"co":200.0,"o3":104.0,"so2":9.7,"mosquito_risk":0,"arthritis_risk":5,"migraine_risk":7,"frizz_risk":1,"updated_at":"2026-05-28T09:24:14.420191+05:30"},{"city":"Hospet","state":"Karnataka","latitude":15.2689,"longitude":76.3909,"temp":28.8,"humidity":69,"rain":0.0,"pressure":959.0,"uv_index":8.75,"wind_gusts":54.4,"aqi":41,"pm10":7.2,"pm2_5":5.5,"no2":2.9,"co":145.0,"o3":56.0,"so2":1.9,"mosquito_risk":7,"arthritis_risk":5,"migraine_risk":7,"frizz_risk":1,"updated_at":"2026-05-28T09:24:14.420196+05:30"},{"city":"Tirupur","state":"Tamil Nadu","latitude":11.1085,"longitude":77.3411,"temp":31.8,"humidity":56,"rain":0.0,"pressure":978.5,"uv_index":8.95,"wind_gusts":52.6,"aqi":53,"pm10":15.1,"pm2_5":12.2,"no2":6.5,"co":165.0,"o3":70.0,"so2":4.4,"mosquito_risk":0,"arthritis_risk":5,"migraine_risk":7,"frizz_risk":1,"updated_at":"2026-05-28T09:24:14.420201+05:30"},{"city":"Alappuzha","state":"Kerala","latitude":9.4981,"longitude":76.3388,"temp":26.2,"humidity":93,"rain":0.1,"pressure":1013.5,"uv_index":7.45,"wind_gusts":28.1,"aqi":41,"pm10":13.0,"pm2_5":9.0,"no2":4.8,"co":105.0,"o3":63.0,"so2":2.3,"mosquito_risk":10,"arthritis_risk":0,"migraine_risk":4,"frizz_risk":1,"updated_at":"2026-05-28T09:24:14.420207+05:30"},{"city":"Munnar","state":"Kerala","latitude":10.0889,"longitude":77.0595,"temp":19.3,"humidity":95,"rain":0.1,"pressure":860.7,"uv_index":8.15,"wind_gusts":27.4,"aqi":28,"pm10":8.6,"pm2_5":6.3,"no2":3.1,"co":125.0,"o3":61.0,"so2":1.3,"mosquito_risk":6,"arthritis_risk":10,"migraine_risk":7,"frizz_risk":1,"updated_at":"2026-05-28T09:24:14.420212+05:30"},{"city":"Silchar","state":"Assam","latitude":24.8333,"longitude":92.7789,"temp":28.5,"humidity":77,"rain":0.0,"pressure":1007.3,"uv_index":8.9,"wind_gusts":24.5,"aqi":114,"pm10":35.0,"pm2_5":21.6,"no2":2.1,"co":265.0,"o3":116.0,"so2":4.5,"mosquito_risk":7,"arthritis_risk":5,"migraine_risk":4,"frizz_risk":1,"updated_at":"2026-05-28T09:24:14.420218+05:30"},{"city":"Dibrugarh","state":"Assam","latitude":27.4728,"longitude":94.912,"temp":27.7,"humidity":80,"rain":0.0,"pressure":997.9,"uv_index":4.45,"wind_gusts":26.6,"aqi":93,"pm10":44.8,"pm2_5":21.0,"no2":1.8,"co":244.0,"o3":121.0,"so2":1.9,"mosquito_risk":7,"arthritis_risk":5,"migraine_risk":3,"frizz_risk":1,"updated_at":"2026-05-28T09:24:14.420223+05:30"}]