[{"city":"Delhi","state":"Delhi","latitude":28.6139,"longitude":77.209,"temp":33.7,"humidity":40,"rain":0.0,"pressure":978.2,"uv_index":7.65,"wind_gusts":51.5,"aqi":215,"pm10":407.0,"pm2_5":82.7,"no2":31.4,"co":735.0,"o3":155.0,"so2":34.3,"mosquito_risk":0,"arthritis_risk":5,"migraine_risk":7,"frizz_risk":1,"updated_at":"2026-05-12T18:35:36.244463+05:30"},{"city":"Mumbai","state":"Maharashtra","latitude":19.076,"longitude":72.8777,"temp":31.0,"humidity":73,"rain":0.0,"pressure":1002.0,"uv_index":7.9,"wind_gusts":47.5,"aqi":139,"pm10":39.1,"pm2_5":17.6,"no2":9.7,"co":284.0,"o3":87.0,"so2":8.1,"mosquito_risk":3,"arthritis_risk":5,"migraine_risk":4,"frizz_risk":1,"updated_at":"2026-05-12T18:35:36.244516+05:30"},{"city":"Bangalore","state":"Karnataka","latitude":12.9716,"longitude":77.5946,"temp":30.0,"humidity":41,"rain":0.0,"pressure":908.8,"uv_index":8.95,"wind_gusts":43.6,"aqi":129,"pm10":29.4,"pm2_5":20.6,"no2":20.0,"co":354.0,"o3":112.0,"so2":5.9,"mosquito_risk":4,"arthritis_risk":5,"migraine_risk":7,"frizz_risk":0,"updated_at":"2026-05-12T18:35:36.244532+05:30"},{"city":"Hyderabad","state":"Telangana","latitude":17.385,"longitude":78.4867,"temp":32.2,"humidity":48,"rain":0.0,"pressure":949.6,"uv_index":8.7,"wind_gusts":29.5,"aqi":122,"pm10":46.4,"pm2_5":23.5,"no2":9.8,"co":335.0,"o3":139.0,"so2":6.8,"mosquito_risk":0,"arthritis_risk":5,"migraine_risk":7,"frizz_risk":1,"updated_at":"2026-05-12T18:35:36.244542+05:30"},{"city":"Chennai","state":"Tamil Nadu","latitude":13.0827,"longitude":80.2707,"temp":30.1,"humidity":72,"rain":0.0,"pressure":1003.1,"uv_index":9.2,"wind_gusts":43.9,"aqi":26,"pm10":7.3,"pm2_5":5.0,"no2":4.2,"co":146.0,"o3":37.0,"so2":3.6,"mosquito_risk":3,"arthritis_risk":5,"migraine_risk":4,"frizz_risk":1,"updated_at":"2026-05-12T18:35:36.244550+05:30"},{"city":"Kolkata","state":"West Bengal","latitude":22.5726,"longitude":88.3639,"temp":28.9,"humidity":72,"rain":0.0,"pressure":1004.0,"uv_index":8.95,"wind_gusts":31.0,"aqi":78,"pm10":28.7,"pm2_5":24.7,"no2":12.3,"co":334.0,"o3":54.0,"so2":8.7,"mosquito_risk":7,"arthritis_risk":5,"migraine_risk":4,"frizz_risk":1,"updated_at":"2026-05-12T18:35:36.244558+05:30"},{"city":"Pune","state":"Maharashtra","latitude":18.5204,"longitude":73.8567,"temp":32.9,"humidity":47,"rain":0.0,"pressure":942.9,"uv_index":8.5,"wind_gusts":56.5,"aqi":143,"pm10":35.6,"pm2_5":22.1,"no2":6.4,"co":298.0,"o3":159.0,"so2":11.4,"mosquito_risk":0,"arthritis_risk":5,"migraine_risk":7,"frizz_risk":1,"updated_at":"2026-05-12T18:35:36.244566+05:30"},{"city":"Ahmedabad","state":"Gujarat","latitude":23.0225,"longitude":72.5714,"temp":42.4,"humidity":15,"rain":0.0,"pressure":995.0,"uv_index":8.15,"wind_gusts":30.2,"aqi":98,"pm10":34.2,"pm2_5":16.4,"no2":13.3,"co":235.0,"o3":119.0,"so2":6.5,"mosquito_risk":0,"arthritis_risk":5,"migraine_risk":10,"frizz_risk":0,"updated_at":"2026-05-12T18:35:36.244576+05:30"},{"city":"Jaipur","state":"Rajasthan","latitude":26.9124,"longitude":75.7873,"temp":39.6,"humidity":13,"rain":0.0,"pressure":954.6,"uv_index":8.2,"wind_gusts":51.5,"aqi":143,"pm10":294.3,"pm2_5":41.6,"no2":6.3,"co":179.0,"o3":116.0,"so2":2.9,"mosquito_risk":0,"arthritis_risk":5,"migraine_risk":10,"frizz_risk":0,"updated_at":"2026-05-12T18:35:36.244583+05:30"},{"city":"Lucknow","state":"Uttar Pradesh","latitude":26.8467,"longitude":80.9462,"temp":34.8,"humidity":35,"rain":0.0,"pressure":989.0,"uv_index":8.15,"wind_gusts":25.2,"aqi":198,"pm10":85.9,"pm2_5":52.7,"no2":8.7,"co":415.0,"o3":166.0,"so2":12.2,"mosquito_risk":0,"arthritis_risk":5,"migraine_risk":7,"frizz_risk":1,"updated_at":"2026-05-12T18:35:36.244590+05:30"},{"city":"Kanpur","state":"Uttar Pradesh","latitude":26.4499,"longitude":80.3319,"temp":36.2,"humidity":31,"rain":0.0,"pressure":986.9,"uv_index":8.15,"wind_gusts":28.8,"aqi":198,"pm10":148.5,"pm2_5":51.3,"no2":6.1,"co":389.0,"o3":176.0,"so2":11.0,"mosquito_risk":0,"arthritis_risk":5,"migraine_risk":10,"frizz_risk":1,"updated_at":"2026-05-12T18:35:36.244596+05:30"},{"city":"Chandigarh","state":"Chandigarh","latitude":30.7333,"longitude":76.7794,"temp":31.1,"humidity":52,"rain":0.0,"pressure":965.1,"uv_index":7.65,"wind_gusts":43.2,"aqi":173,"pm10":88.7,"pm2_5":40.9,"no2":10.3,"co":977.0,"o3":163.0,"so2":14.5,"mosquito_risk":0,"arthritis_risk":5,"migraine_risk":7,"frizz_risk":1,"updated_at":"2026-05-12T18:35:36.244603+05:30"},{"city":"Srinagar","state":"Jammu and Kashmir","latitude":34.0837,"longitude":74.7973,"temp":16.0,"humidity":77,"rain":0.1,"pressure":841.6,"uv_index":8.85,"wind_gusts":28.1,"aqi":95,"pm10":44.1,"pm2_5":22.6,"no2":8.3,"co":625.0,"o3":114.0,"so2":1.9,"mosquito_risk":6,"arthritis_risk":5,"migraine_risk":7,"frizz_risk":0,"updated_at":"2026-05-12T18:35:36.244610+05:30"},{"city":"Jammu","state":"Jammu and Kashmir","latitude":32.7266,"longitude":74.857,"temp":30.5,"humidity":48,"rain":0.0,"pressure":969.2,"uv_index":8.45,"wind_gusts":50.8,"aqi":130,"pm10":122.5,"pm2_5":50.9,"no2":13.7,"co":411.0,"o3":143.0,"so2":6.4,"mosquito_risk":0,"arthritis_risk":5,"migraine_risk":7,"frizz_risk":1,"updated_at":"2026-05-12T18:35:36.244616+05:30"},{"city":"Amritsar","state":"Punjab","latitude":31.634,"longitude":74.8723,"temp":31.3,"humidity":49,"rain":0.0,"pressure":976.6,"uv_index":8.35,"wind_gusts":43.2,"aqi":155,"pm10":124.8,"pm2_5":49.7,"no2":5.2,"co":432.0,"o3":140.0,"so2":6.0,"mosquito_risk":0,"arthritis_risk":5,"migraine_risk":7,"frizz_risk":1,"updated_at":"2026-05-12T18:35:36.244623+05:30"},{"city":"Ludhiana","state":"Punjab","latitude":30.901,"longitude":75.8573,"temp":33.3,"humidity":38,"rain":0.0,"pressure":974.5,"uv_index":7.95,"wind_gusts":28.8,"aqi":187,"pm10":140.6,"pm2_5":59.5,"no2":11.1,"co":407.0,"o3":170.0,"so2":15.9,"mosquito_risk":0,"arthritis_risk":5,"migraine_risk":7,"frizz_risk":1,"updated_at":"2026-05-12T18:35:36.244630+05:30"},{"city":"Jalandhar","state":"Punjab","latitude":31.326,"longitude":75.5762,"temp":31.9,"humidity":43,"rain":0.0,"pressure":975.7,"uv_index":8.1,"wind_gusts":27.0,"aqi":162,"pm10":103.1,"pm2_5":50.6,"no2":7.9,"co":556.0,"o3":151.0,"so2":10.1,"mosquito_risk":0,"arthritis_risk":5,"migraine_risk":7,"frizz_risk":1,"updated_at":"2026-05-12T18:35:36.244637+05:30"},{"city":"Dehradun","state":"Uttarakhand","latitude":30.6284,"longitude":78.0322,"temp":18.7,"humidity":86,"rain":0.0,"pressure":829.3,"uv_index":8.1,"wind_gusts":33.8,"aqi":121,"pm10":59.1,"pm2_5":24.5,"no2":7.9,"co":299.0,"o3":133.0,"so2":3.1,"mosquito_risk":3,"arthritis_risk":10,"migraine_risk":7,"frizz_risk":1,"updated_at":"2026-05-12T18:35:36.244645+05:30"},{"city":"Shimla","state":"Himachal Pradesh","latitude":31.1048,"longitude":77.1734,"temp":16.3,"humidity":69,"rain":0.0,"pressure":783.5,"uv_index":8.2,"wind_gusts":40.7,"aqi":120,"pm10":67.8,"pm2_5":26.5,"no2":6.7,"co":300.0,"o3":141.0,"so2":6.7,"mosquito_risk":3,"arthritis_risk":5,"migraine_risk":7,"frizz_risk":0,"updated_at":"2026-05-12T18:35:36.244651+05:30"},{"city":"Manali","state":"Himachal Pradesh","latitude":32.2396,"longitude":77.1887,"temp":12.7,"humidity":86,"rain":0.0,"pressure":816.3,"uv_index":9.25,"wind_gusts":37.4,"aqi":104,"pm10":19.4,"pm2_5":8.1,"no2":10.1,"co":195.0,"o3":129.0,"so2":0.5,"mosquito_risk":3,"arthritis_risk":10,"migraine_risk":7,"frizz_risk":0,"updated_at":"2026-05-12T18:35:36.244657+05:30"},{"city":"Gurgaon","state":"Haryana","latitude":28.4595,"longitude":77.0266,"temp":33.7,"humidity":40,"rain":0.0,"pressure":976.7,"uv_index":7.8,"wind_gusts":53.3,"aqi":879,"pm10":689.2,"pm2_5":112.9,"no2":37.4,"co":654.0,"o3":150.0,"so2":35.3,"mosquito_risk":0,"arthritis_risk":5,"migraine_risk":7,"frizz_risk":1,"updated_at":"2026-05-12T18:35:36.244663+05:30"},{"city":"Noida","state":"Uttar Pradesh","latitude":28.5355,"longitude":77.391,"temp":31.5,"humidity":55,"rain":0.0,"pressure":979.4,"uv_index":7.7,"wind_gusts":49.7,"aqi":879,"pm10":689.2,"pm2_5":112.9,"no2":37.4,"co":620.0,"o3":150.0,"so2":35.3,"mosquito_risk":0,"arthritis_risk":5,"migraine_risk":7,"frizz_risk":1,"updated_at":"2026-05-12T18:35:36.244669+05:30"},{"city":"Ghaziabad","state":"Uttar Pradesh","latitude":28.6692,"longitude":77.4538,"temp":30.8,"humidity":59,"rain":0.0,"pressure":978.2,"uv_index":7.65,"wind_gusts":45.7,"aqi":180,"pm10":221.7,"pm2_5":59.0,"no2":13.5,"co":390.0,"o3":149.0,"so2":10.5,"mosquito_risk":0,"arthritis_risk":5,"migraine_risk":7,"frizz_risk":1,"updated_at":"2026-05-12T18:35:36.244675+05:30"},{"city":"Faridabad","state":"Haryana","latitude":28.4089,"longitude":77.3178,"temp":33.5,"humidity":41,"rain":0.0,"pressure":978.7,"uv_index":7.75,"wind_gusts":59.8,"aqi":879,"pm10":689.2,"pm2_5":112.9,"no2":37.4,"co":557.0,"o3":150.0,"so2":35.3,"mosquito_risk":0,"arthritis_risk":5,"migraine_risk":7,"frizz_risk":1,"updated_at":"2026-05-12T18:35:36.244681+05:30"},{"city":"Meerut","state":"Uttar Pradesh","latitude":28.9845,"longitude":77.7064,"temp":31.8,"humidity":53,"rain":0.0,"pressure":977.4,"uv_index":7.6,"wind_gusts":42.8,"aqi":180,"pm10":221.7,"pm2_5":59.0,"no2":13.5,"co":397.0,"o3":149.0,"so2":10.5,"mosquito_risk":0,"arthritis_risk":5,"migraine_risk":7,"frizz_risk":1,"updated_at":"2026-05-12T18:35:36.244687+05:30"},{"city":"Agra","state":"Uttar Pradesh","latitude":27.1767,"longitude":78.0081,"temp":36.0,"humidity":35,"rain":0.0,"pressure":982.3,"uv_index":7.85,"wind_gusts":31.3,"aqi":444,"pm10":1605.6,"pm2_5":169.5,"no2":13.2,"co":358.0,"o3":138.0,"so2":15.7,"mosquito_risk":0,"arthritis_risk":5,"migraine_risk":10,"frizz_risk":1,"updated_at":"2026-05-12T18:35:36.244693+05:30"},{"city":"Varanasi","state":"Uttar Pradesh","latitude":25.3176,"longitude":82.9739,"temp":34.3,"humidity":41,"rain":0.0,"pressure":992.9,"uv_index":8.7,"wind_gusts":32.0,"aqi":199,"pm10":70.1,"pm2_5":52.3,"no2":8.8,"co":424.0,"o3":172.0,"so2":15.8,"mosquito_risk":0,"arthritis_risk":5,"migraine_risk":7,"frizz_risk":1,"updated_at":"2026-05-12T18:35:36.244699+05:30"},{"city":"Prayagraj","state":"Uttar Pradesh","latitude":25.4358,"longitude":81.8463,"temp":36.0,"humidity":33,"rain":0.0,"pressure":990.9,"uv_index":8.55,"wind_gusts":34.9,"aqi":194,"pm10":73.3,"pm2_5":48.5,"no2":9.0,"co":390.0,"o3":158.0,"so2":12.1,"mosquito_risk":0,"arthritis_risk":5,"migraine_risk":10,"frizz_risk":1,"updated_at":"2026-05-12T18:35:36.244706+05:30"},{"city":"Gorakhpur","state":"Uttar Pradesh","latitude":26.7606,"longitude":83.3732,"temp":29.9,"humidity":64,"rain":0.0,"pressure":993.5,"uv_index":8.5,"wind_gusts":43.9,"aqi":173,"pm10":56.6,"pm2_5":43.7,"no2":5.5,"co":385.0,"o3":157.0,"so2":6.6,"mosquito_risk":7,"arthritis_risk":5,"migraine_risk":7,"frizz_risk":1,"updated_at":"2026-05-12T18:35:36.244712+05:30"},{"city":"Bareilly","state":"Uttar Pradesh","latitude":28.367,"longitude":79.4304,"temp":31.0,"humidity":59,"rain":0.0,"pressure":982.5,"uv_index":7.95,"wind_gusts":32.8,"aqi":185,"pm10":134.6,"pm2_5":53.4,"no2":6.5,"co":435.0,"o3":169.0,"so2":11.4,"mosquito_risk":0,"arthritis_risk":5,"migraine_risk":7,"frizz_risk":1,"updated_at":"2026-05-12T18:35:36.244718+05:30"},{"city":"Aligarh","state":"Uttar Pradesh","latitude":27.8974,"longitude":78.088,"temp":33.8,"humidity":49,"rain":0.0,"pressure":980.5,"uv_index":7.85,"wind_gusts":57.2,"aqi":344,"pm10":345.5,"pm2_5":73.1,"no2":13.7,"co":391.0,"o3":147.0,"so2":18.4,"mosquito_risk":0,"arthritis_risk":5,"migraine_risk":7,"frizz_risk":1,"updated_at":"2026-05-12T18:35:36.244723+05:30"},{"city":"Moradabad","state":"Uttar Pradesh","latitude":28.8386,"longitude":78.7733,"temp":31.5,"humidity":60,"rain":0.0,"pressure":979.8,"uv_index":7.8,"wind_gusts":30.2,"aqi":182,"pm10":86.6,"pm2_5":50.9,"no2":13.3,"co":484.0,"o3":152.0,"so2":16.1,"mosquito_risk":0,"arthritis_risk":5,"migraine_risk":7,"frizz_risk":1,"updated_at":"2026-05-12T18:35:36.244729+05:30"},{"city":"Saharanpur","state":"Uttar Pradesh","latitude":29.9637,"longitude":77.546,"temp":30.2,"humidity":65,"rain":0.0,"pressure":971.9,"uv_index":7.4,"wind_gusts":37.4,"aqi":179,"pm10":170.9,"pm2_5":65.4,"no2":14.1,"co":447.0,"o3":155.0,"so2":15.5,"mosquito_risk":3,"arthritis_risk":5,"migraine_risk":7,"frizz_risk":1,"updated_at":"2026-05-12T18:35:36.244735+05:30"},{"city":"Jhansi","state":"Uttar Pradesh","latitude":25.4484,"longitude":78.5685,"temp":35.8,"humidity":37,"rain":0.0,"pressure":972.8,"uv_index":8.45,"wind_gusts":30.2,"aqi":148,"pm10":67.3,"pm2_5":23.2,"no2":4.1,"co":258.0,"o3":115.0,"so2":8.8,"mosquito_risk":0,"arthritis_risk":5,"migraine_risk":10,"frizz_risk":1,"updated_at":"2026-05-12T18:35:39.562634+05:30"},{"city":"Surat","state":"Gujarat","latitude":21.1702,"longitude":72.8311,"temp":34.3,"humidity":50,"rain":0.0,"pressure":1000.1,"uv_index":7.75,"wind_gusts":34.9,"aqi":101,"pm10":49.4,"pm2_5":34.7,"no2":42.8,"co":347.0,"o3":65.0,"so2":72.8,"mosquito_risk":0,"arthritis_risk":5,"migraine_risk":4,"frizz_risk":1,"updated_at":"2026-05-12T18:35:39.562666+05:30"},{"city":"Vadodara","state":"Gujarat","latitude":22.3072,"longitude":73.1812,"temp":42.8,"humidity":14,"rain":0.0,"pressure":996.5,"uv_index":8.1,"wind_gusts":28.1,"aqi":143,"pm10":34.0,"pm2_5":21.0,"no2":14.8,"co":261.0,"o3":142.0,"so2":10.0,"mosquito_risk":0,"arthritis_risk":5,"migraine_risk":10,"frizz_risk":0,"updated_at":"2026-05-12T18:35:39.562676+05:30"},{"city":"Rajkot","state":"Gujarat","latitude":22.3039,"longitude":70.8022,"temp":36.5,"humidity":42,"rain":0.0,"pressure":988.2,"uv_index":7.75,"wind_gusts":50.0,"aqi":85,"pm10":43.0,"pm2_5":16.1,"no2":3.1,"co":162.0,"o3":121.0,"so2":6.8,"mosquito_risk":0,"arthritis_risk":5,"migraine_risk":10,"frizz_risk":1,"updated_at":"2026-05-12T18:35:39.562684+05:30"},{"city":"Thane","state":"Maharashtra","latitude":19.2183,"longitude":72.9781,"temp":32.2,"humidity":61,"rain":0.0,"pressure":1001.1,"uv_index":7.9,"wind_gusts":42.5,"aqi":139,"pm10":39.1,"pm2_5":17.6,"no2":9.7,"co":236.0,"o3":87.0,"so2":8.1,"mosquito_risk":3,"arthritis_risk":5,"migraine_risk":4,"frizz_risk":1,"updated_at":"2026-05-12T18:35:39.562692+05:30"},{"city":"Nagpur","state":"Maharashtra","latitude":21.1458,"longitude":79.0882,"temp":39.5,"humidity":19,"rain":0.0,"pressure":967.9,"uv_index":8.95,"wind_gusts":40.3,"aqi":177,"pm10":113.6,"pm2_5":42.3,"no2":15.7,"co":251.0,"o3":156.0,"so2":26.1,"mosquito_risk":0,"arthritis_risk":5,"migraine_risk":10,"frizz_risk":0,"updated_at":"2026-05-12T18:35:39.562700+05:30"},{"city":"Nashik","state":"Maharashtra","latitude":19.9975,"longitude":73.7898,"temp":34.5,"humidity":35,"rain":0.0,"pressure":940.1,"uv_index":8.2,"wind_gusts":52.2,"aqi":135,"pm10":32.0,"pm2_5":20.2,"no2":3.2,"co":255.0,"o3":151.0,"so2":9.1,"mosquito_risk":0,"arthritis_risk":5,"migraine_risk":7,"frizz_risk":1,"updated_at":"2026-05-12T18:35:39.562708+05:30"},{"city":"Aurangabad","state":"Maharashtra","latitude":19.8762,"longitude":75.3433,"temp":38.5,"humidity":16,"rain":0.0,"pressure":939.1,"uv_index":9.05,"wind_gusts":42.1,"aqi":150,"pm10":56.0,"pm2_5":22.9,"no2":5.7,"co":262.0,"o3":151.0,"so2":11.6,"mosquito_risk":0,"arthritis_risk":5,"migraine_risk":10,"frizz_risk":0,"updated_at":"2026-05-12T18:35:39.562716+05:30"},{"city":"Solapur","state":"Maharashtra","latitude":17.6599,"longitude":75.9064,"temp":36.0,"humidity":31,"rain":0.0,"pressure":952.0,"uv_index":8.35,"wind_gusts":37.4,"aqi":152,"pm10":44.7,"pm2_5":22.1,"no2":4.3,"co":280.0,"o3":149.0,"so2":5.5,"mosquito_risk":0,"arthritis_risk":5,"migraine_risk":10,"frizz_risk":0,"updated_at":"2026-05-12T18:35:39.562724+05:30"},{"city":"Kolhapur","state":"Maharashtra","latitude":16.705,"longitude":74.2433,"temp":30.4,"humidity":55,"rain":0.0,"pressure":943.1,"uv_index":8.35,"wind_gusts":48.6,"aqi":103,"pm10":32.1,"pm2_5":19.2,"no2":9.4,"co":189.0,"o3":112.0,"so2":5.3,"mosquito_risk":0,"arthritis_risk":5,"migraine_risk":7,"frizz_risk":1,"updated_at":"2026-05-12T18:35:39.562731+05:30"},{"city":"Goa","state":"Goa","latitude":15.2993,"longitude":74.124,"temp":32.0,"humidity":66,"rain":0.0,"pressure":992.9,"uv_index":8.9,"wind_gusts":31.0,"aqi":79,"pm10":48.5,"pm2_5":17.2,"no2":3.3,"co":144.0,"o3":72.0,"so2":1.5,"mosquito_risk":3,"arthritis_risk":5,"migraine_risk":7,"frizz_risk":1,"updated_at":"2026-05-12T18:35:39.562738+05:30"},{"city":"Jodhpur","state":"Rajasthan","latitude":26.2389,"longitude":73.0243,"temp":41.0,"humidity":12,"rain":0.0,"pressure":976.6,"uv_index":8.35,"wind_gusts":44.3,"aqi":115,"pm10":199.8,"pm2_5":27.2,"no2":3.1,"co":197.0,"o3":137.0,"so2":2.4,"mosquito_risk":0,"arthritis_risk":5,"migraine_risk":10,"frizz_risk":0,"updated_at":"2026-05-12T18:35:39.562746+05:30"},{"city":"Udaipur","state":"Rajasthan","latitude":24.5854,"longitude":73.7125,"temp":37.2,"humidity":17,"rain":0.0,"pressure":942.3,"uv_index":8.85,"wind_gusts":33.1,"aqi":101,"pm10":22.3,"pm2_5":9.7,"no2":2.0,"co":176.0,"o3":132.0,"so2":2.4,"mosquito_risk":0,"arthritis_risk":5,"migraine_risk":10,"frizz_risk":0,"updated_at":"2026-05-12T18:35:39.562753+05:30"},{"city":"Kota","state":"Rajasthan","latitude":25.2138,"longitude":75.8648,"temp":40.3,"humidity":14,"rain":0.0,"pressure":973.0,"uv_index":8.4,"wind_gusts":38.5,"aqi":113,"pm10":64.0,"pm2_5":17.3,"no2":5.3,"co":307.0,"o3":119.0,"so2":3.6,"mosquito_risk":0,"arthritis_risk":5,"migraine_risk":10,"frizz_risk":0,"updated_at":"2026-05-12T18:35:39.562761+05:30"},{"city":"Bikaner","state":"Rajasthan","latitude":28.0229,"longitude":73.3119,"temp":37.0,"humidity":24,"rain":0.0,"pressure":976.1,"uv_index":8.35,"wind_gusts":46.8,"aqi":95,"pm10":153.7,"pm2_5":30.5,"no2":1.5,"co":248.0,"o3":114.0,"so2":5.0,"mosquito_risk":0,"arthritis_risk":5,"migraine_risk":10,"frizz_risk":0,"updated_at":"2026-05-12T18:35:39.562768+05:30"},{"city":"Ajmer","state":"Rajasthan","latitude":26.4499,"longitude":74.6399,"temp":37.8,"humidity":15,"rain":0.0,"pressure":950.0,"uv_index":8.35,"wind_gusts":52.2,"aqi":95,"pm10":55.6,"pm2_5":15.0,"no2":3.0,"co":171.0,"o3":126.0,"so2":2.5,"mosquito_risk":0,"arthritis_risk":5,"migraine_risk":10,"frizz_risk":0,"updated_at":"2026-05-12T18:35:39.562775+05:30"},{"city":"Gwalior","state":"Madhya Pradesh","latitude":26.2183,"longitude":78.1828,"temp":36.0,"humidity":31,"rain":0.0,"pressure":977.6,"uv_index":7.7,"wind_gusts":32.8,"aqi":137,"pm10":67.3,"pm2_5":27.6,"no2":2.7,"co":245.0,"o3":128.0,"so2":6.5,"mosquito_risk":0,"arthritis_risk":5,"migraine_risk":10,"frizz_risk":1,"updated_at":"2026-05-12T18:35:39.562782+05:30"},{"city":"Indore","state":"Madhya Pradesh","latitude":22.7196,"longitude":75.8577,"temp":39.5,"humidity":12,"rain":0.0,"pressure":943.4,"uv_index":8.65,"wind_gusts":37.1,"aqi":127,"pm10":73.1,"pm2_5":23.7,"no2":4.0,"co":336.0,"o3":130.0,"so2":5.9,"mosquito_risk":0,"arthritis_risk":5,"migraine_risk":10,"frizz_risk":0,"updated_at":"2026-05-12T18:35:39.562789+05:30"},{"city":"Bhopal","state":"Madhya Pradesh","latitude":23.2599,"longitude":77.4126,"temp":37.7,"humidity":17,"rain":0.0,"pressure":949.7,"uv_index":8.7,"wind_gusts":40.0,"aqi":136,"pm10":82.2,"pm2_5":25.7,"no2":3.2,"co":249.0,"o3":132.0,"so2":6.4,"mosquito_risk":0,"arthritis_risk":5,"migraine_risk":10,"frizz_risk":0,"updated_at":"2026-05-12T18:35:39.562796+05:30"},{"city":"Jabalpur","state":"Madhya Pradesh","latitude":23.1815,"longitude":79.9864,"temp":36.9,"humidity":20,"rain":0.0,"pressure":957.0,"uv_index":8.85,"wind_gusts":39.2,"aqi":132,"pm10":89.2,"pm2_5":31.0,"no2":7.8,"co":224.0,"o3":130.0,"so2":5.6,"mosquito_risk":0,"arthritis_risk":5,"migraine_risk":10,"frizz_risk":0,"updated_at":"2026-05-12T18:35:39.562803+05:30"},{"city":"Ujjain","state":"Madhya Pradesh","latitude":23.1765,"longitude":75.7885,"temp":39.0,"humidity":14,"rain":0.0,"pressure":948.9,"uv_index":8.6,"wind_gusts":34.6,"aqi":124,"pm10":65.0,"pm2_5":22.9,"no2":4.8,"co":234.0,"o3":129.0,"so2":5.7,"mosquito_risk":0,"arthritis_risk":5,"migraine_risk":10,"frizz_risk":0,"updated_at":"2026-05-12T18:35:39.562811+05:30"},{"city":"Visakhapatnam","state":"Andhra Pradesh","latitude":17.6868,"longitude":83.2185,"temp":29.4,"humidity":74,"rain":0.0,"pressure":1000.8,"uv_index":9.1,"wind_gusts":41.8,"aqi":63,"pm10":13.0,"pm2_5":10.4,"no2":19.7,"co":606.0,"o3":33.0,"so2":11.1,"mosquito_risk":7,"arthritis_risk":5,"migraine_risk":4,"frizz_risk":1,"updated_at":"2026-05-12T18:35:39.562818+05:30"},{"city":"Vijayawada","state":"Andhra Pradesh","latitude":16.5062,"longitude":80.648,"temp":32.7,"humidity":56,"rain":0.0,"pressure":998.4,"uv_index":9.15,"wind_gusts":38.2,"aqi":53,"pm10":13.6,"pm2_5":9.7,"no2":4.5,"co":164.0,"o3":76.0,"so2":6.3,"mosquito_risk":0,"arthritis_risk":5,"migraine_risk":7,"frizz_risk":1,"updated_at":"2026-05-12T18:35:39.562826+05:30"},{"city":"Guntur","state":"Andhra Pradesh","latitude":16.3067,"longitude":80.4365,"temp":31.4,"humidity":64,"rain":0.0,"pressure":999.7,"uv_index":9.2,"wind_gusts":38.9,"aqi":70,"pm10":23.2,"pm2_5":16.2,"no2":4.3,"co":156.0,"o3":103.0,"so2":6.0,"mosquito_risk":3,"arthritis_risk":5,"migraine_risk":7,"frizz_risk":1,"updated_at":"2026-05-12T18:35:39.562833+05:30"},{"city":"Nellore","state":"Andhra Pradesh","latitude":14.4426,"longitude":79.9865,"temp":30.2,"humidity":69,"rain":0.0,"pressure":1001.9,"uv_index":9.15,"wind_gusts":37.4,"aqi":29,"pm10":8.5,"pm2_5":5.3,"no2":2.2,"co":129.0,"o3":45.0,"so2":1.9,"mosquito_risk":3,"arthritis_risk":5,"migraine_risk":4,"frizz_risk":1,"updated_at":"2026-05-12T18:35:39.562841+05:30"},{"city":"Kurnool","state":"Andhra Pradesh","latitude":15.8281,"longitude":78.0373,"temp":35.3,"humidity":36,"rain":0.0,"pressure":972.2,"uv_index":9.15,"wind_gusts":37.8,"aqi":88,"pm10":39.1,"pm2_5":18.6,"no2":5.8,"co":202.0,"o3":123.0,"so2":3.4,"mosquito_risk":0,"arthritis_risk":5,"migraine_risk":10,"frizz_risk":1,"updated_at":"2026-05-12T18:35:39.562849+05:30"},{"city":"Kakinada","state":"Andhra Pradesh","latitude":16.9891,"longitude":82.2475,"temp":29.4,"humidity":75,"rain":0.0,"pressure":1004.1,"uv_index":9.1,"wind_gusts":40.7,"aqi":28,"pm10":7.2,"pm2_5":4.4,"no2":1.1,"co":147.0,"o3":51.0,"so2":0.6,"mosquito_risk":7,"arthritis_risk":5,"migraine_risk":4,"frizz_risk":1,"updated_at":"2026-05-12T18:35:39.562856+05:30"},{"city":"Tirupati","state":"Andhra Pradesh","latitude":13.6288,"longitude":79.4192,"temp":31.0,"humidity":55,"rain":0.0,"pressure":987.2,"uv_index":9.25,"wind_gusts":37.8,"aqi":53,"pm10":10.9,"pm2_5":7.1,"no2":5.0,"co":139.0,"o3":62.0,"so2":1.4,"mosquito_risk":0,"arthritis_risk":5,"migraine_risk":7,"frizz_risk":1,"updated_at":"2026-05-12T18:35:39.562862+05:30"},{"city":"Warangal","state":"Telangana","latitude":17.9689,"longitude":79.5941,"temp":33.5,"humidity":49,"rain":0.0,"pressure":974.6,"uv_index":8.6,"wind_gusts":41.0,"aqi":106,"pm10":49.4,"pm2_5":25.4,"no2":5.8,"co":267.0,"o3":140.0,"so2":6.7,"mosquito_risk":0,"arthritis_risk":5,"migraine_risk":7,"frizz_risk":1,"updated_at":"2026-05-12T18:35:39.562868+05:30"},{"city":"Nizamabad","state":"Telangana","latitude":18.6725,"longitude":78.0941,"temp":35.7,"humidity":30,"rain":0.0,"pressure":960.3,"uv_index":9.05,"wind_gusts":35.6,"aqi":137,"pm10":46.7,"pm2_5":25.6,"no2":4.4,"co":275.0,"o3":141.0,"so2":5.0,"mosquito_risk":0,"arthritis_risk":5,"migraine_risk":10,"frizz_risk":0,"updated_at":"2026-05-12T18:35:39.562874+05:30"},{"city":"Mysore","state":"Karnataka","latitude":12.2958,"longitude":76.6396,"temp":28.1,"humidity":61,"rain":0.1,"pressure":924.7,"uv_index":8.85,"wind_gusts":29.9,"aqi":149,"pm10":41.8,"pm2_5":26.6,"no2":13.3,"co":282.0,"o3":143.0,"so2":5.2,"mosquito_risk":10,"arthritis_risk":5,"migraine_risk":7,"frizz_risk":1,"updated_at":"2026-05-12T18:35:39.562880+05:30"},{"city":"Mangalore","state":"Karnataka","latitude":12.9141,"longitude":74.856,"temp":30.2,"humidity":79,"rain":0.1,"pressure":1002.4,"uv_index":8.95,"wind_gusts":41.4,"aqi":92,"pm10":41.7,"pm2_5":19.8,"no2":5.2,"co":180.0,"o3":81.0,"so2":2.4,"mosquito_risk":6,"arthritis_risk":5,"migraine_risk":4,"frizz_risk":1,"updated_at":"2026-05-12T18:35:39.562886+05:30"},{"city":"Hubli-Dharwad","state":"Karnataka","latitude":15.3647,"longitude":75.124,"temp":32.7,"humidity":42,"rain":0.0,"pressure":936.6,"uv_index":9.1,"wind_gusts":36.7,"aqi":138,"pm10":43.7,"pm2_5":23.6,"no2":5.9,"co":213.0,"o3":145.0,"so2":4.3,"mosquito_risk":0,"arthritis_risk":5,"migraine_risk":7,"frizz_risk":1,"updated_at":"2026-05-12T18:35:39.562892+05:30"},{"city":"Belgaum","state":"Karnataka","latitude":15.8497,"longitude":74.4977,"temp":32.4,"humidity":33,"rain":0.0,"pressure":922.1,"uv_index":8.2,"wind_gusts":37.1,"aqi":125,"pm10":45.4,"pm2_5":27.8,"no2":7.0,"co":169.0,"o3":129.0,"so2":5.8,"mosquito_risk":0,"arthritis_risk":5,"migraine_risk":7,"frizz_risk":0,"updated_at":"2026-05-12T18:35:42.881691+05:30"},{"city":"Coimbatore","state":"Tamil Nadu","latitude":11.0168,"longitude":76.9558,"temp":31.2,"humidity":48,"rain":0.0,"pressure":957.4,"uv_index":9.05,"wind_gusts":25.6,"aqi":149,"pm10":38.2,"pm2_5":25.4,"no2":9.5,"co":289.0,"o3":140.0,"so2":4.3,"mosquito_risk":0,"arthritis_risk":5,"migraine_risk":7,"frizz_risk":1,"updated_at":"2026-05-12T18:35:42.881723+05:30"},{"city":"Madurai","state":"Tamil Nadu","latitude":9.9252,"longitude":78.1198,"temp":31.6,"humidity":55,"rain":0.0,"pressure":988.5,"uv_index":9.05,"wind_gusts":42.5,"aqi":116,"pm10":39.8,"pm2_5":31.5,"no2":16.4,"co":264.0,"o3":120.0,"so2":9.9,"mosquito_risk":0,"arthritis_risk":5,"migraine_risk":7,"frizz_risk":1,"updated_at":"2026-05-12T18:35:42.881733+05:30"},{"city":"Trichy","state":"Tamil Nadu","latitude":10.7905,"longitude":78.7047,"temp":28.5,"humidity":75,"rain":0.0,"pressure":995.4,"uv_index":9.1,"wind_gusts":33.5,"aqi":70,"pm10":22.8,"pm2_5":20.2,"no2":11.5,"co":221.0,"o3":100.0,"so2":15.8,"mosquito_risk":7,"arthritis_risk":5,"migraine_risk":7,"frizz_risk":1,"updated_at":"2026-05-12T18:35:42.881741+05:30"},{"city":"Salem","state":"Tamil Nadu","latitude":11.6643,"longitude":78.146,"temp":32.4,"humidity":46,"rain":0.0,"pressure":972.8,"uv_index":8.8,"wind_gusts":31.0,"aqi":164,"pm10":30.5,"pm2_5":19.0,"no2":7.8,"co":302.0,"o3":129.0,"so2":7.8,"mosquito_risk":0,"arthritis_risk":5,"migraine_risk":7,"frizz_risk":1,"updated_at":"2026-05-12T18:35:42.881749+05:30"},{"city":"Tirunelveli","state":"Tamil Nadu","latitude":8.7139,"longitude":77.7567,"temp":30.5,"humidity":67,"rain":0.0,"pressure":999.1,"uv_index":9.0,"wind_gusts":42.5,"aqi":126,"pm10":31.7,"pm2_5":24.8,"no2":7.7,"co":286.0,"o3":128.0,"so2":5.0,"mosquito_risk":3,"arthritis_risk":5,"migraine_risk":7,"frizz_risk":1,"updated_at":"2026-05-12T18:35:42.881757+05:30"},{"city":"Vellore","state":"Tamil Nadu","latitude":12.9165,"longitude":79.1325,"temp":31.5,"humidity":52,"rain":0.0,"pressure":980.5,"uv_index":9.1,"wind_gusts":33.5,"aqi":69,"pm10":19.7,"pm2_5":14.6,"no2":7.7,"co":210.0,"o3":95.0,"so2":6.9,"mosquito_risk":0,"arthritis_risk":5,"migraine_risk":7,"frizz_risk":1,"updated_at":"2026-05-12T18:35:42.881765+05:30"},{"city":"Erode","state":"Tamil Nadu","latitude":11.341,"longitude":77.7172,"temp":32.9,"humidity":48,"rain":0.0,"pressure":984.2,"uv_index":9.15,"wind_gusts":24.5,"aqi":185,"pm10":42.0,"pm2_5":27.8,"no2":12.6,"co":435.0,"o3":159.0,"so2":8.6,"mosquito_risk":0,"arthritis_risk":5,"migraine_risk":7,"frizz_risk":1,"updated_at":"2026-05-12T18:35:42.881772+05:30"},{"city":"Kochi","state":"Kerala","latitude":9.9312,"longitude":76.2673,"temp":26.0,"humidity":93,"rain":0.4,"pressure":1005.3,"uv_index":7.9,"wind_gusts":37.1,"aqi":90,"pm10":32.7,"pm2_5":23.5,"no2":11.0,"co":262.0,"o3":92.0,"so2":2.9,"mosquito_risk":10,"arthritis_risk":5,"migraine_risk":4,"frizz_risk":1,"updated_at":"2026-05-12T18:35:42.881780+05:30"},{"city":"Thiruvananthapuram","state":"Kerala","latitude":8.5241,"longitude":76.9366,"temp":26.8,"humidity":92,"rain":0.1,"pressure":1004.7,"uv_index":8.55,"wind_gusts":36.7,"aqi":81,"pm10":28.3,"pm2_5":17.6,"no2":3.3,"co":228.0,"o3":113.0,"so2":1.5,"mosquito_risk":10,"arthritis_risk":5,"migraine_risk":4,"frizz_risk":1,"updated_at":"2026-05-12T18:35:42.881787+05:30"},{"city":"Kozhikode","state":"Kerala","latitude":11.2588,"longitude":75.7804,"temp":26.8,"humidity":89,"rain":0.0,"pressure":1003.9,"uv_index":8.7,"wind_gusts":41.8,"aqi":68,"pm10":42.6,"pm2_5":21.4,"no2":1.4,"co":232.0,"o3":97.0,"so2":1.1,"mosquito_risk":7,"arthritis_risk":5,"migraine_risk":4,"frizz_risk":1,"updated_at":"2026-05-12T18:35:42.881794+05:30"},{"city":"Thrissur","state":"Kerala","latitude":10.5276,"longitude":76.2144,"temp":27.1,"humidity":86,"rain":0.0,"pressure":1003.0,"uv_index":8.7,"wind_gusts":35.6,"aqi":91,"pm10":34.2,"pm2_5":24.9,"no2":9.5,"co":283.0,"o3":88.0,"so2":2.5,"mosquito_risk":7,"arthritis_risk":5,"migraine_risk":4,"frizz_risk":1,"updated_at":"2026-05-12T18:35:42.881802+05:30"},{"city":"Kannur","state":"Kerala","latitude":11.8745,"longitude":75.3704,"temp":25.5,"humidity":100,"rain":0.2,"pressure":1003.5,"uv_index":8.95,"wind_gusts":48.6,"aqi":78,"pm10":41.7,"pm2_5":23.8,"no2":7.9,"co":225.0,"o3":85.0,"so2":2.2,"mosquito_risk":10,"arthritis_risk":5,"migraine_risk":4,"frizz_risk":1,"updated_at":"2026-05-12T18:35:42.881809+05:30"},{"city":"Patna","state":"Bihar","latitude":25.5941,"longitude":85.1376,"temp":29.2,"humidity":70,"rain":0.0,"pressure":997.1,"uv_index":8.65,"wind_gusts":35.3,"aqi":195,"pm10":69.2,"pm2_5":58.3,"no2":9.0,"co":361.0,"o3":174.0,"so2":12.1,"mosquito_risk":7,"arthritis_risk":5,"migraine_risk":7,"frizz_risk":1,"updated_at":"2026-05-12T18:35:42.881817+05:30"},{"city":"Gaya","state":"Bihar","latitude":24.7914,"longitude":85.0002,"temp":30.9,"humidity":58,"rain":0.0,"pressure":989.8,"uv_index":8.65,"wind_gusts":29.5,"aqi":201,"pm10":78.9,"pm2_5":61.0,"no2":5.0,"co":314.0,"o3":184.0,"so2":13.1,"mosquito_risk":0,"arthritis_risk":5,"migraine_risk":7,"frizz_risk":1,"updated_at":"2026-05-12T18:35:42.881824+05:30"},{"city":"Muzaffarpur","state":"Bihar","latitude":26.1209,"longitude":85.3647,"temp":26.3,"humidity":83,"rain":0.1,"pressure":997.9,"uv_index":8.75,"wind_gusts":43.6,"aqi":177,"pm10":62.9,"pm2_5":55.6,"no2":10.1,"co":374.0,"o3":160.0,"so2":10.2,"mosquito_risk":10,"arthritis_risk":5,"migraine_risk":7,"frizz_risk":1,"updated_at":"2026-05-12T18:35:42.881831+05:30"},{"city":"Bhagalpur","state":"Bihar","latitude":25.2425,"longitude":87.0117,"temp":28.4,"humidity":73,"rain":0.0,"pressure":998.7,"uv_index":8.6,"wind_gusts":35.6,"aqi":144,"pm10":50.2,"pm2_5":45.2,"no2":13.2,"co":296.0,"o3":133.0,"so2":13.4,"mosquito_risk":7,"arthritis_risk":5,"migraine_risk":7,"frizz_risk":1,"updated_at":"2026-05-12T18:35:42.881838+05:30"},{"city":"Ranchi","state":"Jharkhand","latitude":23.3441,"longitude":85.3096,"temp":25.8,"humidity":73,"rain":0.0,"pressure":934.2,"uv_index":9.1,"wind_gusts":35.3,"aqi":132,"pm10":57.2,"pm2_5":40.7,"no2":5.7,"co":256.0,"o3":134.0,"so2":13.2,"mosquito_risk":7,"arthritis_risk":5,"migraine_risk":7,"frizz_risk":1,"updated_at":"2026-05-12T18:35:42.881846+05:30"},{"city":"Jamshedpur","state":"Jharkhand","latitude":22.8046,"longitude":86.2029,"temp":29.6,"humidity":66,"rain":0.1,"pressure":987.7,"uv_index":9.1,"wind_gusts":36.4,"aqi":145,"pm10":54.6,"pm2_5":43.0,"no2":12.7,"co":322.0,"o3":127.0,"so2":16.5,"mosquito_risk":10,"arthritis_risk":5,"migraine_risk":7,"frizz_risk":1,"updated_at":"2026-05-12T18:35:42.881853+05:30"},{"city":"Dhanbad","state":"Jharkhand","latitude":23.7957,"longitude":86.4304,"temp":26.8,"humidity":81,"rain":0.1,"pressure":977.3,"uv_index":9.05,"wind_gusts":31.0,"aqi":154,"pm10":69.2,"pm2_5":58.0,"no2":34.6,"co":279.0,"o3":115.0,"so2":48.0,"mosquito_risk":10,"arthritis_risk":5,"migraine_risk":7,"frizz_risk":1,"updated_at":"2026-05-12T18:35:42.881861+05:30"},{"city":"Bokaro","state":"Jharkhand","latitude":23.6693,"longitude":86.1511,"temp":27.2,"humidity":79,"rain":0.0,"pressure":980.9,"uv_index":9.05,"wind_gusts":32.0,"aqi":158,"pm10":71.0,"pm2_5":60.1,"no2":29.9,"co":1162.0,"o3":128.0,"so2":50.1,"mosquito_risk":7,"arthritis_risk":5,"migraine_risk":7,"frizz_risk":1,"updated_at":"2026-05-12T18:35:42.881869+05:30"},{"city":"Bhubaneswar","state":"Odisha","latitude":20.2961,"longitude":85.8245,"temp":29.0,"humidity":70,"rain":0.0,"pressure":1000.5,"uv_index":9.15,"wind_gusts":37.4,"aqi":63,"pm10":13.2,"pm2_5":9.8,"no2":5.4,"co":223.0,"o3":64.0,"so2":3.0,"mosquito_risk":7,"arthritis_risk":5,"migraine_risk":4,"frizz_risk":1,"updated_at":"2026-05-12T18:35:42.881876+05:30"},{"city":"Cuttack","state":"Odisha","latitude":20.4625,"longitude":85.8828,"temp":29.6,"humidity":65,"rain":0.0,"pressure":1002.0,"uv_index":9.2,"wind_gusts":34.6,"aqi":63,"pm10":13.2,"pm2_5":9.8,"no2":5.4,"co":210.0,"o3":64.0,"so2":3.0,"mosquito_risk":7,"arthritis_risk":5,"migraine_risk":4,"frizz_risk":1,"updated_at":"2026-05-12T18:35:42.881883+05:30"},{"city":"Rourkela","state":"Odisha","latitude":22.2604,"longitude":84.8536,"temp":31.9,"humidity":53,"rain":0.0,"pressure":980.9,"uv_index":9.0,"wind_gusts":42.1,"aqi":136,"pm10":61.9,"pm2_5":42.7,"no2":6.7,"co":382.0,"o3":158.0,"so2":37.1,"mosquito_risk":0,"arthritis_risk":5,"migraine_risk":7,"frizz_risk":1,"updated_at":"2026-05-12T18:35:42.881890+05:30"},{"city":"Raipur","state":"Chhattisgarh","latitude":21.2514,"longitude":81.6296,"temp":37.2,"humidity":25,"rain":0.0,"pressure":969.3,"uv_index":9.0,"wind_gusts":32.0,"aqi":207,"pm10":92.9,"pm2_5":42.3,"no2":14.6,"co":291.0,"o3":159.0,"so2":6.6,"mosquito_risk":0,"arthritis_risk":5,"migraine_risk":10,"frizz_risk":0,"updated_at":"2026-05-12T18:35:42.881898+05:30"},{"city":"Bhilai","state":"Chhattisgarh","latitude":21.1938,"longitude":81.3509,"temp":36.4,"humidity":27,"rain":0.0,"pressure":969.4,"uv_index":9.0,"wind_gusts":33.1,"aqi":182,"pm10":93.4,"pm2_5":42.1,"no2":19.3,"co":285.0,"o3":148.0,"so2":6.8,"mosquito_risk":0,"arthritis_risk":5,"migraine_risk":10,"frizz_risk":0,"updated_at":"2026-05-12T18:35:42.881905+05:30"},{"city":"Guwahati","state":"Assam","latitude":26.1158,"longitude":91.7086,"temp":25.4,"humidity":81,"rain":0.0,"pressure":1000.4,"uv_index":8.65,"wind_gusts":23.0,"aqi":116,"pm10":28.7,"pm2_5":25.3,"no2":6.2,"co":377.0,"o3":110.0,"so2":1.7,"mosquito_risk":7,"arthritis_risk":5,"migraine_risk":4,"frizz_risk":1,"updated_at":"2026-05-12T18:35:42.881912+05:30"},{"city":"Agartala","state":"Tripura","latitude":23.8315,"longitude":91.2868,"temp":27.3,"humidity":79,"rain":0.0,"pressure":1004.6,"uv_index":8.85,"wind_gusts":19.8,"aqi":122,"pm10":51.9,"pm2_5":47.8,"no2":26.9,"co":498.0,"o3":113.0,"so2":3.9,"mosquito_risk":7,"arthritis_risk":5,"migraine_risk":4,"frizz_risk":1,"updated_at":"2026-05-12T18:35:42.881919+05:30"},{"city":"Shillong","state":"Meghalaya","latitude":25.5788,"longitude":91.8933,"temp":17.1,"humidity":97,"rain":0.0,"pressure":855.6,"uv_index":5.2,"wind_gusts":22.3,"aqi":123,"pm10":24.0,"pm2_5":21.4,"no2":7.7,"co":524.0,"o3":116.0,"so2":1.9,"mosquito_risk":3,"arthritis_risk":10,"migraine_risk":3,"frizz_risk":1,"updated_at":"2026-05-12T18:35:42.881926+05:30"},{"city":"Imphal","state":"Manipur","latitude":24.817,"longitude":93.9368,"temp":22.7,"humidity":72,"rain":0.0,"pressure":921.3,"uv_index":9.2,"wind_gusts":24.5,"aqi":98,"pm10":37.8,"pm2_5":31.3,"no2":14.8,"co":594.0,"o3":99.0,"so2":3.1,"mosquito_risk":3,"arthritis_risk":5,"migraine_risk":7,"frizz_risk":1,"updated_at":"2026-05-12T18:35:42.881933+05:30"},{"city":"Aizawl","state":"Mizoram","latitude":23.7271,"longitude":92.7176,"temp":20.1,"humidity":83,"rain":0.0,"pressure":891.1,"uv_index":9.05,"wind_gusts":21.2,"aqi":66,"pm10":32.1,"pm2_5":26.5,"no2":8.9,"co":290.0,"o3":78.0,"so2":1.2,"mosquito_risk":3,"arthritis_risk":5,"migraine_risk":7,"frizz_risk":1,"updated_at":"2026-05-12T18:35:42.881940+05:30"},{"city":"Kohima","state":"Nagaland","latitude":25.6701,"longitude":94.1077,"temp":17.7,"humidity":89,"rain":0.0,"pressure":854.0,"uv_index":8.3,"wind_gusts":29.5,"aqi":93,"pm10":23.1,"pm2_5":19.0,"no2":7.9,"co":357.0,"o3":103.0,"so2":1.3,"mosquito_risk":3,"arthritis_risk":10,"migraine_risk":7,"frizz_risk":0,"updated_at":"2026-05-12T18:35:42.881947+05:30"},{"city":"Gangtok","state":"Sikkim","latitude":27.3314,"longitude":88.6138,"temp":15.4,"humidity":95,"rain":0.1,"pressure":835.4,"uv_index":9.05,"wind_gusts":39.6,"aqi":83,"pm10":25.8,"pm2_5":21.1,"no2":8.5,"co":319.0,"o3":117.0,"so2":1.0,"mosquito_risk":6,"arthritis_risk":10,"migraine_risk":7,"frizz_risk":0,"updated_at":"2026-05-12T18:35:42.881955+05:30"},{"city":"Siliguri","state":"West Bengal","latitude":26.7271,"longitude":88.3953,"temp":24.6,"humidity":82,"rain":0.0,"pressure":991.8,"uv_index":8.25,"wind_gusts":26.3,"aqi":121,"pm10":49.4,"pm2_5":43.5,"no2":16.9,"co":767.0,"o3":106.0,"so2":2.8,"mosquito_risk":3,"arthritis_risk":5,"migraine_risk":7,"frizz_risk":1,"updated_at":"2026-05-12T18:35:46.221200+05:30"},{"city":"Durgapur","state":"West Bengal","latitude":23.5204,"longitude":87.3119,"temp":25.9,"humidity":95,"rain":0.4,"pressure":992.4,"uv_index":9.0,"wind_gusts":28.4,"aqi":105,"pm10":72.4,"pm2_5":61.7,"no2":27.7,"co":563.0,"o3":98.0,"so2":36.9,"mosquito_risk":10,"arthritis_risk":5,"migraine_risk":7,"frizz_risk":1,"updated_at":"2026-05-12T18:35:46.221262+05:30"},{"city":"Asansol","state":"West Bengal","latitude":23.6739,"longitude":86.9524,"temp":24.7,"humidity":93,"rain":0.3,"pressure":991.3,"uv_index":9.0,"wind_gusts":28.8,"aqi":116,"pm10":65.9,"pm2_5":53.6,"no2":31.2,"co":483.0,"o3":101.0,"so2":44.1,"mosquito_risk":6,"arthritis_risk":5,"migraine_risk":7,"frizz_risk":1,"updated_at":"2026-05-12T18:35:46.221274+05:30"},{"city":"Pondicherry","state":"Puducherry","latitude":11.9139,"longitude":79.8145,"temp":29.0,"humidity":81,"rain":0.0,"pressure":1004.4,"uv_index":9.1,"wind_gusts":37.1,"aqi":31,"pm10":7.7,"pm2_5":5.3,"no2":2.3,"co":161.0,"o3":40.0,"so2":0.4,"mosquito_risk":7,"arthritis_risk":5,"migraine_risk":4,"frizz_risk":1,"updated_at":"2026-05-12T18:35:46.221283+05:30"},{"city":"Port Blair","state":"Andaman and Nicobar Islands","latitude":11.6234,"longitude":92.7265,"temp":25.0,"humidity":99,"rain":0.4,"pressure":1005.5,"uv_index":2.15,"wind_gusts":29.2,"aqi":25,"pm10":4.2,"pm2_5":2.9,"no2":0.8,"co":140.0,"o3":50.0,"so2":0.1,"mosquito_risk":10,"arthritis_risk":5,"migraine_risk":0,"frizz_risk":1,"updated_at":"2026-05-12T18:35:46.221292+05:30"},{"city":"Haridwar","state":"Uttarakhand","latitude":29.9457,"longitude":78.1642,"temp":30.0,"humidity":62,"rain":0.0,"pressure":970.3,"uv_index":7.45,"wind_gusts":24.5,"aqi":180,"pm10":156.5,"pm2_5":58.6,"no2":8.1,"co":355.0,"o3":170.0,"so2":14.0,"mosquito_risk":7,"arthritis_risk":5,"migraine_risk":7,"frizz_risk":1,"updated_at":"2026-05-12T18:35:46.221300+05:30"},{"city":"Rishikesh","state":"Uttarakhand","latitude":30.0869,"longitude":78.2676,"temp":29.0,"humidity":66,"rain":0.0,"pressure":963.2,"uv_index":7.55,"wind_gusts":20.5,"aqi":170,"pm10":126.7,"pm2_5":48.8,"no2":3.6,"co":356.0,"o3":173.0,"so2":11.0,"mosquito_risk":7,"arthritis_risk":5,"migraine_risk":7,"frizz_risk":1,"updated_at":"2026-05-12T18:35:46.221308+05:30"},{"city":"Nainital","state":"Uttarakhand","latitude":29.3919,"longitude":79.4542,"temp":16.6,"humidity":83,"rain":0.0,"pressure":804.0,"uv_index":7.95,"wind_gusts":42.1,"aqi":162,"pm10":107.1,"pm2_5":44.6,"no2":5.4,"co":334.0,"o3":161.0,"so2":7.4,"mosquito_risk":3,"arthritis_risk":10,"migraine_risk":7,"frizz_risk":0,"updated_at":"2026-05-12T18:35:46.221316+05:30"},{"city":"Mussoorie","state":"Uttarakhand","latitude":30.4599,"longitude":78.0664,"temp":16.5,"humidity":86,"rain":0.0,"pressure":801.8,"uv_index":7.95,"wind_gusts":50.8,"aqi":167,"pm10":111.5,"pm2_5":46.0,"no2":6.9,"co":327.0,"o3":164.0,"so2":10.4,"mosquito_risk":3,"arthritis_risk":10,"migraine_risk":7,"frizz_risk":0,"updated_at":"2026-05-12T18:35:46.221324+05:30"},{"city":"Dharamshala","state":"Himachal Pradesh","latitude":32.219,"longitude":76.3234,"temp":21.3,"humidity":63,"rain":0.0,"pressure":867.3,"uv_index":8.35,"wind_gusts":45.7,"aqi":107,"pm10":55.2,"pm2_5":21.8,"no2":4.1,"co":282.0,"o3":128.0,"so2":1.9,"mosquito_risk":3,"arthritis_risk":5,"migraine_risk":7,"frizz_risk":0,"updated_at":"2026-05-12T18:35:46.221331+05:30"},{"city":"Dalhousie","state":"Himachal Pradesh","latitude":32.5387,"longitude":75.971,"temp":17.0,"humidity":73,"rain":0.0,"pressure":803.2,"uv_index":8.6,"wind_gusts":37.8,"aqi":132,"pm10":97.8,"pm2_5":36.8,"no2":8.6,"co":423.0,"o3":142.0,"so2":3.7,"mosquito_risk":3,"arthritis_risk":5,"migraine_risk":7,"frizz_risk":0,"updated_at":"2026-05-12T18:35:46.221339+05:30"},{"city":"Patiala","state":"Punjab","latitude":30.3398,"longitude":76.3869,"temp":32.5,"humidity":46,"rain":0.0,"pressure":974.0,"uv_index":7.55,"wind_gusts":40.7,"aqi":361,"pm10":285.0,"pm2_5":69.6,"no2":9.2,"co":376.0,"o3":178.0,"so2":16.1,"mosquito_risk":0,"arthritis_risk":5,"migraine_risk":7,"frizz_risk":1,"updated_at":"2026-05-12T18:35:46.221346+05:30"},{"city":"Bhatinda","state":"Punjab","latitude":30.211,"longitude":74.9455,"temp":35.2,"humidity":29,"rain":0.0,"pressure":978.3,"uv_index":8.2,"wind_gusts":35.6,"aqi":284,"pm10":735.7,"pm2_5":117.6,"no2":8.3,"co":372.0,"o3":175.0,"so2":21.2,"mosquito_risk":0,"arthritis_risk":5,"migraine_risk":10,"frizz_risk":0,"updated_at":"2026-05-12T18:35:46.221354+05:30"},{"city":"Rohtak","state":"Haryana","latitude":28.8955,"longitude":76.6066,"temp":32.0,"humidity":47,"rain":0.0,"pressure":976.9,"uv_index":7.7,"wind_gusts":55.8,"aqi":481,"pm10":592.3,"pm2_5":104.8,"no2":23.3,"co":422.0,"o3":176.0,"so2":30.9,"mosquito_risk":0,"arthritis_risk":5,"migraine_risk":7,"frizz_risk":1,"updated_at":"2026-05-12T18:35:46.221361+05:30"},{"city":"Panipat","state":"Haryana","latitude":29.3909,"longitude":76.9635,"temp":31.0,"humidity":56,"rain":0.0,"pressure":976.0,"uv_index":7.55,"wind_gusts":41.8,"aqi":771,"pm10":661.2,"pm2_5":100.8,"no2":14.4,"co":388.0,"o3":175.0,"so2":22.5,"mosquito_risk":0,"arthritis_risk":5,"migraine_risk":7,"frizz_risk":1,"updated_at":"2026-05-12T18:35:46.221369+05:30"},{"city":"Mathura","state":"Uttar Pradesh","latitude":27.4924,"longitude":77.6737,"temp":34.5,"humidity":41,"rain":0.0,"pressure":981.4,"uv_index":7.95,"wind_gusts":35.3,"aqi":487,"pm10":983.5,"pm2_5":122.5,"no2":14.5,"co":373.0,"o3":149.0,"so2":15.6,"mosquito_risk":0,"arthritis_risk":5,"migraine_risk":7,"frizz_risk":1,"updated_at":"2026-05-12T18:35:46.221377+05:30"},{"city":"Vrindavan","state":"Uttar Pradesh","latitude":27.5823,"longitude":77.7027,"temp":33.2,"humidity":47,"rain":0.0,"pressure":981.8,"uv_index":7.95,"wind_gusts":35.6,"aqi":487,"pm10":983.5,"pm2_5":122.5,"no2":14.5,"co":383.0,"o3":149.0,"so2":15.6,"mosquito_risk":0,"arthritis_risk":5,"migraine_risk":7,"frizz_risk":1,"updated_at":"2026-05-12T18:35:46.221384+05:30"},{"city":"Ayodhya","state":"Uttar Pradesh","latitude":26.7922,"longitude":82.1998,"temp":32.0,"humidity":58,"rain":0.0,"pressure":991.1,"uv_index":8.3,"wind_gusts":36.4,"aqi":177,"pm10":66.8,"pm2_5":50.1,"no2":13.6,"co":382.0,"o3":138.0,"so2":8.7,"mosquito_risk":0,"arthritis_risk":5,"migraine_risk":7,"frizz_risk":1,"updated_at":"2026-05-12T18:35:46.221391+05:30"},{"city":"Ratlam","state":"Madhya Pradesh","latitude":23.3315,"longitude":75.0367,"temp":37.8,"humidity":18,"rain":0.0,"pressure":949.8,"uv_index":8.55,"wind_gusts":42.8,"aqi":115,"pm10":44.8,"pm2_5":15.6,"no2":2.5,"co":173.0,"o3":130.0,"so2":4.5,"mosquito_risk":0,"arthritis_risk":5,"migraine_risk":10,"frizz_risk":0,"updated_at":"2026-05-12T18:35:46.221398+05:30"},{"city":"Sagar","state":"Madhya Pradesh","latitude":23.8388,"longitude":78.7378,"temp":36.7,"humidity":21,"rain":0.0,"pressure":946.4,"uv_index":8.75,"wind_gusts":41.4,"aqi":132,"pm10":86.1,"pm2_5":25.4,"no2":3.3,"co":239.0,"o3":136.0,"so2":6.5,"mosquito_risk":0,"arthritis_risk":5,"migraine_risk":10,"frizz_risk":0,"updated_at":"2026-05-12T18:35:46.221405+05:30"},{"city":"Satna","state":"Madhya Pradesh","latitude":24.6005,"longitude":80.8322,"temp":35.4,"humidity":31,"rain":0.0,"pressure":966.6,"uv_index":8.75,"wind_gusts":31.7,"aqi":170,"pm10":87.8,"pm2_5":35.9,"no2":3.7,"co":289.0,"o3":149.0,"so2":6.5,"mosquito_risk":0,"arthritis_risk":5,"migraine_risk":10,"frizz_risk":0,"updated_at":"2026-05-12T18:35:46.221412+05:30"},{"city":"Akola","state":"Maharashtra","latitude":20.7002,"longitude":77.0082,"temp":40.6,"humidity":16,"rain":0.0,"pressure":969.1,"uv_index":8.9,"wind_gusts":33.5,"aqi":155,"pm10":71.5,"pm2_5":25.9,"no2":5.5,"co":312.0,"o3":148.0,"so2":9.0,"mosquito_risk":0,"arthritis_risk":5,"migraine_risk":10,"frizz_risk":0,"updated_at":"2026-05-12T18:35:46.221420+05:30"},{"city":"Amravati","state":"Maharashtra","latitude":20.9374,"longitude":77.7796,"temp":38.2,"humidity":21,"rain":0.0,"pressure":962.0,"uv_index":8.9,"wind_gusts":43.6,"aqi":153,"pm10":66.6,"pm2_5":24.3,"no2":7.3,"co":260.0,"o3":143.0,"so2":4.7,"mosquito_risk":0,"arthritis_risk":5,"migraine_risk":10,"frizz_risk":0,"updated_at":"2026-05-12T18:35:46.221428+05:30"},{"city":"Latur","state":"Maharashtra","latitude":18.4088,"longitude":76.5604,"temp":36.3,"humidity":22,"rain":0.0,"pressure":935.8,"uv_index":9.05,"wind_gusts":42.8,"aqi":149,"pm10":40.6,"pm2_5":21.5,"no2":5.2,"co":227.0,"o3":143.0,"so2":9.4,"mosquito_risk":0,"arthritis_risk":5,"migraine_risk":10,"frizz_risk":0,"updated_at":"2026-05-12T18:35:46.221436+05:30"},{"city":"Nanded","state":"Maharashtra","latitude":19.1383,"longitude":77.3091,"temp":37.4,"humidity":23,"rain":0.0,"pressure":963.4,"uv_index":9.0,"wind_gusts":31.0,"aqi":140,"pm10":46.1,"pm2_5":22.4,"no2":6.0,"co":268.0,"o3":130.0,"so2":4.4,"mosquito_risk":0,"arthritis_risk":5,"migraine_risk":10,"frizz_risk":0,"updated_at":"2026-05-12T18:35:46.221443+05:30"},{"city":"Gulbarga","state":"Karnataka","latitude":17.3297,"longitude":76.8343,"temp":35.5,"humidity":28,"rain":0.0,"pressure":954.3,"uv_index":8.7,"wind_gusts":33.1,"aqi":151,"pm10":40.7,"pm2_5":21.0,"no2":5.7,"co":244.0,"o3":149.0,"so2":5.6,"mosquito_risk":0,"arthritis_risk":5,"migraine_risk":10,"frizz_risk":0,"updated_at":"2026-05-12T18:35:46.221450+05:30"},{"city":"Bidar","state":"Karnataka","latitude":17.9104,"longitude":77.5199,"temp":33.4,"humidity":34,"rain":0.0,"pressure":931.9,"uv_index":9.15,"wind_gusts":38.5,"aqi":136,"pm10":44.1,"pm2_5":23.7,"no2":6.0,"co":263.0,"o3":139.0,"so2":4.4,"mosquito_risk":0,"arthritis_risk":5,"migraine_risk":7,"frizz_risk":0,"updated_at":"2026-05-12T18:35:46.221457+05:30"},{"city":"Hospet","state":"Karnataka","latitude":15.2689,"longitude":76.3909,"temp":32.6,"humidity":53,"rain":0.0,"pressure":951.2,"uv_index":9.2,"wind_gusts":28.4,"aqi":148,"pm10":39.9,"pm2_5":23.5,"no2":12.5,"co":261.0,"o3":150.0,"so2":7.5,"mosquito_risk":0,"arthritis_risk":5,"migraine_risk":7,"frizz_risk":1,"updated_at":"2026-05-12T18:35:46.221464+05:30"},{"city":"Tirupur","state":"Tamil Nadu","latitude":11.1085,"longitude":77.3411,"temp":33.0,"humidity":42,"rain":0.0,"pressure":970.6,"uv_index":9.25,"wind_gusts":31.3,"aqi":183,"pm10":44.7,"pm2_5":29.8,"no2":16.6,"co":299.0,"o3":152.0,"so2":6.5,"mosquito_risk":0,"arthritis_risk":5,"migraine_risk":7,"frizz_risk":1,"updated_at":"2026-05-12T18:35:46.221470+05:30"},{"city":"Alappuzha","state":"Kerala","latitude":9.4981,"longitude":76.3388,"temp":26.1,"humidity":96,"rain":0.2,"pressure":1005.6,"uv_index":8.75,"wind_gusts":33.8,"aqi":89,"pm10":33.5,"pm2_5":20.9,"no2":6.0,"co":162.0,"o3":103.0,"so2":2.6,"mosquito_risk":10,"arthritis_risk":5,"migraine_risk":4,"frizz_risk":1,"updated_at":"2026-05-12T18:35:46.221475+05:30"},{"city":"Munnar","state":"Kerala","latitude":10.0889,"longitude":77.0595,"temp":18.9,"humidity":99,"rain":0.0,"pressure":854.2,"uv_index":9.25,"wind_gusts":22.0,"aqi":114,"pm10":34.1,"pm2_5":24.3,"no2":7.2,"co":272.0,"o3":120.0,"so2":3.1,"mosquito_risk":3,"arthritis_risk":10,"migraine_risk":7,"frizz_risk":1,"updated_at":"2026-05-12T18:35:46.221481+05:30"},{"city":"Silchar","state":"Assam","latitude":24.8333,"longitude":92.7789,"temp":27.3,"humidity":74,"rain":0.0,"pressure":1003.3,"uv_index":8.85,"wind_gusts":21.2,"aqi":94,"pm10":39.0,"pm2_5":34.8,"no2":10.6,"co":488.0,"o3":103.0,"so2":6.7,"mosquito_risk":7,"arthritis_risk":5,"migraine_risk":4,"frizz_risk":1,"updated_at":"2026-05-12T18:35:46.221487+05:30"},{"city":"Dibrugarh","state":"Assam","latitude":27.4728,"longitude":94.912,"temp":25.2,"humidity":72,"rain":0.0,"pressure":993.6,"uv_index":8.8,"wind_gusts":19.1,"aqi":86,"pm10":30.5,"pm2_5":26.4,"no2":11.8,"co":387.0,"o3":89.0,"so2":2.5,"mosquito_risk":7,"arthritis_risk":5,"migraine_risk":7,"frizz_risk":1,"updated_at":"2026-05-12T18:35:46.221493+05:30"}]