[{"city":"Delhi","state":"Delhi","latitude":28.6139,"longitude":77.209,"temp":26.1,"humidity":89,"rain":0.0,"pressure":975.5,"uv_index":6.0,"wind_gusts":38.2,"aqi":80,"pm10":57.0,"pm2_5":47.7,"no2":67.6,"co":825.0,"o3":28.0,"so2":27.7,"mosquito_risk":7,"arthritis_risk":5,"migraine_risk":3,"frizz_risk":1,"updated_at":"2026-07-09T21:27:43.982557+05:30"},{"city":"Mumbai","state":"Maharashtra","latitude":19.076,"longitude":72.8777,"temp":27.6,"humidity":88,"rain":0.0,"pressure":1007.0,"uv_index":6.8,"wind_gusts":47.5,"aqi":59,"pm10":30.6,"pm2_5":14.6,"no2":8.9,"co":222.0,"o3":38.0,"so2":6.0,"mosquito_risk":7,"arthritis_risk":5,"migraine_risk":4,"frizz_risk":1,"updated_at":"2026-07-09T21:27:43.982607+05:30"},{"city":"Bangalore","state":"Karnataka","latitude":12.9716,"longitude":77.5946,"temp":23.4,"humidity":80,"rain":0.0,"pressure":912.6,"uv_index":8.25,"wind_gusts":50.8,"aqi":31,"pm10":14.7,"pm2_5":10.4,"no2":19.6,"co":327.0,"o3":42.0,"so2":5.4,"mosquito_risk":3,"arthritis_risk":5,"migraine_risk":7,"frizz_risk":1,"updated_at":"2026-07-09T21:27:43.982623+05:30"},{"city":"Hyderabad","state":"Telangana","latitude":17.385,"longitude":78.4867,"temp":26.8,"humidity":74,"rain":0.0,"pressure":951.5,"uv_index":8.45,"wind_gusts":47.5,"aqi":37,"pm10":30.7,"pm2_5":19.0,"no2":15.6,"co":989.0,"o3":59.0,"so2":6.1,"mosquito_risk":7,"arthritis_risk":5,"migraine_risk":7,"frizz_risk":1,"updated_at":"2026-07-09T21:27:43.982632+05:30"},{"city":"Chennai","state":"Tamil Nadu","latitude":13.0827,"longitude":80.2707,"temp":29.9,"humidity":79,"rain":0.0,"pressure":1006.6,"uv_index":7.8,"wind_gusts":41.0,"aqi":62,"pm10":25.6,"pm2_5":19.0,"no2":14.7,"co":236.0,"o3":83.0,"so2":7.9,"mosquito_risk":7,"arthritis_risk":5,"migraine_risk":4,"frizz_risk":1,"updated_at":"2026-07-09T21:27:43.982641+05:30"},{"city":"Kolkata","state":"West Bengal","latitude":22.5726,"longitude":88.3639,"temp":27.8,"humidity":95,"rain":0.0,"pressure":1001.6,"uv_index":5.35,"wind_gusts":45.7,"aqi":63,"pm10":24.8,"pm2_5":20.1,"no2":8.1,"co":320.0,"o3":66.0,"so2":6.4,"mosquito_risk":7,"arthritis_risk":5,"migraine_risk":0,"frizz_risk":1,"updated_at":"2026-07-09T21:27:43.982651+05:30"},{"city":"Pune","state":"Maharashtra","latitude":18.5204,"longitude":73.8567,"temp":24.0,"humidity":88,"rain":0.0,"pressure":946.7,"uv_index":7.4,"wind_gusts":50.0,"aqi":24,"pm10":14.6,"pm2_5":8.3,"no2":10.6,"co":172.0,"o3":33.0,"so2":6.0,"mosquito_risk":3,"arthritis_risk":5,"migraine_risk":7,"frizz_risk":1,"updated_at":"2026-07-09T21:27:43.982658+05:30"},{"city":"Ahmedabad","state":"Gujarat","latitude":23.0225,"longitude":72.5714,"temp":30.3,"humidity":78,"rain":0.0,"pressure":996.8,"uv_index":7.9,"wind_gusts":42.1,"aqi":79,"pm10":45.8,"pm2_5":24.4,"no2":10.2,"co":281.0,"o3":69.0,"so2":5.6,"mosquito_risk":3,"arthritis_risk":5,"migraine_risk":7,"frizz_risk":1,"updated_at":"2026-07-09T21:27:43.982664+05:30"},{"city":"Jaipur","state":"Rajasthan","latitude":26.9124,"longitude":75.7873,"temp":27.5,"humidity":81,"rain":0.0,"pressure":953.6,"uv_index":8.1,"wind_gusts":38.5,"aqi":141,"pm10":453.6,"pm2_5":88.7,"no2":10.3,"co":276.0,"o3":73.0,"so2":5.1,"mosquito_risk":7,"arthritis_risk":5,"migraine_risk":7,"frizz_risk":1,"updated_at":"2026-07-09T21:27:43.982670+05:30"},{"city":"Lucknow","state":"Uttar Pradesh","latitude":26.8467,"longitude":80.9462,"temp":26.8,"humidity":96,"rain":0.1,"pressure":987.0,"uv_index":6.85,"wind_gusts":35.3,"aqi":74,"pm10":42.0,"pm2_5":33.9,"no2":34.3,"co":394.0,"o3":44.0,"so2":11.8,"mosquito_risk":10,"arthritis_risk":5,"migraine_risk":7,"frizz_risk":1,"updated_at":"2026-07-09T21:27:43.982679+05:30"},{"city":"Kanpur","state":"Uttar Pradesh","latitude":26.4499,"longitude":80.3319,"temp":29.4,"humidity":79,"rain":0.0,"pressure":984.8,"uv_index":6.95,"wind_gusts":32.0,"aqi":61,"pm10":72.2,"pm2_5":33.4,"no2":24.8,"co":352.0,"o3":68.0,"so2":11.2,"mosquito_risk":7,"arthritis_risk":5,"migraine_risk":7,"frizz_risk":1,"updated_at":"2026-07-09T21:27:43.982685+05:30"},{"city":"Chandigarh","state":"Chandigarh","latitude":30.7333,"longitude":76.7794,"temp":25.4,"humidity":95,"rain":0.0,"pressure":961.5,"uv_index":1.5,"wind_gusts":21.6,"aqi":152,"pm10":61.7,"pm2_5":61.5,"no2":64.0,"co":2314.0,"o3":43.0,"so2":13.3,"mosquito_risk":7,"arthritis_risk":5,"migraine_risk":3,"frizz_risk":1,"updated_at":"2026-07-09T21:27:43.982692+05:30"},{"city":"Srinagar","state":"Jammu and Kashmir","latitude":34.0837,"longitude":74.7973,"temp":24.7,"humidity":65,"rain":0.0,"pressure":837.1,"uv_index":9.05,"wind_gusts":20.9,"aqi":111,"pm10":18.6,"pm2_5":17.1,"no2":20.4,"co":1026.0,"o3":85.0,"so2":3.3,"mosquito_risk":3,"arthritis_risk":5,"migraine_risk":7,"frizz_risk":1,"updated_at":"2026-07-09T21:27:43.982698+05:30"},{"city":"Jammu","state":"Jammu and Kashmir","latitude":32.7266,"longitude":74.857,"temp":30.7,"humidity":66,"rain":0.0,"pressure":964.6,"uv_index":8.6,"wind_gusts":24.5,"aqi":184,"pm10":86.6,"pm2_5":73.8,"no2":31.5,"co":512.0,"o3":106.0,"so2":8.3,"mosquito_risk":3,"arthritis_risk":5,"migraine_risk":7,"frizz_risk":1,"updated_at":"2026-07-09T21:27:43.982703+05:30"},{"city":"Amritsar","state":"Punjab","latitude":31.634,"longitude":74.8723,"temp":29.5,"humidity":79,"rain":0.0,"pressure":972.8,"uv_index":8.45,"wind_gusts":27.7,"aqi":180,"pm10":115.7,"pm2_5":82.2,"no2":35.3,"co":514.0,"o3":92.0,"so2":10.7,"mosquito_risk":7,"arthritis_risk":5,"migraine_risk":7,"frizz_risk":1,"updated_at":"2026-07-09T21:27:43.982709+05:30"},{"city":"Ludhiana","state":"Punjab","latitude":30.901,"longitude":75.8573,"temp":27.1,"humidity":80,"rain":0.0,"pressure":971.5,"uv_index":3.25,"wind_gusts":41.0,"aqi":152,"pm10":38.6,"pm2_5":33.4,"no2":17.6,"co":861.0,"o3":83.0,"so2":9.5,"mosquito_risk":7,"arthritis_risk":5,"migraine_risk":3,"frizz_risk":1,"updated_at":"2026-07-09T21:27:43.982714+05:30"},{"city":"Jalandhar","state":"Punjab","latitude":31.326,"longitude":75.5762,"temp":27.8,"humidity":82,"rain":0.0,"pressure":972.3,"uv_index":7.5,"wind_gusts":32.8,"aqi":158,"pm10":82.7,"pm2_5":53.1,"no2":21.4,"co":580.0,"o3":103.0,"so2":8.4,"mosquito_risk":7,"arthritis_risk":5,"migraine_risk":7,"frizz_risk":1,"updated_at":"2026-07-09T21:27:43.982720+05:30"},{"city":"Dehradun","state":"Uttarakhand","latitude":30.6284,"longitude":78.0322,"temp":18.4,"humidity":98,"rain":0.2,"pressure":825.9,"uv_index":0.45,"wind_gusts":34.9,"aqi":73,"pm10":7.9,"pm2_5":7.9,"no2":27.1,"co":205.0,"o3":41.0,"so2":0.8,"mosquito_risk":6,"arthritis_risk":10,"migraine_risk":3,"frizz_risk":1,"updated_at":"2026-07-09T21:27:43.982740+05:30"},{"city":"Shimla","state":"Himachal Pradesh","latitude":31.1048,"longitude":77.1734,"temp":15.5,"humidity":99,"rain":0.1,"pressure":780.1,"uv_index":1.5,"wind_gusts":24.5,"aqi":59,"pm10":9.1,"pm2_5":8.9,"no2":28.4,"co":762.0,"o3":56.0,"so2":2.0,"mosquito_risk":6,"arthritis_risk":10,"migraine_risk":3,"frizz_risk":0,"updated_at":"2026-07-09T21:27:43.982745+05:30"},{"city":"Manali","state":"Himachal Pradesh","latitude":32.2396,"longitude":77.1887,"temp":21.4,"humidity":83,"rain":0.4,"pressure":815.9,"uv_index":6.75,"wind_gusts":35.3,"aqi":44,"pm10":14.8,"pm2_5":14.7,"no2":89.7,"co":274.0,"o3":13.0,"so2":1.4,"mosquito_risk":6,"arthritis_risk":5,"migraine_risk":7,"frizz_risk":1,"updated_at":"2026-07-09T21:27:43.982752+05:30"},{"city":"Gurgaon","state":"Haryana","latitude":28.4595,"longitude":77.0266,"temp":26.8,"humidity":89,"rain":0.0,"pressure":973.9,"uv_index":6.55,"wind_gusts":37.8,"aqi":105,"pm10":112.7,"pm2_5":59.4,"no2":79.0,"co":698.0,"o3":35.0,"so2":33.3,"mosquito_risk":7,"arthritis_risk":5,"migraine_risk":7,"frizz_risk":1,"updated_at":"2026-07-09T21:27:43.982758+05:30"},{"city":"Noida","state":"Uttar Pradesh","latitude":28.5355,"longitude":77.391,"temp":26.2,"humidity":90,"rain":0.0,"pressure":976.8,"uv_index":5.4,"wind_gusts":44.6,"aqi":105,"pm10":112.7,"pm2_5":59.4,"no2":79.0,"co":672.0,"o3":35.0,"so2":33.3,"mosquito_risk":7,"arthritis_risk":5,"migraine_risk":3,"frizz_risk":1,"updated_at":"2026-07-09T21:27:43.982764+05:30"},{"city":"Ghaziabad","state":"Uttar Pradesh","latitude":28.6692,"longitude":77.4538,"temp":26.0,"humidity":94,"rain":0.0,"pressure":975.1,"uv_index":5.8,"wind_gusts":32.8,"aqi":71,"pm10":66.6,"pm2_5":66.6,"no2":72.1,"co":417.0,"o3":26.0,"so2":29.1,"mosquito_risk":7,"arthritis_risk":5,"migraine_risk":3,"frizz_risk":1,"updated_at":"2026-07-09T21:27:43.982770+05:30"},{"city":"Faridabad","state":"Haryana","latitude":28.4089,"longitude":77.3178,"temp":26.4,"humidity":88,"rain":0.0,"pressure":976.2,"uv_index":5.7,"wind_gusts":56.5,"aqi":105,"pm10":112.7,"pm2_5":59.4,"no2":79.0,"co":695.0,"o3":35.0,"so2":33.3,"mosquito_risk":7,"arthritis_risk":5,"migraine_risk":3,"frizz_risk":1,"updated_at":"2026-07-09T21:27:43.982776+05:30"},{"city":"Meerut","state":"Uttar Pradesh","latitude":28.9845,"longitude":77.7064,"temp":26.7,"humidity":95,"rain":0.0,"pressure":973.8,"uv_index":2.9,"wind_gusts":36.4,"aqi":71,"pm10":66.6,"pm2_5":66.6,"no2":72.1,"co":420.0,"o3":26.0,"so2":29.1,"mosquito_risk":7,"arthritis_risk":5,"migraine_risk":3,"frizz_risk":1,"updated_at":"2026-07-09T21:27:43.982781+05:30"},{"city":"Agra","state":"Uttar Pradesh","latitude":27.1767,"longitude":78.0081,"temp":28.2,"humidity":82,"rain":0.0,"pressure":980.6,"uv_index":6.65,"wind_gusts":58.0,"aqi":94,"pm10":190.0,"pm2_5":69.8,"no2":58.4,"co":358.0,"o3":45.0,"so2":16.3,"mosquito_risk":7,"arthritis_risk":5,"migraine_risk":7,"frizz_risk":1,"updated_at":"2026-07-09T21:27:43.982787+05:30"},{"city":"Varanasi","state":"Uttar Pradesh","latitude":25.3176,"longitude":82.9739,"temp":28.1,"humidity":90,"rain":0.0,"pressure":991.7,"uv_index":7.3,"wind_gusts":26.6,"aqi":84,"pm10":17.6,"pm2_5":16.4,"no2":13.5,"co":498.0,"o3":73.0,"so2":7.3,"mosquito_risk":7,"arthritis_risk":5,"migraine_risk":7,"frizz_risk":1,"updated_at":"2026-07-09T21:27:43.982793+05:30"},{"city":"Prayagraj","state":"Uttar Pradesh","latitude":25.4358,"longitude":81.8463,"temp":29.5,"humidity":83,"rain":0.0,"pressure":989.9,"uv_index":7.95,"wind_gusts":27.7,"aqi":80,"pm10":18.0,"pm2_5":16.2,"no2":12.0,"co":361.0,"o3":82.0,"so2":5.7,"mosquito_risk":7,"arthritis_risk":5,"migraine_risk":7,"frizz_risk":1,"updated_at":"2026-07-09T21:27:43.982799+05:30"},{"city":"Gorakhpur","state":"Uttar Pradesh","latitude":26.7606,"longitude":83.3732,"temp":27.0,"humidity":95,"rain":0.1,"pressure":991.6,"uv_index":7.15,"wind_gusts":27.7,"aqi":81,"pm10":43.3,"pm2_5":42.7,"no2":19.3,"co":371.0,"o3":74.0,"so2":7.2,"mosquito_risk":10,"arthritis_risk":5,"migraine_risk":7,"frizz_risk":1,"updated_at":"2026-07-09T21:27:43.982805+05:30"},{"city":"Bareilly","state":"Uttar Pradesh","latitude":28.367,"longitude":79.4304,"temp":26.9,"humidity":95,"rain":0.0,"pressure":979.7,"uv_index":7.1,"wind_gusts":45.4,"aqi":64,"pm10":25.9,"pm2_5":25.8,"no2":22.3,"co":333.0,"o3":58.0,"so2":7.9,"mosquito_risk":7,"arthritis_risk":5,"migraine_risk":7,"frizz_risk":1,"updated_at":"2026-07-09T21:27:43.982815+05:30"},{"city":"Aligarh","state":"Uttar Pradesh","latitude":27.8974,"longitude":78.088,"temp":26.8,"humidity":88,"rain":0.0,"pressure":978.0,"uv_index":7.8,"wind_gusts":35.6,"aqi":102,"pm10":259.8,"pm2_5":95.7,"no2":52.1,"co":475.0,"o3":41.0,"so2":18.8,"mosquito_risk":7,"arthritis_risk":5,"migraine_risk":7,"frizz_risk":1,"updated_at":"2026-07-09T21:27:43.982821+05:30"},{"city":"Moradabad","state":"Uttar Pradesh","latitude":28.8386,"longitude":78.7733,"temp":26.6,"humidity":96,"rain":0.0,"pressure":976.3,"uv_index":6.1,"wind_gusts":46.4,"aqi":65,"pm10":28.0,"pm2_5":28.0,"no2":23.2,"co":341.0,"o3":59.0,"so2":7.6,"mosquito_risk":7,"arthritis_risk":5,"migraine_risk":7,"frizz_risk":1,"updated_at":"2026-07-09T21:27:43.982826+05:30"},{"city":"Saharanpur","state":"Uttar Pradesh","latitude":29.9637,"longitude":77.546,"temp":25.7,"humidity":95,"rain":0.1,"pressure":968.6,"uv_index":1.4,"wind_gusts":27.0,"aqi":93,"pm10":21.7,"pm2_5":21.7,"no2":23.6,"co":356.0,"o3":50.0,"so2":5.1,"mosquito_risk":10,"arthritis_risk":5,"migraine_risk":3,"frizz_risk":1,"updated_at":"2026-07-09T21:27:43.982831+05:30"},{"city":"Jhansi","state":"Uttar Pradesh","latitude":25.4484,"longitude":78.5685,"temp":27.1,"humidity":91,"rain":0.0,"pressure":972.4,"uv_index":4.7,"wind_gusts":46.8,"aqi":73,"pm10":36.3,"pm2_5":24.7,"no2":8.2,"co":213.0,"o3":78.0,"so2":6.0,"mosquito_risk":7,"arthritis_risk":5,"migraine_risk":3,"frizz_risk":1,"updated_at":"2026-07-09T21:27:47.276848+05:30"},{"city":"Surat","state":"Gujarat","latitude":21.1702,"longitude":72.8311,"temp":28.6,"humidity":85,"rain":0.0,"pressure":1003.6,"uv_index":6.4,"wind_gusts":56.2,"aqi":68,"pm10":28.9,"pm2_5":16.4,"no2":15.9,"co":228.0,"o3":32.0,"so2":26.2,"mosquito_risk":7,"arthritis_risk":5,"migraine_risk":4,"frizz_risk":1,"updated_at":"2026-07-09T21:27:47.276883+05:30"},{"city":"Vadodara","state":"Gujarat","latitude":22.3072,"longitude":73.1812,"temp":28.8,"humidity":84,"rain":0.0,"pressure":999.8,"uv_index":6.55,"wind_gusts":49.7,"aqi":69,"pm10":35.0,"pm2_5":21.6,"no2":16.1,"co":157.0,"o3":41.0,"so2":15.5,"mosquito_risk":7,"arthritis_risk":5,"migraine_risk":7,"frizz_risk":1,"updated_at":"2026-07-09T21:27:47.276892+05:30"},{"city":"Rajkot","state":"Gujarat","latitude":22.3039,"longitude":70.8022,"temp":28.6,"humidity":75,"rain":0.0,"pressure":989.7,"uv_index":7.55,"wind_gusts":50.4,"aqi":69,"pm10":44.2,"pm2_5":20.6,"no2":4.6,"co":119.0,"o3":50.0,"so2":4.3,"mosquito_risk":7,"arthritis_risk":5,"migraine_risk":7,"frizz_risk":1,"updated_at":"2026-07-09T21:27:47.276898+05:30"},{"city":"Thane","state":"Maharashtra","latitude":19.2183,"longitude":72.9781,"temp":26.9,"humidity":90,"rain":0.0,"pressure":1006.2,"uv_index":7.1,"wind_gusts":41.0,"aqi":59,"pm10":30.6,"pm2_5":14.6,"no2":8.9,"co":240.0,"o3":38.0,"so2":6.0,"mosquito_risk":7,"arthritis_risk":5,"migraine_risk":4,"frizz_risk":1,"updated_at":"2026-07-09T21:27:47.276905+05:30"},{"city":"Nagpur","state":"Maharashtra","latitude":21.1458,"longitude":79.0882,"temp":28.1,"humidity":76,"rain":0.0,"pressure":970.0,"uv_index":5.6,"wind_gusts":46.4,"aqi":61,"pm10":35.2,"pm2_5":20.1,"no2":12.8,"co":289.0,"o3":58.0,"so2":13.7,"mosquito_risk":7,"arthritis_risk":5,"migraine_risk":3,"frizz_risk":1,"updated_at":"2026-07-09T21:27:47.276911+05:30"},{"city":"Nashik","state":"Maharashtra","latitude":19.9975,"longitude":73.7898,"temp":24.0,"humidity":91,"rain":0.0,"pressure":943.2,"uv_index":5.85,"wind_gusts":55.4,"aqi":37,"pm10":16.6,"pm2_5":10.0,"no2":7.9,"co":135.0,"o3":38.0,"so2":3.2,"mosquito_risk":3,"arthritis_risk":5,"migraine_risk":3,"frizz_risk":1,"updated_at":"2026-07-09T21:27:47.276917+05:30"},{"city":"Aurangabad","state":"Maharashtra","latitude":19.8762,"longitude":75.3433,"temp":26.0,"humidity":77,"rain":0.0,"pressure":942.2,"uv_index":7.5,"wind_gusts":53.3,"aqi":42,"pm10":21.8,"pm2_5":12.5,"no2":6.6,"co":165.0,"o3":56.0,"so2":8.1,"mosquito_risk":7,"arthritis_risk":5,"migraine_risk":7,"frizz_risk":1,"updated_at":"2026-07-09T21:27:47.276923+05:30"},{"city":"Solapur","state":"Maharashtra","latitude":17.6599,"longitude":75.9064,"temp":27.6,"humidity":70,"rain":0.0,"pressure":956.3,"uv_index":6.0,"wind_gusts":46.8,"aqi":32,"pm10":21.1,"pm2_5":11.6,"no2":5.1,"co":132.0,"o3":47.0,"so2":2.5,"mosquito_risk":7,"arthritis_risk":5,"migraine_risk":3,"frizz_risk":1,"updated_at":"2026-07-09T21:27:47.276929+05:30"},{"city":"Kolhapur","state":"Maharashtra","latitude":16.705,"longitude":74.2433,"temp":23.5,"humidity":91,"rain":0.0,"pressure":948.1,"uv_index":8.5,"wind_gusts":52.2,"aqi":24,"pm10":15.7,"pm2_5":9.6,"no2":6.9,"co":178.0,"o3":36.0,"so2":2.7,"mosquito_risk":3,"arthritis_risk":5,"migraine_risk":7,"frizz_risk":1,"updated_at":"2026-07-09T21:27:47.276935+05:30"},{"city":"Goa","state":"Goa","latitude":15.2993,"longitude":74.124,"temp":25.1,"humidity":98,"rain":0.1,"pressure":999.2,"uv_index":7.65,"wind_gusts":34.9,"aqi":54,"pm10":26.8,"pm2_5":15.1,"no2":4.1,"co":300.0,"o3":40.0,"so2":1.4,"mosquito_risk":10,"arthritis_risk":5,"migraine_risk":7,"frizz_risk":1,"updated_at":"2026-07-09T21:27:47.276941+05:30"},{"city":"Jodhpur","state":"Rajasthan","latitude":26.2389,"longitude":73.0243,"temp":31.8,"humidity":58,"rain":0.0,"pressure":975.7,"uv_index":8.45,"wind_gusts":41.8,"aqi":170,"pm10":339.9,"pm2_5":75.7,"no2":5.6,"co":157.0,"o3":70.0,"so2":2.9,"mosquito_risk":0,"arthritis_risk":5,"migraine_risk":7,"frizz_risk":1,"updated_at":"2026-07-09T21:27:47.276946+05:30"},{"city":"Udaipur","state":"Rajasthan","latitude":24.5854,"longitude":73.7125,"temp":27.9,"humidity":66,"rain":0.0,"pressure":941.5,"uv_index":8.8,"wind_gusts":50.4,"aqi":82,"pm10":45.9,"pm2_5":23.3,"no2":5.3,"co":141.0,"o3":73.0,"so2":3.4,"mosquito_risk":7,"arthritis_risk":5,"migraine_risk":7,"frizz_risk":1,"updated_at":"2026-07-09T21:27:47.276952+05:30"},{"city":"Kota","state":"Rajasthan","latitude":25.2138,"longitude":75.8648,"temp":30.4,"humidity":62,"rain":0.0,"pressure":973.1,"uv_index":8.3,"wind_gusts":40.0,"aqi":86,"pm10":75.4,"pm2_5":35.3,"no2":7.1,"co":164.0,"o3":82.0,"so2":6.5,"mosquito_risk":3,"arthritis_risk":5,"migraine_risk":7,"frizz_risk":1,"updated_at":"2026-07-09T21:27:47.276958+05:30"},{"city":"Bikaner","state":"Rajasthan","latitude":28.0229,"longitude":73.3119,"temp":32.7,"humidity":59,"rain":0.0,"pressure":973.7,"uv_index":8.45,"wind_gusts":31.3,"aqi":156,"pm10":137.4,"pm2_5":53.2,"no2":3.3,"co":165.0,"o3":69.0,"so2":2.7,"mosquito_risk":0,"arthritis_risk":5,"migraine_risk":7,"frizz_risk":1,"updated_at":"2026-07-09T21:27:47.276963+05:30"},{"city":"Ajmer","state":"Rajasthan","latitude":26.4499,"longitude":74.6399,"temp":27.0,"humidity":81,"rain":0.0,"pressure":948.3,"uv_index":8.35,"wind_gusts":46.8,"aqi":107,"pm10":105.0,"pm2_5":40.3,"no2":5.4,"co":190.0,"o3":80.0,"so2":3.6,"mosquito_risk":7,"arthritis_risk":5,"migraine_risk":7,"frizz_risk":1,"updated_at":"2026-07-09T21:27:47.276969+05:30"},{"city":"Gwalior","state":"Madhya Pradesh","latitude":26.2183,"longitude":78.1828,"temp":28.1,"humidity":83,"rain":0.0,"pressure":976.8,"uv_index":5.9,"wind_gusts":41.8,"aqi":73,"pm10":67.1,"pm2_5":37.3,"no2":9.8,"co":175.0,"o3":73.0,"so2":4.2,"mosquito_risk":7,"arthritis_risk":5,"migraine_risk":3,"frizz_risk":1,"updated_at":"2026-07-09T21:27:47.276975+05:30"},{"city":"Indore","state":"Madhya Pradesh","latitude":22.7196,"longitude":75.8577,"temp":26.2,"humidity":79,"rain":0.0,"pressure":944.2,"uv_index":5.5,"wind_gusts":49.0,"aqi":68,"pm10":52.4,"pm2_5":29.5,"no2":9.2,"co":256.0,"o3":73.0,"so2":8.2,"mosquito_risk":7,"arthritis_risk":5,"migraine_risk":3,"frizz_risk":1,"updated_at":"2026-07-09T21:27:47.276980+05:30"},{"city":"Bhopal","state":"Madhya Pradesh","latitude":23.2599,"longitude":77.4126,"temp":27.2,"humidity":75,"rain":0.0,"pressure":949.6,"uv_index":6.3,"wind_gusts":54.0,"aqi":68,"pm10":51.8,"pm2_5":29.5,"no2":7.5,"co":218.0,"o3":68.0,"so2":6.1,"mosquito_risk":7,"arthritis_risk":5,"migraine_risk":7,"frizz_risk":1,"updated_at":"2026-07-09T21:27:47.276986+05:30"},{"city":"Jabalpur","state":"Madhya Pradesh","latitude":23.1815,"longitude":79.9864,"temp":27.1,"humidity":77,"rain":0.0,"pressure":957.6,"uv_index":7.35,"wind_gusts":45.7,"aqi":60,"pm10":35.9,"pm2_5":20.2,"no2":7.1,"co":218.0,"o3":64.0,"so2":5.2,"mosquito_risk":7,"arthritis_risk":5,"migraine_risk":7,"frizz_risk":1,"updated_at":"2026-07-09T21:27:47.276991+05:30"},{"city":"Ujjain","state":"Madhya Pradesh","latitude":23.1765,"longitude":75.7885,"temp":26.7,"humidity":72,"rain":0.0,"pressure":949.6,"uv_index":7.2,"wind_gusts":50.8,"aqi":70,"pm10":53.2,"pm2_5":29.7,"no2":5.5,"co":225.0,"o3":79.0,"so2":5.6,"mosquito_risk":7,"arthritis_risk":5,"migraine_risk":7,"frizz_risk":1,"updated_at":"2026-07-09T21:27:47.276997+05:30"},{"city":"Visakhapatnam","state":"Andhra Pradesh","latitude":17.6868,"longitude":83.2185,"temp":28.6,"humidity":82,"rain":0.0,"pressure":1000.8,"uv_index":8.25,"wind_gusts":46.1,"aqi":82,"pm10":22.3,"pm2_5":19.7,"no2":25.0,"co":335.0,"o3":64.0,"so2":38.5,"mosquito_risk":7,"arthritis_risk":5,"migraine_risk":4,"frizz_risk":1,"updated_at":"2026-07-09T21:27:47.277002+05:30"},{"city":"Vijayawada","state":"Andhra Pradesh","latitude":16.5062,"longitude":80.648,"temp":29.4,"humidity":77,"rain":0.0,"pressure":1000.9,"uv_index":6.45,"wind_gusts":39.6,"aqi":60,"pm10":17.1,"pm2_5":13.8,"no2":8.5,"co":271.0,"o3":68.0,"so2":4.8,"mosquito_risk":7,"arthritis_risk":5,"migraine_risk":4,"frizz_risk":1,"updated_at":"2026-07-09T21:27:47.277007+05:30"},{"city":"Guntur","state":"Andhra Pradesh","latitude":16.3067,"longitude":80.4365,"temp":29.2,"humidity":80,"rain":0.0,"pressure":1002.3,"uv_index":6.3,"wind_gusts":43.2,"aqi":59,"pm10":16.3,"pm2_5":13.4,"no2":9.2,"co":243.0,"o3":66.0,"so2":4.2,"mosquito_risk":7,"arthritis_risk":5,"migraine_risk":4,"frizz_risk":1,"updated_at":"2026-07-09T21:27:47.277012+05:30"},{"city":"Nellore","state":"Andhra Pradesh","latitude":14.4426,"longitude":79.9865,"temp":28.3,"humidity":91,"rain":0.2,"pressure":1005.5,"uv_index":8.55,"wind_gusts":45.7,"aqi":43,"pm10":16.8,"pm2_5":11.9,"no2":7.0,"co":238.0,"o3":64.0,"so2":2.5,"mosquito_risk":10,"arthritis_risk":5,"migraine_risk":4,"frizz_risk":1,"updated_at":"2026-07-09T21:27:47.277018+05:30"},{"city":"Kurnool","state":"Andhra Pradesh","latitude":15.8281,"longitude":78.0373,"temp":28.6,"humidity":69,"rain":0.0,"pressure":976.4,"uv_index":5.45,"wind_gusts":49.3,"aqi":38,"pm10":20.7,"pm2_5":11.4,"no2":6.4,"co":163.0,"o3":68.0,"so2":2.7,"mosquito_risk":7,"arthritis_risk":5,"migraine_risk":3,"frizz_risk":1,"updated_at":"2026-07-09T21:27:47.277024+05:30"},{"city":"Kakinada","state":"Andhra Pradesh","latitude":16.9891,"longitude":82.2475,"temp":29.9,"humidity":73,"rain":0.0,"pressure":1005.2,"uv_index":8.1,"wind_gusts":50.4,"aqi":70,"pm10":21.2,"pm2_5":16.5,"no2":7.6,"co":315.0,"o3":71.0,"so2":3.8,"mosquito_risk":7,"arthritis_risk":5,"migraine_risk":4,"frizz_risk":1,"updated_at":"2026-07-09T21:27:47.277030+05:30"},{"city":"Tirupati","state":"Andhra Pradesh","latitude":13.6288,"longitude":79.4192,"temp":31.3,"humidity":54,"rain":0.0,"pressure":990.7,"uv_index":7.85,"wind_gusts":42.5,"aqi":40,"pm10":18.7,"pm2_5":13.2,"no2":17.1,"co":282.0,"o3":46.0,"so2":2.3,"mosquito_risk":0,"arthritis_risk":5,"migraine_risk":7,"frizz_risk":1,"updated_at":"2026-07-09T21:27:47.277035+05:30"},{"city":"Warangal","state":"Telangana","latitude":17.9689,"longitude":79.5941,"temp":28.4,"humidity":77,"rain":0.0,"pressure":976.4,"uv_index":8.0,"wind_gusts":36.0,"aqi":50,"pm10":32.7,"pm2_5":22.0,"no2":12.7,"co":364.0,"o3":52.0,"so2":4.3,"mosquito_risk":7,"arthritis_risk":5,"migraine_risk":7,"frizz_risk":1,"updated_at":"2026-07-09T21:27:47.277040+05:30"},{"city":"Nizamabad","state":"Telangana","latitude":18.6725,"longitude":78.0941,"temp":28.0,"humidity":70,"rain":0.0,"pressure":962.2,"uv_index":6.0,"wind_gusts":46.1,"aqi":51,"pm10":38.1,"pm2_5":22.7,"no2":10.4,"co":246.0,"o3":61.0,"so2":5.9,"mosquito_risk":7,"arthritis_risk":5,"migraine_risk":3,"frizz_risk":1,"updated_at":"2026-07-09T21:27:47.277045+05:30"},{"city":"Mysore","state":"Karnataka","latitude":12.2958,"longitude":76.6396,"temp":22.7,"humidity":87,"rain":0.0,"pressure":929.8,"uv_index":6.85,"wind_gusts":45.0,"aqi":30,"pm10":10.2,"pm2_5":7.1,"no2":9.4,"co":150.0,"o3":43.0,"so2":2.3,"mosquito_risk":3,"arthritis_risk":5,"migraine_risk":7,"frizz_risk":1,"updated_at":"2026-07-09T21:27:47.277050+05:30"},{"city":"Mangalore","state":"Karnataka","latitude":12.9141,"longitude":74.856,"temp":25.9,"humidity":93,"rain":0.1,"pressure":1008.9,"uv_index":8.3,"wind_gusts":37.8,"aqi":56,"pm10":26.4,"pm2_5":15.1,"no2":9.4,"co":253.0,"o3":34.0,"so2":2.5,"mosquito_risk":10,"arthritis_risk":0,"migraine_risk":4,"frizz_risk":1,"updated_at":"2026-07-09T21:27:47.277055+05:30"},{"city":"Hubli-Dharwad","state":"Karnataka","latitude":15.3647,"longitude":75.124,"temp":23.4,"humidity":89,"rain":0.0,"pressure":941.7,"uv_index":8.05,"wind_gusts":55.1,"aqi":25,"pm10":11.4,"pm2_5":7.2,"no2":6.6,"co":132.0,"o3":38.0,"so2":1.6,"mosquito_risk":3,"arthritis_risk":5,"migraine_risk":7,"frizz_risk":1,"updated_at":"2026-07-09T21:27:47.277061+05:30"},{"city":"Belgaum","state":"Karnataka","latitude":15.8497,"longitude":74.4977,"temp":22.2,"humidity":94,"rain":0.0,"pressure":926.1,"uv_index":7.6,"wind_gusts":54.7,"aqi":23,"pm10":13.3,"pm2_5":8.1,"no2":5.9,"co":118.0,"o3":36.0,"so2":1.8,"mosquito_risk":3,"arthritis_risk":5,"migraine_risk":7,"frizz_risk":1,"updated_at":"2026-07-09T21:27:50.585299+05:30"},{"city":"Coimbatore","state":"Tamil Nadu","latitude":11.0168,"longitude":76.9558,"temp":24.5,"humidity":88,"rain":0.0,"pressure":962.7,"uv_index":8.8,"wind_gusts":47.2,"aqi":27,"pm10":8.9,"pm2_5":7.5,"no2":12.0,"co":206.0,"o3":35.0,"so2":3.4,"mosquito_risk":3,"arthritis_risk":5,"migraine_risk":7,"frizz_risk":1,"updated_at":"2026-07-09T21:27:50.585376+05:30"},{"city":"Madurai","state":"Tamil Nadu","latitude":9.9252,"longitude":78.1198,"temp":31.1,"humidity":54,"rain":0.0,"pressure":993.6,"uv_index":8.7,"wind_gusts":35.3,"aqi":40,"pm10":24.5,"pm2_5":17.0,"no2":20.8,"co":151.0,"o3":45.0,"so2":5.3,"mosquito_risk":0,"arthritis_risk":5,"migraine_risk":7,"frizz_risk":1,"updated_at":"2026-07-09T21:27:50.585387+05:30"},{"city":"Trichy","state":"Tamil Nadu","latitude":10.7905,"longitude":78.7047,"temp":31.7,"humidity":53,"rain":0.0,"pressure":1000.3,"uv_index":8.5,"wind_gusts":54.4,"aqi":33,"pm10":15.3,"pm2_5":10.4,"no2":8.5,"co":127.0,"o3":59.0,"so2":3.5,"mosquito_risk":0,"arthritis_risk":5,"migraine_risk":4,"frizz_risk":1,"updated_at":"2026-07-09T21:27:50.585396+05:30"},{"city":"Salem","state":"Tamil Nadu","latitude":11.6643,"longitude":78.146,"temp":28.2,"humidity":70,"rain":0.0,"pressure":978.0,"uv_index":7.95,"wind_gusts":31.7,"aqi":46,"pm10":21.2,"pm2_5":16.1,"no2":23.4,"co":394.0,"o3":37.0,"so2":6.7,"mosquito_risk":7,"arthritis_risk":5,"migraine_risk":7,"frizz_risk":1,"updated_at":"2026-07-09T21:27:50.585403+05:30"},{"city":"Tirunelveli","state":"Tamil Nadu","latitude":8.7139,"longitude":77.7567,"temp":29.9,"humidity":59,"rain":0.0,"pressure":1003.7,"uv_index":8.3,"wind_gusts":49.0,"aqi":33,"pm10":12.0,"pm2_5":8.2,"no2":5.2,"co":129.0,"o3":50.0,"so2":1.9,"mosquito_risk":4,"arthritis_risk":5,"migraine_risk":4,"frizz_risk":1,"updated_at":"2026-07-09T21:27:50.585410+05:30"},{"city":"Vellore","state":"Tamil Nadu","latitude":12.9165,"longitude":79.1325,"temp":30.6,"humidity":56,"rain":0.0,"pressure":984.0,"uv_index":8.35,"wind_gusts":42.8,"aqi":36,"pm10":30.9,"pm2_5":23.5,"no2":27.3,"co":441.0,"o3":32.0,"so2":5.3,"mosquito_risk":0,"arthritis_risk":5,"migraine_risk":7,"frizz_risk":1,"updated_at":"2026-07-09T21:27:50.585416+05:30"},{"city":"Erode","state":"Tamil Nadu","latitude":11.341,"longitude":77.7172,"temp":28.1,"humidity":70,"rain":0.0,"pressure":989.8,"uv_index":8.05,"wind_gusts":48.2,"aqi":35,"pm10":13.1,"pm2_5":9.8,"no2":12.6,"co":199.0,"o3":42.0,"so2":3.1,"mosquito_risk":7,"arthritis_risk":5,"migraine_risk":7,"frizz_risk":1,"updated_at":"2026-07-09T21:27:50.585421+05:30"},{"city":"Kochi","state":"Kerala","latitude":9.9312,"longitude":76.2673,"temp":27.1,"humidity":89,"rain":0.0,"pressure":1011.1,"uv_index":8.55,"wind_gusts":44.6,"aqi":51,"pm10":23.8,"pm2_5":19.7,"no2":27.0,"co":279.0,"o3":13.0,"so2":6.0,"mosquito_risk":7,"arthritis_risk":0,"migraine_risk":4,"frizz_risk":1,"updated_at":"2026-07-09T21:27:50.585426+05:30"},{"city":"Thiruvananthapuram","state":"Kerala","latitude":8.5241,"longitude":76.9366,"temp":26.1,"humidity":88,"rain":0.0,"pressure":1010.4,"uv_index":8.2,"wind_gusts":52.9,"aqi":48,"pm10":19.6,"pm2_5":11.9,"no2":5.6,"co":181.0,"o3":49.0,"so2":1.9,"mosquito_risk":7,"arthritis_risk":0,"migraine_risk":4,"frizz_risk":1,"updated_at":"2026-07-09T21:27:50.585432+05:30"},{"city":"Kozhikode","state":"Kerala","latitude":11.2588,"longitude":75.7804,"temp":25.6,"humidity":95,"rain":0.0,"pressure":1010.4,"uv_index":8.45,"wind_gusts":35.3,"aqi":46,"pm10":21.8,"pm2_5":12.4,"no2":2.3,"co":304.0,"o3":50.0,"so2":1.1,"mosquito_risk":7,"arthritis_risk":0,"migraine_risk":4,"frizz_risk":1,"updated_at":"2026-07-09T21:27:50.585437+05:30"},{"city":"Thrissur","state":"Kerala","latitude":10.5276,"longitude":76.2144,"temp":26.1,"humidity":91,"rain":0.1,"pressure":1009.6,"uv_index":8.55,"wind_gusts":36.0,"aqi":50,"pm10":27.7,"pm2_5":22.2,"no2":20.6,"co":481.0,"o3":22.0,"so2":5.3,"mosquito_risk":10,"arthritis_risk":0,"migraine_risk":4,"frizz_risk":1,"updated_at":"2026-07-09T21:27:50.585444+05:30"},{"city":"Kannur","state":"Kerala","latitude":11.8745,"longitude":75.3704,"temp":25.6,"humidity":97,"rain":0.1,"pressure":1009.7,"uv_index":8.2,"wind_gusts":30.6,"aqi":51,"pm10":22.0,"pm2_5":13.3,"no2":10.8,"co":400.0,"o3":34.0,"so2":2.0,"mosquito_risk":10,"arthritis_risk":0,"migraine_risk":4,"frizz_risk":1,"updated_at":"2026-07-09T21:27:50.585450+05:30"},{"city":"Patna","state":"Bihar","latitude":25.5941,"longitude":85.1376,"temp":27.4,"humidity":96,"rain":0.3,"pressure":995.5,"uv_index":8.65,"wind_gusts":25.6,"aqi":95,"pm10":36.9,"pm2_5":35.7,"no2":18.9,"co":347.0,"o3":76.0,"so2":11.0,"mosquito_risk":10,"arthritis_risk":5,"migraine_risk":7,"frizz_risk":1,"updated_at":"2026-07-09T21:27:50.585455+05:30"},{"city":"Gaya","state":"Bihar","latitude":24.7914,"longitude":85.0002,"temp":27.4,"humidity":97,"rain":0.1,"pressure":988.8,"uv_index":8.5,"wind_gusts":32.8,"aqi":79,"pm10":18.2,"pm2_5":18.0,"no2":15.9,"co":352.0,"o3":61.0,"so2":8.2,"mosquito_risk":10,"arthritis_risk":5,"migraine_risk":7,"frizz_risk":1,"updated_at":"2026-07-09T21:27:50.585460+05:30"},{"city":"Muzaffarpur","state":"Bihar","latitude":26.1209,"longitude":85.3647,"temp":27.9,"humidity":93,"rain":0.0,"pressure":995.6,"uv_index":8.75,"wind_gusts":26.6,"aqi":111,"pm10":46.8,"pm2_5":44.8,"no2":20.8,"co":426.0,"o3":80.0,"so2":13.2,"mosquito_risk":7,"arthritis_risk":5,"migraine_risk":7,"frizz_risk":1,"updated_at":"2026-07-09T21:27:50.585466+05:30"},{"city":"Bhagalpur","state":"Bihar","latitude":25.2425,"longitude":87.0117,"temp":27.6,"humidity":90,"rain":0.0,"pressure":996.0,"uv_index":6.9,"wind_gusts":24.1,"aqi":96,"pm10":34.3,"pm2_5":33.6,"no2":16.7,"co":548.0,"o3":88.0,"so2":15.8,"mosquito_risk":7,"arthritis_risk":5,"migraine_risk":7,"frizz_risk":1,"updated_at":"2026-07-09T21:27:50.585471+05:30"},{"city":"Ranchi","state":"Jharkhand","latitude":23.3441,"longitude":85.3096,"temp":23.9,"humidity":97,"rain":0.0,"pressure":933.3,"uv_index":7.7,"wind_gusts":46.4,"aqi":64,"pm10":24.3,"pm2_5":22.2,"no2":8.3,"co":229.0,"o3":93.0,"so2":11.7,"mosquito_risk":3,"arthritis_risk":5,"migraine_risk":7,"frizz_risk":1,"updated_at":"2026-07-09T21:27:50.585477+05:30"},{"city":"Jamshedpur","state":"Jharkhand","latitude":22.8046,"longitude":86.2029,"temp":27.2,"humidity":90,"rain":0.0,"pressure":986.5,"uv_index":7.45,"wind_gusts":45.0,"aqi":83,"pm10":22.4,"pm2_5":21.5,"no2":16.1,"co":384.0,"o3":75.0,"so2":20.4,"mosquito_risk":7,"arthritis_risk":5,"migraine_risk":7,"frizz_risk":1,"updated_at":"2026-07-09T21:27:50.585482+05:30"},{"city":"Dhanbad","state":"Jharkhand","latitude":23.7957,"longitude":86.4304,"temp":27.1,"humidity":92,"rain":0.0,"pressure":975.1,"uv_index":8.7,"wind_gusts":36.0,"aqi":128,"pm10":41.4,"pm2_5":41.1,"no2":51.8,"co":930.0,"o3":44.0,"so2":96.5,"mosquito_risk":7,"arthritis_risk":5,"migraine_risk":7,"frizz_risk":1,"updated_at":"2026-07-09T21:27:50.585487+05:30"},{"city":"Bokaro","state":"Jharkhand","latitude":23.6693,"longitude":86.1511,"temp":27.0,"humidity":91,"rain":0.0,"pressure":979.0,"uv_index":6.6,"wind_gusts":35.3,"aqi":100,"pm10":29.9,"pm2_5":29.6,"no2":30.1,"co":297.0,"o3":60.0,"so2":61.1,"mosquito_risk":7,"arthritis_risk":5,"migraine_risk":7,"frizz_risk":1,"updated_at":"2026-07-09T21:27:50.585492+05:30"},{"city":"Bhubaneswar","state":"Odisha","latitude":20.2961,"longitude":85.8245,"temp":28.1,"humidity":88,"rain":0.0,"pressure":998.9,"uv_index":7.75,"wind_gusts":51.8,"aqi":68,"pm10":27.5,"pm2_5":22.9,"no2":8.4,"co":229.0,"o3":85.0,"so2":8.2,"mosquito_risk":7,"arthritis_risk":5,"migraine_risk":7,"frizz_risk":1,"updated_at":"2026-07-09T21:27:50.585498+05:30"},{"city":"Cuttack","state":"Odisha","latitude":20.4625,"longitude":85.8828,"temp":28.3,"humidity":89,"rain":0.0,"pressure":1000.6,"uv_index":7.7,"wind_gusts":45.0,"aqi":68,"pm10":27.5,"pm2_5":22.9,"no2":8.4,"co":259.0,"o3":85.0,"so2":8.2,"mosquito_risk":7,"arthritis_risk":5,"migraine_risk":4,"frizz_risk":1,"updated_at":"2026-07-09T21:27:50.585503+05:30"},{"city":"Rourkela","state":"Odisha","latitude":22.2604,"longitude":84.8536,"temp":26.5,"humidity":93,"rain":0.0,"pressure":981.0,"uv_index":6.55,"wind_gusts":46.8,"aqi":77,"pm10":28.0,"pm2_5":21.8,"no2":7.0,"co":408.0,"o3":86.0,"so2":5.1,"mosquito_risk":7,"arthritis_risk":5,"migraine_risk":7,"frizz_risk":1,"updated_at":"2026-07-09T21:27:50.585508+05:30"},{"city":"Raipur","state":"Chhattisgarh","latitude":21.2514,"longitude":81.6296,"temp":27.4,"humidity":86,"rain":0.0,"pressure":971.2,"uv_index":7.15,"wind_gusts":45.7,"aqi":79,"pm10":44.2,"pm2_5":29.6,"no2":22.2,"co":451.0,"o3":71.0,"so2":38.6,"mosquito_risk":7,"arthritis_risk":5,"migraine_risk":7,"frizz_risk":1,"updated_at":"2026-07-09T21:27:50.585514+05:30"},{"city":"Bhilai","state":"Chhattisgarh","latitude":21.1938,"longitude":81.3509,"temp":27.5,"humidity":84,"rain":0.0,"pressure":971.6,"uv_index":6.9,"wind_gusts":47.2,"aqi":78,"pm10":49.2,"pm2_5":31.5,"no2":19.6,"co":993.0,"o3":76.0,"so2":34.9,"mosquito_risk":7,"arthritis_risk":5,"migraine_risk":7,"frizz_risk":1,"updated_at":"2026-07-09T21:27:50.585519+05:30"},{"city":"Guwahati","state":"Assam","latitude":26.1158,"longitude":91.7086,"temp":26.5,"humidity":99,"rain":0.1,"pressure":997.7,"uv_index":3.55,"wind_gusts":26.6,"aqi":50,"pm10":15.3,"pm2_5":14.9,"no2":10.8,"co":322.0,"o3":53.0,"so2":2.9,"mosquito_risk":10,"arthritis_risk":5,"migraine_risk":3,"frizz_risk":1,"updated_at":"2026-07-09T21:27:50.585524+05:30"},{"city":"Agartala","state":"Tripura","latitude":23.8315,"longitude":91.2868,"temp":25.9,"humidity":95,"rain":0.0,"pressure":1003.3,"uv_index":3.05,"wind_gusts":39.2,"aqi":44,"pm10":14.5,"pm2_5":13.4,"no2":11.1,"co":173.0,"o3":51.0,"so2":3.4,"mosquito_risk":7,"arthritis_risk":5,"migraine_risk":0,"frizz_risk":1,"updated_at":"2026-07-09T21:27:50.585529+05:30"},{"city":"Shillong","state":"Meghalaya","latitude":25.5788,"longitude":91.8933,"temp":20.4,"humidity":96,"rain":0.0,"pressure":855.2,"uv_index":2.5,"wind_gusts":41.8,"aqi":32,"pm10":2.2,"pm2_5":2.1,"no2":7.6,"co":234.0,"o3":52.0,"so2":2.3,"mosquito_risk":3,"arthritis_risk":5,"migraine_risk":3,"frizz_risk":1,"updated_at":"2026-07-09T21:27:50.585534+05:30"},{"city":"Imphal","state":"Manipur","latitude":24.817,"longitude":93.9368,"temp":23.2,"humidity":91,"rain":0.0,"pressure":921.3,"uv_index":3.5,"wind_gusts":32.8,"aqi":27,"pm10":8.1,"pm2_5":6.5,"no2":5.7,"co":531.0,"o3":48.0,"so2":2.0,"mosquito_risk":3,"arthritis_risk":5,"migraine_risk":3,"frizz_risk":1,"updated_at":"2026-07-09T21:27:50.585540+05:30"},{"city":"Aizawl","state":"Mizoram","latitude":23.7271,"longitude":92.7176,"temp":19.8,"humidity":97,"rain":0.0,"pressure":890.8,"uv_index":0.55,"wind_gusts":45.0,"aqi":27,"pm10":1.0,"pm2_5":0.9,"no2":3.5,"co":124.0,"o3":52.0,"so2":1.1,"mosquito_risk":3,"arthritis_risk":10,"migraine_risk":3,"frizz_risk":1,"updated_at":"2026-07-09T21:27:50.585545+05:30"},{"city":"Kohima","state":"Nagaland","latitude":25.6701,"longitude":94.1077,"temp":20.6,"humidity":96,"rain":0.1,"pressure":853.9,"uv_index":1.15,"wind_gusts":22.7,"aqi":27,"pm10":10.1,"pm2_5":8.0,"no2":7.6,"co":226.0,"o3":42.0,"so2":1.7,"mosquito_risk":6,"arthritis_risk":5,"migraine_risk":3,"frizz_risk":1,"updated_at":"2026-07-09T21:27:50.585551+05:30"},{"city":"Gangtok","state":"Sikkim","latitude":27.3314,"longitude":88.6138,"temp":19.3,"humidity":98,"rain":0.0,"pressure":835.8,"uv_index":7.7,"wind_gusts":28.8,"aqi":47,"pm10":5.4,"pm2_5":5.4,"no2":6.0,"co":365.0,"o3":97.0,"so2":1.1,"mosquito_risk":3,"arthritis_risk":10,"migraine_risk":7,"frizz_risk":1,"updated_at":"2026-07-09T21:27:50.585557+05:30"},{"city":"Siliguri","state":"West Bengal","latitude":26.7271,"longitude":88.3953,"temp":27.0,"humidity":94,"rain":0.0,"pressure":988.9,"uv_index":7.1,"wind_gusts":26.3,"aqi":59,"pm10":14.5,"pm2_5":14.5,"no2":10.1,"co":692.0,"o3":90.0,"so2":3.1,"mosquito_risk":7,"arthritis_risk":5,"migraine_risk":7,"frizz_risk":1,"updated_at":"2026-07-09T21:27:53.900013+05:30"},{"city":"Durgapur","state":"West Bengal","latitude":23.5204,"longitude":87.3119,"temp":27.1,"humidity":93,"rain":0.0,"pressure":990.5,"uv_index":6.95,"wind_gusts":38.2,"aqi":95,"pm10":32.5,"pm2_5":31.8,"no2":29.8,"co":505.0,"o3":54.0,"so2":40.9,"mosquito_risk":7,"arthritis_risk":5,"migraine_risk":7,"frizz_risk":1,"updated_at":"2026-07-09T21:27:53.900048+05:30"},{"city":"Asansol","state":"West Bengal","latitude":23.6739,"longitude":86.9524,"temp":27.4,"humidity":95,"rain":0.0,"pressure":988.9,"uv_index":7.7,"wind_gusts":37.8,"aqi":92,"pm10":30.2,"pm2_5":29.7,"no2":33.0,"co":344.0,"o3":58.0,"so2":45.0,"mosquito_risk":7,"arthritis_risk":5,"migraine_risk":7,"frizz_risk":1,"updated_at":"2026-07-09T21:27:53.900057+05:30"},{"city":"Pondicherry","state":"Puducherry","latitude":11.9139,"longitude":79.8145,"temp":30.3,"humidity":70,"rain":0.0,"pressure":1008.0,"uv_index":7.7,"wind_gusts":42.1,"aqi":61,"pm10":30.3,"pm2_5":20.8,"no2":14.6,"co":225.0,"o3":76.0,"so2":6.0,"mosquito_risk":3,"arthritis_risk":0,"migraine_risk":4,"frizz_risk":1,"updated_at":"2026-07-09T21:27:53.900065+05:30"},{"city":"Port Blair","state":"Andaman and Nicobar Islands","latitude":11.6234,"longitude":92.7265,"temp":26.9,"humidity":88,"rain":0.0,"pressure":1009.6,"uv_index":8.75,"wind_gusts":41.0,"aqi":53,"pm10":34.1,"pm2_5":16.9,"no2":0.3,"co":96.0,"o3":52.0,"so2":0.4,"mosquito_risk":7,"arthritis_risk":0,"migraine_risk":4,"frizz_risk":1,"updated_at":"2026-07-09T21:27:53.900073+05:30"},{"city":"Haridwar","state":"Uttarakhand","latitude":29.9457,"longitude":78.1642,"temp":25.3,"humidity":96,"rain":0.0,"pressure":967.0,"uv_index":0.65,"wind_gusts":29.5,"aqi":73,"pm10":16.5,"pm2_5":16.5,"no2":15.0,"co":287.0,"o3":62.0,"so2":3.6,"mosquito_risk":7,"arthritis_risk":5,"migraine_risk":3,"frizz_risk":1,"updated_at":"2026-07-09T21:27:53.900080+05:30"},{"city":"Rishikesh","state":"Uttarakhand","latitude":30.0869,"longitude":78.2676,"temp":25.0,"humidity":97,"rain":0.1,"pressure":960.0,"uv_index":1.8,"wind_gusts":26.3,"aqi":40,"pm10":9.3,"pm2_5":9.2,"no2":7.1,"co":381.0,"o3":86.0,"so2":1.9,"mosquito_risk":10,"arthritis_risk":5,"migraine_risk":3,"frizz_risk":1,"updated_at":"2026-07-09T21:27:53.900087+05:30"},{"city":"Nainital","state":"Uttarakhand","latitude":29.3919,"longitude":79.4542,"temp":17.7,"humidity":99,"rain":0.0,"pressure":801.9,"uv_index":7.7,"wind_gusts":51.1,"aqi":47,"pm10":12.4,"pm2_5":12.2,"no2":9.7,"co":310.0,"o3":80.0,"so2":2.4,"mosquito_risk":3,"arthritis_risk":10,"migraine_risk":7,"frizz_risk":1,"updated_at":"2026-07-09T21:27:53.900093+05:30"},{"city":"Mussoorie","state":"Uttarakhand","latitude":30.4599,"longitude":78.0664,"temp":16.7,"humidity":99,"rain":0.1,"pressure":798.6,"uv_index":0.45,"wind_gusts":45.0,"aqi":71,"pm10":19.4,"pm2_5":19.4,"no2":37.7,"co":341.0,"o3":45.0,"so2":6.1,"mosquito_risk":6,"arthritis_risk":10,"migraine_risk":3,"frizz_risk":1,"updated_at":"2026-07-09T21:27:53.900099+05:30"},{"city":"Dharamshala","state":"Himachal Pradesh","latitude":32.219,"longitude":76.3234,"temp":21.4,"humidity":95,"rain":0.0,"pressure":864.3,"uv_index":8.4,"wind_gusts":38.2,"aqi":112,"pm10":9.4,"pm2_5":9.2,"no2":10.6,"co":640.0,"o3":96.0,"so2":0.6,"mosquito_risk":3,"arthritis_risk":5,"migraine_risk":7,"frizz_risk":1,"updated_at":"2026-07-09T21:27:53.900104+05:30"},{"city":"Dalhousie","state":"Himachal Pradesh","latitude":32.5387,"longitude":75.971,"temp":17.9,"humidity":98,"rain":0.0,"pressure":800.7,"uv_index":8.4,"wind_gusts":29.9,"aqi":169,"pm10":49.4,"pm2_5":45.4,"no2":20.8,"co":735.0,"o3":131.0,"so2":3.9,"mosquito_risk":3,"arthritis_risk":10,"migraine_risk":7,"frizz_risk":1,"updated_at":"2026-07-09T21:27:53.900110+05:30"},{"city":"Patiala","state":"Punjab","latitude":30.3398,"longitude":76.3869,"temp":26.4,"humidity":86,"rain":0.0,"pressure":971.0,"uv_index":5.95,"wind_gusts":31.0,"aqi":150,"pm10":35.5,"pm2_5":35.3,"no2":23.6,"co":462.0,"o3":69.0,"so2":5.3,"mosquito_risk":7,"arthritis_risk":5,"migraine_risk":3,"frizz_risk":1,"updated_at":"2026-07-09T21:27:53.900116+05:30"},{"city":"Bhatinda","state":"Punjab","latitude":30.211,"longitude":74.9455,"temp":30.0,"humidity":77,"rain":0.0,"pressure":975.7,"uv_index":8.25,"wind_gusts":33.8,"aqi":189,"pm10":69.2,"pm2_5":49.6,"no2":16.0,"co":391.0,"o3":121.0,"so2":15.1,"mosquito_risk":7,"arthritis_risk":5,"migraine_risk":7,"frizz_risk":1,"updated_at":"2026-07-09T21:27:53.900121+05:30"},{"city":"Rohtak","state":"Haryana","latitude":28.8955,"longitude":76.6066,"temp":26.9,"humidity":85,"rain":0.0,"pressure":974.3,"uv_index":5.35,"wind_gusts":29.2,"aqi":96,"pm10":53.3,"pm2_5":25.4,"no2":24.1,"co":478.0,"o3":71.0,"so2":9.5,"mosquito_risk":7,"arthritis_risk":5,"migraine_risk":3,"frizz_risk":1,"updated_at":"2026-07-09T21:27:53.900126+05:30"},{"city":"Panipat","state":"Haryana","latitude":29.3909,"longitude":76.9635,"temp":26.0,"humidity":97,"rain":0.1,"pressure":973.1,"uv_index":3.1,"wind_gusts":32.4,"aqi":93,"pm10":23.4,"pm2_5":22.5,"no2":22.4,"co":377.0,"o3":63.0,"so2":7.4,"mosquito_risk":10,"arthritis_risk":5,"migraine_risk":3,"frizz_risk":1,"updated_at":"2026-07-09T21:27:53.900132+05:30"},{"city":"Mathura","state":"Uttar Pradesh","latitude":27.4924,"longitude":77.6737,"temp":28.4,"humidity":83,"rain":0.0,"pressure":979.5,"uv_index":7.8,"wind_gusts":48.2,"aqi":129,"pm10":322.2,"pm2_5":73.1,"no2":38.7,"co":317.0,"o3":65.0,"so2":8.4,"mosquito_risk":7,"arthritis_risk":5,"migraine_risk":7,"frizz_risk":1,"updated_at":"2026-07-09T21:27:53.900137+05:30"},{"city":"Vrindavan","state":"Uttar Pradesh","latitude":27.5823,"longitude":77.7027,"temp":28.4,"humidity":83,"rain":0.0,"pressure":979.8,"uv_index":7.3,"wind_gusts":50.0,"aqi":129,"pm10":322.2,"pm2_5":73.1,"no2":38.7,"co":336.0,"o3":65.0,"so2":8.4,"mosquito_risk":7,"arthritis_risk":5,"migraine_risk":7,"frizz_risk":1,"updated_at":"2026-07-09T21:27:53.900142+05:30"},{"city":"Ayodhya","state":"Uttar Pradesh","latitude":26.7922,"longitude":82.1998,"temp":28.0,"humidity":94,"rain":0.1,"pressure":989.4,"uv_index":7.45,"wind_gusts":27.4,"aqi":92,"pm10":27.9,"pm2_5":27.6,"no2":14.7,"co":469.0,"o3":80.0,"so2":5.5,"mosquito_risk":10,"arthritis_risk":5,"migraine_risk":7,"frizz_risk":1,"updated_at":"2026-07-09T21:27:53.900147+05:30"},{"city":"Ratlam","state":"Madhya Pradesh","latitude":23.3315,"longitude":75.0367,"temp":27.0,"humidity":74,"rain":0.0,"pressure":950.5,"uv_index":7.95,"wind_gusts":51.1,"aqi":71,"pm10":52.2,"pm2_5":29.2,"no2":4.7,"co":164.0,"o3":82.0,"so2":5.6,"mosquito_risk":7,"arthritis_risk":5,"migraine_risk":7,"frizz_risk":1,"updated_at":"2026-07-09T21:27:53.900153+05:30"},{"city":"Sagar","state":"Madhya Pradesh","latitude":23.8388,"longitude":78.7378,"temp":27.6,"humidity":73,"rain":0.0,"pressure":946.0,"uv_index":7.05,"wind_gusts":50.8,"aqi":59,"pm10":49.1,"pm2_5":27.6,"no2":5.2,"co":178.0,"o3":74.0,"so2":5.3,"mosquito_risk":7,"arthritis_risk":5,"migraine_risk":7,"frizz_risk":1,"updated_at":"2026-07-09T21:27:53.900158+05:30"},{"city":"Satna","state":"Madhya Pradesh","latitude":24.6005,"longitude":80.8322,"temp":26.5,"humidity":88,"rain":0.0,"pressure":966.0,"uv_index":8.2,"wind_gusts":46.4,"aqi":54,"pm10":22.2,"pm2_5":15.3,"no2":6.2,"co":254.0,"o3":78.0,"so2":3.5,"mosquito_risk":7,"arthritis_risk":5,"migraine_risk":7,"frizz_risk":1,"updated_at":"2026-07-09T21:27:53.900164+05:30"},{"city":"Akola","state":"Maharashtra","latitude":20.7002,"longitude":77.0082,"temp":29.8,"humidity":63,"rain":0.0,"pressure":971.8,"uv_index":5.65,"wind_gusts":51.8,"aqi":52,"pm10":30.7,"pm2_5":18.5,"no2":9.8,"co":159.0,"o3":54.0,"so2":8.3,"mosquito_risk":7,"arthritis_risk":5,"migraine_risk":3,"frizz_risk":1,"updated_at":"2026-07-09T21:27:53.900170+05:30"},{"city":"Amravati","state":"Maharashtra","latitude":20.9374,"longitude":77.7796,"temp":28.3,"humidity":73,"rain":0.0,"pressure":964.1,"uv_index":8.15,"wind_gusts":51.5,"aqi":52,"pm10":31.0,"pm2_5":18.2,"no2":9.7,"co":217.0,"o3":58.0,"so2":10.2,"mosquito_risk":7,"arthritis_risk":5,"migraine_risk":7,"frizz_risk":1,"updated_at":"2026-07-09T21:27:53.900176+05:30"},{"city":"Latur","state":"Maharashtra","latitude":18.4088,"longitude":76.5604,"temp":27.4,"humidity":66,"rain":0.0,"pressure":938.3,"uv_index":5.55,"wind_gusts":49.3,"aqi":39,"pm10":14.7,"pm2_5":9.1,"no2":4.2,"co":136.0,"o3":56.0,"so2":2.7,"mosquito_risk":7,"arthritis_risk":5,"migraine_risk":3,"frizz_risk":1,"updated_at":"2026-07-09T21:27:53.900182+05:30"},{"city":"Nanded","state":"Maharashtra","latitude":19.1383,"longitude":77.3091,"temp":28.8,"humidity":65,"rain":0.0,"pressure":966.0,"uv_index":7.9,"wind_gusts":45.7,"aqi":51,"pm10":39.1,"pm2_5":22.3,"no2":9.0,"co":279.0,"o3":62.0,"so2":4.5,"mosquito_risk":7,"arthritis_risk":5,"migraine_risk":7,"frizz_risk":1,"updated_at":"2026-07-09T21:27:53.900187+05:30"},{"city":"Gulbarga","state":"Karnataka","latitude":17.3297,"longitude":76.8343,"temp":27.4,"humidity":69,"rain":0.0,"pressure":957.6,"uv_index":5.2,"wind_gusts":51.1,"aqi":35,"pm10":21.9,"pm2_5":12.7,"no2":10.9,"co":142.0,"o3":50.0,"so2":3.3,"mosquito_risk":7,"arthritis_risk":5,"migraine_risk":3,"frizz_risk":1,"updated_at":"2026-07-09T21:27:53.900192+05:30"},{"city":"Bidar","state":"Karnataka","latitude":17.9104,"longitude":77.5199,"temp":27.2,"humidity":67,"rain":0.0,"pressure":933.9,"uv_index":5.8,"wind_gusts":47.5,"aqi":40,"pm10":22.3,"pm2_5":14.0,"no2":11.7,"co":188.0,"o3":56.0,"so2":2.5,"mosquito_risk":7,"arthritis_risk":5,"migraine_risk":3,"frizz_risk":1,"updated_at":"2026-07-09T21:27:53.900198+05:30"},{"city":"Hospet","state":"Karnataka","latitude":15.2689,"longitude":76.3909,"temp":26.1,"humidity":75,"rain":0.0,"pressure":956.6,"uv_index":7.35,"wind_gusts":53.3,"aqi":30,"pm10":13.9,"pm2_5":8.6,"no2":5.6,"co":133.0,"o3":46.0,"so2":1.9,"mosquito_risk":7,"arthritis_risk":5,"migraine_risk":7,"frizz_risk":1,"updated_at":"2026-07-09T21:27:53.900203+05:30"},{"city":"Tirupur","state":"Tamil Nadu","latitude":11.1085,"longitude":77.3411,"temp":25.9,"humidity":81,"rain":0.0,"pressure":976.0,"uv_index":8.5,"wind_gusts":50.8,"aqi":38,"pm10":14.5,"pm2_5":11.4,"no2":15.2,"co":194.0,"o3":39.0,"so2":4.5,"mosquito_risk":7,"arthritis_risk":5,"migraine_risk":7,"frizz_risk":1,"updated_at":"2026-07-09T21:27:53.900209+05:30"},{"city":"Alappuzha","state":"Kerala","latitude":9.4981,"longitude":76.3388,"temp":27.2,"humidity":89,"rain":0.0,"pressure":1011.2,"uv_index":8.5,"wind_gusts":48.6,"aqi":51,"pm10":22.0,"pm2_5":14.3,"no2":13.1,"co":97.0,"o3":39.0,"so2":4.0,"mosquito_risk":7,"arthritis_risk":0,"migraine_risk":4,"frizz_risk":1,"updated_at":"2026-07-09T21:27:53.900214+05:30"},{"city":"Munnar","state":"Kerala","latitude":10.0889,"longitude":77.0595,"temp":16.7,"humidity":100,"rain":0.0,"pressure":858.2,"uv_index":8.8,"wind_gusts":36.0,"aqi":23,"pm10":8.3,"pm2_5":6.6,"no2":9.0,"co":108.0,"o3":32.0,"so2":1.6,"mosquito_risk":3,"arthritis_risk":10,"migraine_risk":7,"frizz_risk":1,"updated_at":"2026-07-09T21:27:53.900220+05:30"},{"city":"Silchar","state":"Assam","latitude":24.8333,"longitude":92.7789,"temp":26.3,"humidity":95,"rain":0.3,"pressure":1002.9,"uv_index":0.35,"wind_gusts":29.5,"aqi":35,"pm10":11.1,"pm2_5":10.0,"no2":6.6,"co":352.0,"o3":50.0,"so2":3.5,"mosquito_risk":10,"arthritis_risk":5,"migraine_risk":0,"frizz_risk":1,"updated_at":"2026-07-09T21:27:53.900225+05:30"},{"city":"Dibrugarh","state":"Assam","latitude":27.4728,"longitude":94.912,"temp":26.7,"humidity":98,"rain":0.2,"pressure":991.5,"uv_index":5.25,"wind_gusts":28.4,"aqi":52,"pm10":12.5,"pm2_5":12.0,"no2":10.0,"co":194.0,"o3":59.0,"so2":1.7,"mosquito_risk":10,"arthritis_risk":5,"migraine_risk":3,"frizz_risk":1,"updated_at":"2026-07-09T21:27:53.900231+05:30"}]