[{"city":"Delhi","state":"Delhi","latitude":28.6139,"longitude":77.209,"temp":40.1,"humidity":20,"rain":0.0,"pressure":980.5,"uv_index":7.4,"wind_gusts":28.1,"aqi":151,"pm10":207.7,"pm2_5":39.9,"mosquito_risk":0,"arthritis_risk":5,"migraine_risk":10,"frizz_risk":0,"updated_at":"2026-04-24T13:38:49.093266+05:30"},{"city":"Mumbai","state":"Maharashtra","latitude":19.076,"longitude":72.8777,"temp":30.9,"humidity":71,"rain":0.0,"pressure":1005.6,"uv_index":8.05,"wind_gusts":23.0,"aqi":79,"pm10":48.5,"pm2_5":34.1,"mosquito_risk":3,"arthritis_risk":5,"migraine_risk":4,"frizz_risk":1,"updated_at":"2026-04-24T13:38:49.093310+05:30"},{"city":"Bangalore","state":"Karnataka","latitude":12.9716,"longitude":77.5946,"temp":35.0,"humidity":28,"rain":0.0,"pressure":911.1,"uv_index":9.6,"wind_gusts":32.8,"aqi":80,"pm10":26.4,"pm2_5":19.6,"mosquito_risk":0,"arthritis_risk":5,"migraine_risk":7,"frizz_risk":0,"updated_at":"2026-04-24T13:38:49.093324+05:30"},{"city":"Hyderabad","state":"Telangana","latitude":17.385,"longitude":78.4867,"temp":39.6,"humidity":22,"rain":0.0,"pressure":952.0,"uv_index":9.25,"wind_gusts":32.0,"aqi":122,"pm10":45.8,"pm2_5":36.7,"mosquito_risk":0,"arthritis_risk":5,"migraine_risk":10,"frizz_risk":0,"updated_at":"2026-04-24T13:38:49.093334+05:30"},{"city":"Chennai","state":"Tamil Nadu","latitude":13.0827,"longitude":80.2707,"temp":36.0,"humidity":48,"rain":0.0,"pressure":1005.4,"uv_index":8.85,"wind_gusts":33.8,"aqi":31,"pm10":10.3,"pm2_5":7.5,"mosquito_risk":0,"arthritis_risk":5,"migraine_risk":7,"frizz_risk":1,"updated_at":"2026-04-24T13:38:49.093344+05:30"},{"city":"Kolkata","state":"West Bengal","latitude":22.5726,"longitude":88.3639,"temp":35.3,"humidity":62,"rain":0.0,"pressure":1003.3,"uv_index":8.9,"wind_gusts":24.8,"aqi":87,"pm10":28.2,"pm2_5":22.9,"mosquito_risk":3,"arthritis_risk":5,"migraine_risk":7,"frizz_risk":1,"updated_at":"2026-04-24T13:38:49.093356+05:30"},{"city":"Pune","state":"Maharashtra","latitude":18.5204,"longitude":73.8567,"temp":39.5,"humidity":20,"rain":0.0,"pressure":947.2,"uv_index":8.65,"wind_gusts":43.2,"aqi":111,"pm10":29.9,"pm2_5":24.9,"mosquito_risk":0,"arthritis_risk":5,"migraine_risk":10,"frizz_risk":0,"updated_at":"2026-04-24T13:38:49.093364+05:30"},{"city":"Ahmedabad","state":"Gujarat","latitude":23.0225,"longitude":72.5714,"temp":41.0,"humidity":22,"rain":0.0,"pressure":999.8,"uv_index":8.2,"wind_gusts":22.0,"aqi":47,"pm10":48.4,"pm2_5":13.2,"mosquito_risk":0,"arthritis_risk":5,"migraine_risk":10,"frizz_risk":0,"updated_at":"2026-04-24T13:38:49.093370+05:30"},{"city":"Jaipur","state":"Rajasthan","latitude":26.9124,"longitude":75.7873,"temp":40.9,"humidity":14,"rain":0.0,"pressure":958.3,"uv_index":8.05,"wind_gusts":26.6,"aqi":79,"pm10":199.3,"pm2_5":27.2,"mosquito_risk":0,"arthritis_risk":5,"migraine_risk":10,"frizz_risk":0,"updated_at":"2026-04-24T13:38:49.093378+05:30"},{"city":"Lucknow","state":"Uttar Pradesh","latitude":26.8467,"longitude":80.9462,"temp":41.5,"humidity":13,"rain":0.0,"pressure":990.3,"uv_index":7.9,"wind_gusts":25.9,"aqi":129,"pm10":243.1,"pm2_5":34.8,"mosquito_risk":0,"arthritis_risk":5,"migraine_risk":10,"frizz_risk":0,"updated_at":"2026-04-24T13:38:49.093386+05:30"},{"city":"Kanpur","state":"Uttar Pradesh","latitude":26.4499,"longitude":80.3319,"temp":40.0,"humidity":19,"rain":0.0,"pressure":989.0,"uv_index":7.95,"wind_gusts":24.1,"aqi":169,"pm10":334.3,"pm2_5":39.3,"mosquito_risk":0,"arthritis_risk":5,"migraine_risk":10,"frizz_risk":0,"updated_at":"2026-04-24T13:38:49.093393+05:30"},{"city":"Chandigarh","state":"Chandigarh","latitude":30.7333,"longitude":76.7794,"temp":39.2,"humidity":23,"rain":0.0,"pressure":966.6,"uv_index":7.4,"wind_gusts":29.5,"aqi":72,"pm10":40.0,"pm2_5":19.8,"mosquito_risk":0,"arthritis_risk":5,"migraine_risk":10,"frizz_risk":0,"updated_at":"2026-04-24T13:38:49.093401+05:30"},{"city":"Srinagar","state":"Jammu and Kashmir","latitude":34.0837,"longitude":74.7973,"temp":24.9,"humidity":43,"rain":0.0,"pressure":845.3,"uv_index":8.6,"wind_gusts":33.5,"aqi":78,"pm10":35.6,"pm2_5":12.4,"mosquito_risk":0,"arthritis_risk":5,"migraine_risk":7,"frizz_risk":0,"updated_at":"2026-04-24T13:38:49.093408+05:30"},{"city":"Jammu","state":"Jammu and Kashmir","latitude":32.7266,"longitude":74.857,"temp":39.6,"humidity":21,"rain":0.0,"pressure":970.5,"uv_index":8.15,"wind_gusts":34.6,"aqi":72,"pm10":43.9,"pm2_5":14.4,"mosquito_risk":0,"arthritis_risk":5,"migraine_risk":10,"frizz_risk":0,"updated_at":"2026-04-24T13:38:49.093415+05:30"},{"city":"Amritsar","state":"Punjab","latitude":31.634,"longitude":74.8723,"temp":40.5,"humidity":20,"rain":0.0,"pressure":978.5,"uv_index":8.1,"wind_gusts":29.5,"aqi":83,"pm10":51.3,"pm2_5":17.6,"mosquito_risk":0,"arthritis_risk":5,"migraine_risk":10,"frizz_risk":0,"updated_at":"2026-04-24T13:38:49.093422+05:30"},{"city":"Ludhiana","state":"Punjab","latitude":30.901,"longitude":75.8573,"temp":41.0,"humidity":17,"rain":0.0,"pressure":976.1,"uv_index":7.7,"wind_gusts":32.8,"aqi":81,"pm10":58.2,"pm2_5":20.5,"mosquito_risk":0,"arthritis_risk":5,"migraine_risk":10,"frizz_risk":0,"updated_at":"2026-04-24T13:38:49.093431+05:30"},{"city":"Jalandhar","state":"Punjab","latitude":31.326,"longitude":75.5762,"temp":40.9,"humidity":18,"rain":0.0,"pressure":977.2,"uv_index":7.85,"wind_gusts":33.5,"aqi":90,"pm10":73.6,"pm2_5":21.1,"mosquito_risk":0,"arthritis_risk":5,"migraine_risk":10,"frizz_risk":0,"updated_at":"2026-04-24T13:38:49.093440+05:30"},{"city":"Dehradun","state":"Uttarakhand","latitude":30.6284,"longitude":78.0322,"temp":28.0,"humidity":31,"rain":0.0,"pressure":833.7,"uv_index":7.85,"wind_gusts":37.8,"aqi":63,"pm10":20.0,"pm2_5":11.0,"mosquito_risk":4,"arthritis_risk":5,"migraine_risk":7,"frizz_risk":0,"updated_at":"2026-04-24T13:38:49.093447+05:30"},{"city":"Shimla","state":"Himachal Pradesh","latitude":31.1048,"longitude":77.1734,"temp":27.6,"humidity":29,"rain":0.0,"pressure":790.3,"uv_index":7.9,"wind_gusts":45.4,"aqi":59,"pm10":22.4,"pm2_5":9.4,"mosquito_risk":4,"arthritis_risk":5,"migraine_risk":7,"frizz_risk":0,"updated_at":"2026-04-24T13:38:49.093454+05:30"},{"city":"Manali","state":"Himachal Pradesh","latitude":32.2396,"longitude":77.1887,"temp":27.8,"humidity":34,"rain":0.0,"pressure":825.7,"uv_index":9.95,"wind_gusts":33.1,"aqi":106,"pm10":21.4,"pm2_5":8.7,"mosquito_risk":4,"arthritis_risk":5,"migraine_risk":7,"frizz_risk":0,"updated_at":"2026-04-24T13:38:49.093460+05:30"},{"city":"Gurgaon","state":"Haryana","latitude":28.4595,"longitude":77.0266,"temp":40.2,"humidity":22,"rain":0.0,"pressure":979.0,"uv_index":7.5,"wind_gusts":23.8,"aqi":402,"pm10":711.5,"pm2_5":82.4,"mosquito_risk":0,"arthritis_risk":5,"migraine_risk":10,"frizz_risk":0,"updated_at":"2026-04-24T13:38:49.093467+05:30"},{"city":"Noida","state":"Uttar Pradesh","latitude":28.5355,"longitude":77.391,"temp":40.5,"humidity":20,"rain":0.0,"pressure":981.9,"uv_index":7.45,"wind_gusts":28.8,"aqi":402,"pm10":711.5,"pm2_5":82.4,"mosquito_risk":0,"arthritis_risk":5,"migraine_risk":10,"frizz_risk":0,"updated_at":"2026-04-24T13:38:49.093473+05:30"},{"city":"Ghaziabad","state":"Uttar Pradesh","latitude":28.6692,"longitude":77.4538,"temp":40.1,"humidity":22,"rain":0.0,"pressure":980.1,"uv_index":7.4,"wind_gusts":27.4,"aqi":152,"pm10":126.2,"pm2_5":30.0,"mosquito_risk":0,"arthritis_risk":5,"migraine_risk":10,"frizz_risk":0,"updated_at":"2026-04-24T13:38:49.093479+05:30"},{"city":"Faridabad","state":"Haryana","latitude":28.4089,"longitude":77.3178,"temp":41.1,"humidity":17,"rain":0.0,"pressure":981.2,"uv_index":7.5,"wind_gusts":28.4,"aqi":402,"pm10":711.5,"pm2_5":82.4,"mosquito_risk":0,"arthritis_risk":5,"migraine_risk":10,"frizz_risk":0,"updated_at":"2026-04-24T13:38:49.093485+05:30"},{"city":"Meerut","state":"Uttar Pradesh","latitude":28.9845,"longitude":77.7064,"temp":40.6,"humidity":19,"rain":0.0,"pressure":978.7,"uv_index":7.35,"wind_gusts":31.7,"aqi":152,"pm10":126.2,"pm2_5":30.0,"mosquito_risk":0,"arthritis_risk":5,"migraine_risk":10,"frizz_risk":0,"updated_at":"2026-04-24T13:38:49.093492+05:30"},{"city":"Agra","state":"Uttar Pradesh","latitude":27.1767,"longitude":78.0081,"temp":42.0,"humidity":15,"rain":0.0,"pressure":985.1,"uv_index":7.8,"wind_gusts":28.1,"aqi":461,"pm10":358.6,"pm2_5":41.3,"mosquito_risk":0,"arthritis_risk":5,"migraine_risk":10,"frizz_risk":0,"updated_at":"2026-04-24T13:38:49.093500+05:30"},{"city":"Varanasi","state":"Uttar Pradesh","latitude":25.3176,"longitude":82.9739,"temp":43.2,"humidity":12,"rain":0.0,"pressure":994.1,"uv_index":8.5,"wind_gusts":27.0,"aqi":146,"pm10":88.7,"pm2_5":19.4,"mosquito_risk":0,"arthritis_risk":5,"migraine_risk":10,"frizz_risk":0,"updated_at":"2026-04-24T13:38:49.093507+05:30"},{"city":"Prayagraj","state":"Uttar Pradesh","latitude":25.4358,"longitude":81.8463,"temp":42.7,"humidity":13,"rain":0.0,"pressure":992.4,"uv_index":8.35,"wind_gusts":22.0,"aqi":146,"pm10":55.8,"pm2_5":13.8,"mosquito_risk":0,"arthritis_risk":5,"migraine_risk":10,"frizz_risk":0,"updated_at":"2026-04-24T13:38:49.093514+05:30"},{"city":"Gorakhpur","state":"Uttar Pradesh","latitude":26.7606,"longitude":83.3732,"temp":40.2,"humidity":31,"rain":0.0,"pressure":994.0,"uv_index":8.3,"wind_gusts":24.1,"aqi":122,"pm10":227.2,"pm2_5":46.3,"mosquito_risk":0,"arthritis_risk":5,"migraine_risk":10,"frizz_risk":1,"updated_at":"2026-04-24T13:38:49.093521+05:30"},{"city":"Bareilly","state":"Uttar Pradesh","latitude":28.367,"longitude":79.4304,"temp":40.3,"humidity":24,"rain":0.0,"pressure":983.7,"uv_index":7.65,"wind_gusts":28.4,"aqi":117,"pm10":55.3,"pm2_5":24.0,"mosquito_risk":0,"arthritis_risk":5,"migraine_risk":10,"frizz_risk":0,"updated_at":"2026-04-24T13:38:49.093527+05:30"},{"city":"Aligarh","state":"Uttar Pradesh","latitude":27.8974,"longitude":78.088,"temp":41.9,"humidity":14,"rain":0.0,"pressure":982.7,"uv_index":7.6,"wind_gusts":27.4,"aqi":261,"pm10":293.4,"pm2_5":45.3,"mosquito_risk":0,"arthritis_risk":5,"migraine_risk":10,"frizz_risk":0,"updated_at":"2026-04-24T13:38:49.093536+05:30"},{"city":"Moradabad","state":"Uttar Pradesh","latitude":28.8386,"longitude":78.7733,"temp":40.7,"humidity":20,"rain":0.0,"pressure":980.5,"uv_index":7.5,"wind_gusts":31.3,"aqi":151,"pm10":66.1,"pm2_5":26.4,"mosquito_risk":0,"arthritis_risk":5,"migraine_risk":10,"frizz_risk":0,"updated_at":"2026-04-24T13:38:49.093542+05:30"},{"city":"Saharanpur","state":"Uttar Pradesh","latitude":29.9637,"longitude":77.546,"temp":39.1,"humidity":25,"rain":0.0,"pressure":973.1,"uv_index":7.15,"wind_gusts":27.0,"aqi":100,"pm10":56.7,"pm2_5":22.3,"mosquito_risk":0,"arthritis_risk":5,"migraine_risk":10,"frizz_risk":0,"updated_at":"2026-04-24T13:38:49.093548+05:30"},{"city":"Jhansi","state":"Uttar Pradesh","latitude":25.4484,"longitude":78.5685,"temp":43.0,"humidity":10,"rain":0.0,"pressure":975.3,"uv_index":8.3,"wind_gusts":32.4,"aqi":52,"pm10":20.1,"pm2_5":8.2,"mosquito_risk":0,"arthritis_risk":5,"migraine_risk":10,"frizz_risk":0,"updated_at":"2026-04-24T13:38:52.309300+05:30"},{"city":"Surat","state":"Gujarat","latitude":21.1702,"longitude":72.8311,"temp":35.1,"humidity":43,"rain":0.0,"pressure":1005.2,"uv_index":7.9,"wind_gusts":22.7,"aqi":99,"pm10":51.5,"pm2_5":34.5,"mosquito_risk":0,"arthritis_risk":5,"migraine_risk":7,"frizz_risk":1,"updated_at":"2026-04-24T13:38:52.309329+05:30"},{"city":"Vadodara","state":"Gujarat","latitude":22.3072,"longitude":73.1812,"temp":41.1,"humidity":21,"rain":0.0,"pressure":1002.1,"uv_index":8.15,"wind_gusts":24.8,"aqi":76,"pm10":34.0,"pm2_5":14.3,"mosquito_risk":0,"arthritis_risk":5,"migraine_risk":7,"frizz_risk":0,"updated_at":"2026-04-24T13:38:52.309338+05:30"},{"city":"Rajkot","state":"Gujarat","latitude":22.3039,"longitude":70.8022,"temp":39.6,"humidity":22,"rain":0.0,"pressure":992.7,"uv_index":7.9,"wind_gusts":31.3,"aqi":35,"pm10":43.4,"pm2_5":12.8,"mosquito_risk":0,"arthritis_risk":5,"migraine_risk":10,"frizz_risk":0,"updated_at":"2026-04-24T13:38:52.309346+05:30"},{"city":"Thane","state":"Maharashtra","latitude":19.2183,"longitude":72.9781,"temp":37.3,"humidity":40,"rain":0.0,"pressure":1005.3,"uv_index":8.05,"wind_gusts":37.4,"aqi":79,"pm10":48.5,"pm2_5":34.1,"mosquito_risk":0,"arthritis_risk":5,"migraine_risk":7,"frizz_risk":1,"updated_at":"2026-04-24T13:38:52.309352+05:30"},{"city":"Nagpur","state":"Maharashtra","latitude":21.1458,"longitude":79.0882,"temp":41.6,"humidity":14,"rain":0.0,"pressure":971.1,"uv_index":8.7,"wind_gusts":29.2,"aqi":111,"pm10":21.7,"pm2_5":18.0,"mosquito_risk":0,"arthritis_risk":5,"migraine_risk":10,"frizz_risk":0,"updated_at":"2026-04-24T13:38:52.309359+05:30"},{"city":"Nashik","state":"Maharashtra","latitude":19.9975,"longitude":73.7898,"temp":37.5,"humidity":22,"rain":0.0,"pressure":945.1,"uv_index":8.35,"wind_gusts":33.1,"aqi":79,"pm10":29.0,"pm2_5":21.8,"mosquito_risk":0,"arthritis_risk":5,"migraine_risk":10,"frizz_risk":0,"updated_at":"2026-04-24T13:38:52.309366+05:30"},{"city":"Aurangabad","state":"Maharashtra","latitude":19.8762,"longitude":75.3433,"temp":39.6,"humidity":17,"rain":0.0,"pressure":943.7,"uv_index":9.1,"wind_gusts":36.0,"aqi":82,"pm10":22.5,"pm2_5":17.6,"mosquito_risk":0,"arthritis_risk":5,"migraine_risk":10,"frizz_risk":0,"updated_at":"2026-04-24T13:38:52.309372+05:30"},{"city":"Solapur","state":"Maharashtra","latitude":17.6599,"longitude":75.9064,"temp":39.6,"humidity":21,"rain":0.0,"pressure":955.7,"uv_index":9.05,"wind_gusts":29.9,"aqi":107,"pm10":42.4,"pm2_5":35.0,"mosquito_risk":0,"arthritis_risk":5,"migraine_risk":10,"frizz_risk":0,"updated_at":"2026-04-24T13:38:52.309380+05:30"},{"city":"Kolhapur","state":"Maharashtra","latitude":16.705,"longitude":74.2433,"temp":35.4,"humidity":33,"rain":0.0,"pressure":947.1,"uv_index":9.05,"wind_gusts":31.7,"aqi":136,"pm10":47.6,"pm2_5":39.5,"mosquito_risk":0,"arthritis_risk":5,"migraine_risk":10,"frizz_risk":1,"updated_at":"2026-04-24T13:38:52.309387+05:30"},{"city":"Goa","state":"Goa","latitude":15.2993,"longitude":74.124,"temp":33.0,"humidity":67,"rain":0.0,"pressure":995.8,"uv_index":9.0,"wind_gusts":31.0,"aqi":79,"pm10":36.1,"pm2_5":27.4,"mosquito_risk":3,"arthritis_risk":5,"migraine_risk":7,"frizz_risk":1,"updated_at":"2026-04-24T13:38:52.309393+05:30"},{"city":"Jodhpur","state":"Rajasthan","latitude":26.2389,"longitude":73.0243,"temp":40.3,"humidity":21,"rain":0.0,"pressure":981.0,"uv_index":8.25,"wind_gusts":24.5,"aqi":57,"pm10":125.3,"pm2_5":22.8,"mosquito_risk":0,"arthritis_risk":5,"migraine_risk":10,"frizz_risk":0,"updated_at":"2026-04-24T13:38:52.309401+05:30"},{"city":"Udaipur","state":"Rajasthan","latitude":24.5854,"longitude":73.7125,"temp":38.4,"humidity":21,"rain":0.0,"pressure":945.9,"uv_index":8.8,"wind_gusts":36.4,"aqi":47,"pm10":26.3,"pm2_5":7.6,"mosquito_risk":0,"arthritis_risk":5,"migraine_risk":10,"frizz_risk":0,"updated_at":"2026-04-24T13:38:52.309407+05:30"},{"city":"Kota","state":"Rajasthan","latitude":25.2138,"longitude":75.8648,"temp":42.1,"humidity":14,"rain":0.0,"pressure":976.6,"uv_index":8.3,"wind_gusts":20.2,"aqi":46,"pm10":34.5,"pm2_5":10.6,"mosquito_risk":0,"arthritis_risk":5,"migraine_risk":10,"frizz_risk":0,"updated_at":"2026-04-24T13:38:52.309414+05:30"},{"city":"Bikaner","state":"Rajasthan","latitude":28.0229,"longitude":73.3119,"temp":42.0,"humidity":15,"rain":0.0,"pressure":979.6,"uv_index":7.7,"wind_gusts":21.2,"aqi":55,"pm10":104.3,"pm2_5":23.5,"mosquito_risk":0,"arthritis_risk":5,"migraine_risk":10,"frizz_risk":0,"updated_at":"2026-04-24T13:38:52.309421+05:30"},{"city":"Ajmer","state":"Rajasthan","latitude":26.4499,"longitude":74.6399,"temp":39.6,"humidity":20,"rain":0.0,"pressure":953.9,"uv_index":8.25,"wind_gusts":28.1,"aqi":45,"pm10":58.8,"pm2_5":13.7,"mosquito_risk":0,"arthritis_risk":5,"migraine_risk":10,"frizz_risk":0,"updated_at":"2026-04-24T13:38:52.309427+05:30"},{"city":"Gwalior","state":"Madhya Pradesh","latitude":26.2183,"longitude":78.1828,"temp":41.5,"humidity":14,"rain":0.0,"pressure":981.1,"uv_index":8.05,"wind_gusts":28.8,"aqi":52,"pm10":105.7,"pm2_5":18.1,"mosquito_risk":0,"arthritis_risk":5,"migraine_risk":10,"frizz_risk":0,"updated_at":"2026-04-24T13:38:52.309433+05:30"},{"city":"Indore","state":"Madhya Pradesh","latitude":22.7196,"longitude":75.8577,"temp":39.4,"humidity":16,"rain":0.0,"pressure":947.4,"uv_index":8.65,"wind_gusts":36.0,"aqi":55,"pm10":15.8,"pm2_5":6.6,"mosquito_risk":0,"arthritis_risk":5,"migraine_risk":10,"frizz_risk":0,"updated_at":"2026-04-24T13:38:52.309440+05:30"},{"city":"Bhopal","state":"Madhya Pradesh","latitude":23.2599,"longitude":77.4126,"temp":39.9,"humidity":12,"rain":0.0,"pressure":952.9,"uv_index":8.65,"wind_gusts":30.6,"aqi":58,"pm10":17.8,"pm2_5":7.9,"mosquito_risk":0,"arthritis_risk":5,"migraine_risk":10,"frizz_risk":0,"updated_at":"2026-04-24T13:38:52.309446+05:30"},{"city":"Jabalpur","state":"Madhya Pradesh","latitude":23.1815,"longitude":79.9864,"temp":39.3,"humidity":20,"rain":0.0,"pressure":960.4,"uv_index":8.8,"wind_gusts":21.6,"aqi":79,"pm10":14.6,"pm2_5":12.1,"mosquito_risk":0,"arthritis_risk":5,"migraine_risk":10,"frizz_risk":0,"updated_at":"2026-04-24T13:38:52.309452+05:30"},{"city":"Ujjain","state":"Madhya Pradesh","latitude":23.1765,"longitude":75.7885,"temp":39.7,"humidity":12,"rain":0.0,"pressure":953.0,"uv_index":8.55,"wind_gusts":35.6,"aqi":56,"pm10":24.2,"pm2_5":8.2,"mosquito_risk":0,"arthritis_risk":5,"migraine_risk":10,"frizz_risk":0,"updated_at":"2026-04-24T13:38:52.309459+05:30"},{"city":"Visakhapatnam","state":"Andhra Pradesh","latitude":17.6868,"longitude":83.2185,"temp":33.1,"humidity":58,"rain":0.0,"pressure":1001.4,"uv_index":9.15,"wind_gusts":39.6,"aqi":62,"pm10":21.6,"pm2_5":17.3,"mosquito_risk":0,"arthritis_risk":5,"migraine_risk":4,"frizz_risk":1,"updated_at":"2026-04-24T13:38:52.309465+05:30"},{"city":"Vijayawada","state":"Andhra Pradesh","latitude":16.5062,"longitude":80.648,"temp":38.4,"humidity":38,"rain":0.0,"pressure":1000.0,"uv_index":9.0,"wind_gusts":29.5,"aqi":53,"pm10":17.2,"pm2_5":13.0,"mosquito_risk":0,"arthritis_risk":5,"migraine_risk":7,"frizz_risk":1,"updated_at":"2026-04-24T13:38:52.309471+05:30"},{"city":"Guntur","state":"Andhra Pradesh","latitude":16.3067,"longitude":80.4365,"temp":38.3,"humidity":37,"rain":0.0,"pressure":1001.4,"uv_index":9.0,"wind_gusts":32.4,"aqi":54,"pm10":20.6,"pm2_5":16.2,"mosquito_risk":0,"arthritis_risk":5,"migraine_risk":7,"frizz_risk":1,"updated_at":"2026-04-24T13:38:52.309477+05:30"},{"city":"Nellore","state":"Andhra Pradesh","latitude":14.4426,"longitude":79.9865,"temp":39.2,"humidity":34,"rain":0.0,"pressure":1003.1,"uv_index":9.3,"wind_gusts":35.3,"aqi":40,"pm10":15.4,"pm2_5":11.9,"mosquito_risk":0,"arthritis_risk":5,"migraine_risk":7,"frizz_risk":1,"updated_at":"2026-04-24T13:38:52.309484+05:30"},{"city":"Kurnool","state":"Andhra Pradesh","latitude":15.8281,"longitude":78.0373,"temp":39.9,"humidity":25,"rain":0.0,"pressure":974.2,"uv_index":9.15,"wind_gusts":25.6,"aqi":84,"pm10":28.0,"pm2_5":21.1,"mosquito_risk":0,"arthritis_risk":5,"migraine_risk":10,"frizz_risk":1,"updated_at":"2026-04-24T13:38:52.309491+05:30"},{"city":"Kakinada","state":"Andhra Pradesh","latitude":16.9891,"longitude":82.2475,"temp":37.6,"humidity":47,"rain":0.0,"pressure":1004.8,"uv_index":9.05,"wind_gusts":34.2,"aqi":42,"pm10":12.9,"pm2_5":8.5,"mosquito_risk":0,"arthritis_risk":5,"migraine_risk":7,"frizz_risk":1,"updated_at":"2026-04-24T13:38:52.309497+05:30"},{"city":"Tirupati","state":"Andhra Pradesh","latitude":13.6288,"longitude":79.4192,"temp":38.3,"humidity":26,"rain":0.0,"pressure":989.5,"uv_index":9.3,"wind_gusts":34.9,"aqi":54,"pm10":17.9,"pm2_5":14.9,"mosquito_risk":0,"arthritis_risk":5,"migraine_risk":10,"frizz_risk":0,"updated_at":"2026-04-24T13:38:52.309504+05:30"},{"city":"Warangal","state":"Telangana","latitude":17.9689,"longitude":79.5941,"temp":37.8,"humidity":32,"rain":0.0,"pressure":976.9,"uv_index":9.2,"wind_gusts":20.2,"aqi":113,"pm10":44.0,"pm2_5":35.5,"mosquito_risk":0,"arthritis_risk":5,"migraine_risk":10,"frizz_risk":1,"updated_at":"2026-04-24T13:38:52.309510+05:30"},{"city":"Nizamabad","state":"Telangana","latitude":18.6725,"longitude":78.0941,"temp":39.8,"humidity":21,"rain":0.0,"pressure":963.4,"uv_index":8.85,"wind_gusts":34.9,"aqi":114,"pm10":36.3,"pm2_5":31.0,"mosquito_risk":0,"arthritis_risk":5,"migraine_risk":10,"frizz_risk":0,"updated_at":"2026-04-24T13:38:52.309516+05:30"},{"city":"Mysore","state":"Karnataka","latitude":12.2958,"longitude":76.6396,"temp":36.5,"humidity":27,"rain":0.0,"pressure":927.2,"uv_index":9.5,"wind_gusts":37.4,"aqi":95,"pm10":27.7,"pm2_5":20.7,"mosquito_risk":0,"arthritis_risk":5,"migraine_risk":10,"frizz_risk":0,"updated_at":"2026-04-24T13:38:52.309521+05:30"},{"city":"Mangalore","state":"Karnataka","latitude":12.9141,"longitude":74.856,"temp":30.5,"humidity":82,"rain":0.0,"pressure":1004.4,"uv_index":9.1,"wind_gusts":22.0,"aqi":76,"pm10":30.2,"pm2_5":22.9,"mosquito_risk":3,"arthritis_risk":5,"migraine_risk":4,"frizz_risk":1,"updated_at":"2026-04-24T13:38:52.309528+05:30"},{"city":"Hubli-Dharwad","state":"Karnataka","latitude":15.3647,"longitude":75.124,"temp":37.3,"humidity":28,"rain":0.0,"pressure":939.4,"uv_index":9.2,"wind_gusts":39.2,"aqi":98,"pm10":35.6,"pm2_5":28.9,"mosquito_risk":0,"arthritis_risk":5,"migraine_risk":10,"frizz_risk":0,"updated_at":"2026-04-24T13:38:52.309534+05:30"},{"city":"Belgaum","state":"Karnataka","latitude":15.8497,"longitude":74.4977,"temp":35.4,"humidity":33,"rain":0.0,"pressure":925.3,"uv_index":9.25,"wind_gusts":36.0,"aqi":117,"pm10":50.8,"pm2_5":42.0,"mosquito_risk":0,"arthritis_risk":5,"migraine_risk":10,"frizz_risk":1,"updated_at":"2026-04-24T13:38:55.529659+05:30"},{"city":"Coimbatore","state":"Tamil Nadu","latitude":11.0168,"longitude":76.9558,"temp":37.0,"humidity":31,"rain":0.0,"pressure":959.8,"uv_index":9.4,"wind_gusts":34.2,"aqi":90,"pm10":20.9,"pm2_5":15.5,"mosquito_risk":0,"arthritis_risk":5,"migraine_risk":10,"frizz_risk":1,"updated_at":"2026-04-24T13:38:55.529692+05:30"},{"city":"Madurai","state":"Tamil Nadu","latitude":9.9252,"longitude":78.1198,"temp":38.2,"humidity":31,"rain":0.0,"pressure":990.2,"uv_index":9.3,"wind_gusts":34.6,"aqi":51,"pm10":9.8,"pm2_5":8.4,"mosquito_risk":0,"arthritis_risk":5,"migraine_risk":10,"frizz_risk":1,"updated_at":"2026-04-24T13:38:55.529702+05:30"},{"city":"Trichy","state":"Tamil Nadu","latitude":10.7905,"longitude":78.7047,"temp":37.4,"humidity":36,"rain":0.0,"pressure":997.1,"uv_index":9.25,"wind_gusts":25.6,"aqi":49,"pm10":8.7,"pm2_5":7.6,"mosquito_risk":0,"arthritis_risk":5,"migraine_risk":10,"frizz_risk":1,"updated_at":"2026-04-24T13:38:55.529710+05:30"},{"city":"Salem","state":"Tamil Nadu","latitude":11.6643,"longitude":78.146,"temp":37.7,"humidity":34,"rain":0.0,"pressure":975.1,"uv_index":9.35,"wind_gusts":29.2,"aqi":61,"pm10":15.7,"pm2_5":12.1,"mosquito_risk":0,"arthritis_risk":5,"migraine_risk":10,"frizz_risk":1,"updated_at":"2026-04-24T13:38:55.529717+05:30"},{"city":"Tirunelveli","state":"Tamil Nadu","latitude":8.7139,"longitude":77.7567,"temp":38.2,"humidity":33,"rain":0.0,"pressure":999.8,"uv_index":9.2,"wind_gusts":39.6,"aqi":70,"pm10":14.0,"pm2_5":12.2,"mosquito_risk":0,"arthritis_risk":5,"migraine_risk":10,"frizz_risk":1,"updated_at":"2026-04-24T13:38:55.529724+05:30"},{"city":"Vellore","state":"Tamil Nadu","latitude":12.9165,"longitude":79.1325,"temp":37.3,"humidity":31,"rain":0.0,"pressure":982.7,"uv_index":9.3,"wind_gusts":31.7,"aqi":70,"pm10":17.0,"pm2_5":14.9,"mosquito_risk":0,"arthritis_risk":5,"migraine_risk":10,"frizz_risk":1,"updated_at":"2026-04-24T13:38:55.529732+05:30"},{"city":"Erode","state":"Tamil Nadu","latitude":11.341,"longitude":77.7172,"temp":39.2,"humidity":33,"rain":0.0,"pressure":986.2,"uv_index":9.3,"wind_gusts":30.6,"aqi":51,"pm10":12.5,"pm2_5":9.4,"mosquito_risk":0,"arthritis_risk":5,"migraine_risk":10,"frizz_risk":1,"updated_at":"2026-04-24T13:38:55.529738+05:30"},{"city":"Kochi","state":"Kerala","latitude":9.9312,"longitude":76.2673,"temp":29.8,"humidity":80,"rain":0.0,"pressure":1005.9,"uv_index":8.3,"wind_gusts":29.2,"aqi":75,"pm10":20.5,"pm2_5":17.9,"mosquito_risk":7,"arthritis_risk":5,"migraine_risk":4,"frizz_risk":1,"updated_at":"2026-04-24T13:38:55.529746+05:30"},{"city":"Thiruvananthapuram","state":"Kerala","latitude":8.5241,"longitude":76.9366,"temp":29.3,"humidity":83,"rain":0.0,"pressure":1005.2,"uv_index":9.05,"wind_gusts":24.1,"aqi":66,"pm10":20.3,"pm2_5":16.6,"mosquito_risk":7,"arthritis_risk":5,"migraine_risk":4,"frizz_risk":1,"updated_at":"2026-04-24T13:38:55.529754+05:30"},{"city":"Kozhikode","state":"Kerala","latitude":11.2588,"longitude":75.7804,"temp":31.6,"humidity":73,"rain":0.0,"pressure":1005.3,"uv_index":9.1,"wind_gusts":32.0,"aqi":87,"pm10":29.5,"pm2_5":23.3,"mosquito_risk":3,"arthritis_risk":5,"migraine_risk":4,"frizz_risk":1,"updated_at":"2026-04-24T13:38:55.529760+05:30"},{"city":"Thrissur","state":"Kerala","latitude":10.5276,"longitude":76.2144,"temp":34.5,"humidity":60,"rain":0.0,"pressure":1004.3,"uv_index":9.1,"wind_gusts":34.6,"aqi":83,"pm10":26.3,"pm2_5":21.9,"mosquito_risk":0,"arthritis_risk":5,"migraine_risk":4,"frizz_risk":1,"updated_at":"2026-04-24T13:38:55.529768+05:30"},{"city":"Kannur","state":"Kerala","latitude":11.8745,"longitude":75.3704,"temp":32.1,"humidity":71,"rain":0.0,"pressure":1004.5,"uv_index":9.1,"wind_gusts":30.2,"aqi":86,"pm10":29.8,"pm2_5":22.9,"mosquito_risk":3,"arthritis_risk":5,"migraine_risk":4,"frizz_risk":1,"updated_at":"2026-04-24T13:38:55.529775+05:30"},{"city":"Patna","state":"Bihar","latitude":25.5941,"longitude":85.1376,"temp":38.9,"humidity":35,"rain":0.0,"pressure":997.3,"uv_index":8.6,"wind_gusts":25.9,"aqi":155,"pm10":216.1,"pm2_5":54.6,"mosquito_risk":0,"arthritis_risk":5,"migraine_risk":10,"frizz_risk":1,"updated_at":"2026-04-24T13:38:55.529781+05:30"},{"city":"Gaya","state":"Bihar","latitude":24.7914,"longitude":85.0002,"temp":42.1,"humidity":15,"rain":0.0,"pressure":990.4,"uv_index":8.7,"wind_gusts":24.5,"aqi":152,"pm10":203.0,"pm2_5":34.7,"mosquito_risk":0,"arthritis_risk":5,"migraine_risk":10,"frizz_risk":0,"updated_at":"2026-04-24T13:38:55.529788+05:30"},{"city":"Muzaffarpur","state":"Bihar","latitude":26.1209,"longitude":85.3647,"temp":37.1,"humidity":49,"rain":0.0,"pressure":997.6,"uv_index":8.6,"wind_gusts":31.7,"aqi":154,"pm10":151.8,"pm2_5":55.8,"mosquito_risk":0,"arthritis_risk":5,"migraine_risk":10,"frizz_risk":1,"updated_at":"2026-04-24T13:38:55.529794+05:30"},{"city":"Bhagalpur","state":"Bihar","latitude":25.2425,"longitude":87.0117,"temp":36.6,"humidity":52,"rain":0.0,"pressure":998.3,"uv_index":8.65,"wind_gusts":20.9,"aqi":153,"pm10":98.3,"pm2_5":64.3,"mosquito_risk":0,"arthritis_risk":5,"migraine_risk":10,"frizz_risk":1,"updated_at":"2026-04-24T13:38:55.529800+05:30"},{"city":"Ranchi","state":"Jharkhand","latitude":23.3441,"longitude":85.3096,"temp":39.1,"humidity":15,"rain":0.0,"pressure":937.1,"uv_index":9.2,"wind_gusts":29.2,"aqi":134,"pm10":122.5,"pm2_5":28.3,"mosquito_risk":0,"arthritis_risk":5,"migraine_risk":10,"frizz_risk":0,"updated_at":"2026-04-24T13:38:55.529807+05:30"},{"city":"Jamshedpur","state":"Jharkhand","latitude":22.8046,"longitude":86.2029,"temp":41.1,"humidity":21,"rain":0.0,"pressure":987.6,"uv_index":8.7,"wind_gusts":37.1,"aqi":164,"pm10":186.3,"pm2_5":51.8,"mosquito_risk":0,"arthritis_risk":5,"migraine_risk":10,"frizz_risk":0,"updated_at":"2026-04-24T13:38:55.529836+05:30"},{"city":"Dhanbad","state":"Jharkhand","latitude":23.7957,"longitude":86.4304,"temp":42.4,"humidity":13,"rain":0.0,"pressure":976.9,"uv_index":8.95,"wind_gusts":35.3,"aqi":163,"pm10":180.2,"pm2_5":50.6,"mosquito_risk":0,"arthritis_risk":5,"migraine_risk":10,"frizz_risk":0,"updated_at":"2026-04-24T13:38:55.529843+05:30"},{"city":"Bokaro","state":"Jharkhand","latitude":23.6693,"longitude":86.1511,"temp":41.8,"humidity":15,"rain":0.0,"pressure":981.0,"uv_index":8.95,"wind_gusts":22.7,"aqi":162,"pm10":172.8,"pm2_5":45.8,"mosquito_risk":0,"arthritis_risk":5,"migraine_risk":10,"frizz_risk":0,"updated_at":"2026-04-24T13:38:55.529850+05:30"},{"city":"Bhubaneswar","state":"Odisha","latitude":20.2961,"longitude":85.8245,"temp":37.8,"humidity":50,"rain":0.0,"pressure":999.4,"uv_index":9.15,"wind_gusts":37.8,"aqi":79,"pm10":35.4,"pm2_5":29.2,"mosquito_risk":0,"arthritis_risk":5,"migraine_risk":10,"frizz_risk":1,"updated_at":"2026-04-24T13:38:55.529857+05:30"},{"city":"Cuttack","state":"Odisha","latitude":20.4625,"longitude":85.8828,"temp":39.7,"humidity":42,"rain":0.0,"pressure":1000.8,"uv_index":9.15,"wind_gusts":34.6,"aqi":79,"pm10":35.4,"pm2_5":29.2,"mosquito_risk":0,"arthritis_risk":5,"migraine_risk":7,"frizz_risk":1,"updated_at":"2026-04-24T13:38:55.529864+05:30"},{"city":"Rourkela","state":"Odisha","latitude":22.2604,"longitude":84.8536,"temp":42.0,"humidity":13,"rain":0.0,"pressure":982.2,"uv_index":8.95,"wind_gusts":42.8,"aqi":138,"pm10":148.1,"pm2_5":34.0,"mosquito_risk":0,"arthritis_risk":5,"migraine_risk":10,"frizz_risk":0,"updated_at":"2026-04-24T13:38:55.529870+05:30"},{"city":"Raipur","state":"Chhattisgarh","latitude":21.2514,"longitude":81.6296,"temp":42.1,"humidity":15,"rain":0.0,"pressure":972.2,"uv_index":8.95,"wind_gusts":27.4,"aqi":138,"pm10":27.6,"pm2_5":20.1,"mosquito_risk":0,"arthritis_risk":5,"migraine_risk":10,"frizz_risk":0,"updated_at":"2026-04-24T13:38:55.529877+05:30"},{"city":"Bhilai","state":"Chhattisgarh","latitude":21.1938,"longitude":81.3509,"temp":41.7,"humidity":16,"rain":0.0,"pressure":972.5,"uv_index":8.8,"wind_gusts":24.1,"aqi":114,"pm10":22.4,"pm2_5":19.9,"mosquito_risk":0,"arthritis_risk":5,"migraine_risk":10,"frizz_risk":0,"updated_at":"2026-04-24T13:38:55.529883+05:30"},{"city":"Guwahati","state":"Assam","latitude":26.1158,"longitude":91.7086,"temp":33.8,"humidity":56,"rain":0.0,"pressure":999.3,"uv_index":8.55,"wind_gusts":24.8,"aqi":150,"pm10":104.8,"pm2_5":51.5,"mosquito_risk":0,"arthritis_risk":5,"migraine_risk":7,"frizz_risk":1,"updated_at":"2026-04-24T13:38:55.529889+05:30"},{"city":"Agartala","state":"Tripura","latitude":23.8315,"longitude":91.2868,"temp":35.7,"humidity":49,"rain":0.0,"pressure":1003.5,"uv_index":8.6,"wind_gusts":21.2,"aqi":117,"pm10":76.6,"pm2_5":37.0,"mosquito_risk":0,"arthritis_risk":5,"migraine_risk":7,"frizz_risk":1,"updated_at":"2026-04-24T13:38:55.529895+05:30"},{"city":"Shillong","state":"Meghalaya","latitude":25.5788,"longitude":91.8933,"temp":24.8,"humidity":49,"rain":0.0,"pressure":858.8,"uv_index":6.3,"wind_gusts":27.0,"aqi":125,"pm10":90.3,"pm2_5":42.3,"mosquito_risk":0,"arthritis_risk":5,"migraine_risk":7,"frizz_risk":0,"updated_at":"2026-04-24T13:38:55.529902+05:30"},{"city":"Imphal","state":"Manipur","latitude":24.817,"longitude":93.9368,"temp":27.7,"humidity":50,"rain":0.0,"pressure":923.3,"uv_index":9.1,"wind_gusts":38.2,"aqi":152,"pm10":107.1,"pm2_5":36.8,"mosquito_risk":4,"arthritis_risk":5,"migraine_risk":7,"frizz_risk":1,"updated_at":"2026-04-24T13:38:55.529908+05:30"},{"city":"Aizawl","state":"Mizoram","latitude":23.7271,"longitude":92.7176,"temp":30.6,"humidity":39,"rain":0.0,"pressure":893.8,"uv_index":8.4,"wind_gusts":32.4,"aqi":121,"pm10":109.0,"pm2_5":32.1,"mosquito_risk":0,"arthritis_risk":5,"migraine_risk":7,"frizz_risk":0,"updated_at":"2026-04-24T13:38:55.529914+05:30"},{"city":"Kohima","state":"Nagaland","latitude":25.6701,"longitude":94.1077,"temp":24.0,"humidity":58,"rain":0.0,"pressure":856.9,"uv_index":8.55,"wind_gusts":42.5,"aqi":130,"pm10":97.3,"pm2_5":42.5,"mosquito_risk":0,"arthritis_risk":5,"migraine_risk":7,"frizz_risk":0,"updated_at":"2026-04-24T13:38:55.529919+05:30"},{"city":"Gangtok","state":"Sikkim","latitude":27.3314,"longitude":88.6138,"temp":23.7,"humidity":68,"rain":0.0,"pressure":840.1,"uv_index":8.25,"wind_gusts":24.1,"aqi":104,"pm10":54.9,"pm2_5":34.3,"mosquito_risk":3,"arthritis_risk":5,"migraine_risk":7,"frizz_risk":1,"updated_at":"2026-04-24T13:38:55.529926+05:30"},{"city":"Siliguri","state":"West Bengal","latitude":26.7271,"longitude":88.3953,"temp":28.7,"humidity":68,"rain":0.0,"pressure":993.0,"uv_index":8.45,"wind_gusts":18.4,"aqi":153,"pm10":93.8,"pm2_5":54.1,"mosquito_risk":7,"arthritis_risk":5,"migraine_risk":7,"frizz_risk":1,"updated_at":"2026-04-24T13:38:58.752704+05:30"},{"city":"Durgapur","state":"West Bengal","latitude":23.5204,"longitude":87.3119,"temp":40.2,"humidity":33,"rain":0.0,"pressure":991.9,"uv_index":8.45,"wind_gusts":36.7,"aqi":151,"pm10":148.1,"pm2_5":58.3,"mosquito_risk":0,"arthritis_risk":5,"migraine_risk":10,"frizz_risk":1,"updated_at":"2026-04-24T13:38:58.752736+05:30"},{"city":"Asansol","state":"West Bengal","latitude":23.6739,"longitude":86.9524,"temp":41.2,"humidity":25,"rain":0.0,"pressure":990.1,"uv_index":8.95,"wind_gusts":44.3,"aqi":151,"pm10":168.1,"pm2_5":48.5,"mosquito_risk":0,"arthritis_risk":5,"migraine_risk":10,"frizz_risk":1,"updated_at":"2026-04-24T13:38:58.752745+05:30"},{"city":"Pondicherry","state":"Puducherry","latitude":11.9139,"longitude":79.8145,"temp":37.3,"humidity":42,"rain":0.0,"pressure":1005.8,"uv_index":9.15,"wind_gusts":30.2,"aqi":33,"pm10":11.2,"pm2_5":9.3,"mosquito_risk":0,"arthritis_risk":5,"migraine_risk":7,"frizz_risk":1,"updated_at":"2026-04-24T13:38:58.752753+05:30"},{"city":"Port Blair","state":"Andaman and Nicobar Islands","latitude":11.6234,"longitude":92.7265,"temp":28.8,"humidity":83,"rain":0.0,"pressure":1005.1,"uv_index":9.15,"wind_gusts":24.1,"aqi":34,"pm10":10.5,"pm2_5":5.6,"mosquito_risk":7,"arthritis_risk":5,"migraine_risk":4,"frizz_risk":1,"updated_at":"2026-04-24T13:38:58.752761+05:30"},{"city":"Haridwar","state":"Uttarakhand","latitude":29.9457,"longitude":78.1642,"temp":39.8,"humidity":23,"rain":0.0,"pressure":971.9,"uv_index":7.2,"wind_gusts":33.5,"aqi":80,"pm10":36.0,"pm2_5":16.9,"mosquito_risk":0,"arthritis_risk":5,"migraine_risk":10,"frizz_risk":0,"updated_at":"2026-04-24T13:38:58.752769+05:30"},{"city":"Rishikesh","state":"Uttarakhand","latitude":30.0869,"longitude":78.2676,"temp":38.7,"humidity":24,"rain":0.0,"pressure":964.8,"uv_index":7.35,"wind_gusts":37.1,"aqi":70,"pm10":30.2,"pm2_5":14.5,"mosquito_risk":0,"arthritis_risk":5,"migraine_risk":10,"frizz_risk":0,"updated_at":"2026-04-24T13:38:58.752776+05:30"},{"city":"Nainital","state":"Uttarakhand","latitude":29.3919,"longitude":79.4542,"temp":31.0,"humidity":29,"rain":0.0,"pressure":810.9,"uv_index":8.2,"wind_gusts":43.6,"aqi":112,"pm10":29.7,"pm2_5":18.4,"mosquito_risk":0,"arthritis_risk":5,"migraine_risk":7,"frizz_risk":0,"updated_at":"2026-04-24T13:38:58.752784+05:30"},{"city":"Mussoorie","state":"Uttarakhand","latitude":30.4599,"longitude":78.0664,"temp":29.6,"humidity":27,"rain":0.0,"pressure":807.5,"uv_index":7.75,"wind_gusts":45.0,"aqi":72,"pm10":28.9,"pm2_5":16.2,"mosquito_risk":4,"arthritis_risk":5,"migraine_risk":7,"frizz_risk":0,"updated_at":"2026-04-24T13:38:58.752791+05:30"},{"city":"Dharamshala","state":"Himachal Pradesh","latitude":32.219,"longitude":76.3234,"temp":32.8,"humidity":28,"rain":0.0,"pressure":871.7,"uv_index":8.05,"wind_gusts":33.5,"aqi":66,"pm10":27.2,"pm2_5":9.0,"mosquito_risk":0,"arthritis_risk":5,"migraine_risk":7,"frizz_risk":0,"updated_at":"2026-04-24T13:38:58.752798+05:30"},{"city":"Dalhousie","state":"Himachal Pradesh","latitude":32.5387,"longitude":75.971,"temp":31.5,"humidity":22,"rain":0.0,"pressure":808.7,"uv_index":8.3,"wind_gusts":36.0,"aqi":61,"pm10":36.0,"pm2_5":14.7,"mosquito_risk":0,"arthritis_risk":5,"migraine_risk":7,"frizz_risk":0,"updated_at":"2026-04-24T13:38:58.752806+05:30"},{"city":"Patiala","state":"Punjab","latitude":30.3398,"longitude":76.3869,"temp":40.4,"humidity":21,"rain":0.0,"pressure":975.7,"uv_index":7.35,"wind_gusts":30.2,"aqi":166,"pm10":468.5,"pm2_5":52.6,"mosquito_risk":0,"arthritis_risk":5,"migraine_risk":10,"frizz_risk":0,"updated_at":"2026-04-24T13:38:58.752835+05:30"},{"city":"Bhatinda","state":"Punjab","latitude":30.211,"longitude":74.9455,"temp":41.4,"humidity":16,"rain":0.0,"pressure":981.1,"uv_index":8.0,"wind_gusts":36.0,"aqi":77,"pm10":67.3,"pm2_5":21.4,"mosquito_risk":0,"arthritis_risk":5,"migraine_risk":10,"frizz_risk":0,"updated_at":"2026-04-24T13:38:58.752843+05:30"},{"city":"Rohtak","state":"Haryana","latitude":28.8955,"longitude":76.6066,"temp":40.6,"humidity":20,"rain":0.0,"pressure":979.4,"uv_index":7.45,"wind_gusts":26.3,"aqi":155,"pm10":367.9,"pm2_5":50.9,"mosquito_risk":0,"arthritis_risk":5,"migraine_risk":10,"frizz_risk":0,"updated_at":"2026-04-24T13:38:58.752850+05:30"},{"city":"Panipat","state":"Haryana","latitude":29.3909,"longitude":76.9635,"temp":40.7,"humidity":20,"rain":0.0,"pressure":977.8,"uv_index":7.3,"wind_gusts":29.2,"aqi":342,"pm10":722.7,"pm2_5":75.4,"mosquito_risk":0,"arthritis_risk":5,"migraine_risk":10,"frizz_risk":0,"updated_at":"2026-04-24T13:38:58.752857+05:30"},{"city":"Mathura","state":"Uttar Pradesh","latitude":27.4924,"longitude":77.6737,"temp":41.7,"humidity":16,"rain":0.0,"pressure":984.3,"uv_index":7.75,"wind_gusts":23.0,"aqi":344,"pm10":378.1,"pm2_5":47.6,"mosquito_risk":0,"arthritis_risk":5,"migraine_risk":10,"frizz_risk":0,"updated_at":"2026-04-24T13:38:58.752864+05:30"},{"city":"Vrindavan","state":"Uttar Pradesh","latitude":27.5823,"longitude":77.7027,"temp":41.7,"humidity":15,"rain":0.0,"pressure":984.7,"uv_index":7.7,"wind_gusts":22.0,"aqi":344,"pm10":378.1,"pm2_5":47.6,"mosquito_risk":0,"arthritis_risk":5,"migraine_risk":10,"frizz_risk":0,"updated_at":"2026-04-24T13:38:58.752871+05:30"},{"city":"Ayodhya","state":"Uttar Pradesh","latitude":26.7922,"longitude":82.1998,"temp":42.3,"humidity":15,"rain":0.0,"pressure":991.9,"uv_index":8.05,"wind_gusts":23.4,"aqi":121,"pm10":187.2,"pm2_5":30.4,"mosquito_risk":0,"arthritis_risk":5,"migraine_risk":10,"frizz_risk":0,"updated_at":"2026-04-24T13:38:58.752877+05:30"},{"city":"Ratlam","state":"Madhya Pradesh","latitude":23.3315,"longitude":75.0367,"temp":37.1,"humidity":27,"rain":0.0,"pressure":953.8,"uv_index":8.5,"wind_gusts":30.6,"aqi":56,"pm10":25.6,"pm2_5":8.4,"mosquito_risk":0,"arthritis_risk":5,"migraine_risk":10,"frizz_risk":0,"updated_at":"2026-04-24T13:38:58.752884+05:30"},{"city":"Sagar","state":"Madhya Pradesh","latitude":23.8388,"longitude":78.7378,"temp":40.0,"humidity":16,"rain":0.0,"pressure":949.5,"uv_index":8.65,"wind_gusts":30.2,"aqi":54,"pm10":19.6,"pm2_5":11.7,"mosquito_risk":0,"arthritis_risk":5,"migraine_risk":10,"frizz_risk":0,"updated_at":"2026-04-24T13:38:58.752890+05:30"},{"city":"Satna","state":"Madhya Pradesh","latitude":24.6005,"longitude":80.8322,"temp":43.1,"humidity":11,"rain":0.0,"pressure":969.0,"uv_index":8.65,"wind_gusts":28.8,"aqi":87,"pm10":12.8,"pm2_5":11.6,"mosquito_risk":0,"arthritis_risk":5,"migraine_risk":10,"frizz_risk":0,"updated_at":"2026-04-24T13:38:58.752896+05:30"},{"city":"Akola","state":"Maharashtra","latitude":20.7002,"longitude":77.0082,"temp":42.1,"humidity":15,"rain":0.0,"pressure":973.2,"uv_index":8.85,"wind_gusts":29.5,"aqi":78,"pm10":25.8,"pm2_5":15.5,"mosquito_risk":0,"arthritis_risk":5,"migraine_risk":10,"frizz_risk":0,"updated_at":"2026-04-24T13:38:58.752904+05:30"},{"city":"Amravati","state":"Maharashtra","latitude":20.9374,"longitude":77.7796,"temp":40.7,"humidity":17,"rain":0.0,"pressure":965.7,"uv_index":8.65,"wind_gusts":22.3,"aqi":78,"pm10":22.7,"pm2_5":14.1,"mosquito_risk":0,"arthritis_risk":5,"migraine_risk":10,"frizz_risk":0,"updated_at":"2026-04-24T13:38:58.752911+05:30"},{"city":"Latur","state":"Maharashtra","latitude":18.4088,"longitude":76.5604,"temp":37.9,"humidity":21,"rain":0.0,"pressure":939.3,"uv_index":8.3,"wind_gusts":33.8,"aqi":102,"pm10":36.2,"pm2_5":31.0,"mosquito_risk":0,"arthritis_risk":5,"migraine_risk":10,"frizz_risk":0,"updated_at":"2026-04-24T13:38:58.752918+05:30"},{"city":"Nanded","state":"Maharashtra","latitude":19.1383,"longitude":77.3091,"temp":40.5,"humidity":20,"rain":0.0,"pressure":967.1,"uv_index":8.95,"wind_gusts":27.0,"aqi":107,"pm10":24.5,"pm2_5":21.2,"mosquito_risk":0,"arthritis_risk":5,"migraine_risk":10,"frizz_risk":0,"updated_at":"2026-04-24T13:38:58.752925+05:30"},{"city":"Gulbarga","state":"Karnataka","latitude":17.3297,"longitude":76.8343,"temp":39.4,"humidity":21,"rain":0.0,"pressure":957.4,"uv_index":8.8,"wind_gusts":33.1,"aqi":123,"pm10":46.6,"pm2_5":38.8,"mosquito_risk":0,"arthritis_risk":5,"migraine_risk":10,"frizz_risk":0,"updated_at":"2026-04-24T13:38:58.752931+05:30"},{"city":"Bidar","state":"Karnataka","latitude":17.9104,"longitude":77.5199,"temp":37.6,"humidity":22,"rain":0.0,"pressure":935.0,"uv_index":8.8,"wind_gusts":42.5,"aqi":118,"pm10":45.2,"pm2_5":38.3,"mosquito_risk":0,"arthritis_risk":5,"migraine_risk":10,"frizz_risk":0,"updated_at":"2026-04-24T13:38:58.752937+05:30"},{"city":"Hospet","state":"Karnataka","latitude":15.2689,"longitude":76.3909,"temp":37.1,"humidity":30,"rain":0.0,"pressure":954.1,"uv_index":9.15,"wind_gusts":32.0,"aqi":100,"pm10":33.3,"pm2_5":26.4,"mosquito_risk":0,"arthritis_risk":5,"migraine_risk":10,"frizz_risk":1,"updated_at":"2026-04-24T13:38:58.752943+05:30"},{"city":"Tirupur","state":"Tamil Nadu","latitude":11.1085,"longitude":77.3411,"temp":38.3,"humidity":31,"rain":0.0,"pressure":972.9,"uv_index":9.4,"wind_gusts":32.4,"aqi":65,"pm10":15.3,"pm2_5":11.4,"mosquito_risk":0,"arthritis_risk":5,"migraine_risk":10,"frizz_risk":1,"updated_at":"2026-04-24T13:38:58.752949+05:30"},{"city":"Alappuzha","state":"Kerala","latitude":9.4981,"longitude":76.3388,"temp":29.7,"humidity":81,"rain":0.0,"pressure":1006.0,"uv_index":9.0,"wind_gusts":27.7,"aqi":74,"pm10":21.9,"pm2_5":19.6,"mosquito_risk":7,"arthritis_risk":5,"migraine_risk":4,"frizz_risk":1,"updated_at":"2026-04-24T13:38:58.752956+05:30"},{"city":"Munnar","state":"Kerala","latitude":10.0889,"longitude":77.0595,"temp":31.6,"humidity":41,"rain":0.0,"pressure":858.2,"uv_index":9.6,"wind_gusts":33.5,"aqi":68,"pm10":12.7,"pm2_5":9.6,"mosquito_risk":0,"arthritis_risk":5,"migraine_risk":7,"frizz_risk":1,"updated_at":"2026-04-24T13:38:58.752963+05:30"},{"city":"Silchar","state":"Assam","latitude":24.8333,"longitude":92.7789,"temp":34.4,"humidity":52,"rain":0.0,"pressure":1002.5,"uv_index":8.75,"wind_gusts":20.9,"aqi":157,"pm10":121.5,"pm2_5":47.5,"mosquito_risk":0,"arthritis_risk":5,"migraine_risk":4,"frizz_risk":1,"updated_at":"2026-04-24T13:38:58.752970+05:30"},{"city":"Dibrugarh","state":"Assam","latitude":27.4728,"longitude":94.912,"temp":31.5,"humidity":57,"rain":0.0,"pressure":993.3,"uv_index":8.65,"wind_gusts":11.9,"aqi":86,"pm10":33.6,"pm2_5":21.1,"mosquito_risk":0,"arthritis_risk":5,"migraine_risk":7,"frizz_risk":1,"updated_at":"2026-04-24T13:38:58.752977+05:30"}]