[{"city":"Delhi","state":"Delhi","latitude":28.6139,"longitude":77.209,"temp":32.5,"humidity":54,"rain":0.0,"pressure":979.9,"uv_index":7.8,"wind_gusts":43.6,"aqi":500,"pm10":88.7,"pm2_5":35.3,"no2":10.0,"co":416.0,"o3":143.0,"so2":16.9,"mosquito_risk":0,"arthritis_risk":5,"migraine_risk":7,"frizz_risk":1,"updated_at":"2026-06-12T14:29:31.290635+05:30"},{"city":"Mumbai","state":"Maharashtra","latitude":19.076,"longitude":72.8777,"temp":33.7,"humidity":52,"rain":0.1,"pressure":1006.7,"uv_index":7.7,"wind_gusts":47.5,"aqi":83,"pm10":64.5,"pm2_5":27.8,"no2":3.3,"co":140.0,"o3":84.0,"so2":5.1,"mosquito_risk":3,"arthritis_risk":5,"migraine_risk":4,"frizz_risk":1,"updated_at":"2026-06-12T14:29:31.290669+05:30"},{"city":"Bangalore","state":"Karnataka","latitude":12.9716,"longitude":77.5946,"temp":30.1,"humidity":49,"rain":0.0,"pressure":911.6,"uv_index":5.45,"wind_gusts":48.2,"aqi":55,"pm10":19.9,"pm2_5":10.6,"no2":1.4,"co":165.0,"o3":95.0,"so2":2.3,"mosquito_risk":0,"arthritis_risk":5,"migraine_risk":3,"frizz_risk":1,"updated_at":"2026-06-12T14:29:31.290684+05:30"},{"city":"Hyderabad","state":"Telangana","latitude":17.385,"longitude":78.4867,"temp":35.0,"humidity":41,"rain":0.0,"pressure":951.5,"uv_index":9.05,"wind_gusts":33.8,"aqi":74,"pm10":43.8,"pm2_5":22.1,"no2":1.6,"co":215.0,"o3":112.0,"so2":3.2,"mosquito_risk":0,"arthritis_risk":5,"migraine_risk":7,"frizz_risk":1,"updated_at":"2026-06-12T14:29:31.290693+05:30"},{"city":"Chennai","state":"Tamil Nadu","latitude":13.0827,"longitude":80.2707,"temp":33.4,"humidity":53,"rain":0.0,"pressure":1004.7,"uv_index":7.95,"wind_gusts":36.7,"aqi":71,"pm10":42.3,"pm2_5":27.8,"no2":3.7,"co":243.0,"o3":156.0,"so2":8.3,"mosquito_risk":0,"arthritis_risk":5,"migraine_risk":4,"frizz_risk":1,"updated_at":"2026-06-12T14:29:31.290702+05:30"},{"city":"Kolkata","state":"West Bengal","latitude":22.5726,"longitude":88.3639,"temp":33.2,"humidity":59,"rain":0.0,"pressure":1002.1,"uv_index":8.05,"wind_gusts":42.5,"aqi":162,"pm10":63.6,"pm2_5":42.1,"no2":3.2,"co":379.0,"o3":174.0,"so2":11.9,"mosquito_risk":0,"arthritis_risk":5,"migraine_risk":4,"frizz_risk":1,"updated_at":"2026-06-12T14:29:31.290710+05:30"},{"city":"Pune","state":"Maharashtra","latitude":18.5204,"longitude":73.8567,"temp":34.2,"humidity":44,"rain":0.0,"pressure":947.0,"uv_index":8.3,"wind_gusts":49.0,"aqi":65,"pm10":55.1,"pm2_5":21.0,"no2":1.8,"co":127.0,"o3":86.0,"so2":3.8,"mosquito_risk":0,"arthritis_risk":5,"migraine_risk":7,"frizz_risk":1,"updated_at":"2026-06-12T14:29:31.290716+05:30"},{"city":"Ahmedabad","state":"Gujarat","latitude":23.0225,"longitude":72.5714,"temp":40.7,"humidity":32,"rain":0.0,"pressure":996.2,"uv_index":8.05,"wind_gusts":46.4,"aqi":71,"pm10":54.1,"pm2_5":20.1,"no2":1.2,"co":124.0,"o3":93.0,"so2":3.5,"mosquito_risk":0,"arthritis_risk":5,"migraine_risk":10,"frizz_risk":1,"updated_at":"2026-06-12T14:29:31.290723+05:30"},{"city":"Jaipur","state":"Rajasthan","latitude":26.9124,"longitude":75.7873,"temp":37.3,"humidity":43,"rain":0.0,"pressure":955.5,"uv_index":8.25,"wind_gusts":57.6,"aqi":150,"pm10":239.3,"pm2_5":54.0,"no2":1.0,"co":156.0,"o3":125.0,"so2":6.7,"mosquito_risk":0,"arthritis_risk":5,"migraine_risk":10,"frizz_risk":1,"updated_at":"2026-06-12T14:29:31.290739+05:30"},{"city":"Lucknow","state":"Uttar Pradesh","latitude":26.8467,"longitude":80.9462,"temp":33.8,"humidity":56,"rain":0.0,"pressure":990.4,"uv_index":8.35,"wind_gusts":41.0,"aqi":104,"pm10":70.3,"pm2_5":41.7,"no2":1.5,"co":286.0,"o3":176.0,"so2":9.8,"mosquito_risk":0,"arthritis_risk":5,"migraine_risk":7,"frizz_risk":1,"updated_at":"2026-06-12T14:29:31.290752+05:30"},{"city":"Kanpur","state":"Uttar Pradesh","latitude":26.4499,"longitude":80.3319,"temp":36.6,"humidity":41,"rain":0.0,"pressure":988.1,"uv_index":8.35,"wind_gusts":53.3,"aqi":150,"pm10":179.3,"pm2_5":53.7,"no2":1.6,"co":282.0,"o3":184.0,"so2":10.4,"mosquito_risk":0,"arthritis_risk":5,"migraine_risk":10,"frizz_risk":1,"updated_at":"2026-06-12T14:29:31.290759+05:30"},{"city":"Chandigarh","state":"Chandigarh","latitude":30.7333,"longitude":76.7794,"temp":30.8,"humidity":51,"rain":0.1,"pressure":967.5,"uv_index":7.8,"wind_gusts":52.9,"aqi":127,"pm10":92.9,"pm2_5":34.6,"no2":1.9,"co":265.0,"o3":147.0,"so2":5.6,"mosquito_risk":3,"arthritis_risk":5,"migraine_risk":7,"frizz_risk":1,"updated_at":"2026-06-12T14:29:31.290767+05:30"},{"city":"Srinagar","state":"Jammu and Kashmir","latitude":34.0837,"longitude":74.7973,"temp":24.6,"humidity":46,"rain":0.0,"pressure":842.3,"uv_index":9.0,"wind_gusts":29.5,"aqi":80,"pm10":21.4,"pm2_5":17.2,"no2":1.4,"co":273.0,"o3":163.0,"so2":3.4,"mosquito_risk":0,"arthritis_risk":5,"migraine_risk":7,"frizz_risk":0,"updated_at":"2026-06-12T14:29:31.290774+05:30"},{"city":"Jammu","state":"Jammu and Kashmir","latitude":32.7266,"longitude":74.857,"temp":27.9,"humidity":63,"rain":0.0,"pressure":972.0,"uv_index":8.55,"wind_gusts":53.3,"aqi":114,"pm10":108.7,"pm2_5":45.3,"no2":2.7,"co":248.0,"o3":179.0,"so2":6.5,"mosquito_risk":7,"arthritis_risk":5,"migraine_risk":7,"frizz_risk":1,"updated_at":"2026-06-12T14:29:31.290780+05:30"},{"city":"Amritsar","state":"Punjab","latitude":31.634,"longitude":74.8723,"temp":24.0,"humidity":93,"rain":0.8,"pressure":980.3,"uv_index":8.45,"wind_gusts":51.5,"aqi":253,"pm10":196.5,"pm2_5":53.8,"no2":1.2,"co":270.0,"o3":139.0,"so2":4.0,"mosquito_risk":6,"arthritis_risk":5,"migraine_risk":7,"frizz_risk":1,"updated_at":"2026-06-12T14:29:31.290788+05:30"},{"city":"Ludhiana","state":"Punjab","latitude":30.901,"longitude":75.8573,"temp":34.4,"humidity":37,"rain":0.0,"pressure":977.1,"uv_index":7.1,"wind_gusts":55.4,"aqi":446,"pm10":77.1,"pm2_5":32.7,"no2":1.6,"co":216.0,"o3":137.0,"so2":4.9,"mosquito_risk":0,"arthritis_risk":5,"migraine_risk":7,"frizz_risk":1,"updated_at":"2026-06-12T14:29:31.290795+05:30"},{"city":"Jalandhar","state":"Punjab","latitude":31.326,"longitude":75.5762,"temp":30.6,"humidity":50,"rain":0.0,"pressure":979.0,"uv_index":8.25,"wind_gusts":55.8,"aqi":305,"pm10":177.9,"pm2_5":46.2,"no2":1.4,"co":192.0,"o3":142.0,"so2":4.9,"mosquito_risk":0,"arthritis_risk":5,"migraine_risk":7,"frizz_risk":1,"updated_at":"2026-06-12T14:29:31.290804+05:30"},{"city":"Dehradun","state":"Uttarakhand","latitude":30.6284,"longitude":78.0322,"temp":21.2,"humidity":70,"rain":0.1,"pressure":832.2,"uv_index":5.5,"wind_gusts":36.4,"aqi":79,"pm10":88.5,"pm2_5":25.4,"no2":0.8,"co":185.0,"o3":144.0,"so2":2.6,"mosquito_risk":6,"arthritis_risk":5,"migraine_risk":3,"frizz_risk":0,"updated_at":"2026-06-12T14:29:31.290811+05:30"},{"city":"Shimla","state":"Himachal Pradesh","latitude":31.1048,"longitude":77.1734,"temp":16.6,"humidity":78,"rain":0.1,"pressure":785.6,"uv_index":7.45,"wind_gusts":33.5,"aqi":93,"pm10":98.0,"pm2_5":36.8,"no2":1.1,"co":181.0,"o3":166.0,"so2":4.1,"mosquito_risk":6,"arthritis_risk":5,"migraine_risk":7,"frizz_risk":0,"updated_at":"2026-06-12T14:29:31.290819+05:30"},{"city":"Manali","state":"Himachal Pradesh","latitude":32.2396,"longitude":77.1887,"temp":20.8,"humidity":64,"rain":0.0,"pressure":819.8,"uv_index":5.45,"wind_gusts":41.8,"aqi":92,"pm10":26.5,"pm2_5":16.0,"no2":0.4,"co":154.0,"o3":173.0,"so2":0.7,"mosquito_risk":3,"arthritis_risk":5,"migraine_risk":3,"frizz_risk":0,"updated_at":"2026-06-12T14:29:31.290826+05:30"},{"city":"Gurgaon","state":"Haryana","latitude":28.4595,"longitude":77.0266,"temp":34.1,"humidity":47,"rain":0.0,"pressure":978.1,"uv_index":7.65,"wind_gusts":55.4,"aqi":1280,"pm10":1501.3,"pm2_5":181.1,"no2":8.2,"co":344.0,"o3":140.0,"so2":12.5,"mosquito_risk":0,"arthritis_risk":5,"migraine_risk":7,"frizz_risk":1,"updated_at":"2026-06-12T14:29:31.290842+05:30"},{"city":"Noida","state":"Uttar Pradesh","latitude":28.5355,"longitude":77.391,"temp":33.6,"humidity":49,"rain":0.0,"pressure":981.4,"uv_index":7.85,"wind_gusts":44.6,"aqi":1280,"pm10":1501.3,"pm2_5":181.1,"no2":8.2,"co":317.0,"o3":140.0,"so2":12.5,"mosquito_risk":0,"arthritis_risk":5,"migraine_risk":7,"frizz_risk":1,"updated_at":"2026-06-12T14:29:31.290849+05:30"},{"city":"Ghaziabad","state":"Uttar Pradesh","latitude":28.6692,"longitude":77.4538,"temp":32.8,"humidity":52,"rain":0.0,"pressure":979.9,"uv_index":7.8,"wind_gusts":43.6,"aqi":197,"pm10":65.2,"pm2_5":29.2,"no2":4.3,"co":257.0,"o3":137.0,"so2":6.9,"mosquito_risk":0,"arthritis_risk":5,"migraine_risk":7,"frizz_risk":1,"updated_at":"2026-06-12T14:29:31.290855+05:30"},{"city":"Faridabad","state":"Haryana","latitude":28.4089,"longitude":77.3178,"temp":33.4,"humidity":48,"rain":0.0,"pressure":980.7,"uv_index":7.85,"wind_gusts":51.1,"aqi":1280,"pm10":1501.3,"pm2_5":181.1,"no2":8.2,"co":318.0,"o3":140.0,"so2":12.5,"mosquito_risk":0,"arthritis_risk":5,"migraine_risk":7,"frizz_risk":1,"updated_at":"2026-06-12T14:29:31.290861+05:30"},{"city":"Meerut","state":"Uttar Pradesh","latitude":28.9845,"longitude":77.7064,"temp":31.6,"humidity":58,"rain":0.0,"pressure":979.2,"uv_index":7.75,"wind_gusts":49.0,"aqi":197,"pm10":65.2,"pm2_5":29.2,"no2":4.3,"co":236.0,"o3":137.0,"so2":6.9,"mosquito_risk":0,"arthritis_risk":5,"migraine_risk":7,"frizz_risk":1,"updated_at":"2026-06-12T14:29:31.290867+05:30"},{"city":"Agra","state":"Uttar Pradesh","latitude":27.1767,"longitude":78.0081,"temp":35.8,"humidity":46,"rain":0.0,"pressure":983.7,"uv_index":8.15,"wind_gusts":42.5,"aqi":1262,"pm10":199.3,"pm2_5":54.1,"no2":2.0,"co":229.0,"o3":165.0,"so2":6.8,"mosquito_risk":0,"arthritis_risk":5,"migraine_risk":10,"frizz_risk":1,"updated_at":"2026-06-12T14:29:31.290874+05:30"},{"city":"Varanasi","state":"Uttar Pradesh","latitude":25.3176,"longitude":82.9739,"temp":35.4,"humidity":50,"rain":0.0,"pressure":993.6,"uv_index":8.75,"wind_gusts":27.7,"aqi":134,"pm10":80.1,"pm2_5":58.2,"no2":2.1,"co":357.0,"o3":201.0,"so2":18.3,"mosquito_risk":0,"arthritis_risk":5,"migraine_risk":10,"frizz_risk":1,"updated_at":"2026-06-12T14:29:31.290880+05:30"},{"city":"Prayagraj","state":"Uttar Pradesh","latitude":25.4358,"longitude":81.8463,"temp":34.9,"humidity":47,"rain":0.0,"pressure":992.3,"uv_index":8.5,"wind_gusts":33.5,"aqi":120,"pm10":70.1,"pm2_5":54.0,"no2":2.4,"co":299.0,"o3":199.0,"so2":15.8,"mosquito_risk":0,"arthritis_risk":5,"migraine_risk":7,"frizz_risk":1,"updated_at":"2026-06-12T14:29:31.290887+05:30"},{"city":"Gorakhpur","state":"Uttar Pradesh","latitude":26.7606,"longitude":83.3732,"temp":33.9,"humidity":53,"rain":0.0,"pressure":994.2,"uv_index":8.65,"wind_gusts":36.7,"aqi":115,"pm10":83.1,"pm2_5":53.1,"no2":1.6,"co":287.0,"o3":190.0,"so2":15.6,"mosquito_risk":0,"arthritis_risk":5,"migraine_risk":7,"frizz_risk":1,"updated_at":"2026-06-12T14:29:31.290895+05:30"},{"city":"Bareilly","state":"Uttar Pradesh","latitude":28.367,"longitude":79.4304,"temp":33.0,"humidity":56,"rain":0.0,"pressure":984.5,"uv_index":6.9,"wind_gusts":43.6,"aqi":129,"pm10":158.3,"pm2_5":41.6,"no2":1.4,"co":280.0,"o3":165.0,"so2":8.4,"mosquito_risk":0,"arthritis_risk":5,"migraine_risk":7,"frizz_risk":1,"updated_at":"2026-06-12T14:29:31.290901+05:30"},{"city":"Aligarh","state":"Uttar Pradesh","latitude":27.8974,"longitude":78.088,"temp":34.3,"humidity":47,"rain":0.0,"pressure":982.4,"uv_index":8.0,"wind_gusts":49.7,"aqi":552,"pm10":43.8,"pm2_5":29.2,"no2":3.4,"co":215.0,"o3":148.0,"so2":6.8,"mosquito_risk":0,"arthritis_risk":5,"migraine_risk":7,"frizz_risk":1,"updated_at":"2026-06-12T14:29:31.290907+05:30"},{"city":"Moradabad","state":"Uttar Pradesh","latitude":28.8386,"longitude":78.7733,"temp":31.9,"humidity":58,"rain":0.0,"pressure":981.8,"uv_index":7.95,"wind_gusts":42.8,"aqi":129,"pm10":68.0,"pm2_5":29.3,"no2":2.6,"co":277.0,"o3":166.0,"so2":11.4,"mosquito_risk":0,"arthritis_risk":5,"migraine_risk":7,"frizz_risk":1,"updated_at":"2026-06-12T14:29:31.290913+05:30"},{"city":"Saharanpur","state":"Uttar Pradesh","latitude":29.9637,"longitude":77.546,"temp":30.5,"humidity":56,"rain":0.0,"pressure":974.5,"uv_index":7.0,"wind_gusts":45.4,"aqi":151,"pm10":83.1,"pm2_5":32.8,"no2":1.9,"co":250.0,"o3":147.0,"so2":4.8,"mosquito_risk":0,"arthritis_risk":5,"migraine_risk":7,"frizz_risk":1,"updated_at":"2026-06-12T14:29:31.290919+05:30"},{"city":"Jhansi","state":"Uttar Pradesh","latitude":25.4484,"longitude":78.5685,"temp":37.5,"humidity":42,"rain":0.0,"pressure":973.3,"uv_index":8.5,"wind_gusts":66.6,"aqi":99,"pm10":65.7,"pm2_5":35.4,"no2":1.4,"co":167.0,"o3":155.0,"so2":11.9,"mosquito_risk":0,"arthritis_risk":5,"migraine_risk":10,"frizz_risk":1,"updated_at":"2026-06-12T14:29:34.558770+05:30"},{"city":"Surat","state":"Gujarat","latitude":21.1702,"longitude":72.8311,"temp":34.8,"humidity":54,"rain":0.0,"pressure":1003.5,"uv_index":7.6,"wind_gusts":60.8,"aqi":89,"pm10":58.3,"pm2_5":29.4,"no2":6.4,"co":176.0,"o3":67.0,"so2":23.6,"mosquito_risk":0,"arthritis_risk":5,"migraine_risk":4,"frizz_risk":1,"updated_at":"2026-06-12T14:29:34.558794+05:30"},{"city":"Vadodara","state":"Gujarat","latitude":22.3072,"longitude":73.1812,"temp":38.4,"humidity":41,"rain":0.0,"pressure":999.4,"uv_index":8.0,"wind_gusts":57.2,"aqi":83,"pm10":54.2,"pm2_5":24.7,"no2":1.3,"co":122.0,"o3":100.0,"so2":4.3,"mosquito_risk":0,"arthritis_risk":5,"migraine_risk":10,"frizz_risk":1,"updated_at":"2026-06-12T14:29:34.558804+05:30"},{"city":"Rajkot","state":"Gujarat","latitude":22.3039,"longitude":70.8022,"temp":39.9,"humidity":35,"rain":0.0,"pressure":989.0,"uv_index":7.6,"wind_gusts":52.9,"aqi":65,"pm10":60.8,"pm2_5":21.0,"no2":0.9,"co":105.0,"o3":88.0,"so2":4.0,"mosquito_risk":0,"arthritis_risk":5,"migraine_risk":10,"frizz_risk":1,"updated_at":"2026-06-12T14:29:34.558812+05:30"},{"city":"Thane","state":"Maharashtra","latitude":19.2183,"longitude":72.9781,"temp":35.5,"humidity":45,"rain":0.0,"pressure":1005.7,"uv_index":7.7,"wind_gusts":43.9,"aqi":83,"pm10":64.5,"pm2_5":27.8,"no2":3.3,"co":136.0,"o3":84.0,"so2":5.1,"mosquito_risk":0,"arthritis_risk":5,"migraine_risk":7,"frizz_risk":1,"updated_at":"2026-06-12T14:29:34.558819+05:30"},{"city":"Nagpur","state":"Maharashtra","latitude":21.1458,"longitude":79.0882,"temp":40.5,"humidity":31,"rain":0.0,"pressure":968.9,"uv_index":8.9,"wind_gusts":53.6,"aqi":93,"pm10":65.4,"pm2_5":33.1,"no2":3.4,"co":148.0,"o3":145.0,"so2":16.9,"mosquito_risk":0,"arthritis_risk":5,"migraine_risk":10,"frizz_risk":1,"updated_at":"2026-06-12T14:29:34.558826+05:30"},{"city":"Nashik","state":"Maharashtra","latitude":19.9975,"longitude":73.7898,"temp":34.1,"humidity":43,"rain":0.0,"pressure":944.0,"uv_index":8.05,"wind_gusts":52.9,"aqi":68,"pm10":69.4,"pm2_5":24.3,"no2":0.7,"co":113.0,"o3":82.0,"so2":1.5,"mosquito_risk":0,"arthritis_risk":5,"migraine_risk":7,"frizz_risk":1,"updated_at":"2026-06-12T14:29:34.558833+05:30"},{"city":"Aurangabad","state":"Maharashtra","latitude":19.8762,"longitude":75.3433,"temp":38.4,"humidity":28,"rain":0.0,"pressure":941.8,"uv_index":8.95,"wind_gusts":50.8,"aqi":71,"pm10":65.0,"pm2_5":24.6,"no2":1.0,"co":125.0,"o3":113.0,"so2":5.4,"mosquito_risk":0,"arthritis_risk":5,"migraine_risk":10,"frizz_risk":1,"updated_at":"2026-06-12T14:29:34.558840+05:30"},{"city":"Solapur","state":"Maharashtra","latitude":17.6599,"longitude":75.9064,"temp":37.2,"humidity":34,"rain":0.0,"pressure":955.4,"uv_index":8.85,"wind_gusts":49.3,"aqi":64,"pm10":55.6,"pm2_5":20.1,"no2":1.0,"co":122.0,"o3":103.0,"so2":1.8,"mosquito_risk":0,"arthritis_risk":5,"migraine_risk":10,"frizz_risk":1,"updated_at":"2026-06-12T14:29:34.558847+05:30"},{"city":"Kolhapur","state":"Maharashtra","latitude":16.705,"longitude":74.2433,"temp":30.5,"humidity":61,"rain":0.1,"pressure":947.3,"uv_index":8.35,"wind_gusts":49.7,"aqi":60,"pm10":41.4,"pm2_5":16.0,"no2":1.3,"co":120.0,"o3":83.0,"so2":1.6,"mosquito_risk":6,"arthritis_risk":5,"migraine_risk":7,"frizz_risk":1,"updated_at":"2026-06-12T14:29:34.558854+05:30"},{"city":"Goa","state":"Goa","latitude":15.2993,"longitude":74.124,"temp":33.1,"humidity":59,"rain":0.0,"pressure":997.4,"uv_index":8.3,"wind_gusts":32.4,"aqi":67,"pm10":35.5,"pm2_5":15.3,"no2":0.5,"co":110.0,"o3":62.0,"so2":1.0,"mosquito_risk":0,"arthritis_risk":5,"migraine_risk":7,"frizz_risk":1,"updated_at":"2026-06-12T14:29:34.558861+05:30"},{"city":"Jodhpur","state":"Rajasthan","latitude":26.2389,"longitude":73.0243,"temp":38.6,"humidity":37,"rain":0.0,"pressure":976.3,"uv_index":8.45,"wind_gusts":49.7,"aqi":151,"pm10":353.9,"pm2_5":63.1,"no2":0.7,"co":111.0,"o3":94.0,"so2":2.5,"mosquito_risk":0,"arthritis_risk":5,"migraine_risk":10,"frizz_risk":1,"updated_at":"2026-06-12T14:29:34.558868+05:30"},{"city":"Udaipur","state":"Rajasthan","latitude":24.5854,"longitude":73.7125,"temp":35.6,"humidity":41,"rain":0.0,"pressure":942.5,"uv_index":8.8,"wind_gusts":48.6,"aqi":78,"pm10":52.7,"pm2_5":21.8,"no2":0.6,"co":116.0,"o3":98.0,"so2":4.0,"mosquito_risk":0,"arthritis_risk":5,"migraine_risk":10,"frizz_risk":1,"updated_at":"2026-06-12T14:29:34.558874+05:30"},{"city":"Kota","state":"Rajasthan","latitude":25.2138,"longitude":75.8648,"temp":39.2,"humidity":38,"rain":0.0,"pressure":972.6,"uv_index":8.4,"wind_gusts":61.6,"aqi":92,"pm10":91.5,"pm2_5":36.1,"no2":1.0,"co":144.0,"o3":115.0,"so2":7.6,"mosquito_risk":0,"arthritis_risk":5,"migraine_risk":10,"frizz_risk":1,"updated_at":"2026-06-12T14:29:34.558881+05:30"},{"city":"Bikaner","state":"Rajasthan","latitude":28.0229,"longitude":73.3119,"temp":41.9,"humidity":27,"rain":0.0,"pressure":974.2,"uv_index":8.45,"wind_gusts":67.0,"aqi":156,"pm10":180.2,"pm2_5":58.1,"no2":0.4,"co":124.0,"o3":103.0,"so2":3.4,"mosquito_risk":0,"arthritis_risk":5,"migraine_risk":10,"frizz_risk":1,"updated_at":"2026-06-12T14:29:34.558888+05:30"},{"city":"Ajmer","state":"Rajasthan","latitude":26.4499,"longitude":74.6399,"temp":37.3,"humidity":34,"rain":0.0,"pressure":949.9,"uv_index":8.35,"wind_gusts":69.5,"aqi":88,"pm10":113.9,"pm2_5":35.2,"no2":0.7,"co":120.0,"o3":113.0,"so2":4.2,"mosquito_risk":0,"arthritis_risk":5,"migraine_risk":10,"frizz_risk":1,"updated_at":"2026-06-12T14:29:34.558895+05:30"},{"city":"Gwalior","state":"Madhya Pradesh","latitude":26.2183,"longitude":78.1828,"temp":36.7,"humidity":43,"rain":0.0,"pressure":978.5,"uv_index":8.3,"wind_gusts":39.2,"aqi":123,"pm10":52.3,"pm2_5":31.2,"no2":0.9,"co":178.0,"o3":148.0,"so2":7.2,"mosquito_risk":0,"arthritis_risk":5,"migraine_risk":10,"frizz_risk":1,"updated_at":"2026-06-12T14:29:34.558902+05:30"},{"city":"Indore","state":"Madhya Pradesh","latitude":22.7196,"longitude":75.8577,"temp":37.6,"humidity":35,"rain":0.0,"pressure":944.8,"uv_index":8.65,"wind_gusts":47.9,"aqi":85,"pm10":64.3,"pm2_5":27.3,"no2":0.9,"co":147.0,"o3":103.0,"so2":3.9,"mosquito_risk":0,"arthritis_risk":5,"migraine_risk":10,"frizz_risk":1,"updated_at":"2026-06-12T14:29:34.558908+05:30"},{"city":"Bhopal","state":"Madhya Pradesh","latitude":23.2599,"longitude":77.4126,"temp":38.3,"humidity":35,"rain":0.0,"pressure":949.4,"uv_index":8.7,"wind_gusts":44.3,"aqi":84,"pm10":65.4,"pm2_5":29.6,"no2":0.7,"co":147.0,"o3":100.0,"so2":2.8,"mosquito_risk":0,"arthritis_risk":5,"migraine_risk":10,"frizz_risk":1,"updated_at":"2026-06-12T14:29:34.558915+05:30"},{"city":"Jabalpur","state":"Madhya Pradesh","latitude":23.1815,"longitude":79.9864,"temp":36.9,"humidity":35,"rain":0.0,"pressure":957.2,"uv_index":8.9,"wind_gusts":41.0,"aqi":78,"pm10":60.8,"pm2_5":28.5,"no2":0.8,"co":158.0,"o3":121.0,"so2":3.7,"mosquito_risk":0,"arthritis_risk":5,"migraine_risk":10,"frizz_risk":1,"updated_at":"2026-06-12T14:29:34.558921+05:30"},{"city":"Ujjain","state":"Madhya Pradesh","latitude":23.1765,"longitude":75.7885,"temp":37.7,"humidity":36,"rain":0.0,"pressure":950.0,"uv_index":8.6,"wind_gusts":46.8,"aqi":87,"pm10":90.1,"pm2_5":31.5,"no2":0.6,"co":143.0,"o3":101.0,"so2":4.4,"mosquito_risk":0,"arthritis_risk":5,"migraine_risk":10,"frizz_risk":1,"updated_at":"2026-06-12T14:29:34.558928+05:30"},{"city":"Visakhapatnam","state":"Andhra Pradesh","latitude":17.6868,"longitude":83.2185,"temp":34.9,"humidity":62,"rain":0.0,"pressure":999.0,"uv_index":8.9,"wind_gusts":41.0,"aqi":116,"pm10":47.8,"pm2_5":34.6,"no2":5.7,"co":367.0,"o3":165.0,"so2":28.0,"mosquito_risk":3,"arthritis_risk":5,"migraine_risk":7,"frizz_risk":1,"updated_at":"2026-06-12T14:29:34.558935+05:30"},{"city":"Vijayawada","state":"Andhra Pradesh","latitude":16.5062,"longitude":80.648,"temp":34.5,"humidity":51,"rain":0.0,"pressure":999.4,"uv_index":8.45,"wind_gusts":32.8,"aqi":88,"pm10":44.8,"pm2_5":28.8,"no2":1.3,"co":169.0,"o3":140.0,"so2":5.7,"mosquito_risk":0,"arthritis_risk":5,"migraine_risk":7,"frizz_risk":1,"updated_at":"2026-06-12T14:29:34.558942+05:30"},{"city":"Guntur","state":"Andhra Pradesh","latitude":16.3067,"longitude":80.4365,"temp":33.3,"humidity":57,"rain":0.0,"pressure":1000.7,"uv_index":8.35,"wind_gusts":34.2,"aqi":91,"pm10":41.0,"pm2_5":25.3,"no2":1.1,"co":162.0,"o3":128.0,"so2":4.6,"mosquito_risk":0,"arthritis_risk":5,"migraine_risk":4,"frizz_risk":1,"updated_at":"2026-06-12T14:29:34.558949+05:30"},{"city":"Nellore","state":"Andhra Pradesh","latitude":14.4426,"longitude":79.9865,"temp":38.0,"humidity":36,"rain":0.0,"pressure":1002.5,"uv_index":8.5,"wind_gusts":34.2,"aqi":75,"pm10":42.1,"pm2_5":24.5,"no2":2.2,"co":129.0,"o3":127.0,"so2":4.9,"mosquito_risk":0,"arthritis_risk":5,"migraine_risk":7,"frizz_risk":1,"updated_at":"2026-06-12T14:29:34.558957+05:30"},{"city":"Kurnool","state":"Andhra Pradesh","latitude":15.8281,"longitude":78.0373,"temp":36.7,"humidity":38,"rain":0.0,"pressure":974.8,"uv_index":8.45,"wind_gusts":46.8,"aqi":70,"pm10":42.1,"pm2_5":21.2,"no2":1.1,"co":129.0,"o3":110.0,"so2":4.4,"mosquito_risk":0,"arthritis_risk":5,"migraine_risk":10,"frizz_risk":1,"updated_at":"2026-06-12T14:29:34.558964+05:30"},{"city":"Kakinada","state":"Andhra Pradesh","latitude":16.9891,"longitude":82.2475,"temp":36.0,"humidity":50,"rain":0.0,"pressure":1003.1,"uv_index":8.05,"wind_gusts":38.9,"aqi":81,"pm10":46.2,"pm2_5":30.3,"no2":1.7,"co":219.0,"o3":135.0,"so2":4.0,"mosquito_risk":0,"arthritis_risk":5,"migraine_risk":7,"frizz_risk":1,"updated_at":"2026-06-12T14:29:34.558971+05:30"},{"city":"Tirupati","state":"Andhra Pradesh","latitude":13.6288,"longitude":79.4192,"temp":29.2,"humidity":72,"rain":0.0,"pressure":988.7,"uv_index":4.55,"wind_gusts":47.5,"aqi":72,"pm10":35.5,"pm2_5":17.5,"no2":0.1,"co":126.0,"o3":106.0,"so2":1.3,"mosquito_risk":7,"arthritis_risk":5,"migraine_risk":3,"frizz_risk":1,"updated_at":"2026-06-12T14:29:34.558978+05:30"},{"city":"Warangal","state":"Telangana","latitude":17.9689,"longitude":79.5941,"temp":37.1,"humidity":40,"rain":0.0,"pressure":975.5,"uv_index":9.0,"wind_gusts":36.0,"aqi":95,"pm10":59.4,"pm2_5":33.8,"no2":1.1,"co":162.0,"o3":135.0,"so2":5.7,"mosquito_risk":0,"arthritis_risk":5,"migraine_risk":10,"frizz_risk":1,"updated_at":"2026-06-12T14:29:34.558985+05:30"},{"city":"Nizamabad","state":"Telangana","latitude":18.6725,"longitude":78.0941,"temp":38.2,"humidity":31,"rain":0.0,"pressure":962.4,"uv_index":9.0,"wind_gusts":37.1,"aqi":84,"pm10":61.7,"pm2_5":27.8,"no2":0.9,"co":138.0,"o3":115.0,"so2":4.7,"mosquito_risk":0,"arthritis_risk":5,"migraine_risk":10,"frizz_risk":1,"updated_at":"2026-06-12T14:29:34.558991+05:30"},{"city":"Mysore","state":"Karnataka","latitude":12.2958,"longitude":76.6396,"temp":28.6,"humidity":63,"rain":0.1,"pressure":929.0,"uv_index":9.0,"wind_gusts":42.1,"aqi":39,"pm10":12.5,"pm2_5":6.2,"no2":1.6,"co":124.0,"o3":79.0,"so2":1.2,"mosquito_risk":10,"arthritis_risk":5,"migraine_risk":7,"frizz_risk":1,"updated_at":"2026-06-12T14:29:34.558998+05:30"},{"city":"Mangalore","state":"Karnataka","latitude":12.9141,"longitude":74.856,"temp":28.5,"humidity":78,"rain":0.0,"pressure":1007.8,"uv_index":8.7,"wind_gusts":38.5,"aqi":48,"pm10":15.6,"pm2_5":7.5,"no2":1.0,"co":106.0,"o3":70.0,"so2":1.2,"mosquito_risk":7,"arthritis_risk":5,"migraine_risk":4,"frizz_risk":1,"updated_at":"2026-06-12T14:29:34.559005+05:30"},{"city":"Hubli-Dharwad","state":"Karnataka","latitude":15.3647,"longitude":75.124,"temp":31.9,"humidity":51,"rain":0.0,"pressure":940.3,"uv_index":8.85,"wind_gusts":47.9,"aqi":39,"pm10":14.8,"pm2_5":6.8,"no2":1.0,"co":114.0,"o3":74.0,"so2":1.0,"mosquito_risk":0,"arthritis_risk":5,"migraine_risk":7,"frizz_risk":1,"updated_at":"2026-06-12T14:29:34.559011+05:30"},{"city":"Belgaum","state":"Karnataka","latitude":15.8497,"longitude":74.4977,"temp":29.0,"humidity":60,"rain":0.1,"pressure":925.8,"uv_index":8.7,"wind_gusts":47.5,"aqi":58,"pm10":38.0,"pm2_5":15.5,"no2":1.1,"co":112.0,"o3":76.0,"so2":1.5,"mosquito_risk":7,"arthritis_risk":5,"migraine_risk":7,"frizz_risk":1,"updated_at":"2026-06-12T14:29:37.826309+05:30"},{"city":"Coimbatore","state":"Tamil Nadu","latitude":11.0168,"longitude":76.9558,"temp":28.8,"humidity":60,"rain":0.0,"pressure":961.9,"uv_index":7.3,"wind_gusts":47.2,"aqi":34,"pm10":5.0,"pm2_5":3.1,"no2":2.2,"co":137.0,"o3":70.0,"so2":1.5,"mosquito_risk":4,"arthritis_risk":5,"migraine_risk":7,"frizz_risk":1,"updated_at":"2026-06-12T14:29:37.826342+05:30"},{"city":"Madurai","state":"Tamil Nadu","latitude":9.9252,"longitude":78.1198,"temp":34.7,"humidity":37,"rain":0.0,"pressure":991.5,"uv_index":7.05,"wind_gusts":52.9,"aqi":49,"pm10":12.1,"pm2_5":6.7,"no2":1.5,"co":119.0,"o3":99.0,"so2":1.6,"mosquito_risk":0,"arthritis_risk":5,"migraine_risk":7,"frizz_risk":1,"updated_at":"2026-06-12T14:29:37.826360+05:30"},{"city":"Trichy","state":"Tamil Nadu","latitude":10.7905,"longitude":78.7047,"temp":34.3,"humidity":43,"rain":0.1,"pressure":998.3,"uv_index":5.85,"wind_gusts":59.4,"aqi":44,"pm10":13.8,"pm2_5":7.3,"no2":1.0,"co":120.0,"o3":92.0,"so2":1.6,"mosquito_risk":3,"arthritis_risk":5,"migraine_risk":3,"frizz_risk":1,"updated_at":"2026-06-12T14:29:37.826370+05:30"},{"city":"Salem","state":"Tamil Nadu","latitude":11.6643,"longitude":78.146,"temp":28.8,"humidity":75,"rain":0.0,"pressure":976.5,"uv_index":8.1,"wind_gusts":40.7,"aqi":62,"pm10":30.0,"pm2_5":15.7,"no2":2.3,"co":169.0,"o3":105.0,"so2":6.0,"mosquito_risk":7,"arthritis_risk":5,"migraine_risk":7,"frizz_risk":1,"updated_at":"2026-06-12T14:29:37.826379+05:30"},{"city":"Tirunelveli","state":"Tamil Nadu","latitude":8.7139,"longitude":77.7567,"temp":34.6,"humidity":46,"rain":0.0,"pressure":1003.1,"uv_index":8.35,"wind_gusts":37.8,"aqi":25,"pm10":5.8,"pm2_5":3.2,"no2":1.3,"co":100.0,"o3":69.0,"so2":0.9,"mosquito_risk":0,"arthritis_risk":5,"migraine_risk":4,"frizz_risk":1,"updated_at":"2026-06-12T14:29:37.826387+05:30"},{"city":"Vellore","state":"Tamil Nadu","latitude":12.9165,"longitude":79.1325,"temp":29.0,"humidity":74,"rain":0.1,"pressure":983.1,"uv_index":6.5,"wind_gusts":36.7,"aqi":78,"pm10":28.1,"pm2_5":16.8,"no2":1.6,"co":140.0,"o3":110.0,"so2":3.2,"mosquito_risk":10,"arthritis_risk":5,"migraine_risk":7,"frizz_risk":1,"updated_at":"2026-06-12T14:29:37.826396+05:30"},{"city":"Erode","state":"Tamil Nadu","latitude":11.341,"longitude":77.7172,"temp":34.1,"humidity":45,"rain":0.0,"pressure":988.1,"uv_index":8.0,"wind_gusts":42.5,"aqi":51,"pm10":11.6,"pm2_5":6.4,"no2":1.8,"co":157.0,"o3":88.0,"so2":1.8,"mosquito_risk":0,"arthritis_risk":5,"migraine_risk":7,"frizz_risk":1,"updated_at":"2026-06-12T14:29:37.826404+05:30"},{"city":"Kochi","state":"Kerala","latitude":9.9312,"longitude":76.2673,"temp":28.0,"humidity":75,"rain":0.1,"pressure":1010.2,"uv_index":3.85,"wind_gusts":27.4,"aqi":45,"pm10":9.3,"pm2_5":5.3,"no2":2.4,"co":120.0,"o3":64.0,"so2":2.1,"mosquito_risk":10,"arthritis_risk":0,"migraine_risk":0,"frizz_risk":1,"updated_at":"2026-06-12T14:29:37.826412+05:30"},{"city":"Thiruvananthapuram","state":"Kerala","latitude":8.5241,"longitude":76.9366,"temp":26.1,"humidity":90,"rain":0.1,"pressure":1009.9,"uv_index":6.8,"wind_gusts":38.2,"aqi":25,"pm10":12.3,"pm2_5":6.2,"no2":1.2,"co":101.0,"o3":62.0,"so2":0.6,"mosquito_risk":10,"arthritis_risk":0,"migraine_risk":4,"frizz_risk":1,"updated_at":"2026-06-12T14:29:37.826420+05:30"},{"city":"Kozhikode","state":"Kerala","latitude":11.2588,"longitude":75.7804,"temp":26.0,"humidity":96,"rain":0.2,"pressure":1009.8,"uv_index":4.4,"wind_gusts":27.0,"aqi":29,"pm10":11.3,"pm2_5":4.8,"no2":0.8,"co":124.0,"o3":63.0,"so2":0.7,"mosquito_risk":10,"arthritis_risk":0,"migraine_risk":0,"frizz_risk":1,"updated_at":"2026-06-12T14:29:37.826428+05:30"},{"city":"Thrissur","state":"Kerala","latitude":10.5276,"longitude":76.2144,"temp":25.9,"humidity":93,"rain":0.3,"pressure":1008.7,"uv_index":3.95,"wind_gusts":21.6,"aqi":52,"pm10":7.4,"pm2_5":4.2,"no2":1.4,"co":167.0,"o3":63.0,"so2":1.3,"mosquito_risk":10,"arthritis_risk":0,"migraine_risk":0,"frizz_risk":1,"updated_at":"2026-06-12T14:29:37.826437+05:30"},{"city":"Kannur","state":"Kerala","latitude":11.8745,"longitude":75.3704,"temp":26.5,"humidity":93,"rain":0.1,"pressure":1008.9,"uv_index":3.85,"wind_gusts":27.4,"aqi":38,"pm10":15.2,"pm2_5":6.6,"no2":1.4,"co":99.0,"o3":62.0,"so2":0.9,"mosquito_risk":10,"arthritis_risk":0,"migraine_risk":0,"frizz_risk":1,"updated_at":"2026-06-12T14:29:37.826445+05:30"},{"city":"Patna","state":"Bihar","latitude":25.5941,"longitude":85.1376,"temp":34.5,"humidity":52,"rain":0.0,"pressure":996.8,"uv_index":8.85,"wind_gusts":34.2,"aqi":135,"pm10":96.6,"pm2_5":71.2,"no2":2.0,"co":365.0,"o3":208.0,"so2":17.7,"mosquito_risk":0,"arthritis_risk":5,"migraine_risk":7,"frizz_risk":1,"updated_at":"2026-06-12T14:29:37.826453+05:30"},{"city":"Gaya","state":"Bihar","latitude":24.7914,"longitude":85.0002,"temp":35.7,"humidity":46,"rain":0.0,"pressure":989.7,"uv_index":8.9,"wind_gusts":23.4,"aqi":153,"pm10":95.9,"pm2_5":71.0,"no2":1.7,"co":371.0,"o3":227.0,"so2":20.4,"mosquito_risk":0,"arthritis_risk":5,"migraine_risk":10,"frizz_risk":1,"updated_at":"2026-06-12T14:29:37.826461+05:30"},{"city":"Muzaffarpur","state":"Bihar","latitude":26.1209,"longitude":85.3647,"temp":32.9,"humidity":61,"rain":0.0,"pressure":997.3,"uv_index":8.85,"wind_gusts":36.0,"aqi":111,"pm10":91.0,"pm2_5":57.5,"no2":1.9,"co":330.0,"o3":191.0,"so2":15.6,"mosquito_risk":3,"arthritis_risk":5,"migraine_risk":7,"frizz_risk":1,"updated_at":"2026-06-12T14:29:37.826469+05:30"},{"city":"Bhagalpur","state":"Bihar","latitude":25.2425,"longitude":87.0117,"temp":34.6,"humidity":53,"rain":0.0,"pressure":997.5,"uv_index":8.8,"wind_gusts":27.4,"aqi":156,"pm10":99.2,"pm2_5":63.1,"no2":4.9,"co":310.0,"o3":179.0,"so2":18.1,"mosquito_risk":0,"arthritis_risk":5,"migraine_risk":7,"frizz_risk":1,"updated_at":"2026-06-12T14:29:37.826478+05:30"},{"city":"Ranchi","state":"Jharkhand","latitude":23.3441,"longitude":85.3096,"temp":31.8,"humidity":53,"rain":0.1,"pressure":935.3,"uv_index":9.3,"wind_gusts":36.0,"aqi":151,"pm10":75.7,"pm2_5":52.0,"no2":1.1,"co":231.0,"o3":174.0,"so2":14.8,"mosquito_risk":3,"arthritis_risk":5,"migraine_risk":7,"frizz_risk":1,"updated_at":"2026-06-12T14:29:37.826485+05:30"},{"city":"Jamshedpur","state":"Jharkhand","latitude":22.8046,"longitude":86.2029,"temp":33.7,"humidity":59,"rain":0.0,"pressure":987.1,"uv_index":9.1,"wind_gusts":40.3,"aqi":161,"pm10":91.3,"pm2_5":67.5,"no2":3.4,"co":326.0,"o3":221.0,"so2":26.4,"mosquito_risk":0,"arthritis_risk":5,"migraine_risk":7,"frizz_risk":1,"updated_at":"2026-06-12T14:29:37.826493+05:30"},{"city":"Dhanbad","state":"Jharkhand","latitude":23.7957,"longitude":86.4304,"temp":34.1,"humidity":52,"rain":0.0,"pressure":976.7,"uv_index":9.1,"wind_gusts":42.5,"aqi":173,"pm10":108.3,"pm2_5":83.1,"no2":11.3,"co":478.0,"o3":221.0,"so2":54.8,"mosquito_risk":0,"arthritis_risk":5,"migraine_risk":7,"frizz_risk":1,"updated_at":"2026-06-12T14:29:37.826501+05:30"},{"city":"Bokaro","state":"Jharkhand","latitude":23.6693,"longitude":86.1511,"temp":34.7,"humidity":52,"rain":0.0,"pressure":980.1,"uv_index":9.1,"wind_gusts":42.1,"aqi":172,"pm10":101.0,"pm2_5":78.2,"no2":10.0,"co":820.0,"o3":227.0,"so2":52.6,"mosquito_risk":0,"arthritis_risk":5,"migraine_risk":7,"frizz_risk":1,"updated_at":"2026-06-12T14:29:37.826508+05:30"},{"city":"Bhubaneswar","state":"Odisha","latitude":20.2961,"longitude":85.8245,"temp":34.9,"humidity":59,"rain":0.0,"pressure":998.2,"uv_index":8.45,"wind_gusts":29.9,"aqi":129,"pm10":65.9,"pm2_5":40.0,"no2":1.4,"co":233.0,"o3":161.0,"so2":7.7,"mosquito_risk":0,"arthritis_risk":5,"migraine_risk":7,"frizz_risk":1,"updated_at":"2026-06-12T14:29:37.826515+05:30"},{"city":"Cuttack","state":"Odisha","latitude":20.4625,"longitude":85.8828,"temp":34.2,"humidity":62,"rain":0.0,"pressure":999.9,"uv_index":8.75,"wind_gusts":28.8,"aqi":129,"pm10":65.9,"pm2_5":40.0,"no2":1.4,"co":249.0,"o3":161.0,"so2":7.7,"mosquito_risk":3,"arthritis_risk":5,"migraine_risk":7,"frizz_risk":1,"updated_at":"2026-06-12T14:29:37.826523+05:30"},{"city":"Rourkela","state":"Odisha","latitude":22.2604,"longitude":84.8536,"temp":35.7,"humidity":51,"rain":0.0,"pressure":980.9,"uv_index":9.05,"wind_gusts":37.4,"aqi":161,"pm10":70.3,"pm2_5":47.8,"no2":1.0,"co":244.0,"o3":177.0,"so2":12.4,"mosquito_risk":0,"arthritis_risk":5,"migraine_risk":10,"frizz_risk":1,"updated_at":"2026-06-12T14:29:37.826530+05:30"},{"city":"Raipur","state":"Chhattisgarh","latitude":21.2514,"longitude":81.6296,"temp":40.2,"humidity":28,"rain":0.0,"pressure":970.4,"uv_index":8.95,"wind_gusts":54.4,"aqi":126,"pm10":51.9,"pm2_5":36.0,"no2":4.3,"co":239.0,"o3":170.0,"so2":22.7,"mosquito_risk":0,"arthritis_risk":5,"migraine_risk":10,"frizz_risk":1,"updated_at":"2026-06-12T14:29:37.826538+05:30"},{"city":"Bhilai","state":"Chhattisgarh","latitude":21.1938,"longitude":81.3509,"temp":39.2,"humidity":30,"rain":0.0,"pressure":970.8,"uv_index":8.95,"wind_gusts":56.5,"aqi":123,"pm10":49.5,"pm2_5":35.4,"no2":4.8,"co":245.0,"o3":166.0,"so2":21.3,"mosquito_risk":0,"arthritis_risk":5,"migraine_risk":10,"frizz_risk":1,"updated_at":"2026-06-12T14:29:37.826546+05:30"},{"city":"Guwahati","state":"Assam","latitude":26.1158,"longitude":91.7086,"temp":30.4,"humidity":71,"rain":0.0,"pressure":997.6,"uv_index":8.55,"wind_gusts":20.5,"aqi":84,"pm10":42.3,"pm2_5":31.2,"no2":1.3,"co":309.0,"o3":131.0,"so2":2.2,"mosquito_risk":3,"arthritis_risk":5,"migraine_risk":7,"frizz_risk":1,"updated_at":"2026-06-12T14:29:37.826553+05:30"},{"city":"Agartala","state":"Tripura","latitude":23.8315,"longitude":91.2868,"temp":31.8,"humidity":66,"rain":0.0,"pressure":1002.6,"uv_index":7.55,"wind_gusts":30.2,"aqi":100,"pm10":41.4,"pm2_5":31.7,"no2":3.8,"co":210.0,"o3":224.0,"so2":8.4,"mosquito_risk":3,"arthritis_risk":5,"migraine_risk":4,"frizz_risk":1,"updated_at":"2026-06-12T14:29:37.826561+05:30"},{"city":"Shillong","state":"Meghalaya","latitude":25.5788,"longitude":91.8933,"temp":22.9,"humidity":84,"rain":0.0,"pressure":856.4,"uv_index":8.7,"wind_gusts":20.2,"aqi":71,"pm10":44.0,"pm2_5":27.7,"no2":1.7,"co":231.0,"o3":119.0,"so2":2.6,"mosquito_risk":3,"arthritis_risk":5,"migraine_risk":7,"frizz_risk":1,"updated_at":"2026-06-12T14:29:37.826569+05:30"},{"city":"Imphal","state":"Manipur","latitude":24.817,"longitude":93.9368,"temp":26.3,"humidity":80,"rain":0.1,"pressure":920.9,"uv_index":8.7,"wind_gusts":16.6,"aqi":61,"pm10":4.1,"pm2_5":3.9,"no2":2.1,"co":204.0,"o3":77.0,"so2":1.2,"mosquito_risk":10,"arthritis_risk":5,"migraine_risk":7,"frizz_risk":1,"updated_at":"2026-06-12T14:29:37.826577+05:30"},{"city":"Aizawl","state":"Mizoram","latitude":23.7271,"longitude":92.7176,"temp":24.3,"humidity":76,"rain":0.0,"pressure":890.6,"uv_index":5.15,"wind_gusts":21.6,"aqi":72,"pm10":15.6,"pm2_5":12.0,"no2":1.4,"co":179.0,"o3":88.0,"so2":0.7,"mosquito_risk":3,"arthritis_risk":5,"migraine_risk":3,"frizz_risk":1,"updated_at":"2026-06-12T14:29:37.826584+05:30"},{"city":"Kohima","state":"Nagaland","latitude":25.6701,"longitude":94.1077,"temp":21.7,"humidity":94,"rain":0.3,"pressure":854.1,"uv_index":2.2,"wind_gusts":18.0,"aqi":66,"pm10":13.3,"pm2_5":10.7,"no2":1.3,"co":200.0,"o3":92.0,"so2":0.7,"mosquito_risk":6,"arthritis_risk":5,"migraine_risk":3,"frizz_risk":1,"updated_at":"2026-06-12T14:29:37.826592+05:30"},{"city":"Gangtok","state":"Sikkim","latitude":27.3314,"longitude":88.6138,"temp":23.5,"humidity":59,"rain":0.0,"pressure":838.2,"uv_index":9.25,"wind_gusts":35.6,"aqi":76,"pm10":20.3,"pm2_5":11.5,"no2":0.9,"co":244.0,"o3":132.0,"so2":1.9,"mosquito_risk":0,"arthritis_risk":5,"migraine_risk":7,"frizz_risk":0,"updated_at":"2026-06-12T14:29:37.826600+05:30"},{"city":"Siliguri","state":"West Bengal","latitude":26.7271,"longitude":88.3953,"temp":32.7,"humidity":54,"rain":0.1,"pressure":989.7,"uv_index":8.7,"wind_gusts":28.8,"aqi":107,"pm10":52.4,"pm2_5":27.7,"no2":1.3,"co":343.0,"o3":149.0,"so2":3.6,"mosquito_risk":3,"arthritis_risk":5,"migraine_risk":7,"frizz_risk":1,"updated_at":"2026-06-12T14:29:41.202930+05:30"},{"city":"Durgapur","state":"West Bengal","latitude":23.5204,"longitude":87.3119,"temp":32.9,"humidity":59,"rain":0.0,"pressure":991.6,"uv_index":9.0,"wind_gusts":21.2,"aqi":169,"pm10":104.8,"pm2_5":76.4,"no2":10.5,"co":260.0,"o3":213.0,"so2":47.8,"mosquito_risk":0,"arthritis_risk":5,"migraine_risk":7,"frizz_risk":1,"updated_at":"2026-06-12T14:29:41.202966+05:30"},{"city":"Asansol","state":"West Bengal","latitude":23.6739,"longitude":86.9524,"temp":33.1,"humidity":54,"rain":0.0,"pressure":990.4,"uv_index":9.0,"wind_gusts":26.3,"aqi":167,"pm10":102.4,"pm2_5":73.6,"no2":9.6,"co":518.0,"o3":204.0,"so2":44.4,"mosquito_risk":0,"arthritis_risk":5,"migraine_risk":7,"frizz_risk":1,"updated_at":"2026-06-12T14:29:41.202980+05:30"},{"city":"Pondicherry","state":"Puducherry","latitude":11.9139,"longitude":79.8145,"temp":33.4,"humidity":52,"rain":0.1,"pressure":1006.4,"uv_index":7.6,"wind_gusts":41.4,"aqi":63,"pm10":40.2,"pm2_5":25.1,"no2":2.5,"co":168.0,"o3":152.0,"so2":8.2,"mosquito_risk":3,"arthritis_risk":5,"migraine_risk":4,"frizz_risk":1,"updated_at":"2026-06-12T14:29:41.202990+05:30"},{"city":"Port Blair","state":"Andaman and Nicobar Islands","latitude":11.6234,"longitude":92.7265,"temp":28.6,"humidity":82,"rain":0.0,"pressure":1007.8,"uv_index":8.3,"wind_gusts":41.8,"aqi":29,"pm10":8.7,"pm2_5":4.9,"no2":0.3,"co":93.0,"o3":47.0,"so2":0.3,"mosquito_risk":7,"arthritis_risk":5,"migraine_risk":4,"frizz_risk":1,"updated_at":"2026-06-12T14:29:41.203000+05:30"},{"city":"Haridwar","state":"Uttarakhand","latitude":29.9457,"longitude":78.1642,"temp":31.0,"humidity":54,"rain":0.0,"pressure":972.9,"uv_index":6.25,"wind_gusts":49.0,"aqi":151,"pm10":106.2,"pm2_5":37.6,"no2":1.7,"co":222.0,"o3":154.0,"so2":6.2,"mosquito_risk":0,"arthritis_risk":5,"migraine_risk":7,"frizz_risk":1,"updated_at":"2026-06-12T14:29:41.203009+05:30"},{"city":"Rishikesh","state":"Uttarakhand","latitude":30.0869,"longitude":78.2676,"temp":31.0,"humidity":50,"rain":0.0,"pressure":965.7,"uv_index":7.1,"wind_gusts":43.6,"aqi":128,"pm10":125.3,"pm2_5":38.9,"no2":1.1,"co":206.0,"o3":147.0,"so2":4.9,"mosquito_risk":0,"arthritis_risk":5,"migraine_risk":7,"frizz_risk":1,"updated_at":"2026-06-12T14:29:41.203018+05:30"},{"city":"Nainital","state":"Uttarakhand","latitude":29.3919,"longitude":79.4542,"temp":21.6,"humidity":55,"rain":0.0,"pressure":807.8,"uv_index":8.1,"wind_gusts":27.0,"aqi":100,"pm10":96.9,"pm2_5":29.7,"no2":0.8,"co":193.0,"o3":137.0,"so2":2.3,"mosquito_risk":0,"arthritis_risk":5,"migraine_risk":7,"frizz_risk":0,"updated_at":"2026-06-12T14:29:41.203027+05:30"},{"city":"Mussoorie","state":"Uttarakhand","latitude":30.4599,"longitude":78.0664,"temp":19.0,"humidity":66,"rain":0.1,"pressure":804.7,"uv_index":7.15,"wind_gusts":54.7,"aqi":121,"pm10":114.6,"pm2_5":36.2,"no2":1.2,"co":184.0,"o3":146.0,"so2":4.4,"mosquito_risk":6,"arthritis_risk":5,"migraine_risk":7,"frizz_risk":0,"updated_at":"2026-06-12T14:29:41.203036+05:30"},{"city":"Dharamshala","state":"Himachal Pradesh","latitude":32.219,"longitude":76.3234,"temp":22.6,"humidity":57,"rain":0.1,"pressure":869.6,"uv_index":8.5,"wind_gusts":41.8,"aqi":86,"pm10":33.8,"pm2_5":18.6,"no2":0.8,"co":197.0,"o3":160.0,"so2":2.5,"mosquito_risk":3,"arthritis_risk":5,"migraine_risk":7,"frizz_risk":0,"updated_at":"2026-06-12T14:29:41.203044+05:30"},{"city":"Dalhousie","state":"Himachal Pradesh","latitude":32.5387,"longitude":75.971,"temp":18.4,"humidity":74,"rain":0.0,"pressure":805.8,"uv_index":8.4,"wind_gusts":29.9,"aqi":99,"pm10":89.2,"pm2_5":41.1,"no2":2.1,"co":200.0,"o3":189.0,"so2":6.7,"mosquito_risk":3,"arthritis_risk":5,"migraine_risk":7,"frizz_risk":0,"updated_at":"2026-06-12T14:29:41.203054+05:30"},{"city":"Patiala","state":"Punjab","latitude":30.3398,"longitude":76.3869,"temp":34.0,"humidity":40,"rain":0.0,"pressure":976.2,"uv_index":7.7,"wind_gusts":61.6,"aqi":1169,"pm10":68.9,"pm2_5":29.9,"no2":1.7,"co":208.0,"o3":136.0,"so2":5.7,"mosquito_risk":0,"arthritis_risk":5,"migraine_risk":7,"frizz_risk":1,"updated_at":"2026-06-12T14:29:41.203062+05:30"},{"city":"Bhatinda","state":"Punjab","latitude":30.211,"longitude":74.9455,"temp":35.5,"humidity":39,"rain":0.0,"pressure":980.1,"uv_index":8.3,"wind_gusts":55.4,"aqi":928,"pm10":776.7,"pm2_5":138.3,"no2":2.3,"co":165.0,"o3":156.0,"so2":9.5,"mosquito_risk":0,"arthritis_risk":5,"migraine_risk":10,"frizz_risk":1,"updated_at":"2026-06-12T14:29:41.203071+05:30"},{"city":"Rohtak","state":"Haryana","latitude":28.8955,"longitude":76.6066,"temp":33.9,"humidity":49,"rain":0.0,"pressure":978.5,"uv_index":7.25,"wind_gusts":49.3,"aqi":1227,"pm10":241.2,"pm2_5":58.7,"no2":6.7,"co":321.0,"o3":156.0,"so2":15.5,"mosquito_risk":0,"arthritis_risk":5,"migraine_risk":7,"frizz_risk":1,"updated_at":"2026-06-12T14:29:41.203080+05:30"},{"city":"Panipat","state":"Haryana","latitude":29.3909,"longitude":76.9635,"temp":31.9,"humidity":51,"rain":0.0,"pressure":978.2,"uv_index":7.7,"wind_gusts":47.9,"aqi":1282,"pm10":107.6,"pm2_5":30.2,"no2":4.2,"co":234.0,"o3":137.0,"so2":9.9,"mosquito_risk":0,"arthritis_risk":5,"migraine_risk":7,"frizz_risk":1,"updated_at":"2026-06-12T14:29:41.203089+05:30"},{"city":"Mathura","state":"Uttar Pradesh","latitude":27.4924,"longitude":77.6737,"temp":35.0,"humidity":49,"rain":0.0,"pressure":983.1,"uv_index":8.1,"wind_gusts":45.4,"aqi":1414,"pm10":167.6,"pm2_5":47.8,"no2":2.1,"co":228.0,"o3":157.0,"so2":5.2,"mosquito_risk":0,"arthritis_risk":5,"migraine_risk":7,"frizz_risk":1,"updated_at":"2026-06-12T14:29:41.203098+05:30"},{"city":"Vrindavan","state":"Uttar Pradesh","latitude":27.5823,"longitude":77.7027,"temp":35.2,"humidity":48,"rain":0.0,"pressure":983.6,"uv_index":8.1,"wind_gusts":46.4,"aqi":1414,"pm10":167.6,"pm2_5":47.8,"no2":2.1,"co":231.0,"o3":157.0,"so2":5.2,"mosquito_risk":0,"arthritis_risk":5,"migraine_risk":10,"frizz_risk":1,"updated_at":"2026-06-12T14:29:41.203107+05:30"},{"city":"Ayodhya","state":"Uttar Pradesh","latitude":26.7922,"longitude":82.1998,"temp":33.6,"humidity":53,"rain":0.0,"pressure":992.5,"uv_index":8.35,"wind_gusts":35.3,"aqi":108,"pm10":96.6,"pm2_5":52.7,"no2":1.4,"co":333.0,"o3":189.0,"so2":13.0,"mosquito_risk":0,"arthritis_risk":5,"migraine_risk":7,"frizz_risk":1,"updated_at":"2026-06-12T14:29:41.203115+05:30"},{"city":"Ratlam","state":"Madhya Pradesh","latitude":23.3315,"longitude":75.0367,"temp":37.1,"humidity":37,"rain":0.0,"pressure":951.2,"uv_index":8.55,"wind_gusts":50.0,"aqi":87,"pm10":104.3,"pm2_5":34.0,"no2":0.6,"co":110.0,"o3":103.0,"so2":4.6,"mosquito_risk":0,"arthritis_risk":5,"migraine_risk":10,"frizz_risk":1,"updated_at":"2026-06-12T14:29:41.203125+05:30"},{"city":"Sagar","state":"Madhya Pradesh","latitude":23.8388,"longitude":78.7378,"temp":38.0,"humidity":35,"rain":0.0,"pressure":945.9,"uv_index":8.75,"wind_gusts":46.1,"aqi":79,"pm10":75.0,"pm2_5":32.2,"no2":0.5,"co":142.0,"o3":116.0,"so2":3.9,"mosquito_risk":0,"arthritis_risk":5,"migraine_risk":10,"frizz_risk":1,"updated_at":"2026-06-12T14:29:41.203134+05:30"},{"city":"Satna","state":"Madhya Pradesh","latitude":24.6005,"longitude":80.8322,"temp":35.8,"humidity":43,"rain":0.0,"pressure":967.5,"uv_index":8.85,"wind_gusts":50.8,"aqi":111,"pm10":56.1,"pm2_5":37.3,"no2":1.0,"co":144.0,"o3":163.0,"so2":10.7,"mosquito_risk":0,"arthritis_risk":5,"migraine_risk":10,"frizz_risk":1,"updated_at":"2026-06-12T14:29:41.203143+05:30"},{"city":"Akola","state":"Maharashtra","latitude":20.7002,"longitude":77.0082,"temp":40.4,"humidity":27,"rain":0.0,"pressure":971.3,"uv_index":8.8,"wind_gusts":40.7,"aqi":73,"pm10":63.1,"pm2_5":29.1,"no2":1.2,"co":123.0,"o3":118.0,"so2":6.9,"mosquito_risk":0,"arthritis_risk":5,"migraine_risk":10,"frizz_risk":1,"updated_at":"2026-06-12T14:29:41.203153+05:30"},{"city":"Amravati","state":"Maharashtra","latitude":20.9374,"longitude":77.7796,"temp":39.4,"humidity":30,"rain":0.0,"pressure":963.9,"uv_index":8.85,"wind_gusts":41.8,"aqi":76,"pm10":62.9,"pm2_5":29.7,"no2":1.4,"co":128.0,"o3":120.0,"so2":8.0,"mosquito_risk":0,"arthritis_risk":5,"migraine_risk":10,"frizz_risk":1,"updated_at":"2026-06-12T14:29:41.203161+05:30"},{"city":"Latur","state":"Maharashtra","latitude":18.4088,"longitude":76.5604,"temp":35.9,"humidity":35,"rain":0.0,"pressure":938.3,"uv_index":8.95,"wind_gusts":34.6,"aqi":68,"pm10":49.0,"pm2_5":19.9,"no2":0.8,"co":125.0,"o3":100.0,"so2":1.9,"mosquito_risk":0,"arthritis_risk":5,"migraine_risk":10,"frizz_risk":1,"updated_at":"2026-06-12T14:29:41.203169+05:30"},{"city":"Nanded","state":"Maharashtra","latitude":19.1383,"longitude":77.3091,"temp":39.0,"humidity":28,"rain":0.0,"pressure":965.8,"uv_index":8.9,"wind_gusts":38.5,"aqi":86,"pm10":63.1,"pm2_5":25.1,"no2":0.9,"co":137.0,"o3":106.0,"so2":2.7,"mosquito_risk":0,"arthritis_risk":5,"migraine_risk":10,"frizz_risk":1,"updated_at":"2026-06-12T14:29:41.203176+05:30"},{"city":"Gulbarga","state":"Karnataka","latitude":17.3297,"longitude":76.8343,"temp":35.8,"humidity":39,"rain":0.0,"pressure":957.0,"uv_index":8.5,"wind_gusts":39.6,"aqi":64,"pm10":50.9,"pm2_5":19.9,"no2":1.1,"co":128.0,"o3":105.0,"so2":2.2,"mosquito_risk":0,"arthritis_risk":5,"migraine_risk":10,"frizz_risk":1,"updated_at":"2026-06-12T14:29:41.203183+05:30"},{"city":"Bidar","state":"Karnataka","latitude":17.9104,"longitude":77.5199,"temp":35.1,"humidity":40,"rain":0.0,"pressure":934.5,"uv_index":9.0,"wind_gusts":39.2,"aqi":70,"pm10":49.8,"pm2_5":23.5,"no2":1.1,"co":137.0,"o3":110.0,"so2":2.0,"mosquito_risk":0,"arthritis_risk":5,"migraine_risk":10,"frizz_risk":1,"updated_at":"2026-06-12T14:29:41.203190+05:30"},{"city":"Hospet","state":"Karnataka","latitude":15.2689,"longitude":76.3909,"temp":34.1,"humidity":44,"rain":0.0,"pressure":954.5,"uv_index":8.95,"wind_gusts":55.1,"aqi":50,"pm10":20.4,"pm2_5":9.7,"no2":1.1,"co":123.0,"o3":92.0,"so2":1.8,"mosquito_risk":0,"arthritis_risk":5,"migraine_risk":7,"frizz_risk":1,"updated_at":"2026-06-12T14:29:41.203197+05:30"},{"city":"Tirupur","state":"Tamil Nadu","latitude":11.1085,"longitude":77.3411,"temp":31.8,"humidity":51,"rain":0.0,"pressure":974.8,"uv_index":7.15,"wind_gusts":50.0,"aqi":54,"pm10":10.0,"pm2_5":5.6,"no2":1.6,"co":137.0,"o3":85.0,"so2":2.1,"mosquito_risk":0,"arthritis_risk":5,"migraine_risk":7,"frizz_risk":1,"updated_at":"2026-06-12T14:29:41.203204+05:30"},{"city":"Alappuzha","state":"Kerala","latitude":9.4981,"longitude":76.3388,"temp":27.9,"humidity":75,"rain":0.0,"pressure":1010.2,"uv_index":4.2,"wind_gusts":31.0,"aqi":34,"pm10":13.1,"pm2_5":7.1,"no2":1.6,"co":96.0,"o3":70.0,"so2":1.4,"mosquito_risk":7,"arthritis_risk":0,"migraine_risk":0,"frizz_risk":1,"updated_at":"2026-06-12T14:29:41.203211+05:30"},{"city":"Munnar","state":"Kerala","latitude":10.0889,"longitude":77.0595,"temp":19.2,"humidity":80,"rain":0.0,"pressure":857.9,"uv_index":7.9,"wind_gusts":42.1,"aqi":25,"pm10":4.2,"pm2_5":2.5,"no2":0.9,"co":107.0,"o3":69.0,"so2":1.0,"mosquito_risk":3,"arthritis_risk":5,"migraine_risk":7,"frizz_risk":0,"updated_at":"2026-06-12T14:29:41.203238+05:30"},{"city":"Silchar","state":"Assam","latitude":24.8333,"longitude":92.7789,"temp":31.3,"humidity":71,"rain":0.0,"pressure":1000.8,"uv_index":8.8,"wind_gusts":20.9,"aqi":133,"pm10":39.0,"pm2_5":31.3,"no2":2.0,"co":234.0,"o3":141.0,"so2":4.5,"mosquito_risk":3,"arthritis_risk":5,"migraine_risk":4,"frizz_risk":1,"updated_at":"2026-06-12T14:29:41.203248+05:30"},{"city":"Dibrugarh","state":"Assam","latitude":27.4728,"longitude":94.912,"temp":31.0,"humidity":65,"rain":0.0,"pressure":991.9,"uv_index":8.25,"wind_gusts":25.6,"aqi":89,"pm10":17.5,"pm2_5":13.0,"no2":0.7,"co":186.0,"o3":120.0,"so2":1.1,"mosquito_risk":3,"arthritis_risk":5,"migraine_risk":7,"frizz_risk":1,"updated_at":"2026-06-12T14:29:41.203255+05:30"}]