[{"city":"Delhi","state":"Delhi","latitude":28.6139,"longitude":77.209,"temp":30.7,"humidity":30,"rain":0.0,"pressure":985.9,"uv_index":5.8,"wind_gusts":36.7,"aqi":304,"pm10":678.0,"pm2_5":97.3,"mosquito_risk":0,"arthritis_risk":5,"migraine_risk":3,"frizz_risk":0,"updated_at":"2026-03-03T16:13:18.984713+05:30"},{"city":"Mumbai","state":"Maharashtra","latitude":19.076,"longitude":72.8777,"temp":27.4,"humidity":74,"rain":0.0,"pressure":1008.5,"uv_index":7.35,"wind_gusts":25.9,"aqi":128,"pm10":51.7,"pm2_5":45.9,"mosquito_risk":7,"arthritis_risk":0,"migraine_risk":4,"frizz_risk":1,"updated_at":"2026-03-03T16:13:18.984753+05:30"},{"city":"Bangalore","state":"Karnataka","latitude":12.9716,"longitude":77.5946,"temp":31.5,"humidity":27,"rain":0.0,"pressure":912.4,"uv_index":9.1,"wind_gusts":36.0,"aqi":109,"pm10":30.6,"pm2_5":29.9,"mosquito_risk":0,"arthritis_risk":5,"migraine_risk":7,"frizz_risk":0,"updated_at":"2026-03-03T16:13:18.984768+05:30"},{"city":"Hyderabad","state":"Telangana","latitude":17.385,"longitude":78.4867,"temp":33.6,"humidity":31,"rain":0.0,"pressure":954.3,"uv_index":8.35,"wind_gusts":23.4,"aqi":138,"pm10":25.7,"pm2_5":24.9,"mosquito_risk":0,"arthritis_risk":5,"migraine_risk":7,"frizz_risk":0,"updated_at":"2026-03-03T16:13:18.984778+05:30"},{"city":"Chennai","state":"Tamil Nadu","latitude":13.0827,"longitude":80.2707,"temp":31.4,"humidity":43,"rain":0.0,"pressure":1008.6,"uv_index":8.8,"wind_gusts":30.2,"aqi":116,"pm10":36.8,"pm2_5":32.2,"mosquito_risk":0,"arthritis_risk":0,"migraine_risk":4,"frizz_risk":1,"updated_at":"2026-03-03T16:13:18.984787+05:30"},{"city":"Kolkata","state":"West Bengal","latitude":22.5726,"longitude":88.3639,"temp":30.9,"humidity":31,"rain":0.0,"pressure":1008.1,"uv_index":7.7,"wind_gusts":16.2,"aqi":178,"pm10":90.6,"pm2_5":43.5,"mosquito_risk":0,"arthritis_risk":0,"migraine_risk":4,"frizz_risk":0,"updated_at":"2026-03-03T16:13:18.984795+05:30"},{"city":"Pune","state":"Maharashtra","latitude":18.5204,"longitude":73.8567,"temp":36.6,"humidity":23,"rain":0.0,"pressure":949.0,"uv_index":7.9,"wind_gusts":32.8,"aqi":92,"pm10":20.6,"pm2_5":20.3,"mosquito_risk":0,"arthritis_risk":5,"migraine_risk":10,"frizz_risk":0,"updated_at":"2026-03-03T16:13:18.984807+05:30"},{"city":"Ahmedabad","state":"Gujarat","latitude":23.0225,"longitude":72.5714,"temp":37.0,"humidity":20,"rain":0.0,"pressure":1003.7,"uv_index":7.15,"wind_gusts":14.4,"aqi":100,"pm10":25.8,"pm2_5":16.2,"mosquito_risk":0,"arthritis_risk":5,"migraine_risk":7,"frizz_risk":0,"updated_at":"2026-03-03T16:13:18.984815+05:30"},{"city":"Jaipur","state":"Rajasthan","latitude":26.9124,"longitude":75.7873,"temp":34.5,"humidity":11,"rain":0.0,"pressure":963.4,"uv_index":6.6,"wind_gusts":29.9,"aqi":102,"pm10":117.3,"pm2_5":25.6,"mosquito_risk":0,"arthritis_risk":5,"migraine_risk":7,"frizz_risk":1,"updated_at":"2026-03-03T16:13:18.984823+05:30"},{"city":"Lucknow","state":"Uttar Pradesh","latitude":26.8467,"longitude":80.9462,"temp":31.0,"humidity":29,"rain":0.0,"pressure":996.2,"uv_index":6.3,"wind_gusts":35.6,"aqi":152,"pm10":136.9,"pm2_5":41.2,"mosquito_risk":0,"arthritis_risk":5,"migraine_risk":7,"frizz_risk":0,"updated_at":"2026-03-03T16:13:18.984831+05:30"},{"city":"Kanpur","state":"Uttar Pradesh","latitude":26.4499,"longitude":80.3319,"temp":31.5,"humidity":28,"rain":0.0,"pressure":994.6,"uv_index":6.3,"wind_gusts":28.4,"aqi":180,"pm10":295.2,"pm2_5":50.4,"mosquito_risk":0,"arthritis_risk":5,"migraine_risk":7,"frizz_risk":0,"updated_at":"2026-03-03T16:13:18.984838+05:30"},{"city":"Chandigarh","state":"Chandigarh","latitude":30.7333,"longitude":76.7794,"temp":28.5,"humidity":32,"rain":0.0,"pressure":971.3,"uv_index":5.7,"wind_gusts":33.5,"aqi":86,"pm10":29.6,"pm2_5":26.3,"mosquito_risk":4,"arthritis_risk":5,"migraine_risk":3,"frizz_risk":0,"updated_at":"2026-03-03T16:13:18.984845+05:30"},{"city":"Srinagar","state":"Jammu and Kashmir","latitude":34.0837,"longitude":74.7973,"temp":21.1,"humidity":16,"rain":0.0,"pressure":845.7,"uv_index":6.6,"wind_gusts":18.0,"aqi":140,"pm10":23.5,"pm2_5":16.9,"mosquito_risk":0,"arthritis_risk":5,"migraine_risk":7,"frizz_risk":1,"updated_at":"2026-03-03T16:13:18.984853+05:30"},{"city":"Jammu","state":"Jammu and Kashmir","latitude":32.7266,"longitude":74.857,"temp":28.8,"humidity":39,"rain":0.0,"pressure":975.2,"uv_index":6.3,"wind_gusts":20.9,"aqi":102,"pm10":27.6,"pm2_5":19.4,"mosquito_risk":4,"arthritis_risk":5,"migraine_risk":7,"frizz_risk":0,"updated_at":"2026-03-03T16:13:18.984860+05:30"},{"city":"Amritsar","state":"Punjab","latitude":31.634,"longitude":74.8723,"temp":29.9,"humidity":32,"rain":0.0,"pressure":983.7,"uv_index":6.25,"wind_gusts":25.9,"aqi":85,"pm10":21.2,"pm2_5":14.8,"mosquito_risk":4,"arthritis_risk":5,"migraine_risk":7,"frizz_risk":0,"updated_at":"2026-03-03T16:13:18.984867+05:30"},{"city":"Ludhiana","state":"Punjab","latitude":30.901,"longitude":75.8573,"temp":29.6,"humidity":33,"rain":0.0,"pressure":981.7,"uv_index":5.9,"wind_gusts":29.9,"aqi":136,"pm10":59.3,"pm2_5":33.2,"mosquito_risk":4,"arthritis_risk":5,"migraine_risk":3,"frizz_risk":0,"updated_at":"2026-03-03T16:13:18.984874+05:30"},{"city":"Jalandhar","state":"Punjab","latitude":31.326,"longitude":75.5762,"temp":29.4,"humidity":33,"rain":0.0,"pressure":982.8,"uv_index":6.1,"wind_gusts":25.9,"aqi":138,"pm10":49.9,"pm2_5":25.1,"mosquito_risk":4,"arthritis_risk":5,"migraine_risk":7,"frizz_risk":0,"updated_at":"2026-03-03T16:13:18.984883+05:30"},{"city":"Dehradun","state":"Uttarakhand","latitude":30.6284,"longitude":78.0322,"temp":19.9,"humidity":45,"rain":0.0,"pressure":832.3,"uv_index":6.05,"wind_gusts":31.0,"aqi":57,"pm10":16.8,"pm2_5":12.5,"mosquito_risk":0,"arthritis_risk":5,"migraine_risk":7,"frizz_risk":0,"updated_at":"2026-03-03T16:13:18.984889+05:30"},{"city":"Shimla","state":"Himachal Pradesh","latitude":31.1048,"longitude":77.1734,"temp":18.6,"humidity":45,"rain":0.0,"pressure":787.9,"uv_index":6.1,"wind_gusts":44.6,"aqi":70,"pm10":16.2,"pm2_5":10.2,"mosquito_risk":0,"arthritis_risk":5,"migraine_risk":7,"frizz_risk":0,"updated_at":"2026-03-03T16:13:18.984897+05:30"},{"city":"Manali","state":"Himachal Pradesh","latitude":32.2396,"longitude":77.1887,"temp":23.0,"humidity":27,"rain":0.0,"pressure":823.4,"uv_index":7.7,"wind_gusts":34.6,"aqi":66,"pm10":9.9,"pm2_5":6.4,"mosquito_risk":0,"arthritis_risk":5,"migraine_risk":7,"frizz_risk":0,"updated_at":"2026-03-03T16:13:18.984903+05:30"},{"city":"Gurgaon","state":"Haryana","latitude":28.4595,"longitude":77.0266,"temp":30.5,"humidity":30,"rain":0.0,"pressure":984.5,"uv_index":5.9,"wind_gusts":33.8,"aqi":1121,"pm10":1832.8,"pm2_5":189.5,"mosquito_risk":0,"arthritis_risk":5,"migraine_risk":3,"frizz_risk":0,"updated_at":"2026-03-03T16:13:18.984910+05:30"},{"city":"Noida","state":"Uttar Pradesh","latitude":28.5355,"longitude":77.391,"temp":31.1,"humidity":28,"rain":0.0,"pressure":987.4,"uv_index":5.85,"wind_gusts":36.4,"aqi":1121,"pm10":1832.8,"pm2_5":189.5,"mosquito_risk":0,"arthritis_risk":5,"migraine_risk":3,"frizz_risk":0,"updated_at":"2026-03-03T16:13:18.984918+05:30"},{"city":"Ghaziabad","state":"Uttar Pradesh","latitude":28.6692,"longitude":77.4538,"temp":30.2,"humidity":33,"rain":0.0,"pressure":985.4,"uv_index":5.8,"wind_gusts":36.0,"aqi":203,"pm10":529.0,"pm2_5":82.9,"mosquito_risk":0,"arthritis_risk":5,"migraine_risk":3,"frizz_risk":0,"updated_at":"2026-03-03T16:13:18.984925+05:30"},{"city":"Faridabad","state":"Haryana","latitude":28.4089,"longitude":77.3178,"temp":30.2,"humidity":31,"rain":0.0,"pressure":986.8,"uv_index":5.85,"wind_gusts":32.8,"aqi":1121,"pm10":1832.8,"pm2_5":189.5,"mosquito_risk":0,"arthritis_risk":5,"migraine_risk":3,"frizz_risk":0,"updated_at":"2026-03-03T16:13:18.984932+05:30"},{"city":"Meerut","state":"Uttar Pradesh","latitude":28.9845,"longitude":77.7064,"temp":30.3,"humidity":32,"rain":0.0,"pressure":983.9,"uv_index":5.65,"wind_gusts":41.4,"aqi":203,"pm10":529.0,"pm2_5":82.9,"mosquito_risk":0,"arthritis_risk":5,"migraine_risk":3,"frizz_risk":0,"updated_at":"2026-03-03T16:13:18.984941+05:30"},{"city":"Agra","state":"Uttar Pradesh","latitude":27.1767,"longitude":78.0081,"temp":33.0,"humidity":19,"rain":0.0,"pressure":990.9,"uv_index":6.15,"wind_gusts":30.6,"aqi":465,"pm10":633.3,"pm2_5":69.2,"mosquito_risk":0,"arthritis_risk":5,"migraine_risk":7,"frizz_risk":0,"updated_at":"2026-03-03T16:13:18.984948+05:30"},{"city":"Varanasi","state":"Uttar Pradesh","latitude":25.3176,"longitude":82.9739,"temp":30.0,"humidity":35,"rain":0.0,"pressure":1000.6,"uv_index":6.95,"wind_gusts":23.0,"aqi":99,"pm10":62.9,"pm2_5":31.9,"mosquito_risk":4,"arthritis_risk":5,"migraine_risk":4,"frizz_risk":0,"updated_at":"2026-03-03T16:13:18.984958+05:30"},{"city":"Prayagraj","state":"Uttar Pradesh","latitude":25.4358,"longitude":81.8463,"temp":30.6,"humidity":37,"rain":0.0,"pressure":999.0,"uv_index":6.8,"wind_gusts":23.0,"aqi":117,"pm10":58.4,"pm2_5":31.4,"mosquito_risk":0,"arthritis_risk":5,"migraine_risk":7,"frizz_risk":0,"updated_at":"2026-03-03T16:13:18.984968+05:30"},{"city":"Gorakhpur","state":"Uttar Pradesh","latitude":26.7606,"longitude":83.3732,"temp":28.8,"humidity":38,"rain":0.0,"pressure":1000.2,"uv_index":6.7,"wind_gusts":16.9,"aqi":149,"pm10":114.6,"pm2_5":45.5,"mosquito_risk":4,"arthritis_risk":5,"migraine_risk":4,"frizz_risk":0,"updated_at":"2026-03-03T16:13:18.984975+05:30"},{"city":"Bareilly","state":"Uttar Pradesh","latitude":28.367,"longitude":79.4304,"temp":29.2,"humidity":41,"rain":0.0,"pressure":989.2,"uv_index":6.0,"wind_gusts":28.8,"aqi":125,"pm10":79.4,"pm2_5":42.0,"mosquito_risk":4,"arthritis_risk":5,"migraine_risk":3,"frizz_risk":0,"updated_at":"2026-03-03T16:13:18.984982+05:30"},{"city":"Aligarh","state":"Uttar Pradesh","latitude":27.8974,"longitude":78.088,"temp":31.0,"humidity":27,"rain":0.0,"pressure":988.4,"uv_index":5.95,"wind_gusts":34.9,"aqi":617,"pm10":1102.7,"pm2_5":132.7,"mosquito_risk":0,"arthritis_risk":5,"migraine_risk":3,"frizz_risk":0,"updated_at":"2026-03-03T16:13:18.984989+05:30"},{"city":"Moradabad","state":"Uttar Pradesh","latitude":28.8386,"longitude":78.7733,"temp":30.0,"humidity":33,"rain":0.0,"pressure":985.7,"uv_index":5.8,"wind_gusts":28.8,"aqi":132,"pm10":77.3,"pm2_5":38.8,"mosquito_risk":4,"arthritis_risk":5,"migraine_risk":3,"frizz_risk":0,"updated_at":"2026-03-03T16:13:18.984995+05:30"},{"city":"Saharanpur","state":"Uttar Pradesh","latitude":29.9637,"longitude":77.546,"temp":29.1,"humidity":28,"rain":0.0,"pressure":977.4,"uv_index":5.45,"wind_gusts":43.2,"aqi":125,"pm10":128.1,"pm2_5":37.6,"mosquito_risk":4,"arthritis_risk":5,"migraine_risk":3,"frizz_risk":0,"updated_at":"2026-03-03T16:13:18.985002+05:30"},{"city":"Jhansi","state":"Uttar Pradesh","latitude":25.4484,"longitude":78.5685,"temp":33.9,"humidity":22,"rain":0.0,"pressure":981.0,"uv_index":6.75,"wind_gusts":26.6,"aqi":88,"pm10":54.7,"pm2_5":24.2,"mosquito_risk":0,"arthritis_risk":5,"migraine_risk":7,"frizz_risk":0,"updated_at":"2026-03-03T16:13:22.286042+05:30"},{"city":"Surat","state":"Gujarat","latitude":21.1702,"longitude":72.8311,"temp":32.0,"humidity":52,"rain":0.0,"pressure":1008.3,"uv_index":7.05,"wind_gusts":27.0,"aqi":161,"pm10":52.7,"pm2_5":49.0,"mosquito_risk":0,"arthritis_risk":0,"migraine_risk":4,"frizz_risk":1,"updated_at":"2026-03-03T16:13:22.286075+05:30"},{"city":"Vadodara","state":"Gujarat","latitude":22.3072,"longitude":73.1812,"temp":37.6,"humidity":22,"rain":0.0,"pressure":1005.5,"uv_index":7.15,"wind_gusts":13.3,"aqi":154,"pm10":27.1,"pm2_5":22.8,"mosquito_risk":0,"arthritis_risk":5,"migraine_risk":7,"frizz_risk":0,"updated_at":"2026-03-03T16:13:22.286090+05:30"},{"city":"Rajkot","state":"Gujarat","latitude":22.3039,"longitude":70.8022,"temp":36.3,"humidity":21,"rain":0.0,"pressure":995.9,"uv_index":7.0,"wind_gusts":17.6,"aqi":63,"pm10":16.6,"pm2_5":11.1,"mosquito_risk":0,"arthritis_risk":5,"migraine_risk":10,"frizz_risk":0,"updated_at":"2026-03-03T16:13:22.286103+05:30"},{"city":"Thane","state":"Maharashtra","latitude":19.2183,"longitude":72.9781,"temp":31.5,"humidity":48,"rain":0.0,"pressure":1008.4,"uv_index":7.35,"wind_gusts":36.7,"aqi":128,"pm10":51.7,"pm2_5":45.9,"mosquito_risk":0,"arthritis_risk":0,"migraine_risk":4,"frizz_risk":1,"updated_at":"2026-03-03T16:13:22.286113+05:30"},{"city":"Nagpur","state":"Maharashtra","latitude":21.1458,"longitude":79.0882,"temp":34.9,"humidity":22,"rain":0.0,"pressure":974.7,"uv_index":7.75,"wind_gusts":17.6,"aqi":69,"pm10":28.5,"pm2_5":20.4,"mosquito_risk":0,"arthritis_risk":5,"migraine_risk":7,"frizz_risk":0,"updated_at":"2026-03-03T16:13:22.286121+05:30"},{"city":"Nashik","state":"Maharashtra","latitude":19.9975,"longitude":73.7898,"temp":34.8,"humidity":23,"rain":0.0,"pressure":946.7,"uv_index":7.55,"wind_gusts":31.0,"aqi":91,"pm10":21.7,"pm2_5":20.9,"mosquito_risk":0,"arthritis_risk":5,"migraine_risk":7,"frizz_risk":0,"updated_at":"2026-03-03T16:13:22.286130+05:30"},{"city":"Aurangabad","state":"Maharashtra","latitude":19.8762,"longitude":75.3433,"temp":34.9,"humidity":25,"rain":0.0,"pressure":945.4,"uv_index":8.05,"wind_gusts":25.2,"aqi":105,"pm10":20.4,"pm2_5":19.3,"mosquito_risk":0,"arthritis_risk":5,"migraine_risk":7,"frizz_risk":0,"updated_at":"2026-03-03T16:13:22.286138+05:30"},{"city":"Solapur","state":"Maharashtra","latitude":17.6599,"longitude":75.9064,"temp":34.5,"humidity":30,"rain":0.0,"pressure":957.7,"uv_index":8.3,"wind_gusts":18.0,"aqi":118,"pm10":32.1,"pm2_5":31.5,"mosquito_risk":0,"arthritis_risk":5,"migraine_risk":7,"frizz_risk":0,"updated_at":"2026-03-03T16:13:22.286147+05:30"},{"city":"Kolhapur","state":"Maharashtra","latitude":16.705,"longitude":74.2433,"temp":34.4,"humidity":28,"rain":0.0,"pressure":948.0,"uv_index":8.4,"wind_gusts":39.2,"aqi":132,"pm10":49.7,"pm2_5":49.0,"mosquito_risk":0,"arthritis_risk":5,"migraine_risk":7,"frizz_risk":0,"updated_at":"2026-03-03T16:13:22.286156+05:30"},{"city":"Goa","state":"Goa","latitude":15.2993,"longitude":74.124,"temp":30.0,"humidity":68,"rain":0.0,"pressure":997.4,"uv_index":8.45,"wind_gusts":34.2,"aqi":75,"pm10":29.3,"pm2_5":23.5,"mosquito_risk":7,"arthritis_risk":5,"migraine_risk":7,"frizz_risk":1,"updated_at":"2026-03-03T16:13:22.286165+05:30"},{"city":"Jodhpur","state":"Rajasthan","latitude":26.2389,"longitude":73.0243,"temp":35.8,"humidity":19,"rain":0.0,"pressure":986.3,"uv_index":6.85,"wind_gusts":15.8,"aqi":72,"pm10":53.3,"pm2_5":15.4,"mosquito_risk":0,"arthritis_risk":5,"migraine_risk":10,"frizz_risk":0,"updated_at":"2026-03-03T16:13:22.286173+05:30"},{"city":"Udaipur","state":"Rajasthan","latitude":24.5854,"longitude":73.7125,"temp":33.4,"humidity":22,"rain":0.0,"pressure":949.8,"uv_index":7.45,"wind_gusts":18.4,"aqi":64,"pm10":32.0,"pm2_5":16.3,"mosquito_risk":0,"arthritis_risk":5,"migraine_risk":7,"frizz_risk":0,"updated_at":"2026-03-03T16:13:22.286182+05:30"},{"city":"Kota","state":"Rajasthan","latitude":25.2138,"longitude":75.8648,"temp":35.3,"humidity":19,"rain":0.0,"pressure":981.7,"uv_index":6.85,"wind_gusts":19.4,"aqi":87,"pm10":45.1,"pm2_5":20.0,"mosquito_risk":0,"arthritis_risk":5,"migraine_risk":10,"frizz_risk":0,"updated_at":"2026-03-03T16:13:22.286190+05:30"},{"city":"Bikaner","state":"Rajasthan","latitude":28.0229,"longitude":73.3119,"temp":34.2,"humidity":20,"rain":0.0,"pressure":985.7,"uv_index":6.55,"wind_gusts":21.6,"aqi":69,"pm10":43.2,"pm2_5":16.8,"mosquito_risk":0,"arthritis_risk":5,"migraine_risk":7,"frizz_risk":0,"updated_at":"2026-03-03T16:13:22.286198+05:30"},{"city":"Ajmer","state":"Rajasthan","latitude":26.4499,"longitude":74.6399,"temp":33.7,"humidity":13,"rain":0.0,"pressure":958.4,"uv_index":6.8,"wind_gusts":25.9,"aqi":76,"pm10":38.0,"pm2_5":15.5,"mosquito_risk":0,"arthritis_risk":5,"migraine_risk":7,"frizz_risk":0,"updated_at":"2026-03-03T16:13:22.286206+05:30"},{"city":"Gwalior","state":"Madhya Pradesh","latitude":26.2183,"longitude":78.1828,"temp":31.7,"humidity":32,"rain":0.0,"pressure":986.5,"uv_index":6.45,"wind_gusts":29.5,"aqi":127,"pm10":39.1,"pm2_5":20.3,"mosquito_risk":0,"arthritis_risk":5,"migraine_risk":7,"frizz_risk":0,"updated_at":"2026-03-03T16:13:22.286214+05:30"},{"city":"Indore","state":"Madhya Pradesh","latitude":22.7196,"longitude":75.8577,"temp":32.5,"humidity":27,"rain":0.0,"pressure":950.7,"uv_index":7.45,"wind_gusts":16.9,"aqi":90,"pm10":19.5,"pm2_5":15.7,"mosquito_risk":0,"arthritis_risk":5,"migraine_risk":7,"frizz_risk":0,"updated_at":"2026-03-03T16:13:22.286222+05:30"},{"city":"Bhopal","state":"Madhya Pradesh","latitude":23.2599,"longitude":77.4126,"temp":32.5,"humidity":28,"rain":0.0,"pressure":956.5,"uv_index":7.3,"wind_gusts":22.3,"aqi":78,"pm10":27.4,"pm2_5":17.8,"mosquito_risk":0,"arthritis_risk":5,"migraine_risk":7,"frizz_risk":0,"updated_at":"2026-03-03T16:13:22.286230+05:30"},{"city":"Jabalpur","state":"Madhya Pradesh","latitude":23.1815,"longitude":79.9864,"temp":32.3,"humidity":28,"rain":0.0,"pressure":964.2,"uv_index":7.4,"wind_gusts":17.6,"aqi":71,"pm10":27.9,"pm2_5":14.9,"mosquito_risk":0,"arthritis_risk":5,"migraine_risk":7,"frizz_risk":0,"updated_at":"2026-03-03T16:13:22.286238+05:30"},{"city":"Ujjain","state":"Madhya Pradesh","latitude":23.1765,"longitude":75.7885,"temp":32.5,"humidity":30,"rain":0.0,"pressure":956.6,"uv_index":7.3,"wind_gusts":15.5,"aqi":103,"pm10":22.9,"pm2_5":18.5,"mosquito_risk":0,"arthritis_risk":5,"migraine_risk":7,"frizz_risk":0,"updated_at":"2026-03-03T16:13:22.286247+05:30"},{"city":"Visakhapatnam","state":"Andhra Pradesh","latitude":17.6868,"longitude":83.2185,"temp":31.7,"humidity":43,"rain":0.0,"pressure":1004.7,"uv_index":8.35,"wind_gusts":34.2,"aqi":131,"pm10":53.2,"pm2_5":49.2,"mosquito_risk":0,"arthritis_risk":5,"migraine_risk":4,"frizz_risk":1,"updated_at":"2026-03-03T16:13:22.286255+05:30"},{"city":"Vijayawada","state":"Andhra Pradesh","latitude":16.5062,"longitude":80.648,"temp":35.1,"humidity":33,"rain":0.0,"pressure":1002.8,"uv_index":8.4,"wind_gusts":27.7,"aqi":138,"pm10":45.8,"pm2_5":44.1,"mosquito_risk":0,"arthritis_risk":5,"migraine_risk":7,"frizz_risk":1,"updated_at":"2026-03-03T16:13:22.286263+05:30"},{"city":"Guntur","state":"Andhra Pradesh","latitude":16.3067,"longitude":80.4365,"temp":35.5,"humidity":32,"rain":0.0,"pressure":1004.1,"uv_index":8.4,"wind_gusts":28.8,"aqi":129,"pm10":37.6,"pm2_5":36.0,"mosquito_risk":0,"arthritis_risk":5,"migraine_risk":7,"frizz_risk":1,"updated_at":"2026-03-03T16:13:22.286271+05:30"},{"city":"Nellore","state":"Andhra Pradesh","latitude":14.4426,"longitude":79.9865,"temp":33.8,"humidity":29,"rain":0.0,"pressure":1006.9,"uv_index":8.65,"wind_gusts":29.2,"aqi":112,"pm10":36.7,"pm2_5":32.8,"mosquito_risk":0,"arthritis_risk":5,"migraine_risk":4,"frizz_risk":0,"updated_at":"2026-03-03T16:13:22.286280+05:30"},{"city":"Kurnool","state":"Andhra Pradesh","latitude":15.8281,"longitude":78.0373,"temp":36.6,"humidity":24,"rain":0.0,"pressure":976.9,"uv_index":8.45,"wind_gusts":29.2,"aqi":119,"pm10":28.5,"pm2_5":27.4,"mosquito_risk":0,"arthritis_risk":5,"migraine_risk":10,"frizz_risk":0,"updated_at":"2026-03-03T16:13:22.286289+05:30"},{"city":"Kakinada","state":"Andhra Pradesh","latitude":16.9891,"longitude":82.2475,"temp":33.8,"humidity":37,"rain":0.0,"pressure":1007.8,"uv_index":8.35,"wind_gusts":34.9,"aqi":127,"pm10":43.9,"pm2_5":38.8,"mosquito_risk":0,"arthritis_risk":5,"migraine_risk":4,"frizz_risk":1,"updated_at":"2026-03-03T16:13:22.286297+05:30"},{"city":"Tirupati","state":"Andhra Pradesh","latitude":13.6288,"longitude":79.4192,"temp":34.4,"humidity":25,"rain":0.0,"pressure":992.1,"uv_index":8.75,"wind_gusts":37.1,"aqi":152,"pm10":38.1,"pm2_5":36.0,"mosquito_risk":0,"arthritis_risk":5,"migraine_risk":7,"frizz_risk":0,"updated_at":"2026-03-03T16:13:22.286305+05:30"},{"city":"Warangal","state":"Telangana","latitude":17.9689,"longitude":79.5941,"temp":34.9,"humidity":30,"rain":0.0,"pressure":979.6,"uv_index":8.2,"wind_gusts":14.0,"aqi":149,"pm10":22.9,"pm2_5":21.3,"mosquito_risk":0,"arthritis_risk":5,"migraine_risk":7,"frizz_risk":0,"updated_at":"2026-03-03T16:13:22.286313+05:30"},{"city":"Nizamabad","state":"Telangana","latitude":18.6725,"longitude":78.0941,"temp":34.7,"humidity":27,"rain":0.0,"pressure":965.9,"uv_index":8.1,"wind_gusts":24.5,"aqi":92,"pm10":19.5,"pm2_5":17.1,"mosquito_risk":0,"arthritis_risk":5,"migraine_risk":7,"frizz_risk":0,"updated_at":"2026-03-03T16:13:22.286322+05:30"},{"city":"Mysore","state":"Karnataka","latitude":12.2958,"longitude":76.6396,"temp":33.1,"humidity":24,"rain":0.0,"pressure":928.2,"uv_index":9.15,"wind_gusts":32.8,"aqi":133,"pm10":28.5,"pm2_5":27.7,"mosquito_risk":0,"arthritis_risk":5,"migraine_risk":7,"frizz_risk":0,"updated_at":"2026-03-03T16:13:22.286330+05:30"},{"city":"Mangalore","state":"Karnataka","latitude":12.9141,"longitude":74.856,"temp":28.4,"humidity":78,"rain":0.0,"pressure":1005.8,"uv_index":8.75,"wind_gusts":29.2,"aqi":72,"pm10":27.0,"pm2_5":21.7,"mosquito_risk":7,"arthritis_risk":5,"migraine_risk":4,"frizz_risk":1,"updated_at":"2026-03-03T16:13:22.286338+05:30"},{"city":"Hubli-Dharwad","state":"Karnataka","latitude":15.3647,"longitude":75.124,"temp":34.5,"humidity":28,"rain":0.0,"pressure":940.7,"uv_index":8.65,"wind_gusts":25.6,"aqi":92,"pm10":38.9,"pm2_5":38.1,"mosquito_risk":0,"arthritis_risk":5,"migraine_risk":7,"frizz_risk":0,"updated_at":"2026-03-03T16:13:22.286346+05:30"},{"city":"Belgaum","state":"Karnataka","latitude":15.8497,"longitude":74.4977,"temp":33.9,"humidity":28,"rain":0.0,"pressure":925.9,"uv_index":8.65,"wind_gusts":32.0,"aqi":136,"pm10":44.2,"pm2_5":43.4,"mosquito_risk":0,"arthritis_risk":5,"migraine_risk":7,"frizz_risk":0,"updated_at":"2026-03-03T16:13:25.591657+05:30"},{"city":"Coimbatore","state":"Tamil Nadu","latitude":11.0168,"longitude":76.9558,"temp":33.9,"humidity":25,"rain":0.0,"pressure":961.4,"uv_index":9.15,"wind_gusts":43.6,"aqi":125,"pm10":30.6,"pm2_5":29.7,"mosquito_risk":0,"arthritis_risk":5,"migraine_risk":7,"frizz_risk":0,"updated_at":"2026-03-03T16:13:25.591690+05:30"},{"city":"Madurai","state":"Tamil Nadu","latitude":9.9252,"longitude":78.1198,"temp":35.5,"humidity":26,"rain":0.0,"pressure":992.2,"uv_index":9.1,"wind_gusts":33.8,"aqi":114,"pm10":24.7,"pm2_5":23.1,"mosquito_risk":0,"arthritis_risk":5,"migraine_risk":10,"frizz_risk":0,"updated_at":"2026-03-03T16:13:25.591705+05:30"},{"city":"Trichy","state":"Tamil Nadu","latitude":10.7905,"longitude":78.7047,"temp":35.3,"humidity":25,"rain":0.0,"pressure":999.4,"uv_index":9.0,"wind_gusts":31.0,"aqi":115,"pm10":26.3,"pm2_5":24.3,"mosquito_risk":0,"arthritis_risk":5,"migraine_risk":10,"frizz_risk":0,"updated_at":"2026-03-03T16:13:25.591717+05:30"},{"city":"Salem","state":"Tamil Nadu","latitude":11.6643,"longitude":78.146,"temp":36.0,"humidity":23,"rain":0.0,"pressure":976.6,"uv_index":9.05,"wind_gusts":40.7,"aqi":136,"pm10":31.3,"pm2_5":30.3,"mosquito_risk":0,"arthritis_risk":5,"migraine_risk":10,"frizz_risk":0,"updated_at":"2026-03-03T16:13:25.591727+05:30"},{"city":"Tirunelveli","state":"Tamil Nadu","latitude":8.7139,"longitude":77.7567,"temp":35.9,"humidity":26,"rain":0.0,"pressure":1002.1,"uv_index":9.1,"wind_gusts":42.5,"aqi":105,"pm10":20.5,"pm2_5":19.2,"mosquito_risk":0,"arthritis_risk":5,"migraine_risk":7,"frizz_risk":0,"updated_at":"2026-03-03T16:13:25.591738+05:30"},{"city":"Vellore","state":"Tamil Nadu","latitude":12.9165,"longitude":79.1325,"temp":33.6,"humidity":27,"rain":0.0,"pressure":985.0,"uv_index":8.85,"wind_gusts":38.5,"aqi":150,"pm10":32.2,"pm2_5":30.2,"mosquito_risk":0,"arthritis_risk":5,"migraine_risk":7,"frizz_risk":0,"updated_at":"2026-03-03T16:13:25.591748+05:30"},{"city":"Erode","state":"Tamil Nadu","latitude":11.341,"longitude":77.7172,"temp":36.8,"humidity":24,"rain":0.0,"pressure":987.9,"uv_index":9.05,"wind_gusts":36.0,"aqi":118,"pm10":37.1,"pm2_5":36.0,"mosquito_risk":0,"arthritis_risk":5,"migraine_risk":10,"frizz_risk":0,"updated_at":"2026-03-03T16:13:25.591758+05:30"},{"city":"Kochi","state":"Kerala","latitude":9.9312,"longitude":76.2673,"temp":28.4,"humidity":78,"rain":0.0,"pressure":1007.3,"uv_index":8.95,"wind_gusts":33.1,"aqi":107,"pm10":35.4,"pm2_5":33.8,"mosquito_risk":7,"arthritis_risk":5,"migraine_risk":4,"frizz_risk":1,"updated_at":"2026-03-03T16:13:25.591770+05:30"},{"city":"Thiruvananthapuram","state":"Kerala","latitude":8.5241,"longitude":76.9366,"temp":28.2,"humidity":72,"rain":0.0,"pressure":1007.5,"uv_index":9.0,"wind_gusts":27.0,"aqi":115,"pm10":35.3,"pm2_5":33.1,"mosquito_risk":7,"arthritis_risk":5,"migraine_risk":4,"frizz_risk":1,"updated_at":"2026-03-03T16:13:25.591780+05:30"},{"city":"Kozhikode","state":"Kerala","latitude":11.2588,"longitude":75.7804,"temp":29.5,"humidity":75,"rain":0.0,"pressure":1007.0,"uv_index":8.85,"wind_gusts":36.4,"aqi":66,"pm10":23.8,"pm2_5":18.4,"mosquito_risk":7,"arthritis_risk":5,"migraine_risk":4,"frizz_risk":1,"updated_at":"2026-03-03T16:13:25.591790+05:30"},{"city":"Thrissur","state":"Kerala","latitude":10.5276,"longitude":76.2144,"temp":31.4,"humidity":64,"rain":0.0,"pressure":1005.6,"uv_index":8.95,"wind_gusts":38.9,"aqi":107,"pm10":32.5,"pm2_5":31.4,"mosquito_risk":3,"arthritis_risk":5,"migraine_risk":4,"frizz_risk":1,"updated_at":"2026-03-03T16:13:25.591802+05:30"},{"city":"Kannur","state":"Kerala","latitude":11.8745,"longitude":75.3704,"temp":30.3,"humidity":67,"rain":0.0,"pressure":1006.4,"uv_index":8.85,"wind_gusts":38.2,"aqi":62,"pm10":28.2,"pm2_5":23.4,"mosquito_risk":3,"arthritis_risk":5,"migraine_risk":4,"frizz_risk":1,"updated_at":"2026-03-03T16:13:25.591812+05:30"},{"city":"Patna","state":"Bihar","latitude":25.5941,"longitude":85.1376,"temp":29.6,"humidity":34,"rain":0.0,"pressure":1003.7,"uv_index":7.1,"wind_gusts":16.9,"aqi":145,"pm10":185.3,"pm2_5":53.1,"mosquito_risk":4,"arthritis_risk":5,"migraine_risk":4,"frizz_risk":0,"updated_at":"2026-03-03T16:13:25.591822+05:30"},{"city":"Gaya","state":"Bihar","latitude":24.7914,"longitude":85.0002,"temp":28.6,"humidity":38,"rain":0.0,"pressure":997.0,"uv_index":7.2,"wind_gusts":23.0,"aqi":96,"pm10":85.4,"pm2_5":29.7,"mosquito_risk":4,"arthritis_risk":5,"migraine_risk":7,"frizz_risk":0,"updated_at":"2026-03-03T16:13:25.591832+05:30"},{"city":"Muzaffarpur","state":"Bihar","latitude":26.1209,"longitude":85.3647,"temp":29.5,"humidity":33,"rain":0.0,"pressure":1003.7,"uv_index":7.05,"wind_gusts":10.4,"aqi":154,"pm10":153.2,"pm2_5":50.2,"mosquito_risk":4,"arthritis_risk":5,"migraine_risk":4,"frizz_risk":0,"updated_at":"2026-03-03T16:13:25.591842+05:30"},{"city":"Bhagalpur","state":"Bihar","latitude":25.2425,"longitude":87.0117,"temp":27.9,"humidity":38,"rain":0.0,"pressure":1004.6,"uv_index":7.15,"wind_gusts":13.0,"aqi":125,"pm10":68.7,"pm2_5":41.9,"mosquito_risk":4,"arthritis_risk":5,"migraine_risk":4,"frizz_risk":0,"updated_at":"2026-03-03T16:13:25.591852+05:30"},{"city":"Ranchi","state":"Jharkhand","latitude":23.3441,"longitude":85.3096,"temp":28.7,"humidity":23,"rain":0.0,"pressure":940.2,"uv_index":7.9,"wind_gusts":40.7,"aqi":84,"pm10":52.3,"pm2_5":20.8,"mosquito_risk":4,"arthritis_risk":5,"migraine_risk":7,"frizz_risk":0,"updated_at":"2026-03-03T16:13:25.591861+05:30"},{"city":"Jamshedpur","state":"Jharkhand","latitude":22.8046,"longitude":86.2029,"temp":32.5,"humidity":23,"rain":0.0,"pressure":992.6,"uv_index":7.8,"wind_gusts":14.4,"aqi":93,"pm10":79.6,"pm2_5":28.8,"mosquito_risk":0,"arthritis_risk":5,"migraine_risk":7,"frizz_risk":0,"updated_at":"2026-03-03T16:13:25.591871+05:30"},{"city":"Dhanbad","state":"Jharkhand","latitude":23.7957,"longitude":86.4304,"temp":33.0,"humidity":18,"rain":0.0,"pressure":981.8,"uv_index":7.65,"wind_gusts":27.7,"aqi":101,"pm10":80.8,"pm2_5":27.1,"mosquito_risk":0,"arthritis_risk":5,"migraine_risk":7,"frizz_risk":0,"updated_at":"2026-03-03T16:13:25.591881+05:30"},{"city":"Bokaro","state":"Jharkhand","latitude":23.6693,"longitude":86.1511,"temp":32.4,"humidity":17,"rain":0.0,"pressure":985.7,"uv_index":7.65,"wind_gusts":32.8,"aqi":104,"pm10":73.1,"pm2_5":26.0,"mosquito_risk":0,"arthritis_risk":5,"migraine_risk":7,"frizz_risk":0,"updated_at":"2026-03-03T16:13:25.591892+05:30"},{"city":"Bhubaneswar","state":"Odisha","latitude":20.2961,"longitude":85.8245,"temp":35.7,"humidity":14,"rain":0.0,"pressure":1003.7,"uv_index":8.1,"wind_gusts":26.6,"aqi":152,"pm10":45.9,"pm2_5":27.1,"mosquito_risk":0,"arthritis_risk":5,"migraine_risk":7,"frizz_risk":0,"updated_at":"2026-03-03T16:13:25.591902+05:30"},{"city":"Cuttack","state":"Odisha","latitude":20.4625,"longitude":85.8828,"temp":35.4,"humidity":18,"rain":0.0,"pressure":1005.7,"uv_index":8.1,"wind_gusts":26.3,"aqi":152,"pm10":45.9,"pm2_5":27.1,"mosquito_risk":0,"arthritis_risk":5,"migraine_risk":7,"frizz_risk":0,"updated_at":"2026-03-03T16:13:25.591912+05:30"},{"city":"Rourkela","state":"Odisha","latitude":22.2604,"longitude":84.8536,"temp":34.0,"humidity":23,"rain":0.0,"pressure":986.8,"uv_index":7.7,"wind_gusts":27.4,"aqi":82,"pm10":59.4,"pm2_5":24.4,"mosquito_risk":0,"arthritis_risk":5,"migraine_risk":7,"frizz_risk":0,"updated_at":"2026-03-03T16:13:25.591921+05:30"},{"city":"Raipur","state":"Chhattisgarh","latitude":21.2514,"longitude":81.6296,"temp":34.5,"humidity":19,"rain":0.0,"pressure":976.5,"uv_index":7.8,"wind_gusts":14.4,"aqi":116,"pm10":35.5,"pm2_5":23.7,"mosquito_risk":0,"arthritis_risk":5,"migraine_risk":7,"frizz_risk":0,"updated_at":"2026-03-03T16:13:25.591931+05:30"},{"city":"Bhilai","state":"Chhattisgarh","latitude":21.1938,"longitude":81.3509,"temp":34.5,"humidity":20,"rain":0.0,"pressure":976.9,"uv_index":7.8,"wind_gusts":13.7,"aqi":114,"pm10":37.0,"pm2_5":25.6,"mosquito_risk":0,"arthritis_risk":5,"migraine_risk":7,"frizz_risk":0,"updated_at":"2026-03-03T16:13:25.591941+05:30"},{"city":"Guwahati","state":"Assam","latitude":26.1158,"longitude":91.7086,"temp":28.2,"humidity":42,"rain":0.0,"pressure":1004.0,"uv_index":7.1,"wind_gusts":22.0,"aqi":156,"pm10":92.0,"pm2_5":69.4,"mosquito_risk":4,"arthritis_risk":5,"migraine_risk":4,"frizz_risk":0,"updated_at":"2026-03-03T16:13:25.591951+05:30"},{"city":"Agartala","state":"Tripura","latitude":23.8315,"longitude":91.2868,"temp":27.8,"humidity":57,"rain":0.0,"pressure":1008.5,"uv_index":7.5,"wind_gusts":15.8,"aqi":181,"pm10":79.2,"pm2_5":61.0,"mosquito_risk":4,"arthritis_risk":0,"migraine_risk":4,"frizz_risk":1,"updated_at":"2026-03-03T16:13:25.591961+05:30"},{"city":"Shillong","state":"Meghalaya","latitude":25.5788,"longitude":91.8933,"temp":16.5,"humidity":50,"rain":0.0,"pressure":857.5,"uv_index":7.45,"wind_gusts":28.4,"aqi":143,"pm10":82.7,"pm2_5":59.5,"mosquito_risk":0,"arthritis_risk":5,"migraine_risk":7,"frizz_risk":0,"updated_at":"2026-03-03T16:13:25.591971+05:30"},{"city":"Imphal","state":"Manipur","latitude":24.817,"longitude":93.9368,"temp":20.1,"humidity":53,"rain":0.0,"pressure":924.4,"uv_index":7.65,"wind_gusts":32.8,"aqi":161,"pm10":65.7,"pm2_5":57.5,"mosquito_risk":0,"arthritis_risk":5,"migraine_risk":7,"frizz_risk":0,"updated_at":"2026-03-03T16:13:25.591981+05:30"},{"city":"Aizawl","state":"Mizoram","latitude":23.7271,"longitude":92.7176,"temp":22.6,"humidity":40,"rain":0.0,"pressure":894.4,"uv_index":7.65,"wind_gusts":32.8,"aqi":161,"pm10":47.1,"pm2_5":37.1,"mosquito_risk":0,"arthritis_risk":5,"migraine_risk":7,"frizz_risk":0,"updated_at":"2026-03-03T16:13:25.591992+05:30"},{"city":"Kohima","state":"Nagaland","latitude":25.6701,"longitude":94.1077,"temp":15.8,"humidity":74,"rain":0.0,"pressure":855.7,"uv_index":6.65,"wind_gusts":45.0,"aqi":153,"pm10":74.3,"pm2_5":58.8,"mosquito_risk":3,"arthritis_risk":5,"migraine_risk":7,"frizz_risk":0,"updated_at":"2026-03-03T16:13:25.592002+05:30"},{"city":"Gangtok","state":"Sikkim","latitude":27.3314,"longitude":88.6138,"temp":15.4,"humidity":73,"rain":0.0,"pressure":839.2,"uv_index":7.4,"wind_gusts":19.4,"aqi":151,"pm10":77.3,"pm2_5":56.1,"mosquito_risk":3,"arthritis_risk":5,"migraine_risk":7,"frizz_risk":0,"updated_at":"2026-03-03T16:13:25.592012+05:30"},{"city":"Siliguri","state":"West Bengal","latitude":26.7271,"longitude":88.3953,"temp":21.6,"humidity":67,"rain":0.0,"pressure":997.5,"uv_index":7.1,"wind_gusts":20.2,"aqi":165,"pm10":84.1,"pm2_5":54.1,"mosquito_risk":3,"arthritis_risk":5,"migraine_risk":7,"frizz_risk":0,"updated_at":"2026-03-03T16:13:28.932627+05:30"},{"city":"Durgapur","state":"West Bengal","latitude":23.5204,"longitude":87.3119,"temp":32.7,"humidity":21,"rain":0.0,"pressure":997.0,"uv_index":7.65,"wind_gusts":26.6,"aqi":88,"pm10":79.9,"pm2_5":28.1,"mosquito_risk":0,"arthritis_risk":5,"migraine_risk":7,"frizz_risk":0,"updated_at":"2026-03-03T16:13:28.932670+05:30"},{"city":"Asansol","state":"West Bengal","latitude":23.6739,"longitude":86.9524,"temp":32.8,"humidity":21,"rain":0.0,"pressure":995.6,"uv_index":7.65,"wind_gusts":22.7,"aqi":84,"pm10":82.0,"pm2_5":27.3,"mosquito_risk":0,"arthritis_risk":5,"migraine_risk":7,"frizz_risk":0,"updated_at":"2026-03-03T16:13:28.932684+05:30"},{"city":"Pondicherry","state":"Puducherry","latitude":11.9139,"longitude":79.8145,"temp":32.2,"humidity":41,"rain":0.0,"pressure":1009.1,"uv_index":8.85,"wind_gusts":28.1,"aqi":108,"pm10":34.3,"pm2_5":30.4,"mosquito_risk":0,"arthritis_risk":0,"migraine_risk":4,"frizz_risk":1,"updated_at":"2026-03-03T16:13:28.932697+05:30"},{"city":"Port Blair","state":"Andaman and Nicobar Islands","latitude":11.6234,"longitude":92.7265,"temp":27.6,"humidity":74,"rain":0.0,"pressure":1007.4,"uv_index":8.8,"wind_gusts":15.5,"aqi":84,"pm10":38.6,"pm2_5":28.2,"mosquito_risk":7,"arthritis_risk":5,"migraine_risk":4,"frizz_risk":1,"updated_at":"2026-03-03T16:13:28.932708+05:30"},{"city":"Haridwar","state":"Uttarakhand","latitude":29.9457,"longitude":78.1642,"temp":29.6,"humidity":37,"rain":0.0,"pressure":976.0,"uv_index":5.55,"wind_gusts":22.3,"aqi":101,"pm10":54.1,"pm2_5":33.3,"mosquito_risk":4,"arthritis_risk":5,"migraine_risk":3,"frizz_risk":0,"updated_at":"2026-03-03T16:13:28.932719+05:30"},{"city":"Rishikesh","state":"Uttarakhand","latitude":30.0869,"longitude":78.2676,"temp":27.6,"humidity":48,"rain":0.0,"pressure":969.1,"uv_index":5.6,"wind_gusts":23.8,"aqi":76,"pm10":33.2,"pm2_5":27.4,"mosquito_risk":4,"arthritis_risk":5,"migraine_risk":3,"frizz_risk":0,"updated_at":"2026-03-03T16:13:28.932730+05:30"},{"city":"Nainital","state":"Uttarakhand","latitude":29.3919,"longitude":79.4542,"temp":19.0,"humidity":64,"rain":0.0,"pressure":807.8,"uv_index":6.45,"wind_gusts":54.7,"aqi":85,"pm10":51.1,"pm2_5":38.4,"mosquito_risk":3,"arthritis_risk":5,"migraine_risk":7,"frizz_risk":0,"updated_at":"2026-03-03T16:13:28.932742+05:30"},{"city":"Mussoorie","state":"Uttarakhand","latitude":30.4599,"longitude":78.0664,"temp":19.7,"humidity":49,"rain":0.0,"pressure":805.1,"uv_index":5.95,"wind_gusts":41.8,"aqi":80,"pm10":35.0,"pm2_5":30.0,"mosquito_risk":0,"arthritis_risk":5,"migraine_risk":3,"frizz_risk":0,"updated_at":"2026-03-03T16:13:28.932752+05:30"},{"city":"Dharamshala","state":"Himachal Pradesh","latitude":32.219,"longitude":76.3234,"temp":23.7,"humidity":46,"rain":0.0,"pressure":872.1,"uv_index":6.2,"wind_gusts":23.4,"aqi":64,"pm10":13.7,"pm2_5":8.4,"mosquito_risk":0,"arthritis_risk":5,"migraine_risk":7,"frizz_risk":0,"updated_at":"2026-03-03T16:13:28.932763+05:30"},{"city":"Dalhousie","state":"Himachal Pradesh","latitude":32.5387,"longitude":75.971,"temp":22.5,"humidity":32,"rain":0.0,"pressure":807.5,"uv_index":6.4,"wind_gusts":19.8,"aqi":89,"pm10":24.2,"pm2_5":18.7,"mosquito_risk":0,"arthritis_risk":5,"migraine_risk":7,"frizz_risk":0,"updated_at":"2026-03-03T16:13:28.932774+05:30"},{"city":"Patiala","state":"Punjab","latitude":30.3398,"longitude":76.3869,"temp":29.5,"humidity":32,"rain":0.0,"pressure":980.8,"uv_index":5.6,"wind_gusts":34.2,"aqi":215,"pm10":495.5,"pm2_5":74.0,"mosquito_risk":4,"arthritis_risk":5,"migraine_risk":3,"frizz_risk":0,"updated_at":"2026-03-03T16:13:28.932785+05:30"},{"city":"Bhatinda","state":"Punjab","latitude":30.211,"longitude":74.9455,"temp":30.8,"humidity":31,"rain":0.0,"pressure":987.0,"uv_index":6.25,"wind_gusts":28.1,"aqi":134,"pm10":56.5,"pm2_5":34.9,"mosquito_risk":0,"arthritis_risk":5,"migraine_risk":7,"frizz_risk":0,"updated_at":"2026-03-03T16:13:28.932796+05:30"},{"city":"Rohtak","state":"Haryana","latitude":28.8955,"longitude":76.6066,"temp":30.4,"humidity":32,"rain":0.0,"pressure":984.9,"uv_index":5.8,"wind_gusts":33.8,"aqi":442,"pm10":884.8,"pm2_5":105.2,"mosquito_risk":0,"arthritis_risk":5,"migraine_risk":3,"frizz_risk":0,"updated_at":"2026-03-03T16:13:28.932806+05:30"},{"city":"Panipat","state":"Haryana","latitude":29.3909,"longitude":76.9635,"temp":30.0,"humidity":34,"rain":0.0,"pressure":983.1,"uv_index":5.6,"wind_gusts":37.4,"aqi":994,"pm10":1695.0,"pm2_5":180.7,"mosquito_risk":4,"arthritis_risk":5,"migraine_risk":3,"frizz_risk":0,"updated_at":"2026-03-03T16:13:28.932817+05:30"},{"city":"Mathura","state":"Uttar Pradesh","latitude":27.4924,"longitude":77.6737,"temp":32.4,"humidity":23,"rain":0.0,"pressure":989.9,"uv_index":6.1,"wind_gusts":29.9,"aqi":519,"pm10":858.7,"pm2_5":91.7,"mosquito_risk":0,"arthritis_risk":5,"migraine_risk":7,"frizz_risk":0,"updated_at":"2026-03-03T16:13:28.932827+05:30"},{"city":"Vrindavan","state":"Uttar Pradesh","latitude":27.5823,"longitude":77.7027,"temp":31.7,"humidity":25,"rain":0.0,"pressure":990.3,"uv_index":6.05,"wind_gusts":32.4,"aqi":519,"pm10":858.7,"pm2_5":91.7,"mosquito_risk":0,"arthritis_risk":5,"migraine_risk":7,"frizz_risk":0,"updated_at":"2026-03-03T16:13:28.932838+05:30"},{"city":"Ayodhya","state":"Uttar Pradesh","latitude":26.7922,"longitude":82.1998,"temp":30.1,"humidity":35,"rain":0.0,"pressure":998.0,"uv_index":6.45,"wind_gusts":25.6,"aqi":142,"pm10":77.1,"pm2_5":44.1,"mosquito_risk":0,"arthritis_risk":5,"migraine_risk":7,"frizz_risk":0,"updated_at":"2026-03-03T16:13:28.932848+05:30"},{"city":"Ratlam","state":"Madhya Pradesh","latitude":23.3315,"longitude":75.0367,"temp":33.2,"humidity":30,"rain":0.0,"pressure":957.2,"uv_index":7.3,"wind_gusts":13.0,"aqi":91,"pm10":22.9,"pm2_5":18.0,"mosquito_risk":0,"arthritis_risk":5,"migraine_risk":7,"frizz_risk":0,"updated_at":"2026-03-03T16:13:28.932859+05:30"},{"city":"Sagar","state":"Madhya Pradesh","latitude":23.8388,"longitude":78.7378,"temp":32.1,"humidity":26,"rain":0.0,"pressure":953.2,"uv_index":7.25,"wind_gusts":25.6,"aqi":63,"pm10":41.0,"pm2_5":16.8,"mosquito_risk":0,"arthritis_risk":5,"migraine_risk":7,"frizz_risk":0,"updated_at":"2026-03-03T16:13:28.932869+05:30"},{"city":"Satna","state":"Madhya Pradesh","latitude":24.6005,"longitude":80.8322,"temp":33.5,"humidity":19,"rain":0.0,"pressure":973.9,"uv_index":7.2,"wind_gusts":30.2,"aqi":73,"pm10":55.3,"pm2_5":23.1,"mosquito_risk":0,"arthritis_risk":5,"migraine_risk":7,"frizz_risk":0,"updated_at":"2026-03-03T16:13:28.932880+05:30"},{"city":"Akola","state":"Maharashtra","latitude":20.7002,"longitude":77.0082,"temp":36.2,"humidity":25,"rain":0.0,"pressure":976.2,"uv_index":7.8,"wind_gusts":20.2,"aqi":77,"pm10":22.9,"pm2_5":19.8,"mosquito_risk":0,"arthritis_risk":5,"migraine_risk":10,"frizz_risk":0,"updated_at":"2026-03-03T16:13:28.932891+05:30"},{"city":"Amravati","state":"Maharashtra","latitude":20.9374,"longitude":77.7796,"temp":35.9,"humidity":24,"rain":0.0,"pressure":968.6,"uv_index":7.75,"wind_gusts":16.6,"aqi":75,"pm10":22.3,"pm2_5":18.3,"mosquito_risk":0,"arthritis_risk":5,"migraine_risk":10,"frizz_risk":0,"updated_at":"2026-03-03T16:13:28.932903+05:30"},{"city":"Latur","state":"Maharashtra","latitude":18.4088,"longitude":76.5604,"temp":33.7,"humidity":27,"rain":0.0,"pressure":941.1,"uv_index":8.2,"wind_gusts":31.0,"aqi":109,"pm10":24.7,"pm2_5":24.0,"mosquito_risk":0,"arthritis_risk":5,"migraine_risk":7,"frizz_risk":0,"updated_at":"2026-03-03T16:13:28.932914+05:30"},{"city":"Nanded","state":"Maharashtra","latitude":19.1383,"longitude":77.3091,"temp":36.1,"humidity":23,"rain":0.0,"pressure":969.5,"uv_index":8.0,"wind_gusts":19.4,"aqi":95,"pm10":18.0,"pm2_5":15.7,"mosquito_risk":0,"arthritis_risk":5,"migraine_risk":10,"frizz_risk":0,"updated_at":"2026-03-03T16:13:28.932925+05:30"},{"city":"Gulbarga","state":"Karnataka","latitude":17.3297,"longitude":76.8343,"temp":35.5,"humidity":27,"rain":0.0,"pressure":959.1,"uv_index":8.3,"wind_gusts":17.3,"aqi":130,"pm10":31.8,"pm2_5":31.1,"mosquito_risk":0,"arthritis_risk":5,"migraine_risk":10,"frizz_risk":0,"updated_at":"2026-03-03T16:13:28.932935+05:30"},{"city":"Bidar","state":"Karnataka","latitude":17.9104,"longitude":77.5199,"temp":34.6,"humidity":22,"rain":0.0,"pressure":936.7,"uv_index":8.25,"wind_gusts":19.8,"aqi":104,"pm10":23.0,"pm2_5":21.8,"mosquito_risk":0,"arthritis_risk":5,"migraine_risk":7,"frizz_risk":0,"updated_at":"2026-03-03T16:13:28.932945+05:30"},{"city":"Hospet","state":"Karnataka","latitude":15.2689,"longitude":76.3909,"temp":35.2,"humidity":26,"rain":0.0,"pressure":955.8,"uv_index":8.6,"wind_gusts":25.6,"aqi":110,"pm10":38.4,"pm2_5":37.5,"mosquito_risk":0,"arthritis_risk":5,"migraine_risk":10,"frizz_risk":0,"updated_at":"2026-03-03T16:13:28.932955+05:30"},{"city":"Tirupur","state":"Tamil Nadu","latitude":11.1085,"longitude":77.3411,"temp":35.6,"humidity":22,"rain":0.0,"pressure":974.6,"uv_index":9.15,"wind_gusts":33.8,"aqi":130,"pm10":38.6,"pm2_5":37.6,"mosquito_risk":0,"arthritis_risk":5,"migraine_risk":10,"frizz_risk":0,"updated_at":"2026-03-03T16:13:28.932965+05:30"},{"city":"Alappuzha","state":"Kerala","latitude":9.4981,"longitude":76.3388,"temp":28.2,"humidity":79,"rain":0.0,"pressure":1007.6,"uv_index":8.95,"wind_gusts":30.6,"aqi":104,"pm10":33.3,"pm2_5":31.0,"mosquito_risk":7,"arthritis_risk":5,"migraine_risk":4,"frizz_risk":1,"updated_at":"2026-03-03T16:13:28.932976+05:30"},{"city":"Munnar","state":"Kerala","latitude":10.0889,"longitude":77.0595,"temp":29.5,"humidity":33,"rain":0.0,"pressure":858.5,"uv_index":9.45,"wind_gusts":20.9,"aqi":103,"pm10":27.5,"pm2_5":26.4,"mosquito_risk":4,"arthritis_risk":5,"migraine_risk":7,"frizz_risk":0,"updated_at":"2026-03-03T16:13:28.932987+05:30"},{"city":"Silchar","state":"Assam","latitude":24.8333,"longitude":92.7789,"temp":29.0,"humidity":41,"rain":0.0,"pressure":1006.7,"uv_index":7.4,"wind_gusts":20.2,"aqi":162,"pm10":67.5,"pm2_5":52.3,"mosquito_risk":4,"arthritis_risk":5,"migraine_risk":4,"frizz_risk":0,"updated_at":"2026-03-03T16:13:28.932997+05:30"},{"city":"Dibrugarh","state":"Assam","latitude":27.4728,"longitude":94.912,"temp":26.5,"humidity":55,"rain":0.0,"pressure":997.4,"uv_index":7.1,"wind_gusts":11.2,"aqi":155,"pm10":63.1,"pm2_5":44.2,"mosquito_risk":4,"arthritis_risk":5,"migraine_risk":7,"frizz_risk":1,"updated_at":"2026-03-03T16:13:28.933007+05:30"}]