[{"city":"Delhi","state":"Delhi","latitude":28.6139,"longitude":77.209,"temp":43.1,"humidity":15,"rain":0.0,"pressure":977.1,"uv_index":7.75,"wind_gusts":35.6,"aqi":331,"pm10":404.2,"pm2_5":68.0,"no2":3.8,"co":207.0,"o3":155.0,"so2":11.3,"mosquito_risk":0,"arthritis_risk":5,"migraine_risk":10,"frizz_risk":0,"updated_at":"2026-05-20T13:18:58.628514+05:30"},{"city":"Mumbai","state":"Maharashtra","latitude":19.076,"longitude":72.8777,"temp":33.0,"humidity":56,"rain":0.0,"pressure":1006.8,"uv_index":7.5,"wind_gusts":39.6,"aqi":68,"pm10":26.5,"pm2_5":17.5,"no2":4.3,"co":158.0,"o3":106.0,"so2":6.5,"mosquito_risk":0,"arthritis_risk":5,"migraine_risk":4,"frizz_risk":1,"updated_at":"2026-05-20T13:18:58.628552+05:30"},{"city":"Bangalore","state":"Karnataka","latitude":12.9716,"longitude":77.5946,"temp":29.5,"humidity":56,"rain":0.0,"pressure":911.1,"uv_index":6.15,"wind_gusts":38.5,"aqi":38,"pm10":5.6,"pm2_5":4.9,"no2":2.0,"co":266.0,"o3":102.0,"so2":2.4,"mosquito_risk":4,"arthritis_risk":5,"migraine_risk":7,"frizz_risk":1,"updated_at":"2026-05-20T13:18:58.628565+05:30"},{"city":"Hyderabad","state":"Telangana","latitude":17.385,"longitude":78.4867,"temp":39.3,"humidity":23,"rain":0.0,"pressure":950.2,"uv_index":9.2,"wind_gusts":34.6,"aqi":92,"pm10":45.1,"pm2_5":30.6,"no2":1.8,"co":264.0,"o3":160.0,"so2":7.9,"mosquito_risk":0,"arthritis_risk":5,"migraine_risk":10,"frizz_risk":0,"updated_at":"2026-05-20T13:18:58.628573+05:30"},{"city":"Chennai","state":"Tamil Nadu","latitude":13.0827,"longitude":80.2707,"temp":40.0,"humidity":34,"rain":0.0,"pressure":1001.8,"uv_index":9.1,"wind_gusts":35.6,"aqi":62,"pm10":26.3,"pm2_5":21.7,"no2":4.9,"co":256.0,"o3":170.0,"so2":10.5,"mosquito_risk":0,"arthritis_risk":5,"migraine_risk":7,"frizz_risk":1,"updated_at":"2026-05-20T13:18:58.628579+05:30"},{"city":"Kolkata","state":"West Bengal","latitude":22.5726,"longitude":88.3639,"temp":36.8,"humidity":56,"rain":0.0,"pressure":997.9,"uv_index":8.95,"wind_gusts":25.6,"aqi":76,"pm10":65.9,"pm2_5":36.9,"no2":2.4,"co":413.0,"o3":160.0,"so2":14.1,"mosquito_risk":0,"arthritis_risk":5,"migraine_risk":10,"frizz_risk":1,"updated_at":"2026-05-20T13:18:58.628591+05:30"},{"city":"Pune","state":"Maharashtra","latitude":18.5204,"longitude":73.8567,"temp":35.4,"humidity":34,"rain":0.1,"pressure":947.0,"uv_index":8.45,"wind_gusts":38.2,"aqi":73,"pm10":36.2,"pm2_5":20.4,"no2":2.3,"co":153.0,"o3":113.0,"so2":7.5,"mosquito_risk":3,"arthritis_risk":5,"migraine_risk":10,"frizz_risk":1,"updated_at":"2026-05-20T13:18:58.628597+05:30"},{"city":"Ahmedabad","state":"Gujarat","latitude":23.0225,"longitude":72.5714,"temp":40.6,"humidity":23,"rain":0.0,"pressure":998.4,"uv_index":8.15,"wind_gusts":36.4,"aqi":61,"pm10":69.8,"pm2_5":20.3,"no2":1.4,"co":159.0,"o3":90.0,"so2":3.3,"mosquito_risk":0,"arthritis_risk":5,"migraine_risk":10,"frizz_risk":0,"updated_at":"2026-05-20T13:18:58.628602+05:30"},{"city":"Jaipur","state":"Rajasthan","latitude":26.9124,"longitude":75.7873,"temp":40.5,"humidity":14,"rain":0.0,"pressure":956.2,"uv_index":8.3,"wind_gusts":40.3,"aqi":115,"pm10":222.6,"pm2_5":41.8,"no2":0.8,"co":147.0,"o3":110.0,"so2":3.6,"mosquito_risk":0,"arthritis_risk":5,"migraine_risk":10,"frizz_risk":0,"updated_at":"2026-05-20T13:18:58.628609+05:30"},{"city":"Lucknow","state":"Uttar Pradesh","latitude":26.8467,"longitude":80.9462,"temp":42.8,"humidity":25,"rain":0.0,"pressure":986.6,"uv_index":8.25,"wind_gusts":41.4,"aqi":152,"pm10":268.2,"pm2_5":71.5,"no2":1.3,"co":264.0,"o3":215.0,"so2":14.0,"mosquito_risk":0,"arthritis_risk":5,"migraine_risk":10,"frizz_risk":1,"updated_at":"2026-05-20T13:18:58.628614+05:30"},{"city":"Kanpur","state":"Uttar Pradesh","latitude":26.4499,"longitude":80.3319,"temp":44.0,"humidity":14,"rain":0.0,"pressure":985.0,"uv_index":8.25,"wind_gusts":42.1,"aqi":164,"pm10":443.3,"pm2_5":78.7,"no2":1.2,"co":205.0,"o3":198.0,"so2":12.0,"mosquito_risk":0,"arthritis_risk":5,"migraine_risk":10,"frizz_risk":0,"updated_at":"2026-05-20T13:18:58.628619+05:30"},{"city":"Chandigarh","state":"Chandigarh","latitude":30.7333,"longitude":76.7794,"temp":41.7,"humidity":11,"rain":0.0,"pressure":963.3,"uv_index":7.8,"wind_gusts":26.3,"aqi":103,"pm10":54.7,"pm2_5":21.9,"no2":1.3,"co":233.0,"o3":159.0,"so2":8.8,"mosquito_risk":0,"arthritis_risk":5,"migraine_risk":10,"frizz_risk":0,"updated_at":"2026-05-20T13:18:58.628625+05:30"},{"city":"Srinagar","state":"Jammu and Kashmir","latitude":34.0837,"longitude":74.7973,"temp":25.4,"humidity":34,"rain":0.0,"pressure":844.8,"uv_index":9.05,"wind_gusts":27.0,"aqi":88,"pm10":59.0,"pm2_5":22.0,"no2":1.1,"co":254.0,"o3":144.0,"so2":4.1,"mosquito_risk":4,"arthritis_risk":5,"migraine_risk":7,"frizz_risk":0,"updated_at":"2026-05-20T13:18:58.628631+05:30"},{"city":"Jammu","state":"Jammu and Kashmir","latitude":32.7266,"longitude":74.857,"temp":41.8,"humidity":12,"rain":0.0,"pressure":966.8,"uv_index":8.6,"wind_gusts":41.8,"aqi":85,"pm10":72.9,"pm2_5":24.9,"no2":0.6,"co":185.0,"o3":158.0,"so2":2.7,"mosquito_risk":0,"arthritis_risk":5,"migraine_risk":10,"frizz_risk":0,"updated_at":"2026-05-20T13:18:58.628636+05:30"},{"city":"Amritsar","state":"Punjab","latitude":31.634,"longitude":74.8723,"temp":42.0,"humidity":15,"rain":0.0,"pressure":974.2,"uv_index":8.5,"wind_gusts":36.0,"aqi":124,"pm10":69.8,"pm2_5":30.7,"no2":1.3,"co":234.0,"o3":188.0,"so2":9.8,"mosquito_risk":0,"arthritis_risk":5,"migraine_risk":10,"frizz_risk":0,"updated_at":"2026-05-20T13:18:58.628641+05:30"},{"city":"Ludhiana","state":"Punjab","latitude":30.901,"longitude":75.8573,"temp":42.6,"humidity":12,"rain":0.0,"pressure":972.4,"uv_index":8.05,"wind_gusts":27.7,"aqi":156,"pm10":65.4,"pm2_5":26.4,"no2":1.0,"co":255.0,"o3":154.0,"so2":8.8,"mosquito_risk":0,"arthritis_risk":5,"migraine_risk":10,"frizz_risk":0,"updated_at":"2026-05-20T13:18:58.628646+05:30"},{"city":"Jalandhar","state":"Punjab","latitude":31.326,"longitude":75.5762,"temp":42.8,"humidity":10,"rain":0.0,"pressure":973.4,"uv_index":8.25,"wind_gusts":27.4,"aqi":142,"pm10":82.2,"pm2_5":26.1,"no2":0.7,"co":274.0,"o3":168.0,"so2":6.4,"mosquito_risk":0,"arthritis_risk":5,"migraine_risk":10,"frizz_risk":0,"updated_at":"2026-05-20T13:18:58.628651+05:30"},{"city":"Dehradun","state":"Uttarakhand","latitude":30.6284,"longitude":78.0322,"temp":29.0,"humidity":22,"rain":0.0,"pressure":832.4,"uv_index":8.25,"wind_gusts":46.4,"aqi":75,"pm10":82.9,"pm2_5":20.7,"no2":0.5,"co":224.0,"o3":146.0,"so2":4.0,"mosquito_risk":4,"arthritis_risk":5,"migraine_risk":7,"frizz_risk":0,"updated_at":"2026-05-20T13:18:58.628655+05:30"},{"city":"Shimla","state":"Himachal Pradesh","latitude":31.1048,"longitude":77.1734,"temp":27.8,"humidity":16,"rain":0.0,"pressure":788.3,"uv_index":8.3,"wind_gusts":41.4,"aqi":77,"pm10":98.7,"pm2_5":22.5,"no2":0.8,"co":191.0,"o3":157.0,"so2":7.8,"mosquito_risk":4,"arthritis_risk":5,"migraine_risk":7,"frizz_risk":1,"updated_at":"2026-05-20T13:18:58.628662+05:30"},{"city":"Manali","state":"Himachal Pradesh","latitude":32.2396,"longitude":77.1887,"temp":27.5,"humidity":23,"rain":0.0,"pressure":820.8,"uv_index":10.0,"wind_gusts":38.9,"aqi":72,"pm10":20.2,"pm2_5":9.6,"no2":2.1,"co":146.0,"o3":153.0,"so2":0.6,"mosquito_risk":4,"arthritis_risk":5,"migraine_risk":7,"frizz_risk":0,"updated_at":"2026-05-20T13:18:58.628669+05:30"},{"city":"Gurgaon","state":"Haryana","latitude":28.4595,"longitude":77.0266,"temp":42.3,"humidity":16,"rain":0.0,"pressure":975.9,"uv_index":7.85,"wind_gusts":34.2,"aqi":848,"pm10":895.9,"pm2_5":112.5,"no2":3.4,"co":157.0,"o3":154.0,"so2":9.6,"mosquito_risk":0,"arthritis_risk":5,"migraine_risk":10,"frizz_risk":0,"updated_at":"2026-05-20T13:18:58.628674+05:30"},{"city":"Noida","state":"Uttar Pradesh","latitude":28.5355,"longitude":77.391,"temp":42.4,"humidity":17,"rain":0.0,"pressure":978.2,"uv_index":7.8,"wind_gusts":33.1,"aqi":848,"pm10":895.9,"pm2_5":112.5,"no2":3.4,"co":222.0,"o3":154.0,"so2":9.6,"mosquito_risk":0,"arthritis_risk":5,"migraine_risk":10,"frizz_risk":0,"updated_at":"2026-05-20T13:18:58.628678+05:30"},{"city":"Ghaziabad","state":"Uttar Pradesh","latitude":28.6692,"longitude":77.4538,"temp":42.5,"humidity":17,"rain":0.0,"pressure":976.7,"uv_index":7.75,"wind_gusts":31.0,"aqi":248,"pm10":267.3,"pm2_5":57.2,"no2":4.0,"co":231.0,"o3":181.0,"so2":16.3,"mosquito_risk":0,"arthritis_risk":5,"migraine_risk":10,"frizz_risk":0,"updated_at":"2026-05-20T13:18:58.628683+05:30"},{"city":"Faridabad","state":"Haryana","latitude":28.4089,"longitude":77.3178,"temp":42.3,"humidity":16,"rain":0.0,"pressure":977.9,"uv_index":7.8,"wind_gusts":35.6,"aqi":848,"pm10":895.9,"pm2_5":112.5,"no2":3.4,"co":186.0,"o3":154.0,"so2":9.6,"mosquito_risk":0,"arthritis_risk":5,"migraine_risk":10,"frizz_risk":0,"updated_at":"2026-05-20T13:18:58.628688+05:30"},{"city":"Meerut","state":"Uttar Pradesh","latitude":28.9845,"longitude":77.7064,"temp":41.2,"humidity":22,"rain":0.0,"pressure":975.7,"uv_index":7.7,"wind_gusts":28.4,"aqi":248,"pm10":267.3,"pm2_5":57.2,"no2":4.0,"co":209.0,"o3":181.0,"so2":16.3,"mosquito_risk":0,"arthritis_risk":5,"migraine_risk":10,"frizz_risk":0,"updated_at":"2026-05-20T13:18:58.628693+05:30"},{"city":"Agra","state":"Uttar Pradesh","latitude":27.1767,"longitude":78.0081,"temp":43.0,"humidity":16,"rain":0.0,"pressure":982.1,"uv_index":8.1,"wind_gusts":37.8,"aqi":510,"pm10":508.5,"pm2_5":60.5,"no2":0.9,"co":142.0,"o3":144.0,"so2":3.6,"mosquito_risk":0,"arthritis_risk":5,"migraine_risk":10,"frizz_risk":0,"updated_at":"2026-05-20T13:18:58.628698+05:30"},{"city":"Varanasi","state":"Uttar Pradesh","latitude":25.3176,"longitude":82.9739,"temp":41.5,"humidity":29,"rain":0.0,"pressure":990.8,"uv_index":8.75,"wind_gusts":39.2,"aqi":152,"pm10":187.2,"pm2_5":59.0,"no2":1.2,"co":310.0,"o3":206.0,"so2":15.2,"mosquito_risk":0,"arthritis_risk":5,"migraine_risk":10,"frizz_risk":1,"updated_at":"2026-05-20T13:18:58.628704+05:30"},{"city":"Prayagraj","state":"Uttar Pradesh","latitude":25.4358,"longitude":81.8463,"temp":43.3,"humidity":19,"rain":0.0,"pressure":989.1,"uv_index":8.6,"wind_gusts":38.2,"aqi":150,"pm10":182.1,"pm2_5":59.0,"no2":1.3,"co":208.0,"o3":221.0,"so2":17.3,"mosquito_risk":0,"arthritis_risk":5,"migraine_risk":10,"frizz_risk":0,"updated_at":"2026-05-20T13:18:58.628709+05:30"},{"city":"Gorakhpur","state":"Uttar Pradesh","latitude":26.7606,"longitude":83.3732,"temp":36.3,"humidity":49,"rain":0.0,"pressure":991.3,"uv_index":8.65,"wind_gusts":29.9,"aqi":156,"pm10":120.6,"pm2_5":63.6,"no2":1.5,"co":449.0,"o3":191.0,"so2":14.0,"mosquito_risk":0,"arthritis_risk":5,"migraine_risk":10,"frizz_risk":1,"updated_at":"2026-05-20T13:18:58.628715+05:30"},{"city":"Bareilly","state":"Uttar Pradesh","latitude":28.367,"longitude":79.4304,"temp":38.8,"humidity":39,"rain":0.0,"pressure":980.6,"uv_index":8.05,"wind_gusts":29.9,"aqi":151,"pm10":167.6,"pm2_5":53.0,"no2":1.2,"co":279.0,"o3":192.0,"so2":13.0,"mosquito_risk":0,"arthritis_risk":5,"migraine_risk":10,"frizz_risk":1,"updated_at":"2026-05-20T13:18:58.628720+05:30"},{"city":"Aligarh","state":"Uttar Pradesh","latitude":27.8974,"longitude":78.088,"temp":41.6,"humidity":20,"rain":0.0,"pressure":980.0,"uv_index":7.9,"wind_gusts":28.4,"aqi":484,"pm10":605.4,"pm2_5":94.8,"no2":2.7,"co":189.0,"o3":180.0,"so2":14.4,"mosquito_risk":0,"arthritis_risk":5,"migraine_risk":10,"frizz_risk":0,"updated_at":"2026-05-20T13:18:58.628725+05:30"},{"city":"Moradabad","state":"Uttar Pradesh","latitude":28.8386,"longitude":78.7733,"temp":40.0,"humidity":28,"rain":0.0,"pressure":977.7,"uv_index":7.9,"wind_gusts":32.0,"aqi":171,"pm10":266.4,"pm2_5":79.4,"no2":2.0,"co":305.0,"o3":251.0,"so2":22.5,"mosquito_risk":0,"arthritis_risk":5,"migraine_risk":10,"frizz_risk":1,"updated_at":"2026-05-20T13:18:58.628729+05:30"},{"city":"Saharanpur","state":"Uttar Pradesh","latitude":29.9637,"longitude":77.546,"temp":39.8,"humidity":23,"rain":0.0,"pressure":970.1,"uv_index":7.45,"wind_gusts":23.0,"aqi":150,"pm10":142.5,"pm2_5":42.3,"no2":2.1,"co":304.0,"o3":188.0,"so2":14.1,"mosquito_risk":0,"arthritis_risk":5,"migraine_risk":10,"frizz_risk":0,"updated_at":"2026-05-20T13:18:58.628734+05:30"},{"city":"Jhansi","state":"Uttar Pradesh","latitude":25.4484,"longitude":78.5685,"temp":43.0,"humidity":15,"rain":0.0,"pressure":973.1,"uv_index":8.5,"wind_gusts":40.7,"aqi":61,"pm10":26.3,"pm2_5":10.2,"no2":0.9,"co":137.0,"o3":122.0,"so2":3.6,"mosquito_risk":0,"arthritis_risk":5,"migraine_risk":10,"frizz_risk":0,"updated_at":"2026-05-20T13:19:02.103968+05:30"},{"city":"Surat","state":"Gujarat","latitude":21.1702,"longitude":72.8311,"temp":34.8,"humidity":51,"rain":0.0,"pressure":1004.3,"uv_index":7.65,"wind_gusts":47.5,"aqi":80,"pm10":55.8,"pm2_5":27.1,"no2":17.7,"co":379.0,"o3":64.0,"so2":53.4,"mosquito_risk":0,"arthritis_risk":5,"migraine_risk":4,"frizz_risk":1,"updated_at":"2026-05-20T13:19:02.104000+05:30"},{"city":"Vadodara","state":"Gujarat","latitude":22.3072,"longitude":73.1812,"temp":40.8,"humidity":24,"rain":0.0,"pressure":1000.4,"uv_index":8.1,"wind_gusts":49.3,"aqi":64,"pm10":80.8,"pm2_5":30.0,"no2":2.5,"co":176.0,"o3":118.0,"so2":9.5,"mosquito_risk":0,"arthritis_risk":5,"migraine_risk":7,"frizz_risk":1,"updated_at":"2026-05-20T13:19:02.104008+05:30"},{"city":"Rajkot","state":"Gujarat","latitude":22.3039,"longitude":70.8022,"temp":40.0,"humidity":23,"rain":0.0,"pressure":991.3,"uv_index":7.75,"wind_gusts":42.1,"aqi":58,"pm10":64.7,"pm2_5":22.2,"no2":1.2,"co":126.0,"o3":101.0,"so2":6.1,"mosquito_risk":0,"arthritis_risk":5,"migraine_risk":10,"frizz_risk":0,"updated_at":"2026-05-20T13:19:02.104015+05:30"},{"city":"Thane","state":"Maharashtra","latitude":19.2183,"longitude":72.9781,"temp":36.2,"humidity":44,"rain":0.0,"pressure":1005.5,"uv_index":7.7,"wind_gusts":37.1,"aqi":68,"pm10":26.5,"pm2_5":17.5,"no2":4.3,"co":163.0,"o3":106.0,"so2":6.5,"mosquito_risk":0,"arthritis_risk":5,"migraine_risk":7,"frizz_risk":1,"updated_at":"2026-05-20T13:19:02.104022+05:30"},{"city":"Nagpur","state":"Maharashtra","latitude":21.1458,"longitude":79.0882,"temp":44.7,"humidity":12,"rain":0.0,"pressure":967.9,"uv_index":8.9,"wind_gusts":40.0,"aqi":108,"pm10":14.8,"pm2_5":9.8,"no2":4.2,"co":194.0,"o3":159.0,"so2":17.6,"mosquito_risk":0,"arthritis_risk":5,"migraine_risk":10,"frizz_risk":0,"updated_at":"2026-05-20T13:19:02.104028+05:30"},{"city":"Nashik","state":"Maharashtra","latitude":19.9975,"longitude":73.7898,"temp":36.0,"humidity":36,"rain":0.0,"pressure":944.4,"uv_index":8.2,"wind_gusts":41.4,"aqi":65,"pm10":22.6,"pm2_5":12.9,"no2":0.9,"co":128.0,"o3":93.0,"so2":1.3,"mosquito_risk":0,"arthritis_risk":5,"migraine_risk":10,"frizz_risk":1,"updated_at":"2026-05-20T13:19:02.104033+05:30"},{"city":"Aurangabad","state":"Maharashtra","latitude":19.8762,"longitude":75.3433,"temp":39.4,"humidity":18,"rain":0.0,"pressure":942.2,"uv_index":9.05,"wind_gusts":48.2,"aqi":69,"pm10":26.4,"pm2_5":14.5,"no2":0.9,"co":142.0,"o3":116.0,"so2":2.4,"mosquito_risk":0,"arthritis_risk":5,"migraine_risk":10,"frizz_risk":0,"updated_at":"2026-05-20T13:19:02.104039+05:30"},{"city":"Solapur","state":"Maharashtra","latitude":17.6599,"longitude":75.9064,"temp":37.9,"humidity":29,"rain":0.0,"pressure":955.1,"uv_index":5.45,"wind_gusts":39.2,"aqi":83,"pm10":42.3,"pm2_5":24.3,"no2":1.5,"co":147.0,"o3":145.0,"so2":6.6,"mosquito_risk":0,"arthritis_risk":5,"migraine_risk":6,"frizz_risk":1,"updated_at":"2026-05-20T13:19:02.104046+05:30"},{"city":"Kolhapur","state":"Maharashtra","latitude":16.705,"longitude":74.2433,"temp":32.1,"humidity":48,"rain":0.0,"pressure":947.0,"uv_index":3.35,"wind_gusts":37.8,"aqi":76,"pm10":45.3,"pm2_5":22.4,"no2":2.3,"co":153.0,"o3":95.0,"so2":2.3,"mosquito_risk":0,"arthritis_risk":5,"migraine_risk":3,"frizz_risk":1,"updated_at":"2026-05-20T13:19:02.104052+05:30"},{"city":"Goa","state":"Goa","latitude":15.2993,"longitude":74.124,"temp":31.5,"humidity":68,"rain":0.0,"pressure":996.9,"uv_index":7.3,"wind_gusts":26.3,"aqi":52,"pm10":4.8,"pm2_5":3.9,"no2":0.7,"co":126.0,"o3":85.0,"so2":0.5,"mosquito_risk":3,"arthritis_risk":5,"migraine_risk":7,"frizz_risk":1,"updated_at":"2026-05-20T13:19:02.104058+05:30"},{"city":"Jodhpur","state":"Rajasthan","latitude":26.2389,"longitude":73.0243,"temp":38.8,"humidity":28,"rain":0.0,"pressure":978.4,"uv_index":8.45,"wind_gusts":45.0,"aqi":129,"pm10":228.2,"pm2_5":42.3,"no2":0.6,"co":134.0,"o3":98.0,"so2":2.8,"mosquito_risk":0,"arthritis_risk":5,"migraine_risk":10,"frizz_risk":1,"updated_at":"2026-05-20T13:19:02.104064+05:30"},{"city":"Udaipur","state":"Rajasthan","latitude":24.5854,"longitude":73.7125,"temp":37.5,"humidity":18,"rain":0.0,"pressure":944.2,"uv_index":8.85,"wind_gusts":50.4,"aqi":58,"pm10":86.6,"pm2_5":23.4,"no2":0.4,"co":126.0,"o3":93.0,"so2":2.3,"mosquito_risk":0,"arthritis_risk":5,"migraine_risk":10,"frizz_risk":0,"updated_at":"2026-05-20T13:19:02.104071+05:30"},{"city":"Kota","state":"Rajasthan","latitude":25.2138,"longitude":75.8648,"temp":42.0,"humidity":14,"rain":0.0,"pressure":974.6,"uv_index":8.45,"wind_gusts":37.1,"aqi":52,"pm10":48.5,"pm2_5":19.5,"no2":0.7,"co":131.0,"o3":120.0,"so2":4.1,"mosquito_risk":0,"arthritis_risk":5,"migraine_risk":10,"frizz_risk":0,"updated_at":"2026-05-20T13:19:02.104077+05:30"},{"city":"Bikaner","state":"Rajasthan","latitude":28.0229,"longitude":73.3119,"temp":41.8,"humidity":16,"rain":0.0,"pressure":976.1,"uv_index":8.4,"wind_gusts":34.6,"aqi":111,"pm10":161.6,"pm2_5":50.4,"no2":0.3,"co":143.0,"o3":102.0,"so2":3.0,"mosquito_risk":0,"arthritis_risk":5,"migraine_risk":10,"frizz_risk":0,"updated_at":"2026-05-20T13:19:02.104083+05:30"},{"city":"Ajmer","state":"Rajasthan","latitude":26.4499,"longitude":74.6399,"temp":37.3,"humidity":23,"rain":0.0,"pressure":951.6,"uv_index":8.4,"wind_gusts":44.3,"aqi":57,"pm10":64.0,"pm2_5":21.0,"no2":0.5,"co":138.0,"o3":104.0,"so2":2.5,"mosquito_risk":0,"arthritis_risk":5,"migraine_risk":10,"frizz_risk":0,"updated_at":"2026-05-20T13:19:02.104088+05:30"},{"city":"Gwalior","state":"Madhya Pradesh","latitude":26.2183,"longitude":78.1828,"temp":42.8,"humidity":15,"rain":0.0,"pressure":978.2,"uv_index":8.3,"wind_gusts":44.6,"aqi":81,"pm10":60.5,"pm2_5":15.7,"no2":0.5,"co":139.0,"o3":123.0,"so2":2.3,"mosquito_risk":0,"arthritis_risk":5,"migraine_risk":10,"frizz_risk":0,"updated_at":"2026-05-20T13:19:02.104095+05:30"},{"city":"Indore","state":"Madhya Pradesh","latitude":22.7196,"longitude":75.8577,"temp":39.3,"humidity":21,"rain":0.0,"pressure":946.0,"uv_index":8.2,"wind_gusts":43.6,"aqi":59,"pm10":53.1,"pm2_5":22.6,"no2":1.0,"co":169.0,"o3":126.0,"so2":5.0,"mosquito_risk":0,"arthritis_risk":5,"migraine_risk":10,"frizz_risk":0,"updated_at":"2026-05-20T13:19:02.104101+05:30"},{"city":"Bhopal","state":"Madhya Pradesh","latitude":23.2599,"longitude":77.4126,"temp":42.0,"humidity":13,"rain":0.0,"pressure":950.8,"uv_index":8.7,"wind_gusts":46.1,"aqi":65,"pm10":34.0,"pm2_5":15.7,"no2":0.7,"co":159.0,"o3":129.0,"so2":3.8,"mosquito_risk":0,"arthritis_risk":5,"migraine_risk":10,"frizz_risk":0,"updated_at":"2026-05-20T13:19:02.104106+05:30"},{"city":"Jabalpur","state":"Madhya Pradesh","latitude":23.1815,"longitude":79.9864,"temp":43.8,"humidity":12,"rain":0.0,"pressure":957.0,"uv_index":8.85,"wind_gusts":29.2,"aqi":84,"pm10":102.4,"pm2_5":29.7,"no2":0.8,"co":162.0,"o3":168.0,"so2":7.6,"mosquito_risk":0,"arthritis_risk":5,"migraine_risk":10,"frizz_risk":0,"updated_at":"2026-05-20T13:19:02.104112+05:30"},{"city":"Ujjain","state":"Madhya Pradesh","latitude":23.1765,"longitude":75.7885,"temp":39.6,"humidity":20,"rain":0.0,"pressure":951.4,"uv_index":8.3,"wind_gusts":45.0,"aqi":57,"pm10":60.8,"pm2_5":22.9,"no2":0.5,"co":148.0,"o3":117.0,"so2":3.9,"mosquito_risk":0,"arthritis_risk":5,"migraine_risk":10,"frizz_risk":0,"updated_at":"2026-05-20T13:19:02.104118+05:30"},{"city":"Visakhapatnam","state":"Andhra Pradesh","latitude":17.6868,"longitude":83.2185,"temp":39.2,"humidity":38,"rain":0.1,"pressure":997.5,"uv_index":8.65,"wind_gusts":35.6,"aqi":83,"pm10":46.2,"pm2_5":40.3,"no2":8.7,"co":588.0,"o3":202.0,"so2":37.7,"mosquito_risk":3,"arthritis_risk":5,"migraine_risk":10,"frizz_risk":1,"updated_at":"2026-05-20T13:19:02.104125+05:30"},{"city":"Vijayawada","state":"Andhra Pradesh","latitude":16.5062,"longitude":80.648,"temp":42.3,"humidity":27,"rain":0.0,"pressure":996.5,"uv_index":8.65,"wind_gusts":39.6,"aqi":98,"pm10":53.0,"pm2_5":42.1,"no2":1.8,"co":217.0,"o3":172.0,"so2":9.3,"mosquito_risk":0,"arthritis_risk":5,"migraine_risk":10,"frizz_risk":1,"updated_at":"2026-05-20T13:19:02.104131+05:30"},{"city":"Guntur","state":"Andhra Pradesh","latitude":16.3067,"longitude":80.4365,"temp":42.5,"humidity":26,"rain":0.0,"pressure":997.6,"uv_index":8.35,"wind_gusts":41.4,"aqi":100,"pm10":50.3,"pm2_5":37.7,"no2":1.4,"co":205.0,"o3":163.0,"so2":8.3,"mosquito_risk":0,"arthritis_risk":5,"migraine_risk":10,"frizz_risk":1,"updated_at":"2026-05-20T13:19:02.104137+05:30"},{"city":"Nellore","state":"Andhra Pradesh","latitude":14.4426,"longitude":79.9865,"temp":42.0,"humidity":27,"rain":0.0,"pressure":999.9,"uv_index":8.85,"wind_gusts":46.4,"aqi":67,"pm10":24.7,"pm2_5":19.6,"no2":2.0,"co":187.0,"o3":148.0,"so2":6.7,"mosquito_risk":0,"arthritis_risk":5,"migraine_risk":10,"frizz_risk":1,"updated_at":"2026-05-20T13:19:02.104144+05:30"},{"city":"Kurnool","state":"Andhra Pradesh","latitude":15.8281,"longitude":78.0373,"temp":39.5,"humidity":31,"rain":0.0,"pressure":973.5,"uv_index":8.25,"wind_gusts":38.9,"aqi":68,"pm10":39.9,"pm2_5":25.0,"no2":1.2,"co":166.0,"o3":144.0,"so2":5.9,"mosquito_risk":0,"arthritis_risk":5,"migraine_risk":10,"frizz_risk":1,"updated_at":"2026-05-20T13:19:02.104150+05:30"},{"city":"Kakinada","state":"Andhra Pradesh","latitude":16.9891,"longitude":82.2475,"temp":42.5,"humidity":32,"rain":0.0,"pressure":1000.3,"uv_index":8.6,"wind_gusts":39.2,"aqi":83,"pm10":32.1,"pm2_5":25.1,"no2":1.9,"co":285.0,"o3":148.0,"so2":4.6,"mosquito_risk":0,"arthritis_risk":5,"migraine_risk":7,"frizz_risk":1,"updated_at":"2026-05-20T13:19:02.104157+05:30"},{"city":"Tirupati","state":"Andhra Pradesh","latitude":13.6288,"longitude":79.4192,"temp":39.6,"humidity":31,"rain":0.0,"pressure":986.6,"uv_index":9.05,"wind_gusts":34.6,"aqi":65,"pm10":16.6,"pm2_5":13.2,"no2":1.0,"co":173.0,"o3":124.0,"so2":2.1,"mosquito_risk":0,"arthritis_risk":5,"migraine_risk":10,"frizz_risk":1,"updated_at":"2026-05-20T13:19:02.104162+05:30"},{"city":"Warangal","state":"Telangana","latitude":17.9689,"longitude":79.5941,"temp":41.0,"humidity":23,"rain":0.0,"pressure":973.9,"uv_index":8.75,"wind_gusts":29.9,"aqi":112,"pm10":54.1,"pm2_5":38.4,"no2":1.1,"co":216.0,"o3":167.0,"so2":6.2,"mosquito_risk":0,"arthritis_risk":5,"migraine_risk":10,"frizz_risk":0,"updated_at":"2026-05-20T13:19:02.104167+05:30"},{"city":"Nizamabad","state":"Telangana","latitude":18.6725,"longitude":78.0941,"temp":42.0,"humidity":17,"rain":0.0,"pressure":960.9,"uv_index":8.9,"wind_gusts":32.0,"aqi":105,"pm10":29.6,"pm2_5":20.2,"no2":1.1,"co":177.0,"o3":170.0,"so2":8.1,"mosquito_risk":0,"arthritis_risk":5,"migraine_risk":10,"frizz_risk":0,"updated_at":"2026-05-20T13:19:02.104172+05:30"},{"city":"Mysore","state":"Karnataka","latitude":12.2958,"longitude":76.6396,"temp":31.0,"humidity":52,"rain":0.1,"pressure":927.7,"uv_index":3.9,"wind_gusts":43.9,"aqi":27,"pm10":3.4,"pm2_5":2.9,"no2":1.5,"co":150.0,"o3":83.0,"so2":1.3,"mosquito_risk":3,"arthritis_risk":5,"migraine_risk":3,"frizz_risk":1,"updated_at":"2026-05-20T13:19:02.104178+05:30"},{"city":"Mangalore","state":"Karnataka","latitude":12.9141,"longitude":74.856,"temp":30.1,"humidity":76,"rain":0.0,"pressure":1005.8,"uv_index":4.5,"wind_gusts":29.2,"aqi":33,"pm10":6.7,"pm2_5":4.9,"no2":1.4,"co":162.0,"o3":73.0,"so2":1.4,"mosquito_risk":3,"arthritis_risk":5,"migraine_risk":0,"frizz_risk":1,"updated_at":"2026-05-20T13:19:02.104184+05:30"},{"city":"Hubli-Dharwad","state":"Karnataka","latitude":15.3647,"longitude":75.124,"temp":27.7,"humidity":73,"rain":0.0,"pressure":940.3,"uv_index":8.8,"wind_gusts":39.6,"aqi":31,"pm10":3.8,"pm2_5":3.4,"no2":2.2,"co":148.0,"o3":86.0,"so2":1.0,"mosquito_risk":7,"arthritis_risk":5,"migraine_risk":7,"frizz_risk":1,"updated_at":"2026-05-20T13:19:02.104190+05:30"},{"city":"Belgaum","state":"Karnataka","latitude":15.8497,"longitude":74.4977,"temp":28.6,"humidity":63,"rain":0.0,"pressure":925.6,"uv_index":8.95,"wind_gusts":34.9,"aqi":69,"pm10":45.2,"pm2_5":21.8,"no2":1.7,"co":136.0,"o3":95.0,"so2":2.6,"mosquito_risk":7,"arthritis_risk":5,"migraine_risk":7,"frizz_risk":1,"updated_at":"2026-05-20T13:19:05.576460+05:30"},{"city":"Coimbatore","state":"Tamil Nadu","latitude":11.0168,"longitude":76.9558,"temp":32.8,"humidity":52,"rain":0.0,"pressure":960.3,"uv_index":7.5,"wind_gusts":53.6,"aqi":28,"pm10":3.8,"pm2_5":3.1,"no2":0.8,"co":160.0,"o3":80.0,"so2":1.3,"mosquito_risk":0,"arthritis_risk":5,"migraine_risk":7,"frizz_risk":1,"updated_at":"2026-05-20T13:19:05.576492+05:30"},{"city":"Madurai","state":"Tamil Nadu","latitude":9.9252,"longitude":78.1198,"temp":36.7,"humidity":41,"rain":0.0,"pressure":989.7,"uv_index":8.65,"wind_gusts":53.3,"aqi":76,"pm10":5.1,"pm2_5":4.7,"no2":1.3,"co":137.0,"o3":116.0,"so2":2.1,"mosquito_risk":0,"arthritis_risk":5,"migraine_risk":10,"frizz_risk":1,"updated_at":"2026-05-20T13:19:05.576501+05:30"},{"city":"Trichy","state":"Tamil Nadu","latitude":10.7905,"longitude":78.7047,"temp":35.6,"humidity":47,"rain":0.0,"pressure":996.1,"uv_index":8.25,"wind_gusts":40.7,"aqi":39,"pm10":4.1,"pm2_5":3.9,"no2":1.2,"co":150.0,"o3":101.0,"so2":2.1,"mosquito_risk":0,"arthritis_risk":5,"migraine_risk":10,"frizz_risk":1,"updated_at":"2026-05-20T13:19:05.576509+05:30"},{"city":"Salem","state":"Tamil Nadu","latitude":11.6643,"longitude":78.146,"temp":35.9,"humidity":43,"rain":0.0,"pressure":974.8,"uv_index":6.8,"wind_gusts":37.4,"aqi":50,"pm10":10.1,"pm2_5":9.1,"no2":2.2,"co":179.0,"o3":127.0,"so2":8.6,"mosquito_risk":0,"arthritis_risk":5,"migraine_risk":10,"frizz_risk":1,"updated_at":"2026-05-20T13:19:05.576516+05:30"},{"city":"Tirunelveli","state":"Tamil Nadu","latitude":8.7139,"longitude":77.7567,"temp":37.1,"humidity":41,"rain":0.0,"pressure":1000.3,"uv_index":8.75,"wind_gusts":39.2,"aqi":24,"pm10":4.2,"pm2_5":3.4,"no2":0.9,"co":163.0,"o3":71.0,"so2":0.6,"mosquito_risk":0,"arthritis_risk":5,"migraine_risk":7,"frizz_risk":1,"updated_at":"2026-05-20T13:19:05.576522+05:30"},{"city":"Vellore","state":"Tamil Nadu","latitude":12.9165,"longitude":79.1325,"temp":37.8,"humidity":35,"rain":0.0,"pressure":980.7,"uv_index":8.85,"wind_gusts":47.9,"aqi":53,"pm10":10.0,"pm2_5":8.6,"no2":1.2,"co":198.0,"o3":118.0,"so2":2.6,"mosquito_risk":0,"arthritis_risk":5,"migraine_risk":10,"frizz_risk":1,"updated_at":"2026-05-20T13:19:05.576528+05:30"},{"city":"Erode","state":"Tamil Nadu","latitude":11.341,"longitude":77.7172,"temp":37.1,"humidity":38,"rain":0.0,"pressure":986.1,"uv_index":7.0,"wind_gusts":36.0,"aqi":39,"pm10":4.9,"pm2_5":4.3,"no2":1.4,"co":187.0,"o3":104.0,"so2":1.7,"mosquito_risk":0,"arthritis_risk":5,"migraine_risk":10,"frizz_risk":1,"updated_at":"2026-05-20T13:19:05.576535+05:30"},{"city":"Kochi","state":"Kerala","latitude":9.9312,"longitude":76.2673,"temp":30.0,"humidity":77,"rain":0.1,"pressure":1007.8,"uv_index":7.7,"wind_gusts":31.3,"aqi":49,"pm10":8.3,"pm2_5":6.4,"no2":1.9,"co":119.0,"o3":85.0,"so2":2.8,"mosquito_risk":10,"arthritis_risk":5,"migraine_risk":4,"frizz_risk":1,"updated_at":"2026-05-20T13:19:05.576541+05:30"},{"city":"Thiruvananthapuram","state":"Kerala","latitude":8.5241,"longitude":76.9366,"temp":30.3,"humidity":74,"rain":0.0,"pressure":1007.2,"uv_index":8.15,"wind_gusts":41.8,"aqi":26,"pm10":7.3,"pm2_5":4.4,"no2":0.9,"co":114.0,"o3":61.0,"so2":0.5,"mosquito_risk":3,"arthritis_risk":5,"migraine_risk":4,"frizz_risk":1,"updated_at":"2026-05-20T13:19:05.576547+05:30"},{"city":"Kozhikode","state":"Kerala","latitude":11.2588,"longitude":75.7804,"temp":31.2,"humidity":71,"rain":0.0,"pressure":1006.8,"uv_index":6.35,"wind_gusts":32.8,"aqi":30,"pm10":5.6,"pm2_5":3.6,"no2":0.4,"co":146.0,"o3":69.0,"so2":0.5,"mosquito_risk":3,"arthritis_risk":5,"migraine_risk":4,"frizz_risk":1,"updated_at":"2026-05-20T13:19:05.576552+05:30"},{"city":"Thrissur","state":"Kerala","latitude":10.5276,"longitude":76.2144,"temp":30.8,"humidity":72,"rain":0.0,"pressure":1005.9,"uv_index":7.45,"wind_gusts":36.0,"aqi":42,"pm10":8.7,"pm2_5":7.1,"no2":1.3,"co":132.0,"o3":87.0,"so2":2.2,"mosquito_risk":3,"arthritis_risk":5,"migraine_risk":4,"frizz_risk":1,"updated_at":"2026-05-20T13:19:05.576559+05:30"},{"city":"Kannur","state":"Kerala","latitude":11.8745,"longitude":75.3704,"temp":30.6,"humidity":71,"rain":0.1,"pressure":1006.4,"uv_index":8.1,"wind_gusts":28.8,"aqi":30,"pm10":5.6,"pm2_5":4.0,"no2":0.9,"co":133.0,"o3":70.0,"so2":0.8,"mosquito_risk":6,"arthritis_risk":5,"migraine_risk":4,"frizz_risk":1,"updated_at":"2026-05-20T13:19:05.576565+05:30"},{"city":"Patna","state":"Bihar","latitude":25.5941,"longitude":85.1376,"temp":36.0,"humidity":53,"rain":0.0,"pressure":994.0,"uv_index":8.85,"wind_gusts":24.5,"aqi":154,"pm10":112.0,"pm2_5":70.5,"no2":1.9,"co":403.0,"o3":198.0,"so2":17.9,"mosquito_risk":0,"arthritis_risk":5,"migraine_risk":10,"frizz_risk":1,"updated_at":"2026-05-20T13:19:05.576570+05:30"},{"city":"Gaya","state":"Bihar","latitude":24.7914,"longitude":85.0002,"temp":38.5,"humidity":39,"rain":0.0,"pressure":987.3,"uv_index":8.9,"wind_gusts":31.0,"aqi":155,"pm10":137.4,"pm2_5":58.8,"no2":0.9,"co":389.0,"o3":186.0,"so2":14.0,"mosquito_risk":0,"arthritis_risk":5,"migraine_risk":10,"frizz_risk":1,"updated_at":"2026-05-20T13:19:05.576576+05:30"},{"city":"Muzaffarpur","state":"Bihar","latitude":26.1209,"longitude":85.3647,"temp":35.0,"humidity":58,"rain":0.0,"pressure":994.3,"uv_index":8.85,"wind_gusts":27.0,"aqi":153,"pm10":96.6,"pm2_5":70.8,"no2":2.1,"co":370.0,"o3":194.0,"so2":18.0,"mosquito_risk":0,"arthritis_risk":5,"migraine_risk":7,"frizz_risk":1,"updated_at":"2026-05-20T13:19:05.576581+05:30"},{"city":"Bhagalpur","state":"Bihar","latitude":25.2425,"longitude":87.0117,"temp":35.4,"humidity":54,"rain":0.0,"pressure":994.4,"uv_index":8.7,"wind_gusts":31.7,"aqi":152,"pm10":73.3,"pm2_5":59.8,"no2":3.9,"co":356.0,"o3":205.0,"so2":29.0,"mosquito_risk":0,"arthritis_risk":5,"migraine_risk":10,"frizz_risk":1,"updated_at":"2026-05-20T13:19:05.576585+05:30"},{"city":"Ranchi","state":"Jharkhand","latitude":23.3441,"longitude":85.3096,"temp":36.3,"humidity":28,"rain":0.0,"pressure":933.3,"uv_index":9.3,"wind_gusts":44.6,"aqi":136,"pm10":152.3,"pm2_5":37.6,"no2":0.8,"co":172.0,"o3":162.0,"so2":7.0,"mosquito_risk":0,"arthritis_risk":5,"migraine_risk":10,"frizz_risk":0,"updated_at":"2026-05-20T13:19:05.576591+05:30"},{"city":"Jamshedpur","state":"Jharkhand","latitude":22.8046,"longitude":86.2029,"temp":39.8,"humidity":31,"rain":0.0,"pressure":983.3,"uv_index":9.1,"wind_gusts":34.6,"aqi":123,"pm10":119.7,"pm2_5":51.9,"no2":2.4,"co":283.0,"o3":225.0,"so2":29.8,"mosquito_risk":0,"arthritis_risk":5,"migraine_risk":10,"frizz_risk":1,"updated_at":"2026-05-20T13:19:05.576597+05:30"},{"city":"Dhanbad","state":"Jharkhand","latitude":23.7957,"longitude":86.4304,"temp":39.8,"humidity":29,"rain":0.0,"pressure":973.0,"uv_index":9.1,"wind_gusts":38.2,"aqi":167,"pm10":134.1,"pm2_5":72.9,"no2":14.8,"co":383.0,"o3":228.0,"so2":60.8,"mosquito_risk":0,"arthritis_risk":5,"migraine_risk":10,"frizz_risk":1,"updated_at":"2026-05-20T13:19:05.576602+05:30"},{"city":"Bokaro","state":"Jharkhand","latitude":23.6693,"longitude":86.1511,"temp":38.9,"humidity":34,"rain":0.0,"pressure":976.8,"uv_index":9.1,"wind_gusts":41.0,"aqi":167,"pm10":145.3,"pm2_5":71.0,"no2":13.4,"co":335.0,"o3":223.0,"so2":58.1,"mosquito_risk":0,"arthritis_risk":5,"migraine_risk":10,"frizz_risk":1,"updated_at":"2026-05-20T13:19:05.576607+05:30"},{"city":"Bhubaneswar","state":"Odisha","latitude":20.2961,"longitude":85.8245,"temp":41.2,"humidity":38,"rain":0.0,"pressure":994.6,"uv_index":9.15,"wind_gusts":37.8,"aqi":70,"pm10":52.5,"pm2_5":42.0,"no2":2.8,"co":251.0,"o3":214.0,"so2":18.3,"mosquito_risk":0,"arthritis_risk":5,"migraine_risk":10,"frizz_risk":1,"updated_at":"2026-05-20T13:19:05.576613+05:30"},{"city":"Cuttack","state":"Odisha","latitude":20.4625,"longitude":85.8828,"temp":39.5,"humidity":47,"rain":0.0,"pressure":996.3,"uv_index":9.2,"wind_gusts":30.2,"aqi":70,"pm10":52.5,"pm2_5":42.0,"no2":2.8,"co":266.0,"o3":214.0,"so2":18.3,"mosquito_risk":0,"arthritis_risk":5,"migraine_risk":10,"frizz_risk":1,"updated_at":"2026-05-20T13:19:05.576618+05:30"},{"city":"Rourkela","state":"Odisha","latitude":22.2604,"longitude":84.8536,"temp":40.6,"humidity":25,"rain":0.0,"pressure":978.3,"uv_index":9.0,"wind_gusts":35.6,"aqi":155,"pm10":144.4,"pm2_5":55.8,"no2":1.5,"co":299.0,"o3":221.0,"so2":23.7,"mosquito_risk":0,"arthritis_risk":5,"migraine_risk":10,"frizz_risk":1,"updated_at":"2026-05-20T13:19:05.576622+05:30"},{"city":"Raipur","state":"Chhattisgarh","latitude":21.2514,"longitude":81.6296,"temp":43.0,"humidity":19,"rain":0.0,"pressure":969.3,"uv_index":9.0,"wind_gusts":33.1,"aqi":135,"pm10":66.8,"pm2_5":52.7,"no2":6.9,"co":344.0,"o3":192.0,"so2":36.4,"mosquito_risk":0,"arthritis_risk":5,"migraine_risk":10,"frizz_risk":0,"updated_at":"2026-05-20T13:19:05.576627+05:30"},{"city":"Bhilai","state":"Chhattisgarh","latitude":21.1938,"longitude":81.3509,"temp":41.8,"humidity":21,"rain":0.0,"pressure":969.8,"uv_index":8.9,"wind_gusts":34.9,"aqi":128,"pm10":61.7,"pm2_5":46.7,"no2":7.1,"co":476.0,"o3":181.0,"so2":32.1,"mosquito_risk":0,"arthritis_risk":5,"migraine_risk":10,"frizz_risk":0,"updated_at":"2026-05-20T13:19:05.576632+05:30"},{"city":"Guwahati","state":"Assam","latitude":26.1158,"longitude":91.7086,"temp":32.9,"humidity":62,"rain":0.0,"pressure":994.8,"uv_index":8.2,"wind_gusts":21.6,"aqi":128,"pm10":68.2,"pm2_5":41.0,"no2":0.9,"co":305.0,"o3":145.0,"so2":5.6,"mosquito_risk":3,"arthritis_risk":5,"migraine_risk":7,"frizz_risk":1,"updated_at":"2026-05-20T13:19:05.576637+05:30"},{"city":"Agartala","state":"Tripura","latitude":23.8315,"longitude":91.2868,"temp":34.0,"humidity":60,"rain":0.0,"pressure":999.2,"uv_index":8.85,"wind_gusts":28.4,"aqi":82,"pm10":40.7,"pm2_5":25.3,"no2":2.5,"co":215.0,"o3":143.0,"so2":2.7,"mosquito_risk":0,"arthritis_risk":5,"migraine_risk":7,"frizz_risk":1,"updated_at":"2026-05-20T13:19:05.576642+05:30"},{"city":"Shillong","state":"Meghalaya","latitude":25.5788,"longitude":91.8933,"temp":25.4,"humidity":62,"rain":0.1,"pressure":855.1,"uv_index":8.5,"wind_gusts":22.7,"aqi":95,"pm10":51.8,"pm2_5":27.2,"no2":0.8,"co":239.0,"o3":135.0,"so2":4.4,"mosquito_risk":10,"arthritis_risk":5,"migraine_risk":7,"frizz_risk":1,"updated_at":"2026-05-20T13:19:05.576647+05:30"},{"city":"Imphal","state":"Manipur","latitude":24.817,"longitude":93.9368,"temp":31.6,"humidity":52,"rain":0.0,"pressure":918.2,"uv_index":9.25,"wind_gusts":30.2,"aqi":108,"pm10":49.0,"pm2_5":19.9,"no2":0.9,"co":212.0,"o3":123.0,"so2":3.6,"mosquito_risk":0,"arthritis_risk":5,"migraine_risk":7,"frizz_risk":1,"updated_at":"2026-05-20T13:19:05.576653+05:30"},{"city":"Aizawl","state":"Mizoram","latitude":23.7271,"longitude":92.7176,"temp":28.7,"humidity":52,"rain":0.0,"pressure":889.3,"uv_index":9.1,"wind_gusts":21.6,"aqi":82,"pm10":69.4,"pm2_5":31.3,"no2":0.4,"co":192.0,"o3":115.0,"so2":3.9,"mosquito_risk":4,"arthritis_risk":5,"migraine_risk":7,"frizz_risk":1,"updated_at":"2026-05-20T13:19:05.576658+05:30"},{"city":"Kohima","state":"Nagaland","latitude":25.6701,"longitude":94.1077,"temp":25.6,"humidity":70,"rain":0.0,"pressure":852.7,"uv_index":8.65,"wind_gusts":29.9,"aqi":106,"pm10":62.4,"pm2_5":30.5,"no2":0.6,"co":225.0,"o3":124.0,"so2":3.3,"mosquito_risk":7,"arthritis_risk":5,"migraine_risk":7,"frizz_risk":1,"updated_at":"2026-05-20T13:19:05.576664+05:30"},{"city":"Gangtok","state":"Sikkim","latitude":27.3314,"longitude":88.6138,"temp":19.5,"humidity":88,"rain":0.1,"pressure":835.4,"uv_index":9.2,"wind_gusts":37.4,"aqi":79,"pm10":38.3,"pm2_5":22.5,"no2":0.6,"co":295.0,"o3":133.0,"so2":3.1,"mosquito_risk":6,"arthritis_risk":10,"migraine_risk":7,"frizz_risk":1,"updated_at":"2026-05-20T13:19:05.576669+05:30"},{"city":"Siliguri","state":"West Bengal","latitude":26.7271,"longitude":88.3953,"temp":29.9,"humidity":74,"rain":0.0,"pressure":987.6,"uv_index":8.7,"wind_gusts":23.4,"aqi":127,"pm10":70.8,"pm2_5":39.8,"no2":1.0,"co":325.0,"o3":152.0,"so2":6.0,"mosquito_risk":7,"arthritis_risk":5,"migraine_risk":7,"frizz_risk":1,"updated_at":"2026-05-20T13:19:08.970835+05:30"},{"city":"Durgapur","state":"West Bengal","latitude":23.5204,"longitude":87.3119,"temp":37.0,"humidity":48,"rain":0.1,"pressure":987.8,"uv_index":9.0,"wind_gusts":24.8,"aqi":156,"pm10":103.8,"pm2_5":73.1,"no2":17.8,"co":568.0,"o3":207.0,"so2":74.5,"mosquito_risk":3,"arthritis_risk":5,"migraine_risk":10,"frizz_risk":1,"updated_at":"2026-05-20T13:19:08.970867+05:30"},{"city":"Asansol","state":"West Bengal","latitude":23.6739,"longitude":86.9524,"temp":38.0,"humidity":43,"rain":0.0,"pressure":986.3,"uv_index":9.05,"wind_gusts":24.1,"aqi":157,"pm10":109.4,"pm2_5":70.1,"no2":17.3,"co":527.0,"o3":210.0,"so2":70.9,"mosquito_risk":0,"arthritis_risk":5,"migraine_risk":10,"frizz_risk":1,"updated_at":"2026-05-20T13:19:08.970875+05:30"},{"city":"Pondicherry","state":"Puducherry","latitude":11.9139,"longitude":79.8145,"temp":35.2,"humidity":54,"rain":0.0,"pressure":1004.1,"uv_index":5.3,"wind_gusts":29.2,"aqi":59,"pm10":23.7,"pm2_5":21.1,"no2":3.8,"co":230.0,"o3":163.0,"so2":13.2,"mosquito_risk":0,"arthritis_risk":5,"migraine_risk":3,"frizz_risk":1,"updated_at":"2026-05-20T13:19:08.970881+05:30"},{"city":"Port Blair","state":"Andaman and Nicobar Islands","latitude":11.6234,"longitude":92.7265,"temp":30.9,"humidity":73,"rain":0.0,"pressure":1002.7,"uv_index":8.75,"wind_gusts":46.8,"aqi":28,"pm10":10.6,"pm2_5":6.5,"no2":0.3,"co":130.0,"o3":66.0,"so2":0.5,"mosquito_risk":3,"arthritis_risk":5,"migraine_risk":4,"frizz_risk":1,"updated_at":"2026-05-20T13:19:08.970888+05:30"},{"city":"Haridwar","state":"Uttarakhand","latitude":29.9457,"longitude":78.1642,"temp":38.8,"humidity":27,"rain":0.0,"pressure":968.6,"uv_index":7.6,"wind_gusts":28.8,"aqi":111,"pm10":76.1,"pm2_5":22.3,"no2":1.3,"co":348.0,"o3":161.0,"so2":7.3,"mosquito_risk":0,"arthritis_risk":5,"migraine_risk":10,"frizz_risk":1,"updated_at":"2026-05-20T13:19:08.970894+05:30"},{"city":"Rishikesh","state":"Uttarakhand","latitude":30.0869,"longitude":78.2676,"temp":38.7,"humidity":24,"rain":0.0,"pressure":961.7,"uv_index":7.7,"wind_gusts":24.1,"aqi":100,"pm10":43.5,"pm2_5":12.4,"no2":0.4,"co":271.0,"o3":136.0,"so2":2.2,"mosquito_risk":0,"arthritis_risk":5,"migraine_risk":10,"frizz_risk":0,"updated_at":"2026-05-20T13:19:08.970900+05:30"},{"city":"Nainital","state":"Uttarakhand","latitude":29.3919,"longitude":79.4542,"temp":27.3,"humidity":22,"rain":0.0,"pressure":808.3,"uv_index":8.55,"wind_gusts":59.0,"aqi":112,"pm10":62.2,"pm2_5":20.9,"no2":1.0,"co":208.0,"o3":155.0,"so2":4.9,"mosquito_risk":4,"arthritis_risk":5,"migraine_risk":7,"frizz_risk":0,"updated_at":"2026-05-20T13:19:08.970906+05:30"},{"city":"Mussoorie","state":"Uttarakhand","latitude":30.4599,"longitude":78.0664,"temp":27.2,"humidity":20,"rain":0.0,"pressure":805.9,"uv_index":8.1,"wind_gusts":54.0,"aqi":99,"pm10":82.0,"pm2_5":20.5,"no2":0.8,"co":219.0,"o3":146.0,"so2":4.2,"mosquito_risk":4,"arthritis_risk":5,"migraine_risk":7,"frizz_risk":0,"updated_at":"2026-05-20T13:19:08.970912+05:30"},{"city":"Dharamshala","state":"Himachal Pradesh","latitude":32.219,"longitude":76.3234,"temp":30.9,"humidity":22,"rain":0.0,"pressure":869.2,"uv_index":8.5,"wind_gusts":46.4,"aqi":60,"pm10":53.2,"pm2_5":15.7,"no2":0.4,"co":184.0,"o3":135.0,"so2":2.3,"mosquito_risk":0,"arthritis_risk":5,"migraine_risk":7,"frizz_risk":0,"updated_at":"2026-05-20T13:19:08.970918+05:30"},{"city":"Dalhousie","state":"Himachal Pradesh","latitude":32.5387,"longitude":75.971,"temp":27.5,"humidity":26,"rain":0.0,"pressure":807.5,"uv_index":8.75,"wind_gusts":42.8,"aqi":77,"pm10":79.6,"pm2_5":21.4,"no2":0.7,"co":174.0,"o3":152.0,"so2":3.5,"mosquito_risk":4,"arthritis_risk":5,"migraine_risk":7,"frizz_risk":0,"updated_at":"2026-05-20T13:19:08.970925+05:30"},{"city":"Patiala","state":"Punjab","latitude":30.3398,"longitude":76.3869,"temp":43.0,"humidity":11,"rain":0.0,"pressure":972.1,"uv_index":7.7,"wind_gusts":23.0,"aqi":523,"pm10":273.8,"pm2_5":47.8,"no2":1.4,"co":217.0,"o3":141.0,"so2":10.9,"mosquito_risk":0,"arthritis_risk":5,"migraine_risk":10,"frizz_risk":0,"updated_at":"2026-05-20T13:19:08.970931+05:30"},{"city":"Bhatinda","state":"Punjab","latitude":30.211,"longitude":74.9455,"temp":43.1,"humidity":16,"rain":0.0,"pressure":977.0,"uv_index":8.35,"wind_gusts":30.2,"aqi":96,"pm10":111.3,"pm2_5":34.3,"no2":4.7,"co":164.0,"o3":132.0,"so2":16.8,"mosquito_risk":0,"arthritis_risk":5,"migraine_risk":10,"frizz_risk":0,"updated_at":"2026-05-20T13:19:08.970937+05:30"},{"city":"Rohtak","state":"Haryana","latitude":28.8955,"longitude":76.6066,"temp":42.2,"humidity":18,"rain":0.0,"pressure":975.9,"uv_index":7.8,"wind_gusts":27.7,"aqi":450,"pm10":584.9,"pm2_5":78.5,"no2":1.0,"co":147.0,"o3":128.0,"so2":3.0,"mosquito_risk":0,"arthritis_risk":5,"migraine_risk":10,"frizz_risk":0,"updated_at":"2026-05-20T13:19:08.970943+05:30"},{"city":"Panipat","state":"Haryana","latitude":29.3909,"longitude":76.9635,"temp":42.9,"humidity":14,"rain":0.0,"pressure":974.3,"uv_index":7.65,"wind_gusts":31.3,"aqi":1054,"pm10":1166.0,"pm2_5":140.2,"no2":2.5,"co":165.0,"o3":131.0,"so2":10.8,"mosquito_risk":0,"arthritis_risk":5,"migraine_risk":10,"frizz_risk":0,"updated_at":"2026-05-20T13:19:08.970948+05:30"},{"city":"Mathura","state":"Uttar Pradesh","latitude":27.4924,"longitude":77.6737,"temp":43.0,"humidity":16,"rain":0.0,"pressure":981.2,"uv_index":8.05,"wind_gusts":39.6,"aqi":475,"pm10":454.5,"pm2_5":54.9,"no2":0.9,"co":143.0,"o3":132.0,"so2":2.6,"mosquito_risk":0,"arthritis_risk":5,"migraine_risk":10,"frizz_risk":0,"updated_at":"2026-05-20T13:19:08.970953+05:30"},{"city":"Vrindavan","state":"Uttar Pradesh","latitude":27.5823,"longitude":77.7027,"temp":42.3,"humidity":18,"rain":0.0,"pressure":981.5,"uv_index":8.0,"wind_gusts":29.9,"aqi":475,"pm10":454.5,"pm2_5":54.9,"no2":0.9,"co":142.0,"o3":132.0,"so2":2.6,"mosquito_risk":0,"arthritis_risk":5,"migraine_risk":10,"frizz_risk":0,"updated_at":"2026-05-20T13:19:08.970958+05:30"},{"city":"Ayodhya","state":"Uttar Pradesh","latitude":26.7922,"longitude":82.1998,"temp":38.7,"humidity":42,"rain":0.0,"pressure":988.8,"uv_index":8.4,"wind_gusts":21.6,"aqi":154,"pm10":121.5,"pm2_5":65.9,"no2":1.3,"co":451.0,"o3":207.0,"so2":16.3,"mosquito_risk":0,"arthritis_risk":5,"migraine_risk":10,"frizz_risk":1,"updated_at":"2026-05-20T13:19:08.970964+05:30"},{"city":"Ratlam","state":"Madhya Pradesh","latitude":23.3315,"longitude":75.0367,"temp":38.8,"humidity":22,"rain":0.0,"pressure":952.6,"uv_index":8.5,"wind_gusts":47.5,"aqi":57,"pm10":70.8,"pm2_5":23.9,"no2":0.4,"co":132.0,"o3":110.0,"so2":3.6,"mosquito_risk":0,"arthritis_risk":5,"migraine_risk":10,"frizz_risk":0,"updated_at":"2026-05-20T13:19:08.970969+05:30"},{"city":"Sagar","state":"Madhya Pradesh","latitude":23.8388,"longitude":78.7378,"temp":42.8,"humidity":13,"rain":0.0,"pressure":946.9,"uv_index":8.75,"wind_gusts":38.2,"aqi":50,"pm10":44.8,"pm2_5":12.9,"no2":0.7,"co":144.0,"o3":131.0,"so2":4.0,"mosquito_risk":0,"arthritis_risk":5,"migraine_risk":10,"frizz_risk":0,"updated_at":"2026-05-20T13:19:08.970974+05:30"},{"city":"Satna","state":"Madhya Pradesh","latitude":24.6005,"longitude":80.8322,"temp":43.0,"humidity":15,"rain":0.0,"pressure":966.3,"uv_index":8.8,"wind_gusts":38.9,"aqi":94,"pm10":263.6,"pm2_5":49.0,"no2":0.4,"co":158.0,"o3":169.0,"so2":8.7,"mosquito_risk":0,"arthritis_risk":5,"migraine_risk":10,"frizz_risk":0,"updated_at":"2026-05-20T13:19:08.970980+05:30"},{"city":"Akola","state":"Maharashtra","latitude":20.7002,"longitude":77.0082,"temp":42.8,"humidity":15,"rain":0.0,"pressure":971.1,"uv_index":8.9,"wind_gusts":40.3,"aqi":71,"pm10":33.9,"pm2_5":18.7,"no2":1.6,"co":160.0,"o3":138.0,"so2":9.9,"mosquito_risk":0,"arthritis_risk":5,"migraine_risk":10,"frizz_risk":0,"updated_at":"2026-05-20T13:19:08.970985+05:30"},{"city":"Amravati","state":"Maharashtra","latitude":20.9374,"longitude":77.7796,"temp":43.5,"humidity":12,"rain":0.0,"pressure":963.2,"uv_index":8.9,"wind_gusts":41.0,"aqi":76,"pm10":30.9,"pm2_5":17.8,"no2":2.0,"co":167.0,"o3":145.0,"so2":11.4,"mosquito_risk":0,"arthritis_risk":5,"migraine_risk":10,"frizz_risk":0,"updated_at":"2026-05-20T13:19:08.970992+05:30"},{"city":"Latur","state":"Maharashtra","latitude":18.4088,"longitude":76.5604,"temp":39.3,"humidity":20,"rain":0.0,"pressure":937.9,"uv_index":6.5,"wind_gusts":32.8,"aqi":87,"pm10":34.6,"pm2_5":19.4,"no2":1.1,"co":156.0,"o3":150.0,"so2":6.3,"mosquito_risk":0,"arthritis_risk":5,"migraine_risk":10,"frizz_risk":0,"updated_at":"2026-05-20T13:19:08.970998+05:30"},{"city":"Nanded","state":"Maharashtra","latitude":19.1383,"longitude":77.3091,"temp":42.4,"humidity":16,"rain":0.0,"pressure":964.9,"uv_index":8.8,"wind_gusts":35.3,"aqi":99,"pm10":27.9,"pm2_5":17.5,"no2":1.2,"co":171.0,"o3":158.0,"so2":7.2,"mosquito_risk":0,"arthritis_risk":5,"migraine_risk":10,"frizz_risk":0,"updated_at":"2026-05-20T13:19:08.971003+05:30"},{"city":"Gulbarga","state":"Karnataka","latitude":17.3297,"longitude":76.8343,"temp":38.2,"humidity":33,"rain":0.0,"pressure":956.1,"uv_index":8.85,"wind_gusts":37.1,"aqi":87,"pm10":43.3,"pm2_5":26.1,"no2":1.7,"co":181.0,"o3":150.0,"so2":6.8,"mosquito_risk":0,"arthritis_risk":5,"migraine_risk":10,"frizz_risk":1,"updated_at":"2026-05-20T13:19:08.971008+05:30"},{"city":"Bidar","state":"Karnataka","latitude":17.9104,"longitude":77.5199,"temp":38.5,"humidity":22,"rain":0.0,"pressure":933.4,"uv_index":8.7,"wind_gusts":39.2,"aqi":91,"pm10":36.0,"pm2_5":24.7,"no2":1.5,"co":180.0,"o3":170.0,"so2":8.6,"mosquito_risk":0,"arthritis_risk":5,"migraine_risk":10,"frizz_risk":0,"updated_at":"2026-05-20T13:19:08.971014+05:30"},{"city":"Hospet","state":"Karnataka","latitude":15.2689,"longitude":76.3909,"temp":31.5,"humidity":59,"rain":0.0,"pressure":954.5,"uv_index":8.2,"wind_gusts":42.5,"aqi":33,"pm10":5.4,"pm2_5":4.9,"no2":1.7,"co":149.0,"o3":92.0,"so2":2.0,"mosquito_risk":0,"arthritis_risk":5,"migraine_risk":7,"frizz_risk":1,"updated_at":"2026-05-20T13:19:08.971019+05:30"},{"city":"Tirupur","state":"Tamil Nadu","latitude":11.1085,"longitude":77.3411,"temp":34.9,"humidity":45,"rain":0.1,"pressure":972.9,"uv_index":7.3,"wind_gusts":49.3,"aqi":44,"pm10":5.0,"pm2_5":4.3,"no2":1.2,"co":164.0,"o3":98.0,"so2":1.8,"mosquito_risk":3,"arthritis_risk":5,"migraine_risk":7,"frizz_risk":1,"updated_at":"2026-05-20T13:19:08.971025+05:30"},{"city":"Alappuzha","state":"Kerala","latitude":9.4981,"longitude":76.3388,"temp":30.1,"humidity":74,"rain":0.0,"pressure":1007.8,"uv_index":7.75,"wind_gusts":33.1,"aqi":34,"pm10":7.6,"pm2_5":5.6,"no2":1.6,"co":114.0,"o3":73.0,"so2":1.6,"mosquito_risk":3,"arthritis_risk":5,"migraine_risk":4,"frizz_risk":1,"updated_at":"2026-05-20T13:19:08.971030+05:30"},{"city":"Munnar","state":"Kerala","latitude":10.0889,"longitude":77.0595,"temp":21.5,"humidity":88,"rain":0.0,"pressure":857.7,"uv_index":8.2,"wind_gusts":43.6,"aqi":23,"pm10":4.0,"pm2_5":3.3,"no2":0.5,"co":119.0,"o3":74.0,"so2":0.7,"mosquito_risk":3,"arthritis_risk":5,"migraine_risk":7,"frizz_risk":1,"updated_at":"2026-05-20T13:19:08.971036+05:30"},{"city":"Silchar","state":"Assam","latitude":24.8333,"longitude":92.7789,"temp":33.4,"humidity":63,"rain":0.0,"pressure":998.1,"uv_index":8.9,"wind_gusts":27.0,"aqi":151,"pm10":48.5,"pm2_5":24.7,"no2":0.9,"co":207.0,"o3":120.0,"so2":5.5,"mosquito_risk":3,"arthritis_risk":5,"migraine_risk":7,"frizz_risk":1,"updated_at":"2026-05-20T13:19:08.971041+05:30"},{"city":"Dibrugarh","state":"Assam","latitude":27.4728,"longitude":94.912,"temp":32.8,"humidity":56,"rain":0.0,"pressure":988.3,"uv_index":8.9,"wind_gusts":16.9,"aqi":84,"pm10":30.4,"pm2_5":20.5,"no2":0.9,"co":296.0,"o3":149.0,"so2":3.3,"mosquito_risk":0,"arthritis_risk":5,"migraine_risk":7,"frizz_risk":1,"updated_at":"2026-05-20T13:19:08.971045+05:30"}]