[{"city":"Delhi","state":"Delhi","latitude":28.6139,"longitude":77.209,"temp":37.5,"humidity":26,"rain":0.0,"pressure":980.3,"uv_index":7.8,"wind_gusts":33.5,"aqi":165,"pm10":215.6,"pm2_5":71.7,"no2":15.1,"co":346.0,"o3":201.0,"so2":32.5,"mosquito_risk":0,"arthritis_risk":5,"migraine_risk":10,"frizz_risk":0,"updated_at":"2026-06-07T10:53:52.142963+05:30"},{"city":"Mumbai","state":"Maharashtra","latitude":19.076,"longitude":72.8777,"temp":33.5,"humidity":56,"rain":0.0,"pressure":1008.2,"uv_index":7.6,"wind_gusts":40.0,"aqi":76,"pm10":72.6,"pm2_5":29.5,"no2":5.7,"co":172.0,"o3":90.0,"so2":10.5,"mosquito_risk":0,"arthritis_risk":0,"migraine_risk":4,"frizz_risk":1,"updated_at":"2026-06-07T10:53:52.143009+05:30"},{"city":"Bangalore","state":"Karnataka","latitude":12.9716,"longitude":77.5946,"temp":25.9,"humidity":67,"rain":0.0,"pressure":913.4,"uv_index":8.25,"wind_gusts":43.2,"aqi":21,"pm10":2.4,"pm2_5":2.4,"no2":3.6,"co":293.0,"o3":65.0,"so2":3.8,"mosquito_risk":7,"arthritis_risk":5,"migraine_risk":7,"frizz_risk":1,"updated_at":"2026-06-07T10:53:52.143024+05:30"},{"city":"Hyderabad","state":"Telangana","latitude":17.385,"longitude":78.4867,"temp":30.1,"humidity":59,"rain":0.0,"pressure":952.8,"uv_index":4.05,"wind_gusts":44.3,"aqi":81,"pm10":36.1,"pm2_5":22.9,"no2":4.9,"co":249.0,"o3":109.0,"so2":7.0,"mosquito_risk":0,"arthritis_risk":5,"migraine_risk":3,"frizz_risk":1,"updated_at":"2026-06-07T10:53:52.143033+05:30"},{"city":"Chennai","state":"Tamil Nadu","latitude":13.0827,"longitude":80.2707,"temp":36.3,"humidity":41,"rain":0.0,"pressure":1006.2,"uv_index":7.2,"wind_gusts":45.0,"aqi":52,"pm10":9.9,"pm2_5":8.6,"no2":6.0,"co":225.0,"o3":94.0,"so2":10.6,"mosquito_risk":0,"arthritis_risk":5,"migraine_risk":7,"frizz_risk":1,"updated_at":"2026-06-07T10:53:52.143041+05:30"},{"city":"Kolkata","state":"West Bengal","latitude":22.5726,"longitude":88.3639,"temp":27.8,"humidity":91,"rain":0.2,"pressure":1003.7,"uv_index":6.6,"wind_gusts":28.1,"aqi":138,"pm10":44.6,"pm2_5":38.8,"no2":9.7,"co":511.0,"o3":125.0,"so2":20.4,"mosquito_risk":10,"arthritis_risk":5,"migraine_risk":4,"frizz_risk":1,"updated_at":"2026-06-07T10:53:52.143049+05:30"},{"city":"Pune","state":"Maharashtra","latitude":18.5204,"longitude":73.8567,"temp":32.3,"humidity":49,"rain":0.0,"pressure":948.7,"uv_index":8.3,"wind_gusts":43.2,"aqi":58,"pm10":55.4,"pm2_5":21.4,"no2":2.5,"co":133.0,"o3":87.0,"so2":6.1,"mosquito_risk":0,"arthritis_risk":5,"migraine_risk":7,"frizz_risk":1,"updated_at":"2026-06-07T10:53:52.143055+05:30"},{"city":"Ahmedabad","state":"Gujarat","latitude":23.0225,"longitude":72.5714,"temp":35.4,"humidity":48,"rain":0.0,"pressure":1000.4,"uv_index":8.05,"wind_gusts":39.6,"aqi":82,"pm10":59.8,"pm2_5":24.6,"no2":2.3,"co":148.0,"o3":79.0,"so2":6.2,"mosquito_risk":0,"arthritis_risk":5,"migraine_risk":7,"frizz_risk":1,"updated_at":"2026-06-07T10:53:52.143062+05:30"},{"city":"Jaipur","state":"Rajasthan","latitude":26.9124,"longitude":75.7873,"temp":35.0,"humidity":42,"rain":0.0,"pressure":958.0,"uv_index":8.25,"wind_gusts":25.2,"aqi":136,"pm10":259.8,"pm2_5":51.8,"no2":1.8,"co":171.0,"o3":94.0,"so2":4.8,"mosquito_risk":0,"arthritis_risk":5,"migraine_risk":7,"frizz_risk":1,"updated_at":"2026-06-07T10:53:52.143072+05:30"},{"city":"Lucknow","state":"Uttar Pradesh","latitude":26.8467,"longitude":80.9462,"temp":36.9,"humidity":40,"rain":0.0,"pressure":990.4,"uv_index":8.35,"wind_gusts":34.9,"aqi":154,"pm10":178.3,"pm2_5":60.5,"no2":4.6,"co":324.0,"o3":180.0,"so2":13.4,"mosquito_risk":0,"arthritis_risk":5,"migraine_risk":10,"frizz_risk":1,"updated_at":"2026-06-07T10:53:52.143078+05:30"},{"city":"Kanpur","state":"Uttar Pradesh","latitude":26.4499,"longitude":80.3319,"temp":37.6,"humidity":34,"rain":0.0,"pressure":988.9,"uv_index":8.35,"wind_gusts":31.3,"aqi":171,"pm10":353.0,"pm2_5":69.2,"no2":4.2,"co":280.0,"o3":159.0,"so2":9.5,"mosquito_risk":0,"arthritis_risk":5,"migraine_risk":10,"frizz_risk":1,"updated_at":"2026-06-07T10:53:52.143084+05:30"},{"city":"Chandigarh","state":"Chandigarh","latitude":30.7333,"longitude":76.7794,"temp":34.2,"humidity":37,"rain":0.0,"pressure":966.5,"uv_index":7.8,"wind_gusts":27.0,"aqi":91,"pm10":40.6,"pm2_5":25.5,"no2":3.0,"co":365.0,"o3":183.0,"so2":12.0,"mosquito_risk":0,"arthritis_risk":5,"migraine_risk":7,"frizz_risk":1,"updated_at":"2026-06-07T10:53:52.143091+05:30"},{"city":"Srinagar","state":"Jammu and Kashmir","latitude":34.0837,"longitude":74.7973,"temp":22.9,"humidity":50,"rain":0.0,"pressure":844.2,"uv_index":9.0,"wind_gusts":30.6,"aqi":82,"pm10":21.0,"pm2_5":14.2,"no2":2.2,"co":361.0,"o3":146.0,"so2":3.6,"mosquito_risk":0,"arthritis_risk":5,"migraine_risk":7,"frizz_risk":0,"updated_at":"2026-06-07T10:53:52.143097+05:30"},{"city":"Jammu","state":"Jammu and Kashmir","latitude":32.7266,"longitude":74.857,"temp":36.0,"humidity":24,"rain":0.0,"pressure":970.1,"uv_index":8.6,"wind_gusts":27.7,"aqi":74,"pm10":21.0,"pm2_5":14.8,"no2":4.1,"co":229.0,"o3":154.0,"so2":3.8,"mosquito_risk":0,"arthritis_risk":5,"migraine_risk":10,"frizz_risk":0,"updated_at":"2026-06-07T10:53:52.143103+05:30"},{"city":"Amritsar","state":"Punjab","latitude":31.634,"longitude":74.8723,"temp":37.9,"humidity":22,"rain":0.0,"pressure":977.7,"uv_index":8.5,"wind_gusts":25.9,"aqi":131,"pm10":42.1,"pm2_5":28.0,"no2":2.4,"co":365.0,"o3":169.0,"so2":7.8,"mosquito_risk":0,"arthritis_risk":5,"migraine_risk":10,"frizz_risk":0,"updated_at":"2026-06-07T10:53:52.143109+05:30"},{"city":"Ludhiana","state":"Punjab","latitude":30.901,"longitude":75.8573,"temp":36.9,"humidity":30,"rain":0.0,"pressure":975.8,"uv_index":8.05,"wind_gusts":30.6,"aqi":148,"pm10":73.8,"pm2_5":39.5,"no2":5.9,"co":438.0,"o3":179.0,"so2":10.5,"mosquito_risk":0,"arthritis_risk":5,"migraine_risk":10,"frizz_risk":1,"updated_at":"2026-06-07T10:53:52.143115+05:30"},{"city":"Jalandhar","state":"Punjab","latitude":31.326,"longitude":75.5762,"temp":37.2,"humidity":27,"rain":0.0,"pressure":976.7,"uv_index":8.25,"wind_gusts":29.2,"aqi":151,"pm10":47.1,"pm2_5":33.3,"no2":5.7,"co":383.0,"o3":177.0,"so2":7.3,"mosquito_risk":0,"arthritis_risk":5,"migraine_risk":10,"frizz_risk":0,"updated_at":"2026-06-07T10:53:52.143122+05:30"},{"city":"Dehradun","state":"Uttarakhand","latitude":30.6284,"longitude":78.0322,"temp":25.4,"humidity":35,"rain":0.0,"pressure":832.4,"uv_index":8.25,"wind_gusts":40.7,"aqi":56,"pm10":21.4,"pm2_5":12.7,"no2":0.3,"co":199.0,"o3":152.0,"so2":3.0,"mosquito_risk":4,"arthritis_risk":5,"migraine_risk":7,"frizz_risk":0,"updated_at":"2026-06-07T10:53:52.143128+05:30"},{"city":"Shimla","state":"Himachal Pradesh","latitude":31.1048,"longitude":77.1734,"temp":22.8,"humidity":27,"rain":0.0,"pressure":787.9,"uv_index":8.35,"wind_gusts":40.3,"aqi":56,"pm10":17.7,"pm2_5":9.8,"no2":0.0,"co":163.0,"o3":152.0,"so2":1.7,"mosquito_risk":0,"arthritis_risk":5,"migraine_risk":7,"frizz_risk":0,"updated_at":"2026-06-07T10:53:52.143136+05:30"},{"city":"Manali","state":"Himachal Pradesh","latitude":32.2396,"longitude":77.1887,"temp":24.1,"humidity":34,"rain":0.0,"pressure":820.8,"uv_index":8.95,"wind_gusts":36.0,"aqi":88,"pm10":7.4,"pm2_5":5.3,"no2":3.1,"co":145.0,"o3":148.0,"so2":0.2,"mosquito_risk":0,"arthritis_risk":5,"migraine_risk":7,"frizz_risk":0,"updated_at":"2026-06-07T10:53:52.143142+05:30"},{"city":"Gurgaon","state":"Haryana","latitude":28.4595,"longitude":77.0266,"temp":37.2,"humidity":27,"rain":0.0,"pressure":978.9,"uv_index":7.9,"wind_gusts":28.4,"aqi":175,"pm10":745.1,"pm2_5":129.9,"no2":15.9,"co":259.0,"o3":173.0,"so2":31.1,"mosquito_risk":0,"arthritis_risk":5,"migraine_risk":10,"frizz_risk":0,"updated_at":"2026-06-07T10:53:52.143148+05:30"},{"city":"Noida","state":"Uttar Pradesh","latitude":28.5355,"longitude":77.391,"temp":36.8,"humidity":30,"rain":0.0,"pressure":981.7,"uv_index":7.85,"wind_gusts":20.2,"aqi":175,"pm10":745.1,"pm2_5":129.9,"no2":15.9,"co":396.0,"o3":173.0,"so2":31.1,"mosquito_risk":0,"arthritis_risk":5,"migraine_risk":10,"frizz_risk":1,"updated_at":"2026-06-07T10:53:52.143156+05:30"},{"city":"Ghaziabad","state":"Uttar Pradesh","latitude":28.6692,"longitude":77.4538,"temp":35.0,"humidity":39,"rain":0.0,"pressure":980.1,"uv_index":7.8,"wind_gusts":25.9,"aqi":172,"pm10":229.6,"pm2_5":71.9,"no2":8.1,"co":408.0,"o3":208.0,"so2":23.3,"mosquito_risk":0,"arthritis_risk":5,"migraine_risk":7,"frizz_risk":1,"updated_at":"2026-06-07T10:53:52.143163+05:30"},{"city":"Faridabad","state":"Haryana","latitude":28.4089,"longitude":77.3178,"temp":37.1,"humidity":27,"rain":0.0,"pressure":980.9,"uv_index":7.85,"wind_gusts":36.0,"aqi":175,"pm10":745.1,"pm2_5":129.9,"no2":15.9,"co":300.0,"o3":173.0,"so2":31.1,"mosquito_risk":0,"arthritis_risk":5,"migraine_risk":10,"frizz_risk":0,"updated_at":"2026-06-07T10:53:52.143169+05:30"},{"city":"Meerut","state":"Uttar Pradesh","latitude":28.9845,"longitude":77.7064,"temp":33.7,"humidity":44,"rain":0.0,"pressure":979.0,"uv_index":7.7,"wind_gusts":26.3,"aqi":172,"pm10":229.6,"pm2_5":71.9,"no2":8.1,"co":318.0,"o3":208.0,"so2":23.3,"mosquito_risk":0,"arthritis_risk":5,"migraine_risk":7,"frizz_risk":1,"updated_at":"2026-06-07T10:53:52.143176+05:30"},{"city":"Agra","state":"Uttar Pradesh","latitude":27.1767,"longitude":78.0081,"temp":36.3,"humidity":30,"rain":0.0,"pressure":985.4,"uv_index":8.15,"wind_gusts":29.2,"aqi":269,"pm10":979.8,"pm2_5":129.5,"no2":3.4,"co":224.0,"o3":118.0,"so2":5.3,"mosquito_risk":0,"arthritis_risk":5,"migraine_risk":10,"frizz_risk":0,"updated_at":"2026-06-07T10:53:52.143182+05:30"},{"city":"Varanasi","state":"Uttar Pradesh","latitude":25.3176,"longitude":82.9739,"temp":37.1,"humidity":36,"rain":0.0,"pressure":993.9,"uv_index":8.75,"wind_gusts":40.3,"aqi":150,"pm10":170.4,"pm2_5":58.1,"no2":4.6,"co":283.0,"o3":157.0,"so2":17.2,"mosquito_risk":0,"arthritis_risk":5,"migraine_risk":10,"frizz_risk":1,"updated_at":"2026-06-07T10:53:52.143189+05:30"},{"city":"Prayagraj","state":"Uttar Pradesh","latitude":25.4358,"longitude":81.8463,"temp":37.9,"humidity":31,"rain":0.0,"pressure":992.6,"uv_index":8.7,"wind_gusts":38.2,"aqi":160,"pm10":204.4,"pm2_5":69.2,"no2":5.1,"co":294.0,"o3":171.0,"so2":14.2,"mosquito_risk":0,"arthritis_risk":5,"migraine_risk":10,"frizz_risk":1,"updated_at":"2026-06-07T10:53:52.143196+05:30"},{"city":"Gorakhpur","state":"Uttar Pradesh","latitude":26.7606,"longitude":83.3732,"temp":32.9,"humidity":58,"rain":0.0,"pressure":994.2,"uv_index":8.7,"wind_gusts":29.9,"aqi":140,"pm10":89.4,"pm2_5":48.2,"no2":2.3,"co":347.0,"o3":163.0,"so2":7.6,"mosquito_risk":0,"arthritis_risk":5,"migraine_risk":7,"frizz_risk":1,"updated_at":"2026-06-07T10:53:52.143203+05:30"},{"city":"Bareilly","state":"Uttar Pradesh","latitude":28.367,"longitude":79.4304,"temp":34.8,"humidity":47,"rain":0.0,"pressure":983.7,"uv_index":8.15,"wind_gusts":30.6,"aqi":124,"pm10":105.0,"pm2_5":45.6,"no2":3.2,"co":407.0,"o3":178.0,"so2":13.4,"mosquito_risk":0,"arthritis_risk":5,"migraine_risk":7,"frizz_risk":1,"updated_at":"2026-06-07T10:53:52.143209+05:30"},{"city":"Aligarh","state":"Uttar Pradesh","latitude":27.8974,"longitude":78.088,"temp":35.1,"humidity":38,"rain":0.0,"pressure":983.1,"uv_index":8.0,"wind_gusts":23.8,"aqi":162,"pm10":271.0,"pm2_5":73.8,"no2":9.1,"co":296.0,"o3":158.0,"so2":14.9,"mosquito_risk":0,"arthritis_risk":5,"migraine_risk":10,"frizz_risk":1,"updated_at":"2026-06-07T10:53:52.143215+05:30"},{"city":"Moradabad","state":"Uttar Pradesh","latitude":28.8386,"longitude":78.7733,"temp":35.2,"humidity":42,"rain":0.0,"pressure":980.9,"uv_index":7.95,"wind_gusts":34.2,"aqi":156,"pm10":91.0,"pm2_5":46.1,"no2":4.5,"co":431.0,"o3":185.0,"so2":16.2,"mosquito_risk":0,"arthritis_risk":5,"migraine_risk":10,"frizz_risk":1,"updated_at":"2026-06-07T10:53:52.143220+05:30"},{"city":"Saharanpur","state":"Uttar Pradesh","latitude":29.9637,"longitude":77.546,"temp":32.6,"humidity":53,"rain":0.0,"pressure":973.2,"uv_index":7.5,"wind_gusts":25.2,"aqi":114,"pm10":53.4,"pm2_5":32.4,"no2":3.7,"co":453.0,"o3":186.0,"so2":9.9,"mosquito_risk":0,"arthritis_risk":5,"migraine_risk":7,"frizz_risk":1,"updated_at":"2026-06-07T10:53:52.143226+05:30"},{"city":"Jhansi","state":"Uttar Pradesh","latitude":25.4484,"longitude":78.5685,"temp":36.4,"humidity":31,"rain":0.0,"pressure":976.2,"uv_index":8.5,"wind_gusts":27.7,"aqi":87,"pm10":105.5,"pm2_5":38.0,"no2":1.4,"co":149.0,"o3":104.0,"so2":6.0,"mosquito_risk":0,"arthritis_risk":5,"migraine_risk":10,"frizz_risk":1,"updated_at":"2026-06-07T10:53:55.492610+05:30"},{"city":"Surat","state":"Gujarat","latitude":21.1702,"longitude":72.8311,"temp":34.4,"humidity":56,"rain":0.0,"pressure":1005.8,"uv_index":7.15,"wind_gusts":46.1,"aqi":92,"pm10":93.8,"pm2_5":34.5,"no2":12.6,"co":331.0,"o3":57.0,"so2":37.5,"mosquito_risk":0,"arthritis_risk":5,"migraine_risk":4,"frizz_risk":1,"updated_at":"2026-06-07T10:53:55.492639+05:30"},{"city":"Vadodara","state":"Gujarat","latitude":22.3072,"longitude":73.1812,"temp":35.8,"humidity":45,"rain":0.0,"pressure":1002.8,"uv_index":7.35,"wind_gusts":45.0,"aqi":90,"pm10":67.3,"pm2_5":28.3,"no2":2.5,"co":143.0,"o3":78.0,"so2":5.0,"mosquito_risk":0,"arthritis_risk":5,"migraine_risk":7,"frizz_risk":1,"updated_at":"2026-06-07T10:53:55.492647+05:30"},{"city":"Rajkot","state":"Gujarat","latitude":22.3039,"longitude":70.8022,"temp":34.6,"humidity":49,"rain":0.0,"pressure":992.7,"uv_index":6.85,"wind_gusts":47.5,"aqi":74,"pm10":60.8,"pm2_5":21.0,"no2":1.6,"co":114.0,"o3":79.0,"so2":4.6,"mosquito_risk":0,"arthritis_risk":5,"migraine_risk":7,"frizz_risk":1,"updated_at":"2026-06-07T10:53:55.492654+05:30"},{"city":"Thane","state":"Maharashtra","latitude":19.2183,"longitude":72.9781,"temp":35.1,"humidity":51,"rain":0.0,"pressure":1007.3,"uv_index":7.55,"wind_gusts":36.0,"aqi":76,"pm10":72.6,"pm2_5":29.5,"no2":5.7,"co":171.0,"o3":90.0,"so2":10.5,"mosquito_risk":0,"arthritis_risk":5,"migraine_risk":7,"frizz_risk":1,"updated_at":"2026-06-07T10:53:55.492661+05:30"},{"city":"Nagpur","state":"Maharashtra","latitude":21.1458,"longitude":79.0882,"temp":37.8,"humidity":30,"rain":0.0,"pressure":971.5,"uv_index":8.2,"wind_gusts":36.4,"aqi":90,"pm10":81.0,"pm2_5":39.9,"no2":4.7,"co":179.0,"o3":129.0,"so2":16.5,"mosquito_risk":0,"arthritis_risk":5,"migraine_risk":10,"frizz_risk":1,"updated_at":"2026-06-07T10:53:55.492668+05:30"},{"city":"Nashik","state":"Maharashtra","latitude":19.9975,"longitude":73.7898,"temp":32.2,"humidity":48,"rain":0.0,"pressure":946.1,"uv_index":8.05,"wind_gusts":40.3,"aqi":63,"pm10":69.4,"pm2_5":25.2,"no2":2.3,"co":125.0,"o3":81.0,"so2":5.6,"mosquito_risk":0,"arthritis_risk":5,"migraine_risk":7,"frizz_risk":1,"updated_at":"2026-06-07T10:53:55.492674+05:30"},{"city":"Aurangabad","state":"Maharashtra","latitude":19.8762,"longitude":75.3433,"temp":33.4,"humidity":40,"rain":0.0,"pressure":945.0,"uv_index":9.0,"wind_gusts":45.4,"aqi":65,"pm10":69.6,"pm2_5":24.9,"no2":1.9,"co":130.0,"o3":88.0,"so2":4.4,"mosquito_risk":0,"arthritis_risk":5,"migraine_risk":7,"frizz_risk":1,"updated_at":"2026-06-07T10:53:55.492680+05:30"},{"city":"Solapur","state":"Maharashtra","latitude":17.6599,"longitude":75.9064,"temp":32.8,"humidity":49,"rain":0.0,"pressure":957.8,"uv_index":8.5,"wind_gusts":36.4,"aqi":63,"pm10":38.2,"pm2_5":19.9,"no2":2.6,"co":129.0,"o3":87.0,"so2":5.2,"mosquito_risk":0,"arthritis_risk":5,"migraine_risk":7,"frizz_risk":1,"updated_at":"2026-06-07T10:53:55.492686+05:30"},{"city":"Kolhapur","state":"Maharashtra","latitude":16.705,"longitude":74.2433,"temp":30.2,"humidity":58,"rain":0.0,"pressure":948.8,"uv_index":4.75,"wind_gusts":41.4,"aqi":40,"pm10":24.6,"pm2_5":11.0,"no2":2.3,"co":129.0,"o3":67.0,"so2":1.8,"mosquito_risk":0,"arthritis_risk":5,"migraine_risk":3,"frizz_risk":1,"updated_at":"2026-06-07T10:53:55.492693+05:30"},{"city":"Goa","state":"Goa","latitude":15.2993,"longitude":74.124,"temp":28.9,"humidity":76,"rain":0.0,"pressure":999.1,"uv_index":2.65,"wind_gusts":23.0,"aqi":44,"pm10":12.2,"pm2_5":6.9,"no2":1.2,"co":134.0,"o3":65.0,"so2":1.1,"mosquito_risk":7,"arthritis_risk":5,"migraine_risk":3,"frizz_risk":1,"updated_at":"2026-06-07T10:53:55.492698+05:30"},{"city":"Jodhpur","state":"Rajasthan","latitude":26.2389,"longitude":73.0243,"temp":35.3,"humidity":46,"rain":0.0,"pressure":980.4,"uv_index":8.45,"wind_gusts":36.4,"aqi":133,"pm10":225.8,"pm2_5":53.7,"no2":1.0,"co":122.0,"o3":80.0,"so2":3.2,"mosquito_risk":0,"arthritis_risk":5,"migraine_risk":10,"frizz_risk":1,"updated_at":"2026-06-07T10:53:55.492705+05:30"},{"city":"Udaipur","state":"Rajasthan","latitude":24.5854,"longitude":73.7125,"temp":33.8,"humidity":41,"rain":0.0,"pressure":945.5,"uv_index":8.8,"wind_gusts":34.6,"aqi":82,"pm10":53.2,"pm2_5":22.4,"no2":0.8,"co":127.0,"o3":85.0,"so2":3.3,"mosquito_risk":0,"arthritis_risk":5,"migraine_risk":7,"frizz_risk":1,"updated_at":"2026-06-07T10:53:55.492710+05:30"},{"city":"Kota","state":"Rajasthan","latitude":25.2138,"longitude":75.8648,"temp":36.4,"humidity":42,"rain":0.0,"pressure":976.8,"uv_index":8.4,"wind_gusts":24.8,"aqi":98,"pm10":55.6,"pm2_5":29.6,"no2":1.7,"co":166.0,"o3":107.0,"so2":6.6,"mosquito_risk":0,"arthritis_risk":5,"migraine_risk":10,"frizz_risk":1,"updated_at":"2026-06-07T10:53:55.492716+05:30"},{"city":"Bikaner","state":"Rajasthan","latitude":28.0229,"longitude":73.3119,"temp":38.2,"humidity":37,"rain":0.0,"pressure":978.3,"uv_index":8.45,"wind_gusts":33.5,"aqi":142,"pm10":269.2,"pm2_5":100.6,"no2":0.6,"co":139.0,"o3":88.0,"so2":3.5,"mosquito_risk":0,"arthritis_risk":5,"migraine_risk":10,"frizz_risk":1,"updated_at":"2026-06-07T10:53:55.492722+05:30"},{"city":"Ajmer","state":"Rajasthan","latitude":26.4499,"longitude":74.6399,"temp":34.1,"humidity":48,"rain":0.0,"pressure":952.9,"uv_index":8.35,"wind_gusts":40.3,"aqi":93,"pm10":89.6,"pm2_5":30.0,"no2":1.2,"co":128.0,"o3":86.0,"so2":3.5,"mosquito_risk":0,"arthritis_risk":5,"migraine_risk":7,"frizz_risk":1,"updated_at":"2026-06-07T10:53:55.492728+05:30"},{"city":"Gwalior","state":"Madhya Pradesh","latitude":26.2183,"longitude":78.1828,"temp":36.3,"humidity":31,"rain":0.0,"pressure":981.2,"uv_index":8.3,"wind_gusts":30.6,"aqi":90,"pm10":98.3,"pm2_5":32.9,"no2":1.2,"co":141.0,"o3":100.0,"so2":3.1,"mosquito_risk":0,"arthritis_risk":5,"migraine_risk":10,"frizz_risk":1,"updated_at":"2026-06-07T10:53:55.492734+05:30"},{"city":"Indore","state":"Madhya Pradesh","latitude":22.7196,"longitude":75.8577,"temp":32.5,"humidity":52,"rain":0.0,"pressure":947.9,"uv_index":8.65,"wind_gusts":32.0,"aqi":95,"pm10":66.4,"pm2_5":33.1,"no2":2.3,"co":172.0,"o3":90.0,"so2":9.4,"mosquito_risk":0,"arthritis_risk":5,"migraine_risk":7,"frizz_risk":1,"updated_at":"2026-06-07T10:53:55.492739+05:30"},{"city":"Bhopal","state":"Madhya Pradesh","latitude":23.2599,"longitude":77.4126,"temp":34.4,"humidity":43,"rain":0.0,"pressure":953.0,"uv_index":8.7,"wind_gusts":32.0,"aqi":100,"pm10":67.1,"pm2_5":30.3,"no2":1.1,"co":216.0,"o3":108.0,"so2":4.4,"mosquito_risk":0,"arthritis_risk":5,"migraine_risk":7,"frizz_risk":1,"updated_at":"2026-06-07T10:53:55.492745+05:30"},{"city":"Jabalpur","state":"Madhya Pradesh","latitude":23.1815,"longitude":79.9864,"temp":36.4,"humidity":32,"rain":0.0,"pressure":960.0,"uv_index":8.85,"wind_gusts":28.1,"aqi":111,"pm10":93.8,"pm2_5":40.5,"no2":1.2,"co":169.0,"o3":118.0,"so2":4.5,"mosquito_risk":0,"arthritis_risk":5,"migraine_risk":10,"frizz_risk":1,"updated_at":"2026-06-07T10:53:55.492751+05:30"},{"city":"Ujjain","state":"Madhya Pradesh","latitude":23.1765,"longitude":75.7885,"temp":32.8,"humidity":53,"rain":0.0,"pressure":953.3,"uv_index":8.6,"wind_gusts":33.5,"aqi":91,"pm10":58.6,"pm2_5":30.5,"no2":2.2,"co":154.0,"o3":87.0,"so2":9.4,"mosquito_risk":0,"arthritis_risk":5,"migraine_risk":7,"frizz_risk":1,"updated_at":"2026-06-07T10:53:55.492758+05:30"},{"city":"Visakhapatnam","state":"Andhra Pradesh","latitude":17.6868,"longitude":83.2185,"temp":36.7,"humidity":50,"rain":0.0,"pressure":999.6,"uv_index":8.3,"wind_gusts":42.1,"aqi":101,"pm10":38.1,"pm2_5":30.0,"no2":9.3,"co":340.0,"o3":147.0,"so2":34.0,"mosquito_risk":0,"arthritis_risk":5,"migraine_risk":10,"frizz_risk":1,"updated_at":"2026-06-07T10:53:55.492764+05:30"},{"city":"Vijayawada","state":"Andhra Pradesh","latitude":16.5062,"longitude":80.648,"temp":36.6,"humidity":45,"rain":0.0,"pressure":1000.3,"uv_index":8.95,"wind_gusts":40.3,"aqi":83,"pm10":35.3,"pm2_5":25.3,"no2":3.1,"co":201.0,"o3":132.0,"so2":9.3,"mosquito_risk":0,"arthritis_risk":5,"migraine_risk":7,"frizz_risk":1,"updated_at":"2026-06-07T10:53:55.492769+05:30"},{"city":"Guntur","state":"Andhra Pradesh","latitude":16.3067,"longitude":80.4365,"temp":36.4,"humidity":46,"rain":0.0,"pressure":1001.6,"uv_index":8.6,"wind_gusts":38.5,"aqi":84,"pm10":32.1,"pm2_5":22.4,"no2":3.0,"co":201.0,"o3":126.0,"so2":8.1,"mosquito_risk":0,"arthritis_risk":5,"migraine_risk":7,"frizz_risk":1,"updated_at":"2026-06-07T10:53:55.492783+05:30"},{"city":"Nellore","state":"Andhra Pradesh","latitude":14.4426,"longitude":79.9865,"temp":34.7,"humidity":50,"rain":0.0,"pressure":1004.4,"uv_index":8.45,"wind_gusts":38.9,"aqi":58,"pm10":12.5,"pm2_5":9.7,"no2":3.2,"co":149.0,"o3":101.0,"so2":6.3,"mosquito_risk":0,"arthritis_risk":5,"migraine_risk":4,"frizz_risk":1,"updated_at":"2026-06-07T10:53:55.492792+05:30"},{"city":"Kurnool","state":"Andhra Pradesh","latitude":15.8281,"longitude":78.0373,"temp":32.6,"humidity":54,"rain":0.0,"pressure":977.1,"uv_index":8.4,"wind_gusts":37.4,"aqi":63,"pm10":24.1,"pm2_5":14.6,"no2":3.2,"co":161.0,"o3":103.0,"so2":8.5,"mosquito_risk":0,"arthritis_risk":5,"migraine_risk":7,"frizz_risk":1,"updated_at":"2026-06-07T10:53:55.492799+05:30"},{"city":"Kakinada","state":"Andhra Pradesh","latitude":16.9891,"longitude":82.2475,"temp":36.1,"humidity":50,"rain":0.0,"pressure":1003.9,"uv_index":8.2,"wind_gusts":38.2,"aqi":73,"pm10":34.6,"pm2_5":26.2,"no2":2.9,"co":262.0,"o3":146.0,"so2":6.0,"mosquito_risk":0,"arthritis_risk":5,"migraine_risk":7,"frizz_risk":1,"updated_at":"2026-06-07T10:53:55.492804+05:30"},{"city":"Tirupati","state":"Andhra Pradesh","latitude":13.6288,"longitude":79.4192,"temp":34.9,"humidity":43,"rain":0.0,"pressure":990.4,"uv_index":8.85,"wind_gusts":31.0,"aqi":43,"pm10":12.3,"pm2_5":7.8,"no2":1.9,"co":152.0,"o3":93.0,"so2":1.8,"mosquito_risk":0,"arthritis_risk":5,"migraine_risk":7,"frizz_risk":1,"updated_at":"2026-06-07T10:53:55.492809+05:30"},{"city":"Warangal","state":"Telangana","latitude":17.9689,"longitude":79.5941,"temp":34.9,"humidity":44,"rain":0.0,"pressure":977.1,"uv_index":7.95,"wind_gusts":37.4,"aqi":91,"pm10":47.8,"pm2_5":29.1,"no2":3.2,"co":199.0,"o3":118.0,"so2":5.8,"mosquito_risk":0,"arthritis_risk":5,"migraine_risk":7,"frizz_risk":1,"updated_at":"2026-06-07T10:53:55.492815+05:30"},{"city":"Nizamabad","state":"Telangana","latitude":18.6725,"longitude":78.0941,"temp":34.5,"humidity":42,"rain":0.0,"pressure":964.3,"uv_index":8.8,"wind_gusts":44.6,"aqi":86,"pm10":52.6,"pm2_5":29.3,"no2":2.3,"co":156.0,"o3":117.0,"so2":6.5,"mosquito_risk":0,"arthritis_risk":5,"migraine_risk":7,"frizz_risk":1,"updated_at":"2026-06-07T10:53:55.492821+05:30"},{"city":"Mysore","state":"Karnataka","latitude":12.2958,"longitude":76.6396,"temp":25.2,"humidity":78,"rain":0.0,"pressure":930.2,"uv_index":7.35,"wind_gusts":46.1,"aqi":17,"pm10":2.1,"pm2_5":2.1,"no2":2.5,"co":143.0,"o3":66.0,"so2":1.7,"mosquito_risk":7,"arthritis_risk":5,"migraine_risk":7,"frizz_risk":1,"updated_at":"2026-06-07T10:53:55.492826+05:30"},{"city":"Mangalore","state":"Karnataka","latitude":12.9141,"longitude":74.856,"temp":27.4,"humidity":82,"rain":0.0,"pressure":1008.7,"uv_index":2.0,"wind_gusts":36.0,"aqi":23,"pm10":5.1,"pm2_5":4.2,"no2":3.4,"co":159.0,"o3":60.0,"so2":2.3,"mosquito_risk":7,"arthritis_risk":0,"migraine_risk":0,"frizz_risk":1,"updated_at":"2026-06-07T10:53:55.492832+05:30"},{"city":"Hubli-Dharwad","state":"Karnataka","latitude":15.3647,"longitude":75.124,"temp":27.9,"humidity":63,"rain":0.0,"pressure":942.2,"uv_index":2.05,"wind_gusts":39.6,"aqi":25,"pm10":11.2,"pm2_5":5.6,"no2":2.1,"co":121.0,"o3":63.0,"so2":1.1,"mosquito_risk":7,"arthritis_risk":5,"migraine_risk":3,"frizz_risk":1,"updated_at":"2026-06-07T10:53:55.492839+05:30"},{"city":"Belgaum","state":"Karnataka","latitude":15.8497,"longitude":74.4977,"temp":27.6,"humidity":64,"rain":0.0,"pressure":927.1,"uv_index":8.15,"wind_gusts":39.2,"aqi":26,"pm10":19.7,"pm2_5":8.7,"no2":2.8,"co":115.0,"o3":55.0,"so2":1.8,"mosquito_risk":7,"arthritis_risk":5,"migraine_risk":7,"frizz_risk":1,"updated_at":"2026-06-07T10:53:58.833573+05:30"},{"city":"Coimbatore","state":"Tamil Nadu","latitude":11.0168,"longitude":76.9558,"temp":26.8,"humidity":74,"rain":0.0,"pressure":963.6,"uv_index":6.1,"wind_gusts":61.9,"aqi":17,"pm10":1.5,"pm2_5":1.3,"no2":2.5,"co":139.0,"o3":53.0,"so2":1.5,"mosquito_risk":7,"arthritis_risk":5,"migraine_risk":7,"frizz_risk":1,"updated_at":"2026-06-07T10:53:58.833605+05:30"},{"city":"Madurai","state":"Tamil Nadu","latitude":9.9252,"longitude":78.1198,"temp":34.7,"humidity":42,"rain":0.0,"pressure":994.3,"uv_index":8.55,"wind_gusts":65.9,"aqi":26,"pm10":3.7,"pm2_5":3.0,"no2":2.0,"co":116.0,"o3":63.0,"so2":1.9,"mosquito_risk":0,"arthritis_risk":5,"migraine_risk":7,"frizz_risk":1,"updated_at":"2026-06-07T10:53:58.833615+05:30"},{"city":"Trichy","state":"Tamil Nadu","latitude":10.7905,"longitude":78.7047,"temp":33.9,"humidity":49,"rain":0.0,"pressure":1000.7,"uv_index":8.4,"wind_gusts":42.8,"aqi":31,"pm10":10.1,"pm2_5":7.1,"no2":2.2,"co":120.0,"o3":71.0,"so2":2.8,"mosquito_risk":0,"arthritis_risk":5,"migraine_risk":4,"frizz_risk":1,"updated_at":"2026-06-07T10:53:58.833622+05:30"},{"city":"Salem","state":"Tamil Nadu","latitude":11.6643,"longitude":78.146,"temp":32.6,"humidity":48,"rain":0.0,"pressure":978.9,"uv_index":8.7,"wind_gusts":42.8,"aqi":34,"pm10":5.0,"pm2_5":4.3,"no2":3.0,"co":140.0,"o3":76.0,"so2":6.3,"mosquito_risk":0,"arthritis_risk":5,"migraine_risk":7,"frizz_risk":1,"updated_at":"2026-06-07T10:53:58.833631+05:30"},{"city":"Tirunelveli","state":"Tamil Nadu","latitude":8.7139,"longitude":77.7567,"temp":33.3,"humidity":52,"rain":0.0,"pressure":1005.8,"uv_index":7.85,"wind_gusts":45.4,"aqi":18,"pm10":3.5,"pm2_5":2.1,"no2":1.4,"co":116.0,"o3":50.0,"so2":0.7,"mosquito_risk":0,"arthritis_risk":5,"migraine_risk":4,"frizz_risk":1,"updated_at":"2026-06-07T10:53:58.833639+05:30"},{"city":"Vellore","state":"Tamil Nadu","latitude":12.9165,"longitude":79.1325,"temp":34.1,"humidity":45,"rain":0.0,"pressure":984.2,"uv_index":8.1,"wind_gusts":43.2,"aqi":27,"pm10":4.7,"pm2_5":4.2,"no2":1.9,"co":150.0,"o3":79.0,"so2":3.1,"mosquito_risk":0,"arthritis_risk":5,"migraine_risk":7,"frizz_risk":1,"updated_at":"2026-06-07T10:53:58.833646+05:30"},{"city":"Erode","state":"Tamil Nadu","latitude":11.341,"longitude":77.7172,"temp":32.3,"humidity":52,"rain":0.0,"pressure":990.6,"uv_index":8.05,"wind_gusts":58.0,"aqi":25,"pm10":2.0,"pm2_5":2.0,"no2":2.2,"co":130.0,"o3":62.0,"so2":1.9,"mosquito_risk":0,"arthritis_risk":5,"migraine_risk":7,"frizz_risk":1,"updated_at":"2026-06-07T10:53:58.833654+05:30"},{"city":"Kochi","state":"Kerala","latitude":9.9312,"longitude":76.2673,"temp":27.5,"humidity":82,"rain":0.1,"pressure":1012.1,"uv_index":7.5,"wind_gusts":44.3,"aqi":39,"pm10":9.0,"pm2_5":5.5,"no2":3.0,"co":105.0,"o3":50.0,"so2":1.9,"mosquito_risk":10,"arthritis_risk":0,"migraine_risk":4,"frizz_risk":1,"updated_at":"2026-06-07T10:53:58.833662+05:30"},{"city":"Thiruvananthapuram","state":"Kerala","latitude":8.5241,"longitude":76.9366,"temp":26.3,"humidity":91,"rain":0.1,"pressure":1012.3,"uv_index":7.35,"wind_gusts":50.4,"aqi":30,"pm10":12.1,"pm2_5":6.0,"no2":0.9,"co":92.0,"o3":54.0,"so2":0.4,"mosquito_risk":10,"arthritis_risk":0,"migraine_risk":4,"frizz_risk":1,"updated_at":"2026-06-07T10:53:58.833670+05:30"},{"city":"Kozhikode","state":"Kerala","latitude":11.2588,"longitude":75.7804,"temp":26.9,"humidity":89,"rain":0.0,"pressure":1010.8,"uv_index":4.65,"wind_gusts":33.5,"aqi":27,"pm10":4.8,"pm2_5":2.7,"no2":0.7,"co":212.0,"o3":63.0,"so2":0.3,"mosquito_risk":7,"arthritis_risk":0,"migraine_risk":0,"frizz_risk":1,"updated_at":"2026-06-07T10:53:58.833678+05:30"},{"city":"Thrissur","state":"Kerala","latitude":10.5276,"longitude":76.2144,"temp":27.0,"humidity":89,"rain":0.0,"pressure":1010.1,"uv_index":7.05,"wind_gusts":38.9,"aqi":40,"pm10":7.5,"pm2_5":5.2,"no2":3.1,"co":124.0,"o3":46.0,"so2":1.6,"mosquito_risk":7,"arthritis_risk":0,"migraine_risk":4,"frizz_risk":1,"updated_at":"2026-06-07T10:53:58.833687+05:30"},{"city":"Kannur","state":"Kerala","latitude":11.8745,"longitude":75.3704,"temp":26.8,"humidity":92,"rain":0.1,"pressure":1009.7,"uv_index":4.65,"wind_gusts":35.3,"aqi":21,"pm10":3.8,"pm2_5":2.8,"no2":2.9,"co":178.0,"o3":58.0,"so2":1.3,"mosquito_risk":10,"arthritis_risk":0,"migraine_risk":0,"frizz_risk":1,"updated_at":"2026-06-07T10:53:58.833694+05:30"},{"city":"Patna","state":"Bihar","latitude":25.5941,"longitude":85.1376,"temp":32.6,"humidity":65,"rain":0.0,"pressure":997.1,"uv_index":8.75,"wind_gusts":30.2,"aqi":156,"pm10":85.0,"pm2_5":67.1,"no2":4.0,"co":333.0,"o3":194.0,"so2":14.7,"mosquito_risk":3,"arthritis_risk":5,"migraine_risk":7,"frizz_risk":1,"updated_at":"2026-06-07T10:53:58.833701+05:30"},{"city":"Gaya","state":"Bihar","latitude":24.7914,"longitude":85.0002,"temp":35.4,"humidity":44,"rain":0.0,"pressure":990.4,"uv_index":8.4,"wind_gusts":27.7,"aqi":156,"pm10":100.6,"pm2_5":63.8,"no2":2.2,"co":261.0,"o3":158.0,"so2":7.8,"mosquito_risk":0,"arthritis_risk":5,"migraine_risk":10,"frizz_risk":1,"updated_at":"2026-06-07T10:53:58.833708+05:30"},{"city":"Muzaffarpur","state":"Bihar","latitude":26.1209,"longitude":85.3647,"temp":32.1,"humidity":66,"rain":0.0,"pressure":997.0,"uv_index":8.85,"wind_gusts":20.9,"aqi":154,"pm10":77.1,"pm2_5":64.3,"no2":3.8,"co":401.0,"o3":188.0,"so2":14.5,"mosquito_risk":3,"arthritis_risk":5,"migraine_risk":7,"frizz_risk":1,"updated_at":"2026-06-07T10:53:58.833715+05:30"},{"city":"Bhagalpur","state":"Bihar","latitude":25.2425,"longitude":87.0117,"temp":33.7,"humidity":58,"rain":0.0,"pressure":998.1,"uv_index":8.85,"wind_gusts":29.5,"aqi":154,"pm10":66.1,"pm2_5":55.9,"no2":4.9,"co":348.0,"o3":194.0,"so2":25.0,"mosquito_risk":0,"arthritis_risk":5,"migraine_risk":7,"frizz_risk":1,"updated_at":"2026-06-07T10:53:58.833722+05:30"},{"city":"Ranchi","state":"Jharkhand","latitude":23.3441,"longitude":85.3096,"temp":32.0,"humidity":51,"rain":0.0,"pressure":936.3,"uv_index":9.0,"wind_gusts":29.9,"aqi":143,"pm10":98.5,"pm2_5":54.9,"no2":1.7,"co":226.0,"o3":155.0,"so2":10.0,"mosquito_risk":0,"arthritis_risk":5,"migraine_risk":7,"frizz_risk":1,"updated_at":"2026-06-07T10:53:58.833729+05:30"},{"city":"Jamshedpur","state":"Jharkhand","latitude":22.8046,"longitude":86.2029,"temp":33.9,"humidity":59,"rain":0.0,"pressure":987.9,"uv_index":9.1,"wind_gusts":33.1,"aqi":162,"pm10":87.1,"pm2_5":66.8,"no2":5.9,"co":298.0,"o3":197.0,"so2":33.4,"mosquito_risk":0,"arthritis_risk":5,"migraine_risk":7,"frizz_risk":1,"updated_at":"2026-06-07T10:53:58.833736+05:30"},{"city":"Dhanbad","state":"Jharkhand","latitude":23.7957,"longitude":86.4304,"temp":33.7,"humidity":54,"rain":0.0,"pressure":977.2,"uv_index":8.4,"wind_gusts":48.2,"aqi":177,"pm10":100.8,"pm2_5":79.4,"no2":21.9,"co":276.0,"o3":174.0,"so2":73.1,"mosquito_risk":0,"arthritis_risk":5,"migraine_risk":7,"frizz_risk":1,"updated_at":"2026-06-07T10:53:58.833743+05:30"},{"city":"Bokaro","state":"Jharkhand","latitude":23.6693,"longitude":86.1511,"temp":34.3,"humidity":53,"rain":0.0,"pressure":980.8,"uv_index":8.65,"wind_gusts":33.8,"aqi":165,"pm10":102.4,"pm2_5":75.7,"no2":21.9,"co":288.0,"o3":164.0,"so2":74.0,"mosquito_risk":0,"arthritis_risk":5,"migraine_risk":7,"frizz_risk":1,"updated_at":"2026-06-07T10:53:58.833750+05:30"},{"city":"Bhubaneswar","state":"Odisha","latitude":20.2961,"longitude":85.8245,"temp":34.2,"humidity":68,"rain":0.0,"pressure":998.9,"uv_index":9.1,"wind_gusts":30.6,"aqi":130,"pm10":57.4,"pm2_5":43.9,"no2":3.7,"co":237.0,"o3":159.0,"so2":12.3,"mosquito_risk":3,"arthritis_risk":5,"migraine_risk":7,"frizz_risk":1,"updated_at":"2026-06-07T10:53:58.833758+05:30"},{"city":"Cuttack","state":"Odisha","latitude":20.4625,"longitude":85.8828,"temp":33.8,"humidity":69,"rain":0.0,"pressure":1000.8,"uv_index":9.2,"wind_gusts":24.8,"aqi":130,"pm10":57.4,"pm2_5":43.9,"no2":3.7,"co":260.0,"o3":159.0,"so2":12.3,"mosquito_risk":3,"arthritis_risk":5,"migraine_risk":4,"frizz_risk":1,"updated_at":"2026-06-07T10:53:58.833765+05:30"},{"city":"Rourkela","state":"Odisha","latitude":22.2604,"longitude":84.8536,"temp":33.6,"humidity":57,"rain":0.0,"pressure":982.3,"uv_index":8.7,"wind_gusts":33.8,"aqi":152,"pm10":85.7,"pm2_5":58.4,"no2":2.8,"co":287.0,"o3":174.0,"so2":21.7,"mosquito_risk":0,"arthritis_risk":5,"migraine_risk":7,"frizz_risk":1,"updated_at":"2026-06-07T10:53:58.833772+05:30"},{"city":"Raipur","state":"Chhattisgarh","latitude":21.2514,"longitude":81.6296,"temp":37.7,"humidity":30,"rain":0.0,"pressure":972.4,"uv_index":8.6,"wind_gusts":30.2,"aqi":127,"pm10":131.3,"pm2_5":53.1,"no2":12.9,"co":192.0,"o3":133.0,"so2":42.6,"mosquito_risk":0,"arthritis_risk":5,"migraine_risk":10,"frizz_risk":1,"updated_at":"2026-06-07T10:53:58.833779+05:30"},{"city":"Bhilai","state":"Chhattisgarh","latitude":21.1938,"longitude":81.3509,"temp":36.9,"humidity":31,"rain":0.0,"pressure":973.0,"uv_index":8.8,"wind_gusts":25.9,"aqi":127,"pm10":129.0,"pm2_5":50.8,"no2":17.5,"co":342.0,"o3":119.0,"so2":53.3,"mosquito_risk":0,"arthritis_risk":5,"migraine_risk":10,"frizz_risk":1,"updated_at":"2026-06-07T10:53:58.833786+05:30"},{"city":"Guwahati","state":"Assam","latitude":26.1158,"longitude":91.7086,"temp":30.7,"humidity":71,"rain":0.0,"pressure":998.0,"uv_index":8.8,"wind_gusts":32.0,"aqi":101,"pm10":57.6,"pm2_5":49.1,"no2":1.1,"co":303.0,"o3":154.0,"so2":5.2,"mosquito_risk":3,"arthritis_risk":5,"migraine_risk":7,"frizz_risk":1,"updated_at":"2026-06-07T10:53:58.833793+05:30"},{"city":"Agartala","state":"Tripura","latitude":23.8315,"longitude":91.2868,"temp":30.0,"humidity":77,"rain":0.0,"pressure":1003.5,"uv_index":6.85,"wind_gusts":29.9,"aqi":121,"pm10":20.3,"pm2_5":16.5,"no2":3.9,"co":203.0,"o3":109.0,"so2":1.4,"mosquito_risk":7,"arthritis_risk":5,"migraine_risk":4,"frizz_risk":1,"updated_at":"2026-06-07T10:53:58.833800+05:30"},{"city":"Shillong","state":"Meghalaya","latitude":25.5788,"longitude":91.8933,"temp":22.8,"humidity":81,"rain":0.0,"pressure":856.4,"uv_index":9.1,"wind_gusts":23.8,"aqi":91,"pm10":30.6,"pm2_5":25.6,"no2":1.0,"co":252.0,"o3":140.0,"so2":3.6,"mosquito_risk":3,"arthritis_risk":5,"migraine_risk":7,"frizz_risk":1,"updated_at":"2026-06-07T10:53:58.833807+05:30"},{"city":"Imphal","state":"Manipur","latitude":24.817,"longitude":93.9368,"temp":26.0,"humidity":79,"rain":0.0,"pressure":920.9,"uv_index":9.0,"wind_gusts":31.3,"aqi":98,"pm10":30.2,"pm2_5":25.1,"no2":0.6,"co":215.0,"o3":121.0,"so2":2.7,"mosquito_risk":7,"arthritis_risk":5,"migraine_risk":7,"frizz_risk":1,"updated_at":"2026-06-07T10:53:58.833814+05:30"},{"city":"Aizawl","state":"Mizoram","latitude":23.7271,"longitude":92.7176,"temp":23.5,"humidity":78,"rain":0.0,"pressure":891.3,"uv_index":9.1,"wind_gusts":25.9,"aqi":102,"pm10":27.1,"pm2_5":22.0,"no2":0.4,"co":167.0,"o3":102.0,"so2":1.5,"mosquito_risk":3,"arthritis_risk":5,"migraine_risk":7,"frizz_risk":1,"updated_at":"2026-06-07T10:53:58.833821+05:30"},{"city":"Kohima","state":"Nagaland","latitude":25.6701,"longitude":94.1077,"temp":22.8,"humidity":92,"rain":0.1,"pressure":854.4,"uv_index":9.25,"wind_gusts":25.6,"aqi":76,"pm10":30.5,"pm2_5":25.0,"no2":0.5,"co":228.0,"o3":121.0,"so2":2.2,"mosquito_risk":6,"arthritis_risk":5,"migraine_risk":7,"frizz_risk":1,"updated_at":"2026-06-07T10:53:58.833828+05:30"},{"city":"Gangtok","state":"Sikkim","latitude":27.3314,"longitude":88.6138,"temp":23.9,"humidity":58,"rain":0.0,"pressure":837.7,"uv_index":8.7,"wind_gusts":38.9,"aqi":72,"pm10":30.5,"pm2_5":23.8,"no2":0.9,"co":292.0,"o3":141.0,"so2":3.2,"mosquito_risk":0,"arthritis_risk":5,"migraine_risk":7,"frizz_risk":0,"updated_at":"2026-06-07T10:53:58.833835+05:30"},{"city":"Siliguri","state":"West Bengal","latitude":26.7271,"longitude":88.3953,"temp":31.3,"humidity":69,"rain":0.0,"pressure":989.6,"uv_index":8.7,"wind_gusts":22.3,"aqi":151,"pm10":68.2,"pm2_5":55.9,"no2":1.7,"co":393.0,"o3":172.0,"so2":6.0,"mosquito_risk":3,"arthritis_risk":5,"migraine_risk":7,"frizz_risk":1,"updated_at":"2026-06-07T10:54:02.201860+05:30"},{"city":"Durgapur","state":"West Bengal","latitude":23.5204,"longitude":87.3119,"temp":33.5,"humidity":57,"rain":0.0,"pressure":992.1,"uv_index":9.0,"wind_gusts":32.8,"aqi":171,"pm10":112.2,"pm2_5":100.1,"no2":27.5,"co":560.0,"o3":183.0,"so2":102.9,"mosquito_risk":0,"arthritis_risk":5,"migraine_risk":7,"frizz_risk":1,"updated_at":"2026-06-07T10:54:02.201893+05:30"},{"city":"Asansol","state":"West Bengal","latitude":23.6739,"longitude":86.9524,"temp":33.9,"humidity":56,"rain":0.0,"pressure":990.6,"uv_index":8.7,"wind_gusts":32.4,"aqi":171,"pm10":103.8,"pm2_5":88.2,"no2":24.3,"co":434.0,"o3":173.0,"so2":80.1,"mosquito_risk":0,"arthritis_risk":5,"migraine_risk":7,"frizz_risk":1,"updated_at":"2026-06-07T10:54:02.201904+05:30"},{"city":"Pondicherry","state":"Puducherry","latitude":11.9139,"longitude":79.8145,"temp":33.7,"humidity":52,"rain":0.0,"pressure":1008.1,"uv_index":7.8,"wind_gusts":42.5,"aqi":56,"pm10":17.5,"pm2_5":12.1,"no2":4.8,"co":152.0,"o3":80.0,"so2":11.8,"mosquito_risk":0,"arthritis_risk":0,"migraine_risk":4,"frizz_risk":1,"updated_at":"2026-06-07T10:54:02.201913+05:30"},{"city":"Port Blair","state":"Andaman and Nicobar Islands","latitude":11.6234,"longitude":92.7265,"temp":30.4,"humidity":74,"rain":0.0,"pressure":1008.1,"uv_index":6.75,"wind_gusts":41.8,"aqi":26,"pm10":9.3,"pm2_5":5.1,"no2":0.3,"co":95.0,"o3":53.0,"so2":0.4,"mosquito_risk":3,"arthritis_risk":0,"migraine_risk":4,"frizz_risk":1,"updated_at":"2026-06-07T10:54:02.201921+05:30"},{"city":"Haridwar","state":"Uttarakhand","latitude":29.9457,"longitude":78.1642,"temp":33.0,"humidity":49,"rain":0.0,"pressure":971.6,"uv_index":7.65,"wind_gusts":26.3,"aqi":93,"pm10":53.6,"pm2_5":28.5,"no2":1.5,"co":302.0,"o3":181.0,"so2":10.2,"mosquito_risk":0,"arthritis_risk":5,"migraine_risk":7,"frizz_risk":1,"updated_at":"2026-06-07T10:54:02.201929+05:30"},{"city":"Rishikesh","state":"Uttarakhand","latitude":30.0869,"longitude":78.2676,"temp":32.9,"humidity":48,"rain":0.0,"pressure":964.3,"uv_index":7.75,"wind_gusts":30.2,"aqi":72,"pm10":40.7,"pm2_5":22.2,"no2":0.8,"co":253.0,"o3":171.0,"so2":8.7,"mosquito_risk":0,"arthritis_risk":5,"migraine_risk":7,"frizz_risk":1,"updated_at":"2026-06-07T10:54:02.201936+05:30"},{"city":"Nainital","state":"Uttarakhand","latitude":29.3919,"longitude":79.4542,"temp":23.4,"humidity":41,"rain":0.0,"pressure":807.9,"uv_index":8.6,"wind_gusts":37.1,"aqi":86,"pm10":60.1,"pm2_5":24.6,"no2":0.2,"co":202.0,"o3":167.0,"so2":7.0,"mosquito_risk":0,"arthritis_risk":5,"migraine_risk":7,"frizz_risk":0,"updated_at":"2026-06-07T10:54:02.201944+05:30"},{"city":"Mussoorie","state":"Uttarakhand","latitude":30.4599,"longitude":78.0664,"temp":23.1,"humidity":35,"rain":0.0,"pressure":805.3,"uv_index":8.15,"wind_gusts":45.0,"aqi":81,"pm10":36.6,"pm2_5":22.8,"no2":0.9,"co":204.0,"o3":168.0,"so2":7.5,"mosquito_risk":0,"arthritis_risk":5,"migraine_risk":7,"frizz_risk":0,"updated_at":"2026-06-07T10:54:02.201951+05:30"},{"city":"Dharamshala","state":"Himachal Pradesh","latitude":32.219,"longitude":76.3234,"temp":26.5,"humidity":37,"rain":0.0,"pressure":870.1,"uv_index":8.5,"wind_gusts":41.4,"aqi":51,"pm10":18.4,"pm2_5":12.2,"no2":0.2,"co":180.0,"o3":147.0,"so2":1.3,"mosquito_risk":4,"arthritis_risk":5,"migraine_risk":7,"frizz_risk":0,"updated_at":"2026-06-07T10:54:02.201958+05:30"},{"city":"Dalhousie","state":"Himachal Pradesh","latitude":32.5387,"longitude":75.971,"temp":23.5,"humidity":32,"rain":0.0,"pressure":807.5,"uv_index":8.75,"wind_gusts":37.8,"aqi":74,"pm10":25.2,"pm2_5":16.4,"no2":0.7,"co":184.0,"o3":161.0,"so2":2.3,"mosquito_risk":0,"arthritis_risk":5,"migraine_risk":7,"frizz_risk":0,"updated_at":"2026-06-07T10:54:02.201966+05:30"},{"city":"Patiala","state":"Punjab","latitude":30.3398,"longitude":76.3869,"temp":36.4,"humidity":32,"rain":0.0,"pressure":975.5,"uv_index":7.7,"wind_gusts":31.3,"aqi":153,"pm10":345.5,"pm2_5":70.1,"no2":3.2,"co":292.0,"o3":177.0,"so2":13.3,"mosquito_risk":0,"arthritis_risk":5,"migraine_risk":10,"frizz_risk":1,"updated_at":"2026-06-07T10:54:02.201974+05:30"},{"city":"Bhatinda","state":"Punjab","latitude":30.211,"longitude":74.9455,"temp":38.5,"humidity":25,"rain":0.0,"pressure":980.3,"uv_index":8.35,"wind_gusts":24.1,"aqi":150,"pm10":159.3,"pm2_5":53.4,"no2":4.9,"co":196.0,"o3":154.0,"so2":15.4,"mosquito_risk":0,"arthritis_risk":5,"migraine_risk":10,"frizz_risk":0,"updated_at":"2026-06-07T10:54:02.201981+05:30"},{"city":"Rohtak","state":"Haryana","latitude":28.8955,"longitude":76.6066,"temp":36.5,"humidity":33,"rain":0.0,"pressure":979.1,"uv_index":7.8,"wind_gusts":25.9,"aqi":165,"pm10":305.5,"pm2_5":81.0,"no2":11.9,"co":270.0,"o3":166.0,"so2":19.5,"mosquito_risk":0,"arthritis_risk":5,"migraine_risk":10,"frizz_risk":1,"updated_at":"2026-06-07T10:54:02.201989+05:30"},{"city":"Panipat","state":"Haryana","latitude":29.3909,"longitude":76.9635,"temp":35.4,"humidity":37,"rain":0.0,"pressure":977.8,"uv_index":7.65,"wind_gusts":26.3,"aqi":381,"pm10":301.7,"pm2_5":78.2,"no2":10.6,"co":302.0,"o3":165.0,"so2":30.3,"mosquito_risk":0,"arthritis_risk":5,"migraine_risk":10,"frizz_risk":1,"updated_at":"2026-06-07T10:54:02.201996+05:30"},{"city":"Mathura","state":"Uttar Pradesh","latitude":27.4924,"longitude":77.6737,"temp":35.2,"humidity":37,"rain":0.0,"pressure":984.3,"uv_index":8.1,"wind_gusts":27.0,"aqi":158,"pm10":776.7,"pm2_5":108.5,"no2":4.3,"co":238.0,"o3":106.0,"so2":4.5,"mosquito_risk":0,"arthritis_risk":5,"migraine_risk":10,"frizz_risk":1,"updated_at":"2026-06-07T10:54:02.202003+05:30"},{"city":"Vrindavan","state":"Uttar Pradesh","latitude":27.5823,"longitude":77.7027,"temp":35.6,"humidity":35,"rain":0.0,"pressure":984.8,"uv_index":8.05,"wind_gusts":25.9,"aqi":158,"pm10":776.7,"pm2_5":108.5,"no2":4.3,"co":239.0,"o3":106.0,"so2":4.5,"mosquito_risk":0,"arthritis_risk":5,"migraine_risk":10,"frizz_risk":1,"updated_at":"2026-06-07T10:54:02.202010+05:30"},{"city":"Ayodhya","state":"Uttar Pradesh","latitude":26.7922,"longitude":82.1998,"temp":33.5,"humidity":57,"rain":0.0,"pressure":992.3,"uv_index":8.4,"wind_gusts":24.1,"aqi":151,"pm10":109.4,"pm2_5":52.7,"no2":2.7,"co":369.0,"o3":158.0,"so2":8.3,"mosquito_risk":0,"arthritis_risk":5,"migraine_risk":7,"frizz_risk":1,"updated_at":"2026-06-07T10:54:02.202016+05:30"},{"city":"Ratlam","state":"Madhya Pradesh","latitude":23.3315,"longitude":75.0367,"temp":33.5,"humidity":54,"rain":0.0,"pressure":954.4,"uv_index":8.4,"wind_gusts":36.4,"aqi":89,"pm10":56.6,"pm2_5":29.5,"no2":2.2,"co":130.0,"o3":88.0,"so2":9.1,"mosquito_risk":0,"arthritis_risk":5,"migraine_risk":7,"frizz_risk":1,"updated_at":"2026-06-07T10:54:02.202024+05:30"},{"city":"Sagar","state":"Madhya Pradesh","latitude":23.8388,"longitude":78.7378,"temp":35.6,"humidity":32,"rain":0.0,"pressure":949.3,"uv_index":8.2,"wind_gusts":29.5,"aqi":86,"pm10":106.6,"pm2_5":37.6,"no2":1.0,"co":152.0,"o3":110.0,"so2":4.1,"mosquito_risk":0,"arthritis_risk":5,"migraine_risk":10,"frizz_risk":1,"updated_at":"2026-06-07T10:54:02.202030+05:30"},{"city":"Satna","state":"Madhya Pradesh","latitude":24.6005,"longitude":80.8322,"temp":37.1,"humidity":27,"rain":0.0,"pressure":969.2,"uv_index":8.8,"wind_gusts":37.8,"aqi":151,"pm10":154.6,"pm2_5":37.8,"no2":1.4,"co":164.0,"o3":127.0,"so2":5.0,"mosquito_risk":0,"arthritis_risk":5,"migraine_risk":10,"frizz_risk":0,"updated_at":"2026-06-07T10:54:02.202037+05:30"},{"city":"Akola","state":"Maharashtra","latitude":20.7002,"longitude":77.0082,"temp":35.0,"humidity":43,"rain":0.0,"pressure":974.6,"uv_index":8.8,"wind_gusts":35.3,"aqi":86,"pm10":67.3,"pm2_5":32.9,"no2":2.3,"co":130.0,"o3":116.0,"so2":10.0,"mosquito_risk":0,"arthritis_risk":5,"migraine_risk":7,"frizz_risk":1,"updated_at":"2026-06-07T10:54:02.202045+05:30"},{"city":"Amravati","state":"Maharashtra","latitude":20.9374,"longitude":77.7796,"temp":35.2,"humidity":41,"rain":0.0,"pressure":966.6,"uv_index":8.85,"wind_gusts":35.6,"aqi":91,"pm10":63.3,"pm2_5":32.8,"no2":2.5,"co":170.0,"o3":123.0,"so2":9.8,"mosquito_risk":0,"arthritis_risk":5,"migraine_risk":10,"frizz_risk":1,"updated_at":"2026-06-07T10:54:02.202053+05:30"},{"city":"Latur","state":"Maharashtra","latitude":18.4088,"longitude":76.5604,"temp":32.0,"humidity":51,"rain":0.0,"pressure":940.4,"uv_index":7.9,"wind_gusts":40.7,"aqi":79,"pm10":42.7,"pm2_5":23.8,"no2":2.0,"co":146.0,"o3":105.0,"so2":6.5,"mosquito_risk":0,"arthritis_risk":5,"migraine_risk":7,"frizz_risk":1,"updated_at":"2026-06-07T10:54:02.202060+05:30"},{"city":"Nanded","state":"Maharashtra","latitude":19.1383,"longitude":77.3091,"temp":34.4,"humidity":43,"rain":0.0,"pressure":968.4,"uv_index":8.9,"wind_gusts":36.4,"aqi":85,"pm10":48.8,"pm2_5":25.8,"no2":1.9,"co":164.0,"o3":107.0,"so2":4.9,"mosquito_risk":0,"arthritis_risk":5,"migraine_risk":7,"frizz_risk":1,"updated_at":"2026-06-07T10:54:02.202066+05:30"},{"city":"Gulbarga","state":"Karnataka","latitude":17.3297,"longitude":76.8343,"temp":31.8,"humidity":55,"rain":0.0,"pressure":959.2,"uv_index":6.9,"wind_gusts":42.5,"aqi":63,"pm10":29.1,"pm2_5":18.0,"no2":4.2,"co":150.0,"o3":82.0,"so2":6.1,"mosquito_risk":0,"arthritis_risk":5,"migraine_risk":7,"frizz_risk":1,"updated_at":"2026-06-07T10:54:02.202071+05:30"},{"city":"Bidar","state":"Karnataka","latitude":17.9104,"longitude":77.5199,"temp":32.1,"humidity":50,"rain":0.0,"pressure":935.9,"uv_index":7.15,"wind_gusts":36.0,"aqi":82,"pm10":45.2,"pm2_5":27.3,"no2":5.2,"co":159.0,"o3":97.0,"so2":6.1,"mosquito_risk":0,"arthritis_risk":5,"migraine_risk":7,"frizz_risk":1,"updated_at":"2026-06-07T10:54:02.202077+05:30"},{"city":"Hospet","state":"Karnataka","latitude":15.2689,"longitude":76.3909,"temp":28.1,"humidity":68,"rain":0.0,"pressure":956.8,"uv_index":5.0,"wind_gusts":40.7,"aqi":31,"pm10":13.9,"pm2_5":7.4,"no2":2.3,"co":129.0,"o3":71.0,"so2":2.4,"mosquito_risk":7,"arthritis_risk":5,"migraine_risk":3,"frizz_risk":1,"updated_at":"2026-06-07T10:54:02.202083+05:30"},{"city":"Tirupur","state":"Tamil Nadu","latitude":11.1085,"longitude":77.3411,"temp":30.6,"humidity":57,"rain":0.0,"pressure":977.1,"uv_index":8.2,"wind_gusts":65.5,"aqi":26,"pm10":2.4,"pm2_5":2.3,"no2":2.5,"co":119.0,"o3":62.0,"so2":2.4,"mosquito_risk":0,"arthritis_risk":5,"migraine_risk":7,"frizz_risk":1,"updated_at":"2026-06-07T10:54:02.202088+05:30"},{"city":"Alappuzha","state":"Kerala","latitude":9.4981,"longitude":76.3388,"temp":27.0,"humidity":86,"rain":0.1,"pressure":1012.5,"uv_index":7.15,"wind_gusts":50.0,"aqi":35,"pm10":10.5,"pm2_5":5.5,"no2":1.7,"co":86.0,"o3":56.0,"so2":1.1,"mosquito_risk":10,"arthritis_risk":0,"migraine_risk":4,"frizz_risk":1,"updated_at":"2026-06-07T10:54:02.202094+05:30"},{"city":"Munnar","state":"Kerala","latitude":10.0889,"longitude":77.0595,"temp":18.2,"humidity":99,"rain":0.2,"pressure":859.1,"uv_index":1.1,"wind_gusts":47.5,"aqi":15,"pm10":1.3,"pm2_5":1.2,"no2":2.0,"co":106.0,"o3":51.0,"so2":1.2,"mosquito_risk":6,"arthritis_risk":10,"migraine_risk":3,"frizz_risk":1,"updated_at":"2026-06-07T10:54:02.202100+05:30"},{"city":"Silchar","state":"Assam","latitude":24.8333,"longitude":92.7789,"temp":29.3,"humidity":78,"rain":0.0,"pressure":1002.4,"uv_index":8.25,"wind_gusts":20.9,"aqi":125,"pm10":27.0,"pm2_5":22.5,"no2":1.2,"co":231.0,"o3":123.0,"so2":3.9,"mosquito_risk":7,"arthritis_risk":5,"migraine_risk":4,"frizz_risk":1,"updated_at":"2026-06-07T10:54:02.202105+05:30"},{"city":"Dibrugarh","state":"Assam","latitude":27.4728,"longitude":94.912,"temp":30.7,"humidity":69,"rain":0.0,"pressure":991.7,"uv_index":8.3,"wind_gusts":32.4,"aqi":88,"pm10":31.9,"pm2_5":27.4,"no2":0.9,"co":273.0,"o3":145.0,"so2":2.2,"mosquito_risk":3,"arthritis_risk":5,"migraine_risk":7,"frizz_risk":1,"updated_at":"2026-06-07T10:54:02.202111+05:30"}]