[{"city":"Delhi","state":"Delhi","latitude":28.6139,"longitude":77.209,"temp":33.3,"humidity":29,"rain":0.0,"pressure":981.2,"uv_index":7.25,"wind_gusts":22.0,"aqi":186,"pm10":373.5,"pm2_5":51.1,"mosquito_risk":0,"arthritis_risk":5,"migraine_risk":7,"frizz_risk":0,"updated_at":"2026-04-14T19:20:20.799116+05:30"},{"city":"Mumbai","state":"Maharashtra","latitude":19.076,"longitude":72.8777,"temp":30.4,"humidity":69,"rain":0.0,"pressure":1007.0,"uv_index":8.0,"wind_gusts":24.5,"aqi":203,"pm10":77.5,"pm2_5":29.0,"mosquito_risk":3,"arthritis_risk":5,"migraine_risk":4,"frizz_risk":1,"updated_at":"2026-04-14T19:20:20.799172+05:30"},{"city":"Bangalore","state":"Karnataka","latitude":12.9716,"longitude":77.5946,"temp":32.1,"humidity":22,"rain":0.0,"pressure":911.4,"uv_index":9.6,"wind_gusts":29.5,"aqi":164,"pm10":25.8,"pm2_5":21.1,"mosquito_risk":0,"arthritis_risk":5,"migraine_risk":7,"frizz_risk":0,"updated_at":"2026-04-14T19:20:20.799189+05:30"},{"city":"Hyderabad","state":"Telangana","latitude":17.385,"longitude":78.4867,"temp":35.2,"humidity":37,"rain":0.0,"pressure":952.1,"uv_index":9.25,"wind_gusts":25.6,"aqi":158,"pm10":50.6,"pm2_5":39.2,"mosquito_risk":0,"arthritis_risk":5,"migraine_risk":10,"frizz_risk":1,"updated_at":"2026-04-14T19:20:20.799203+05:30"},{"city":"Chennai","state":"Tamil Nadu","latitude":13.0827,"longitude":80.2707,"temp":29.6,"humidity":75,"rain":0.0,"pressure":1006.3,"uv_index":9.35,"wind_gusts":32.0,"aqi":42,"pm10":11.4,"pm2_5":7.9,"mosquito_risk":7,"arthritis_risk":5,"migraine_risk":4,"frizz_risk":1,"updated_at":"2026-04-14T19:20:20.799214+05:30"},{"city":"Kolkata","state":"West Bengal","latitude":22.5726,"longitude":88.3639,"temp":29.5,"humidity":80,"rain":0.0,"pressure":1004.4,"uv_index":8.8,"wind_gusts":29.2,"aqi":157,"pm10":63.3,"pm2_5":44.6,"mosquito_risk":7,"arthritis_risk":5,"migraine_risk":4,"frizz_risk":1,"updated_at":"2026-04-14T19:20:20.799223+05:30"},{"city":"Pune","state":"Maharashtra","latitude":18.5204,"longitude":73.8567,"temp":32.7,"humidity":47,"rain":0.0,"pressure":948.0,"uv_index":8.6,"wind_gusts":42.8,"aqi":156,"pm10":25.8,"pm2_5":18.2,"mosquito_risk":0,"arthritis_risk":5,"migraine_risk":7,"frizz_risk":1,"updated_at":"2026-04-14T19:20:20.799231+05:30"},{"city":"Ahmedabad","state":"Gujarat","latitude":23.0225,"longitude":72.5714,"temp":36.0,"humidity":20,"rain":0.0,"pressure":999.7,"uv_index":8.1,"wind_gusts":33.5,"aqi":74,"pm10":50.2,"pm2_5":15.0,"mosquito_risk":0,"arthritis_risk":5,"migraine_risk":10,"frizz_risk":0,"updated_at":"2026-04-14T19:20:20.799239+05:30"},{"city":"Jaipur","state":"Rajasthan","latitude":26.9124,"longitude":75.7873,"temp":34.4,"humidity":19,"rain":0.0,"pressure":957.8,"uv_index":7.9,"wind_gusts":31.7,"aqi":116,"pm10":124.3,"pm2_5":21.9,"mosquito_risk":0,"arthritis_risk":5,"migraine_risk":7,"frizz_risk":0,"updated_at":"2026-04-14T19:20:20.799247+05:30"},{"city":"Lucknow","state":"Uttar Pradesh","latitude":26.8467,"longitude":80.9462,"temp":32.0,"humidity":30,"rain":0.0,"pressure":991.2,"uv_index":7.75,"wind_gusts":34.6,"aqi":149,"pm10":122.9,"pm2_5":26.4,"mosquito_risk":0,"arthritis_risk":5,"migraine_risk":7,"frizz_risk":0,"updated_at":"2026-04-14T19:20:20.799256+05:30"},{"city":"Kanpur","state":"Uttar Pradesh","latitude":26.4499,"longitude":80.3319,"temp":30.5,"humidity":38,"rain":0.0,"pressure":989.7,"uv_index":7.75,"wind_gusts":28.4,"aqi":191,"pm10":302.7,"pm2_5":41.2,"mosquito_risk":0,"arthritis_risk":5,"migraine_risk":7,"frizz_risk":0,"updated_at":"2026-04-14T19:20:20.799264+05:30"},{"city":"Chandigarh","state":"Chandigarh","latitude":30.7333,"longitude":76.7794,"temp":26.7,"humidity":36,"rain":0.0,"pressure":967.5,"uv_index":7.2,"wind_gusts":28.8,"aqi":158,"pm10":14.3,"pm2_5":12.0,"mosquito_risk":4,"arthritis_risk":5,"migraine_risk":7,"frizz_risk":0,"updated_at":"2026-04-14T19:20:20.799272+05:30"},{"city":"Srinagar","state":"Jammu and Kashmir","latitude":34.0837,"longitude":74.7973,"temp":17.9,"humidity":47,"rain":0.0,"pressure":841.1,"uv_index":8.2,"wind_gusts":18.4,"aqi":148,"pm10":27.5,"pm2_5":15.8,"mosquito_risk":0,"arthritis_risk":5,"migraine_risk":7,"frizz_risk":0,"updated_at":"2026-04-14T19:20:20.799281+05:30"},{"city":"Jammu","state":"Jammu and Kashmir","latitude":32.7266,"longitude":74.857,"temp":28.4,"humidity":40,"rain":0.0,"pressure":971.8,"uv_index":7.85,"wind_gusts":29.5,"aqi":139,"pm10":23.1,"pm2_5":16.9,"mosquito_risk":4,"arthritis_risk":5,"migraine_risk":7,"frizz_risk":0,"updated_at":"2026-04-14T19:20:20.799291+05:30"},{"city":"Amritsar","state":"Punjab","latitude":31.634,"longitude":74.8723,"temp":28.3,"humidity":38,"rain":0.0,"pressure":979.8,"uv_index":7.8,"wind_gusts":24.1,"aqi":170,"pm10":17.1,"pm2_5":11.3,"mosquito_risk":4,"arthritis_risk":5,"migraine_risk":7,"frizz_risk":0,"updated_at":"2026-04-14T19:20:20.799300+05:30"},{"city":"Ludhiana","state":"Punjab","latitude":30.901,"longitude":75.8573,"temp":29.8,"humidity":32,"rain":0.0,"pressure":977.6,"uv_index":7.4,"wind_gusts":28.4,"aqi":147,"pm10":22.8,"pm2_5":14.5,"mosquito_risk":4,"arthritis_risk":5,"migraine_risk":7,"frizz_risk":0,"updated_at":"2026-04-14T19:20:20.799331+05:30"},{"city":"Jalandhar","state":"Punjab","latitude":31.326,"longitude":75.5762,"temp":28.3,"humidity":36,"rain":0.0,"pressure":978.9,"uv_index":7.6,"wind_gusts":24.1,"aqi":157,"pm10":25.6,"pm2_5":14.1,"mosquito_risk":4,"arthritis_risk":5,"migraine_risk":7,"frizz_risk":0,"updated_at":"2026-04-14T19:20:20.799340+05:30"},{"city":"Dehradun","state":"Uttarakhand","latitude":30.6284,"longitude":78.0322,"temp":17.7,"humidity":47,"rain":0.0,"pressure":829.6,"uv_index":7.6,"wind_gusts":36.7,"aqi":136,"pm10":15.0,"pm2_5":10.1,"mosquito_risk":0,"arthritis_risk":5,"migraine_risk":7,"frizz_risk":0,"updated_at":"2026-04-14T19:20:20.799349+05:30"},{"city":"Shimla","state":"Himachal Pradesh","latitude":31.1048,"longitude":77.1734,"temp":15.5,"humidity":56,"rain":0.0,"pressure":784.6,"uv_index":7.7,"wind_gusts":43.9,"aqi":138,"pm10":14.0,"pm2_5":8.6,"mosquito_risk":0,"arthritis_risk":5,"migraine_risk":7,"frizz_risk":0,"updated_at":"2026-04-14T19:20:20.799356+05:30"},{"city":"Manali","state":"Himachal Pradesh","latitude":32.2396,"longitude":77.1887,"temp":17.3,"humidity":70,"rain":0.0,"pressure":821.6,"uv_index":9.5,"wind_gusts":29.9,"aqi":153,"pm10":19.0,"pm2_5":7.4,"mosquito_risk":3,"arthritis_risk":5,"migraine_risk":7,"frizz_risk":0,"updated_at":"2026-04-14T19:20:20.799363+05:30"},{"city":"Gurgaon","state":"Haryana","latitude":28.4595,"longitude":77.0266,"temp":32.1,"humidity":36,"rain":0.0,"pressure":979.5,"uv_index":7.4,"wind_gusts":14.4,"aqi":584,"pm10":573.7,"pm2_5":72.2,"mosquito_risk":0,"arthritis_risk":5,"migraine_risk":7,"frizz_risk":0,"updated_at":"2026-04-14T19:20:20.799370+05:30"},{"city":"Noida","state":"Uttar Pradesh","latitude":28.5355,"longitude":77.391,"temp":33.0,"humidity":31,"rain":0.0,"pressure":982.7,"uv_index":7.3,"wind_gusts":21.6,"aqi":584,"pm10":573.7,"pm2_5":72.2,"mosquito_risk":0,"arthritis_risk":5,"migraine_risk":7,"frizz_risk":0,"updated_at":"2026-04-14T19:20:20.799377+05:30"},{"city":"Ghaziabad","state":"Uttar Pradesh","latitude":28.6692,"longitude":77.4538,"temp":32.0,"humidity":33,"rain":0.0,"pressure":980.8,"uv_index":7.25,"wind_gusts":24.1,"aqi":175,"pm10":262.6,"pm2_5":43.3,"mosquito_risk":0,"arthritis_risk":5,"migraine_risk":7,"frizz_risk":0,"updated_at":"2026-04-14T19:20:20.799384+05:30"},{"city":"Faridabad","state":"Haryana","latitude":28.4089,"longitude":77.3178,"temp":31.7,"humidity":38,"rain":0.0,"pressure":981.9,"uv_index":7.35,"wind_gusts":17.6,"aqi":584,"pm10":573.7,"pm2_5":72.2,"mosquito_risk":0,"arthritis_risk":5,"migraine_risk":7,"frizz_risk":0,"updated_at":"2026-04-14T19:20:20.799393+05:30"},{"city":"Meerut","state":"Uttar Pradesh","latitude":28.9845,"longitude":77.7064,"temp":29.6,"humidity":35,"rain":0.0,"pressure":979.5,"uv_index":7.15,"wind_gusts":32.0,"aqi":175,"pm10":262.6,"pm2_5":43.3,"mosquito_risk":4,"arthritis_risk":5,"migraine_risk":7,"frizz_risk":0,"updated_at":"2026-04-14T19:20:20.799401+05:30"},{"city":"Agra","state":"Uttar Pradesh","latitude":27.1767,"longitude":78.0081,"temp":32.3,"humidity":34,"rain":0.0,"pressure":985.6,"uv_index":7.65,"wind_gusts":23.4,"aqi":430,"pm10":369.7,"pm2_5":57.2,"mosquito_risk":0,"arthritis_risk":5,"migraine_risk":7,"frizz_risk":0,"updated_at":"2026-04-14T19:20:20.799408+05:30"},{"city":"Varanasi","state":"Uttar Pradesh","latitude":25.3176,"longitude":82.9739,"temp":31.7,"humidity":23,"rain":0.0,"pressure":995.4,"uv_index":8.4,"wind_gusts":34.2,"aqi":162,"pm10":95.5,"pm2_5":29.1,"mosquito_risk":0,"arthritis_risk":5,"migraine_risk":7,"frizz_risk":0,"updated_at":"2026-04-14T19:20:20.799418+05:30"},{"city":"Prayagraj","state":"Uttar Pradesh","latitude":25.4358,"longitude":81.8463,"temp":32.3,"humidity":32,"rain":0.0,"pressure":994.0,"uv_index":8.3,"wind_gusts":31.3,"aqi":161,"pm10":81.7,"pm2_5":23.0,"mosquito_risk":0,"arthritis_risk":5,"migraine_risk":7,"frizz_risk":0,"updated_at":"2026-04-14T19:20:20.799427+05:30"},{"city":"Gorakhpur","state":"Uttar Pradesh","latitude":26.7606,"longitude":83.3732,"temp":31.3,"humidity":29,"rain":0.0,"pressure":994.5,"uv_index":8.2,"wind_gusts":21.6,"aqi":160,"pm10":24.0,"pm2_5":13.6,"mosquito_risk":0,"arthritis_risk":5,"migraine_risk":7,"frizz_risk":0,"updated_at":"2026-04-14T19:20:20.799435+05:30"},{"city":"Bareilly","state":"Uttar Pradesh","latitude":28.367,"longitude":79.4304,"temp":30.0,"humidity":33,"rain":0.0,"pressure":984.6,"uv_index":7.55,"wind_gusts":36.0,"aqi":155,"pm10":30.5,"pm2_5":15.3,"mosquito_risk":4,"arthritis_risk":5,"migraine_risk":7,"frizz_risk":0,"updated_at":"2026-04-14T19:20:20.799441+05:30"},{"city":"Aligarh","state":"Uttar Pradesh","latitude":27.8974,"longitude":78.088,"temp":30.7,"humidity":32,"rain":0.0,"pressure":983.5,"uv_index":7.45,"wind_gusts":30.2,"aqi":421,"pm10":366.9,"pm2_5":59.3,"mosquito_risk":0,"arthritis_risk":5,"migraine_risk":7,"frizz_risk":0,"updated_at":"2026-04-14T19:20:20.799448+05:30"},{"city":"Moradabad","state":"Uttar Pradesh","latitude":28.8386,"longitude":78.7733,"temp":29.3,"humidity":35,"rain":0.0,"pressure":981.6,"uv_index":7.35,"wind_gusts":35.6,"aqi":151,"pm10":77.3,"pm2_5":23.7,"mosquito_risk":4,"arthritis_risk":5,"migraine_risk":7,"frizz_risk":0,"updated_at":"2026-04-14T19:20:20.799454+05:30"},{"city":"Saharanpur","state":"Uttar Pradesh","latitude":29.9637,"longitude":77.546,"temp":27.3,"humidity":39,"rain":0.0,"pressure":973.9,"uv_index":6.9,"wind_gusts":32.0,"aqi":140,"pm10":86.8,"pm2_5":23.2,"mosquito_risk":4,"arthritis_risk":5,"migraine_risk":7,"frizz_risk":0,"updated_at":"2026-04-14T19:20:20.799461+05:30"},{"city":"Jhansi","state":"Uttar Pradesh","latitude":25.4484,"longitude":78.5685,"temp":34.0,"humidity":21,"rain":0.0,"pressure":976.0,"uv_index":8.2,"wind_gusts":28.1,"aqi":146,"pm10":41.9,"pm2_5":12.8,"mosquito_risk":0,"arthritis_risk":5,"migraine_risk":7,"frizz_risk":0,"updated_at":"2026-04-14T19:20:24.141007+05:30"},{"city":"Surat","state":"Gujarat","latitude":21.1702,"longitude":72.8311,"temp":30.0,"humidity":60,"rain":0.0,"pressure":1005.3,"uv_index":7.8,"wind_gusts":23.8,"aqi":118,"pm10":52.5,"pm2_5":32.2,"mosquito_risk":4,"arthritis_risk":5,"migraine_risk":4,"frizz_risk":1,"updated_at":"2026-04-14T19:20:24.141043+05:30"},{"city":"Vadodara","state":"Gujarat","latitude":22.3072,"longitude":73.1812,"temp":35.5,"humidity":29,"rain":0.0,"pressure":1002.0,"uv_index":8.1,"wind_gusts":31.0,"aqi":90,"pm10":45.9,"pm2_5":19.5,"mosquito_risk":0,"arthritis_risk":5,"migraine_risk":7,"frizz_risk":0,"updated_at":"2026-04-14T19:20:24.141054+05:30"},{"city":"Rajkot","state":"Gujarat","latitude":22.3039,"longitude":70.8022,"temp":32.8,"humidity":31,"rain":0.0,"pressure":993.0,"uv_index":7.8,"wind_gusts":33.8,"aqi":74,"pm10":68.9,"pm2_5":19.0,"mosquito_risk":0,"arthritis_risk":5,"migraine_risk":7,"frizz_risk":0,"updated_at":"2026-04-14T19:20:24.141063+05:30"},{"city":"Thane","state":"Maharashtra","latitude":19.2183,"longitude":72.9781,"temp":30.3,"humidity":62,"rain":0.0,"pressure":1006.5,"uv_index":8.0,"wind_gusts":36.4,"aqi":203,"pm10":77.5,"pm2_5":29.0,"mosquito_risk":3,"arthritis_risk":5,"migraine_risk":4,"frizz_risk":1,"updated_at":"2026-04-14T19:20:24.141072+05:30"},{"city":"Nagpur","state":"Maharashtra","latitude":21.1458,"longitude":79.0882,"temp":32.7,"humidity":47,"rain":0.0,"pressure":970.7,"uv_index":8.85,"wind_gusts":15.1,"aqi":176,"pm10":39.0,"pm2_5":20.5,"mosquito_risk":0,"arthritis_risk":5,"migraine_risk":7,"frizz_risk":1,"updated_at":"2026-04-14T19:20:24.141080+05:30"},{"city":"Nashik","state":"Maharashtra","latitude":19.9975,"longitude":73.7898,"temp":31.2,"humidity":29,"rain":0.0,"pressure":945.8,"uv_index":8.25,"wind_gusts":34.6,"aqi":106,"pm10":36.9,"pm2_5":13.3,"mosquito_risk":0,"arthritis_risk":5,"migraine_risk":7,"frizz_risk":0,"updated_at":"2026-04-14T19:20:24.141088+05:30"},{"city":"Aurangabad","state":"Maharashtra","latitude":19.8762,"longitude":75.3433,"temp":34.8,"humidity":17,"rain":0.0,"pressure":943.3,"uv_index":8.95,"wind_gusts":33.1,"aqi":133,"pm10":16.7,"pm2_5":11.1,"mosquito_risk":0,"arthritis_risk":5,"migraine_risk":7,"frizz_risk":0,"updated_at":"2026-04-14T19:20:24.141096+05:30"},{"city":"Solapur","state":"Maharashtra","latitude":17.6599,"longitude":75.9064,"temp":37.7,"humidity":25,"rain":0.0,"pressure":955.2,"uv_index":9.05,"wind_gusts":28.4,"aqi":147,"pm10":17.7,"pm2_5":13.6,"mosquito_risk":0,"arthritis_risk":5,"migraine_risk":10,"frizz_risk":0,"updated_at":"2026-04-14T19:20:24.141104+05:30"},{"city":"Kolhapur","state":"Maharashtra","latitude":16.705,"longitude":74.2433,"temp":29.7,"humidity":55,"rain":0.0,"pressure":947.0,"uv_index":9.05,"wind_gusts":42.1,"aqi":137,"pm10":32.9,"pm2_5":26.5,"mosquito_risk":4,"arthritis_risk":5,"migraine_risk":7,"frizz_risk":1,"updated_at":"2026-04-14T19:20:24.141112+05:30"},{"city":"Goa","state":"Goa","latitude":15.2993,"longitude":74.124,"temp":29.1,"humidity":78,"rain":0.0,"pressure":996.9,"uv_index":9.0,"wind_gusts":33.5,"aqi":80,"pm10":50.6,"pm2_5":26.8,"mosquito_risk":7,"arthritis_risk":5,"migraine_risk":7,"frizz_risk":1,"updated_at":"2026-04-14T19:20:24.141121+05:30"},{"city":"Jodhpur","state":"Rajasthan","latitude":26.2389,"longitude":73.0243,"temp":33.8,"humidity":25,"rain":0.0,"pressure":980.5,"uv_index":8.15,"wind_gusts":27.0,"aqi":74,"pm10":100.8,"pm2_5":19.3,"mosquito_risk":0,"arthritis_risk":5,"migraine_risk":7,"frizz_risk":0,"updated_at":"2026-04-14T19:20:24.141128+05:30"},{"city":"Udaipur","state":"Rajasthan","latitude":24.5854,"longitude":73.7125,"temp":31.8,"humidity":22,"rain":0.0,"pressure":945.7,"uv_index":8.7,"wind_gusts":40.0,"aqi":50,"pm10":63.6,"pm2_5":18.6,"mosquito_risk":0,"arthritis_risk":5,"migraine_risk":7,"frizz_risk":0,"updated_at":"2026-04-14T19:20:24.141136+05:30"},{"city":"Kota","state":"Rajasthan","latitude":25.2138,"longitude":75.8648,"temp":35.1,"humidity":23,"rain":0.0,"pressure":975.9,"uv_index":8.2,"wind_gusts":27.0,"aqi":144,"pm10":32.8,"pm2_5":16.5,"mosquito_risk":0,"arthritis_risk":5,"migraine_risk":10,"frizz_risk":0,"updated_at":"2026-04-14T19:20:24.141144+05:30"},{"city":"Bikaner","state":"Rajasthan","latitude":28.0229,"longitude":73.3119,"temp":36.1,"humidity":15,"rain":0.0,"pressure":979.5,"uv_index":8.0,"wind_gusts":32.4,"aqi":65,"pm10":103.1,"pm2_5":20.1,"mosquito_risk":0,"arthritis_risk":5,"migraine_risk":10,"frizz_risk":0,"updated_at":"2026-04-14T19:20:24.141152+05:30"},{"city":"Ajmer","state":"Rajasthan","latitude":26.4499,"longitude":74.6399,"temp":32.1,"humidity":22,"rain":0.0,"pressure":953.0,"uv_index":8.1,"wind_gusts":35.6,"aqi":79,"pm10":28.1,"pm2_5":11.0,"mosquito_risk":0,"arthritis_risk":5,"migraine_risk":7,"frizz_risk":0,"updated_at":"2026-04-14T19:20:24.141160+05:30"},{"city":"Gwalior","state":"Madhya Pradesh","latitude":26.2183,"longitude":78.1828,"temp":32.7,"humidity":37,"rain":0.0,"pressure":981.4,"uv_index":7.9,"wind_gusts":40.0,"aqi":145,"pm10":81.0,"pm2_5":20.4,"mosquito_risk":0,"arthritis_risk":5,"migraine_risk":7,"frizz_risk":1,"updated_at":"2026-04-14T19:20:24.141168+05:30"},{"city":"Indore","state":"Madhya Pradesh","latitude":22.7196,"longitude":75.8577,"temp":31.0,"humidity":34,"rain":0.0,"pressure":947.6,"uv_index":8.55,"wind_gusts":34.2,"aqi":137,"pm10":27.9,"pm2_5":16.8,"mosquito_risk":0,"arthritis_risk":5,"migraine_risk":7,"frizz_risk":0,"updated_at":"2026-04-14T19:20:24.141176+05:30"},{"city":"Bhopal","state":"Madhya Pradesh","latitude":23.2599,"longitude":77.4126,"temp":33.9,"humidity":21,"rain":0.0,"pressure":952.3,"uv_index":8.55,"wind_gusts":31.7,"aqi":135,"pm10":35.0,"pm2_5":15.2,"mosquito_risk":0,"arthritis_risk":5,"migraine_risk":7,"frizz_risk":0,"updated_at":"2026-04-14T19:20:24.141184+05:30"},{"city":"Jabalpur","state":"Madhya Pradesh","latitude":23.1815,"longitude":79.9864,"temp":32.4,"humidity":36,"rain":0.0,"pressure":959.8,"uv_index":8.65,"wind_gusts":16.6,"aqi":142,"pm10":72.6,"pm2_5":21.7,"mosquito_risk":0,"arthritis_risk":5,"migraine_risk":7,"frizz_risk":0,"updated_at":"2026-04-14T19:20:24.141191+05:30"},{"city":"Ujjain","state":"Madhya Pradesh","latitude":23.1765,"longitude":75.7885,"temp":31.3,"humidity":34,"rain":0.0,"pressure":953.2,"uv_index":8.45,"wind_gusts":33.5,"aqi":105,"pm10":29.2,"pm2_5":15.3,"mosquito_risk":0,"arthritis_risk":5,"migraine_risk":7,"frizz_risk":0,"updated_at":"2026-04-14T19:20:24.141201+05:30"},{"city":"Visakhapatnam","state":"Andhra Pradesh","latitude":17.6868,"longitude":83.2185,"temp":28.3,"humidity":79,"rain":0.0,"pressure":1003.0,"uv_index":9.15,"wind_gusts":39.6,"aqi":65,"pm10":26.5,"pm2_5":18.1,"mosquito_risk":7,"arthritis_risk":5,"migraine_risk":4,"frizz_risk":1,"updated_at":"2026-04-14T19:20:24.141208+05:30"},{"city":"Vijayawada","state":"Andhra Pradesh","latitude":16.5062,"longitude":80.648,"temp":31.4,"humidity":52,"rain":0.0,"pressure":1001.3,"uv_index":9.2,"wind_gusts":28.1,"aqi":56,"pm10":22.2,"pm2_5":16.6,"mosquito_risk":0,"arthritis_risk":5,"migraine_risk":4,"frizz_risk":1,"updated_at":"2026-04-14T19:20:24.141214+05:30"},{"city":"Guntur","state":"Andhra Pradesh","latitude":16.3067,"longitude":80.4365,"temp":29.9,"humidity":65,"rain":0.0,"pressure":1002.7,"uv_index":9.2,"wind_gusts":31.0,"aqi":72,"pm10":23.6,"pm2_5":17.8,"mosquito_risk":7,"arthritis_risk":5,"migraine_risk":4,"frizz_risk":1,"updated_at":"2026-04-14T19:20:24.141221+05:30"},{"city":"Nellore","state":"Andhra Pradesh","latitude":14.4426,"longitude":79.9865,"temp":29.1,"humidity":71,"rain":0.0,"pressure":1004.7,"uv_index":9.3,"wind_gusts":31.7,"aqi":81,"pm10":17.7,"pm2_5":13.6,"mosquito_risk":7,"arthritis_risk":5,"migraine_risk":4,"frizz_risk":1,"updated_at":"2026-04-14T19:20:24.141227+05:30"},{"city":"Kurnool","state":"Andhra Pradesh","latitude":15.8281,"longitude":78.0373,"temp":38.2,"humidity":26,"rain":0.0,"pressure":974.2,"uv_index":9.2,"wind_gusts":22.7,"aqi":140,"pm10":45.2,"pm2_5":33.4,"mosquito_risk":0,"arthritis_risk":5,"migraine_risk":10,"frizz_risk":0,"updated_at":"2026-04-14T19:20:24.141235+05:30"},{"city":"Kakinada","state":"Andhra Pradesh","latitude":16.9891,"longitude":82.2475,"temp":29.9,"humidity":66,"rain":0.0,"pressure":1006.7,"uv_index":9.15,"wind_gusts":30.2,"aqi":55,"pm10":21.4,"pm2_5":13.2,"mosquito_risk":7,"arthritis_risk":5,"migraine_risk":4,"frizz_risk":1,"updated_at":"2026-04-14T19:20:24.141242+05:30"},{"city":"Tirupati","state":"Andhra Pradesh","latitude":13.6288,"longitude":79.4192,"temp":32.9,"humidity":35,"rain":0.0,"pressure":990.6,"uv_index":9.4,"wind_gusts":32.4,"aqi":91,"pm10":25.2,"pm2_5":21.7,"mosquito_risk":0,"arthritis_risk":5,"migraine_risk":7,"frizz_risk":0,"updated_at":"2026-04-14T19:20:24.141248+05:30"},{"city":"Warangal","state":"Telangana","latitude":17.9689,"longitude":79.5941,"temp":35.2,"humidity":43,"rain":0.0,"pressure":976.6,"uv_index":9.1,"wind_gusts":24.8,"aqi":116,"pm10":46.8,"pm2_5":37.1,"mosquito_risk":0,"arthritis_risk":5,"migraine_risk":10,"frizz_risk":1,"updated_at":"2026-04-14T19:20:24.141254+05:30"},{"city":"Nizamabad","state":"Telangana","latitude":18.6725,"longitude":78.0941,"temp":35.5,"humidity":32,"rain":0.0,"pressure":963.2,"uv_index":9.05,"wind_gusts":25.6,"aqi":133,"pm10":30.6,"pm2_5":21.9,"mosquito_risk":0,"arthritis_risk":5,"migraine_risk":10,"frizz_risk":1,"updated_at":"2026-04-14T19:20:24.141260+05:30"},{"city":"Mysore","state":"Karnataka","latitude":12.2958,"longitude":76.6396,"temp":32.7,"humidity":31,"rain":0.0,"pressure":927.3,"uv_index":9.5,"wind_gusts":41.4,"aqi":172,"pm10":30.5,"pm2_5":23.9,"mosquito_risk":0,"arthritis_risk":5,"migraine_risk":7,"frizz_risk":0,"updated_at":"2026-04-14T19:20:24.141266+05:30"},{"city":"Mangalore","state":"Karnataka","latitude":12.9141,"longitude":74.856,"temp":29.8,"humidity":80,"rain":0.0,"pressure":1005.7,"uv_index":9.15,"wind_gusts":25.6,"aqi":88,"pm10":37.3,"pm2_5":21.4,"mosquito_risk":7,"arthritis_risk":5,"migraine_risk":4,"frizz_risk":1,"updated_at":"2026-04-14T19:20:24.141272+05:30"},{"city":"Hubli-Dharwad","state":"Karnataka","latitude":15.3647,"longitude":75.124,"temp":29.9,"humidity":63,"rain":0.0,"pressure":939.9,"uv_index":9.25,"wind_gusts":41.4,"aqi":146,"pm10":36.9,"pm2_5":28.1,"mosquito_risk":7,"arthritis_risk":5,"migraine_risk":7,"frizz_risk":1,"updated_at":"2026-04-14T19:20:24.141279+05:30"},{"city":"Belgaum","state":"Karnataka","latitude":15.8497,"longitude":74.4977,"temp":27.6,"humidity":69,"rain":0.0,"pressure":925.1,"uv_index":9.3,"wind_gusts":41.8,"aqi":145,"pm10":31.9,"pm2_5":24.7,"mosquito_risk":7,"arthritis_risk":5,"migraine_risk":7,"frizz_risk":1,"updated_at":"2026-04-14T19:20:27.488279+05:30"},{"city":"Coimbatore","state":"Tamil Nadu","latitude":11.0168,"longitude":76.9558,"temp":29.3,"humidity":67,"rain":0.0,"pressure":961.1,"uv_index":9.15,"wind_gusts":38.9,"aqi":151,"pm10":25.2,"pm2_5":19.4,"mosquito_risk":7,"arthritis_risk":5,"migraine_risk":7,"frizz_risk":1,"updated_at":"2026-04-14T19:20:27.488339+05:30"},{"city":"Madurai","state":"Tamil Nadu","latitude":9.9252,"longitude":78.1198,"temp":32.2,"humidity":56,"rain":0.0,"pressure":992.2,"uv_index":9.35,"wind_gusts":39.6,"aqi":101,"pm10":17.9,"pm2_5":14.1,"mosquito_risk":0,"arthritis_risk":5,"migraine_risk":7,"frizz_risk":1,"updated_at":"2026-04-14T19:20:27.488352+05:30"},{"city":"Trichy","state":"Tamil Nadu","latitude":10.7905,"longitude":78.7047,"temp":33.2,"humidity":54,"rain":0.0,"pressure":998.6,"uv_index":9.4,"wind_gusts":25.2,"aqi":82,"pm10":14.7,"pm2_5":13.2,"mosquito_risk":0,"arthritis_risk":5,"migraine_risk":7,"frizz_risk":1,"updated_at":"2026-04-14T19:20:27.488362+05:30"},{"city":"Salem","state":"Tamil Nadu","latitude":11.6643,"longitude":78.146,"temp":34.4,"humidity":32,"rain":0.0,"pressure":976.1,"uv_index":9.45,"wind_gusts":19.4,"aqi":115,"pm10":20.2,"pm2_5":13.1,"mosquito_risk":0,"arthritis_risk":5,"migraine_risk":7,"frizz_risk":0,"updated_at":"2026-04-14T19:20:27.488371+05:30"},{"city":"Tirunelveli","state":"Tamil Nadu","latitude":8.7139,"longitude":77.7567,"temp":30.7,"humidity":64,"rain":0.0,"pressure":1002.5,"uv_index":9.3,"wind_gusts":40.3,"aqi":110,"pm10":23.2,"pm2_5":18.6,"mosquito_risk":3,"arthritis_risk":5,"migraine_risk":4,"frizz_risk":1,"updated_at":"2026-04-14T19:20:27.488380+05:30"},{"city":"Vellore","state":"Tamil Nadu","latitude":12.9165,"longitude":79.1325,"temp":32.0,"humidity":41,"rain":0.0,"pressure":983.7,"uv_index":9.4,"wind_gusts":30.6,"aqi":106,"pm10":33.6,"pm2_5":30.6,"mosquito_risk":0,"arthritis_risk":5,"migraine_risk":7,"frizz_risk":1,"updated_at":"2026-04-14T19:20:27.488389+05:30"},{"city":"Erode","state":"Tamil Nadu","latitude":11.341,"longitude":77.7172,"temp":35.3,"humidity":26,"rain":0.0,"pressure":987.2,"uv_index":9.3,"wind_gusts":26.6,"aqi":106,"pm10":19.6,"pm2_5":13.3,"mosquito_risk":0,"arthritis_risk":5,"migraine_risk":10,"frizz_risk":0,"updated_at":"2026-04-14T19:20:27.488398+05:30"},{"city":"Kochi","state":"Kerala","latitude":9.9312,"longitude":76.2673,"temp":30.0,"humidity":79,"rain":0.0,"pressure":1007.6,"uv_index":8.65,"wind_gusts":29.2,"aqi":96,"pm10":43.4,"pm2_5":30.7,"mosquito_risk":7,"arthritis_risk":5,"migraine_risk":4,"frizz_risk":1,"updated_at":"2026-04-14T19:20:27.488406+05:30"},{"city":"Thiruvananthapuram","state":"Kerala","latitude":8.5241,"longitude":76.9366,"temp":29.7,"humidity":81,"rain":0.0,"pressure":1007.5,"uv_index":9.15,"wind_gusts":23.0,"aqi":76,"pm10":28.0,"pm2_5":17.0,"mosquito_risk":7,"arthritis_risk":5,"migraine_risk":4,"frizz_risk":1,"updated_at":"2026-04-14T19:20:27.488415+05:30"},{"city":"Kozhikode","state":"Kerala","latitude":11.2588,"longitude":75.7804,"temp":30.4,"humidity":80,"rain":0.0,"pressure":1006.7,"uv_index":9.15,"wind_gusts":28.4,"aqi":88,"pm10":44.4,"pm2_5":30.0,"mosquito_risk":3,"arthritis_risk":5,"migraine_risk":4,"frizz_risk":1,"updated_at":"2026-04-14T19:20:27.488423+05:30"},{"city":"Thrissur","state":"Kerala","latitude":10.5276,"longitude":76.2144,"temp":30.1,"humidity":77,"rain":0.0,"pressure":1006.0,"uv_index":8.65,"wind_gusts":38.9,"aqi":92,"pm10":39.3,"pm2_5":29.7,"mosquito_risk":3,"arthritis_risk":5,"migraine_risk":4,"frizz_risk":1,"updated_at":"2026-04-14T19:20:27.488432+05:30"},{"city":"Kannur","state":"Kerala","latitude":11.8745,"longitude":75.3704,"temp":30.1,"humidity":79,"rain":0.0,"pressure":1006.3,"uv_index":9.15,"wind_gusts":31.3,"aqi":93,"pm10":38.4,"pm2_5":25.1,"mosquito_risk":3,"arthritis_risk":5,"migraine_risk":4,"frizz_risk":1,"updated_at":"2026-04-14T19:20:27.488441+05:30"},{"city":"Patna","state":"Bihar","latitude":25.5941,"longitude":85.1376,"temp":32.7,"humidity":32,"rain":0.0,"pressure":998.0,"uv_index":8.55,"wind_gusts":26.3,"aqi":175,"pm10":128.5,"pm2_5":39.7,"mosquito_risk":0,"arthritis_risk":5,"migraine_risk":7,"frizz_risk":0,"updated_at":"2026-04-14T19:20:27.488449+05:30"},{"city":"Gaya","state":"Bihar","latitude":24.7914,"longitude":85.0002,"temp":29.5,"humidity":35,"rain":0.0,"pressure":991.8,"uv_index":8.6,"wind_gusts":20.9,"aqi":163,"pm10":129.0,"pm2_5":33.3,"mosquito_risk":4,"arthritis_risk":5,"migraine_risk":7,"frizz_risk":0,"updated_at":"2026-04-14T19:20:27.488456+05:30"},{"city":"Muzaffarpur","state":"Bihar","latitude":26.1209,"longitude":85.3647,"temp":28.7,"humidity":51,"rain":0.0,"pressure":998.2,"uv_index":8.5,"wind_gusts":18.7,"aqi":182,"pm10":109.2,"pm2_5":41.4,"mosquito_risk":4,"arthritis_risk":5,"migraine_risk":7,"frizz_risk":1,"updated_at":"2026-04-14T19:20:27.488463+05:30"},{"city":"Bhagalpur","state":"Bihar","latitude":25.2425,"longitude":87.0117,"temp":28.5,"humidity":53,"rain":0.0,"pressure":999.4,"uv_index":8.55,"wind_gusts":16.9,"aqi":184,"pm10":85.9,"pm2_5":32.9,"mosquito_risk":4,"arthritis_risk":5,"migraine_risk":7,"frizz_risk":1,"updated_at":"2026-04-14T19:20:27.488470+05:30"},{"city":"Ranchi","state":"Jharkhand","latitude":23.3441,"longitude":85.3096,"temp":28.4,"humidity":23,"rain":0.0,"pressure":937.4,"uv_index":9.1,"wind_gusts":32.8,"aqi":135,"pm10":74.7,"pm2_5":18.3,"mosquito_risk":4,"arthritis_risk":5,"migraine_risk":7,"frizz_risk":0,"updated_at":"2026-04-14T19:20:27.488476+05:30"},{"city":"Jamshedpur","state":"Jharkhand","latitude":22.8046,"longitude":86.2029,"temp":31.3,"humidity":49,"rain":0.0,"pressure":989.0,"uv_index":8.95,"wind_gusts":16.9,"aqi":183,"pm10":92.0,"pm2_5":30.7,"mosquito_risk":0,"arthritis_risk":5,"migraine_risk":7,"frizz_risk":1,"updated_at":"2026-04-14T19:20:27.488483+05:30"},{"city":"Dhanbad","state":"Jharkhand","latitude":23.7957,"longitude":86.4304,"temp":32.0,"humidity":27,"rain":0.0,"pressure":978.4,"uv_index":8.9,"wind_gusts":19.4,"aqi":151,"pm10":163.4,"pm2_5":57.3,"mosquito_risk":0,"arthritis_risk":5,"migraine_risk":7,"frizz_risk":0,"updated_at":"2026-04-14T19:20:27.488490+05:30"},{"city":"Bokaro","state":"Jharkhand","latitude":23.6693,"longitude":86.1511,"temp":30.4,"humidity":26,"rain":0.0,"pressure":982.5,"uv_index":8.9,"wind_gusts":26.3,"aqi":155,"pm10":148.1,"pm2_5":49.4,"mosquito_risk":0,"arthritis_risk":5,"migraine_risk":7,"frizz_risk":0,"updated_at":"2026-04-14T19:20:27.488496+05:30"},{"city":"Bhubaneswar","state":"Odisha","latitude":20.2961,"longitude":85.8245,"temp":28.4,"humidity":81,"rain":0.0,"pressure":1002.2,"uv_index":9.05,"wind_gusts":25.6,"aqi":121,"pm10":31.3,"pm2_5":26.2,"mosquito_risk":7,"arthritis_risk":5,"migraine_risk":4,"frizz_risk":1,"updated_at":"2026-04-14T19:20:27.488503+05:30"},{"city":"Cuttack","state":"Odisha","latitude":20.4625,"longitude":85.8828,"temp":29.7,"humidity":78,"rain":0.0,"pressure":1003.5,"uv_index":9.1,"wind_gusts":24.8,"aqi":121,"pm10":31.3,"pm2_5":26.2,"mosquito_risk":7,"arthritis_risk":5,"migraine_risk":4,"frizz_risk":1,"updated_at":"2026-04-14T19:20:27.488510+05:30"},{"city":"Rourkela","state":"Odisha","latitude":22.2604,"longitude":84.8536,"temp":32.6,"humidity":32,"rain":0.0,"pressure":983.0,"uv_index":8.85,"wind_gusts":21.6,"aqi":144,"pm10":72.9,"pm2_5":26.3,"mosquito_risk":0,"arthritis_risk":5,"migraine_risk":7,"frizz_risk":0,"updated_at":"2026-04-14T19:20:27.488516+05:30"},{"city":"Raipur","state":"Chhattisgarh","latitude":21.2514,"longitude":81.6296,"temp":35.5,"humidity":30,"rain":0.0,"pressure":972.1,"uv_index":8.9,"wind_gusts":17.6,"aqi":199,"pm10":89.4,"pm2_5":46.3,"mosquito_risk":0,"arthritis_risk":5,"migraine_risk":10,"frizz_risk":0,"updated_at":"2026-04-14T19:20:27.488523+05:30"},{"city":"Bhilai","state":"Chhattisgarh","latitude":21.1938,"longitude":81.3509,"temp":34.8,"humidity":34,"rain":0.0,"pressure":972.5,"uv_index":8.9,"wind_gusts":14.0,"aqi":182,"pm10":70.3,"pm2_5":42.0,"mosquito_risk":0,"arthritis_risk":5,"migraine_risk":7,"frizz_risk":1,"updated_at":"2026-04-14T19:20:27.488530+05:30"},{"city":"Guwahati","state":"Assam","latitude":26.1158,"longitude":91.7086,"temp":27.1,"humidity":75,"rain":0.0,"pressure":1000.7,"uv_index":8.5,"wind_gusts":28.1,"aqi":125,"pm10":68.2,"pm2_5":48.9,"mosquito_risk":7,"arthritis_risk":5,"migraine_risk":4,"frizz_risk":1,"updated_at":"2026-04-14T19:20:27.488537+05:30"},{"city":"Agartala","state":"Tripura","latitude":23.8315,"longitude":91.2868,"temp":28.1,"humidity":79,"rain":0.0,"pressure":1004.7,"uv_index":8.65,"wind_gusts":27.7,"aqi":105,"pm10":53.2,"pm2_5":47.0,"mosquito_risk":7,"arthritis_risk":5,"migraine_risk":4,"frizz_risk":1,"updated_at":"2026-04-14T19:20:27.488543+05:30"},{"city":"Shillong","state":"Meghalaya","latitude":25.5788,"longitude":91.8933,"temp":15.3,"humidity":93,"rain":0.0,"pressure":855.5,"uv_index":8.9,"wind_gusts":52.6,"aqi":119,"pm10":57.9,"pm2_5":43.4,"mosquito_risk":3,"arthritis_risk":10,"migraine_risk":7,"frizz_risk":0,"updated_at":"2026-04-14T19:20:27.488550+05:30"},{"city":"Imphal","state":"Manipur","latitude":24.817,"longitude":93.9368,"temp":20.1,"humidity":84,"rain":0.0,"pressure":922.7,"uv_index":8.8,"wind_gusts":70.6,"aqi":128,"pm10":61.9,"pm2_5":45.1,"mosquito_risk":3,"arthritis_risk":5,"migraine_risk":7,"frizz_risk":1,"updated_at":"2026-04-14T19:20:27.488556+05:30"},{"city":"Aizawl","state":"Mizoram","latitude":23.7271,"longitude":92.7176,"temp":22.1,"humidity":77,"rain":0.0,"pressure":892.5,"uv_index":8.95,"wind_gusts":45.0,"aqi":125,"pm10":65.7,"pm2_5":48.8,"mosquito_risk":3,"arthritis_risk":5,"migraine_risk":7,"frizz_risk":1,"updated_at":"2026-04-14T19:20:27.488562+05:30"},{"city":"Kohima","state":"Nagaland","latitude":25.6701,"longitude":94.1077,"temp":16.3,"humidity":87,"rain":0.0,"pressure":854.3,"uv_index":8.2,"wind_gusts":70.9,"aqi":114,"pm10":61.2,"pm2_5":41.3,"mosquito_risk":3,"arthritis_risk":10,"migraine_risk":7,"frizz_risk":0,"updated_at":"2026-04-14T19:20:27.488569+05:30"},{"city":"Gangtok","state":"Sikkim","latitude":27.3314,"longitude":88.6138,"temp":14.4,"humidity":91,"rain":0.0,"pressure":836.0,"uv_index":8.65,"wind_gusts":15.5,"aqi":135,"pm10":65.0,"pm2_5":37.5,"mosquito_risk":3,"arthritis_risk":10,"migraine_risk":7,"frizz_risk":0,"updated_at":"2026-04-14T19:20:27.488575+05:30"},{"city":"Siliguri","state":"West Bengal","latitude":26.7271,"longitude":88.3953,"temp":22.4,"humidity":80,"rain":0.0,"pressure":993.2,"uv_index":8.45,"wind_gusts":34.2,"aqi":154,"pm10":103.4,"pm2_5":63.6,"mosquito_risk":3,"arthritis_risk":5,"migraine_risk":7,"frizz_risk":1,"updated_at":"2026-04-14T19:20:30.837179+05:30"},{"city":"Durgapur","state":"West Bengal","latitude":23.5204,"longitude":87.3119,"temp":31.7,"humidity":43,"rain":0.0,"pressure":993.1,"uv_index":8.8,"wind_gusts":17.3,"aqi":170,"pm10":113.9,"pm2_5":45.8,"mosquito_risk":0,"arthritis_risk":5,"migraine_risk":7,"frizz_risk":1,"updated_at":"2026-04-14T19:20:30.837208+05:30"},{"city":"Asansol","state":"West Bengal","latitude":23.6739,"longitude":86.9524,"temp":32.6,"humidity":36,"rain":0.0,"pressure":991.7,"uv_index":8.85,"wind_gusts":18.7,"aqi":155,"pm10":148.1,"pm2_5":46.3,"mosquito_risk":0,"arthritis_risk":5,"migraine_risk":7,"frizz_risk":0,"updated_at":"2026-04-14T19:20:30.837218+05:30"},{"city":"Pondicherry","state":"Puducherry","latitude":11.9139,"longitude":79.8145,"temp":28.8,"humidity":79,"rain":0.0,"pressure":1007.6,"uv_index":9.3,"wind_gusts":27.0,"aqi":39,"pm10":9.1,"pm2_5":6.0,"mosquito_risk":7,"arthritis_risk":5,"migraine_risk":4,"frizz_risk":1,"updated_at":"2026-04-14T19:20:30.837226+05:30"},{"city":"Port Blair","state":"Andaman and Nicobar Islands","latitude":11.6234,"longitude":92.7265,"temp":29.6,"humidity":70,"rain":0.0,"pressure":1007.3,"uv_index":8.5,"wind_gusts":22.3,"aqi":63,"pm10":30.6,"pm2_5":19.8,"mosquito_risk":7,"arthritis_risk":5,"migraine_risk":4,"frizz_risk":1,"updated_at":"2026-04-14T19:20:30.837233+05:30"},{"city":"Haridwar","state":"Uttarakhand","latitude":29.9457,"longitude":78.1642,"temp":26.7,"humidity":42,"rain":0.0,"pressure":972.7,"uv_index":7.0,"wind_gusts":34.9,"aqi":138,"pm10":45.9,"pm2_5":15.9,"mosquito_risk":4,"arthritis_risk":5,"migraine_risk":7,"frizz_risk":0,"updated_at":"2026-04-14T19:20:30.837240+05:30"},{"city":"Rishikesh","state":"Uttarakhand","latitude":30.0869,"longitude":78.2676,"temp":24.6,"humidity":48,"rain":0.0,"pressure":965.7,"uv_index":7.1,"wind_gusts":36.7,"aqi":128,"pm10":25.7,"pm2_5":11.3,"mosquito_risk":0,"arthritis_risk":5,"migraine_risk":7,"frizz_risk":0,"updated_at":"2026-04-14T19:20:30.837247+05:30"},{"city":"Nainital","state":"Uttarakhand","latitude":29.3919,"longitude":79.4542,"temp":21.9,"humidity":24,"rain":0.0,"pressure":806.8,"uv_index":7.95,"wind_gusts":60.1,"aqi":140,"pm10":25.1,"pm2_5":10.2,"mosquito_risk":0,"arthritis_risk":5,"migraine_risk":7,"frizz_risk":0,"updated_at":"2026-04-14T19:20:30.837255+05:30"},{"city":"Mussoorie","state":"Uttarakhand","latitude":30.4599,"longitude":78.0664,"temp":18.7,"humidity":39,"rain":0.0,"pressure":802.6,"uv_index":7.5,"wind_gusts":44.6,"aqi":140,"pm10":25.7,"pm2_5":13.9,"mosquito_risk":0,"arthritis_risk":5,"migraine_risk":7,"frizz_risk":0,"updated_at":"2026-04-14T19:20:30.837262+05:30"},{"city":"Dharamshala","state":"Himachal Pradesh","latitude":32.219,"longitude":76.3234,"temp":21.8,"humidity":49,"rain":0.0,"pressure":869.4,"uv_index":7.75,"wind_gusts":24.5,"aqi":131,"pm10":16.6,"pm2_5":10.5,"mosquito_risk":0,"arthritis_risk":5,"migraine_risk":7,"frizz_risk":0,"updated_at":"2026-04-14T19:20:30.837269+05:30"},{"city":"Dalhousie","state":"Himachal Pradesh","latitude":32.5387,"longitude":75.971,"temp":20.0,"humidity":47,"rain":0.0,"pressure":804.4,"uv_index":8.0,"wind_gusts":23.0,"aqi":145,"pm10":19.3,"pm2_5":12.5,"mosquito_risk":0,"arthritis_risk":5,"migraine_risk":7,"frizz_risk":0,"updated_at":"2026-04-14T19:20:30.837276+05:30"},{"city":"Patiala","state":"Punjab","latitude":30.3398,"longitude":76.3869,"temp":29.0,"humidity":32,"rain":0.0,"pressure":976.8,"uv_index":7.1,"wind_gusts":31.7,"aqi":247,"pm10":480.6,"pm2_5":52.2,"mosquito_risk":4,"arthritis_risk":5,"migraine_risk":7,"frizz_risk":0,"updated_at":"2026-04-14T19:20:30.837283+05:30"},{"city":"Bhatinda","state":"Punjab","latitude":30.211,"longitude":74.9455,"temp":31.8,"humidity":27,"rain":0.0,"pressure":982.3,"uv_index":7.75,"wind_gusts":31.3,"aqi":143,"pm10":32.0,"pm2_5":10.3,"mosquito_risk":0,"arthritis_risk":5,"migraine_risk":7,"frizz_risk":0,"updated_at":"2026-04-14T19:20:30.837290+05:30"},{"city":"Rohtak","state":"Haryana","latitude":28.8955,"longitude":76.6066,"temp":31.1,"humidity":30,"rain":0.0,"pressure":979.9,"uv_index":7.3,"wind_gusts":25.6,"aqi":255,"pm10":398.6,"pm2_5":53.3,"mosquito_risk":0,"arthritis_risk":5,"migraine_risk":7,"frizz_risk":0,"updated_at":"2026-04-14T19:20:30.837319+05:30"},{"city":"Panipat","state":"Haryana","latitude":29.3909,"longitude":76.9635,"temp":29.0,"humidity":33,"rain":0.0,"pressure":978.6,"uv_index":7.1,"wind_gusts":31.7,"aqi":593,"pm10":894.1,"pm2_5":99.0,"mosquito_risk":4,"arthritis_risk":5,"migraine_risk":7,"frizz_risk":0,"updated_at":"2026-04-14T19:20:30.837329+05:30"},{"city":"Mathura","state":"Uttar Pradesh","latitude":27.4924,"longitude":77.6737,"temp":30.7,"humidity":36,"rain":0.0,"pressure":984.7,"uv_index":7.6,"wind_gusts":23.0,"aqi":485,"pm10":276.6,"pm2_5":50.6,"mosquito_risk":0,"arthritis_risk":5,"migraine_risk":7,"frizz_risk":0,"updated_at":"2026-04-14T19:20:30.837335+05:30"},{"city":"Vrindavan","state":"Uttar Pradesh","latitude":27.5823,"longitude":77.7027,"temp":31.4,"humidity":36,"rain":0.0,"pressure":985.2,"uv_index":7.55,"wind_gusts":24.1,"aqi":485,"pm10":276.6,"pm2_5":50.6,"mosquito_risk":0,"arthritis_risk":5,"migraine_risk":7,"frizz_risk":0,"updated_at":"2026-04-14T19:20:30.837342+05:30"},{"city":"Ayodhya","state":"Uttar Pradesh","latitude":26.7922,"longitude":82.1998,"temp":32.2,"humidity":20,"rain":0.0,"pressure":992.9,"uv_index":7.95,"wind_gusts":38.2,"aqi":147,"pm10":32.6,"pm2_5":14.0,"mosquito_risk":0,"arthritis_risk":5,"migraine_risk":7,"frizz_risk":0,"updated_at":"2026-04-14T19:20:30.837348+05:30"},{"city":"Ratlam","state":"Madhya Pradesh","latitude":23.3315,"longitude":75.0367,"temp":28.8,"humidity":55,"rain":0.0,"pressure":953.6,"uv_index":8.4,"wind_gusts":33.1,"aqi":88,"pm10":23.7,"pm2_5":10.0,"mosquito_risk":4,"arthritis_risk":5,"migraine_risk":7,"frizz_risk":1,"updated_at":"2026-04-14T19:20:30.837355+05:30"},{"city":"Sagar","state":"Madhya Pradesh","latitude":23.8388,"longitude":78.7378,"temp":34.0,"humidity":32,"rain":0.0,"pressure":948.9,"uv_index":8.55,"wind_gusts":27.7,"aqi":140,"pm10":29.2,"pm2_5":11.4,"mosquito_risk":0,"arthritis_risk":5,"migraine_risk":7,"frizz_risk":0,"updated_at":"2026-04-14T19:20:30.837362+05:30"},{"city":"Satna","state":"Madhya Pradesh","latitude":24.6005,"longitude":80.8322,"temp":33.1,"humidity":24,"rain":0.0,"pressure":969.9,"uv_index":8.6,"wind_gusts":26.6,"aqi":133,"pm10":45.9,"pm2_5":12.7,"mosquito_risk":0,"arthritis_risk":5,"migraine_risk":7,"frizz_risk":0,"updated_at":"2026-04-14T19:20:30.837368+05:30"},{"city":"Akola","state":"Maharashtra","latitude":20.7002,"longitude":77.0082,"temp":35.0,"humidity":23,"rain":0.0,"pressure":973.2,"uv_index":8.75,"wind_gusts":28.1,"aqi":151,"pm10":13.1,"pm2_5":10.2,"mosquito_risk":0,"arthritis_risk":5,"migraine_risk":7,"frizz_risk":0,"updated_at":"2026-04-14T19:20:30.837375+05:30"},{"city":"Amravati","state":"Maharashtra","latitude":20.9374,"longitude":77.7796,"temp":33.3,"humidity":30,"rain":0.0,"pressure":965.3,"uv_index":8.8,"wind_gusts":22.7,"aqi":155,"pm10":19.8,"pm2_5":13.9,"mosquito_risk":0,"arthritis_risk":5,"migraine_risk":7,"frizz_risk":0,"updated_at":"2026-04-14T19:20:30.837382+05:30"},{"city":"Latur","state":"Maharashtra","latitude":18.4088,"longitude":76.5604,"temp":33.4,"humidity":35,"rain":0.0,"pressure":939.1,"uv_index":9.05,"wind_gusts":30.2,"aqi":146,"pm10":17.6,"pm2_5":14.2,"mosquito_risk":0,"arthritis_risk":5,"migraine_risk":7,"frizz_risk":0,"updated_at":"2026-04-14T19:20:30.837388+05:30"},{"city":"Nanded","state":"Maharashtra","latitude":19.1383,"longitude":77.3091,"temp":33.9,"humidity":36,"rain":0.0,"pressure":967.0,"uv_index":8.95,"wind_gusts":20.5,"aqi":145,"pm10":23.1,"pm2_5":16.6,"mosquito_risk":0,"arthritis_risk":5,"migraine_risk":7,"frizz_risk":1,"updated_at":"2026-04-14T19:20:30.837394+05:30"},{"city":"Gulbarga","state":"Karnataka","latitude":17.3297,"longitude":76.8343,"temp":37.7,"humidity":20,"rain":0.0,"pressure":956.7,"uv_index":9.1,"wind_gusts":22.7,"aqi":171,"pm10":35.2,"pm2_5":27.9,"mosquito_risk":0,"arthritis_risk":5,"migraine_risk":10,"frizz_risk":0,"updated_at":"2026-04-14T19:20:30.837400+05:30"},{"city":"Bidar","state":"Karnataka","latitude":17.9104,"longitude":77.5199,"temp":34.8,"humidity":27,"rain":0.0,"pressure":934.6,"uv_index":9.1,"wind_gusts":24.8,"aqi":146,"pm10":22.0,"pm2_5":17.5,"mosquito_risk":0,"arthritis_risk":5,"migraine_risk":7,"frizz_risk":0,"updated_at":"2026-04-14T19:20:30.837406+05:30"},{"city":"Hospet","state":"Karnataka","latitude":15.2689,"longitude":76.3909,"temp":35.4,"humidity":40,"rain":0.0,"pressure":954.0,"uv_index":9.25,"wind_gusts":24.5,"aqi":180,"pm10":52.0,"pm2_5":40.3,"mosquito_risk":0,"arthritis_risk":5,"migraine_risk":10,"frizz_risk":1,"updated_at":"2026-04-14T19:20:30.837412+05:30"},{"city":"Tirupur","state":"Tamil Nadu","latitude":11.1085,"longitude":77.3411,"temp":35.3,"humidity":24,"rain":0.0,"pressure":973.7,"uv_index":9.3,"wind_gusts":31.0,"aqi":145,"pm10":22.4,"pm2_5":15.1,"mosquito_risk":0,"arthritis_risk":5,"migraine_risk":10,"frizz_risk":0,"updated_at":"2026-04-14T19:20:30.837418+05:30"},{"city":"Alappuzha","state":"Kerala","latitude":9.4981,"longitude":76.3388,"temp":29.5,"humidity":83,"rain":0.0,"pressure":1007.9,"uv_index":8.8,"wind_gusts":24.8,"aqi":96,"pm10":43.8,"pm2_5":28.7,"mosquito_risk":7,"arthritis_risk":5,"migraine_risk":4,"frizz_risk":1,"updated_at":"2026-04-14T19:20:30.837425+05:30"},{"city":"Munnar","state":"Kerala","latitude":10.0889,"longitude":77.0595,"temp":24.8,"humidity":80,"rain":0.0,"pressure":857.8,"uv_index":9.7,"wind_gusts":31.0,"aqi":89,"pm10":28.1,"pm2_5":21.0,"mosquito_risk":3,"arthritis_risk":5,"migraine_risk":7,"frizz_risk":1,"updated_at":"2026-04-14T19:20:30.837431+05:30"},{"city":"Silchar","state":"Assam","latitude":24.8333,"longitude":92.7789,"temp":25.7,"humidity":81,"rain":0.0,"pressure":1004.3,"uv_index":8.7,"wind_gusts":32.8,"aqi":148,"pm10":72.2,"pm2_5":58.7,"mosquito_risk":7,"arthritis_risk":5,"migraine_risk":4,"frizz_risk":1,"updated_at":"2026-04-14T19:20:30.837437+05:30"},{"city":"Dibrugarh","state":"Assam","latitude":27.4728,"longitude":94.912,"temp":25.3,"humidity":79,"rain":0.0,"pressure":994.8,"uv_index":8.55,"wind_gusts":33.1,"aqi":92,"pm10":64.5,"pm2_5":39.5,"mosquito_risk":7,"arthritis_risk":5,"migraine_risk":7,"frizz_risk":1,"updated_at":"2026-04-14T19:20:30.837443+05:30"}]