[{"city":"Delhi","state":"Delhi","latitude":28.6139,"longitude":77.209,"temp":30.5,"humidity":40,"rain":0.0,"pressure":982.3,"uv_index":7.45,"wind_gusts":45.7,"aqi":496,"pm10":416.3,"pm2_5":66.4,"no2":6.6,"co":345.0,"o3":179.0,"so2":14.0,"mosquito_risk":0,"arthritis_risk":5,"migraine_risk":7,"frizz_risk":0,"updated_at":"2026-05-04T14:52:44.122494+05:30"},{"city":"Mumbai","state":"Maharashtra","latitude":19.076,"longitude":72.8777,"temp":32.5,"humidity":60,"rain":0.0,"pressure":1006.1,"uv_index":7.85,"wind_gusts":42.8,"aqi":64,"pm10":40.2,"pm2_5":19.9,"no2":4.1,"co":193.0,"o3":108.0,"so2":17.0,"mosquito_risk":0,"arthritis_risk":5,"migraine_risk":4,"frizz_risk":1,"updated_at":"2026-05-04T14:52:44.122541+05:30"},{"city":"Bangalore","state":"Karnataka","latitude":12.9716,"longitude":77.5946,"temp":34.5,"humidity":25,"rain":0.0,"pressure":910.5,"uv_index":9.5,"wind_gusts":42.8,"aqi":79,"pm10":47.6,"pm2_5":19.8,"no2":3.6,"co":269.0,"o3":159.0,"so2":5.3,"mosquito_risk":0,"arthritis_risk":5,"migraine_risk":7,"frizz_risk":0,"updated_at":"2026-05-04T14:52:44.122558+05:30"},{"city":"Hyderabad","state":"Telangana","latitude":17.385,"longitude":78.4867,"temp":39.3,"humidity":12,"rain":0.0,"pressure":950.1,"uv_index":9.25,"wind_gusts":34.2,"aqi":88,"pm10":39.2,"pm2_5":16.8,"no2":2.5,"co":235.0,"o3":175.0,"so2":7.3,"mosquito_risk":0,"arthritis_risk":5,"migraine_risk":10,"frizz_risk":0,"updated_at":"2026-05-04T14:52:44.122570+05:30"},{"city":"Chennai","state":"Tamil Nadu","latitude":13.0827,"longitude":80.2707,"temp":35.0,"humidity":58,"rain":0.0,"pressure":1002.7,"uv_index":9.25,"wind_gusts":45.0,"aqi":75,"pm10":33.1,"pm2_5":22.8,"no2":2.5,"co":221.0,"o3":137.0,"so2":6.9,"mosquito_risk":0,"arthritis_risk":5,"migraine_risk":4,"frizz_risk":1,"updated_at":"2026-05-04T14:52:44.122579+05:30"},{"city":"Kolkata","state":"West Bengal","latitude":22.5726,"longitude":88.3639,"temp":30.6,"humidity":70,"rain":0.0,"pressure":1005.5,"uv_index":8.95,"wind_gusts":32.0,"aqi":100,"pm10":41.7,"pm2_5":24.5,"no2":2.0,"co":356.0,"o3":122.0,"so2":7.4,"mosquito_risk":3,"arthritis_risk":5,"migraine_risk":4,"frizz_risk":1,"updated_at":"2026-05-04T14:52:44.122588+05:30"},{"city":"Pune","state":"Maharashtra","latitude":18.5204,"longitude":73.8567,"temp":36.1,"humidity":20,"rain":0.0,"pressure":946.2,"uv_index":8.45,"wind_gusts":53.3,"aqi":58,"pm10":62.9,"pm2_5":14.5,"no2":1.3,"co":162.0,"o3":118.0,"so2":2.8,"mosquito_risk":0,"arthritis_risk":5,"migraine_risk":10,"frizz_risk":0,"updated_at":"2026-05-04T14:52:44.122596+05:30"},{"city":"Ahmedabad","state":"Gujarat","latitude":23.0225,"longitude":72.5714,"temp":39.6,"humidity":28,"rain":0.0,"pressure":996.3,"uv_index":8.05,"wind_gusts":40.0,"aqi":54,"pm10":60.5,"pm2_5":18.9,"no2":1.9,"co":180.0,"o3":132.0,"so2":6.9,"mosquito_risk":0,"arthritis_risk":5,"migraine_risk":10,"frizz_risk":1,"updated_at":"2026-05-04T14:52:44.122606+05:30"},{"city":"Jaipur","state":"Rajasthan","latitude":26.9124,"longitude":75.7873,"temp":34.3,"humidity":28,"rain":0.0,"pressure":957.4,"uv_index":8.05,"wind_gusts":34.6,"aqi":178,"pm10":220.3,"pm2_5":32.9,"no2":1.1,"co":231.0,"o3":144.0,"so2":4.7,"mosquito_risk":0,"arthritis_risk":5,"migraine_risk":7,"frizz_risk":0,"updated_at":"2026-05-04T14:52:44.122615+05:30"},{"city":"Lucknow","state":"Uttar Pradesh","latitude":26.8467,"longitude":80.9462,"temp":29.6,"humidity":60,"rain":0.0,"pressure":991.6,"uv_index":7.7,"wind_gusts":50.0,"aqi":128,"pm10":61.2,"pm2_5":31.8,"no2":1.7,"co":363.0,"o3":173.0,"so2":5.8,"mosquito_risk":4,"arthritis_risk":5,"migraine_risk":7,"frizz_risk":1,"updated_at":"2026-05-04T14:52:44.122623+05:30"},{"city":"Kanpur","state":"Uttar Pradesh","latitude":26.4499,"longitude":80.3319,"temp":31.2,"humidity":55,"rain":0.0,"pressure":989.4,"uv_index":8.05,"wind_gusts":52.9,"aqi":190,"pm10":167.2,"pm2_5":44.5,"no2":1.8,"co":326.0,"o3":188.0,"so2":7.9,"mosquito_risk":0,"arthritis_risk":5,"migraine_risk":7,"frizz_risk":1,"updated_at":"2026-05-04T14:52:44.122630+05:30"},{"city":"Chandigarh","state":"Chandigarh","latitude":30.7333,"longitude":76.7794,"temp":30.4,"humidity":32,"rain":0.0,"pressure":969.0,"uv_index":7.5,"wind_gusts":50.4,"aqi":91,"pm10":117.3,"pm2_5":29.4,"no2":4.0,"co":351.0,"o3":150.0,"so2":6.8,"mosquito_risk":0,"arthritis_risk":5,"migraine_risk":7,"frizz_risk":0,"updated_at":"2026-05-04T14:52:44.122637+05:30"},{"city":"Srinagar","state":"Jammu and Kashmir","latitude":34.0837,"longitude":74.7973,"temp":16.5,"humidity":68,"rain":0.0,"pressure":841.7,"uv_index":6.3,"wind_gusts":26.3,"aqi":82,"pm10":15.9,"pm2_5":11.4,"no2":2.4,"co":263.0,"o3":154.0,"so2":2.5,"mosquito_risk":3,"arthritis_risk":5,"migraine_risk":7,"frizz_risk":0,"updated_at":"2026-05-04T14:52:44.122646+05:30"},{"city":"Jammu","state":"Jammu and Kashmir","latitude":32.7266,"longitude":74.857,"temp":29.6,"humidity":33,"rain":0.0,"pressure":973.5,"uv_index":8.2,"wind_gusts":51.8,"aqi":72,"pm10":106.9,"pm2_5":26.5,"no2":1.7,"co":201.0,"o3":156.0,"so2":3.0,"mosquito_risk":4,"arthritis_risk":5,"migraine_risk":7,"frizz_risk":0,"updated_at":"2026-05-04T14:52:44.122653+05:30"},{"city":"Amritsar","state":"Punjab","latitude":31.634,"longitude":74.8723,"temp":29.8,"humidity":37,"rain":0.0,"pressure":981.1,"uv_index":8.05,"wind_gusts":55.4,"aqi":124,"pm10":197.4,"pm2_5":42.8,"no2":1.6,"co":244.0,"o3":163.0,"so2":9.9,"mosquito_risk":4,"arthritis_risk":5,"migraine_risk":7,"frizz_risk":0,"updated_at":"2026-05-04T14:52:44.122660+05:30"},{"city":"Ludhiana","state":"Punjab","latitude":30.901,"longitude":75.8573,"temp":28.1,"humidity":44,"rain":0.1,"pressure":979.0,"uv_index":7.4,"wind_gusts":48.2,"aqi":141,"pm10":81.0,"pm2_5":28.1,"no2":5.2,"co":295.0,"o3":142.0,"so2":9.2,"mosquito_risk":7,"arthritis_risk":5,"migraine_risk":7,"frizz_risk":0,"updated_at":"2026-05-04T14:52:44.122668+05:30"},{"city":"Jalandhar","state":"Punjab","latitude":31.326,"longitude":75.5762,"temp":28.0,"humidity":46,"rain":0.0,"pressure":979.7,"uv_index":7.8,"wind_gusts":45.0,"aqi":110,"pm10":130.4,"pm2_5":34.7,"no2":4.5,"co":275.0,"o3":150.0,"so2":16.6,"mosquito_risk":4,"arthritis_risk":5,"migraine_risk":7,"frizz_risk":0,"updated_at":"2026-05-04T14:52:44.122675+05:30"},{"city":"Dehradun","state":"Uttarakhand","latitude":30.6284,"longitude":78.0322,"temp":17.1,"humidity":54,"rain":0.0,"pressure":831.0,"uv_index":7.25,"wind_gusts":36.4,"aqi":56,"pm10":89.4,"pm2_5":17.0,"no2":0.7,"co":184.0,"o3":145.0,"so2":1.4,"mosquito_risk":0,"arthritis_risk":5,"migraine_risk":7,"frizz_risk":0,"updated_at":"2026-05-04T14:52:44.122684+05:30"},{"city":"Shimla","state":"Himachal Pradesh","latitude":31.1048,"longitude":77.1734,"temp":12.6,"humidity":62,"rain":0.0,"pressure":784.1,"uv_index":8.0,"wind_gusts":36.4,"aqi":88,"pm10":126.7,"pm2_5":24.5,"no2":2.2,"co":216.0,"o3":140.0,"so2":1.6,"mosquito_risk":3,"arthritis_risk":5,"migraine_risk":7,"frizz_risk":0,"updated_at":"2026-05-04T14:52:44.122692+05:30"},{"city":"Manali","state":"Himachal Pradesh","latitude":32.2396,"longitude":77.1887,"temp":13.2,"humidity":69,"rain":0.1,"pressure":817.4,"uv_index":9.95,"wind_gusts":34.2,"aqi":118,"pm10":56.8,"pm2_5":11.4,"no2":1.9,"co":167.0,"o3":163.0,"so2":1.1,"mosquito_risk":6,"arthritis_risk":5,"migraine_risk":7,"frizz_risk":0,"updated_at":"2026-05-04T14:52:44.122698+05:30"},{"city":"Gurgaon","state":"Haryana","latitude":28.4595,"longitude":77.0266,"temp":31.2,"humidity":37,"rain":0.0,"pressure":980.5,"uv_index":7.6,"wind_gusts":45.7,"aqi":2027,"pm10":2317.1,"pm2_5":230.0,"no2":5.0,"co":287.0,"o3":178.0,"so2":11.8,"mosquito_risk":0,"arthritis_risk":5,"migraine_risk":7,"frizz_risk":0,"updated_at":"2026-05-04T14:52:44.122708+05:30"},{"city":"Noida","state":"Uttar Pradesh","latitude":28.5355,"longitude":77.391,"temp":31.4,"humidity":40,"rain":0.0,"pressure":983.6,"uv_index":7.5,"wind_gusts":43.2,"aqi":2027,"pm10":2317.1,"pm2_5":230.0,"no2":5.0,"co":306.0,"o3":178.0,"so2":11.8,"mosquito_risk":0,"arthritis_risk":5,"migraine_risk":7,"frizz_risk":0,"updated_at":"2026-05-04T14:52:44.122715+05:30"},{"city":"Ghaziabad","state":"Uttar Pradesh","latitude":28.6692,"longitude":77.4538,"temp":31.1,"humidity":42,"rain":0.0,"pressure":982.0,"uv_index":7.45,"wind_gusts":45.7,"aqi":277,"pm10":446.1,"pm2_5":58.6,"no2":2.8,"co":274.0,"o3":171.0,"so2":5.2,"mosquito_risk":0,"arthritis_risk":5,"migraine_risk":7,"frizz_risk":1,"updated_at":"2026-05-04T14:52:44.122723+05:30"},{"city":"Faridabad","state":"Haryana","latitude":28.4089,"longitude":77.3178,"temp":30.5,"humidity":42,"rain":0.0,"pressure":982.8,"uv_index":7.5,"wind_gusts":49.0,"aqi":2027,"pm10":2317.1,"pm2_5":230.0,"no2":5.0,"co":300.0,"o3":178.0,"so2":11.8,"mosquito_risk":0,"arthritis_risk":5,"migraine_risk":7,"frizz_risk":1,"updated_at":"2026-05-04T14:52:44.122729+05:30"},{"city":"Meerut","state":"Uttar Pradesh","latitude":28.9845,"longitude":77.7064,"temp":29.9,"humidity":48,"rain":0.0,"pressure":981.0,"uv_index":7.4,"wind_gusts":58.7,"aqi":277,"pm10":446.1,"pm2_5":58.6,"no2":2.8,"co":298.0,"o3":171.0,"so2":5.2,"mosquito_risk":4,"arthritis_risk":5,"migraine_risk":7,"frizz_risk":1,"updated_at":"2026-05-04T14:52:44.122735+05:30"},{"city":"Agra","state":"Uttar Pradesh","latitude":27.1767,"longitude":78.0081,"temp":33.2,"humidity":37,"rain":0.0,"pressure":985.7,"uv_index":7.25,"wind_gusts":56.2,"aqi":1003,"pm10":1080.3,"pm2_5":110.6,"no2":1.9,"co":260.0,"o3":164.0,"so2":8.7,"mosquito_risk":0,"arthritis_risk":5,"migraine_risk":7,"frizz_risk":1,"updated_at":"2026-05-04T14:52:44.122742+05:30"},{"city":"Varanasi","state":"Uttar Pradesh","latitude":25.3176,"longitude":82.9739,"temp":26.0,"humidity":83,"rain":0.1,"pressure":997.5,"uv_index":8.65,"wind_gusts":46.8,"aqi":151,"pm10":71.9,"pm2_5":44.9,"no2":2.1,"co":344.0,"o3":202.0,"so2":16.2,"mosquito_risk":10,"arthritis_risk":5,"migraine_risk":7,"frizz_risk":1,"updated_at":"2026-05-04T14:52:44.122749+05:30"},{"city":"Prayagraj","state":"Uttar Pradesh","latitude":25.4358,"longitude":81.8463,"temp":32.6,"humidity":52,"rain":0.0,"pressure":994.7,"uv_index":8.5,"wind_gusts":56.9,"aqi":154,"pm10":69.6,"pm2_5":41.8,"no2":2.3,"co":343.0,"o3":196.0,"so2":13.1,"mosquito_risk":0,"arthritis_risk":5,"migraine_risk":7,"frizz_risk":1,"updated_at":"2026-05-04T14:52:44.122759+05:30"},{"city":"Gorakhpur","state":"Uttar Pradesh","latitude":26.7606,"longitude":83.3732,"temp":25.5,"humidity":81,"rain":0.2,"pressure":997.9,"uv_index":8.45,"wind_gusts":42.5,"aqi":118,"pm10":63.8,"pm2_5":33.9,"no2":1.7,"co":313.0,"o3":176.0,"so2":4.2,"mosquito_risk":10,"arthritis_risk":5,"migraine_risk":7,"frizz_risk":1,"updated_at":"2026-05-04T14:52:44.122766+05:30"},{"city":"Bareilly","state":"Uttar Pradesh","latitude":28.367,"longitude":79.4304,"temp":28.5,"humidity":56,"rain":0.0,"pressure":987.0,"uv_index":7.1,"wind_gusts":60.5,"aqi":103,"pm10":43.2,"pm2_5":21.7,"no2":1.5,"co":310.0,"o3":153.0,"so2":2.5,"mosquito_risk":4,"arthritis_risk":5,"migraine_risk":7,"frizz_risk":1,"updated_at":"2026-05-04T14:52:44.122772+05:30"},{"city":"Aligarh","state":"Uttar Pradesh","latitude":27.8974,"longitude":78.088,"temp":31.9,"humidity":44,"rain":0.0,"pressure":984.3,"uv_index":7.7,"wind_gusts":54.0,"aqi":653,"pm10":1024.5,"pm2_5":108.7,"no2":2.7,"co":296.0,"o3":176.0,"so2":10.2,"mosquito_risk":0,"arthritis_risk":5,"migraine_risk":7,"frizz_risk":1,"updated_at":"2026-05-04T14:52:44.122780+05:30"},{"city":"Moradabad","state":"Uttar Pradesh","latitude":28.8386,"longitude":78.7733,"temp":29.0,"humidity":53,"rain":0.0,"pressure":983.7,"uv_index":7.55,"wind_gusts":59.8,"aqi":101,"pm10":41.9,"pm2_5":23.1,"no2":2.4,"co":286.0,"o3":162.0,"so2":6.5,"mosquito_risk":4,"arthritis_risk":5,"migraine_risk":7,"frizz_risk":1,"updated_at":"2026-05-04T14:52:44.122788+05:30"},{"city":"Saharanpur","state":"Uttar Pradesh","latitude":29.9637,"longitude":77.546,"temp":30.2,"humidity":37,"rain":0.0,"pressure":975.5,"uv_index":7.05,"wind_gusts":56.9,"aqi":123,"pm10":74.5,"pm2_5":23.3,"no2":1.8,"co":270.0,"o3":153.0,"so2":3.3,"mosquito_risk":0,"arthritis_risk":5,"migraine_risk":7,"frizz_risk":0,"updated_at":"2026-05-04T14:52:44.122794+05:30"},{"city":"Jhansi","state":"Uttar Pradesh","latitude":25.4484,"longitude":78.5685,"temp":34.6,"humidity":37,"rain":0.0,"pressure":975.5,"uv_index":8.35,"wind_gusts":50.8,"aqi":138,"pm10":66.8,"pm2_5":27.8,"no2":1.6,"co":209.0,"o3":169.0,"so2":14.9,"mosquito_risk":0,"arthritis_risk":5,"migraine_risk":7,"frizz_risk":1,"updated_at":"2026-05-04T14:52:47.371836+05:30"},{"city":"Surat","state":"Gujarat","latitude":21.1702,"longitude":72.8311,"temp":34.0,"humidity":52,"rain":0.0,"pressure":1003.0,"uv_index":7.7,"wind_gusts":50.8,"aqi":59,"pm10":45.5,"pm2_5":19.6,"no2":8.5,"co":227.0,"o3":82.0,"so2":26.1,"mosquito_risk":0,"arthritis_risk":5,"migraine_risk":4,"frizz_risk":1,"updated_at":"2026-05-04T14:52:47.371872+05:30"},{"city":"Vadodara","state":"Gujarat","latitude":22.3072,"longitude":73.1812,"temp":38.6,"humidity":30,"rain":0.0,"pressure":999.2,"uv_index":8.05,"wind_gusts":42.8,"aqi":52,"pm10":49.5,"pm2_5":19.0,"no2":1.6,"co":163.0,"o3":127.0,"so2":5.0,"mosquito_risk":0,"arthritis_risk":5,"migraine_risk":10,"frizz_risk":1,"updated_at":"2026-05-04T14:52:47.371883+05:30"},{"city":"Rajkot","state":"Gujarat","latitude":22.3039,"longitude":70.8022,"temp":40.8,"humidity":19,"rain":0.0,"pressure":988.6,"uv_index":7.7,"wind_gusts":44.3,"aqi":49,"pm10":48.3,"pm2_5":14.5,"no2":0.9,"co":145.0,"o3":116.0,"so2":3.8,"mosquito_risk":0,"arthritis_risk":5,"migraine_risk":10,"frizz_risk":0,"updated_at":"2026-05-04T14:52:47.371891+05:30"},{"city":"Thane","state":"Maharashtra","latitude":19.2183,"longitude":72.9781,"temp":34.8,"humidity":47,"rain":0.0,"pressure":1004.9,"uv_index":7.85,"wind_gusts":40.3,"aqi":64,"pm10":40.2,"pm2_5":19.9,"no2":4.1,"co":197.0,"o3":108.0,"so2":17.0,"mosquito_risk":0,"arthritis_risk":5,"migraine_risk":4,"frizz_risk":1,"updated_at":"2026-05-04T14:52:47.371898+05:30"},{"city":"Nagpur","state":"Maharashtra","latitude":21.1458,"longitude":79.0882,"temp":42.3,"humidity":11,"rain":0.0,"pressure":968.5,"uv_index":8.9,"wind_gusts":47.2,"aqi":118,"pm10":28.9,"pm2_5":15.0,"no2":3.8,"co":157.0,"o3":164.0,"so2":16.8,"mosquito_risk":0,"arthritis_risk":5,"migraine_risk":10,"frizz_risk":0,"updated_at":"2026-05-04T14:52:47.371906+05:30"},{"city":"Nashik","state":"Maharashtra","latitude":19.9975,"longitude":73.7898,"temp":35.2,"humidity":26,"rain":0.0,"pressure":943.2,"uv_index":8.15,"wind_gusts":50.4,"aqi":59,"pm10":53.6,"pm2_5":17.2,"no2":1.1,"co":160.0,"o3":125.0,"so2":4.6,"mosquito_risk":0,"arthritis_risk":5,"migraine_risk":10,"frizz_risk":0,"updated_at":"2026-05-04T14:52:47.371913+05:30"},{"city":"Aurangabad","state":"Maharashtra","latitude":19.8762,"longitude":75.3433,"temp":38.0,"humidity":17,"rain":0.0,"pressure":941.1,"uv_index":9.05,"wind_gusts":37.8,"aqi":54,"pm10":57.7,"pm2_5":14.4,"no2":0.9,"co":146.0,"o3":132.0,"so2":2.7,"mosquito_risk":0,"arthritis_risk":5,"migraine_risk":10,"frizz_risk":0,"updated_at":"2026-05-04T14:52:47.371920+05:30"},{"city":"Solapur","state":"Maharashtra","latitude":17.6599,"longitude":75.9064,"temp":39.7,"humidity":11,"rain":0.0,"pressure":953.9,"uv_index":9.05,"wind_gusts":40.3,"aqi":52,"pm10":42.8,"pm2_5":11.8,"no2":1.0,"co":148.0,"o3":124.0,"so2":1.5,"mosquito_risk":0,"arthritis_risk":5,"migraine_risk":10,"frizz_risk":0,"updated_at":"2026-05-04T14:52:47.371927+05:30"},{"city":"Kolhapur","state":"Maharashtra","latitude":16.705,"longitude":74.2433,"temp":36.4,"humidity":19,"rain":0.0,"pressure":946.0,"uv_index":8.95,"wind_gusts":47.2,"aqi":59,"pm10":53.6,"pm2_5":14.8,"no2":1.3,"co":154.0,"o3":113.0,"so2":1.4,"mosquito_risk":0,"arthritis_risk":5,"migraine_risk":10,"frizz_risk":0,"updated_at":"2026-05-04T14:52:47.371933+05:30"},{"city":"Goa","state":"Goa","latitude":15.2993,"longitude":74.124,"temp":35.1,"humidity":47,"rain":0.0,"pressure":995.7,"uv_index":8.9,"wind_gusts":36.4,"aqi":67,"pm10":49.0,"pm2_5":16.5,"no2":0.6,"co":147.0,"o3":82.0,"so2":1.0,"mosquito_risk":0,"arthritis_risk":5,"migraine_risk":10,"frizz_risk":1,"updated_at":"2026-05-04T14:52:47.371940+05:30"},{"city":"Jodhpur","state":"Rajasthan","latitude":26.2389,"longitude":73.0243,"temp":39.4,"humidity":19,"rain":0.0,"pressure":977.4,"uv_index":8.25,"wind_gusts":60.5,"aqi":94,"pm10":140.6,"pm2_5":25.6,"no2":0.8,"co":167.0,"o3":147.0,"so2":3.8,"mosquito_risk":0,"arthritis_risk":5,"migraine_risk":10,"frizz_risk":0,"updated_at":"2026-05-04T14:52:47.371947+05:30"},{"city":"Udaipur","state":"Rajasthan","latitude":24.5854,"longitude":73.7125,"temp":34.3,"humidity":32,"rain":0.0,"pressure":943.3,"uv_index":8.75,"wind_gusts":43.9,"aqi":52,"pm10":90.3,"pm2_5":22.2,"no2":0.6,"co":161.0,"o3":132.0,"so2":4.3,"mosquito_risk":0,"arthritis_risk":5,"migraine_risk":7,"frizz_risk":0,"updated_at":"2026-05-04T14:52:47.371954+05:30"},{"city":"Kota","state":"Rajasthan","latitude":25.2138,"longitude":75.8648,"temp":36.2,"humidity":24,"rain":0.0,"pressure":975.7,"uv_index":8.25,"wind_gusts":36.7,"aqi":63,"pm10":61.0,"pm2_5":19.3,"no2":1.1,"co":171.0,"o3":147.0,"so2":6.5,"mosquito_risk":0,"arthritis_risk":5,"migraine_risk":10,"frizz_risk":0,"updated_at":"2026-05-04T14:52:47.371960+05:30"},{"city":"Bikaner","state":"Rajasthan","latitude":28.0229,"longitude":73.3119,"temp":38.8,"humidity":10,"rain":0.0,"pressure":977.0,"uv_index":8.1,"wind_gusts":52.6,"aqi":80,"pm10":138.8,"pm2_5":23.1,"no2":0.5,"co":161.0,"o3":144.0,"so2":7.2,"mosquito_risk":0,"arthritis_risk":5,"migraine_risk":10,"frizz_risk":0,"updated_at":"2026-05-04T14:52:47.371968+05:30"},{"city":"Ajmer","state":"Rajasthan","latitude":26.4499,"longitude":74.6399,"temp":36.9,"humidity":19,"rain":0.0,"pressure":950.8,"uv_index":8.2,"wind_gusts":41.0,"aqi":74,"pm10":78.0,"pm2_5":18.2,"no2":0.7,"co":155.0,"o3":131.0,"so2":3.2,"mosquito_risk":0,"arthritis_risk":5,"migraine_risk":10,"frizz_risk":0,"updated_at":"2026-05-04T14:52:47.371975+05:30"},{"city":"Gwalior","state":"Madhya Pradesh","latitude":26.2183,"longitude":78.1828,"temp":36.0,"humidity":29,"rain":0.0,"pressure":980.2,"uv_index":7.9,"wind_gusts":52.9,"aqi":127,"pm10":66.4,"pm2_5":30.6,"no2":1.0,"co":170.0,"o3":169.0,"so2":9.3,"mosquito_risk":0,"arthritis_risk":5,"migraine_risk":10,"frizz_risk":0,"updated_at":"2026-05-04T14:52:47.371981+05:30"},{"city":"Indore","state":"Madhya Pradesh","latitude":22.7196,"longitude":75.8577,"temp":37.7,"humidity":21,"rain":0.0,"pressure":944.9,"uv_index":8.6,"wind_gusts":37.1,"aqi":47,"pm10":36.2,"pm2_5":13.0,"no2":1.1,"co":175.0,"o3":125.0,"so2":4.1,"mosquito_risk":0,"arthritis_risk":5,"migraine_risk":10,"frizz_risk":0,"updated_at":"2026-05-04T14:52:47.371987+05:30"},{"city":"Bhopal","state":"Madhya Pradesh","latitude":23.2599,"longitude":77.4126,"temp":38.5,"humidity":17,"rain":0.0,"pressure":950.1,"uv_index":8.65,"wind_gusts":34.6,"aqi":60,"pm10":23.3,"pm2_5":9.0,"no2":0.7,"co":163.0,"o3":124.0,"so2":3.4,"mosquito_risk":0,"arthritis_risk":5,"migraine_risk":10,"frizz_risk":0,"updated_at":"2026-05-04T14:52:47.371994+05:30"},{"city":"Jabalpur","state":"Madhya Pradesh","latitude":23.1815,"longitude":79.9864,"temp":39.3,"humidity":17,"rain":0.0,"pressure":957.9,"uv_index":8.2,"wind_gusts":33.1,"aqi":109,"pm10":56.1,"pm2_5":17.1,"no2":1.1,"co":163.0,"o3":148.0,"so2":4.3,"mosquito_risk":0,"arthritis_risk":5,"migraine_risk":10,"frizz_risk":0,"updated_at":"2026-05-04T14:52:47.372000+05:30"},{"city":"Ujjain","state":"Madhya Pradesh","latitude":23.1765,"longitude":75.7885,"temp":37.8,"humidity":23,"rain":0.0,"pressure":950.3,"uv_index":8.55,"wind_gusts":43.6,"aqi":48,"pm10":45.8,"pm2_5":15.5,"no2":0.7,"co":162.0,"o3":121.0,"so2":4.4,"mosquito_risk":0,"arthritis_risk":5,"migraine_risk":10,"frizz_risk":0,"updated_at":"2026-05-04T14:52:47.372008+05:30"},{"city":"Visakhapatnam","state":"Andhra Pradesh","latitude":17.6868,"longitude":83.2185,"temp":31.2,"humidity":67,"rain":0.0,"pressure":1001.7,"uv_index":7.6,"wind_gusts":36.7,"aqi":75,"pm10":28.1,"pm2_5":20.5,"no2":8.2,"co":315.0,"o3":89.0,"so2":9.3,"mosquito_risk":3,"arthritis_risk":5,"migraine_risk":4,"frizz_risk":1,"updated_at":"2026-05-04T14:52:47.372014+05:30"},{"city":"Vijayawada","state":"Andhra Pradesh","latitude":16.5062,"longitude":80.648,"temp":34.8,"humidity":55,"rain":0.0,"pressure":999.3,"uv_index":9.15,"wind_gusts":34.2,"aqi":123,"pm10":49.4,"pm2_5":32.2,"no2":1.9,"co":235.0,"o3":169.0,"so2":9.6,"mosquito_risk":0,"arthritis_risk":5,"migraine_risk":7,"frizz_risk":1,"updated_at":"2026-05-04T14:52:47.372021+05:30"},{"city":"Guntur","state":"Andhra Pradesh","latitude":16.3067,"longitude":80.4365,"temp":36.2,"humidity":47,"rain":0.0,"pressure":1000.1,"uv_index":9.2,"wind_gusts":34.6,"aqi":132,"pm10":52.9,"pm2_5":31.0,"no2":1.6,"co":255.0,"o3":168.0,"so2":6.5,"mosquito_risk":0,"arthritis_risk":5,"migraine_risk":7,"frizz_risk":1,"updated_at":"2026-05-04T14:52:47.372031+05:30"},{"city":"Nellore","state":"Andhra Pradesh","latitude":14.4426,"longitude":79.9865,"temp":36.0,"humidity":53,"rain":0.0,"pressure":1001.3,"uv_index":9.15,"wind_gusts":40.0,"aqi":116,"pm10":40.2,"pm2_5":23.8,"no2":1.5,"co":269.0,"o3":162.0,"so2":4.7,"mosquito_risk":0,"arthritis_risk":5,"migraine_risk":7,"frizz_risk":1,"updated_at":"2026-05-04T14:52:47.372039+05:30"},{"city":"Kurnool","state":"Andhra Pradesh","latitude":15.8281,"longitude":78.0373,"temp":40.9,"humidity":13,"rain":0.0,"pressure":972.9,"uv_index":9.15,"wind_gusts":34.2,"aqi":67,"pm10":56.3,"pm2_5":18.0,"no2":1.2,"co":174.0,"o3":144.0,"so2":6.0,"mosquito_risk":0,"arthritis_risk":5,"migraine_risk":10,"frizz_risk":0,"updated_at":"2026-05-04T14:52:47.372046+05:30"},{"city":"Kakinada","state":"Andhra Pradesh","latitude":16.9891,"longitude":82.2475,"temp":30.8,"humidity":72,"rain":0.0,"pressure":1005.2,"uv_index":9.1,"wind_gusts":30.2,"aqi":67,"pm10":27.2,"pm2_5":18.6,"no2":0.9,"co":230.0,"o3":98.0,"so2":1.2,"mosquito_risk":3,"arthritis_risk":5,"migraine_risk":4,"frizz_risk":1,"updated_at":"2026-05-04T14:52:47.372053+05:30"},{"city":"Tirupati","state":"Andhra Pradesh","latitude":13.6288,"longitude":79.4192,"temp":39.4,"humidity":26,"rain":0.0,"pressure":986.0,"uv_index":9.1,"wind_gusts":49.7,"aqi":86,"pm10":47.3,"pm2_5":20.6,"no2":1.6,"co":215.0,"o3":158.0,"so2":3.7,"mosquito_risk":0,"arthritis_risk":5,"migraine_risk":10,"frizz_risk":1,"updated_at":"2026-05-04T14:52:47.372059+05:30"},{"city":"Warangal","state":"Telangana","latitude":17.9689,"longitude":79.5941,"temp":38.8,"humidity":27,"rain":0.0,"pressure":975.0,"uv_index":9.15,"wind_gusts":38.9,"aqi":133,"pm10":51.0,"pm2_5":30.9,"no2":1.6,"co":210.0,"o3":174.0,"so2":7.8,"mosquito_risk":0,"arthritis_risk":5,"migraine_risk":10,"frizz_risk":1,"updated_at":"2026-05-04T14:52:47.372065+05:30"},{"city":"Nizamabad","state":"Telangana","latitude":18.6725,"longitude":78.0941,"temp":40.2,"humidity":12,"rain":0.0,"pressure":961.0,"uv_index":9.1,"wind_gusts":33.5,"aqi":75,"pm10":47.3,"pm2_5":15.2,"no2":1.1,"co":166.0,"o3":135.0,"so2":3.6,"mosquito_risk":0,"arthritis_risk":5,"migraine_risk":10,"frizz_risk":0,"updated_at":"2026-05-04T14:52:47.372071+05:30"},{"city":"Mysore","state":"Karnataka","latitude":12.2958,"longitude":76.6396,"temp":34.2,"humidity":33,"rain":0.0,"pressure":926.7,"uv_index":9.4,"wind_gusts":37.4,"aqi":66,"pm10":49.5,"pm2_5":19.9,"no2":1.9,"co":185.0,"o3":146.0,"so2":2.1,"mosquito_risk":0,"arthritis_risk":5,"migraine_risk":7,"frizz_risk":0,"updated_at":"2026-05-04T14:52:47.372077+05:30"},{"city":"Mangalore","state":"Karnataka","latitude":12.9141,"longitude":74.856,"temp":33.2,"humidity":56,"rain":0.0,"pressure":1004.4,"uv_index":9.05,"wind_gusts":43.6,"aqi":68,"pm10":53.8,"pm2_5":17.8,"no2":0.8,"co":142.0,"o3":85.0,"so2":1.0,"mosquito_risk":0,"arthritis_risk":5,"migraine_risk":4,"frizz_risk":1,"updated_at":"2026-05-04T14:52:47.372084+05:30"},{"city":"Hubli-Dharwad","state":"Karnataka","latitude":15.3647,"longitude":75.124,"temp":36.2,"humidity":21,"rain":0.0,"pressure":939.0,"uv_index":9.15,"wind_gusts":53.6,"aqi":55,"pm10":49.9,"pm2_5":14.4,"no2":1.3,"co":154.0,"o3":113.0,"so2":1.1,"mosquito_risk":0,"arthritis_risk":5,"migraine_risk":10,"frizz_risk":0,"updated_at":"2026-05-04T14:52:47.372090+05:30"},{"city":"Belgaum","state":"Karnataka","latitude":15.8497,"longitude":74.4977,"temp":34.6,"humidity":21,"rain":0.0,"pressure":924.7,"uv_index":9.15,"wind_gusts":46.4,"aqi":56,"pm10":43.8,"pm2_5":13.6,"no2":1.2,"co":147.0,"o3":103.0,"so2":1.5,"mosquito_risk":0,"arthritis_risk":5,"migraine_risk":7,"frizz_risk":0,"updated_at":"2026-05-04T14:52:50.630541+05:30"},{"city":"Coimbatore","state":"Tamil Nadu","latitude":11.0168,"longitude":76.9558,"temp":32.3,"humidity":48,"rain":0.0,"pressure":959.3,"uv_index":9.35,"wind_gusts":50.4,"aqi":67,"pm10":46.1,"pm2_5":19.7,"no2":1.9,"co":196.0,"o3":123.0,"so2":2.4,"mosquito_risk":0,"arthritis_risk":5,"migraine_risk":7,"frizz_risk":1,"updated_at":"2026-05-04T14:52:50.630576+05:30"},{"city":"Madurai","state":"Tamil Nadu","latitude":9.9252,"longitude":78.1198,"temp":39.5,"humidity":30,"rain":0.0,"pressure":988.2,"uv_index":5.8,"wind_gusts":51.1,"aqi":126,"pm10":39.5,"pm2_5":26.1,"no2":2.6,"co":219.0,"o3":194.0,"so2":3.9,"mosquito_risk":0,"arthritis_risk":5,"migraine_risk":6,"frizz_risk":1,"updated_at":"2026-05-04T14:52:50.630588+05:30"},{"city":"Trichy","state":"Tamil Nadu","latitude":10.7905,"longitude":78.7047,"temp":39.0,"humidity":30,"rain":0.0,"pressure":994.8,"uv_index":9.25,"wind_gusts":41.8,"aqi":75,"pm10":39.9,"pm2_5":20.7,"no2":1.6,"co":199.0,"o3":149.0,"so2":3.9,"mosquito_risk":0,"arthritis_risk":5,"migraine_risk":10,"frizz_risk":1,"updated_at":"2026-05-04T14:52:50.630597+05:30"},{"city":"Salem","state":"Tamil Nadu","latitude":11.6643,"longitude":78.146,"temp":36.6,"humidity":32,"rain":0.0,"pressure":973.3,"uv_index":8.8,"wind_gusts":32.0,"aqi":82,"pm10":56.0,"pm2_5":24.9,"no2":2.7,"co":203.0,"o3":182.0,"so2":10.8,"mosquito_risk":0,"arthritis_risk":5,"migraine_risk":10,"frizz_risk":1,"updated_at":"2026-05-04T14:52:50.630605+05:30"},{"city":"Tirunelveli","state":"Tamil Nadu","latitude":8.7139,"longitude":77.7567,"temp":39.1,"humidity":28,"rain":0.0,"pressure":998.5,"uv_index":8.0,"wind_gusts":34.9,"aqi":73,"pm10":53.8,"pm2_5":22.2,"no2":1.3,"co":197.0,"o3":113.0,"so2":1.2,"mosquito_risk":0,"arthritis_risk":5,"migraine_risk":10,"frizz_risk":1,"updated_at":"2026-05-04T14:52:50.630613+05:30"},{"city":"Vellore","state":"Tamil Nadu","latitude":12.9165,"longitude":79.1325,"temp":34.5,"humidity":40,"rain":0.0,"pressure":981.0,"uv_index":8.9,"wind_gusts":49.0,"aqi":98,"pm10":53.6,"pm2_5":24.3,"no2":1.7,"co":205.0,"o3":178.0,"so2":4.2,"mosquito_risk":0,"arthritis_risk":5,"migraine_risk":7,"frizz_risk":1,"updated_at":"2026-05-04T14:52:50.630621+05:30"},{"city":"Erode","state":"Tamil Nadu","latitude":11.341,"longitude":77.7172,"temp":38.5,"humidity":28,"rain":0.0,"pressure":984.6,"uv_index":9.25,"wind_gusts":54.7,"aqi":68,"pm10":51.8,"pm2_5":21.2,"no2":2.0,"co":224.0,"o3":151.0,"so2":1.8,"mosquito_risk":0,"arthritis_risk":5,"migraine_risk":10,"frizz_risk":1,"updated_at":"2026-05-04T14:52:50.630628+05:30"},{"city":"Kochi","state":"Kerala","latitude":9.9312,"longitude":76.2673,"temp":30.2,"humidity":75,"rain":0.0,"pressure":1006.6,"uv_index":9.05,"wind_gusts":30.6,"aqi":105,"pm10":66.8,"pm2_5":27.3,"no2":2.5,"co":153.0,"o3":110.0,"so2":1.7,"mosquito_risk":3,"arthritis_risk":5,"migraine_risk":4,"frizz_risk":1,"updated_at":"2026-05-04T14:52:50.630635+05:30"},{"city":"Thiruvananthapuram","state":"Kerala","latitude":8.5241,"longitude":76.9366,"temp":32.0,"humidity":59,"rain":0.0,"pressure":1005.7,"uv_index":8.0,"wind_gusts":44.6,"aqi":69,"pm10":64.5,"pm2_5":24.7,"no2":1.0,"co":155.0,"o3":97.0,"so2":1.2,"mosquito_risk":0,"arthritis_risk":5,"migraine_risk":4,"frizz_risk":1,"updated_at":"2026-05-04T14:52:50.630642+05:30"},{"city":"Kozhikode","state":"Kerala","latitude":11.2588,"longitude":75.7804,"temp":31.1,"humidity":72,"rain":0.0,"pressure":1005.5,"uv_index":9.0,"wind_gusts":38.9,"aqi":70,"pm10":65.7,"pm2_5":21.7,"no2":0.4,"co":142.0,"o3":82.0,"so2":0.9,"mosquito_risk":3,"arthritis_risk":5,"migraine_risk":4,"frizz_risk":1,"updated_at":"2026-05-04T14:52:50.630649+05:30"},{"city":"Thrissur","state":"Kerala","latitude":10.5276,"longitude":76.2144,"temp":32.2,"humidity":65,"rain":0.0,"pressure":1004.6,"uv_index":9.05,"wind_gusts":30.6,"aqi":92,"pm10":57.6,"pm2_5":23.6,"no2":1.8,"co":156.0,"o3":100.0,"so2":1.1,"mosquito_risk":3,"arthritis_risk":5,"migraine_risk":4,"frizz_risk":1,"updated_at":"2026-05-04T14:52:50.630657+05:30"},{"city":"Kannur","state":"Kerala","latitude":11.8745,"longitude":75.3704,"temp":32.2,"humidity":64,"rain":0.0,"pressure":1004.7,"uv_index":9.0,"wind_gusts":47.2,"aqi":68,"pm10":55.5,"pm2_5":19.7,"no2":0.9,"co":142.0,"o3":89.0,"so2":1.0,"mosquito_risk":3,"arthritis_risk":5,"migraine_risk":4,"frizz_risk":1,"updated_at":"2026-05-04T14:52:50.630665+05:30"},{"city":"Patna","state":"Bihar","latitude":25.5941,"longitude":85.1376,"temp":32.2,"humidity":53,"rain":0.0,"pressure":999.1,"uv_index":8.7,"wind_gusts":45.7,"aqi":129,"pm10":71.2,"pm2_5":49.1,"no2":2.6,"co":267.0,"o3":191.0,"so2":9.0,"mosquito_risk":0,"arthritis_risk":5,"migraine_risk":7,"frizz_risk":1,"updated_at":"2026-05-04T14:52:50.630672+05:30"},{"city":"Gaya","state":"Bihar","latitude":24.7914,"longitude":85.0002,"temp":32.3,"humidity":50,"rain":0.0,"pressure":992.3,"uv_index":8.8,"wind_gusts":50.4,"aqi":137,"pm10":69.2,"pm2_5":46.0,"no2":2.2,"co":264.0,"o3":205.0,"so2":10.0,"mosquito_risk":0,"arthritis_risk":5,"migraine_risk":7,"frizz_risk":1,"updated_at":"2026-05-04T14:52:50.630679+05:30"},{"city":"Muzaffarpur","state":"Bihar","latitude":26.1209,"longitude":85.3647,"temp":31.5,"humidity":57,"rain":0.0,"pressure":999.5,"uv_index":8.7,"wind_gusts":44.3,"aqi":110,"pm10":68.9,"pm2_5":45.9,"no2":2.8,"co":288.0,"o3":180.0,"so2":6.5,"mosquito_risk":0,"arthritis_risk":5,"migraine_risk":7,"frizz_risk":1,"updated_at":"2026-05-04T14:52:50.630685+05:30"},{"city":"Bhagalpur","state":"Bihar","latitude":25.2425,"longitude":87.0117,"temp":33.0,"humidity":49,"rain":0.0,"pressure":1000.1,"uv_index":8.7,"wind_gusts":36.4,"aqi":109,"pm10":43.4,"pm2_5":32.7,"no2":3.8,"co":256.0,"o3":184.0,"so2":6.4,"mosquito_risk":0,"arthritis_risk":5,"migraine_risk":4,"frizz_risk":1,"updated_at":"2026-05-04T14:52:50.630692+05:30"},{"city":"Ranchi","state":"Jharkhand","latitude":23.3441,"longitude":85.3096,"temp":30.4,"humidity":46,"rain":0.0,"pressure":937.0,"uv_index":9.15,"wind_gusts":42.1,"aqi":142,"pm10":60.5,"pm2_5":34.2,"no2":1.6,"co":229.0,"o3":197.0,"so2":15.4,"mosquito_risk":0,"arthritis_risk":5,"migraine_risk":7,"frizz_risk":1,"updated_at":"2026-05-04T14:52:50.630699+05:30"},{"city":"Jamshedpur","state":"Jharkhand","latitude":22.8046,"longitude":86.2029,"temp":34.0,"humidity":42,"rain":0.0,"pressure":988.6,"uv_index":9.05,"wind_gusts":42.5,"aqi":124,"pm10":57.2,"pm2_5":41.7,"no2":2.9,"co":239.0,"o3":204.0,"so2":17.9,"mosquito_risk":0,"arthritis_risk":5,"migraine_risk":7,"frizz_risk":1,"updated_at":"2026-05-04T14:52:50.630705+05:30"},{"city":"Dhanbad","state":"Jharkhand","latitude":23.7957,"longitude":86.4304,"temp":30.4,"humidity":63,"rain":0.0,"pressure":978.9,"uv_index":9.0,"wind_gusts":45.0,"aqi":150,"pm10":72.9,"pm2_5":58.9,"no2":9.4,"co":292.0,"o3":222.0,"so2":41.6,"mosquito_risk":3,"arthritis_risk":5,"migraine_risk":7,"frizz_risk":1,"updated_at":"2026-05-04T14:52:50.630712+05:30"},{"city":"Bokaro","state":"Jharkhand","latitude":23.6693,"longitude":86.1511,"temp":30.8,"humidity":61,"rain":0.0,"pressure":982.7,"uv_index":9.0,"wind_gusts":35.6,"aqi":152,"pm10":80.8,"pm2_5":66.1,"no2":10.2,"co":286.0,"o3":259.0,"so2":52.9,"mosquito_risk":3,"arthritis_risk":5,"migraine_risk":7,"frizz_risk":1,"updated_at":"2026-05-04T14:52:50.630719+05:30"},{"city":"Bhubaneswar","state":"Odisha","latitude":20.2961,"longitude":85.8245,"temp":32.4,"humidity":59,"rain":0.0,"pressure":1000.7,"uv_index":9.1,"wind_gusts":43.2,"aqi":70,"pm10":29.3,"pm2_5":19.7,"no2":2.1,"co":191.0,"o3":110.0,"so2":2.9,"mosquito_risk":0,"arthritis_risk":5,"migraine_risk":4,"frizz_risk":1,"updated_at":"2026-05-04T14:52:50.630725+05:30"},{"city":"Cuttack","state":"Odisha","latitude":20.4625,"longitude":85.8828,"temp":33.5,"humidity":52,"rain":0.0,"pressure":1002.2,"uv_index":9.15,"wind_gusts":40.3,"aqi":70,"pm10":29.3,"pm2_5":19.7,"no2":2.1,"co":210.0,"o3":110.0,"so2":2.9,"mosquito_risk":0,"arthritis_risk":5,"migraine_risk":4,"frizz_risk":1,"updated_at":"2026-05-04T14:52:50.630732+05:30"},{"city":"Rourkela","state":"Odisha","latitude":22.2604,"longitude":84.8536,"temp":37.3,"humidity":27,"rain":0.0,"pressure":982.0,"uv_index":9.0,"wind_gusts":38.9,"aqi":155,"pm10":66.6,"pm2_5":39.9,"no2":2.2,"co":219.0,"o3":202.0,"so2":28.5,"mosquito_risk":0,"arthritis_risk":5,"migraine_risk":10,"frizz_risk":0,"updated_at":"2026-05-04T14:52:50.630740+05:30"},{"city":"Raipur","state":"Chhattisgarh","latitude":21.2514,"longitude":81.6296,"temp":37.5,"humidity":28,"rain":0.0,"pressure":971.8,"uv_index":8.95,"wind_gusts":55.4,"aqi":151,"pm10":60.1,"pm2_5":25.1,"no2":4.3,"co":219.0,"o3":170.0,"so2":6.8,"mosquito_risk":0,"arthritis_risk":5,"migraine_risk":10,"frizz_risk":0,"updated_at":"2026-05-04T14:52:50.630746+05:30"},{"city":"Bhilai","state":"Chhattisgarh","latitude":21.1938,"longitude":81.3509,"temp":35.6,"humidity":35,"rain":0.0,"pressure":971.9,"uv_index":9.0,"wind_gusts":43.9,"aqi":119,"pm10":55.8,"pm2_5":22.4,"no2":4.9,"co":373.0,"o3":166.0,"so2":6.9,"mosquito_risk":0,"arthritis_risk":5,"migraine_risk":10,"frizz_risk":1,"updated_at":"2026-05-04T14:52:50.630752+05:30"},{"city":"Guwahati","state":"Assam","latitude":26.1158,"longitude":91.7086,"temp":27.5,"humidity":73,"rain":0.0,"pressure":1001.5,"uv_index":8.65,"wind_gusts":32.4,"aqi":83,"pm10":36.1,"pm2_5":23.5,"no2":1.4,"co":247.0,"o3":128.0,"so2":1.3,"mosquito_risk":7,"arthritis_risk":5,"migraine_risk":4,"frizz_risk":1,"updated_at":"2026-05-04T14:52:50.630759+05:30"},{"city":"Agartala","state":"Tripura","latitude":23.8315,"longitude":91.2868,"temp":30.3,"humidity":67,"rain":0.0,"pressure":1006.2,"uv_index":8.85,"wind_gusts":33.1,"aqi":46,"pm10":15.7,"pm2_5":10.5,"no2":3.8,"co":190.0,"o3":138.0,"so2":0.6,"mosquito_risk":3,"arthritis_risk":5,"migraine_risk":4,"frizz_risk":1,"updated_at":"2026-05-04T14:52:50.630765+05:30"},{"city":"Shillong","state":"Meghalaya","latitude":25.5788,"longitude":91.8933,"temp":18.7,"humidity":86,"rain":0.2,"pressure":857.3,"uv_index":9.05,"wind_gusts":30.6,"aqi":68,"pm10":21.0,"pm2_5":12.7,"no2":1.3,"co":199.0,"o3":121.0,"so2":1.2,"mosquito_risk":6,"arthritis_risk":10,"migraine_risk":7,"frizz_risk":1,"updated_at":"2026-05-04T14:52:50.630772+05:30"},{"city":"Imphal","state":"Manipur","latitude":24.817,"longitude":93.9368,"temp":25.9,"humidity":59,"rain":0.0,"pressure":924.0,"uv_index":6.85,"wind_gusts":20.9,"aqi":95,"pm10":19.4,"pm2_5":12.7,"no2":1.3,"co":224.0,"o3":115.0,"so2":1.1,"mosquito_risk":4,"arthritis_risk":5,"migraine_risk":7,"frizz_risk":1,"updated_at":"2026-05-04T14:52:50.630778+05:30"},{"city":"Aizawl","state":"Mizoram","latitude":23.7271,"longitude":92.7176,"temp":25.4,"humidity":53,"rain":0.0,"pressure":893.8,"uv_index":8.45,"wind_gusts":29.5,"aqi":39,"pm10":26.8,"pm2_5":14.1,"no2":0.5,"co":169.0,"o3":112.0,"so2":0.6,"mosquito_risk":4,"arthritis_risk":5,"migraine_risk":7,"frizz_risk":0,"updated_at":"2026-05-04T14:52:50.630785+05:30"},{"city":"Kohima","state":"Nagaland","latitude":25.6701,"longitude":94.1077,"temp":21.4,"humidity":70,"rain":0.0,"pressure":856.7,"uv_index":8.9,"wind_gusts":26.6,"aqi":72,"pm10":32.1,"pm2_5":18.3,"no2":1.3,"co":219.0,"o3":114.0,"so2":1.0,"mosquito_risk":3,"arthritis_risk":5,"migraine_risk":7,"frizz_risk":0,"updated_at":"2026-05-04T14:52:50.630791+05:30"},{"city":"Gangtok","state":"Sikkim","latitude":27.3314,"longitude":88.6138,"temp":18.9,"humidity":71,"rain":0.0,"pressure":839.3,"uv_index":7.25,"wind_gusts":37.1,"aqi":76,"pm10":22.2,"pm2_5":15.7,"no2":1.1,"co":239.0,"o3":128.0,"so2":0.6,"mosquito_risk":3,"arthritis_risk":5,"migraine_risk":7,"frizz_risk":0,"updated_at":"2026-05-04T14:52:50.630797+05:30"},{"city":"Siliguri","state":"West Bengal","latitude":26.7271,"longitude":88.3953,"temp":29.6,"humidity":56,"rain":0.1,"pressure":993.4,"uv_index":8.5,"wind_gusts":30.6,"aqi":91,"pm10":34.2,"pm2_5":21.1,"no2":1.5,"co":286.0,"o3":137.0,"so2":1.5,"mosquito_risk":7,"arthritis_risk":5,"migraine_risk":7,"frizz_risk":1,"updated_at":"2026-05-04T14:52:53.878314+05:30"},{"city":"Durgapur","state":"West Bengal","latitude":23.5204,"longitude":87.3119,"temp":28.1,"humidity":78,"rain":0.0,"pressure":994.8,"uv_index":8.95,"wind_gusts":46.4,"aqi":125,"pm10":64.0,"pm2_5":47.5,"no2":8.1,"co":274.0,"o3":171.0,"so2":25.0,"mosquito_risk":7,"arthritis_risk":5,"migraine_risk":7,"frizz_risk":1,"updated_at":"2026-05-04T14:52:53.878349+05:30"},{"city":"Asansol","state":"West Bengal","latitude":23.6739,"longitude":86.9524,"temp":31.0,"humidity":65,"rain":0.0,"pressure":992.6,"uv_index":9.0,"wind_gusts":46.1,"aqi":134,"pm10":67.1,"pm2_5":50.6,"no2":7.2,"co":275.0,"o3":187.0,"so2":29.1,"mosquito_risk":3,"arthritis_risk":5,"migraine_risk":7,"frizz_risk":1,"updated_at":"2026-05-04T14:52:53.878361+05:30"},{"city":"Pondicherry","state":"Puducherry","latitude":11.9139,"longitude":79.8145,"temp":32.8,"humidity":66,"rain":0.0,"pressure":1004.0,"uv_index":8.4,"wind_gusts":46.8,"aqi":71,"pm10":35.9,"pm2_5":27.0,"no2":2.1,"co":225.0,"o3":150.0,"so2":7.6,"mosquito_risk":3,"arthritis_risk":5,"migraine_risk":4,"frizz_risk":1,"updated_at":"2026-05-04T14:52:53.878370+05:30"},{"city":"Port Blair","state":"Andaman and Nicobar Islands","latitude":11.6234,"longitude":92.7265,"temp":32.5,"humidity":56,"rain":0.0,"pressure":1005.5,"uv_index":9.1,"wind_gusts":34.9,"aqi":26,"pm10":11.9,"pm2_5":9.8,"no2":0.3,"co":149.0,"o3":52.0,"so2":5.1,"mosquito_risk":0,"arthritis_risk":5,"migraine_risk":4,"frizz_risk":1,"updated_at":"2026-05-04T14:52:53.878378+05:30"},{"city":"Haridwar","state":"Uttarakhand","latitude":29.9457,"longitude":78.1642,"temp":29.9,"humidity":36,"rain":0.0,"pressure":973.8,"uv_index":6.85,"wind_gusts":43.9,"aqi":104,"pm10":65.7,"pm2_5":19.6,"no2":1.2,"co":272.0,"o3":153.0,"so2":2.2,"mosquito_risk":4,"arthritis_risk":5,"migraine_risk":7,"frizz_risk":0,"updated_at":"2026-05-04T14:52:53.878387+05:30"},{"city":"Rishikesh","state":"Uttarakhand","latitude":30.0869,"longitude":78.2676,"temp":30.9,"humidity":32,"rain":0.0,"pressure":966.3,"uv_index":6.65,"wind_gusts":36.4,"aqi":93,"pm10":61.5,"pm2_5":15.9,"no2":0.7,"co":235.0,"o3":149.0,"so2":1.4,"mosquito_risk":0,"arthritis_risk":5,"migraine_risk":7,"frizz_risk":0,"updated_at":"2026-05-04T14:52:53.878395+05:30"},{"city":"Nainital","state":"Uttarakhand","latitude":29.3919,"longitude":79.4542,"temp":16.8,"humidity":55,"rain":0.0,"pressure":806.3,"uv_index":7.85,"wind_gusts":43.9,"aqi":94,"pm10":46.4,"pm2_5":16.6,"no2":0.8,"co":232.0,"o3":145.0,"so2":1.4,"mosquito_risk":0,"arthritis_risk":5,"migraine_risk":7,"frizz_risk":0,"updated_at":"2026-05-04T14:52:53.878403+05:30"},{"city":"Mussoorie","state":"Uttarakhand","latitude":30.4599,"longitude":78.0664,"temp":13.8,"humidity":65,"rain":0.1,"pressure":802.8,"uv_index":7.2,"wind_gusts":43.2,"aqi":83,"pm10":80.1,"pm2_5":19.6,"no2":1.1,"co":187.0,"o3":152.0,"so2":2.7,"mosquito_risk":6,"arthritis_risk":5,"migraine_risk":7,"frizz_risk":0,"updated_at":"2026-05-04T14:52:53.878410+05:30"},{"city":"Dharamshala","state":"Himachal Pradesh","latitude":32.219,"longitude":76.3234,"temp":21.6,"humidity":37,"rain":0.0,"pressure":869.0,"uv_index":8.0,"wind_gusts":42.1,"aqi":100,"pm10":119.2,"pm2_5":22.6,"no2":0.8,"co":203.0,"o3":150.0,"so2":1.7,"mosquito_risk":0,"arthritis_risk":5,"migraine_risk":7,"frizz_risk":0,"updated_at":"2026-05-04T14:52:53.878417+05:30"},{"city":"Dalhousie","state":"Himachal Pradesh","latitude":32.5387,"longitude":75.971,"temp":16.4,"humidity":55,"rain":0.0,"pressure":804.3,"uv_index":6.65,"wind_gusts":38.2,"aqi":87,"pm10":190.5,"pm2_5":36.3,"no2":1.8,"co":257.0,"o3":155.0,"so2":3.2,"mosquito_risk":0,"arthritis_risk":5,"migraine_risk":7,"frizz_risk":0,"updated_at":"2026-05-04T14:52:53.878425+05:30"},{"city":"Patiala","state":"Punjab","latitude":30.3398,"longitude":76.3869,"temp":30.6,"humidity":39,"rain":0.0,"pressure":977.6,"uv_index":7.4,"wind_gusts":52.6,"aqi":370,"pm10":85.9,"pm2_5":25.8,"no2":3.9,"co":266.0,"o3":147.0,"so2":5.6,"mosquito_risk":0,"arthritis_risk":5,"migraine_risk":7,"frizz_risk":0,"updated_at":"2026-05-04T14:52:53.878432+05:30"},{"city":"Bhatinda","state":"Punjab","latitude":30.211,"longitude":74.9455,"temp":31.9,"humidity":31,"rain":0.0,"pressure":982.7,"uv_index":8.0,"wind_gusts":47.5,"aqi":576,"pm10":348.3,"pm2_5":64.3,"no2":4.2,"co":258.0,"o3":168.0,"so2":11.5,"mosquito_risk":0,"arthritis_risk":5,"migraine_risk":7,"frizz_risk":0,"updated_at":"2026-05-04T14:52:53.878439+05:30"},{"city":"Rohtak","state":"Haryana","latitude":28.8955,"longitude":76.6066,"temp":31.2,"humidity":33,"rain":0.0,"pressure":981.6,"uv_index":7.5,"wind_gusts":51.1,"aqi":933,"pm10":804.7,"pm2_5":105.2,"no2":5.4,"co":292.0,"o3":189.0,"so2":16.0,"mosquito_risk":0,"arthritis_risk":5,"migraine_risk":7,"frizz_risk":0,"updated_at":"2026-05-04T14:52:53.878446+05:30"},{"city":"Panipat","state":"Haryana","latitude":29.3909,"longitude":76.9635,"temp":31.0,"humidity":33,"rain":0.0,"pressure":980.1,"uv_index":7.35,"wind_gusts":46.1,"aqi":1214,"pm10":432.1,"pm2_5":62.2,"no2":4.5,"co":285.0,"o3":179.0,"so2":13.2,"mosquito_risk":0,"arthritis_risk":5,"migraine_risk":7,"frizz_risk":0,"updated_at":"2026-05-04T14:52:53.878453+05:30"},{"city":"Mathura","state":"Uttar Pradesh","latitude":27.4924,"longitude":77.6737,"temp":33.2,"humidity":37,"rain":0.0,"pressure":985.0,"uv_index":7.8,"wind_gusts":52.2,"aqi":998,"pm10":1315.0,"pm2_5":137.4,"no2":2.8,"co":249.0,"o3":167.0,"so2":8.5,"mosquito_risk":0,"arthritis_risk":5,"migraine_risk":7,"frizz_risk":1,"updated_at":"2026-05-04T14:52:53.878459+05:30"},{"city":"Vrindavan","state":"Uttar Pradesh","latitude":27.5823,"longitude":77.7027,"temp":33.4,"humidity":35,"rain":0.0,"pressure":985.6,"uv_index":7.8,"wind_gusts":51.1,"aqi":998,"pm10":1315.0,"pm2_5":137.4,"no2":2.8,"co":244.0,"o3":167.0,"so2":8.5,"mosquito_risk":0,"arthritis_risk":5,"migraine_risk":7,"frizz_risk":0,"updated_at":"2026-05-04T14:52:53.878466+05:30"},{"city":"Ayodhya","state":"Uttar Pradesh","latitude":26.7922,"longitude":82.1998,"temp":30.0,"humidity":59,"rain":0.0,"pressure":994.7,"uv_index":7.8,"wind_gusts":43.2,"aqi":121,"pm10":76.1,"pm2_5":32.9,"no2":1.5,"co":307.0,"o3":175.0,"so2":4.5,"mosquito_risk":4,"arthritis_risk":5,"migraine_risk":7,"frizz_risk":1,"updated_at":"2026-05-04T14:52:53.878473+05:30"},{"city":"Ratlam","state":"Madhya Pradesh","latitude":23.3315,"longitude":75.0367,"temp":37.1,"humidity":24,"rain":0.0,"pressure":951.4,"uv_index":8.45,"wind_gusts":34.6,"aqi":45,"pm10":51.0,"pm2_5":16.0,"no2":0.6,"co":151.0,"o3":120.0,"so2":4.0,"mosquito_risk":0,"arthritis_risk":5,"migraine_risk":10,"frizz_risk":0,"updated_at":"2026-05-04T14:52:53.878480+05:30"},{"city":"Sagar","state":"Madhya Pradesh","latitude":23.8388,"longitude":78.7378,"temp":36.8,"humidity":23,"rain":0.0,"pressure":947.7,"uv_index":8.65,"wind_gusts":43.6,"aqi":84,"pm10":51.6,"pm2_5":15.4,"no2":0.8,"co":158.0,"o3":139.0,"so2":3.5,"mosquito_risk":0,"arthritis_risk":5,"migraine_risk":10,"frizz_risk":0,"updated_at":"2026-05-04T14:52:53.878487+05:30"},{"city":"Satna","state":"Madhya Pradesh","latitude":24.6005,"longitude":80.8322,"temp":33.8,"humidity":37,"rain":0.0,"pressure":969.7,"uv_index":8.2,"wind_gusts":42.8,"aqi":136,"pm10":69.6,"pm2_5":36.6,"no2":2.1,"co":237.0,"o3":183.0,"so2":10.5,"mosquito_risk":0,"arthritis_risk":5,"migraine_risk":7,"frizz_risk":1,"updated_at":"2026-05-04T14:52:53.878494+05:30"},{"city":"Akola","state":"Maharashtra","latitude":20.7002,"longitude":77.0082,"temp":40.0,"humidity":15,"rain":0.0,"pressure":970.8,"uv_index":8.85,"wind_gusts":34.6,"aqi":49,"pm10":48.1,"pm2_5":15.4,"no2":1.3,"co":154.0,"o3":134.0,"so2":9.9,"mosquito_risk":0,"arthritis_risk":5,"migraine_risk":10,"frizz_risk":0,"updated_at":"2026-05-04T14:52:53.878501+05:30"},{"city":"Amravati","state":"Maharashtra","latitude":20.9374,"longitude":77.7796,"temp":40.2,"humidity":13,"rain":0.0,"pressure":963.4,"uv_index":8.9,"wind_gusts":36.7,"aqi":50,"pm10":48.2,"pm2_5":15.2,"no2":1.4,"co":156.0,"o3":136.0,"so2":7.3,"mosquito_risk":0,"arthritis_risk":5,"migraine_risk":10,"frizz_risk":0,"updated_at":"2026-05-04T14:52:53.878508+05:30"},{"city":"Latur","state":"Maharashtra","latitude":18.4088,"longitude":76.5604,"temp":39.8,"humidity":11,"rain":0.0,"pressure":936.7,"uv_index":9.1,"wind_gusts":37.8,"aqi":57,"pm10":46.3,"pm2_5":12.0,"no2":0.8,"co":151.0,"o3":120.0,"so2":1.7,"mosquito_risk":0,"arthritis_risk":5,"migraine_risk":10,"frizz_risk":0,"updated_at":"2026-05-04T14:52:53.878515+05:30"},{"city":"Nanded","state":"Maharashtra","latitude":19.1383,"longitude":77.3091,"temp":40.5,"humidity":12,"rain":0.0,"pressure":964.7,"uv_index":9.0,"wind_gusts":29.9,"aqi":58,"pm10":55.1,"pm2_5":15.0,"no2":1.0,"co":157.0,"o3":129.0,"so2":2.6,"mosquito_risk":0,"arthritis_risk":5,"migraine_risk":10,"frizz_risk":0,"updated_at":"2026-05-04T14:52:53.878522+05:30"},{"city":"Gulbarga","state":"Karnataka","latitude":17.3297,"longitude":76.8343,"temp":40.0,"humidity":12,"rain":0.0,"pressure":955.3,"uv_index":9.1,"wind_gusts":40.0,"aqi":56,"pm10":52.6,"pm2_5":14.6,"no2":1.3,"co":154.0,"o3":129.0,"so2":2.7,"mosquito_risk":0,"arthritis_risk":5,"migraine_risk":10,"frizz_risk":0,"updated_at":"2026-05-04T14:52:53.878528+05:30"},{"city":"Bidar","state":"Karnataka","latitude":17.9104,"longitude":77.5199,"temp":38.2,"humidity":12,"rain":0.0,"pressure":933.3,"uv_index":9.15,"wind_gusts":28.4,"aqi":78,"pm10":54.6,"pm2_5":16.9,"no2":1.3,"co":156.0,"o3":137.0,"so2":4.9,"mosquito_risk":0,"arthritis_risk":5,"migraine_risk":10,"frizz_risk":0,"updated_at":"2026-05-04T14:52:53.878535+05:30"},{"city":"Hospet","state":"Karnataka","latitude":15.2689,"longitude":76.3909,"temp":37.2,"humidity":19,"rain":0.0,"pressure":953.1,"uv_index":9.2,"wind_gusts":41.8,"aqi":58,"pm10":54.6,"pm2_5":15.7,"no2":1.5,"co":165.0,"o3":123.0,"so2":1.4,"mosquito_risk":0,"arthritis_risk":5,"migraine_risk":10,"frizz_risk":0,"updated_at":"2026-05-04T14:52:53.878541+05:30"},{"city":"Tirupur","state":"Tamil Nadu","latitude":11.1085,"longitude":77.3411,"temp":36.2,"humidity":32,"rain":0.0,"pressure":971.8,"uv_index":9.35,"wind_gusts":36.7,"aqi":70,"pm10":53.1,"pm2_5":21.8,"no2":2.0,"co":198.0,"o3":146.0,"so2":2.4,"mosquito_risk":0,"arthritis_risk":5,"migraine_risk":10,"frizz_risk":1,"updated_at":"2026-05-04T14:52:53.878547+05:30"},{"city":"Alappuzha","state":"Kerala","latitude":9.4981,"longitude":76.3388,"temp":31.4,"humidity":66,"rain":0.0,"pressure":1006.7,"uv_index":8.95,"wind_gusts":38.5,"aqi":87,"pm10":76.8,"pm2_5":28.2,"no2":1.8,"co":133.0,"o3":106.0,"so2":2.6,"mosquito_risk":3,"arthritis_risk":5,"migraine_risk":4,"frizz_risk":1,"updated_at":"2026-05-04T14:52:53.878554+05:30"},{"city":"Munnar","state":"Kerala","latitude":10.0889,"longitude":77.0595,"temp":22.1,"humidity":76,"rain":0.1,"pressure":856.6,"uv_index":7.7,"wind_gusts":28.4,"aqi":76,"pm10":39.9,"pm2_5":19.3,"no2":1.1,"co":173.0,"o3":119.0,"so2":1.2,"mosquito_risk":6,"arthritis_risk":5,"migraine_risk":7,"frizz_risk":1,"updated_at":"2026-05-04T14:52:53.878561+05:30"},{"city":"Silchar","state":"Assam","latitude":24.8333,"longitude":92.7789,"temp":28.6,"humidity":73,"rain":0.0,"pressure":1005.3,"uv_index":6.1,"wind_gusts":22.7,"aqi":96,"pm10":13.4,"pm2_5":10.1,"no2":1.1,"co":202.0,"o3":111.0,"so2":2.5,"mosquito_risk":7,"arthritis_risk":5,"migraine_risk":4,"frizz_risk":1,"updated_at":"2026-05-04T14:52:53.878567+05:30"},{"city":"Dibrugarh","state":"Assam","latitude":27.4728,"longitude":94.912,"temp":28.7,"humidity":63,"rain":0.0,"pressure":995.9,"uv_index":8.7,"wind_gusts":22.3,"aqi":90,"pm10":24.3,"pm2_5":17.8,"no2":1.4,"co":221.0,"o3":118.0,"so2":1.1,"mosquito_risk":7,"arthritis_risk":5,"migraine_risk":7,"frizz_risk":1,"updated_at":"2026-05-04T14:52:53.878573+05:30"}]