[{"city":"Delhi","state":"Delhi","latitude":28.6139,"longitude":77.209,"temp":25.4,"humidity":43,"rain":0.0,"pressure":984.3,"uv_index":7.2,"wind_gusts":34.6,"aqi":430,"pm10":890.3,"pm2_5":137.4,"mosquito_risk":4,"arthritis_risk":5,"migraine_risk":7,"frizz_risk":0,"updated_at":"2026-04-12T23:07:58.073494+05:30"},{"city":"Mumbai","state":"Maharashtra","latitude":19.076,"longitude":72.8777,"temp":29.5,"humidity":81,"rain":0.0,"pressure":1007.8,"uv_index":8.0,"wind_gusts":22.3,"aqi":123,"pm10":70.5,"pm2_5":37.0,"mosquito_risk":7,"arthritis_risk":5,"migraine_risk":4,"frizz_risk":1,"updated_at":"2026-04-12T23:07:58.073538+05:30"},{"city":"Bangalore","state":"Karnataka","latitude":12.9716,"longitude":77.5946,"temp":27.0,"humidity":52,"rain":0.0,"pressure":912.6,"uv_index":9.65,"wind_gusts":27.7,"aqi":98,"pm10":30.6,"pm2_5":27.2,"mosquito_risk":4,"arthritis_risk":5,"migraine_risk":7,"frizz_risk":1,"updated_at":"2026-04-12T23:07:58.073553+05:30"},{"city":"Hyderabad","state":"Telangana","latitude":17.385,"longitude":78.4867,"temp":31.2,"humidity":45,"rain":0.0,"pressure":953.1,"uv_index":9.25,"wind_gusts":27.4,"aqi":114,"pm10":31.7,"pm2_5":27.5,"mosquito_risk":0,"arthritis_risk":5,"migraine_risk":7,"frizz_risk":1,"updated_at":"2026-04-12T23:07:58.073563+05:30"},{"city":"Chennai","state":"Tamil Nadu","latitude":13.0827,"longitude":80.2707,"temp":28.1,"humidity":84,"rain":0.0,"pressure":1008.2,"uv_index":9.4,"wind_gusts":34.6,"aqi":42,"pm10":12.2,"pm2_5":7.7,"mosquito_risk":7,"arthritis_risk":0,"migraine_risk":4,"frizz_risk":1,"updated_at":"2026-04-12T23:07:58.073572+05:30"},{"city":"Kolkata","state":"West Bengal","latitude":22.5726,"longitude":88.3639,"temp":26.8,"humidity":94,"rain":0.0,"pressure":1005.3,"uv_index":8.8,"wind_gusts":23.0,"aqi":109,"pm10":28.1,"pm2_5":21.4,"mosquito_risk":7,"arthritis_risk":5,"migraine_risk":4,"frizz_risk":1,"updated_at":"2026-04-12T23:07:58.073581+05:30"},{"city":"Pune","state":"Maharashtra","latitude":18.5204,"longitude":73.8567,"temp":29.1,"humidity":46,"rain":0.0,"pressure":948.7,"uv_index":8.55,"wind_gusts":42.5,"aqi":160,"pm10":45.9,"pm2_5":39.8,"mosquito_risk":4,"arthritis_risk":5,"migraine_risk":7,"frizz_risk":1,"updated_at":"2026-04-12T23:07:58.073593+05:30"},{"city":"Ahmedabad","state":"Gujarat","latitude":23.0225,"longitude":72.5714,"temp":30.6,"humidity":27,"rain":0.0,"pressure":1001.7,"uv_index":8.1,"wind_gusts":22.3,"aqi":106,"pm10":54.0,"pm2_5":28.2,"mosquito_risk":0,"arthritis_risk":5,"migraine_risk":4,"frizz_risk":0,"updated_at":"2026-04-12T23:07:58.073600+05:30"},{"city":"Jaipur","state":"Rajasthan","latitude":26.9124,"longitude":75.7873,"temp":26.7,"humidity":27,"rain":0.0,"pressure":961.0,"uv_index":7.85,"wind_gusts":30.2,"aqi":145,"pm10":143.0,"pm2_5":36.7,"mosquito_risk":4,"arthritis_risk":5,"migraine_risk":7,"frizz_risk":0,"updated_at":"2026-04-12T23:07:58.073608+05:30"},{"city":"Lucknow","state":"Uttar Pradesh","latitude":26.8467,"longitude":80.9462,"temp":26.2,"humidity":46,"rain":0.0,"pressure":993.1,"uv_index":7.7,"wind_gusts":29.2,"aqi":146,"pm10":333.4,"pm2_5":64.0,"mosquito_risk":4,"arthritis_risk":5,"migraine_risk":7,"frizz_risk":0,"updated_at":"2026-04-12T23:07:58.073617+05:30"},{"city":"Kanpur","state":"Uttar Pradesh","latitude":26.4499,"longitude":80.3319,"temp":24.7,"humidity":65,"rain":0.0,"pressure":991.6,"uv_index":7.75,"wind_gusts":24.5,"aqi":328,"pm10":694.8,"pm2_5":99.2,"mosquito_risk":3,"arthritis_risk":5,"migraine_risk":7,"frizz_risk":1,"updated_at":"2026-04-12T23:07:58.073624+05:30"},{"city":"Chandigarh","state":"Chandigarh","latitude":30.7333,"longitude":76.7794,"temp":20.6,"humidity":64,"rain":0.0,"pressure":970.2,"uv_index":7.1,"wind_gusts":31.7,"aqi":108,"pm10":32.5,"pm2_5":20.8,"mosquito_risk":3,"arthritis_risk":5,"migraine_risk":7,"frizz_risk":0,"updated_at":"2026-04-12T23:07:58.073632+05:30"},{"city":"Srinagar","state":"Jammu and Kashmir","latitude":34.0837,"longitude":74.7973,"temp":9.7,"humidity":79,"rain":0.0,"pressure":840.5,"uv_index":8.05,"wind_gusts":20.2,"aqi":80,"pm10":47.8,"pm2_5":42.5,"mosquito_risk":3,"arthritis_risk":5,"migraine_risk":7,"frizz_risk":0,"updated_at":"2026-04-12T23:07:58.073639+05:30"},{"city":"Jammu","state":"Jammu and Kashmir","latitude":32.7266,"longitude":74.857,"temp":21.5,"humidity":65,"rain":0.0,"pressure":974.3,"uv_index":7.8,"wind_gusts":27.7,"aqi":71,"pm10":38.1,"pm2_5":28.8,"mosquito_risk":3,"arthritis_risk":5,"migraine_risk":7,"frizz_risk":0,"updated_at":"2026-04-12T23:07:58.073646+05:30"},{"city":"Amritsar","state":"Punjab","latitude":31.634,"longitude":74.8723,"temp":21.4,"humidity":62,"rain":0.0,"pressure":982.7,"uv_index":7.75,"wind_gusts":25.6,"aqi":87,"pm10":54.4,"pm2_5":35.6,"mosquito_risk":3,"arthritis_risk":5,"migraine_risk":7,"frizz_risk":0,"updated_at":"2026-04-12T23:07:58.073654+05:30"},{"city":"Ludhiana","state":"Punjab","latitude":30.901,"longitude":75.8573,"temp":22.7,"humidity":51,"rain":0.0,"pressure":980.7,"uv_index":7.4,"wind_gusts":30.2,"aqi":88,"pm10":31.8,"pm2_5":24.8,"mosquito_risk":0,"arthritis_risk":5,"migraine_risk":7,"frizz_risk":0,"updated_at":"2026-04-12T23:07:58.073660+05:30"},{"city":"Jalandhar","state":"Punjab","latitude":31.326,"longitude":75.5762,"temp":21.9,"humidity":57,"rain":0.0,"pressure":981.8,"uv_index":7.55,"wind_gusts":27.0,"aqi":93,"pm10":44.8,"pm2_5":32.7,"mosquito_risk":0,"arthritis_risk":5,"migraine_risk":7,"frizz_risk":0,"updated_at":"2026-04-12T23:07:58.073669+05:30"},{"city":"Dehradun","state":"Uttarakhand","latitude":30.6284,"longitude":78.0322,"temp":12.7,"humidity":75,"rain":0.0,"pressure":829.0,"uv_index":7.5,"wind_gusts":33.5,"aqi":120,"pm10":41.1,"pm2_5":23.2,"mosquito_risk":3,"arthritis_risk":5,"migraine_risk":7,"frizz_risk":0,"updated_at":"2026-04-12T23:07:58.073677+05:30"},{"city":"Shimla","state":"Himachal Pradesh","latitude":31.1048,"longitude":77.1734,"temp":11.7,"humidity":72,"rain":0.0,"pressure":783.8,"uv_index":7.65,"wind_gusts":41.0,"aqi":113,"pm10":45.4,"pm2_5":18.5,"mosquito_risk":3,"arthritis_risk":5,"migraine_risk":7,"frizz_risk":0,"updated_at":"2026-04-12T23:07:58.073684+05:30"},{"city":"Manali","state":"Himachal Pradesh","latitude":32.2396,"longitude":77.1887,"temp":12.4,"humidity":78,"rain":0.0,"pressure":818.7,"uv_index":9.85,"wind_gusts":29.2,"aqi":148,"pm10":24.9,"pm2_5":12.3,"mosquito_risk":3,"arthritis_risk":5,"migraine_risk":7,"frizz_risk":0,"updated_at":"2026-04-12T23:07:58.073691+05:30"},{"city":"Gurgaon","state":"Haryana","latitude":28.4595,"longitude":77.0266,"temp":22.6,"humidity":54,"rain":0.0,"pressure":982.5,"uv_index":7.3,"wind_gusts":33.5,"aqi":1140,"pm10":1132.5,"pm2_5":161.6,"mosquito_risk":0,"arthritis_risk":5,"migraine_risk":7,"frizz_risk":0,"updated_at":"2026-04-12T23:07:58.073697+05:30"},{"city":"Noida","state":"Uttar Pradesh","latitude":28.5355,"longitude":77.391,"temp":24.9,"humidity":45,"rain":0.0,"pressure":985.7,"uv_index":7.25,"wind_gusts":33.8,"aqi":1140,"pm10":1132.5,"pm2_5":161.6,"mosquito_risk":0,"arthritis_risk":5,"migraine_risk":7,"frizz_risk":0,"updated_at":"2026-04-12T23:07:58.073703+05:30"},{"city":"Ghaziabad","state":"Uttar Pradesh","latitude":28.6692,"longitude":77.4538,"temp":23.4,"humidity":50,"rain":0.0,"pressure":983.8,"uv_index":7.2,"wind_gusts":32.8,"aqi":211,"pm10":711.5,"pm2_5":111.3,"mosquito_risk":0,"arthritis_risk":5,"migraine_risk":7,"frizz_risk":0,"updated_at":"2026-04-12T23:07:58.073710+05:30"},{"city":"Faridabad","state":"Haryana","latitude":28.4089,"longitude":77.3178,"temp":23.8,"humidity":48,"rain":0.0,"pressure":984.9,"uv_index":7.3,"wind_gusts":33.1,"aqi":1140,"pm10":1132.5,"pm2_5":161.6,"mosquito_risk":0,"arthritis_risk":5,"migraine_risk":7,"frizz_risk":0,"updated_at":"2026-04-12T23:07:58.073716+05:30"},{"city":"Meerut","state":"Uttar Pradesh","latitude":28.9845,"longitude":77.7064,"temp":21.8,"humidity":54,"rain":0.0,"pressure":982.5,"uv_index":7.1,"wind_gusts":33.1,"aqi":211,"pm10":711.5,"pm2_5":111.3,"mosquito_risk":0,"arthritis_risk":5,"migraine_risk":7,"frizz_risk":0,"updated_at":"2026-04-12T23:07:58.073723+05:30"},{"city":"Agra","state":"Uttar Pradesh","latitude":27.1767,"longitude":78.0081,"temp":24.5,"humidity":46,"rain":0.0,"pressure":988.6,"uv_index":7.6,"wind_gusts":33.5,"aqi":706,"pm10":1594.4,"pm2_5":184.4,"mosquito_risk":0,"arthritis_risk":5,"migraine_risk":7,"frizz_risk":0,"updated_at":"2026-04-12T23:07:58.073730+05:30"},{"city":"Varanasi","state":"Uttar Pradesh","latitude":25.3176,"longitude":82.9739,"temp":27.2,"humidity":44,"rain":0.0,"pressure":996.4,"uv_index":8.35,"wind_gusts":25.9,"aqi":114,"pm10":74.3,"pm2_5":32.2,"mosquito_risk":4,"arthritis_risk":5,"migraine_risk":7,"frizz_risk":0,"updated_at":"2026-04-12T23:07:58.073739+05:30"},{"city":"Prayagraj","state":"Uttar Pradesh","latitude":25.4358,"longitude":81.8463,"temp":27.0,"humidity":48,"rain":0.0,"pressure":995.6,"uv_index":8.2,"wind_gusts":23.4,"aqi":144,"pm10":96.9,"pm2_5":35.3,"mosquito_risk":4,"arthritis_risk":5,"migraine_risk":7,"frizz_risk":0,"updated_at":"2026-04-12T23:07:58.073747+05:30"},{"city":"Gorakhpur","state":"Uttar Pradesh","latitude":26.7606,"longitude":83.3732,"temp":25.9,"humidity":40,"rain":0.0,"pressure":995.8,"uv_index":8.15,"wind_gusts":36.0,"aqi":106,"pm10":70.8,"pm2_5":29.4,"mosquito_risk":4,"arthritis_risk":5,"migraine_risk":7,"frizz_risk":0,"updated_at":"2026-04-12T23:07:58.073756+05:30"},{"city":"Bareilly","state":"Uttar Pradesh","latitude":28.367,"longitude":79.4304,"temp":22.6,"humidity":60,"rain":0.0,"pressure":987.2,"uv_index":7.45,"wind_gusts":34.9,"aqi":106,"pm10":80.3,"pm2_5":30.2,"mosquito_risk":0,"arthritis_risk":5,"migraine_risk":7,"frizz_risk":0,"updated_at":"2026-04-12T23:07:58.073763+05:30"},{"city":"Aligarh","state":"Uttar Pradesh","latitude":27.8974,"longitude":78.088,"temp":22.3,"humidity":51,"rain":0.0,"pressure":986.2,"uv_index":7.4,"wind_gusts":34.2,"aqi":602,"pm10":1076.6,"pm2_5":159.3,"mosquito_risk":0,"arthritis_risk":5,"migraine_risk":7,"frizz_risk":0,"updated_at":"2026-04-12T23:07:58.073769+05:30"},{"city":"Moradabad","state":"Uttar Pradesh","latitude":28.8386,"longitude":78.7733,"temp":22.2,"humidity":59,"rain":0.0,"pressure":984.5,"uv_index":7.3,"wind_gusts":36.0,"aqi":93,"pm10":198.4,"pm2_5":50.6,"mosquito_risk":0,"arthritis_risk":5,"migraine_risk":7,"frizz_risk":0,"updated_at":"2026-04-12T23:07:58.073775+05:30"},{"city":"Saharanpur","state":"Uttar Pradesh","latitude":29.9637,"longitude":77.546,"temp":20.4,"humidity":65,"rain":0.0,"pressure":976.7,"uv_index":6.9,"wind_gusts":32.0,"aqi":108,"pm10":37.1,"pm2_5":21.2,"mosquito_risk":3,"arthritis_risk":5,"migraine_risk":7,"frizz_risk":0,"updated_at":"2026-04-12T23:07:58.073782+05:30"},{"city":"Jhansi","state":"Uttar Pradesh","latitude":25.4484,"longitude":78.5685,"temp":26.7,"humidity":43,"rain":0.0,"pressure":978.4,"uv_index":8.15,"wind_gusts":36.0,"aqi":74,"pm10":85.7,"pm2_5":30.0,"mosquito_risk":4,"arthritis_risk":5,"migraine_risk":7,"frizz_risk":0,"updated_at":"2026-04-12T23:08:01.387862+05:30"},{"city":"Surat","state":"Gujarat","latitude":21.1702,"longitude":72.8311,"temp":28.6,"humidity":80,"rain":0.0,"pressure":1005.9,"uv_index":7.8,"wind_gusts":26.6,"aqi":150,"pm10":64.3,"pm2_5":45.8,"mosquito_risk":7,"arthritis_risk":5,"migraine_risk":4,"frizz_risk":1,"updated_at":"2026-04-12T23:08:01.387893+05:30"},{"city":"Vadodara","state":"Gujarat","latitude":22.3072,"longitude":73.1812,"temp":29.2,"humidity":56,"rain":0.0,"pressure":1003.6,"uv_index":8.05,"wind_gusts":22.3,"aqi":126,"pm10":109.7,"pm2_5":71.5,"mosquito_risk":4,"arthritis_risk":5,"migraine_risk":4,"frizz_risk":1,"updated_at":"2026-04-12T23:08:01.387903+05:30"},{"city":"Rajkot","state":"Gujarat","latitude":22.3039,"longitude":70.8022,"temp":28.5,"humidity":52,"rain":0.0,"pressure":994.4,"uv_index":7.8,"wind_gusts":22.7,"aqi":76,"pm10":51.8,"pm2_5":27.6,"mosquito_risk":4,"arthritis_risk":5,"migraine_risk":7,"frizz_risk":1,"updated_at":"2026-04-12T23:08:01.387951+05:30"},{"city":"Thane","state":"Maharashtra","latitude":19.2183,"longitude":72.9781,"temp":28.2,"humidity":85,"rain":0.0,"pressure":1007.3,"uv_index":8.0,"wind_gusts":34.6,"aqi":123,"pm10":70.5,"pm2_5":37.0,"mosquito_risk":7,"arthritis_risk":5,"migraine_risk":4,"frizz_risk":1,"updated_at":"2026-04-12T23:08:01.387961+05:30"},{"city":"Nagpur","state":"Maharashtra","latitude":21.1458,"longitude":79.0882,"temp":26.3,"humidity":63,"rain":0.0,"pressure":971.9,"uv_index":8.8,"wind_gusts":14.8,"aqi":145,"pm10":42.8,"pm2_5":34.8,"mosquito_risk":7,"arthritis_risk":5,"migraine_risk":7,"frizz_risk":1,"updated_at":"2026-04-12T23:08:01.387968+05:30"},{"city":"Nashik","state":"Maharashtra","latitude":19.9975,"longitude":73.7898,"temp":27.3,"humidity":43,"rain":0.0,"pressure":945.8,"uv_index":8.25,"wind_gusts":31.3,"aqi":123,"pm10":54.7,"pm2_5":39.3,"mosquito_risk":4,"arthritis_risk":5,"migraine_risk":7,"frizz_risk":0,"updated_at":"2026-04-12T23:08:01.387976+05:30"},{"city":"Aurangabad","state":"Maharashtra","latitude":19.8762,"longitude":75.3433,"temp":30.5,"humidity":35,"rain":0.0,"pressure":944.2,"uv_index":8.95,"wind_gusts":31.0,"aqi":114,"pm10":44.5,"pm2_5":31.7,"mosquito_risk":0,"arthritis_risk":5,"migraine_risk":7,"frizz_risk":0,"updated_at":"2026-04-12T23:08:01.387983+05:30"},{"city":"Solapur","state":"Maharashtra","latitude":17.6599,"longitude":75.9064,"temp":32.7,"humidity":42,"rain":0.0,"pressure":956.0,"uv_index":9.05,"wind_gusts":27.0,"aqi":117,"pm10":39.0,"pm2_5":32.6,"mosquito_risk":0,"arthritis_risk":5,"migraine_risk":7,"frizz_risk":1,"updated_at":"2026-04-12T23:08:01.387991+05:30"},{"city":"Kolhapur","state":"Maharashtra","latitude":16.705,"longitude":74.2433,"temp":25.1,"humidity":76,"rain":0.0,"pressure":948.1,"uv_index":9.05,"wind_gusts":49.3,"aqi":108,"pm10":36.2,"pm2_5":30.0,"mosquito_risk":7,"arthritis_risk":5,"migraine_risk":7,"frizz_risk":1,"updated_at":"2026-04-12T23:08:01.387998+05:30"},{"city":"Goa","state":"Goa","latitude":15.2993,"longitude":74.124,"temp":28.9,"humidity":79,"rain":0.0,"pressure":998.5,"uv_index":9.05,"wind_gusts":32.8,"aqi":96,"pm10":50.2,"pm2_5":35.3,"mosquito_risk":7,"arthritis_risk":5,"migraine_risk":7,"frizz_risk":1,"updated_at":"2026-04-12T23:08:01.388005+05:30"},{"city":"Jodhpur","state":"Rajasthan","latitude":26.2389,"longitude":73.0243,"temp":27.8,"humidity":37,"rain":0.0,"pressure":983.9,"uv_index":8.1,"wind_gusts":16.2,"aqi":89,"pm10":65.9,"pm2_5":30.2,"mosquito_risk":4,"arthritis_risk":5,"migraine_risk":7,"frizz_risk":0,"updated_at":"2026-04-12T23:08:01.388012+05:30"},{"city":"Udaipur","state":"Rajasthan","latitude":24.5854,"longitude":73.7125,"temp":24.8,"humidity":33,"rain":0.0,"pressure":947.6,"uv_index":8.7,"wind_gusts":28.4,"aqi":86,"pm10":34.8,"pm2_5":13.7,"mosquito_risk":0,"arthritis_risk":5,"migraine_risk":7,"frizz_risk":0,"updated_at":"2026-04-12T23:08:01.388019+05:30"},{"city":"Kota","state":"Rajasthan","latitude":25.2138,"longitude":75.8648,"temp":28.2,"humidity":40,"rain":0.0,"pressure":979.1,"uv_index":8.15,"wind_gusts":24.1,"aqi":93,"pm10":75.2,"pm2_5":28.7,"mosquito_risk":4,"arthritis_risk":5,"migraine_risk":7,"frizz_risk":0,"updated_at":"2026-04-12T23:08:01.388025+05:30"},{"city":"Bikaner","state":"Rajasthan","latitude":28.0229,"longitude":73.3119,"temp":29.3,"humidity":26,"rain":0.0,"pressure":982.6,"uv_index":7.95,"wind_gusts":21.2,"aqi":83,"pm10":35.4,"pm2_5":14.5,"mosquito_risk":4,"arthritis_risk":5,"migraine_risk":7,"frizz_risk":0,"updated_at":"2026-04-12T23:08:01.388032+05:30"},{"city":"Ajmer","state":"Rajasthan","latitude":26.4499,"longitude":74.6399,"temp":26.7,"humidity":30,"rain":0.0,"pressure":955.6,"uv_index":8.05,"wind_gusts":26.3,"aqi":81,"pm10":48.5,"pm2_5":23.4,"mosquito_risk":4,"arthritis_risk":5,"migraine_risk":7,"frizz_risk":0,"updated_at":"2026-04-12T23:08:01.388039+05:30"},{"city":"Gwalior","state":"Madhya Pradesh","latitude":26.2183,"longitude":78.1828,"temp":27.0,"humidity":50,"rain":0.0,"pressure":983.9,"uv_index":7.85,"wind_gusts":33.1,"aqi":120,"pm10":312.9,"pm2_5":52.5,"mosquito_risk":4,"arthritis_risk":5,"migraine_risk":7,"frizz_risk":0,"updated_at":"2026-04-12T23:08:01.388046+05:30"},{"city":"Indore","state":"Madhya Pradesh","latitude":22.7196,"longitude":75.8577,"temp":25.6,"humidity":51,"rain":0.0,"pressure":948.3,"uv_index":8.55,"wind_gusts":27.7,"aqi":77,"pm10":61.7,"pm2_5":44.6,"mosquito_risk":4,"arthritis_risk":5,"migraine_risk":7,"frizz_risk":0,"updated_at":"2026-04-12T23:08:01.388053+05:30"},{"city":"Bhopal","state":"Madhya Pradesh","latitude":23.2599,"longitude":77.4126,"temp":27.7,"humidity":41,"rain":0.0,"pressure":953.7,"uv_index":8.5,"wind_gusts":32.4,"aqi":74,"pm10":40.2,"pm2_5":23.6,"mosquito_risk":4,"arthritis_risk":5,"migraine_risk":7,"frizz_risk":0,"updated_at":"2026-04-12T23:08:01.388059+05:30"},{"city":"Jabalpur","state":"Madhya Pradesh","latitude":23.1815,"longitude":79.9864,"temp":27.6,"humidity":48,"rain":0.0,"pressure":960.4,"uv_index":8.65,"wind_gusts":33.8,"aqi":94,"pm10":29.0,"pm2_5":25.4,"mosquito_risk":4,"arthritis_risk":5,"migraine_risk":7,"frizz_risk":0,"updated_at":"2026-04-12T23:08:01.388066+05:30"},{"city":"Ujjain","state":"Madhya Pradesh","latitude":23.1765,"longitude":75.7885,"temp":26.3,"humidity":46,"rain":0.0,"pressure":954.1,"uv_index":8.45,"wind_gusts":27.4,"aqi":70,"pm10":70.5,"pm2_5":38.4,"mosquito_risk":4,"arthritis_risk":5,"migraine_risk":7,"frizz_risk":0,"updated_at":"2026-04-12T23:08:01.388073+05:30"},{"city":"Visakhapatnam","state":"Andhra Pradesh","latitude":17.6868,"longitude":83.2185,"temp":28.2,"humidity":84,"rain":0.0,"pressure":1004.7,"uv_index":9.15,"wind_gusts":38.9,"aqi":75,"pm10":24.4,"pm2_5":15.9,"mosquito_risk":7,"arthritis_risk":5,"migraine_risk":4,"frizz_risk":1,"updated_at":"2026-04-12T23:08:01.388080+05:30"},{"city":"Vijayawada","state":"Andhra Pradesh","latitude":16.5062,"longitude":80.648,"temp":27.5,"humidity":84,"rain":0.0,"pressure":1003.3,"uv_index":9.25,"wind_gusts":35.3,"aqi":56,"pm10":19.6,"pm2_5":13.7,"mosquito_risk":7,"arthritis_risk":5,"migraine_risk":4,"frizz_risk":1,"updated_at":"2026-04-12T23:08:01.388086+05:30"},{"city":"Guntur","state":"Andhra Pradesh","latitude":16.3067,"longitude":80.4365,"temp":27.4,"humidity":85,"rain":0.0,"pressure":1004.4,"uv_index":9.25,"wind_gusts":34.9,"aqi":55,"pm10":20.5,"pm2_5":14.2,"mosquito_risk":7,"arthritis_risk":5,"migraine_risk":4,"frizz_risk":1,"updated_at":"2026-04-12T23:08:01.388093+05:30"},{"city":"Nellore","state":"Andhra Pradesh","latitude":14.4426,"longitude":79.9865,"temp":27.4,"humidity":86,"rain":0.0,"pressure":1006.4,"uv_index":9.35,"wind_gusts":34.6,"aqi":56,"pm10":15.9,"pm2_5":10.7,"mosquito_risk":7,"arthritis_risk":5,"migraine_risk":4,"frizz_risk":1,"updated_at":"2026-04-12T23:08:01.388100+05:30"},{"city":"Kurnool","state":"Andhra Pradesh","latitude":15.8281,"longitude":78.0373,"temp":33.5,"humidity":42,"rain":0.0,"pressure":976.0,"uv_index":9.25,"wind_gusts":31.7,"aqi":95,"pm10":31.8,"pm2_5":27.4,"mosquito_risk":0,"arthritis_risk":5,"migraine_risk":7,"frizz_risk":1,"updated_at":"2026-04-12T23:08:01.388107+05:30"},{"city":"Kakinada","state":"Andhra Pradesh","latitude":16.9891,"longitude":82.2475,"temp":27.9,"humidity":84,"rain":0.0,"pressure":1008.5,"uv_index":9.2,"wind_gusts":36.7,"aqi":53,"pm10":21.1,"pm2_5":11.1,"mosquito_risk":7,"arthritis_risk":0,"migraine_risk":4,"frizz_risk":1,"updated_at":"2026-04-12T23:08:01.388114+05:30"},{"city":"Tirupati","state":"Andhra Pradesh","latitude":13.6288,"longitude":79.4192,"temp":27.8,"humidity":66,"rain":0.0,"pressure":992.8,"uv_index":9.45,"wind_gusts":32.0,"aqi":68,"pm10":24.3,"pm2_5":19.7,"mosquito_risk":7,"arthritis_risk":5,"migraine_risk":7,"frizz_risk":1,"updated_at":"2026-04-12T23:08:01.388121+05:30"},{"city":"Warangal","state":"Telangana","latitude":17.9689,"longitude":79.5941,"temp":30.6,"humidity":60,"rain":0.0,"pressure":978.0,"uv_index":9.1,"wind_gusts":29.5,"aqi":106,"pm10":28.4,"pm2_5":25.3,"mosquito_risk":0,"arthritis_risk":5,"migraine_risk":7,"frizz_risk":1,"updated_at":"2026-04-12T23:08:01.388129+05:30"},{"city":"Nizamabad","state":"Telangana","latitude":18.6725,"longitude":78.0941,"temp":31.9,"humidity":41,"rain":0.0,"pressure":964.0,"uv_index":9.05,"wind_gusts":26.3,"aqi":130,"pm10":66.8,"pm2_5":54.4,"mosquito_risk":0,"arthritis_risk":5,"migraine_risk":7,"frizz_risk":1,"updated_at":"2026-04-12T23:08:01.388135+05:30"},{"city":"Mysore","state":"Karnataka","latitude":12.2958,"longitude":76.6396,"temp":25.5,"humidity":80,"rain":0.0,"pressure":929.4,"uv_index":9.55,"wind_gusts":39.2,"aqi":100,"pm10":43.2,"pm2_5":37.0,"mosquito_risk":7,"arthritis_risk":5,"migraine_risk":7,"frizz_risk":1,"updated_at":"2026-04-12T23:08:01.388142+05:30"},{"city":"Mangalore","state":"Karnataka","latitude":12.9141,"longitude":74.856,"temp":30.2,"humidity":77,"rain":0.0,"pressure":1007.3,"uv_index":9.2,"wind_gusts":24.1,"aqi":96,"pm10":56.0,"pm2_5":30.3,"mosquito_risk":3,"arthritis_risk":5,"migraine_risk":4,"frizz_risk":1,"updated_at":"2026-04-12T23:08:01.388148+05:30"},{"city":"Hubli-Dharwad","state":"Karnataka","latitude":15.3647,"longitude":75.124,"temp":25.1,"humidity":87,"rain":0.0,"pressure":941.4,"uv_index":9.25,"wind_gusts":35.6,"aqi":122,"pm10":31.1,"pm2_5":25.2,"mosquito_risk":7,"arthritis_risk":5,"migraine_risk":7,"frizz_risk":1,"updated_at":"2026-04-12T23:08:01.388155+05:30"},{"city":"Belgaum","state":"Karnataka","latitude":15.8497,"longitude":74.4977,"temp":23.9,"humidity":91,"rain":0.0,"pressure":926.1,"uv_index":9.25,"wind_gusts":41.8,"aqi":112,"pm10":37.5,"pm2_5":31.1,"mosquito_risk":3,"arthritis_risk":5,"migraine_risk":7,"frizz_risk":1,"updated_at":"2026-04-12T23:08:04.708497+05:30"},{"city":"Coimbatore","state":"Tamil Nadu","latitude":11.0168,"longitude":76.9558,"temp":26.3,"humidity":81,"rain":0.0,"pressure":963.1,"uv_index":9.5,"wind_gusts":37.4,"aqi":93,"pm10":40.7,"pm2_5":33.8,"mosquito_risk":7,"arthritis_risk":5,"migraine_risk":7,"frizz_risk":1,"updated_at":"2026-04-12T23:08:04.708529+05:30"},{"city":"Madurai","state":"Tamil Nadu","latitude":9.9252,"longitude":78.1198,"temp":28.6,"humidity":80,"rain":0.0,"pressure":994.6,"uv_index":9.4,"wind_gusts":27.0,"aqi":87,"pm10":28.2,"pm2_5":25.4,"mosquito_risk":7,"arthritis_risk":5,"migraine_risk":7,"frizz_risk":1,"updated_at":"2026-04-12T23:08:04.708539+05:30"},{"city":"Trichy","state":"Tamil Nadu","latitude":10.7905,"longitude":78.7047,"temp":27.6,"humidity":74,"rain":0.0,"pressure":1000.9,"uv_index":9.4,"wind_gusts":27.4,"aqi":64,"pm10":16.0,"pm2_5":14.2,"mosquito_risk":7,"arthritis_risk":5,"migraine_risk":4,"frizz_risk":1,"updated_at":"2026-04-12T23:08:04.708548+05:30"},{"city":"Salem","state":"Tamil Nadu","latitude":11.6643,"longitude":78.146,"temp":29.2,"humidity":62,"rain":0.0,"pressure":977.9,"uv_index":9.45,"wind_gusts":25.2,"aqi":79,"pm10":27.2,"pm2_5":23.4,"mosquito_risk":7,"arthritis_risk":5,"migraine_risk":7,"frizz_risk":1,"updated_at":"2026-04-12T23:08:04.708556+05:30"},{"city":"Tirunelveli","state":"Tamil Nadu","latitude":8.7139,"longitude":77.7567,"temp":28.3,"humidity":79,"rain":0.0,"pressure":1004.3,"uv_index":9.35,"wind_gusts":37.4,"aqi":84,"pm10":31.4,"pm2_5":25.0,"mosquito_risk":7,"arthritis_risk":5,"migraine_risk":4,"frizz_risk":1,"updated_at":"2026-04-12T23:08:04.708563+05:30"},{"city":"Vellore","state":"Tamil Nadu","latitude":12.9165,"longitude":79.1325,"temp":27.4,"humidity":59,"rain":0.0,"pressure":985.6,"uv_index":9.5,"wind_gusts":32.8,"aqi":87,"pm10":37.4,"pm2_5":32.8,"mosquito_risk":4,"arthritis_risk":5,"migraine_risk":7,"frizz_risk":1,"updated_at":"2026-04-12T23:08:04.708570+05:30"},{"city":"Erode","state":"Tamil Nadu","latitude":11.341,"longitude":77.7172,"temp":30.5,"humidity":56,"rain":0.0,"pressure":989.5,"uv_index":9.4,"wind_gusts":29.2,"aqi":68,"pm10":17.4,"pm2_5":14.6,"mosquito_risk":0,"arthritis_risk":5,"migraine_risk":7,"frizz_risk":1,"updated_at":"2026-04-12T23:08:04.708577+05:30"},{"city":"Kochi","state":"Kerala","latitude":9.9312,"longitude":76.2673,"temp":28.0,"humidity":84,"rain":0.0,"pressure":1009.9,"uv_index":8.9,"wind_gusts":28.1,"aqi":98,"pm10":54.5,"pm2_5":45.9,"mosquito_risk":7,"arthritis_risk":0,"migraine_risk":4,"frizz_risk":1,"updated_at":"2026-04-12T23:08:04.708585+05:30"},{"city":"Thiruvananthapuram","state":"Kerala","latitude":8.5241,"longitude":76.9366,"temp":28.9,"humidity":82,"rain":0.0,"pressure":1008.9,"uv_index":9.2,"wind_gusts":21.6,"aqi":84,"pm10":41.1,"pm2_5":23.3,"mosquito_risk":7,"arthritis_risk":0,"migraine_risk":4,"frizz_risk":1,"updated_at":"2026-04-12T23:08:04.708592+05:30"},{"city":"Kozhikode","state":"Kerala","latitude":11.2588,"longitude":75.7804,"temp":30.2,"humidity":79,"rain":0.0,"pressure":1008.5,"uv_index":9.1,"wind_gusts":32.4,"aqi":92,"pm10":65.4,"pm2_5":32.9,"mosquito_risk":3,"arthritis_risk":0,"migraine_risk":4,"frizz_risk":1,"updated_at":"2026-04-12T23:08:04.708598+05:30"},{"city":"Thrissur","state":"Kerala","latitude":10.5276,"longitude":76.2144,"temp":29.3,"humidity":84,"rain":0.0,"pressure":1007.8,"uv_index":9.15,"wind_gusts":32.0,"aqi":92,"pm10":66.8,"pm2_5":48.2,"mosquito_risk":7,"arthritis_risk":5,"migraine_risk":4,"frizz_risk":1,"updated_at":"2026-04-12T23:08:04.708605+05:30"},{"city":"Kannur","state":"Kerala","latitude":11.8745,"longitude":75.3704,"temp":29.8,"humidity":80,"rain":0.0,"pressure":1007.8,"uv_index":9.2,"wind_gusts":31.3,"aqi":110,"pm10":81.0,"pm2_5":52.9,"mosquito_risk":7,"arthritis_risk":5,"migraine_risk":4,"frizz_risk":1,"updated_at":"2026-04-12T23:08:04.708613+05:30"},{"city":"Patna","state":"Bihar","latitude":25.5941,"longitude":85.1376,"temp":27.1,"humidity":51,"rain":0.0,"pressure":998.8,"uv_index":8.45,"wind_gusts":36.4,"aqi":107,"pm10":85.7,"pm2_5":41.2,"mosquito_risk":4,"arthritis_risk":5,"migraine_risk":7,"frizz_risk":1,"updated_at":"2026-04-12T23:08:04.708619+05:30"},{"city":"Gaya","state":"Bihar","latitude":24.7914,"longitude":85.0002,"temp":27.6,"humidity":44,"rain":0.0,"pressure":992.3,"uv_index":8.55,"wind_gusts":26.3,"aqi":121,"pm10":95.7,"pm2_5":42.4,"mosquito_risk":4,"arthritis_risk":5,"migraine_risk":7,"frizz_risk":0,"updated_at":"2026-04-12T23:08:04.708626+05:30"},{"city":"Muzaffarpur","state":"Bihar","latitude":26.1209,"longitude":85.3647,"temp":25.1,"humidity":64,"rain":0.0,"pressure":998.9,"uv_index":8.45,"wind_gusts":34.6,"aqi":144,"pm10":73.3,"pm2_5":40.5,"mosquito_risk":7,"arthritis_risk":5,"migraine_risk":7,"frizz_risk":1,"updated_at":"2026-04-12T23:08:04.708633+05:30"},{"city":"Bhagalpur","state":"Bihar","latitude":25.2425,"longitude":87.0117,"temp":25.3,"humidity":72,"rain":0.0,"pressure":999.7,"uv_index":8.5,"wind_gusts":26.6,"aqi":139,"pm10":124.8,"pm2_5":54.4,"mosquito_risk":7,"arthritis_risk":5,"migraine_risk":7,"frizz_risk":1,"updated_at":"2026-04-12T23:08:04.708639+05:30"},{"city":"Ranchi","state":"Jharkhand","latitude":23.3441,"longitude":85.3096,"temp":26.4,"humidity":38,"rain":0.0,"pressure":937.7,"uv_index":9.1,"wind_gusts":30.6,"aqi":103,"pm10":38.6,"pm2_5":25.0,"mosquito_risk":4,"arthritis_risk":5,"migraine_risk":7,"frizz_risk":0,"updated_at":"2026-04-12T23:08:04.708645+05:30"},{"city":"Jamshedpur","state":"Jharkhand","latitude":22.8046,"longitude":86.2029,"temp":26.4,"humidity":64,"rain":0.0,"pressure":989.6,"uv_index":8.9,"wind_gusts":18.4,"aqi":95,"pm10":48.9,"pm2_5":27.5,"mosquito_risk":7,"arthritis_risk":5,"migraine_risk":7,"frizz_risk":1,"updated_at":"2026-04-12T23:08:04.708651+05:30"},{"city":"Dhanbad","state":"Jharkhand","latitude":23.7957,"longitude":86.4304,"temp":28.7,"humidity":41,"rain":0.0,"pressure":978.8,"uv_index":8.85,"wind_gusts":29.5,"aqi":123,"pm10":102.0,"pm2_5":80.3,"mosquito_risk":4,"arthritis_risk":5,"migraine_risk":7,"frizz_risk":0,"updated_at":"2026-04-12T23:08:04.708657+05:30"},{"city":"Bokaro","state":"Jharkhand","latitude":23.6693,"longitude":86.1511,"temp":27.8,"humidity":44,"rain":0.0,"pressure":983.2,"uv_index":8.85,"wind_gusts":30.2,"aqi":111,"pm10":80.1,"pm2_5":63.1,"mosquito_risk":4,"arthritis_risk":5,"migraine_risk":7,"frizz_risk":0,"updated_at":"2026-04-12T23:08:04.708664+05:30"},{"city":"Bhubaneswar","state":"Odisha","latitude":20.2961,"longitude":85.8245,"temp":27.5,"humidity":88,"rain":0.0,"pressure":1003.3,"uv_index":9.05,"wind_gusts":31.7,"aqi":82,"pm10":23.2,"pm2_5":18.5,"mosquito_risk":7,"arthritis_risk":5,"migraine_risk":4,"frizz_risk":1,"updated_at":"2026-04-12T23:08:04.708670+05:30"},{"city":"Cuttack","state":"Odisha","latitude":20.4625,"longitude":85.8828,"temp":27.5,"humidity":90,"rain":0.0,"pressure":1005.0,"uv_index":9.1,"wind_gusts":33.8,"aqi":82,"pm10":23.2,"pm2_5":18.5,"mosquito_risk":7,"arthritis_risk":5,"migraine_risk":4,"frizz_risk":1,"updated_at":"2026-04-12T23:08:04.708676+05:30"},{"city":"Rourkela","state":"Odisha","latitude":22.2604,"longitude":84.8536,"temp":28.0,"humidity":44,"rain":0.0,"pressure":983.7,"uv_index":8.85,"wind_gusts":17.6,"aqi":151,"pm10":53.9,"pm2_5":30.9,"mosquito_risk":4,"arthritis_risk":5,"migraine_risk":7,"frizz_risk":0,"updated_at":"2026-04-12T23:08:04.708682+05:30"},{"city":"Raipur","state":"Chhattisgarh","latitude":21.2514,"longitude":81.6296,"temp":29.2,"humidity":36,"rain":0.0,"pressure":973.3,"uv_index":8.9,"wind_gusts":19.8,"aqi":143,"pm10":53.4,"pm2_5":45.9,"mosquito_risk":4,"arthritis_risk":5,"migraine_risk":7,"frizz_risk":0,"updated_at":"2026-04-12T23:08:04.708688+05:30"},{"city":"Bhilai","state":"Chhattisgarh","latitude":21.1938,"longitude":81.3509,"temp":28.4,"humidity":39,"rain":0.0,"pressure":973.6,"uv_index":8.9,"wind_gusts":15.8,"aqi":130,"pm10":47.7,"pm2_5":42.5,"mosquito_risk":4,"arthritis_risk":5,"migraine_risk":7,"frizz_risk":0,"updated_at":"2026-04-12T23:08:04.708695+05:30"},{"city":"Guwahati","state":"Assam","latitude":26.1158,"longitude":91.7086,"temp":22.8,"humidity":90,"rain":0.6,"pressure":1002.2,"uv_index":8.4,"wind_gusts":29.9,"aqi":124,"pm10":61.0,"pm2_5":42.8,"mosquito_risk":6,"arthritis_risk":5,"migraine_risk":4,"frizz_risk":1,"updated_at":"2026-04-12T23:08:04.708701+05:30"},{"city":"Agartala","state":"Tripura","latitude":23.8315,"longitude":91.2868,"temp":25.1,"humidity":90,"rain":0.0,"pressure":1005.4,"uv_index":8.6,"wind_gusts":29.5,"aqi":100,"pm10":36.7,"pm2_5":27.6,"mosquito_risk":7,"arthritis_risk":5,"migraine_risk":4,"frizz_risk":1,"updated_at":"2026-04-12T23:08:04.708707+05:30"},{"city":"Shillong","state":"Meghalaya","latitude":25.5788,"longitude":91.8933,"temp":15.2,"humidity":70,"rain":0.0,"pressure":855.6,"uv_index":7.05,"wind_gusts":64.4,"aqi":112,"pm10":60.8,"pm2_5":39.3,"mosquito_risk":3,"arthritis_risk":5,"migraine_risk":7,"frizz_risk":0,"updated_at":"2026-04-12T23:08:04.708714+05:30"},{"city":"Imphal","state":"Manipur","latitude":24.817,"longitude":93.9368,"temp":17.6,"humidity":85,"rain":0.0,"pressure":923.1,"uv_index":9.0,"wind_gusts":61.6,"aqi":110,"pm10":88.5,"pm2_5":55.8,"mosquito_risk":3,"arthritis_risk":10,"migraine_risk":7,"frizz_risk":0,"updated_at":"2026-04-12T23:08:04.708721+05:30"},{"city":"Aizawl","state":"Mizoram","latitude":23.7271,"longitude":92.7176,"temp":19.1,"humidity":76,"rain":0.0,"pressure":892.8,"uv_index":8.85,"wind_gusts":44.3,"aqi":96,"pm10":68.9,"pm2_5":34.7,"mosquito_risk":3,"arthritis_risk":5,"migraine_risk":7,"frizz_risk":0,"updated_at":"2026-04-12T23:08:04.708727+05:30"},{"city":"Kohima","state":"Nagaland","latitude":25.6701,"longitude":94.1077,"temp":14.9,"humidity":80,"rain":0.0,"pressure":854.5,"uv_index":8.9,"wind_gusts":88.9,"aqi":99,"pm10":62.4,"pm2_5":34.8,"mosquito_risk":3,"arthritis_risk":5,"migraine_risk":7,"frizz_risk":0,"updated_at":"2026-04-12T23:08:04.708733+05:30"},{"city":"Gangtok","state":"Sikkim","latitude":27.3314,"longitude":88.6138,"temp":13.0,"humidity":84,"rain":0.0,"pressure":835.7,"uv_index":8.65,"wind_gusts":16.6,"aqi":125,"pm10":92.2,"pm2_5":39.0,"mosquito_risk":3,"arthritis_risk":10,"migraine_risk":7,"frizz_risk":0,"updated_at":"2026-04-12T23:08:04.708739+05:30"},{"city":"Siliguri","state":"West Bengal","latitude":26.7271,"longitude":88.3953,"temp":20.7,"humidity":67,"rain":0.0,"pressure":993.7,"uv_index":7.3,"wind_gusts":21.2,"aqi":132,"pm10":132.7,"pm2_5":53.7,"mosquito_risk":3,"arthritis_risk":5,"migraine_risk":7,"frizz_risk":0,"updated_at":"2026-04-12T23:08:08.026674+05:30"},{"city":"Durgapur","state":"West Bengal","latitude":23.5204,"longitude":87.3119,"temp":27.7,"humidity":49,"rain":0.0,"pressure":994.1,"uv_index":8.8,"wind_gusts":21.2,"aqi":128,"pm10":54.8,"pm2_5":41.1,"mosquito_risk":4,"arthritis_risk":5,"migraine_risk":7,"frizz_risk":0,"updated_at":"2026-04-12T23:08:08.026703+05:30"},{"city":"Asansol","state":"West Bengal","latitude":23.6739,"longitude":86.9524,"temp":28.8,"humidity":48,"rain":0.0,"pressure":992.4,"uv_index":8.85,"wind_gusts":23.4,"aqi":109,"pm10":52.9,"pm2_5":36.4,"mosquito_risk":4,"arthritis_risk":5,"migraine_risk":7,"frizz_risk":1,"updated_at":"2026-04-12T23:08:08.026713+05:30"},{"city":"Pondicherry","state":"Puducherry","latitude":11.9139,"longitude":79.8145,"temp":26.2,"humidity":92,"rain":0.0,"pressure":1009.5,"uv_index":9.35,"wind_gusts":29.5,"aqi":37,"pm10":9.7,"pm2_5":5.9,"mosquito_risk":7,"arthritis_risk":0,"migraine_risk":4,"frizz_risk":1,"updated_at":"2026-04-12T23:08:08.026721+05:30"},{"city":"Port Blair","state":"Andaman and Nicobar Islands","latitude":11.6234,"longitude":92.7265,"temp":28.8,"humidity":80,"rain":0.0,"pressure":1007.5,"uv_index":9.25,"wind_gusts":14.0,"aqi":56,"pm10":31.5,"pm2_5":16.4,"mosquito_risk":7,"arthritis_risk":5,"migraine_risk":4,"frizz_risk":1,"updated_at":"2026-04-12T23:08:08.026729+05:30"},{"city":"Haridwar","state":"Uttarakhand","latitude":29.9457,"longitude":78.1642,"temp":20.8,"humidity":66,"rain":0.0,"pressure":975.3,"uv_index":7.0,"wind_gusts":33.8,"aqi":113,"pm10":36.4,"pm2_5":25.5,"mosquito_risk":3,"arthritis_risk":5,"migraine_risk":7,"frizz_risk":0,"updated_at":"2026-04-12T23:08:08.026737+05:30"},{"city":"Rishikesh","state":"Uttarakhand","latitude":30.0869,"longitude":78.2676,"temp":18.3,"humidity":74,"rain":0.0,"pressure":968.0,"uv_index":7.1,"wind_gusts":34.2,"aqi":126,"pm10":49.9,"pm2_5":24.4,"mosquito_risk":3,"arthritis_risk":5,"migraine_risk":7,"frizz_risk":0,"updated_at":"2026-04-12T23:08:08.026745+05:30"},{"city":"Nainital","state":"Uttarakhand","latitude":29.3919,"longitude":79.4542,"temp":17.3,"humidity":47,"rain":0.0,"pressure":805.9,"uv_index":7.95,"wind_gusts":52.2,"aqi":113,"pm10":56.2,"pm2_5":22.5,"mosquito_risk":0,"arthritis_risk":5,"migraine_risk":7,"frizz_risk":0,"updated_at":"2026-04-12T23:08:08.026752+05:30"},{"city":"Mussoorie","state":"Uttarakhand","latitude":30.4599,"longitude":78.0664,"temp":14.2,"humidity":62,"rain":0.0,"pressure":801.8,"uv_index":7.35,"wind_gusts":37.8,"aqi":124,"pm10":49.9,"pm2_5":32.9,"mosquito_risk":3,"arthritis_risk":5,"migraine_risk":7,"frizz_risk":0,"updated_at":"2026-04-12T23:08:08.026759+05:30"},{"city":"Dharamshala","state":"Himachal Pradesh","latitude":32.219,"longitude":76.3234,"temp":17.8,"humidity":57,"rain":0.0,"pressure":869.7,"uv_index":7.7,"wind_gusts":23.4,"aqi":102,"pm10":28.5,"pm2_5":13.7,"mosquito_risk":0,"arthritis_risk":5,"migraine_risk":7,"frizz_risk":0,"updated_at":"2026-04-12T23:08:08.026765+05:30"},{"city":"Dalhousie","state":"Himachal Pradesh","latitude":32.5387,"longitude":75.971,"temp":14.2,"humidity":57,"rain":0.0,"pressure":803.3,"uv_index":7.95,"wind_gusts":20.5,"aqi":83,"pm10":49.9,"pm2_5":28.6,"mosquito_risk":0,"arthritis_risk":5,"migraine_risk":7,"frizz_risk":0,"updated_at":"2026-04-12T23:08:08.026772+05:30"},{"city":"Patiala","state":"Punjab","latitude":30.3398,"longitude":76.3869,"temp":21.1,"humidity":58,"rain":0.0,"pressure":979.9,"uv_index":7.0,"wind_gusts":32.0,"aqi":359,"pm10":470.3,"pm2_5":64.3,"mosquito_risk":0,"arthritis_risk":5,"migraine_risk":7,"frizz_risk":0,"updated_at":"2026-04-12T23:08:08.026779+05:30"},{"city":"Bhatinda","state":"Punjab","latitude":30.211,"longitude":74.9455,"temp":23.4,"humidity":45,"rain":0.0,"pressure":985.3,"uv_index":7.75,"wind_gusts":32.0,"aqi":110,"pm10":46.7,"pm2_5":22.9,"mosquito_risk":0,"arthritis_risk":5,"migraine_risk":7,"frizz_risk":0,"updated_at":"2026-04-12T23:08:08.026785+05:30"},{"city":"Rohtak","state":"Haryana","latitude":28.8955,"longitude":76.6066,"temp":22.3,"humidity":52,"rain":0.0,"pressure":983.1,"uv_index":7.25,"wind_gusts":36.0,"aqi":709,"pm10":1013.3,"pm2_5":147.1,"mosquito_risk":0,"arthritis_risk":5,"migraine_risk":7,"frizz_risk":0,"updated_at":"2026-04-12T23:08:08.026791+05:30"},{"city":"Panipat","state":"Haryana","latitude":29.3909,"longitude":76.9635,"temp":21.5,"humidity":54,"rain":0.0,"pressure":981.6,"uv_index":7.05,"wind_gusts":33.8,"aqi":1101,"pm10":1072.9,"pm2_5":151.3,"mosquito_risk":0,"arthritis_risk":5,"migraine_risk":7,"frizz_risk":0,"updated_at":"2026-04-12T23:08:08.026797+05:30"},{"city":"Mathura","state":"Uttar Pradesh","latitude":27.4924,"longitude":77.6737,"temp":24.1,"humidity":45,"rain":0.0,"pressure":987.7,"uv_index":7.55,"wind_gusts":28.8,"aqi":788,"pm10":1017.0,"pm2_5":139.7,"mosquito_risk":0,"arthritis_risk":5,"migraine_risk":7,"frizz_risk":0,"updated_at":"2026-04-12T23:08:08.026803+05:30"},{"city":"Vrindavan","state":"Uttar Pradesh","latitude":27.5823,"longitude":77.7027,"temp":22.4,"humidity":51,"rain":0.0,"pressure":988.0,"uv_index":7.5,"wind_gusts":32.0,"aqi":788,"pm10":1017.0,"pm2_5":139.7,"mosquito_risk":0,"arthritis_risk":5,"migraine_risk":7,"frizz_risk":0,"updated_at":"2026-04-12T23:08:08.026810+05:30"},{"city":"Ayodhya","state":"Uttar Pradesh","latitude":26.7922,"longitude":82.1998,"temp":25.6,"humidity":43,"rain":0.0,"pressure":994.4,"uv_index":7.9,"wind_gusts":36.0,"aqi":113,"pm10":143.4,"pm2_5":38.5,"mosquito_risk":4,"arthritis_risk":5,"migraine_risk":7,"frizz_risk":0,"updated_at":"2026-04-12T23:08:08.026816+05:30"},{"city":"Ratlam","state":"Madhya Pradesh","latitude":23.3315,"longitude":75.0367,"temp":27.1,"humidity":52,"rain":0.0,"pressure":954.7,"uv_index":8.35,"wind_gusts":26.6,"aqi":61,"pm10":57.7,"pm2_5":27.9,"mosquito_risk":4,"arthritis_risk":5,"migraine_risk":7,"frizz_risk":1,"updated_at":"2026-04-12T23:08:08.026823+05:30"},{"city":"Sagar","state":"Madhya Pradesh","latitude":23.8388,"longitude":78.7378,"temp":27.1,"humidity":34,"rain":0.0,"pressure":950.1,"uv_index":8.5,"wind_gusts":33.1,"aqi":84,"pm10":67.1,"pm2_5":25.1,"mosquito_risk":4,"arthritis_risk":5,"migraine_risk":7,"frizz_risk":0,"updated_at":"2026-04-12T23:08:08.026829+05:30"},{"city":"Satna","state":"Madhya Pradesh","latitude":24.6005,"longitude":80.8322,"temp":28.2,"humidity":41,"rain":0.0,"pressure":971.4,"uv_index":8.5,"wind_gusts":37.1,"aqi":100,"pm10":92.4,"pm2_5":27.2,"mosquito_risk":4,"arthritis_risk":5,"migraine_risk":7,"frizz_risk":0,"updated_at":"2026-04-12T23:08:08.026836+05:30"},{"city":"Akola","state":"Maharashtra","latitude":20.7002,"longitude":77.0082,"temp":28.6,"humidity":51,"rain":0.0,"pressure":974.3,"uv_index":8.75,"wind_gusts":27.4,"aqi":114,"pm10":36.8,"pm2_5":25.1,"mosquito_risk":4,"arthritis_risk":5,"migraine_risk":7,"frizz_risk":1,"updated_at":"2026-04-12T23:08:08.026843+05:30"},{"city":"Amravati","state":"Maharashtra","latitude":20.9374,"longitude":77.7796,"temp":27.8,"humidity":51,"rain":0.0,"pressure":966.3,"uv_index":8.75,"wind_gusts":20.5,"aqi":120,"pm10":37.5,"pm2_5":26.6,"mosquito_risk":4,"arthritis_risk":5,"migraine_risk":7,"frizz_risk":1,"updated_at":"2026-04-12T23:08:08.026850+05:30"},{"city":"Latur","state":"Maharashtra","latitude":18.4088,"longitude":76.5604,"temp":28.2,"humidity":56,"rain":0.0,"pressure":938.9,"uv_index":9.05,"wind_gusts":24.5,"aqi":112,"pm10":36.1,"pm2_5":27.2,"mosquito_risk":4,"arthritis_risk":5,"migraine_risk":7,"frizz_risk":1,"updated_at":"2026-04-12T23:08:08.026856+05:30"},{"city":"Nanded","state":"Maharashtra","latitude":19.1383,"longitude":77.3091,"temp":29.4,"humidity":54,"rain":0.0,"pressure":967.3,"uv_index":8.95,"wind_gusts":14.8,"aqi":116,"pm10":62.2,"pm2_5":49.0,"mosquito_risk":4,"arthritis_risk":5,"migraine_risk":7,"frizz_risk":1,"updated_at":"2026-04-12T23:08:08.026863+05:30"},{"city":"Gulbarga","state":"Karnataka","latitude":17.3297,"longitude":76.8343,"temp":33.1,"humidity":42,"rain":0.0,"pressure":958.0,"uv_index":9.1,"wind_gusts":28.4,"aqi":130,"pm10":33.8,"pm2_5":28.2,"mosquito_risk":0,"arthritis_risk":5,"migraine_risk":7,"frizz_risk":1,"updated_at":"2026-04-12T23:08:08.026869+05:30"},{"city":"Bidar","state":"Karnataka","latitude":17.9104,"longitude":77.5199,"temp":31.2,"humidity":53,"rain":0.0,"pressure":935.4,"uv_index":9.1,"wind_gusts":26.6,"aqi":105,"pm10":40.5,"pm2_5":32.7,"mosquito_risk":0,"arthritis_risk":5,"migraine_risk":7,"frizz_risk":1,"updated_at":"2026-04-12T23:08:08.026875+05:30"},{"city":"Hospet","state":"Karnataka","latitude":15.2689,"longitude":76.3909,"temp":31.5,"humidity":59,"rain":0.0,"pressure":955.5,"uv_index":9.3,"wind_gusts":24.8,"aqi":131,"pm10":55.2,"pm2_5":45.2,"mosquito_risk":0,"arthritis_risk":5,"migraine_risk":7,"frizz_risk":1,"updated_at":"2026-04-12T23:08:08.026881+05:30"},{"city":"Tirupur","state":"Tamil Nadu","latitude":11.1085,"longitude":77.3411,"temp":28.8,"humidity":73,"rain":0.0,"pressure":976.3,"uv_index":9.5,"wind_gusts":29.2,"aqi":84,"pm10":28.9,"pm2_5":24.7,"mosquito_risk":7,"arthritis_risk":5,"migraine_risk":7,"frizz_risk":1,"updated_at":"2026-04-12T23:08:08.026887+05:30"},{"city":"Alappuzha","state":"Kerala","latitude":9.4981,"longitude":76.3388,"temp":28.4,"humidity":85,"rain":0.0,"pressure":1010.0,"uv_index":8.8,"wind_gusts":24.5,"aqi":97,"pm10":47.4,"pm2_5":31.8,"mosquito_risk":7,"arthritis_risk":0,"migraine_risk":4,"frizz_risk":1,"updated_at":"2026-04-12T23:08:08.026893+05:30"},{"city":"Munnar","state":"Kerala","latitude":10.0889,"longitude":77.0595,"temp":22.8,"humidity":89,"rain":0.0,"pressure":858.5,"uv_index":9.75,"wind_gusts":30.6,"aqi":89,"pm10":42.5,"pm2_5":36.2,"mosquito_risk":3,"arthritis_risk":5,"migraine_risk":7,"frizz_risk":1,"updated_at":"2026-04-12T23:08:08.026900+05:30"},{"city":"Silchar","state":"Assam","latitude":24.8333,"longitude":92.7789,"temp":23.7,"humidity":87,"rain":0.0,"pressure":1005.1,"uv_index":8.65,"wind_gusts":41.0,"aqi":147,"pm10":87.1,"pm2_5":68.7,"mosquito_risk":3,"arthritis_risk":5,"migraine_risk":4,"frizz_risk":1,"updated_at":"2026-04-12T23:08:08.026928+05:30"},{"city":"Dibrugarh","state":"Assam","latitude":27.4728,"longitude":94.912,"temp":21.5,"humidity":77,"rain":0.0,"pressure":996.9,"uv_index":7.65,"wind_gusts":32.0,"aqi":91,"pm10":28.6,"pm2_5":23.7,"mosquito_risk":3,"arthritis_risk":5,"migraine_risk":7,"frizz_risk":1,"updated_at":"2026-04-12T23:08:08.026936+05:30"}]