[{"city":"Delhi","state":"Delhi","latitude":28.6139,"longitude":77.209,"temp":27.9,"humidity":41,"rain":0.0,"pressure":983.5,"uv_index":6.15,"wind_gusts":45.7,"aqi":189,"pm10":352.0,"pm2_5":57.6,"mosquito_risk":4,"arthritis_risk":5,"migraine_risk":7,"frizz_risk":0,"updated_at":"2026-03-15T14:10:47.774714+05:30"},{"city":"Mumbai","state":"Maharashtra","latitude":19.076,"longitude":72.8777,"temp":27.6,"humidity":78,"rain":0.0,"pressure":1010.0,"uv_index":7.7,"wind_gusts":19.4,"aqi":109,"pm10":91.3,"pm2_5":52.5,"mosquito_risk":7,"arthritis_risk":0,"migraine_risk":4,"frizz_risk":1,"updated_at":"2026-03-15T14:10:47.774763+05:30"},{"city":"Bangalore","state":"Karnataka","latitude":12.9716,"longitude":77.5946,"temp":31.4,"humidity":34,"rain":0.0,"pressure":913.7,"uv_index":9.3,"wind_gusts":19.1,"aqi":82,"pm10":28.8,"pm2_5":23.2,"mosquito_risk":0,"arthritis_risk":5,"migraine_risk":7,"frizz_risk":0,"updated_at":"2026-03-15T14:10:47.774779+05:30"},{"city":"Hyderabad","state":"Telangana","latitude":17.385,"longitude":78.4867,"temp":34.6,"humidity":30,"rain":0.0,"pressure":954.9,"uv_index":8.75,"wind_gusts":33.1,"aqi":93,"pm10":39.9,"pm2_5":27.8,"mosquito_risk":0,"arthritis_risk":5,"migraine_risk":7,"frizz_risk":0,"updated_at":"2026-03-15T14:10:47.774791+05:30"},{"city":"Chennai","state":"Tamil Nadu","latitude":13.0827,"longitude":80.2707,"temp":32.7,"humidity":48,"rain":0.0,"pressure":1009.5,"uv_index":9.05,"wind_gusts":31.3,"aqi":50,"pm10":11.8,"pm2_5":8.8,"mosquito_risk":0,"arthritis_risk":0,"migraine_risk":4,"frizz_risk":1,"updated_at":"2026-03-15T14:10:47.774800+05:30"},{"city":"Kolkata","state":"West Bengal","latitude":22.5726,"longitude":88.3639,"temp":31.1,"humidity":58,"rain":0.0,"pressure":1006.0,"uv_index":7.85,"wind_gusts":38.5,"aqi":63,"pm10":26.8,"pm2_5":19.2,"mosquito_risk":0,"arthritis_risk":5,"migraine_risk":4,"frizz_risk":1,"updated_at":"2026-03-15T14:10:47.774811+05:30"},{"city":"Pune","state":"Maharashtra","latitude":18.5204,"longitude":73.8567,"temp":35.6,"humidity":17,"rain":0.0,"pressure":950.1,"uv_index":8.25,"wind_gusts":41.0,"aqi":89,"pm10":35.5,"pm2_5":26.5,"mosquito_risk":0,"arthritis_risk":5,"migraine_risk":10,"frizz_risk":0,"updated_at":"2026-03-15T14:10:47.774828+05:30"},{"city":"Ahmedabad","state":"Gujarat","latitude":23.0225,"longitude":72.5714,"temp":36.7,"humidity":23,"rain":0.0,"pressure":1002.5,"uv_index":7.5,"wind_gusts":27.0,"aqi":70,"pm10":67.1,"pm2_5":20.5,"mosquito_risk":0,"arthritis_risk":5,"migraine_risk":7,"frizz_risk":0,"updated_at":"2026-03-15T14:10:47.774836+05:30"},{"city":"Jaipur","state":"Rajasthan","latitude":26.9124,"longitude":75.7873,"temp":34.8,"humidity":12,"rain":0.0,"pressure":959.2,"uv_index":6.95,"wind_gusts":47.5,"aqi":119,"pm10":273.8,"pm2_5":37.7,"mosquito_risk":0,"arthritis_risk":5,"migraine_risk":7,"frizz_risk":0,"updated_at":"2026-03-15T14:10:47.774843+05:30"},{"city":"Lucknow","state":"Uttar Pradesh","latitude":26.8467,"longitude":80.9462,"temp":26.7,"humidity":38,"rain":0.0,"pressure":995.3,"uv_index":6.35,"wind_gusts":49.7,"aqi":138,"pm10":39.0,"pm2_5":15.6,"mosquito_risk":4,"arthritis_risk":5,"migraine_risk":7,"frizz_risk":0,"updated_at":"2026-03-15T14:10:47.774852+05:30"},{"city":"Kanpur","state":"Uttar Pradesh","latitude":26.4499,"longitude":80.3319,"temp":28.1,"humidity":41,"rain":0.0,"pressure":992.6,"uv_index":6.6,"wind_gusts":47.2,"aqi":151,"pm10":205.8,"pm2_5":29.1,"mosquito_risk":4,"arthritis_risk":5,"migraine_risk":7,"frizz_risk":0,"updated_at":"2026-03-15T14:10:47.774859+05:30"},{"city":"Chandigarh","state":"Chandigarh","latitude":30.7333,"longitude":76.7794,"temp":18.3,"humidity":89,"rain":0.0,"pressure":971.2,"uv_index":6.0,"wind_gusts":35.3,"aqi":81,"pm10":49.4,"pm2_5":18.3,"mosquito_risk":3,"arthritis_risk":10,"migraine_risk":3,"frizz_risk":1,"updated_at":"2026-03-15T14:10:47.774867+05:30"},{"city":"Srinagar","state":"Jammu and Kashmir","latitude":34.0837,"longitude":74.7973,"temp":8.1,"humidity":85,"rain":0.9,"pressure":838.3,"uv_index":5.65,"wind_gusts":42.8,"aqi":96,"pm10":58.3,"pm2_5":28.4,"mosquito_risk":6,"arthritis_risk":10,"migraine_risk":3,"frizz_risk":0,"updated_at":"2026-03-15T14:10:47.774874+05:30"},{"city":"Jammu","state":"Jammu and Kashmir","latitude":32.7266,"longitude":74.857,"temp":19.7,"humidity":80,"rain":0.4,"pressure":972.6,"uv_index":4.6,"wind_gusts":51.8,"aqi":88,"pm10":68.0,"pm2_5":45.9,"mosquito_risk":6,"arthritis_risk":5,"migraine_risk":3,"frizz_risk":1,"updated_at":"2026-03-15T14:10:47.774882+05:30"},{"city":"Amritsar","state":"Punjab","latitude":31.634,"longitude":74.8723,"temp":20.8,"humidity":79,"rain":0.0,"pressure":981.8,"uv_index":4.95,"wind_gusts":41.4,"aqi":103,"pm10":50.2,"pm2_5":30.2,"mosquito_risk":3,"arthritis_risk":5,"migraine_risk":3,"frizz_risk":1,"updated_at":"2026-03-15T14:10:47.774889+05:30"},{"city":"Ludhiana","state":"Punjab","latitude":30.901,"longitude":75.8573,"temp":19.5,"humidity":83,"rain":0.0,"pressure":980.8,"uv_index":5.45,"wind_gusts":35.3,"aqi":117,"pm10":60.3,"pm2_5":27.3,"mosquito_risk":3,"arthritis_risk":10,"migraine_risk":3,"frizz_risk":1,"updated_at":"2026-03-15T14:10:47.774896+05:30"},{"city":"Jalandhar","state":"Punjab","latitude":31.326,"longitude":75.5762,"temp":20.1,"humidity":77,"rain":0.0,"pressure":982.0,"uv_index":5.45,"wind_gusts":29.5,"aqi":111,"pm10":57.3,"pm2_5":26.7,"mosquito_risk":3,"arthritis_risk":5,"migraine_risk":3,"frizz_risk":0,"updated_at":"2026-03-15T14:10:47.774905+05:30"},{"city":"Dehradun","state":"Uttarakhand","latitude":30.6284,"longitude":78.0322,"temp":12.5,"humidity":84,"rain":0.1,"pressure":829.8,"uv_index":5.75,"wind_gusts":38.5,"aqi":54,"pm10":35.2,"pm2_5":15.4,"mosquito_risk":6,"arthritis_risk":10,"migraine_risk":3,"frizz_risk":0,"updated_at":"2026-03-15T14:10:47.774912+05:30"},{"city":"Shimla","state":"Himachal Pradesh","latitude":31.1048,"longitude":77.1734,"temp":11.6,"humidity":79,"rain":0.0,"pressure":782.8,"uv_index":6.15,"wind_gusts":45.7,"aqi":65,"pm10":33.4,"pm2_5":16.5,"mosquito_risk":3,"arthritis_risk":5,"migraine_risk":7,"frizz_risk":0,"updated_at":"2026-03-15T14:10:47.774919+05:30"},{"city":"Manali","state":"Himachal Pradesh","latitude":32.2396,"longitude":77.1887,"temp":11.2,"humidity":89,"rain":0.1,"pressure":815.8,"uv_index":7.45,"wind_gusts":34.2,"aqi":47,"pm10":36.3,"pm2_5":11.5,"mosquito_risk":6,"arthritis_risk":10,"migraine_risk":7,"frizz_risk":0,"updated_at":"2026-03-15T14:10:47.774926+05:30"},{"city":"Gurgaon","state":"Haryana","latitude":28.4595,"longitude":77.0266,"temp":29.3,"humidity":38,"rain":0.0,"pressure":981.6,"uv_index":6.25,"wind_gusts":45.4,"aqi":409,"pm10":2302.2,"pm2_5":227.2,"mosquito_risk":4,"arthritis_risk":5,"migraine_risk":7,"frizz_risk":0,"updated_at":"2026-03-15T14:10:47.774933+05:30"},{"city":"Noida","state":"Uttar Pradesh","latitude":28.5355,"longitude":77.391,"temp":27.9,"humidity":44,"rain":0.0,"pressure":985.2,"uv_index":6.15,"wind_gusts":44.6,"aqi":409,"pm10":2302.2,"pm2_5":227.2,"mosquito_risk":4,"arthritis_risk":5,"migraine_risk":7,"frizz_risk":0,"updated_at":"2026-03-15T14:10:47.774940+05:30"},{"city":"Ghaziabad","state":"Uttar Pradesh","latitude":28.6692,"longitude":77.4538,"temp":27.5,"humidity":42,"rain":0.0,"pressure":983.6,"uv_index":6.15,"wind_gusts":40.7,"aqi":175,"pm10":116.2,"pm2_5":31.9,"mosquito_risk":4,"arthritis_risk":5,"migraine_risk":7,"frizz_risk":0,"updated_at":"2026-03-15T14:10:47.774946+05:30"},{"city":"Faridabad","state":"Haryana","latitude":28.4089,"longitude":77.3178,"temp":27.8,"humidity":47,"rain":0.0,"pressure":984.3,"uv_index":6.2,"wind_gusts":42.5,"aqi":409,"pm10":2302.2,"pm2_5":227.2,"mosquito_risk":4,"arthritis_risk":5,"migraine_risk":7,"frizz_risk":0,"updated_at":"2026-03-15T14:10:47.774952+05:30"},{"city":"Meerut","state":"Uttar Pradesh","latitude":28.9845,"longitude":77.7064,"temp":25.7,"humidity":57,"rain":0.0,"pressure":982.9,"uv_index":6.0,"wind_gusts":32.0,"aqi":175,"pm10":116.2,"pm2_5":31.9,"mosquito_risk":4,"arthritis_risk":5,"migraine_risk":3,"frizz_risk":1,"updated_at":"2026-03-15T14:10:47.774959+05:30"},{"city":"Agra","state":"Uttar Pradesh","latitude":27.1767,"longitude":78.0081,"temp":29.8,"humidity":40,"rain":0.0,"pressure":988.8,"uv_index":6.6,"wind_gusts":45.7,"aqi":563,"pm10":739.5,"pm2_5":75.7,"mosquito_risk":4,"arthritis_risk":5,"migraine_risk":7,"frizz_risk":0,"updated_at":"2026-03-15T14:10:47.774965+05:30"},{"city":"Varanasi","state":"Uttar Pradesh","latitude":25.3176,"longitude":82.9739,"temp":33.8,"humidity":33,"rain":0.0,"pressure":997.3,"uv_index":7.35,"wind_gusts":34.2,"aqi":151,"pm10":77.5,"pm2_5":34.7,"mosquito_risk":0,"arthritis_risk":5,"migraine_risk":7,"frizz_risk":0,"updated_at":"2026-03-15T14:10:47.774978+05:30"},{"city":"Prayagraj","state":"Uttar Pradesh","latitude":25.4358,"longitude":81.8463,"temp":32.5,"humidity":42,"rain":0.0,"pressure":995.7,"uv_index":7.25,"wind_gusts":42.8,"aqi":125,"pm10":57.2,"pm2_5":27.5,"mosquito_risk":0,"arthritis_risk":5,"migraine_risk":7,"frizz_risk":1,"updated_at":"2026-03-15T14:10:47.774985+05:30"},{"city":"Gorakhpur","state":"Uttar Pradesh","latitude":26.7606,"longitude":83.3732,"temp":29.7,"humidity":45,"rain":0.0,"pressure":999.6,"uv_index":7.1,"wind_gusts":39.2,"aqi":155,"pm10":53.4,"pm2_5":30.6,"mosquito_risk":4,"arthritis_risk":5,"migraine_risk":7,"frizz_risk":1,"updated_at":"2026-03-15T14:10:47.774991+05:30"},{"city":"Bareilly","state":"Uttar Pradesh","latitude":28.367,"longitude":79.4304,"temp":23.0,"humidity":72,"rain":0.0,"pressure":990.7,"uv_index":6.35,"wind_gusts":41.0,"aqi":146,"pm10":52.7,"pm2_5":22.8,"mosquito_risk":3,"arthritis_risk":5,"migraine_risk":7,"frizz_risk":1,"updated_at":"2026-03-15T14:10:47.774997+05:30"},{"city":"Aligarh","state":"Uttar Pradesh","latitude":27.8974,"longitude":78.088,"temp":28.9,"humidity":42,"rain":0.0,"pressure":986.8,"uv_index":6.3,"wind_gusts":51.5,"aqi":235,"pm10":437.7,"pm2_5":65.4,"mosquito_risk":4,"arthritis_risk":5,"migraine_risk":7,"frizz_risk":0,"updated_at":"2026-03-15T14:10:47.775004+05:30"},{"city":"Moradabad","state":"Uttar Pradesh","latitude":28.8386,"longitude":78.7733,"temp":22.5,"humidity":76,"rain":0.3,"pressure":986.1,"uv_index":6.2,"wind_gusts":41.0,"aqi":155,"pm10":66.8,"pm2_5":23.7,"mosquito_risk":6,"arthritis_risk":5,"migraine_risk":7,"frizz_risk":1,"updated_at":"2026-03-15T14:10:47.775009+05:30"},{"city":"Saharanpur","state":"Uttar Pradesh","latitude":29.9637,"longitude":77.546,"temp":20.2,"humidity":81,"rain":0.0,"pressure":978.4,"uv_index":5.8,"wind_gusts":33.1,"aqi":129,"pm10":64.7,"pm2_5":23.9,"mosquito_risk":3,"arthritis_risk":5,"migraine_risk":3,"frizz_risk":1,"updated_at":"2026-03-15T14:10:47.775015+05:30"},{"city":"Jhansi","state":"Uttar Pradesh","latitude":25.4484,"longitude":78.5685,"temp":33.0,"humidity":33,"rain":0.0,"pressure":978.0,"uv_index":7.2,"wind_gusts":49.3,"aqi":104,"pm10":84.8,"pm2_5":28.9,"mosquito_risk":0,"arthritis_risk":5,"migraine_risk":7,"frizz_risk":0,"updated_at":"2026-03-15T14:10:50.990392+05:30"},{"city":"Surat","state":"Gujarat","latitude":21.1702,"longitude":72.8311,"temp":31.3,"humidity":44,"rain":0.0,"pressure":1008.2,"uv_index":7.4,"wind_gusts":24.5,"aqi":134,"pm10":101.3,"pm2_5":52.7,"mosquito_risk":0,"arthritis_risk":0,"migraine_risk":4,"frizz_risk":1,"updated_at":"2026-03-15T14:10:50.990428+05:30"},{"city":"Vadodara","state":"Gujarat","latitude":22.3072,"longitude":73.1812,"temp":36.4,"humidity":26,"rain":0.0,"pressure":1005.1,"uv_index":7.5,"wind_gusts":24.5,"aqi":90,"pm10":80.1,"pm2_5":29.2,"mosquito_risk":0,"arthritis_risk":5,"migraine_risk":7,"frizz_risk":0,"updated_at":"2026-03-15T14:10:50.990439+05:30"},{"city":"Rajkot","state":"Gujarat","latitude":22.3039,"longitude":70.8022,"temp":36.4,"humidity":23,"rain":0.0,"pressure":995.1,"uv_index":7.35,"wind_gusts":37.8,"aqi":72,"pm10":81.3,"pm2_5":21.4,"mosquito_risk":0,"arthritis_risk":5,"migraine_risk":10,"frizz_risk":0,"updated_at":"2026-03-15T14:10:50.990448+05:30"},{"city":"Thane","state":"Maharashtra","latitude":19.2183,"longitude":72.9781,"temp":32.0,"humidity":47,"rain":0.0,"pressure":1009.6,"uv_index":7.7,"wind_gusts":33.5,"aqi":109,"pm10":91.3,"pm2_5":52.5,"mosquito_risk":0,"arthritis_risk":0,"migraine_risk":4,"frizz_risk":1,"updated_at":"2026-03-15T14:10:50.990455+05:30"},{"city":"Nagpur","state":"Maharashtra","latitude":21.1458,"longitude":79.0882,"temp":36.9,"humidity":17,"rain":0.0,"pressure":973.5,"uv_index":8.15,"wind_gusts":26.3,"aqi":118,"pm10":30.9,"pm2_5":26.3,"mosquito_risk":0,"arthritis_risk":5,"migraine_risk":10,"frizz_risk":0,"updated_at":"2026-03-15T14:10:50.990462+05:30"},{"city":"Nashik","state":"Maharashtra","latitude":19.9975,"longitude":73.7898,"temp":33.3,"humidity":20,"rain":0.0,"pressure":947.1,"uv_index":7.9,"wind_gusts":40.0,"aqi":73,"pm10":35.3,"pm2_5":15.4,"mosquito_risk":0,"arthritis_risk":5,"migraine_risk":7,"frizz_risk":0,"updated_at":"2026-03-15T14:10:50.990469+05:30"},{"city":"Aurangabad","state":"Maharashtra","latitude":19.8762,"longitude":75.3433,"temp":35.2,"humidity":17,"rain":0.0,"pressure":945.3,"uv_index":8.4,"wind_gusts":30.6,"aqi":69,"pm10":32.7,"pm2_5":20.9,"mosquito_risk":0,"arthritis_risk":5,"migraine_risk":10,"frizz_risk":0,"updated_at":"2026-03-15T14:10:50.990476+05:30"},{"city":"Solapur","state":"Maharashtra","latitude":17.6599,"longitude":75.9064,"temp":35.3,"humidity":21,"rain":0.0,"pressure":958.6,"uv_index":8.65,"wind_gusts":23.4,"aqi":118,"pm10":40.0,"pm2_5":33.6,"mosquito_risk":0,"arthritis_risk":5,"migraine_risk":10,"frizz_risk":0,"updated_at":"2026-03-15T14:10:50.990483+05:30"},{"city":"Kolhapur","state":"Maharashtra","latitude":16.705,"longitude":74.2433,"temp":31.9,"humidity":33,"rain":0.0,"pressure":950.0,"uv_index":8.05,"wind_gusts":40.3,"aqi":150,"pm10":40.9,"pm2_5":36.6,"mosquito_risk":0,"arthritis_risk":5,"migraine_risk":7,"frizz_risk":0,"updated_at":"2026-03-15T14:10:50.990490+05:30"},{"city":"Goa","state":"Goa","latitude":15.2993,"longitude":74.124,"temp":31.8,"humidity":59,"rain":0.0,"pressure":999.8,"uv_index":8.75,"wind_gusts":32.8,"aqi":122,"pm10":40.5,"pm2_5":36.0,"mosquito_risk":0,"arthritis_risk":5,"migraine_risk":7,"frizz_risk":1,"updated_at":"2026-03-15T14:10:50.990496+05:30"},{"city":"Jodhpur","state":"Rajasthan","latitude":26.2389,"longitude":73.0243,"temp":36.5,"humidity":18,"rain":0.0,"pressure":982.4,"uv_index":7.25,"wind_gusts":32.0,"aqi":121,"pm10":105.2,"pm2_5":26.6,"mosquito_risk":0,"arthritis_risk":5,"migraine_risk":10,"frizz_risk":0,"updated_at":"2026-03-15T14:10:50.990503+05:30"},{"city":"Udaipur","state":"Rajasthan","latitude":24.5854,"longitude":73.7125,"temp":34.3,"humidity":16,"rain":0.0,"pressure":947.2,"uv_index":7.85,"wind_gusts":37.4,"aqi":62,"pm10":59.8,"pm2_5":18.3,"mosquito_risk":0,"arthritis_risk":5,"migraine_risk":7,"frizz_risk":0,"updated_at":"2026-03-15T14:10:50.990510+05:30"},{"city":"Kota","state":"Rajasthan","latitude":25.2138,"longitude":75.8648,"temp":37.5,"humidity":13,"rain":0.0,"pressure":977.8,"uv_index":7.3,"wind_gusts":37.8,"aqi":67,"pm10":45.8,"pm2_5":17.3,"mosquito_risk":0,"arthritis_risk":5,"migraine_risk":10,"frizz_risk":0,"updated_at":"2026-03-15T14:10:50.990516+05:30"},{"city":"Bikaner","state":"Rajasthan","latitude":28.0229,"longitude":73.3119,"temp":34.4,"humidity":20,"rain":0.0,"pressure":981.1,"uv_index":6.9,"wind_gusts":41.8,"aqi":68,"pm10":63.1,"pm2_5":15.9,"mosquito_risk":0,"arthritis_risk":5,"migraine_risk":7,"frizz_risk":0,"updated_at":"2026-03-15T14:10:50.990523+05:30"},{"city":"Ajmer","state":"Rajasthan","latitude":26.4499,"longitude":74.6399,"temp":34.4,"humidity":15,"rain":0.0,"pressure":954.4,"uv_index":7.25,"wind_gusts":40.3,"aqi":73,"pm10":54.2,"pm2_5":18.6,"mosquito_risk":0,"arthritis_risk":5,"migraine_risk":7,"frizz_risk":0,"updated_at":"2026-03-15T14:10:50.990529+05:30"},{"city":"Gwalior","state":"Madhya Pradesh","latitude":26.2183,"longitude":78.1828,"temp":31.7,"humidity":41,"rain":0.0,"pressure":983.1,"uv_index":6.9,"wind_gusts":33.8,"aqi":106,"pm10":66.4,"pm2_5":24.2,"mosquito_risk":0,"arthritis_risk":5,"migraine_risk":7,"frizz_risk":1,"updated_at":"2026-03-15T14:10:50.990535+05:30"},{"city":"Indore","state":"Madhya Pradesh","latitude":22.7196,"longitude":75.8577,"temp":34.7,"humidity":21,"rain":0.0,"pressure":948.9,"uv_index":7.8,"wind_gusts":36.0,"aqi":62,"pm10":36.2,"pm2_5":14.9,"mosquito_risk":0,"arthritis_risk":5,"migraine_risk":7,"frizz_risk":0,"updated_at":"2026-03-15T14:10:50.990541+05:30"},{"city":"Bhopal","state":"Madhya Pradesh","latitude":23.2599,"longitude":77.4126,"temp":35.5,"humidity":21,"rain":0.0,"pressure":954.1,"uv_index":7.7,"wind_gusts":42.8,"aqi":68,"pm10":42.1,"pm2_5":17.5,"mosquito_risk":0,"arthritis_risk":5,"migraine_risk":10,"frizz_risk":0,"updated_at":"2026-03-15T14:10:50.990566+05:30"},{"city":"Jabalpur","state":"Madhya Pradesh","latitude":23.1815,"longitude":79.9864,"temp":34.5,"humidity":21,"rain":0.0,"pressure":961.7,"uv_index":7.8,"wind_gusts":38.5,"aqi":63,"pm10":28.5,"pm2_5":15.4,"mosquito_risk":0,"arthritis_risk":5,"migraine_risk":7,"frizz_risk":0,"updated_at":"2026-03-15T14:10:50.990573+05:30"},{"city":"Ujjain","state":"Madhya Pradesh","latitude":23.1765,"longitude":75.7885,"temp":34.1,"humidity":25,"rain":0.0,"pressure":954.6,"uv_index":7.7,"wind_gusts":36.7,"aqi":63,"pm10":49.2,"pm2_5":18.5,"mosquito_risk":0,"arthritis_risk":5,"migraine_risk":7,"frizz_risk":0,"updated_at":"2026-03-15T14:10:50.990580+05:30"},{"city":"Visakhapatnam","state":"Andhra Pradesh","latitude":17.6868,"longitude":83.2185,"temp":31.7,"humidity":52,"rain":0.0,"pressure":1005.8,"uv_index":8.65,"wind_gusts":40.0,"aqi":62,"pm10":22.9,"pm2_5":17.6,"mosquito_risk":0,"arthritis_risk":5,"migraine_risk":4,"frizz_risk":1,"updated_at":"2026-03-15T14:10:50.990586+05:30"},{"city":"Vijayawada","state":"Andhra Pradesh","latitude":16.5062,"longitude":80.648,"temp":32.9,"humidity":50,"rain":0.0,"pressure":1004.7,"uv_index":8.75,"wind_gusts":29.2,"aqi":59,"pm10":16.3,"pm2_5":12.6,"mosquito_risk":0,"arthritis_risk":5,"migraine_risk":4,"frizz_risk":1,"updated_at":"2026-03-15T14:10:50.990593+05:30"},{"city":"Guntur","state":"Andhra Pradesh","latitude":16.3067,"longitude":80.4365,"temp":33.1,"humidity":49,"rain":0.0,"pressure":1006.0,"uv_index":8.75,"wind_gusts":30.2,"aqi":56,"pm10":18.0,"pm2_5":13.8,"mosquito_risk":0,"arthritis_risk":5,"migraine_risk":4,"frizz_risk":1,"updated_at":"2026-03-15T14:10:50.990599+05:30"},{"city":"Nellore","state":"Andhra Pradesh","latitude":14.4426,"longitude":79.9865,"temp":34.4,"humidity":44,"rain":0.0,"pressure":1007.5,"uv_index":8.95,"wind_gusts":29.2,"aqi":55,"pm10":20.7,"pm2_5":17.7,"mosquito_risk":0,"arthritis_risk":5,"migraine_risk":4,"frizz_risk":1,"updated_at":"2026-03-15T14:10:50.990607+05:30"},{"city":"Kurnool","state":"Andhra Pradesh","latitude":15.8281,"longitude":78.0373,"temp":36.5,"humidity":29,"rain":0.0,"pressure":977.9,"uv_index":8.75,"wind_gusts":20.2,"aqi":87,"pm10":36.2,"pm2_5":26.1,"mosquito_risk":0,"arthritis_risk":5,"migraine_risk":10,"frizz_risk":0,"updated_at":"2026-03-15T14:10:50.990614+05:30"},{"city":"Kakinada","state":"Andhra Pradesh","latitude":16.9891,"longitude":82.2475,"temp":33.4,"humidity":49,"rain":0.0,"pressure":1009.4,"uv_index":8.7,"wind_gusts":31.7,"aqi":57,"pm10":19.3,"pm2_5":13.4,"mosquito_risk":0,"arthritis_risk":0,"migraine_risk":4,"frizz_risk":1,"updated_at":"2026-03-15T14:10:50.990620+05:30"},{"city":"Tirupati","state":"Andhra Pradesh","latitude":13.6288,"longitude":79.4192,"temp":33.8,"humidity":33,"rain":0.0,"pressure":993.3,"uv_index":9.05,"wind_gusts":28.8,"aqi":71,"pm10":17.1,"pm2_5":14.8,"mosquito_risk":0,"arthritis_risk":5,"migraine_risk":7,"frizz_risk":0,"updated_at":"2026-03-15T14:10:50.990626+05:30"},{"city":"Warangal","state":"Telangana","latitude":17.9689,"longitude":79.5941,"temp":33.2,"humidity":39,"rain":0.0,"pressure":980.7,"uv_index":8.55,"wind_gusts":31.7,"aqi":77,"pm10":34.2,"pm2_5":25.2,"mosquito_risk":0,"arthritis_risk":5,"migraine_risk":7,"frizz_risk":1,"updated_at":"2026-03-15T14:10:50.990632+05:30"},{"city":"Nizamabad","state":"Telangana","latitude":18.6725,"longitude":78.0941,"temp":34.6,"humidity":33,"rain":0.0,"pressure":966.0,"uv_index":8.4,"wind_gusts":31.3,"aqi":118,"pm10":39.3,"pm2_5":31.0,"mosquito_risk":0,"arthritis_risk":5,"migraine_risk":7,"frizz_risk":0,"updated_at":"2026-03-15T14:10:50.990638+05:30"},{"city":"Mysore","state":"Karnataka","latitude":12.2958,"longitude":76.6396,"temp":33.0,"humidity":30,"rain":0.0,"pressure":930.5,"uv_index":9.3,"wind_gusts":28.4,"aqi":92,"pm10":26.9,"pm2_5":21.5,"mosquito_risk":0,"arthritis_risk":5,"migraine_risk":7,"frizz_risk":0,"updated_at":"2026-03-15T14:10:50.990644+05:30"},{"city":"Mangalore","state":"Karnataka","latitude":12.9141,"longitude":74.856,"temp":28.7,"humidity":81,"rain":0.0,"pressure":1008.2,"uv_index":8.95,"wind_gusts":28.1,"aqi":88,"pm10":30.9,"pm2_5":26.2,"mosquito_risk":7,"arthritis_risk":0,"migraine_risk":4,"frizz_risk":1,"updated_at":"2026-03-15T14:10:50.990651+05:30"},{"city":"Hubli-Dharwad","state":"Karnataka","latitude":15.3647,"longitude":75.124,"temp":33.8,"humidity":33,"rain":0.0,"pressure":942.4,"uv_index":8.95,"wind_gusts":45.4,"aqi":112,"pm10":47.8,"pm2_5":39.9,"mosquito_risk":0,"arthritis_risk":5,"migraine_risk":7,"frizz_risk":0,"updated_at":"2026-03-15T14:10:50.990657+05:30"},{"city":"Belgaum","state":"Karnataka","latitude":15.8497,"longitude":74.4977,"temp":31.2,"humidity":40,"rain":0.0,"pressure":928.0,"uv_index":9.0,"wind_gusts":37.1,"aqi":136,"pm10":43.9,"pm2_5":38.4,"mosquito_risk":0,"arthritis_risk":5,"migraine_risk":7,"frizz_risk":0,"updated_at":"2026-03-15T14:10:54.203748+05:30"},{"city":"Coimbatore","state":"Tamil Nadu","latitude":11.0168,"longitude":76.9558,"temp":34.4,"humidity":30,"rain":0.0,"pressure":963.3,"uv_index":9.3,"wind_gusts":34.6,"aqi":67,"pm10":18.9,"pm2_5":13.9,"mosquito_risk":0,"arthritis_risk":5,"migraine_risk":7,"frizz_risk":0,"updated_at":"2026-03-15T14:10:54.203782+05:30"},{"city":"Madurai","state":"Tamil Nadu","latitude":9.9252,"longitude":78.1198,"temp":35.3,"humidity":37,"rain":0.0,"pressure":993.9,"uv_index":9.25,"wind_gusts":28.4,"aqi":52,"pm10":7.9,"pm2_5":6.7,"mosquito_risk":0,"arthritis_risk":5,"migraine_risk":10,"frizz_risk":1,"updated_at":"2026-03-15T14:10:54.203793+05:30"},{"city":"Trichy","state":"Tamil Nadu","latitude":10.7905,"longitude":78.7047,"temp":34.4,"humidity":42,"rain":0.0,"pressure":1001.1,"uv_index":9.15,"wind_gusts":20.2,"aqi":57,"pm10":10.5,"pm2_5":9.3,"mosquito_risk":0,"arthritis_risk":5,"migraine_risk":4,"frizz_risk":1,"updated_at":"2026-03-15T14:10:54.203802+05:30"},{"city":"Salem","state":"Tamil Nadu","latitude":11.6643,"longitude":78.146,"temp":33.5,"humidity":40,"rain":0.0,"pressure":978.8,"uv_index":9.2,"wind_gusts":13.3,"aqi":72,"pm10":22.1,"pm2_5":19.6,"mosquito_risk":0,"arthritis_risk":5,"migraine_risk":7,"frizz_risk":1,"updated_at":"2026-03-15T14:10:54.203809+05:30"},{"city":"Tirunelveli","state":"Tamil Nadu","latitude":8.7139,"longitude":77.7567,"temp":35.9,"humidity":38,"rain":0.0,"pressure":1004.0,"uv_index":9.25,"wind_gusts":34.9,"aqi":49,"pm10":7.5,"pm2_5":6.5,"mosquito_risk":0,"arthritis_risk":5,"migraine_risk":7,"frizz_risk":1,"updated_at":"2026-03-15T14:10:54.203817+05:30"},{"city":"Vellore","state":"Tamil Nadu","latitude":12.9165,"longitude":79.1325,"temp":34.2,"humidity":30,"rain":0.0,"pressure":986.3,"uv_index":9.1,"wind_gusts":29.9,"aqi":97,"pm10":22.1,"pm2_5":20.3,"mosquito_risk":0,"arthritis_risk":5,"migraine_risk":7,"frizz_risk":0,"updated_at":"2026-03-15T14:10:54.203825+05:30"},{"city":"Erode","state":"Tamil Nadu","latitude":11.341,"longitude":77.7172,"temp":35.3,"humidity":34,"rain":0.0,"pressure":990.3,"uv_index":9.2,"wind_gusts":21.2,"aqi":49,"pm10":13.5,"pm2_5":10.9,"mosquito_risk":0,"arthritis_risk":5,"migraine_risk":10,"frizz_risk":1,"updated_at":"2026-03-15T14:10:54.203832+05:30"},{"city":"Kochi","state":"Kerala","latitude":9.9312,"longitude":76.2673,"temp":28.6,"humidity":76,"rain":0.0,"pressure":1009.7,"uv_index":9.1,"wind_gusts":32.8,"aqi":75,"pm10":20.1,"pm2_5":18.0,"mosquito_risk":7,"arthritis_risk":0,"migraine_risk":4,"frizz_risk":1,"updated_at":"2026-03-15T14:10:54.203840+05:30"},{"city":"Thiruvananthapuram","state":"Kerala","latitude":8.5241,"longitude":76.9366,"temp":28.7,"humidity":71,"rain":0.0,"pressure":1008.8,"uv_index":9.1,"wind_gusts":27.0,"aqi":49,"pm10":11.3,"pm2_5":10.4,"mosquito_risk":7,"arthritis_risk":0,"migraine_risk":4,"frizz_risk":1,"updated_at":"2026-03-15T14:10:54.203847+05:30"},{"city":"Kozhikode","state":"Kerala","latitude":11.2588,"longitude":75.7804,"temp":29.8,"humidity":73,"rain":0.0,"pressure":1009.1,"uv_index":9.0,"wind_gusts":30.6,"aqi":80,"pm10":23.4,"pm2_5":21.1,"mosquito_risk":7,"arthritis_risk":0,"migraine_risk":4,"frizz_risk":1,"updated_at":"2026-03-15T14:10:54.203855+05:30"},{"city":"Thrissur","state":"Kerala","latitude":10.5276,"longitude":76.2144,"temp":32.6,"humidity":58,"rain":0.0,"pressure":1008.1,"uv_index":9.05,"wind_gusts":39.6,"aqi":75,"pm10":21.9,"pm2_5":18.3,"mosquito_risk":0,"arthritis_risk":0,"migraine_risk":4,"frizz_risk":1,"updated_at":"2026-03-15T14:10:54.203862+05:30"},{"city":"Kannur","state":"Kerala","latitude":11.8745,"longitude":75.3704,"temp":30.5,"humidity":69,"rain":0.0,"pressure":1008.7,"uv_index":9.0,"wind_gusts":33.8,"aqi":83,"pm10":24.4,"pm2_5":21.2,"mosquito_risk":3,"arthritis_risk":0,"migraine_risk":4,"frizz_risk":1,"updated_at":"2026-03-15T14:10:54.203870+05:30"},{"city":"Patna","state":"Bihar","latitude":25.5941,"longitude":85.1376,"temp":32.5,"humidity":34,"rain":0.0,"pressure":1000.8,"uv_index":7.55,"wind_gusts":28.1,"aqi":160,"pm10":96.6,"pm2_5":49.9,"mosquito_risk":0,"arthritis_risk":5,"migraine_risk":4,"frizz_risk":0,"updated_at":"2026-03-15T14:10:54.203877+05:30"},{"city":"Gaya","state":"Bihar","latitude":24.7914,"longitude":85.0002,"temp":32.3,"humidity":47,"rain":0.0,"pressure":994.4,"uv_index":7.65,"wind_gusts":32.0,"aqi":138,"pm10":82.4,"pm2_5":33.8,"mosquito_risk":0,"arthritis_risk":5,"migraine_risk":7,"frizz_risk":1,"updated_at":"2026-03-15T14:10:54.203884+05:30"},{"city":"Muzaffarpur","state":"Bihar","latitude":26.1209,"longitude":85.3647,"temp":31.9,"humidity":42,"rain":0.0,"pressure":1001.5,"uv_index":7.5,"wind_gusts":34.6,"aqi":160,"pm10":93.4,"pm2_5":54.5,"mosquito_risk":0,"arthritis_risk":5,"migraine_risk":4,"frizz_risk":1,"updated_at":"2026-03-15T14:10:54.203890+05:30"},{"city":"Bhagalpur","state":"Bihar","latitude":25.2425,"longitude":87.0117,"temp":32.4,"humidity":52,"rain":0.0,"pressure":1001.2,"uv_index":7.55,"wind_gusts":32.4,"aqi":151,"pm10":89.4,"pm2_5":54.0,"mosquito_risk":0,"arthritis_risk":5,"migraine_risk":4,"frizz_risk":1,"updated_at":"2026-03-15T14:10:54.203896+05:30"},{"city":"Ranchi","state":"Jharkhand","latitude":23.3441,"longitude":85.3096,"temp":28.9,"humidity":51,"rain":0.0,"pressure":938.7,"uv_index":8.3,"wind_gusts":45.7,"aqi":118,"pm10":37.8,"pm2_5":34.1,"mosquito_risk":4,"arthritis_risk":5,"migraine_risk":7,"frizz_risk":1,"updated_at":"2026-03-15T14:10:54.203903+05:30"},{"city":"Jamshedpur","state":"Jharkhand","latitude":22.8046,"longitude":86.2029,"temp":30.2,"humidity":59,"rain":0.0,"pressure":991.5,"uv_index":8.2,"wind_gusts":38.2,"aqi":119,"pm10":53.2,"pm2_5":45.2,"mosquito_risk":0,"arthritis_risk":5,"migraine_risk":7,"frizz_risk":1,"updated_at":"2026-03-15T14:10:54.203910+05:30"},{"city":"Dhanbad","state":"Jharkhand","latitude":23.7957,"longitude":86.4304,"temp":29.0,"humidity":54,"rain":0.0,"pressure":980.8,"uv_index":8.05,"wind_gusts":35.3,"aqi":158,"pm10":69.2,"pm2_5":62.2,"mosquito_risk":4,"arthritis_risk":5,"migraine_risk":7,"frizz_risk":1,"updated_at":"2026-03-15T14:10:54.203916+05:30"},{"city":"Bokaro","state":"Jharkhand","latitude":23.6693,"longitude":86.1511,"temp":31.6,"humidity":45,"rain":0.0,"pressure":984.6,"uv_index":8.0,"wind_gusts":37.8,"aqi":151,"pm10":52.7,"pm2_5":46.4,"mosquito_risk":0,"arthritis_risk":5,"migraine_risk":7,"frizz_risk":1,"updated_at":"2026-03-15T14:10:54.203923+05:30"},{"city":"Bhubaneswar","state":"Odisha","latitude":20.2961,"longitude":85.8245,"temp":31.4,"humidity":57,"rain":0.0,"pressure":1003.8,"uv_index":8.5,"wind_gusts":41.8,"aqi":57,"pm10":26.3,"pm2_5":18.6,"mosquito_risk":0,"arthritis_risk":5,"migraine_risk":4,"frizz_risk":1,"updated_at":"2026-03-15T14:10:54.203929+05:30"},{"city":"Cuttack","state":"Odisha","latitude":20.4625,"longitude":85.8828,"temp":32.7,"humidity":56,"rain":0.0,"pressure":1005.4,"uv_index":8.55,"wind_gusts":35.6,"aqi":57,"pm10":26.3,"pm2_5":18.6,"mosquito_risk":0,"arthritis_risk":5,"migraine_risk":4,"frizz_risk":1,"updated_at":"2026-03-15T14:10:54.203936+05:30"},{"city":"Rourkela","state":"Odisha","latitude":22.2604,"longitude":84.8536,"temp":34.1,"humidity":39,"rain":0.0,"pressure":985.4,"uv_index":8.1,"wind_gusts":54.0,"aqi":130,"pm10":57.3,"pm2_5":51.7,"mosquito_risk":0,"arthritis_risk":5,"migraine_risk":7,"frizz_risk":1,"updated_at":"2026-03-15T14:10:54.203943+05:30"},{"city":"Raipur","state":"Chhattisgarh","latitude":21.2514,"longitude":81.6296,"temp":35.6,"humidity":30,"rain":0.0,"pressure":974.9,"uv_index":8.2,"wind_gusts":41.8,"aqi":148,"pm10":47.5,"pm2_5":38.5,"mosquito_risk":0,"arthritis_risk":5,"migraine_risk":10,"frizz_risk":0,"updated_at":"2026-03-15T14:10:54.203950+05:30"},{"city":"Bhilai","state":"Chhattisgarh","latitude":21.1938,"longitude":81.3509,"temp":36.7,"humidity":26,"rain":0.0,"pressure":975.1,"uv_index":8.2,"wind_gusts":42.1,"aqi":133,"pm10":48.1,"pm2_5":38.5,"mosquito_risk":0,"arthritis_risk":5,"migraine_risk":10,"frizz_risk":0,"updated_at":"2026-03-15T14:10:54.203956+05:30"},{"city":"Guwahati","state":"Assam","latitude":26.1158,"longitude":91.7086,"temp":24.9,"humidity":77,"rain":0.0,"pressure":1002.9,"uv_index":7.4,"wind_gusts":40.7,"aqi":78,"pm10":25.8,"pm2_5":19.5,"mosquito_risk":3,"arthritis_risk":5,"migraine_risk":4,"frizz_risk":1,"updated_at":"2026-03-15T14:10:54.203963+05:30"},{"city":"Agartala","state":"Tripura","latitude":23.8315,"longitude":91.2868,"temp":26.2,"humidity":75,"rain":0.0,"pressure":1008.7,"uv_index":7.75,"wind_gusts":38.2,"aqi":60,"pm10":22.8,"pm2_5":17.1,"mosquito_risk":7,"arthritis_risk":0,"migraine_risk":4,"frizz_risk":1,"updated_at":"2026-03-15T14:10:54.203969+05:30"},{"city":"Shillong","state":"Meghalaya","latitude":25.5788,"longitude":91.8933,"temp":15.0,"humidity":78,"rain":0.0,"pressure":856.6,"uv_index":7.85,"wind_gusts":85.0,"aqi":65,"pm10":24.1,"pm2_5":16.3,"mosquito_risk":3,"arthritis_risk":5,"migraine_risk":7,"frizz_risk":0,"updated_at":"2026-03-15T14:10:54.203975+05:30"},{"city":"Imphal","state":"Manipur","latitude":24.817,"longitude":93.9368,"temp":19.0,"humidity":79,"rain":0.0,"pressure":925.2,"uv_index":8.15,"wind_gusts":76.7,"aqi":94,"pm10":41.0,"pm2_5":27.9,"mosquito_risk":3,"arthritis_risk":5,"migraine_risk":7,"frizz_risk":0,"updated_at":"2026-03-15T14:10:54.203982+05:30"},{"city":"Aizawl","state":"Mizoram","latitude":23.7271,"longitude":92.7176,"temp":22.1,"humidity":63,"rain":0.0,"pressure":895.2,"uv_index":8.1,"wind_gusts":64.4,"aqi":91,"pm10":24.9,"pm2_5":17.6,"mosquito_risk":3,"arthritis_risk":5,"migraine_risk":7,"frizz_risk":0,"updated_at":"2026-03-15T14:10:54.203988+05:30"},{"city":"Kohima","state":"Nagaland","latitude":25.6701,"longitude":94.1077,"temp":18.1,"humidity":59,"rain":0.0,"pressure":855.8,"uv_index":7.8,"wind_gusts":111.2,"aqi":76,"pm10":29.0,"pm2_5":19.7,"mosquito_risk":0,"arthritis_risk":5,"migraine_risk":7,"frizz_risk":0,"updated_at":"2026-03-15T14:10:54.203994+05:30"},{"city":"Gangtok","state":"Sikkim","latitude":27.3314,"longitude":88.6138,"temp":17.6,"humidity":69,"rain":0.0,"pressure":838.0,"uv_index":7.05,"wind_gusts":20.9,"aqi":93,"pm10":55.4,"pm2_5":32.5,"mosquito_risk":3,"arthritis_risk":5,"migraine_risk":7,"frizz_risk":0,"updated_at":"2026-03-15T14:10:54.204001+05:30"},{"city":"Siliguri","state":"West Bengal","latitude":26.7271,"longitude":88.3953,"temp":22.9,"humidity":76,"rain":0.0,"pressure":995.0,"uv_index":7.4,"wind_gusts":31.7,"aqi":123,"pm10":91.7,"pm2_5":56.9,"mosquito_risk":3,"arthritis_risk":5,"migraine_risk":7,"frizz_risk":1,"updated_at":"2026-03-15T14:10:57.416407+05:30"},{"city":"Durgapur","state":"West Bengal","latitude":23.5204,"longitude":87.3119,"temp":29.3,"humidity":63,"rain":0.0,"pressure":995.8,"uv_index":8.05,"wind_gusts":37.8,"aqi":114,"pm10":72.2,"pm2_5":64.5,"mosquito_risk":7,"arthritis_risk":5,"migraine_risk":7,"frizz_risk":1,"updated_at":"2026-03-15T14:10:57.416442+05:30"},{"city":"Asansol","state":"West Bengal","latitude":23.6739,"longitude":86.9524,"temp":28.0,"humidity":63,"rain":0.0,"pressure":994.5,"uv_index":8.05,"wind_gusts":33.5,"aqi":131,"pm10":73.8,"pm2_5":66.1,"mosquito_risk":7,"arthritis_risk":5,"migraine_risk":7,"frizz_risk":1,"updated_at":"2026-03-15T14:10:57.416452+05:30"},{"city":"Pondicherry","state":"Puducherry","latitude":11.9139,"longitude":79.8145,"temp":33.5,"humidity":49,"rain":0.0,"pressure":1010.2,"uv_index":9.0,"wind_gusts":27.0,"aqi":41,"pm10":9.1,"pm2_5":6.3,"mosquito_risk":0,"arthritis_risk":0,"migraine_risk":4,"frizz_risk":1,"updated_at":"2026-03-15T14:10:57.416461+05:30"},{"city":"Port Blair","state":"Andaman and Nicobar Islands","latitude":11.6234,"longitude":92.7265,"temp":27.7,"humidity":80,"rain":0.0,"pressure":1008.6,"uv_index":8.95,"wind_gusts":21.6,"aqi":74,"pm10":13.6,"pm2_5":10.7,"mosquito_risk":7,"arthritis_risk":0,"migraine_risk":4,"frizz_risk":1,"updated_at":"2026-03-15T14:10:57.416469+05:30"},{"city":"Haridwar","state":"Uttarakhand","latitude":29.9457,"longitude":78.1642,"temp":22.7,"humidity":68,"rain":0.0,"pressure":977.0,"uv_index":5.3,"wind_gusts":28.8,"aqi":87,"pm10":54.4,"pm2_5":21.0,"mosquito_risk":3,"arthritis_risk":5,"migraine_risk":3,"frizz_risk":1,"updated_at":"2026-03-15T14:10:57.416477+05:30"},{"city":"Rishikesh","state":"Uttarakhand","latitude":30.0869,"longitude":78.2676,"temp":22.8,"humidity":66,"rain":0.0,"pressure":969.4,"uv_index":5.2,"wind_gusts":29.2,"aqi":65,"pm10":41.7,"pm2_5":16.1,"mosquito_risk":3,"arthritis_risk":5,"migraine_risk":3,"frizz_risk":1,"updated_at":"2026-03-15T14:10:57.416483+05:30"},{"city":"Nainital","state":"Uttarakhand","latitude":29.3919,"longitude":79.4542,"temp":17.0,"humidity":68,"rain":0.0,"pressure":807.0,"uv_index":4.8,"wind_gusts":49.3,"aqi":84,"pm10":42.3,"pm2_5":17.2,"mosquito_risk":3,"arthritis_risk":5,"migraine_risk":3,"frizz_risk":0,"updated_at":"2026-03-15T14:10:57.416490+05:30"},{"city":"Mussoorie","state":"Uttarakhand","latitude":30.4599,"longitude":78.0664,"temp":13.0,"humidity":83,"rain":0.1,"pressure":802.1,"uv_index":6.0,"wind_gusts":54.7,"aqi":73,"pm10":50.3,"pm2_5":18.2,"mosquito_risk":6,"arthritis_risk":10,"migraine_risk":3,"frizz_risk":0,"updated_at":"2026-03-15T14:10:57.416497+05:30"},{"city":"Dharamshala","state":"Himachal Pradesh","latitude":32.219,"longitude":76.3234,"temp":14.8,"humidity":75,"rain":0.0,"pressure":867.8,"uv_index":4.5,"wind_gusts":32.8,"aqi":53,"pm10":38.9,"pm2_5":19.3,"mosquito_risk":3,"arthritis_risk":5,"migraine_risk":3,"frizz_risk":0,"updated_at":"2026-03-15T14:10:57.416504+05:30"},{"city":"Dalhousie","state":"Himachal Pradesh","latitude":32.5387,"longitude":75.971,"temp":13.5,"humidity":63,"rain":0.0,"pressure":801.9,"uv_index":3.65,"wind_gusts":35.6,"aqi":72,"pm10":44.5,"pm2_5":30.5,"mosquito_risk":3,"arthritis_risk":5,"migraine_risk":3,"frizz_risk":0,"updated_at":"2026-03-15T14:10:57.416512+05:30"},{"city":"Patiala","state":"Punjab","latitude":30.3398,"longitude":76.3869,"temp":18.7,"humidity":86,"rain":0.0,"pressure":980.4,"uv_index":5.9,"wind_gusts":34.9,"aqi":122,"pm10":52.2,"pm2_5":23.0,"mosquito_risk":3,"arthritis_risk":10,"migraine_risk":3,"frizz_risk":1,"updated_at":"2026-03-15T14:10:57.416519+05:30"},{"city":"Bhatinda","state":"Punjab","latitude":30.211,"longitude":74.9455,"temp":25.9,"humidity":57,"rain":0.0,"pressure":984.2,"uv_index":6.45,"wind_gusts":45.0,"aqi":87,"pm10":57.4,"pm2_5":25.1,"mosquito_risk":4,"arthritis_risk":5,"migraine_risk":7,"frizz_risk":1,"updated_at":"2026-03-15T14:10:57.416526+05:30"},{"city":"Rohtak","state":"Haryana","latitude":28.8955,"longitude":76.6066,"temp":29.8,"humidity":34,"rain":0.0,"pressure":982.2,"uv_index":6.1,"wind_gusts":51.5,"aqi":174,"pm10":491.7,"pm2_5":71.0,"mosquito_risk":4,"arthritis_risk":5,"migraine_risk":7,"frizz_risk":0,"updated_at":"2026-03-15T14:10:57.416533+05:30"},{"city":"Panipat","state":"Haryana","latitude":29.3909,"longitude":76.9635,"temp":24.2,"humidity":61,"rain":0.0,"pressure":982.4,"uv_index":5.85,"wind_gusts":36.0,"aqi":205,"pm10":273.8,"pm2_5":43.8,"mosquito_risk":3,"arthritis_risk":5,"migraine_risk":3,"frizz_risk":1,"updated_at":"2026-03-15T14:10:57.416539+05:30"},{"city":"Mathura","state":"Uttar Pradesh","latitude":27.4924,"longitude":77.6737,"temp":32.1,"humidity":30,"rain":0.0,"pressure":987.3,"uv_index":6.5,"wind_gusts":39.6,"aqi":342,"pm10":379.0,"pm2_5":57.9,"mosquito_risk":0,"arthritis_risk":5,"migraine_risk":7,"frizz_risk":0,"updated_at":"2026-03-15T14:10:57.416547+05:30"},{"city":"Vrindavan","state":"Uttar Pradesh","latitude":27.5823,"longitude":77.7027,"temp":30.9,"humidity":34,"rain":0.0,"pressure":987.9,"uv_index":6.45,"wind_gusts":38.5,"aqi":342,"pm10":379.0,"pm2_5":57.9,"mosquito_risk":0,"arthritis_risk":5,"migraine_risk":7,"frizz_risk":0,"updated_at":"2026-03-15T14:10:57.416572+05:30"},{"city":"Ayodhya","state":"Uttar Pradesh","latitude":26.7922,"longitude":82.1998,"temp":28.9,"humidity":37,"rain":0.0,"pressure":998.0,"uv_index":6.9,"wind_gusts":47.2,"aqi":128,"pm10":35.0,"pm2_5":16.0,"mosquito_risk":4,"arthritis_risk":5,"migraine_risk":7,"frizz_risk":0,"updated_at":"2026-03-15T14:10:57.416579+05:30"},{"city":"Ratlam","state":"Madhya Pradesh","latitude":23.3315,"longitude":75.0367,"temp":34.3,"humidity":24,"rain":0.0,"pressure":955.7,"uv_index":7.65,"wind_gusts":38.2,"aqi":62,"pm10":51.7,"pm2_5":18.7,"mosquito_risk":0,"arthritis_risk":5,"migraine_risk":7,"frizz_risk":0,"updated_at":"2026-03-15T14:10:57.416586+05:30"},{"city":"Sagar","state":"Madhya Pradesh","latitude":23.8388,"longitude":78.7378,"temp":34.8,"humidity":21,"rain":0.0,"pressure":950.1,"uv_index":7.65,"wind_gusts":39.6,"aqi":56,"pm10":36.4,"pm2_5":15.2,"mosquito_risk":0,"arthritis_risk":5,"migraine_risk":7,"frizz_risk":0,"updated_at":"2026-03-15T14:10:57.416593+05:30"},{"city":"Satna","state":"Madhya Pradesh","latitude":24.6005,"longitude":80.8322,"temp":37.7,"humidity":14,"rain":0.0,"pressure":970.1,"uv_index":7.6,"wind_gusts":50.0,"aqi":84,"pm10":53.1,"pm2_5":27.0,"mosquito_risk":0,"arthritis_risk":5,"migraine_risk":10,"frizz_risk":0,"updated_at":"2026-03-15T14:10:57.416599+05:30"},{"city":"Akola","state":"Maharashtra","latitude":20.7002,"longitude":77.0082,"temp":37.0,"humidity":20,"rain":0.0,"pressure":975.9,"uv_index":8.15,"wind_gusts":26.3,"aqi":78,"pm10":37.0,"pm2_5":23.8,"mosquito_risk":0,"arthritis_risk":5,"migraine_risk":10,"frizz_risk":0,"updated_at":"2026-03-15T14:10:57.416606+05:30"},{"city":"Amravati","state":"Maharashtra","latitude":20.9374,"longitude":77.7796,"temp":36.4,"humidity":22,"rain":0.0,"pressure":968.1,"uv_index":8.1,"wind_gusts":27.4,"aqi":86,"pm10":32.7,"pm2_5":21.7,"mosquito_risk":0,"arthritis_risk":5,"migraine_risk":10,"frizz_risk":0,"updated_at":"2026-03-15T14:10:57.416612+05:30"},{"city":"Latur","state":"Maharashtra","latitude":18.4088,"longitude":76.5604,"temp":34.9,"humidity":19,"rain":0.0,"pressure":941.4,"uv_index":8.55,"wind_gusts":26.3,"aqi":136,"pm10":46.8,"pm2_5":38.2,"mosquito_risk":0,"arthritis_risk":5,"migraine_risk":7,"frizz_risk":0,"updated_at":"2026-03-15T14:10:57.416619+05:30"},{"city":"Nanded","state":"Maharashtra","latitude":19.1383,"longitude":77.3091,"temp":37.4,"humidity":18,"rain":0.0,"pressure":969.5,"uv_index":8.35,"wind_gusts":18.4,"aqi":140,"pm10":40.4,"pm2_5":32.5,"mosquito_risk":0,"arthritis_risk":5,"migraine_risk":10,"frizz_risk":0,"updated_at":"2026-03-15T14:10:57.416625+05:30"},{"city":"Gulbarga","state":"Karnataka","latitude":17.3297,"longitude":76.8343,"temp":34.8,"humidity":31,"rain":0.0,"pressure":959.9,"uv_index":8.65,"wind_gusts":20.9,"aqi":103,"pm10":45.4,"pm2_5":36.2,"mosquito_risk":0,"arthritis_risk":5,"migraine_risk":7,"frizz_risk":0,"updated_at":"2026-03-15T14:10:57.416631+05:30"},{"city":"Bidar","state":"Karnataka","latitude":17.9104,"longitude":77.5199,"temp":33.5,"humidity":34,"rain":0.0,"pressure":937.2,"uv_index":6.6,"wind_gusts":27.7,"aqi":100,"pm10":42.6,"pm2_5":33.1,"mosquito_risk":0,"arthritis_risk":5,"migraine_risk":7,"frizz_risk":0,"updated_at":"2026-03-15T14:10:57.416637+05:30"},{"city":"Hospet","state":"Karnataka","latitude":15.2689,"longitude":76.3909,"temp":33.7,"humidity":37,"rain":0.0,"pressure":957.3,"uv_index":8.9,"wind_gusts":32.0,"aqi":115,"pm10":41.2,"pm2_5":33.1,"mosquito_risk":0,"arthritis_risk":5,"migraine_risk":7,"frizz_risk":1,"updated_at":"2026-03-15T14:10:57.416643+05:30"},{"city":"Tirupur","state":"Tamil Nadu","latitude":11.1085,"longitude":77.3411,"temp":35.2,"humidity":33,"rain":0.0,"pressure":976.7,"uv_index":9.3,"wind_gusts":27.7,"aqi":56,"pm10":14.9,"pm2_5":11.7,"mosquito_risk":0,"arthritis_risk":5,"migraine_risk":10,"frizz_risk":1,"updated_at":"2026-03-15T14:10:57.416650+05:30"},{"city":"Alappuzha","state":"Kerala","latitude":9.4981,"longitude":76.3388,"temp":28.5,"humidity":79,"rain":0.0,"pressure":1009.8,"uv_index":9.1,"wind_gusts":28.1,"aqi":70,"pm10":18.0,"pm2_5":17.2,"mosquito_risk":7,"arthritis_risk":0,"migraine_risk":4,"frizz_risk":1,"updated_at":"2026-03-15T14:10:57.416656+05:30"},{"city":"Munnar","state":"Kerala","latitude":10.0889,"longitude":77.0595,"temp":29.0,"humidity":44,"rain":0.0,"pressure":860.0,"uv_index":9.55,"wind_gusts":34.6,"aqi":56,"pm10":10.1,"pm2_5":7.7,"mosquito_risk":4,"arthritis_risk":5,"migraine_risk":7,"frizz_risk":0,"updated_at":"2026-03-15T14:10:57.416662+05:30"},{"city":"Silchar","state":"Assam","latitude":24.8333,"longitude":92.7789,"temp":23.2,"humidity":82,"rain":0.0,"pressure":1008.9,"uv_index":7.65,"wind_gusts":44.3,"aqi":109,"pm10":18.3,"pm2_5":15.1,"mosquito_risk":3,"arthritis_risk":0,"migraine_risk":4,"frizz_risk":1,"updated_at":"2026-03-15T14:10:57.416669+05:30"},{"city":"Dibrugarh","state":"Assam","latitude":27.4728,"longitude":94.912,"temp":21.0,"humidity":87,"rain":0.0,"pressure":997.2,"uv_index":4.5,"wind_gusts":36.0,"aqi":68,"pm10":27.4,"pm2_5":21.5,"mosquito_risk":3,"arthritis_risk":5,"migraine_risk":3,"frizz_risk":1,"updated_at":"2026-03-15T14:10:57.416675+05:30"}]