[{"city":"Delhi","state":"Delhi","latitude":28.6139,"longitude":77.209,"temp":35.8,"humidity":42,"rain":0.0,"pressure":979.7,"uv_index":7.7,"wind_gusts":37.8,"aqi":532,"pm10":482.4,"pm2_5":85.7,"no2":5.3,"co":346.0,"o3":196.0,"so2":18.7,"mosquito_risk":0,"arthritis_risk":5,"migraine_risk":10,"frizz_risk":1,"updated_at":"2026-05-29T13:31:28.590290+05:30"},{"city":"Mumbai","state":"Maharashtra","latitude":19.076,"longitude":72.8777,"temp":33.5,"humidity":58,"rain":0.0,"pressure":1008.4,"uv_index":7.8,"wind_gusts":41.8,"aqi":63,"pm10":40.6,"pm2_5":21.6,"no2":3.7,"co":152.0,"o3":94.0,"so2":5.8,"mosquito_risk":0,"arthritis_risk":0,"migraine_risk":4,"frizz_risk":1,"updated_at":"2026-05-29T13:31:28.590334+05:30"},{"city":"Bangalore","state":"Karnataka","latitude":12.9716,"longitude":77.5946,"temp":31.3,"humidity":50,"rain":0.0,"pressure":912.8,"uv_index":7.0,"wind_gusts":29.5,"aqi":53,"pm10":16.6,"pm2_5":10.9,"no2":2.5,"co":254.0,"o3":137.0,"so2":3.3,"mosquito_risk":0,"arthritis_risk":5,"migraine_risk":7,"frizz_risk":1,"updated_at":"2026-05-29T13:31:28.590348+05:30"},{"city":"Hyderabad","state":"Telangana","latitude":17.385,"longitude":78.4867,"temp":36.7,"humidity":31,"rain":0.0,"pressure":952.4,"uv_index":9.1,"wind_gusts":39.6,"aqi":57,"pm10":15.8,"pm2_5":12.5,"no2":1.7,"co":222.0,"o3":148.0,"so2":5.5,"mosquito_risk":0,"arthritis_risk":5,"migraine_risk":10,"frizz_risk":1,"updated_at":"2026-05-29T13:31:28.590358+05:30"},{"city":"Chennai","state":"Tamil Nadu","latitude":13.0827,"longitude":80.2707,"temp":38.5,"humidity":38,"rain":0.0,"pressure":1004.6,"uv_index":8.85,"wind_gusts":42.1,"aqi":78,"pm10":34.6,"pm2_5":26.1,"no2":3.2,"co":301.0,"o3":193.0,"so2":6.9,"mosquito_risk":0,"arthritis_risk":5,"migraine_risk":7,"frizz_risk":1,"updated_at":"2026-05-29T13:31:28.590365+05:30"},{"city":"Kolkata","state":"West Bengal","latitude":22.5726,"longitude":88.3639,"temp":32.5,"humidity":60,"rain":0.0,"pressure":1004.1,"uv_index":8.9,"wind_gusts":56.9,"aqi":100,"pm10":54.6,"pm2_5":31.5,"no2":1.6,"co":366.0,"o3":142.0,"so2":8.2,"mosquito_risk":0,"arthritis_risk":5,"migraine_risk":4,"frizz_risk":1,"updated_at":"2026-05-29T13:31:28.590372+05:30"},{"city":"Pune","state":"Maharashtra","latitude":18.5204,"longitude":73.8567,"temp":34.8,"humidity":40,"rain":0.0,"pressure":948.6,"uv_index":8.4,"wind_gusts":48.2,"aqi":41,"pm10":17.6,"pm2_5":10.8,"no2":1.5,"co":140.0,"o3":109.0,"so2":3.9,"mosquito_risk":0,"arthritis_risk":5,"migraine_risk":7,"frizz_risk":1,"updated_at":"2026-05-29T13:31:28.590379+05:30"},{"city":"Ahmedabad","state":"Gujarat","latitude":23.0225,"longitude":72.5714,"temp":40.6,"humidity":30,"rain":0.0,"pressure":998.0,"uv_index":8.1,"wind_gusts":47.9,"aqi":73,"pm10":54.0,"pm2_5":23.1,"no2":1.2,"co":135.0,"o3":91.0,"so2":3.2,"mosquito_risk":0,"arthritis_risk":5,"migraine_risk":10,"frizz_risk":1,"updated_at":"2026-05-29T13:31:28.590386+05:30"},{"city":"Jaipur","state":"Rajasthan","latitude":26.9124,"longitude":75.7873,"temp":38.8,"humidity":28,"rain":0.0,"pressure":955.9,"uv_index":8.2,"wind_gusts":54.7,"aqi":113,"pm10":165.8,"pm2_5":39.6,"no2":1.3,"co":145.0,"o3":117.0,"so2":4.2,"mosquito_risk":0,"arthritis_risk":5,"migraine_risk":10,"frizz_risk":1,"updated_at":"2026-05-29T13:31:28.590397+05:30"},{"city":"Lucknow","state":"Uttar Pradesh","latitude":26.8467,"longitude":80.9462,"temp":34.0,"humidity":45,"rain":0.0,"pressure":991.9,"uv_index":8.15,"wind_gusts":47.5,"aqi":95,"pm10":73.1,"pm2_5":37.7,"no2":2.2,"co":333.0,"o3":172.0,"so2":10.2,"mosquito_risk":0,"arthritis_risk":5,"migraine_risk":7,"frizz_risk":1,"updated_at":"2026-05-29T13:31:28.590403+05:30"},{"city":"Kanpur","state":"Uttar Pradesh","latitude":26.4499,"longitude":80.3319,"temp":36.5,"humidity":36,"rain":0.0,"pressure":989.5,"uv_index":8.2,"wind_gusts":37.1,"aqi":189,"pm10":159.3,"pm2_5":37.8,"no2":1.9,"co":266.0,"o3":176.0,"so2":9.8,"mosquito_risk":0,"arthritis_risk":5,"migraine_risk":10,"frizz_risk":1,"updated_at":"2026-05-29T13:31:28.590410+05:30"},{"city":"Chandigarh","state":"Chandigarh","latitude":30.7333,"longitude":76.7794,"temp":35.0,"humidity":27,"rain":0.0,"pressure":966.9,"uv_index":7.7,"wind_gusts":56.9,"aqi":143,"pm10":99.9,"pm2_5":36.2,"no2":2.8,"co":341.0,"o3":180.0,"so2":9.2,"mosquito_risk":0,"arthritis_risk":5,"migraine_risk":7,"frizz_risk":0,"updated_at":"2026-05-29T13:31:28.590417+05:30"},{"city":"Srinagar","state":"Jammu and Kashmir","latitude":34.0837,"longitude":74.7973,"temp":27.1,"humidity":30,"rain":0.0,"pressure":842.7,"uv_index":8.9,"wind_gusts":28.1,"aqi":74,"pm10":20.1,"pm2_5":8.9,"no2":0.9,"co":266.0,"o3":158.0,"so2":2.1,"mosquito_risk":4,"arthritis_risk":5,"migraine_risk":7,"frizz_risk":0,"updated_at":"2026-05-29T13:31:28.590424+05:30"},{"city":"Jammu","state":"Jammu and Kashmir","latitude":32.7266,"longitude":74.857,"temp":36.0,"humidity":27,"rain":0.0,"pressure":970.0,"uv_index":8.5,"wind_gusts":45.7,"aqi":115,"pm10":270.1,"pm2_5":65.7,"no2":1.7,"co":324.0,"o3":192.0,"so2":11.4,"mosquito_risk":0,"arthritis_risk":5,"migraine_risk":10,"frizz_risk":0,"updated_at":"2026-05-29T13:31:28.590431+05:30"},{"city":"Amritsar","state":"Punjab","latitude":31.634,"longitude":74.8723,"temp":37.0,"humidity":28,"rain":0.0,"pressure":976.9,"uv_index":8.4,"wind_gusts":46.1,"aqi":160,"pm10":542.0,"pm2_5":116.9,"no2":1.3,"co":314.0,"o3":173.0,"so2":10.4,"mosquito_risk":0,"arthritis_risk":5,"migraine_risk":10,"frizz_risk":0,"updated_at":"2026-05-29T13:31:28.590438+05:30"},{"city":"Ludhiana","state":"Punjab","latitude":30.901,"longitude":75.8573,"temp":36.6,"humidity":32,"rain":0.0,"pressure":975.3,"uv_index":7.95,"wind_gusts":52.6,"aqi":448,"pm10":907.1,"pm2_5":138.8,"no2":1.7,"co":280.0,"o3":178.0,"so2":10.2,"mosquito_risk":0,"arthritis_risk":5,"migraine_risk":10,"frizz_risk":1,"updated_at":"2026-05-29T13:31:28.590444+05:30"},{"city":"Jalandhar","state":"Punjab","latitude":31.326,"longitude":75.5762,"temp":37.1,"humidity":26,"rain":0.0,"pressure":976.3,"uv_index":8.15,"wind_gusts":47.2,"aqi":204,"pm10":642.6,"pm2_5":115.0,"no2":1.7,"co":284.0,"o3":180.0,"so2":10.8,"mosquito_risk":0,"arthritis_risk":5,"migraine_risk":10,"frizz_risk":0,"updated_at":"2026-05-29T13:31:28.590450+05:30"},{"city":"Dehradun","state":"Uttarakhand","latitude":30.6284,"longitude":78.0322,"temp":21.5,"humidity":53,"rain":0.1,"pressure":832.4,"uv_index":8.1,"wind_gusts":36.0,"aqi":99,"pm10":72.9,"pm2_5":28.0,"no2":1.9,"co":258.0,"o3":164.0,"so2":5.5,"mosquito_risk":3,"arthritis_risk":5,"migraine_risk":7,"frizz_risk":0,"updated_at":"2026-05-29T13:31:28.590456+05:30"},{"city":"Shimla","state":"Himachal Pradesh","latitude":31.1048,"longitude":77.1734,"temp":21.4,"humidity":41,"rain":0.1,"pressure":787.0,"uv_index":7.65,"wind_gusts":30.6,"aqi":107,"pm10":83.8,"pm2_5":34.0,"no2":4.1,"co":329.0,"o3":171.0,"so2":7.1,"mosquito_risk":3,"arthritis_risk":5,"migraine_risk":7,"frizz_risk":0,"updated_at":"2026-05-29T13:31:28.590470+05:30"},{"city":"Manali","state":"Himachal Pradesh","latitude":32.2396,"longitude":77.1887,"temp":19.4,"humidity":58,"rain":0.1,"pressure":819.5,"uv_index":9.35,"wind_gusts":41.4,"aqi":114,"pm10":16.6,"pm2_5":8.0,"no2":1.9,"co":153.0,"o3":164.0,"so2":0.6,"mosquito_risk":3,"arthritis_risk":5,"migraine_risk":7,"frizz_risk":0,"updated_at":"2026-05-29T13:31:28.590478+05:30"},{"city":"Gurgaon","state":"Haryana","latitude":28.4595,"longitude":77.0266,"temp":35.2,"humidity":44,"rain":0.0,"pressure":978.1,"uv_index":7.8,"wind_gusts":40.3,"aqi":1187,"pm10":625.8,"pm2_5":112.0,"no2":4.1,"co":290.0,"o3":185.0,"so2":13.8,"mosquito_risk":0,"arthritis_risk":5,"migraine_risk":10,"frizz_risk":1,"updated_at":"2026-05-29T13:31:28.590484+05:30"},{"city":"Noida","state":"Uttar Pradesh","latitude":28.5355,"longitude":77.391,"temp":35.7,"humidity":43,"rain":0.0,"pressure":981.4,"uv_index":7.7,"wind_gusts":36.4,"aqi":1187,"pm10":625.8,"pm2_5":112.0,"no2":4.1,"co":326.0,"o3":185.0,"so2":13.8,"mosquito_risk":0,"arthritis_risk":5,"migraine_risk":10,"frizz_risk":1,"updated_at":"2026-05-29T13:31:28.590490+05:30"},{"city":"Ghaziabad","state":"Uttar Pradesh","latitude":28.6692,"longitude":77.4538,"temp":34.8,"humidity":46,"rain":0.0,"pressure":979.8,"uv_index":7.7,"wind_gusts":40.7,"aqi":354,"pm10":313.9,"pm2_5":53.0,"no2":2.3,"co":285.0,"o3":180.0,"so2":11.1,"mosquito_risk":0,"arthritis_risk":5,"migraine_risk":7,"frizz_risk":1,"updated_at":"2026-05-29T13:31:28.590496+05:30"},{"city":"Faridabad","state":"Haryana","latitude":28.4089,"longitude":77.3178,"temp":35.7,"humidity":42,"rain":0.0,"pressure":980.6,"uv_index":7.75,"wind_gusts":37.4,"aqi":1187,"pm10":625.8,"pm2_5":112.0,"no2":4.1,"co":297.0,"o3":185.0,"so2":13.8,"mosquito_risk":0,"arthritis_risk":5,"migraine_risk":10,"frizz_risk":1,"updated_at":"2026-05-29T13:31:28.590504+05:30"},{"city":"Meerut","state":"Uttar Pradesh","latitude":28.9845,"longitude":77.7064,"temp":33.3,"humidity":50,"rain":0.0,"pressure":979.1,"uv_index":7.6,"wind_gusts":56.2,"aqi":354,"pm10":313.9,"pm2_5":53.0,"no2":2.3,"co":299.0,"o3":180.0,"so2":11.1,"mosquito_risk":0,"arthritis_risk":5,"migraine_risk":7,"frizz_risk":1,"updated_at":"2026-05-29T13:31:28.590510+05:30"},{"city":"Agra","state":"Uttar Pradesh","latitude":27.1767,"longitude":78.0081,"temp":37.5,"humidity":35,"rain":0.0,"pressure":984.6,"uv_index":8.05,"wind_gusts":63.0,"aqi":1182,"pm10":486.2,"pm2_5":104.3,"no2":2.3,"co":302.0,"o3":178.0,"so2":9.9,"mosquito_risk":0,"arthritis_risk":5,"migraine_risk":10,"frizz_risk":1,"updated_at":"2026-05-29T13:31:28.590516+05:30"},{"city":"Varanasi","state":"Uttar Pradesh","latitude":25.3176,"longitude":82.9739,"temp":33.3,"humidity":50,"rain":0.0,"pressure":995.6,"uv_index":8.7,"wind_gusts":45.7,"aqi":113,"pm10":72.4,"pm2_5":45.5,"no2":2.4,"co":337.0,"o3":196.0,"so2":16.1,"mosquito_risk":0,"arthritis_risk":5,"migraine_risk":7,"frizz_risk":1,"updated_at":"2026-05-29T13:31:28.590522+05:30"},{"city":"Prayagraj","state":"Uttar Pradesh","latitude":25.4358,"longitude":81.8463,"temp":35.2,"humidity":43,"rain":0.0,"pressure":993.6,"uv_index":8.6,"wind_gusts":38.5,"aqi":112,"pm10":69.4,"pm2_5":41.8,"no2":3.2,"co":323.0,"o3":181.0,"so2":12.6,"mosquito_risk":0,"arthritis_risk":5,"migraine_risk":10,"frizz_risk":1,"updated_at":"2026-05-29T13:31:28.590528+05:30"},{"city":"Gorakhpur","state":"Uttar Pradesh","latitude":26.7606,"longitude":83.3732,"temp":29.5,"humidity":65,"rain":0.0,"pressure":996.9,"uv_index":8.35,"wind_gusts":47.5,"aqi":98,"pm10":54.8,"pm2_5":35.9,"no2":1.7,"co":275.0,"o3":171.0,"so2":8.8,"mosquito_risk":7,"arthritis_risk":5,"migraine_risk":7,"frizz_risk":1,"updated_at":"2026-05-29T13:31:28.590535+05:30"},{"city":"Bareilly","state":"Uttar Pradesh","latitude":28.367,"longitude":79.4304,"temp":33.6,"humidity":47,"rain":0.0,"pressure":985.4,"uv_index":7.95,"wind_gusts":48.6,"aqi":110,"pm10":51.3,"pm2_5":28.0,"no2":1.9,"co":287.0,"o3":163.0,"so2":7.8,"mosquito_risk":0,"arthritis_risk":5,"migraine_risk":7,"frizz_risk":1,"updated_at":"2026-05-29T13:31:28.590552+05:30"},{"city":"Aligarh","state":"Uttar Pradesh","latitude":27.8974,"longitude":78.088,"temp":35.5,"humidity":42,"rain":0.0,"pressure":982.9,"uv_index":7.85,"wind_gusts":44.3,"aqi":913,"pm10":534.6,"pm2_5":88.7,"no2":2.3,"co":269.0,"o3":180.0,"so2":11.2,"mosquito_risk":0,"arthritis_risk":5,"migraine_risk":10,"frizz_risk":1,"updated_at":"2026-05-29T13:31:28.590558+05:30"},{"city":"Moradabad","state":"Uttar Pradesh","latitude":28.8386,"longitude":78.7733,"temp":34.2,"humidity":43,"rain":0.0,"pressure":982.1,"uv_index":7.8,"wind_gusts":51.1,"aqi":110,"pm10":50.6,"pm2_5":28.3,"no2":2.1,"co":291.0,"o3":174.0,"so2":9.1,"mosquito_risk":0,"arthritis_risk":5,"migraine_risk":7,"frizz_risk":1,"updated_at":"2026-05-29T13:31:28.590565+05:30"},{"city":"Saharanpur","state":"Uttar Pradesh","latitude":29.9637,"longitude":77.546,"temp":32.8,"humidity":47,"rain":0.0,"pressure":974.2,"uv_index":7.45,"wind_gusts":49.0,"aqi":113,"pm10":78.0,"pm2_5":27.9,"no2":1.4,"co":271.0,"o3":166.0,"so2":6.5,"mosquito_risk":0,"arthritis_risk":5,"migraine_risk":7,"frizz_risk":1,"updated_at":"2026-05-29T13:31:28.590571+05:30"},{"city":"Jhansi","state":"Uttar Pradesh","latitude":25.4484,"longitude":78.5685,"temp":38.3,"humidity":31,"rain":0.0,"pressure":974.7,"uv_index":8.45,"wind_gusts":77.8,"aqi":75,"pm10":66.8,"pm2_5":25.7,"no2":1.1,"co":189.0,"o3":136.0,"so2":7.9,"mosquito_risk":0,"arthritis_risk":5,"migraine_risk":10,"frizz_risk":1,"updated_at":"2026-05-29T13:31:33.736242+05:30"},{"city":"Surat","state":"Gujarat","latitude":21.1702,"longitude":72.8311,"temp":34.5,"humidity":52,"rain":0.0,"pressure":1005.3,"uv_index":7.65,"wind_gusts":58.0,"aqi":84,"pm10":57.0,"pm2_5":27.1,"no2":6.6,"co":188.0,"o3":64.0,"so2":23.9,"mosquito_risk":0,"arthritis_risk":5,"migraine_risk":4,"frizz_risk":1,"updated_at":"2026-05-29T13:31:33.736274+05:30"},{"city":"Vadodara","state":"Gujarat","latitude":22.3072,"longitude":73.1812,"temp":38.2,"humidity":39,"rain":0.0,"pressure":1001.3,"uv_index":8.05,"wind_gusts":54.0,"aqi":79,"pm10":58.9,"pm2_5":27.6,"no2":1.4,"co":143.0,"o3":98.0,"so2":4.0,"mosquito_risk":0,"arthritis_risk":5,"migraine_risk":7,"frizz_risk":1,"updated_at":"2026-05-29T13:31:33.736285+05:30"},{"city":"Rajkot","state":"Gujarat","latitude":22.3039,"longitude":70.8022,"temp":39.1,"humidity":35,"rain":0.0,"pressure":991.4,"uv_index":7.7,"wind_gusts":55.8,"aqi":73,"pm10":53.8,"pm2_5":23.6,"no2":0.8,"co":113.0,"o3":84.0,"so2":3.3,"mosquito_risk":0,"arthritis_risk":5,"migraine_risk":10,"frizz_risk":1,"updated_at":"2026-05-29T13:31:33.736293+05:30"},{"city":"Thane","state":"Maharashtra","latitude":19.2183,"longitude":72.9781,"temp":35.8,"humidity":49,"rain":0.0,"pressure":1007.4,"uv_index":7.8,"wind_gusts":40.3,"aqi":63,"pm10":40.6,"pm2_5":21.6,"no2":3.7,"co":143.0,"o3":94.0,"so2":5.8,"mosquito_risk":0,"arthritis_risk":5,"migraine_risk":7,"frizz_risk":1,"updated_at":"2026-05-29T13:31:33.736301+05:30"},{"city":"Nagpur","state":"Maharashtra","latitude":21.1458,"longitude":79.0882,"temp":39.8,"humidity":25,"rain":0.0,"pressure":970.4,"uv_index":8.85,"wind_gusts":53.6,"aqi":73,"pm10":39.0,"pm2_5":22.8,"no2":3.6,"co":148.0,"o3":146.0,"so2":17.7,"mosquito_risk":0,"arthritis_risk":5,"migraine_risk":10,"frizz_risk":0,"updated_at":"2026-05-29T13:31:33.736309+05:30"},{"city":"Nashik","state":"Maharashtra","latitude":19.9975,"longitude":73.7898,"temp":34.8,"humidity":38,"rain":0.0,"pressure":946.0,"uv_index":8.1,"wind_gusts":51.8,"aqi":58,"pm10":35.7,"pm2_5":17.6,"no2":0.8,"co":122.0,"o3":86.0,"so2":1.5,"mosquito_risk":0,"arthritis_risk":5,"migraine_risk":7,"frizz_risk":1,"updated_at":"2026-05-29T13:31:33.736317+05:30"},{"city":"Aurangabad","state":"Maharashtra","latitude":19.8762,"longitude":75.3433,"temp":38.5,"humidity":24,"rain":0.0,"pressure":943.9,"uv_index":8.95,"wind_gusts":45.7,"aqi":56,"pm10":32.6,"pm2_5":17.1,"no2":1.0,"co":137.0,"o3":124.0,"so2":4.8,"mosquito_risk":0,"arthritis_risk":5,"migraine_risk":10,"frizz_risk":0,"updated_at":"2026-05-29T13:31:33.736324+05:30"},{"city":"Solapur","state":"Maharashtra","latitude":17.6599,"longitude":75.9064,"temp":37.3,"humidity":33,"rain":0.0,"pressure":956.4,"uv_index":8.95,"wind_gusts":37.1,"aqi":45,"pm10":14.1,"pm2_5":8.8,"no2":1.1,"co":136.0,"o3":115.0,"so2":1.9,"mosquito_risk":0,"arthritis_risk":5,"migraine_risk":10,"frizz_risk":1,"updated_at":"2026-05-29T13:31:33.736332+05:30"},{"city":"Kolhapur","state":"Maharashtra","latitude":16.705,"longitude":74.2433,"temp":35.3,"humidity":38,"rain":0.0,"pressure":948.3,"uv_index":8.8,"wind_gusts":47.2,"aqi":31,"pm10":16.9,"pm2_5":9.9,"no2":1.3,"co":134.0,"o3":102.0,"so2":1.7,"mosquito_risk":0,"arthritis_risk":5,"migraine_risk":10,"frizz_risk":1,"updated_at":"2026-05-29T13:31:33.736339+05:30"},{"city":"Goa","state":"Goa","latitude":15.2993,"longitude":74.124,"temp":33.8,"humidity":61,"rain":0.1,"pressure":998.0,"uv_index":5.5,"wind_gusts":30.6,"aqi":49,"pm10":14.1,"pm2_5":9.6,"no2":0.6,"co":125.0,"o3":69.0,"so2":1.1,"mosquito_risk":6,"arthritis_risk":5,"migraine_risk":3,"frizz_risk":1,"updated_at":"2026-05-29T13:31:33.736347+05:30"},{"city":"Jodhpur","state":"Rajasthan","latitude":26.2389,"longitude":73.0243,"temp":38.5,"humidity":36,"rain":0.0,"pressure":977.8,"uv_index":8.4,"wind_gusts":49.7,"aqi":271,"pm10":450.8,"pm2_5":76.4,"no2":0.6,"co":124.0,"o3":90.0,"so2":2.4,"mosquito_risk":0,"arthritis_risk":5,"migraine_risk":10,"frizz_risk":1,"updated_at":"2026-05-29T13:31:33.736354+05:30"},{"city":"Udaipur","state":"Rajasthan","latitude":24.5854,"longitude":73.7125,"temp":36.0,"humidity":37,"rain":0.0,"pressure":943.8,"uv_index":8.8,"wind_gusts":52.2,"aqi":67,"pm10":52.4,"pm2_5":24.7,"no2":0.6,"co":121.0,"o3":93.0,"so2":3.6,"mosquito_risk":0,"arthritis_risk":5,"migraine_risk":10,"frizz_risk":1,"updated_at":"2026-05-29T13:31:33.736361+05:30"},{"city":"Kota","state":"Rajasthan","latitude":25.2138,"longitude":75.8648,"temp":41.2,"humidity":26,"rain":0.0,"pressure":974.2,"uv_index":8.4,"wind_gusts":45.0,"aqi":67,"pm10":74.5,"pm2_5":31.1,"no2":0.9,"co":131.0,"o3":114.0,"so2":6.3,"mosquito_risk":0,"arthritis_risk":5,"migraine_risk":10,"frizz_risk":1,"updated_at":"2026-05-29T13:31:33.736368+05:30"},{"city":"Bikaner","state":"Rajasthan","latitude":28.0229,"longitude":73.3119,"temp":42.0,"humidity":23,"rain":0.0,"pressure":975.5,"uv_index":8.4,"wind_gusts":72.4,"aqi":160,"pm10":240.3,"pm2_5":80.1,"no2":0.4,"co":148.0,"o3":96.0,"so2":4.1,"mosquito_risk":0,"arthritis_risk":5,"migraine_risk":10,"frizz_risk":1,"updated_at":"2026-05-29T13:31:33.736375+05:30"},{"city":"Ajmer","state":"Rajasthan","latitude":26.4499,"longitude":74.6399,"temp":36.8,"humidity":34,"rain":0.0,"pressure":950.9,"uv_index":8.35,"wind_gusts":70.9,"aqi":80,"pm10":58.1,"pm2_5":26.5,"no2":0.6,"co":127.0,"o3":100.0,"so2":3.3,"mosquito_risk":0,"arthritis_risk":5,"migraine_risk":10,"frizz_risk":1,"updated_at":"2026-05-29T13:31:33.736381+05:30"},{"city":"Gwalior","state":"Madhya Pradesh","latitude":26.2183,"longitude":78.1828,"temp":38.2,"humidity":34,"rain":0.0,"pressure":979.8,"uv_index":8.25,"wind_gusts":59.0,"aqi":151,"pm10":149.5,"pm2_5":45.6,"no2":1.1,"co":235.0,"o3":146.0,"so2":6.8,"mosquito_risk":0,"arthritis_risk":5,"migraine_risk":10,"frizz_risk":1,"updated_at":"2026-05-29T13:31:33.736386+05:30"},{"city":"Indore","state":"Madhya Pradesh","latitude":22.7196,"longitude":75.8577,"temp":37.5,"humidity":30,"rain":0.0,"pressure":946.6,"uv_index":8.6,"wind_gusts":52.2,"aqi":69,"pm10":64.7,"pm2_5":28.9,"no2":1.0,"co":155.0,"o3":104.0,"so2":4.9,"mosquito_risk":0,"arthritis_risk":5,"migraine_risk":10,"frizz_risk":1,"updated_at":"2026-05-29T13:31:33.736392+05:30"},{"city":"Bhopal","state":"Madhya Pradesh","latitude":23.2599,"longitude":77.4126,"temp":39.5,"humidity":24,"rain":0.0,"pressure":951.1,"uv_index":8.65,"wind_gusts":47.5,"aqi":64,"pm10":64.0,"pm2_5":28.3,"no2":0.7,"co":150.0,"o3":113.0,"so2":4.4,"mosquito_risk":0,"arthritis_risk":5,"migraine_risk":10,"frizz_risk":0,"updated_at":"2026-05-29T13:31:33.736398+05:30"},{"city":"Jabalpur","state":"Madhya Pradesh","latitude":23.1815,"longitude":79.9864,"temp":41.0,"humidity":21,"rain":0.0,"pressure":958.3,"uv_index":8.8,"wind_gusts":33.8,"aqi":75,"pm10":31.8,"pm2_5":15.6,"no2":0.8,"co":157.0,"o3":134.0,"so2":4.6,"mosquito_risk":0,"arthritis_risk":5,"migraine_risk":10,"frizz_risk":0,"updated_at":"2026-05-29T13:31:33.736403+05:30"},{"city":"Ujjain","state":"Madhya Pradesh","latitude":23.1765,"longitude":75.7885,"temp":38.0,"humidity":29,"rain":0.0,"pressure":951.8,"uv_index":8.55,"wind_gusts":51.8,"aqi":69,"pm10":63.1,"pm2_5":27.7,"no2":0.7,"co":132.0,"o3":98.0,"so2":4.2,"mosquito_risk":0,"arthritis_risk":5,"migraine_risk":10,"frizz_risk":1,"updated_at":"2026-05-29T13:31:33.736409+05:30"},{"city":"Visakhapatnam","state":"Andhra Pradesh","latitude":17.6868,"longitude":83.2185,"temp":37.8,"humidity":46,"rain":0.0,"pressure":998.6,"uv_index":9.0,"wind_gusts":49.0,"aqi":119,"pm10":51.6,"pm2_5":42.8,"no2":10.2,"co":379.0,"o3":226.0,"so2":46.5,"mosquito_risk":0,"arthritis_risk":5,"migraine_risk":10,"frizz_risk":1,"updated_at":"2026-05-29T13:31:33.736415+05:30"},{"city":"Vijayawada","state":"Andhra Pradesh","latitude":16.5062,"longitude":80.648,"temp":40.4,"humidity":36,"rain":0.0,"pressure":998.2,"uv_index":9.0,"wind_gusts":51.5,"aqi":90,"pm10":21.8,"pm2_5":17.0,"no2":1.5,"co":188.0,"o3":166.0,"so2":6.7,"mosquito_risk":0,"arthritis_risk":5,"migraine_risk":10,"frizz_risk":1,"updated_at":"2026-05-29T13:31:33.736421+05:30"},{"city":"Guntur","state":"Andhra Pradesh","latitude":16.3067,"longitude":80.4365,"temp":39.5,"humidity":36,"rain":0.0,"pressure":999.5,"uv_index":9.0,"wind_gusts":50.8,"aqi":85,"pm10":20.0,"pm2_5":15.0,"no2":1.3,"co":174.0,"o3":156.0,"so2":5.5,"mosquito_risk":0,"arthritis_risk":5,"migraine_risk":10,"frizz_risk":1,"updated_at":"2026-05-29T13:31:33.736426+05:30"},{"city":"Nellore","state":"Andhra Pradesh","latitude":14.4426,"longitude":79.9865,"temp":38.8,"humidity":37,"rain":0.0,"pressure":1002.5,"uv_index":8.95,"wind_gusts":50.0,"aqi":76,"pm10":19.4,"pm2_5":15.4,"no2":1.9,"co":157.0,"o3":146.0,"so2":7.0,"mosquito_risk":0,"arthritis_risk":5,"migraine_risk":7,"frizz_risk":1,"updated_at":"2026-05-29T13:31:33.736433+05:30"},{"city":"Kurnool","state":"Andhra Pradesh","latitude":15.8281,"longitude":78.0373,"temp":36.8,"humidity":42,"rain":0.0,"pressure":975.6,"uv_index":8.65,"wind_gusts":43.6,"aqi":56,"pm10":13.9,"pm2_5":10.3,"no2":1.3,"co":150.0,"o3":131.0,"so2":7.3,"mosquito_risk":0,"arthritis_risk":5,"migraine_risk":10,"frizz_risk":1,"updated_at":"2026-05-29T13:31:33.736439+05:30"},{"city":"Kakinada","state":"Andhra Pradesh","latitude":16.9891,"longitude":82.2475,"temp":40.5,"humidity":36,"rain":0.0,"pressure":1002.2,"uv_index":9.0,"wind_gusts":59.8,"aqi":112,"pm10":32.5,"pm2_5":25.9,"no2":2.3,"co":257.0,"o3":166.0,"so2":5.5,"mosquito_risk":0,"arthritis_risk":5,"migraine_risk":7,"frizz_risk":1,"updated_at":"2026-05-29T13:31:33.736445+05:30"},{"city":"Tirupati","state":"Andhra Pradesh","latitude":13.6288,"longitude":79.4192,"temp":38.5,"humidity":33,"rain":0.0,"pressure":988.6,"uv_index":8.8,"wind_gusts":35.6,"aqi":70,"pm10":26.4,"pm2_5":15.2,"no2":0.7,"co":156.0,"o3":133.0,"so2":3.2,"mosquito_risk":0,"arthritis_risk":5,"migraine_risk":10,"frizz_risk":1,"updated_at":"2026-05-29T13:31:33.736450+05:30"},{"city":"Warangal","state":"Telangana","latitude":17.9689,"longitude":79.5941,"temp":38.6,"humidity":31,"rain":0.0,"pressure":976.2,"uv_index":9.0,"wind_gusts":42.1,"aqi":71,"pm10":28.3,"pm2_5":18.7,"no2":1.1,"co":176.0,"o3":152.0,"so2":6.7,"mosquito_risk":0,"arthritis_risk":5,"migraine_risk":10,"frizz_risk":1,"updated_at":"2026-05-29T13:31:33.736456+05:30"},{"city":"Nizamabad","state":"Telangana","latitude":18.6725,"longitude":78.0941,"temp":38.0,"humidity":31,"rain":0.0,"pressure":963.6,"uv_index":8.95,"wind_gusts":38.9,"aqi":65,"pm10":28.8,"pm2_5":16.9,"no2":1.0,"co":158.0,"o3":141.0,"so2":5.4,"mosquito_risk":0,"arthritis_risk":5,"migraine_risk":10,"frizz_risk":1,"updated_at":"2026-05-29T13:31:33.736461+05:30"},{"city":"Mysore","state":"Karnataka","latitude":12.2958,"longitude":76.6396,"temp":32.3,"humidity":48,"rain":0.0,"pressure":929.7,"uv_index":8.3,"wind_gusts":47.5,"aqi":37,"pm10":9.6,"pm2_5":6.7,"no2":1.3,"co":144.0,"o3":116.0,"so2":1.6,"mosquito_risk":0,"arthritis_risk":5,"migraine_risk":7,"frizz_risk":1,"updated_at":"2026-05-29T13:31:33.736466+05:30"},{"city":"Mangalore","state":"Karnataka","latitude":12.9141,"longitude":74.856,"temp":30.4,"humidity":76,"rain":0.0,"pressure":1007.7,"uv_index":7.9,"wind_gusts":33.1,"aqi":43,"pm10":7.2,"pm2_5":4.8,"no2":1.2,"co":131.0,"o3":78.0,"so2":1.3,"mosquito_risk":3,"arthritis_risk":5,"migraine_risk":4,"frizz_risk":1,"updated_at":"2026-05-29T13:31:33.736472+05:30"},{"city":"Hubli-Dharwad","state":"Karnataka","latitude":15.3647,"longitude":75.124,"temp":34.2,"humidity":44,"rain":0.0,"pressure":941.8,"uv_index":8.5,"wind_gusts":43.6,"aqi":31,"pm10":16.6,"pm2_5":10.3,"no2":1.1,"co":138.0,"o3":96.0,"so2":1.1,"mosquito_risk":0,"arthritis_risk":5,"migraine_risk":7,"frizz_risk":1,"updated_at":"2026-05-29T13:31:33.736479+05:30"},{"city":"Belgaum","state":"Karnataka","latitude":15.8497,"longitude":74.4977,"temp":33.0,"humidity":43,"rain":0.0,"pressure":927.0,"uv_index":8.95,"wind_gusts":46.4,"aqi":29,"pm10":16.0,"pm2_5":10.5,"no2":1.0,"co":133.0,"o3":83.0,"so2":1.3,"mosquito_risk":0,"arthritis_risk":5,"migraine_risk":7,"frizz_risk":1,"updated_at":"2026-05-29T13:31:37.818872+05:30"},{"city":"Coimbatore","state":"Tamil Nadu","latitude":11.0168,"longitude":76.9558,"temp":34.9,"humidity":40,"rain":0.0,"pressure":961.8,"uv_index":8.05,"wind_gusts":58.0,"aqi":30,"pm10":8.5,"pm2_5":5.8,"no2":1.1,"co":165.0,"o3":91.0,"so2":1.7,"mosquito_risk":0,"arthritis_risk":5,"migraine_risk":7,"frizz_risk":1,"updated_at":"2026-05-29T13:31:37.818904+05:30"},{"city":"Madurai","state":"Tamil Nadu","latitude":9.9252,"longitude":78.1198,"temp":38.0,"humidity":37,"rain":0.0,"pressure":991.5,"uv_index":8.75,"wind_gusts":29.9,"aqi":68,"pm10":8.9,"pm2_5":7.0,"no2":1.5,"co":172.0,"o3":121.0,"so2":2.1,"mosquito_risk":0,"arthritis_risk":5,"migraine_risk":10,"frizz_risk":1,"updated_at":"2026-05-29T13:31:37.818913+05:30"},{"city":"Trichy","state":"Tamil Nadu","latitude":10.7905,"longitude":78.7047,"temp":37.8,"humidity":39,"rain":0.0,"pressure":997.9,"uv_index":8.05,"wind_gusts":37.1,"aqi":45,"pm10":9.7,"pm2_5":7.1,"no2":1.2,"co":139.0,"o3":118.0,"so2":2.4,"mosquito_risk":0,"arthritis_risk":5,"migraine_risk":10,"frizz_risk":1,"updated_at":"2026-05-29T13:31:37.818922+05:30"},{"city":"Salem","state":"Tamil Nadu","latitude":11.6643,"longitude":78.146,"temp":37.9,"humidity":33,"rain":0.0,"pressure":976.5,"uv_index":7.6,"wind_gusts":42.8,"aqi":56,"pm10":16.4,"pm2_5":12.3,"no2":2.1,"co":181.0,"o3":150.0,"so2":8.8,"mosquito_risk":0,"arthritis_risk":5,"migraine_risk":10,"frizz_risk":1,"updated_at":"2026-05-29T13:31:37.818930+05:30"},{"city":"Tirunelveli","state":"Tamil Nadu","latitude":8.7139,"longitude":77.7567,"temp":39.1,"humidity":35,"rain":0.0,"pressure":1001.8,"uv_index":8.65,"wind_gusts":41.4,"aqi":23,"pm10":4.4,"pm2_5":3.2,"no2":1.0,"co":114.0,"o3":64.0,"so2":0.7,"mosquito_risk":0,"arthritis_risk":5,"migraine_risk":7,"frizz_risk":1,"updated_at":"2026-05-29T13:31:37.818938+05:30"},{"city":"Vellore","state":"Tamil Nadu","latitude":12.9165,"longitude":79.1325,"temp":35.1,"humidity":48,"rain":0.0,"pressure":982.2,"uv_index":8.6,"wind_gusts":36.4,"aqi":66,"pm10":25.4,"pm2_5":14.8,"no2":0.6,"co":173.0,"o3":147.0,"so2":3.4,"mosquito_risk":0,"arthritis_risk":5,"migraine_risk":10,"frizz_risk":1,"updated_at":"2026-05-29T13:31:37.818945+05:30"},{"city":"Erode","state":"Tamil Nadu","latitude":11.341,"longitude":77.7172,"temp":37.5,"humidity":32,"rain":0.0,"pressure":987.9,"uv_index":8.05,"wind_gusts":54.7,"aqi":38,"pm10":11.0,"pm2_5":7.1,"no2":1.5,"co":167.0,"o3":119.0,"so2":1.8,"mosquito_risk":0,"arthritis_risk":5,"migraine_risk":10,"frizz_risk":1,"updated_at":"2026-05-29T13:31:37.818954+05:30"},{"city":"Kochi","state":"Kerala","latitude":9.9312,"longitude":76.2673,"temp":29.8,"humidity":76,"rain":0.0,"pressure":1010.1,"uv_index":8.05,"wind_gusts":33.8,"aqi":45,"pm10":7.0,"pm2_5":5.0,"no2":2.1,"co":105.0,"o3":69.0,"so2":2.3,"mosquito_risk":7,"arthritis_risk":0,"migraine_risk":4,"frizz_risk":1,"updated_at":"2026-05-29T13:31:37.818961+05:30"},{"city":"Thiruvananthapuram","state":"Kerala","latitude":8.5241,"longitude":76.9366,"temp":28.8,"humidity":79,"rain":0.1,"pressure":1010.0,"uv_index":7.8,"wind_gusts":38.2,"aqi":22,"pm10":8.1,"pm2_5":4.5,"no2":0.9,"co":97.0,"o3":52.0,"so2":0.7,"mosquito_risk":10,"arthritis_risk":0,"migraine_risk":4,"frizz_risk":1,"updated_at":"2026-05-29T13:31:37.818968+05:30"},{"city":"Kozhikode","state":"Kerala","latitude":11.2588,"longitude":75.7804,"temp":30.2,"humidity":75,"rain":0.1,"pressure":1008.9,"uv_index":7.6,"wind_gusts":38.2,"aqi":30,"pm10":6.4,"pm2_5":3.9,"no2":0.4,"co":107.0,"o3":68.0,"so2":0.7,"mosquito_risk":6,"arthritis_risk":0,"migraine_risk":4,"frizz_risk":1,"updated_at":"2026-05-29T13:31:37.818975+05:30"},{"city":"Thrissur","state":"Kerala","latitude":10.5276,"longitude":76.2144,"temp":29.2,"humidity":77,"rain":0.1,"pressure":1008.4,"uv_index":7.8,"wind_gusts":36.0,"aqi":43,"pm10":6.8,"pm2_5":5.3,"no2":1.3,"co":114.0,"o3":74.0,"so2":2.0,"mosquito_risk":10,"arthritis_risk":0,"migraine_risk":4,"frizz_risk":1,"updated_at":"2026-05-29T13:31:37.818984+05:30"},{"city":"Kannur","state":"Kerala","latitude":11.8745,"longitude":75.3704,"temp":30.8,"humidity":70,"rain":0.0,"pressure":1008.2,"uv_index":7.9,"wind_gusts":35.6,"aqi":33,"pm10":6.3,"pm2_5":4.2,"no2":1.2,"co":104.0,"o3":71.0,"so2":0.9,"mosquito_risk":3,"arthritis_risk":0,"migraine_risk":4,"frizz_risk":1,"updated_at":"2026-05-29T13:31:37.818991+05:30"},{"city":"Patna","state":"Bihar","latitude":25.5941,"longitude":85.1376,"temp":28.9,"humidity":71,"rain":0.0,"pressure":999.5,"uv_index":8.75,"wind_gusts":54.0,"aqi":110,"pm10":50.3,"pm2_5":36.9,"no2":2.0,"co":300.0,"o3":192.0,"so2":12.7,"mosquito_risk":7,"arthritis_risk":5,"migraine_risk":7,"frizz_risk":1,"updated_at":"2026-05-29T13:31:37.818998+05:30"},{"city":"Gaya","state":"Bihar","latitude":24.7914,"longitude":85.0002,"temp":32.0,"humidity":58,"rain":0.0,"pressure":991.7,"uv_index":8.85,"wind_gusts":40.3,"aqi":134,"pm10":61.0,"pm2_5":35.0,"no2":1.8,"co":301.0,"o3":179.0,"so2":12.9,"mosquito_risk":0,"arthritis_risk":5,"migraine_risk":7,"frizz_risk":1,"updated_at":"2026-05-29T13:31:37.819005+05:30"},{"city":"Muzaffarpur","state":"Bihar","latitude":26.1209,"longitude":85.3647,"temp":29.7,"humidity":72,"rain":0.0,"pressure":999.7,"uv_index":8.75,"wind_gusts":43.2,"aqi":106,"pm10":48.7,"pm2_5":33.3,"no2":1.8,"co":258.0,"o3":185.0,"so2":9.1,"mosquito_risk":7,"arthritis_risk":5,"migraine_risk":7,"frizz_risk":1,"updated_at":"2026-05-29T13:31:37.819012+05:30"},{"city":"Bhagalpur","state":"Bihar","latitude":25.2425,"longitude":87.0117,"temp":27.0,"humidity":92,"rain":0.5,"pressure":999.3,"uv_index":8.7,"wind_gusts":34.9,"aqi":116,"pm10":58.6,"pm2_5":37.6,"no2":2.7,"co":263.0,"o3":192.0,"so2":17.1,"mosquito_risk":10,"arthritis_risk":5,"migraine_risk":7,"frizz_risk":1,"updated_at":"2026-05-29T13:31:37.819020+05:30"},{"city":"Ranchi","state":"Jharkhand","latitude":23.3441,"longitude":85.3096,"temp":29.0,"humidity":54,"rain":0.0,"pressure":936.8,"uv_index":9.2,"wind_gusts":50.4,"aqi":97,"pm10":61.9,"pm2_5":36.4,"no2":1.5,"co":434.0,"o3":174.0,"so2":13.1,"mosquito_risk":4,"arthritis_risk":5,"migraine_risk":7,"frizz_risk":1,"updated_at":"2026-05-29T13:31:37.819027+05:30"},{"city":"Jamshedpur","state":"Jharkhand","latitude":22.8046,"longitude":86.2029,"temp":28.6,"humidity":81,"rain":0.0,"pressure":989.3,"uv_index":9.05,"wind_gusts":55.4,"aqi":95,"pm10":69.2,"pm2_5":32.5,"no2":1.7,"co":254.0,"o3":154.0,"so2":10.2,"mosquito_risk":7,"arthritis_risk":5,"migraine_risk":7,"frizz_risk":1,"updated_at":"2026-05-29T13:31:37.819034+05:30"},{"city":"Dhanbad","state":"Jharkhand","latitude":23.7957,"longitude":86.4304,"temp":26.8,"humidity":80,"rain":0.0,"pressure":978.5,"uv_index":9.0,"wind_gusts":36.7,"aqi":147,"pm10":69.2,"pm2_5":47.8,"no2":13.2,"co":311.0,"o3":159.0,"so2":49.8,"mosquito_risk":7,"arthritis_risk":5,"migraine_risk":7,"frizz_risk":1,"updated_at":"2026-05-29T13:31:37.819041+05:30"},{"city":"Bokaro","state":"Jharkhand","latitude":23.6693,"longitude":86.1511,"temp":27.6,"humidity":78,"rain":0.0,"pressure":982.4,"uv_index":9.0,"wind_gusts":36.0,"aqi":150,"pm10":76.6,"pm2_5":50.3,"no2":17.1,"co":296.0,"o3":161.0,"so2":65.2,"mosquito_risk":7,"arthritis_risk":5,"migraine_risk":7,"frizz_risk":1,"updated_at":"2026-05-29T13:31:37.819048+05:30"},{"city":"Bhubaneswar","state":"Odisha","latitude":20.2961,"longitude":85.8245,"temp":28.5,"humidity":90,"rain":0.1,"pressure":1001.2,"uv_index":9.05,"wind_gusts":32.4,"aqi":92,"pm10":50.5,"pm2_5":38.3,"no2":1.7,"co":229.0,"o3":138.0,"so2":7.2,"mosquito_risk":10,"arthritis_risk":5,"migraine_risk":4,"frizz_risk":1,"updated_at":"2026-05-29T13:31:37.819054+05:30"},{"city":"Cuttack","state":"Odisha","latitude":20.4625,"longitude":85.8828,"temp":29.0,"humidity":93,"rain":0.5,"pressure":1002.6,"uv_index":9.1,"wind_gusts":30.6,"aqi":92,"pm10":50.5,"pm2_5":38.3,"no2":1.7,"co":225.0,"o3":138.0,"so2":7.2,"mosquito_risk":10,"arthritis_risk":5,"migraine_risk":4,"frizz_risk":1,"updated_at":"2026-05-29T13:31:37.819060+05:30"},{"city":"Rourkela","state":"Odisha","latitude":22.2604,"longitude":84.8536,"temp":31.9,"humidity":57,"rain":0.0,"pressure":983.5,"uv_index":8.95,"wind_gusts":46.1,"aqi":109,"pm10":72.2,"pm2_5":50.8,"no2":2.0,"co":318.0,"o3":230.0,"so2":22.4,"mosquito_risk":0,"arthritis_risk":5,"migraine_risk":7,"frizz_risk":1,"updated_at":"2026-05-29T13:31:37.819066+05:30"},{"city":"Raipur","state":"Chhattisgarh","latitude":21.2514,"longitude":81.6296,"temp":42.7,"humidity":19,"rain":0.0,"pressure":970.2,"uv_index":8.9,"wind_gusts":36.7,"aqi":92,"pm10":51.5,"pm2_5":26.9,"no2":4.7,"co":144.0,"o3":173.0,"so2":26.9,"mosquito_risk":0,"arthritis_risk":5,"migraine_risk":10,"frizz_risk":0,"updated_at":"2026-05-29T13:31:37.819071+05:30"},{"city":"Bhilai","state":"Chhattisgarh","latitude":21.1938,"longitude":81.3509,"temp":41.0,"humidity":24,"rain":0.0,"pressure":970.7,"uv_index":8.9,"wind_gusts":51.8,"aqi":85,"pm10":36.4,"pm2_5":22.2,"no2":5.0,"co":192.0,"o3":154.0,"so2":23.3,"mosquito_risk":0,"arthritis_risk":5,"migraine_risk":10,"frizz_risk":1,"updated_at":"2026-05-29T13:31:37.819077+05:30"},{"city":"Guwahati","state":"Assam","latitude":26.1158,"longitude":91.7086,"temp":32.8,"humidity":53,"rain":0.0,"pressure":1000.1,"uv_index":8.7,"wind_gusts":27.7,"aqi":120,"pm10":57.9,"pm2_5":34.8,"no2":1.1,"co":303.0,"o3":147.0,"so2":3.2,"mosquito_risk":0,"arthritis_risk":5,"migraine_risk":4,"frizz_risk":1,"updated_at":"2026-05-29T13:31:37.819082+05:30"},{"city":"Agartala","state":"Tripura","latitude":23.8315,"longitude":91.2868,"temp":32.8,"humidity":63,"rain":0.0,"pressure":1004.4,"uv_index":8.8,"wind_gusts":18.0,"aqi":94,"pm10":32.7,"pm2_5":20.0,"no2":2.7,"co":200.0,"o3":181.0,"so2":2.0,"mosquito_risk":3,"arthritis_risk":5,"migraine_risk":4,"frizz_risk":1,"updated_at":"2026-05-29T13:31:37.819088+05:30"},{"city":"Shillong","state":"Meghalaya","latitude":25.5788,"longitude":91.8933,"temp":23.0,"humidity":64,"rain":0.1,"pressure":858.8,"uv_index":9.1,"wind_gusts":25.9,"aqi":79,"pm10":62.9,"pm2_5":28.5,"no2":0.5,"co":201.0,"o3":141.0,"so2":3.7,"mosquito_risk":6,"arthritis_risk":5,"migraine_risk":7,"frizz_risk":0,"updated_at":"2026-05-29T13:31:37.819094+05:30"},{"city":"Imphal","state":"Manipur","latitude":24.817,"longitude":93.9368,"temp":30.0,"humidity":44,"rain":0.0,"pressure":922.8,"uv_index":9.25,"wind_gusts":19.8,"aqi":125,"pm10":85.4,"pm2_5":29.4,"no2":0.1,"co":184.0,"o3":131.0,"so2":3.2,"mosquito_risk":4,"arthritis_risk":5,"migraine_risk":7,"frizz_risk":1,"updated_at":"2026-05-29T13:31:37.819100+05:30"},{"city":"Aizawl","state":"Mizoram","latitude":23.7271,"longitude":92.7176,"temp":28.9,"humidity":44,"rain":0.0,"pressure":892.5,"uv_index":9.05,"wind_gusts":27.0,"aqi":74,"pm10":59.0,"pm2_5":21.5,"no2":0.3,"co":178.0,"o3":120.0,"so2":2.7,"mosquito_risk":4,"arthritis_risk":5,"migraine_risk":7,"frizz_risk":0,"updated_at":"2026-05-29T13:31:37.819106+05:30"},{"city":"Kohima","state":"Nagaland","latitude":25.6701,"longitude":94.1077,"temp":24.0,"humidity":75,"rain":0.1,"pressure":856.4,"uv_index":8.7,"wind_gusts":28.4,"aqi":102,"pm10":62.6,"pm2_5":25.8,"no2":0.5,"co":208.0,"o3":126.0,"so2":2.3,"mosquito_risk":6,"arthritis_risk":5,"migraine_risk":7,"frizz_risk":1,"updated_at":"2026-05-29T13:31:37.819112+05:30"},{"city":"Gangtok","state":"Sikkim","latitude":27.3314,"longitude":88.6138,"temp":21.4,"humidity":54,"rain":0.1,"pressure":840.9,"uv_index":9.0,"wind_gusts":34.9,"aqi":61,"pm10":29.7,"pm2_5":19.3,"no2":0.7,"co":236.0,"o3":133.0,"so2":1.5,"mosquito_risk":3,"arthritis_risk":5,"migraine_risk":7,"frizz_risk":0,"updated_at":"2026-05-29T13:31:37.819118+05:30"},{"city":"Siliguri","state":"West Bengal","latitude":26.7271,"longitude":88.3953,"temp":33.0,"humidity":47,"rain":0.1,"pressure":993.1,"uv_index":8.7,"wind_gusts":29.9,"aqi":122,"pm10":50.1,"pm2_5":31.2,"no2":1.2,"co":297.0,"o3":144.0,"so2":2.4,"mosquito_risk":3,"arthritis_risk":5,"migraine_risk":7,"frizz_risk":1,"updated_at":"2026-05-29T13:31:42.040861+05:30"},{"city":"Durgapur","state":"West Bengal","latitude":23.5204,"longitude":87.3119,"temp":24.8,"humidity":97,"rain":0.3,"pressure":993.7,"uv_index":8.95,"wind_gusts":50.0,"aqi":151,"pm10":56.1,"pm2_5":41.7,"no2":9.2,"co":320.0,"o3":162.0,"so2":31.6,"mosquito_risk":6,"arthritis_risk":5,"migraine_risk":7,"frizz_risk":1,"updated_at":"2026-05-29T13:31:42.040892+05:30"},{"city":"Asansol","state":"West Bengal","latitude":23.6739,"longitude":86.9524,"temp":25.8,"humidity":96,"rain":0.6,"pressure":990.9,"uv_index":8.95,"wind_gusts":38.2,"aqi":144,"pm10":59.1,"pm2_5":45.1,"no2":9.8,"co":325.0,"o3":164.0,"so2":35.2,"mosquito_risk":10,"arthritis_risk":5,"migraine_risk":7,"frizz_risk":1,"updated_at":"2026-05-29T13:31:42.040901+05:30"},{"city":"Pondicherry","state":"Puducherry","latitude":11.9139,"longitude":79.8145,"temp":35.9,"humidity":48,"rain":0.0,"pressure":1006.0,"uv_index":8.8,"wind_gusts":42.1,"aqi":69,"pm10":32.5,"pm2_5":27.0,"no2":5.0,"co":239.0,"o3":190.0,"so2":14.0,"mosquito_risk":0,"arthritis_risk":5,"migraine_risk":7,"frizz_risk":1,"updated_at":"2026-05-29T13:31:42.040909+05:30"},{"city":"Port Blair","state":"Andaman and Nicobar Islands","latitude":11.6234,"longitude":92.7265,"temp":30.7,"humidity":72,"rain":0.0,"pressure":1005.6,"uv_index":8.85,"wind_gusts":41.0,"aqi":42,"pm10":7.9,"pm2_5":4.0,"no2":0.3,"co":123.0,"o3":88.0,"so2":0.4,"mosquito_risk":3,"arthritis_risk":5,"migraine_risk":4,"frizz_risk":1,"updated_at":"2026-05-29T13:31:42.040917+05:30"},{"city":"Haridwar","state":"Uttarakhand","latitude":29.9457,"longitude":78.1642,"temp":33.1,"humidity":44,"rain":0.0,"pressure":973.0,"uv_index":7.5,"wind_gusts":46.8,"aqi":113,"pm10":78.5,"pm2_5":27.3,"no2":1.1,"co":258.0,"o3":163.0,"so2":6.4,"mosquito_risk":0,"arthritis_risk":5,"migraine_risk":7,"frizz_risk":1,"updated_at":"2026-05-29T13:31:42.040924+05:30"},{"city":"Rishikesh","state":"Uttarakhand","latitude":30.0869,"longitude":78.2676,"temp":33.5,"humidity":36,"rain":0.0,"pressure":965.8,"uv_index":7.6,"wind_gusts":38.2,"aqi":134,"pm10":82.0,"pm2_5":28.1,"no2":0.9,"co":260.0,"o3":162.0,"so2":5.4,"mosquito_risk":0,"arthritis_risk":5,"migraine_risk":7,"frizz_risk":1,"updated_at":"2026-05-29T13:31:42.040931+05:30"},{"city":"Nainital","state":"Uttarakhand","latitude":29.3919,"longitude":79.4542,"temp":20.0,"humidity":59,"rain":0.0,"pressure":807.7,"uv_index":8.4,"wind_gusts":37.4,"aqi":105,"pm10":55.5,"pm2_5":23.1,"no2":0.7,"co":327.0,"o3":151.0,"so2":3.6,"mosquito_risk":0,"arthritis_risk":5,"migraine_risk":7,"frizz_risk":0,"updated_at":"2026-05-29T13:31:42.040937+05:30"},{"city":"Mussoorie","state":"Uttarakhand","latitude":30.4599,"longitude":78.0664,"temp":18.2,"humidity":62,"rain":0.1,"pressure":804.6,"uv_index":8.05,"wind_gusts":34.6,"aqi":115,"pm10":109.7,"pm2_5":33.3,"no2":1.5,"co":263.0,"o3":166.0,"so2":6.3,"mosquito_risk":6,"arthritis_risk":5,"migraine_risk":7,"frizz_risk":0,"updated_at":"2026-05-29T13:31:42.040944+05:30"},{"city":"Dharamshala","state":"Himachal Pradesh","latitude":32.219,"longitude":76.3234,"temp":22.1,"humidity":60,"rain":0.1,"pressure":869.2,"uv_index":8.45,"wind_gusts":33.8,"aqi":85,"pm10":56.5,"pm2_5":18.6,"no2":1.1,"co":245.0,"o3":159.0,"so2":4.3,"mosquito_risk":3,"arthritis_risk":5,"migraine_risk":7,"frizz_risk":0,"updated_at":"2026-05-29T13:31:42.040950+05:30"},{"city":"Dalhousie","state":"Himachal Pradesh","latitude":32.5387,"longitude":75.971,"temp":18.7,"humidity":64,"rain":0.2,"pressure":805.7,"uv_index":8.65,"wind_gusts":34.2,"aqi":96,"pm10":160.7,"pm2_5":46.6,"no2":1.5,"co":294.0,"o3":195.0,"so2":12.3,"mosquito_risk":6,"arthritis_risk":5,"migraine_risk":7,"frizz_risk":0,"updated_at":"2026-05-29T13:31:42.040956+05:30"},{"city":"Patiala","state":"Punjab","latitude":30.3398,"longitude":76.3869,"temp":35.5,"humidity":38,"rain":0.0,"pressure":975.0,"uv_index":7.6,"wind_gusts":51.5,"aqi":1289,"pm10":748.8,"pm2_5":112.9,"no2":1.8,"co":260.0,"o3":181.0,"so2":10.4,"mosquito_risk":0,"arthritis_risk":5,"migraine_risk":10,"frizz_risk":1,"updated_at":"2026-05-29T13:31:42.040963+05:30"},{"city":"Bhatinda","state":"Punjab","latitude":30.211,"longitude":74.9455,"temp":38.8,"humidity":31,"rain":0.0,"pressure":978.7,"uv_index":8.25,"wind_gusts":54.0,"aqi":722,"pm10":1553.4,"pm2_5":265.4,"no2":2.1,"co":285.0,"o3":181.0,"so2":14.6,"mosquito_risk":0,"arthritis_risk":5,"migraine_risk":10,"frizz_risk":1,"updated_at":"2026-05-29T13:31:42.040969+05:30"},{"city":"Rohtak","state":"Haryana","latitude":28.8955,"longitude":76.6066,"temp":36.2,"humidity":42,"rain":0.0,"pressure":978.1,"uv_index":7.7,"wind_gusts":40.0,"aqi":1011,"pm10":1408.2,"pm2_5":200.7,"no2":3.8,"co":294.0,"o3":209.0,"so2":17.3,"mosquito_risk":0,"arthritis_risk":5,"migraine_risk":10,"frizz_risk":1,"updated_at":"2026-05-29T13:31:42.040974+05:30"},{"city":"Panipat","state":"Haryana","latitude":29.3909,"longitude":76.9635,"temp":34.8,"humidity":44,"rain":0.0,"pressure":977.5,"uv_index":7.6,"wind_gusts":47.2,"aqi":1886,"pm10":2972.8,"pm2_5":333.4,"no2":3.3,"co":282.0,"o3":206.0,"so2":17.7,"mosquito_risk":0,"arthritis_risk":5,"migraine_risk":7,"frizz_risk":1,"updated_at":"2026-05-29T13:31:42.040980+05:30"},{"city":"Mathura","state":"Uttar Pradesh","latitude":27.4924,"longitude":77.6737,"temp":36.7,"humidity":40,"rain":0.0,"pressure":983.5,"uv_index":7.95,"wind_gusts":55.1,"aqi":800,"pm10":715.3,"pm2_5":135.5,"no2":2.4,"co":293.0,"o3":177.0,"so2":9.0,"mosquito_risk":0,"arthritis_risk":5,"migraine_risk":10,"frizz_risk":1,"updated_at":"2026-05-29T13:31:42.040986+05:30"},{"city":"Vrindavan","state":"Uttar Pradesh","latitude":27.5823,"longitude":77.7027,"temp":36.3,"humidity":42,"rain":0.0,"pressure":983.9,"uv_index":7.95,"wind_gusts":54.4,"aqi":800,"pm10":715.3,"pm2_5":135.5,"no2":2.4,"co":295.0,"o3":177.0,"so2":9.0,"mosquito_risk":0,"arthritis_risk":5,"migraine_risk":10,"frizz_risk":1,"updated_at":"2026-05-29T13:31:42.040991+05:30"},{"city":"Ayodhya","state":"Uttar Pradesh","latitude":26.7922,"longitude":82.1998,"temp":31.2,"humidity":58,"rain":0.0,"pressure":994.5,"uv_index":8.3,"wind_gusts":45.0,"aqi":94,"pm10":65.2,"pm2_5":45.8,"no2":1.6,"co":351.0,"o3":181.0,"so2":13.0,"mosquito_risk":0,"arthritis_risk":5,"migraine_risk":7,"frizz_risk":1,"updated_at":"2026-05-29T13:31:42.040997+05:30"},{"city":"Ratlam","state":"Madhya Pradesh","latitude":23.3315,"longitude":75.0367,"temp":37.3,"humidity":33,"rain":0.0,"pressure":952.9,"uv_index":8.5,"wind_gusts":53.3,"aqi":70,"pm10":61.2,"pm2_5":27.0,"no2":0.6,"co":129.0,"o3":98.0,"so2":4.0,"mosquito_risk":0,"arthritis_risk":5,"migraine_risk":10,"frizz_risk":1,"updated_at":"2026-05-29T13:31:42.041003+05:30"},{"city":"Sagar","state":"Madhya Pradesh","latitude":23.8388,"longitude":78.7378,"temp":39.6,"humidity":21,"rain":0.0,"pressure":947.8,"uv_index":8.7,"wind_gusts":35.6,"aqi":65,"pm10":38.4,"pm2_5":19.9,"no2":0.7,"co":143.0,"o3":124.0,"so2":4.9,"mosquito_risk":0,"arthritis_risk":5,"migraine_risk":10,"frizz_risk":0,"updated_at":"2026-05-29T13:31:42.041009+05:30"},{"city":"Satna","state":"Madhya Pradesh","latitude":24.6005,"longitude":80.8322,"temp":37.8,"humidity":28,"rain":0.0,"pressure":968.8,"uv_index":8.75,"wind_gusts":32.0,"aqi":117,"pm10":58.2,"pm2_5":37.3,"no2":1.5,"co":277.0,"o3":186.0,"so2":16.0,"mosquito_risk":0,"arthritis_risk":5,"migraine_risk":10,"frizz_risk":1,"updated_at":"2026-05-29T13:31:42.041015+05:30"},{"city":"Akola","state":"Maharashtra","latitude":20.7002,"longitude":77.0082,"temp":40.0,"humidity":23,"rain":0.0,"pressure":973.3,"uv_index":8.8,"wind_gusts":49.3,"aqi":61,"pm10":46.2,"pm2_5":21.5,"no2":1.2,"co":132.0,"o3":109.0,"so2":5.2,"mosquito_risk":0,"arthritis_risk":5,"migraine_risk":10,"frizz_risk":0,"updated_at":"2026-05-29T13:31:42.041021+05:30"},{"city":"Amravati","state":"Maharashtra","latitude":20.9374,"longitude":77.7796,"temp":41.0,"humidity":22,"rain":0.0,"pressure":965.1,"uv_index":8.8,"wind_gusts":46.4,"aqi":62,"pm10":44.7,"pm2_5":21.7,"no2":1.4,"co":132.0,"o3":112.0,"so2":5.8,"mosquito_risk":0,"arthritis_risk":5,"migraine_risk":10,"frizz_risk":0,"updated_at":"2026-05-29T13:31:42.041029+05:30"},{"city":"Latur","state":"Maharashtra","latitude":18.4088,"longitude":76.5604,"temp":37.3,"humidity":28,"rain":0.0,"pressure":939.8,"uv_index":8.95,"wind_gusts":37.8,"aqi":52,"pm10":13.0,"pm2_5":7.9,"no2":0.8,"co":133.0,"o3":115.0,"so2":2.0,"mosquito_risk":0,"arthritis_risk":5,"migraine_risk":10,"frizz_risk":0,"updated_at":"2026-05-29T13:31:42.041034+05:30"},{"city":"Nanded","state":"Maharashtra","latitude":19.1383,"longitude":77.3091,"temp":39.3,"humidity":29,"rain":0.0,"pressure":967.3,"uv_index":8.9,"wind_gusts":39.2,"aqi":61,"pm10":29.1,"pm2_5":16.9,"no2":1.2,"co":152.0,"o3":139.0,"so2":5.3,"mosquito_risk":0,"arthritis_risk":5,"migraine_risk":10,"frizz_risk":1,"updated_at":"2026-05-29T13:31:42.041040+05:30"},{"city":"Gulbarga","state":"Karnataka","latitude":17.3297,"longitude":76.8343,"temp":37.5,"humidity":33,"rain":0.0,"pressure":958.0,"uv_index":8.95,"wind_gusts":40.3,"aqi":41,"pm10":12.2,"pm2_5":7.6,"no2":1.3,"co":147.0,"o3":119.0,"so2":2.3,"mosquito_risk":0,"arthritis_risk":5,"migraine_risk":10,"frizz_risk":1,"updated_at":"2026-05-29T13:31:42.041046+05:30"},{"city":"Bidar","state":"Karnataka","latitude":17.9104,"longitude":77.5199,"temp":36.5,"humidity":30,"rain":0.0,"pressure":935.5,"uv_index":9.0,"wind_gusts":40.0,"aqi":58,"pm10":14.5,"pm2_5":10.4,"no2":1.2,"co":146.0,"o3":141.0,"so2":4.4,"mosquito_risk":0,"arthritis_risk":5,"migraine_risk":10,"frizz_risk":1,"updated_at":"2026-05-29T13:31:42.041052+05:30"},{"city":"Hospet","state":"Karnataka","latitude":15.2689,"longitude":76.3909,"temp":34.0,"humidity":49,"rain":0.0,"pressure":955.8,"uv_index":8.15,"wind_gusts":45.7,"aqi":45,"pm10":17.3,"pm2_5":10.8,"no2":1.2,"co":147.0,"o3":108.0,"so2":2.1,"mosquito_risk":0,"arthritis_risk":5,"migraine_risk":7,"frizz_risk":1,"updated_at":"2026-05-29T13:31:42.041058+05:30"},{"city":"Tirupur","state":"Tamil Nadu","latitude":11.1085,"longitude":77.3411,"temp":38.3,"humidity":32,"rain":0.0,"pressure":974.4,"uv_index":7.7,"wind_gusts":62.3,"aqi":39,"pm10":10.2,"pm2_5":6.9,"no2":1.6,"co":157.0,"o3":110.0,"so2":2.1,"mosquito_risk":0,"arthritis_risk":5,"migraine_risk":10,"frizz_risk":1,"updated_at":"2026-05-29T13:31:42.041064+05:30"},{"city":"Alappuzha","state":"Kerala","latitude":9.4981,"longitude":76.3388,"temp":29.3,"humidity":78,"rain":0.0,"pressure":1010.4,"uv_index":8.15,"wind_gusts":38.2,"aqi":33,"pm10":5.5,"pm2_5":3.9,"no2":1.6,"co":98.0,"o3":60.0,"so2":1.4,"mosquito_risk":7,"arthritis_risk":0,"migraine_risk":4,"frizz_risk":1,"updated_at":"2026-05-29T13:31:42.041070+05:30"},{"city":"Munnar","state":"Kerala","latitude":10.0889,"longitude":77.0595,"temp":21.0,"humidity":82,"rain":0.0,"pressure":859.0,"uv_index":5.1,"wind_gusts":28.4,"aqi":26,"pm10":5.8,"pm2_5":4.2,"no2":1.3,"co":112.0,"o3":77.0,"so2":1.1,"mosquito_risk":3,"arthritis_risk":5,"migraine_risk":3,"frizz_risk":1,"updated_at":"2026-05-29T13:31:42.041076+05:30"},{"city":"Silchar","state":"Assam","latitude":24.8333,"longitude":92.7789,"temp":34.8,"humidity":46,"rain":0.0,"pressure":1001.8,"uv_index":8.9,"wind_gusts":20.5,"aqi":146,"pm10":72.4,"pm2_5":35.9,"no2":1.2,"co":276.0,"o3":148.0,"so2":5.7,"mosquito_risk":0,"arthritis_risk":5,"migraine_risk":4,"frizz_risk":1,"updated_at":"2026-05-29T13:31:42.041081+05:30"},{"city":"Dibrugarh","state":"Assam","latitude":27.4728,"longitude":94.912,"temp":32.8,"humidity":54,"rain":0.0,"pressure":992.8,"uv_index":8.85,"wind_gusts":13.0,"aqi":130,"pm10":64.3,"pm2_5":32.2,"no2":0.9,"co":243.0,"o3":149.0,"so2":2.3,"mosquito_risk":0,"arthritis_risk":5,"migraine_risk":7,"frizz_risk":1,"updated_at":"2026-05-29T13:31:42.041087+05:30"}]