[{"city":"Delhi","state":"Delhi","latitude":28.6139,"longitude":77.209,"temp":27.7,"humidity":39,"rain":0.0,"pressure":986.3,"uv_index":5.8,"wind_gusts":29.2,"aqi":417,"pm10":303.6,"pm2_5":68.7,"mosquito_risk":4,"arthritis_risk":5,"migraine_risk":3,"frizz_risk":0,"updated_at":"2026-03-14T11:19:30.508936+05:30"},{"city":"Mumbai","state":"Maharashtra","latitude":19.076,"longitude":72.8777,"temp":28.7,"humidity":73,"rain":0.0,"pressure":1011.1,"uv_index":7.7,"wind_gusts":18.0,"aqi":125,"pm10":64.0,"pm2_5":52.2,"mosquito_risk":7,"arthritis_risk":0,"migraine_risk":4,"frizz_risk":1,"updated_at":"2026-03-14T11:19:30.508978+05:30"},{"city":"Bangalore","state":"Karnataka","latitude":12.9716,"longitude":77.5946,"temp":30.0,"humidity":28,"rain":0.0,"pressure":915.7,"uv_index":9.3,"wind_gusts":32.8,"aqi":104,"pm10":44.0,"pm2_5":34.8,"mosquito_risk":4,"arthritis_risk":5,"migraine_risk":7,"frizz_risk":0,"updated_at":"2026-03-14T11:19:30.508994+05:30"},{"city":"Hyderabad","state":"Telangana","latitude":17.385,"longitude":78.4867,"temp":34.2,"humidity":25,"rain":0.0,"pressure":957.0,"uv_index":8.7,"wind_gusts":30.2,"aqi":103,"pm10":41.4,"pm2_5":29.7,"mosquito_risk":0,"arthritis_risk":5,"migraine_risk":7,"frizz_risk":0,"updated_at":"2026-03-14T11:19:30.509004+05:30"},{"city":"Chennai","state":"Tamil Nadu","latitude":13.0827,"longitude":80.2707,"temp":32.2,"humidity":53,"rain":0.0,"pressure":1011.8,"uv_index":9.05,"wind_gusts":31.3,"aqi":58,"pm10":18.0,"pm2_5":14.2,"mosquito_risk":0,"arthritis_risk":0,"migraine_risk":4,"frizz_risk":1,"updated_at":"2026-03-14T11:19:30.509013+05:30"},{"city":"Kolkata","state":"West Bengal","latitude":22.5726,"longitude":88.3639,"temp":31.2,"humidity":62,"rain":0.0,"pressure":1009.4,"uv_index":8.1,"wind_gusts":33.8,"aqi":90,"pm10":30.2,"pm2_5":22.1,"mosquito_risk":3,"arthritis_risk":0,"migraine_risk":4,"frizz_risk":1,"updated_at":"2026-03-14T11:19:30.509022+05:30"},{"city":"Pune","state":"Maharashtra","latitude":18.5204,"longitude":73.8567,"temp":35.1,"humidity":19,"rain":0.0,"pressure":952.1,"uv_index":8.25,"wind_gusts":47.2,"aqi":102,"pm10":44.1,"pm2_5":33.1,"mosquito_risk":0,"arthritis_risk":5,"migraine_risk":10,"frizz_risk":0,"updated_at":"2026-03-14T11:19:30.509034+05:30"},{"city":"Ahmedabad","state":"Gujarat","latitude":23.0225,"longitude":72.5714,"temp":32.1,"humidity":35,"rain":0.0,"pressure":1005.4,"uv_index":7.5,"wind_gusts":24.1,"aqi":82,"pm10":109.0,"pm2_5":39.0,"mosquito_risk":0,"arthritis_risk":5,"migraine_risk":4,"frizz_risk":0,"updated_at":"2026-03-14T11:19:30.509042+05:30"},{"city":"Jaipur","state":"Rajasthan","latitude":26.9124,"longitude":75.7873,"temp":31.3,"humidity":22,"rain":0.0,"pressure":963.2,"uv_index":6.95,"wind_gusts":31.0,"aqi":140,"pm10":158.8,"pm2_5":38.8,"mosquito_risk":0,"arthritis_risk":5,"migraine_risk":7,"frizz_risk":0,"updated_at":"2026-03-14T11:19:30.509049+05:30"},{"city":"Lucknow","state":"Uttar Pradesh","latitude":26.8467,"longitude":80.9462,"temp":28.8,"humidity":46,"rain":0.0,"pressure":996.6,"uv_index":6.7,"wind_gusts":25.2,"aqi":170,"pm10":373.5,"pm2_5":90.3,"mosquito_risk":4,"arthritis_risk":5,"migraine_risk":7,"frizz_risk":0,"updated_at":"2026-03-14T11:19:30.509056+05:30"},{"city":"Kanpur","state":"Uttar Pradesh","latitude":26.4499,"longitude":80.3319,"temp":28.7,"humidity":50,"rain":0.0,"pressure":995.1,"uv_index":6.65,"wind_gusts":19.4,"aqi":356,"pm10":583.0,"pm2_5":109.7,"mosquito_risk":4,"arthritis_risk":5,"migraine_risk":7,"frizz_risk":1,"updated_at":"2026-03-14T11:19:30.509063+05:30"},{"city":"Chandigarh","state":"Chandigarh","latitude":30.7333,"longitude":76.7794,"temp":23.5,"humidity":62,"rain":0.0,"pressure":971.1,"uv_index":5.25,"wind_gusts":19.4,"aqi":72,"pm10":25.0,"pm2_5":20.6,"mosquito_risk":3,"arthritis_risk":5,"migraine_risk":3,"frizz_risk":0,"updated_at":"2026-03-14T11:19:30.509071+05:30"},{"city":"Srinagar","state":"Jammu and Kashmir","latitude":34.0837,"longitude":74.7973,"temp":13.7,"humidity":48,"rain":0.0,"pressure":844.1,"uv_index":5.6,"wind_gusts":14.8,"aqi":92,"pm10":34.8,"pm2_5":21.7,"mosquito_risk":0,"arthritis_risk":5,"migraine_risk":3,"frizz_risk":0,"updated_at":"2026-03-14T11:19:30.509078+05:30"},{"city":"Jammu","state":"Jammu and Kashmir","latitude":32.7266,"longitude":74.857,"temp":25.6,"humidity":51,"rain":0.0,"pressure":974.7,"uv_index":6.45,"wind_gusts":20.5,"aqi":76,"pm10":40.3,"pm2_5":29.4,"mosquito_risk":4,"arthritis_risk":5,"migraine_risk":7,"frizz_risk":0,"updated_at":"2026-03-14T11:19:30.509085+05:30"},{"city":"Amritsar","state":"Punjab","latitude":31.634,"longitude":74.8723,"temp":23.4,"humidity":58,"rain":0.0,"pressure":983.6,"uv_index":4.85,"wind_gusts":17.3,"aqi":74,"pm10":22.2,"pm2_5":22.0,"mosquito_risk":0,"arthritis_risk":5,"migraine_risk":3,"frizz_risk":0,"updated_at":"2026-03-14T11:19:30.509092+05:30"},{"city":"Ludhiana","state":"Punjab","latitude":30.901,"longitude":75.8573,"temp":25.0,"humidity":47,"rain":0.0,"pressure":981.6,"uv_index":5.25,"wind_gusts":23.0,"aqi":87,"pm10":42.7,"pm2_5":35.2,"mosquito_risk":4,"arthritis_risk":5,"migraine_risk":3,"frizz_risk":0,"updated_at":"2026-03-14T11:19:30.509098+05:30"},{"city":"Jalandhar","state":"Punjab","latitude":31.326,"longitude":75.5762,"temp":26.0,"humidity":46,"rain":0.0,"pressure":982.3,"uv_index":6.35,"wind_gusts":23.8,"aqi":92,"pm10":57.7,"pm2_5":37.1,"mosquito_risk":4,"arthritis_risk":5,"migraine_risk":7,"frizz_risk":0,"updated_at":"2026-03-14T11:19:30.509107+05:30"},{"city":"Dehradun","state":"Uttarakhand","latitude":30.6284,"longitude":78.0322,"temp":19.8,"humidity":33,"rain":0.0,"pressure":832.5,"uv_index":4.2,"wind_gusts":21.6,"aqi":54,"pm10":34.6,"pm2_5":8.8,"mosquito_risk":0,"arthritis_risk":5,"migraine_risk":3,"frizz_risk":0,"updated_at":"2026-03-14T11:19:30.509113+05:30"},{"city":"Shimla","state":"Himachal Pradesh","latitude":31.1048,"longitude":77.1734,"temp":18.3,"humidity":40,"rain":0.0,"pressure":787.0,"uv_index":5.75,"wind_gusts":34.6,"aqi":57,"pm10":32.0,"pm2_5":7.3,"mosquito_risk":0,"arthritis_risk":5,"migraine_risk":3,"frizz_risk":0,"updated_at":"2026-03-14T11:19:30.509120+05:30"},{"city":"Manali","state":"Himachal Pradesh","latitude":32.2396,"longitude":77.1887,"temp":19.4,"humidity":18,"rain":0.0,"pressure":822.4,"uv_index":7.5,"wind_gusts":34.2,"aqi":43,"pm10":25.8,"pm2_5":7.7,"mosquito_risk":0,"arthritis_risk":5,"migraine_risk":7,"frizz_risk":1,"updated_at":"2026-03-14T11:19:30.509127+05:30"},{"city":"Gurgaon","state":"Haryana","latitude":28.4595,"longitude":77.0266,"temp":28.5,"humidity":39,"rain":0.0,"pressure":984.7,"uv_index":5.9,"wind_gusts":27.0,"aqi":1220,"pm10":905.2,"pm2_5":116.6,"mosquito_risk":4,"arthritis_risk":5,"migraine_risk":3,"frizz_risk":0,"updated_at":"2026-03-14T11:19:30.509134+05:30"},{"city":"Noida","state":"Uttar Pradesh","latitude":28.5355,"longitude":77.391,"temp":28.6,"humidity":36,"rain":0.0,"pressure":987.8,"uv_index":5.8,"wind_gusts":28.1,"aqi":1220,"pm10":905.2,"pm2_5":116.6,"mosquito_risk":4,"arthritis_risk":5,"migraine_risk":3,"frizz_risk":0,"updated_at":"2026-03-14T11:19:30.509140+05:30"},{"city":"Ghaziabad","state":"Uttar Pradesh","latitude":28.6692,"longitude":77.4538,"temp":27.2,"humidity":44,"rain":0.0,"pressure":985.9,"uv_index":5.9,"wind_gusts":26.6,"aqi":281,"pm10":257.0,"pm2_5":65.4,"mosquito_risk":4,"arthritis_risk":5,"migraine_risk":3,"frizz_risk":0,"updated_at":"2026-03-14T11:19:30.509147+05:30"},{"city":"Faridabad","state":"Haryana","latitude":28.4089,"longitude":77.3178,"temp":28.3,"humidity":39,"rain":0.0,"pressure":987.1,"uv_index":5.6,"wind_gusts":33.1,"aqi":1220,"pm10":905.2,"pm2_5":116.6,"mosquito_risk":4,"arthritis_risk":5,"migraine_risk":3,"frizz_risk":0,"updated_at":"2026-03-14T11:19:30.509153+05:30"},{"city":"Meerut","state":"Uttar Pradesh","latitude":28.9845,"longitude":77.7064,"temp":25.5,"humidity":49,"rain":0.0,"pressure":984.6,"uv_index":5.8,"wind_gusts":26.6,"aqi":281,"pm10":257.0,"pm2_5":65.4,"mosquito_risk":4,"arthritis_risk":5,"migraine_risk":3,"frizz_risk":0,"updated_at":"2026-03-14T11:19:30.509160+05:30"},{"city":"Agra","state":"Uttar Pradesh","latitude":27.1767,"longitude":78.0081,"temp":31.4,"humidity":30,"rain":0.0,"pressure":991.2,"uv_index":6.3,"wind_gusts":22.0,"aqi":766,"pm10":403.3,"pm2_5":91.3,"mosquito_risk":0,"arthritis_risk":5,"migraine_risk":7,"frizz_risk":0,"updated_at":"2026-03-14T11:19:30.509167+05:30"},{"city":"Varanasi","state":"Uttar Pradesh","latitude":25.3176,"longitude":82.9739,"temp":31.6,"humidity":45,"rain":0.0,"pressure":1000.5,"uv_index":7.05,"wind_gusts":31.7,"aqi":132,"pm10":255.2,"pm2_5":62.6,"mosquito_risk":0,"arthritis_risk":5,"migraine_risk":4,"frizz_risk":1,"updated_at":"2026-03-14T11:19:30.509177+05:30"},{"city":"Prayagraj","state":"Uttar Pradesh","latitude":25.4358,"longitude":81.8463,"temp":31.3,"humidity":48,"rain":0.0,"pressure":999.3,"uv_index":7.1,"wind_gusts":19.4,"aqi":151,"pm10":384.6,"pm2_5":86.1,"mosquito_risk":0,"arthritis_risk":5,"migraine_risk":7,"frizz_risk":1,"updated_at":"2026-03-14T11:19:30.509185+05:30"},{"city":"Gorakhpur","state":"Uttar Pradesh","latitude":26.7606,"longitude":83.3732,"temp":28.5,"humidity":58,"rain":0.0,"pressure":1000.2,"uv_index":6.7,"wind_gusts":25.2,"aqi":153,"pm10":149.9,"pm2_5":59.5,"mosquito_risk":4,"arthritis_risk":5,"migraine_risk":4,"frizz_risk":1,"updated_at":"2026-03-14T11:19:30.509192+05:30"},{"city":"Bareilly","state":"Uttar Pradesh","latitude":28.367,"longitude":79.4304,"temp":25.6,"humidity":61,"rain":0.0,"pressure":989.9,"uv_index":6.4,"wind_gusts":20.2,"aqi":147,"pm10":100.8,"pm2_5":54.6,"mosquito_risk":7,"arthritis_risk":5,"migraine_risk":7,"frizz_risk":1,"updated_at":"2026-03-14T11:19:30.509202+05:30"},{"city":"Aligarh","state":"Uttar Pradesh","latitude":27.8974,"longitude":78.088,"temp":29.7,"humidity":36,"rain":0.0,"pressure":988.7,"uv_index":6.3,"wind_gusts":27.4,"aqi":714,"pm10":413.5,"pm2_5":85.7,"mosquito_risk":4,"arthritis_risk":5,"migraine_risk":7,"frizz_risk":0,"updated_at":"2026-03-14T11:19:30.509209+05:30"},{"city":"Moradabad","state":"Uttar Pradesh","latitude":28.8386,"longitude":78.7733,"temp":25.4,"humidity":57,"rain":0.0,"pressure":986.6,"uv_index":5.8,"wind_gusts":22.3,"aqi":149,"pm10":87.8,"pm2_5":47.7,"mosquito_risk":4,"arthritis_risk":5,"migraine_risk":3,"frizz_risk":1,"updated_at":"2026-03-14T11:19:30.509216+05:30"},{"city":"Saharanpur","state":"Uttar Pradesh","latitude":29.9637,"longitude":77.546,"temp":25.4,"humidity":55,"rain":0.0,"pressure":978.2,"uv_index":4.8,"wind_gusts":25.6,"aqi":133,"pm10":122.0,"pm2_5":51.7,"mosquito_risk":4,"arthritis_risk":5,"migraine_risk":3,"frizz_risk":0,"updated_at":"2026-03-14T11:19:30.509222+05:30"},{"city":"Jhansi","state":"Uttar Pradesh","latitude":25.4484,"longitude":78.5685,"temp":31.6,"humidity":33,"rain":0.0,"pressure":981.3,"uv_index":7.2,"wind_gusts":26.6,"aqi":120,"pm10":459.1,"pm2_5":75.7,"mosquito_risk":0,"arthritis_risk":5,"migraine_risk":7,"frizz_risk":0,"updated_at":"2026-03-14T11:19:33.761851+05:30"},{"city":"Surat","state":"Gujarat","latitude":21.1702,"longitude":72.8311,"temp":31.3,"humidity":38,"rain":0.0,"pressure":1009.9,"uv_index":7.35,"wind_gusts":22.0,"aqi":134,"pm10":109.0,"pm2_5":59.3,"mosquito_risk":0,"arthritis_risk":0,"migraine_risk":4,"frizz_risk":0,"updated_at":"2026-03-14T11:19:33.761883+05:30"},{"city":"Vadodara","state":"Gujarat","latitude":22.3072,"longitude":73.1812,"temp":32.9,"humidity":33,"rain":0.0,"pressure":1007.7,"uv_index":7.5,"wind_gusts":27.4,"aqi":92,"pm10":144.8,"pm2_5":42.0,"mosquito_risk":0,"arthritis_risk":5,"migraine_risk":4,"frizz_risk":0,"updated_at":"2026-03-14T11:19:33.761893+05:30"},{"city":"Rajkot","state":"Gujarat","latitude":22.3039,"longitude":70.8022,"temp":31.8,"humidity":37,"rain":0.0,"pressure":997.8,"uv_index":7.35,"wind_gusts":33.1,"aqi":89,"pm10":87.5,"pm2_5":32.8,"mosquito_risk":0,"arthritis_risk":5,"migraine_risk":7,"frizz_risk":0,"updated_at":"2026-03-14T11:19:33.761902+05:30"},{"city":"Thane","state":"Maharashtra","latitude":19.2183,"longitude":72.9781,"temp":34.0,"humidity":36,"rain":0.0,"pressure":1010.6,"uv_index":7.65,"wind_gusts":33.8,"aqi":125,"pm10":64.0,"pm2_5":52.2,"mosquito_risk":0,"arthritis_risk":0,"migraine_risk":4,"frizz_risk":1,"updated_at":"2026-03-14T11:19:33.761909+05:30"},{"city":"Nagpur","state":"Maharashtra","latitude":21.1458,"longitude":79.0882,"temp":34.2,"humidity":32,"rain":0.0,"pressure":976.6,"uv_index":8.1,"wind_gusts":15.5,"aqi":107,"pm10":59.1,"pm2_5":49.5,"mosquito_risk":0,"arthritis_risk":5,"migraine_risk":7,"frizz_risk":0,"updated_at":"2026-03-14T11:19:33.761916+05:30"},{"city":"Nashik","state":"Maharashtra","latitude":19.9975,"longitude":73.7898,"temp":33.3,"humidity":19,"rain":0.0,"pressure":949.2,"uv_index":7.9,"wind_gusts":37.1,"aqi":87,"pm10":26.6,"pm2_5":21.1,"mosquito_risk":0,"arthritis_risk":5,"migraine_risk":7,"frizz_risk":0,"updated_at":"2026-03-14T11:19:33.761923+05:30"},{"city":"Aurangabad","state":"Maharashtra","latitude":19.8762,"longitude":75.3433,"temp":32.8,"humidity":28,"rain":0.0,"pressure":947.9,"uv_index":8.4,"wind_gusts":23.4,"aqi":86,"pm10":35.2,"pm2_5":24.8,"mosquito_risk":0,"arthritis_risk":5,"migraine_risk":7,"frizz_risk":0,"updated_at":"2026-03-14T11:19:33.761931+05:30"},{"city":"Solapur","state":"Maharashtra","latitude":17.6599,"longitude":75.9064,"temp":32.8,"humidity":36,"rain":0.0,"pressure":960.3,"uv_index":8.6,"wind_gusts":20.9,"aqi":107,"pm10":46.4,"pm2_5":37.8,"mosquito_risk":0,"arthritis_risk":5,"migraine_risk":7,"frizz_risk":0,"updated_at":"2026-03-14T11:19:33.761938+05:30"},{"city":"Kolhapur","state":"Maharashtra","latitude":16.705,"longitude":74.2433,"temp":31.9,"humidity":37,"rain":0.0,"pressure":951.5,"uv_index":8.7,"wind_gusts":46.1,"aqi":150,"pm10":59.8,"pm2_5":55.5,"mosquito_risk":0,"arthritis_risk":5,"migraine_risk":7,"frizz_risk":0,"updated_at":"2026-03-14T11:19:33.761945+05:30"},{"city":"Goa","state":"Goa","latitude":15.2993,"longitude":74.124,"temp":32.0,"humidity":60,"rain":0.0,"pressure":1001.3,"uv_index":8.75,"wind_gusts":31.7,"aqi":134,"pm10":47.3,"pm2_5":42.8,"mosquito_risk":0,"arthritis_risk":5,"migraine_risk":4,"frizz_risk":1,"updated_at":"2026-03-14T11:19:33.761952+05:30"},{"city":"Jodhpur","state":"Rajasthan","latitude":26.2389,"longitude":73.0243,"temp":32.4,"humidity":28,"rain":0.0,"pressure":985.1,"uv_index":7.1,"wind_gusts":38.2,"aqi":84,"pm10":117.8,"pm2_5":32.4,"mosquito_risk":0,"arthritis_risk":5,"migraine_risk":7,"frizz_risk":0,"updated_at":"2026-03-14T11:19:33.761959+05:30"},{"city":"Udaipur","state":"Rajasthan","latitude":24.5854,"longitude":73.7125,"temp":32.1,"humidity":21,"rain":0.0,"pressure":949.6,"uv_index":7.85,"wind_gusts":37.4,"aqi":67,"pm10":66.1,"pm2_5":23.2,"mosquito_risk":0,"arthritis_risk":5,"migraine_risk":7,"frizz_risk":0,"updated_at":"2026-03-14T11:19:33.761966+05:30"},{"city":"Kota","state":"Rajasthan","latitude":25.2138,"longitude":75.8648,"temp":32.5,"humidity":33,"rain":0.0,"pressure":981.8,"uv_index":7.25,"wind_gusts":23.8,"aqi":63,"pm10":46.2,"pm2_5":24.4,"mosquito_risk":0,"arthritis_risk":5,"migraine_risk":7,"frizz_risk":0,"updated_at":"2026-03-14T11:19:33.761973+05:30"},{"city":"Bikaner","state":"Rajasthan","latitude":28.0229,"longitude":73.3119,"temp":31.4,"humidity":28,"rain":0.0,"pressure":984.3,"uv_index":6.7,"wind_gusts":23.8,"aqi":61,"pm10":60.3,"pm2_5":22.2,"mosquito_risk":0,"arthritis_risk":5,"migraine_risk":7,"frizz_risk":0,"updated_at":"2026-03-14T11:19:33.761980+05:30"},{"city":"Ajmer","state":"Rajasthan","latitude":26.4499,"longitude":74.6399,"temp":31.3,"humidity":25,"rain":0.0,"pressure":957.4,"uv_index":7.1,"wind_gusts":37.8,"aqi":82,"pm10":240.3,"pm2_5":42.3,"mosquito_risk":0,"arthritis_risk":5,"migraine_risk":7,"frizz_risk":0,"updated_at":"2026-03-14T11:19:33.761987+05:30"},{"city":"Gwalior","state":"Madhya Pradesh","latitude":26.2183,"longitude":78.1828,"temp":29.9,"humidity":39,"rain":0.0,"pressure":986.9,"uv_index":6.7,"wind_gusts":20.9,"aqi":211,"pm10":378.1,"pm2_5":75.2,"mosquito_risk":4,"arthritis_risk":5,"migraine_risk":7,"frizz_risk":0,"updated_at":"2026-03-14T11:19:33.761994+05:30"},{"city":"Indore","state":"Madhya Pradesh","latitude":22.7196,"longitude":75.8577,"temp":33.5,"humidity":23,"rain":0.0,"pressure":951.7,"uv_index":7.8,"wind_gusts":36.4,"aqi":81,"pm10":42.4,"pm2_5":26.0,"mosquito_risk":0,"arthritis_risk":5,"migraine_risk":7,"frizz_risk":0,"updated_at":"2026-03-14T11:19:33.762001+05:30"},{"city":"Bhopal","state":"Madhya Pradesh","latitude":23.2599,"longitude":77.4126,"temp":33.6,"humidity":25,"rain":0.0,"pressure":957.3,"uv_index":7.65,"wind_gusts":34.2,"aqi":67,"pm10":31.8,"pm2_5":24.3,"mosquito_risk":0,"arthritis_risk":5,"migraine_risk":7,"frizz_risk":0,"updated_at":"2026-03-14T11:19:33.762007+05:30"},{"city":"Jabalpur","state":"Madhya Pradesh","latitude":23.1815,"longitude":79.9864,"temp":32.2,"humidity":31,"rain":0.0,"pressure":965.3,"uv_index":7.8,"wind_gusts":32.0,"aqi":79,"pm10":18.8,"pm2_5":17.8,"mosquito_risk":0,"arthritis_risk":5,"migraine_risk":7,"frizz_risk":0,"updated_at":"2026-03-14T11:19:33.762014+05:30"},{"city":"Ujjain","state":"Madhya Pradesh","latitude":23.1765,"longitude":75.7885,"temp":32.5,"humidity":29,"rain":0.0,"pressure":957.2,"uv_index":7.7,"wind_gusts":39.6,"aqi":78,"pm10":44.9,"pm2_5":27.6,"mosquito_risk":0,"arthritis_risk":5,"migraine_risk":7,"frizz_risk":0,"updated_at":"2026-03-14T11:19:33.762021+05:30"},{"city":"Visakhapatnam","state":"Andhra Pradesh","latitude":17.6868,"longitude":83.2185,"temp":31.6,"humidity":58,"rain":0.0,"pressure":1008.1,"uv_index":8.65,"wind_gusts":40.7,"aqi":68,"pm10":25.3,"pm2_5":19.4,"mosquito_risk":0,"arthritis_risk":0,"migraine_risk":4,"frizz_risk":1,"updated_at":"2026-03-14T11:19:33.762028+05:30"},{"city":"Vijayawada","state":"Andhra Pradesh","latitude":16.5062,"longitude":80.648,"temp":31.4,"humidity":62,"rain":0.0,"pressure":1006.9,"uv_index":8.75,"wind_gusts":32.0,"aqi":68,"pm10":21.9,"pm2_5":16.6,"mosquito_risk":3,"arthritis_risk":5,"migraine_risk":4,"frizz_risk":1,"updated_at":"2026-03-14T11:19:33.762036+05:30"},{"city":"Guntur","state":"Andhra Pradesh","latitude":16.3067,"longitude":80.4365,"temp":31.8,"humidity":60,"rain":0.0,"pressure":1008.0,"uv_index":8.75,"wind_gusts":34.6,"aqi":65,"pm10":21.2,"pm2_5":16.8,"mosquito_risk":0,"arthritis_risk":0,"migraine_risk":4,"frizz_risk":1,"updated_at":"2026-03-14T11:19:33.762043+05:30"},{"city":"Nellore","state":"Andhra Pradesh","latitude":14.4426,"longitude":79.9865,"temp":32.4,"humidity":54,"rain":0.0,"pressure":1010.0,"uv_index":8.9,"wind_gusts":32.0,"aqi":63,"pm10":20.6,"pm2_5":18.0,"mosquito_risk":0,"arthritis_risk":0,"migraine_risk":4,"frizz_risk":1,"updated_at":"2026-03-14T11:19:33.762051+05:30"},{"city":"Kurnool","state":"Andhra Pradesh","latitude":15.8281,"longitude":78.0373,"temp":34.7,"humidity":34,"rain":0.0,"pressure":980.5,"uv_index":8.75,"wind_gusts":24.1,"aqi":100,"pm10":34.8,"pm2_5":28.1,"mosquito_risk":0,"arthritis_risk":5,"migraine_risk":7,"frizz_risk":1,"updated_at":"2026-03-14T11:19:33.762058+05:30"},{"city":"Kakinada","state":"Andhra Pradesh","latitude":16.9891,"longitude":82.2475,"temp":32.4,"humidity":57,"rain":0.0,"pressure":1011.7,"uv_index":8.7,"wind_gusts":33.1,"aqi":60,"pm10":21.4,"pm2_5":15.3,"mosquito_risk":0,"arthritis_risk":0,"migraine_risk":4,"frizz_risk":1,"updated_at":"2026-03-14T11:19:33.762065+05:30"},{"city":"Tirupati","state":"Andhra Pradesh","latitude":13.6288,"longitude":79.4192,"temp":30.7,"humidity":59,"rain":0.0,"pressure":996.2,"uv_index":9.0,"wind_gusts":32.4,"aqi":73,"pm10":18.0,"pm2_5":16.0,"mosquito_risk":0,"arthritis_risk":5,"migraine_risk":7,"frizz_risk":1,"updated_at":"2026-03-14T11:19:33.762071+05:30"},{"city":"Warangal","state":"Telangana","latitude":17.9689,"longitude":79.5941,"temp":30.2,"humidity":62,"rain":0.0,"pressure":982.7,"uv_index":8.5,"wind_gusts":28.4,"aqi":100,"pm10":25.4,"pm2_5":21.9,"mosquito_risk":3,"arthritis_risk":5,"migraine_risk":7,"frizz_risk":1,"updated_at":"2026-03-14T11:19:33.762078+05:30"},{"city":"Nizamabad","state":"Telangana","latitude":18.6725,"longitude":78.0941,"temp":33.7,"humidity":37,"rain":0.0,"pressure":968.4,"uv_index":8.45,"wind_gusts":25.6,"aqi":121,"pm10":43.1,"pm2_5":36.3,"mosquito_risk":0,"arthritis_risk":5,"migraine_risk":7,"frizz_risk":1,"updated_at":"2026-03-14T11:19:33.762084+05:30"},{"city":"Mysore","state":"Karnataka","latitude":12.2958,"longitude":76.6396,"temp":30.2,"humidity":34,"rain":0.0,"pressure":932.3,"uv_index":9.3,"wind_gusts":32.0,"aqi":103,"pm10":31.4,"pm2_5":26.5,"mosquito_risk":0,"arthritis_risk":5,"migraine_risk":7,"frizz_risk":0,"updated_at":"2026-03-14T11:19:33.762091+05:30"},{"city":"Mangalore","state":"Karnataka","latitude":12.9141,"longitude":74.856,"temp":28.8,"humidity":81,"rain":0.0,"pressure":1010.1,"uv_index":8.95,"wind_gusts":28.8,"aqi":106,"pm10":41.3,"pm2_5":36.3,"mosquito_risk":7,"arthritis_risk":0,"migraine_risk":4,"frizz_risk":1,"updated_at":"2026-03-14T11:19:33.762098+05:30"},{"city":"Hubli-Dharwad","state":"Karnataka","latitude":15.3647,"longitude":75.124,"temp":30.6,"humidity":52,"rain":0.0,"pressure":944.7,"uv_index":8.95,"wind_gusts":42.8,"aqi":105,"pm10":48.2,"pm2_5":43.2,"mosquito_risk":0,"arthritis_risk":5,"migraine_risk":7,"frizz_risk":1,"updated_at":"2026-03-14T11:19:33.762106+05:30"},{"city":"Belgaum","state":"Karnataka","latitude":15.8497,"longitude":74.4977,"temp":31.1,"humidity":41,"rain":0.0,"pressure":929.8,"uv_index":8.95,"wind_gusts":43.2,"aqi":116,"pm10":49.0,"pm2_5":44.6,"mosquito_risk":0,"arthritis_risk":5,"migraine_risk":7,"frizz_risk":1,"updated_at":"2026-03-14T11:19:37.011064+05:30"},{"city":"Coimbatore","state":"Tamil Nadu","latitude":11.0168,"longitude":76.9558,"temp":31.1,"humidity":48,"rain":0.0,"pressure":966.1,"uv_index":9.3,"wind_gusts":33.8,"aqi":74,"pm10":20.4,"pm2_5":16.2,"mosquito_risk":0,"arthritis_risk":5,"migraine_risk":7,"frizz_risk":1,"updated_at":"2026-03-14T11:19:37.011094+05:30"},{"city":"Madurai","state":"Tamil Nadu","latitude":9.9252,"longitude":78.1198,"temp":31.9,"humidity":50,"rain":0.0,"pressure":997.3,"uv_index":9.25,"wind_gusts":24.8,"aqi":64,"pm10":14.7,"pm2_5":11.3,"mosquito_risk":0,"arthritis_risk":5,"migraine_risk":7,"frizz_risk":1,"updated_at":"2026-03-14T11:19:37.011105+05:30"},{"city":"Trichy","state":"Tamil Nadu","latitude":10.7905,"longitude":78.7047,"temp":31.5,"humidity":53,"rain":0.0,"pressure":1004.3,"uv_index":9.2,"wind_gusts":23.4,"aqi":70,"pm10":15.9,"pm2_5":13.7,"mosquito_risk":0,"arthritis_risk":5,"migraine_risk":4,"frizz_risk":1,"updated_at":"2026-03-14T11:19:37.011113+05:30"},{"city":"Salem","state":"Tamil Nadu","latitude":11.6643,"longitude":78.146,"temp":30.3,"humidity":57,"rain":0.0,"pressure":981.7,"uv_index":9.2,"wind_gusts":19.8,"aqi":103,"pm10":21.1,"pm2_5":18.7,"mosquito_risk":0,"arthritis_risk":5,"migraine_risk":7,"frizz_risk":1,"updated_at":"2026-03-14T11:19:37.011120+05:30"},{"city":"Tirunelveli","state":"Tamil Nadu","latitude":8.7139,"longitude":77.7567,"temp":32.8,"humidity":48,"rain":0.0,"pressure":1007.2,"uv_index":9.25,"wind_gusts":36.7,"aqi":52,"pm10":10.5,"pm2_5":8.6,"mosquito_risk":0,"arthritis_risk":5,"migraine_risk":4,"frizz_risk":1,"updated_at":"2026-03-14T11:19:37.011128+05:30"},{"city":"Vellore","state":"Tamil Nadu","latitude":12.9165,"longitude":79.1325,"temp":31.6,"humidity":46,"rain":0.0,"pressure":989.1,"uv_index":9.1,"wind_gusts":32.4,"aqi":99,"pm10":23.5,"pm2_5":21.4,"mosquito_risk":0,"arthritis_risk":5,"migraine_risk":7,"frizz_risk":1,"updated_at":"2026-03-14T11:19:37.011136+05:30"},{"city":"Erode","state":"Tamil Nadu","latitude":11.341,"longitude":77.7172,"temp":31.2,"humidity":54,"rain":0.0,"pressure":993.5,"uv_index":9.2,"wind_gusts":22.3,"aqi":71,"pm10":13.7,"pm2_5":11.6,"mosquito_risk":0,"arthritis_risk":5,"migraine_risk":7,"frizz_risk":1,"updated_at":"2026-03-14T11:19:37.011143+05:30"},{"city":"Kochi","state":"Kerala","latitude":9.9312,"longitude":76.2673,"temp":27.6,"humidity":80,"rain":0.0,"pressure":1012.5,"uv_index":9.1,"wind_gusts":30.2,"aqi":87,"pm10":23.6,"pm2_5":22.2,"mosquito_risk":7,"arthritis_risk":0,"migraine_risk":4,"frizz_risk":1,"updated_at":"2026-03-14T11:19:37.011151+05:30"},{"city":"Thiruvananthapuram","state":"Kerala","latitude":8.5241,"longitude":76.9366,"temp":27.9,"humidity":74,"rain":0.0,"pressure":1011.5,"uv_index":9.1,"wind_gusts":23.0,"aqi":59,"pm10":17.8,"pm2_5":15.7,"mosquito_risk":7,"arthritis_risk":0,"migraine_risk":4,"frizz_risk":1,"updated_at":"2026-03-14T11:19:37.011158+05:30"},{"city":"Kozhikode","state":"Kerala","latitude":11.2588,"longitude":75.7804,"temp":29.0,"humidity":77,"rain":0.0,"pressure":1011.7,"uv_index":9.0,"wind_gusts":26.3,"aqi":78,"pm10":25.4,"pm2_5":23.2,"mosquito_risk":7,"arthritis_risk":0,"migraine_risk":4,"frizz_risk":1,"updated_at":"2026-03-14T11:19:37.011165+05:30"},{"city":"Thrissur","state":"Kerala","latitude":10.5276,"longitude":76.2144,"temp":31.4,"humidity":63,"rain":0.0,"pressure":1010.7,"uv_index":9.05,"wind_gusts":35.3,"aqi":97,"pm10":31.9,"pm2_5":29.5,"mosquito_risk":3,"arthritis_risk":0,"migraine_risk":4,"frizz_risk":1,"updated_at":"2026-03-14T11:19:37.011172+05:30"},{"city":"Kannur","state":"Kerala","latitude":11.8745,"longitude":75.3704,"temp":29.2,"humidity":75,"rain":0.0,"pressure":1011.0,"uv_index":9.0,"wind_gusts":31.7,"aqi":97,"pm10":31.9,"pm2_5":28.1,"mosquito_risk":7,"arthritis_risk":0,"migraine_risk":4,"frizz_risk":1,"updated_at":"2026-03-14T11:19:37.011179+05:30"},{"city":"Patna","state":"Bihar","latitude":25.5941,"longitude":85.1376,"temp":30.5,"humidity":52,"rain":0.0,"pressure":1003.4,"uv_index":7.5,"wind_gusts":22.0,"aqi":153,"pm10":172.3,"pm2_5":61.5,"mosquito_risk":0,"arthritis_risk":5,"migraine_risk":4,"frizz_risk":1,"updated_at":"2026-03-14T11:19:37.011186+05:30"},{"city":"Gaya","state":"Bihar","latitude":24.7914,"longitude":85.0002,"temp":32.3,"humidity":43,"rain":0.0,"pressure":996.7,"uv_index":7.6,"wind_gusts":22.7,"aqi":128,"pm10":114.8,"pm2_5":37.0,"mosquito_risk":0,"arthritis_risk":5,"migraine_risk":7,"frizz_risk":1,"updated_at":"2026-03-14T11:19:37.011193+05:30"},{"city":"Muzaffarpur","state":"Bihar","latitude":26.1209,"longitude":85.3647,"temp":30.4,"humidity":60,"rain":0.0,"pressure":1003.2,"uv_index":7.45,"wind_gusts":25.9,"aqi":165,"pm10":167.2,"pm2_5":65.7,"mosquito_risk":0,"arthritis_risk":5,"migraine_risk":4,"frizz_risk":1,"updated_at":"2026-03-14T11:19:37.011200+05:30"},{"city":"Bhagalpur","state":"Bihar","latitude":25.2425,"longitude":87.0117,"temp":30.7,"humidity":58,"rain":0.0,"pressure":1004.1,"uv_index":7.5,"wind_gusts":23.8,"aqi":162,"pm10":138.3,"pm2_5":55.4,"mosquito_risk":0,"arthritis_risk":5,"migraine_risk":4,"frizz_risk":1,"updated_at":"2026-03-14T11:19:37.011206+05:30"},{"city":"Ranchi","state":"Jharkhand","latitude":23.3441,"longitude":85.3096,"temp":32.6,"humidity":22,"rain":0.0,"pressure":941.6,"uv_index":8.25,"wind_gusts":27.7,"aqi":72,"pm10":88.5,"pm2_5":25.6,"mosquito_risk":0,"arthritis_risk":5,"migraine_risk":7,"frizz_risk":0,"updated_at":"2026-03-14T11:19:37.011212+05:30"},{"city":"Jamshedpur","state":"Jharkhand","latitude":22.8046,"longitude":86.2029,"temp":32.8,"humidity":50,"rain":0.0,"pressure":994.1,"uv_index":8.1,"wind_gusts":20.5,"aqi":144,"pm10":112.2,"pm2_5":55.6,"mosquito_risk":0,"arthritis_risk":5,"migraine_risk":7,"frizz_risk":1,"updated_at":"2026-03-14T11:19:37.011219+05:30"},{"city":"Dhanbad","state":"Jharkhand","latitude":23.7957,"longitude":86.4304,"temp":33.7,"humidity":32,"rain":0.0,"pressure":983.0,"uv_index":8.0,"wind_gusts":22.7,"aqi":154,"pm10":133.2,"pm2_5":56.1,"mosquito_risk":0,"arthritis_risk":5,"migraine_risk":7,"frizz_risk":0,"updated_at":"2026-03-14T11:19:37.011226+05:30"},{"city":"Bokaro","state":"Jharkhand","latitude":23.6693,"longitude":86.1511,"temp":34.1,"humidity":29,"rain":0.0,"pressure":987.0,"uv_index":8.0,"wind_gusts":26.3,"aqi":150,"pm10":122.9,"pm2_5":47.3,"mosquito_risk":0,"arthritis_risk":5,"migraine_risk":7,"frizz_risk":0,"updated_at":"2026-03-14T11:19:37.011233+05:30"},{"city":"Bhubaneswar","state":"Odisha","latitude":20.2961,"longitude":85.8245,"temp":31.6,"humidity":63,"rain":0.0,"pressure":1006.5,"uv_index":8.45,"wind_gusts":39.2,"aqi":75,"pm10":26.1,"pm2_5":19.7,"mosquito_risk":3,"arthritis_risk":5,"migraine_risk":4,"frizz_risk":1,"updated_at":"2026-03-14T11:19:37.011240+05:30"},{"city":"Cuttack","state":"Odisha","latitude":20.4625,"longitude":85.8828,"temp":32.9,"humidity":57,"rain":0.0,"pressure":1008.1,"uv_index":8.45,"wind_gusts":34.2,"aqi":75,"pm10":26.1,"pm2_5":19.7,"mosquito_risk":0,"arthritis_risk":0,"migraine_risk":4,"frizz_risk":1,"updated_at":"2026-03-14T11:19:37.011247+05:30"},{"city":"Rourkela","state":"Odisha","latitude":22.2604,"longitude":84.8536,"temp":35.3,"humidity":39,"rain":0.0,"pressure":988.0,"uv_index":8.05,"wind_gusts":34.6,"aqi":96,"pm10":92.9,"pm2_5":49.1,"mosquito_risk":0,"arthritis_risk":5,"migraine_risk":10,"frizz_risk":1,"updated_at":"2026-03-14T11:19:37.011254+05:30"},{"city":"Raipur","state":"Chhattisgarh","latitude":21.2514,"longitude":81.6296,"temp":35.0,"humidity":36,"rain":0.0,"pressure":977.9,"uv_index":8.2,"wind_gusts":40.3,"aqi":125,"pm10":63.6,"pm2_5":54.8,"mosquito_risk":0,"arthritis_risk":5,"migraine_risk":7,"frizz_risk":1,"updated_at":"2026-03-14T11:19:37.011261+05:30"},{"city":"Bhilai","state":"Chhattisgarh","latitude":21.1938,"longitude":81.3509,"temp":35.2,"humidity":37,"rain":0.0,"pressure":978.2,"uv_index":8.2,"wind_gusts":30.6,"aqi":121,"pm10":58.7,"pm2_5":49.9,"mosquito_risk":0,"arthritis_risk":5,"migraine_risk":10,"frizz_risk":1,"updated_at":"2026-03-14T11:19:37.011268+05:30"},{"city":"Guwahati","state":"Assam","latitude":26.1158,"longitude":91.7086,"temp":22.2,"humidity":90,"rain":0.0,"pressure":1006.2,"uv_index":7.4,"wind_gusts":36.0,"aqi":86,"pm10":37.6,"pm2_5":24.1,"mosquito_risk":3,"arthritis_risk":5,"migraine_risk":4,"frizz_risk":1,"updated_at":"2026-03-14T11:19:37.011275+05:30"},{"city":"Agartala","state":"Tripura","latitude":23.8315,"longitude":91.2868,"temp":24.8,"humidity":81,"rain":0.0,"pressure":1011.7,"uv_index":7.8,"wind_gusts":39.2,"aqi":77,"pm10":32.8,"pm2_5":24.0,"mosquito_risk":3,"arthritis_risk":0,"migraine_risk":4,"frizz_risk":1,"updated_at":"2026-03-14T11:19:37.011281+05:30"},{"city":"Shillong","state":"Meghalaya","latitude":25.5788,"longitude":91.8933,"temp":17.8,"humidity":66,"rain":0.0,"pressure":859.3,"uv_index":7.85,"wind_gusts":73.8,"aqi":56,"pm10":13.4,"pm2_5":8.9,"mosquito_risk":3,"arthritis_risk":5,"migraine_risk":7,"frizz_risk":0,"updated_at":"2026-03-14T11:19:37.011288+05:30"},{"city":"Imphal","state":"Manipur","latitude":24.817,"longitude":93.9368,"temp":18.4,"humidity":84,"rain":0.0,"pressure":927.1,"uv_index":7.1,"wind_gusts":79.9,"aqi":153,"pm10":62.4,"pm2_5":40.0,"mosquito_risk":3,"arthritis_risk":10,"migraine_risk":7,"frizz_risk":0,"updated_at":"2026-03-14T11:19:37.011296+05:30"},{"city":"Aizawl","state":"Mizoram","latitude":23.7271,"longitude":92.7176,"temp":20.9,"humidity":71,"rain":0.0,"pressure":897.9,"uv_index":8.0,"wind_gusts":63.4,"aqi":125,"pm10":41.4,"pm2_5":31.3,"mosquito_risk":3,"arthritis_risk":5,"migraine_risk":7,"frizz_risk":0,"updated_at":"2026-03-14T11:19:37.011302+05:30"},{"city":"Kohima","state":"Nagaland","latitude":25.6701,"longitude":94.1077,"temp":17.3,"humidity":74,"rain":0.0,"pressure":858.1,"uv_index":6.9,"wind_gusts":100.8,"aqi":120,"pm10":36.4,"pm2_5":24.1,"mosquito_risk":3,"arthritis_risk":5,"migraine_risk":7,"frizz_risk":0,"updated_at":"2026-03-14T11:19:37.011309+05:30"},{"city":"Gangtok","state":"Sikkim","latitude":27.3314,"longitude":88.6138,"temp":17.9,"humidity":77,"rain":0.0,"pressure":839.4,"uv_index":7.55,"wind_gusts":22.3,"aqi":90,"pm10":23.5,"pm2_5":17.9,"mosquito_risk":3,"arthritis_risk":5,"migraine_risk":7,"frizz_risk":0,"updated_at":"2026-03-14T11:19:37.011315+05:30"},{"city":"Siliguri","state":"West Bengal","latitude":26.7271,"longitude":88.3953,"temp":21.8,"humidity":85,"rain":0.0,"pressure":997.5,"uv_index":7.4,"wind_gusts":33.1,"aqi":125,"pm10":47.3,"pm2_5":33.6,"mosquito_risk":3,"arthritis_risk":5,"migraine_risk":7,"frizz_risk":1,"updated_at":"2026-03-14T11:19:40.261646+05:30"},{"city":"Durgapur","state":"West Bengal","latitude":23.5204,"longitude":87.3119,"temp":32.4,"humidity":59,"rain":0.0,"pressure":998.2,"uv_index":7.95,"wind_gusts":28.1,"aqi":152,"pm10":93.4,"pm2_5":59.8,"mosquito_risk":0,"arthritis_risk":5,"migraine_risk":7,"frizz_risk":1,"updated_at":"2026-03-14T11:19:40.261678+05:30"},{"city":"Asansol","state":"West Bengal","latitude":23.6739,"longitude":86.9524,"temp":32.6,"humidity":56,"rain":0.0,"pressure":996.7,"uv_index":7.95,"wind_gusts":21.6,"aqi":138,"pm10":115.7,"pm2_5":55.2,"mosquito_risk":0,"arthritis_risk":5,"migraine_risk":7,"frizz_risk":1,"updated_at":"2026-03-14T11:19:40.261691+05:30"},{"city":"Pondicherry","state":"Puducherry","latitude":11.9139,"longitude":79.8145,"temp":32.0,"humidity":55,"rain":0.0,"pressure":1012.9,"uv_index":9.05,"wind_gusts":28.4,"aqi":55,"pm10":17.2,"pm2_5":12.9,"mosquito_risk":0,"arthritis_risk":0,"migraine_risk":4,"frizz_risk":1,"updated_at":"2026-03-14T11:19:40.261701+05:30"},{"city":"Port Blair","state":"Andaman and Nicobar Islands","latitude":11.6234,"longitude":92.7265,"temp":28.2,"humidity":75,"rain":0.0,"pressure":1010.3,"uv_index":8.95,"wind_gusts":24.5,"aqi":72,"pm10":11.2,"pm2_5":8.5,"mosquito_risk":7,"arthritis_risk":0,"migraine_risk":4,"frizz_risk":1,"updated_at":"2026-03-14T11:19:40.261710+05:30"},{"city":"Haridwar","state":"Uttarakhand","latitude":29.9457,"longitude":78.1642,"temp":26.5,"humidity":51,"rain":0.0,"pressure":976.7,"uv_index":4.95,"wind_gusts":24.8,"aqi":102,"pm10":56.3,"pm2_5":34.8,"mosquito_risk":4,"arthritis_risk":5,"migraine_risk":3,"frizz_risk":0,"updated_at":"2026-03-14T11:19:40.261720+05:30"},{"city":"Rishikesh","state":"Uttarakhand","latitude":30.0869,"longitude":78.2676,"temp":27.6,"humidity":41,"rain":0.0,"pressure":969.3,"uv_index":4.5,"wind_gusts":25.9,"aqi":70,"pm10":19.3,"pm2_5":16.4,"mosquito_risk":4,"arthritis_risk":5,"migraine_risk":3,"frizz_risk":0,"updated_at":"2026-03-14T11:19:40.261729+05:30"},{"city":"Nainital","state":"Uttarakhand","latitude":29.3919,"longitude":79.4542,"temp":21.8,"humidity":35,"rain":0.0,"pressure":809.4,"uv_index":6.3,"wind_gusts":34.9,"aqi":83,"pm10":39.9,"pm2_5":22.5,"mosquito_risk":0,"arthritis_risk":5,"migraine_risk":7,"frizz_risk":0,"updated_at":"2026-03-14T11:19:40.261737+05:30"},{"city":"Mussoorie","state":"Uttarakhand","latitude":30.4599,"longitude":78.0664,"temp":20.6,"humidity":40,"rain":0.0,"pressure":805.6,"uv_index":4.5,"wind_gusts":25.9,"aqi":76,"pm10":26.5,"pm2_5":19.2,"mosquito_risk":0,"arthritis_risk":5,"migraine_risk":3,"frizz_risk":0,"updated_at":"2026-03-14T11:19:40.261746+05:30"},{"city":"Dharamshala","state":"Himachal Pradesh","latitude":32.219,"longitude":76.3234,"temp":22.5,"humidity":27,"rain":0.0,"pressure":870.8,"uv_index":5.65,"wind_gusts":22.0,"aqi":39,"pm10":25.6,"pm2_5":6.5,"mosquito_risk":0,"arthritis_risk":5,"migraine_risk":3,"frizz_risk":0,"updated_at":"2026-03-14T11:19:40.261754+05:30"},{"city":"Dalhousie","state":"Himachal Pradesh","latitude":32.5387,"longitude":75.971,"temp":20.5,"humidity":26,"rain":0.0,"pressure":805.7,"uv_index":6.2,"wind_gusts":18.7,"aqi":66,"pm10":25.0,"pm2_5":11.2,"mosquito_risk":0,"arthritis_risk":5,"migraine_risk":7,"frizz_risk":0,"updated_at":"2026-03-14T11:19:40.261763+05:30"},{"city":"Patiala","state":"Punjab","latitude":30.3398,"longitude":76.3869,"temp":25.7,"humidity":43,"rain":0.0,"pressure":980.8,"uv_index":5.65,"wind_gusts":24.5,"aqi":341,"pm10":277.5,"pm2_5":54.5,"mosquito_risk":4,"arthritis_risk":5,"migraine_risk":3,"frizz_risk":0,"updated_at":"2026-03-14T11:19:40.261772+05:30"},{"city":"Bhatinda","state":"Punjab","latitude":30.211,"longitude":74.9455,"temp":28.1,"humidity":51,"rain":0.0,"pressure":986.7,"uv_index":5.9,"wind_gusts":20.2,"aqi":90,"pm10":25.7,"pm2_5":23.3,"mosquito_risk":4,"arthritis_risk":5,"migraine_risk":3,"frizz_risk":1,"updated_at":"2026-03-14T11:19:40.261780+05:30"},{"city":"Rohtak","state":"Haryana","latitude":28.8955,"longitude":76.6066,"temp":27.2,"humidity":45,"rain":0.0,"pressure":985.1,"uv_index":6.0,"wind_gusts":28.4,"aqi":523,"pm10":398.6,"pm2_5":73.1,"mosquito_risk":4,"arthritis_risk":5,"migraine_risk":3,"frizz_risk":0,"updated_at":"2026-03-14T11:19:40.261789+05:30"},{"city":"Panipat","state":"Haryana","latitude":29.3909,"longitude":76.9635,"temp":25.5,"humidity":51,"rain":0.0,"pressure":983.4,"uv_index":5.75,"wind_gusts":25.6,"aqi":962,"pm10":739.5,"pm2_5":105.0,"mosquito_risk":4,"arthritis_risk":5,"migraine_risk":3,"frizz_risk":0,"updated_at":"2026-03-14T11:19:40.261797+05:30"},{"city":"Mathura","state":"Uttar Pradesh","latitude":27.4924,"longitude":77.6737,"temp":30.8,"humidity":30,"rain":0.0,"pressure":990.3,"uv_index":5.85,"wind_gusts":38.2,"aqi":759,"pm10":320.4,"pm2_5":72.6,"mosquito_risk":0,"arthritis_risk":5,"migraine_risk":3,"frizz_risk":0,"updated_at":"2026-03-14T11:19:40.261805+05:30"},{"city":"Vrindavan","state":"Uttar Pradesh","latitude":27.5823,"longitude":77.7027,"temp":30.3,"humidity":33,"rain":0.0,"pressure":990.6,"uv_index":5.95,"wind_gusts":34.9,"aqi":759,"pm10":320.4,"pm2_5":72.6,"mosquito_risk":0,"arthritis_risk":5,"migraine_risk":3,"frizz_risk":0,"updated_at":"2026-03-14T11:19:40.261813+05:30"},{"city":"Ayodhya","state":"Uttar Pradesh","latitude":26.7922,"longitude":82.1998,"temp":28.6,"humidity":50,"rain":0.0,"pressure":998.5,"uv_index":6.85,"wind_gusts":24.5,"aqi":154,"pm10":353.0,"pm2_5":90.3,"mosquito_risk":4,"arthritis_risk":5,"migraine_risk":7,"frizz_risk":1,"updated_at":"2026-03-14T11:19:40.261821+05:30"},{"city":"Ratlam","state":"Madhya Pradesh","latitude":23.3315,"longitude":75.0367,"temp":33.0,"humidity":24,"rain":0.0,"pressure":958.0,"uv_index":7.65,"wind_gusts":39.2,"aqi":73,"pm10":40.9,"pm2_5":22.1,"mosquito_risk":0,"arthritis_risk":5,"migraine_risk":7,"frizz_risk":0,"updated_at":"2026-03-14T11:19:40.261829+05:30"},{"city":"Sagar","state":"Madhya Pradesh","latitude":23.8388,"longitude":78.7378,"temp":33.5,"humidity":22,"rain":0.0,"pressure":953.7,"uv_index":7.65,"wind_gusts":32.8,"aqi":56,"pm10":54.4,"pm2_5":19.7,"mosquito_risk":0,"arthritis_risk":5,"migraine_risk":7,"frizz_risk":0,"updated_at":"2026-03-14T11:19:40.261858+05:30"},{"city":"Satna","state":"Madhya Pradesh","latitude":24.6005,"longitude":80.8322,"temp":33.4,"humidity":29,"rain":0.0,"pressure":974.7,"uv_index":7.6,"wind_gusts":29.5,"aqi":73,"pm10":247.7,"pm2_5":51.3,"mosquito_risk":0,"arthritis_risk":5,"migraine_risk":7,"frizz_risk":0,"updated_at":"2026-03-14T11:19:40.261867+05:30"},{"city":"Akola","state":"Maharashtra","latitude":20.7002,"longitude":77.0082,"temp":34.2,"humidity":23,"rain":0.0,"pressure":978.8,"uv_index":8.1,"wind_gusts":13.3,"aqi":92,"pm10":29.3,"pm2_5":26.0,"mosquito_risk":0,"arthritis_risk":5,"migraine_risk":7,"frizz_risk":0,"updated_at":"2026-03-14T11:19:40.261877+05:30"},{"city":"Amravati","state":"Maharashtra","latitude":20.9374,"longitude":77.7796,"temp":35.7,"humidity":18,"rain":0.0,"pressure":970.8,"uv_index":8.1,"wind_gusts":14.8,"aqi":100,"pm10":27.1,"pm2_5":25.7,"mosquito_risk":0,"arthritis_risk":5,"migraine_risk":10,"frizz_risk":0,"updated_at":"2026-03-14T11:19:40.261886+05:30"},{"city":"Latur","state":"Maharashtra","latitude":18.4088,"longitude":76.5604,"temp":32.3,"humidity":32,"rain":0.0,"pressure":943.4,"uv_index":8.5,"wind_gusts":26.6,"aqi":100,"pm10":36.0,"pm2_5":31.1,"mosquito_risk":0,"arthritis_risk":5,"migraine_risk":7,"frizz_risk":0,"updated_at":"2026-03-14T11:19:40.261894+05:30"},{"city":"Nanded","state":"Maharashtra","latitude":19.1383,"longitude":77.3091,"temp":35.7,"humidity":30,"rain":0.0,"pressure":971.9,"uv_index":8.3,"wind_gusts":31.0,"aqi":123,"pm10":47.3,"pm2_5":39.2,"mosquito_risk":0,"arthritis_risk":5,"migraine_risk":10,"frizz_risk":0,"updated_at":"2026-03-14T11:19:40.261901+05:30"},{"city":"Gulbarga","state":"Karnataka","latitude":17.3297,"longitude":76.8343,"temp":35.1,"humidity":27,"rain":0.0,"pressure":962.0,"uv_index":8.6,"wind_gusts":38.9,"aqi":99,"pm10":35.0,"pm2_5":30.3,"mosquito_risk":0,"arthritis_risk":5,"migraine_risk":10,"frizz_risk":0,"updated_at":"2026-03-14T11:19:40.261908+05:30"},{"city":"Bidar","state":"Karnataka","latitude":17.9104,"longitude":77.5199,"temp":32.6,"humidity":34,"rain":0.0,"pressure":939.1,"uv_index":8.55,"wind_gusts":37.1,"aqi":98,"pm10":38.3,"pm2_5":30.5,"mosquito_risk":0,"arthritis_risk":5,"migraine_risk":7,"frizz_risk":0,"updated_at":"2026-03-14T11:19:40.261914+05:30"},{"city":"Hospet","state":"Karnataka","latitude":15.2689,"longitude":76.3909,"temp":30.1,"humidity":60,"rain":0.0,"pressure":959.8,"uv_index":8.9,"wind_gusts":29.2,"aqi":108,"pm10":42.0,"pm2_5":36.7,"mosquito_risk":0,"arthritis_risk":5,"migraine_risk":7,"frizz_risk":1,"updated_at":"2026-03-14T11:19:40.261920+05:30"},{"city":"Tirupur","state":"Tamil Nadu","latitude":11.1085,"longitude":77.3411,"temp":31.3,"humidity":51,"rain":0.0,"pressure":979.7,"uv_index":9.3,"wind_gusts":29.5,"aqi":76,"pm10":15.8,"pm2_5":13.1,"mosquito_risk":0,"arthritis_risk":5,"migraine_risk":7,"frizz_risk":1,"updated_at":"2026-03-14T11:19:40.261927+05:30"},{"city":"Alappuzha","state":"Kerala","latitude":9.4981,"longitude":76.3388,"temp":27.5,"humidity":81,"rain":0.0,"pressure":1012.6,"uv_index":9.1,"wind_gusts":27.0,"aqi":76,"pm10":21.8,"pm2_5":20.3,"mosquito_risk":7,"arthritis_risk":0,"migraine_risk":4,"frizz_risk":1,"updated_at":"2026-03-14T11:19:40.261934+05:30"},{"city":"Munnar","state":"Kerala","latitude":10.0889,"longitude":77.0595,"temp":28.1,"humidity":44,"rain":0.0,"pressure":861.9,"uv_index":9.6,"wind_gusts":32.0,"aqi":60,"pm10":9.3,"pm2_5":7.4,"mosquito_risk":4,"arthritis_risk":5,"migraine_risk":7,"frizz_risk":0,"updated_at":"2026-03-14T11:19:40.261941+05:30"},{"city":"Silchar","state":"Assam","latitude":24.8333,"longitude":92.7789,"temp":21.7,"humidity":89,"rain":0.0,"pressure":1011.5,"uv_index":7.4,"wind_gusts":36.4,"aqi":135,"pm10":43.4,"pm2_5":34.9,"mosquito_risk":3,"arthritis_risk":0,"migraine_risk":4,"frizz_risk":1,"updated_at":"2026-03-14T11:19:40.261947+05:30"},{"city":"Dibrugarh","state":"Assam","latitude":27.4728,"longitude":94.912,"temp":21.0,"humidity":82,"rain":0.0,"pressure":1000.2,"uv_index":4.6,"wind_gusts":20.5,"aqi":104,"pm10":24.0,"pm2_5":20.1,"mosquito_risk":3,"arthritis_risk":5,"migraine_risk":0,"frizz_risk":1,"updated_at":"2026-03-14T11:19:40.261954+05:30"}]