[{"city":"Delhi","state":"Delhi","latitude":28.6139,"longitude":77.209,"temp":42.0,"humidity":13,"rain":0.0,"pressure":977.3,"uv_index":7.75,"wind_gusts":43.9,"aqi":637,"pm10":590.5,"pm2_5":88.5,"no2":4.5,"co":200.0,"o3":137.0,"so2":6.9,"mosquito_risk":0,"arthritis_risk":5,"migraine_risk":10,"frizz_risk":0,"updated_at":"2026-05-24T16:52:06.602585+05:30"},{"city":"Mumbai","state":"Maharashtra","latitude":19.076,"longitude":72.8777,"temp":32.0,"humidity":68,"rain":0.0,"pressure":1008.4,"uv_index":7.15,"wind_gusts":46.8,"aqi":39,"pm10":11.8,"pm2_5":8.8,"no2":4.5,"co":166.0,"o3":68.0,"so2":4.2,"mosquito_risk":3,"arthritis_risk":0,"migraine_risk":4,"frizz_risk":1,"updated_at":"2026-05-24T16:52:06.602625+05:30"},{"city":"Bangalore","state":"Karnataka","latitude":12.9716,"longitude":77.5946,"temp":28.1,"humidity":62,"rain":0.0,"pressure":911.5,"uv_index":4.45,"wind_gusts":33.8,"aqi":52,"pm10":20.3,"pm2_5":16.6,"no2":6.3,"co":351.0,"o3":103.0,"so2":3.0,"mosquito_risk":7,"arthritis_risk":5,"migraine_risk":3,"frizz_risk":1,"updated_at":"2026-05-24T16:52:06.602640+05:30"},{"city":"Hyderabad","state":"Telangana","latitude":17.385,"longitude":78.4867,"temp":37.5,"humidity":24,"rain":0.0,"pressure":951.2,"uv_index":9.25,"wind_gusts":47.5,"aqi":74,"pm10":20.5,"pm2_5":14.0,"no2":2.1,"co":211.0,"o3":123.0,"so2":4.3,"mosquito_risk":0,"arthritis_risk":5,"migraine_risk":10,"frizz_risk":0,"updated_at":"2026-05-24T16:52:06.602650+05:30"},{"city":"Chennai","state":"Tamil Nadu","latitude":13.0827,"longitude":80.2707,"temp":35.4,"humidity":54,"rain":0.0,"pressure":1003.2,"uv_index":8.6,"wind_gusts":40.0,"aqi":102,"pm10":29.8,"pm2_5":23.8,"no2":5.5,"co":268.0,"o3":160.0,"so2":7.3,"mosquito_risk":0,"arthritis_risk":5,"migraine_risk":7,"frizz_risk":1,"updated_at":"2026-05-24T16:52:06.602659+05:30"},{"city":"Kolkata","state":"West Bengal","latitude":22.5726,"longitude":88.3639,"temp":33.3,"humidity":68,"rain":0.0,"pressure":1000.5,"uv_index":8.95,"wind_gusts":40.3,"aqi":94,"pm10":46.6,"pm2_5":35.0,"no2":3.6,"co":302.0,"o3":117.0,"so2":6.8,"mosquito_risk":3,"arthritis_risk":5,"migraine_risk":4,"frizz_risk":1,"updated_at":"2026-05-24T16:52:06.602667+05:30"},{"city":"Pune","state":"Maharashtra","latitude":18.5204,"longitude":73.8567,"temp":29.8,"humidity":66,"rain":0.0,"pressure":948.4,"uv_index":8.2,"wind_gusts":44.3,"aqi":38,"pm10":12.1,"pm2_5":8.6,"no2":2.4,"co":171.0,"o3":92.0,"so2":4.0,"mosquito_risk":7,"arthritis_risk":5,"migraine_risk":7,"frizz_risk":1,"updated_at":"2026-05-24T16:52:06.602673+05:30"},{"city":"Ahmedabad","state":"Gujarat","latitude":23.0225,"longitude":72.5714,"temp":41.5,"humidity":25,"rain":0.0,"pressure":999.0,"uv_index":8.15,"wind_gusts":39.2,"aqi":56,"pm10":11.9,"pm2_5":8.4,"no2":1.2,"co":137.0,"o3":75.0,"so2":1.8,"mosquito_risk":0,"arthritis_risk":5,"migraine_risk":10,"frizz_risk":1,"updated_at":"2026-05-24T16:52:06.602680+05:30"},{"city":"Jaipur","state":"Rajasthan","latitude":26.9124,"longitude":75.7873,"temp":41.2,"humidity":12,"rain":0.0,"pressure":956.6,"uv_index":8.25,"wind_gusts":47.9,"aqi":193,"pm10":416.3,"pm2_5":71.7,"no2":0.9,"co":137.0,"o3":109.0,"so2":2.3,"mosquito_risk":0,"arthritis_risk":5,"migraine_risk":10,"frizz_risk":0,"updated_at":"2026-05-24T16:52:06.602691+05:30"},{"city":"Lucknow","state":"Uttar Pradesh","latitude":26.8467,"longitude":80.9462,"temp":41.5,"humidity":15,"rain":0.0,"pressure":987.1,"uv_index":8.2,"wind_gusts":48.6,"aqi":186,"pm10":332.5,"pm2_5":66.4,"no2":2.4,"co":210.0,"o3":152.0,"so2":7.2,"mosquito_risk":0,"arthritis_risk":5,"migraine_risk":10,"frizz_risk":0,"updated_at":"2026-05-24T16:52:06.602700+05:30"},{"city":"Kanpur","state":"Uttar Pradesh","latitude":26.4499,"longitude":80.3319,"temp":42.2,"humidity":13,"rain":0.0,"pressure":985.9,"uv_index":8.2,"wind_gusts":44.3,"aqi":517,"pm10":732.0,"pm2_5":99.2,"no2":1.6,"co":192.0,"o3":149.0,"so2":6.3,"mosquito_risk":0,"arthritis_risk":5,"migraine_risk":10,"frizz_risk":0,"updated_at":"2026-05-24T16:52:06.602706+05:30"},{"city":"Chandigarh","state":"Chandigarh","latitude":30.7333,"longitude":76.7794,"temp":38.9,"humidity":17,"rain":0.0,"pressure":963.6,"uv_index":7.75,"wind_gusts":47.9,"aqi":103,"pm10":58.4,"pm2_5":22.1,"no2":1.1,"co":189.0,"o3":144.0,"so2":6.0,"mosquito_risk":0,"arthritis_risk":5,"migraine_risk":10,"frizz_risk":0,"updated_at":"2026-05-24T16:52:06.602713+05:30"},{"city":"Srinagar","state":"Jammu and Kashmir","latitude":34.0837,"longitude":74.7973,"temp":22.8,"humidity":47,"rain":0.0,"pressure":842.9,"uv_index":8.7,"wind_gusts":29.9,"aqi":80,"pm10":20.6,"pm2_5":10.0,"no2":2.3,"co":213.0,"o3":122.0,"so2":1.7,"mosquito_risk":0,"arthritis_risk":5,"migraine_risk":7,"frizz_risk":0,"updated_at":"2026-05-24T16:52:06.602720+05:30"},{"city":"Jammu","state":"Jammu and Kashmir","latitude":32.7266,"longitude":74.857,"temp":37.3,"humidity":19,"rain":0.0,"pressure":967.9,"uv_index":8.55,"wind_gusts":36.4,"aqi":78,"pm10":66.4,"pm2_5":23.1,"no2":0.2,"co":164.0,"o3":140.0,"so2":3.8,"mosquito_risk":0,"arthritis_risk":5,"migraine_risk":10,"frizz_risk":0,"updated_at":"2026-05-24T16:52:06.602727+05:30"},{"city":"Amritsar","state":"Punjab","latitude":31.634,"longitude":74.8723,"temp":38.5,"humidity":20,"rain":0.0,"pressure":975.2,"uv_index":8.4,"wind_gusts":42.5,"aqi":90,"pm10":64.0,"pm2_5":22.2,"no2":1.3,"co":181.0,"o3":133.0,"so2":3.0,"mosquito_risk":0,"arthritis_risk":5,"migraine_risk":10,"frizz_risk":0,"updated_at":"2026-05-24T16:52:06.602734+05:30"},{"city":"Ludhiana","state":"Punjab","latitude":30.901,"longitude":75.8573,"temp":39.8,"humidity":15,"rain":0.0,"pressure":972.9,"uv_index":8.0,"wind_gusts":30.6,"aqi":101,"pm10":67.1,"pm2_5":21.9,"no2":0.7,"co":168.0,"o3":136.0,"so2":2.6,"mosquito_risk":0,"arthritis_risk":5,"migraine_risk":10,"frizz_risk":0,"updated_at":"2026-05-24T16:52:06.602740+05:30"},{"city":"Jalandhar","state":"Punjab","latitude":31.326,"longitude":75.5762,"temp":39.5,"humidity":20,"rain":0.0,"pressure":974.0,"uv_index":8.2,"wind_gusts":30.6,"aqi":99,"pm10":74.5,"pm2_5":23.7,"no2":0.0,"co":162.0,"o3":140.0,"so2":2.4,"mosquito_risk":0,"arthritis_risk":5,"migraine_risk":10,"frizz_risk":0,"updated_at":"2026-05-24T16:52:06.602746+05:30"},{"city":"Dehradun","state":"Uttarakhand","latitude":30.6284,"longitude":78.0322,"temp":27.8,"humidity":25,"rain":0.0,"pressure":831.2,"uv_index":8.2,"wind_gusts":47.2,"aqi":71,"pm10":52.7,"pm2_5":16.2,"no2":0.0,"co":159.0,"o3":119.0,"so2":1.9,"mosquito_risk":4,"arthritis_risk":5,"migraine_risk":7,"frizz_risk":0,"updated_at":"2026-05-24T16:52:06.602752+05:30"},{"city":"Shimla","state":"Himachal Pradesh","latitude":31.1048,"longitude":77.1734,"temp":23.2,"humidity":26,"rain":0.0,"pressure":786.8,"uv_index":8.25,"wind_gusts":65.5,"aqi":80,"pm10":106.4,"pm2_5":26.3,"no2":0.0,"co":150.0,"o3":123.0,"so2":2.8,"mosquito_risk":0,"arthritis_risk":5,"migraine_risk":7,"frizz_risk":0,"updated_at":"2026-05-24T16:52:06.602761+05:30"},{"city":"Manali","state":"Himachal Pradesh","latitude":32.2396,"longitude":77.1887,"temp":22.2,"humidity":44,"rain":0.0,"pressure":820.2,"uv_index":9.45,"wind_gusts":49.7,"aqi":93,"pm10":25.4,"pm2_5":8.5,"no2":1.0,"co":131.0,"o3":139.0,"so2":0.7,"mosquito_risk":0,"arthritis_risk":5,"migraine_risk":7,"frizz_risk":0,"updated_at":"2026-05-24T16:52:06.602769+05:30"},{"city":"Gurgaon","state":"Haryana","latitude":28.4595,"longitude":77.0266,"temp":42.2,"humidity":13,"rain":0.0,"pressure":975.7,"uv_index":7.8,"wind_gusts":38.9,"aqi":1157,"pm10":1791.9,"pm2_5":218.9,"no2":3.1,"co":192.0,"o3":129.0,"so2":5.6,"mosquito_risk":0,"arthritis_risk":5,"migraine_risk":10,"frizz_risk":0,"updated_at":"2026-05-24T16:52:06.602793+05:30"},{"city":"Noida","state":"Uttar Pradesh","latitude":28.5355,"longitude":77.391,"temp":41.8,"humidity":14,"rain":0.0,"pressure":978.7,"uv_index":7.75,"wind_gusts":40.0,"aqi":1157,"pm10":1791.9,"pm2_5":218.9,"no2":3.1,"co":205.0,"o3":129.0,"so2":5.6,"mosquito_risk":0,"arthritis_risk":5,"migraine_risk":10,"frizz_risk":0,"updated_at":"2026-05-24T16:52:06.602802+05:30"},{"city":"Ghaziabad","state":"Uttar Pradesh","latitude":28.6692,"longitude":77.4538,"temp":41.5,"humidity":14,"rain":0.0,"pressure":977.0,"uv_index":7.75,"wind_gusts":42.8,"aqi":459,"pm10":590.5,"pm2_5":87.1,"no2":3.3,"co":199.0,"o3":152.0,"so2":9.7,"mosquito_risk":0,"arthritis_risk":5,"migraine_risk":10,"frizz_risk":0,"updated_at":"2026-05-24T16:52:06.602808+05:30"},{"city":"Faridabad","state":"Haryana","latitude":28.4089,"longitude":77.3178,"temp":42.0,"humidity":13,"rain":0.0,"pressure":978.0,"uv_index":7.8,"wind_gusts":46.1,"aqi":1157,"pm10":1791.9,"pm2_5":218.9,"no2":3.1,"co":173.0,"o3":129.0,"so2":5.6,"mosquito_risk":0,"arthritis_risk":5,"migraine_risk":10,"frizz_risk":0,"updated_at":"2026-05-24T16:52:06.602814+05:30"},{"city":"Meerut","state":"Uttar Pradesh","latitude":28.9845,"longitude":77.7064,"temp":40.5,"humidity":15,"rain":0.0,"pressure":975.8,"uv_index":7.65,"wind_gusts":45.4,"aqi":459,"pm10":590.5,"pm2_5":87.1,"no2":3.3,"co":181.0,"o3":152.0,"so2":9.7,"mosquito_risk":0,"arthritis_risk":5,"migraine_risk":10,"frizz_risk":0,"updated_at":"2026-05-24T16:52:06.602820+05:30"},{"city":"Agra","state":"Uttar Pradesh","latitude":27.1767,"longitude":78.0081,"temp":42.8,"humidity":12,"rain":0.0,"pressure":982.3,"uv_index":8.1,"wind_gusts":41.8,"aqi":766,"pm10":1307.6,"pm2_5":150.9,"no2":2.8,"co":157.0,"o3":126.0,"so2":3.9,"mosquito_risk":0,"arthritis_risk":5,"migraine_risk":10,"frizz_risk":0,"updated_at":"2026-05-24T16:52:06.602827+05:30"},{"city":"Varanasi","state":"Uttar Pradesh","latitude":25.3176,"longitude":82.9739,"temp":42.6,"humidity":14,"rain":0.0,"pressure":990.4,"uv_index":8.75,"wind_gusts":46.4,"aqi":154,"pm10":150.9,"pm2_5":42.7,"no2":3.5,"co":178.0,"o3":143.0,"so2":7.0,"mosquito_risk":0,"arthritis_risk":5,"migraine_risk":10,"frizz_risk":0,"updated_at":"2026-05-24T16:52:06.602833+05:30"},{"city":"Prayagraj","state":"Uttar Pradesh","latitude":25.4358,"longitude":81.8463,"temp":42.3,"humidity":15,"rain":0.0,"pressure":989.4,"uv_index":8.6,"wind_gusts":46.4,"aqi":154,"pm10":143.0,"pm2_5":39.0,"no2":2.1,"co":174.0,"o3":145.0,"so2":6.3,"mosquito_risk":0,"arthritis_risk":5,"migraine_risk":10,"frizz_risk":0,"updated_at":"2026-05-24T16:52:06.602840+05:30"},{"city":"Gorakhpur","state":"Uttar Pradesh","latitude":26.7606,"longitude":83.3732,"temp":38.6,"humidity":25,"rain":0.0,"pressure":990.6,"uv_index":8.6,"wind_gusts":34.9,"aqi":177,"pm10":120.6,"pm2_5":44.4,"no2":3.9,"co":224.0,"o3":161.0,"so2":8.2,"mosquito_risk":0,"arthritis_risk":5,"migraine_risk":10,"frizz_risk":0,"updated_at":"2026-05-24T16:52:06.602849+05:30"},{"city":"Bareilly","state":"Uttar Pradesh","latitude":28.367,"longitude":79.4304,"temp":38.8,"humidity":24,"rain":0.0,"pressure":980.7,"uv_index":8.05,"wind_gusts":43.6,"aqi":146,"pm10":79.4,"pm2_5":34.7,"no2":2.5,"co":212.0,"o3":169.0,"so2":8.3,"mosquito_risk":0,"arthritis_risk":5,"migraine_risk":10,"frizz_risk":0,"updated_at":"2026-05-24T16:52:06.602856+05:30"},{"city":"Aligarh","state":"Uttar Pradesh","latitude":27.8974,"longitude":78.088,"temp":40.8,"humidity":16,"rain":0.0,"pressure":980.1,"uv_index":7.9,"wind_gusts":42.8,"aqi":774,"pm10":1173.5,"pm2_5":147.1,"no2":2.7,"co":196.0,"o3":142.0,"so2":7.0,"mosquito_risk":0,"arthritis_risk":5,"migraine_risk":10,"frizz_risk":0,"updated_at":"2026-05-24T16:52:06.602862+05:30"},{"city":"Moradabad","state":"Uttar Pradesh","latitude":28.8386,"longitude":78.7733,"temp":39.4,"humidity":20,"rain":0.0,"pressure":977.8,"uv_index":7.85,"wind_gusts":48.2,"aqi":146,"pm10":170.0,"pm2_5":46.6,"no2":2.9,"co":207.0,"o3":151.0,"so2":6.9,"mosquito_risk":0,"arthritis_risk":5,"migraine_risk":10,"frizz_risk":0,"updated_at":"2026-05-24T16:52:06.602868+05:30"},{"city":"Saharanpur","state":"Uttar Pradesh","latitude":29.9637,"longitude":77.546,"temp":38.9,"humidity":18,"rain":0.0,"pressure":970.2,"uv_index":7.4,"wind_gusts":54.0,"aqi":118,"pm10":159.7,"pm2_5":37.3,"no2":4.4,"co":202.0,"o3":134.0,"so2":8.0,"mosquito_risk":0,"arthritis_risk":5,"migraine_risk":10,"frizz_risk":0,"updated_at":"2026-05-24T16:52:06.602875+05:30"},{"city":"Jhansi","state":"Uttar Pradesh","latitude":25.4484,"longitude":78.5685,"temp":42.1,"humidity":13,"rain":0.0,"pressure":973.6,"uv_index":8.45,"wind_gusts":45.7,"aqi":91,"pm10":77.5,"pm2_5":30.6,"no2":1.3,"co":151.0,"o3":118.0,"so2":3.9,"mosquito_risk":0,"arthritis_risk":5,"migraine_risk":10,"frizz_risk":0,"updated_at":"2026-05-24T16:52:09.966756+05:30"},{"city":"Surat","state":"Gujarat","latitude":21.1702,"longitude":72.8311,"temp":34.3,"humidity":58,"rain":0.0,"pressure":1005.5,"uv_index":7.7,"wind_gusts":43.9,"aqi":54,"pm10":20.5,"pm2_5":16.2,"no2":12.3,"co":246.0,"o3":49.0,"so2":35.6,"mosquito_risk":0,"arthritis_risk":5,"migraine_risk":4,"frizz_risk":1,"updated_at":"2026-05-24T16:52:09.966816+05:30"},{"city":"Vadodara","state":"Gujarat","latitude":22.3072,"longitude":73.1812,"temp":41.0,"humidity":25,"rain":0.0,"pressure":1001.3,"uv_index":8.1,"wind_gusts":42.8,"aqi":51,"pm10":14.0,"pm2_5":9.2,"no2":0.9,"co":143.0,"o3":91.0,"so2":2.1,"mosquito_risk":0,"arthritis_risk":5,"migraine_risk":7,"frizz_risk":1,"updated_at":"2026-05-24T16:52:09.966828+05:30"},{"city":"Rajkot","state":"Gujarat","latitude":22.3039,"longitude":70.8022,"temp":35.7,"humidity":49,"rain":0.0,"pressure":993.0,"uv_index":7.7,"wind_gusts":47.2,"aqi":57,"pm10":19.9,"pm2_5":13.1,"no2":1.1,"co":115.0,"o3":90.0,"so2":4.3,"mosquito_risk":0,"arthritis_risk":5,"migraine_risk":10,"frizz_risk":1,"updated_at":"2026-05-24T16:52:09.966837+05:30"},{"city":"Thane","state":"Maharashtra","latitude":19.2183,"longitude":72.9781,"temp":31.8,"humidity":69,"rain":0.0,"pressure":1007.7,"uv_index":7.3,"wind_gusts":40.0,"aqi":39,"pm10":11.8,"pm2_5":8.8,"no2":4.5,"co":139.0,"o3":68.0,"so2":4.2,"mosquito_risk":3,"arthritis_risk":5,"migraine_risk":4,"frizz_risk":1,"updated_at":"2026-05-24T16:52:09.966846+05:30"},{"city":"Nagpur","state":"Maharashtra","latitude":21.1458,"longitude":79.0882,"temp":42.7,"humidity":13,"rain":0.0,"pressure":969.1,"uv_index":8.9,"wind_gusts":46.8,"aqi":86,"pm10":57.5,"pm2_5":24.8,"no2":4.7,"co":150.0,"o3":130.0,"so2":11.9,"mosquito_risk":0,"arthritis_risk":5,"migraine_risk":10,"frizz_risk":0,"updated_at":"2026-05-24T16:52:09.966853+05:30"},{"city":"Nashik","state":"Maharashtra","latitude":19.9975,"longitude":73.7898,"temp":29.4,"humidity":67,"rain":0.1,"pressure":945.9,"uv_index":8.15,"wind_gusts":46.8,"aqi":32,"pm10":6.5,"pm2_5":4.5,"no2":1.0,"co":126.0,"o3":64.0,"so2":0.6,"mosquito_risk":10,"arthritis_risk":5,"migraine_risk":7,"frizz_risk":1,"updated_at":"2026-05-24T16:52:09.966861+05:30"},{"city":"Aurangabad","state":"Maharashtra","latitude":19.8762,"longitude":75.3433,"temp":38.0,"humidity":21,"rain":0.0,"pressure":943.2,"uv_index":8.95,"wind_gusts":49.0,"aqi":49,"pm10":27.8,"pm2_5":12.3,"no2":0.9,"co":137.0,"o3":107.0,"so2":1.2,"mosquito_risk":0,"arthritis_risk":5,"migraine_risk":10,"frizz_risk":0,"updated_at":"2026-05-24T16:52:09.966868+05:30"},{"city":"Solapur","state":"Maharashtra","latitude":17.6599,"longitude":75.9064,"temp":36.5,"humidity":33,"rain":0.1,"pressure":955.7,"uv_index":9.05,"wind_gusts":46.8,"aqi":68,"pm10":21.0,"pm2_5":14.0,"no2":1.0,"co":153.0,"o3":109.0,"so2":2.3,"mosquito_risk":3,"arthritis_risk":5,"migraine_risk":10,"frizz_risk":1,"updated_at":"2026-05-24T16:52:09.966877+05:30"},{"city":"Kolhapur","state":"Maharashtra","latitude":16.705,"longitude":74.2433,"temp":31.6,"humidity":53,"rain":0.0,"pressure":947.9,"uv_index":8.7,"wind_gusts":42.8,"aqi":42,"pm10":17.8,"pm2_5":13.0,"no2":2.5,"co":147.0,"o3":86.0,"so2":1.8,"mosquito_risk":0,"arthritis_risk":5,"migraine_risk":7,"frizz_risk":1,"updated_at":"2026-05-24T16:52:09.966884+05:30"},{"city":"Goa","state":"Goa","latitude":15.2993,"longitude":74.124,"temp":33.5,"humidity":55,"rain":0.0,"pressure":996.9,"uv_index":5.75,"wind_gusts":28.8,"aqi":44,"pm10":15.7,"pm2_5":10.5,"no2":0.7,"co":128.0,"o3":60.0,"so2":0.9,"mosquito_risk":0,"arthritis_risk":5,"migraine_risk":3,"frizz_risk":1,"updated_at":"2026-05-24T16:52:09.966891+05:30"},{"city":"Jodhpur","state":"Rajasthan","latitude":26.2389,"longitude":73.0243,"temp":41.2,"humidity":15,"rain":0.0,"pressure":979.3,"uv_index":8.45,"wind_gusts":54.7,"aqi":186,"pm10":469.4,"pm2_5":75.0,"no2":0.7,"co":121.0,"o3":107.0,"so2":2.0,"mosquito_risk":0,"arthritis_risk":5,"migraine_risk":10,"frizz_risk":0,"updated_at":"2026-05-24T16:52:09.966899+05:30"},{"city":"Udaipur","state":"Rajasthan","latitude":24.5854,"longitude":73.7125,"temp":37.7,"humidity":22,"rain":0.0,"pressure":945.7,"uv_index":8.8,"wind_gusts":54.0,"aqi":73,"pm10":54.0,"pm2_5":18.4,"no2":0.4,"co":129.0,"o3":94.0,"so2":1.7,"mosquito_risk":0,"arthritis_risk":5,"migraine_risk":10,"frizz_risk":0,"updated_at":"2026-05-24T16:52:09.966906+05:30"},{"city":"Kota","state":"Rajasthan","latitude":25.2138,"longitude":75.8648,"temp":43.0,"humidity":13,"rain":0.0,"pressure":975.1,"uv_index":8.4,"wind_gusts":44.3,"aqi":88,"pm10":133.6,"pm2_5":36.3,"no2":0.7,"co":130.0,"o3":111.0,"so2":3.2,"mosquito_risk":0,"arthritis_risk":5,"migraine_risk":10,"frizz_risk":0,"updated_at":"2026-05-24T16:52:09.966914+05:30"},{"city":"Bikaner","state":"Rajasthan","latitude":28.0229,"longitude":73.3119,"temp":44.3,"humidity":10,"rain":0.0,"pressure":975.6,"uv_index":8.45,"wind_gusts":57.2,"aqi":152,"pm10":253.3,"pm2_5":85.4,"no2":0.3,"co":121.0,"o3":107.0,"so2":1.4,"mosquito_risk":0,"arthritis_risk":5,"migraine_risk":10,"frizz_risk":0,"updated_at":"2026-05-24T16:52:09.966921+05:30"},{"city":"Ajmer","state":"Rajasthan","latitude":26.4499,"longitude":74.6399,"temp":38.7,"humidity":16,"rain":0.0,"pressure":952.1,"uv_index":8.4,"wind_gusts":63.0,"aqi":100,"pm10":119.7,"pm2_5":34.8,"no2":0.6,"co":126.0,"o3":108.0,"so2":1.9,"mosquito_risk":0,"arthritis_risk":5,"migraine_risk":10,"frizz_risk":0,"updated_at":"2026-05-24T16:52:09.966927+05:30"},{"city":"Gwalior","state":"Madhya Pradesh","latitude":26.2183,"longitude":78.1828,"temp":42.5,"humidity":13,"rain":0.0,"pressure":978.3,"uv_index":8.25,"wind_gusts":46.1,"aqi":104,"pm10":84.8,"pm2_5":32.5,"no2":1.0,"co":154.0,"o3":122.0,"so2":3.1,"mosquito_risk":0,"arthritis_risk":5,"migraine_risk":10,"frizz_risk":0,"updated_at":"2026-05-24T16:52:09.966934+05:30"},{"city":"Indore","state":"Madhya Pradesh","latitude":22.7196,"longitude":75.8577,"temp":36.8,"humidity":28,"rain":0.0,"pressure":947.5,"uv_index":8.7,"wind_gusts":45.4,"aqi":65,"pm10":63.6,"pm2_5":23.7,"no2":1.0,"co":159.0,"o3":117.0,"so2":3.2,"mosquito_risk":0,"arthritis_risk":5,"migraine_risk":10,"frizz_risk":0,"updated_at":"2026-05-24T16:52:09.966940+05:30"},{"city":"Bhopal","state":"Madhya Pradesh","latitude":23.2599,"longitude":77.4126,"temp":41.1,"humidity":14,"rain":0.0,"pressure":951.2,"uv_index":8.7,"wind_gusts":45.7,"aqi":77,"pm10":96.6,"pm2_5":28.5,"no2":0.4,"co":145.0,"o3":116.0,"so2":2.2,"mosquito_risk":0,"arthritis_risk":5,"migraine_risk":10,"frizz_risk":0,"updated_at":"2026-05-24T16:52:09.966947+05:30"},{"city":"Jabalpur","state":"Madhya Pradesh","latitude":23.1815,"longitude":79.9864,"temp":41.7,"humidity":14,"rain":0.0,"pressure":957.9,"uv_index":8.85,"wind_gusts":38.5,"aqi":82,"pm10":102.2,"pm2_5":31.4,"no2":1.1,"co":141.0,"o3":120.0,"so2":2.9,"mosquito_risk":0,"arthritis_risk":5,"migraine_risk":10,"frizz_risk":0,"updated_at":"2026-05-24T16:52:09.966953+05:30"},{"city":"Ujjain","state":"Madhya Pradesh","latitude":23.1765,"longitude":75.7885,"temp":38.8,"humidity":24,"rain":0.0,"pressure":952.5,"uv_index":8.6,"wind_gusts":45.4,"aqi":65,"pm10":59.6,"pm2_5":22.5,"no2":0.6,"co":138.0,"o3":112.0,"so2":3.5,"mosquito_risk":0,"arthritis_risk":5,"migraine_risk":10,"frizz_risk":0,"updated_at":"2026-05-24T16:52:09.966961+05:30"},{"city":"Visakhapatnam","state":"Andhra Pradesh","latitude":17.6868,"longitude":83.2185,"temp":37.4,"humidity":48,"rain":0.0,"pressure":997.2,"uv_index":9.1,"wind_gusts":32.8,"aqi":157,"pm10":51.3,"pm2_5":45.4,"no2":21.1,"co":619.0,"o3":175.0,"so2":56.6,"mosquito_risk":0,"arthritis_risk":5,"migraine_risk":10,"frizz_risk":1,"updated_at":"2026-05-24T16:52:09.966967+05:30"},{"city":"Vijayawada","state":"Andhra Pradesh","latitude":16.5062,"longitude":80.648,"temp":40.5,"humidity":28,"rain":0.0,"pressure":997.0,"uv_index":9.1,"wind_gusts":49.3,"aqi":112,"pm10":36.2,"pm2_5":27.0,"no2":4.1,"co":211.0,"o3":143.0,"so2":6.8,"mosquito_risk":0,"arthritis_risk":5,"migraine_risk":10,"frizz_risk":1,"updated_at":"2026-05-24T16:52:09.966974+05:30"},{"city":"Guntur","state":"Andhra Pradesh","latitude":16.3067,"longitude":80.4365,"temp":39.7,"humidity":30,"rain":0.0,"pressure":998.5,"uv_index":9.15,"wind_gusts":48.2,"aqi":103,"pm10":34.2,"pm2_5":23.3,"no2":2.0,"co":195.0,"o3":142.0,"so2":5.5,"mosquito_risk":0,"arthritis_risk":5,"migraine_risk":10,"frizz_risk":1,"updated_at":"2026-05-24T16:52:09.966981+05:30"},{"city":"Nellore","state":"Andhra Pradesh","latitude":14.4426,"longitude":79.9865,"temp":39.2,"humidity":34,"rain":0.0,"pressure":1001.0,"uv_index":8.9,"wind_gusts":45.0,"aqi":88,"pm10":32.5,"pm2_5":25.2,"no2":3.3,"co":197.0,"o3":147.0,"so2":4.4,"mosquito_risk":0,"arthritis_risk":5,"migraine_risk":7,"frizz_risk":1,"updated_at":"2026-05-24T16:52:09.966989+05:30"},{"city":"Kurnool","state":"Andhra Pradesh","latitude":15.8281,"longitude":78.0373,"temp":37.7,"humidity":35,"rain":0.0,"pressure":973.9,"uv_index":9.05,"wind_gusts":47.2,"aqi":62,"pm10":21.4,"pm2_5":16.8,"no2":1.6,"co":178.0,"o3":135.0,"so2":7.4,"mosquito_risk":0,"arthritis_risk":5,"migraine_risk":10,"frizz_risk":1,"updated_at":"2026-05-24T16:52:09.966996+05:30"},{"city":"Kakinada","state":"Andhra Pradesh","latitude":16.9891,"longitude":82.2475,"temp":41.9,"humidity":27,"rain":0.0,"pressure":1000.4,"uv_index":8.65,"wind_gusts":36.4,"aqi":153,"pm10":35.9,"pm2_5":27.6,"no2":2.6,"co":232.0,"o3":151.0,"so2":2.6,"mosquito_risk":0,"arthritis_risk":5,"migraine_risk":7,"frizz_risk":1,"updated_at":"2026-05-24T16:52:09.967004+05:30"},{"city":"Tirupati","state":"Andhra Pradesh","latitude":13.6288,"longitude":79.4192,"temp":33.0,"humidity":54,"rain":0.0,"pressure":988.3,"uv_index":9.1,"wind_gusts":42.5,"aqi":86,"pm10":43.5,"pm2_5":38.4,"no2":6.3,"co":203.0,"o3":156.0,"so2":4.6,"mosquito_risk":0,"arthritis_risk":5,"migraine_risk":7,"frizz_risk":1,"updated_at":"2026-05-24T16:52:09.967010+05:30"},{"city":"Warangal","state":"Telangana","latitude":17.9689,"longitude":79.5941,"temp":40.5,"humidity":19,"rain":0.0,"pressure":974.6,"uv_index":9.0,"wind_gusts":49.3,"aqi":101,"pm10":45.5,"pm2_5":24.5,"no2":3.0,"co":203.0,"o3":136.0,"so2":6.2,"mosquito_risk":0,"arthritis_risk":5,"migraine_risk":10,"frizz_risk":0,"updated_at":"2026-05-24T16:52:09.967017+05:30"},{"city":"Nizamabad","state":"Telangana","latitude":18.6725,"longitude":78.0941,"temp":39.6,"humidity":19,"rain":0.0,"pressure":962.3,"uv_index":9.1,"wind_gusts":45.4,"aqi":78,"pm10":37.4,"pm2_5":17.0,"no2":0.3,"co":135.0,"o3":117.0,"so2":2.4,"mosquito_risk":0,"arthritis_risk":5,"migraine_risk":10,"frizz_risk":0,"updated_at":"2026-05-24T16:52:09.967024+05:30"},{"city":"Mysore","state":"Karnataka","latitude":12.2958,"longitude":76.6396,"temp":25.5,"humidity":82,"rain":0.1,"pressure":928.4,"uv_index":7.55,"wind_gusts":42.5,"aqi":40,"pm10":12.3,"pm2_5":10.0,"no2":3.9,"co":151.0,"o3":87.0,"so2":1.7,"mosquito_risk":10,"arthritis_risk":5,"migraine_risk":7,"frizz_risk":1,"updated_at":"2026-05-24T16:52:09.967031+05:30"},{"city":"Mangalore","state":"Karnataka","latitude":12.9141,"longitude":74.856,"temp":29.1,"humidity":77,"rain":0.0,"pressure":1006.8,"uv_index":8.3,"wind_gusts":35.3,"aqi":54,"pm10":12.5,"pm2_5":8.1,"no2":1.6,"co":101.0,"o3":63.0,"so2":1.4,"mosquito_risk":7,"arthritis_risk":5,"migraine_risk":4,"frizz_risk":1,"updated_at":"2026-05-24T16:52:09.967037+05:30"},{"city":"Hubli-Dharwad","state":"Karnataka","latitude":15.3647,"longitude":75.124,"temp":32.7,"humidity":47,"rain":0.0,"pressure":940.3,"uv_index":9.1,"wind_gusts":35.6,"aqi":32,"pm10":13.9,"pm2_5":10.4,"no2":1.5,"co":154.0,"o3":79.0,"so2":1.1,"mosquito_risk":0,"arthritis_risk":5,"migraine_risk":7,"frizz_risk":1,"updated_at":"2026-05-24T16:52:09.967044+05:30"},{"city":"Belgaum","state":"Karnataka","latitude":15.8497,"longitude":74.4977,"temp":31.4,"humidity":49,"rain":0.0,"pressure":925.8,"uv_index":9.05,"wind_gusts":38.2,"aqi":33,"pm10":11.9,"pm2_5":9.1,"no2":2.1,"co":141.0,"o3":72.0,"so2":1.3,"mosquito_risk":0,"arthritis_risk":5,"migraine_risk":7,"frizz_risk":1,"updated_at":"2026-05-24T16:52:13.341379+05:30"},{"city":"Coimbatore","state":"Tamil Nadu","latitude":11.0168,"longitude":76.9558,"temp":29.6,"humidity":65,"rain":0.0,"pressure":961.2,"uv_index":8.6,"wind_gusts":48.2,"aqi":36,"pm10":9.5,"pm2_5":7.5,"no2":2.9,"co":174.0,"o3":75.0,"so2":1.8,"mosquito_risk":7,"arthritis_risk":5,"migraine_risk":7,"frizz_risk":1,"updated_at":"2026-05-24T16:52:13.341412+05:30"},{"city":"Madurai","state":"Tamil Nadu","latitude":9.9252,"longitude":78.1198,"temp":29.1,"humidity":74,"rain":0.3,"pressure":991.4,"uv_index":8.9,"wind_gusts":44.3,"aqi":61,"pm10":19.9,"pm2_5":12.7,"no2":2.6,"co":159.0,"o3":95.0,"so2":1.7,"mosquito_risk":10,"arthritis_risk":5,"migraine_risk":7,"frizz_risk":1,"updated_at":"2026-05-24T16:52:13.341423+05:30"},{"city":"Trichy","state":"Tamil Nadu","latitude":10.7905,"longitude":78.7047,"temp":35.2,"humidity":47,"rain":0.0,"pressure":996.9,"uv_index":8.4,"wind_gusts":52.6,"aqi":54,"pm10":20.7,"pm2_5":13.4,"no2":4.1,"co":171.0,"o3":103.0,"so2":2.7,"mosquito_risk":0,"arthritis_risk":5,"migraine_risk":10,"frizz_risk":1,"updated_at":"2026-05-24T16:52:13.341432+05:30"},{"city":"Salem","state":"Tamil Nadu","latitude":11.6643,"longitude":78.146,"temp":28.2,"humidity":77,"rain":0.2,"pressure":976.3,"uv_index":8.9,"wind_gusts":49.0,"aqi":65,"pm10":19.3,"pm2_5":13.2,"no2":4.2,"co":175.0,"o3":100.0,"so2":4.7,"mosquito_risk":10,"arthritis_risk":5,"migraine_risk":7,"frizz_risk":1,"updated_at":"2026-05-24T16:52:13.341440+05:30"},{"city":"Tirunelveli","state":"Tamil Nadu","latitude":8.7139,"longitude":77.7567,"temp":35.2,"humidity":45,"rain":0.1,"pressure":1001.3,"uv_index":8.85,"wind_gusts":44.3,"aqi":33,"pm10":6.3,"pm2_5":4.8,"no2":1.7,"co":130.0,"o3":73.0,"so2":1.0,"mosquito_risk":3,"arthritis_risk":5,"migraine_risk":7,"frizz_risk":1,"updated_at":"2026-05-24T16:52:13.341448+05:30"},{"city":"Vellore","state":"Tamil Nadu","latitude":12.9165,"longitude":79.1325,"temp":30.1,"humidity":74,"rain":0.0,"pressure":981.8,"uv_index":9.05,"wind_gusts":47.2,"aqi":65,"pm10":26.4,"pm2_5":20.9,"no2":6.5,"co":189.0,"o3":105.0,"so2":2.8,"mosquito_risk":3,"arthritis_risk":5,"migraine_risk":7,"frizz_risk":1,"updated_at":"2026-05-24T16:52:13.341456+05:30"},{"city":"Erode","state":"Tamil Nadu","latitude":11.341,"longitude":77.7172,"temp":28.4,"humidity":80,"rain":0.2,"pressure":988.1,"uv_index":8.95,"wind_gusts":62.6,"aqi":51,"pm10":13.7,"pm2_5":9.6,"no2":3.6,"co":205.0,"o3":91.0,"so2":1.7,"mosquito_risk":10,"arthritis_risk":5,"migraine_risk":7,"frizz_risk":1,"updated_at":"2026-05-24T16:52:13.341464+05:30"},{"city":"Kochi","state":"Kerala","latitude":9.9312,"longitude":76.2673,"temp":27.3,"humidity":89,"rain":0.1,"pressure":1009.6,"uv_index":8.6,"wind_gusts":36.4,"aqi":51,"pm10":9.8,"pm2_5":7.0,"no2":3.5,"co":135.0,"o3":59.0,"so2":1.8,"mosquito_risk":10,"arthritis_risk":0,"migraine_risk":4,"frizz_risk":1,"updated_at":"2026-05-24T16:52:13.341472+05:30"},{"city":"Thiruvananthapuram","state":"Kerala","latitude":8.5241,"longitude":76.9366,"temp":27.9,"humidity":81,"rain":0.1,"pressure":1008.6,"uv_index":8.3,"wind_gusts":46.4,"aqi":33,"pm10":11.5,"pm2_5":6.7,"no2":1.4,"co":123.0,"o3":64.0,"so2":0.7,"mosquito_risk":10,"arthritis_risk":0,"migraine_risk":4,"frizz_risk":1,"updated_at":"2026-05-24T16:52:13.341480+05:30"},{"city":"Kozhikode","state":"Kerala","latitude":11.2588,"longitude":75.7804,"temp":25.9,"humidity":97,"rain":0.1,"pressure":1008.6,"uv_index":8.35,"wind_gusts":37.4,"aqi":32,"pm10":10.1,"pm2_5":6.1,"no2":0.6,"co":120.0,"o3":67.0,"so2":0.7,"mosquito_risk":10,"arthritis_risk":0,"migraine_risk":4,"frizz_risk":1,"updated_at":"2026-05-24T16:52:13.341487+05:30"},{"city":"Thrissur","state":"Kerala","latitude":10.5276,"longitude":76.2144,"temp":26.4,"humidity":95,"rain":0.2,"pressure":1007.9,"uv_index":8.2,"wind_gusts":37.4,"aqi":54,"pm10":9.1,"pm2_5":6.9,"no2":3.0,"co":124.0,"o3":60.0,"so2":1.3,"mosquito_risk":10,"arthritis_risk":5,"migraine_risk":4,"frizz_risk":1,"updated_at":"2026-05-24T16:52:13.341496+05:30"},{"city":"Kannur","state":"Kerala","latitude":11.8745,"longitude":75.3704,"temp":26.5,"humidity":97,"rain":0.2,"pressure":1008.0,"uv_index":7.2,"wind_gusts":41.4,"aqi":49,"pm10":11.3,"pm2_5":7.2,"no2":1.2,"co":125.0,"o3":67.0,"so2":1.0,"mosquito_risk":10,"arthritis_risk":0,"migraine_risk":4,"frizz_risk":1,"updated_at":"2026-05-24T16:52:13.341503+05:30"},{"city":"Patna","state":"Bihar","latitude":25.5941,"longitude":85.1376,"temp":39.5,"humidity":24,"rain":0.0,"pressure":993.3,"uv_index":8.8,"wind_gusts":31.7,"aqi":188,"pm10":214.2,"pm2_5":67.8,"no2":10.7,"co":277.0,"o3":169.0,"so2":11.8,"mosquito_risk":0,"arthritis_risk":5,"migraine_risk":10,"frizz_risk":0,"updated_at":"2026-05-24T16:52:13.341510+05:30"},{"city":"Gaya","state":"Bihar","latitude":24.7914,"longitude":85.0002,"temp":40.5,"humidity":18,"rain":0.0,"pressure":986.9,"uv_index":8.65,"wind_gusts":30.6,"aqi":157,"pm10":259.8,"pm2_5":65.2,"no2":6.3,"co":260.0,"o3":139.0,"so2":8.1,"mosquito_risk":0,"arthritis_risk":5,"migraine_risk":10,"frizz_risk":0,"updated_at":"2026-05-24T16:52:13.341517+05:30"},{"city":"Muzaffarpur","state":"Bihar","latitude":26.1209,"longitude":85.3647,"temp":35.8,"humidity":52,"rain":0.0,"pressure":993.8,"uv_index":8.8,"wind_gusts":29.9,"aqi":185,"pm10":147.6,"pm2_5":63.1,"no2":9.4,"co":384.0,"o3":190.0,"so2":15.0,"mosquito_risk":0,"arthritis_risk":5,"migraine_risk":10,"frizz_risk":1,"updated_at":"2026-05-24T16:52:13.341524+05:30"},{"city":"Bhagalpur","state":"Bihar","latitude":25.2425,"longitude":87.0117,"temp":37.0,"humidity":45,"rain":0.0,"pressure":994.1,"uv_index":8.75,"wind_gusts":25.6,"aqi":158,"pm10":185.8,"pm2_5":57.4,"no2":5.6,"co":279.0,"o3":182.0,"so2":16.5,"mosquito_risk":0,"arthritis_risk":5,"migraine_risk":10,"frizz_risk":1,"updated_at":"2026-05-24T16:52:13.341531+05:30"},{"city":"Ranchi","state":"Jharkhand","latitude":23.3441,"longitude":85.3096,"temp":34.5,"humidity":30,"rain":0.0,"pressure":934.1,"uv_index":9.3,"wind_gusts":34.6,"aqi":134,"pm10":156.9,"pm2_5":45.3,"no2":3.8,"co":248.0,"o3":125.0,"so2":4.9,"mosquito_risk":0,"arthritis_risk":5,"migraine_risk":7,"frizz_risk":0,"updated_at":"2026-05-24T16:52:13.341538+05:30"},{"city":"Jamshedpur","state":"Jharkhand","latitude":22.8046,"longitude":86.2029,"temp":32.8,"humidity":57,"rain":0.0,"pressure":985.7,"uv_index":9.1,"wind_gusts":49.7,"aqi":184,"pm10":134.1,"pm2_5":54.6,"no2":6.0,"co":267.0,"o3":176.0,"so2":15.1,"mosquito_risk":0,"arthritis_risk":5,"migraine_risk":7,"frizz_risk":1,"updated_at":"2026-05-24T16:52:13.341545+05:30"},{"city":"Dhanbad","state":"Jharkhand","latitude":23.7957,"longitude":86.4304,"temp":38.7,"humidity":24,"rain":0.0,"pressure":974.0,"uv_index":9.05,"wind_gusts":36.0,"aqi":182,"pm10":212.8,"pm2_5":69.8,"no2":24.4,"co":188.0,"o3":150.0,"so2":75.8,"mosquito_risk":0,"arthritis_risk":5,"migraine_risk":10,"frizz_risk":0,"updated_at":"2026-05-24T16:52:13.341552+05:30"},{"city":"Bokaro","state":"Jharkhand","latitude":23.6693,"longitude":86.1511,"temp":39.2,"humidity":23,"rain":0.0,"pressure":977.6,"uv_index":9.1,"wind_gusts":30.2,"aqi":168,"pm10":240.3,"pm2_5":67.8,"no2":19.6,"co":175.0,"o3":145.0,"so2":74.2,"mosquito_risk":0,"arthritis_risk":5,"migraine_risk":10,"frizz_risk":0,"updated_at":"2026-05-24T16:52:13.341560+05:30"},{"city":"Bhubaneswar","state":"Odisha","latitude":20.2961,"longitude":85.8245,"temp":33.1,"humidity":73,"rain":0.0,"pressure":997.1,"uv_index":9.15,"wind_gusts":42.8,"aqi":122,"pm10":33.2,"pm2_5":25.1,"no2":2.9,"co":244.0,"o3":119.0,"so2":5.5,"mosquito_risk":3,"arthritis_risk":5,"migraine_risk":7,"frizz_risk":1,"updated_at":"2026-05-24T16:52:13.341566+05:30"},{"city":"Cuttack","state":"Odisha","latitude":20.4625,"longitude":85.8828,"temp":33.2,"humidity":73,"rain":0.0,"pressure":998.6,"uv_index":9.2,"wind_gusts":40.0,"aqi":122,"pm10":33.2,"pm2_5":25.1,"no2":2.9,"co":254.0,"o3":119.0,"so2":5.5,"mosquito_risk":3,"arthritis_risk":5,"migraine_risk":7,"frizz_risk":1,"updated_at":"2026-05-24T16:52:13.341573+05:30"},{"city":"Rourkela","state":"Odisha","latitude":22.2604,"longitude":84.8536,"temp":38.2,"humidity":31,"rain":0.0,"pressure":979.7,"uv_index":8.95,"wind_gusts":44.3,"aqi":168,"pm10":160.7,"pm2_5":56.2,"no2":8.2,"co":275.0,"o3":146.0,"so2":9.9,"mosquito_risk":0,"arthritis_risk":5,"migraine_risk":10,"frizz_risk":1,"updated_at":"2026-05-24T16:52:13.341581+05:30"},{"city":"Raipur","state":"Chhattisgarh","latitude":21.2514,"longitude":81.6296,"temp":41.5,"humidity":17,"rain":0.0,"pressure":969.9,"uv_index":9.0,"wind_gusts":36.7,"aqi":107,"pm10":90.3,"pm2_5":39.8,"no2":13.5,"co":142.0,"o3":107.0,"so2":22.0,"mosquito_risk":0,"arthritis_risk":5,"migraine_risk":10,"frizz_risk":0,"updated_at":"2026-05-24T16:52:13.341587+05:30"},{"city":"Bhilai","state":"Chhattisgarh","latitude":21.1938,"longitude":81.3509,"temp":40.5,"humidity":19,"rain":0.0,"pressure":970.3,"uv_index":9.0,"wind_gusts":30.2,"aqi":99,"pm10":88.2,"pm2_5":39.8,"no2":16.3,"co":167.0,"o3":102.0,"so2":27.1,"mosquito_risk":0,"arthritis_risk":5,"migraine_risk":10,"frizz_risk":0,"updated_at":"2026-05-24T16:52:13.341594+05:30"},{"city":"Guwahati","state":"Assam","latitude":26.1158,"longitude":91.7086,"temp":28.1,"humidity":83,"rain":0.0,"pressure":996.2,"uv_index":8.75,"wind_gusts":24.8,"aqi":65,"pm10":23.1,"pm2_5":14.5,"no2":2.5,"co":297.0,"o3":105.0,"so2":3.8,"mosquito_risk":7,"arthritis_risk":5,"migraine_risk":7,"frizz_risk":1,"updated_at":"2026-05-24T16:52:13.341601+05:30"},{"city":"Agartala","state":"Tripura","latitude":23.8315,"longitude":91.2868,"temp":28.0,"humidity":97,"rain":0.3,"pressure":1002.0,"uv_index":7.8,"wind_gusts":43.9,"aqi":76,"pm10":39.7,"pm2_5":21.0,"no2":6.1,"co":177.0,"o3":93.0,"so2":2.0,"mosquito_risk":10,"arthritis_risk":5,"migraine_risk":4,"frizz_risk":1,"updated_at":"2026-05-24T16:52:13.341609+05:30"},{"city":"Shillong","state":"Meghalaya","latitude":25.5788,"longitude":91.8933,"temp":22.8,"humidity":78,"rain":0.0,"pressure":855.2,"uv_index":9.15,"wind_gusts":49.0,"aqi":47,"pm10":25.6,"pm2_5":14.3,"no2":2.8,"co":223.0,"o3":106.0,"so2":2.9,"mosquito_risk":3,"arthritis_risk":5,"migraine_risk":7,"frizz_risk":1,"updated_at":"2026-05-24T16:52:13.341615+05:30"},{"city":"Imphal","state":"Manipur","latitude":24.817,"longitude":93.9368,"temp":28.0,"humidity":65,"rain":0.0,"pressure":920.5,"uv_index":9.05,"wind_gusts":38.9,"aqi":77,"pm10":35.5,"pm2_5":16.8,"no2":4.5,"co":207.0,"o3":68.0,"so2":1.7,"mosquito_risk":7,"arthritis_risk":5,"migraine_risk":7,"frizz_risk":1,"updated_at":"2026-05-24T16:52:13.341622+05:30"},{"city":"Aizawl","state":"Mizoram","latitude":23.7271,"longitude":92.7176,"temp":24.8,"humidity":71,"rain":0.0,"pressure":890.7,"uv_index":8.65,"wind_gusts":38.9,"aqi":68,"pm10":33.1,"pm2_5":15.0,"no2":1.8,"co":178.0,"o3":85.0,"so2":1.4,"mosquito_risk":3,"arthritis_risk":5,"migraine_risk":7,"frizz_risk":1,"updated_at":"2026-05-24T16:52:13.341629+05:30"},{"city":"Kohima","state":"Nagaland","latitude":25.6701,"longitude":94.1077,"temp":24.4,"humidity":69,"rain":0.0,"pressure":854.0,"uv_index":9.3,"wind_gusts":33.1,"aqi":56,"pm10":32.6,"pm2_5":14.1,"no2":1.9,"co":214.0,"o3":80.0,"so2":1.4,"mosquito_risk":3,"arthritis_risk":5,"migraine_risk":7,"frizz_risk":1,"updated_at":"2026-05-24T16:52:13.341636+05:30"},{"city":"Gangtok","state":"Sikkim","latitude":27.3314,"longitude":88.6138,"temp":20.6,"humidity":84,"rain":0.1,"pressure":835.5,"uv_index":8.8,"wind_gusts":34.9,"aqi":105,"pm10":53.1,"pm2_5":24.6,"no2":2.4,"co":282.0,"o3":134.0,"so2":3.4,"mosquito_risk":6,"arthritis_risk":5,"migraine_risk":7,"frizz_risk":1,"updated_at":"2026-05-24T16:52:13.341642+05:30"},{"city":"Siliguri","state":"West Bengal","latitude":26.7271,"longitude":88.3953,"temp":30.1,"humidity":69,"rain":0.0,"pressure":987.5,"uv_index":8.7,"wind_gusts":26.6,"aqi":126,"pm10":63.8,"pm2_5":36.8,"no2":3.7,"co":466.0,"o3":148.0,"so2":7.7,"mosquito_risk":3,"arthritis_risk":5,"migraine_risk":7,"frizz_risk":1,"updated_at":"2026-05-24T16:52:16.689939+05:30"},{"city":"Durgapur","state":"West Bengal","latitude":23.5204,"longitude":87.3119,"temp":30.0,"humidity":84,"rain":0.0,"pressure":988.7,"uv_index":8.9,"wind_gusts":48.6,"aqi":195,"pm10":112.7,"pm2_5":74.3,"no2":17.7,"co":545.0,"o3":209.0,"so2":51.6,"mosquito_risk":7,"arthritis_risk":5,"migraine_risk":7,"frizz_risk":1,"updated_at":"2026-05-24T16:52:16.689969+05:30"},{"city":"Asansol","state":"West Bengal","latitude":23.6739,"longitude":86.9524,"temp":32.8,"humidity":64,"rain":0.0,"pressure":987.2,"uv_index":8.9,"wind_gusts":37.8,"aqi":198,"pm10":164.8,"pm2_5":71.0,"no2":18.8,"co":419.0,"o3":182.0,"so2":40.9,"mosquito_risk":3,"arthritis_risk":5,"migraine_risk":7,"frizz_risk":1,"updated_at":"2026-05-24T16:52:16.689980+05:30"},{"city":"Pondicherry","state":"Puducherry","latitude":11.9139,"longitude":79.8145,"temp":32.2,"humidity":75,"rain":0.0,"pressure":1005.1,"uv_index":8.7,"wind_gusts":47.9,"aqi":90,"pm10":34.3,"pm2_5":27.9,"no2":9.2,"co":234.0,"o3":159.0,"so2":12.8,"mosquito_risk":3,"arthritis_risk":5,"migraine_risk":4,"frizz_risk":1,"updated_at":"2026-05-24T16:52:16.689988+05:30"},{"city":"Port Blair","state":"Andaman and Nicobar Islands","latitude":11.6234,"longitude":92.7265,"temp":26.9,"humidity":91,"rain":0.0,"pressure":1006.2,"uv_index":8.9,"wind_gusts":34.2,"aqi":30,"pm10":8.9,"pm2_5":5.1,"no2":0.5,"co":108.0,"o3":60.0,"so2":0.4,"mosquito_risk":7,"arthritis_risk":5,"migraine_risk":4,"frizz_risk":1,"updated_at":"2026-05-24T16:52:16.689996+05:30"},{"city":"Haridwar","state":"Uttarakhand","latitude":29.9457,"longitude":78.1642,"temp":39.1,"humidity":17,"rain":0.0,"pressure":968.2,"uv_index":7.55,"wind_gusts":57.2,"aqi":130,"pm10":77.1,"pm2_5":26.0,"no2":2.0,"co":176.0,"o3":144.0,"so2":7.0,"mosquito_risk":0,"arthritis_risk":5,"migraine_risk":10,"frizz_risk":0,"updated_at":"2026-05-24T16:52:16.690004+05:30"},{"city":"Rishikesh","state":"Uttarakhand","latitude":30.0869,"longitude":78.2676,"temp":37.7,"humidity":19,"rain":0.0,"pressure":961.1,"uv_index":7.65,"wind_gusts":49.7,"aqi":122,"pm10":55.2,"pm2_5":21.8,"no2":0.8,"co":158.0,"o3":147.0,"so2":5.5,"mosquito_risk":0,"arthritis_risk":5,"migraine_risk":10,"frizz_risk":0,"updated_at":"2026-05-24T16:52:16.690012+05:30"},{"city":"Nainital","state":"Uttarakhand","latitude":29.3919,"longitude":79.4542,"temp":23.4,"humidity":42,"rain":0.0,"pressure":806.5,"uv_index":8.5,"wind_gusts":53.3,"aqi":148,"pm10":58.1,"pm2_5":24.9,"no2":1.3,"co":210.0,"o3":167.0,"so2":7.1,"mosquito_risk":0,"arthritis_risk":5,"migraine_risk":7,"frizz_risk":0,"updated_at":"2026-05-24T16:52:16.690019+05:30"},{"city":"Mussoorie","state":"Uttarakhand","latitude":30.4599,"longitude":78.0664,"temp":24.3,"humidity":29,"rain":0.0,"pressure":804.2,"uv_index":8.05,"wind_gusts":67.0,"aqi":102,"pm10":61.0,"pm2_5":23.0,"no2":0.7,"co":160.0,"o3":130.0,"so2":4.0,"mosquito_risk":0,"arthritis_risk":5,"migraine_risk":7,"frizz_risk":0,"updated_at":"2026-05-24T16:52:16.690027+05:30"},{"city":"Dharamshala","state":"Himachal Pradesh","latitude":32.219,"longitude":76.3234,"temp":27.7,"humidity":28,"rain":0.0,"pressure":868.4,"uv_index":8.4,"wind_gusts":37.1,"aqi":74,"pm10":49.0,"pm2_5":14.5,"no2":0.0,"co":142.0,"o3":124.0,"so2":1.6,"mosquito_risk":4,"arthritis_risk":5,"migraine_risk":7,"frizz_risk":0,"updated_at":"2026-05-24T16:52:16.690034+05:30"},{"city":"Dalhousie","state":"Himachal Pradesh","latitude":32.5387,"longitude":75.971,"temp":22.6,"humidity":32,"rain":0.0,"pressure":806.0,"uv_index":8.65,"wind_gusts":43.2,"aqi":82,"pm10":64.5,"pm2_5":19.6,"no2":0.0,"co":132.0,"o3":132.0,"so2":2.5,"mosquito_risk":0,"arthritis_risk":5,"migraine_risk":7,"frizz_risk":0,"updated_at":"2026-05-24T16:52:16.690043+05:30"},{"city":"Patiala","state":"Punjab","latitude":30.3398,"longitude":76.3869,"temp":40.3,"humidity":16,"rain":0.0,"pressure":972.4,"uv_index":7.65,"wind_gusts":38.9,"aqi":501,"pm10":376.3,"pm2_5":50.4,"no2":1.9,"co":170.0,"o3":132.0,"so2":3.3,"mosquito_risk":0,"arthritis_risk":5,"migraine_risk":10,"frizz_risk":0,"updated_at":"2026-05-24T16:52:16.690050+05:30"},{"city":"Bhatinda","state":"Punjab","latitude":30.211,"longitude":74.9455,"temp":42.2,"humidity":14,"rain":0.0,"pressure":976.7,"uv_index":8.3,"wind_gusts":34.9,"aqi":140,"pm10":137.4,"pm2_5":41.6,"no2":1.5,"co":153.0,"o3":157.0,"so2":12.3,"mosquito_risk":0,"arthritis_risk":5,"migraine_risk":10,"frizz_risk":0,"updated_at":"2026-05-24T16:52:16.690057+05:30"},{"city":"Rohtak","state":"Haryana","latitude":28.8955,"longitude":76.6066,"temp":41.9,"humidity":13,"rain":0.0,"pressure":975.6,"uv_index":7.75,"wind_gusts":32.0,"aqi":817,"pm10":810.3,"pm2_5":102.2,"no2":1.5,"co":163.0,"o3":127.0,"so2":3.5,"mosquito_risk":0,"arthritis_risk":5,"migraine_risk":10,"frizz_risk":0,"updated_at":"2026-05-24T16:52:16.690064+05:30"},{"city":"Panipat","state":"Haryana","latitude":29.3909,"longitude":76.9635,"temp":41.5,"humidity":13,"rain":0.0,"pressure":974.5,"uv_index":7.6,"wind_gusts":44.6,"aqi":1696,"pm10":1560.9,"pm2_5":172.3,"no2":2.1,"co":154.0,"o3":133.0,"so2":7.1,"mosquito_risk":0,"arthritis_risk":5,"migraine_risk":10,"frizz_risk":0,"updated_at":"2026-05-24T16:52:16.690070+05:30"},{"city":"Mathura","state":"Uttar Pradesh","latitude":27.4924,"longitude":77.6737,"temp":42.8,"humidity":13,"rain":0.0,"pressure":981.3,"uv_index":8.0,"wind_gusts":40.0,"aqi":620,"pm10":1113.9,"pm2_5":128.1,"no2":1.5,"co":169.0,"o3":122.0,"so2":3.0,"mosquito_risk":0,"arthritis_risk":5,"migraine_risk":10,"frizz_risk":0,"updated_at":"2026-05-24T16:52:16.690077+05:30"},{"city":"Vrindavan","state":"Uttar Pradesh","latitude":27.5823,"longitude":77.7027,"temp":42.3,"humidity":14,"rain":0.0,"pressure":981.6,"uv_index":8.0,"wind_gusts":38.2,"aqi":620,"pm10":1113.9,"pm2_5":128.1,"no2":1.5,"co":172.0,"o3":122.0,"so2":3.0,"mosquito_risk":0,"arthritis_risk":5,"migraine_risk":10,"frizz_risk":0,"updated_at":"2026-05-24T16:52:16.690084+05:30"},{"city":"Ayodhya","state":"Uttar Pradesh","latitude":26.7922,"longitude":82.1998,"temp":39.8,"humidity":19,"rain":0.0,"pressure":988.4,"uv_index":8.35,"wind_gusts":37.1,"aqi":155,"pm10":101.7,"pm2_5":40.5,"no2":1.4,"co":205.0,"o3":158.0,"so2":7.0,"mosquito_risk":0,"arthritis_risk":5,"migraine_risk":10,"frizz_risk":0,"updated_at":"2026-05-24T16:52:16.690090+05:30"},{"city":"Ratlam","state":"Madhya Pradesh","latitude":23.3315,"longitude":75.0367,"temp":38.3,"humidity":24,"rain":0.0,"pressure":953.7,"uv_index":8.55,"wind_gusts":49.7,"aqi":62,"pm10":51.9,"pm2_5":20.9,"no2":0.4,"co":128.0,"o3":112.0,"so2":3.8,"mosquito_risk":0,"arthritis_risk":5,"migraine_risk":10,"frizz_risk":0,"updated_at":"2026-05-24T16:52:16.690097+05:30"},{"city":"Sagar","state":"Madhya Pradesh","latitude":23.8388,"longitude":78.7378,"temp":40.4,"humidity":14,"rain":0.0,"pressure":947.9,"uv_index":8.75,"wind_gusts":46.4,"aqi":83,"pm10":111.5,"pm2_5":33.1,"no2":0.1,"co":131.0,"o3":123.0,"so2":3.1,"mosquito_risk":0,"arthritis_risk":5,"migraine_risk":10,"frizz_risk":0,"updated_at":"2026-05-24T16:52:16.690104+05:30"},{"city":"Satna","state":"Madhya Pradesh","latitude":24.6005,"longitude":80.8322,"temp":40.8,"humidity":15,"rain":0.0,"pressure":967.1,"uv_index":8.8,"wind_gusts":47.2,"aqi":116,"pm10":77.5,"pm2_5":26.9,"no2":0.6,"co":161.0,"o3":128.0,"so2":2.9,"mosquito_risk":0,"arthritis_risk":5,"migraine_risk":10,"frizz_risk":0,"updated_at":"2026-05-24T16:52:16.690110+05:30"},{"city":"Akola","state":"Maharashtra","latitude":20.7002,"longitude":77.0082,"temp":40.4,"humidity":22,"rain":0.0,"pressure":972.3,"uv_index":8.85,"wind_gusts":51.5,"aqi":58,"pm10":47.1,"pm2_5":20.1,"no2":1.1,"co":125.0,"o3":121.0,"so2":4.8,"mosquito_risk":0,"arthritis_risk":5,"migraine_risk":10,"frizz_risk":0,"updated_at":"2026-05-24T16:52:16.690118+05:30"},{"city":"Amravati","state":"Maharashtra","latitude":20.9374,"longitude":77.7796,"temp":40.9,"humidity":18,"rain":0.0,"pressure":964.4,"uv_index":8.85,"wind_gusts":47.5,"aqi":59,"pm10":50.1,"pm2_5":21.2,"no2":1.3,"co":135.0,"o3":123.0,"so2":5.6,"mosquito_risk":0,"arthritis_risk":5,"migraine_risk":10,"frizz_risk":0,"updated_at":"2026-05-24T16:52:16.690125+05:30"},{"city":"Latur","state":"Maharashtra","latitude":18.4088,"longitude":76.5604,"temp":37.0,"humidity":23,"rain":0.0,"pressure":938.7,"uv_index":9.05,"wind_gusts":38.9,"aqi":66,"pm10":20.5,"pm2_5":10.8,"no2":0.6,"co":131.0,"o3":126.0,"so2":3.4,"mosquito_risk":0,"arthritis_risk":5,"migraine_risk":10,"frizz_risk":0,"updated_at":"2026-05-24T16:52:16.690132+05:30"},{"city":"Nanded","state":"Maharashtra","latitude":19.1383,"longitude":77.3091,"temp":39.8,"humidity":19,"rain":0.0,"pressure":966.1,"uv_index":9.0,"wind_gusts":38.9,"aqi":60,"pm10":31.4,"pm2_5":14.5,"no2":0.4,"co":141.0,"o3":113.0,"so2":2.0,"mosquito_risk":0,"arthritis_risk":5,"migraine_risk":10,"frizz_risk":0,"updated_at":"2026-05-24T16:52:16.690139+05:30"},{"city":"Gulbarga","state":"Karnataka","latitude":17.3297,"longitude":76.8343,"temp":36.8,"humidity":33,"rain":0.0,"pressure":956.6,"uv_index":6.65,"wind_gusts":45.4,"aqi":69,"pm10":23.0,"pm2_5":16.0,"no2":1.2,"co":181.0,"o3":114.0,"so2":2.4,"mosquito_risk":0,"arthritis_risk":5,"migraine_risk":10,"frizz_risk":1,"updated_at":"2026-05-24T16:52:16.690145+05:30"},{"city":"Bidar","state":"Karnataka","latitude":17.9104,"longitude":77.5199,"temp":36.7,"humidity":26,"rain":0.0,"pressure":934.3,"uv_index":9.1,"wind_gusts":46.4,"aqi":78,"pm10":20.3,"pm2_5":12.5,"no2":0.5,"co":149.0,"o3":126.0,"so2":4.4,"mosquito_risk":0,"arthritis_risk":5,"migraine_risk":10,"frizz_risk":0,"updated_at":"2026-05-24T16:52:16.690152+05:30"},{"city":"Hospet","state":"Karnataka","latitude":15.2689,"longitude":76.3909,"temp":34.2,"humidity":42,"rain":0.0,"pressure":954.5,"uv_index":8.9,"wind_gusts":40.7,"aqi":39,"pm10":20.4,"pm2_5":15.7,"no2":3.4,"co":173.0,"o3":96.0,"so2":2.6,"mosquito_risk":0,"arthritis_risk":5,"migraine_risk":7,"frizz_risk":1,"updated_at":"2026-05-24T16:52:16.690158+05:30"},{"city":"Tirupur","state":"Tamil Nadu","latitude":11.1085,"longitude":77.3411,"temp":31.4,"humidity":58,"rain":0.1,"pressure":974.2,"uv_index":8.9,"wind_gusts":49.7,"aqi":51,"pm10":11.6,"pm2_5":8.3,"no2":3.7,"co":160.0,"o3":87.0,"so2":2.3,"mosquito_risk":3,"arthritis_risk":5,"migraine_risk":7,"frizz_risk":1,"updated_at":"2026-05-24T16:52:16.690164+05:30"},{"city":"Alappuzha","state":"Kerala","latitude":9.4981,"longitude":76.3388,"temp":26.6,"humidity":91,"rain":0.1,"pressure":1009.8,"uv_index":8.5,"wind_gusts":37.4,"aqi":42,"pm10":10.1,"pm2_5":6.6,"no2":3.9,"co":98.0,"o3":64.0,"so2":1.7,"mosquito_risk":10,"arthritis_risk":0,"migraine_risk":4,"frizz_risk":1,"updated_at":"2026-05-24T16:52:16.690171+05:30"},{"city":"Munnar","state":"Kerala","latitude":10.0889,"longitude":77.0595,"temp":19.2,"humidity":93,"rain":0.0,"pressure":857.5,"uv_index":8.95,"wind_gusts":31.3,"aqi":29,"pm10":5.4,"pm2_5":4.3,"no2":2.6,"co":140.0,"o3":62.0,"so2":0.9,"mosquito_risk":3,"arthritis_risk":10,"migraine_risk":7,"frizz_risk":1,"updated_at":"2026-05-24T16:52:16.690178+05:30"},{"city":"Silchar","state":"Assam","latitude":24.8333,"longitude":92.7789,"temp":29.0,"humidity":79,"rain":0.1,"pressure":1001.0,"uv_index":8.95,"wind_gusts":43.2,"aqi":66,"pm10":24.9,"pm2_5":14.2,"no2":2.5,"co":249.0,"o3":88.0,"so2":3.0,"mosquito_risk":10,"arthritis_risk":5,"migraine_risk":4,"frizz_risk":1,"updated_at":"2026-05-24T16:52:16.690185+05:30"},{"city":"Dibrugarh","state":"Assam","latitude":27.4728,"longitude":94.912,"temp":25.4,"humidity":98,"rain":0.3,"pressure":991.3,"uv_index":8.45,"wind_gusts":37.1,"aqi":63,"pm10":29.7,"pm2_5":19.4,"no2":3.3,"co":227.0,"o3":99.0,"so2":1.9,"mosquito_risk":10,"arthritis_risk":5,"migraine_risk":7,"frizz_risk":1,"updated_at":"2026-05-24T16:52:16.690191+05:30"}]