[{"city":"Delhi","state":"Delhi","latitude":28.6139,"longitude":77.209,"temp":34.6,"humidity":44,"rain":0.0,"pressure":977.1,"uv_index":7.85,"wind_gusts":68.0,"aqi":641,"pm10":640.7,"pm2_5":154.1,"no2":22.2,"co":505.0,"o3":138.0,"so2":32.1,"mosquito_risk":0,"arthritis_risk":5,"migraine_risk":7,"frizz_risk":1,"updated_at":"2026-06-11T09:43:33.553837+05:30"},{"city":"Mumbai","state":"Maharashtra","latitude":19.076,"longitude":72.8777,"temp":31.4,"humidity":67,"rain":0.0,"pressure":1007.0,"uv_index":7.7,"wind_gusts":40.3,"aqi":75,"pm10":65.2,"pm2_5":27.9,"no2":5.5,"co":174.0,"o3":69.0,"so2":5.9,"mosquito_risk":3,"arthritis_risk":5,"migraine_risk":4,"frizz_risk":1,"updated_at":"2026-06-11T09:43:33.553873+05:30"},{"city":"Bangalore","state":"Karnataka","latitude":12.9716,"longitude":77.5946,"temp":25.2,"humidity":69,"rain":0.0,"pressure":912.4,"uv_index":9.1,"wind_gusts":42.1,"aqi":41,"pm10":22.1,"pm2_5":11.2,"no2":7.9,"co":404.0,"o3":49.0,"so2":3.8,"mosquito_risk":7,"arthritis_risk":5,"migraine_risk":7,"frizz_risk":1,"updated_at":"2026-06-11T09:43:33.553888+05:30"},{"city":"Hyderabad","state":"Telangana","latitude":17.385,"longitude":78.4867,"temp":30.0,"humidity":62,"rain":0.0,"pressure":952.2,"uv_index":9.05,"wind_gusts":37.4,"aqi":73,"pm10":34.1,"pm2_5":19.2,"no2":4.6,"co":288.0,"o3":71.0,"so2":4.8,"mosquito_risk":7,"arthritis_risk":5,"migraine_risk":7,"frizz_risk":1,"updated_at":"2026-06-11T09:43:33.553897+05:30"},{"city":"Chennai","state":"Tamil Nadu","latitude":13.0827,"longitude":80.2707,"temp":32.5,"humidity":55,"rain":0.0,"pressure":1005.8,"uv_index":4.3,"wind_gusts":37.8,"aqi":64,"pm10":22.1,"pm2_5":13.3,"no2":10.2,"co":329.0,"o3":67.0,"so2":13.4,"mosquito_risk":0,"arthritis_risk":5,"migraine_risk":0,"frizz_risk":1,"updated_at":"2026-06-11T09:43:33.553905+05:30"},{"city":"Kolkata","state":"West Bengal","latitude":22.5726,"longitude":88.3639,"temp":33.0,"humidity":73,"rain":0.0,"pressure":1002.6,"uv_index":9.0,"wind_gusts":28.8,"aqi":130,"pm10":54.0,"pm2_5":37.7,"no2":3.1,"co":324.0,"o3":122.0,"so2":8.2,"mosquito_risk":3,"arthritis_risk":5,"migraine_risk":4,"frizz_risk":1,"updated_at":"2026-06-11T09:43:33.553912+05:30"},{"city":"Pune","state":"Maharashtra","latitude":18.5204,"longitude":73.8567,"temp":29.6,"humidity":61,"rain":0.0,"pressure":947.5,"uv_index":8.35,"wind_gusts":41.0,"aqi":57,"pm10":18.8,"pm2_5":9.4,"no2":4.0,"co":151.0,"o3":67.0,"so2":5.4,"mosquito_risk":7,"arthritis_risk":5,"migraine_risk":7,"frizz_risk":1,"updated_at":"2026-06-11T09:43:33.553919+05:30"},{"city":"Ahmedabad","state":"Gujarat","latitude":23.0225,"longitude":72.5714,"temp":33.0,"humidity":55,"rain":0.0,"pressure":998.5,"uv_index":8.05,"wind_gusts":47.2,"aqi":76,"pm10":50.5,"pm2_5":21.8,"no2":3.1,"co":139.0,"o3":64.0,"so2":4.7,"mosquito_risk":0,"arthritis_risk":5,"migraine_risk":7,"frizz_risk":1,"updated_at":"2026-06-11T09:43:33.553925+05:30"},{"city":"Jaipur","state":"Rajasthan","latitude":26.9124,"longitude":75.7873,"temp":34.4,"humidity":50,"rain":0.0,"pressure":954.7,"uv_index":8.25,"wind_gusts":38.5,"aqi":132,"pm10":241.2,"pm2_5":49.9,"no2":2.6,"co":153.0,"o3":83.0,"so2":4.2,"mosquito_risk":0,"arthritis_risk":5,"migraine_risk":7,"frizz_risk":1,"updated_at":"2026-06-11T09:43:33.553936+05:30"},{"city":"Lucknow","state":"Uttar Pradesh","latitude":26.8467,"longitude":80.9462,"temp":29.9,"humidity":64,"rain":0.1,"pressure":989.7,"uv_index":8.3,"wind_gusts":42.8,"aqi":160,"pm10":83.4,"pm2_5":63.6,"no2":5.4,"co":254.0,"o3":161.0,"so2":14.2,"mosquito_risk":10,"arthritis_risk":5,"migraine_risk":7,"frizz_risk":1,"updated_at":"2026-06-11T09:43:33.553944+05:30"},{"city":"Kanpur","state":"Uttar Pradesh","latitude":26.4499,"longitude":80.3319,"temp":33.6,"humidity":53,"rain":0.0,"pressure":987.6,"uv_index":8.2,"wind_gusts":39.6,"aqi":251,"pm10":259.8,"pm2_5":82.2,"no2":6.6,"co":306.0,"o3":162.0,"so2":14.9,"mosquito_risk":0,"arthritis_risk":5,"migraine_risk":7,"frizz_risk":1,"updated_at":"2026-06-11T09:43:33.553950+05:30"},{"city":"Chandigarh","state":"Chandigarh","latitude":30.7333,"longitude":76.7794,"temp":33.6,"humidity":44,"rain":0.0,"pressure":963.4,"uv_index":7.85,"wind_gusts":51.5,"aqi":113,"pm10":191.4,"pm2_5":60.8,"no2":3.9,"co":331.0,"o3":170.0,"so2":13.4,"mosquito_risk":0,"arthritis_risk":5,"migraine_risk":7,"frizz_risk":1,"updated_at":"2026-06-11T09:43:33.553957+05:30"},{"city":"Srinagar","state":"Jammu and Kashmir","latitude":34.0837,"longitude":74.7973,"temp":22.7,"humidity":55,"rain":0.0,"pressure":841.0,"uv_index":8.95,"wind_gusts":29.2,"aqi":76,"pm10":23.8,"pm2_5":17.2,"no2":6.4,"co":453.0,"o3":140.0,"so2":5.5,"mosquito_risk":0,"arthritis_risk":5,"migraine_risk":7,"frizz_risk":0,"updated_at":"2026-06-11T09:43:33.553964+05:30"},{"city":"Jammu","state":"Jammu and Kashmir","latitude":32.7266,"longitude":74.857,"temp":36.2,"humidity":34,"rain":0.0,"pressure":966.2,"uv_index":8.65,"wind_gusts":38.5,"aqi":83,"pm10":53.9,"pm2_5":29.3,"no2":13.9,"co":273.0,"o3":147.0,"so2":6.3,"mosquito_risk":0,"arthritis_risk":5,"migraine_risk":10,"frizz_risk":1,"updated_at":"2026-06-11T09:43:33.553970+05:30"},{"city":"Amritsar","state":"Punjab","latitude":31.634,"longitude":74.8723,"temp":35.4,"humidity":45,"rain":0.0,"pressure":973.3,"uv_index":8.5,"wind_gusts":61.2,"aqi":134,"pm10":534.6,"pm2_5":149.9,"no2":6.3,"co":393.0,"o3":150.0,"so2":15.2,"mosquito_risk":0,"arthritis_risk":5,"migraine_risk":10,"frizz_risk":1,"updated_at":"2026-06-11T09:43:33.553976+05:30"},{"city":"Ludhiana","state":"Punjab","latitude":30.901,"longitude":75.8573,"temp":35.0,"humidity":43,"rain":0.0,"pressure":971.8,"uv_index":8.05,"wind_gusts":50.4,"aqi":193,"pm10":815.8,"pm2_5":162.1,"no2":5.6,"co":360.0,"o3":158.0,"so2":16.2,"mosquito_risk":0,"arthritis_risk":5,"migraine_risk":7,"frizz_risk":1,"updated_at":"2026-06-11T09:43:33.553982+05:30"},{"city":"Jalandhar","state":"Punjab","latitude":31.326,"longitude":75.5762,"temp":35.7,"humidity":41,"rain":0.0,"pressure":972.8,"uv_index":8.25,"wind_gusts":45.0,"aqi":153,"pm10":530.9,"pm2_5":129.0,"no2":5.6,"co":344.0,"o3":163.0,"so2":16.6,"mosquito_risk":0,"arthritis_risk":5,"migraine_risk":10,"frizz_risk":1,"updated_at":"2026-06-11T09:43:33.553988+05:30"},{"city":"Dehradun","state":"Uttarakhand","latitude":30.6284,"longitude":78.0322,"temp":23.7,"humidity":60,"rain":0.0,"pressure":830.2,"uv_index":8.2,"wind_gusts":37.8,"aqi":70,"pm10":29.8,"pm2_5":17.4,"no2":1.1,"co":241.0,"o3":165.0,"so2":3.2,"mosquito_risk":0,"arthritis_risk":5,"migraine_risk":7,"frizz_risk":0,"updated_at":"2026-06-11T09:43:33.553995+05:30"},{"city":"Shimla","state":"Himachal Pradesh","latitude":31.1048,"longitude":77.1734,"temp":23.8,"humidity":36,"rain":0.0,"pressure":785.7,"uv_index":8.35,"wind_gusts":43.9,"aqi":77,"pm10":88.0,"pm2_5":29.4,"no2":0.6,"co":233.0,"o3":176.0,"so2":5.1,"mosquito_risk":0,"arthritis_risk":5,"migraine_risk":7,"frizz_risk":0,"updated_at":"2026-06-11T09:43:33.554003+05:30"},{"city":"Manali","state":"Himachal Pradesh","latitude":32.2396,"longitude":77.1887,"temp":24.1,"humidity":42,"rain":0.0,"pressure":819.0,"uv_index":7.7,"wind_gusts":37.4,"aqi":54,"pm10":10.8,"pm2_5":7.2,"no2":9.5,"co":167.0,"o3":123.0,"so2":0.5,"mosquito_risk":0,"arthritis_risk":5,"migraine_risk":7,"frizz_risk":0,"updated_at":"2026-06-11T09:43:33.554015+05:30"},{"city":"Gurgaon","state":"Haryana","latitude":28.4595,"longitude":77.0266,"temp":35.0,"humidity":44,"rain":0.0,"pressure":975.4,"uv_index":7.85,"wind_gusts":77.8,"aqi":753,"pm10":1572.1,"pm2_5":251.5,"no2":25.5,"co":491.0,"o3":115.0,"so2":24.8,"mosquito_risk":0,"arthritis_risk":5,"migraine_risk":7,"frizz_risk":1,"updated_at":"2026-06-11T09:43:33.554023+05:30"},{"city":"Noida","state":"Uttar Pradesh","latitude":28.5355,"longitude":77.391,"temp":33.0,"humidity":51,"rain":0.0,"pressure":979.0,"uv_index":7.75,"wind_gusts":64.1,"aqi":753,"pm10":1572.1,"pm2_5":251.5,"no2":25.5,"co":430.0,"o3":115.0,"so2":24.8,"mosquito_risk":0,"arthritis_risk":5,"migraine_risk":7,"frizz_risk":1,"updated_at":"2026-06-11T09:43:33.554030+05:30"},{"city":"Ghaziabad","state":"Uttar Pradesh","latitude":28.6692,"longitude":77.4538,"temp":32.4,"humidity":56,"rain":0.0,"pressure":977.3,"uv_index":7.7,"wind_gusts":68.0,"aqi":594,"pm10":644.5,"pm2_5":135.0,"no2":6.2,"co":380.0,"o3":152.0,"so2":13.2,"mosquito_risk":0,"arthritis_risk":5,"migraine_risk":7,"frizz_risk":1,"updated_at":"2026-06-11T09:43:33.554036+05:30"},{"city":"Faridabad","state":"Haryana","latitude":28.4089,"longitude":77.3178,"temp":33.4,"humidity":46,"rain":0.0,"pressure":978.1,"uv_index":7.8,"wind_gusts":72.4,"aqi":753,"pm10":1572.1,"pm2_5":251.5,"no2":25.5,"co":395.0,"o3":115.0,"so2":24.8,"mosquito_risk":0,"arthritis_risk":5,"migraine_risk":7,"frizz_risk":1,"updated_at":"2026-06-11T09:43:33.554041+05:30"},{"city":"Meerut","state":"Uttar Pradesh","latitude":28.9845,"longitude":77.7064,"temp":30.6,"humidity":57,"rain":0.0,"pressure":976.5,"uv_index":7.65,"wind_gusts":52.6,"aqi":594,"pm10":644.5,"pm2_5":135.0,"no2":6.2,"co":382.0,"o3":152.0,"so2":13.2,"mosquito_risk":0,"arthritis_risk":5,"migraine_risk":7,"frizz_risk":1,"updated_at":"2026-06-11T09:43:33.554047+05:30"},{"city":"Agra","state":"Uttar Pradesh","latitude":27.1767,"longitude":78.0081,"temp":36.0,"humidity":42,"rain":0.0,"pressure":982.2,"uv_index":8.15,"wind_gusts":69.1,"aqi":797,"pm10":1404.4,"pm2_5":154.1,"no2":4.6,"co":193.0,"o3":96.0,"so2":5.6,"mosquito_risk":0,"arthritis_risk":5,"migraine_risk":10,"frizz_risk":1,"updated_at":"2026-06-11T09:43:33.554053+05:30"},{"city":"Varanasi","state":"Uttar Pradesh","latitude":25.3176,"longitude":82.9739,"temp":33.2,"humidity":57,"rain":0.0,"pressure":993.7,"uv_index":8.65,"wind_gusts":42.8,"aqi":155,"pm10":72.9,"pm2_5":61.0,"no2":6.5,"co":478.0,"o3":173.0,"so2":22.7,"mosquito_risk":0,"arthritis_risk":5,"migraine_risk":7,"frizz_risk":1,"updated_at":"2026-06-11T09:43:33.554060+05:30"},{"city":"Prayagraj","state":"Uttar Pradesh","latitude":25.4358,"longitude":81.8463,"temp":33.9,"humidity":53,"rain":0.0,"pressure":992.0,"uv_index":8.35,"wind_gusts":33.8,"aqi":156,"pm10":77.1,"pm2_5":63.6,"no2":6.0,"co":522.0,"o3":171.0,"so2":18.9,"mosquito_risk":0,"arthritis_risk":5,"migraine_risk":7,"frizz_risk":1,"updated_at":"2026-06-11T09:43:33.554066+05:30"},{"city":"Gorakhpur","state":"Uttar Pradesh","latitude":26.7606,"longitude":83.3732,"temp":28.8,"humidity":70,"rain":0.0,"pressure":994.8,"uv_index":8.7,"wind_gusts":41.4,"aqi":155,"pm10":63.8,"pm2_5":39.8,"no2":3.9,"co":372.0,"o3":154.0,"so2":8.7,"mosquito_risk":7,"arthritis_risk":5,"migraine_risk":7,"frizz_risk":1,"updated_at":"2026-06-11T09:43:33.554075+05:30"},{"city":"Bareilly","state":"Uttar Pradesh","latitude":28.367,"longitude":79.4304,"temp":31.2,"humidity":60,"rain":0.0,"pressure":982.8,"uv_index":8.15,"wind_gusts":42.1,"aqi":154,"pm10":172.3,"pm2_5":61.0,"no2":3.4,"co":294.0,"o3":161.0,"so2":8.5,"mosquito_risk":0,"arthritis_risk":5,"migraine_risk":7,"frizz_risk":1,"updated_at":"2026-06-11T09:43:33.554081+05:30"},{"city":"Aligarh","state":"Uttar Pradesh","latitude":27.8974,"longitude":78.088,"temp":29.9,"humidity":71,"rain":0.1,"pressure":980.0,"uv_index":7.45,"wind_gusts":60.8,"aqi":462,"pm10":961.1,"pm2_5":169.5,"no2":11.1,"co":389.0,"o3":119.0,"so2":13.1,"mosquito_risk":10,"arthritis_risk":5,"migraine_risk":7,"frizz_risk":1,"updated_at":"2026-06-11T09:43:33.554087+05:30"},{"city":"Moradabad","state":"Uttar Pradesh","latitude":28.8386,"longitude":78.7733,"temp":31.4,"humidity":56,"rain":0.0,"pressure":979.8,"uv_index":7.95,"wind_gusts":51.1,"aqi":161,"pm10":102.9,"pm2_5":51.9,"no2":4.4,"co":294.0,"o3":157.0,"so2":10.4,"mosquito_risk":0,"arthritis_risk":5,"migraine_risk":7,"frizz_risk":1,"updated_at":"2026-06-11T09:43:33.554093+05:30"},{"city":"Saharanpur","state":"Uttar Pradesh","latitude":29.9637,"longitude":77.546,"temp":32.2,"humidity":47,"rain":0.0,"pressure":971.0,"uv_index":7.5,"wind_gusts":51.5,"aqi":137,"pm10":109.2,"pm2_5":49.6,"no2":5.5,"co":312.0,"o3":160.0,"so2":9.6,"mosquito_risk":0,"arthritis_risk":5,"migraine_risk":7,"frizz_risk":1,"updated_at":"2026-06-11T09:43:33.554099+05:30"},{"city":"Jhansi","state":"Uttar Pradesh","latitude":25.4484,"longitude":78.5685,"temp":36.5,"humidity":44,"rain":0.0,"pressure":973.2,"uv_index":8.5,"wind_gusts":51.1,"aqi":72,"pm10":39.7,"pm2_5":26.3,"no2":2.9,"co":155.0,"o3":104.0,"so2":11.6,"mosquito_risk":0,"arthritis_risk":5,"migraine_risk":10,"frizz_risk":1,"updated_at":"2026-06-11T09:43:36.871857+05:30"},{"city":"Surat","state":"Gujarat","latitude":21.1702,"longitude":72.8311,"temp":33.0,"humidity":61,"rain":0.0,"pressure":1004.3,"uv_index":7.6,"wind_gusts":56.2,"aqi":87,"pm10":65.4,"pm2_5":30.4,"no2":10.6,"co":233.0,"o3":56.0,"so2":28.2,"mosquito_risk":3,"arthritis_risk":5,"migraine_risk":4,"frizz_risk":1,"updated_at":"2026-06-11T09:43:36.871886+05:30"},{"city":"Vadodara","state":"Gujarat","latitude":22.3072,"longitude":73.1812,"temp":32.9,"humidity":57,"rain":0.0,"pressure":1001.4,"uv_index":8.05,"wind_gusts":53.3,"aqi":83,"pm10":63.1,"pm2_5":26.7,"no2":3.1,"co":143.0,"o3":66.0,"so2":3.9,"mosquito_risk":0,"arthritis_risk":5,"migraine_risk":4,"frizz_risk":1,"updated_at":"2026-06-11T09:43:36.871898+05:30"},{"city":"Rajkot","state":"Gujarat","latitude":22.3039,"longitude":70.8022,"temp":33.1,"humidity":57,"rain":0.0,"pressure":990.6,"uv_index":7.55,"wind_gusts":50.4,"aqi":71,"pm10":50.2,"pm2_5":19.7,"no2":2.0,"co":108.0,"o3":67.0,"so2":3.5,"mosquito_risk":0,"arthritis_risk":5,"migraine_risk":7,"frizz_risk":1,"updated_at":"2026-06-11T09:43:36.871907+05:30"},{"city":"Thane","state":"Maharashtra","latitude":19.2183,"longitude":72.9781,"temp":32.4,"humidity":64,"rain":0.1,"pressure":1006.3,"uv_index":7.7,"wind_gusts":37.1,"aqi":75,"pm10":65.2,"pm2_5":27.9,"no2":5.5,"co":171.0,"o3":69.0,"so2":5.9,"mosquito_risk":6,"arthritis_risk":5,"migraine_risk":4,"frizz_risk":1,"updated_at":"2026-06-11T09:43:36.871916+05:30"},{"city":"Nagpur","state":"Maharashtra","latitude":21.1458,"longitude":79.0882,"temp":36.4,"humidity":38,"rain":0.0,"pressure":970.5,"uv_index":8.85,"wind_gusts":33.5,"aqi":95,"pm10":56.1,"pm2_5":33.5,"no2":9.6,"co":186.0,"o3":113.0,"so2":23.3,"mosquito_risk":0,"arthritis_risk":5,"migraine_risk":10,"frizz_risk":1,"updated_at":"2026-06-11T09:43:36.871925+05:30"},{"city":"Nashik","state":"Maharashtra","latitude":19.9975,"longitude":73.7898,"temp":29.9,"humidity":60,"rain":0.0,"pressure":944.6,"uv_index":8.1,"wind_gusts":47.2,"aqi":63,"pm10":38.2,"pm2_5":18.5,"no2":3.6,"co":127.0,"o3":65.0,"so2":4.0,"mosquito_risk":4,"arthritis_risk":5,"migraine_risk":7,"frizz_risk":1,"updated_at":"2026-06-11T09:43:36.871932+05:30"},{"city":"Aurangabad","state":"Maharashtra","latitude":19.8762,"longitude":75.3433,"temp":30.9,"humidity":55,"rain":0.0,"pressure":943.1,"uv_index":8.95,"wind_gusts":45.4,"aqi":67,"pm10":35.5,"pm2_5":17.3,"no2":3.4,"co":136.0,"o3":72.0,"so2":7.7,"mosquito_risk":0,"arthritis_risk":5,"migraine_risk":7,"frizz_risk":1,"updated_at":"2026-06-11T09:43:36.871940+05:30"},{"city":"Solapur","state":"Maharashtra","latitude":17.6599,"longitude":75.9064,"temp":31.2,"humidity":56,"rain":0.0,"pressure":956.7,"uv_index":8.9,"wind_gusts":39.2,"aqi":59,"pm10":19.4,"pm2_5":9.6,"no2":1.8,"co":133.0,"o3":70.0,"so2":2.2,"mosquito_risk":0,"arthritis_risk":5,"migraine_risk":7,"frizz_risk":1,"updated_at":"2026-06-11T09:43:36.871948+05:30"},{"city":"Kolhapur","state":"Maharashtra","latitude":16.705,"longitude":74.2433,"temp":27.0,"humidity":73,"rain":0.0,"pressure":947.9,"uv_index":8.6,"wind_gusts":44.6,"aqi":41,"pm10":24.4,"pm2_5":11.7,"no2":3.0,"co":130.0,"o3":64.0,"so2":2.2,"mosquito_risk":7,"arthritis_risk":5,"migraine_risk":7,"frizz_risk":1,"updated_at":"2026-06-11T09:43:36.871956+05:30"},{"city":"Goa","state":"Goa","latitude":15.2993,"longitude":74.124,"temp":28.8,"humidity":81,"rain":0.0,"pressure":998.4,"uv_index":8.3,"wind_gusts":32.4,"aqi":54,"pm10":30.7,"pm2_5":12.6,"no2":1.1,"co":147.0,"o3":60.0,"so2":1.3,"mosquito_risk":7,"arthritis_risk":5,"migraine_risk":7,"frizz_risk":1,"updated_at":"2026-06-11T09:43:36.871964+05:30"},{"city":"Jodhpur","state":"Rajasthan","latitude":26.2389,"longitude":73.0243,"temp":32.5,"humidity":58,"rain":0.0,"pressure":977.0,"uv_index":8.45,"wind_gusts":51.8,"aqi":169,"pm10":273.8,"pm2_5":57.2,"no2":1.7,"co":112.0,"o3":65.0,"so2":2.6,"mosquito_risk":0,"arthritis_risk":5,"migraine_risk":7,"frizz_risk":1,"updated_at":"2026-06-11T09:43:36.871972+05:30"},{"city":"Udaipur","state":"Rajasthan","latitude":24.5854,"longitude":73.7125,"temp":29.8,"humidity":62,"rain":0.0,"pressure":942.9,"uv_index":8.85,"wind_gusts":44.6,"aqi":74,"pm10":85.2,"pm2_5":28.5,"no2":1.3,"co":112.0,"o3":65.0,"so2":3.4,"mosquito_risk":7,"arthritis_risk":5,"migraine_risk":7,"frizz_risk":1,"updated_at":"2026-06-11T09:43:36.871980+05:30"},{"city":"Kota","state":"Rajasthan","latitude":25.2138,"longitude":75.8648,"temp":34.1,"humidity":51,"rain":0.0,"pressure":974.3,"uv_index":8.4,"wind_gusts":39.6,"aqi":78,"pm10":54.9,"pm2_5":28.1,"no2":4.4,"co":155.0,"o3":72.0,"so2":12.0,"mosquito_risk":0,"arthritis_risk":5,"migraine_risk":7,"frizz_risk":1,"updated_at":"2026-06-11T09:43:36.871987+05:30"},{"city":"Bikaner","state":"Rajasthan","latitude":28.0229,"longitude":73.3119,"temp":35.5,"humidity":49,"rain":0.0,"pressure":973.8,"uv_index":8.5,"wind_gusts":45.0,"aqi":157,"pm10":205.4,"pm2_5":75.9,"no2":1.1,"co":115.0,"o3":71.0,"so2":4.8,"mosquito_risk":0,"arthritis_risk":5,"migraine_risk":10,"frizz_risk":1,"updated_at":"2026-06-11T09:43:36.871995+05:30"},{"city":"Ajmer","state":"Rajasthan","latitude":26.4499,"longitude":74.6399,"temp":31.6,"humidity":61,"rain":0.0,"pressure":949.5,"uv_index":8.4,"wind_gusts":46.1,"aqi":65,"pm10":67.8,"pm2_5":27.0,"no2":2.0,"co":129.0,"o3":76.0,"so2":3.5,"mosquito_risk":3,"arthritis_risk":5,"migraine_risk":7,"frizz_risk":1,"updated_at":"2026-06-11T09:43:36.872003+05:30"},{"city":"Gwalior","state":"Madhya Pradesh","latitude":26.2183,"longitude":78.1828,"temp":37.0,"humidity":41,"rain":0.0,"pressure":977.9,"uv_index":8.3,"wind_gusts":47.9,"aqi":69,"pm10":41.2,"pm2_5":23.5,"no2":2.1,"co":151.0,"o3":99.0,"so2":7.0,"mosquito_risk":0,"arthritis_risk":5,"migraine_risk":10,"frizz_risk":1,"updated_at":"2026-06-11T09:43:36.872010+05:30"},{"city":"Indore","state":"Madhya Pradesh","latitude":22.7196,"longitude":75.8577,"temp":31.6,"humidity":56,"rain":0.0,"pressure":946.2,"uv_index":8.65,"wind_gusts":45.4,"aqi":76,"pm10":45.8,"pm2_5":25.4,"no2":3.3,"co":171.0,"o3":69.0,"so2":6.4,"mosquito_risk":0,"arthritis_risk":5,"migraine_risk":7,"frizz_risk":1,"updated_at":"2026-06-11T09:43:36.872018+05:30"},{"city":"Bhopal","state":"Madhya Pradesh","latitude":23.2599,"longitude":77.4126,"temp":33.5,"humidity":52,"rain":0.0,"pressure":951.0,"uv_index":8.7,"wind_gusts":40.0,"aqi":73,"pm10":42.4,"pm2_5":26.7,"no2":2.0,"co":176.0,"o3":86.0,"so2":6.9,"mosquito_risk":0,"arthritis_risk":5,"migraine_risk":7,"frizz_risk":1,"updated_at":"2026-06-11T09:43:36.872026+05:30"},{"city":"Jabalpur","state":"Madhya Pradesh","latitude":23.1815,"longitude":79.9864,"temp":35.1,"humidity":41,"rain":0.0,"pressure":958.6,"uv_index":8.8,"wind_gusts":34.6,"aqi":71,"pm10":43.7,"pm2_5":26.5,"no2":2.4,"co":207.0,"o3":109.0,"so2":5.2,"mosquito_risk":0,"arthritis_risk":5,"migraine_risk":10,"frizz_risk":1,"updated_at":"2026-06-11T09:43:36.872033+05:30"},{"city":"Ujjain","state":"Madhya Pradesh","latitude":23.1765,"longitude":75.7885,"temp":30.9,"humidity":61,"rain":0.0,"pressure":951.6,"uv_index":8.6,"wind_gusts":46.4,"aqi":77,"pm10":52.0,"pm2_5":26.0,"no2":2.5,"co":149.0,"o3":68.0,"so2":6.4,"mosquito_risk":3,"arthritis_risk":5,"migraine_risk":7,"frizz_risk":1,"updated_at":"2026-06-11T09:43:36.872041+05:30"},{"city":"Visakhapatnam","state":"Andhra Pradesh","latitude":17.6868,"longitude":83.2185,"temp":35.7,"humidity":48,"rain":0.0,"pressure":999.4,"uv_index":8.85,"wind_gusts":37.4,"aqi":132,"pm10":58.3,"pm2_5":45.9,"no2":24.1,"co":1230.0,"o3":132.0,"so2":68.5,"mosquito_risk":0,"arthritis_risk":5,"migraine_risk":10,"frizz_risk":1,"updated_at":"2026-06-11T09:43:36.872048+05:30"},{"city":"Vijayawada","state":"Andhra Pradesh","latitude":16.5062,"longitude":80.648,"temp":34.4,"humidity":53,"rain":0.0,"pressure":999.5,"uv_index":7.75,"wind_gusts":59.8,"aqi":104,"pm10":37.3,"pm2_5":25.3,"no2":5.6,"co":211.0,"o3":97.0,"so2":9.4,"mosquito_risk":0,"arthritis_risk":5,"migraine_risk":7,"frizz_risk":1,"updated_at":"2026-06-11T09:43:36.872057+05:30"},{"city":"Guntur","state":"Andhra Pradesh","latitude":16.3067,"longitude":80.4365,"temp":34.3,"humidity":54,"rain":0.0,"pressure":1000.8,"uv_index":6.9,"wind_gusts":49.0,"aqi":91,"pm10":32.7,"pm2_5":21.0,"no2":5.4,"co":198.0,"o3":83.0,"so2":8.7,"mosquito_risk":0,"arthritis_risk":5,"migraine_risk":4,"frizz_risk":1,"updated_at":"2026-06-11T09:43:36.872064+05:30"},{"city":"Nellore","state":"Andhra Pradesh","latitude":14.4426,"longitude":79.9865,"temp":32.7,"humidity":57,"rain":0.0,"pressure":1003.8,"uv_index":7.75,"wind_gusts":44.6,"aqi":57,"pm10":20.9,"pm2_5":11.0,"no2":4.3,"co":137.0,"o3":64.0,"so2":7.4,"mosquito_risk":0,"arthritis_risk":5,"migraine_risk":4,"frizz_risk":1,"updated_at":"2026-06-11T09:43:36.872071+05:30"},{"city":"Kurnool","state":"Andhra Pradesh","latitude":15.8281,"longitude":78.0373,"temp":31.0,"humidity":60,"rain":0.0,"pressure":976.4,"uv_index":8.95,"wind_gusts":37.8,"aqi":57,"pm10":21.8,"pm2_5":11.7,"no2":3.7,"co":140.0,"o3":60.0,"so2":7.0,"mosquito_risk":0,"arthritis_risk":5,"migraine_risk":7,"frizz_risk":1,"updated_at":"2026-06-11T09:43:36.872078+05:30"},{"city":"Kakinada","state":"Andhra Pradesh","latitude":16.9891,"longitude":82.2475,"temp":33.4,"humidity":59,"rain":0.0,"pressure":1003.7,"uv_index":9.05,"wind_gusts":63.0,"aqi":89,"pm10":50.4,"pm2_5":36.8,"no2":7.0,"co":268.0,"o3":130.0,"so2":7.7,"mosquito_risk":0,"arthritis_risk":5,"migraine_risk":4,"frizz_risk":1,"updated_at":"2026-06-11T09:43:36.872084+05:30"},{"city":"Tirupati","state":"Andhra Pradesh","latitude":13.6288,"longitude":79.4192,"temp":32.4,"humidity":54,"rain":0.0,"pressure":989.6,"uv_index":5.05,"wind_gusts":46.1,"aqi":56,"pm10":25.3,"pm2_5":11.6,"no2":2.3,"co":131.0,"o3":69.0,"so2":1.8,"mosquito_risk":0,"arthritis_risk":5,"migraine_risk":3,"frizz_risk":1,"updated_at":"2026-06-11T09:43:36.872090+05:30"},{"city":"Warangal","state":"Telangana","latitude":17.9689,"longitude":79.5941,"temp":33.5,"humidity":51,"rain":0.0,"pressure":976.4,"uv_index":8.75,"wind_gusts":44.3,"aqi":97,"pm10":39.9,"pm2_5":25.7,"no2":3.1,"co":194.0,"o3":91.0,"so2":5.3,"mosquito_risk":0,"arthritis_risk":5,"migraine_risk":7,"frizz_risk":1,"updated_at":"2026-06-11T09:43:36.872096+05:30"},{"city":"Nizamabad","state":"Telangana","latitude":18.6725,"longitude":78.0941,"temp":33.2,"humidity":50,"rain":0.0,"pressure":963.7,"uv_index":8.85,"wind_gusts":36.0,"aqi":82,"pm10":39.7,"pm2_5":20.9,"no2":3.3,"co":141.0,"o3":76.0,"so2":7.0,"mosquito_risk":0,"arthritis_risk":5,"migraine_risk":7,"frizz_risk":1,"updated_at":"2026-06-11T09:43:36.872103+05:30"},{"city":"Mysore","state":"Karnataka","latitude":12.2958,"longitude":76.6396,"temp":27.3,"humidity":63,"rain":0.0,"pressure":929.7,"uv_index":9.05,"wind_gusts":42.5,"aqi":25,"pm10":18.6,"pm2_5":8.6,"no2":4.4,"co":151.0,"o3":58.0,"so2":2.0,"mosquito_risk":7,"arthritis_risk":5,"migraine_risk":7,"frizz_risk":1,"updated_at":"2026-06-11T09:43:36.872109+05:30"},{"city":"Mangalore","state":"Karnataka","latitude":12.9141,"longitude":74.856,"temp":27.6,"humidity":83,"rain":0.0,"pressure":1008.3,"uv_index":8.35,"wind_gusts":36.0,"aqi":40,"pm10":13.5,"pm2_5":7.9,"no2":5.0,"co":190.0,"o3":50.0,"so2":3.1,"mosquito_risk":7,"arthritis_risk":0,"migraine_risk":4,"frizz_risk":1,"updated_at":"2026-06-11T09:43:36.872115+05:30"},{"city":"Hubli-Dharwad","state":"Karnataka","latitude":15.3647,"longitude":75.124,"temp":26.9,"humidity":72,"rain":0.0,"pressure":941.3,"uv_index":8.3,"wind_gusts":46.4,"aqi":20,"pm10":12.3,"pm2_5":5.3,"no2":2.4,"co":124.0,"o3":57.0,"so2":1.3,"mosquito_risk":7,"arthritis_risk":5,"migraine_risk":7,"frizz_risk":1,"updated_at":"2026-06-11T09:43:36.872121+05:30"},{"city":"Belgaum","state":"Karnataka","latitude":15.8497,"longitude":74.4977,"temp":26.3,"humidity":72,"rain":0.0,"pressure":926.1,"uv_index":6.5,"wind_gusts":44.6,"aqi":33,"pm10":40.9,"pm2_5":16.0,"no2":2.3,"co":113.0,"o3":62.0,"so2":1.8,"mosquito_risk":7,"arthritis_risk":5,"migraine_risk":7,"frizz_risk":1,"updated_at":"2026-06-11T09:43:40.183048+05:30"},{"city":"Coimbatore","state":"Tamil Nadu","latitude":11.0168,"longitude":76.9558,"temp":28.2,"humidity":67,"rain":0.0,"pressure":962.5,"uv_index":7.65,"wind_gusts":54.7,"aqi":21,"pm10":16.5,"pm2_5":7.0,"no2":2.5,"co":200.0,"o3":70.0,"so2":2.3,"mosquito_risk":7,"arthritis_risk":5,"migraine_risk":7,"frizz_risk":1,"updated_at":"2026-06-11T09:43:40.183077+05:30"},{"city":"Madurai","state":"Tamil Nadu","latitude":9.9252,"longitude":78.1198,"temp":32.1,"humidity":52,"rain":0.0,"pressure":993.5,"uv_index":7.45,"wind_gusts":41.0,"aqi":27,"pm10":6.8,"pm2_5":5.5,"no2":5.6,"co":167.0,"o3":64.0,"so2":4.1,"mosquito_risk":0,"arthritis_risk":5,"migraine_risk":7,"frizz_risk":1,"updated_at":"2026-06-11T09:43:40.183089+05:30"},{"city":"Trichy","state":"Tamil Nadu","latitude":10.7905,"longitude":78.7047,"temp":32.4,"humidity":53,"rain":0.0,"pressure":999.7,"uv_index":6.8,"wind_gusts":38.2,"aqi":21,"pm10":10.4,"pm2_5":5.5,"no2":2.8,"co":142.0,"o3":65.0,"so2":2.8,"mosquito_risk":0,"arthritis_risk":5,"migraine_risk":7,"frizz_risk":1,"updated_at":"2026-06-11T09:43:40.183099+05:30"},{"city":"Salem","state":"Tamil Nadu","latitude":11.6643,"longitude":78.146,"temp":30.8,"humidity":55,"rain":0.0,"pressure":977.8,"uv_index":6.5,"wind_gusts":37.8,"aqi":48,"pm10":19.7,"pm2_5":11.8,"no2":6.7,"co":158.0,"o3":80.0,"so2":11.5,"mosquito_risk":0,"arthritis_risk":5,"migraine_risk":7,"frizz_risk":1,"updated_at":"2026-06-11T09:43:40.183108+05:30"},{"city":"Tirunelveli","state":"Tamil Nadu","latitude":8.7139,"longitude":77.7567,"temp":32.5,"humidity":56,"rain":0.0,"pressure":1004.3,"uv_index":8.6,"wind_gusts":44.3,"aqi":18,"pm10":4.6,"pm2_5":3.5,"no2":3.7,"co":145.0,"o3":52.0,"so2":1.8,"mosquito_risk":0,"arthritis_risk":5,"migraine_risk":4,"frizz_risk":1,"updated_at":"2026-06-11T09:43:40.183116+05:30"},{"city":"Vellore","state":"Tamil Nadu","latitude":12.9165,"longitude":79.1325,"temp":31.9,"humidity":52,"rain":0.0,"pressure":983.5,"uv_index":8.5,"wind_gusts":43.2,"aqi":57,"pm10":25.8,"pm2_5":13.1,"no2":3.6,"co":163.0,"o3":72.0,"so2":3.3,"mosquito_risk":0,"arthritis_risk":5,"migraine_risk":7,"frizz_risk":1,"updated_at":"2026-06-11T09:43:40.183123+05:30"},{"city":"Erode","state":"Tamil Nadu","latitude":11.341,"longitude":77.7172,"temp":31.1,"humidity":56,"rain":0.0,"pressure":989.5,"uv_index":7.65,"wind_gusts":46.8,"aqi":28,"pm10":14.4,"pm2_5":8.0,"no2":4.3,"co":193.0,"o3":68.0,"so2":3.2,"mosquito_risk":0,"arthritis_risk":5,"migraine_risk":7,"frizz_risk":1,"updated_at":"2026-06-11T09:43:40.183131+05:30"},{"city":"Kochi","state":"Kerala","latitude":9.9312,"longitude":76.2673,"temp":27.9,"humidity":83,"rain":0.1,"pressure":1010.4,"uv_index":7.75,"wind_gusts":41.0,"aqi":42,"pm10":13.4,"pm2_5":8.5,"no2":8.6,"co":154.0,"o3":55.0,"so2":4.9,"mosquito_risk":10,"arthritis_risk":0,"migraine_risk":4,"frizz_risk":1,"updated_at":"2026-06-11T09:43:40.183139+05:30"},{"city":"Thiruvananthapuram","state":"Kerala","latitude":8.5241,"longitude":76.9366,"temp":26.6,"humidity":91,"rain":0.1,"pressure":1010.1,"uv_index":7.85,"wind_gusts":42.8,"aqi":29,"pm10":13.7,"pm2_5":6.6,"no2":1.6,"co":125.0,"o3":56.0,"so2":0.8,"mosquito_risk":10,"arthritis_risk":0,"migraine_risk":4,"frizz_risk":1,"updated_at":"2026-06-11T09:43:40.183147+05:30"},{"city":"Kozhikode","state":"Kerala","latitude":11.2588,"longitude":75.7804,"temp":27.7,"humidity":88,"rain":0.0,"pressure":1009.7,"uv_index":8.05,"wind_gusts":33.1,"aqi":26,"pm10":11.9,"pm2_5":5.5,"no2":2.0,"co":147.0,"o3":62.0,"so2":1.9,"mosquito_risk":7,"arthritis_risk":0,"migraine_risk":4,"frizz_risk":1,"updated_at":"2026-06-11T09:43:40.183155+05:30"},{"city":"Thrissur","state":"Kerala","latitude":10.5276,"longitude":76.2144,"temp":26.8,"humidity":90,"rain":0.1,"pressure":1008.8,"uv_index":7.75,"wind_gusts":33.8,"aqi":34,"pm10":12.2,"pm2_5":7.6,"no2":5.2,"co":209.0,"o3":57.0,"so2":3.7,"mosquito_risk":10,"arthritis_risk":0,"migraine_risk":4,"frizz_risk":1,"updated_at":"2026-06-11T09:43:40.183165+05:30"},{"city":"Kannur","state":"Kerala","latitude":11.8745,"longitude":75.3704,"temp":26.5,"humidity":92,"rain":0.1,"pressure":1008.9,"uv_index":8.35,"wind_gusts":31.3,"aqi":31,"pm10":12.4,"pm2_5":7.1,"no2":4.6,"co":176.0,"o3":59.0,"so2":2.7,"mosquito_risk":10,"arthritis_risk":0,"migraine_risk":4,"frizz_risk":1,"updated_at":"2026-06-11T09:43:40.183216+05:30"},{"city":"Patna","state":"Bihar","latitude":25.5941,"longitude":85.1376,"temp":29.9,"humidity":72,"rain":0.0,"pressure":997.5,"uv_index":8.7,"wind_gusts":38.2,"aqi":154,"pm10":51.7,"pm2_5":38.5,"no2":6.5,"co":430.0,"o3":147.0,"so2":19.6,"mosquito_risk":7,"arthritis_risk":5,"migraine_risk":7,"frizz_risk":1,"updated_at":"2026-06-11T09:43:40.183231+05:30"},{"city":"Gaya","state":"Bihar","latitude":24.7914,"longitude":85.0002,"temp":32.9,"humidity":63,"rain":0.0,"pressure":990.2,"uv_index":8.85,"wind_gusts":39.2,"aqi":153,"pm10":76.4,"pm2_5":64.7,"no2":7.7,"co":401.0,"o3":160.0,"so2":29.0,"mosquito_risk":3,"arthritis_risk":5,"migraine_risk":7,"frizz_risk":1,"updated_at":"2026-06-11T09:43:40.183241+05:30"},{"city":"Muzaffarpur","state":"Bihar","latitude":26.1209,"longitude":85.3647,"temp":30.0,"humidity":71,"rain":0.0,"pressure":998.0,"uv_index":7.05,"wind_gusts":43.6,"aqi":155,"pm10":42.3,"pm2_5":30.6,"no2":5.4,"co":391.0,"o3":147.0,"so2":14.0,"mosquito_risk":7,"arthritis_risk":5,"migraine_risk":7,"frizz_risk":1,"updated_at":"2026-06-11T09:43:40.183249+05:30"},{"city":"Bhagalpur","state":"Bihar","latitude":25.2425,"longitude":87.0117,"temp":28.9,"humidity":73,"rain":0.0,"pressure":999.0,"uv_index":8.8,"wind_gusts":38.5,"aqi":151,"pm10":41.2,"pm2_5":31.1,"no2":10.8,"co":334.0,"o3":100.0,"so2":18.4,"mosquito_risk":7,"arthritis_risk":5,"migraine_risk":7,"frizz_risk":1,"updated_at":"2026-06-11T09:43:40.183257+05:30"},{"city":"Ranchi","state":"Jharkhand","latitude":23.3441,"longitude":85.3096,"temp":32.9,"humidity":44,"rain":0.0,"pressure":935.6,"uv_index":8.7,"wind_gusts":24.5,"aqi":150,"pm10":71.9,"pm2_5":36.2,"no2":3.3,"co":225.0,"o3":156.0,"so2":16.9,"mosquito_risk":0,"arthritis_risk":5,"migraine_risk":7,"frizz_risk":1,"updated_at":"2026-06-11T09:43:40.183264+05:30"},{"city":"Jamshedpur","state":"Jharkhand","latitude":22.8046,"longitude":86.2029,"temp":33.3,"humidity":60,"rain":0.0,"pressure":987.2,"uv_index":9.05,"wind_gusts":36.7,"aqi":151,"pm10":94.1,"pm2_5":63.8,"no2":10.1,"co":530.0,"o3":177.0,"so2":38.3,"mosquito_risk":0,"arthritis_risk":5,"migraine_risk":7,"frizz_risk":1,"updated_at":"2026-06-11T09:43:40.183273+05:30"},{"city":"Dhanbad","state":"Jharkhand","latitude":23.7957,"longitude":86.4304,"temp":33.4,"humidity":63,"rain":0.0,"pressure":976.6,"uv_index":9.05,"wind_gusts":40.7,"aqi":158,"pm10":95.0,"pm2_5":67.5,"no2":28.1,"co":973.0,"o3":136.0,"so2":82.7,"mosquito_risk":3,"arthritis_risk":5,"migraine_risk":7,"frizz_risk":1,"updated_at":"2026-06-11T09:43:40.183281+05:30"},{"city":"Bokaro","state":"Jharkhand","latitude":23.6693,"longitude":86.1511,"temp":33.8,"humidity":55,"rain":0.0,"pressure":980.3,"uv_index":8.85,"wind_gusts":40.0,"aqi":157,"pm10":103.4,"pm2_5":66.6,"no2":24.5,"co":854.0,"o3":155.0,"so2":79.3,"mosquito_risk":0,"arthritis_risk":5,"migraine_risk":7,"frizz_risk":1,"updated_at":"2026-06-11T09:43:40.183287+05:30"},{"city":"Bhubaneswar","state":"Odisha","latitude":20.2961,"longitude":85.8245,"temp":34.5,"humidity":63,"rain":0.0,"pressure":998.6,"uv_index":9.05,"wind_gusts":26.6,"aqi":159,"pm10":66.1,"pm2_5":47.3,"no2":3.4,"co":329.0,"o3":160.0,"so2":7.7,"mosquito_risk":3,"arthritis_risk":5,"migraine_risk":7,"frizz_risk":1,"updated_at":"2026-06-11T09:43:40.183293+05:30"},{"city":"Cuttack","state":"Odisha","latitude":20.4625,"longitude":85.8828,"temp":34.3,"humidity":64,"rain":0.0,"pressure":1000.5,"uv_index":9.15,"wind_gusts":35.6,"aqi":159,"pm10":66.1,"pm2_5":47.3,"no2":3.4,"co":373.0,"o3":160.0,"so2":7.7,"mosquito_risk":3,"arthritis_risk":5,"migraine_risk":4,"frizz_risk":1,"updated_at":"2026-06-11T09:43:40.183299+05:30"},{"city":"Rourkela","state":"Odisha","latitude":22.2604,"longitude":84.8536,"temp":33.8,"humidity":54,"rain":0.0,"pressure":981.8,"uv_index":9.0,"wind_gusts":27.0,"aqi":152,"pm10":85.2,"pm2_5":50.5,"no2":3.3,"co":502.0,"o3":177.0,"so2":19.1,"mosquito_risk":0,"arthritis_risk":5,"migraine_risk":7,"frizz_risk":1,"updated_at":"2026-06-11T09:43:40.183305+05:30"},{"city":"Raipur","state":"Chhattisgarh","latitude":21.2514,"longitude":81.6296,"temp":36.5,"humidity":37,"rain":0.0,"pressure":971.6,"uv_index":8.85,"wind_gusts":41.8,"aqi":121,"pm10":73.3,"pm2_5":46.7,"no2":24.5,"co":529.0,"o3":107.0,"so2":64.4,"mosquito_risk":0,"arthritis_risk":5,"migraine_risk":10,"frizz_risk":1,"updated_at":"2026-06-11T09:43:40.183311+05:30"},{"city":"Bhilai","state":"Chhattisgarh","latitude":21.1938,"longitude":81.3509,"temp":35.4,"humidity":40,"rain":0.0,"pressure":972.0,"uv_index":8.7,"wind_gusts":37.8,"aqi":112,"pm10":70.5,"pm2_5":42.8,"no2":17.4,"co":704.0,"o3":113.0,"so2":50.0,"mosquito_risk":0,"arthritis_risk":5,"migraine_risk":10,"frizz_risk":1,"updated_at":"2026-06-11T09:43:40.183318+05:30"},{"city":"Guwahati","state":"Assam","latitude":26.1158,"longitude":91.7086,"temp":28.8,"humidity":75,"rain":0.0,"pressure":1000.5,"uv_index":8.75,"wind_gusts":23.0,"aqi":92,"pm10":54.0,"pm2_5":34.3,"no2":1.4,"co":316.0,"o3":143.0,"so2":5.2,"mosquito_risk":7,"arthritis_risk":5,"migraine_risk":4,"frizz_risk":1,"updated_at":"2026-06-11T09:43:40.183324+05:30"},{"city":"Agartala","state":"Tripura","latitude":23.8315,"longitude":91.2868,"temp":31.1,"humidity":72,"rain":0.0,"pressure":1004.8,"uv_index":8.6,"wind_gusts":38.2,"aqi":85,"pm10":33.5,"pm2_5":23.6,"no2":4.0,"co":176.0,"o3":117.0,"so2":3.3,"mosquito_risk":3,"arthritis_risk":5,"migraine_risk":4,"frizz_risk":1,"updated_at":"2026-06-11T09:43:40.183330+05:30"},{"city":"Shillong","state":"Meghalaya","latitude":25.5788,"longitude":91.8933,"temp":23.6,"humidity":74,"rain":0.2,"pressure":858.0,"uv_index":6.8,"wind_gusts":23.4,"aqi":52,"pm10":15.4,"pm2_5":10.1,"no2":1.6,"co":182.0,"o3":122.0,"so2":3.3,"mosquito_risk":6,"arthritis_risk":5,"migraine_risk":7,"frizz_risk":1,"updated_at":"2026-06-11T09:43:40.183337+05:30"},{"city":"Imphal","state":"Manipur","latitude":24.817,"longitude":93.9368,"temp":27.9,"humidity":67,"rain":0.0,"pressure":923.3,"uv_index":9.25,"wind_gusts":24.5,"aqi":95,"pm10":19.7,"pm2_5":14.2,"no2":1.5,"co":235.0,"o3":110.0,"so2":2.1,"mosquito_risk":7,"arthritis_risk":5,"migraine_risk":7,"frizz_risk":1,"updated_at":"2026-06-11T09:43:40.183343+05:30"},{"city":"Aizawl","state":"Mizoram","latitude":23.7271,"longitude":92.7176,"temp":25.8,"humidity":61,"rain":0.0,"pressure":892.9,"uv_index":9.1,"wind_gusts":25.6,"aqi":60,"pm10":32.1,"pm2_5":19.2,"no2":0.2,"co":145.0,"o3":117.0,"so2":1.7,"mosquito_risk":7,"arthritis_risk":5,"migraine_risk":7,"frizz_risk":1,"updated_at":"2026-06-11T09:43:40.183349+05:30"},{"city":"Kohima","state":"Nagaland","latitude":25.6701,"longitude":94.1077,"temp":22.1,"humidity":89,"rain":0.0,"pressure":856.1,"uv_index":9.25,"wind_gusts":33.5,"aqi":66,"pm10":38.5,"pm2_5":20.9,"no2":0.9,"co":222.0,"o3":119.0,"so2":1.8,"mosquito_risk":3,"arthritis_risk":5,"migraine_risk":7,"frizz_risk":1,"updated_at":"2026-06-11T09:43:40.183355+05:30"},{"city":"Gangtok","state":"Sikkim","latitude":27.3314,"longitude":88.6138,"temp":22.6,"humidity":70,"rain":0.0,"pressure":838.0,"uv_index":9.1,"wind_gusts":37.4,"aqi":93,"pm10":30.6,"pm2_5":18.5,"no2":1.5,"co":379.0,"o3":149.0,"so2":4.6,"mosquito_risk":3,"arthritis_risk":5,"migraine_risk":7,"frizz_risk":1,"updated_at":"2026-06-11T09:43:40.183361+05:30"},{"city":"Siliguri","state":"West Bengal","latitude":26.7271,"longitude":88.3953,"temp":28.5,"humidity":73,"rain":0.0,"pressure":991.8,"uv_index":8.75,"wind_gusts":31.7,"aqi":150,"pm10":73.3,"pm2_5":41.6,"no2":3.0,"co":340.0,"o3":160.0,"so2":7.7,"mosquito_risk":7,"arthritis_risk":5,"migraine_risk":7,"frizz_risk":1,"updated_at":"2026-06-11T09:43:43.508727+05:30"},{"city":"Durgapur","state":"West Bengal","latitude":23.5204,"longitude":87.3119,"temp":33.3,"humidity":70,"rain":0.0,"pressure":991.7,"uv_index":9.0,"wind_gusts":32.4,"aqi":164,"pm10":71.7,"pm2_5":54.5,"no2":14.3,"co":493.0,"o3":116.0,"so2":35.7,"mosquito_risk":3,"arthritis_risk":5,"migraine_risk":7,"frizz_risk":1,"updated_at":"2026-06-11T09:43:43.508754+05:30"},{"city":"Asansol","state":"West Bengal","latitude":23.6739,"longitude":86.9524,"temp":34.1,"humidity":62,"rain":0.0,"pressure":990.2,"uv_index":9.0,"wind_gusts":38.2,"aqi":157,"pm10":76.8,"pm2_5":53.1,"no2":12.9,"co":369.0,"o3":132.0,"so2":38.0,"mosquito_risk":3,"arthritis_risk":5,"migraine_risk":7,"frizz_risk":1,"updated_at":"2026-06-11T09:43:43.508764+05:30"},{"city":"Pondicherry","state":"Puducherry","latitude":11.9139,"longitude":79.8145,"temp":31.7,"humidity":59,"rain":0.0,"pressure":1007.6,"uv_index":7.4,"wind_gusts":31.3,"aqi":60,"pm10":18.6,"pm2_5":12.9,"no2":6.8,"co":255.0,"o3":78.0,"so2":7.3,"mosquito_risk":0,"arthritis_risk":5,"migraine_risk":4,"frizz_risk":1,"updated_at":"2026-06-11T09:43:43.508772+05:30"},{"city":"Port Blair","state":"Andaman and Nicobar Islands","latitude":11.6234,"longitude":92.7265,"temp":27.3,"humidity":91,"rain":0.1,"pressure":1007.7,"uv_index":2.85,"wind_gusts":49.7,"aqi":27,"pm10":7.3,"pm2_5":4.1,"no2":0.4,"co":89.0,"o3":51.0,"so2":0.2,"mosquito_risk":10,"arthritis_risk":5,"migraine_risk":0,"frizz_risk":1,"updated_at":"2026-06-11T09:43:43.508779+05:30"},{"city":"Haridwar","state":"Uttarakhand","latitude":29.9457,"longitude":78.1642,"temp":33.8,"humidity":44,"rain":0.0,"pressure":969.7,"uv_index":7.6,"wind_gusts":50.0,"aqi":118,"pm10":116.9,"pm2_5":45.9,"no2":3.1,"co":242.0,"o3":160.0,"so2":7.1,"mosquito_risk":0,"arthritis_risk":5,"migraine_risk":7,"frizz_risk":1,"updated_at":"2026-06-11T09:43:43.508786+05:30"},{"city":"Rishikesh","state":"Uttarakhand","latitude":30.0869,"longitude":78.2676,"temp":31.3,"humidity":45,"rain":0.0,"pressure":962.8,"uv_index":7.7,"wind_gusts":40.7,"aqi":94,"pm10":135.0,"pm2_5":43.3,"no2":1.8,"co":234.0,"o3":151.0,"so2":4.8,"mosquito_risk":0,"arthritis_risk":5,"migraine_risk":7,"frizz_risk":1,"updated_at":"2026-06-11T09:43:43.508793+05:30"},{"city":"Nainital","state":"Uttarakhand","latitude":29.3919,"longitude":79.4542,"temp":20.6,"humidity":69,"rain":0.1,"pressure":806.2,"uv_index":7.95,"wind_gusts":36.4,"aqi":117,"pm10":187.2,"pm2_5":49.5,"no2":0.9,"co":197.0,"o3":156.0,"so2":4.2,"mosquito_risk":6,"arthritis_risk":5,"migraine_risk":7,"frizz_risk":0,"updated_at":"2026-06-11T09:43:43.508800+05:30"},{"city":"Mussoorie","state":"Uttarakhand","latitude":30.4599,"longitude":78.0664,"temp":21.1,"humidity":63,"rain":0.0,"pressure":803.2,"uv_index":8.15,"wind_gusts":39.2,"aqi":91,"pm10":118.0,"pm2_5":41.3,"no2":3.0,"co":254.0,"o3":165.0,"so2":6.3,"mosquito_risk":3,"arthritis_risk":5,"migraine_risk":7,"frizz_risk":0,"updated_at":"2026-06-11T09:43:43.508806+05:30"},{"city":"Dharamshala","state":"Himachal Pradesh","latitude":32.219,"longitude":76.3234,"temp":27.2,"humidity":41,"rain":0.0,"pressure":867.2,"uv_index":8.5,"wind_gusts":41.0,"aqi":61,"pm10":29.6,"pm2_5":15.3,"no2":0.2,"co":255.0,"o3":174.0,"so2":3.4,"mosquito_risk":4,"arthritis_risk":5,"migraine_risk":7,"frizz_risk":0,"updated_at":"2026-06-11T09:43:43.508813+05:30"},{"city":"Dalhousie","state":"Himachal Pradesh","latitude":32.5387,"longitude":75.971,"temp":24.2,"humidity":42,"rain":0.0,"pressure":805.2,"uv_index":8.75,"wind_gusts":32.4,"aqi":86,"pm10":66.4,"pm2_5":26.9,"no2":2.5,"co":280.0,"o3":196.0,"so2":5.8,"mosquito_risk":0,"arthritis_risk":5,"migraine_risk":7,"frizz_risk":0,"updated_at":"2026-06-11T09:43:43.508820+05:30"},{"city":"Patiala","state":"Punjab","latitude":30.3398,"longitude":76.3869,"temp":34.1,"humidity":44,"rain":0.0,"pressure":972.0,"uv_index":7.65,"wind_gusts":52.2,"aqi":1096,"pm10":2563.0,"pm2_5":322.2,"no2":5.3,"co":329.0,"o3":156.0,"so2":15.4,"mosquito_risk":0,"arthritis_risk":5,"migraine_risk":7,"frizz_risk":1,"updated_at":"2026-06-11T09:43:43.508827+05:30"},{"city":"Bhatinda","state":"Punjab","latitude":30.211,"longitude":74.9455,"temp":37.0,"humidity":41,"rain":0.0,"pressure":975.7,"uv_index":8.35,"wind_gusts":72.4,"aqi":163,"pm10":510.4,"pm2_5":147.6,"no2":9.6,"co":182.0,"o3":98.0,"so2":11.0,"mosquito_risk":0,"arthritis_risk":5,"migraine_risk":10,"frizz_risk":1,"updated_at":"2026-06-11T09:43:43.508834+05:30"},{"city":"Rohtak","state":"Haryana","latitude":28.8955,"longitude":76.6066,"temp":35.3,"humidity":47,"rain":0.0,"pressure":975.3,"uv_index":7.85,"wind_gusts":73.4,"aqi":678,"pm10":892.2,"pm2_5":160.2,"no2":19.2,"co":440.0,"o3":119.0,"so2":21.1,"mosquito_risk":0,"arthritis_risk":5,"migraine_risk":10,"frizz_risk":1,"updated_at":"2026-06-11T09:43:43.508840+05:30"},{"city":"Panipat","state":"Haryana","latitude":29.3909,"longitude":76.9635,"temp":32.5,"humidity":53,"rain":0.0,"pressure":974.6,"uv_index":7.65,"wind_gusts":48.2,"aqi":1602,"pm10":2667.3,"pm2_5":336.2,"no2":11.8,"co":296.0,"o3":134.0,"so2":19.9,"mosquito_risk":0,"arthritis_risk":5,"migraine_risk":7,"frizz_risk":1,"updated_at":"2026-06-11T09:43:43.508847+05:30"},{"city":"Mathura","state":"Uttar Pradesh","latitude":27.4924,"longitude":77.6737,"temp":34.5,"humidity":47,"rain":0.0,"pressure":981.4,"uv_index":7.2,"wind_gusts":63.7,"aqi":414,"pm10":763.7,"pm2_5":98.3,"no2":5.8,"co":210.0,"o3":87.0,"so2":4.6,"mosquito_risk":0,"arthritis_risk":5,"migraine_risk":7,"frizz_risk":1,"updated_at":"2026-06-11T09:43:43.508853+05:30"},{"city":"Vrindavan","state":"Uttar Pradesh","latitude":27.5823,"longitude":77.7027,"temp":33.7,"humidity":48,"rain":0.0,"pressure":981.8,"uv_index":7.15,"wind_gusts":65.2,"aqi":414,"pm10":763.7,"pm2_5":98.3,"no2":5.8,"co":211.0,"o3":87.0,"so2":4.6,"mosquito_risk":0,"arthritis_risk":5,"migraine_risk":7,"frizz_risk":1,"updated_at":"2026-06-11T09:43:43.508859+05:30"},{"city":"Ayodhya","state":"Uttar Pradesh","latitude":26.7922,"longitude":82.1998,"temp":28.0,"humidity":82,"rain":0.1,"pressure":992.0,"uv_index":8.45,"wind_gusts":42.5,"aqi":154,"pm10":62.9,"pm2_5":46.1,"no2":4.5,"co":369.0,"o3":155.0,"so2":10.3,"mosquito_risk":10,"arthritis_risk":5,"migraine_risk":7,"frizz_risk":1,"updated_at":"2026-06-11T09:43:43.508866+05:30"},{"city":"Ratlam","state":"Madhya Pradesh","latitude":23.3315,"longitude":75.0367,"temp":30.6,"humidity":62,"rain":0.0,"pressure":952.5,"uv_index":8.55,"wind_gusts":46.8,"aqi":77,"pm10":58.2,"pm2_5":26.4,"no2":2.4,"co":119.0,"o3":67.0,"so2":6.4,"mosquito_risk":3,"arthritis_risk":5,"migraine_risk":7,"frizz_risk":1,"updated_at":"2026-06-11T09:43:43.508872+05:30"},{"city":"Sagar","state":"Madhya Pradesh","latitude":23.8388,"longitude":78.7378,"temp":34.3,"humidity":47,"rain":0.0,"pressure":947.1,"uv_index":8.75,"wind_gusts":39.6,"aqi":68,"pm10":43.4,"pm2_5":27.5,"no2":1.6,"co":162.0,"o3":104.0,"so2":6.7,"mosquito_risk":0,"arthritis_risk":5,"migraine_risk":7,"frizz_risk":1,"updated_at":"2026-06-11T09:43:43.508878+05:30"},{"city":"Satna","state":"Madhya Pradesh","latitude":24.6005,"longitude":80.8322,"temp":36.9,"humidity":35,"rain":0.0,"pressure":967.5,"uv_index":8.35,"wind_gusts":49.3,"aqi":69,"pm10":36.4,"pm2_5":21.9,"no2":2.3,"co":170.0,"o3":105.0,"so2":4.7,"mosquito_risk":0,"arthritis_risk":5,"migraine_risk":10,"frizz_risk":1,"updated_at":"2026-06-11T09:43:43.508885+05:30"},{"city":"Akola","state":"Maharashtra","latitude":20.7002,"longitude":77.0082,"temp":34.3,"humidity":50,"rain":0.0,"pressure":973.2,"uv_index":8.8,"wind_gusts":38.9,"aqi":70,"pm10":41.7,"pm2_5":22.1,"no2":3.6,"co":133.0,"o3":72.0,"so2":8.1,"mosquito_risk":0,"arthritis_risk":5,"migraine_risk":7,"frizz_risk":1,"updated_at":"2026-06-11T09:43:43.508892+05:30"},{"city":"Amravati","state":"Maharashtra","latitude":20.9374,"longitude":77.7796,"temp":34.3,"humidity":47,"rain":0.0,"pressure":965.3,"uv_index":8.85,"wind_gusts":38.9,"aqi":72,"pm10":43.4,"pm2_5":23.1,"no2":4.1,"co":135.0,"o3":72.0,"so2":9.3,"mosquito_risk":0,"arthritis_risk":5,"migraine_risk":7,"frizz_risk":1,"updated_at":"2026-06-11T09:43:43.508898+05:30"},{"city":"Latur","state":"Maharashtra","latitude":18.4088,"longitude":76.5604,"temp":30.4,"humidity":58,"rain":0.0,"pressure":939.3,"uv_index":8.85,"wind_gusts":33.8,"aqi":69,"pm10":34.8,"pm2_5":16.1,"no2":2.0,"co":138.0,"o3":71.0,"so2":3.0,"mosquito_risk":0,"arthritis_risk":5,"migraine_risk":7,"frizz_risk":1,"updated_at":"2026-06-11T09:43:43.508905+05:30"},{"city":"Nanded","state":"Maharashtra","latitude":19.1383,"longitude":77.3091,"temp":33.7,"humidity":49,"rain":0.0,"pressure":967.2,"uv_index":8.9,"wind_gusts":40.7,"aqi":77,"pm10":39.2,"pm2_5":20.1,"no2":3.1,"co":149.0,"o3":77.0,"so2":5.9,"mosquito_risk":0,"arthritis_risk":5,"migraine_risk":7,"frizz_risk":1,"updated_at":"2026-06-11T09:43:43.508911+05:30"},{"city":"Gulbarga","state":"Karnataka","latitude":17.3297,"longitude":76.8343,"temp":30.5,"humidity":61,"rain":0.0,"pressure":958.1,"uv_index":8.75,"wind_gusts":39.6,"aqi":58,"pm10":20.8,"pm2_5":10.4,"no2":2.6,"co":135.0,"o3":65.0,"so2":2.7,"mosquito_risk":3,"arthritis_risk":5,"migraine_risk":7,"frizz_risk":1,"updated_at":"2026-06-11T09:43:43.508917+05:30"},{"city":"Bidar","state":"Karnataka","latitude":17.9104,"longitude":77.5199,"temp":30.3,"humidity":60,"rain":0.0,"pressure":935.0,"uv_index":8.8,"wind_gusts":37.1,"aqi":74,"pm10":38.2,"pm2_5":18.8,"no2":3.1,"co":140.0,"o3":71.0,"so2":3.1,"mosquito_risk":0,"arthritis_risk":5,"migraine_risk":7,"frizz_risk":1,"updated_at":"2026-06-11T09:43:43.508923+05:30"},{"city":"Hospet","state":"Karnataka","latitude":15.2689,"longitude":76.3909,"temp":28.6,"humidity":66,"rain":0.0,"pressure":956.1,"uv_index":9.0,"wind_gusts":41.0,"aqi":34,"pm10":17.3,"pm2_5":7.9,"no2":2.6,"co":124.0,"o3":57.0,"so2":2.2,"mosquito_risk":7,"arthritis_risk":5,"migraine_risk":7,"frizz_risk":1,"updated_at":"2026-06-11T09:43:43.508929+05:30"},{"city":"Tirupur","state":"Tamil Nadu","latitude":11.1085,"longitude":77.3411,"temp":29.1,"humidity":61,"rain":0.0,"pressure":975.9,"uv_index":7.95,"wind_gusts":57.6,"aqi":35,"pm10":15.7,"pm2_5":9.0,"no2":4.6,"co":166.0,"o3":70.0,"so2":4.1,"mosquito_risk":7,"arthritis_risk":5,"migraine_risk":7,"frizz_risk":1,"updated_at":"2026-06-11T09:43:43.508935+05:30"},{"city":"Alappuzha","state":"Kerala","latitude":9.4981,"longitude":76.3388,"temp":26.6,"humidity":91,"rain":0.0,"pressure":1010.7,"uv_index":7.35,"wind_gusts":36.4,"aqi":32,"pm10":14.8,"pm2_5":7.7,"no2":4.8,"co":96.0,"o3":61.0,"so2":2.5,"mosquito_risk":7,"arthritis_risk":0,"migraine_risk":4,"frizz_risk":1,"updated_at":"2026-06-11T09:43:43.508941+05:30"},{"city":"Munnar","state":"Kerala","latitude":10.0889,"longitude":77.0595,"temp":20.0,"humidity":84,"rain":0.0,"pressure":858.6,"uv_index":7.8,"wind_gusts":37.4,"aqi":18,"pm10":6.8,"pm2_5":3.4,"no2":2.2,"co":111.0,"o3":56.0,"so2":1.2,"mosquito_risk":3,"arthritis_risk":5,"migraine_risk":7,"frizz_risk":1,"updated_at":"2026-06-11T09:43:43.508948+05:30"},{"city":"Silchar","state":"Assam","latitude":24.8333,"longitude":92.7789,"temp":31.5,"humidity":65,"rain":0.0,"pressure":1003.4,"uv_index":8.9,"wind_gusts":44.6,"aqi":91,"pm10":36.2,"pm2_5":24.3,"no2":1.3,"co":242.0,"o3":129.0,"so2":5.3,"mosquito_risk":3,"arthritis_risk":5,"migraine_risk":4,"frizz_risk":1,"updated_at":"2026-06-11T09:43:43.508954+05:30"},{"city":"Dibrugarh","state":"Assam","latitude":27.4728,"longitude":94.912,"temp":28.3,"humidity":80,"rain":0.1,"pressure":994.9,"uv_index":8.75,"wind_gusts":19.4,"aqi":79,"pm10":39.9,"pm2_5":24.8,"no2":1.4,"co":240.0,"o3":135.0,"so2":2.1,"mosquito_risk":10,"arthritis_risk":5,"migraine_risk":7,"frizz_risk":1,"updated_at":"2026-06-11T09:43:43.508960+05:30"}]