[{"city":"Delhi","state":"Delhi","latitude":28.6139,"longitude":77.209,"temp":25.3,"humidity":95,"rain":0.0,"pressure":973.9,"uv_index":7.7,"wind_gusts":41.8,"aqi":118,"pm10":85.7,"pm2_5":77.8,"no2":73.0,"co":600.0,"o3":0.0,"so2":34.6,"mosquito_risk":7,"arthritis_risk":5,"migraine_risk":7,"frizz_risk":1,"updated_at":"2026-07-10T03:54:23.641472+05:30"},{"city":"Mumbai","state":"Maharashtra","latitude":19.076,"longitude":72.8777,"temp":27.2,"humidity":89,"rain":0.0,"pressure":1006.3,"uv_index":5.35,"wind_gusts":50.8,"aqi":59,"pm10":39.6,"pm2_5":15.3,"no2":4.0,"co":102.0,"o3":41.0,"so2":3.9,"mosquito_risk":7,"arthritis_risk":5,"migraine_risk":0,"frizz_risk":1,"updated_at":"2026-07-10T03:54:23.641514+05:30"},{"city":"Bangalore","state":"Karnataka","latitude":12.9716,"longitude":77.5946,"temp":20.8,"humidity":92,"rain":0.0,"pressure":911.0,"uv_index":8.2,"wind_gusts":45.7,"aqi":31,"pm10":11.5,"pm2_5":7.6,"no2":9.7,"co":144.0,"o3":32.0,"so2":4.4,"mosquito_risk":3,"arthritis_risk":5,"migraine_risk":7,"frizz_risk":1,"updated_at":"2026-07-10T03:54:23.641529+05:30"},{"city":"Hyderabad","state":"Telangana","latitude":17.385,"longitude":78.4867,"temp":25.6,"humidity":76,"rain":0.0,"pressure":950.9,"uv_index":8.15,"wind_gusts":44.3,"aqi":53,"pm10":25.3,"pm2_5":15.9,"no2":8.0,"co":148.0,"o3":40.0,"so2":4.9,"mosquito_risk":7,"arthritis_risk":5,"migraine_risk":7,"frizz_risk":1,"updated_at":"2026-07-10T03:54:23.641538+05:30"},{"city":"Chennai","state":"Tamil Nadu","latitude":13.0827,"longitude":80.2707,"temp":28.4,"humidity":87,"rain":0.0,"pressure":1005.4,"uv_index":6.7,"wind_gusts":37.1,"aqi":62,"pm10":22.2,"pm2_5":16.6,"no2":14.0,"co":226.0,"o3":66.0,"so2":11.5,"mosquito_risk":7,"arthritis_risk":5,"migraine_risk":4,"frizz_risk":1,"updated_at":"2026-07-10T03:54:23.641546+05:30"},{"city":"Kolkata","state":"West Bengal","latitude":22.5726,"longitude":88.3639,"temp":27.0,"humidity":97,"rain":0.3,"pressure":999.4,"uv_index":4.05,"wind_gusts":31.0,"aqi":64,"pm10":22.6,"pm2_5":19.7,"no2":8.8,"co":245.0,"o3":67.0,"so2":7.5,"mosquito_risk":10,"arthritis_risk":5,"migraine_risk":3,"frizz_risk":1,"updated_at":"2026-07-10T03:54:23.641558+05:30"},{"city":"Pune","state":"Maharashtra","latitude":18.5204,"longitude":73.8567,"temp":23.7,"humidity":89,"rain":0.0,"pressure":945.8,"uv_index":7.4,"wind_gusts":50.4,"aqi":29,"pm10":4.3,"pm2_5":2.3,"no2":4.4,"co":102.0,"o3":35.0,"so2":4.4,"mosquito_risk":3,"arthritis_risk":5,"migraine_risk":7,"frizz_risk":1,"updated_at":"2026-07-10T03:54:23.641565+05:30"},{"city":"Ahmedabad","state":"Gujarat","latitude":23.0225,"longitude":72.5714,"temp":27.3,"humidity":85,"rain":0.0,"pressure":997.8,"uv_index":8.15,"wind_gusts":42.8,"aqi":78,"pm10":34.7,"pm2_5":18.6,"no2":6.9,"co":115.0,"o3":34.0,"so2":4.6,"mosquito_risk":7,"arthritis_risk":5,"migraine_risk":7,"frizz_risk":1,"updated_at":"2026-07-10T03:54:23.641572+05:30"},{"city":"Jaipur","state":"Rajasthan","latitude":26.9124,"longitude":75.7873,"temp":27.0,"humidity":80,"rain":0.0,"pressure":952.3,"uv_index":8.2,"wind_gusts":39.6,"aqi":143,"pm10":81.3,"pm2_5":38.0,"no2":9.2,"co":186.0,"o3":55.0,"so2":4.5,"mosquito_risk":7,"arthritis_risk":5,"migraine_risk":7,"frizz_risk":1,"updated_at":"2026-07-10T03:54:23.641578+05:30"},{"city":"Lucknow","state":"Uttar Pradesh","latitude":26.8467,"longitude":80.9462,"temp":26.9,"humidity":94,"rain":0.0,"pressure":985.8,"uv_index":6.35,"wind_gusts":34.9,"aqi":76,"pm10":32.4,"pm2_5":24.9,"no2":15.1,"co":280.0,"o3":61.0,"so2":4.9,"mosquito_risk":7,"arthritis_risk":5,"migraine_risk":7,"frizz_risk":1,"updated_at":"2026-07-10T03:54:23.641586+05:30"},{"city":"Kanpur","state":"Uttar Pradesh","latitude":26.4499,"longitude":80.3319,"temp":26.9,"humidity":95,"rain":0.1,"pressure":984.0,"uv_index":8.15,"wind_gusts":34.6,"aqi":64,"pm10":44.8,"pm2_5":32.4,"no2":16.7,"co":178.0,"o3":52.0,"so2":6.7,"mosquito_risk":10,"arthritis_risk":5,"migraine_risk":7,"frizz_risk":1,"updated_at":"2026-07-10T03:54:23.641593+05:30"},{"city":"Chandigarh","state":"Chandigarh","latitude":30.7333,"longitude":76.7794,"temp":24.2,"humidity":95,"rain":1.3,"pressure":961.0,"uv_index":2.1,"wind_gusts":20.9,"aqi":153,"pm10":70.3,"pm2_5":70.3,"no2":64.7,"co":470.0,"o3":1.0,"so2":7.7,"mosquito_risk":6,"arthritis_risk":5,"migraine_risk":3,"frizz_risk":1,"updated_at":"2026-07-10T03:54:23.641599+05:30"},{"city":"Srinagar","state":"Jammu and Kashmir","latitude":34.0837,"longitude":74.7973,"temp":19.5,"humidity":92,"rain":0.0,"pressure":835.8,"uv_index":9.05,"wind_gusts":20.2,"aqi":85,"pm10":38.0,"pm2_5":37.1,"no2":22.7,"co":605.0,"o3":20.0,"so2":1.1,"mosquito_risk":3,"arthritis_risk":10,"migraine_risk":7,"frizz_risk":1,"updated_at":"2026-07-10T03:54:23.641606+05:30"},{"city":"Jammu","state":"Jammu and Kashmir","latitude":32.7266,"longitude":74.857,"temp":25.8,"humidity":91,"rain":0.1,"pressure":965.7,"uv_index":8.55,"wind_gusts":29.5,"aqi":157,"pm10":81.5,"pm2_5":72.4,"no2":53.1,"co":484.0,"o3":17.0,"so2":6.1,"mosquito_risk":10,"arthritis_risk":5,"migraine_risk":7,"frizz_risk":1,"updated_at":"2026-07-10T03:54:23.641612+05:30"},{"city":"Amritsar","state":"Punjab","latitude":31.634,"longitude":74.8723,"temp":26.1,"humidity":83,"rain":0.0,"pressure":972.7,"uv_index":8.4,"wind_gusts":21.2,"aqi":158,"pm10":114.8,"pm2_5":81.3,"no2":19.6,"co":580.0,"o3":70.0,"so2":13.5,"mosquito_risk":7,"arthritis_risk":5,"migraine_risk":7,"frizz_risk":1,"updated_at":"2026-07-10T03:54:23.641619+05:30"},{"city":"Ludhiana","state":"Punjab","latitude":30.901,"longitude":75.8573,"temp":25.5,"humidity":87,"rain":0.0,"pressure":970.9,"uv_index":7.9,"wind_gusts":18.0,"aqi":158,"pm10":153.2,"pm2_5":98.3,"no2":35.0,"co":426.0,"o3":43.0,"so2":10.7,"mosquito_risk":7,"arthritis_risk":5,"migraine_risk":7,"frizz_risk":1,"updated_at":"2026-07-10T03:54:23.641624+05:30"},{"city":"Jalandhar","state":"Punjab","latitude":31.326,"longitude":75.5762,"temp":25.5,"humidity":91,"rain":0.0,"pressure":971.9,"uv_index":8.15,"wind_gusts":18.7,"aqi":158,"pm10":135.0,"pm2_5":101.7,"no2":30.5,"co":551.0,"o3":45.0,"so2":14.8,"mosquito_risk":7,"arthritis_risk":5,"migraine_risk":7,"frizz_risk":1,"updated_at":"2026-07-10T03:54:23.641630+05:30"},{"city":"Dehradun","state":"Uttarakhand","latitude":30.6284,"longitude":78.0322,"temp":17.6,"humidity":98,"rain":0.1,"pressure":824.1,"uv_index":1.65,"wind_gusts":25.2,"aqi":70,"pm10":18.3,"pm2_5":18.3,"no2":28.5,"co":180.0,"o3":37.0,"so2":1.3,"mosquito_risk":6,"arthritis_risk":10,"migraine_risk":3,"frizz_risk":1,"updated_at":"2026-07-10T03:54:23.641637+05:30"},{"city":"Shimla","state":"Himachal Pradesh","latitude":31.1048,"longitude":77.1734,"temp":14.5,"humidity":99,"rain":0.6,"pressure":778.7,"uv_index":2.95,"wind_gusts":16.6,"aqi":59,"pm10":20.1,"pm2_5":19.9,"no2":20.6,"co":346.0,"o3":48.0,"so2":1.4,"mosquito_risk":6,"arthritis_risk":10,"migraine_risk":3,"frizz_risk":0,"updated_at":"2026-07-10T03:54:23.641643+05:30"},{"city":"Manali","state":"Himachal Pradesh","latitude":32.2396,"longitude":77.1887,"temp":20.2,"humidity":78,"rain":0.2,"pressure":814.2,"uv_index":8.75,"wind_gusts":31.0,"aqi":36,"pm10":2.6,"pm2_5":2.6,"no2":74.1,"co":258.0,"o3":2.0,"so2":0.2,"mosquito_risk":6,"arthritis_risk":5,"migraine_risk":7,"frizz_risk":1,"updated_at":"2026-07-10T03:54:23.641653+05:30"},{"city":"Gurgaon","state":"Haryana","latitude":28.4595,"longitude":77.0266,"temp":25.6,"humidity":93,"rain":0.0,"pressure":972.7,"uv_index":7.7,"wind_gusts":43.2,"aqi":148,"pm10":117.6,"pm2_5":76.8,"no2":76.4,"co":444.0,"o3":2.0,"so2":34.7,"mosquito_risk":7,"arthritis_risk":5,"migraine_risk":7,"frizz_risk":1,"updated_at":"2026-07-10T03:54:23.641659+05:30"},{"city":"Noida","state":"Uttar Pradesh","latitude":28.5355,"longitude":77.391,"temp":25.7,"humidity":94,"rain":0.0,"pressure":975.2,"uv_index":7.7,"wind_gusts":41.0,"aqi":148,"pm10":117.6,"pm2_5":76.8,"no2":76.4,"co":696.0,"o3":2.0,"so2":34.7,"mosquito_risk":7,"arthritis_risk":5,"migraine_risk":7,"frizz_risk":1,"updated_at":"2026-07-10T03:54:23.641665+05:30"},{"city":"Ghaziabad","state":"Uttar Pradesh","latitude":28.6692,"longitude":77.4538,"temp":25.6,"humidity":95,"rain":0.0,"pressure":973.2,"uv_index":7.7,"wind_gusts":41.8,"aqi":92,"pm10":78.0,"pm2_5":78.0,"no2":60.2,"co":347.0,"o3":0.0,"so2":12.7,"mosquito_risk":7,"arthritis_risk":5,"migraine_risk":7,"frizz_risk":1,"updated_at":"2026-07-10T03:54:23.641671+05:30"},{"city":"Faridabad","state":"Haryana","latitude":28.4089,"longitude":77.3178,"temp":25.7,"humidity":93,"rain":0.0,"pressure":974.6,"uv_index":7.7,"wind_gusts":45.4,"aqi":148,"pm10":117.6,"pm2_5":76.8,"no2":76.4,"co":640.0,"o3":2.0,"so2":34.7,"mosquito_risk":7,"arthritis_risk":5,"migraine_risk":7,"frizz_risk":1,"updated_at":"2026-07-10T03:54:23.641677+05:30"},{"city":"Meerut","state":"Uttar Pradesh","latitude":28.9845,"longitude":77.7064,"temp":25.7,"humidity":99,"rain":1.7,"pressure":971.1,"uv_index":6.9,"wind_gusts":36.0,"aqi":92,"pm10":78.0,"pm2_5":78.0,"no2":60.2,"co":299.0,"o3":0.0,"so2":12.7,"mosquito_risk":10,"arthritis_risk":5,"migraine_risk":7,"frizz_risk":1,"updated_at":"2026-07-10T03:54:23.641684+05:30"},{"city":"Agra","state":"Uttar Pradesh","latitude":27.1767,"longitude":78.0081,"temp":28.7,"humidity":76,"rain":0.0,"pressure":979.1,"uv_index":8.05,"wind_gusts":50.8,"aqi":129,"pm10":238.4,"pm2_5":64.3,"no2":25.0,"co":301.0,"o3":48.0,"so2":10.6,"mosquito_risk":7,"arthritis_risk":5,"migraine_risk":7,"frizz_risk":1,"updated_at":"2026-07-10T03:54:23.641690+05:30"},{"city":"Varanasi","state":"Uttar Pradesh","latitude":25.3176,"longitude":82.9739,"temp":26.9,"humidity":93,"rain":0.0,"pressure":990.5,"uv_index":7.4,"wind_gusts":39.6,"aqi":77,"pm10":21.5,"pm2_5":15.7,"no2":8.9,"co":219.0,"o3":70.0,"so2":5.1,"mosquito_risk":7,"arthritis_risk":5,"migraine_risk":7,"frizz_risk":1,"updated_at":"2026-07-10T03:54:23.641696+05:30"},{"city":"Prayagraj","state":"Uttar Pradesh","latitude":25.4358,"longitude":81.8463,"temp":27.3,"humidity":91,"rain":0.0,"pressure":989.0,"uv_index":8.25,"wind_gusts":33.5,"aqi":75,"pm10":28.3,"pm2_5":21.1,"no2":10.7,"co":194.0,"o3":68.0,"so2":4.5,"mosquito_risk":7,"arthritis_risk":5,"migraine_risk":7,"frizz_risk":1,"updated_at":"2026-07-10T03:54:23.641703+05:30"},{"city":"Gorakhpur","state":"Uttar Pradesh","latitude":26.7606,"longitude":83.3732,"temp":26.4,"humidity":97,"rain":0.1,"pressure":990.1,"uv_index":6.85,"wind_gusts":27.4,"aqi":89,"pm10":24.9,"pm2_5":24.6,"no2":10.5,"co":320.0,"o3":86.0,"so2":5.8,"mosquito_risk":10,"arthritis_risk":5,"migraine_risk":7,"frizz_risk":1,"updated_at":"2026-07-10T03:54:23.641709+05:30"},{"city":"Bareilly","state":"Uttar Pradesh","latitude":28.367,"longitude":79.4304,"temp":26.0,"humidity":98,"rain":0.3,"pressure":978.4,"uv_index":7.05,"wind_gusts":33.5,"aqi":71,"pm10":30.0,"pm2_5":27.0,"no2":12.4,"co":392.0,"o3":72.0,"so2":5.3,"mosquito_risk":10,"arthritis_risk":5,"migraine_risk":7,"frizz_risk":1,"updated_at":"2026-07-10T03:54:23.641720+05:30"},{"city":"Aligarh","state":"Uttar Pradesh","latitude":27.8974,"longitude":78.088,"temp":26.3,"humidity":89,"rain":0.0,"pressure":976.6,"uv_index":7.85,"wind_gusts":52.6,"aqi":100,"pm10":88.9,"pm2_5":61.9,"no2":45.4,"co":537.0,"o3":15.0,"so2":13.7,"mosquito_risk":7,"arthritis_risk":5,"migraine_risk":7,"frizz_risk":1,"updated_at":"2026-07-10T03:54:23.641727+05:30"},{"city":"Moradabad","state":"Uttar Pradesh","latitude":28.8386,"longitude":78.7733,"temp":25.7,"humidity":96,"rain":0.1,"pressure":974.7,"uv_index":7.7,"wind_gusts":38.2,"aqi":71,"pm10":23.7,"pm2_5":22.6,"no2":15.6,"co":364.0,"o3":67.0,"so2":5.2,"mosquito_risk":10,"arthritis_risk":5,"migraine_risk":7,"frizz_risk":1,"updated_at":"2026-07-10T03:54:23.641733+05:30"},{"city":"Saharanpur","state":"Uttar Pradesh","latitude":29.9637,"longitude":77.546,"temp":24.8,"humidity":96,"rain":0.3,"pressure":967.6,"uv_index":0.65,"wind_gusts":30.6,"aqi":98,"pm10":31.5,"pm2_5":31.3,"no2":29.0,"co":268.0,"o3":43.0,"so2":5.9,"mosquito_risk":6,"arthritis_risk":5,"migraine_risk":3,"frizz_risk":1,"updated_at":"2026-07-10T03:54:23.641739+05:30"},{"city":"Jhansi","state":"Uttar Pradesh","latitude":25.4484,"longitude":78.5685,"temp":28.7,"humidity":70,"rain":0.0,"pressure":970.5,"uv_index":8.45,"wind_gusts":45.4,"aqi":90,"pm10":83.4,"pm2_5":44.0,"no2":8.2,"co":155.0,"o3":65.0,"so2":10.2,"mosquito_risk":7,"arthritis_risk":5,"migraine_risk":7,"frizz_risk":1,"updated_at":"2026-07-10T03:54:27.021121+05:30"},{"city":"Surat","state":"Gujarat","latitude":21.1702,"longitude":72.8311,"temp":27.8,"humidity":86,"rain":0.0,"pressure":1003.1,"uv_index":5.65,"wind_gusts":55.4,"aqi":68,"pm10":27.8,"pm2_5":16.6,"no2":18.3,"co":267.0,"o3":25.0,"so2":31.2,"mosquito_risk":7,"arthritis_risk":5,"migraine_risk":0,"frizz_risk":1,"updated_at":"2026-07-10T03:54:27.021154+05:30"},{"city":"Vadodara","state":"Gujarat","latitude":22.3072,"longitude":73.1812,"temp":27.3,"humidity":87,"rain":0.0,"pressure":1000.3,"uv_index":7.5,"wind_gusts":48.6,"aqi":70,"pm10":27.2,"pm2_5":13.6,"no2":6.7,"co":121.0,"o3":34.0,"so2":4.1,"mosquito_risk":7,"arthritis_risk":5,"migraine_risk":4,"frizz_risk":1,"updated_at":"2026-07-10T03:54:27.021164+05:30"},{"city":"Rajkot","state":"Gujarat","latitude":22.3039,"longitude":70.8022,"temp":26.6,"humidity":90,"rain":0.0,"pressure":989.7,"uv_index":7.35,"wind_gusts":53.3,"aqi":65,"pm10":26.7,"pm2_5":12.5,"no2":4.1,"co":93.0,"o3":36.0,"so2":3.6,"mosquito_risk":7,"arthritis_risk":5,"migraine_risk":7,"frizz_risk":1,"updated_at":"2026-07-10T03:54:27.021173+05:30"},{"city":"Thane","state":"Maharashtra","latitude":19.2183,"longitude":72.9781,"temp":25.9,"humidity":94,"rain":0.0,"pressure":1005.6,"uv_index":5.15,"wind_gusts":43.2,"aqi":59,"pm10":39.6,"pm2_5":15.3,"no2":4.0,"co":117.0,"o3":41.0,"so2":3.9,"mosquito_risk":7,"arthritis_risk":5,"migraine_risk":0,"frizz_risk":1,"updated_at":"2026-07-10T03:54:27.021181+05:30"},{"city":"Nagpur","state":"Maharashtra","latitude":21.1458,"longitude":79.0882,"temp":26.6,"humidity":83,"rain":0.0,"pressure":969.0,"uv_index":6.7,"wind_gusts":42.5,"aqi":70,"pm10":40.0,"pm2_5":24.3,"no2":12.0,"co":189.0,"o3":41.0,"so2":9.9,"mosquito_risk":7,"arthritis_risk":5,"migraine_risk":7,"frizz_risk":1,"updated_at":"2026-07-10T03:54:27.021189+05:30"},{"city":"Nashik","state":"Maharashtra","latitude":19.9975,"longitude":73.7898,"temp":23.6,"humidity":96,"rain":0.0,"pressure":942.3,"uv_index":8.05,"wind_gusts":56.2,"aqi":35,"pm10":7.8,"pm2_5":4.1,"no2":5.9,"co":91.0,"o3":33.0,"so2":4.4,"mosquito_risk":3,"arthritis_risk":5,"migraine_risk":7,"frizz_risk":1,"updated_at":"2026-07-10T03:54:27.021197+05:30"},{"city":"Aurangabad","state":"Maharashtra","latitude":19.8762,"longitude":75.3433,"temp":23.7,"humidity":88,"rain":0.0,"pressure":941.3,"uv_index":8.8,"wind_gusts":53.6,"aqi":49,"pm10":11.9,"pm2_5":6.1,"no2":7.6,"co":138.0,"o3":32.0,"so2":9.9,"mosquito_risk":3,"arthritis_risk":5,"migraine_risk":7,"frizz_risk":1,"updated_at":"2026-07-10T03:54:27.021204+05:30"},{"city":"Solapur","state":"Maharashtra","latitude":17.6599,"longitude":75.9064,"temp":23.9,"humidity":84,"rain":0.0,"pressure":955.2,"uv_index":7.4,"wind_gusts":40.7,"aqi":44,"pm10":13.9,"pm2_5":8.1,"no2":5.6,"co":124.0,"o3":32.0,"so2":2.5,"mosquito_risk":3,"arthritis_risk":5,"migraine_risk":7,"frizz_risk":1,"updated_at":"2026-07-10T03:54:27.021212+05:30"},{"city":"Kolhapur","state":"Maharashtra","latitude":16.705,"longitude":74.2433,"temp":23.0,"humidity":95,"rain":0.0,"pressure":946.5,"uv_index":7.15,"wind_gusts":49.7,"aqi":34,"pm10":6.4,"pm2_5":3.8,"no2":3.0,"co":106.0,"o3":36.0,"so2":1.9,"mosquito_risk":3,"arthritis_risk":5,"migraine_risk":7,"frizz_risk":1,"updated_at":"2026-07-10T03:54:27.021219+05:30"},{"city":"Goa","state":"Goa","latitude":15.2993,"longitude":74.124,"temp":24.7,"humidity":99,"rain":0.0,"pressure":997.7,"uv_index":8.4,"wind_gusts":37.1,"aqi":59,"pm10":36.4,"pm2_5":20.7,"no2":4.7,"co":250.0,"o3":33.0,"so2":1.3,"mosquito_risk":3,"arthritis_risk":5,"migraine_risk":7,"frizz_risk":1,"updated_at":"2026-07-10T03:54:27.021226+05:30"},{"city":"Jodhpur","state":"Rajasthan","latitude":26.2389,"longitude":73.0243,"temp":29.5,"humidity":69,"rain":0.0,"pressure":975.8,"uv_index":8.45,"wind_gusts":47.5,"aqi":166,"pm10":339.9,"pm2_5":82.4,"no2":3.9,"co":109.0,"o3":57.0,"so2":2.9,"mosquito_risk":7,"arthritis_risk":5,"migraine_risk":7,"frizz_risk":1,"updated_at":"2026-07-10T03:54:27.021234+05:30"},{"city":"Udaipur","state":"Rajasthan","latitude":24.5854,"longitude":73.7125,"temp":24.5,"humidity":86,"rain":0.0,"pressure":940.6,"uv_index":8.85,"wind_gusts":47.2,"aqi":86,"pm10":41.2,"pm2_5":20.6,"no2":4.4,"co":107.0,"o3":52.0,"so2":3.7,"mosquito_risk":3,"arthritis_risk":5,"migraine_risk":7,"frizz_risk":1,"updated_at":"2026-07-10T03:54:27.021241+05:30"},{"city":"Kota","state":"Rajasthan","latitude":25.2138,"longitude":75.8648,"temp":28.4,"humidity":74,"rain":0.0,"pressure":972.1,"uv_index":8.3,"wind_gusts":38.5,"aqi":97,"pm10":57.2,"pm2_5":33.1,"no2":7.7,"co":163.0,"o3":67.0,"so2":7.1,"mosquito_risk":7,"arthritis_risk":5,"migraine_risk":7,"frizz_risk":1,"updated_at":"2026-07-10T03:54:27.021248+05:30"},{"city":"Bikaner","state":"Rajasthan","latitude":28.0229,"longitude":73.3119,"temp":30.5,"humidity":61,"rain":0.0,"pressure":973.6,"uv_index":8.45,"wind_gusts":38.9,"aqi":154,"pm10":174.6,"pm2_5":62.9,"no2":3.0,"co":128.0,"o3":61.0,"so2":4.6,"mosquito_risk":3,"arthritis_risk":5,"migraine_risk":7,"frizz_risk":1,"updated_at":"2026-07-10T03:54:27.021256+05:30"},{"city":"Ajmer","state":"Rajasthan","latitude":26.4499,"longitude":74.6399,"temp":27.4,"humidity":73,"rain":0.0,"pressure":947.9,"uv_index":8.4,"wind_gusts":51.5,"aqi":104,"pm10":45.8,"pm2_5":26.5,"no2":5.6,"co":117.0,"o3":65.0,"so2":3.8,"mosquito_risk":7,"arthritis_risk":5,"migraine_risk":7,"frizz_risk":1,"updated_at":"2026-07-10T03:54:27.021264+05:30"},{"city":"Gwalior","state":"Madhya Pradesh","latitude":26.2183,"longitude":78.1828,"temp":27.8,"humidity":75,"rain":0.0,"pressure":975.2,"uv_index":8.2,"wind_gusts":45.0,"aqi":78,"pm10":68.2,"pm2_5":34.3,"no2":5.4,"co":131.0,"o3":71.0,"so2":4.4,"mosquito_risk":7,"arthritis_risk":5,"migraine_risk":7,"frizz_risk":1,"updated_at":"2026-07-10T03:54:27.021271+05:30"},{"city":"Indore","state":"Madhya Pradesh","latitude":22.7196,"longitude":75.8577,"temp":24.6,"humidity":89,"rain":0.0,"pressure":943.7,"uv_index":8.55,"wind_gusts":52.9,"aqi":78,"pm10":32.5,"pm2_5":17.4,"no2":8.5,"co":141.0,"o3":36.0,"so2":10.2,"mosquito_risk":3,"arthritis_risk":5,"migraine_risk":7,"frizz_risk":1,"updated_at":"2026-07-10T03:54:27.021278+05:30"},{"city":"Bhopal","state":"Madhya Pradesh","latitude":23.2599,"longitude":77.4126,"temp":25.7,"humidity":84,"rain":0.0,"pressure":948.9,"uv_index":8.05,"wind_gusts":49.0,"aqi":79,"pm10":53.2,"pm2_5":32.8,"no2":7.9,"co":183.0,"o3":58.0,"so2":7.0,"mosquito_risk":7,"arthritis_risk":5,"migraine_risk":7,"frizz_risk":1,"updated_at":"2026-07-10T03:54:27.021285+05:30"},{"city":"Jabalpur","state":"Madhya Pradesh","latitude":23.1815,"longitude":79.9864,"temp":25.5,"humidity":90,"rain":0.0,"pressure":956.4,"uv_index":3.35,"wind_gusts":34.6,"aqi":71,"pm10":50.5,"pm2_5":29.7,"no2":6.5,"co":181.0,"o3":63.0,"so2":5.9,"mosquito_risk":7,"arthritis_risk":5,"migraine_risk":3,"frizz_risk":1,"updated_at":"2026-07-10T03:54:27.021292+05:30"},{"city":"Ujjain","state":"Madhya Pradesh","latitude":23.1765,"longitude":75.7885,"temp":25.2,"humidity":88,"rain":0.0,"pressure":949.0,"uv_index":8.5,"wind_gusts":54.7,"aqi":80,"pm10":28.1,"pm2_5":15.9,"no2":8.9,"co":153.0,"o3":33.0,"so2":11.1,"mosquito_risk":7,"arthritis_risk":5,"migraine_risk":7,"frizz_risk":1,"updated_at":"2026-07-10T03:54:27.021300+05:30"},{"city":"Visakhapatnam","state":"Andhra Pradesh","latitude":17.6868,"longitude":83.2185,"temp":27.8,"humidity":83,"rain":0.0,"pressure":1000.2,"uv_index":5.5,"wind_gusts":44.6,"aqi":82,"pm10":26.8,"pm2_5":21.9,"no2":18.5,"co":350.0,"o3":51.0,"so2":30.3,"mosquito_risk":7,"arthritis_risk":5,"migraine_risk":0,"frizz_risk":1,"updated_at":"2026-07-10T03:54:27.021307+05:30"},{"city":"Vijayawada","state":"Andhra Pradesh","latitude":16.5062,"longitude":80.648,"temp":29.2,"humidity":69,"rain":0.0,"pressure":999.5,"uv_index":7.35,"wind_gusts":41.4,"aqi":60,"pm10":30.0,"pm2_5":20.9,"no2":9.7,"co":223.0,"o3":53.0,"so2":5.1,"mosquito_risk":7,"arthritis_risk":5,"migraine_risk":7,"frizz_risk":1,"updated_at":"2026-07-10T03:54:27.021314+05:30"},{"city":"Guntur","state":"Andhra Pradesh","latitude":16.3067,"longitude":80.4365,"temp":29.4,"humidity":65,"rain":0.0,"pressure":1000.9,"uv_index":7.45,"wind_gusts":42.1,"aqi":61,"pm10":37.4,"pm2_5":24.6,"no2":13.0,"co":160.0,"o3":39.0,"so2":5.3,"mosquito_risk":7,"arthritis_risk":5,"migraine_risk":4,"frizz_risk":1,"updated_at":"2026-07-10T03:54:27.021322+05:30"},{"city":"Nellore","state":"Andhra Pradesh","latitude":14.4426,"longitude":79.9865,"temp":27.9,"humidity":84,"rain":0.0,"pressure":1004.1,"uv_index":6.2,"wind_gusts":45.7,"aqi":51,"pm10":23.3,"pm2_5":15.3,"no2":11.4,"co":159.0,"o3":43.0,"so2":6.0,"mosquito_risk":7,"arthritis_risk":5,"migraine_risk":4,"frizz_risk":1,"updated_at":"2026-07-10T03:54:27.021330+05:30"},{"city":"Kurnool","state":"Andhra Pradesh","latitude":15.8281,"longitude":78.0373,"temp":26.7,"humidity":71,"rain":0.0,"pressure":975.6,"uv_index":7.4,"wind_gusts":42.5,"aqi":44,"pm10":19.6,"pm2_5":12.3,"no2":7.9,"co":120.0,"o3":34.0,"so2":2.3,"mosquito_risk":7,"arthritis_risk":5,"migraine_risk":7,"frizz_risk":1,"updated_at":"2026-07-10T03:54:27.021338+05:30"},{"city":"Kakinada","state":"Andhra Pradesh","latitude":16.9891,"longitude":82.2475,"temp":27.4,"humidity":89,"rain":0.0,"pressure":1004.7,"uv_index":7.35,"wind_gusts":43.9,"aqi":65,"pm10":25.4,"pm2_5":17.3,"no2":4.2,"co":157.0,"o3":94.0,"so2":4.1,"mosquito_risk":7,"arthritis_risk":5,"migraine_risk":4,"frizz_risk":1,"updated_at":"2026-07-10T03:54:27.021346+05:30"},{"city":"Tirupati","state":"Andhra Pradesh","latitude":13.6288,"longitude":79.4192,"temp":27.3,"humidity":83,"rain":0.0,"pressure":989.9,"uv_index":7.85,"wind_gusts":42.8,"aqi":45,"pm10":25.3,"pm2_5":19.0,"no2":19.2,"co":190.0,"o3":20.0,"so2":2.6,"mosquito_risk":7,"arthritis_risk":5,"migraine_risk":7,"frizz_risk":1,"updated_at":"2026-07-10T03:54:27.021353+05:30"},{"city":"Warangal","state":"Telangana","latitude":17.9689,"longitude":79.5941,"temp":26.9,"humidity":79,"rain":0.0,"pressure":975.2,"uv_index":8.45,"wind_gusts":37.4,"aqi":65,"pm10":32.6,"pm2_5":21.1,"no2":11.7,"co":208.0,"o3":41.0,"so2":4.6,"mosquito_risk":7,"arthritis_risk":5,"migraine_risk":7,"frizz_risk":1,"updated_at":"2026-07-10T03:54:27.021360+05:30"},{"city":"Nizamabad","state":"Telangana","latitude":18.6725,"longitude":78.0941,"temp":26.7,"humidity":72,"rain":0.0,"pressure":962.2,"uv_index":7.9,"wind_gusts":39.2,"aqi":65,"pm10":23.2,"pm2_5":14.8,"no2":8.6,"co":146.0,"o3":38.0,"so2":6.8,"mosquito_risk":7,"arthritis_risk":5,"migraine_risk":7,"frizz_risk":1,"updated_at":"2026-07-10T03:54:27.021367+05:30"},{"city":"Mysore","state":"Karnataka","latitude":12.2958,"longitude":76.6396,"temp":21.4,"humidity":93,"rain":0.0,"pressure":928.3,"uv_index":6.15,"wind_gusts":47.9,"aqi":24,"pm10":10.7,"pm2_5":6.9,"no2":7.0,"co":108.0,"o3":34.0,"so2":2.3,"mosquito_risk":3,"arthritis_risk":5,"migraine_risk":7,"frizz_risk":1,"updated_at":"2026-07-10T03:54:27.021374+05:30"},{"city":"Mangalore","state":"Karnataka","latitude":12.9141,"longitude":74.856,"temp":24.4,"humidity":95,"rain":0.1,"pressure":1007.5,"uv_index":8.15,"wind_gusts":33.5,"aqi":59,"pm10":32.8,"pm2_5":17.4,"no2":7.9,"co":148.0,"o3":31.0,"so2":3.1,"mosquito_risk":6,"arthritis_risk":5,"migraine_risk":4,"frizz_risk":1,"updated_at":"2026-07-10T03:54:27.021381+05:30"},{"city":"Hubli-Dharwad","state":"Karnataka","latitude":15.3647,"longitude":75.124,"temp":22.5,"humidity":94,"rain":0.0,"pressure":939.8,"uv_index":7.75,"wind_gusts":54.7,"aqi":26,"pm10":10.3,"pm2_5":5.0,"no2":2.6,"co":101.0,"o3":37.0,"so2":1.4,"mosquito_risk":3,"arthritis_risk":5,"migraine_risk":7,"frizz_risk":1,"updated_at":"2026-07-10T03:54:27.021388+05:30"},{"city":"Belgaum","state":"Karnataka","latitude":15.8497,"longitude":74.4977,"temp":21.7,"humidity":97,"rain":0.0,"pressure":924.3,"uv_index":7.95,"wind_gusts":49.0,"aqi":25,"pm10":7.3,"pm2_5":3.7,"no2":2.6,"co":104.0,"o3":38.0,"so2":1.6,"mosquito_risk":3,"arthritis_risk":5,"migraine_risk":7,"frizz_risk":1,"updated_at":"2026-07-10T03:54:30.421081+05:30"},{"city":"Coimbatore","state":"Tamil Nadu","latitude":11.0168,"longitude":76.9558,"temp":23.0,"humidity":95,"rain":0.0,"pressure":961.8,"uv_index":8.55,"wind_gusts":45.7,"aqi":27,"pm10":13.4,"pm2_5":9.2,"no2":8.3,"co":182.0,"o3":26.0,"so2":3.1,"mosquito_risk":3,"arthritis_risk":5,"migraine_risk":7,"frizz_risk":1,"updated_at":"2026-07-10T03:54:30.421115+05:30"},{"city":"Madurai","state":"Tamil Nadu","latitude":9.9252,"longitude":78.1198,"temp":28.6,"humidity":61,"rain":0.0,"pressure":992.8,"uv_index":8.75,"wind_gusts":40.3,"aqi":49,"pm10":25.8,"pm2_5":18.7,"no2":18.2,"co":127.0,"o3":39.0,"so2":7.0,"mosquito_risk":7,"arthritis_risk":5,"migraine_risk":7,"frizz_risk":1,"updated_at":"2026-07-10T03:54:30.421126+05:30"},{"city":"Trichy","state":"Tamil Nadu","latitude":10.7905,"longitude":78.7047,"temp":27.9,"humidity":71,"rain":0.0,"pressure":999.3,"uv_index":8.55,"wind_gusts":54.0,"aqi":35,"pm10":17.5,"pm2_5":12.8,"no2":10.1,"co":106.0,"o3":35.0,"so2":4.1,"mosquito_risk":7,"arthritis_risk":5,"migraine_risk":7,"frizz_risk":1,"updated_at":"2026-07-10T03:54:30.421135+05:30"},{"city":"Salem","state":"Tamil Nadu","latitude":11.6643,"longitude":78.146,"temp":25.1,"humidity":93,"rain":0.0,"pressure":977.3,"uv_index":8.35,"wind_gusts":33.8,"aqi":54,"pm10":26.9,"pm2_5":20.0,"no2":23.5,"co":438.0,"o3":18.0,"so2":6.3,"mosquito_risk":7,"arthritis_risk":5,"migraine_risk":7,"frizz_risk":1,"updated_at":"2026-07-10T03:54:30.421144+05:30"},{"city":"Tirunelveli","state":"Tamil Nadu","latitude":8.7139,"longitude":77.7567,"temp":28.6,"humidity":65,"rain":0.0,"pressure":1003.0,"uv_index":8.25,"wind_gusts":48.2,"aqi":38,"pm10":13.1,"pm2_5":9.0,"no2":6.6,"co":125.0,"o3":33.0,"so2":2.5,"mosquito_risk":7,"arthritis_risk":5,"migraine_risk":4,"frizz_risk":1,"updated_at":"2026-07-10T03:54:30.421152+05:30"},{"city":"Vellore","state":"Tamil Nadu","latitude":12.9165,"longitude":79.1325,"temp":28.5,"humidity":61,"rain":0.0,"pressure":983.5,"uv_index":7.55,"wind_gusts":45.0,"aqi":56,"pm10":30.7,"pm2_5":24.9,"no2":27.3,"co":189.0,"o3":17.0,"so2":5.7,"mosquito_risk":7,"arthritis_risk":5,"migraine_risk":7,"frizz_risk":1,"updated_at":"2026-07-10T03:54:30.421160+05:30"},{"city":"Erode","state":"Tamil Nadu","latitude":11.341,"longitude":77.7172,"temp":25.5,"humidity":84,"rain":0.0,"pressure":989.0,"uv_index":8.65,"wind_gusts":45.0,"aqi":42,"pm10":21.4,"pm2_5":16.1,"no2":15.9,"co":154.0,"o3":25.0,"so2":4.4,"mosquito_risk":7,"arthritis_risk":5,"migraine_risk":7,"frizz_risk":1,"updated_at":"2026-07-10T03:54:30.421168+05:30"},{"city":"Kochi","state":"Kerala","latitude":9.9312,"longitude":76.2673,"temp":25.4,"humidity":92,"rain":0.3,"pressure":1010.4,"uv_index":8.15,"wind_gusts":32.8,"aqi":54,"pm10":17.4,"pm2_5":12.6,"no2":11.0,"co":78.0,"o3":22.0,"so2":3.0,"mosquito_risk":10,"arthritis_risk":0,"migraine_risk":4,"frizz_risk":1,"updated_at":"2026-07-10T03:54:30.421176+05:30"},{"city":"Thiruvananthapuram","state":"Kerala","latitude":8.5241,"longitude":76.9366,"temp":24.6,"humidity":91,"rain":0.0,"pressure":1009.6,"uv_index":7.2,"wind_gusts":47.2,"aqi":51,"pm10":20.5,"pm2_5":12.1,"no2":5.0,"co":160.0,"o3":42.0,"so2":2.5,"mosquito_risk":3,"arthritis_risk":0,"migraine_risk":4,"frizz_risk":1,"updated_at":"2026-07-10T03:54:30.421183+05:30"},{"city":"Kozhikode","state":"Kerala","latitude":11.2588,"longitude":75.7804,"temp":24.7,"humidity":97,"rain":0.1,"pressure":1009.3,"uv_index":7.45,"wind_gusts":38.9,"aqi":48,"pm10":22.1,"pm2_5":10.3,"no2":1.7,"co":125.0,"o3":50.0,"so2":1.0,"mosquito_risk":6,"arthritis_risk":0,"migraine_risk":4,"frizz_risk":1,"updated_at":"2026-07-10T03:54:30.421191+05:30"},{"city":"Thrissur","state":"Kerala","latitude":10.5276,"longitude":76.2144,"temp":24.8,"humidity":96,"rain":0.1,"pressure":1008.6,"uv_index":7.95,"wind_gusts":34.6,"aqi":53,"pm10":19.7,"pm2_5":13.7,"no2":8.4,"co":107.0,"o3":28.0,"so2":3.1,"mosquito_risk":6,"arthritis_risk":0,"migraine_risk":4,"frizz_risk":1,"updated_at":"2026-07-10T03:54:30.421199+05:30"},{"city":"Kannur","state":"Kerala","latitude":11.8745,"longitude":75.3704,"temp":24.8,"humidity":98,"rain":0.1,"pressure":1008.4,"uv_index":8.05,"wind_gusts":33.1,"aqi":52,"pm10":25.2,"pm2_5":13.0,"no2":6.0,"co":132.0,"o3":33.0,"so2":1.9,"mosquito_risk":6,"arthritis_risk":0,"migraine_risk":4,"frizz_risk":1,"updated_at":"2026-07-10T03:54:30.421206+05:30"},{"city":"Patna","state":"Bihar","latitude":25.5941,"longitude":85.1376,"temp":28.0,"humidity":90,"rain":0.0,"pressure":993.2,"uv_index":8.1,"wind_gusts":28.1,"aqi":96,"pm10":27.8,"pm2_5":27.3,"no2":14.9,"co":317.0,"o3":72.0,"so2":8.4,"mosquito_risk":7,"arthritis_risk":5,"migraine_risk":7,"frizz_risk":1,"updated_at":"2026-07-10T03:54:30.421214+05:30"},{"city":"Gaya","state":"Bihar","latitude":24.7914,"longitude":85.0002,"temp":26.8,"humidity":95,"rain":0.0,"pressure":986.8,"uv_index":5.8,"wind_gusts":36.0,"aqi":77,"pm10":24.3,"pm2_5":21.7,"no2":15.8,"co":329.0,"o3":52.0,"so2":8.8,"mosquito_risk":7,"arthritis_risk":5,"migraine_risk":3,"frizz_risk":1,"updated_at":"2026-07-10T03:54:30.421221+05:30"},{"city":"Muzaffarpur","state":"Bihar","latitude":26.1209,"longitude":85.3647,"temp":26.3,"humidity":97,"rain":0.1,"pressure":993.4,"uv_index":7.95,"wind_gusts":21.6,"aqi":100,"pm10":35.6,"pm2_5":34.9,"no2":17.0,"co":397.0,"o3":67.0,"so2":9.0,"mosquito_risk":10,"arthritis_risk":5,"migraine_risk":7,"frizz_risk":1,"updated_at":"2026-07-10T03:54:30.421228+05:30"},{"city":"Bhagalpur","state":"Bihar","latitude":25.2425,"longitude":87.0117,"temp":26.7,"humidity":97,"rain":0.1,"pressure":994.4,"uv_index":7.95,"wind_gusts":23.0,"aqi":101,"pm10":49.2,"pm2_5":48.5,"no2":21.1,"co":343.0,"o3":43.0,"so2":22.0,"mosquito_risk":10,"arthritis_risk":5,"migraine_risk":7,"frizz_risk":1,"updated_at":"2026-07-10T03:54:30.421234+05:30"},{"city":"Ranchi","state":"Jharkhand","latitude":23.3441,"longitude":85.3096,"temp":23.5,"humidity":96,"rain":0.0,"pressure":931.7,"uv_index":6.9,"wind_gusts":40.0,"aqi":63,"pm10":28.8,"pm2_5":24.6,"no2":10.2,"co":240.0,"o3":60.0,"so2":17.1,"mosquito_risk":3,"arthritis_risk":5,"migraine_risk":7,"frizz_risk":1,"updated_at":"2026-07-10T03:54:30.421242+05:30"},{"city":"Jamshedpur","state":"Jharkhand","latitude":22.8046,"longitude":86.2029,"temp":26.7,"humidity":91,"rain":0.0,"pressure":985.0,"uv_index":7.45,"wind_gusts":37.8,"aqi":74,"pm10":33.8,"pm2_5":27.5,"no2":16.9,"co":310.0,"o3":58.0,"so2":23.5,"mosquito_risk":7,"arthritis_risk":5,"migraine_risk":7,"frizz_risk":1,"updated_at":"2026-07-10T03:54:30.421249+05:30"},{"city":"Dhanbad","state":"Jharkhand","latitude":23.7957,"longitude":86.4304,"temp":26.3,"humidity":97,"rain":0.0,"pressure":973.3,"uv_index":7.35,"wind_gusts":36.7,"aqi":113,"pm10":45.1,"pm2_5":42.8,"no2":41.1,"co":214.0,"o3":42.0,"so2":94.4,"mosquito_risk":7,"arthritis_risk":5,"migraine_risk":7,"frizz_risk":1,"updated_at":"2026-07-10T03:54:30.421257+05:30"},{"city":"Bokaro","state":"Jharkhand","latitude":23.6693,"longitude":86.1511,"temp":26.5,"humidity":94,"rain":0.0,"pressure":977.1,"uv_index":8.3,"wind_gusts":41.4,"aqi":90,"pm10":39.2,"pm2_5":36.4,"no2":29.5,"co":249.0,"o3":46.0,"so2":66.2,"mosquito_risk":7,"arthritis_risk":5,"migraine_risk":7,"frizz_risk":1,"updated_at":"2026-07-10T03:54:30.421265+05:30"},{"city":"Bhubaneswar","state":"Odisha","latitude":20.2961,"longitude":85.8245,"temp":27.2,"humidity":94,"rain":0.0,"pressure":997.5,"uv_index":7.0,"wind_gusts":39.6,"aqi":72,"pm10":25.9,"pm2_5":23.2,"no2":9.7,"co":218.0,"o3":70.0,"so2":6.9,"mosquito_risk":7,"arthritis_risk":5,"migraine_risk":7,"frizz_risk":1,"updated_at":"2026-07-10T03:54:30.421272+05:30"},{"city":"Cuttack","state":"Odisha","latitude":20.4625,"longitude":85.8828,"temp":27.0,"humidity":96,"rain":0.4,"pressure":999.2,"uv_index":6.55,"wind_gusts":41.8,"aqi":72,"pm10":25.9,"pm2_5":23.2,"no2":9.7,"co":240.0,"o3":70.0,"so2":6.9,"mosquito_risk":10,"arthritis_risk":5,"migraine_risk":7,"frizz_risk":1,"updated_at":"2026-07-10T03:54:30.421279+05:30"},{"city":"Rourkela","state":"Odisha","latitude":22.2604,"longitude":84.8536,"temp":26.2,"humidity":95,"rain":0.0,"pressure":979.6,"uv_index":2.9,"wind_gusts":40.7,"aqi":75,"pm10":40.0,"pm2_5":32.1,"no2":11.7,"co":257.0,"o3":57.0,"so2":16.6,"mosquito_risk":7,"arthritis_risk":5,"migraine_risk":3,"frizz_risk":1,"updated_at":"2026-07-10T03:54:30.421287+05:30"},{"city":"Raipur","state":"Chhattisgarh","latitude":21.2514,"longitude":81.6296,"temp":26.8,"humidity":83,"rain":0.0,"pressure":970.2,"uv_index":7.25,"wind_gusts":40.7,"aqi":86,"pm10":51.3,"pm2_5":35.5,"no2":26.8,"co":460.0,"o3":45.0,"so2":44.2,"mosquito_risk":7,"arthritis_risk":5,"migraine_risk":7,"frizz_risk":1,"updated_at":"2026-07-10T03:54:30.421294+05:30"},{"city":"Bhilai","state":"Chhattisgarh","latitude":21.1938,"longitude":81.3509,"temp":26.5,"humidity":84,"rain":0.0,"pressure":970.6,"uv_index":7.5,"wind_gusts":45.4,"aqi":86,"pm10":49.4,"pm2_5":34.2,"no2":22.9,"co":572.0,"o3":46.0,"so2":37.2,"mosquito_risk":7,"arthritis_risk":5,"migraine_risk":7,"frizz_risk":1,"updated_at":"2026-07-10T03:54:30.421301+05:30"},{"city":"Guwahati","state":"Assam","latitude":26.1158,"longitude":91.7086,"temp":25.6,"humidity":98,"rain":0.0,"pressure":995.8,"uv_index":5.55,"wind_gusts":18.4,"aqi":53,"pm10":17.6,"pm2_5":17.0,"no2":9.7,"co":331.0,"o3":42.0,"so2":3.0,"mosquito_risk":7,"arthritis_risk":5,"migraine_risk":3,"frizz_risk":1,"updated_at":"2026-07-10T03:54:30.421307+05:30"},{"city":"Agartala","state":"Tripura","latitude":23.8315,"longitude":91.2868,"temp":25.1,"humidity":99,"rain":0.1,"pressure":1001.0,"uv_index":6.2,"wind_gusts":48.6,"aqi":49,"pm10":10.9,"pm2_5":10.7,"no2":11.9,"co":130.0,"o3":44.0,"so2":3.0,"mosquito_risk":10,"arthritis_risk":5,"migraine_risk":4,"frizz_risk":1,"updated_at":"2026-07-10T03:54:30.421315+05:30"},{"city":"Shillong","state":"Meghalaya","latitude":25.5788,"longitude":91.8933,"temp":20.3,"humidity":94,"rain":0.0,"pressure":853.3,"uv_index":4.25,"wind_gusts":30.2,"aqi":27,"pm10":1.3,"pm2_5":1.2,"no2":4.5,"co":197.0,"o3":47.0,"so2":2.5,"mosquito_risk":3,"arthritis_risk":5,"migraine_risk":3,"frizz_risk":1,"updated_at":"2026-07-10T03:54:30.421321+05:30"},{"city":"Imphal","state":"Manipur","latitude":24.817,"longitude":93.9368,"temp":22.7,"humidity":92,"rain":0.1,"pressure":919.1,"uv_index":7.4,"wind_gusts":31.0,"aqi":37,"pm10":14.0,"pm2_5":12.8,"no2":9.2,"co":271.0,"o3":26.0,"so2":2.0,"mosquito_risk":6,"arthritis_risk":5,"migraine_risk":7,"frizz_risk":1,"updated_at":"2026-07-10T03:54:30.421328+05:30"},{"city":"Aizawl","state":"Mizoram","latitude":23.7271,"longitude":92.7176,"temp":19.2,"humidity":98,"rain":0.0,"pressure":888.4,"uv_index":2.1,"wind_gusts":51.5,"aqi":21,"pm10":0.7,"pm2_5":0.7,"no2":2.5,"co":112.0,"o3":46.0,"so2":0.9,"mosquito_risk":3,"arthritis_risk":10,"migraine_risk":3,"frizz_risk":1,"updated_at":"2026-07-10T03:54:30.421334+05:30"},{"city":"Kohima","state":"Nagaland","latitude":25.6701,"longitude":94.1077,"temp":18.3,"humidity":98,"rain":0.0,"pressure":850.5,"uv_index":6.25,"wind_gusts":22.3,"aqi":24,"pm10":10.3,"pm2_5":8.3,"no2":7.9,"co":186.0,"o3":29.0,"so2":1.2,"mosquito_risk":3,"arthritis_risk":10,"migraine_risk":7,"frizz_risk":1,"updated_at":"2026-07-10T03:54:30.421341+05:30"},{"city":"Gangtok","state":"Sikkim","latitude":27.3314,"longitude":88.6138,"temp":19.0,"humidity":96,"rain":0.1,"pressure":833.6,"uv_index":4.95,"wind_gusts":26.6,"aqi":44,"pm10":4.0,"pm2_5":4.0,"no2":5.2,"co":301.0,"o3":83.0,"so2":0.8,"mosquito_risk":6,"arthritis_risk":10,"migraine_risk":3,"frizz_risk":1,"updated_at":"2026-07-10T03:54:30.421348+05:30"},{"city":"Siliguri","state":"West Bengal","latitude":26.7271,"longitude":88.3953,"temp":25.6,"humidity":95,"rain":0.0,"pressure":986.4,"uv_index":6.2,"wind_gusts":31.3,"aqi":70,"pm10":18.8,"pm2_5":18.7,"no2":8.7,"co":302.0,"o3":68.0,"so2":2.5,"mosquito_risk":7,"arthritis_risk":5,"migraine_risk":7,"frizz_risk":1,"updated_at":"2026-07-10T03:54:33.820608+05:30"},{"city":"Durgapur","state":"West Bengal","latitude":23.5204,"longitude":87.3119,"temp":25.9,"humidity":97,"rain":0.3,"pressure":988.7,"uv_index":7.95,"wind_gusts":30.6,"aqi":93,"pm10":32.5,"pm2_5":31.2,"no2":31.9,"co":535.0,"o3":50.0,"so2":46.2,"mosquito_risk":10,"arthritis_risk":5,"migraine_risk":7,"frizz_risk":1,"updated_at":"2026-07-10T03:54:33.820641+05:30"},{"city":"Asansol","state":"West Bengal","latitude":23.6739,"longitude":86.9524,"temp":26.6,"humidity":96,"rain":0.0,"pressure":987.0,"uv_index":8.0,"wind_gusts":34.2,"aqi":90,"pm10":31.2,"pm2_5":29.6,"no2":31.5,"co":627.0,"o3":52.0,"so2":47.3,"mosquito_risk":7,"arthritis_risk":5,"migraine_risk":7,"frizz_risk":1,"updated_at":"2026-07-10T03:54:33.820653+05:30"},{"city":"Pondicherry","state":"Puducherry","latitude":11.9139,"longitude":79.8145,"temp":28.7,"humidity":70,"rain":0.0,"pressure":1007.2,"uv_index":8.0,"wind_gusts":34.6,"aqi":65,"pm10":19.2,"pm2_5":13.5,"no2":14.8,"co":197.0,"o3":47.0,"so2":12.2,"mosquito_risk":7,"arthritis_risk":5,"migraine_risk":4,"frizz_risk":1,"updated_at":"2026-07-10T03:54:33.820662+05:30"},{"city":"Port Blair","state":"Andaman and Nicobar Islands","latitude":11.6234,"longitude":92.7265,"temp":27.2,"humidity":83,"rain":0.0,"pressure":1007.8,"uv_index":8.8,"wind_gusts":48.2,"aqi":52,"pm10":27.1,"pm2_5":12.4,"no2":0.1,"co":89.0,"o3":50.0,"so2":0.4,"mosquito_risk":7,"arthritis_risk":5,"migraine_risk":4,"frizz_risk":1,"updated_at":"2026-07-10T03:54:33.820670+05:30"},{"city":"Haridwar","state":"Uttarakhand","latitude":29.9457,"longitude":78.1642,"temp":24.6,"humidity":97,"rain":0.4,"pressure":965.8,"uv_index":3.15,"wind_gusts":15.8,"aqi":70,"pm10":15.5,"pm2_5":15.5,"no2":13.4,"co":265.0,"o3":79.0,"so2":1.8,"mosquito_risk":6,"arthritis_risk":5,"migraine_risk":3,"frizz_risk":1,"updated_at":"2026-07-10T03:54:33.820678+05:30"},{"city":"Rishikesh","state":"Uttarakhand","latitude":30.0869,"longitude":78.2676,"temp":24.6,"humidity":95,"rain":0.3,"pressure":958.7,"uv_index":4.15,"wind_gusts":14.8,"aqi":47,"pm10":10.2,"pm2_5":10.2,"no2":5.7,"co":298.0,"o3":86.0,"so2":0.3,"mosquito_risk":6,"arthritis_risk":5,"migraine_risk":3,"frizz_risk":1,"updated_at":"2026-07-10T03:54:33.820685+05:30"},{"city":"Nainital","state":"Uttarakhand","latitude":29.3919,"longitude":79.4542,"temp":17.2,"humidity":99,"rain":0.1,"pressure":800.5,"uv_index":1.85,"wind_gusts":35.3,"aqi":43,"pm10":12.2,"pm2_5":12.0,"no2":3.9,"co":200.0,"o3":100.0,"so2":2.1,"mosquito_risk":6,"arthritis_risk":10,"migraine_risk":3,"frizz_risk":1,"updated_at":"2026-07-10T03:54:33.820693+05:30"},{"city":"Mussoorie","state":"Uttarakhand","latitude":30.4599,"longitude":78.0664,"temp":16.2,"humidity":95,"rain":0.1,"pressure":797.1,"uv_index":1.5,"wind_gusts":28.8,"aqi":69,"pm10":17.9,"pm2_5":17.8,"no2":14.5,"co":180.0,"o3":75.0,"so2":3.0,"mosquito_risk":6,"arthritis_risk":10,"migraine_risk":3,"frizz_risk":0,"updated_at":"2026-07-10T03:54:33.820701+05:30"},{"city":"Dharamshala","state":"Himachal Pradesh","latitude":32.219,"longitude":76.3234,"temp":20.9,"humidity":100,"rain":0.0,"pressure":863.3,"uv_index":8.4,"wind_gusts":32.8,"aqi":77,"pm10":31.9,"pm2_5":30.0,"no2":9.0,"co":397.0,"o3":72.0,"so2":0.4,"mosquito_risk":3,"arthritis_risk":5,"migraine_risk":7,"frizz_risk":1,"updated_at":"2026-07-10T03:54:33.820709+05:30"},{"city":"Dalhousie","state":"Himachal Pradesh","latitude":32.5387,"longitude":75.971,"temp":16.7,"humidity":91,"rain":0.0,"pressure":799.3,"uv_index":8.6,"wind_gusts":22.0,"aqi":150,"pm10":70.3,"pm2_5":65.2,"no2":21.4,"co":580.0,"o3":64.0,"so2":2.5,"mosquito_risk":3,"arthritis_risk":10,"migraine_risk":7,"frizz_risk":0,"updated_at":"2026-07-10T03:54:33.820717+05:30"},{"city":"Patiala","state":"Punjab","latitude":30.3398,"longitude":76.3869,"temp":25.5,"humidity":91,"rain":0.0,"pressure":970.2,"uv_index":7.6,"wind_gusts":19.4,"aqi":155,"pm10":86.8,"pm2_5":76.4,"no2":39.1,"co":374.0,"o3":26.0,"so2":7.7,"mosquito_risk":7,"arthritis_risk":5,"migraine_risk":7,"frizz_risk":1,"updated_at":"2026-07-10T03:54:33.820724+05:30"},{"city":"Bhatinda","state":"Punjab","latitude":30.211,"longitude":74.9455,"temp":27.5,"humidity":82,"rain":0.0,"pressure":975.4,"uv_index":8.25,"wind_gusts":23.4,"aqi":157,"pm10":313.9,"pm2_5":107.3,"no2":20.0,"co":432.0,"o3":62.0,"so2":8.0,"mosquito_risk":7,"arthritis_risk":5,"migraine_risk":7,"frizz_risk":1,"updated_at":"2026-07-10T03:54:33.820732+05:30"},{"city":"Rohtak","state":"Haryana","latitude":28.8955,"longitude":76.6066,"temp":25.4,"humidity":93,"rain":0.0,"pressure":973.3,"uv_index":7.65,"wind_gusts":26.3,"aqi":138,"pm10":147.1,"pm2_5":71.7,"no2":69.7,"co":511.0,"o3":5.0,"so2":35.1,"mosquito_risk":7,"arthritis_risk":5,"migraine_risk":7,"frizz_risk":1,"updated_at":"2026-07-10T03:54:33.820739+05:30"},{"city":"Panipat","state":"Haryana","latitude":29.3909,"longitude":76.9635,"temp":25.1,"humidity":96,"rain":0.2,"pressure":971.9,"uv_index":5.95,"wind_gusts":24.8,"aqi":151,"pm10":135.0,"pm2_5":73.6,"no2":50.1,"co":329.0,"o3":5.0,"so2":12.5,"mosquito_risk":10,"arthritis_risk":5,"migraine_risk":3,"frizz_risk":1,"updated_at":"2026-07-10T03:54:33.820746+05:30"},{"city":"Mathura","state":"Uttar Pradesh","latitude":27.4924,"longitude":77.6737,"temp":27.5,"humidity":85,"rain":0.0,"pressure":977.8,"uv_index":7.95,"wind_gusts":48.6,"aqi":241,"pm10":320.4,"pm2_5":92.4,"no2":46.4,"co":380.0,"o3":24.0,"so2":11.3,"mosquito_risk":7,"arthritis_risk":5,"migraine_risk":7,"frizz_risk":1,"updated_at":"2026-07-10T03:54:33.820753+05:30"},{"city":"Vrindavan","state":"Uttar Pradesh","latitude":27.5823,"longitude":77.7027,"temp":27.4,"humidity":85,"rain":0.0,"pressure":978.2,"uv_index":7.9,"wind_gusts":48.2,"aqi":241,"pm10":320.4,"pm2_5":92.4,"no2":46.4,"co":397.0,"o3":24.0,"so2":11.3,"mosquito_risk":7,"arthritis_risk":5,"migraine_risk":7,"frizz_risk":1,"updated_at":"2026-07-10T03:54:33.820761+05:30"},{"city":"Ayodhya","state":"Uttar Pradesh","latitude":26.7922,"longitude":82.1998,"temp":26.7,"humidity":94,"rain":0.2,"pressure":988.2,"uv_index":7.8,"wind_gusts":26.6,"aqi":99,"pm10":29.8,"pm2_5":27.7,"no2":14.9,"co":388.0,"o3":60.0,"so2":5.8,"mosquito_risk":10,"arthritis_risk":5,"migraine_risk":7,"frizz_risk":1,"updated_at":"2026-07-10T03:54:33.820768+05:30"},{"city":"Ratlam","state":"Madhya Pradesh","latitude":23.3315,"longitude":75.0367,"temp":24.5,"humidity":96,"rain":0.1,"pressure":950.0,"uv_index":8.5,"wind_gusts":49.3,"aqi":79,"pm10":26.0,"pm2_5":15.0,"no2":9.5,"co":147.0,"o3":31.0,"so2":11.1,"mosquito_risk":6,"arthritis_risk":5,"migraine_risk":7,"frizz_risk":1,"updated_at":"2026-07-10T03:54:33.820775+05:30"},{"city":"Sagar","state":"Madhya Pradesh","latitude":23.8388,"longitude":78.7378,"temp":26.2,"humidity":77,"rain":0.0,"pressure":944.7,"uv_index":5.75,"wind_gusts":48.2,"aqi":74,"pm10":61.2,"pm2_5":34.2,"no2":6.1,"co":189.0,"o3":69.0,"so2":5.2,"mosquito_risk":7,"arthritis_risk":5,"migraine_risk":3,"frizz_risk":1,"updated_at":"2026-07-10T03:54:33.820782+05:30"},{"city":"Satna","state":"Madhya Pradesh","latitude":24.6005,"longitude":80.8322,"temp":25.6,"humidity":94,"rain":0.0,"pressure":965.0,"uv_index":7.85,"wind_gusts":38.5,"aqi":57,"pm10":52.7,"pm2_5":31.9,"no2":6.3,"co":181.0,"o3":65.0,"so2":4.2,"mosquito_risk":7,"arthritis_risk":5,"migraine_risk":7,"frizz_risk":1,"updated_at":"2026-07-10T03:54:33.820790+05:30"},{"city":"Akola","state":"Maharashtra","latitude":20.7002,"longitude":77.0082,"temp":26.9,"humidity":76,"rain":0.0,"pressure":971.9,"uv_index":8.5,"wind_gusts":50.0,"aqi":59,"pm10":23.1,"pm2_5":13.9,"no2":8.4,"co":112.0,"o3":35.0,"so2":8.1,"mosquito_risk":7,"arthritis_risk":5,"migraine_risk":7,"frizz_risk":1,"updated_at":"2026-07-10T03:54:33.820798+05:30"},{"city":"Amravati","state":"Maharashtra","latitude":20.9374,"longitude":77.7796,"temp":26.9,"humidity":80,"rain":0.0,"pressure":963.9,"uv_index":6.7,"wind_gusts":50.8,"aqi":60,"pm10":26.2,"pm2_5":16.0,"no2":9.6,"co":122.0,"o3":35.0,"so2":9.1,"mosquito_risk":7,"arthritis_risk":5,"migraine_risk":7,"frizz_risk":1,"updated_at":"2026-07-10T03:54:33.820806+05:30"},{"city":"Latur","state":"Maharashtra","latitude":18.4088,"longitude":76.5604,"temp":23.4,"humidity":86,"rain":0.0,"pressure":937.5,"uv_index":8.55,"wind_gusts":44.3,"aqi":50,"pm10":18.1,"pm2_5":9.8,"no2":5.7,"co":130.0,"o3":34.0,"so2":2.9,"mosquito_risk":3,"arthritis_risk":5,"migraine_risk":7,"frizz_risk":1,"updated_at":"2026-07-10T03:54:33.820813+05:30"},{"city":"Nanded","state":"Maharashtra","latitude":19.1383,"longitude":77.3091,"temp":26.5,"humidity":75,"rain":0.0,"pressure":966.2,"uv_index":8.0,"wind_gusts":40.0,"aqi":59,"pm10":23.2,"pm2_5":13.2,"no2":6.1,"co":122.0,"o3":38.0,"so2":3.9,"mosquito_risk":7,"arthritis_risk":5,"migraine_risk":7,"frizz_risk":1,"updated_at":"2026-07-10T03:54:33.820820+05:30"},{"city":"Gulbarga","state":"Karnataka","latitude":17.3297,"longitude":76.8343,"temp":24.3,"humidity":82,"rain":0.0,"pressure":956.8,"uv_index":6.85,"wind_gusts":40.3,"aqi":46,"pm10":19.6,"pm2_5":11.1,"no2":6.4,"co":115.0,"o3":33.0,"so2":3.2,"mosquito_risk":3,"arthritis_risk":5,"migraine_risk":7,"frizz_risk":1,"updated_at":"2026-07-10T03:54:33.820827+05:30"},{"city":"Bidar","state":"Karnataka","latitude":17.9104,"longitude":77.5199,"temp":24.1,"humidity":81,"rain":0.0,"pressure":933.1,"uv_index":6.25,"wind_gusts":41.0,"aqi":52,"pm10":21.9,"pm2_5":14.1,"no2":6.9,"co":123.0,"o3":36.0,"so2":2.7,"mosquito_risk":3,"arthritis_risk":5,"migraine_risk":7,"frizz_risk":1,"updated_at":"2026-07-10T03:54:33.820834+05:30"},{"city":"Hospet","state":"Karnataka","latitude":15.2689,"longitude":76.3909,"temp":23.1,"humidity":90,"rain":0.0,"pressure":954.9,"uv_index":6.2,"wind_gusts":47.9,"aqi":30,"pm10":10.9,"pm2_5":6.0,"no2":4.4,"co":104.0,"o3":35.0,"so2":1.7,"mosquito_risk":3,"arthritis_risk":5,"migraine_risk":7,"frizz_risk":1,"updated_at":"2026-07-10T03:54:33.820841+05:30"},{"city":"Tirupur","state":"Tamil Nadu","latitude":11.1085,"longitude":77.3411,"temp":24.1,"humidity":90,"rain":0.0,"pressure":975.4,"uv_index":8.85,"wind_gusts":48.2,"aqi":46,"pm10":23.3,"pm2_5":18.6,"no2":20.6,"co":152.0,"o3":16.0,"so2":5.4,"mosquito_risk":3,"arthritis_risk":5,"migraine_risk":7,"frizz_risk":1,"updated_at":"2026-07-10T03:54:33.820847+05:30"},{"city":"Alappuzha","state":"Kerala","latitude":9.4981,"longitude":76.3388,"temp":25.4,"humidity":93,"rain":0.0,"pressure":1010.5,"uv_index":8.15,"wind_gusts":35.6,"aqi":53,"pm10":20.2,"pm2_5":11.7,"no2":6.8,"co":80.0,"o3":37.0,"so2":2.8,"mosquito_risk":7,"arthritis_risk":0,"migraine_risk":4,"frizz_risk":1,"updated_at":"2026-07-10T03:54:33.820854+05:30"},{"city":"Munnar","state":"Kerala","latitude":10.0889,"longitude":77.0595,"temp":16.8,"humidity":100,"rain":0.1,"pressure":856.9,"uv_index":8.6,"wind_gusts":37.1,"aqi":23,"pm10":10.9,"pm2_5":7.3,"no2":5.8,"co":89.0,"o3":25.0,"so2":1.4,"mosquito_risk":6,"arthritis_risk":10,"migraine_risk":7,"frizz_risk":1,"updated_at":"2026-07-10T03:54:33.820862+05:30"},{"city":"Silchar","state":"Assam","latitude":24.8333,"longitude":92.7789,"temp":25.9,"humidity":95,"rain":0.1,"pressure":1000.3,"uv_index":1.75,"wind_gusts":30.2,"aqi":37,"pm10":10.0,"pm2_5":8.8,"no2":6.9,"co":259.0,"o3":51.0,"so2":4.1,"mosquito_risk":10,"arthritis_risk":5,"migraine_risk":0,"frizz_risk":1,"updated_at":"2026-07-10T03:54:33.820869+05:30"},{"city":"Dibrugarh","state":"Assam","latitude":27.4728,"longitude":94.912,"temp":26.2,"humidity":97,"rain":0.0,"pressure":989.5,"uv_index":3.25,"wind_gusts":24.5,"aqi":59,"pm10":26.5,"pm2_5":25.7,"no2":11.8,"co":202.0,"o3":51.0,"so2":2.5,"mosquito_risk":7,"arthritis_risk":5,"migraine_risk":3,"frizz_risk":1,"updated_at":"2026-07-10T03:54:33.820876+05:30"}]