[{"city":"Delhi","state":"Delhi","latitude":28.6139,"longitude":77.209,"temp":32.4,"humidity":36,"rain":0.0,"pressure":983.0,"uv_index":5.85,"wind_gusts":34.6,"aqi":407,"pm10":741.3,"pm2_5":112.9,"mosquito_risk":0,"arthritis_risk":5,"migraine_risk":3,"frizz_risk":0,"updated_at":"2026-03-05T17:06:24.366428+05:30"},{"city":"Mumbai","state":"Maharashtra","latitude":19.076,"longitude":72.8777,"temp":29.5,"humidity":58,"rain":0.0,"pressure":1007.5,"uv_index":7.4,"wind_gusts":26.6,"aqi":162,"pm10":38.2,"pm2_5":36.3,"mosquito_risk":4,"arthritis_risk":5,"migraine_risk":4,"frizz_risk":1,"updated_at":"2026-03-05T17:06:24.366476+05:30"},{"city":"Bangalore","state":"Karnataka","latitude":12.9716,"longitude":77.5946,"temp":31.0,"humidity":22,"rain":0.0,"pressure":911.4,"uv_index":9.15,"wind_gusts":31.3,"aqi":125,"pm10":23.9,"pm2_5":22.4,"mosquito_risk":0,"arthritis_risk":5,"migraine_risk":7,"frizz_risk":0,"updated_at":"2026-03-05T17:06:24.366490+05:30"},{"city":"Hyderabad","state":"Telangana","latitude":17.385,"longitude":78.4867,"temp":34.6,"humidity":21,"rain":0.0,"pressure":952.8,"uv_index":8.45,"wind_gusts":27.4,"aqi":147,"pm10":17.9,"pm2_5":15.9,"mosquito_risk":0,"arthritis_risk":5,"migraine_risk":7,"frizz_risk":0,"updated_at":"2026-03-05T17:06:24.366499+05:30"},{"city":"Chennai","state":"Tamil Nadu","latitude":13.0827,"longitude":80.2707,"temp":31.2,"humidity":48,"rain":0.0,"pressure":1006.5,"uv_index":8.85,"wind_gusts":31.3,"aqi":100,"pm10":29.0,"pm2_5":25.0,"mosquito_risk":0,"arthritis_risk":5,"migraine_risk":4,"frizz_risk":1,"updated_at":"2026-03-05T17:06:24.366507+05:30"},{"city":"Kolkata","state":"West Bengal","latitude":22.5726,"longitude":88.3639,"temp":30.0,"humidity":43,"rain":0.0,"pressure":1005.2,"uv_index":7.8,"wind_gusts":10.8,"aqi":206,"pm10":79.2,"pm2_5":61.9,"mosquito_risk":4,"arthritis_risk":5,"migraine_risk":4,"frizz_risk":1,"updated_at":"2026-03-05T17:06:24.366515+05:30"},{"city":"Pune","state":"Maharashtra","latitude":18.5204,"longitude":73.8567,"temp":36.7,"humidity":17,"rain":0.0,"pressure":948.3,"uv_index":7.95,"wind_gusts":31.3,"aqi":100,"pm10":15.8,"pm2_5":14.3,"mosquito_risk":0,"arthritis_risk":5,"migraine_risk":10,"frizz_risk":0,"updated_at":"2026-03-05T17:06:24.366526+05:30"},{"city":"Ahmedabad","state":"Gujarat","latitude":23.0225,"longitude":72.5714,"temp":36.1,"humidity":13,"rain":0.0,"pressure":1003.3,"uv_index":7.15,"wind_gusts":28.4,"aqi":65,"pm10":18.4,"pm2_5":17.3,"mosquito_risk":0,"arthritis_risk":5,"migraine_risk":7,"frizz_risk":0,"updated_at":"2026-03-05T17:06:24.366532+05:30"},{"city":"Jaipur","state":"Rajasthan","latitude":26.9124,"longitude":75.7873,"temp":35.4,"humidity":17,"rain":0.0,"pressure":961.0,"uv_index":6.65,"wind_gusts":34.9,"aqi":91,"pm10":180.2,"pm2_5":30.3,"mosquito_risk":0,"arthritis_risk":5,"migraine_risk":10,"frizz_risk":0,"updated_at":"2026-03-05T17:06:24.366539+05:30"},{"city":"Lucknow","state":"Uttar Pradesh","latitude":26.8467,"longitude":80.9462,"temp":31.1,"humidity":43,"rain":0.0,"pressure":993.2,"uv_index":6.4,"wind_gusts":15.1,"aqi":164,"pm10":222.6,"pm2_5":69.4,"mosquito_risk":0,"arthritis_risk":5,"migraine_risk":7,"frizz_risk":1,"updated_at":"2026-03-05T17:06:24.366546+05:30"},{"city":"Kanpur","state":"Uttar Pradesh","latitude":26.4499,"longitude":80.3319,"temp":31.8,"humidity":38,"rain":0.0,"pressure":991.2,"uv_index":6.4,"wind_gusts":28.4,"aqi":176,"pm10":318.5,"pm2_5":71.7,"mosquito_risk":0,"arthritis_risk":5,"migraine_risk":7,"frizz_risk":0,"updated_at":"2026-03-05T17:06:24.366552+05:30"},{"city":"Chandigarh","state":"Chandigarh","latitude":30.7333,"longitude":76.7794,"temp":29.8,"humidity":43,"rain":0.0,"pressure":968.9,"uv_index":5.75,"wind_gusts":31.0,"aqi":93,"pm10":44.1,"pm2_5":33.9,"mosquito_risk":4,"arthritis_risk":5,"migraine_risk":3,"frizz_risk":0,"updated_at":"2026-03-05T17:06:24.366559+05:30"},{"city":"Srinagar","state":"Jammu and Kashmir","latitude":34.0837,"longitude":74.7973,"temp":21.7,"humidity":43,"rain":0.0,"pressure":844.9,"uv_index":6.75,"wind_gusts":14.4,"aqi":151,"pm10":27.0,"pm2_5":14.4,"mosquito_risk":0,"arthritis_risk":5,"migraine_risk":7,"frizz_risk":0,"updated_at":"2026-03-05T17:06:24.366565+05:30"},{"city":"Jammu","state":"Jammu and Kashmir","latitude":32.7266,"longitude":74.857,"temp":30.9,"humidity":47,"rain":0.0,"pressure":972.8,"uv_index":6.4,"wind_gusts":23.8,"aqi":103,"pm10":50.2,"pm2_5":28.2,"mosquito_risk":0,"arthritis_risk":5,"migraine_risk":7,"frizz_risk":1,"updated_at":"2026-03-05T17:06:24.366571+05:30"},{"city":"Amritsar","state":"Punjab","latitude":31.634,"longitude":74.8723,"temp":30.2,"humidity":47,"rain":0.0,"pressure":981.3,"uv_index":6.35,"wind_gusts":22.7,"aqi":149,"pm10":51.2,"pm2_5":26.8,"mosquito_risk":0,"arthritis_risk":5,"migraine_risk":7,"frizz_risk":1,"updated_at":"2026-03-05T17:06:24.366577+05:30"},{"city":"Ludhiana","state":"Punjab","latitude":30.901,"longitude":75.8573,"temp":31.0,"humidity":42,"rain":0.0,"pressure":979.3,"uv_index":6.0,"wind_gusts":25.6,"aqi":156,"pm10":105.9,"pm2_5":49.4,"mosquito_risk":0,"arthritis_risk":5,"migraine_risk":3,"frizz_risk":1,"updated_at":"2026-03-05T17:06:24.366583+05:30"},{"city":"Jalandhar","state":"Punjab","latitude":31.326,"longitude":75.5762,"temp":30.6,"humidity":44,"rain":0.0,"pressure":980.3,"uv_index":6.2,"wind_gusts":24.1,"aqi":157,"pm10":88.9,"pm2_5":38.9,"mosquito_risk":0,"arthritis_risk":5,"migraine_risk":7,"frizz_risk":1,"updated_at":"2026-03-05T17:06:24.366590+05:30"},{"city":"Dehradun","state":"Uttarakhand","latitude":30.6284,"longitude":78.0322,"temp":19.8,"humidity":72,"rain":0.0,"pressure":831.3,"uv_index":6.15,"wind_gusts":31.7,"aqi":66,"pm10":20.8,"pm2_5":12.7,"mosquito_risk":3,"arthritis_risk":5,"migraine_risk":7,"frizz_risk":0,"updated_at":"2026-03-05T17:06:24.366596+05:30"},{"city":"Shimla","state":"Himachal Pradesh","latitude":31.1048,"longitude":77.1734,"temp":20.9,"humidity":44,"rain":0.0,"pressure":788.1,"uv_index":6.2,"wind_gusts":55.1,"aqi":65,"pm10":24.7,"pm2_5":12.4,"mosquito_risk":0,"arthritis_risk":5,"migraine_risk":7,"frizz_risk":0,"updated_at":"2026-03-05T17:06:24.366601+05:30"},{"city":"Manali","state":"Himachal Pradesh","latitude":32.2396,"longitude":77.1887,"temp":24.8,"humidity":33,"rain":0.0,"pressure":824.6,"uv_index":7.8,"wind_gusts":36.7,"aqi":75,"pm10":20.7,"pm2_5":10.3,"mosquito_risk":0,"arthritis_risk":5,"migraine_risk":7,"frizz_risk":0,"updated_at":"2026-03-05T17:06:24.366607+05:30"},{"city":"Gurgaon","state":"Haryana","latitude":28.4595,"longitude":77.0266,"temp":31.6,"humidity":39,"rain":0.0,"pressure":981.6,"uv_index":5.95,"wind_gusts":33.5,"aqi":1483,"pm10":2183.0,"pm2_5":239.3,"mosquito_risk":0,"arthritis_risk":5,"migraine_risk":3,"frizz_risk":0,"updated_at":"2026-03-05T17:06:24.366613+05:30"},{"city":"Noida","state":"Uttar Pradesh","latitude":28.5355,"longitude":77.391,"temp":32.7,"humidity":35,"rain":0.0,"pressure":984.4,"uv_index":5.85,"wind_gusts":34.6,"aqi":1483,"pm10":2183.0,"pm2_5":239.3,"mosquito_risk":0,"arthritis_risk":5,"migraine_risk":3,"frizz_risk":0,"updated_at":"2026-03-05T17:06:24.366618+05:30"},{"city":"Ghaziabad","state":"Uttar Pradesh","latitude":28.6692,"longitude":77.4538,"temp":32.0,"humidity":39,"rain":0.0,"pressure":982.5,"uv_index":5.8,"wind_gusts":31.7,"aqi":276,"pm10":532.7,"pm2_5":92.9,"mosquito_risk":0,"arthritis_risk":5,"migraine_risk":3,"frizz_risk":1,"updated_at":"2026-03-05T17:06:24.366624+05:30"},{"city":"Faridabad","state":"Haryana","latitude":28.4089,"longitude":77.3178,"temp":31.5,"humidity":38,"rain":0.0,"pressure":983.8,"uv_index":5.9,"wind_gusts":33.1,"aqi":1483,"pm10":2183.0,"pm2_5":239.3,"mosquito_risk":0,"arthritis_risk":5,"migraine_risk":3,"frizz_risk":0,"updated_at":"2026-03-05T17:06:24.366629+05:30"},{"city":"Meerut","state":"Uttar Pradesh","latitude":28.9845,"longitude":77.7064,"temp":31.7,"humidity":37,"rain":0.0,"pressure":981.0,"uv_index":5.7,"wind_gusts":30.6,"aqi":276,"pm10":532.7,"pm2_5":92.9,"mosquito_risk":0,"arthritis_risk":5,"migraine_risk":3,"frizz_risk":0,"updated_at":"2026-03-05T17:06:24.366635+05:30"},{"city":"Agra","state":"Uttar Pradesh","latitude":27.1767,"longitude":78.0081,"temp":33.8,"humidity":27,"rain":0.0,"pressure":987.7,"uv_index":6.2,"wind_gusts":37.8,"aqi":469,"pm10":933.2,"pm2_5":111.1,"mosquito_risk":0,"arthritis_risk":5,"migraine_risk":7,"frizz_risk":0,"updated_at":"2026-03-05T17:06:24.366640+05:30"},{"city":"Varanasi","state":"Uttar Pradesh","latitude":25.3176,"longitude":82.9739,"temp":29.4,"humidity":48,"rain":0.0,"pressure":997.5,"uv_index":7.05,"wind_gusts":16.6,"aqi":156,"pm10":204.9,"pm2_5":63.6,"mosquito_risk":4,"arthritis_risk":5,"migraine_risk":7,"frizz_risk":1,"updated_at":"2026-03-05T17:06:24.366649+05:30"},{"city":"Prayagraj","state":"Uttar Pradesh","latitude":25.4358,"longitude":81.8463,"temp":30.1,"humidity":47,"rain":0.0,"pressure":995.7,"uv_index":6.9,"wind_gusts":19.4,"aqi":155,"pm10":220.7,"pm2_5":65.4,"mosquito_risk":0,"arthritis_risk":5,"migraine_risk":7,"frizz_risk":1,"updated_at":"2026-03-05T17:06:24.366656+05:30"},{"city":"Gorakhpur","state":"Uttar Pradesh","latitude":26.7606,"longitude":83.3732,"temp":28.8,"humidity":50,"rain":0.0,"pressure":997.5,"uv_index":6.75,"wind_gusts":11.2,"aqi":174,"pm10":110.8,"pm2_5":66.6,"mosquito_risk":4,"arthritis_risk":5,"migraine_risk":7,"frizz_risk":1,"updated_at":"2026-03-05T17:06:24.366661+05:30"},{"city":"Bareilly","state":"Uttar Pradesh","latitude":28.367,"longitude":79.4304,"temp":29.3,"humidity":54,"rain":0.0,"pressure":986.6,"uv_index":6.05,"wind_gusts":14.0,"aqi":169,"pm10":149.9,"pm2_5":70.3,"mosquito_risk":4,"arthritis_risk":5,"migraine_risk":7,"frizz_risk":1,"updated_at":"2026-03-05T17:06:24.366666+05:30"},{"city":"Aligarh","state":"Uttar Pradesh","latitude":27.8974,"longitude":78.088,"temp":32.3,"humidity":35,"rain":0.0,"pressure":985.3,"uv_index":5.95,"wind_gusts":35.3,"aqi":720,"pm10":1058.0,"pm2_5":155.1,"mosquito_risk":0,"arthritis_risk":5,"migraine_risk":3,"frizz_risk":0,"updated_at":"2026-03-05T17:06:24.366672+05:30"},{"city":"Moradabad","state":"Uttar Pradesh","latitude":28.8386,"longitude":78.7733,"temp":29.6,"humidity":51,"rain":0.0,"pressure":983.3,"uv_index":5.85,"wind_gusts":18.0,"aqi":172,"pm10":148.1,"pm2_5":74.5,"mosquito_risk":4,"arthritis_risk":5,"migraine_risk":3,"frizz_risk":1,"updated_at":"2026-03-05T17:06:24.366677+05:30"},{"city":"Saharanpur","state":"Uttar Pradesh","latitude":29.9637,"longitude":77.546,"temp":30.7,"humidity":38,"rain":0.0,"pressure":975.0,"uv_index":5.5,"wind_gusts":23.4,"aqi":155,"pm10":222.6,"pm2_5":62.4,"mosquito_risk":0,"arthritis_risk":5,"migraine_risk":3,"frizz_risk":0,"updated_at":"2026-03-05T17:06:24.366683+05:30"},{"city":"Jhansi","state":"Uttar Pradesh","latitude":25.4484,"longitude":78.5685,"temp":34.2,"humidity":22,"rain":0.0,"pressure":978.3,"uv_index":6.85,"wind_gusts":35.3,"aqi":61,"pm10":31.9,"pm2_5":15.8,"mosquito_risk":0,"arthritis_risk":5,"migraine_risk":7,"frizz_risk":0,"updated_at":"2026-03-05T17:06:27.619174+05:30"},{"city":"Surat","state":"Gujarat","latitude":21.1702,"longitude":72.8311,"temp":34.8,"humidity":25,"rain":0.0,"pressure":1007.1,"uv_index":7.1,"wind_gusts":29.5,"aqi":112,"pm10":31.7,"pm2_5":29.3,"mosquito_risk":0,"arthritis_risk":5,"migraine_risk":4,"frizz_risk":0,"updated_at":"2026-03-05T17:06:27.619206+05:30"},{"city":"Vadodara","state":"Gujarat","latitude":22.3072,"longitude":73.1812,"temp":37.9,"humidity":17,"rain":0.0,"pressure":1004.6,"uv_index":7.2,"wind_gusts":24.5,"aqi":84,"pm10":23.1,"pm2_5":19.9,"mosquito_risk":0,"arthritis_risk":5,"migraine_risk":7,"frizz_risk":0,"updated_at":"2026-03-05T17:06:27.619216+05:30"},{"city":"Rajkot","state":"Gujarat","latitude":22.3039,"longitude":70.8022,"temp":34.1,"humidity":19,"rain":0.0,"pressure":996.3,"uv_index":7.05,"wind_gusts":36.4,"aqi":73,"pm10":21.7,"pm2_5":20.7,"mosquito_risk":0,"arthritis_risk":5,"migraine_risk":7,"frizz_risk":0,"updated_at":"2026-03-05T17:06:27.619226+05:30"},{"city":"Thane","state":"Maharashtra","latitude":19.2183,"longitude":72.9781,"temp":34.5,"humidity":32,"rain":0.0,"pressure":1007.2,"uv_index":7.4,"wind_gusts":41.4,"aqi":162,"pm10":38.2,"pm2_5":36.3,"mosquito_risk":0,"arthritis_risk":5,"migraine_risk":4,"frizz_risk":0,"updated_at":"2026-03-05T17:06:27.619235+05:30"},{"city":"Nagpur","state":"Maharashtra","latitude":21.1458,"longitude":79.0882,"temp":35.5,"humidity":16,"rain":0.0,"pressure":972.7,"uv_index":7.8,"wind_gusts":27.0,"aqi":82,"pm10":17.2,"pm2_5":10.1,"mosquito_risk":0,"arthritis_risk":5,"migraine_risk":10,"frizz_risk":0,"updated_at":"2026-03-05T17:06:27.619244+05:30"},{"city":"Nashik","state":"Maharashtra","latitude":19.9975,"longitude":73.7898,"temp":33.9,"humidity":20,"rain":0.0,"pressure":946.1,"uv_index":7.55,"wind_gusts":37.4,"aqi":91,"pm10":18.0,"pm2_5":14.8,"mosquito_risk":0,"arthritis_risk":5,"migraine_risk":7,"frizz_risk":0,"updated_at":"2026-03-05T17:06:27.619253+05:30"},{"city":"Aurangabad","state":"Maharashtra","latitude":19.8762,"longitude":75.3433,"temp":34.8,"humidity":19,"rain":0.0,"pressure":944.6,"uv_index":8.1,"wind_gusts":30.2,"aqi":96,"pm10":19.1,"pm2_5":16.4,"mosquito_risk":0,"arthritis_risk":5,"migraine_risk":7,"frizz_risk":0,"updated_at":"2026-03-05T17:06:27.619261+05:30"},{"city":"Solapur","state":"Maharashtra","latitude":17.6599,"longitude":75.9064,"temp":34.9,"humidity":21,"rain":0.0,"pressure":956.8,"uv_index":8.35,"wind_gusts":19.1,"aqi":120,"pm10":20.3,"pm2_5":18.3,"mosquito_risk":0,"arthritis_risk":5,"migraine_risk":7,"frizz_risk":0,"updated_at":"2026-03-05T17:06:27.619270+05:30"},{"city":"Kolhapur","state":"Maharashtra","latitude":16.705,"longitude":74.2433,"temp":34.6,"humidity":20,"rain":0.0,"pressure":947.4,"uv_index":8.5,"wind_gusts":34.6,"aqi":152,"pm10":22.9,"pm2_5":21.4,"mosquito_risk":0,"arthritis_risk":5,"migraine_risk":7,"frizz_risk":0,"updated_at":"2026-03-05T17:06:27.619296+05:30"},{"city":"Goa","state":"Goa","latitude":15.2993,"longitude":74.124,"temp":29.5,"humidity":70,"rain":0.0,"pressure":996.7,"uv_index":8.55,"wind_gusts":36.0,"aqi":152,"pm10":54.1,"pm2_5":50.9,"mosquito_risk":7,"arthritis_risk":5,"migraine_risk":7,"frizz_risk":1,"updated_at":"2026-03-05T17:06:27.619306+05:30"},{"city":"Jodhpur","state":"Rajasthan","latitude":26.2389,"longitude":73.0243,"temp":35.4,"humidity":16,"rain":0.0,"pressure":984.8,"uv_index":6.9,"wind_gusts":24.1,"aqi":81,"pm10":61.9,"pm2_5":13.0,"mosquito_risk":0,"arthritis_risk":5,"migraine_risk":10,"frizz_risk":0,"updated_at":"2026-03-05T17:06:27.619315+05:30"},{"city":"Udaipur","state":"Rajasthan","latitude":24.5854,"longitude":73.7125,"temp":33.5,"humidity":17,"rain":0.0,"pressure":948.5,"uv_index":7.55,"wind_gusts":25.9,"aqi":66,"pm10":12.2,"pm2_5":9.8,"mosquito_risk":0,"arthritis_risk":5,"migraine_risk":7,"frizz_risk":0,"updated_at":"2026-03-05T17:06:27.619323+05:30"},{"city":"Kota","state":"Rajasthan","latitude":25.2138,"longitude":75.8648,"temp":35.6,"humidity":21,"rain":0.0,"pressure":979.4,"uv_index":6.95,"wind_gusts":28.8,"aqi":74,"pm10":58.9,"pm2_5":18.5,"mosquito_risk":0,"arthritis_risk":5,"migraine_risk":10,"frizz_risk":0,"updated_at":"2026-03-05T17:06:27.619332+05:30"},{"city":"Bikaner","state":"Rajasthan","latitude":28.0229,"longitude":73.3119,"temp":35.2,"humidity":19,"rain":0.0,"pressure":983.5,"uv_index":6.6,"wind_gusts":20.9,"aqi":66,"pm10":60.8,"pm2_5":15.1,"mosquito_risk":0,"arthritis_risk":5,"migraine_risk":10,"frizz_risk":0,"updated_at":"2026-03-05T17:06:27.619340+05:30"},{"city":"Ajmer","state":"Rajasthan","latitude":26.4499,"longitude":74.6399,"temp":34.1,"humidity":20,"rain":0.0,"pressure":956.3,"uv_index":6.9,"wind_gusts":25.6,"aqi":70,"pm10":53.0,"pm2_5":17.1,"mosquito_risk":0,"arthritis_risk":5,"migraine_risk":7,"frizz_risk":0,"updated_at":"2026-03-05T17:06:27.619349+05:30"},{"city":"Gwalior","state":"Madhya Pradesh","latitude":26.2183,"longitude":78.1828,"temp":32.2,"humidity":34,"rain":0.0,"pressure":983.3,"uv_index":6.55,"wind_gusts":32.8,"aqi":66,"pm10":43.5,"pm2_5":19.6,"mosquito_risk":0,"arthritis_risk":5,"migraine_risk":7,"frizz_risk":0,"updated_at":"2026-03-05T17:06:27.619358+05:30"},{"city":"Indore","state":"Madhya Pradesh","latitude":22.7196,"longitude":75.8577,"temp":32.3,"humidity":21,"rain":0.0,"pressure":949.5,"uv_index":7.5,"wind_gusts":25.2,"aqi":78,"pm10":22.9,"pm2_5":12.0,"mosquito_risk":0,"arthritis_risk":5,"migraine_risk":7,"frizz_risk":0,"updated_at":"2026-03-05T17:06:27.619366+05:30"},{"city":"Bhopal","state":"Madhya Pradesh","latitude":23.2599,"longitude":77.4126,"temp":32.3,"humidity":24,"rain":0.0,"pressure":954.9,"uv_index":7.35,"wind_gusts":29.5,"aqi":81,"pm10":29.7,"pm2_5":13.3,"mosquito_risk":0,"arthritis_risk":5,"migraine_risk":7,"frizz_risk":0,"updated_at":"2026-03-05T17:06:27.619374+05:30"},{"city":"Jabalpur","state":"Madhya Pradesh","latitude":23.1815,"longitude":79.9864,"temp":33.3,"humidity":25,"rain":0.0,"pressure":961.7,"uv_index":7.5,"wind_gusts":30.2,"aqi":62,"pm10":28.9,"pm2_5":13.7,"mosquito_risk":0,"arthritis_risk":5,"migraine_risk":7,"frizz_risk":0,"updated_at":"2026-03-05T17:06:27.619381+05:30"},{"city":"Ujjain","state":"Madhya Pradesh","latitude":23.1765,"longitude":75.7885,"temp":32.1,"humidity":26,"rain":0.0,"pressure":955.2,"uv_index":7.4,"wind_gusts":23.0,"aqi":107,"pm10":24.4,"pm2_5":13.4,"mosquito_risk":0,"arthritis_risk":5,"migraine_risk":7,"frizz_risk":0,"updated_at":"2026-03-05T17:06:27.619389+05:30"},{"city":"Visakhapatnam","state":"Andhra Pradesh","latitude":17.6868,"longitude":83.2185,"temp":30.9,"humidity":59,"rain":0.0,"pressure":1001.5,"uv_index":8.45,"wind_gusts":33.1,"aqi":131,"pm10":48.8,"pm2_5":45.5,"mosquito_risk":0,"arthritis_risk":5,"migraine_risk":4,"frizz_risk":1,"updated_at":"2026-03-05T17:06:27.619396+05:30"},{"city":"Vijayawada","state":"Andhra Pradesh","latitude":16.5062,"longitude":80.648,"temp":34.7,"humidity":31,"rain":0.0,"pressure":1000.8,"uv_index":8.5,"wind_gusts":17.3,"aqi":114,"pm10":25.4,"pm2_5":23.3,"mosquito_risk":0,"arthritis_risk":5,"migraine_risk":4,"frizz_risk":0,"updated_at":"2026-03-05T17:06:27.619403+05:30"},{"city":"Guntur","state":"Andhra Pradesh","latitude":16.3067,"longitude":80.4365,"temp":35.2,"humidity":25,"rain":0.0,"pressure":1002.1,"uv_index":8.5,"wind_gusts":20.9,"aqi":110,"pm10":20.5,"pm2_5":18.3,"mosquito_risk":0,"arthritis_risk":5,"migraine_risk":7,"frizz_risk":0,"updated_at":"2026-03-05T17:06:27.619410+05:30"},{"city":"Nellore","state":"Andhra Pradesh","latitude":14.4426,"longitude":79.9865,"temp":34.5,"humidity":32,"rain":0.0,"pressure":1004.3,"uv_index":8.7,"wind_gusts":28.4,"aqi":119,"pm10":30.7,"pm2_5":27.4,"mosquito_risk":0,"arthritis_risk":5,"migraine_risk":4,"frizz_risk":0,"updated_at":"2026-03-05T17:06:27.619418+05:30"},{"city":"Kurnool","state":"Andhra Pradesh","latitude":15.8281,"longitude":78.0373,"temp":36.6,"humidity":18,"rain":0.0,"pressure":975.6,"uv_index":8.5,"wind_gusts":27.0,"aqi":119,"pm10":15.8,"pm2_5":14.0,"mosquito_risk":0,"arthritis_risk":5,"migraine_risk":10,"frizz_risk":0,"updated_at":"2026-03-05T17:06:27.619427+05:30"},{"city":"Kakinada","state":"Andhra Pradesh","latitude":16.9891,"longitude":82.2475,"temp":35.7,"humidity":29,"rain":0.0,"pressure":1004.5,"uv_index":8.45,"wind_gusts":27.4,"aqi":103,"pm10":32.9,"pm2_5":29.5,"mosquito_risk":0,"arthritis_risk":5,"migraine_risk":7,"frizz_risk":0,"updated_at":"2026-03-05T17:06:27.619433+05:30"},{"city":"Tirupati","state":"Andhra Pradesh","latitude":13.6288,"longitude":79.4192,"temp":34.3,"humidity":23,"rain":0.0,"pressure":990.2,"uv_index":8.8,"wind_gusts":29.5,"aqi":129,"pm10":28.4,"pm2_5":24.6,"mosquito_risk":0,"arthritis_risk":5,"migraine_risk":7,"frizz_risk":0,"updated_at":"2026-03-05T17:06:27.619440+05:30"},{"city":"Warangal","state":"Telangana","latitude":17.9689,"longitude":79.5941,"temp":34.4,"humidity":22,"rain":0.0,"pressure":978.0,"uv_index":8.3,"wind_gusts":27.4,"aqi":131,"pm10":16.5,"pm2_5":13.2,"mosquito_risk":0,"arthritis_risk":5,"migraine_risk":7,"frizz_risk":0,"updated_at":"2026-03-05T17:06:27.619447+05:30"},{"city":"Nizamabad","state":"Telangana","latitude":18.6725,"longitude":78.0941,"temp":34.5,"humidity":24,"rain":0.0,"pressure":964.5,"uv_index":8.15,"wind_gusts":22.3,"aqi":98,"pm10":12.6,"pm2_5":10.5,"mosquito_risk":0,"arthritis_risk":5,"migraine_risk":7,"frizz_risk":0,"updated_at":"2026-03-05T17:06:27.619453+05:30"},{"city":"Mysore","state":"Karnataka","latitude":12.2958,"longitude":76.6396,"temp":31.9,"humidity":27,"rain":0.0,"pressure":927.7,"uv_index":9.15,"wind_gusts":24.5,"aqi":139,"pm10":29.7,"pm2_5":28.7,"mosquito_risk":0,"arthritis_risk":5,"migraine_risk":7,"frizz_risk":0,"updated_at":"2026-03-05T17:06:27.619460+05:30"},{"city":"Mangalore","state":"Karnataka","latitude":12.9141,"longitude":74.856,"temp":28.6,"humidity":81,"rain":0.0,"pressure":1004.9,"uv_index":8.75,"wind_gusts":30.2,"aqi":132,"pm10":45.1,"pm2_5":41.6,"mosquito_risk":7,"arthritis_risk":5,"migraine_risk":4,"frizz_risk":1,"updated_at":"2026-03-05T17:06:27.619467+05:30"},{"city":"Hubli-Dharwad","state":"Karnataka","latitude":15.3647,"longitude":75.124,"temp":34.5,"humidity":21,"rain":0.0,"pressure":940.0,"uv_index":8.7,"wind_gusts":29.2,"aqi":145,"pm10":23.3,"pm2_5":21.9,"mosquito_risk":0,"arthritis_risk":5,"migraine_risk":7,"frizz_risk":0,"updated_at":"2026-03-05T17:06:27.619474+05:30"},{"city":"Belgaum","state":"Karnataka","latitude":15.8497,"longitude":74.4977,"temp":33.5,"humidity":23,"rain":0.0,"pressure":925.5,"uv_index":8.75,"wind_gusts":36.7,"aqi":151,"pm10":22.8,"pm2_5":21.0,"mosquito_risk":0,"arthritis_risk":5,"migraine_risk":7,"frizz_risk":0,"updated_at":"2026-03-05T17:06:30.879944+05:30"},{"city":"Coimbatore","state":"Tamil Nadu","latitude":11.0168,"longitude":76.9558,"temp":33.7,"humidity":22,"rain":0.0,"pressure":960.4,"uv_index":9.15,"wind_gusts":34.2,"aqi":127,"pm10":24.9,"pm2_5":24.2,"mosquito_risk":0,"arthritis_risk":5,"migraine_risk":7,"frizz_risk":0,"updated_at":"2026-03-05T17:06:30.879976+05:30"},{"city":"Madurai","state":"Tamil Nadu","latitude":9.9252,"longitude":78.1198,"temp":35.8,"humidity":22,"rain":0.0,"pressure":991.0,"uv_index":9.1,"wind_gusts":29.9,"aqi":94,"pm10":28.9,"pm2_5":26.7,"mosquito_risk":0,"arthritis_risk":5,"migraine_risk":10,"frizz_risk":0,"updated_at":"2026-03-05T17:06:30.879987+05:30"},{"city":"Trichy","state":"Tamil Nadu","latitude":10.7905,"longitude":78.7047,"temp":34.1,"humidity":31,"rain":0.0,"pressure":998.3,"uv_index":9.0,"wind_gusts":33.8,"aqi":90,"pm10":34.3,"pm2_5":31.2,"mosquito_risk":0,"arthritis_risk":5,"migraine_risk":7,"frizz_risk":0,"updated_at":"2026-03-05T17:06:30.879997+05:30"},{"city":"Salem","state":"Tamil Nadu","latitude":11.6643,"longitude":78.146,"temp":36.5,"humidity":18,"rain":0.0,"pressure":975.2,"uv_index":9.05,"wind_gusts":19.8,"aqi":129,"pm10":25.7,"pm2_5":23.7,"mosquito_risk":0,"arthritis_risk":5,"migraine_risk":10,"frizz_risk":0,"updated_at":"2026-03-05T17:06:30.880006+05:30"},{"city":"Tirunelveli","state":"Tamil Nadu","latitude":8.7139,"longitude":77.7567,"temp":36.4,"humidity":23,"rain":0.0,"pressure":1001.4,"uv_index":9.15,"wind_gusts":48.6,"aqi":88,"pm10":15.7,"pm2_5":14.6,"mosquito_risk":0,"arthritis_risk":5,"migraine_risk":7,"frizz_risk":0,"updated_at":"2026-03-05T17:06:30.880020+05:30"},{"city":"Vellore","state":"Tamil Nadu","latitude":12.9165,"longitude":79.1325,"temp":33.8,"humidity":22,"rain":0.0,"pressure":983.3,"uv_index":8.9,"wind_gusts":29.2,"aqi":120,"pm10":34.2,"pm2_5":29.8,"mosquito_risk":0,"arthritis_risk":5,"migraine_risk":7,"frizz_risk":0,"updated_at":"2026-03-05T17:06:30.880032+05:30"},{"city":"Erode","state":"Tamil Nadu","latitude":11.341,"longitude":77.7172,"temp":35.6,"humidity":31,"rain":0.0,"pressure":986.9,"uv_index":9.05,"wind_gusts":19.8,"aqi":111,"pm10":29.6,"pm2_5":28.3,"mosquito_risk":0,"arthritis_risk":5,"migraine_risk":10,"frizz_risk":0,"updated_at":"2026-03-05T17:06:30.880044+05:30"},{"city":"Kochi","state":"Kerala","latitude":9.9312,"longitude":76.2673,"temp":28.4,"humidity":77,"rain":0.0,"pressure":1006.9,"uv_index":8.95,"wind_gusts":38.2,"aqi":145,"pm10":43.0,"pm2_5":40.6,"mosquito_risk":7,"arthritis_risk":5,"migraine_risk":4,"frizz_risk":1,"updated_at":"2026-03-05T17:06:30.880056+05:30"},{"city":"Thiruvananthapuram","state":"Kerala","latitude":8.5241,"longitude":76.9366,"temp":28.3,"humidity":75,"rain":0.0,"pressure":1007.0,"uv_index":9.0,"wind_gusts":32.8,"aqi":130,"pm10":31.8,"pm2_5":29.0,"mosquito_risk":7,"arthritis_risk":5,"migraine_risk":4,"frizz_risk":1,"updated_at":"2026-03-05T17:06:30.880069+05:30"},{"city":"Kozhikode","state":"Kerala","latitude":11.2588,"longitude":75.7804,"temp":29.0,"humidity":78,"rain":0.0,"pressure":1006.4,"uv_index":8.85,"wind_gusts":30.6,"aqi":127,"pm10":44.4,"pm2_5":39.7,"mosquito_risk":7,"arthritis_risk":5,"migraine_risk":4,"frizz_risk":1,"updated_at":"2026-03-05T17:06:30.880078+05:30"},{"city":"Thrissur","state":"Kerala","latitude":10.5276,"longitude":76.2144,"temp":30.1,"humidity":70,"rain":0.0,"pressure":1005.4,"uv_index":8.9,"wind_gusts":36.7,"aqi":142,"pm10":36.0,"pm2_5":34.1,"mosquito_risk":3,"arthritis_risk":5,"migraine_risk":4,"frizz_risk":1,"updated_at":"2026-03-05T17:06:30.880088+05:30"},{"city":"Kannur","state":"Kerala","latitude":11.8745,"longitude":75.3704,"temp":29.5,"humidity":74,"rain":0.0,"pressure":1005.8,"uv_index":8.85,"wind_gusts":37.4,"aqi":134,"pm10":45.5,"pm2_5":41.6,"mosquito_risk":7,"arthritis_risk":5,"migraine_risk":4,"frizz_risk":1,"updated_at":"2026-03-05T17:06:30.880096+05:30"},{"city":"Patna","state":"Bihar","latitude":25.5941,"longitude":85.1376,"temp":29.9,"humidity":42,"rain":0.0,"pressure":1000.7,"uv_index":7.2,"wind_gusts":14.4,"aqi":172,"pm10":115.7,"pm2_5":57.2,"mosquito_risk":4,"arthritis_risk":5,"migraine_risk":4,"frizz_risk":0,"updated_at":"2026-03-05T17:06:30.880105+05:30"},{"city":"Gaya","state":"Bihar","latitude":24.7914,"longitude":85.0002,"temp":27.7,"humidity":55,"rain":0.0,"pressure":994.1,"uv_index":7.3,"wind_gusts":12.6,"aqi":152,"pm10":138.3,"pm2_5":49.2,"mosquito_risk":4,"arthritis_risk":5,"migraine_risk":7,"frizz_risk":1,"updated_at":"2026-03-05T17:06:30.880114+05:30"},{"city":"Muzaffarpur","state":"Bihar","latitude":26.1209,"longitude":85.3647,"temp":29.7,"humidity":42,"rain":0.0,"pressure":1000.7,"uv_index":7.15,"wind_gusts":15.5,"aqi":180,"pm10":88.9,"pm2_5":58.8,"mosquito_risk":4,"arthritis_risk":5,"migraine_risk":4,"frizz_risk":0,"updated_at":"2026-03-05T17:06:30.880122+05:30"},{"city":"Bhagalpur","state":"Bihar","latitude":25.2425,"longitude":87.0117,"temp":28.3,"humidity":48,"rain":0.0,"pressure":1001.5,"uv_index":7.25,"wind_gusts":14.0,"aqi":167,"pm10":72.9,"pm2_5":54.8,"mosquito_risk":4,"arthritis_risk":5,"migraine_risk":4,"frizz_risk":1,"updated_at":"2026-03-05T17:06:30.880129+05:30"},{"city":"Ranchi","state":"Jharkhand","latitude":23.3441,"longitude":85.3096,"temp":27.9,"humidity":35,"rain":0.0,"pressure":937.3,"uv_index":7.95,"wind_gusts":19.1,"aqi":144,"pm10":100.1,"pm2_5":38.6,"mosquito_risk":4,"arthritis_risk":5,"migraine_risk":7,"frizz_risk":0,"updated_at":"2026-03-05T17:06:30.880136+05:30"},{"city":"Jamshedpur","state":"Jharkhand","latitude":22.8046,"longitude":86.2029,"temp":31.9,"humidity":28,"rain":0.0,"pressure":989.7,"uv_index":7.85,"wind_gusts":11.2,"aqi":166,"pm10":104.8,"pm2_5":57.9,"mosquito_risk":0,"arthritis_risk":5,"migraine_risk":7,"frizz_risk":0,"updated_at":"2026-03-05T17:06:30.880143+05:30"},{"city":"Dhanbad","state":"Jharkhand","latitude":23.7957,"longitude":86.4304,"temp":31.8,"humidity":26,"rain":0.0,"pressure":979.1,"uv_index":7.75,"wind_gusts":16.2,"aqi":173,"pm10":118.7,"pm2_5":72.2,"mosquito_risk":0,"arthritis_risk":5,"migraine_risk":7,"frizz_risk":0,"updated_at":"2026-03-05T17:06:30.880150+05:30"},{"city":"Bokaro","state":"Jharkhand","latitude":23.6693,"longitude":86.1511,"temp":31.1,"humidity":30,"rain":0.0,"pressure":983.1,"uv_index":7.75,"wind_gusts":13.3,"aqi":169,"pm10":121.5,"pm2_5":75.2,"mosquito_risk":0,"arthritis_risk":5,"migraine_risk":7,"frizz_risk":0,"updated_at":"2026-03-05T17:06:30.880158+05:30"},{"city":"Bhubaneswar","state":"Odisha","latitude":20.2961,"longitude":85.8245,"temp":34.9,"humidity":20,"rain":0.0,"pressure":1000.2,"uv_index":8.15,"wind_gusts":25.2,"aqi":161,"pm10":84.5,"pm2_5":45.5,"mosquito_risk":0,"arthritis_risk":5,"migraine_risk":4,"frizz_risk":0,"updated_at":"2026-03-05T17:06:30.880165+05:30"},{"city":"Cuttack","state":"Odisha","latitude":20.4625,"longitude":85.8828,"temp":34.6,"humidity":20,"rain":0.0,"pressure":1002.2,"uv_index":8.2,"wind_gusts":26.6,"aqi":161,"pm10":84.5,"pm2_5":45.5,"mosquito_risk":0,"arthritis_risk":5,"migraine_risk":4,"frizz_risk":0,"updated_at":"2026-03-05T17:06:30.880172+05:30"},{"city":"Rourkela","state":"Odisha","latitude":22.2604,"longitude":84.8536,"temp":33.1,"humidity":29,"rain":0.0,"pressure":983.3,"uv_index":7.75,"wind_gusts":23.0,"aqi":124,"pm10":127.6,"pm2_5":39.7,"mosquito_risk":0,"arthritis_risk":5,"migraine_risk":7,"frizz_risk":0,"updated_at":"2026-03-05T17:06:30.880179+05:30"},{"city":"Raipur","state":"Chhattisgarh","latitude":21.2514,"longitude":81.6296,"temp":36.2,"humidity":16,"rain":0.0,"pressure":973.6,"uv_index":7.85,"wind_gusts":27.7,"aqi":115,"pm10":28.1,"pm2_5":15.7,"mosquito_risk":0,"arthritis_risk":5,"migraine_risk":10,"frizz_risk":0,"updated_at":"2026-03-05T17:06:30.880186+05:30"},{"city":"Bhilai","state":"Chhattisgarh","latitude":21.1938,"longitude":81.3509,"temp":36.2,"humidity":16,"rain":0.0,"pressure":974.0,"uv_index":7.85,"wind_gusts":27.7,"aqi":96,"pm10":27.8,"pm2_5":14.6,"mosquito_risk":0,"arthritis_risk":5,"migraine_risk":10,"frizz_risk":0,"updated_at":"2026-03-05T17:06:30.880193+05:30"},{"city":"Guwahati","state":"Assam","latitude":26.1158,"longitude":91.7086,"temp":29.3,"humidity":51,"rain":0.0,"pressure":1001.0,"uv_index":7.15,"wind_gusts":18.0,"aqi":140,"pm10":42.6,"pm2_5":36.9,"mosquito_risk":4,"arthritis_risk":5,"migraine_risk":4,"frizz_risk":1,"updated_at":"2026-03-05T17:06:30.880199+05:30"},{"city":"Agartala","state":"Tripura","latitude":23.8315,"longitude":91.2868,"temp":28.5,"humidity":53,"rain":0.0,"pressure":1005.4,"uv_index":7.55,"wind_gusts":16.2,"aqi":181,"pm10":65.7,"pm2_5":53.4,"mosquito_risk":4,"arthritis_risk":5,"migraine_risk":4,"frizz_risk":1,"updated_at":"2026-03-05T17:06:30.880207+05:30"},{"city":"Shillong","state":"Meghalaya","latitude":25.5788,"longitude":91.8933,"temp":17.5,"humidity":62,"rain":0.0,"pressure":856.6,"uv_index":7.55,"wind_gusts":15.8,"aqi":125,"pm10":48.8,"pm2_5":40.5,"mosquito_risk":3,"arthritis_risk":5,"migraine_risk":7,"frizz_risk":0,"updated_at":"2026-03-05T17:06:30.880214+05:30"},{"city":"Imphal","state":"Manipur","latitude":24.817,"longitude":93.9368,"temp":21.8,"humidity":53,"rain":0.0,"pressure":922.6,"uv_index":7.75,"wind_gusts":23.0,"aqi":150,"pm10":34.6,"pm2_5":29.8,"mosquito_risk":0,"arthritis_risk":5,"migraine_risk":7,"frizz_risk":0,"updated_at":"2026-03-05T17:06:30.880221+05:30"},{"city":"Aizawl","state":"Mizoram","latitude":23.7271,"longitude":92.7176,"temp":23.3,"humidity":45,"rain":0.0,"pressure":892.3,"uv_index":7.7,"wind_gusts":23.8,"aqi":156,"pm10":59.8,"pm2_5":50.9,"mosquito_risk":0,"arthritis_risk":5,"migraine_risk":7,"frizz_risk":0,"updated_at":"2026-03-05T17:06:30.880228+05:30"},{"city":"Kohima","state":"Nagaland","latitude":25.6701,"longitude":94.1077,"temp":16.8,"humidity":79,"rain":0.0,"pressure":854.6,"uv_index":7.6,"wind_gusts":36.7,"aqi":140,"pm10":36.0,"pm2_5":31.3,"mosquito_risk":3,"arthritis_risk":5,"migraine_risk":7,"frizz_risk":0,"updated_at":"2026-03-05T17:06:30.880235+05:30"},{"city":"Gangtok","state":"Sikkim","latitude":27.3314,"longitude":88.6138,"temp":18.4,"humidity":67,"rain":0.0,"pressure":838.5,"uv_index":7.5,"wind_gusts":21.2,"aqi":124,"pm10":31.0,"pm2_5":26.9,"mosquito_risk":3,"arthritis_risk":5,"migraine_risk":7,"frizz_risk":0,"updated_at":"2026-03-05T17:06:30.880241+05:30"},{"city":"Siliguri","state":"West Bengal","latitude":26.7271,"longitude":88.3953,"temp":24.9,"humidity":56,"rain":0.0,"pressure":994.4,"uv_index":7.15,"wind_gusts":22.3,"aqi":142,"pm10":38.5,"pm2_5":31.5,"mosquito_risk":0,"arthritis_risk":5,"migraine_risk":7,"frizz_risk":0,"updated_at":"2026-03-05T17:06:34.138545+05:30"},{"city":"Durgapur","state":"West Bengal","latitude":23.5204,"longitude":87.3119,"temp":31.6,"humidity":31,"rain":0.0,"pressure":994.3,"uv_index":7.7,"wind_gusts":20.2,"aqi":177,"pm10":101.5,"pm2_5":61.2,"mosquito_risk":0,"arthritis_risk":5,"migraine_risk":7,"frizz_risk":0,"updated_at":"2026-03-05T17:06:34.138577+05:30"},{"city":"Asansol","state":"West Bengal","latitude":23.6739,"longitude":86.9524,"temp":31.7,"humidity":30,"rain":0.0,"pressure":992.9,"uv_index":7.7,"wind_gusts":15.1,"aqi":176,"pm10":118.7,"pm2_5":65.7,"mosquito_risk":0,"arthritis_risk":5,"migraine_risk":7,"frizz_risk":0,"updated_at":"2026-03-05T17:06:34.138588+05:30"},{"city":"Pondicherry","state":"Puducherry","latitude":11.9139,"longitude":79.8145,"temp":32.2,"humidity":44,"rain":0.0,"pressure":1007.3,"uv_index":8.85,"wind_gusts":24.5,"aqi":82,"pm10":19.7,"pm2_5":16.9,"mosquito_risk":0,"arthritis_risk":5,"migraine_risk":4,"frizz_risk":1,"updated_at":"2026-03-05T17:06:34.138598+05:30"},{"city":"Port Blair","state":"Andaman and Nicobar Islands","latitude":11.6234,"longitude":92.7265,"temp":27.2,"humidity":72,"rain":0.0,"pressure":1006.2,"uv_index":8.8,"wind_gusts":23.4,"aqi":65,"pm10":18.3,"pm2_5":13.2,"mosquito_risk":7,"arthritis_risk":5,"migraine_risk":4,"frizz_risk":1,"updated_at":"2026-03-05T17:06:34.138608+05:30"},{"city":"Haridwar","state":"Uttarakhand","latitude":29.9457,"longitude":78.1642,"temp":29.1,"humidity":54,"rain":0.0,"pressure":974.2,"uv_index":5.65,"wind_gusts":21.6,"aqi":138,"pm10":81.0,"pm2_5":42.7,"mosquito_risk":4,"arthritis_risk":5,"migraine_risk":3,"frizz_risk":1,"updated_at":"2026-03-05T17:06:34.138617+05:30"},{"city":"Rishikesh","state":"Uttarakhand","latitude":30.0869,"longitude":78.2676,"temp":28.1,"humidity":54,"rain":0.0,"pressure":967.1,"uv_index":5.7,"wind_gusts":20.9,"aqi":126,"pm10":75.2,"pm2_5":44.7,"mosquito_risk":4,"arthritis_risk":5,"migraine_risk":3,"frizz_risk":1,"updated_at":"2026-03-05T17:06:34.138627+05:30"},{"city":"Nainital","state":"Uttarakhand","latitude":29.3919,"longitude":79.4542,"temp":19.8,"humidity":70,"rain":0.0,"pressure":806.5,"uv_index":6.5,"wind_gusts":53.6,"aqi":153,"pm10":101.5,"pm2_5":61.0,"mosquito_risk":3,"arthritis_risk":5,"migraine_risk":7,"frizz_risk":0,"updated_at":"2026-03-05T17:06:34.138636+05:30"},{"city":"Mussoorie","state":"Uttarakhand","latitude":30.4599,"longitude":78.0664,"temp":19.6,"humidity":69,"rain":0.0,"pressure":803.7,"uv_index":6.0,"wind_gusts":37.1,"aqi":126,"pm10":56.9,"pm2_5":40.3,"mosquito_risk":3,"arthritis_risk":5,"migraine_risk":3,"frizz_risk":0,"updated_at":"2026-03-05T17:06:34.138645+05:30"},{"city":"Dharamshala","state":"Himachal Pradesh","latitude":32.219,"longitude":76.3234,"temp":25.8,"humidity":46,"rain":0.0,"pressure":871.3,"uv_index":6.3,"wind_gusts":24.5,"aqi":50,"pm10":23.6,"pm2_5":11.3,"mosquito_risk":4,"arthritis_risk":5,"migraine_risk":7,"frizz_risk":0,"updated_at":"2026-03-05T17:06:34.138653+05:30"},{"city":"Dalhousie","state":"Himachal Pradesh","latitude":32.5387,"longitude":75.971,"temp":24.6,"humidity":42,"rain":0.0,"pressure":807.2,"uv_index":6.45,"wind_gusts":21.2,"aqi":83,"pm10":38.6,"pm2_5":22.2,"mosquito_risk":0,"arthritis_risk":5,"migraine_risk":7,"frizz_risk":0,"updated_at":"2026-03-05T17:06:34.138662+05:30"},{"city":"Patiala","state":"Punjab","latitude":30.3398,"longitude":76.3869,"temp":30.9,"humidity":43,"rain":0.0,"pressure":978.5,"uv_index":5.65,"wind_gusts":28.4,"aqi":355,"pm10":601.6,"pm2_5":94.8,"mosquito_risk":0,"arthritis_risk":5,"migraine_risk":3,"frizz_risk":1,"updated_at":"2026-03-05T17:06:34.138671+05:30"},{"city":"Bhatinda","state":"Punjab","latitude":30.211,"longitude":74.9455,"temp":32.2,"humidity":42,"rain":0.0,"pressure":984.5,"uv_index":6.35,"wind_gusts":27.0,"aqi":137,"pm10":65.0,"pm2_5":39.5,"mosquito_risk":0,"arthritis_risk":5,"migraine_risk":7,"frizz_risk":1,"updated_at":"2026-03-05T17:06:34.138679+05:30"},{"city":"Rohtak","state":"Haryana","latitude":28.8955,"longitude":76.6066,"temp":31.6,"humidity":40,"rain":0.0,"pressure":982.2,"uv_index":5.85,"wind_gusts":33.1,"aqi":556,"pm10":1017.0,"pm2_5":129.5,"mosquito_risk":0,"arthritis_risk":5,"migraine_risk":3,"frizz_risk":1,"updated_at":"2026-03-05T17:06:34.138687+05:30"},{"city":"Panipat","state":"Haryana","latitude":29.3909,"longitude":76.9635,"temp":31.5,"humidity":40,"rain":0.0,"pressure":980.4,"uv_index":5.65,"wind_gusts":32.4,"aqi":1252,"pm10":1665.2,"pm2_5":189.5,"mosquito_risk":0,"arthritis_risk":5,"migraine_risk":3,"frizz_risk":1,"updated_at":"2026-03-05T17:06:34.138696+05:30"},{"city":"Mathura","state":"Uttar Pradesh","latitude":27.4924,"longitude":77.6737,"temp":33.2,"humidity":31,"rain":0.0,"pressure":986.8,"uv_index":6.1,"wind_gusts":34.9,"aqi":628,"pm10":1233.1,"pm2_5":144.8,"mosquito_risk":0,"arthritis_risk":5,"migraine_risk":7,"frizz_risk":0,"updated_at":"2026-03-05T17:06:34.138703+05:30"},{"city":"Vrindavan","state":"Uttar Pradesh","latitude":27.5823,"longitude":77.7027,"temp":32.9,"humidity":32,"rain":0.0,"pressure":987.3,"uv_index":6.1,"wind_gusts":37.1,"aqi":628,"pm10":1233.1,"pm2_5":144.8,"mosquito_risk":0,"arthritis_risk":5,"migraine_risk":7,"frizz_risk":0,"updated_at":"2026-03-05T17:06:34.138711+05:30"},{"city":"Ayodhya","state":"Uttar Pradesh","latitude":26.7922,"longitude":82.1998,"temp":29.7,"humidity":47,"rain":0.0,"pressure":995.4,"uv_index":6.55,"wind_gusts":10.1,"aqi":177,"pm10":131.8,"pm2_5":69.4,"mosquito_risk":4,"arthritis_risk":5,"migraine_risk":7,"frizz_risk":1,"updated_at":"2026-03-05T17:06:34.138720+05:30"},{"city":"Ratlam","state":"Madhya Pradesh","latitude":23.3315,"longitude":75.0367,"temp":32.8,"humidity":23,"rain":0.0,"pressure":956.1,"uv_index":7.35,"wind_gusts":23.0,"aqi":95,"pm10":21.5,"pm2_5":12.7,"mosquito_risk":0,"arthritis_risk":5,"migraine_risk":7,"frizz_risk":0,"updated_at":"2026-03-05T17:06:34.138728+05:30"},{"city":"Sagar","state":"Madhya Pradesh","latitude":23.8388,"longitude":78.7378,"temp":32.2,"humidity":25,"rain":0.0,"pressure":950.9,"uv_index":7.3,"wind_gusts":31.7,"aqi":69,"pm10":38.6,"pm2_5":12.7,"mosquito_risk":0,"arthritis_risk":5,"migraine_risk":7,"frizz_risk":0,"updated_at":"2026-03-05T17:06:34.138736+05:30"},{"city":"Satna","state":"Madhya Pradesh","latitude":24.6005,"longitude":80.8322,"temp":33.2,"humidity":24,"rain":0.0,"pressure":971.3,"uv_index":7.3,"wind_gusts":40.0,"aqi":82,"pm10":52.5,"pm2_5":24.7,"mosquito_risk":0,"arthritis_risk":5,"migraine_risk":7,"frizz_risk":0,"updated_at":"2026-03-05T17:06:34.138742+05:30"},{"city":"Akola","state":"Maharashtra","latitude":20.7002,"longitude":77.0082,"temp":36.3,"humidity":15,"rain":0.0,"pressure":974.9,"uv_index":7.8,"wind_gusts":26.6,"aqi":87,"pm10":19.1,"pm2_5":12.3,"mosquito_risk":0,"arthritis_risk":5,"migraine_risk":10,"frizz_risk":0,"updated_at":"2026-03-05T17:06:34.138750+05:30"},{"city":"Amravati","state":"Maharashtra","latitude":20.9374,"longitude":77.7796,"temp":36.6,"humidity":11,"rain":0.0,"pressure":967.1,"uv_index":7.75,"wind_gusts":16.9,"aqi":84,"pm10":19.0,"pm2_5":12.3,"mosquito_risk":0,"arthritis_risk":5,"migraine_risk":10,"frizz_risk":0,"updated_at":"2026-03-05T17:06:34.138758+05:30"},{"city":"Latur","state":"Maharashtra","latitude":18.4088,"longitude":76.5604,"temp":33.7,"humidity":17,"rain":0.0,"pressure":940.0,"uv_index":8.25,"wind_gusts":32.0,"aqi":121,"pm10":19.4,"pm2_5":17.2,"mosquito_risk":0,"arthritis_risk":5,"migraine_risk":7,"frizz_risk":0,"updated_at":"2026-03-05T17:06:34.138765+05:30"},{"city":"Nanded","state":"Maharashtra","latitude":19.1383,"longitude":77.3091,"temp":35.9,"humidity":17,"rain":0.0,"pressure":968.3,"uv_index":8.05,"wind_gusts":25.2,"aqi":102,"pm10":13.5,"pm2_5":11.4,"mosquito_risk":0,"arthritis_risk":5,"migraine_risk":10,"frizz_risk":0,"updated_at":"2026-03-05T17:06:34.138772+05:30"},{"city":"Gulbarga","state":"Karnataka","latitude":17.3297,"longitude":76.8343,"temp":36.0,"humidity":19,"rain":0.0,"pressure":958.1,"uv_index":8.35,"wind_gusts":22.3,"aqi":124,"pm10":14.7,"pm2_5":13.1,"mosquito_risk":0,"arthritis_risk":5,"migraine_risk":10,"frizz_risk":0,"updated_at":"2026-03-05T17:06:34.138778+05:30"},{"city":"Bidar","state":"Karnataka","latitude":17.9104,"longitude":77.5199,"temp":34.2,"humidity":19,"rain":0.0,"pressure":935.5,"uv_index":8.3,"wind_gusts":24.8,"aqi":114,"pm10":14.6,"pm2_5":12.8,"mosquito_risk":0,"arthritis_risk":5,"migraine_risk":7,"frizz_risk":0,"updated_at":"2026-03-05T17:06:34.138784+05:30"},{"city":"Hospet","state":"Karnataka","latitude":15.2689,"longitude":76.3909,"temp":35.4,"humidity":17,"rain":0.0,"pressure":954.9,"uv_index":8.7,"wind_gusts":25.9,"aqi":132,"pm10":25.0,"pm2_5":23.4,"mosquito_risk":0,"arthritis_risk":5,"migraine_risk":10,"frizz_risk":0,"updated_at":"2026-03-05T17:06:34.138791+05:30"},{"city":"Tirupur","state":"Tamil Nadu","latitude":11.1085,"longitude":77.3411,"temp":35.2,"humidity":19,"rain":0.0,"pressure":973.7,"uv_index":9.15,"wind_gusts":29.2,"aqi":123,"pm10":28.5,"pm2_5":27.5,"mosquito_risk":0,"arthritis_risk":5,"migraine_risk":10,"frizz_risk":0,"updated_at":"2026-03-05T17:06:34.138797+05:30"},{"city":"Alappuzha","state":"Kerala","latitude":9.4981,"longitude":76.3388,"temp":28.4,"humidity":75,"rain":0.0,"pressure":1007.1,"uv_index":8.95,"wind_gusts":35.3,"aqi":121,"pm10":39.9,"pm2_5":36.8,"mosquito_risk":7,"arthritis_risk":5,"migraine_risk":4,"frizz_risk":1,"updated_at":"2026-03-05T17:06:34.138804+05:30"},{"city":"Munnar","state":"Kerala","latitude":10.0889,"longitude":77.0595,"temp":28.6,"humidity":43,"rain":0.0,"pressure":857.8,"uv_index":9.45,"wind_gusts":23.4,"aqi":103,"pm10":21.2,"pm2_5":20.4,"mosquito_risk":4,"arthritis_risk":5,"migraine_risk":7,"frizz_risk":0,"updated_at":"2026-03-05T17:06:34.138811+05:30"},{"city":"Silchar","state":"Assam","latitude":24.8333,"longitude":92.7789,"temp":29.7,"humidity":44,"rain":0.0,"pressure":1003.7,"uv_index":7.5,"wind_gusts":13.7,"aqi":151,"pm10":52.6,"pm2_5":44.7,"mosquito_risk":4,"arthritis_risk":5,"migraine_risk":4,"frizz_risk":1,"updated_at":"2026-03-05T17:06:34.138817+05:30"},{"city":"Dibrugarh","state":"Assam","latitude":27.4728,"longitude":94.912,"temp":28.0,"humidity":52,"rain":0.0,"pressure":994.6,"uv_index":7.2,"wind_gusts":14.4,"aqi":119,"pm10":30.9,"pm2_5":27.2,"mosquito_risk":4,"arthritis_risk":5,"migraine_risk":7,"frizz_risk":1,"updated_at":"2026-03-05T17:06:34.138824+05:30"}]