[{"city":"Delhi","state":"Delhi","latitude":28.6139,"longitude":77.209,"temp":32.2,"humidity":61,"rain":0.0,"pressure":977.0,"uv_index":7.7,"wind_gusts":35.3,"aqi":668,"pm10":780.4,"pm2_5":194.6,"no2":56.2,"co":854.0,"o3":31.0,"so2":20.5,"mosquito_risk":3,"arthritis_risk":5,"migraine_risk":7,"frizz_risk":1,"updated_at":"2026-07-18T21:30:09.956635+05:30"},{"city":"Mumbai","state":"Maharashtra","latitude":19.076,"longitude":72.8777,"temp":25.6,"humidity":95,"rain":0.1,"pressure":1007.5,"uv_index":6.3,"wind_gusts":51.8,"aqi":63,"pm10":25.2,"pm2_5":14.3,"no2":14.7,"co":415.0,"o3":36.0,"so2":9.5,"mosquito_risk":10,"arthritis_risk":5,"migraine_risk":4,"frizz_risk":1,"updated_at":"2026-07-18T21:30:09.956682+05:30"},{"city":"Bangalore","state":"Karnataka","latitude":12.9716,"longitude":77.5946,"temp":21.7,"humidity":87,"rain":0.1,"pressure":912.5,"uv_index":3.35,"wind_gusts":45.0,"aqi":49,"pm10":13.3,"pm2_5":10.2,"no2":22.2,"co":428.0,"o3":38.0,"so2":5.5,"mosquito_risk":6,"arthritis_risk":5,"migraine_risk":3,"frizz_risk":1,"updated_at":"2026-07-18T21:30:09.956698+05:30"},{"city":"Hyderabad","state":"Telangana","latitude":17.385,"longitude":78.4867,"temp":25.2,"humidity":86,"rain":0.0,"pressure":952.4,"uv_index":3.55,"wind_gusts":42.5,"aqi":52,"pm10":15.2,"pm2_5":11.1,"no2":13.0,"co":388.0,"o3":41.0,"so2":6.0,"mosquito_risk":7,"arthritis_risk":5,"migraine_risk":3,"frizz_risk":1,"updated_at":"2026-07-18T21:30:09.956707+05:30"},{"city":"Chennai","state":"Tamil Nadu","latitude":13.0827,"longitude":80.2707,"temp":26.7,"humidity":85,"rain":0.0,"pressure":1006.9,"uv_index":5.3,"wind_gusts":35.6,"aqi":67,"pm10":41.7,"pm2_5":28.4,"no2":19.8,"co":390.0,"o3":84.0,"so2":11.7,"mosquito_risk":7,"arthritis_risk":5,"migraine_risk":0,"frizz_risk":1,"updated_at":"2026-07-18T21:30:09.956716+05:30"},{"city":"Kolkata","state":"West Bengal","latitude":22.5726,"longitude":88.3639,"temp":27.8,"humidity":86,"rain":0.0,"pressure":1002.9,"uv_index":7.65,"wind_gusts":38.9,"aqi":61,"pm10":19.3,"pm2_5":16.1,"no2":7.4,"co":309.0,"o3":98.0,"so2":6.4,"mosquito_risk":7,"arthritis_risk":5,"migraine_risk":4,"frizz_risk":1,"updated_at":"2026-07-18T21:30:09.956724+05:30"},{"city":"Pune","state":"Maharashtra","latitude":18.5204,"longitude":73.8567,"temp":23.0,"humidity":94,"rain":0.1,"pressure":946.9,"uv_index":8.05,"wind_gusts":49.0,"aqi":35,"pm10":6.5,"pm2_5":5.3,"no2":15.4,"co":206.0,"o3":25.0,"so2":7.5,"mosquito_risk":6,"arthritis_risk":5,"migraine_risk":7,"frizz_risk":1,"updated_at":"2026-07-18T21:30:09.956736+05:30"},{"city":"Ahmedabad","state":"Gujarat","latitude":23.0225,"longitude":72.5714,"temp":29.6,"humidity":76,"rain":0.0,"pressure":998.0,"uv_index":6.6,"wind_gusts":33.8,"aqi":66,"pm10":30.7,"pm2_5":18.2,"no2":15.1,"co":221.0,"o3":48.0,"so2":5.3,"mosquito_risk":7,"arthritis_risk":5,"migraine_risk":7,"frizz_risk":1,"updated_at":"2026-07-18T21:30:09.956742+05:30"},{"city":"Jaipur","state":"Rajasthan","latitude":26.9124,"longitude":75.7873,"temp":32.8,"humidity":53,"rain":0.0,"pressure":955.4,"uv_index":7.45,"wind_gusts":37.8,"aqi":200,"pm10":128.5,"pm2_5":45.4,"no2":27.1,"co":242.0,"o3":36.0,"so2":7.4,"mosquito_risk":0,"arthritis_risk":5,"migraine_risk":7,"frizz_risk":1,"updated_at":"2026-07-18T21:30:09.956748+05:30"},{"city":"Lucknow","state":"Uttar Pradesh","latitude":26.8467,"longitude":80.9462,"temp":29.8,"humidity":85,"rain":0.0,"pressure":988.8,"uv_index":7.05,"wind_gusts":19.1,"aqi":168,"pm10":129.5,"pm2_5":75.0,"no2":27.4,"co":830.0,"o3":66.0,"so2":12.4,"mosquito_risk":7,"arthritis_risk":5,"migraine_risk":7,"frizz_risk":1,"updated_at":"2026-07-18T21:30:09.956758+05:30"},{"city":"Kanpur","state":"Uttar Pradesh","latitude":26.4499,"longitude":80.3319,"temp":30.3,"humidity":84,"rain":0.0,"pressure":987.0,"uv_index":7.95,"wind_gusts":26.3,"aqi":163,"pm10":109.0,"pm2_5":63.6,"no2":19.5,"co":498.0,"o3":79.0,"so2":7.9,"mosquito_risk":3,"arthritis_risk":5,"migraine_risk":7,"frizz_risk":1,"updated_at":"2026-07-18T21:30:09.956765+05:30"},{"city":"Chandigarh","state":"Chandigarh","latitude":30.7333,"longitude":76.7794,"temp":30.0,"humidity":76,"rain":0.0,"pressure":962.4,"uv_index":7.55,"wind_gusts":30.2,"aqi":153,"pm10":127.1,"pm2_5":79.9,"no2":45.2,"co":1619.0,"o3":76.0,"so2":17.2,"mosquito_risk":7,"arthritis_risk":5,"migraine_risk":7,"frizz_risk":1,"updated_at":"2026-07-18T21:30:09.956772+05:30"},{"city":"Srinagar","state":"Jammu and Kashmir","latitude":34.0837,"longitude":74.7973,"temp":29.3,"humidity":58,"rain":0.0,"pressure":838.6,"uv_index":9.05,"wind_gusts":20.2,"aqi":96,"pm10":35.3,"pm2_5":30.3,"no2":34.4,"co":657.0,"o3":53.0,"so2":4.5,"mosquito_risk":4,"arthritis_risk":5,"migraine_risk":7,"frizz_risk":1,"updated_at":"2026-07-18T21:30:09.956778+05:30"},{"city":"Jammu","state":"Jammu and Kashmir","latitude":32.7266,"longitude":74.857,"temp":30.0,"humidity":79,"rain":0.0,"pressure":965.6,"uv_index":8.15,"wind_gusts":23.0,"aqi":143,"pm10":70.5,"pm2_5":54.1,"no2":37.8,"co":507.0,"o3":48.0,"so2":6.1,"mosquito_risk":7,"arthritis_risk":5,"migraine_risk":7,"frizz_risk":1,"updated_at":"2026-07-18T21:30:09.956785+05:30"},{"city":"Amritsar","state":"Punjab","latitude":31.634,"longitude":74.8723,"temp":32.6,"humidity":69,"rain":0.0,"pressure":973.2,"uv_index":6.45,"wind_gusts":18.4,"aqi":170,"pm10":124.8,"pm2_5":79.6,"no2":42.2,"co":464.0,"o3":46.0,"so2":8.6,"mosquito_risk":3,"arthritis_risk":5,"migraine_risk":7,"frizz_risk":1,"updated_at":"2026-07-18T21:30:09.956790+05:30"},{"city":"Ludhiana","state":"Punjab","latitude":30.901,"longitude":75.8573,"temp":32.5,"humidity":73,"rain":0.0,"pressure":971.6,"uv_index":7.85,"wind_gusts":22.3,"aqi":177,"pm10":210.5,"pm2_5":107.1,"no2":54.1,"co":1216.0,"o3":37.0,"so2":9.4,"mosquito_risk":3,"arthritis_risk":5,"migraine_risk":7,"frizz_risk":1,"updated_at":"2026-07-18T21:30:09.956797+05:30"},{"city":"Jalandhar","state":"Punjab","latitude":31.326,"longitude":75.5762,"temp":32.4,"humidity":75,"rain":0.0,"pressure":972.5,"uv_index":8.2,"wind_gusts":16.9,"aqi":175,"pm10":138.3,"pm2_5":84.8,"no2":39.6,"co":1509.0,"o3":50.0,"so2":6.4,"mosquito_risk":3,"arthritis_risk":5,"migraine_risk":7,"frizz_risk":1,"updated_at":"2026-07-18T21:30:09.956802+05:30"},{"city":"Dehradun","state":"Uttarakhand","latitude":30.6284,"longitude":78.0322,"temp":20.3,"humidity":99,"rain":0.0,"pressure":828.5,"uv_index":7.1,"wind_gusts":25.2,"aqi":87,"pm10":48.1,"pm2_5":26.5,"no2":10.9,"co":237.0,"o3":111.0,"so2":5.8,"mosquito_risk":3,"arthritis_risk":5,"migraine_risk":7,"frizz_risk":1,"updated_at":"2026-07-18T21:30:09.956817+05:30"},{"city":"Shimla","state":"Himachal Pradesh","latitude":31.1048,"longitude":77.1734,"temp":17.1,"humidity":98,"rain":0.0,"pressure":782.5,"uv_index":6.2,"wind_gusts":42.8,"aqi":83,"pm10":61.7,"pm2_5":29.7,"no2":16.7,"co":317.0,"o3":90.0,"so2":7.2,"mosquito_risk":3,"arthritis_risk":10,"migraine_risk":7,"frizz_risk":1,"updated_at":"2026-07-18T21:30:09.956830+05:30"},{"city":"Manali","state":"Himachal Pradesh","latitude":32.2396,"longitude":77.1887,"temp":20.8,"humidity":97,"rain":0.0,"pressure":817.6,"uv_index":7.05,"wind_gusts":33.1,"aqi":55,"pm10":16.6,"pm2_5":14.0,"no2":34.6,"co":288.0,"o3":46.0,"so2":0.5,"mosquito_risk":3,"arthritis_risk":5,"migraine_risk":7,"frizz_risk":1,"updated_at":"2026-07-18T21:30:09.956853+05:30"},{"city":"Gurgaon","state":"Haryana","latitude":28.4595,"longitude":77.0266,"temp":32.2,"humidity":59,"rain":0.0,"pressure":975.5,"uv_index":7.75,"wind_gusts":38.5,"aqi":561,"pm10":558.8,"pm2_5":126.7,"no2":37.8,"co":730.0,"o3":43.0,"so2":10.9,"mosquito_risk":0,"arthritis_risk":5,"migraine_risk":7,"frizz_risk":1,"updated_at":"2026-07-18T21:30:09.956864+05:30"},{"city":"Noida","state":"Uttar Pradesh","latitude":28.5355,"longitude":77.391,"temp":31.9,"humidity":61,"rain":0.0,"pressure":978.4,"uv_index":7.65,"wind_gusts":30.6,"aqi":561,"pm10":558.8,"pm2_5":126.7,"no2":37.8,"co":647.0,"o3":43.0,"so2":10.9,"mosquito_risk":3,"arthritis_risk":5,"migraine_risk":7,"frizz_risk":1,"updated_at":"2026-07-18T21:30:09.956874+05:30"},{"city":"Ghaziabad","state":"Uttar Pradesh","latitude":28.6692,"longitude":77.4538,"temp":31.7,"humidity":60,"rain":0.0,"pressure":976.6,"uv_index":7.7,"wind_gusts":30.6,"aqi":619,"pm10":923.9,"pm2_5":236.1,"no2":65.3,"co":931.0,"o3":28.0,"so2":21.6,"mosquito_risk":0,"arthritis_risk":5,"migraine_risk":7,"frizz_risk":1,"updated_at":"2026-07-18T21:30:09.956884+05:30"},{"city":"Faridabad","state":"Haryana","latitude":28.4089,"longitude":77.3178,"temp":32.9,"humidity":59,"rain":0.0,"pressure":977.8,"uv_index":7.6,"wind_gusts":38.9,"aqi":561,"pm10":558.8,"pm2_5":126.7,"no2":37.8,"co":541.0,"o3":43.0,"so2":10.9,"mosquito_risk":0,"arthritis_risk":5,"migraine_risk":7,"frizz_risk":1,"updated_at":"2026-07-18T21:30:09.956893+05:30"},{"city":"Meerut","state":"Uttar Pradesh","latitude":28.9845,"longitude":77.7064,"temp":29.9,"humidity":85,"rain":0.0,"pressure":975.7,"uv_index":7.65,"wind_gusts":32.0,"aqi":619,"pm10":923.9,"pm2_5":236.1,"no2":65.3,"co":546.0,"o3":28.0,"so2":21.6,"mosquito_risk":7,"arthritis_risk":5,"migraine_risk":7,"frizz_risk":1,"updated_at":"2026-07-18T21:30:09.956903+05:30"},{"city":"Agra","state":"Uttar Pradesh","latitude":27.1767,"longitude":78.0081,"temp":33.2,"humidity":62,"rain":0.0,"pressure":982.4,"uv_index":7.05,"wind_gusts":40.0,"aqi":153,"pm10":126.7,"pm2_5":59.6,"no2":46.8,"co":407.0,"o3":29.0,"so2":11.2,"mosquito_risk":3,"arthritis_risk":5,"migraine_risk":7,"frizz_risk":1,"updated_at":"2026-07-18T21:30:09.956915+05:30"},{"city":"Varanasi","state":"Uttar Pradesh","latitude":25.3176,"longitude":82.9739,"temp":28.2,"humidity":94,"rain":0.0,"pressure":993.3,"uv_index":7.15,"wind_gusts":18.7,"aqi":140,"pm10":95.0,"pm2_5":62.6,"no2":18.8,"co":555.0,"o3":85.0,"so2":10.6,"mosquito_risk":7,"arthritis_risk":5,"migraine_risk":7,"frizz_risk":1,"updated_at":"2026-07-18T21:30:09.956925+05:30"},{"city":"Prayagraj","state":"Uttar Pradesh","latitude":25.4358,"longitude":81.8463,"temp":29.0,"humidity":91,"rain":0.0,"pressure":991.6,"uv_index":6.45,"wind_gusts":26.6,"aqi":152,"pm10":104.5,"pm2_5":59.3,"no2":15.5,"co":341.0,"o3":95.0,"so2":8.5,"mosquito_risk":7,"arthritis_risk":5,"migraine_risk":7,"frizz_risk":1,"updated_at":"2026-07-18T21:30:09.956935+05:30"},{"city":"Gorakhpur","state":"Uttar Pradesh","latitude":26.7606,"longitude":83.3732,"temp":28.5,"humidity":92,"rain":0.0,"pressure":993.5,"uv_index":6.8,"wind_gusts":26.3,"aqi":88,"pm10":22.0,"pm2_5":21.9,"no2":16.0,"co":464.0,"o3":74.0,"so2":5.5,"mosquito_risk":7,"arthritis_risk":5,"migraine_risk":7,"frizz_risk":1,"updated_at":"2026-07-18T21:30:09.956944+05:30"},{"city":"Bareilly","state":"Uttar Pradesh","latitude":28.367,"longitude":79.4304,"temp":28.4,"humidity":94,"rain":0.0,"pressure":981.8,"uv_index":7.7,"wind_gusts":30.6,"aqi":157,"pm10":76.6,"pm2_5":49.7,"no2":14.8,"co":413.0,"o3":90.0,"so2":11.9,"mosquito_risk":7,"arthritis_risk":5,"migraine_risk":7,"frizz_risk":1,"updated_at":"2026-07-18T21:30:09.956957+05:30"},{"city":"Aligarh","state":"Uttar Pradesh","latitude":27.8974,"longitude":78.088,"temp":30.6,"humidity":76,"rain":0.0,"pressure":980.1,"uv_index":7.4,"wind_gusts":27.4,"aqi":310,"pm10":329.7,"pm2_5":96.6,"no2":25.8,"co":394.0,"o3":51.0,"so2":6.7,"mosquito_risk":3,"arthritis_risk":5,"migraine_risk":7,"frizz_risk":1,"updated_at":"2026-07-18T21:30:09.956968+05:30"},{"city":"Moradabad","state":"Uttar Pradesh","latitude":28.8386,"longitude":78.7733,"temp":27.6,"humidity":96,"rain":0.0,"pressure":978.6,"uv_index":7.45,"wind_gusts":35.3,"aqi":173,"pm10":63.3,"pm2_5":52.3,"no2":16.7,"co":574.0,"o3":91.0,"so2":14.0,"mosquito_risk":7,"arthritis_risk":5,"migraine_risk":7,"frizz_risk":1,"updated_at":"2026-07-18T21:30:09.956976+05:30"},{"city":"Saharanpur","state":"Uttar Pradesh","latitude":29.9637,"longitude":77.546,"temp":29.0,"humidity":93,"rain":0.0,"pressure":969.7,"uv_index":7.3,"wind_gusts":32.0,"aqi":192,"pm10":488.0,"pm2_5":159.3,"no2":48.2,"co":615.0,"o3":57.0,"so2":19.4,"mosquito_risk":7,"arthritis_risk":5,"migraine_risk":7,"frizz_risk":1,"updated_at":"2026-07-18T21:30:09.956982+05:30"},{"city":"Jhansi","state":"Uttar Pradesh","latitude":25.4484,"longitude":78.5685,"temp":28.0,"humidity":88,"rain":0.0,"pressure":974.4,"uv_index":7.05,"wind_gusts":43.6,"aqi":88,"pm10":47.0,"pm2_5":29.5,"no2":21.7,"co":182.0,"o3":42.0,"so2":4.7,"mosquito_risk":7,"arthritis_risk":5,"migraine_risk":7,"frizz_risk":1,"updated_at":"2026-07-18T21:30:13.309340+05:30"},{"city":"Surat","state":"Gujarat","latitude":21.1702,"longitude":72.8311,"temp":28.6,"humidity":82,"rain":0.0,"pressure":1003.7,"uv_index":7.15,"wind_gusts":43.2,"aqi":70,"pm10":23.1,"pm2_5":17.1,"no2":20.1,"co":274.0,"o3":30.0,"so2":30.3,"mosquito_risk":7,"arthritis_risk":5,"migraine_risk":4,"frizz_risk":1,"updated_at":"2026-07-18T21:30:13.309375+05:30"},{"city":"Vadodara","state":"Gujarat","latitude":22.3072,"longitude":73.1812,"temp":29.0,"humidity":80,"rain":0.0,"pressure":1000.7,"uv_index":5.75,"wind_gusts":39.2,"aqi":66,"pm10":20.1,"pm2_5":15.6,"no2":20.6,"co":204.0,"o3":42.0,"so2":20.7,"mosquito_risk":7,"arthritis_risk":5,"migraine_risk":0,"frizz_risk":1,"updated_at":"2026-07-18T21:30:13.309386+05:30"},{"city":"Rajkot","state":"Gujarat","latitude":22.3039,"longitude":70.8022,"temp":28.6,"humidity":71,"rain":0.0,"pressure":990.5,"uv_index":5.25,"wind_gusts":46.1,"aqi":60,"pm10":32.1,"pm2_5":15.8,"no2":5.3,"co":120.0,"o3":45.0,"so2":4.7,"mosquito_risk":7,"arthritis_risk":5,"migraine_risk":3,"frizz_risk":1,"updated_at":"2026-07-18T21:30:13.309394+05:30"},{"city":"Thane","state":"Maharashtra","latitude":19.2183,"longitude":72.9781,"temp":25.2,"humidity":97,"rain":0.2,"pressure":1006.8,"uv_index":6.4,"wind_gusts":43.9,"aqi":63,"pm10":25.2,"pm2_5":14.3,"no2":14.7,"co":367.0,"o3":36.0,"so2":9.5,"mosquito_risk":10,"arthritis_risk":5,"migraine_risk":4,"frizz_risk":1,"updated_at":"2026-07-18T21:30:13.309402+05:30"},{"city":"Nagpur","state":"Maharashtra","latitude":21.1458,"longitude":79.0882,"temp":26.3,"humidity":90,"rain":0.0,"pressure":970.9,"uv_index":1.0,"wind_gusts":27.0,"aqi":67,"pm10":20.7,"pm2_5":16.3,"no2":16.5,"co":247.0,"o3":43.0,"so2":10.3,"mosquito_risk":7,"arthritis_risk":5,"migraine_risk":3,"frizz_risk":1,"updated_at":"2026-07-18T21:30:13.309412+05:30"},{"city":"Nashik","state":"Maharashtra","latitude":19.9975,"longitude":73.7898,"temp":23.0,"humidity":92,"rain":0.0,"pressure":943.8,"uv_index":6.9,"wind_gusts":45.0,"aqi":32,"pm10":4.6,"pm2_5":3.5,"no2":11.8,"co":169.0,"o3":37.0,"so2":7.6,"mosquito_risk":3,"arthritis_risk":5,"migraine_risk":7,"frizz_risk":1,"updated_at":"2026-07-18T21:30:13.309421+05:30"},{"city":"Aurangabad","state":"Maharashtra","latitude":19.8762,"longitude":75.3433,"temp":23.0,"humidity":96,"rain":0.1,"pressure":942.7,"uv_index":6.7,"wind_gusts":38.5,"aqi":40,"pm10":12.0,"pm2_5":9.2,"no2":11.1,"co":175.0,"o3":45.0,"so2":6.4,"mosquito_risk":6,"arthritis_risk":5,"migraine_risk":7,"frizz_risk":1,"updated_at":"2026-07-18T21:30:13.309428+05:30"},{"city":"Solapur","state":"Maharashtra","latitude":17.6599,"longitude":75.9064,"temp":24.2,"humidity":95,"rain":0.1,"pressure":957.1,"uv_index":3.15,"wind_gusts":34.9,"aqi":41,"pm10":12.4,"pm2_5":7.9,"no2":5.9,"co":201.0,"o3":44.0,"so2":2.6,"mosquito_risk":6,"arthritis_risk":5,"migraine_risk":3,"frizz_risk":1,"updated_at":"2026-07-18T21:30:13.309435+05:30"},{"city":"Kolhapur","state":"Maharashtra","latitude":16.705,"longitude":74.2433,"temp":22.1,"humidity":95,"rain":0.1,"pressure":948.1,"uv_index":5.3,"wind_gusts":46.1,"aqi":33,"pm10":6.4,"pm2_5":5.3,"no2":7.9,"co":174.0,"o3":34.0,"so2":2.6,"mosquito_risk":6,"arthritis_risk":5,"migraine_risk":3,"frizz_risk":1,"updated_at":"2026-07-18T21:30:13.309442+05:30"},{"city":"Goa","state":"Goa","latitude":15.2993,"longitude":74.124,"temp":24.8,"humidity":99,"rain":0.3,"pressure":999.7,"uv_index":6.25,"wind_gusts":35.6,"aqi":64,"pm10":26.6,"pm2_5":15.4,"no2":6.1,"co":439.0,"o3":38.0,"so2":1.7,"mosquito_risk":6,"arthritis_risk":5,"migraine_risk":7,"frizz_risk":1,"updated_at":"2026-07-18T21:30:13.309449+05:30"},{"city":"Jodhpur","state":"Rajasthan","latitude":26.2389,"longitude":73.0243,"temp":32.5,"humidity":50,"rain":0.0,"pressure":977.5,"uv_index":8.4,"wind_gusts":42.8,"aqi":129,"pm10":194.2,"pm2_5":43.9,"no2":8.0,"co":165.0,"o3":53.0,"so2":2.2,"mosquito_risk":0,"arthritis_risk":5,"migraine_risk":7,"frizz_risk":1,"updated_at":"2026-07-18T21:30:13.309456+05:30"},{"city":"Udaipur","state":"Rajasthan","latitude":24.5854,"longitude":73.7125,"temp":27.7,"humidity":69,"rain":0.0,"pressure":942.6,"uv_index":8.25,"wind_gusts":33.8,"aqi":74,"pm10":22.0,"pm2_5":13.3,"no2":5.8,"co":147.0,"o3":73.0,"so2":4.6,"mosquito_risk":7,"arthritis_risk":5,"migraine_risk":7,"frizz_risk":1,"updated_at":"2026-07-18T21:30:13.309463+05:30"},{"city":"Kota","state":"Rajasthan","latitude":25.2138,"longitude":75.8648,"temp":33.4,"humidity":49,"rain":0.0,"pressure":974.5,"uv_index":8.25,"wind_gusts":32.4,"aqi":84,"pm10":32.6,"pm2_5":22.5,"no2":11.9,"co":203.0,"o3":64.0,"so2":6.0,"mosquito_risk":0,"arthritis_risk":5,"migraine_risk":7,"frizz_risk":1,"updated_at":"2026-07-18T21:30:13.309470+05:30"},{"city":"Bikaner","state":"Rajasthan","latitude":28.0229,"longitude":73.3119,"temp":34.9,"humidity":42,"rain":0.0,"pressure":975.2,"uv_index":8.25,"wind_gusts":38.5,"aqi":122,"pm10":159.7,"pm2_5":49.5,"no2":2.1,"co":129.0,"o3":73.0,"so2":2.6,"mosquito_risk":0,"arthritis_risk":5,"migraine_risk":7,"frizz_risk":1,"updated_at":"2026-07-18T21:30:13.309476+05:30"},{"city":"Ajmer","state":"Rajasthan","latitude":26.4499,"longitude":74.6399,"temp":30.7,"humidity":54,"rain":0.0,"pressure":950.3,"uv_index":8.0,"wind_gusts":43.2,"aqi":76,"pm10":35.4,"pm2_5":21.2,"no2":11.6,"co":155.0,"o3":51.0,"so2":3.6,"mosquito_risk":0,"arthritis_risk":5,"migraine_risk":7,"frizz_risk":1,"updated_at":"2026-07-18T21:30:13.309483+05:30"},{"city":"Gwalior","state":"Madhya Pradesh","latitude":26.2183,"longitude":78.1828,"temp":32.2,"humidity":62,"rain":0.0,"pressure":978.6,"uv_index":3.4,"wind_gusts":37.1,"aqi":97,"pm10":47.4,"pm2_5":27.2,"no2":19.9,"co":219.0,"o3":42.0,"so2":4.5,"mosquito_risk":3,"arthritis_risk":5,"migraine_risk":3,"frizz_risk":1,"updated_at":"2026-07-18T21:30:13.309490+05:30"},{"city":"Indore","state":"Madhya Pradesh","latitude":22.7196,"longitude":75.8577,"temp":26.5,"humidity":77,"rain":0.0,"pressure":945.7,"uv_index":6.0,"wind_gusts":38.5,"aqi":71,"pm10":34.3,"pm2_5":25.0,"no2":15.8,"co":284.0,"o3":57.0,"so2":7.5,"mosquito_risk":7,"arthritis_risk":5,"migraine_risk":3,"frizz_risk":1,"updated_at":"2026-07-18T21:30:13.309496+05:30"},{"city":"Bhopal","state":"Madhya Pradesh","latitude":23.2599,"longitude":77.4126,"temp":27.7,"humidity":77,"rain":0.0,"pressure":950.8,"uv_index":6.3,"wind_gusts":36.7,"aqi":80,"pm10":26.3,"pm2_5":18.4,"no2":8.1,"co":391.0,"o3":64.0,"so2":3.9,"mosquito_risk":7,"arthritis_risk":5,"migraine_risk":7,"frizz_risk":1,"updated_at":"2026-07-18T21:30:13.309503+05:30"},{"city":"Jabalpur","state":"Madhya Pradesh","latitude":23.1815,"longitude":79.9864,"temp":26.2,"humidity":95,"rain":0.0,"pressure":958.2,"uv_index":8.2,"wind_gusts":34.9,"aqi":85,"pm10":40.3,"pm2_5":27.7,"no2":9.0,"co":351.0,"o3":73.0,"so2":5.0,"mosquito_risk":7,"arthritis_risk":5,"migraine_risk":7,"frizz_risk":1,"updated_at":"2026-07-18T21:30:13.309509+05:30"},{"city":"Ujjain","state":"Madhya Pradesh","latitude":23.1765,"longitude":75.7885,"temp":27.1,"humidity":73,"rain":0.0,"pressure":951.0,"uv_index":6.65,"wind_gusts":36.4,"aqi":74,"pm10":29.9,"pm2_5":21.5,"no2":8.1,"co":279.0,"o3":71.0,"so2":5.3,"mosquito_risk":7,"arthritis_risk":5,"migraine_risk":7,"frizz_risk":1,"updated_at":"2026-07-18T21:30:13.309516+05:30"},{"city":"Visakhapatnam","state":"Andhra Pradesh","latitude":17.6868,"longitude":83.2185,"temp":27.7,"humidity":88,"rain":0.0,"pressure":1000.1,"uv_index":6.55,"wind_gusts":39.6,"aqi":79,"pm10":27.5,"pm2_5":23.2,"no2":25.4,"co":317.0,"o3":55.0,"so2":36.8,"mosquito_risk":7,"arthritis_risk":5,"migraine_risk":4,"frizz_risk":1,"updated_at":"2026-07-18T21:30:13.309523+05:30"},{"city":"Vijayawada","state":"Andhra Pradesh","latitude":16.5062,"longitude":80.648,"temp":27.7,"humidity":89,"rain":0.1,"pressure":1001.2,"uv_index":5.25,"wind_gusts":38.9,"aqi":65,"pm10":23.7,"pm2_5":16.7,"no2":9.8,"co":283.0,"o3":53.0,"so2":5.1,"mosquito_risk":10,"arthritis_risk":5,"migraine_risk":0,"frizz_risk":1,"updated_at":"2026-07-18T21:30:13.309529+05:30"},{"city":"Guntur","state":"Andhra Pradesh","latitude":16.3067,"longitude":80.4365,"temp":29.9,"humidity":66,"rain":0.0,"pressure":1002.5,"uv_index":3.95,"wind_gusts":43.6,"aqi":63,"pm10":20.3,"pm2_5":13.9,"no2":9.4,"co":181.0,"o3":49.0,"so2":4.6,"mosquito_risk":7,"arthritis_risk":5,"migraine_risk":0,"frizz_risk":1,"updated_at":"2026-07-18T21:30:13.309536+05:30"},{"city":"Nellore","state":"Andhra Pradesh","latitude":14.4426,"longitude":79.9865,"temp":28.2,"humidity":81,"rain":0.0,"pressure":1005.1,"uv_index":2.55,"wind_gusts":42.8,"aqi":54,"pm10":18.6,"pm2_5":11.9,"no2":9.0,"co":198.0,"o3":48.0,"so2":3.7,"mosquito_risk":7,"arthritis_risk":5,"migraine_risk":0,"frizz_risk":1,"updated_at":"2026-07-18T21:30:13.309543+05:30"},{"city":"Kurnool","state":"Andhra Pradesh","latitude":15.8281,"longitude":78.0373,"temp":26.0,"humidity":80,"rain":0.0,"pressure":977.1,"uv_index":4.85,"wind_gusts":42.8,"aqi":52,"pm10":23.3,"pm2_5":14.0,"no2":13.2,"co":201.0,"o3":49.0,"so2":11.4,"mosquito_risk":7,"arthritis_risk":5,"migraine_risk":3,"frizz_risk":1,"updated_at":"2026-07-18T21:30:13.309551+05:30"},{"city":"Kakinada","state":"Andhra Pradesh","latitude":16.9891,"longitude":82.2475,"temp":27.3,"humidity":89,"rain":0.0,"pressure":1004.8,"uv_index":7.2,"wind_gusts":47.2,"aqi":68,"pm10":24.3,"pm2_5":18.4,"no2":8.1,"co":231.0,"o3":85.0,"so2":5.6,"mosquito_risk":7,"arthritis_risk":5,"migraine_risk":4,"frizz_risk":1,"updated_at":"2026-07-18T21:30:13.309557+05:30"},{"city":"Tirupati","state":"Andhra Pradesh","latitude":13.6288,"longitude":79.4192,"temp":27.3,"humidity":79,"rain":0.0,"pressure":991.0,"uv_index":3.3,"wind_gusts":38.9,"aqi":56,"pm10":23.6,"pm2_5":17.2,"no2":27.7,"co":282.0,"o3":21.0,"so2":3.5,"mosquito_risk":7,"arthritis_risk":5,"migraine_risk":3,"frizz_risk":1,"updated_at":"2026-07-18T21:30:13.309563+05:30"},{"city":"Warangal","state":"Telangana","latitude":17.9689,"longitude":79.5941,"temp":25.5,"humidity":92,"rain":0.0,"pressure":977.3,"uv_index":6.05,"wind_gusts":38.2,"aqi":62,"pm10":23.7,"pm2_5":18.9,"no2":11.8,"co":204.0,"o3":48.0,"so2":4.6,"mosquito_risk":7,"arthritis_risk":5,"migraine_risk":7,"frizz_risk":1,"updated_at":"2026-07-18T21:30:13.309569+05:30"},{"city":"Nizamabad","state":"Telangana","latitude":18.6725,"longitude":78.0941,"temp":24.0,"humidity":97,"rain":0.1,"pressure":963.9,"uv_index":1.1,"wind_gusts":42.1,"aqi":62,"pm10":26.7,"pm2_5":16.1,"no2":7.2,"co":241.0,"o3":67.0,"so2":9.4,"mosquito_risk":6,"arthritis_risk":5,"migraine_risk":3,"frizz_risk":1,"updated_at":"2026-07-18T21:30:13.309575+05:30"},{"city":"Mysore","state":"Karnataka","latitude":12.2958,"longitude":76.6396,"temp":22.2,"humidity":87,"rain":0.0,"pressure":929.8,"uv_index":3.75,"wind_gusts":49.3,"aqi":35,"pm10":8.1,"pm2_5":5.8,"no2":10.1,"co":156.0,"o3":43.0,"so2":2.5,"mosquito_risk":3,"arthritis_risk":5,"migraine_risk":3,"frizz_risk":1,"updated_at":"2026-07-18T21:30:13.309581+05:30"},{"city":"Mangalore","state":"Karnataka","latitude":12.9141,"longitude":74.856,"temp":23.9,"humidity":99,"rain":0.0,"pressure":1009.0,"uv_index":4.25,"wind_gusts":35.3,"aqi":58,"pm10":22.4,"pm2_5":13.9,"no2":13.9,"co":282.0,"o3":26.0,"so2":3.2,"mosquito_risk":3,"arthritis_risk":0,"migraine_risk":0,"frizz_risk":1,"updated_at":"2026-07-18T21:30:13.309587+05:30"},{"city":"Hubli-Dharwad","state":"Karnataka","latitude":15.3647,"longitude":75.124,"temp":22.2,"humidity":95,"rain":0.0,"pressure":941.4,"uv_index":7.7,"wind_gusts":49.3,"aqi":25,"pm10":5.1,"pm2_5":3.9,"no2":7.5,"co":135.0,"o3":35.0,"so2":1.6,"mosquito_risk":3,"arthritis_risk":5,"migraine_risk":7,"frizz_risk":1,"updated_at":"2026-07-18T21:30:13.309594+05:30"},{"city":"Belgaum","state":"Karnataka","latitude":15.8497,"longitude":74.4977,"temp":21.4,"humidity":96,"rain":0.0,"pressure":926.0,"uv_index":6.85,"wind_gusts":50.4,"aqi":22,"pm10":4.1,"pm2_5":3.3,"no2":5.9,"co":118.0,"o3":38.0,"so2":1.6,"mosquito_risk":3,"arthritis_risk":5,"migraine_risk":7,"frizz_risk":1,"updated_at":"2026-07-18T21:30:16.656593+05:30"},{"city":"Coimbatore","state":"Tamil Nadu","latitude":11.0168,"longitude":76.9558,"temp":23.5,"humidity":89,"rain":0.0,"pressure":962.8,"uv_index":7.1,"wind_gusts":44.6,"aqi":44,"pm10":10.8,"pm2_5":8.4,"no2":10.6,"co":203.0,"o3":35.0,"so2":3.6,"mosquito_risk":3,"arthritis_risk":5,"migraine_risk":7,"frizz_risk":1,"updated_at":"2026-07-18T21:30:16.656628+05:30"},{"city":"Madurai","state":"Tamil Nadu","latitude":9.9252,"longitude":78.1198,"temp":29.4,"humidity":64,"rain":0.0,"pressure":993.5,"uv_index":8.0,"wind_gusts":26.3,"aqi":64,"pm10":33.8,"pm2_5":17.4,"no2":12.6,"co":270.0,"o3":63.0,"so2":4.5,"mosquito_risk":7,"arthritis_risk":5,"migraine_risk":7,"frizz_risk":1,"updated_at":"2026-07-18T21:30:16.656640+05:30"},{"city":"Trichy","state":"Tamil Nadu","latitude":10.7905,"longitude":78.7047,"temp":29.2,"humidity":74,"rain":0.0,"pressure":1000.3,"uv_index":6.95,"wind_gusts":47.9,"aqi":53,"pm10":22.5,"pm2_5":16.9,"no2":16.0,"co":221.0,"o3":47.0,"so2":4.7,"mosquito_risk":7,"arthritis_risk":5,"migraine_risk":4,"frizz_risk":1,"updated_at":"2026-07-18T21:30:16.656649+05:30"},{"city":"Salem","state":"Tamil Nadu","latitude":11.6643,"longitude":78.146,"temp":27.6,"humidity":77,"rain":0.0,"pressure":978.1,"uv_index":7.05,"wind_gusts":37.1,"aqi":66,"pm10":37.3,"pm2_5":23.3,"no2":25.9,"co":616.0,"o3":37.0,"so2":8.2,"mosquito_risk":7,"arthritis_risk":5,"migraine_risk":7,"frizz_risk":1,"updated_at":"2026-07-18T21:30:16.656657+05:30"},{"city":"Tirunelveli","state":"Tamil Nadu","latitude":8.7139,"longitude":77.7567,"temp":29.7,"humidity":57,"rain":0.0,"pressure":1004.4,"uv_index":8.65,"wind_gusts":54.4,"aqi":51,"pm10":7.9,"pm2_5":6.0,"no2":5.5,"co":137.0,"o3":43.0,"so2":1.8,"mosquito_risk":4,"arthritis_risk":5,"migraine_risk":4,"frizz_risk":1,"updated_at":"2026-07-18T21:30:16.656665+05:30"},{"city":"Vellore","state":"Tamil Nadu","latitude":12.9165,"longitude":79.1325,"temp":27.2,"humidity":85,"rain":0.1,"pressure":984.4,"uv_index":6.3,"wind_gusts":43.2,"aqi":58,"pm10":43.4,"pm2_5":25.8,"no2":22.6,"co":232.0,"o3":35.0,"so2":4.8,"mosquito_risk":10,"arthritis_risk":5,"migraine_risk":7,"frizz_risk":1,"updated_at":"2026-07-18T21:30:16.656673+05:30"},{"city":"Erode","state":"Tamil Nadu","latitude":11.341,"longitude":77.7172,"temp":27.9,"humidity":67,"rain":0.0,"pressure":990.0,"uv_index":6.7,"wind_gusts":39.2,"aqi":56,"pm10":20.7,"pm2_5":12.6,"no2":13.5,"co":188.0,"o3":41.0,"so2":3.7,"mosquito_risk":7,"arthritis_risk":5,"migraine_risk":7,"frizz_risk":1,"updated_at":"2026-07-18T21:30:16.656680+05:30"},{"city":"Kochi","state":"Kerala","latitude":9.9312,"longitude":76.2673,"temp":26.0,"humidity":91,"rain":0.0,"pressure":1011.3,"uv_index":7.75,"wind_gusts":36.7,"aqi":56,"pm10":21.8,"pm2_5":17.5,"no2":19.5,"co":170.0,"o3":21.0,"so2":4.6,"mosquito_risk":7,"arthritis_risk":0,"migraine_risk":4,"frizz_risk":1,"updated_at":"2026-07-18T21:30:16.656687+05:30"},{"city":"Thiruvananthapuram","state":"Kerala","latitude":8.5241,"longitude":76.9366,"temp":26.2,"humidity":85,"rain":0.0,"pressure":1010.6,"uv_index":8.45,"wind_gusts":49.3,"aqi":59,"pm10":15.3,"pm2_5":9.3,"no2":5.3,"co":152.0,"o3":44.0,"so2":1.6,"mosquito_risk":7,"arthritis_risk":0,"migraine_risk":4,"frizz_risk":1,"updated_at":"2026-07-18T21:30:16.656694+05:30"},{"city":"Kozhikode","state":"Kerala","latitude":11.2588,"longitude":75.7804,"temp":24.6,"humidity":96,"rain":0.0,"pressure":1010.5,"uv_index":7.8,"wind_gusts":34.2,"aqi":53,"pm10":15.5,"pm2_5":8.0,"no2":1.8,"co":176.0,"o3":51.0,"so2":1.2,"mosquito_risk":3,"arthritis_risk":0,"migraine_risk":4,"frizz_risk":1,"updated_at":"2026-07-18T21:30:16.656700+05:30"},{"city":"Thrissur","state":"Kerala","latitude":10.5276,"longitude":76.2144,"temp":25.3,"humidity":92,"rain":0.0,"pressure":1009.6,"uv_index":7.55,"wind_gusts":37.8,"aqi":57,"pm10":15.2,"pm2_5":12.1,"no2":11.4,"co":186.0,"o3":30.0,"so2":3.4,"mosquito_risk":7,"arthritis_risk":0,"migraine_risk":4,"frizz_risk":1,"updated_at":"2026-07-18T21:30:16.656707+05:30"},{"city":"Kannur","state":"Kerala","latitude":11.8745,"longitude":75.3704,"temp":24.2,"humidity":97,"rain":0.1,"pressure":1010.0,"uv_index":7.75,"wind_gusts":33.8,"aqi":53,"pm10":20.0,"pm2_5":13.9,"no2":16.5,"co":240.0,"o3":23.0,"so2":2.9,"mosquito_risk":6,"arthritis_risk":0,"migraine_risk":4,"frizz_risk":1,"updated_at":"2026-07-18T21:30:16.656714+05:30"},{"city":"Patna","state":"Bihar","latitude":25.5941,"longitude":85.1376,"temp":27.4,"humidity":96,"rain":0.3,"pressure":996.5,"uv_index":6.7,"wind_gusts":26.3,"aqi":81,"pm10":28.7,"pm2_5":28.6,"no2":16.0,"co":420.0,"o3":87.0,"so2":12.6,"mosquito_risk":10,"arthritis_risk":5,"migraine_risk":7,"frizz_risk":1,"updated_at":"2026-07-18T21:30:16.656721+05:30"},{"city":"Gaya","state":"Bihar","latitude":24.7914,"longitude":85.0002,"temp":26.8,"humidity":98,"rain":0.1,"pressure":989.7,"uv_index":6.65,"wind_gusts":25.9,"aqi":113,"pm10":35.0,"pm2_5":34.7,"no2":13.4,"co":473.0,"o3":82.0,"so2":8.0,"mosquito_risk":10,"arthritis_risk":5,"migraine_risk":7,"frizz_risk":1,"updated_at":"2026-07-18T21:30:16.656727+05:30"},{"city":"Muzaffarpur","state":"Bihar","latitude":26.1209,"longitude":85.3647,"temp":26.9,"humidity":96,"rain":0.3,"pressure":996.5,"uv_index":7.25,"wind_gusts":29.2,"aqi":76,"pm10":27.2,"pm2_5":27.1,"no2":15.4,"co":445.0,"o3":87.0,"so2":10.2,"mosquito_risk":10,"arthritis_risk":5,"migraine_risk":7,"frizz_risk":1,"updated_at":"2026-07-18T21:30:16.656733+05:30"},{"city":"Bhagalpur","state":"Bihar","latitude":25.2425,"longitude":87.0117,"temp":27.0,"humidity":95,"rain":0.3,"pressure":997.9,"uv_index":7.85,"wind_gusts":29.9,"aqi":77,"pm10":24.7,"pm2_5":24.3,"no2":14.0,"co":312.0,"o3":92.0,"so2":10.2,"mosquito_risk":10,"arthritis_risk":5,"migraine_risk":7,"frizz_risk":1,"updated_at":"2026-07-18T21:30:16.656739+05:30"},{"city":"Ranchi","state":"Jharkhand","latitude":23.3441,"longitude":85.3096,"temp":24.2,"humidity":96,"rain":0.1,"pressure":933.7,"uv_index":9.2,"wind_gusts":26.6,"aqi":70,"pm10":24.3,"pm2_5":24.1,"no2":12.8,"co":394.0,"o3":71.0,"so2":5.1,"mosquito_risk":6,"arthritis_risk":5,"migraine_risk":7,"frizz_risk":1,"updated_at":"2026-07-18T21:30:16.656746+05:30"},{"city":"Jamshedpur","state":"Jharkhand","latitude":22.8046,"longitude":86.2029,"temp":25.9,"humidity":97,"rain":0.0,"pressure":986.7,"uv_index":8.75,"wind_gusts":32.0,"aqi":88,"pm10":32.1,"pm2_5":31.2,"no2":18.9,"co":344.0,"o3":70.0,"so2":19.6,"mosquito_risk":7,"arthritis_risk":5,"migraine_risk":7,"frizz_risk":1,"updated_at":"2026-07-18T21:30:16.656753+05:30"},{"city":"Dhanbad","state":"Jharkhand","latitude":23.7957,"longitude":86.4304,"temp":25.7,"humidity":97,"rain":0.0,"pressure":975.8,"uv_index":7.6,"wind_gusts":25.9,"aqi":151,"pm10":61.0,"pm2_5":60.3,"no2":55.4,"co":362.0,"o3":47.0,"so2":119.4,"mosquito_risk":7,"arthritis_risk":5,"migraine_risk":7,"frizz_risk":1,"updated_at":"2026-07-18T21:30:16.656759+05:30"},{"city":"Bokaro","state":"Jharkhand","latitude":23.6693,"longitude":86.1511,"temp":26.2,"humidity":97,"rain":0.0,"pressure":979.8,"uv_index":7.7,"wind_gusts":19.1,"aqi":128,"pm10":57.7,"pm2_5":57.2,"no2":48.9,"co":1401.0,"o3":59.0,"so2":115.6,"mosquito_risk":7,"arthritis_risk":5,"migraine_risk":7,"frizz_risk":1,"updated_at":"2026-07-18T21:30:16.656766+05:30"},{"city":"Bhubaneswar","state":"Odisha","latitude":20.2961,"longitude":85.8245,"temp":26.3,"humidity":97,"rain":0.1,"pressure":999.3,"uv_index":8.55,"wind_gusts":34.9,"aqi":65,"pm10":30.2,"pm2_5":25.7,"no2":11.7,"co":415.0,"o3":93.0,"so2":6.4,"mosquito_risk":10,"arthritis_risk":5,"migraine_risk":7,"frizz_risk":1,"updated_at":"2026-07-18T21:30:16.656772+05:30"},{"city":"Cuttack","state":"Odisha","latitude":20.4625,"longitude":85.8828,"temp":26.3,"humidity":98,"rain":0.1,"pressure":1001.0,"uv_index":8.6,"wind_gusts":32.8,"aqi":65,"pm10":30.2,"pm2_5":25.7,"no2":11.7,"co":462.0,"o3":93.0,"so2":6.4,"mosquito_risk":10,"arthritis_risk":5,"migraine_risk":4,"frizz_risk":1,"updated_at":"2026-07-18T21:30:16.656779+05:30"},{"city":"Rourkela","state":"Odisha","latitude":22.2604,"longitude":84.8536,"temp":26.1,"humidity":97,"rain":0.0,"pressure":981.4,"uv_index":7.55,"wind_gusts":42.8,"aqi":81,"pm10":26.0,"pm2_5":24.6,"no2":11.3,"co":377.0,"o3":89.0,"so2":7.6,"mosquito_risk":7,"arthritis_risk":5,"migraine_risk":7,"frizz_risk":1,"updated_at":"2026-07-18T21:30:16.656786+05:30"},{"city":"Raipur","state":"Chhattisgarh","latitude":21.2514,"longitude":81.6296,"temp":25.0,"humidity":97,"rain":0.4,"pressure":971.7,"uv_index":7.05,"wind_gusts":42.8,"aqi":88,"pm10":36.3,"pm2_5":26.7,"no2":26.0,"co":591.0,"o3":59.0,"so2":29.2,"mosquito_risk":10,"arthritis_risk":5,"migraine_risk":7,"frizz_risk":1,"updated_at":"2026-07-18T21:30:16.656792+05:30"},{"city":"Bhilai","state":"Chhattisgarh","latitude":21.1938,"longitude":81.3509,"temp":25.0,"humidity":96,"rain":0.4,"pressure":972.2,"uv_index":6.2,"wind_gusts":36.4,"aqi":83,"pm10":33.8,"pm2_5":25.1,"no2":22.9,"co":580.0,"o3":55.0,"so2":25.9,"mosquito_risk":10,"arthritis_risk":5,"migraine_risk":7,"frizz_risk":1,"updated_at":"2026-07-18T21:30:16.656799+05:30"},{"city":"Guwahati","state":"Assam","latitude":26.1158,"longitude":91.7086,"temp":26.2,"humidity":99,"rain":0.0,"pressure":999.7,"uv_index":7.15,"wind_gusts":22.7,"aqi":52,"pm10":21.8,"pm2_5":20.8,"no2":15.5,"co":319.0,"o3":30.0,"so2":3.2,"mosquito_risk":7,"arthritis_risk":5,"migraine_risk":7,"frizz_risk":1,"updated_at":"2026-07-18T21:30:16.656805+05:30"},{"city":"Agartala","state":"Tripura","latitude":23.8315,"longitude":91.2868,"temp":27.5,"humidity":82,"rain":0.0,"pressure":1005.1,"uv_index":7.4,"wind_gusts":42.1,"aqi":55,"pm10":23.1,"pm2_5":17.6,"no2":8.3,"co":154.0,"o3":48.0,"so2":2.0,"mosquito_risk":7,"arthritis_risk":5,"migraine_risk":4,"frizz_risk":1,"updated_at":"2026-07-18T21:30:16.656812+05:30"},{"city":"Shillong","state":"Meghalaya","latitude":25.5788,"longitude":91.8933,"temp":21.0,"humidity":91,"rain":0.0,"pressure":857.1,"uv_index":2.9,"wind_gusts":41.4,"aqi":35,"pm10":3.0,"pm2_5":2.8,"no2":7.0,"co":175.0,"o3":58.0,"so2":2.0,"mosquito_risk":3,"arthritis_risk":5,"migraine_risk":3,"frizz_risk":1,"updated_at":"2026-07-18T21:30:16.656818+05:30"},{"city":"Imphal","state":"Manipur","latitude":24.817,"longitude":93.9368,"temp":23.9,"humidity":90,"rain":0.0,"pressure":922.4,"uv_index":4.05,"wind_gusts":31.0,"aqi":58,"pm10":21.8,"pm2_5":19.7,"no2":20.0,"co":521.0,"o3":22.0,"so2":3.4,"mosquito_risk":3,"arthritis_risk":5,"migraine_risk":3,"frizz_risk":1,"updated_at":"2026-07-18T21:30:16.656824+05:30"},{"city":"Aizawl","state":"Mizoram","latitude":23.7271,"longitude":92.7176,"temp":20.3,"humidity":89,"rain":0.0,"pressure":892.4,"uv_index":6.7,"wind_gusts":39.2,"aqi":52,"pm10":6.8,"pm2_5":5.2,"no2":3.3,"co":129.0,"o3":46.0,"so2":0.6,"mosquito_risk":3,"arthritis_risk":5,"migraine_risk":7,"frizz_risk":1,"updated_at":"2026-07-18T21:30:16.656831+05:30"},{"city":"Kohima","state":"Nagaland","latitude":25.6701,"longitude":94.1077,"temp":20.5,"humidity":96,"rain":0.0,"pressure":855.3,"uv_index":2.55,"wind_gusts":24.8,"aqi":36,"pm10":13.1,"pm2_5":10.9,"no2":12.6,"co":295.0,"o3":34.0,"so2":1.8,"mosquito_risk":3,"arthritis_risk":5,"migraine_risk":3,"frizz_risk":1,"updated_at":"2026-07-18T21:30:16.656837+05:30"},{"city":"Gangtok","state":"Sikkim","latitude":27.3314,"longitude":88.6138,"temp":19.1,"humidity":100,"rain":0.2,"pressure":837.7,"uv_index":4.15,"wind_gusts":25.6,"aqi":36,"pm10":3.8,"pm2_5":3.7,"no2":6.3,"co":258.0,"o3":85.0,"so2":1.5,"mosquito_risk":6,"arthritis_risk":10,"migraine_risk":3,"frizz_risk":1,"updated_at":"2026-07-18T21:30:16.656844+05:30"},{"city":"Siliguri","state":"West Bengal","latitude":26.7271,"longitude":88.3953,"temp":25.9,"humidity":92,"rain":0.0,"pressure":991.0,"uv_index":6.35,"wind_gusts":31.0,"aqi":59,"pm10":17.6,"pm2_5":16.9,"no2":11.4,"co":426.0,"o3":82.0,"so2":3.6,"mosquito_risk":7,"arthritis_risk":5,"migraine_risk":7,"frizz_risk":1,"updated_at":"2026-07-18T21:30:20.013901+05:30"},{"city":"Durgapur","state":"West Bengal","latitude":23.5204,"longitude":87.3119,"temp":26.9,"humidity":93,"rain":0.0,"pressure":991.3,"uv_index":8.55,"wind_gusts":30.2,"aqi":101,"pm10":39.1,"pm2_5":38.2,"no2":25.3,"co":373.0,"o3":71.0,"so2":29.5,"mosquito_risk":7,"arthritis_risk":5,"migraine_risk":7,"frizz_risk":1,"updated_at":"2026-07-18T21:30:20.013937+05:30"},{"city":"Asansol","state":"West Bengal","latitude":23.6739,"longitude":86.9524,"temp":26.8,"humidity":97,"rain":0.0,"pressure":989.7,"uv_index":8.3,"wind_gusts":31.0,"aqi":110,"pm10":32.1,"pm2_5":31.2,"no2":28.0,"co":599.0,"o3":65.0,"so2":31.0,"mosquito_risk":7,"arthritis_risk":5,"migraine_risk":7,"frizz_risk":1,"updated_at":"2026-07-18T21:30:20.013949+05:30"},{"city":"Pondicherry","state":"Puducherry","latitude":11.9139,"longitude":79.8145,"temp":26.9,"humidity":84,"rain":0.1,"pressure":1008.9,"uv_index":5.9,"wind_gusts":33.5,"aqi":71,"pm10":38.1,"pm2_5":24.9,"no2":17.5,"co":269.0,"o3":71.0,"so2":6.5,"mosquito_risk":10,"arthritis_risk":0,"migraine_risk":0,"frizz_risk":1,"updated_at":"2026-07-18T21:30:20.013958+05:30"},{"city":"Port Blair","state":"Andaman and Nicobar Islands","latitude":11.6234,"longitude":92.7265,"temp":27.0,"humidity":84,"rain":0.0,"pressure":1009.1,"uv_index":8.6,"wind_gusts":35.6,"aqi":50,"pm10":23.0,"pm2_5":10.9,"no2":0.3,"co":98.0,"o3":49.0,"so2":0.5,"mosquito_risk":7,"arthritis_risk":0,"migraine_risk":4,"frizz_risk":1,"updated_at":"2026-07-18T21:30:20.013967+05:30"},{"city":"Haridwar","state":"Uttarakhand","latitude":29.9457,"longitude":78.1642,"temp":28.2,"humidity":96,"rain":0.2,"pressure":968.8,"uv_index":7.5,"wind_gusts":28.1,"aqi":170,"pm10":104.1,"pm2_5":70.3,"no2":20.4,"co":424.0,"o3":68.0,"so2":11.1,"mosquito_risk":10,"arthritis_risk":5,"migraine_risk":7,"frizz_risk":1,"updated_at":"2026-07-18T21:30:20.013974+05:30"},{"city":"Rishikesh","state":"Uttarakhand","latitude":30.0869,"longitude":78.2676,"temp":27.7,"humidity":93,"rain":0.0,"pressure":961.4,"uv_index":7.0,"wind_gusts":28.8,"aqi":157,"pm10":99.4,"pm2_5":53.8,"no2":8.6,"co":410.0,"o3":101.0,"so2":8.5,"mosquito_risk":7,"arthritis_risk":5,"migraine_risk":7,"frizz_risk":1,"updated_at":"2026-07-18T21:30:20.013981+05:30"},{"city":"Nainital","state":"Uttarakhand","latitude":29.3919,"longitude":79.4542,"temp":18.1,"humidity":100,"rain":0.0,"pressure":803.9,"uv_index":7.0,"wind_gusts":25.6,"aqi":101,"pm10":51.3,"pm2_5":25.4,"no2":8.3,"co":305.0,"o3":114.0,"so2":6.5,"mosquito_risk":3,"arthritis_risk":10,"migraine_risk":7,"frizz_risk":1,"updated_at":"2026-07-18T21:30:20.013989+05:30"},{"city":"Mussoorie","state":"Uttarakhand","latitude":30.4599,"longitude":78.0664,"temp":19.0,"humidity":100,"rain":0.0,"pressure":801.7,"uv_index":6.7,"wind_gusts":33.5,"aqi":150,"pm10":77.1,"pm2_5":47.6,"no2":16.9,"co":325.0,"o3":96.0,"so2":9.7,"mosquito_risk":3,"arthritis_risk":10,"migraine_risk":7,"frizz_risk":1,"updated_at":"2026-07-18T21:30:20.013996+05:30"},{"city":"Dharamshala","state":"Himachal Pradesh","latitude":32.219,"longitude":76.3234,"temp":23.1,"humidity":98,"rain":0.0,"pressure":865.8,"uv_index":8.05,"wind_gusts":27.0,"aqi":51,"pm10":13.0,"pm2_5":9.3,"no2":11.8,"co":436.0,"o3":70.0,"so2":1.1,"mosquito_risk":3,"arthritis_risk":5,"migraine_risk":7,"frizz_risk":1,"updated_at":"2026-07-18T21:30:20.014003+05:30"},{"city":"Dalhousie","state":"Himachal Pradesh","latitude":32.5387,"longitude":75.971,"temp":19.9,"humidity":99,"rain":0.0,"pressure":802.9,"uv_index":8.1,"wind_gusts":22.3,"aqi":92,"pm10":49.8,"pm2_5":31.9,"no2":23.9,"co":757.0,"o3":81.0,"so2":3.2,"mosquito_risk":3,"arthritis_risk":10,"migraine_risk":7,"frizz_risk":1,"updated_at":"2026-07-18T21:30:20.014010+05:30"},{"city":"Patiala","state":"Punjab","latitude":30.3398,"longitude":76.3869,"temp":32.2,"humidity":71,"rain":0.0,"pressure":971.4,"uv_index":7.0,"wind_gusts":22.7,"aqi":222,"pm10":646.3,"pm2_5":179.7,"no2":62.9,"co":842.0,"o3":38.0,"so2":12.0,"mosquito_risk":3,"arthritis_risk":5,"migraine_risk":7,"frizz_risk":1,"updated_at":"2026-07-18T21:30:20.014018+05:30"},{"city":"Bhatinda","state":"Punjab","latitude":30.211,"longitude":74.9455,"temp":35.6,"humidity":47,"rain":0.0,"pressure":976.2,"uv_index":8.05,"wind_gusts":32.4,"aqi":176,"pm10":228.6,"pm2_5":122.9,"no2":64.3,"co":335.0,"o3":22.0,"so2":9.5,"mosquito_risk":0,"arthritis_risk":5,"migraine_risk":10,"frizz_risk":1,"updated_at":"2026-07-18T21:30:20.014024+05:30"},{"city":"Rohtak","state":"Haryana","latitude":28.8955,"longitude":76.6066,"temp":32.2,"humidity":60,"rain":0.0,"pressure":975.4,"uv_index":7.65,"wind_gusts":34.2,"aqi":842,"pm10":685.5,"pm2_5":157.9,"no2":43.6,"co":456.0,"o3":36.0,"so2":7.1,"mosquito_risk":0,"arthritis_risk":5,"migraine_risk":7,"frizz_risk":1,"updated_at":"2026-07-18T21:30:20.014031+05:30"},{"city":"Panipat","state":"Haryana","latitude":29.3909,"longitude":76.9635,"temp":31.0,"humidity":74,"rain":0.0,"pressure":973.9,"uv_index":7.55,"wind_gusts":28.4,"aqi":1192,"pm10":1359.7,"pm2_5":296.2,"no2":50.7,"co":512.0,"o3":33.0,"so2":11.6,"mosquito_risk":3,"arthritis_risk":5,"migraine_risk":7,"frizz_risk":1,"updated_at":"2026-07-18T21:30:20.014038+05:30"},{"city":"Mathura","state":"Uttar Pradesh","latitude":27.4924,"longitude":77.6737,"temp":31.4,"humidity":72,"rain":0.0,"pressure":981.1,"uv_index":7.85,"wind_gusts":31.0,"aqi":432,"pm10":236.1,"pm2_5":66.8,"no2":51.9,"co":564.0,"o3":24.0,"so2":6.7,"mosquito_risk":3,"arthritis_risk":5,"migraine_risk":7,"frizz_risk":1,"updated_at":"2026-07-18T21:30:20.014045+05:30"},{"city":"Vrindavan","state":"Uttar Pradesh","latitude":27.5823,"longitude":77.7027,"temp":31.3,"humidity":73,"rain":0.0,"pressure":981.6,"uv_index":7.55,"wind_gusts":30.6,"aqi":432,"pm10":236.1,"pm2_5":66.8,"no2":51.9,"co":579.0,"o3":24.0,"so2":6.7,"mosquito_risk":3,"arthritis_risk":5,"migraine_risk":7,"frizz_risk":1,"updated_at":"2026-07-18T21:30:20.014052+05:30"},{"city":"Ayodhya","state":"Uttar Pradesh","latitude":26.7922,"longitude":82.1998,"temp":28.9,"humidity":87,"rain":0.0,"pressure":990.9,"uv_index":6.85,"wind_gusts":20.9,"aqi":94,"pm10":34.1,"pm2_5":33.8,"no2":22.9,"co":616.0,"o3":58.0,"so2":6.6,"mosquito_risk":7,"arthritis_risk":5,"migraine_risk":7,"frizz_risk":1,"updated_at":"2026-07-18T21:30:20.014058+05:30"},{"city":"Ratlam","state":"Madhya Pradesh","latitude":23.3315,"longitude":75.0367,"temp":26.5,"humidity":84,"rain":0.0,"pressure":951.7,"uv_index":7.4,"wind_gusts":37.8,"aqi":71,"pm10":21.5,"pm2_5":15.6,"no2":5.8,"co":168.0,"o3":81.0,"so2":5.7,"mosquito_risk":7,"arthritis_risk":5,"migraine_risk":7,"frizz_risk":1,"updated_at":"2026-07-18T21:30:20.014065+05:30"},{"city":"Sagar","state":"Madhya Pradesh","latitude":23.8388,"longitude":78.7378,"temp":25.3,"humidity":99,"rain":0.3,"pressure":947.4,"uv_index":7.25,"wind_gusts":37.8,"aqi":87,"pm10":55.6,"pm2_5":33.8,"no2":9.0,"co":237.0,"o3":67.0,"so2":4.2,"mosquito_risk":10,"arthritis_risk":5,"migraine_risk":7,"frizz_risk":1,"updated_at":"2026-07-18T21:30:20.014072+05:30"},{"city":"Satna","state":"Madhya Pradesh","latitude":24.6005,"longitude":80.8322,"temp":26.2,"humidity":95,"rain":0.1,"pressure":967.3,"uv_index":8.1,"wind_gusts":34.9,"aqi":105,"pm10":50.9,"pm2_5":30.9,"no2":12.7,"co":252.0,"o3":58.0,"so2":2.8,"mosquito_risk":10,"arthritis_risk":5,"migraine_risk":7,"frizz_risk":1,"updated_at":"2026-07-18T21:30:20.014078+05:30"},{"city":"Akola","state":"Maharashtra","latitude":20.7002,"longitude":77.0082,"temp":26.2,"humidity":90,"rain":0.2,"pressure":973.5,"uv_index":5.35,"wind_gusts":32.8,"aqi":56,"pm10":13.6,"pm2_5":9.8,"no2":9.2,"co":193.0,"o3":53.0,"so2":9.1,"mosquito_risk":10,"arthritis_risk":5,"migraine_risk":3,"frizz_risk":1,"updated_at":"2026-07-18T21:30:20.014086+05:30"},{"city":"Amravati","state":"Maharashtra","latitude":20.9374,"longitude":77.7796,"temp":25.1,"humidity":94,"rain":0.1,"pressure":965.3,"uv_index":2.85,"wind_gusts":39.6,"aqi":58,"pm10":18.4,"pm2_5":12.4,"no2":10.3,"co":190.0,"o3":54.0,"so2":11.0,"mosquito_risk":10,"arthritis_risk":5,"migraine_risk":3,"frizz_risk":1,"updated_at":"2026-07-18T21:30:20.014093+05:30"},{"city":"Latur","state":"Maharashtra","latitude":18.4088,"longitude":76.5604,"temp":23.6,"humidity":92,"rain":0.1,"pressure":939.0,"uv_index":2.05,"wind_gusts":34.9,"aqi":50,"pm10":17.3,"pm2_5":11.8,"no2":6.9,"co":181.0,"o3":49.0,"so2":3.5,"mosquito_risk":6,"arthritis_risk":5,"migraine_risk":3,"frizz_risk":1,"updated_at":"2026-07-18T21:30:20.014101+05:30"},{"city":"Nanded","state":"Maharashtra","latitude":19.1383,"longitude":77.3091,"temp":24.6,"humidity":96,"rain":0.2,"pressure":967.7,"uv_index":1.4,"wind_gusts":38.9,"aqi":57,"pm10":20.0,"pm2_5":12.8,"no2":5.5,"co":192.0,"o3":63.0,"so2":4.1,"mosquito_risk":6,"arthritis_risk":5,"migraine_risk":3,"frizz_risk":1,"updated_at":"2026-07-18T21:30:20.014108+05:30"},{"city":"Gulbarga","state":"Karnataka","latitude":17.3297,"longitude":76.8343,"temp":23.7,"humidity":94,"rain":0.0,"pressure":958.3,"uv_index":2.35,"wind_gusts":38.2,"aqi":44,"pm10":11.2,"pm2_5":8.0,"no2":11.9,"co":190.0,"o3":36.0,"so2":3.4,"mosquito_risk":3,"arthritis_risk":5,"migraine_risk":3,"frizz_risk":1,"updated_at":"2026-07-18T21:30:20.014130+05:30"},{"city":"Bidar","state":"Karnataka","latitude":17.9104,"longitude":77.5199,"temp":23.0,"humidity":92,"rain":0.0,"pressure":934.5,"uv_index":1.95,"wind_gusts":38.9,"aqi":54,"pm10":17.9,"pm2_5":12.4,"no2":12.8,"co":200.0,"o3":40.0,"so2":3.4,"mosquito_risk":3,"arthritis_risk":5,"migraine_risk":3,"frizz_risk":1,"updated_at":"2026-07-18T21:30:20.014137+05:30"},{"city":"Hospet","state":"Karnataka","latitude":15.2689,"longitude":76.3909,"temp":23.5,"humidity":94,"rain":0.0,"pressure":956.3,"uv_index":5.8,"wind_gusts":48.6,"aqi":32,"pm10":8.0,"pm2_5":6.1,"no2":8.5,"co":171.0,"o3":36.0,"so2":1.9,"mosquito_risk":3,"arthritis_risk":5,"migraine_risk":3,"frizz_risk":1,"updated_at":"2026-07-18T21:30:20.014144+05:30"},{"city":"Tirupur","state":"Tamil Nadu","latitude":11.1085,"longitude":77.3411,"temp":25.4,"humidity":78,"rain":0.0,"pressure":976.2,"uv_index":7.15,"wind_gusts":43.9,"aqi":58,"pm10":24.0,"pm2_5":14.9,"no2":17.3,"co":172.0,"o3":34.0,"so2":5.0,"mosquito_risk":7,"arthritis_risk":5,"migraine_risk":7,"frizz_risk":1,"updated_at":"2026-07-18T21:30:20.014150+05:30"},{"city":"Alappuzha","state":"Kerala","latitude":9.4981,"longitude":76.3388,"temp":25.7,"humidity":93,"rain":0.0,"pressure":1011.4,"uv_index":7.9,"wind_gusts":40.7,"aqi":56,"pm10":16.8,"pm2_5":10.9,"no2":11.6,"co":87.0,"o3":36.0,"so2":3.0,"mosquito_risk":7,"arthritis_risk":0,"migraine_risk":4,"frizz_risk":1,"updated_at":"2026-07-18T21:30:20.014157+05:30"},{"city":"Munnar","state":"Kerala","latitude":10.0889,"longitude":77.0595,"temp":16.4,"humidity":98,"rain":0.0,"pressure":857.8,"uv_index":7.15,"wind_gusts":42.5,"aqi":27,"pm10":9.3,"pm2_5":7.1,"no2":9.0,"co":129.0,"o3":34.0,"so2":2.2,"mosquito_risk":3,"arthritis_risk":10,"migraine_risk":7,"frizz_risk":1,"updated_at":"2026-07-18T21:30:20.014164+05:30"},{"city":"Silchar","state":"Assam","latitude":24.8333,"longitude":92.7789,"temp":26.4,"humidity":95,"rain":0.0,"pressure":1004.4,"uv_index":8.4,"wind_gusts":29.2,"aqi":65,"pm10":21.1,"pm2_5":17.0,"no2":6.6,"co":294.0,"o3":61.0,"so2":4.4,"mosquito_risk":7,"arthritis_risk":5,"migraine_risk":4,"frizz_risk":1,"updated_at":"2026-07-18T21:30:20.014171+05:30"},{"city":"Dibrugarh","state":"Assam","latitude":27.4728,"longitude":94.912,"temp":25.3,"humidity":99,"rain":0.1,"pressure":993.2,"uv_index":1.8,"wind_gusts":33.8,"aqi":59,"pm10":14.4,"pm2_5":13.8,"no2":10.2,"co":210.0,"o3":50.0,"so2":1.7,"mosquito_risk":10,"arthritis_risk":5,"migraine_risk":3,"frizz_risk":1,"updated_at":"2026-07-18T21:30:20.014179+05:30"}]