[{"city":"Delhi","state":"Delhi","latitude":28.6139,"longitude":77.209,"temp":40.0,"humidity":21,"rain":0.0,"pressure":979.9,"uv_index":7.7,"wind_gusts":49.0,"aqi":546,"pm10":355.8,"pm2_5":71.2,"no2":3.7,"co":310.0,"o3":168.0,"so2":14.7,"mosquito_risk":0,"arthritis_risk":5,"migraine_risk":10,"frizz_risk":0,"updated_at":"2026-05-17T12:17:24.089855+05:30"},{"city":"Mumbai","state":"Maharashtra","latitude":19.076,"longitude":72.8777,"temp":33.5,"humidity":61,"rain":0.0,"pressure":1006.3,"uv_index":7.45,"wind_gusts":45.0,"aqi":60,"pm10":37.1,"pm2_5":19.4,"no2":3.9,"co":182.0,"o3":109.0,"so2":7.8,"mosquito_risk":3,"arthritis_risk":5,"migraine_risk":4,"frizz_risk":1,"updated_at":"2026-05-17T12:17:24.089908+05:30"},{"city":"Bangalore","state":"Karnataka","latitude":12.9716,"longitude":77.5946,"temp":33.2,"humidity":31,"rain":0.0,"pressure":910.9,"uv_index":9.45,"wind_gusts":36.7,"aqi":119,"pm10":40.3,"pm2_5":22.1,"no2":3.1,"co":297.0,"o3":147.0,"so2":7.9,"mosquito_risk":0,"arthritis_risk":5,"migraine_risk":7,"frizz_risk":0,"updated_at":"2026-05-17T12:17:24.089925+05:30"},{"city":"Hyderabad","state":"Telangana","latitude":17.385,"longitude":78.4867,"temp":37.2,"humidity":33,"rain":0.1,"pressure":951.6,"uv_index":9.3,"wind_gusts":25.9,"aqi":82,"pm10":41.8,"pm2_5":20.4,"no2":1.6,"co":276.0,"o3":127.0,"so2":4.4,"mosquito_risk":3,"arthritis_risk":5,"migraine_risk":10,"frizz_risk":1,"updated_at":"2026-05-17T12:17:24.089936+05:30"},{"city":"Chennai","state":"Tamil Nadu","latitude":13.0827,"longitude":80.2707,"temp":35.2,"humidity":49,"rain":0.0,"pressure":1003.8,"uv_index":9.15,"wind_gusts":40.7,"aqi":53,"pm10":29.6,"pm2_5":20.1,"no2":2.8,"co":256.0,"o3":132.0,"so2":9.9,"mosquito_risk":0,"arthritis_risk":5,"migraine_risk":7,"frizz_risk":1,"updated_at":"2026-05-17T12:17:24.089945+05:30"},{"city":"Kolkata","state":"West Bengal","latitude":22.5726,"longitude":88.3639,"temp":36.2,"humidity":57,"rain":0.0,"pressure":1001.9,"uv_index":8.95,"wind_gusts":37.4,"aqi":61,"pm10":34.6,"pm2_5":21.4,"no2":2.2,"co":266.0,"o3":126.0,"so2":8.5,"mosquito_risk":0,"arthritis_risk":5,"migraine_risk":7,"frizz_risk":1,"updated_at":"2026-05-17T12:17:24.089954+05:30"},{"city":"Pune","state":"Maharashtra","latitude":18.5204,"longitude":73.8567,"temp":37.0,"humidity":28,"rain":0.0,"pressure":947.1,"uv_index":8.5,"wind_gusts":38.9,"aqi":67,"pm10":39.6,"pm2_5":21.2,"no2":2.6,"co":193.0,"o3":156.0,"so2":14.2,"mosquito_risk":0,"arthritis_risk":5,"migraine_risk":10,"frizz_risk":0,"updated_at":"2026-05-17T12:17:24.089962+05:30"},{"city":"Ahmedabad","state":"Gujarat","latitude":23.0225,"longitude":72.5714,"temp":40.5,"humidity":23,"rain":0.0,"pressure":999.6,"uv_index":8.15,"wind_gusts":30.2,"aqi":61,"pm10":66.6,"pm2_5":23.5,"no2":1.5,"co":158.0,"o3":105.0,"so2":5.1,"mosquito_risk":0,"arthritis_risk":5,"migraine_risk":10,"frizz_risk":0,"updated_at":"2026-05-17T12:17:24.089969+05:30"},{"city":"Jaipur","state":"Rajasthan","latitude":26.9124,"longitude":75.7873,"temp":40.2,"humidity":15,"rain":0.0,"pressure":958.8,"uv_index":8.25,"wind_gusts":38.5,"aqi":136,"pm10":193.2,"pm2_5":38.8,"no2":1.2,"co":208.0,"o3":141.0,"so2":6.8,"mosquito_risk":0,"arthritis_risk":5,"migraine_risk":10,"frizz_risk":0,"updated_at":"2026-05-17T12:17:24.089983+05:30"},{"city":"Lucknow","state":"Uttar Pradesh","latitude":26.8467,"longitude":80.9462,"temp":40.2,"humidity":21,"rain":0.0,"pressure":989.4,"uv_index":8.2,"wind_gusts":46.4,"aqi":152,"pm10":129.9,"pm2_5":41.3,"no2":1.7,"co":253.0,"o3":173.0,"so2":10.9,"mosquito_risk":0,"arthritis_risk":5,"migraine_risk":10,"frizz_risk":0,"updated_at":"2026-05-17T12:17:24.089992+05:30"},{"city":"Kanpur","state":"Uttar Pradesh","latitude":26.4499,"longitude":80.3319,"temp":41.3,"humidity":17,"rain":0.0,"pressure":988.0,"uv_index":8.2,"wind_gusts":47.2,"aqi":156,"pm10":340.9,"pm2_5":59.4,"no2":1.4,"co":231.0,"o3":161.0,"so2":8.4,"mosquito_risk":0,"arthritis_risk":5,"migraine_risk":10,"frizz_risk":0,"updated_at":"2026-05-17T12:17:24.090000+05:30"},{"city":"Chandigarh","state":"Chandigarh","latitude":30.7333,"longitude":76.7794,"temp":36.6,"humidity":23,"rain":0.0,"pressure":965.6,"uv_index":7.7,"wind_gusts":45.4,"aqi":75,"pm10":24.8,"pm2_5":14.0,"no2":1.8,"co":237.0,"o3":163.0,"so2":8.9,"mosquito_risk":0,"arthritis_risk":5,"migraine_risk":10,"frizz_risk":0,"updated_at":"2026-05-17T12:17:24.090008+05:30"},{"city":"Srinagar","state":"Jammu and Kashmir","latitude":34.0837,"longitude":74.7973,"temp":23.8,"humidity":44,"rain":0.0,"pressure":844.1,"uv_index":8.9,"wind_gusts":16.2,"aqi":80,"pm10":19.4,"pm2_5":12.5,"no2":1.4,"co":314.0,"o3":136.0,"so2":2.9,"mosquito_risk":0,"arthritis_risk":5,"migraine_risk":7,"frizz_risk":0,"updated_at":"2026-05-17T12:17:24.090016+05:30"},{"city":"Jammu","state":"Jammu and Kashmir","latitude":32.7266,"longitude":74.857,"temp":36.7,"humidity":24,"rain":0.0,"pressure":969.4,"uv_index":8.5,"wind_gusts":39.6,"aqi":63,"pm10":21.5,"pm2_5":11.7,"no2":1.5,"co":213.0,"o3":152.0,"so2":3.0,"mosquito_risk":0,"arthritis_risk":5,"migraine_risk":10,"frizz_risk":0,"updated_at":"2026-05-17T12:17:24.090025+05:30"},{"city":"Amritsar","state":"Punjab","latitude":31.634,"longitude":74.8723,"temp":38.1,"humidity":23,"rain":0.0,"pressure":977.4,"uv_index":8.4,"wind_gusts":34.2,"aqi":102,"pm10":42.4,"pm2_5":18.9,"no2":1.8,"co":318.0,"o3":160.0,"so2":7.9,"mosquito_risk":0,"arthritis_risk":5,"migraine_risk":10,"frizz_risk":0,"updated_at":"2026-05-17T12:17:24.090033+05:30"},{"city":"Ludhiana","state":"Punjab","latitude":30.901,"longitude":75.8573,"temp":37.8,"humidity":22,"rain":0.0,"pressure":975.7,"uv_index":8.0,"wind_gusts":37.1,"aqi":90,"pm10":35.9,"pm2_5":16.9,"no2":1.3,"co":298.0,"o3":154.0,"so2":4.4,"mosquito_risk":0,"arthritis_risk":5,"migraine_risk":10,"frizz_risk":0,"updated_at":"2026-05-17T12:17:24.090041+05:30"},{"city":"Jalandhar","state":"Punjab","latitude":31.326,"longitude":75.5762,"temp":37.1,"humidity":28,"rain":0.0,"pressure":976.6,"uv_index":8.15,"wind_gusts":34.9,"aqi":107,"pm10":56.6,"pm2_5":21.9,"no2":1.4,"co":343.0,"o3":158.0,"so2":4.8,"mosquito_risk":0,"arthritis_risk":5,"migraine_risk":10,"frizz_risk":0,"updated_at":"2026-05-17T12:17:24.090048+05:30"},{"city":"Dehradun","state":"Uttarakhand","latitude":30.6284,"longitude":78.0322,"temp":26.2,"humidity":37,"rain":0.0,"pressure":831.5,"uv_index":8.15,"wind_gusts":45.0,"aqi":59,"pm10":30.9,"pm2_5":11.6,"no2":0.6,"co":163.0,"o3":130.0,"so2":0.6,"mosquito_risk":4,"arthritis_risk":5,"migraine_risk":7,"frizz_risk":0,"updated_at":"2026-05-17T12:17:24.090055+05:30"},{"city":"Shimla","state":"Himachal Pradesh","latitude":31.1048,"longitude":77.1734,"temp":24.1,"humidity":23,"rain":0.0,"pressure":787.6,"uv_index":8.25,"wind_gusts":52.2,"aqi":64,"pm10":17.9,"pm2_5":8.7,"no2":0.6,"co":163.0,"o3":141.0,"so2":1.5,"mosquito_risk":0,"arthritis_risk":5,"migraine_risk":7,"frizz_risk":0,"updated_at":"2026-05-17T12:17:24.090067+05:30"},{"city":"Manali","state":"Himachal Pradesh","latitude":32.2396,"longitude":77.1887,"temp":24.1,"humidity":30,"rain":0.0,"pressure":818.9,"uv_index":9.85,"wind_gusts":37.8,"aqi":81,"pm10":12.8,"pm2_5":6.3,"no2":1.7,"co":169.0,"o3":146.0,"so2":0.4,"mosquito_risk":0,"arthritis_risk":5,"migraine_risk":7,"frizz_risk":0,"updated_at":"2026-05-17T12:17:24.090075+05:30"},{"city":"Gurgaon","state":"Haryana","latitude":28.4595,"longitude":77.0266,"temp":39.5,"humidity":22,"rain":0.0,"pressure":978.7,"uv_index":7.8,"wind_gusts":47.5,"aqi":846,"pm10":1106.4,"pm2_5":148.5,"no2":3.6,"co":295.0,"o3":171.0,"so2":13.8,"mosquito_risk":0,"arthritis_risk":5,"migraine_risk":10,"frizz_risk":0,"updated_at":"2026-05-17T12:17:24.090082+05:30"},{"city":"Noida","state":"Uttar Pradesh","latitude":28.5355,"longitude":77.391,"temp":39.2,"humidity":24,"rain":0.0,"pressure":981.1,"uv_index":7.75,"wind_gusts":38.9,"aqi":846,"pm10":1106.4,"pm2_5":148.5,"no2":3.6,"co":337.0,"o3":171.0,"so2":13.8,"mosquito_risk":0,"arthritis_risk":5,"migraine_risk":10,"frizz_risk":0,"updated_at":"2026-05-17T12:17:24.090088+05:30"},{"city":"Ghaziabad","state":"Uttar Pradesh","latitude":28.6692,"longitude":77.4538,"temp":38.7,"humidity":24,"rain":0.0,"pressure":979.4,"uv_index":7.7,"wind_gusts":44.3,"aqi":395,"pm10":269.2,"pm2_5":63.1,"no2":3.6,"co":308.0,"o3":182.0,"so2":17.9,"mosquito_risk":0,"arthritis_risk":5,"migraine_risk":10,"frizz_risk":0,"updated_at":"2026-05-17T12:17:24.090094+05:30"},{"city":"Faridabad","state":"Haryana","latitude":28.4089,"longitude":77.3178,"temp":39.7,"humidity":21,"rain":0.0,"pressure":980.5,"uv_index":7.75,"wind_gusts":49.7,"aqi":846,"pm10":1106.4,"pm2_5":148.5,"no2":3.6,"co":318.0,"o3":171.0,"so2":13.8,"mosquito_risk":0,"arthritis_risk":5,"migraine_risk":10,"frizz_risk":0,"updated_at":"2026-05-17T12:17:24.090103+05:30"},{"city":"Meerut","state":"Uttar Pradesh","latitude":28.9845,"longitude":77.7064,"temp":37.9,"humidity":25,"rain":0.0,"pressure":978.4,"uv_index":7.65,"wind_gusts":47.5,"aqi":395,"pm10":269.2,"pm2_5":63.1,"no2":3.6,"co":277.0,"o3":182.0,"so2":17.9,"mosquito_risk":0,"arthritis_risk":5,"migraine_risk":10,"frizz_risk":0,"updated_at":"2026-05-17T12:17:24.090110+05:30"},{"city":"Agra","state":"Uttar Pradesh","latitude":27.1767,"longitude":78.0081,"temp":40.0,"humidity":20,"rain":0.0,"pressure":985.0,"uv_index":8.05,"wind_gusts":41.8,"aqi":706,"pm10":532.7,"pm2_5":98.7,"no2":2.5,"co":280.0,"o3":186.0,"so2":17.5,"mosquito_risk":0,"arthritis_risk":5,"migraine_risk":10,"frizz_risk":0,"updated_at":"2026-05-17T12:17:24.090116+05:30"},{"city":"Varanasi","state":"Uttar Pradesh","latitude":25.3176,"longitude":82.9739,"temp":42.0,"humidity":16,"rain":0.0,"pressure":992.8,"uv_index":8.7,"wind_gusts":51.1,"aqi":153,"pm10":191.9,"pm2_5":48.4,"no2":1.8,"co":291.0,"o3":169.0,"so2":12.6,"mosquito_risk":0,"arthritis_risk":5,"migraine_risk":10,"frizz_risk":0,"updated_at":"2026-05-17T12:17:24.090123+05:30"},{"city":"Prayagraj","state":"Uttar Pradesh","latitude":25.4358,"longitude":81.8463,"temp":42.0,"humidity":16,"rain":0.0,"pressure":991.7,"uv_index":8.6,"wind_gusts":42.1,"aqi":153,"pm10":332.5,"pm2_5":64.7,"no2":1.9,"co":246.0,"o3":171.0,"so2":13.7,"mosquito_risk":0,"arthritis_risk":5,"migraine_risk":10,"frizz_risk":0,"updated_at":"2026-05-17T12:17:24.090130+05:30"},{"city":"Gorakhpur","state":"Uttar Pradesh","latitude":26.7606,"longitude":83.3732,"temp":37.6,"humidity":30,"rain":0.0,"pressure":992.2,"uv_index":8.6,"wind_gusts":43.2,"aqi":149,"pm10":101.5,"pm2_5":51.6,"no2":2.3,"co":412.0,"o3":204.0,"so2":14.2,"mosquito_risk":0,"arthritis_risk":5,"migraine_risk":10,"frizz_risk":1,"updated_at":"2026-05-17T12:17:24.090139+05:30"},{"city":"Bareilly","state":"Uttar Pradesh","latitude":28.367,"longitude":79.4304,"temp":36.8,"humidity":29,"rain":0.0,"pressure":982.9,"uv_index":8.0,"wind_gusts":41.4,"aqi":121,"pm10":51.2,"pm2_5":31.2,"no2":2.3,"co":283.0,"o3":182.0,"so2":12.6,"mosquito_risk":0,"arthritis_risk":5,"migraine_risk":10,"frizz_risk":0,"updated_at":"2026-05-17T12:17:24.090161+05:30"},{"city":"Aligarh","state":"Uttar Pradesh","latitude":27.8974,"longitude":78.088,"temp":38.6,"humidity":25,"rain":0.0,"pressure":982.5,"uv_index":7.9,"wind_gusts":45.0,"aqi":570,"pm10":573.7,"pm2_5":97.1,"no2":3.2,"co":308.0,"o3":185.0,"so2":19.7,"mosquito_risk":0,"arthritis_risk":5,"migraine_risk":10,"frizz_risk":0,"updated_at":"2026-05-17T12:17:24.090168+05:30"},{"city":"Moradabad","state":"Uttar Pradesh","latitude":28.8386,"longitude":78.7733,"temp":37.5,"humidity":26,"rain":0.0,"pressure":980.0,"uv_index":7.85,"wind_gusts":47.5,"aqi":150,"pm10":68.2,"pm2_5":36.6,"no2":2.7,"co":308.0,"o3":180.0,"so2":12.3,"mosquito_risk":0,"arthritis_risk":5,"migraine_risk":10,"frizz_risk":0,"updated_at":"2026-05-17T12:17:24.090175+05:30"},{"city":"Saharanpur","state":"Uttar Pradesh","latitude":29.9637,"longitude":77.546,"temp":36.2,"humidity":26,"rain":0.0,"pressure":972.1,"uv_index":7.35,"wind_gusts":49.7,"aqi":99,"pm10":49.2,"pm2_5":20.8,"no2":2.6,"co":237.0,"o3":170.0,"so2":11.8,"mosquito_risk":0,"arthritis_risk":5,"migraine_risk":10,"frizz_risk":0,"updated_at":"2026-05-17T12:17:24.090182+05:30"},{"city":"Jhansi","state":"Uttar Pradesh","latitude":25.4484,"longitude":78.5685,"temp":41.3,"humidity":16,"rain":0.0,"pressure":975.5,"uv_index":8.45,"wind_gusts":33.5,"aqi":114,"pm10":439.6,"pm2_5":69.6,"no2":1.4,"co":210.0,"o3":149.0,"so2":11.3,"mosquito_risk":0,"arthritis_risk":5,"migraine_risk":10,"frizz_risk":0,"updated_at":"2026-05-17T12:17:27.336122+05:30"},{"city":"Surat","state":"Gujarat","latitude":21.1702,"longitude":72.8311,"temp":40.4,"humidity":26,"rain":0.0,"pressure":1003.8,"uv_index":7.75,"wind_gusts":38.5,"aqi":87,"pm10":81.3,"pm2_5":42.7,"no2":24.0,"co":145.0,"o3":108.0,"so2":66.0,"mosquito_risk":0,"arthritis_risk":5,"migraine_risk":7,"frizz_risk":1,"updated_at":"2026-05-17T12:17:27.336177+05:30"},{"city":"Vadodara","state":"Gujarat","latitude":22.3072,"longitude":73.1812,"temp":41.0,"humidity":22,"rain":0.0,"pressure":1001.4,"uv_index":8.1,"wind_gusts":31.3,"aqi":72,"pm10":59.8,"pm2_5":24.0,"no2":2.3,"co":175.0,"o3":123.0,"so2":9.7,"mosquito_risk":0,"arthritis_risk":5,"migraine_risk":7,"frizz_risk":0,"updated_at":"2026-05-17T12:17:27.336188+05:30"},{"city":"Rajkot","state":"Gujarat","latitude":22.3039,"longitude":70.8022,"temp":38.8,"humidity":25,"rain":0.0,"pressure":992.9,"uv_index":7.15,"wind_gusts":41.4,"aqi":53,"pm10":59.8,"pm2_5":20.5,"no2":1.3,"co":126.0,"o3":102.0,"so2":4.6,"mosquito_risk":0,"arthritis_risk":5,"migraine_risk":10,"frizz_risk":0,"updated_at":"2026-05-17T12:17:27.336197+05:30"},{"city":"Thane","state":"Maharashtra","latitude":19.2183,"longitude":72.9781,"temp":37.5,"humidity":44,"rain":0.0,"pressure":1005.0,"uv_index":7.55,"wind_gusts":38.9,"aqi":60,"pm10":37.1,"pm2_5":19.4,"no2":3.9,"co":169.0,"o3":109.0,"so2":7.8,"mosquito_risk":0,"arthritis_risk":5,"migraine_risk":7,"frizz_risk":1,"updated_at":"2026-05-17T12:17:27.336205+05:30"},{"city":"Nagpur","state":"Maharashtra","latitude":21.1458,"longitude":79.0882,"temp":41.5,"humidity":20,"rain":0.0,"pressure":970.7,"uv_index":8.95,"wind_gusts":34.2,"aqi":111,"pm10":38.1,"pm2_5":28.2,"no2":8.5,"co":235.0,"o3":149.0,"so2":34.3,"mosquito_risk":0,"arthritis_risk":5,"migraine_risk":10,"frizz_risk":0,"updated_at":"2026-05-17T12:17:27.336212+05:30"},{"city":"Nashik","state":"Maharashtra","latitude":19.9975,"longitude":73.7898,"temp":37.3,"humidity":26,"rain":0.0,"pressure":944.8,"uv_index":8.2,"wind_gusts":42.1,"aqi":62,"pm10":36.1,"pm2_5":15.1,"no2":1.1,"co":140.0,"o3":110.0,"so2":3.9,"mosquito_risk":0,"arthritis_risk":5,"migraine_risk":10,"frizz_risk":0,"updated_at":"2026-05-17T12:17:27.336219+05:30"},{"city":"Aurangabad","state":"Maharashtra","latitude":19.8762,"longitude":75.3433,"temp":39.2,"humidity":17,"rain":0.0,"pressure":943.2,"uv_index":9.05,"wind_gusts":41.0,"aqi":57,"pm10":29.3,"pm2_5":14.6,"no2":1.3,"co":166.0,"o3":141.0,"so2":8.4,"mosquito_risk":0,"arthritis_risk":5,"migraine_risk":10,"frizz_risk":0,"updated_at":"2026-05-17T12:17:27.336226+05:30"},{"city":"Solapur","state":"Maharashtra","latitude":17.6599,"longitude":75.9064,"temp":40.6,"humidity":19,"rain":0.0,"pressure":954.8,"uv_index":9.1,"wind_gusts":34.2,"aqi":81,"pm10":35.7,"pm2_5":27.0,"no2":2.1,"co":200.0,"o3":174.0,"so2":9.9,"mosquito_risk":0,"arthritis_risk":5,"migraine_risk":10,"frizz_risk":0,"updated_at":"2026-05-17T12:17:27.336234+05:30"},{"city":"Kolhapur","state":"Maharashtra","latitude":16.705,"longitude":74.2433,"temp":36.5,"humidity":36,"rain":0.0,"pressure":946.4,"uv_index":8.95,"wind_gusts":45.4,"aqi":60,"pm10":28.3,"pm2_5":18.2,"no2":1.7,"co":191.0,"o3":140.0,"so2":7.5,"mosquito_risk":0,"arthritis_risk":5,"migraine_risk":10,"frizz_risk":1,"updated_at":"2026-05-17T12:17:27.336241+05:30"},{"city":"Goa","state":"Goa","latitude":15.2993,"longitude":74.124,"temp":35.2,"humidity":53,"rain":0.0,"pressure":995.2,"uv_index":8.9,"wind_gusts":42.8,"aqi":56,"pm10":30.3,"pm2_5":14.3,"no2":0.7,"co":150.0,"o3":78.0,"so2":1.7,"mosquito_risk":0,"arthritis_risk":5,"migraine_risk":10,"frizz_risk":1,"updated_at":"2026-05-17T12:17:27.336249+05:30"},{"city":"Jodhpur","state":"Rajasthan","latitude":26.2389,"longitude":73.0243,"temp":41.2,"humidity":18,"rain":0.0,"pressure":981.2,"uv_index":8.4,"wind_gusts":29.2,"aqi":88,"pm10":81.5,"pm2_5":18.8,"no2":0.7,"co":144.0,"o3":116.0,"so2":4.6,"mosquito_risk":0,"arthritis_risk":5,"migraine_risk":10,"frizz_risk":0,"updated_at":"2026-05-17T12:17:27.336257+05:30"},{"city":"Udaipur","state":"Rajasthan","latitude":24.5854,"longitude":73.7125,"temp":38.3,"humidity":20,"rain":0.0,"pressure":946.0,"uv_index":8.85,"wind_gusts":28.1,"aqi":50,"pm10":74.0,"pm2_5":17.5,"no2":0.5,"co":141.0,"o3":113.0,"so2":3.5,"mosquito_risk":0,"arthritis_risk":5,"migraine_risk":10,"frizz_risk":0,"updated_at":"2026-05-17T12:17:27.336264+05:30"},{"city":"Kota","state":"Rajasthan","latitude":25.2138,"longitude":75.8648,"temp":42.2,"humidity":15,"rain":0.0,"pressure":976.6,"uv_index":8.4,"wind_gusts":37.1,"aqi":96,"pm10":408.9,"pm2_5":69.8,"no2":2.6,"co":220.0,"o3":151.0,"so2":15.2,"mosquito_risk":0,"arthritis_risk":5,"migraine_risk":10,"frizz_risk":0,"updated_at":"2026-05-17T12:17:27.336271+05:30"},{"city":"Bikaner","state":"Rajasthan","latitude":28.0229,"longitude":73.3119,"temp":41.7,"humidity":16,"rain":0.0,"pressure":979.7,"uv_index":8.4,"wind_gusts":37.1,"aqi":88,"pm10":154.1,"pm2_5":29.9,"no2":0.3,"co":135.0,"o3":106.0,"so2":2.0,"mosquito_risk":0,"arthritis_risk":5,"migraine_risk":10,"frizz_risk":0,"updated_at":"2026-05-17T12:17:27.336278+05:30"},{"city":"Ajmer","state":"Rajasthan","latitude":26.4499,"longitude":74.6399,"temp":39.0,"humidity":17,"rain":0.0,"pressure":954.1,"uv_index":8.4,"wind_gusts":36.4,"aqi":88,"pm10":110.1,"pm2_5":27.2,"no2":0.6,"co":147.0,"o3":133.0,"so2":4.8,"mosquito_risk":0,"arthritis_risk":5,"migraine_risk":10,"frizz_risk":0,"updated_at":"2026-05-17T12:17:27.336285+05:30"},{"city":"Gwalior","state":"Madhya Pradesh","latitude":26.2183,"longitude":78.1828,"temp":41.2,"humidity":16,"rain":0.0,"pressure":980.6,"uv_index":8.25,"wind_gusts":42.1,"aqi":269,"pm10":403.3,"pm2_5":69.8,"no2":0.9,"co":207.0,"o3":150.0,"so2":10.3,"mosquito_risk":0,"arthritis_risk":5,"migraine_risk":10,"frizz_risk":0,"updated_at":"2026-05-17T12:17:27.336293+05:30"},{"city":"Indore","state":"Madhya Pradesh","latitude":22.7196,"longitude":75.8577,"temp":39.9,"humidity":14,"rain":0.0,"pressure":946.7,"uv_index":8.7,"wind_gusts":42.1,"aqi":47,"pm10":32.2,"pm2_5":12.6,"no2":0.9,"co":172.0,"o3":122.0,"so2":3.6,"mosquito_risk":0,"arthritis_risk":5,"migraine_risk":10,"frizz_risk":0,"updated_at":"2026-05-17T12:17:27.336300+05:30"},{"city":"Bhopal","state":"Madhya Pradesh","latitude":23.2599,"longitude":77.4126,"temp":40.9,"humidity":15,"rain":0.0,"pressure":951.9,"uv_index":8.7,"wind_gusts":41.4,"aqi":53,"pm10":33.2,"pm2_5":15.3,"no2":0.9,"co":166.0,"o3":131.0,"so2":6.1,"mosquito_risk":0,"arthritis_risk":5,"migraine_risk":10,"frizz_risk":0,"updated_at":"2026-05-17T12:17:27.336307+05:30"},{"city":"Jabalpur","state":"Madhya Pradesh","latitude":23.1815,"longitude":79.9864,"temp":41.3,"humidity":15,"rain":0.0,"pressure":959.2,"uv_index":8.9,"wind_gusts":38.5,"aqi":99,"pm10":37.1,"pm2_5":21.2,"no2":1.4,"co":227.0,"o3":146.0,"so2":6.2,"mosquito_risk":0,"arthritis_risk":5,"migraine_risk":10,"frizz_risk":0,"updated_at":"2026-05-17T12:17:27.336314+05:30"},{"city":"Ujjain","state":"Madhya Pradesh","latitude":23.1765,"longitude":75.7885,"temp":40.3,"humidity":16,"rain":0.0,"pressure":952.1,"uv_index":8.65,"wind_gusts":40.0,"aqi":50,"pm10":51.6,"pm2_5":17.3,"no2":0.8,"co":162.0,"o3":124.0,"so2":5.0,"mosquito_risk":0,"arthritis_risk":5,"migraine_risk":10,"frizz_risk":0,"updated_at":"2026-05-17T12:17:27.336321+05:30"},{"city":"Visakhapatnam","state":"Andhra Pradesh","latitude":17.6868,"longitude":83.2185,"temp":34.8,"humidity":56,"rain":0.0,"pressure":1001.2,"uv_index":8.6,"wind_gusts":46.1,"aqi":57,"pm10":26.8,"pm2_5":18.0,"no2":7.3,"co":269.0,"o3":98.0,"so2":28.2,"mosquito_risk":0,"arthritis_risk":5,"migraine_risk":4,"frizz_risk":1,"updated_at":"2026-05-17T12:17:27.336329+05:30"},{"city":"Vijayawada","state":"Andhra Pradesh","latitude":16.5062,"longitude":80.648,"temp":37.7,"humidity":43,"rain":0.0,"pressure":999.9,"uv_index":9.2,"wind_gusts":37.1,"aqi":49,"pm10":14.7,"pm2_5":10.2,"no2":1.4,"co":189.0,"o3":104.0,"so2":5.7,"mosquito_risk":0,"arthritis_risk":5,"migraine_risk":10,"frizz_risk":1,"updated_at":"2026-05-17T12:17:27.336335+05:30"},{"city":"Guntur","state":"Andhra Pradesh","latitude":16.3067,"longitude":80.4365,"temp":37.8,"humidity":42,"rain":0.0,"pressure":1001.1,"uv_index":9.2,"wind_gusts":31.7,"aqi":49,"pm10":14.2,"pm2_5":9.3,"no2":1.0,"co":178.0,"o3":101.0,"so2":3.0,"mosquito_risk":0,"arthritis_risk":5,"migraine_risk":7,"frizz_risk":1,"updated_at":"2026-05-17T12:17:27.336343+05:30"},{"city":"Nellore","state":"Andhra Pradesh","latitude":14.4426,"longitude":79.9865,"temp":37.5,"humidity":43,"rain":0.0,"pressure":1002.3,"uv_index":9.1,"wind_gusts":38.5,"aqi":46,"pm10":25.0,"pm2_5":21.4,"no2":2.2,"co":212.0,"o3":144.0,"so2":14.2,"mosquito_risk":0,"arthritis_risk":5,"migraine_risk":7,"frizz_risk":1,"updated_at":"2026-05-17T12:17:27.336351+05:30"},{"city":"Kurnool","state":"Andhra Pradesh","latitude":15.8281,"longitude":78.0373,"temp":38.5,"humidity":33,"rain":0.0,"pressure":974.3,"uv_index":9.2,"wind_gusts":34.2,"aqi":74,"pm10":34.1,"pm2_5":14.9,"no2":0.9,"co":168.0,"o3":105.0,"so2":3.2,"mosquito_risk":0,"arthritis_risk":5,"migraine_risk":10,"frizz_risk":1,"updated_at":"2026-05-17T12:17:27.336359+05:30"},{"city":"Kakinada","state":"Andhra Pradesh","latitude":16.9891,"longitude":82.2475,"temp":37.6,"humidity":43,"rain":0.0,"pressure":1004.6,"uv_index":8.7,"wind_gusts":41.4,"aqi":37,"pm10":17.8,"pm2_5":12.0,"no2":0.6,"co":184.0,"o3":93.0,"so2":1.8,"mosquito_risk":0,"arthritis_risk":5,"migraine_risk":7,"frizz_risk":1,"updated_at":"2026-05-17T12:17:27.336366+05:30"},{"city":"Tirupati","state":"Andhra Pradesh","latitude":13.6288,"longitude":79.4192,"temp":35.2,"humidity":48,"rain":0.0,"pressure":988.1,"uv_index":9.25,"wind_gusts":32.0,"aqi":61,"pm10":21.5,"pm2_5":18.0,"no2":1.6,"co":264.0,"o3":131.0,"so2":11.3,"mosquito_risk":0,"arthritis_risk":5,"migraine_risk":10,"frizz_risk":1,"updated_at":"2026-05-17T12:17:27.336373+05:30"},{"city":"Warangal","state":"Telangana","latitude":17.9689,"longitude":79.5941,"temp":36.7,"humidity":41,"rain":0.0,"pressure":976.7,"uv_index":8.8,"wind_gusts":31.0,"aqi":76,"pm10":31.8,"pm2_5":15.7,"no2":1.5,"co":183.0,"o3":112.0,"so2":5.0,"mosquito_risk":0,"arthritis_risk":5,"migraine_risk":10,"frizz_risk":1,"updated_at":"2026-05-17T12:17:27.336380+05:30"},{"city":"Nizamabad","state":"Telangana","latitude":18.6725,"longitude":78.0941,"temp":39.3,"humidity":26,"rain":0.0,"pressure":962.5,"uv_index":9.15,"wind_gusts":32.0,"aqi":83,"pm10":44.6,"pm2_5":31.1,"no2":1.6,"co":249.0,"o3":153.0,"so2":10.5,"mosquito_risk":0,"arthritis_risk":5,"migraine_risk":10,"frizz_risk":1,"updated_at":"2026-05-17T12:17:27.336386+05:30"},{"city":"Mysore","state":"Karnataka","latitude":12.2958,"longitude":76.6396,"temp":31.2,"humidity":50,"rain":0.0,"pressure":927.0,"uv_index":8.9,"wind_gusts":48.2,"aqi":90,"pm10":37.7,"pm2_5":22.8,"no2":2.1,"co":269.0,"o3":146.0,"so2":4.8,"mosquito_risk":0,"arthritis_risk":5,"migraine_risk":7,"frizz_risk":1,"updated_at":"2026-05-17T12:17:27.336393+05:30"},{"city":"Mangalore","state":"Karnataka","latitude":12.9141,"longitude":74.856,"temp":29.0,"humidity":80,"rain":0.1,"pressure":1004.8,"uv_index":8.7,"wind_gusts":39.6,"aqi":67,"pm10":22.8,"pm2_5":13.6,"no2":1.5,"co":130.0,"o3":74.0,"so2":1.8,"mosquito_risk":10,"arthritis_risk":5,"migraine_risk":4,"frizz_risk":1,"updated_at":"2026-05-17T12:17:27.336400+05:30"},{"city":"Hubli-Dharwad","state":"Karnataka","latitude":15.3647,"longitude":75.124,"temp":36.0,"humidity":38,"rain":0.0,"pressure":939.4,"uv_index":9.15,"wind_gusts":48.6,"aqi":57,"pm10":27.8,"pm2_5":18.9,"no2":1.5,"co":189.0,"o3":140.0,"so2":5.2,"mosquito_risk":0,"arthritis_risk":5,"migraine_risk":10,"frizz_risk":1,"updated_at":"2026-05-17T12:17:27.336407+05:30"},{"city":"Belgaum","state":"Karnataka","latitude":15.8497,"longitude":74.4977,"temp":34.6,"humidity":39,"rain":0.0,"pressure":925.1,"uv_index":9.15,"wind_gusts":44.6,"aqi":57,"pm10":26.5,"pm2_5":16.8,"no2":1.5,"co":184.0,"o3":126.0,"so2":6.1,"mosquito_risk":0,"arthritis_risk":5,"migraine_risk":7,"frizz_risk":1,"updated_at":"2026-05-17T12:17:30.570040+05:30"},{"city":"Coimbatore","state":"Tamil Nadu","latitude":11.0168,"longitude":76.9558,"temp":32.5,"humidity":45,"rain":0.0,"pressure":959.8,"uv_index":8.7,"wind_gusts":44.3,"aqi":69,"pm10":42.7,"pm2_5":23.6,"no2":1.5,"co":255.0,"o3":135.0,"so2":4.9,"mosquito_risk":0,"arthritis_risk":5,"migraine_risk":7,"frizz_risk":1,"updated_at":"2026-05-17T12:17:30.570078+05:30"},{"city":"Madurai","state":"Tamil Nadu","latitude":9.9252,"longitude":78.1198,"temp":34.0,"humidity":52,"rain":0.1,"pressure":990.2,"uv_index":8.75,"wind_gusts":31.3,"aqi":98,"pm10":40.0,"pm2_5":21.2,"no2":1.9,"co":267.0,"o3":139.0,"so2":3.9,"mosquito_risk":3,"arthritis_risk":5,"migraine_risk":7,"frizz_risk":1,"updated_at":"2026-05-17T12:17:30.570090+05:30"},{"city":"Trichy","state":"Tamil Nadu","latitude":10.7905,"longitude":78.7047,"temp":33.4,"humidity":56,"rain":0.1,"pressure":996.7,"uv_index":8.35,"wind_gusts":20.9,"aqi":87,"pm10":50.6,"pm2_5":26.9,"no2":1.7,"co":257.0,"o3":131.0,"so2":4.1,"mosquito_risk":3,"arthritis_risk":5,"migraine_risk":7,"frizz_risk":1,"updated_at":"2026-05-17T12:17:30.570099+05:30"},{"city":"Salem","state":"Tamil Nadu","latitude":11.6643,"longitude":78.146,"temp":33.6,"humidity":53,"rain":0.0,"pressure":974.9,"uv_index":8.55,"wind_gusts":27.7,"aqi":107,"pm10":49.4,"pm2_5":31.2,"no2":3.5,"co":299.0,"o3":170.0,"so2":16.1,"mosquito_risk":0,"arthritis_risk":5,"migraine_risk":7,"frizz_risk":1,"updated_at":"2026-05-17T12:17:30.570107+05:30"},{"city":"Tirunelveli","state":"Tamil Nadu","latitude":8.7139,"longitude":77.7567,"temp":36.9,"humidity":40,"rain":0.0,"pressure":1000.2,"uv_index":8.95,"wind_gusts":35.6,"aqi":53,"pm10":13.2,"pm2_5":7.9,"no2":0.9,"co":241.0,"o3":100.0,"so2":1.4,"mosquito_risk":0,"arthritis_risk":5,"migraine_risk":7,"frizz_risk":1,"updated_at":"2026-05-17T12:17:30.570115+05:30"},{"city":"Vellore","state":"Tamil Nadu","latitude":12.9165,"longitude":79.1325,"temp":34.3,"humidity":51,"rain":0.0,"pressure":981.5,"uv_index":9.2,"wind_gusts":27.7,"aqi":92,"pm10":24.9,"pm2_5":20.7,"no2":2.3,"co":269.0,"o3":130.0,"so2":16.8,"mosquito_risk":0,"arthritis_risk":5,"migraine_risk":7,"frizz_risk":1,"updated_at":"2026-05-17T12:17:30.570124+05:30"},{"city":"Erode","state":"Tamil Nadu","latitude":11.341,"longitude":77.7172,"temp":34.0,"humidity":52,"rain":0.0,"pressure":986.2,"uv_index":8.55,"wind_gusts":46.8,"aqi":88,"pm10":37.7,"pm2_5":22.3,"no2":2.4,"co":316.0,"o3":158.0,"so2":4.2,"mosquito_risk":0,"arthritis_risk":5,"migraine_risk":7,"frizz_risk":1,"updated_at":"2026-05-17T12:17:30.570134+05:30"},{"city":"Kochi","state":"Kerala","latitude":9.9312,"longitude":76.2673,"temp":29.0,"humidity":78,"rain":0.0,"pressure":1007.2,"uv_index":8.65,"wind_gusts":33.1,"aqi":55,"pm10":12.5,"pm2_5":8.9,"no2":2.5,"co":151.0,"o3":100.0,"so2":3.7,"mosquito_risk":7,"arthritis_risk":5,"migraine_risk":4,"frizz_risk":1,"updated_at":"2026-05-17T12:17:30.570159+05:30"},{"city":"Thiruvananthapuram","state":"Kerala","latitude":8.5241,"longitude":76.9366,"temp":29.1,"humidity":78,"rain":0.0,"pressure":1007.0,"uv_index":8.3,"wind_gusts":36.0,"aqi":47,"pm10":15.1,"pm2_5":9.4,"no2":0.9,"co":159.0,"o3":93.0,"so2":0.7,"mosquito_risk":7,"arthritis_risk":5,"migraine_risk":4,"frizz_risk":1,"updated_at":"2026-05-17T12:17:30.570166+05:30"},{"city":"Kozhikode","state":"Kerala","latitude":11.2588,"longitude":75.7804,"temp":28.2,"humidity":84,"rain":0.1,"pressure":1005.9,"uv_index":8.9,"wind_gusts":42.1,"aqi":52,"pm10":15.9,"pm2_5":10.1,"no2":0.9,"co":166.0,"o3":82.0,"so2":1.5,"mosquito_risk":10,"arthritis_risk":5,"migraine_risk":4,"frizz_risk":1,"updated_at":"2026-05-17T12:17:30.570173+05:30"},{"city":"Thrissur","state":"Kerala","latitude":10.5276,"longitude":76.2144,"temp":29.1,"humidity":78,"rain":0.1,"pressure":1005.2,"uv_index":8.9,"wind_gusts":36.7,"aqi":60,"pm10":11.9,"pm2_5":8.5,"no2":2.4,"co":168.0,"o3":92.0,"so2":3.2,"mosquito_risk":10,"arthritis_risk":5,"migraine_risk":4,"frizz_risk":1,"updated_at":"2026-05-17T12:17:30.570180+05:30"},{"city":"Kannur","state":"Kerala","latitude":11.8745,"longitude":75.3704,"temp":30.9,"humidity":70,"rain":0.0,"pressure":1004.3,"uv_index":8.95,"wind_gusts":45.0,"aqi":57,"pm10":20.8,"pm2_5":13.5,"no2":1.8,"co":164.0,"o3":81.0,"so2":1.9,"mosquito_risk":3,"arthritis_risk":5,"migraine_risk":4,"frizz_risk":1,"updated_at":"2026-05-17T12:17:30.570187+05:30"},{"city":"Patna","state":"Bihar","latitude":25.5941,"longitude":85.1376,"temp":37.7,"humidity":35,"rain":0.0,"pressure":995.5,"uv_index":8.8,"wind_gusts":35.6,"aqi":151,"pm10":121.5,"pm2_5":58.0,"no2":3.0,"co":407.0,"o3":216.0,"so2":14.9,"mosquito_risk":0,"arthritis_risk":5,"migraine_risk":10,"frizz_risk":1,"updated_at":"2026-05-17T12:17:30.570193+05:30"},{"city":"Gaya","state":"Bihar","latitude":24.7914,"longitude":85.0002,"temp":39.5,"humidity":23,"rain":0.0,"pressure":989.3,"uv_index":8.85,"wind_gusts":44.3,"aqi":150,"pm10":138.8,"pm2_5":41.6,"no2":1.0,"co":239.0,"o3":154.0,"so2":7.7,"mosquito_risk":0,"arthritis_risk":5,"migraine_risk":10,"frizz_risk":0,"updated_at":"2026-05-17T12:17:30.570200+05:30"},{"city":"Muzaffarpur","state":"Bihar","latitude":26.1209,"longitude":85.3647,"temp":35.5,"humidity":52,"rain":0.0,"pressure":995.5,"uv_index":8.8,"wind_gusts":28.8,"aqi":150,"pm10":93.6,"pm2_5":61.2,"no2":3.0,"co":446.0,"o3":211.0,"so2":15.9,"mosquito_risk":0,"arthritis_risk":5,"migraine_risk":10,"frizz_risk":1,"updated_at":"2026-05-17T12:17:30.570206+05:30"},{"city":"Bhagalpur","state":"Bihar","latitude":25.2425,"longitude":87.0117,"temp":35.5,"humidity":53,"rain":0.0,"pressure":996.5,"uv_index":8.8,"wind_gusts":35.3,"aqi":153,"pm10":79.4,"pm2_5":55.9,"no2":4.3,"co":518.0,"o3":214.0,"so2":24.7,"mosquito_risk":0,"arthritis_risk":5,"migraine_risk":10,"frizz_risk":1,"updated_at":"2026-05-17T12:17:30.570212+05:30"},{"city":"Ranchi","state":"Jharkhand","latitude":23.3441,"longitude":85.3096,"temp":35.4,"humidity":33,"rain":0.0,"pressure":936.3,"uv_index":9.3,"wind_gusts":37.8,"aqi":113,"pm10":82.9,"pm2_5":49.2,"no2":1.2,"co":219.0,"o3":167.0,"so2":15.7,"mosquito_risk":0,"arthritis_risk":5,"migraine_risk":10,"frizz_risk":1,"updated_at":"2026-05-17T12:17:30.570219+05:30"},{"city":"Jamshedpur","state":"Jharkhand","latitude":22.8046,"longitude":86.2029,"temp":38.6,"humidity":34,"rain":0.0,"pressure":987.0,"uv_index":9.1,"wind_gusts":36.0,"aqi":104,"pm10":73.6,"pm2_5":50.6,"no2":2.8,"co":269.0,"o3":195.0,"so2":22.6,"mosquito_risk":0,"arthritis_risk":5,"migraine_risk":10,"frizz_risk":1,"updated_at":"2026-05-17T12:17:30.570225+05:30"},{"city":"Dhanbad","state":"Jharkhand","latitude":23.7957,"longitude":86.4304,"temp":38.0,"humidity":28,"rain":0.0,"pressure":976.5,"uv_index":9.05,"wind_gusts":42.1,"aqi":152,"pm10":110.1,"pm2_5":54.9,"no2":6.2,"co":243.0,"o3":189.0,"so2":39.9,"mosquito_risk":0,"arthritis_risk":5,"migraine_risk":10,"frizz_risk":1,"updated_at":"2026-05-17T12:17:30.570231+05:30"},{"city":"Bokaro","state":"Jharkhand","latitude":23.6693,"longitude":86.1511,"temp":37.7,"humidity":31,"rain":0.0,"pressure":980.2,"uv_index":9.05,"wind_gusts":39.6,"aqi":152,"pm10":101.0,"pm2_5":50.6,"no2":5.7,"co":233.0,"o3":179.0,"so2":34.9,"mosquito_risk":0,"arthritis_risk":5,"migraine_risk":10,"frizz_risk":1,"updated_at":"2026-05-17T12:17:30.570238+05:30"},{"city":"Bhubaneswar","state":"Odisha","latitude":20.2961,"longitude":85.8245,"temp":38.1,"humidity":44,"rain":0.0,"pressure":999.3,"uv_index":8.95,"wind_gusts":43.9,"aqi":46,"pm10":30.5,"pm2_5":18.0,"no2":1.5,"co":225.0,"o3":113.0,"so2":7.8,"mosquito_risk":0,"arthritis_risk":5,"migraine_risk":10,"frizz_risk":1,"updated_at":"2026-05-17T12:17:30.570245+05:30"},{"city":"Cuttack","state":"Odisha","latitude":20.4625,"longitude":85.8828,"temp":38.0,"humidity":44,"rain":0.0,"pressure":1000.9,"uv_index":9.0,"wind_gusts":41.8,"aqi":46,"pm10":30.5,"pm2_5":18.0,"no2":1.5,"co":226.0,"o3":113.0,"so2":7.8,"mosquito_risk":0,"arthritis_risk":5,"migraine_risk":7,"frizz_risk":1,"updated_at":"2026-05-17T12:17:30.570251+05:30"},{"city":"Rourkela","state":"Odisha","latitude":22.2604,"longitude":84.8536,"temp":38.0,"humidity":37,"rain":0.0,"pressure":982.2,"uv_index":9.05,"wind_gusts":35.3,"aqi":118,"pm10":72.4,"pm2_5":50.9,"no2":2.2,"co":282.0,"o3":186.0,"so2":14.3,"mosquito_risk":0,"arthritis_risk":5,"migraine_risk":10,"frizz_risk":1,"updated_at":"2026-05-17T12:17:30.570258+05:30"},{"city":"Raipur","state":"Chhattisgarh","latitude":21.2514,"longitude":81.6296,"temp":40.0,"humidity":28,"rain":0.0,"pressure":972.3,"uv_index":9.05,"wind_gusts":33.1,"aqi":143,"pm10":53.8,"pm2_5":39.8,"no2":7.0,"co":450.0,"o3":161.0,"so2":35.0,"mosquito_risk":0,"arthritis_risk":5,"migraine_risk":10,"frizz_risk":1,"updated_at":"2026-05-17T12:17:30.570264+05:30"},{"city":"Bhilai","state":"Chhattisgarh","latitude":21.1938,"longitude":81.3509,"temp":39.0,"humidity":30,"rain":0.0,"pressure":972.7,"uv_index":9.0,"wind_gusts":34.9,"aqi":139,"pm10":44.9,"pm2_5":32.5,"no2":6.5,"co":584.0,"o3":148.0,"so2":30.0,"mosquito_risk":0,"arthritis_risk":5,"migraine_risk":10,"frizz_risk":1,"updated_at":"2026-05-17T12:17:30.570270+05:30"},{"city":"Guwahati","state":"Assam","latitude":26.1158,"longitude":91.7086,"temp":24.7,"humidity":95,"rain":0.6,"pressure":999.0,"uv_index":8.75,"wind_gusts":32.0,"aqi":85,"pm10":17.8,"pm2_5":14.5,"no2":1.4,"co":299.0,"o3":121.0,"so2":3.5,"mosquito_risk":6,"arthritis_risk":5,"migraine_risk":7,"frizz_risk":1,"updated_at":"2026-05-17T12:17:30.570277+05:30"},{"city":"Agartala","state":"Tripura","latitude":23.8315,"longitude":91.2868,"temp":33.5,"humidity":61,"rain":0.0,"pressure":1002.5,"uv_index":8.9,"wind_gusts":38.2,"aqi":68,"pm10":40.4,"pm2_5":21.4,"no2":3.8,"co":170.0,"o3":98.0,"so2":4.7,"mosquito_risk":3,"arthritis_risk":5,"migraine_risk":4,"frizz_risk":1,"updated_at":"2026-05-17T12:17:30.570284+05:30"},{"city":"Shillong","state":"Meghalaya","latitude":25.5788,"longitude":91.8933,"temp":24.6,"humidity":61,"rain":0.1,"pressure":856.4,"uv_index":9.15,"wind_gusts":45.0,"aqi":60,"pm10":7.7,"pm2_5":5.8,"no2":1.7,"co":254.0,"o3":97.0,"so2":3.4,"mosquito_risk":6,"arthritis_risk":5,"migraine_risk":7,"frizz_risk":1,"updated_at":"2026-05-17T12:17:30.570290+05:30"},{"city":"Imphal","state":"Manipur","latitude":24.817,"longitude":93.9368,"temp":28.2,"humidity":62,"rain":0.0,"pressure":921.9,"uv_index":9.0,"wind_gusts":35.3,"aqi":69,"pm10":31.2,"pm2_5":17.4,"no2":0.5,"co":195.0,"o3":107.0,"so2":3.7,"mosquito_risk":7,"arthritis_risk":5,"migraine_risk":7,"frizz_risk":1,"updated_at":"2026-05-17T12:17:30.570296+05:30"},{"city":"Aizawl","state":"Mizoram","latitude":23.7271,"longitude":92.7176,"temp":28.0,"humidity":52,"rain":0.0,"pressure":892.3,"uv_index":9.05,"wind_gusts":35.6,"aqi":49,"pm10":31.4,"pm2_5":16.6,"no2":0.4,"co":176.0,"o3":95.0,"so2":2.8,"mosquito_risk":4,"arthritis_risk":5,"migraine_risk":7,"frizz_risk":1,"updated_at":"2026-05-17T12:17:30.570302+05:30"},{"city":"Kohima","state":"Nagaland","latitude":25.6701,"longitude":94.1077,"temp":22.8,"humidity":81,"rain":0.0,"pressure":854.5,"uv_index":8.7,"wind_gusts":29.5,"aqi":65,"pm10":20.0,"pm2_5":12.8,"no2":0.7,"co":208.0,"o3":108.0,"so2":2.6,"mosquito_risk":3,"arthritis_risk":5,"migraine_risk":7,"frizz_risk":1,"updated_at":"2026-05-17T12:17:30.570308+05:30"},{"city":"Gangtok","state":"Sikkim","latitude":27.3314,"longitude":88.6138,"temp":24.9,"humidity":49,"rain":0.0,"pressure":837.4,"uv_index":9.15,"wind_gusts":34.9,"aqi":54,"pm10":23.1,"pm2_5":18.0,"no2":0.7,"co":271.0,"o3":138.0,"so2":2.1,"mosquito_risk":0,"arthritis_risk":5,"migraine_risk":7,"frizz_risk":0,"updated_at":"2026-05-17T12:17:30.570314+05:30"},{"city":"Siliguri","state":"West Bengal","latitude":26.7271,"longitude":88.3953,"temp":28.2,"humidity":69,"rain":0.0,"pressure":989.5,"uv_index":8.7,"wind_gusts":27.0,"aqi":86,"pm10":37.4,"pm2_5":28.2,"no2":1.5,"co":350.0,"o3":147.0,"so2":4.6,"mosquito_risk":7,"arthritis_risk":5,"migraine_risk":7,"frizz_risk":1,"updated_at":"2026-05-17T12:17:33.813701+05:30"},{"city":"Durgapur","state":"West Bengal","latitude":23.5204,"longitude":87.3119,"temp":39.2,"humidity":38,"rain":0.0,"pressure":990.5,"uv_index":8.95,"wind_gusts":44.6,"aqi":147,"pm10":102.9,"pm2_5":67.8,"no2":10.1,"co":523.0,"o3":225.0,"so2":59.4,"mosquito_risk":0,"arthritis_risk":5,"migraine_risk":10,"frizz_risk":1,"updated_at":"2026-05-17T12:17:33.813739+05:30"},{"city":"Asansol","state":"West Bengal","latitude":23.6739,"longitude":86.9524,"temp":36.8,"humidity":37,"rain":0.0,"pressure":989.4,"uv_index":9.0,"wind_gusts":38.2,"aqi":142,"pm10":109.2,"pm2_5":60.8,"no2":7.8,"co":422.0,"o3":205.0,"so2":46.3,"mosquito_risk":0,"arthritis_risk":5,"migraine_risk":10,"frizz_risk":1,"updated_at":"2026-05-17T12:17:33.813750+05:30"},{"city":"Pondicherry","state":"Puducherry","latitude":11.9139,"longitude":79.8145,"temp":31.8,"humidity":68,"rain":0.1,"pressure":1005.3,"uv_index":9.05,"wind_gusts":38.2,"aqi":66,"pm10":40.7,"pm2_5":28.2,"no2":4.8,"co":253.0,"o3":140.0,"so2":19.1,"mosquito_risk":6,"arthritis_risk":5,"migraine_risk":4,"frizz_risk":1,"updated_at":"2026-05-17T12:17:33.813758+05:30"},{"city":"Port Blair","state":"Andaman and Nicobar Islands","latitude":11.6234,"longitude":92.7265,"temp":26.9,"humidity":93,"rain":0.2,"pressure":1006.8,"uv_index":1.25,"wind_gusts":42.5,"aqi":31,"pm10":9.7,"pm2_5":5.9,"no2":0.3,"co":106.0,"o3":60.0,"so2":0.2,"mosquito_risk":10,"arthritis_risk":5,"migraine_risk":0,"frizz_risk":1,"updated_at":"2026-05-17T12:17:33.813767+05:30"},{"city":"Haridwar","state":"Uttarakhand","latitude":29.9457,"longitude":78.1642,"temp":35.0,"humidity":33,"rain":0.0,"pressure":970.4,"uv_index":7.5,"wind_gusts":38.9,"aqi":86,"pm10":27.2,"pm2_5":17.8,"no2":1.9,"co":222.0,"o3":172.0,"so2":8.5,"mosquito_risk":0,"arthritis_risk":5,"migraine_risk":7,"frizz_risk":1,"updated_at":"2026-05-17T12:17:33.813775+05:30"},{"city":"Rishikesh","state":"Uttarakhand","latitude":30.0869,"longitude":78.2676,"temp":34.8,"humidity":32,"rain":0.0,"pressure":963.1,"uv_index":7.65,"wind_gusts":34.9,"aqi":75,"pm10":32.9,"pm2_5":14.6,"no2":0.9,"co":180.0,"o3":152.0,"so2":4.0,"mosquito_risk":0,"arthritis_risk":5,"migraine_risk":7,"frizz_risk":0,"updated_at":"2026-05-17T12:17:33.813783+05:30"},{"city":"Nainital","state":"Uttarakhand","latitude":29.3919,"longitude":79.4542,"temp":24.6,"humidity":36,"rain":0.0,"pressure":807.3,"uv_index":8.5,"wind_gusts":39.6,"aqi":70,"pm10":35.2,"pm2_5":18.3,"no2":1.4,"co":193.0,"o3":163.0,"so2":7.8,"mosquito_risk":0,"arthritis_risk":5,"migraine_risk":7,"frizz_risk":0,"updated_at":"2026-05-17T12:17:33.813790+05:30"},{"city":"Mussoorie","state":"Uttarakhand","latitude":30.4599,"longitude":78.0664,"temp":24.4,"humidity":34,"rain":0.0,"pressure":805.0,"uv_index":8.05,"wind_gusts":51.8,"aqi":78,"pm10":33.2,"pm2_5":15.7,"no2":1.2,"co":159.0,"o3":157.0,"so2":4.8,"mosquito_risk":0,"arthritis_risk":5,"migraine_risk":7,"frizz_risk":0,"updated_at":"2026-05-17T12:17:33.813798+05:30"},{"city":"Dharamshala","state":"Himachal Pradesh","latitude":32.219,"longitude":76.3234,"temp":26.9,"humidity":38,"rain":0.0,"pressure":869.6,"uv_index":8.4,"wind_gusts":44.6,"aqi":50,"pm10":17.2,"pm2_5":7.7,"no2":0.5,"co":184.0,"o3":135.0,"so2":0.7,"mosquito_risk":4,"arthritis_risk":5,"migraine_risk":7,"frizz_risk":0,"updated_at":"2026-05-17T12:17:33.813805+05:30"},{"city":"Dalhousie","state":"Himachal Pradesh","latitude":32.5387,"longitude":75.971,"temp":24.3,"humidity":34,"rain":0.0,"pressure":807.0,"uv_index":8.65,"wind_gusts":39.2,"aqi":69,"pm10":28.1,"pm2_5":13.8,"no2":1.2,"co":170.0,"o3":151.0,"so2":1.7,"mosquito_risk":0,"arthritis_risk":5,"migraine_risk":7,"frizz_risk":0,"updated_at":"2026-05-17T12:17:33.813812+05:30"},{"city":"Patiala","state":"Punjab","latitude":30.3398,"longitude":76.3869,"temp":38.3,"humidity":21,"rain":0.0,"pressure":975.1,"uv_index":7.6,"wind_gusts":45.4,"aqi":487,"pm10":599.8,"pm2_5":71.7,"no2":1.5,"co":285.0,"o3":158.0,"so2":7.3,"mosquito_risk":0,"arthritis_risk":5,"migraine_risk":10,"frizz_risk":0,"updated_at":"2026-05-17T12:17:33.813819+05:30"},{"city":"Bhatinda","state":"Punjab","latitude":30.211,"longitude":74.9455,"temp":39.4,"humidity":24,"rain":0.0,"pressure":980.7,"uv_index":8.25,"wind_gusts":37.8,"aqi":89,"pm10":70.8,"pm2_5":26.4,"no2":2.7,"co":315.0,"o3":156.0,"so2":15.1,"mosquito_risk":0,"arthritis_risk":5,"migraine_risk":10,"frizz_risk":0,"updated_at":"2026-05-17T12:17:33.813827+05:30"},{"city":"Rohtak","state":"Haryana","latitude":28.8955,"longitude":76.6066,"temp":39.0,"humidity":24,"rain":0.0,"pressure":978.8,"uv_index":7.75,"wind_gusts":47.2,"aqi":679,"pm10":558.8,"pm2_5":83.1,"no2":1.5,"co":299.0,"o3":150.0,"so2":7.1,"mosquito_risk":0,"arthritis_risk":5,"migraine_risk":10,"frizz_risk":0,"updated_at":"2026-05-17T12:17:33.813833+05:30"},{"city":"Panipat","state":"Haryana","latitude":29.3909,"longitude":76.9635,"temp":38.4,"humidity":24,"rain":0.0,"pressure":977.1,"uv_index":7.6,"wind_gusts":51.8,"aqi":1443,"pm10":1523.6,"pm2_5":172.8,"no2":2.4,"co":298.0,"o3":153.0,"so2":12.1,"mosquito_risk":0,"arthritis_risk":5,"migraine_risk":10,"frizz_risk":0,"updated_at":"2026-05-17T12:17:33.813841+05:30"},{"city":"Mathura","state":"Uttar Pradesh","latitude":27.4924,"longitude":77.6737,"temp":39.3,"humidity":23,"rain":0.0,"pressure":984.0,"uv_index":8.0,"wind_gusts":44.6,"aqi":725,"pm10":517.8,"pm2_5":85.7,"no2":1.6,"co":270.0,"o3":161.0,"so2":10.7,"mosquito_risk":0,"arthritis_risk":5,"migraine_risk":10,"frizz_risk":0,"updated_at":"2026-05-17T12:17:33.813848+05:30"},{"city":"Vrindavan","state":"Uttar Pradesh","latitude":27.5823,"longitude":77.7027,"temp":39.1,"humidity":24,"rain":0.0,"pressure":984.4,"uv_index":7.95,"wind_gusts":42.5,"aqi":725,"pm10":517.8,"pm2_5":85.7,"no2":1.6,"co":274.0,"o3":161.0,"so2":10.7,"mosquito_risk":0,"arthritis_risk":5,"migraine_risk":10,"frizz_risk":0,"updated_at":"2026-05-17T12:17:33.813856+05:30"},{"city":"Ayodhya","state":"Uttar Pradesh","latitude":26.7922,"longitude":82.1998,"temp":39.0,"humidity":24,"rain":0.0,"pressure":990.5,"uv_index":8.35,"wind_gusts":43.2,"aqi":151,"pm10":169.5,"pm2_5":54.5,"no2":2.2,"co":270.0,"o3":190.0,"so2":16.1,"mosquito_risk":0,"arthritis_risk":5,"migraine_risk":10,"frizz_risk":0,"updated_at":"2026-05-17T12:17:33.813863+05:30"},{"city":"Ratlam","state":"Madhya Pradesh","latitude":23.3315,"longitude":75.0367,"temp":39.4,"humidity":20,"rain":0.0,"pressure":953.3,"uv_index":8.55,"wind_gusts":37.4,"aqi":52,"pm10":54.1,"pm2_5":17.7,"no2":0.8,"co":160.0,"o3":119.0,"so2":4.4,"mosquito_risk":0,"arthritis_risk":5,"migraine_risk":10,"frizz_risk":0,"updated_at":"2026-05-17T12:17:33.813870+05:30"},{"city":"Sagar","state":"Madhya Pradesh","latitude":23.8388,"longitude":78.7378,"temp":40.5,"humidity":14,"rain":0.0,"pressure":948.7,"uv_index":8.75,"wind_gusts":40.0,"aqi":74,"pm10":68.7,"pm2_5":25.1,"no2":0.7,"co":167.0,"o3":136.0,"so2":4.7,"mosquito_risk":0,"arthritis_risk":5,"migraine_risk":10,"frizz_risk":0,"updated_at":"2026-05-17T12:17:33.813877+05:30"},{"city":"Satna","state":"Madhya Pradesh","latitude":24.6005,"longitude":80.8322,"temp":40.5,"humidity":18,"rain":0.0,"pressure":968.8,"uv_index":8.75,"wind_gusts":45.0,"aqi":105,"pm10":116.4,"pm2_5":39.8,"no2":1.1,"co":189.0,"o3":156.0,"so2":9.5,"mosquito_risk":0,"arthritis_risk":5,"migraine_risk":10,"frizz_risk":0,"updated_at":"2026-05-17T12:17:33.813884+05:30"},{"city":"Akola","state":"Maharashtra","latitude":20.7002,"longitude":77.0082,"temp":41.2,"humidity":18,"rain":0.0,"pressure":972.8,"uv_index":8.95,"wind_gusts":34.9,"aqi":51,"pm10":20.8,"pm2_5":12.3,"no2":1.6,"co":159.0,"o3":146.0,"so2":7.5,"mosquito_risk":0,"arthritis_risk":5,"migraine_risk":10,"frizz_risk":0,"updated_at":"2026-05-17T12:17:33.813892+05:30"},{"city":"Amravati","state":"Maharashtra","latitude":20.9374,"longitude":77.7796,"temp":40.9,"humidity":18,"rain":0.0,"pressure":965.2,"uv_index":8.95,"wind_gusts":28.1,"aqi":54,"pm10":19.9,"pm2_5":12.5,"no2":2.3,"co":155.0,"o3":143.0,"so2":9.6,"mosquito_risk":0,"arthritis_risk":5,"migraine_risk":10,"frizz_risk":0,"updated_at":"2026-05-17T12:17:33.813900+05:30"},{"city":"Latur","state":"Maharashtra","latitude":18.4088,"longitude":76.5604,"temp":39.2,"humidity":20,"rain":0.0,"pressure":938.4,"uv_index":9.1,"wind_gusts":34.9,"aqi":74,"pm10":19.6,"pm2_5":14.0,"no2":1.7,"co":167.0,"o3":149.0,"so2":10.1,"mosquito_risk":0,"arthritis_risk":5,"migraine_risk":10,"frizz_risk":0,"updated_at":"2026-05-17T12:17:33.813908+05:30"},{"city":"Nanded","state":"Maharashtra","latitude":19.1383,"longitude":77.3091,"temp":41.0,"humidity":19,"rain":0.0,"pressure":966.1,"uv_index":9.0,"wind_gusts":33.8,"aqi":71,"pm10":18.7,"pm2_5":12.4,"no2":1.4,"co":173.0,"o3":148.0,"so2":5.1,"mosquito_risk":0,"arthritis_risk":5,"migraine_risk":10,"frizz_risk":0,"updated_at":"2026-05-17T12:17:33.813915+05:30"},{"city":"Gulbarga","state":"Karnataka","latitude":17.3297,"longitude":76.8343,"temp":39.5,"humidity":25,"rain":0.0,"pressure":956.4,"uv_index":9.1,"wind_gusts":34.2,"aqi":85,"pm10":49.0,"pm2_5":32.8,"no2":1.9,"co":244.0,"o3":162.0,"so2":8.5,"mosquito_risk":0,"arthritis_risk":5,"migraine_risk":10,"frizz_risk":0,"updated_at":"2026-05-17T12:17:33.813923+05:30"},{"city":"Bidar","state":"Karnataka","latitude":17.9104,"longitude":77.5199,"temp":38.0,"humidity":25,"rain":0.0,"pressure":934.4,"uv_index":9.15,"wind_gusts":33.8,"aqi":79,"pm10":45.4,"pm2_5":29.7,"no2":1.6,"co":228.0,"o3":151.0,"so2":10.9,"mosquito_risk":0,"arthritis_risk":5,"migraine_risk":10,"frizz_risk":0,"updated_at":"2026-05-17T12:17:33.813930+05:30"},{"city":"Hospet","state":"Karnataka","latitude":15.2689,"longitude":76.3909,"temp":33.7,"humidity":52,"rain":0.0,"pressure":954.0,"uv_index":9.2,"wind_gusts":37.4,"aqi":90,"pm10":38.0,"pm2_5":24.6,"no2":2.6,"co":213.0,"o3":140.0,"so2":12.6,"mosquito_risk":0,"arthritis_risk":5,"migraine_risk":7,"frizz_risk":1,"updated_at":"2026-05-17T12:17:33.813937+05:30"},{"city":"Tirupur","state":"Tamil Nadu","latitude":11.1085,"longitude":77.3411,"temp":35.1,"humidity":41,"rain":0.0,"pressure":972.7,"uv_index":8.9,"wind_gusts":46.8,"aqi":92,"pm10":48.8,"pm2_5":28.6,"no2":2.5,"co":254.0,"o3":163.0,"so2":6.1,"mosquito_risk":0,"arthritis_risk":5,"migraine_risk":10,"frizz_risk":1,"updated_at":"2026-05-17T12:17:33.813943+05:30"},{"city":"Alappuzha","state":"Kerala","latitude":9.4981,"longitude":76.3388,"temp":28.9,"humidity":75,"rain":0.0,"pressure":1007.5,"uv_index":8.65,"wind_gusts":32.4,"aqi":54,"pm10":14.3,"pm2_5":9.2,"no2":2.0,"co":167.0,"o3":102.0,"so2":2.6,"mosquito_risk":7,"arthritis_risk":5,"migraine_risk":4,"frizz_risk":1,"updated_at":"2026-05-17T12:17:33.813950+05:30"},{"city":"Munnar","state":"Kerala","latitude":10.0889,"longitude":77.0595,"temp":20.5,"humidity":95,"rain":0.0,"pressure":856.2,"uv_index":7.8,"wind_gusts":25.9,"aqi":58,"pm10":21.5,"pm2_5":11.1,"no2":0.8,"co":189.0,"o3":104.0,"so2":1.8,"mosquito_risk":3,"arthritis_risk":5,"migraine_risk":7,"frizz_risk":1,"updated_at":"2026-05-17T12:17:33.813957+05:30"},{"city":"Silchar","state":"Assam","latitude":24.8333,"longitude":92.7789,"temp":29.6,"humidity":75,"rain":0.3,"pressure":1002.6,"uv_index":8.9,"wind_gusts":31.3,"aqi":65,"pm10":21.6,"pm2_5":11.4,"no2":0.9,"co":186.0,"o3":95.0,"so2":3.0,"mosquito_risk":10,"arthritis_risk":5,"migraine_risk":4,"frizz_risk":1,"updated_at":"2026-05-17T12:17:33.813964+05:30"},{"city":"Dibrugarh","state":"Assam","latitude":27.4728,"longitude":94.912,"temp":24.5,"humidity":89,"rain":0.2,"pressure":993.9,"uv_index":5.05,"wind_gusts":28.1,"aqi":73,"pm10":33.3,"pm2_5":21.5,"no2":1.1,"co":222.0,"o3":115.0,"so2":2.0,"mosquito_risk":6,"arthritis_risk":5,"migraine_risk":3,"frizz_risk":1,"updated_at":"2026-05-17T12:17:33.813970+05:30"}]