[{"city":"Delhi","state":"Delhi","latitude":28.6139,"longitude":77.209,"temp":25.2,"humidity":61,"rain":0.0,"pressure":984.1,"uv_index":5.6,"wind_gusts":35.3,"aqi":139,"pm10":158.8,"pm2_5":37.8,"mosquito_risk":7,"arthritis_risk":5,"migraine_risk":3,"frizz_risk":1,"updated_at":"2026-04-04T18:32:20.392228+05:30"},{"city":"Mumbai","state":"Maharashtra","latitude":19.076,"longitude":72.8777,"temp":27.5,"humidity":78,"rain":0.0,"pressure":1008.3,"uv_index":7.9,"wind_gusts":20.9,"aqi":73,"pm10":40.5,"pm2_5":17.3,"mosquito_risk":7,"arthritis_risk":0,"migraine_risk":4,"frizz_risk":1,"updated_at":"2026-04-04T18:32:20.392269+05:30"},{"city":"Bangalore","state":"Karnataka","latitude":12.9716,"longitude":77.5946,"temp":27.8,"humidity":57,"rain":0.0,"pressure":911.1,"uv_index":9.1,"wind_gusts":24.5,"aqi":156,"pm10":36.1,"pm2_5":32.9,"mosquito_risk":4,"arthritis_risk":5,"migraine_risk":7,"frizz_risk":1,"updated_at":"2026-04-04T18:32:20.392284+05:30"},{"city":"Hyderabad","state":"Telangana","latitude":17.385,"longitude":78.4867,"temp":28.8,"humidity":57,"rain":0.0,"pressure":951.9,"uv_index":7.95,"wind_gusts":43.9,"aqi":161,"pm10":44.6,"pm2_5":36.0,"mosquito_risk":4,"arthritis_risk":5,"migraine_risk":7,"frizz_risk":1,"updated_at":"2026-04-04T18:32:20.392293+05:30"},{"city":"Chennai","state":"Tamil Nadu","latitude":13.0827,"longitude":80.2707,"temp":30.2,"humidity":73,"rain":0.0,"pressure":1005.3,"uv_index":8.75,"wind_gusts":31.0,"aqi":75,"pm10":19.1,"pm2_5":15.5,"mosquito_risk":3,"arthritis_risk":5,"migraine_risk":4,"frizz_risk":1,"updated_at":"2026-04-04T18:32:20.392302+05:30"},{"city":"Kolkata","state":"West Bengal","latitude":22.5726,"longitude":88.3639,"temp":31.4,"humidity":67,"rain":0.0,"pressure":1003.0,"uv_index":8.55,"wind_gusts":20.5,"aqi":203,"pm10":72.9,"pm2_5":66.6,"mosquito_risk":3,"arthritis_risk":5,"migraine_risk":4,"frizz_risk":1,"updated_at":"2026-04-04T18:32:20.392310+05:30"},{"city":"Pune","state":"Maharashtra","latitude":18.5204,"longitude":73.8567,"temp":28.8,"humidity":51,"rain":0.0,"pressure":947.7,"uv_index":8.5,"wind_gusts":40.0,"aqi":124,"pm10":30.2,"pm2_5":23.7,"mosquito_risk":4,"arthritis_risk":5,"migraine_risk":7,"frizz_risk":1,"updated_at":"2026-04-04T18:32:20.392321+05:30"},{"city":"Ahmedabad","state":"Gujarat","latitude":23.0225,"longitude":72.5714,"temp":31.7,"humidity":30,"rain":0.0,"pressure":1001.0,"uv_index":7.5,"wind_gusts":24.8,"aqi":71,"pm10":20.8,"pm2_5":9.5,"mosquito_risk":0,"arthritis_risk":5,"migraine_risk":4,"frizz_risk":0,"updated_at":"2026-04-04T18:32:20.392328+05:30"},{"city":"Jaipur","state":"Rajasthan","latitude":26.9124,"longitude":75.7873,"temp":24.6,"humidity":55,"rain":0.0,"pressure":959.5,"uv_index":7.45,"wind_gusts":41.4,"aqi":80,"pm10":71.9,"pm2_5":21.6,"mosquito_risk":0,"arthritis_risk":5,"migraine_risk":7,"frizz_risk":0,"updated_at":"2026-04-04T18:32:20.392336+05:30"},{"city":"Lucknow","state":"Uttar Pradesh","latitude":26.8467,"longitude":80.9462,"temp":31.0,"humidity":42,"rain":0.0,"pressure":992.4,"uv_index":6.3,"wind_gusts":52.2,"aqi":154,"pm10":212.8,"pm2_5":54.1,"mosquito_risk":0,"arthritis_risk":5,"migraine_risk":7,"frizz_risk":1,"updated_at":"2026-04-04T18:32:20.392344+05:30"},{"city":"Kanpur","state":"Uttar Pradesh","latitude":26.4499,"longitude":80.3319,"temp":26.9,"humidity":65,"rain":0.0,"pressure":991.9,"uv_index":6.75,"wind_gusts":39.6,"aqi":259,"pm10":319.4,"pm2_5":61.5,"mosquito_risk":7,"arthritis_risk":5,"migraine_risk":7,"frizz_risk":1,"updated_at":"2026-04-04T18:32:20.392352+05:30"},{"city":"Chandigarh","state":"Chandigarh","latitude":30.7333,"longitude":76.7794,"temp":22.8,"humidity":74,"rain":0.0,"pressure":970.1,"uv_index":5.9,"wind_gusts":28.8,"aqi":93,"pm10":86.6,"pm2_5":29.2,"mosquito_risk":3,"arthritis_risk":5,"migraine_risk":3,"frizz_risk":1,"updated_at":"2026-04-04T18:32:20.392359+05:30"},{"city":"Srinagar","state":"Jammu and Kashmir","latitude":34.0837,"longitude":74.7973,"temp":8.8,"humidity":80,"rain":0.1,"pressure":839.9,"uv_index":5.25,"wind_gusts":29.5,"aqi":64,"pm10":15.6,"pm2_5":12.2,"mosquito_risk":6,"arthritis_risk":5,"migraine_risk":3,"frizz_risk":0,"updated_at":"2026-04-04T18:32:20.392367+05:30"},{"city":"Jammu","state":"Jammu and Kashmir","latitude":32.7266,"longitude":74.857,"temp":21.1,"humidity":73,"rain":0.0,"pressure":974.7,"uv_index":6.55,"wind_gusts":46.4,"aqi":60,"pm10":92.9,"pm2_5":27.5,"mosquito_risk":3,"arthritis_risk":5,"migraine_risk":7,"frizz_risk":0,"updated_at":"2026-04-04T18:32:20.392374+05:30"},{"city":"Amritsar","state":"Punjab","latitude":31.634,"longitude":74.8723,"temp":19.7,"humidity":87,"rain":0.0,"pressure":982.8,"uv_index":6.15,"wind_gusts":32.0,"aqi":84,"pm10":72.6,"pm2_5":25.2,"mosquito_risk":3,"arthritis_risk":10,"migraine_risk":7,"frizz_risk":1,"updated_at":"2026-04-04T18:32:20.392382+05:30"},{"city":"Ludhiana","state":"Punjab","latitude":30.901,"longitude":75.8573,"temp":21.1,"humidity":73,"rain":0.0,"pressure":980.7,"uv_index":6.7,"wind_gusts":28.4,"aqi":124,"pm10":114.8,"pm2_5":33.2,"mosquito_risk":3,"arthritis_risk":5,"migraine_risk":7,"frizz_risk":0,"updated_at":"2026-04-04T18:32:20.392388+05:30"},{"city":"Jalandhar","state":"Punjab","latitude":31.326,"longitude":75.5762,"temp":19.7,"humidity":82,"rain":0.0,"pressure":981.9,"uv_index":6.75,"wind_gusts":34.2,"aqi":105,"pm10":114.6,"pm2_5":32.7,"mosquito_risk":3,"arthritis_risk":10,"migraine_risk":7,"frizz_risk":1,"updated_at":"2026-04-04T18:32:20.392396+05:30"},{"city":"Dehradun","state":"Uttarakhand","latitude":30.6284,"longitude":78.0322,"temp":15.5,"humidity":62,"rain":0.0,"pressure":830.0,"uv_index":3.85,"wind_gusts":34.2,"aqi":51,"pm10":20.4,"pm2_5":8.3,"mosquito_risk":3,"arthritis_risk":5,"migraine_risk":3,"frizz_risk":0,"updated_at":"2026-04-04T18:32:20.392403+05:30"},{"city":"Shimla","state":"Himachal Pradesh","latitude":31.1048,"longitude":77.1734,"temp":13.3,"humidity":83,"rain":0.0,"pressure":783.7,"uv_index":5.55,"wind_gusts":49.7,"aqi":56,"pm10":30.3,"pm2_5":15.1,"mosquito_risk":3,"arthritis_risk":10,"migraine_risk":3,"frizz_risk":0,"updated_at":"2026-04-04T18:32:20.392410+05:30"},{"city":"Manali","state":"Himachal Pradesh","latitude":32.2396,"longitude":77.1887,"temp":14.2,"humidity":72,"rain":0.0,"pressure":818.1,"uv_index":7.2,"wind_gusts":31.3,"aqi":75,"pm10":14.5,"pm2_5":4.8,"mosquito_risk":3,"arthritis_risk":5,"migraine_risk":7,"frizz_risk":0,"updated_at":"2026-04-04T18:32:20.392416+05:30"},{"city":"Gurgaon","state":"Haryana","latitude":28.4595,"longitude":77.0266,"temp":24.9,"humidity":61,"rain":0.0,"pressure":982.2,"uv_index":6.2,"wind_gusts":28.8,"aqi":523,"pm10":153.2,"pm2_5":38.0,"mosquito_risk":3,"arthritis_risk":5,"migraine_risk":7,"frizz_risk":1,"updated_at":"2026-04-04T18:32:20.392423+05:30"},{"city":"Noida","state":"Uttar Pradesh","latitude":28.5355,"longitude":77.391,"temp":25.3,"humidity":63,"rain":0.0,"pressure":985.7,"uv_index":5.7,"wind_gusts":29.9,"aqi":523,"pm10":153.2,"pm2_5":38.0,"mosquito_risk":7,"arthritis_risk":5,"migraine_risk":3,"frizz_risk":1,"updated_at":"2026-04-04T18:32:20.392429+05:30"},{"city":"Ghaziabad","state":"Uttar Pradesh","latitude":28.6692,"longitude":77.4538,"temp":24.2,"humidity":73,"rain":0.0,"pressure":983.8,"uv_index":5.55,"wind_gusts":29.9,"aqi":147,"pm10":329.7,"pm2_5":54.2,"mosquito_risk":3,"arthritis_risk":5,"migraine_risk":3,"frizz_risk":1,"updated_at":"2026-04-04T18:32:20.392436+05:30"},{"city":"Faridabad","state":"Haryana","latitude":28.4089,"longitude":77.3178,"temp":25.8,"humidity":59,"rain":0.0,"pressure":984.6,"uv_index":5.8,"wind_gusts":29.5,"aqi":523,"pm10":153.2,"pm2_5":38.0,"mosquito_risk":4,"arthritis_risk":5,"migraine_risk":3,"frizz_risk":1,"updated_at":"2026-04-04T18:32:20.392442+05:30"},{"city":"Meerut","state":"Uttar Pradesh","latitude":28.9845,"longitude":77.7064,"temp":22.9,"humidity":78,"rain":0.0,"pressure":982.5,"uv_index":6.45,"wind_gusts":46.4,"aqi":147,"pm10":329.7,"pm2_5":54.2,"mosquito_risk":3,"arthritis_risk":5,"migraine_risk":7,"frizz_risk":1,"updated_at":"2026-04-04T18:32:20.392448+05:30"},{"city":"Agra","state":"Uttar Pradesh","latitude":27.1767,"longitude":78.0081,"temp":24.1,"humidity":71,"rain":0.0,"pressure":988.6,"uv_index":6.8,"wind_gusts":35.6,"aqi":591,"pm10":349.2,"pm2_5":63.3,"mosquito_risk":3,"arthritis_risk":5,"migraine_risk":7,"frizz_risk":1,"updated_at":"2026-04-04T18:32:20.392454+05:30"},{"city":"Varanasi","state":"Uttar Pradesh","latitude":25.3176,"longitude":82.9739,"temp":30.0,"humidity":59,"rain":0.0,"pressure":996.1,"uv_index":6.05,"wind_gusts":24.8,"aqi":90,"pm10":28.5,"pm2_5":25.8,"mosquito_risk":4,"arthritis_risk":5,"migraine_risk":7,"frizz_risk":1,"updated_at":"2026-04-04T18:32:20.392463+05:30"},{"city":"Prayagraj","state":"Uttar Pradesh","latitude":25.4358,"longitude":81.8463,"temp":29.9,"humidity":55,"rain":0.0,"pressure":995.0,"uv_index":5.45,"wind_gusts":37.1,"aqi":99,"pm10":49.5,"pm2_5":30.9,"mosquito_risk":4,"arthritis_risk":5,"migraine_risk":3,"frizz_risk":1,"updated_at":"2026-04-04T18:32:20.392470+05:30"},{"city":"Gorakhpur","state":"Uttar Pradesh","latitude":26.7606,"longitude":83.3732,"temp":32.1,"humidity":35,"rain":0.0,"pressure":994.5,"uv_index":6.8,"wind_gusts":37.1,"aqi":104,"pm10":73.3,"pm2_5":35.3,"mosquito_risk":0,"arthritis_risk":5,"migraine_risk":7,"frizz_risk":0,"updated_at":"2026-04-04T18:32:20.392477+05:30"},{"city":"Bareilly","state":"Uttar Pradesh","latitude":28.367,"longitude":79.4304,"temp":26.9,"humidity":59,"rain":0.0,"pressure":987.2,"uv_index":5.35,"wind_gusts":24.5,"aqi":106,"pm10":30.9,"pm2_5":19.3,"mosquito_risk":4,"arthritis_risk":5,"migraine_risk":3,"frizz_risk":1,"updated_at":"2026-04-04T18:32:20.392483+05:30"},{"city":"Aligarh","state":"Uttar Pradesh","latitude":27.8974,"longitude":78.088,"temp":24.8,"humidity":70,"rain":0.0,"pressure":986.1,"uv_index":5.3,"wind_gusts":40.7,"aqi":557,"pm10":875.4,"pm2_5":106.6,"mosquito_risk":3,"arthritis_risk":5,"migraine_risk":3,"frizz_risk":1,"updated_at":"2026-04-04T18:32:20.392490+05:30"},{"city":"Moradabad","state":"Uttar Pradesh","latitude":28.8386,"longitude":78.7733,"temp":23.7,"humidity":71,"rain":0.0,"pressure":984.4,"uv_index":6.0,"wind_gusts":31.0,"aqi":124,"pm10":61.2,"pm2_5":28.3,"mosquito_risk":3,"arthritis_risk":5,"migraine_risk":3,"frizz_risk":1,"updated_at":"2026-04-04T18:32:20.392499+05:30"},{"city":"Saharanpur","state":"Uttar Pradesh","latitude":29.9637,"longitude":77.546,"temp":22.9,"humidity":79,"rain":0.0,"pressure":976.9,"uv_index":5.6,"wind_gusts":29.5,"aqi":151,"pm10":125.7,"pm2_5":36.0,"mosquito_risk":3,"arthritis_risk":5,"migraine_risk":3,"frizz_risk":1,"updated_at":"2026-04-04T18:32:20.392505+05:30"},{"city":"Jhansi","state":"Uttar Pradesh","latitude":25.4484,"longitude":78.5685,"temp":27.9,"humidity":56,"rain":0.0,"pressure":978.3,"uv_index":7.15,"wind_gusts":45.0,"aqi":82,"pm10":30.4,"pm2_5":13.5,"mosquito_risk":4,"arthritis_risk":5,"migraine_risk":7,"frizz_risk":1,"updated_at":"2026-04-04T18:32:23.649329+05:30"},{"city":"Surat","state":"Gujarat","latitude":21.1702,"longitude":72.8311,"temp":27.9,"humidity":68,"rain":0.0,"pressure":1006.1,"uv_index":7.6,"wind_gusts":25.6,"aqi":77,"pm10":49.5,"pm2_5":24.5,"mosquito_risk":7,"arthritis_risk":5,"migraine_risk":4,"frizz_risk":1,"updated_at":"2026-04-04T18:32:23.649362+05:30"},{"city":"Vadodara","state":"Gujarat","latitude":22.3072,"longitude":73.1812,"temp":32.1,"humidity":32,"rain":0.0,"pressure":1003.0,"uv_index":7.85,"wind_gusts":25.9,"aqi":76,"pm10":48.4,"pm2_5":19.8,"mosquito_risk":0,"arthritis_risk":5,"migraine_risk":4,"frizz_risk":0,"updated_at":"2026-04-04T18:32:23.649374+05:30"},{"city":"Rajkot","state":"Gujarat","latitude":22.3039,"longitude":70.8022,"temp":29.8,"humidity":31,"rain":0.0,"pressure":993.7,"uv_index":7.55,"wind_gusts":34.9,"aqi":93,"pm10":23.7,"pm2_5":12.3,"mosquito_risk":4,"arthritis_risk":5,"migraine_risk":7,"frizz_risk":0,"updated_at":"2026-04-04T18:32:23.649384+05:30"},{"city":"Thane","state":"Maharashtra","latitude":19.2183,"longitude":72.9781,"temp":27.9,"humidity":71,"rain":0.0,"pressure":1007.7,"uv_index":7.9,"wind_gusts":36.7,"aqi":73,"pm10":40.5,"pm2_5":17.3,"mosquito_risk":7,"arthritis_risk":5,"migraine_risk":4,"frizz_risk":1,"updated_at":"2026-04-04T18:32:23.649393+05:30"},{"city":"Nagpur","state":"Maharashtra","latitude":21.1458,"longitude":79.0882,"temp":26.8,"humidity":65,"rain":0.0,"pressure":973.4,"uv_index":7.65,"wind_gusts":35.3,"aqi":154,"pm10":41.3,"pm2_5":37.0,"mosquito_risk":7,"arthritis_risk":5,"migraine_risk":7,"frizz_risk":1,"updated_at":"2026-04-04T18:32:23.649403+05:30"},{"city":"Nashik","state":"Maharashtra","latitude":19.9975,"longitude":73.7898,"temp":26.9,"humidity":56,"rain":0.0,"pressure":944.6,"uv_index":8.15,"wind_gusts":37.4,"aqi":57,"pm10":24.9,"pm2_5":9.8,"mosquito_risk":4,"arthritis_risk":5,"migraine_risk":7,"frizz_risk":1,"updated_at":"2026-04-04T18:32:23.649412+05:30"},{"city":"Aurangabad","state":"Maharashtra","latitude":19.8762,"longitude":75.3433,"temp":32.2,"humidity":26,"rain":0.0,"pressure":942.5,"uv_index":8.85,"wind_gusts":36.7,"aqi":90,"pm10":21.8,"pm2_5":12.3,"mosquito_risk":0,"arthritis_risk":5,"migraine_risk":7,"frizz_risk":0,"updated_at":"2026-04-04T18:32:23.649421+05:30"},{"city":"Solapur","state":"Maharashtra","latitude":17.6599,"longitude":75.9064,"temp":33.7,"humidity":32,"rain":0.0,"pressure":955.3,"uv_index":8.9,"wind_gusts":22.0,"aqi":137,"pm10":27.4,"pm2_5":21.0,"mosquito_risk":0,"arthritis_risk":5,"migraine_risk":7,"frizz_risk":0,"updated_at":"2026-04-04T18:32:23.649430+05:30"},{"city":"Kolhapur","state":"Maharashtra","latitude":16.705,"longitude":74.2433,"temp":27.4,"humidity":58,"rain":0.0,"pressure":947.2,"uv_index":8.95,"wind_gusts":44.6,"aqi":96,"pm10":24.8,"pm2_5":19.8,"mosquito_risk":4,"arthritis_risk":5,"migraine_risk":7,"frizz_risk":1,"updated_at":"2026-04-04T18:32:23.649439+05:30"},{"city":"Goa","state":"Goa","latitude":15.2993,"longitude":74.124,"temp":28.5,"humidity":71,"rain":0.0,"pressure":997.8,"uv_index":8.15,"wind_gusts":36.4,"aqi":65,"pm10":29.7,"pm2_5":12.9,"mosquito_risk":7,"arthritis_risk":5,"migraine_risk":7,"frizz_risk":1,"updated_at":"2026-04-04T18:32:23.649448+05:30"},{"city":"Jodhpur","state":"Rajasthan","latitude":26.2389,"longitude":73.0243,"temp":28.6,"humidity":27,"rain":0.0,"pressure":982.4,"uv_index":7.6,"wind_gusts":28.4,"aqi":88,"pm10":145.3,"pm2_5":20.8,"mosquito_risk":4,"arthritis_risk":5,"migraine_risk":7,"frizz_risk":0,"updated_at":"2026-04-04T18:32:23.649458+05:30"},{"city":"Udaipur","state":"Rajasthan","latitude":24.5854,"longitude":73.7125,"temp":26.3,"humidity":24,"rain":0.0,"pressure":945.4,"uv_index":7.5,"wind_gusts":37.8,"aqi":53,"pm10":13.9,"pm2_5":6.5,"mosquito_risk":4,"arthritis_risk":5,"migraine_risk":7,"frizz_risk":0,"updated_at":"2026-04-04T18:32:23.649467+05:30"},{"city":"Kota","state":"Rajasthan","latitude":25.2138,"longitude":75.8648,"temp":28.7,"humidity":46,"rain":0.0,"pressure":977.8,"uv_index":7.8,"wind_gusts":34.2,"aqi":67,"pm10":35.6,"pm2_5":13.4,"mosquito_risk":4,"arthritis_risk":5,"migraine_risk":7,"frizz_risk":0,"updated_at":"2026-04-04T18:32:23.649476+05:30"},{"city":"Bikaner","state":"Rajasthan","latitude":28.0229,"longitude":73.3119,"temp":26.6,"humidity":37,"rain":0.0,"pressure":982.0,"uv_index":7.15,"wind_gusts":30.2,"aqi":90,"pm10":25.7,"pm2_5":9.1,"mosquito_risk":4,"arthritis_risk":5,"migraine_risk":7,"frizz_risk":0,"updated_at":"2026-04-04T18:32:23.649485+05:30"},{"city":"Ajmer","state":"Rajasthan","latitude":26.4499,"longitude":74.6399,"temp":26.7,"humidity":34,"rain":0.0,"pressure":953.8,"uv_index":7.65,"wind_gusts":36.0,"aqi":75,"pm10":18.9,"pm2_5":8.5,"mosquito_risk":4,"arthritis_risk":5,"migraine_risk":7,"frizz_risk":0,"updated_at":"2026-04-04T18:32:23.649494+05:30"},{"city":"Gwalior","state":"Madhya Pradesh","latitude":26.2183,"longitude":78.1828,"temp":26.9,"humidity":60,"rain":0.0,"pressure":983.7,"uv_index":7.3,"wind_gusts":29.5,"aqi":106,"pm10":61.5,"pm2_5":18.3,"mosquito_risk":4,"arthritis_risk":5,"migraine_risk":7,"frizz_risk":1,"updated_at":"2026-04-04T18:32:23.649502+05:30"},{"city":"Indore","state":"Madhya Pradesh","latitude":22.7196,"longitude":75.8577,"temp":26.8,"humidity":54,"rain":0.0,"pressure":947.5,"uv_index":8.35,"wind_gusts":38.9,"aqi":66,"pm10":23.5,"pm2_5":13.6,"mosquito_risk":4,"arthritis_risk":5,"migraine_risk":7,"frizz_risk":1,"updated_at":"2026-04-04T18:32:23.649511+05:30"},{"city":"Bhopal","state":"Madhya Pradesh","latitude":23.2599,"longitude":77.4126,"temp":28.3,"humidity":45,"rain":0.0,"pressure":953.7,"uv_index":8.3,"wind_gusts":34.6,"aqi":74,"pm10":25.9,"pm2_5":16.9,"mosquito_risk":4,"arthritis_risk":5,"migraine_risk":7,"frizz_risk":0,"updated_at":"2026-04-04T18:32:23.649519+05:30"},{"city":"Jabalpur","state":"Madhya Pradesh","latitude":23.1815,"longitude":79.9864,"temp":29.1,"humidity":49,"rain":0.0,"pressure":961.1,"uv_index":6.8,"wind_gusts":30.6,"aqi":84,"pm10":25.7,"pm2_5":22.0,"mosquito_risk":4,"arthritis_risk":5,"migraine_risk":7,"frizz_risk":1,"updated_at":"2026-04-04T18:32:23.649528+05:30"},{"city":"Ujjain","state":"Madhya Pradesh","latitude":23.1765,"longitude":75.7885,"temp":26.0,"humidity":60,"rain":0.0,"pressure":953.3,"uv_index":8.25,"wind_gusts":33.8,"aqi":63,"pm10":30.9,"pm2_5":14.8,"mosquito_risk":4,"arthritis_risk":5,"migraine_risk":7,"frizz_risk":1,"updated_at":"2026-04-04T18:32:23.649537+05:30"},{"city":"Visakhapatnam","state":"Andhra Pradesh","latitude":17.6868,"longitude":83.2185,"temp":28.6,"humidity":74,"rain":0.0,"pressure":1002.1,"uv_index":8.4,"wind_gusts":36.7,"aqi":60,"pm10":18.0,"pm2_5":14.9,"mosquito_risk":7,"arthritis_risk":5,"migraine_risk":4,"frizz_risk":1,"updated_at":"2026-04-04T18:32:23.649546+05:30"},{"city":"Vijayawada","state":"Andhra Pradesh","latitude":16.5062,"longitude":80.648,"temp":32.8,"humidity":52,"rain":0.0,"pressure":999.9,"uv_index":8.8,"wind_gusts":19.8,"aqi":65,"pm10":27.4,"pm2_5":25.4,"mosquito_risk":0,"arthritis_risk":5,"migraine_risk":7,"frizz_risk":1,"updated_at":"2026-04-04T18:32:23.649555+05:30"},{"city":"Guntur","state":"Andhra Pradesh","latitude":16.3067,"longitude":80.4365,"temp":31.3,"humidity":48,"rain":0.0,"pressure":1001.4,"uv_index":8.6,"wind_gusts":30.6,"aqi":71,"pm10":24.4,"pm2_5":21.9,"mosquito_risk":0,"arthritis_risk":5,"migraine_risk":4,"frizz_risk":1,"updated_at":"2026-04-04T18:32:23.649564+05:30"},{"city":"Nellore","state":"Andhra Pradesh","latitude":14.4426,"longitude":79.9865,"temp":30.1,"humidity":72,"rain":0.0,"pressure":1003.6,"uv_index":8.75,"wind_gusts":31.0,"aqi":82,"pm10":19.0,"pm2_5":16.1,"mosquito_risk":3,"arthritis_risk":5,"migraine_risk":4,"frizz_risk":1,"updated_at":"2026-04-04T18:32:23.649574+05:30"},{"city":"Kurnool","state":"Andhra Pradesh","latitude":15.8281,"longitude":78.0373,"temp":35.9,"humidity":31,"rain":0.0,"pressure":974.2,"uv_index":8.15,"wind_gusts":22.0,"aqi":146,"pm10":23.2,"pm2_5":18.6,"mosquito_risk":0,"arthritis_risk":5,"migraine_risk":10,"frizz_risk":1,"updated_at":"2026-04-04T18:32:23.649583+05:30"},{"city":"Kakinada","state":"Andhra Pradesh","latitude":16.9891,"longitude":82.2475,"temp":30.4,"humidity":59,"rain":0.0,"pressure":1005.5,"uv_index":8.5,"wind_gusts":34.6,"aqi":36,"pm10":11.6,"pm2_5":8.8,"mosquito_risk":0,"arthritis_risk":5,"migraine_risk":4,"frizz_risk":1,"updated_at":"2026-04-04T18:32:23.649590+05:30"},{"city":"Tirupati","state":"Andhra Pradesh","latitude":13.6288,"longitude":79.4192,"temp":32.9,"humidity":39,"rain":0.0,"pressure":989.2,"uv_index":8.8,"wind_gusts":26.3,"aqi":96,"pm10":26.8,"pm2_5":24.0,"mosquito_risk":0,"arthritis_risk":5,"migraine_risk":7,"frizz_risk":1,"updated_at":"2026-04-04T18:32:23.649597+05:30"},{"city":"Warangal","state":"Telangana","latitude":17.9689,"longitude":79.5941,"temp":27.8,"humidity":73,"rain":0.0,"pressure":977.7,"uv_index":8.0,"wind_gusts":37.1,"aqi":161,"pm10":53.1,"pm2_5":45.4,"mosquito_risk":7,"arthritis_risk":5,"migraine_risk":7,"frizz_risk":1,"updated_at":"2026-04-04T18:32:23.649604+05:30"},{"city":"Nizamabad","state":"Telangana","latitude":18.6725,"longitude":78.0941,"temp":30.4,"humidity":53,"rain":0.0,"pressure":964.0,"uv_index":8.2,"wind_gusts":29.2,"aqi":126,"pm10":52.6,"pm2_5":45.3,"mosquito_risk":0,"arthritis_risk":5,"migraine_risk":7,"frizz_risk":1,"updated_at":"2026-04-04T18:32:23.649611+05:30"},{"city":"Mysore","state":"Karnataka","latitude":12.2958,"longitude":76.6396,"temp":25.9,"humidity":70,"rain":0.0,"pressure":928.2,"uv_index":9.05,"wind_gusts":32.0,"aqi":128,"pm10":24.4,"pm2_5":22.4,"mosquito_risk":7,"arthritis_risk":5,"migraine_risk":7,"frizz_risk":1,"updated_at":"2026-04-04T18:32:23.649618+05:30"},{"city":"Mangalore","state":"Karnataka","latitude":12.9141,"longitude":74.856,"temp":29.7,"humidity":76,"rain":0.0,"pressure":1006.5,"uv_index":8.1,"wind_gusts":20.5,"aqi":60,"pm10":16.4,"pm2_5":12.1,"mosquito_risk":7,"arthritis_risk":5,"migraine_risk":4,"frizz_risk":1,"updated_at":"2026-04-04T18:32:23.649625+05:30"},{"city":"Hubli-Dharwad","state":"Karnataka","latitude":15.3647,"longitude":75.124,"temp":29.2,"humidity":53,"rain":0.0,"pressure":940.2,"uv_index":8.6,"wind_gusts":41.8,"aqi":115,"pm10":23.5,"pm2_5":20.3,"mosquito_risk":4,"arthritis_risk":5,"migraine_risk":7,"frizz_risk":1,"updated_at":"2026-04-04T18:32:23.649633+05:30"},{"city":"Belgaum","state":"Karnataka","latitude":15.8497,"longitude":74.4977,"temp":26.3,"humidity":68,"rain":0.0,"pressure":925.3,"uv_index":9.1,"wind_gusts":37.8,"aqi":90,"pm10":19.0,"pm2_5":12.9,"mosquito_risk":7,"arthritis_risk":5,"migraine_risk":7,"frizz_risk":1,"updated_at":"2026-04-04T18:32:26.909344+05:30"},{"city":"Coimbatore","state":"Tamil Nadu","latitude":11.0168,"longitude":76.9558,"temp":26.4,"humidity":74,"rain":0.0,"pressure":961.8,"uv_index":8.95,"wind_gusts":50.4,"aqi":99,"pm10":15.2,"pm2_5":14.3,"mosquito_risk":7,"arthritis_risk":5,"migraine_risk":7,"frizz_risk":1,"updated_at":"2026-04-04T18:32:26.909375+05:30"},{"city":"Madurai","state":"Tamil Nadu","latitude":9.9252,"longitude":78.1198,"temp":33.8,"humidity":42,"rain":0.0,"pressure":991.8,"uv_index":8.6,"wind_gusts":28.1,"aqi":145,"pm10":28.4,"pm2_5":26.7,"mosquito_risk":0,"arthritis_risk":5,"migraine_risk":7,"frizz_risk":1,"updated_at":"2026-04-04T18:32:26.909385+05:30"},{"city":"Trichy","state":"Tamil Nadu","latitude":10.7905,"longitude":78.7047,"temp":33.6,"humidity":48,"rain":0.0,"pressure":998.0,"uv_index":9.15,"wind_gusts":29.9,"aqi":113,"pm10":26.3,"pm2_5":25.0,"mosquito_risk":0,"arthritis_risk":5,"migraine_risk":7,"frizz_risk":1,"updated_at":"2026-04-04T18:32:26.909393+05:30"},{"city":"Salem","state":"Tamil Nadu","latitude":11.6643,"longitude":78.146,"temp":29.1,"humidity":66,"rain":0.0,"pressure":976.5,"uv_index":8.5,"wind_gusts":41.0,"aqi":172,"pm10":33.1,"pm2_5":29.3,"mosquito_risk":7,"arthritis_risk":5,"migraine_risk":7,"frizz_risk":1,"updated_at":"2026-04-04T18:32:26.909401+05:30"},{"city":"Tirunelveli","state":"Tamil Nadu","latitude":8.7139,"longitude":77.7567,"temp":31.4,"humidity":58,"rain":0.0,"pressure":1002.2,"uv_index":8.45,"wind_gusts":24.5,"aqi":61,"pm10":17.0,"pm2_5":16.1,"mosquito_risk":0,"arthritis_risk":5,"migraine_risk":4,"frizz_risk":1,"updated_at":"2026-04-04T18:32:26.909409+05:30"},{"city":"Vellore","state":"Tamil Nadu","latitude":12.9165,"longitude":79.1325,"temp":30.9,"humidity":60,"rain":0.0,"pressure":983.0,"uv_index":8.75,"wind_gusts":26.6,"aqi":132,"pm10":32.4,"pm2_5":29.8,"mosquito_risk":0,"arthritis_risk":5,"migraine_risk":7,"frizz_risk":1,"updated_at":"2026-04-04T18:32:26.909416+05:30"},{"city":"Erode","state":"Tamil Nadu","latitude":11.341,"longitude":77.7172,"temp":28.7,"humidity":70,"rain":0.0,"pressure":988.5,"uv_index":8.8,"wind_gusts":39.6,"aqi":151,"pm10":23.0,"pm2_5":21.2,"mosquito_risk":7,"arthritis_risk":5,"migraine_risk":7,"frizz_risk":1,"updated_at":"2026-04-04T18:32:26.909424+05:30"},{"city":"Kochi","state":"Kerala","latitude":9.9312,"longitude":76.2673,"temp":28.9,"humidity":79,"rain":0.0,"pressure":1008.8,"uv_index":8.7,"wind_gusts":21.2,"aqi":73,"pm10":12.2,"pm2_5":10.7,"mosquito_risk":7,"arthritis_risk":0,"migraine_risk":4,"frizz_risk":1,"updated_at":"2026-04-04T18:32:26.909431+05:30"},{"city":"Thiruvananthapuram","state":"Kerala","latitude":8.5241,"longitude":76.9366,"temp":29.1,"humidity":79,"rain":0.0,"pressure":1008.0,"uv_index":8.55,"wind_gusts":29.5,"aqi":73,"pm10":14.4,"pm2_5":10.2,"mosquito_risk":7,"arthritis_risk":0,"migraine_risk":4,"frizz_risk":1,"updated_at":"2026-04-04T18:32:26.909439+05:30"},{"city":"Kozhikode","state":"Kerala","latitude":11.2588,"longitude":75.7804,"temp":29.2,"humidity":77,"rain":0.0,"pressure":1007.9,"uv_index":8.25,"wind_gusts":26.3,"aqi":60,"pm10":13.8,"pm2_5":10.2,"mosquito_risk":7,"arthritis_risk":5,"migraine_risk":4,"frizz_risk":1,"updated_at":"2026-04-04T18:32:26.909445+05:30"},{"city":"Thrissur","state":"Kerala","latitude":10.5276,"longitude":76.2144,"temp":28.8,"humidity":77,"rain":0.0,"pressure":1007.1,"uv_index":8.5,"wind_gusts":28.1,"aqi":60,"pm10":12.6,"pm2_5":11.3,"mosquito_risk":7,"arthritis_risk":5,"migraine_risk":4,"frizz_risk":1,"updated_at":"2026-04-04T18:32:26.909453+05:30"},{"city":"Kannur","state":"Kerala","latitude":11.8745,"longitude":75.3704,"temp":28.7,"humidity":80,"rain":0.0,"pressure":1007.3,"uv_index":8.2,"wind_gusts":24.1,"aqi":69,"pm10":12.1,"pm2_5":9.4,"mosquito_risk":7,"arthritis_risk":5,"migraine_risk":4,"frizz_risk":1,"updated_at":"2026-04-04T18:32:26.909460+05:30"},{"city":"Patna","state":"Bihar","latitude":25.5941,"longitude":85.1376,"temp":32.1,"humidity":45,"rain":0.0,"pressure":997.2,"uv_index":7.95,"wind_gusts":34.6,"aqi":125,"pm10":38.8,"pm2_5":25.0,"mosquito_risk":0,"arthritis_risk":5,"migraine_risk":7,"frizz_risk":1,"updated_at":"2026-04-04T18:32:26.909467+05:30"},{"city":"Gaya","state":"Bihar","latitude":24.7914,"longitude":85.0002,"temp":30.6,"humidity":48,"rain":0.0,"pressure":991.4,"uv_index":8.4,"wind_gusts":22.7,"aqi":118,"pm10":26.8,"pm2_5":20.8,"mosquito_risk":0,"arthritis_risk":5,"migraine_risk":7,"frizz_risk":1,"updated_at":"2026-04-04T18:32:26.909474+05:30"},{"city":"Muzaffarpur","state":"Bihar","latitude":26.1209,"longitude":85.3647,"temp":31.0,"humidity":40,"rain":0.0,"pressure":996.9,"uv_index":7.9,"wind_gusts":32.8,"aqi":120,"pm10":55.8,"pm2_5":29.9,"mosquito_risk":0,"arthritis_risk":5,"migraine_risk":7,"frizz_risk":0,"updated_at":"2026-04-04T18:32:26.909481+05:30"},{"city":"Bhagalpur","state":"Bihar","latitude":25.2425,"longitude":87.0117,"temp":30.6,"humidity":52,"rain":0.0,"pressure":997.5,"uv_index":8.25,"wind_gusts":27.0,"aqi":151,"pm10":42.6,"pm2_5":24.8,"mosquito_risk":0,"arthritis_risk":5,"migraine_risk":7,"frizz_risk":1,"updated_at":"2026-04-04T18:32:26.909487+05:30"},{"city":"Ranchi","state":"Jharkhand","latitude":23.3441,"longitude":85.3096,"temp":27.4,"humidity":50,"rain":0.0,"pressure":936.8,"uv_index":8.2,"wind_gusts":37.8,"aqi":123,"pm10":21.0,"pm2_5":19.0,"mosquito_risk":4,"arthritis_risk":5,"migraine_risk":7,"frizz_risk":1,"updated_at":"2026-04-04T18:32:26.909494+05:30"},{"city":"Jamshedpur","state":"Jharkhand","latitude":22.8046,"longitude":86.2029,"temp":33.8,"humidity":40,"rain":0.0,"pressure":988.2,"uv_index":8.5,"wind_gusts":21.2,"aqi":152,"pm10":37.8,"pm2_5":33.1,"mosquito_risk":0,"arthritis_risk":5,"migraine_risk":7,"frizz_risk":1,"updated_at":"2026-04-04T18:32:26.909501+05:30"},{"city":"Dhanbad","state":"Jharkhand","latitude":23.7957,"longitude":86.4304,"temp":34.7,"humidity":32,"rain":0.0,"pressure":977.1,"uv_index":8.55,"wind_gusts":19.8,"aqi":108,"pm10":31.7,"pm2_5":28.3,"mosquito_risk":0,"arthritis_risk":5,"migraine_risk":7,"frizz_risk":0,"updated_at":"2026-04-04T18:32:26.909508+05:30"},{"city":"Bokaro","state":"Jharkhand","latitude":23.6693,"longitude":86.1511,"temp":33.3,"humidity":39,"rain":0.0,"pressure":981.3,"uv_index":8.15,"wind_gusts":20.2,"aqi":111,"pm10":28.3,"pm2_5":24.9,"mosquito_risk":0,"arthritis_risk":5,"migraine_risk":7,"frizz_risk":1,"updated_at":"2026-04-04T18:32:26.909515+05:30"},{"city":"Bhubaneswar","state":"Odisha","latitude":20.2961,"longitude":85.8245,"temp":28.8,"humidity":80,"rain":0.0,"pressure":1001.4,"uv_index":8.95,"wind_gusts":26.3,"aqi":166,"pm10":35.4,"pm2_5":31.9,"mosquito_risk":7,"arthritis_risk":5,"migraine_risk":4,"frizz_risk":1,"updated_at":"2026-04-04T18:32:26.909522+05:30"},{"city":"Cuttack","state":"Odisha","latitude":20.4625,"longitude":85.8828,"temp":30.5,"humidity":70,"rain":0.0,"pressure":1003.1,"uv_index":9.0,"wind_gusts":31.7,"aqi":166,"pm10":35.4,"pm2_5":31.9,"mosquito_risk":3,"arthritis_risk":5,"migraine_risk":4,"frizz_risk":1,"updated_at":"2026-04-04T18:32:26.909529+05:30"},{"city":"Rourkela","state":"Odisha","latitude":22.2604,"longitude":84.8536,"temp":28.0,"humidity":63,"rain":0.0,"pressure":984.5,"uv_index":8.45,"wind_gusts":59.4,"aqi":155,"pm10":36.4,"pm2_5":32.8,"mosquito_risk":7,"arthritis_risk":5,"migraine_risk":7,"frizz_risk":1,"updated_at":"2026-04-04T18:32:26.909535+05:30"},{"city":"Raipur","state":"Chhattisgarh","latitude":21.2514,"longitude":81.6296,"temp":32.1,"humidity":45,"rain":0.0,"pressure":973.6,"uv_index":7.75,"wind_gusts":41.4,"aqi":143,"pm10":57.4,"pm2_5":49.6,"mosquito_risk":0,"arthritis_risk":5,"migraine_risk":7,"frizz_risk":1,"updated_at":"2026-04-04T18:32:26.909542+05:30"},{"city":"Bhilai","state":"Chhattisgarh","latitude":21.1938,"longitude":81.3509,"temp":31.1,"humidity":51,"rain":0.0,"pressure":974.0,"uv_index":8.15,"wind_gusts":37.8,"aqi":118,"pm10":47.1,"pm2_5":40.5,"mosquito_risk":0,"arthritis_risk":5,"migraine_risk":7,"frizz_risk":1,"updated_at":"2026-04-04T18:32:26.909548+05:30"},{"city":"Guwahati","state":"Assam","latitude":26.1158,"longitude":91.7086,"temp":28.6,"humidity":75,"rain":0.0,"pressure":998.2,"uv_index":8.25,"wind_gusts":31.0,"aqi":123,"pm10":58.2,"pm2_5":48.9,"mosquito_risk":7,"arthritis_risk":5,"migraine_risk":7,"frizz_risk":1,"updated_at":"2026-04-04T18:32:26.909554+05:30"},{"city":"Agartala","state":"Tripura","latitude":23.8315,"longitude":91.2868,"temp":29.7,"humidity":75,"rain":0.0,"pressure":1002.8,"uv_index":8.45,"wind_gusts":25.6,"aqi":133,"pm10":51.9,"pm2_5":47.4,"mosquito_risk":7,"arthritis_risk":5,"migraine_risk":4,"frizz_risk":1,"updated_at":"2026-04-04T18:32:26.909561+05:30"},{"city":"Shillong","state":"Meghalaya","latitude":25.5788,"longitude":91.8933,"temp":16.3,"humidity":87,"rain":0.0,"pressure":854.4,"uv_index":8.4,"wind_gusts":55.1,"aqi":107,"pm10":35.7,"pm2_5":30.7,"mosquito_risk":3,"arthritis_risk":10,"migraine_risk":7,"frizz_risk":0,"updated_at":"2026-04-04T18:32:26.909568+05:30"},{"city":"Imphal","state":"Manipur","latitude":24.817,"longitude":93.9368,"temp":20.8,"humidity":74,"rain":0.0,"pressure":921.2,"uv_index":8.75,"wind_gusts":76.0,"aqi":126,"pm10":48.5,"pm2_5":39.3,"mosquito_risk":3,"arthritis_risk":5,"migraine_risk":7,"frizz_risk":0,"updated_at":"2026-04-04T18:32:26.909574+05:30"},{"city":"Aizawl","state":"Mizoram","latitude":23.7271,"longitude":92.7176,"temp":22.7,"humidity":73,"rain":0.0,"pressure":891.4,"uv_index":8.55,"wind_gusts":55.1,"aqi":121,"pm10":45.9,"pm2_5":38.8,"mosquito_risk":3,"arthritis_risk":5,"migraine_risk":7,"frizz_risk":1,"updated_at":"2026-04-04T18:32:26.909581+05:30"},{"city":"Kohima","state":"Nagaland","latitude":25.6701,"longitude":94.1077,"temp":17.8,"humidity":82,"rain":0.0,"pressure":852.9,"uv_index":8.55,"wind_gusts":74.2,"aqi":101,"pm10":41.2,"pm2_5":32.2,"mosquito_risk":3,"arthritis_risk":10,"migraine_risk":7,"frizz_risk":0,"updated_at":"2026-04-04T18:32:26.909587+05:30"},{"city":"Gangtok","state":"Sikkim","latitude":27.3314,"longitude":88.6138,"temp":18.2,"humidity":85,"rain":0.0,"pressure":835.9,"uv_index":8.45,"wind_gusts":18.4,"aqi":132,"pm10":55.3,"pm2_5":45.3,"mosquito_risk":3,"arthritis_risk":10,"migraine_risk":7,"frizz_risk":0,"updated_at":"2026-04-04T18:32:26.909593+05:30"},{"city":"Siliguri","state":"West Bengal","latitude":26.7271,"longitude":88.3953,"temp":24.8,"humidity":75,"rain":0.0,"pressure":990.5,"uv_index":8.2,"wind_gusts":28.8,"aqi":162,"pm10":76.6,"pm2_5":61.7,"mosquito_risk":3,"arthritis_risk":5,"migraine_risk":7,"frizz_risk":1,"updated_at":"2026-04-04T18:32:30.170709+05:30"},{"city":"Durgapur","state":"West Bengal","latitude":23.5204,"longitude":87.3119,"temp":33.7,"humidity":39,"rain":0.0,"pressure":991.7,"uv_index":8.35,"wind_gusts":15.8,"aqi":115,"pm10":45.2,"pm2_5":42.7,"mosquito_risk":0,"arthritis_risk":5,"migraine_risk":7,"frizz_risk":1,"updated_at":"2026-04-04T18:32:30.170741+05:30"},{"city":"Asansol","state":"West Bengal","latitude":23.6739,"longitude":86.9524,"temp":34.0,"humidity":39,"rain":0.0,"pressure":990.2,"uv_index":8.45,"wind_gusts":15.5,"aqi":105,"pm10":36.0,"pm2_5":32.5,"mosquito_risk":0,"arthritis_risk":5,"migraine_risk":7,"frizz_risk":1,"updated_at":"2026-04-04T18:32:30.170752+05:30"},{"city":"Pondicherry","state":"Puducherry","latitude":11.9139,"longitude":79.8145,"temp":30.6,"humidity":74,"rain":0.0,"pressure":1006.5,"uv_index":8.9,"wind_gusts":23.8,"aqi":79,"pm10":14.3,"pm2_5":10.4,"mosquito_risk":3,"arthritis_risk":5,"migraine_risk":4,"frizz_risk":1,"updated_at":"2026-04-04T18:32:30.170762+05:30"},{"city":"Port Blair","state":"Andaman and Nicobar Islands","latitude":11.6234,"longitude":92.7265,"temp":29.0,"humidity":71,"rain":0.0,"pressure":1006.4,"uv_index":8.75,"wind_gusts":18.7,"aqi":45,"pm10":17.1,"pm2_5":10.0,"mosquito_risk":7,"arthritis_risk":5,"migraine_risk":4,"frizz_risk":1,"updated_at":"2026-04-04T18:32:30.170774+05:30"},{"city":"Haridwar","state":"Uttarakhand","latitude":29.9457,"longitude":78.1642,"temp":22.2,"humidity":79,"rain":0.0,"pressure":975.6,"uv_index":5.55,"wind_gusts":37.1,"aqi":94,"pm10":70.3,"pm2_5":29.0,"mosquito_risk":3,"arthritis_risk":5,"migraine_risk":3,"frizz_risk":1,"updated_at":"2026-04-04T18:32:30.170782+05:30"},{"city":"Rishikesh","state":"Uttarakhand","latitude":30.0869,"longitude":78.2676,"temp":22.6,"humidity":68,"rain":0.0,"pressure":968.1,"uv_index":6.05,"wind_gusts":25.6,"aqi":62,"pm10":32.1,"pm2_5":14.2,"mosquito_risk":3,"arthritis_risk":5,"migraine_risk":7,"frizz_risk":1,"updated_at":"2026-04-04T18:32:30.170790+05:30"},{"city":"Nainital","state":"Uttarakhand","latitude":29.3919,"longitude":79.4542,"temp":19.2,"humidity":53,"rain":0.0,"pressure":806.6,"uv_index":4.95,"wind_gusts":39.2,"aqi":74,"pm10":28.5,"pm2_5":14.4,"mosquito_risk":0,"arthritis_risk":5,"migraine_risk":3,"frizz_risk":0,"updated_at":"2026-04-04T18:32:30.170799+05:30"},{"city":"Mussoorie","state":"Uttarakhand","latitude":30.4599,"longitude":78.0664,"temp":16.1,"humidity":63,"rain":0.0,"pressure":802.7,"uv_index":5.1,"wind_gusts":47.2,"aqi":64,"pm10":39.0,"pm2_5":17.6,"mosquito_risk":3,"arthritis_risk":5,"migraine_risk":3,"frizz_risk":0,"updated_at":"2026-04-04T18:32:30.170807+05:30"},{"city":"Dharamshala","state":"Himachal Pradesh","latitude":32.219,"longitude":76.3234,"temp":15.7,"humidity":85,"rain":0.0,"pressure":868.8,"uv_index":5.7,"wind_gusts":47.5,"aqi":51,"pm10":10.7,"pm2_5":6.1,"mosquito_risk":3,"arthritis_risk":10,"migraine_risk":3,"frizz_risk":0,"updated_at":"2026-04-04T18:32:30.170814+05:30"},{"city":"Dalhousie","state":"Himachal Pradesh","latitude":32.5387,"longitude":75.971,"temp":12.9,"humidity":72,"rain":0.0,"pressure":802.2,"uv_index":5.65,"wind_gusts":52.6,"aqi":68,"pm10":59.8,"pm2_5":21.7,"mosquito_risk":3,"arthritis_risk":5,"migraine_risk":3,"frizz_risk":0,"updated_at":"2026-04-04T18:32:30.170821+05:30"},{"city":"Patiala","state":"Punjab","latitude":30.3398,"longitude":76.3869,"temp":24.4,"humidity":61,"rain":0.0,"pressure":979.6,"uv_index":5.4,"wind_gusts":27.4,"aqi":178,"pm10":235.6,"pm2_5":40.3,"mosquito_risk":3,"arthritis_risk":5,"migraine_risk":3,"frizz_risk":1,"updated_at":"2026-04-04T18:32:30.170828+05:30"},{"city":"Bhatinda","state":"Punjab","latitude":30.211,"longitude":74.9455,"temp":21.6,"humidity":76,"rain":0.0,"pressure":985.0,"uv_index":6.95,"wind_gusts":32.8,"aqi":84,"pm10":74.3,"pm2_5":22.2,"mosquito_risk":3,"arthritis_risk":5,"migraine_risk":7,"frizz_risk":1,"updated_at":"2026-04-04T18:32:30.170835+05:30"},{"city":"Rohtak","state":"Haryana","latitude":28.8955,"longitude":76.6066,"temp":25.6,"humidity":55,"rain":0.0,"pressure":982.7,"uv_index":6.55,"wind_gusts":24.5,"aqi":98,"pm10":124.8,"pm2_5":31.0,"mosquito_risk":4,"arthritis_risk":5,"migraine_risk":7,"frizz_risk":0,"updated_at":"2026-04-04T18:32:30.170841+05:30"},{"city":"Panipat","state":"Haryana","latitude":29.3909,"longitude":76.9635,"temp":23.9,"humidity":68,"rain":0.0,"pressure":981.6,"uv_index":5.75,"wind_gusts":27.0,"aqi":217,"pm10":395.8,"pm2_5":56.7,"mosquito_risk":3,"arthritis_risk":5,"migraine_risk":3,"frizz_risk":1,"updated_at":"2026-04-04T18:32:30.170847+05:30"},{"city":"Mathura","state":"Uttar Pradesh","latitude":27.4924,"longitude":77.6737,"temp":23.1,"humidity":74,"rain":0.0,"pressure":987.7,"uv_index":5.25,"wind_gusts":40.7,"aqi":432,"pm10":732.0,"pm2_5":91.0,"mosquito_risk":3,"arthritis_risk":5,"migraine_risk":3,"frizz_risk":1,"updated_at":"2026-04-04T18:32:30.170853+05:30"},{"city":"Vrindavan","state":"Uttar Pradesh","latitude":27.5823,"longitude":77.7027,"temp":23.4,"humidity":74,"rain":0.0,"pressure":988.1,"uv_index":5.45,"wind_gusts":45.7,"aqi":432,"pm10":732.0,"pm2_5":91.0,"mosquito_risk":3,"arthritis_risk":5,"migraine_risk":3,"frizz_risk":1,"updated_at":"2026-04-04T18:32:30.170859+05:30"},{"city":"Ayodhya","state":"Uttar Pradesh","latitude":26.7922,"longitude":82.1998,"temp":30.5,"humidity":43,"rain":0.0,"pressure":993.7,"uv_index":7.2,"wind_gusts":35.3,"aqi":121,"pm10":106.2,"pm2_5":44.7,"mosquito_risk":0,"arthritis_risk":5,"migraine_risk":7,"frizz_risk":1,"updated_at":"2026-04-04T18:32:30.170865+05:30"},{"city":"Ratlam","state":"Madhya Pradesh","latitude":23.3315,"longitude":75.0367,"temp":27.9,"humidity":47,"rain":0.0,"pressure":953.8,"uv_index":8.1,"wind_gusts":36.7,"aqi":60,"pm10":42.0,"pm2_5":16.4,"mosquito_risk":4,"arthritis_risk":5,"migraine_risk":7,"frizz_risk":0,"updated_at":"2026-04-04T18:32:30.170871+05:30"},{"city":"Sagar","state":"Madhya Pradesh","latitude":23.8388,"longitude":78.7378,"temp":26.0,"humidity":57,"rain":0.0,"pressure":950.9,"uv_index":8.3,"wind_gusts":36.0,"aqi":74,"pm10":24.4,"pm2_5":14.9,"mosquito_risk":4,"arthritis_risk":5,"migraine_risk":7,"frizz_risk":1,"updated_at":"2026-04-04T18:32:30.170877+05:30"},{"city":"Satna","state":"Madhya Pradesh","latitude":24.6005,"longitude":80.8322,"temp":30.3,"humidity":44,"rain":0.0,"pressure":971.1,"uv_index":5.05,"wind_gusts":28.8,"aqi":91,"pm10":22.8,"pm2_5":18.2,"mosquito_risk":0,"arthritis_risk":5,"migraine_risk":3,"frizz_risk":1,"updated_at":"2026-04-04T18:32:30.170883+05:30"},{"city":"Akola","state":"Maharashtra","latitude":20.7002,"longitude":77.0082,"temp":33.9,"humidity":30,"rain":0.0,"pressure":973.5,"uv_index":7.25,"wind_gusts":25.6,"aqi":116,"pm10":35.9,"pm2_5":29.5,"mosquito_risk":0,"arthritis_risk":5,"migraine_risk":7,"frizz_risk":0,"updated_at":"2026-04-04T18:32:30.170890+05:30"},{"city":"Amravati","state":"Maharashtra","latitude":20.9374,"longitude":77.7796,"temp":29.7,"humidity":53,"rain":0.0,"pressure":966.5,"uv_index":7.7,"wind_gusts":41.4,"aqi":114,"pm10":35.4,"pm2_5":29.3,"mosquito_risk":4,"arthritis_risk":5,"migraine_risk":7,"frizz_risk":1,"updated_at":"2026-04-04T18:32:30.170897+05:30"},{"city":"Latur","state":"Maharashtra","latitude":18.4088,"longitude":76.5604,"temp":30.7,"humidity":41,"rain":0.0,"pressure":938.5,"uv_index":8.9,"wind_gusts":28.8,"aqi":134,"pm10":38.1,"pm2_5":30.0,"mosquito_risk":0,"arthritis_risk":5,"migraine_risk":7,"frizz_risk":0,"updated_at":"2026-04-04T18:32:30.170903+05:30"},{"city":"Nanded","state":"Maharashtra","latitude":19.1383,"longitude":77.3091,"temp":31.7,"humidity":45,"rain":0.0,"pressure":967.4,"uv_index":8.25,"wind_gusts":21.2,"aqi":120,"pm10":39.5,"pm2_5":32.6,"mosquito_risk":0,"arthritis_risk":5,"migraine_risk":7,"frizz_risk":1,"updated_at":"2026-04-04T18:32:30.170909+05:30"},{"city":"Gulbarga","state":"Karnataka","latitude":17.3297,"longitude":76.8343,"temp":31.6,"humidity":46,"rain":0.0,"pressure":957.6,"uv_index":8.45,"wind_gusts":32.0,"aqi":164,"pm10":40.7,"pm2_5":32.7,"mosquito_risk":0,"arthritis_risk":5,"migraine_risk":7,"frizz_risk":1,"updated_at":"2026-04-04T18:32:30.170914+05:30"},{"city":"Bidar","state":"Karnataka","latitude":17.9104,"longitude":77.5199,"temp":30.2,"humidity":48,"rain":0.0,"pressure":934.6,"uv_index":8.6,"wind_gusts":31.3,"aqi":140,"pm10":43.8,"pm2_5":36.7,"mosquito_risk":0,"arthritis_risk":5,"migraine_risk":7,"frizz_risk":1,"updated_at":"2026-04-04T18:32:30.170920+05:30"},{"city":"Hospet","state":"Karnataka","latitude":15.2689,"longitude":76.3909,"temp":33.6,"humidity":37,"rain":0.0,"pressure":954.1,"uv_index":8.1,"wind_gusts":22.7,"aqi":139,"pm10":37.1,"pm2_5":29.4,"mosquito_risk":0,"arthritis_risk":5,"migraine_risk":7,"frizz_risk":1,"updated_at":"2026-04-04T18:32:30.170926+05:30"},{"city":"Tirupur","state":"Tamil Nadu","latitude":11.1085,"longitude":77.3411,"temp":29.2,"humidity":65,"rain":0.0,"pressure":974.8,"uv_index":8.6,"wind_gusts":31.3,"aqi":133,"pm10":19.6,"pm2_5":18.3,"mosquito_risk":7,"arthritis_risk":5,"migraine_risk":7,"frizz_risk":1,"updated_at":"2026-04-04T18:32:30.170931+05:30"},{"city":"Alappuzha","state":"Kerala","latitude":9.4981,"longitude":76.3388,"temp":28.9,"humidity":79,"rain":0.0,"pressure":1008.9,"uv_index":9.15,"wind_gusts":21.6,"aqi":81,"pm10":13.7,"pm2_5":10.7,"mosquito_risk":7,"arthritis_risk":0,"migraine_risk":4,"frizz_risk":1,"updated_at":"2026-04-04T18:32:30.170937+05:30"},{"city":"Munnar","state":"Kerala","latitude":10.0889,"longitude":77.0595,"temp":21.8,"humidity":92,"rain":0.0,"pressure":857.2,"uv_index":6.2,"wind_gusts":33.5,"aqi":65,"pm10":14.8,"pm2_5":14.2,"mosquito_risk":3,"arthritis_risk":5,"migraine_risk":7,"frizz_risk":1,"updated_at":"2026-04-04T18:32:30.170944+05:30"},{"city":"Silchar","state":"Assam","latitude":24.8333,"longitude":92.7789,"temp":28.5,"humidity":76,"rain":0.0,"pressure":1002.2,"uv_index":8.45,"wind_gusts":26.6,"aqi":134,"pm10":70.1,"pm2_5":60.1,"mosquito_risk":7,"arthritis_risk":5,"migraine_risk":4,"frizz_risk":1,"updated_at":"2026-04-04T18:32:30.170950+05:30"},{"city":"Dibrugarh","state":"Assam","latitude":27.4728,"longitude":94.912,"temp":25.7,"humidity":79,"rain":0.0,"pressure":993.1,"uv_index":8.3,"wind_gusts":14.8,"aqi":110,"pm10":60.8,"pm2_5":51.3,"mosquito_risk":7,"arthritis_risk":5,"migraine_risk":7,"frizz_risk":1,"updated_at":"2026-04-04T18:32:30.170956+05:30"}]