[{"city":"Delhi","state":"Delhi","latitude":28.6139,"longitude":77.209,"temp":26.4,"humidity":83,"rain":0.0,"pressure":978.5,"uv_index":7.8,"wind_gusts":24.5,"aqi":190,"pm10":274.7,"pm2_5":151.8,"no2":121.6,"co":1535.0,"o3":1.0,"so2":55.0,"mosquito_risk":7,"arthritis_risk":5,"migraine_risk":7,"frizz_risk":1,"updated_at":"2026-06-14T01:47:15.789310+05:30"},{"city":"Mumbai","state":"Maharashtra","latitude":19.076,"longitude":72.8777,"temp":29.9,"humidity":75,"rain":0.0,"pressure":1007.8,"uv_index":7.7,"wind_gusts":50.8,"aqi":69,"pm10":49.4,"pm2_5":21.0,"no2":2.7,"co":131.0,"o3":51.0,"so2":2.5,"mosquito_risk":7,"arthritis_risk":5,"migraine_risk":4,"frizz_risk":1,"updated_at":"2026-06-14T01:47:15.789350+05:30"},{"city":"Bangalore","state":"Karnataka","latitude":12.9716,"longitude":77.5946,"temp":20.9,"humidity":97,"rain":0.0,"pressure":911.8,"uv_index":1.75,"wind_gusts":56.2,"aqi":46,"pm10":12.0,"pm2_5":9.3,"no2":15.3,"co":243.0,"o3":43.0,"so2":4.6,"mosquito_risk":3,"arthritis_risk":5,"migraine_risk":3,"frizz_risk":1,"updated_at":"2026-06-14T01:47:15.789366+05:30"},{"city":"Hyderabad","state":"Telangana","latitude":17.385,"longitude":78.4867,"temp":26.7,"humidity":67,"rain":0.0,"pressure":950.7,"uv_index":8.2,"wind_gusts":39.6,"aqi":85,"pm10":36.1,"pm2_5":21.9,"no2":12.1,"co":274.0,"o3":56.0,"so2":4.8,"mosquito_risk":7,"arthritis_risk":5,"migraine_risk":7,"frizz_risk":1,"updated_at":"2026-06-14T01:47:15.789376+05:30"},{"city":"Chennai","state":"Tamil Nadu","latitude":13.0827,"longitude":80.2707,"temp":29.1,"humidity":70,"rain":0.0,"pressure":1005.5,"uv_index":8.45,"wind_gusts":45.0,"aqi":60,"pm10":22.1,"pm2_5":17.4,"no2":13.8,"co":259.0,"o3":71.0,"so2":7.6,"mosquito_risk":7,"arthritis_risk":5,"migraine_risk":4,"frizz_risk":1,"updated_at":"2026-06-14T01:47:15.789384+05:30"},{"city":"Kolkata","state":"West Bengal","latitude":22.5726,"longitude":88.3639,"temp":27.1,"humidity":95,"rain":0.0,"pressure":1001.1,"uv_index":9.0,"wind_gusts":28.4,"aqi":116,"pm10":48.2,"pm2_5":44.5,"no2":16.2,"co":445.0,"o3":67.0,"so2":7.5,"mosquito_risk":7,"arthritis_risk":5,"migraine_risk":4,"frizz_risk":1,"updated_at":"2026-06-14T01:47:15.789392+05:30"},{"city":"Pune","state":"Maharashtra","latitude":18.5204,"longitude":73.8567,"temp":25.1,"humidity":84,"rain":0.0,"pressure":947.8,"uv_index":8.3,"wind_gusts":51.5,"aqi":57,"pm10":24.2,"pm2_5":12.7,"no2":8.2,"co":122.0,"o3":40.0,"so2":6.5,"mosquito_risk":7,"arthritis_risk":5,"migraine_risk":7,"frizz_risk":1,"updated_at":"2026-06-14T01:47:15.789398+05:30"},{"city":"Ahmedabad","state":"Gujarat","latitude":23.0225,"longitude":72.5714,"temp":30.9,"humidity":60,"rain":0.0,"pressure":999.3,"uv_index":8.05,"wind_gusts":42.1,"aqi":69,"pm10":36.3,"pm2_5":16.4,"no2":3.8,"co":112.0,"o3":49.0,"so2":3.0,"mosquito_risk":0,"arthritis_risk":5,"migraine_risk":7,"frizz_risk":1,"updated_at":"2026-06-14T01:47:15.789405+05:30"},{"city":"Jaipur","state":"Rajasthan","latitude":26.9124,"longitude":75.7873,"temp":26.6,"humidity":72,"rain":0.0,"pressure":956.0,"uv_index":8.25,"wind_gusts":38.9,"aqi":111,"pm10":73.8,"pm2_5":35.2,"no2":17.1,"co":724.0,"o3":46.0,"so2":6.2,"mosquito_risk":7,"arthritis_risk":5,"migraine_risk":7,"frizz_risk":1,"updated_at":"2026-06-14T01:47:15.789417+05:30"},{"city":"Lucknow","state":"Uttar Pradesh","latitude":26.8467,"longitude":80.9462,"temp":27.5,"humidity":78,"rain":0.0,"pressure":989.0,"uv_index":8.35,"wind_gusts":31.0,"aqi":143,"pm10":156.5,"pm2_5":73.8,"no2":35.7,"co":776.0,"o3":36.0,"so2":12.9,"mosquito_risk":7,"arthritis_risk":5,"migraine_risk":7,"frizz_risk":1,"updated_at":"2026-06-14T01:47:15.789425+05:30"},{"city":"Kanpur","state":"Uttar Pradesh","latitude":26.4499,"longitude":80.3319,"temp":29.2,"humidity":59,"rain":0.0,"pressure":987.5,"uv_index":8.3,"wind_gusts":28.8,"aqi":153,"pm10":272.9,"pm2_5":83.8,"no2":24.8,"co":739.0,"o3":52.0,"so2":9.2,"mosquito_risk":4,"arthritis_risk":5,"migraine_risk":7,"frizz_risk":1,"updated_at":"2026-06-14T01:47:15.789431+05:30"},{"city":"Chandigarh","state":"Chandigarh","latitude":30.7333,"longitude":76.7794,"temp":22.4,"humidity":84,"rain":0.0,"pressure":964.3,"uv_index":7.85,"wind_gusts":20.5,"aqi":108,"pm10":92.9,"pm2_5":64.3,"no2":46.5,"co":1018.0,"o3":28.0,"so2":8.8,"mosquito_risk":3,"arthritis_risk":5,"migraine_risk":7,"frizz_risk":1,"updated_at":"2026-06-14T01:47:15.789439+05:30"},{"city":"Srinagar","state":"Jammu and Kashmir","latitude":34.0837,"longitude":74.7973,"temp":13.8,"humidity":96,"rain":0.0,"pressure":839.9,"uv_index":9.0,"wind_gusts":20.5,"aqi":73,"pm10":49.4,"pm2_5":44.7,"no2":41.7,"co":820.0,"o3":14.0,"so2":2.3,"mosquito_risk":3,"arthritis_risk":10,"migraine_risk":7,"frizz_risk":0,"updated_at":"2026-06-14T01:47:15.789446+05:30"},{"city":"Jammu","state":"Jammu and Kashmir","latitude":32.7266,"longitude":74.857,"temp":24.9,"humidity":60,"rain":0.0,"pressure":969.1,"uv_index":8.6,"wind_gusts":27.4,"aqi":87,"pm10":60.5,"pm2_5":40.7,"no2":51.9,"co":629.0,"o3":12.0,"so2":4.0,"mosquito_risk":0,"arthritis_risk":5,"migraine_risk":7,"frizz_risk":1,"updated_at":"2026-06-14T01:47:15.789453+05:30"},{"city":"Amritsar","state":"Punjab","latitude":31.634,"longitude":74.8723,"temp":23.3,"humidity":81,"rain":0.0,"pressure":977.1,"uv_index":8.45,"wind_gusts":16.9,"aqi":110,"pm10":99.4,"pm2_5":53.1,"no2":36.7,"co":676.0,"o3":38.0,"so2":6.1,"mosquito_risk":3,"arthritis_risk":5,"migraine_risk":7,"frizz_risk":1,"updated_at":"2026-06-14T01:47:15.789460+05:30"},{"city":"Ludhiana","state":"Punjab","latitude":30.901,"longitude":75.8573,"temp":23.7,"humidity":85,"rain":0.0,"pressure":974.8,"uv_index":8.05,"wind_gusts":19.1,"aqi":126,"pm10":96.6,"pm2_5":55.9,"no2":32.6,"co":640.0,"o3":43.0,"so2":7.9,"mosquito_risk":3,"arthritis_risk":5,"migraine_risk":7,"frizz_risk":1,"updated_at":"2026-06-14T01:47:15.789466+05:30"},{"city":"Jalandhar","state":"Punjab","latitude":31.326,"longitude":75.5762,"temp":23.1,"humidity":80,"rain":0.0,"pressure":975.9,"uv_index":8.25,"wind_gusts":19.1,"aqi":106,"pm10":66.4,"pm2_5":40.2,"no2":26.9,"co":736.0,"o3":47.0,"so2":4.9,"mosquito_risk":3,"arthritis_risk":5,"migraine_risk":7,"frizz_risk":1,"updated_at":"2026-06-14T01:47:15.789473+05:30"},{"city":"Dehradun","state":"Uttarakhand","latitude":30.6284,"longitude":78.0322,"temp":12.7,"humidity":98,"rain":0.0,"pressure":825.0,"uv_index":8.3,"wind_gusts":35.3,"aqi":56,"pm10":27.8,"pm2_5":14.8,"no2":32.3,"co":196.0,"o3":21.0,"so2":0.6,"mosquito_risk":3,"arthritis_risk":10,"migraine_risk":7,"frizz_risk":0,"updated_at":"2026-06-14T01:47:15.789482+05:30"},{"city":"Shimla","state":"Himachal Pradesh","latitude":31.1048,"longitude":77.1734,"temp":9.4,"humidity":90,"rain":0.0,"pressure":778.1,"uv_index":8.35,"wind_gusts":31.3,"aqi":77,"pm10":36.7,"pm2_5":28.1,"no2":33.8,"co":251.0,"o3":25.0,"so2":0.0,"mosquito_risk":3,"arthritis_risk":10,"migraine_risk":7,"frizz_risk":0,"updated_at":"2026-06-14T01:47:15.789504+05:30"},{"city":"Manali","state":"Himachal Pradesh","latitude":32.2396,"longitude":77.1887,"temp":12.4,"humidity":72,"rain":0.0,"pressure":813.8,"uv_index":9.75,"wind_gusts":37.8,"aqi":48,"pm10":4.1,"pm2_5":4.0,"no2":17.4,"co":272.0,"o3":109.0,"so2":0.0,"mosquito_risk":3,"arthritis_risk":5,"migraine_risk":7,"frizz_risk":0,"updated_at":"2026-06-14T01:47:15.789511+05:30"},{"city":"Gurgaon","state":"Haryana","latitude":28.4595,"longitude":77.0266,"temp":26.5,"humidity":71,"rain":0.0,"pressure":976.9,"uv_index":7.85,"wind_gusts":31.3,"aqi":689,"pm10":484.3,"pm2_5":190.5,"no2":133.9,"co":1415.0,"o3":0.0,"so2":46.1,"mosquito_risk":7,"arthritis_risk":5,"migraine_risk":7,"frizz_risk":1,"updated_at":"2026-06-14T01:47:15.789518+05:30"},{"city":"Noida","state":"Uttar Pradesh","latitude":28.5355,"longitude":77.391,"temp":26.3,"humidity":83,"rain":0.0,"pressure":980.0,"uv_index":7.85,"wind_gusts":24.8,"aqi":689,"pm10":484.3,"pm2_5":190.5,"no2":133.9,"co":1134.0,"o3":0.0,"so2":46.1,"mosquito_risk":7,"arthritis_risk":5,"migraine_risk":7,"frizz_risk":1,"updated_at":"2026-06-14T01:47:15.789525+05:30"},{"city":"Ghaziabad","state":"Uttar Pradesh","latitude":28.6692,"longitude":77.4538,"temp":25.7,"humidity":89,"rain":0.0,"pressure":978.2,"uv_index":7.8,"wind_gusts":28.1,"aqi":163,"pm10":240.3,"pm2_5":126.2,"no2":87.4,"co":902.0,"o3":14.0,"so2":26.7,"mosquito_risk":7,"arthritis_risk":5,"migraine_risk":7,"frizz_risk":1,"updated_at":"2026-06-14T01:47:15.789531+05:30"},{"city":"Faridabad","state":"Haryana","latitude":28.4089,"longitude":77.3178,"temp":26.5,"humidity":85,"rain":0.0,"pressure":979.3,"uv_index":7.85,"wind_gusts":30.2,"aqi":689,"pm10":484.3,"pm2_5":190.5,"no2":133.9,"co":1217.0,"o3":0.0,"so2":46.1,"mosquito_risk":7,"arthritis_risk":5,"migraine_risk":7,"frizz_risk":1,"updated_at":"2026-06-14T01:47:15.789537+05:30"},{"city":"Meerut","state":"Uttar Pradesh","latitude":28.9845,"longitude":77.7064,"temp":25.5,"humidity":94,"rain":0.0,"pressure":977.1,"uv_index":7.7,"wind_gusts":30.2,"aqi":163,"pm10":240.3,"pm2_5":126.2,"no2":87.4,"co":682.0,"o3":14.0,"so2":26.7,"mosquito_risk":7,"arthritis_risk":5,"migraine_risk":7,"frizz_risk":1,"updated_at":"2026-06-14T01:47:15.789543+05:30"},{"city":"Agra","state":"Uttar Pradesh","latitude":27.1767,"longitude":78.0081,"temp":27.8,"humidity":68,"rain":0.0,"pressure":983.3,"uv_index":8.15,"wind_gusts":34.2,"aqi":597,"pm10":466.6,"pm2_5":142.0,"no2":89.1,"co":557.0,"o3":9.0,"so2":25.4,"mosquito_risk":7,"arthritis_risk":5,"migraine_risk":7,"frizz_risk":1,"updated_at":"2026-06-14T01:47:15.789550+05:30"},{"city":"Varanasi","state":"Uttar Pradesh","latitude":25.3176,"longitude":82.9739,"temp":29.7,"humidity":75,"rain":0.0,"pressure":993.3,"uv_index":8.8,"wind_gusts":36.7,"aqi":157,"pm10":118.3,"pm2_5":99.0,"no2":47.6,"co":786.0,"o3":55.0,"so2":22.2,"mosquito_risk":7,"arthritis_risk":5,"migraine_risk":7,"frizz_risk":1,"updated_at":"2026-06-14T01:47:15.789557+05:30"},{"city":"Prayagraj","state":"Uttar Pradesh","latitude":25.4358,"longitude":81.8463,"temp":30.4,"humidity":75,"rain":0.0,"pressure":991.6,"uv_index":8.7,"wind_gusts":34.9,"aqi":159,"pm10":135.0,"pm2_5":118.0,"no2":67.8,"co":393.0,"o3":23.0,"so2":23.8,"mosquito_risk":3,"arthritis_risk":5,"migraine_risk":7,"frizz_risk":1,"updated_at":"2026-06-14T01:47:15.789563+05:30"},{"city":"Gorakhpur","state":"Uttar Pradesh","latitude":26.7606,"longitude":83.3732,"temp":27.6,"humidity":82,"rain":0.0,"pressure":992.9,"uv_index":8.7,"wind_gusts":29.2,"aqi":150,"pm10":99.4,"pm2_5":85.0,"no2":51.5,"co":510.0,"o3":35.0,"so2":14.1,"mosquito_risk":7,"arthritis_risk":5,"migraine_risk":7,"frizz_risk":1,"updated_at":"2026-06-14T01:47:15.789572+05:30"},{"city":"Bareilly","state":"Uttar Pradesh","latitude":28.367,"longitude":79.4304,"temp":26.1,"humidity":82,"rain":0.0,"pressure":982.2,"uv_index":8.15,"wind_gusts":32.4,"aqi":151,"pm10":103.4,"pm2_5":62.6,"no2":26.4,"co":514.0,"o3":64.0,"so2":12.2,"mosquito_risk":7,"arthritis_risk":5,"migraine_risk":7,"frizz_risk":1,"updated_at":"2026-06-14T01:47:15.789578+05:30"},{"city":"Aligarh","state":"Uttar Pradesh","latitude":27.8974,"longitude":78.088,"temp":26.4,"humidity":74,"rain":0.0,"pressure":981.2,"uv_index":8.0,"wind_gusts":27.7,"aqi":251,"pm10":356.7,"pm2_5":135.0,"no2":91.5,"co":620.0,"o3":3.0,"so2":20.3,"mosquito_risk":7,"arthritis_risk":5,"migraine_risk":7,"frizz_risk":1,"updated_at":"2026-06-14T01:47:15.789585+05:30"},{"city":"Moradabad","state":"Uttar Pradesh","latitude":28.8386,"longitude":78.7733,"temp":25.8,"humidity":86,"rain":0.0,"pressure":979.1,"uv_index":7.95,"wind_gusts":34.6,"aqi":149,"pm10":117.6,"pm2_5":65.4,"no2":29.2,"co":582.0,"o3":55.0,"so2":8.1,"mosquito_risk":7,"arthritis_risk":5,"migraine_risk":7,"frizz_risk":1,"updated_at":"2026-06-14T01:47:15.789591+05:30"},{"city":"Saharanpur","state":"Uttar Pradesh","latitude":29.9637,"longitude":77.546,"temp":23.8,"humidity":94,"rain":0.0,"pressure":971.3,"uv_index":7.55,"wind_gusts":22.0,"aqi":147,"pm10":190.9,"pm2_5":105.7,"no2":69.1,"co":628.0,"o3":28.0,"so2":23.3,"mosquito_risk":3,"arthritis_risk":5,"migraine_risk":7,"frizz_risk":1,"updated_at":"2026-06-14T01:47:15.789597+05:30"},{"city":"Jhansi","state":"Uttar Pradesh","latitude":25.4484,"longitude":78.5685,"temp":28.6,"humidity":66,"rain":0.0,"pressure":974.2,"uv_index":8.5,"wind_gusts":47.2,"aqi":124,"pm10":33.5,"pm2_5":24.0,"no2":6.9,"co":263.0,"o3":71.0,"so2":3.8,"mosquito_risk":7,"arthritis_risk":5,"migraine_risk":7,"frizz_risk":1,"updated_at":"2026-06-14T01:47:19.141146+05:30"},{"city":"Surat","state":"Gujarat","latitude":21.1702,"longitude":72.8311,"temp":29.8,"humidity":78,"rain":0.0,"pressure":1005.2,"uv_index":7.55,"wind_gusts":54.4,"aqi":72,"pm10":41.1,"pm2_5":22.4,"no2":11.2,"co":195.0,"o3":40.0,"so2":18.8,"mosquito_risk":7,"arthritis_risk":5,"migraine_risk":4,"frizz_risk":1,"updated_at":"2026-06-14T01:47:19.141177+05:30"},{"city":"Vadodara","state":"Gujarat","latitude":22.3072,"longitude":73.1812,"temp":30.7,"humidity":75,"rain":0.0,"pressure":1001.7,"uv_index":8.0,"wind_gusts":50.0,"aqi":70,"pm10":34.5,"pm2_5":22.9,"no2":15.2,"co":140.0,"o3":32.0,"so2":11.8,"mosquito_risk":3,"arthritis_risk":5,"migraine_risk":4,"frizz_risk":1,"updated_at":"2026-06-14T01:47:19.141188+05:30"},{"city":"Rajkot","state":"Gujarat","latitude":22.3039,"longitude":70.8022,"temp":28.8,"humidity":72,"rain":0.0,"pressure":992.2,"uv_index":7.55,"wind_gusts":51.8,"aqi":66,"pm10":39.1,"pm2_5":17.9,"no2":4.6,"co":98.0,"o3":46.0,"so2":5.2,"mosquito_risk":7,"arthritis_risk":5,"migraine_risk":7,"frizz_risk":1,"updated_at":"2026-06-14T01:47:19.141196+05:30"},{"city":"Thane","state":"Maharashtra","latitude":19.2183,"longitude":72.9781,"temp":29.8,"humidity":74,"rain":0.0,"pressure":1007.2,"uv_index":7.7,"wind_gusts":46.4,"aqi":69,"pm10":49.4,"pm2_5":21.0,"no2":2.7,"co":135.0,"o3":51.0,"so2":2.5,"mosquito_risk":7,"arthritis_risk":5,"migraine_risk":4,"frizz_risk":1,"updated_at":"2026-06-14T01:47:19.141205+05:30"},{"city":"Nagpur","state":"Maharashtra","latitude":21.1458,"longitude":79.0882,"temp":28.5,"humidity":74,"rain":0.0,"pressure":969.7,"uv_index":8.85,"wind_gusts":47.9,"aqi":108,"pm10":63.8,"pm2_5":47.4,"no2":30.7,"co":273.0,"o3":36.0,"so2":13.9,"mosquito_risk":7,"arthritis_risk":5,"migraine_risk":7,"frizz_risk":1,"updated_at":"2026-06-14T01:47:19.141213+05:30"},{"city":"Nashik","state":"Maharashtra","latitude":19.9975,"longitude":73.7898,"temp":24.7,"humidity":89,"rain":0.0,"pressure":944.5,"uv_index":8.05,"wind_gusts":57.6,"aqi":60,"pm10":28.9,"pm2_5":14.0,"no2":3.6,"co":114.0,"o3":44.0,"so2":1.2,"mosquito_risk":3,"arthritis_risk":5,"migraine_risk":7,"frizz_risk":1,"updated_at":"2026-06-14T01:47:19.141221+05:30"},{"city":"Aurangabad","state":"Maharashtra","latitude":19.8762,"longitude":75.3433,"temp":26.4,"humidity":73,"rain":0.0,"pressure":943.0,"uv_index":8.95,"wind_gusts":53.6,"aqi":69,"pm10":28.5,"pm2_5":15.5,"no2":6.8,"co":119.0,"o3":46.0,"so2":6.5,"mosquito_risk":7,"arthritis_risk":5,"migraine_risk":7,"frizz_risk":1,"updated_at":"2026-06-14T01:47:19.141228+05:30"},{"city":"Solapur","state":"Maharashtra","latitude":17.6599,"longitude":75.9064,"temp":28.0,"humidity":65,"rain":0.0,"pressure":956.3,"uv_index":8.9,"wind_gusts":54.7,"aqi":60,"pm10":20.7,"pm2_5":11.8,"no2":4.8,"co":119.0,"o3":49.0,"so2":2.9,"mosquito_risk":7,"arthritis_risk":5,"migraine_risk":7,"frizz_risk":1,"updated_at":"2026-06-14T01:47:19.141236+05:30"},{"city":"Kolhapur","state":"Maharashtra","latitude":16.705,"longitude":74.2433,"temp":24.0,"humidity":93,"rain":0.0,"pressure":947.8,"uv_index":8.75,"wind_gusts":47.2,"aqi":46,"pm10":13.6,"pm2_5":8.2,"no2":4.5,"co":135.0,"o3":43.0,"so2":1.8,"mosquito_risk":3,"arthritis_risk":5,"migraine_risk":7,"frizz_risk":1,"updated_at":"2026-06-14T01:47:19.141244+05:30"},{"city":"Goa","state":"Goa","latitude":15.2993,"longitude":74.124,"temp":27.3,"humidity":88,"rain":0.0,"pressure":998.4,"uv_index":6.85,"wind_gusts":34.9,"aqi":64,"pm10":41.8,"pm2_5":22.8,"no2":6.7,"co":218.0,"o3":44.0,"so2":2.0,"mosquito_risk":7,"arthritis_risk":5,"migraine_risk":7,"frizz_risk":1,"updated_at":"2026-06-14T01:47:19.141252+05:30"},{"city":"Jodhpur","state":"Rajasthan","latitude":26.2389,"longitude":73.0243,"temp":30.1,"humidity":58,"rain":0.0,"pressure":978.8,"uv_index":8.45,"wind_gusts":44.6,"aqi":148,"pm10":104.3,"pm2_5":38.9,"no2":7.7,"co":175.0,"o3":51.0,"so2":2.2,"mosquito_risk":0,"arthritis_risk":5,"migraine_risk":7,"frizz_risk":1,"updated_at":"2026-06-14T01:47:19.141259+05:30"},{"city":"Udaipur","state":"Rajasthan","latitude":24.5854,"longitude":73.7125,"temp":26.2,"humidity":66,"rain":0.0,"pressure":944.2,"uv_index":8.85,"wind_gusts":41.0,"aqi":76,"pm10":47.4,"pm2_5":23.6,"no2":4.5,"co":129.0,"o3":60.0,"so2":2.6,"mosquito_risk":7,"arthritis_risk":5,"migraine_risk":7,"frizz_risk":1,"updated_at":"2026-06-14T01:47:19.141267+05:30"},{"city":"Kota","state":"Rajasthan","latitude":25.2138,"longitude":75.8648,"temp":28.2,"humidity":63,"rain":0.0,"pressure":975.2,"uv_index":8.4,"wind_gusts":50.8,"aqi":96,"pm10":89.2,"pm2_5":43.1,"no2":12.4,"co":194.0,"o3":52.0,"so2":10.2,"mosquito_risk":7,"arthritis_risk":5,"migraine_risk":7,"frizz_risk":1,"updated_at":"2026-06-14T01:47:19.141274+05:30"},{"city":"Bikaner","state":"Rajasthan","latitude":28.0229,"longitude":73.3119,"temp":29.6,"humidity":63,"rain":0.0,"pressure":976.7,"uv_index":8.5,"wind_gusts":41.8,"aqi":154,"pm10":118.3,"pm2_5":44.2,"no2":2.7,"co":144.0,"o3":77.0,"so2":2.7,"mosquito_risk":7,"arthritis_risk":5,"migraine_risk":7,"frizz_risk":1,"updated_at":"2026-06-14T01:47:19.141281+05:30"},{"city":"Ajmer","state":"Rajasthan","latitude":26.4499,"longitude":74.6399,"temp":27.6,"humidity":57,"rain":0.0,"pressure":951.0,"uv_index":8.35,"wind_gusts":40.0,"aqi":96,"pm10":88.7,"pm2_5":34.7,"no2":8.0,"co":318.0,"o3":61.0,"so2":3.0,"mosquito_risk":4,"arthritis_risk":5,"migraine_risk":7,"frizz_risk":1,"updated_at":"2026-06-14T01:47:19.141288+05:30"},{"city":"Gwalior","state":"Madhya Pradesh","latitude":26.2183,"longitude":78.1828,"temp":27.6,"humidity":72,"rain":0.0,"pressure":979.2,"uv_index":8.3,"wind_gusts":34.6,"aqi":157,"pm10":84.8,"pm2_5":41.4,"no2":16.8,"co":314.0,"o3":45.0,"so2":5.4,"mosquito_risk":7,"arthritis_risk":5,"migraine_risk":7,"frizz_risk":1,"updated_at":"2026-06-14T01:47:19.141295+05:30"},{"city":"Indore","state":"Madhya Pradesh","latitude":22.7196,"longitude":75.8577,"temp":28.0,"humidity":64,"rain":0.1,"pressure":946.5,"uv_index":8.6,"wind_gusts":50.8,"aqi":80,"pm10":39.0,"pm2_5":23.5,"no2":4.9,"co":180.0,"o3":75.0,"so2":7.7,"mosquito_risk":10,"arthritis_risk":5,"migraine_risk":7,"frizz_risk":1,"updated_at":"2026-06-14T01:47:19.141302+05:30"},{"city":"Bhopal","state":"Madhya Pradesh","latitude":23.2599,"longitude":77.4126,"temp":27.7,"humidity":61,"rain":0.0,"pressure":950.6,"uv_index":8.65,"wind_gusts":47.5,"aqi":96,"pm10":68.0,"pm2_5":36.2,"no2":14.2,"co":286.0,"o3":49.0,"so2":4.2,"mosquito_risk":7,"arthritis_risk":5,"migraine_risk":7,"frizz_risk":1,"updated_at":"2026-06-14T01:47:19.141309+05:30"},{"city":"Jabalpur","state":"Madhya Pradesh","latitude":23.1815,"longitude":79.9864,"temp":28.2,"humidity":63,"rain":0.0,"pressure":957.8,"uv_index":8.85,"wind_gusts":26.3,"aqi":99,"pm10":39.7,"pm2_5":25.8,"no2":7.6,"co":279.0,"o3":76.0,"so2":3.4,"mosquito_risk":7,"arthritis_risk":5,"migraine_risk":7,"frizz_risk":1,"updated_at":"2026-06-14T01:47:19.141317+05:30"},{"city":"Ujjain","state":"Madhya Pradesh","latitude":23.1765,"longitude":75.7885,"temp":21.9,"humidity":99,"rain":0.8,"pressure":952.6,"uv_index":8.55,"wind_gusts":46.4,"aqi":79,"pm10":42.0,"pm2_5":24.7,"no2":4.4,"co":237.0,"o3":70.0,"so2":8.4,"mosquito_risk":6,"arthritis_risk":5,"migraine_risk":7,"frizz_risk":1,"updated_at":"2026-06-14T01:47:19.141325+05:30"},{"city":"Visakhapatnam","state":"Andhra Pradesh","latitude":17.6868,"longitude":83.2185,"temp":29.6,"humidity":79,"rain":0.0,"pressure":999.1,"uv_index":8.6,"wind_gusts":44.3,"aqi":101,"pm10":34.6,"pm2_5":27.9,"no2":22.5,"co":421.0,"o3":84.0,"so2":34.0,"mosquito_risk":7,"arthritis_risk":5,"migraine_risk":7,"frizz_risk":1,"updated_at":"2026-06-14T01:47:19.141333+05:30"},{"city":"Vijayawada","state":"Andhra Pradesh","latitude":16.5062,"longitude":80.648,"temp":29.2,"humidity":73,"rain":0.0,"pressure":999.5,"uv_index":9.0,"wind_gusts":46.1,"aqi":86,"pm10":39.2,"pm2_5":29.2,"no2":9.5,"co":322.0,"o3":77.0,"so2":5.2,"mosquito_risk":7,"arthritis_risk":5,"migraine_risk":7,"frizz_risk":1,"updated_at":"2026-06-14T01:47:19.141341+05:30"},{"city":"Guntur","state":"Andhra Pradesh","latitude":16.3067,"longitude":80.4365,"temp":28.8,"humidity":74,"rain":0.0,"pressure":1000.7,"uv_index":9.0,"wind_gusts":37.4,"aqi":88,"pm10":47.3,"pm2_5":35.0,"no2":14.5,"co":261.0,"o3":59.0,"so2":4.8,"mosquito_risk":7,"arthritis_risk":5,"migraine_risk":4,"frizz_risk":1,"updated_at":"2026-06-14T01:47:19.141348+05:30"},{"city":"Nellore","state":"Andhra Pradesh","latitude":14.4426,"longitude":79.9865,"temp":27.3,"humidity":78,"rain":0.0,"pressure":1003.9,"uv_index":6.05,"wind_gusts":41.8,"aqi":62,"pm10":24.2,"pm2_5":14.8,"no2":6.1,"co":167.0,"o3":78.0,"so2":3.0,"mosquito_risk":7,"arthritis_risk":5,"migraine_risk":4,"frizz_risk":1,"updated_at":"2026-06-14T01:47:19.141356+05:30"},{"city":"Kurnool","state":"Andhra Pradesh","latitude":15.8281,"longitude":78.0373,"temp":28.8,"humidity":62,"rain":0.0,"pressure":975.4,"uv_index":6.25,"wind_gusts":46.1,"aqi":73,"pm10":16.7,"pm2_5":11.7,"no2":8.2,"co":184.0,"o3":55.0,"so2":2.4,"mosquito_risk":7,"arthritis_risk":5,"migraine_risk":7,"frizz_risk":1,"updated_at":"2026-06-14T01:47:19.141364+05:30"},{"city":"Kakinada","state":"Andhra Pradesh","latitude":16.9891,"longitude":82.2475,"temp":29.3,"humidity":74,"rain":0.0,"pressure":1003.4,"uv_index":8.95,"wind_gusts":40.3,"aqi":72,"pm10":32.8,"pm2_5":22.8,"no2":3.6,"co":504.0,"o3":102.0,"so2":3.2,"mosquito_risk":7,"arthritis_risk":5,"migraine_risk":4,"frizz_risk":1,"updated_at":"2026-06-14T01:47:19.141372+05:30"},{"city":"Tirupati","state":"Andhra Pradesh","latitude":13.6288,"longitude":79.4192,"temp":26.8,"humidity":75,"rain":0.0,"pressure":989.7,"uv_index":8.7,"wind_gusts":34.2,"aqi":57,"pm10":19.0,"pm2_5":15.1,"no2":14.5,"co":153.0,"o3":44.0,"so2":1.4,"mosquito_risk":7,"arthritis_risk":5,"migraine_risk":7,"frizz_risk":1,"updated_at":"2026-06-14T01:47:19.141379+05:30"},{"city":"Warangal","state":"Telangana","latitude":17.9689,"longitude":79.5941,"temp":28.4,"humidity":62,"rain":0.0,"pressure":975.5,"uv_index":8.8,"wind_gusts":33.1,"aqi":106,"pm10":60.1,"pm2_5":43.5,"no2":20.7,"co":257.0,"o3":44.0,"so2":6.3,"mosquito_risk":7,"arthritis_risk":5,"migraine_risk":7,"frizz_risk":1,"updated_at":"2026-06-14T01:47:19.141386+05:30"},{"city":"Nizamabad","state":"Telangana","latitude":18.6725,"longitude":78.0941,"temp":29.3,"humidity":53,"rain":0.0,"pressure":961.9,"uv_index":8.25,"wind_gusts":52.9,"aqi":98,"pm10":67.8,"pm2_5":36.3,"no2":17.5,"co":349.0,"o3":64.0,"so2":6.4,"mosquito_risk":4,"arthritis_risk":5,"migraine_risk":7,"frizz_risk":1,"updated_at":"2026-06-14T01:47:19.141394+05:30"},{"city":"Mysore","state":"Karnataka","latitude":12.2958,"longitude":76.6396,"temp":22.3,"humidity":91,"rain":0.0,"pressure":929.2,"uv_index":7.85,"wind_gusts":39.6,"aqi":36,"pm10":10.7,"pm2_5":7.8,"no2":9.9,"co":136.0,"o3":42.0,"so2":2.2,"mosquito_risk":3,"arthritis_risk":5,"migraine_risk":7,"frizz_risk":1,"updated_at":"2026-06-14T01:47:19.141401+05:30"},{"city":"Mangalore","state":"Karnataka","latitude":12.9141,"longitude":74.856,"temp":24.6,"humidity":96,"rain":0.0,"pressure":1008.5,"uv_index":8.7,"wind_gusts":32.4,"aqi":47,"pm10":30.3,"pm2_5":16.8,"no2":8.3,"co":532.0,"o3":39.0,"so2":3.2,"mosquito_risk":3,"arthritis_risk":0,"migraine_risk":4,"frizz_risk":1,"updated_at":"2026-06-14T01:47:19.141409+05:30"},{"city":"Hubli-Dharwad","state":"Karnataka","latitude":15.3647,"longitude":75.124,"temp":23.3,"humidity":94,"rain":0.0,"pressure":940.9,"uv_index":5.1,"wind_gusts":48.2,"aqi":34,"pm10":14.8,"pm2_5":8.3,"no2":5.0,"co":123.0,"o3":43.0,"so2":1.7,"mosquito_risk":3,"arthritis_risk":5,"migraine_risk":3,"frizz_risk":1,"updated_at":"2026-06-14T01:47:19.141416+05:30"},{"city":"Belgaum","state":"Karnataka","latitude":15.8497,"longitude":74.4977,"temp":22.3,"humidity":98,"rain":0.0,"pressure":925.5,"uv_index":5.8,"wind_gusts":49.0,"aqi":38,"pm10":18.3,"pm2_5":9.5,"no2":3.6,"co":121.0,"o3":46.0,"so2":1.3,"mosquito_risk":3,"arthritis_risk":5,"migraine_risk":3,"frizz_risk":1,"updated_at":"2026-06-14T01:47:22.481481+05:30"},{"city":"Coimbatore","state":"Tamil Nadu","latitude":11.0168,"longitude":76.9558,"temp":23.4,"humidity":95,"rain":0.0,"pressure":962.3,"uv_index":8.15,"wind_gusts":43.6,"aqi":30,"pm10":14.2,"pm2_5":8.8,"no2":8.0,"co":184.0,"o3":41.0,"so2":2.8,"mosquito_risk":3,"arthritis_risk":5,"migraine_risk":7,"frizz_risk":1,"updated_at":"2026-06-14T01:47:22.481513+05:30"},{"city":"Madurai","state":"Tamil Nadu","latitude":9.9252,"longitude":78.1198,"temp":28.4,"humidity":61,"rain":0.0,"pressure":993.2,"uv_index":8.25,"wind_gusts":55.4,"aqi":62,"pm10":29.6,"pm2_5":25.8,"no2":40.1,"co":156.0,"o3":5.0,"so2":6.7,"mosquito_risk":7,"arthritis_risk":5,"migraine_risk":7,"frizz_risk":1,"updated_at":"2026-06-14T01:47:22.481524+05:30"},{"city":"Trichy","state":"Tamil Nadu","latitude":10.7905,"longitude":78.7047,"temp":28.7,"humidity":63,"rain":0.0,"pressure":999.7,"uv_index":7.25,"wind_gusts":47.9,"aqi":52,"pm10":17.7,"pm2_5":11.3,"no2":9.5,"co":126.0,"o3":51.0,"so2":3.4,"mosquito_risk":7,"arthritis_risk":5,"migraine_risk":7,"frizz_risk":1,"updated_at":"2026-06-14T01:47:22.481533+05:30"},{"city":"Salem","state":"Tamil Nadu","latitude":11.6643,"longitude":78.146,"temp":24.4,"humidity":94,"rain":0.1,"pressure":978.0,"uv_index":8.85,"wind_gusts":33.5,"aqi":55,"pm10":21.9,"pm2_5":16.6,"no2":18.5,"co":444.0,"o3":39.0,"so2":6.0,"mosquito_risk":6,"arthritis_risk":5,"migraine_risk":7,"frizz_risk":1,"updated_at":"2026-06-14T01:47:22.481541+05:30"},{"city":"Tirunelveli","state":"Tamil Nadu","latitude":8.7139,"longitude":77.7567,"temp":28.5,"humidity":66,"rain":0.0,"pressure":1003.8,"uv_index":8.65,"wind_gusts":43.6,"aqi":30,"pm10":11.7,"pm2_5":8.1,"no2":7.4,"co":173.0,"o3":39.0,"so2":2.1,"mosquito_risk":7,"arthritis_risk":5,"migraine_risk":4,"frizz_risk":1,"updated_at":"2026-06-14T01:47:22.481550+05:30"},{"city":"Vellore","state":"Tamil Nadu","latitude":12.9165,"longitude":79.1325,"temp":25.9,"humidity":81,"rain":0.0,"pressure":983.8,"uv_index":8.3,"wind_gusts":46.8,"aqi":53,"pm10":19.2,"pm2_5":15.7,"no2":16.2,"co":185.0,"o3":47.0,"so2":3.2,"mosquito_risk":7,"arthritis_risk":5,"migraine_risk":7,"frizz_risk":1,"updated_at":"2026-06-14T01:47:22.481558+05:30"},{"city":"Erode","state":"Tamil Nadu","latitude":11.341,"longitude":77.7172,"temp":25.9,"humidity":80,"rain":0.0,"pressure":989.6,"uv_index":8.3,"wind_gusts":36.4,"aqi":51,"pm10":17.3,"pm2_5":12.6,"no2":13.9,"co":157.0,"o3":38.0,"so2":3.4,"mosquito_risk":7,"arthritis_risk":5,"migraine_risk":7,"frizz_risk":1,"updated_at":"2026-06-14T01:47:22.481566+05:30"},{"city":"Kochi","state":"Kerala","latitude":9.9312,"longitude":76.2673,"temp":25.1,"humidity":99,"rain":0.2,"pressure":1010.9,"uv_index":4.95,"wind_gusts":36.4,"aqi":61,"pm10":22.6,"pm2_5":16.0,"no2":15.4,"co":191.0,"o3":29.0,"so2":4.0,"mosquito_risk":10,"arthritis_risk":0,"migraine_risk":0,"frizz_risk":1,"updated_at":"2026-06-14T01:47:22.481573+05:30"},{"city":"Thiruvananthapuram","state":"Kerala","latitude":8.5241,"longitude":76.9366,"temp":25.6,"humidity":90,"rain":0.1,"pressure":1010.3,"uv_index":8.2,"wind_gusts":43.9,"aqi":27,"pm10":14.2,"pm2_5":7.2,"no2":2.2,"co":170.0,"o3":59.0,"so2":1.0,"mosquito_risk":10,"arthritis_risk":0,"migraine_risk":4,"frizz_risk":1,"updated_at":"2026-06-14T01:47:22.481581+05:30"},{"city":"Kozhikode","state":"Kerala","latitude":11.2588,"longitude":75.7804,"temp":23.2,"humidity":99,"rain":0.0,"pressure":1009.9,"uv_index":7.8,"wind_gusts":34.2,"aqi":33,"pm10":19.0,"pm2_5":7.7,"no2":1.0,"co":522.0,"o3":65.0,"so2":0.9,"mosquito_risk":3,"arthritis_risk":0,"migraine_risk":4,"frizz_risk":1,"updated_at":"2026-06-14T01:47:22.481589+05:30"},{"city":"Thrissur","state":"Kerala","latitude":10.5276,"longitude":76.2144,"temp":24.6,"humidity":100,"rain":0.1,"pressure":1008.9,"uv_index":7.7,"wind_gusts":31.3,"aqi":62,"pm10":21.4,"pm2_5":14.9,"no2":11.4,"co":233.0,"o3":33.0,"so2":2.9,"mosquito_risk":6,"arthritis_risk":0,"migraine_risk":4,"frizz_risk":1,"updated_at":"2026-06-14T01:47:22.481597+05:30"},{"city":"Kannur","state":"Kerala","latitude":11.8745,"longitude":75.3704,"temp":22.9,"humidity":99,"rain":0.4,"pressure":1009.9,"uv_index":7.85,"wind_gusts":33.5,"aqi":44,"pm10":24.0,"pm2_5":14.9,"no2":12.1,"co":431.0,"o3":35.0,"so2":2.6,"mosquito_risk":6,"arthritis_risk":0,"migraine_risk":4,"frizz_risk":1,"updated_at":"2026-06-14T01:47:22.481604+05:30"},{"city":"Patna","state":"Bihar","latitude":25.5941,"longitude":85.1376,"temp":28.0,"humidity":77,"rain":0.0,"pressure":996.1,"uv_index":8.65,"wind_gusts":31.0,"aqi":161,"pm10":117.6,"pm2_5":105.2,"no2":41.4,"co":615.0,"o3":57.0,"so2":24.0,"mosquito_risk":7,"arthritis_risk":5,"migraine_risk":7,"frizz_risk":1,"updated_at":"2026-06-14T01:47:22.481611+05:30"},{"city":"Gaya","state":"Bihar","latitude":24.7914,"longitude":85.0002,"temp":27.9,"humidity":76,"rain":0.0,"pressure":989.6,"uv_index":8.95,"wind_gusts":29.5,"aqi":166,"pm10":171.8,"pm2_5":151.3,"no2":67.6,"co":417.0,"o3":47.0,"so2":31.2,"mosquito_risk":7,"arthritis_risk":5,"migraine_risk":7,"frizz_risk":1,"updated_at":"2026-06-14T01:47:22.481619+05:30"},{"city":"Muzaffarpur","state":"Bihar","latitude":26.1209,"longitude":85.3647,"temp":28.2,"humidity":75,"rain":0.0,"pressure":995.9,"uv_index":8.6,"wind_gusts":23.4,"aqi":160,"pm10":111.5,"pm2_5":100.1,"no2":37.2,"co":583.0,"o3":63.0,"so2":21.0,"mosquito_risk":7,"arthritis_risk":5,"migraine_risk":7,"frizz_risk":1,"updated_at":"2026-06-14T01:47:22.481626+05:30"},{"city":"Bhagalpur","state":"Bihar","latitude":25.2425,"longitude":87.0117,"temp":27.2,"humidity":86,"rain":0.0,"pressure":996.6,"uv_index":8.85,"wind_gusts":24.1,"aqi":158,"pm10":75.7,"pm2_5":69.8,"no2":15.1,"co":407.0,"o3":96.0,"so2":25.8,"mosquito_risk":7,"arthritis_risk":5,"migraine_risk":7,"frizz_risk":1,"updated_at":"2026-06-14T01:47:22.481633+05:30"},{"city":"Ranchi","state":"Jharkhand","latitude":23.3441,"longitude":85.3096,"temp":24.1,"humidity":83,"rain":0.0,"pressure":933.9,"uv_index":8.6,"wind_gusts":28.8,"aqi":150,"pm10":68.7,"pm2_5":56.2,"no2":11.4,"co":284.0,"o3":92.0,"so2":8.5,"mosquito_risk":3,"arthritis_risk":5,"migraine_risk":7,"frizz_risk":1,"updated_at":"2026-06-14T01:47:22.481640+05:30"},{"city":"Jamshedpur","state":"Jharkhand","latitude":22.8046,"longitude":86.2029,"temp":27.4,"humidity":84,"rain":0.0,"pressure":986.3,"uv_index":9.1,"wind_gusts":24.8,"aqi":158,"pm10":98.3,"pm2_5":84.1,"no2":28.7,"co":617.0,"o3":56.0,"so2":23.4,"mosquito_risk":7,"arthritis_risk":5,"migraine_risk":7,"frizz_risk":1,"updated_at":"2026-06-14T01:47:22.481648+05:30"},{"city":"Dhanbad","state":"Jharkhand","latitude":23.7957,"longitude":86.4304,"temp":26.5,"humidity":87,"rain":0.0,"pressure":975.4,"uv_index":9.1,"wind_gusts":25.2,"aqi":171,"pm10":127.1,"pm2_5":113.6,"no2":64.3,"co":255.0,"o3":26.0,"so2":176.3,"mosquito_risk":7,"arthritis_risk":5,"migraine_risk":7,"frizz_risk":1,"updated_at":"2026-06-14T01:47:22.481656+05:30"},{"city":"Bokaro","state":"Jharkhand","latitude":23.6693,"longitude":86.1511,"temp":26.4,"humidity":86,"rain":0.0,"pressure":979.2,"uv_index":8.9,"wind_gusts":24.1,"aqi":166,"pm10":116.4,"pm2_5":99.7,"no2":45.5,"co":342.0,"o3":39.0,"so2":124.5,"mosquito_risk":7,"arthritis_risk":5,"migraine_risk":7,"frizz_risk":1,"updated_at":"2026-06-14T01:47:22.481663+05:30"},{"city":"Bhubaneswar","state":"Odisha","latitude":20.2961,"longitude":85.8245,"temp":29.1,"humidity":92,"rain":0.0,"pressure":997.6,"uv_index":9.05,"wind_gusts":29.2,"aqi":116,"pm10":39.7,"pm2_5":35.5,"no2":13.2,"co":414.0,"o3":95.0,"so2":8.6,"mosquito_risk":7,"arthritis_risk":5,"migraine_risk":7,"frizz_risk":1,"updated_at":"2026-06-14T01:47:22.481671+05:30"},{"city":"Cuttack","state":"Odisha","latitude":20.4625,"longitude":85.8828,"temp":29.2,"humidity":93,"rain":0.0,"pressure":999.6,"uv_index":9.15,"wind_gusts":24.8,"aqi":116,"pm10":39.7,"pm2_5":35.5,"no2":13.2,"co":611.0,"o3":95.0,"so2":8.6,"mosquito_risk":7,"arthritis_risk":5,"migraine_risk":7,"frizz_risk":1,"updated_at":"2026-06-14T01:47:22.481678+05:30"},{"city":"Rourkela","state":"Odisha","latitude":22.2604,"longitude":84.8536,"temp":27.7,"humidity":79,"rain":0.0,"pressure":980.2,"uv_index":8.75,"wind_gusts":34.2,"aqi":150,"pm10":84.5,"pm2_5":73.6,"no2":26.5,"co":742.0,"o3":60.0,"so2":22.8,"mosquito_risk":7,"arthritis_risk":5,"migraine_risk":7,"frizz_risk":1,"updated_at":"2026-06-14T01:47:22.481686+05:30"},{"city":"Raipur","state":"Chhattisgarh","latitude":21.2514,"longitude":81.6296,"temp":30.3,"humidity":56,"rain":0.0,"pressure":970.9,"uv_index":8.95,"wind_gusts":47.2,"aqi":139,"pm10":75.4,"pm2_5":53.9,"no2":40.4,"co":597.0,"o3":47.0,"so2":56.5,"mosquito_risk":0,"arthritis_risk":5,"migraine_risk":7,"frizz_risk":1,"updated_at":"2026-06-14T01:47:22.481693+05:30"},{"city":"Bhilai","state":"Chhattisgarh","latitude":21.1938,"longitude":81.3509,"temp":28.9,"humidity":65,"rain":0.0,"pressure":971.4,"uv_index":8.95,"wind_gusts":37.1,"aqi":130,"pm10":72.2,"pm2_5":49.2,"no2":30.6,"co":671.0,"o3":56.0,"so2":40.5,"mosquito_risk":7,"arthritis_risk":5,"migraine_risk":7,"frizz_risk":1,"updated_at":"2026-06-14T01:47:22.481700+05:30"},{"city":"Guwahati","state":"Assam","latitude":26.1158,"longitude":91.7086,"temp":24.5,"humidity":100,"rain":0.0,"pressure":998.0,"uv_index":8.8,"wind_gusts":29.5,"aqi":73,"pm10":29.7,"pm2_5":25.3,"no2":9.7,"co":362.0,"o3":57.0,"so2":2.2,"mosquito_risk":3,"arthritis_risk":5,"migraine_risk":7,"frizz_risk":1,"updated_at":"2026-06-14T01:47:22.481708+05:30"},{"city":"Agartala","state":"Tripura","latitude":23.8315,"longitude":91.2868,"temp":26.1,"humidity":93,"rain":0.0,"pressure":1002.3,"uv_index":8.65,"wind_gusts":31.7,"aqi":74,"pm10":22.0,"pm2_5":18.3,"no2":13.2,"co":238.0,"o3":46.0,"so2":2.5,"mosquito_risk":7,"arthritis_risk":5,"migraine_risk":4,"frizz_risk":1,"updated_at":"2026-06-14T01:47:22.481716+05:30"},{"city":"Shillong","state":"Meghalaya","latitude":25.5788,"longitude":91.8933,"temp":18.3,"humidity":99,"rain":0.0,"pressure":853.9,"uv_index":7.4,"wind_gusts":23.0,"aqi":52,"pm10":4.3,"pm2_5":3.6,"no2":4.8,"co":221.0,"o3":82.0,"so2":2.2,"mosquito_risk":3,"arthritis_risk":10,"migraine_risk":7,"frizz_risk":1,"updated_at":"2026-06-14T01:47:22.481723+05:30"},{"city":"Imphal","state":"Manipur","latitude":24.817,"longitude":93.9368,"temp":21.6,"humidity":98,"rain":0.0,"pressure":919.7,"uv_index":8.55,"wind_gusts":33.5,"aqi":33,"pm10":15.1,"pm2_5":12.1,"no2":8.2,"co":407.0,"o3":59.0,"so2":2.4,"mosquito_risk":3,"arthritis_risk":5,"migraine_risk":7,"frizz_risk":1,"updated_at":"2026-06-14T01:47:22.481731+05:30"},{"city":"Aizawl","state":"Mizoram","latitude":23.7271,"longitude":92.7176,"temp":19.1,"humidity":96,"rain":0.0,"pressure":889.2,"uv_index":8.95,"wind_gusts":35.6,"aqi":33,"pm10":3.9,"pm2_5":3.3,"no2":3.3,"co":173.0,"o3":47.0,"so2":0.4,"mosquito_risk":3,"arthritis_risk":10,"migraine_risk":7,"frizz_risk":1,"updated_at":"2026-06-14T01:47:22.481738+05:30"},{"city":"Kohima","state":"Nagaland","latitude":25.6701,"longitude":94.1077,"temp":19.2,"humidity":90,"rain":0.0,"pressure":852.5,"uv_index":8.7,"wind_gusts":23.8,"aqi":29,"pm10":4.7,"pm2_5":3.6,"no2":4.7,"co":259.0,"o3":64.0,"so2":0.8,"mosquito_risk":3,"arthritis_risk":10,"migraine_risk":7,"frizz_risk":1,"updated_at":"2026-06-14T01:47:22.481747+05:30"},{"city":"Gangtok","state":"Sikkim","latitude":27.3314,"longitude":88.6138,"temp":16.1,"humidity":99,"rain":0.1,"pressure":834.4,"uv_index":9.2,"wind_gusts":39.2,"aqi":64,"pm10":11.9,"pm2_5":9.3,"no2":6.7,"co":431.0,"o3":115.0,"so2":1.6,"mosquito_risk":6,"arthritis_risk":10,"migraine_risk":7,"frizz_risk":0,"updated_at":"2026-06-14T01:47:22.481754+05:30"},{"city":"Siliguri","state":"West Bengal","latitude":26.7271,"longitude":88.3953,"temp":23.9,"humidity":99,"rain":0.1,"pressure":989.5,"uv_index":8.75,"wind_gusts":20.5,"aqi":138,"pm10":48.7,"pm2_5":38.3,"no2":8.4,"co":475.0,"o3":119.0,"so2":5.1,"mosquito_risk":6,"arthritis_risk":5,"migraine_risk":7,"frizz_risk":1,"updated_at":"2026-06-14T01:47:25.833080+05:30"},{"city":"Durgapur","state":"West Bengal","latitude":23.5204,"longitude":87.3119,"temp":27.3,"humidity":90,"rain":0.0,"pressure":990.2,"uv_index":8.9,"wind_gusts":30.6,"aqi":158,"pm10":96.9,"pm2_5":91.0,"no2":36.5,"co":1082.0,"o3":51.0,"so2":44.2,"mosquito_risk":7,"arthritis_risk":5,"migraine_risk":7,"frizz_risk":1,"updated_at":"2026-06-14T01:47:25.833118+05:30"},{"city":"Asansol","state":"West Bengal","latitude":23.6739,"longitude":86.9524,"temp":26.9,"humidity":85,"rain":0.0,"pressure":988.8,"uv_index":8.9,"wind_gusts":25.9,"aqi":158,"pm10":98.3,"pm2_5":88.9,"no2":42.3,"co":559.0,"o3":45.0,"so2":60.1,"mosquito_risk":7,"arthritis_risk":5,"migraine_risk":7,"frizz_risk":1,"updated_at":"2026-06-14T01:47:25.833131+05:30"},{"city":"Pondicherry","state":"Puducherry","latitude":11.9139,"longitude":79.8145,"temp":27.6,"humidity":76,"rain":0.1,"pressure":1007.7,"uv_index":8.4,"wind_gusts":37.4,"aqi":56,"pm10":16.9,"pm2_5":13.7,"no2":15.4,"co":267.0,"o3":51.0,"so2":10.5,"mosquito_risk":10,"arthritis_risk":5,"migraine_risk":4,"frizz_risk":1,"updated_at":"2026-06-14T01:47:25.833141+05:30"},{"city":"Port Blair","state":"Andaman and Nicobar Islands","latitude":11.6234,"longitude":92.7265,"temp":27.1,"humidity":86,"rain":0.0,"pressure":1006.5,"uv_index":7.8,"wind_gusts":45.0,"aqi":19,"pm10":8.1,"pm2_5":4.9,"no2":0.2,"co":84.0,"o3":43.0,"so2":0.4,"mosquito_risk":7,"arthritis_risk":5,"migraine_risk":4,"frizz_risk":1,"updated_at":"2026-06-14T01:47:25.833150+05:30"},{"city":"Haridwar","state":"Uttarakhand","latitude":29.9457,"longitude":78.1642,"temp":23.1,"humidity":91,"rain":0.0,"pressure":969.4,"uv_index":7.65,"wind_gusts":25.2,"aqi":110,"pm10":123.4,"pm2_5":68.7,"no2":39.9,"co":379.0,"o3":51.0,"so2":13.3,"mosquito_risk":3,"arthritis_risk":5,"migraine_risk":7,"frizz_risk":1,"updated_at":"2026-06-14T01:47:25.833158+05:30"},{"city":"Rishikesh","state":"Uttarakhand","latitude":30.0869,"longitude":78.2676,"temp":21.0,"humidity":89,"rain":0.0,"pressure":962.0,"uv_index":7.75,"wind_gusts":28.8,"aqi":88,"pm10":87.8,"pm2_5":39.3,"no2":12.6,"co":389.0,"o3":114.0,"so2":6.9,"mosquito_risk":3,"arthritis_risk":5,"migraine_risk":7,"frizz_risk":1,"updated_at":"2026-06-14T01:47:25.833166+05:30"},{"city":"Nainital","state":"Uttarakhand","latitude":29.3919,"longitude":79.4542,"temp":14.2,"humidity":81,"rain":0.0,"pressure":801.1,"uv_index":8.6,"wind_gusts":36.0,"aqi":97,"pm10":68.7,"pm2_5":40.7,"no2":19.9,"co":278.0,"o3":84.0,"so2":5.6,"mosquito_risk":3,"arthritis_risk":10,"migraine_risk":7,"frizz_risk":0,"updated_at":"2026-06-14T01:47:25.833174+05:30"},{"city":"Mussoorie","state":"Uttarakhand","latitude":30.4599,"longitude":78.0664,"temp":15.6,"humidity":60,"rain":0.0,"pressure":799.7,"uv_index":8.15,"wind_gusts":45.4,"aqi":78,"pm10":53.0,"pm2_5":30.5,"no2":39.1,"co":215.0,"o3":44.0,"so2":6.2,"mosquito_risk":0,"arthritis_risk":5,"migraine_risk":7,"frizz_risk":0,"updated_at":"2026-06-14T01:47:25.833181+05:30"},{"city":"Dharamshala","state":"Himachal Pradesh","latitude":32.219,"longitude":76.3234,"temp":18.9,"humidity":52,"rain":0.0,"pressure":865.3,"uv_index":8.5,"wind_gusts":37.1,"aqi":33,"pm10":14.0,"pm2_5":10.1,"no2":18.2,"co":298.0,"o3":34.0,"so2":0.0,"mosquito_risk":0,"arthritis_risk":5,"migraine_risk":7,"frizz_risk":0,"updated_at":"2026-06-14T01:47:25.833189+05:30"},{"city":"Dalhousie","state":"Himachal Pradesh","latitude":32.5387,"longitude":75.971,"temp":11.3,"humidity":74,"rain":0.0,"pressure":799.0,"uv_index":8.75,"wind_gusts":37.1,"aqi":74,"pm10":29.4,"pm2_5":22.1,"no2":49.6,"co":301.0,"o3":15.0,"so2":1.8,"mosquito_risk":3,"arthritis_risk":5,"migraine_risk":7,"frizz_risk":0,"updated_at":"2026-06-14T01:47:25.833197+05:30"},{"city":"Patiala","state":"Punjab","latitude":30.3398,"longitude":76.3869,"temp":24.8,"humidity":78,"rain":0.0,"pressure":974.0,"uv_index":7.7,"wind_gusts":32.0,"aqi":154,"pm10":125.7,"pm2_5":61.0,"no2":21.3,"co":467.0,"o3":57.0,"so2":12.1,"mosquito_risk":3,"arthritis_risk":5,"migraine_risk":7,"frizz_risk":1,"updated_at":"2026-06-14T01:47:25.833209+05:30"},{"city":"Bhatinda","state":"Punjab","latitude":30.211,"longitude":74.9455,"temp":26.4,"humidity":78,"rain":0.0,"pressure":979.8,"uv_index":8.35,"wind_gusts":24.5,"aqi":306,"pm10":111.1,"pm2_5":55.3,"no2":35.0,"co":362.0,"o3":33.0,"so2":5.0,"mosquito_risk":7,"arthritis_risk":5,"migraine_risk":7,"frizz_risk":1,"updated_at":"2026-06-14T01:47:25.833219+05:30"},{"city":"Rohtak","state":"Haryana","latitude":28.8955,"longitude":76.6066,"temp":26.3,"humidity":84,"rain":0.0,"pressure":977.1,"uv_index":7.8,"wind_gusts":28.1,"aqi":502,"pm10":263.6,"pm2_5":125.3,"no2":95.3,"co":580.0,"o3":10.0,"so2":35.9,"mosquito_risk":7,"arthritis_risk":5,"migraine_risk":7,"frizz_risk":1,"updated_at":"2026-06-14T01:47:25.833226+05:30"},{"city":"Panipat","state":"Haryana","latitude":29.3909,"longitude":76.9635,"temp":25.2,"humidity":95,"rain":0.0,"pressure":975.6,"uv_index":7.65,"wind_gusts":28.1,"aqi":693,"pm10":350.2,"pm2_5":136.9,"no2":82.0,"co":868.0,"o3":12.0,"so2":23.8,"mosquito_risk":7,"arthritis_risk":5,"migraine_risk":7,"frizz_risk":1,"updated_at":"2026-06-14T01:47:25.833234+05:30"},{"city":"Mathura","state":"Uttar Pradesh","latitude":27.4924,"longitude":77.6737,"temp":26.8,"humidity":73,"rain":0.0,"pressure":982.3,"uv_index":8.1,"wind_gusts":25.9,"aqi":447,"pm10":429.3,"pm2_5":125.7,"no2":96.7,"co":731.0,"o3":3.0,"so2":15.3,"mosquito_risk":7,"arthritis_risk":5,"migraine_risk":7,"frizz_risk":1,"updated_at":"2026-06-14T01:47:25.833240+05:30"},{"city":"Vrindavan","state":"Uttar Pradesh","latitude":27.5823,"longitude":77.7027,"temp":27.1,"humidity":71,"rain":0.0,"pressure":982.8,"uv_index":8.1,"wind_gusts":26.6,"aqi":447,"pm10":429.3,"pm2_5":125.7,"no2":96.7,"co":672.0,"o3":3.0,"so2":15.3,"mosquito_risk":7,"arthritis_risk":5,"migraine_risk":7,"frizz_risk":1,"updated_at":"2026-06-14T01:47:25.833247+05:30"},{"city":"Ayodhya","state":"Uttar Pradesh","latitude":26.7922,"longitude":82.1998,"temp":27.5,"humidity":85,"rain":0.0,"pressure":990.9,"uv_index":8.4,"wind_gusts":28.8,"aqi":138,"pm10":116.2,"pm2_5":90.1,"no2":57.7,"co":610.0,"o3":17.0,"so2":11.6,"mosquito_risk":7,"arthritis_risk":5,"migraine_risk":7,"frizz_risk":1,"updated_at":"2026-06-14T01:47:25.833256+05:30"},{"city":"Ratlam","state":"Madhya Pradesh","latitude":23.3315,"longitude":75.0367,"temp":25.0,"humidity":86,"rain":0.0,"pressure":953.7,"uv_index":8.5,"wind_gusts":46.4,"aqi":77,"pm10":38.5,"pm2_5":22.6,"no2":5.0,"co":160.0,"o3":61.0,"so2":9.2,"mosquito_risk":7,"arthritis_risk":5,"migraine_risk":7,"frizz_risk":1,"updated_at":"2026-06-14T01:47:25.833263+05:30"},{"city":"Sagar","state":"Madhya Pradesh","latitude":23.8388,"longitude":78.7378,"temp":27.8,"humidity":60,"rain":0.0,"pressure":946.6,"uv_index":8.75,"wind_gusts":33.5,"aqi":83,"pm10":35.6,"pm2_5":23.9,"no2":10.7,"co":183.0,"o3":62.0,"so2":2.8,"mosquito_risk":4,"arthritis_risk":5,"migraine_risk":7,"frizz_risk":1,"updated_at":"2026-06-14T01:47:25.833270+05:30"},{"city":"Satna","state":"Madhya Pradesh","latitude":24.6005,"longitude":80.8322,"temp":27.6,"humidity":75,"rain":0.0,"pressure":967.4,"uv_index":8.8,"wind_gusts":34.6,"aqi":113,"pm10":74.3,"pm2_5":53.6,"no2":24.6,"co":254.0,"o3":53.0,"so2":5.2,"mosquito_risk":7,"arthritis_risk":5,"migraine_risk":7,"frizz_risk":1,"updated_at":"2026-06-14T01:47:25.833278+05:30"},{"city":"Akola","state":"Maharashtra","latitude":20.7002,"longitude":77.0082,"temp":31.5,"humidity":51,"rain":0.0,"pressure":972.6,"uv_index":8.8,"wind_gusts":58.0,"aqi":79,"pm10":31.7,"pm2_5":19.0,"no2":6.7,"co":128.0,"o3":73.0,"so2":9.4,"mosquito_risk":0,"arthritis_risk":5,"migraine_risk":7,"frizz_risk":1,"updated_at":"2026-06-14T01:47:25.833285+05:30"},{"city":"Amravati","state":"Maharashtra","latitude":20.9374,"longitude":77.7796,"temp":30.8,"humidity":44,"rain":0.0,"pressure":964.5,"uv_index":8.85,"wind_gusts":49.0,"aqi":81,"pm10":33.5,"pm2_5":20.7,"no2":7.0,"co":162.0,"o3":81.0,"so2":9.6,"mosquito_risk":0,"arthritis_risk":5,"migraine_risk":7,"frizz_risk":1,"updated_at":"2026-06-14T01:47:25.833294+05:30"},{"city":"Latur","state":"Maharashtra","latitude":18.4088,"longitude":76.5604,"temp":27.5,"humidity":63,"rain":0.0,"pressure":938.4,"uv_index":8.9,"wind_gusts":41.0,"aqi":74,"pm10":28.6,"pm2_5":17.8,"no2":4.8,"co":140.0,"o3":79.0,"so2":6.4,"mosquito_risk":7,"arthritis_risk":5,"migraine_risk":7,"frizz_risk":1,"updated_at":"2026-06-14T01:47:25.833302+05:30"},{"city":"Nanded","state":"Maharashtra","latitude":19.1383,"longitude":77.3091,"temp":31.6,"humidity":47,"rain":0.0,"pressure":966.2,"uv_index":8.9,"wind_gusts":49.7,"aqi":91,"pm10":33.4,"pm2_5":21.7,"no2":5.6,"co":140.0,"o3":76.0,"so2":3.8,"mosquito_risk":0,"arthritis_risk":5,"migraine_risk":7,"frizz_risk":1,"updated_at":"2026-06-14T01:47:25.833309+05:30"},{"city":"Gulbarga","state":"Karnataka","latitude":17.3297,"longitude":76.8343,"temp":28.3,"humidity":62,"rain":0.0,"pressure":957.3,"uv_index":8.85,"wind_gusts":41.0,"aqi":62,"pm10":15.9,"pm2_5":10.6,"no2":5.4,"co":137.0,"o3":50.0,"so2":2.5,"mosquito_risk":7,"arthritis_risk":5,"migraine_risk":7,"frizz_risk":1,"updated_at":"2026-06-14T01:47:25.833316+05:30"},{"city":"Bidar","state":"Karnataka","latitude":17.9104,"longitude":77.5199,"temp":27.4,"humidity":55,"rain":0.0,"pressure":933.7,"uv_index":8.95,"wind_gusts":38.5,"aqi":86,"pm10":54.8,"pm2_5":30.2,"no2":11.1,"co":175.0,"o3":70.0,"so2":4.2,"mosquito_risk":4,"arthritis_risk":5,"migraine_risk":7,"frizz_risk":1,"updated_at":"2026-06-14T01:47:25.833323+05:30"},{"city":"Hospet","state":"Karnataka","latitude":15.2689,"longitude":76.3909,"temp":25.1,"humidity":85,"rain":0.0,"pressure":955.9,"uv_index":7.7,"wind_gusts":55.8,"aqi":40,"pm10":11.5,"pm2_5":7.0,"no2":5.3,"co":137.0,"o3":44.0,"so2":1.7,"mosquito_risk":7,"arthritis_risk":5,"migraine_risk":7,"frizz_risk":1,"updated_at":"2026-06-14T01:47:25.833330+05:30"},{"city":"Tirupur","state":"Tamil Nadu","latitude":11.1085,"longitude":77.3411,"temp":24.7,"humidity":86,"rain":0.0,"pressure":975.9,"uv_index":8.35,"wind_gusts":47.9,"aqi":51,"pm10":18.6,"pm2_5":13.8,"no2":16.7,"co":138.0,"o3":32.0,"so2":4.0,"mosquito_risk":3,"arthritis_risk":5,"migraine_risk":7,"frizz_risk":1,"updated_at":"2026-06-14T01:47:25.833337+05:30"},{"city":"Alappuzha","state":"Kerala","latitude":9.4981,"longitude":76.3388,"temp":25.8,"humidity":93,"rain":0.2,"pressure":1011.0,"uv_index":7.95,"wind_gusts":36.4,"aqi":51,"pm10":20.5,"pm2_5":12.5,"no2":10.1,"co":147.0,"o3":47.0,"so2":2.7,"mosquito_risk":10,"arthritis_risk":0,"migraine_risk":4,"frizz_risk":1,"updated_at":"2026-06-14T01:47:25.833344+05:30"},{"city":"Munnar","state":"Kerala","latitude":10.0889,"longitude":77.0595,"temp":16.4,"humidity":97,"rain":0.0,"pressure":857.4,"uv_index":8.1,"wind_gusts":35.3,"aqi":36,"pm10":14.1,"pm2_5":8.1,"no2":5.2,"co":97.0,"o3":39.0,"so2":1.6,"mosquito_risk":3,"arthritis_risk":10,"migraine_risk":7,"frizz_risk":0,"updated_at":"2026-06-14T01:47:25.833352+05:30"},{"city":"Silchar","state":"Assam","latitude":24.8333,"longitude":92.7789,"temp":24.7,"humidity":99,"rain":0.2,"pressure":1002.1,"uv_index":8.3,"wind_gusts":27.7,"aqi":59,"pm10":23.5,"pm2_5":17.1,"no2":6.6,"co":228.0,"o3":84.0,"so2":3.3,"mosquito_risk":6,"arthritis_risk":5,"migraine_risk":4,"frizz_risk":1,"updated_at":"2026-06-14T01:47:25.833359+05:30"},{"city":"Dibrugarh","state":"Assam","latitude":27.4728,"longitude":94.912,"temp":24.4,"humidity":98,"rain":0.0,"pressure":991.6,"uv_index":7.25,"wind_gusts":19.8,"aqi":71,"pm10":11.6,"pm2_5":11.3,"no2":7.5,"co":245.0,"o3":68.0,"so2":1.1,"mosquito_risk":3,"arthritis_risk":5,"migraine_risk":7,"frizz_risk":1,"updated_at":"2026-06-14T01:47:25.833366+05:30"}]