[{"city":"Delhi","state":"Delhi","latitude":28.6139,"longitude":77.209,"temp":22.5,"humidity":68,"rain":0.0,"pressure":986.7,"uv_index":6.5,"wind_gusts":45.0,"aqi":167,"pm10":185.3,"pm2_5":66.4,"mosquito_risk":3,"arthritis_risk":5,"migraine_risk":7,"frizz_risk":1,"updated_at":"2026-03-27T08:10:24.141562+05:30"},{"city":"Mumbai","state":"Maharashtra","latitude":19.076,"longitude":72.8777,"temp":28.5,"humidity":75,"rain":0.0,"pressure":1009.8,"uv_index":8.0,"wind_gusts":27.4,"aqi":98,"pm10":37.8,"pm2_5":29.8,"mosquito_risk":7,"arthritis_risk":0,"migraine_risk":4,"frizz_risk":1,"updated_at":"2026-03-27T08:10:24.141598+05:30"},{"city":"Bangalore","state":"Karnataka","latitude":12.9716,"longitude":77.5946,"temp":22.5,"humidity":72,"rain":0.0,"pressure":913.9,"uv_index":9.5,"wind_gusts":27.0,"aqi":68,"pm10":45.8,"pm2_5":40.0,"mosquito_risk":3,"arthritis_risk":5,"migraine_risk":7,"frizz_risk":1,"updated_at":"2026-03-27T08:10:24.141613+05:30"},{"city":"Hyderabad","state":"Telangana","latitude":17.385,"longitude":78.4867,"temp":26.1,"humidity":65,"rain":0.0,"pressure":956.3,"uv_index":9.0,"wind_gusts":29.9,"aqi":83,"pm10":27.8,"pm2_5":22.2,"mosquito_risk":7,"arthritis_risk":5,"migraine_risk":7,"frizz_risk":1,"updated_at":"2026-03-27T08:10:24.141624+05:30"},{"city":"Chennai","state":"Tamil Nadu","latitude":13.0827,"longitude":80.2707,"temp":26.1,"humidity":80,"rain":0.0,"pressure":1010.6,"uv_index":9.25,"wind_gusts":29.9,"aqi":66,"pm10":41.0,"pm2_5":27.7,"mosquito_risk":7,"arthritis_risk":0,"migraine_risk":4,"frizz_risk":1,"updated_at":"2026-03-27T08:10:24.141632+05:30"},{"city":"Kolkata","state":"West Bengal","latitude":22.5726,"longitude":88.3639,"temp":27.7,"humidity":85,"rain":0.0,"pressure":1008.9,"uv_index":8.45,"wind_gusts":25.2,"aqi":137,"pm10":45.4,"pm2_5":38.2,"mosquito_risk":7,"arthritis_risk":0,"migraine_risk":4,"frizz_risk":1,"updated_at":"2026-03-27T08:10:24.141641+05:30"},{"city":"Pune","state":"Maharashtra","latitude":18.5204,"longitude":73.8567,"temp":27.8,"humidity":58,"rain":0.0,"pressure":950.7,"uv_index":8.55,"wind_gusts":34.9,"aqi":110,"pm10":69.4,"pm2_5":62.4,"mosquito_risk":4,"arthritis_risk":5,"migraine_risk":7,"frizz_risk":1,"updated_at":"2026-03-27T08:10:24.141653+05:30"},{"city":"Ahmedabad","state":"Gujarat","latitude":23.0225,"longitude":72.5714,"temp":24.2,"humidity":62,"rain":0.0,"pressure":1004.9,"uv_index":7.9,"wind_gusts":30.2,"aqi":58,"pm10":18.9,"pm2_5":12.9,"mosquito_risk":3,"arthritis_risk":5,"migraine_risk":4,"frizz_risk":1,"updated_at":"2026-03-27T08:10:24.141660+05:30"},{"city":"Jaipur","state":"Rajasthan","latitude":26.9124,"longitude":75.7873,"temp":23.4,"humidity":59,"rain":0.0,"pressure":962.8,"uv_index":7.4,"wind_gusts":37.8,"aqi":94,"pm10":142.0,"pm2_5":39.6,"mosquito_risk":0,"arthritis_risk":5,"migraine_risk":7,"frizz_risk":0,"updated_at":"2026-03-27T08:10:24.141667+05:30"},{"city":"Lucknow","state":"Uttar Pradesh","latitude":26.8467,"longitude":80.9462,"temp":24.9,"humidity":57,"rain":0.0,"pressure":995.7,"uv_index":5.1,"wind_gusts":52.6,"aqi":96,"pm10":105.9,"pm2_5":36.2,"mosquito_risk":0,"arthritis_risk":5,"migraine_risk":3,"frizz_risk":0,"updated_at":"2026-03-27T08:10:24.141675+05:30"},{"city":"Kanpur","state":"Uttar Pradesh","latitude":26.4499,"longitude":80.3319,"temp":23.8,"humidity":68,"rain":0.0,"pressure":994.7,"uv_index":6.05,"wind_gusts":42.8,"aqi":159,"pm10":192.3,"pm2_5":48.4,"mosquito_risk":3,"arthritis_risk":5,"migraine_risk":7,"frizz_risk":1,"updated_at":"2026-03-27T08:10:24.141681+05:30"},{"city":"Chandigarh","state":"Chandigarh","latitude":30.7333,"longitude":76.7794,"temp":20.4,"humidity":83,"rain":0.0,"pressure":971.4,"uv_index":6.45,"wind_gusts":30.2,"aqi":67,"pm10":31.7,"pm2_5":28.4,"mosquito_risk":3,"arthritis_risk":5,"migraine_risk":7,"frizz_risk":1,"updated_at":"2026-03-27T08:10:24.141689+05:30"},{"city":"Srinagar","state":"Jammu and Kashmir","latitude":34.0837,"longitude":74.7973,"temp":8.3,"humidity":83,"rain":0.0,"pressure":841.1,"uv_index":7.5,"wind_gusts":17.3,"aqi":101,"pm10":64.5,"pm2_5":58.2,"mosquito_risk":3,"arthritis_risk":10,"migraine_risk":7,"frizz_risk":0,"updated_at":"2026-03-27T08:10:24.141696+05:30"},{"city":"Jammu","state":"Jammu and Kashmir","latitude":32.7266,"longitude":74.857,"temp":19.6,"humidity":86,"rain":0.0,"pressure":975.2,"uv_index":7.15,"wind_gusts":26.6,"aqi":79,"pm10":43.8,"pm2_5":40.2,"mosquito_risk":3,"arthritis_risk":10,"migraine_risk":7,"frizz_risk":1,"updated_at":"2026-03-27T08:10:24.141703+05:30"},{"city":"Amritsar","state":"Punjab","latitude":31.634,"longitude":74.8723,"temp":19.1,"humidity":83,"rain":0.0,"pressure":984.1,"uv_index":7.1,"wind_gusts":25.2,"aqi":81,"pm10":38.6,"pm2_5":30.3,"mosquito_risk":3,"arthritis_risk":10,"migraine_risk":7,"frizz_risk":1,"updated_at":"2026-03-27T08:10:24.141715+05:30"},{"city":"Ludhiana","state":"Punjab","latitude":30.901,"longitude":75.8573,"temp":20.3,"humidity":79,"rain":0.0,"pressure":982.0,"uv_index":6.3,"wind_gusts":27.7,"aqi":88,"pm10":51.3,"pm2_5":36.2,"mosquito_risk":3,"arthritis_risk":5,"migraine_risk":7,"frizz_risk":1,"updated_at":"2026-03-27T08:10:24.141722+05:30"},{"city":"Jalandhar","state":"Punjab","latitude":31.326,"longitude":75.5762,"temp":19.6,"humidity":84,"rain":0.0,"pressure":983.0,"uv_index":6.9,"wind_gusts":26.6,"aqi":86,"pm10":63.6,"pm2_5":33.2,"mosquito_risk":3,"arthritis_risk":10,"migraine_risk":7,"frizz_risk":1,"updated_at":"2026-03-27T08:10:24.141730+05:30"},{"city":"Dehradun","state":"Uttarakhand","latitude":30.6284,"longitude":78.0322,"temp":13.4,"humidity":64,"rain":0.0,"pressure":830.0,"uv_index":6.5,"wind_gusts":30.2,"aqi":48,"pm10":14.2,"pm2_5":8.7,"mosquito_risk":3,"arthritis_risk":5,"migraine_risk":7,"frizz_risk":0,"updated_at":"2026-03-27T08:10:24.141737+05:30"},{"city":"Shimla","state":"Himachal Pradesh","latitude":31.1048,"longitude":77.1734,"temp":11.9,"humidity":80,"rain":0.0,"pressure":783.8,"uv_index":6.2,"wind_gusts":35.6,"aqi":58,"pm10":25.3,"pm2_5":21.0,"mosquito_risk":3,"arthritis_risk":5,"migraine_risk":7,"frizz_risk":0,"updated_at":"2026-03-27T08:10:24.141743+05:30"},{"city":"Manali","state":"Himachal Pradesh","latitude":32.2396,"longitude":77.1887,"temp":14.4,"humidity":51,"rain":0.0,"pressure":818.4,"uv_index":8.1,"wind_gusts":25.9,"aqi":45,"pm10":7.5,"pm2_5":4.6,"mosquito_risk":0,"arthritis_risk":5,"migraine_risk":7,"frizz_risk":0,"updated_at":"2026-03-27T08:10:24.141750+05:30"},{"city":"Gurgaon","state":"Haryana","latitude":28.4595,"longitude":77.0266,"temp":21.6,"humidity":77,"rain":0.0,"pressure":985.1,"uv_index":6.7,"wind_gusts":42.1,"aqi":646,"pm10":344.6,"pm2_5":85.7,"mosquito_risk":3,"arthritis_risk":5,"migraine_risk":7,"frizz_risk":1,"updated_at":"2026-03-27T08:10:24.141757+05:30"},{"city":"Noida","state":"Uttar Pradesh","latitude":28.5355,"longitude":77.391,"temp":22.7,"humidity":69,"rain":0.0,"pressure":988.3,"uv_index":6.5,"wind_gusts":43.6,"aqi":646,"pm10":344.6,"pm2_5":85.7,"mosquito_risk":3,"arthritis_risk":5,"migraine_risk":7,"frizz_risk":1,"updated_at":"2026-03-27T08:10:24.141763+05:30"},{"city":"Ghaziabad","state":"Uttar Pradesh","latitude":28.6692,"longitude":77.4538,"temp":22.2,"humidity":72,"rain":0.0,"pressure":986.2,"uv_index":6.25,"wind_gusts":42.1,"aqi":133,"pm10":116.2,"pm2_5":48.1,"mosquito_risk":3,"arthritis_risk":5,"migraine_risk":7,"frizz_risk":1,"updated_at":"2026-03-27T08:10:24.141770+05:30"},{"city":"Faridabad","state":"Haryana","latitude":28.4089,"longitude":77.3178,"temp":22.0,"humidity":72,"rain":0.0,"pressure":987.5,"uv_index":6.5,"wind_gusts":43.2,"aqi":646,"pm10":344.6,"pm2_5":85.7,"mosquito_risk":3,"arthritis_risk":5,"migraine_risk":7,"frizz_risk":1,"updated_at":"2026-03-27T08:10:24.141776+05:30"},{"city":"Meerut","state":"Uttar Pradesh","latitude":28.9845,"longitude":77.7064,"temp":22.0,"humidity":74,"rain":0.0,"pressure":984.6,"uv_index":6.4,"wind_gusts":48.2,"aqi":133,"pm10":116.2,"pm2_5":48.1,"mosquito_risk":3,"arthritis_risk":5,"migraine_risk":7,"frizz_risk":1,"updated_at":"2026-03-27T08:10:24.141782+05:30"},{"city":"Agra","state":"Uttar Pradesh","latitude":27.1767,"longitude":78.0081,"temp":23.0,"humidity":68,"rain":0.0,"pressure":991.8,"uv_index":6.7,"wind_gusts":34.6,"aqi":503,"pm10":724.6,"pm2_5":126.2,"mosquito_risk":3,"arthritis_risk":5,"migraine_risk":7,"frizz_risk":1,"updated_at":"2026-03-27T08:10:24.141789+05:30"},{"city":"Varanasi","state":"Uttar Pradesh","latitude":25.3176,"longitude":82.9739,"temp":25.0,"humidity":61,"rain":0.0,"pressure":999.8,"uv_index":7.35,"wind_gusts":47.2,"aqi":92,"pm10":65.9,"pm2_5":36.1,"mosquito_risk":7,"arthritis_risk":5,"migraine_risk":7,"frizz_risk":1,"updated_at":"2026-03-27T08:10:24.141798+05:30"},{"city":"Prayagraj","state":"Uttar Pradesh","latitude":25.4358,"longitude":81.8463,"temp":25.0,"humidity":62,"rain":0.0,"pressure":998.3,"uv_index":7.25,"wind_gusts":44.3,"aqi":91,"pm10":94.1,"pm2_5":40.5,"mosquito_risk":7,"arthritis_risk":5,"migraine_risk":7,"frizz_risk":1,"updated_at":"2026-03-27T08:10:24.141805+05:30"},{"city":"Gorakhpur","state":"Uttar Pradesh","latitude":26.7606,"longitude":83.3732,"temp":21.5,"humidity":74,"rain":0.0,"pressure":998.9,"uv_index":6.2,"wind_gusts":47.5,"aqi":91,"pm10":80.6,"pm2_5":50.3,"mosquito_risk":3,"arthritis_risk":5,"migraine_risk":7,"frizz_risk":1,"updated_at":"2026-03-27T08:10:24.141811+05:30"},{"city":"Bareilly","state":"Uttar Pradesh","latitude":28.367,"longitude":79.4304,"temp":22.8,"humidity":72,"rain":0.0,"pressure":988.9,"uv_index":5.3,"wind_gusts":46.8,"aqi":69,"pm10":27.8,"pm2_5":23.9,"mosquito_risk":3,"arthritis_risk":5,"migraine_risk":3,"frizz_risk":1,"updated_at":"2026-03-27T08:10:24.141819+05:30"},{"city":"Aligarh","state":"Uttar Pradesh","latitude":27.8974,"longitude":78.088,"temp":22.0,"humidity":73,"rain":0.0,"pressure":989.5,"uv_index":5.85,"wind_gusts":39.6,"aqi":280,"pm10":489.9,"pm2_5":83.1,"mosquito_risk":3,"arthritis_risk":5,"migraine_risk":3,"frizz_risk":1,"updated_at":"2026-03-27T08:10:24.141826+05:30"},{"city":"Moradabad","state":"Uttar Pradesh","latitude":28.8386,"longitude":78.7733,"temp":22.5,"humidity":72,"rain":0.0,"pressure":986.2,"uv_index":5.55,"wind_gusts":49.0,"aqi":78,"pm10":43.8,"pm2_5":29.4,"mosquito_risk":3,"arthritis_risk":5,"migraine_risk":3,"frizz_risk":1,"updated_at":"2026-03-27T08:10:24.141832+05:30"},{"city":"Saharanpur","state":"Uttar Pradesh","latitude":29.9637,"longitude":77.546,"temp":21.0,"humidity":76,"rain":0.0,"pressure":978.4,"uv_index":3.4,"wind_gusts":36.4,"aqi":81,"pm10":79.6,"pm2_5":52.9,"mosquito_risk":3,"arthritis_risk":5,"migraine_risk":3,"frizz_risk":1,"updated_at":"2026-03-27T08:10:24.141838+05:30"},{"city":"Jhansi","state":"Uttar Pradesh","latitude":25.4484,"longitude":78.5685,"temp":24.6,"humidity":64,"rain":0.0,"pressure":980.3,"uv_index":7.55,"wind_gusts":54.0,"aqi":81,"pm10":172.8,"pm2_5":37.5,"mosquito_risk":3,"arthritis_risk":5,"migraine_risk":7,"frizz_risk":1,"updated_at":"2026-03-27T08:10:27.366744+05:30"},{"city":"Surat","state":"Gujarat","latitude":21.1702,"longitude":72.8311,"temp":26.0,"humidity":71,"rain":0.0,"pressure":1009.0,"uv_index":7.75,"wind_gusts":25.9,"aqi":126,"pm10":42.0,"pm2_5":39.1,"mosquito_risk":7,"arthritis_risk":0,"migraine_risk":4,"frizz_risk":1,"updated_at":"2026-03-27T08:10:27.366773+05:30"},{"city":"Vadodara","state":"Gujarat","latitude":22.3072,"longitude":73.1812,"temp":25.3,"humidity":56,"rain":0.0,"pressure":1006.9,"uv_index":7.95,"wind_gusts":26.6,"aqi":77,"pm10":27.2,"pm2_5":24.1,"mosquito_risk":4,"arthritis_risk":5,"migraine_risk":4,"frizz_risk":0,"updated_at":"2026-03-27T08:10:27.366785+05:30"},{"city":"Rajkot","state":"Gujarat","latitude":22.3039,"longitude":70.8022,"temp":23.6,"humidity":85,"rain":0.0,"pressure":997.5,"uv_index":7.75,"wind_gusts":33.1,"aqi":52,"pm10":26.1,"pm2_5":15.9,"mosquito_risk":3,"arthritis_risk":5,"migraine_risk":7,"frizz_risk":1,"updated_at":"2026-03-27T08:10:27.366794+05:30"},{"city":"Thane","state":"Maharashtra","latitude":19.2183,"longitude":72.9781,"temp":28.7,"humidity":61,"rain":0.0,"pressure":1009.3,"uv_index":8.0,"wind_gusts":39.6,"aqi":98,"pm10":37.8,"pm2_5":29.8,"mosquito_risk":7,"arthritis_risk":0,"migraine_risk":4,"frizz_risk":1,"updated_at":"2026-03-27T08:10:27.366803+05:30"},{"city":"Nagpur","state":"Maharashtra","latitude":21.1458,"longitude":79.0882,"temp":27.0,"humidity":66,"rain":0.0,"pressure":975.5,"uv_index":8.25,"wind_gusts":45.7,"aqi":122,"pm10":55.9,"pm2_5":51.2,"mosquito_risk":7,"arthritis_risk":5,"migraine_risk":7,"frizz_risk":1,"updated_at":"2026-03-27T08:10:27.366812+05:30"},{"city":"Nashik","state":"Maharashtra","latitude":19.9975,"longitude":73.7898,"temp":25.7,"humidity":53,"rain":0.0,"pressure":947.8,"uv_index":8.2,"wind_gusts":42.8,"aqi":80,"pm10":31.1,"pm2_5":24.6,"mosquito_risk":4,"arthritis_risk":5,"migraine_risk":7,"frizz_risk":0,"updated_at":"2026-03-27T08:10:27.366820+05:30"},{"city":"Aurangabad","state":"Maharashtra","latitude":19.8762,"longitude":75.3433,"temp":27.1,"humidity":47,"rain":0.0,"pressure":946.6,"uv_index":8.7,"wind_gusts":38.9,"aqi":69,"pm10":22.4,"pm2_5":17.9,"mosquito_risk":4,"arthritis_risk":5,"migraine_risk":7,"frizz_risk":0,"updated_at":"2026-03-27T08:10:27.366827+05:30"},{"city":"Solapur","state":"Maharashtra","latitude":17.6599,"longitude":75.9064,"temp":26.9,"humidity":58,"rain":0.0,"pressure":960.0,"uv_index":8.85,"wind_gusts":27.0,"aqi":101,"pm10":57.2,"pm2_5":51.5,"mosquito_risk":4,"arthritis_risk":5,"migraine_risk":7,"frizz_risk":1,"updated_at":"2026-03-27T08:10:27.366835+05:30"},{"city":"Kolhapur","state":"Maharashtra","latitude":16.705,"longitude":74.2433,"temp":26.1,"humidity":70,"rain":0.0,"pressure":949.8,"uv_index":8.95,"wind_gusts":38.5,"aqi":156,"pm10":104.1,"pm2_5":99.0,"mosquito_risk":7,"arthritis_risk":5,"migraine_risk":7,"frizz_risk":1,"updated_at":"2026-03-27T08:10:27.366842+05:30"},{"city":"Goa","state":"Goa","latitude":15.2993,"longitude":74.124,"temp":29.4,"humidity":81,"rain":0.0,"pressure":999.5,"uv_index":8.95,"wind_gusts":32.4,"aqi":99,"pm10":39.3,"pm2_5":35.4,"mosquito_risk":7,"arthritis_risk":5,"migraine_risk":7,"frizz_risk":1,"updated_at":"2026-03-27T08:10:27.366850+05:30"},{"city":"Jodhpur","state":"Rajasthan","latitude":26.2389,"longitude":73.0243,"temp":24.3,"humidity":59,"rain":0.0,"pressure":986.4,"uv_index":7.7,"wind_gusts":29.2,"aqi":90,"pm10":80.8,"pm2_5":25.2,"mosquito_risk":0,"arthritis_risk":5,"migraine_risk":7,"frizz_risk":0,"updated_at":"2026-03-27T08:10:27.366857+05:30"},{"city":"Udaipur","state":"Rajasthan","latitude":24.5854,"longitude":73.7125,"temp":25.0,"humidity":42,"rain":0.0,"pressure":949.3,"uv_index":8.35,"wind_gusts":34.2,"aqi":25,"pm10":11.8,"pm2_5":7.4,"mosquito_risk":4,"arthritis_risk":5,"migraine_risk":7,"frizz_risk":0,"updated_at":"2026-03-27T08:10:27.366864+05:30"},{"city":"Kota","state":"Rajasthan","latitude":25.2138,"longitude":75.8648,"temp":26.3,"humidity":48,"rain":0.0,"pressure":981.2,"uv_index":7.7,"wind_gusts":38.2,"aqi":63,"pm10":38.0,"pm2_5":17.5,"mosquito_risk":4,"arthritis_risk":5,"migraine_risk":7,"frizz_risk":0,"updated_at":"2026-03-27T08:10:27.366872+05:30"},{"city":"Bikaner","state":"Rajasthan","latitude":28.0229,"longitude":73.3119,"temp":21.4,"humidity":69,"rain":0.0,"pressure":986.4,"uv_index":7.45,"wind_gusts":27.7,"aqi":68,"pm10":61.5,"pm2_5":32.2,"mosquito_risk":3,"arthritis_risk":5,"migraine_risk":7,"frizz_risk":0,"updated_at":"2026-03-27T08:10:27.366879+05:30"},{"city":"Ajmer","state":"Rajasthan","latitude":26.4499,"longitude":74.6399,"temp":22.3,"humidity":58,"rain":0.0,"pressure":956.9,"uv_index":7.7,"wind_gusts":32.8,"aqi":53,"pm10":39.2,"pm2_5":20.9,"mosquito_risk":0,"arthritis_risk":5,"migraine_risk":7,"frizz_risk":0,"updated_at":"2026-03-27T08:10:27.366919+05:30"},{"city":"Gwalior","state":"Madhya Pradesh","latitude":26.2183,"longitude":78.1828,"temp":25.9,"humidity":54,"rain":0.0,"pressure":986.3,"uv_index":7.05,"wind_gusts":58.3,"aqi":104,"pm10":378.1,"pm2_5":72.2,"mosquito_risk":4,"arthritis_risk":5,"migraine_risk":7,"frizz_risk":0,"updated_at":"2026-03-27T08:10:27.366927+05:30"},{"city":"Indore","state":"Madhya Pradesh","latitude":22.7196,"longitude":75.8577,"temp":23.7,"humidity":57,"rain":0.0,"pressure":949.9,"uv_index":8.2,"wind_gusts":35.3,"aqi":44,"pm10":12.1,"pm2_5":10.9,"mosquito_risk":0,"arthritis_risk":5,"migraine_risk":7,"frizz_risk":0,"updated_at":"2026-03-27T08:10:27.366934+05:30"},{"city":"Bhopal","state":"Madhya Pradesh","latitude":23.2599,"longitude":77.4126,"temp":24.4,"humidity":57,"rain":0.0,"pressure":955.3,"uv_index":8.1,"wind_gusts":40.7,"aqi":42,"pm10":15.4,"pm2_5":14.3,"mosquito_risk":0,"arthritis_risk":5,"migraine_risk":7,"frizz_risk":0,"updated_at":"2026-03-27T08:10:27.366940+05:30"},{"city":"Jabalpur","state":"Madhya Pradesh","latitude":23.1815,"longitude":79.9864,"temp":24.1,"humidity":66,"rain":0.0,"pressure":964.2,"uv_index":8.0,"wind_gusts":36.7,"aqi":58,"pm10":26.7,"pm2_5":21.7,"mosquito_risk":3,"arthritis_risk":5,"migraine_risk":7,"frizz_risk":1,"updated_at":"2026-03-27T08:10:27.366946+05:30"},{"city":"Ujjain","state":"Madhya Pradesh","latitude":23.1765,"longitude":75.7885,"temp":24.2,"humidity":55,"rain":0.0,"pressure":955.7,"uv_index":8.1,"wind_gusts":35.6,"aqi":37,"pm10":13.9,"pm2_5":12.6,"mosquito_risk":0,"arthritis_risk":5,"migraine_risk":7,"frizz_risk":0,"updated_at":"2026-03-27T08:10:27.366953+05:30"},{"city":"Visakhapatnam","state":"Andhra Pradesh","latitude":17.6868,"longitude":83.2185,"temp":28.3,"humidity":74,"rain":0.0,"pressure":1006.7,"uv_index":8.95,"wind_gusts":40.3,"aqi":81,"pm10":39.5,"pm2_5":33.2,"mosquito_risk":7,"arthritis_risk":5,"migraine_risk":4,"frizz_risk":1,"updated_at":"2026-03-27T08:10:27.366958+05:30"},{"city":"Vijayawada","state":"Andhra Pradesh","latitude":16.5062,"longitude":80.648,"temp":26.5,"humidity":85,"rain":0.0,"pressure":1006.4,"uv_index":9.05,"wind_gusts":25.9,"aqi":75,"pm10":35.2,"pm2_5":27.9,"mosquito_risk":7,"arthritis_risk":5,"migraine_risk":4,"frizz_risk":1,"updated_at":"2026-03-27T08:10:27.366964+05:30"},{"city":"Guntur","state":"Andhra Pradesh","latitude":16.3067,"longitude":80.4365,"temp":26.1,"humidity":86,"rain":0.0,"pressure":1007.2,"uv_index":9.05,"wind_gusts":32.4,"aqi":71,"pm10":29.6,"pm2_5":23.7,"mosquito_risk":7,"arthritis_risk":5,"migraine_risk":4,"frizz_risk":1,"updated_at":"2026-03-27T08:10:27.366971+05:30"},{"city":"Nellore","state":"Andhra Pradesh","latitude":14.4426,"longitude":79.9865,"temp":26.1,"humidity":80,"rain":0.0,"pressure":1009.0,"uv_index":9.15,"wind_gusts":30.2,"aqi":62,"pm10":30.4,"pm2_5":23.0,"mosquito_risk":7,"arthritis_risk":0,"migraine_risk":4,"frizz_risk":1,"updated_at":"2026-03-27T08:10:27.366977+05:30"},{"city":"Kurnool","state":"Andhra Pradesh","latitude":15.8281,"longitude":78.0373,"temp":28.4,"humidity":49,"rain":0.0,"pressure":980.2,"uv_index":9.05,"wind_gusts":21.2,"aqi":69,"pm10":24.6,"pm2_5":19.7,"mosquito_risk":4,"arthritis_risk":5,"migraine_risk":7,"frizz_risk":1,"updated_at":"2026-03-27T08:10:27.366985+05:30"},{"city":"Kakinada","state":"Andhra Pradesh","latitude":16.9891,"longitude":82.2475,"temp":27.6,"humidity":80,"rain":0.0,"pressure":1010.8,"uv_index":8.95,"wind_gusts":25.2,"aqi":65,"pm10":38.3,"pm2_5":25.4,"mosquito_risk":7,"arthritis_risk":0,"migraine_risk":4,"frizz_risk":1,"updated_at":"2026-03-27T08:10:27.366991+05:30"},{"city":"Tirupati","state":"Andhra Pradesh","latitude":13.6288,"longitude":79.4192,"temp":24.9,"humidity":82,"rain":0.0,"pressure":994.9,"uv_index":9.25,"wind_gusts":30.6,"aqi":93,"pm10":53.4,"pm2_5":49.0,"mosquito_risk":3,"arthritis_risk":5,"migraine_risk":7,"frizz_risk":1,"updated_at":"2026-03-27T08:10:27.366997+05:30"},{"city":"Warangal","state":"Telangana","latitude":17.9689,"longitude":79.5941,"temp":26.1,"humidity":65,"rain":0.0,"pressure":981.7,"uv_index":8.85,"wind_gusts":34.2,"aqi":84,"pm10":27.1,"pm2_5":23.8,"mosquito_risk":7,"arthritis_risk":5,"migraine_risk":7,"frizz_risk":1,"updated_at":"2026-03-27T08:10:27.367003+05:30"},{"city":"Nizamabad","state":"Telangana","latitude":18.6725,"longitude":78.0941,"temp":28.5,"humidity":55,"rain":0.0,"pressure":967.5,"uv_index":8.8,"wind_gusts":23.8,"aqi":100,"pm10":40.7,"pm2_5":38.0,"mosquito_risk":4,"arthritis_risk":5,"migraine_risk":7,"frizz_risk":1,"updated_at":"2026-03-27T08:10:27.367009+05:30"},{"city":"Mysore","state":"Karnataka","latitude":12.2958,"longitude":76.6396,"temp":23.2,"humidity":77,"rain":0.0,"pressure":930.7,"uv_index":9.45,"wind_gusts":37.1,"aqi":70,"pm10":42.0,"pm2_5":38.4,"mosquito_risk":3,"arthritis_risk":5,"migraine_risk":7,"frizz_risk":1,"updated_at":"2026-03-27T08:10:27.367015+05:30"},{"city":"Mangalore","state":"Karnataka","latitude":12.9141,"longitude":74.856,"temp":29.1,"humidity":85,"rain":0.0,"pressure":1008.4,"uv_index":9.1,"wind_gusts":24.1,"aqi":101,"pm10":49.5,"pm2_5":41.6,"mosquito_risk":7,"arthritis_risk":0,"migraine_risk":4,"frizz_risk":1,"updated_at":"2026-03-27T08:10:27.367021+05:30"},{"city":"Hubli-Dharwad","state":"Karnataka","latitude":15.3647,"longitude":75.124,"temp":24.0,"humidity":73,"rain":0.0,"pressure":943.1,"uv_index":9.1,"wind_gusts":41.4,"aqi":79,"pm10":29.0,"pm2_5":27.0,"mosquito_risk":3,"arthritis_risk":5,"migraine_risk":7,"frizz_risk":1,"updated_at":"2026-03-27T08:10:27.367027+05:30"},{"city":"Belgaum","state":"Karnataka","latitude":15.8497,"longitude":74.4977,"temp":24.6,"humidity":68,"rain":0.0,"pressure":927.9,"uv_index":9.15,"wind_gusts":33.1,"aqi":115,"pm10":59.6,"pm2_5":54.2,"mosquito_risk":3,"arthritis_risk":5,"migraine_risk":7,"frizz_risk":1,"updated_at":"2026-03-27T08:10:30.603813+05:30"},{"city":"Coimbatore","state":"Tamil Nadu","latitude":11.0168,"longitude":76.9558,"temp":25.0,"humidity":73,"rain":0.0,"pressure":964.7,"uv_index":9.4,"wind_gusts":37.8,"aqi":75,"pm10":40.0,"pm2_5":37.0,"mosquito_risk":7,"arthritis_risk":5,"migraine_risk":7,"frizz_risk":1,"updated_at":"2026-03-27T08:10:30.603843+05:30"},{"city":"Madurai","state":"Tamil Nadu","latitude":9.9252,"longitude":78.1198,"temp":25.6,"humidity":85,"rain":0.0,"pressure":996.3,"uv_index":9.35,"wind_gusts":23.0,"aqi":74,"pm10":46.1,"pm2_5":42.1,"mosquito_risk":7,"arthritis_risk":5,"migraine_risk":7,"frizz_risk":1,"updated_at":"2026-03-27T08:10:30.603854+05:30"},{"city":"Trichy","state":"Tamil Nadu","latitude":10.7905,"longitude":78.7047,"temp":24.7,"humidity":91,"rain":0.0,"pressure":1003.3,"uv_index":9.3,"wind_gusts":19.4,"aqi":84,"pm10":55.2,"pm2_5":45.5,"mosquito_risk":3,"arthritis_risk":5,"migraine_risk":4,"frizz_risk":1,"updated_at":"2026-03-27T08:10:30.603863+05:30"},{"city":"Salem","state":"Tamil Nadu","latitude":11.6643,"longitude":78.146,"temp":24.6,"humidity":84,"rain":0.0,"pressure":980.6,"uv_index":9.35,"wind_gusts":26.3,"aqi":92,"pm10":56.9,"pm2_5":52.2,"mosquito_risk":3,"arthritis_risk":5,"migraine_risk":7,"frizz_risk":1,"updated_at":"2026-03-27T08:10:30.603871+05:30"},{"city":"Tirunelveli","state":"Tamil Nadu","latitude":8.7139,"longitude":77.7567,"temp":27.1,"humidity":75,"rain":0.0,"pressure":1006.4,"uv_index":9.35,"wind_gusts":42.5,"aqi":55,"pm10":24.6,"pm2_5":20.3,"mosquito_risk":7,"arthritis_risk":5,"migraine_risk":4,"frizz_risk":1,"updated_at":"2026-03-27T08:10:30.603879+05:30"},{"city":"Vellore","state":"Tamil Nadu","latitude":12.9165,"longitude":79.1325,"temp":23.9,"humidity":82,"rain":0.0,"pressure":987.9,"uv_index":9.3,"wind_gusts":32.0,"aqi":90,"pm10":66.1,"pm2_5":61.7,"mosquito_risk":3,"arthritis_risk":5,"migraine_risk":7,"frizz_risk":1,"updated_at":"2026-03-27T08:10:30.603928+05:30"},{"city":"Erode","state":"Tamil Nadu","latitude":11.341,"longitude":77.7172,"temp":25.1,"humidity":85,"rain":0.0,"pressure":992.5,"uv_index":9.35,"wind_gusts":29.2,"aqi":84,"pm10":44.7,"pm2_5":39.1,"mosquito_risk":7,"arthritis_risk":5,"migraine_risk":7,"frizz_risk":1,"updated_at":"2026-03-27T08:10:30.603950+05:30"},{"city":"Kochi","state":"Kerala","latitude":9.9312,"longitude":76.2673,"temp":28.6,"humidity":75,"rain":0.0,"pressure":1010.4,"uv_index":9.15,"wind_gusts":38.2,"aqi":93,"pm10":43.0,"pm2_5":39.8,"mosquito_risk":7,"arthritis_risk":0,"migraine_risk":4,"frizz_risk":1,"updated_at":"2026-03-27T08:10:30.603968+05:30"},{"city":"Thiruvananthapuram","state":"Kerala","latitude":8.5241,"longitude":76.9366,"temp":28.4,"humidity":82,"rain":0.0,"pressure":1009.6,"uv_index":9.2,"wind_gusts":31.0,"aqi":65,"pm10":21.2,"pm2_5":17.2,"mosquito_risk":7,"arthritis_risk":0,"migraine_risk":4,"frizz_risk":1,"updated_at":"2026-03-27T08:10:30.603977+05:30"},{"city":"Kozhikode","state":"Kerala","latitude":11.2588,"longitude":75.7804,"temp":28.9,"humidity":80,"rain":0.0,"pressure":1009.7,"uv_index":9.1,"wind_gusts":32.0,"aqi":93,"pm10":42.4,"pm2_5":35.6,"mosquito_risk":7,"arthritis_risk":0,"migraine_risk":4,"frizz_risk":1,"updated_at":"2026-03-27T08:10:30.603984+05:30"},{"city":"Thrissur","state":"Kerala","latitude":10.5276,"longitude":76.2144,"temp":28.1,"humidity":81,"rain":0.0,"pressure":1009.1,"uv_index":9.15,"wind_gusts":40.7,"aqi":88,"pm10":53.2,"pm2_5":49.6,"mosquito_risk":7,"arthritis_risk":0,"migraine_risk":4,"frizz_risk":1,"updated_at":"2026-03-27T08:10:30.603991+05:30"},{"city":"Kannur","state":"Kerala","latitude":11.8745,"longitude":75.3704,"temp":29.1,"humidity":80,"rain":0.0,"pressure":1009.0,"uv_index":9.1,"wind_gusts":32.0,"aqi":105,"pm10":49.4,"pm2_5":42.6,"mosquito_risk":7,"arthritis_risk":0,"migraine_risk":4,"frizz_risk":1,"updated_at":"2026-03-27T08:10:30.603997+05:30"},{"city":"Patna","state":"Bihar","latitude":25.5941,"longitude":85.1376,"temp":24.2,"humidity":64,"rain":0.0,"pressure":1002.5,"uv_index":7.6,"wind_gusts":35.6,"aqi":148,"pm10":91.3,"pm2_5":75.4,"mosquito_risk":3,"arthritis_risk":5,"migraine_risk":4,"frizz_risk":1,"updated_at":"2026-03-27T08:10:30.604003+05:30"},{"city":"Gaya","state":"Bihar","latitude":24.7914,"longitude":85.0002,"temp":24.6,"humidity":61,"rain":0.0,"pressure":996.1,"uv_index":8.05,"wind_gusts":28.8,"aqi":72,"pm10":29.5,"pm2_5":19.4,"mosquito_risk":3,"arthritis_risk":5,"migraine_risk":7,"frizz_risk":1,"updated_at":"2026-03-27T08:10:30.604009+05:30"},{"city":"Muzaffarpur","state":"Bihar","latitude":26.1209,"longitude":85.3647,"temp":23.0,"humidity":80,"rain":0.0,"pressure":1002.5,"uv_index":7.25,"wind_gusts":40.7,"aqi":156,"pm10":101.3,"pm2_5":91.3,"mosquito_risk":3,"arthritis_risk":5,"migraine_risk":4,"frizz_risk":1,"updated_at":"2026-03-27T08:10:30.604015+05:30"},{"city":"Bhagalpur","state":"Bihar","latitude":25.2425,"longitude":87.0117,"temp":25.6,"humidity":72,"rain":0.0,"pressure":1003.4,"uv_index":7.9,"wind_gusts":38.5,"aqi":124,"pm10":79.9,"pm2_5":68.0,"mosquito_risk":7,"arthritis_risk":5,"migraine_risk":4,"frizz_risk":1,"updated_at":"2026-03-27T08:10:30.604021+05:30"},{"city":"Ranchi","state":"Jharkhand","latitude":23.3441,"longitude":85.3096,"temp":23.9,"humidity":45,"rain":0.0,"pressure":940.7,"uv_index":8.65,"wind_gusts":30.2,"aqi":54,"pm10":35.9,"pm2_5":17.6,"mosquito_risk":0,"arthritis_risk":5,"migraine_risk":7,"frizz_risk":0,"updated_at":"2026-03-27T08:10:30.604027+05:30"},{"city":"Jamshedpur","state":"Jharkhand","latitude":22.8046,"longitude":86.2029,"temp":26.7,"humidity":80,"rain":0.0,"pressure":993.9,"uv_index":8.55,"wind_gusts":21.2,"aqi":157,"pm10":85.2,"pm2_5":76.6,"mosquito_risk":7,"arthritis_risk":5,"migraine_risk":7,"frizz_risk":1,"updated_at":"2026-03-27T08:10:30.604033+05:30"},{"city":"Dhanbad","state":"Jharkhand","latitude":23.7957,"longitude":86.4304,"temp":25.2,"humidity":51,"rain":0.0,"pressure":982.5,"uv_index":8.4,"wind_gusts":26.3,"aqi":144,"pm10":90.1,"pm2_5":79.2,"mosquito_risk":4,"arthritis_risk":5,"migraine_risk":7,"frizz_risk":0,"updated_at":"2026-03-27T08:10:30.604039+05:30"},{"city":"Bokaro","state":"Jharkhand","latitude":23.6693,"longitude":86.1511,"temp":25.7,"humidity":56,"rain":0.0,"pressure":986.7,"uv_index":8.45,"wind_gusts":31.3,"aqi":129,"pm10":75.7,"pm2_5":65.9,"mosquito_risk":4,"arthritis_risk":5,"migraine_risk":7,"frizz_risk":1,"updated_at":"2026-03-27T08:10:30.604045+05:30"},{"city":"Bhubaneswar","state":"Odisha","latitude":20.2961,"longitude":85.8245,"temp":28.0,"humidity":84,"rain":0.0,"pressure":1005.5,"uv_index":8.75,"wind_gusts":24.8,"aqi":110,"pm10":47.7,"pm2_5":39.9,"mosquito_risk":7,"arthritis_risk":5,"migraine_risk":4,"frizz_risk":1,"updated_at":"2026-03-27T08:10:30.604051+05:30"},{"city":"Cuttack","state":"Odisha","latitude":20.4625,"longitude":85.8828,"temp":27.9,"humidity":85,"rain":0.0,"pressure":1007.5,"uv_index":8.8,"wind_gusts":27.7,"aqi":110,"pm10":47.7,"pm2_5":39.9,"mosquito_risk":7,"arthritis_risk":5,"migraine_risk":4,"frizz_risk":1,"updated_at":"2026-03-27T08:10:30.604057+05:30"},{"city":"Rourkela","state":"Odisha","latitude":22.2604,"longitude":84.8536,"temp":27.3,"humidity":68,"rain":0.0,"pressure":988.1,"uv_index":8.45,"wind_gusts":41.4,"aqi":83,"pm10":30.0,"pm2_5":25.3,"mosquito_risk":7,"arthritis_risk":5,"migraine_risk":7,"frizz_risk":1,"updated_at":"2026-03-27T08:10:30.604063+05:30"},{"city":"Raipur","state":"Chhattisgarh","latitude":21.2514,"longitude":81.6296,"temp":27.8,"humidity":60,"rain":0.0,"pressure":977.6,"uv_index":8.55,"wind_gusts":38.5,"aqi":129,"pm10":80.1,"pm2_5":73.3,"mosquito_risk":4,"arthritis_risk":5,"migraine_risk":7,"frizz_risk":1,"updated_at":"2026-03-27T08:10:30.604068+05:30"},{"city":"Bhilai","state":"Chhattisgarh","latitude":21.1938,"longitude":81.3509,"temp":27.4,"humidity":64,"rain":0.0,"pressure":977.9,"uv_index":8.6,"wind_gusts":31.7,"aqi":129,"pm10":66.4,"pm2_5":60.8,"mosquito_risk":7,"arthritis_risk":5,"migraine_risk":7,"frizz_risk":1,"updated_at":"2026-03-27T08:10:30.604074+05:30"},{"city":"Guwahati","state":"Assam","latitude":26.1158,"longitude":91.7086,"temp":24.1,"humidity":84,"rain":0.0,"pressure":1005.4,"uv_index":7.85,"wind_gusts":31.3,"aqi":151,"pm10":73.1,"pm2_5":58.0,"mosquito_risk":3,"arthritis_risk":5,"migraine_risk":4,"frizz_risk":1,"updated_at":"2026-03-27T08:10:30.604080+05:30"},{"city":"Agartala","state":"Tripura","latitude":23.8315,"longitude":91.2868,"temp":27.0,"humidity":75,"rain":0.0,"pressure":1009.1,"uv_index":8.2,"wind_gusts":35.6,"aqi":157,"pm10":80.3,"pm2_5":72.2,"mosquito_risk":7,"arthritis_risk":0,"migraine_risk":4,"frizz_risk":1,"updated_at":"2026-03-27T08:10:30.604087+05:30"},{"city":"Shillong","state":"Meghalaya","latitude":25.5788,"longitude":91.8933,"temp":16.4,"humidity":62,"rain":0.0,"pressure":858.4,"uv_index":8.1,"wind_gusts":40.0,"aqi":119,"pm10":70.1,"pm2_5":49.9,"mosquito_risk":3,"arthritis_risk":5,"migraine_risk":7,"frizz_risk":0,"updated_at":"2026-03-27T08:10:30.604094+05:30"},{"city":"Imphal","state":"Manipur","latitude":24.817,"longitude":93.9368,"temp":20.7,"humidity":66,"rain":0.0,"pressure":926.4,"uv_index":8.55,"wind_gusts":43.9,"aqi":134,"pm10":64.3,"pm2_5":50.1,"mosquito_risk":3,"arthritis_risk":5,"migraine_risk":7,"frizz_risk":0,"updated_at":"2026-03-27T08:10:30.604100+05:30"},{"city":"Aizawl","state":"Mizoram","latitude":23.7271,"longitude":92.7176,"temp":21.2,"humidity":64,"rain":0.0,"pressure":895.8,"uv_index":8.45,"wind_gusts":28.8,"aqi":109,"pm10":43.5,"pm2_5":34.8,"mosquito_risk":3,"arthritis_risk":5,"migraine_risk":7,"frizz_risk":0,"updated_at":"2026-03-27T08:10:30.604106+05:30"},{"city":"Kohima","state":"Nagaland","latitude":25.6701,"longitude":94.1077,"temp":17.1,"humidity":67,"rain":0.0,"pressure":857.6,"uv_index":8.45,"wind_gusts":52.9,"aqi":99,"pm10":46.6,"pm2_5":33.3,"mosquito_risk":3,"arthritis_risk":5,"migraine_risk":7,"frizz_risk":0,"updated_at":"2026-03-27T08:10:30.604112+05:30"},{"city":"Gangtok","state":"Sikkim","latitude":27.3314,"longitude":88.6138,"temp":14.9,"humidity":84,"rain":0.0,"pressure":838.2,"uv_index":7.85,"wind_gusts":21.2,"aqi":109,"pm10":51.5,"pm2_5":38.0,"mosquito_risk":3,"arthritis_risk":10,"migraine_risk":7,"frizz_risk":0,"updated_at":"2026-03-27T08:10:30.604118+05:30"},{"city":"Siliguri","state":"West Bengal","latitude":26.7271,"longitude":88.3953,"temp":20.2,"humidity":85,"rain":0.0,"pressure":997.0,"uv_index":7.7,"wind_gusts":33.1,"aqi":157,"pm10":106.6,"pm2_5":80.6,"mosquito_risk":3,"arthritis_risk":5,"migraine_risk":7,"frizz_risk":1,"updated_at":"2026-03-27T08:10:33.826320+05:30"},{"city":"Durgapur","state":"West Bengal","latitude":23.5204,"longitude":87.3119,"temp":27.3,"humidity":82,"rain":0.0,"pressure":997.6,"uv_index":8.4,"wind_gusts":22.3,"aqi":158,"pm10":80.6,"pm2_5":71.0,"mosquito_risk":7,"arthritis_risk":5,"migraine_risk":7,"frizz_risk":1,"updated_at":"2026-03-27T08:10:33.826347+05:30"},{"city":"Asansol","state":"West Bengal","latitude":23.6739,"longitude":86.9524,"temp":27.5,"humidity":77,"rain":0.0,"pressure":996.1,"uv_index":8.4,"wind_gusts":21.2,"aqi":135,"pm10":63.3,"pm2_5":52.9,"mosquito_risk":7,"arthritis_risk":5,"migraine_risk":7,"frizz_risk":1,"updated_at":"2026-03-27T08:10:33.826356+05:30"},{"city":"Pondicherry","state":"Puducherry","latitude":11.9139,"longitude":79.8145,"temp":25.5,"humidity":90,"rain":0.0,"pressure":1011.8,"uv_index":9.2,"wind_gusts":25.6,"aqi":66,"pm10":42.1,"pm2_5":28.6,"mosquito_risk":7,"arthritis_risk":0,"migraine_risk":4,"frizz_risk":1,"updated_at":"2026-03-27T08:10:33.826363+05:30"},{"city":"Port Blair","state":"Andaman and Nicobar Islands","latitude":11.6234,"longitude":92.7265,"temp":27.7,"humidity":81,"rain":0.0,"pressure":1009.0,"uv_index":9.15,"wind_gusts":24.1,"aqi":48,"pm10":29.9,"pm2_5":20.7,"mosquito_risk":7,"arthritis_risk":0,"migraine_risk":4,"frizz_risk":1,"updated_at":"2026-03-27T08:10:33.826371+05:30"},{"city":"Haridwar","state":"Uttarakhand","latitude":29.9457,"longitude":78.1642,"temp":21.8,"humidity":78,"rain":0.0,"pressure":976.6,"uv_index":6.2,"wind_gusts":37.4,"aqi":73,"pm10":40.0,"pm2_5":37.0,"mosquito_risk":3,"arthritis_risk":5,"migraine_risk":7,"frizz_risk":1,"updated_at":"2026-03-27T08:10:33.826378+05:30"},{"city":"Rishikesh","state":"Uttarakhand","latitude":30.0869,"longitude":78.2676,"temp":22.0,"humidity":69,"rain":0.0,"pressure":969.0,"uv_index":6.1,"wind_gusts":34.6,"aqi":58,"pm10":26.1,"pm2_5":21.0,"mosquito_risk":3,"arthritis_risk":5,"migraine_risk":7,"frizz_risk":1,"updated_at":"2026-03-27T08:10:33.826385+05:30"},{"city":"Nainital","state":"Uttarakhand","latitude":29.3919,"longitude":79.4542,"temp":18.6,"humidity":54,"rain":0.0,"pressure":807.0,"uv_index":6.95,"wind_gusts":53.3,"aqi":53,"pm10":19.9,"pm2_5":15.1,"mosquito_risk":0,"arthritis_risk":5,"migraine_risk":7,"frizz_risk":0,"updated_at":"2026-03-27T08:10:33.826392+05:30"},{"city":"Mussoorie","state":"Uttarakhand","latitude":30.4599,"longitude":78.0664,"temp":15.4,"humidity":66,"rain":0.0,"pressure":802.9,"uv_index":6.55,"wind_gusts":31.0,"aqi":65,"pm10":30.3,"pm2_5":24.6,"mosquito_risk":3,"arthritis_risk":5,"migraine_risk":7,"frizz_risk":0,"updated_at":"2026-03-27T08:10:33.826399+05:30"},{"city":"Dharamshala","state":"Himachal Pradesh","latitude":32.219,"longitude":76.3234,"temp":17.9,"humidity":57,"rain":0.0,"pressure":869.2,"uv_index":6.95,"wind_gusts":22.0,"aqi":49,"pm10":9.9,"pm2_5":6.6,"mosquito_risk":0,"arthritis_risk":5,"migraine_risk":7,"frizz_risk":0,"updated_at":"2026-03-27T08:10:33.826406+05:30"},{"city":"Dalhousie","state":"Himachal Pradesh","latitude":32.5387,"longitude":75.971,"temp":14.4,"humidity":57,"rain":0.0,"pressure":803.0,"uv_index":7.2,"wind_gusts":24.1,"aqi":66,"pm10":28.2,"pm2_5":23.6,"mosquito_risk":0,"arthritis_risk":5,"migraine_risk":7,"frizz_risk":0,"updated_at":"2026-03-27T08:10:33.826414+05:30"},{"city":"Patiala","state":"Punjab","latitude":30.3398,"longitude":76.3869,"temp":20.8,"humidity":79,"rain":0.0,"pressure":981.2,"uv_index":6.35,"wind_gusts":34.6,"aqi":176,"pm10":48.2,"pm2_5":35.9,"mosquito_risk":3,"arthritis_risk":5,"migraine_risk":7,"frizz_risk":1,"updated_at":"2026-03-27T08:10:33.826421+05:30"},{"city":"Bhatinda","state":"Punjab","latitude":30.211,"longitude":74.9455,"temp":20.6,"humidity":81,"rain":0.0,"pressure":987.7,"uv_index":7.05,"wind_gusts":31.0,"aqi":89,"pm10":43.1,"pm2_5":32.1,"mosquito_risk":3,"arthritis_risk":5,"migraine_risk":7,"frizz_risk":1,"updated_at":"2026-03-27T08:10:33.826428+05:30"},{"city":"Rohtak","state":"Haryana","latitude":28.8955,"longitude":76.6066,"temp":21.6,"humidity":78,"rain":0.0,"pressure":985.4,"uv_index":6.55,"wind_gusts":40.7,"aqi":173,"pm10":269.2,"pm2_5":76.6,"mosquito_risk":3,"arthritis_risk":5,"migraine_risk":7,"frizz_risk":1,"updated_at":"2026-03-27T08:10:33.826434+05:30"},{"city":"Panipat","state":"Haryana","latitude":29.3909,"longitude":76.9635,"temp":21.2,"humidity":78,"rain":0.0,"pressure":983.8,"uv_index":6.3,"wind_gusts":41.4,"aqi":315,"pm10":185.8,"pm2_5":62.6,"mosquito_risk":3,"arthritis_risk":5,"migraine_risk":7,"frizz_risk":1,"updated_at":"2026-03-27T08:10:33.826440+05:30"},{"city":"Mathura","state":"Uttar Pradesh","latitude":27.4924,"longitude":77.6737,"temp":23.0,"humidity":68,"rain":0.0,"pressure":991.3,"uv_index":6.8,"wind_gusts":36.0,"aqi":480,"pm10":1076.6,"pm2_5":162.5,"mosquito_risk":3,"arthritis_risk":5,"migraine_risk":7,"frizz_risk":1,"updated_at":"2026-03-27T08:10:33.826446+05:30"},{"city":"Vrindavan","state":"Uttar Pradesh","latitude":27.5823,"longitude":77.7027,"temp":22.2,"humidity":72,"rain":0.0,"pressure":991.5,"uv_index":6.75,"wind_gusts":36.7,"aqi":480,"pm10":1076.6,"pm2_5":162.5,"mosquito_risk":3,"arthritis_risk":5,"migraine_risk":7,"frizz_risk":1,"updated_at":"2026-03-27T08:10:33.826453+05:30"},{"city":"Ayodhya","state":"Uttar Pradesh","latitude":26.7922,"longitude":82.1998,"temp":24.2,"humidity":59,"rain":0.0,"pressure":997.1,"uv_index":5.8,"wind_gusts":54.0,"aqi":93,"pm10":63.1,"pm2_5":29.4,"mosquito_risk":0,"arthritis_risk":5,"migraine_risk":3,"frizz_risk":0,"updated_at":"2026-03-27T08:10:33.826460+05:30"},{"city":"Ratlam","state":"Madhya Pradesh","latitude":23.3315,"longitude":75.0367,"temp":24.3,"humidity":58,"rain":0.0,"pressure":956.5,"uv_index":8.05,"wind_gusts":33.1,"aqi":30,"pm10":14.1,"pm2_5":12.3,"mosquito_risk":0,"arthritis_risk":5,"migraine_risk":7,"frizz_risk":0,"updated_at":"2026-03-27T08:10:33.826466+05:30"},{"city":"Sagar","state":"Madhya Pradesh","latitude":23.8388,"longitude":78.7378,"temp":26.1,"humidity":49,"rain":0.0,"pressure":952.0,"uv_index":8.05,"wind_gusts":32.4,"aqi":49,"pm10":25.3,"pm2_5":12.0,"mosquito_risk":4,"arthritis_risk":5,"migraine_risk":7,"frizz_risk":0,"updated_at":"2026-03-27T08:10:33.826472+05:30"},{"city":"Satna","state":"Madhya Pradesh","latitude":24.6005,"longitude":80.8322,"temp":26.6,"humidity":49,"rain":0.0,"pressure":973.8,"uv_index":7.7,"wind_gusts":48.6,"aqi":63,"pm10":103.6,"pm2_5":26.8,"mosquito_risk":4,"arthritis_risk":5,"migraine_risk":7,"frizz_risk":0,"updated_at":"2026-03-27T08:10:33.826479+05:30"},{"city":"Akola","state":"Maharashtra","latitude":20.7002,"longitude":77.0082,"temp":26.5,"humidity":59,"rain":0.0,"pressure":977.4,"uv_index":8.45,"wind_gusts":37.4,"aqi":68,"pm10":19.3,"pm2_5":17.5,"mosquito_risk":4,"arthritis_risk":5,"migraine_risk":7,"frizz_risk":1,"updated_at":"2026-03-27T08:10:33.826486+05:30"},{"city":"Amravati","state":"Maharashtra","latitude":20.9374,"longitude":77.7796,"temp":25.6,"humidity":58,"rain":0.0,"pressure":969.5,"uv_index":8.45,"wind_gusts":34.9,"aqi":70,"pm10":19.0,"pm2_5":17.3,"mosquito_risk":4,"arthritis_risk":5,"migraine_risk":7,"frizz_risk":1,"updated_at":"2026-03-27T08:10:33.826493+05:30"},{"city":"Latur","state":"Maharashtra","latitude":18.4088,"longitude":76.5604,"temp":26.6,"humidity":50,"rain":0.0,"pressure":942.5,"uv_index":8.8,"wind_gusts":31.0,"aqi":89,"pm10":54.7,"pm2_5":47.3,"mosquito_risk":4,"arthritis_risk":5,"migraine_risk":7,"frizz_risk":0,"updated_at":"2026-03-27T08:10:33.826499+05:30"},{"city":"Nanded","state":"Maharashtra","latitude":19.1383,"longitude":77.3091,"temp":27.3,"humidity":54,"rain":0.0,"pressure":971.5,"uv_index":8.65,"wind_gusts":26.6,"aqi":85,"pm10":47.1,"pm2_5":41.1,"mosquito_risk":4,"arthritis_risk":5,"migraine_risk":7,"frizz_risk":1,"updated_at":"2026-03-27T08:10:33.826505+05:30"},{"city":"Gulbarga","state":"Karnataka","latitude":17.3297,"longitude":76.8343,"temp":27.4,"humidity":57,"rain":0.0,"pressure":961.7,"uv_index":8.85,"wind_gusts":32.0,"aqi":95,"pm10":31.4,"pm2_5":28.1,"mosquito_risk":4,"arthritis_risk":5,"migraine_risk":7,"frizz_risk":1,"updated_at":"2026-03-27T08:10:33.826510+05:30"},{"city":"Bidar","state":"Karnataka","latitude":17.9104,"longitude":77.5199,"temp":27.7,"humidity":53,"rain":0.0,"pressure":938.2,"uv_index":8.85,"wind_gusts":22.0,"aqi":94,"pm10":29.6,"pm2_5":26.5,"mosquito_risk":4,"arthritis_risk":5,"migraine_risk":7,"frizz_risk":1,"updated_at":"2026-03-27T08:10:33.826516+05:30"},{"city":"Hospet","state":"Karnataka","latitude":15.2689,"longitude":76.3909,"temp":27.0,"humidity":51,"rain":0.0,"pressure":958.7,"uv_index":9.1,"wind_gusts":16.2,"aqi":85,"pm10":31.5,"pm2_5":29.0,"mosquito_risk":4,"arthritis_risk":5,"migraine_risk":7,"frizz_risk":0,"updated_at":"2026-03-27T08:10:33.826522+05:30"},{"city":"Tirupur","state":"Tamil Nadu","latitude":11.1085,"longitude":77.3411,"temp":25.2,"humidity":74,"rain":0.0,"pressure":978.5,"uv_index":9.4,"wind_gusts":26.6,"aqi":88,"pm10":53.0,"pm2_5":48.8,"mosquito_risk":7,"arthritis_risk":5,"migraine_risk":7,"frizz_risk":1,"updated_at":"2026-03-27T08:10:33.826529+05:30"},{"city":"Alappuzha","state":"Kerala","latitude":9.4981,"longitude":76.3388,"temp":28.5,"humidity":81,"rain":0.0,"pressure":1010.6,"uv_index":9.15,"wind_gusts":35.3,"aqi":85,"pm10":40.3,"pm2_5":35.7,"mosquito_risk":7,"arthritis_risk":0,"migraine_risk":4,"frizz_risk":1,"updated_at":"2026-03-27T08:10:33.826535+05:30"},{"city":"Munnar","state":"Kerala","latitude":10.0889,"longitude":77.0595,"temp":22.3,"humidity":41,"rain":0.0,"pressure":858.7,"uv_index":9.65,"wind_gusts":33.8,"aqi":70,"pm10":33.8,"pm2_5":31.2,"mosquito_risk":0,"arthritis_risk":5,"migraine_risk":7,"frizz_risk":0,"updated_at":"2026-03-27T08:10:33.826541+05:30"},{"city":"Silchar","state":"Assam","latitude":24.8333,"longitude":92.7789,"temp":25.7,"humidity":72,"rain":0.0,"pressure":1008.3,"uv_index":8.25,"wind_gusts":18.0,"aqi":155,"pm10":76.1,"pm2_5":68.7,"mosquito_risk":7,"arthritis_risk":0,"migraine_risk":4,"frizz_risk":1,"updated_at":"2026-03-27T08:10:33.826547+05:30"},{"city":"Dibrugarh","state":"Assam","latitude":27.4728,"longitude":94.912,"temp":22.3,"humidity":82,"rain":0.0,"pressure":1000.3,"uv_index":6.8,"wind_gusts":14.0,"aqi":111,"pm10":50.6,"pm2_5":40.3,"mosquito_risk":3,"arthritis_risk":5,"migraine_risk":4,"frizz_risk":1,"updated_at":"2026-03-27T08:10:33.826554+05:30"}]