[{"city":"Delhi","state":"Delhi","latitude":28.6139,"longitude":77.209,"temp":32.1,"humidity":33,"rain":0.0,"pressure":982.0,"uv_index":6.65,"wind_gusts":19.8,"aqi":208,"pm10":379.0,"pm2_5":78.5,"mosquito_risk":0,"arthritis_risk":5,"migraine_risk":7,"frizz_risk":0,"updated_at":"2026-04-18T23:08:30.137355+05:30"},{"city":"Mumbai","state":"Maharashtra","latitude":19.076,"longitude":72.8777,"temp":30.3,"humidity":77,"rain":0.0,"pressure":1008.2,"uv_index":7.75,"wind_gusts":22.7,"aqi":90,"pm10":48.8,"pm2_5":29.2,"mosquito_risk":3,"arthritis_risk":0,"migraine_risk":4,"frizz_risk":1,"updated_at":"2026-04-18T23:08:30.137397+05:30"},{"city":"Bangalore","state":"Karnataka","latitude":12.9716,"longitude":77.5946,"temp":27.2,"humidity":44,"rain":0.0,"pressure":912.6,"uv_index":9.0,"wind_gusts":35.3,"aqi":97,"pm10":25.0,"pm2_5":22.5,"mosquito_risk":4,"arthritis_risk":5,"migraine_risk":7,"frizz_risk":0,"updated_at":"2026-04-18T23:08:30.137410+05:30"},{"city":"Hyderabad","state":"Telangana","latitude":17.385,"longitude":78.4867,"temp":29.6,"humidity":52,"rain":0.0,"pressure":954.1,"uv_index":9.25,"wind_gusts":38.5,"aqi":104,"pm10":52.2,"pm2_5":47.1,"mosquito_risk":4,"arthritis_risk":5,"migraine_risk":7,"frizz_risk":1,"updated_at":"2026-04-18T23:08:30.137418+05:30"},{"city":"Chennai","state":"Tamil Nadu","latitude":13.0827,"longitude":80.2707,"temp":28.4,"humidity":83,"rain":0.0,"pressure":1007.9,"uv_index":8.55,"wind_gusts":32.0,"aqi":38,"pm10":11.8,"pm2_5":7.4,"mosquito_risk":7,"arthritis_risk":5,"migraine_risk":4,"frizz_risk":1,"updated_at":"2026-04-18T23:08:30.137426+05:30"},{"city":"Kolkata","state":"West Bengal","latitude":22.5726,"longitude":88.3639,"temp":27.8,"humidity":91,"rain":0.0,"pressure":1005.8,"uv_index":8.85,"wind_gusts":24.1,"aqi":78,"pm10":24.3,"pm2_5":19.4,"mosquito_risk":7,"arthritis_risk":5,"migraine_risk":4,"frizz_risk":1,"updated_at":"2026-04-18T23:08:30.137436+05:30"},{"city":"Pune","state":"Maharashtra","latitude":18.5204,"longitude":73.8567,"temp":29.4,"humidity":72,"rain":0.0,"pressure":949.2,"uv_index":8.45,"wind_gusts":45.0,"aqi":158,"pm10":46.8,"pm2_5":38.9,"mosquito_risk":7,"arthritis_risk":5,"migraine_risk":7,"frizz_risk":1,"updated_at":"2026-04-18T23:08:30.137443+05:30"},{"city":"Ahmedabad","state":"Gujarat","latitude":23.0225,"longitude":72.5714,"temp":31.0,"humidity":28,"rain":0.0,"pressure":1001.5,"uv_index":8.15,"wind_gusts":27.7,"aqi":63,"pm10":49.2,"pm2_5":34.9,"mosquito_risk":0,"arthritis_risk":5,"migraine_risk":4,"frizz_risk":0,"updated_at":"2026-04-18T23:08:30.137450+05:30"},{"city":"Jaipur","state":"Rajasthan","latitude":26.9124,"longitude":75.7873,"temp":31.5,"humidity":22,"rain":0.0,"pressure":959.4,"uv_index":7.95,"wind_gusts":28.1,"aqi":231,"pm10":149.9,"pm2_5":43.1,"mosquito_risk":0,"arthritis_risk":5,"migraine_risk":7,"frizz_risk":0,"updated_at":"2026-04-18T23:08:30.137457+05:30"},{"city":"Lucknow","state":"Uttar Pradesh","latitude":26.8467,"longitude":80.9462,"temp":29.6,"humidity":53,"rain":0.0,"pressure":991.6,"uv_index":7.85,"wind_gusts":32.0,"aqi":116,"pm10":227.7,"pm2_5":54.5,"mosquito_risk":4,"arthritis_risk":5,"migraine_risk":7,"frizz_risk":1,"updated_at":"2026-04-18T23:08:30.137463+05:30"},{"city":"Kanpur","state":"Uttar Pradesh","latitude":26.4499,"longitude":80.3319,"temp":28.0,"humidity":60,"rain":0.0,"pressure":990.0,"uv_index":7.85,"wind_gusts":27.0,"aqi":137,"pm10":318.5,"pm2_5":66.8,"mosquito_risk":4,"arthritis_risk":5,"migraine_risk":7,"frizz_risk":1,"updated_at":"2026-04-18T23:08:30.137469+05:30"},{"city":"Chandigarh","state":"Chandigarh","latitude":30.7333,"longitude":76.7794,"temp":25.8,"humidity":54,"rain":0.0,"pressure":968.5,"uv_index":7.1,"wind_gusts":29.2,"aqi":70,"pm10":43.2,"pm2_5":31.1,"mosquito_risk":4,"arthritis_risk":5,"migraine_risk":7,"frizz_risk":0,"updated_at":"2026-04-18T23:08:30.137475+05:30"},{"city":"Srinagar","state":"Jammu and Kashmir","latitude":34.0837,"longitude":74.7973,"temp":11.4,"humidity":90,"rain":0.0,"pressure":845.6,"uv_index":5.85,"wind_gusts":30.6,"aqi":78,"pm10":54.5,"pm2_5":31.1,"mosquito_risk":3,"arthritis_risk":10,"migraine_risk":3,"frizz_risk":0,"updated_at":"2026-04-18T23:08:30.137481+05:30"},{"city":"Jammu","state":"Jammu and Kashmir","latitude":32.7266,"longitude":74.857,"temp":24.8,"humidity":47,"rain":0.0,"pressure":973.5,"uv_index":7.0,"wind_gusts":42.5,"aqi":63,"pm10":48.3,"pm2_5":30.3,"mosquito_risk":0,"arthritis_risk":5,"migraine_risk":7,"frizz_risk":0,"updated_at":"2026-04-18T23:08:30.137489+05:30"},{"city":"Amritsar","state":"Punjab","latitude":31.634,"longitude":74.8723,"temp":25.1,"humidity":49,"rain":0.0,"pressure":980.8,"uv_index":7.9,"wind_gusts":43.2,"aqi":64,"pm10":48.3,"pm2_5":30.5,"mosquito_risk":4,"arthritis_risk":5,"migraine_risk":7,"frizz_risk":0,"updated_at":"2026-04-18T23:08:30.137495+05:30"},{"city":"Ludhiana","state":"Punjab","latitude":30.901,"longitude":75.8573,"temp":29.0,"humidity":42,"rain":0.0,"pressure":978.4,"uv_index":7.45,"wind_gusts":32.4,"aqi":69,"pm10":88.7,"pm2_5":53.3,"mosquito_risk":4,"arthritis_risk":5,"migraine_risk":7,"frizz_risk":0,"updated_at":"2026-04-18T23:08:30.137502+05:30"},{"city":"Jalandhar","state":"Punjab","latitude":31.326,"longitude":75.5762,"temp":26.3,"humidity":48,"rain":0.0,"pressure":979.7,"uv_index":7.65,"wind_gusts":42.1,"aqi":68,"pm10":79.9,"pm2_5":42.0,"mosquito_risk":4,"arthritis_risk":5,"migraine_risk":7,"frizz_risk":0,"updated_at":"2026-04-18T23:08:30.137507+05:30"},{"city":"Dehradun","state":"Uttarakhand","latitude":30.6284,"longitude":78.0322,"temp":17.5,"humidity":41,"rain":0.0,"pressure":831.7,"uv_index":7.55,"wind_gusts":46.1,"aqi":49,"pm10":31.0,"pm2_5":13.9,"mosquito_risk":0,"arthritis_risk":5,"migraine_risk":7,"frizz_risk":0,"updated_at":"2026-04-18T23:08:30.137513+05:30"},{"city":"Shimla","state":"Himachal Pradesh","latitude":31.1048,"longitude":77.1734,"temp":17.4,"humidity":43,"rain":0.0,"pressure":787.3,"uv_index":7.7,"wind_gusts":47.9,"aqi":59,"pm10":41.8,"pm2_5":20.1,"mosquito_risk":0,"arthritis_risk":5,"migraine_risk":7,"frizz_risk":0,"updated_at":"2026-04-18T23:08:30.137518+05:30"},{"city":"Manali","state":"Himachal Pradesh","latitude":32.2396,"longitude":77.1887,"temp":16.8,"humidity":41,"rain":0.0,"pressure":823.8,"uv_index":8.9,"wind_gusts":25.2,"aqi":74,"pm10":15.3,"pm2_5":7.2,"mosquito_risk":0,"arthritis_risk":5,"migraine_risk":7,"frizz_risk":0,"updated_at":"2026-04-18T23:08:30.137524+05:30"},{"city":"Gurgaon","state":"Haryana","latitude":28.4595,"longitude":77.0266,"temp":29.2,"humidity":47,"rain":0.0,"pressure":980.3,"uv_index":6.9,"wind_gusts":15.8,"aqi":470,"pm10":666.8,"pm2_5":105.2,"mosquito_risk":4,"arthritis_risk":5,"migraine_risk":7,"frizz_risk":1,"updated_at":"2026-04-18T23:08:30.137533+05:30"},{"city":"Noida","state":"Uttar Pradesh","latitude":28.5355,"longitude":77.391,"temp":30.9,"humidity":38,"rain":0.0,"pressure":983.3,"uv_index":6.95,"wind_gusts":22.0,"aqi":470,"pm10":666.8,"pm2_5":105.2,"mosquito_risk":0,"arthritis_risk":5,"migraine_risk":7,"frizz_risk":0,"updated_at":"2026-04-18T23:08:30.137538+05:30"},{"city":"Ghaziabad","state":"Uttar Pradesh","latitude":28.6692,"longitude":77.4538,"temp":30.0,"humidity":40,"rain":0.0,"pressure":981.6,"uv_index":6.65,"wind_gusts":19.4,"aqi":153,"pm10":265.4,"pm2_5":68.9,"mosquito_risk":4,"arthritis_risk":5,"migraine_risk":7,"frizz_risk":0,"updated_at":"2026-04-18T23:08:30.137543+05:30"},{"city":"Faridabad","state":"Haryana","latitude":28.4089,"longitude":77.3178,"temp":30.1,"humidity":41,"rain":0.0,"pressure":982.6,"uv_index":7.25,"wind_gusts":25.2,"aqi":470,"pm10":666.8,"pm2_5":105.2,"mosquito_risk":0,"arthritis_risk":5,"migraine_risk":7,"frizz_risk":0,"updated_at":"2026-04-18T23:08:30.137549+05:30"},{"city":"Meerut","state":"Uttar Pradesh","latitude":28.9845,"longitude":77.7064,"temp":28.3,"humidity":48,"rain":0.0,"pressure":980.4,"uv_index":6.75,"wind_gusts":20.9,"aqi":153,"pm10":265.4,"pm2_5":68.9,"mosquito_risk":4,"arthritis_risk":5,"migraine_risk":7,"frizz_risk":1,"updated_at":"2026-04-18T23:08:30.137554+05:30"},{"city":"Agra","state":"Uttar Pradesh","latitude":27.1767,"longitude":78.0081,"temp":29.1,"humidity":48,"rain":0.0,"pressure":986.0,"uv_index":7.7,"wind_gusts":16.9,"aqi":405,"pm10":545.8,"pm2_5":77.8,"mosquito_risk":4,"arthritis_risk":5,"migraine_risk":7,"frizz_risk":1,"updated_at":"2026-04-18T23:08:30.137560+05:30"},{"city":"Varanasi","state":"Uttar Pradesh","latitude":25.3176,"longitude":82.9739,"temp":31.0,"humidity":43,"rain":0.0,"pressure":995.4,"uv_index":8.25,"wind_gusts":25.6,"aqi":114,"pm10":96.9,"pm2_5":51.3,"mosquito_risk":0,"arthritis_risk":5,"migraine_risk":7,"frizz_risk":1,"updated_at":"2026-04-18T23:08:30.137566+05:30"},{"city":"Prayagraj","state":"Uttar Pradesh","latitude":25.4358,"longitude":81.8463,"temp":30.9,"humidity":44,"rain":0.0,"pressure":994.3,"uv_index":7.85,"wind_gusts":28.8,"aqi":100,"pm10":90.3,"pm2_5":35.7,"mosquito_risk":0,"arthritis_risk":5,"migraine_risk":7,"frizz_risk":1,"updated_at":"2026-04-18T23:08:30.137572+05:30"},{"city":"Gorakhpur","state":"Uttar Pradesh","latitude":26.7606,"longitude":83.3732,"temp":28.5,"humidity":71,"rain":0.0,"pressure":995.6,"uv_index":8.1,"wind_gusts":28.4,"aqi":148,"pm10":65.7,"pm2_5":28.2,"mosquito_risk":7,"arthritis_risk":5,"migraine_risk":7,"frizz_risk":1,"updated_at":"2026-04-18T23:08:30.137577+05:30"},{"city":"Bareilly","state":"Uttar Pradesh","latitude":28.367,"longitude":79.4304,"temp":26.7,"humidity":52,"rain":0.0,"pressure":985.2,"uv_index":7.6,"wind_gusts":31.0,"aqi":107,"pm10":90.1,"pm2_5":39.3,"mosquito_risk":4,"arthritis_risk":5,"migraine_risk":7,"frizz_risk":1,"updated_at":"2026-04-18T23:08:30.137582+05:30"},{"city":"Aligarh","state":"Uttar Pradesh","latitude":27.8974,"longitude":78.088,"temp":29.4,"humidity":44,"rain":0.0,"pressure":984.1,"uv_index":7.35,"wind_gusts":25.6,"aqi":249,"pm10":294.3,"pm2_5":90.1,"mosquito_risk":4,"arthritis_risk":5,"migraine_risk":7,"frizz_risk":0,"updated_at":"2026-04-18T23:08:30.137587+05:30"},{"city":"Moradabad","state":"Uttar Pradesh","latitude":28.8386,"longitude":78.7733,"temp":26.5,"humidity":55,"rain":0.0,"pressure":982.4,"uv_index":7.4,"wind_gusts":28.8,"aqi":96,"pm10":131.8,"pm2_5":52.9,"mosquito_risk":4,"arthritis_risk":5,"migraine_risk":7,"frizz_risk":1,"updated_at":"2026-04-18T23:08:30.137592+05:30"},{"city":"Saharanpur","state":"Uttar Pradesh","latitude":29.9637,"longitude":77.546,"temp":25.5,"humidity":61,"rain":0.0,"pressure":975.0,"uv_index":7.0,"wind_gusts":23.4,"aqi":106,"pm10":118.0,"pm2_5":57.2,"mosquito_risk":7,"arthritis_risk":5,"migraine_risk":7,"frizz_risk":1,"updated_at":"2026-04-18T23:08:30.137597+05:30"},{"city":"Jhansi","state":"Uttar Pradesh","latitude":25.4484,"longitude":78.5685,"temp":30.5,"humidity":49,"rain":0.0,"pressure":976.8,"uv_index":7.85,"wind_gusts":27.0,"aqi":105,"pm10":91.0,"pm2_5":33.5,"mosquito_risk":0,"arthritis_risk":5,"migraine_risk":7,"frizz_risk":1,"updated_at":"2026-04-18T23:08:33.491339+05:30"},{"city":"Surat","state":"Gujarat","latitude":21.1702,"longitude":72.8311,"temp":28.9,"humidity":72,"rain":0.0,"pressure":1006.5,"uv_index":7.8,"wind_gusts":27.0,"aqi":112,"pm10":46.0,"pm2_5":31.9,"mosquito_risk":7,"arthritis_risk":5,"migraine_risk":4,"frizz_risk":1,"updated_at":"2026-04-18T23:08:33.491370+05:30"},{"city":"Vadodara","state":"Gujarat","latitude":22.3072,"longitude":73.1812,"temp":30.0,"humidity":57,"rain":0.0,"pressure":1003.8,"uv_index":8.15,"wind_gusts":19.4,"aqi":94,"pm10":71.7,"pm2_5":56.5,"mosquito_risk":4,"arthritis_risk":5,"migraine_risk":4,"frizz_risk":1,"updated_at":"2026-04-18T23:08:33.491378+05:30"},{"city":"Rajkot","state":"Gujarat","latitude":22.3039,"longitude":70.8022,"temp":27.5,"humidity":48,"rain":0.0,"pressure":994.9,"uv_index":7.8,"wind_gusts":25.9,"aqi":70,"pm10":20.8,"pm2_5":11.8,"mosquito_risk":4,"arthritis_risk":5,"migraine_risk":7,"frizz_risk":0,"updated_at":"2026-04-18T23:08:33.491384+05:30"},{"city":"Thane","state":"Maharashtra","latitude":19.2183,"longitude":72.9781,"temp":28.7,"humidity":77,"rain":0.0,"pressure":1007.6,"uv_index":7.85,"wind_gusts":33.5,"aqi":90,"pm10":48.8,"pm2_5":29.2,"mosquito_risk":7,"arthritis_risk":5,"migraine_risk":4,"frizz_risk":1,"updated_at":"2026-04-18T23:08:33.491389+05:30"},{"city":"Nagpur","state":"Maharashtra","latitude":21.1458,"longitude":79.0882,"temp":30.7,"humidity":51,"rain":0.0,"pressure":972.3,"uv_index":7.6,"wind_gusts":21.6,"aqi":119,"pm10":29.8,"pm2_5":27.4,"mosquito_risk":0,"arthritis_risk":5,"migraine_risk":7,"frizz_risk":1,"updated_at":"2026-04-18T23:08:33.491395+05:30"},{"city":"Nashik","state":"Maharashtra","latitude":19.9975,"longitude":73.7898,"temp":28.0,"humidity":60,"rain":0.0,"pressure":946.6,"uv_index":8.05,"wind_gusts":29.9,"aqi":123,"pm10":36.9,"pm2_5":27.9,"mosquito_risk":4,"arthritis_risk":5,"migraine_risk":7,"frizz_risk":1,"updated_at":"2026-04-18T23:08:33.491401+05:30"},{"city":"Aurangabad","state":"Maharashtra","latitude":19.8762,"longitude":75.3433,"temp":30.1,"humidity":29,"rain":0.0,"pressure":944.6,"uv_index":7.5,"wind_gusts":36.7,"aqi":99,"pm10":22.9,"pm2_5":17.8,"mosquito_risk":0,"arthritis_risk":5,"migraine_risk":7,"frizz_risk":0,"updated_at":"2026-04-18T23:08:33.491406+05:30"},{"city":"Solapur","state":"Maharashtra","latitude":17.6599,"longitude":75.9064,"temp":30.4,"humidity":50,"rain":0.0,"pressure":957.0,"uv_index":7.95,"wind_gusts":17.6,"aqi":151,"pm10":50.5,"pm2_5":46.0,"mosquito_risk":0,"arthritis_risk":5,"migraine_risk":7,"frizz_risk":1,"updated_at":"2026-04-18T23:08:33.491412+05:30"},{"city":"Kolhapur","state":"Maharashtra","latitude":16.705,"longitude":74.2433,"temp":25.7,"humidity":88,"rain":0.0,"pressure":948.7,"uv_index":8.65,"wind_gusts":44.6,"aqi":125,"pm10":49.5,"pm2_5":36.3,"mosquito_risk":7,"arthritis_risk":5,"migraine_risk":7,"frizz_risk":1,"updated_at":"2026-04-18T23:08:33.491417+05:30"},{"city":"Goa","state":"Goa","latitude":15.2993,"longitude":74.124,"temp":28.9,"humidity":78,"rain":0.0,"pressure":998.0,"uv_index":9.0,"wind_gusts":31.3,"aqi":78,"pm10":65.9,"pm2_5":31.7,"mosquito_risk":7,"arthritis_risk":5,"migraine_risk":7,"frizz_risk":1,"updated_at":"2026-04-18T23:08:33.491422+05:30"},{"city":"Jodhpur","state":"Rajasthan","latitude":26.2389,"longitude":73.0243,"temp":29.7,"humidity":32,"rain":0.0,"pressure":982.9,"uv_index":8.15,"wind_gusts":28.1,"aqi":98,"pm10":156.5,"pm2_5":23.2,"mosquito_risk":4,"arthritis_risk":5,"migraine_risk":7,"frizz_risk":0,"updated_at":"2026-04-18T23:08:33.491428+05:30"},{"city":"Udaipur","state":"Rajasthan","latitude":24.5854,"longitude":73.7125,"temp":28.9,"humidity":32,"rain":0.0,"pressure":947.6,"uv_index":8.75,"wind_gusts":29.5,"aqi":64,"pm10":14.6,"pm2_5":7.8,"mosquito_risk":4,"arthritis_risk":5,"migraine_risk":7,"frizz_risk":0,"updated_at":"2026-04-18T23:08:33.491434+05:30"},{"city":"Kota","state":"Rajasthan","latitude":25.2138,"longitude":75.8648,"temp":31.0,"humidity":36,"rain":0.0,"pressure":977.7,"uv_index":8.25,"wind_gusts":23.0,"aqi":121,"pm10":89.4,"pm2_5":42.1,"mosquito_risk":0,"arthritis_risk":5,"migraine_risk":7,"frizz_risk":0,"updated_at":"2026-04-18T23:08:33.491440+05:30"},{"city":"Bikaner","state":"Rajasthan","latitude":28.0229,"longitude":73.3119,"temp":32.3,"humidity":27,"rain":0.0,"pressure":981.1,"uv_index":7.8,"wind_gusts":29.9,"aqi":79,"pm10":79.6,"pm2_5":20.4,"mosquito_risk":0,"arthritis_risk":5,"migraine_risk":7,"frizz_risk":0,"updated_at":"2026-04-18T23:08:33.491445+05:30"},{"city":"Ajmer","state":"Rajasthan","latitude":26.4499,"longitude":74.6399,"temp":29.3,"humidity":32,"rain":0.0,"pressure":954.8,"uv_index":8.15,"wind_gusts":32.0,"aqi":62,"pm10":58.7,"pm2_5":16.9,"mosquito_risk":4,"arthritis_risk":5,"migraine_risk":7,"frizz_risk":0,"updated_at":"2026-04-18T23:08:33.491450+05:30"},{"city":"Gwalior","state":"Madhya Pradesh","latitude":26.2183,"longitude":78.1828,"temp":31.3,"humidity":44,"rain":0.0,"pressure":982.3,"uv_index":7.95,"wind_gusts":28.4,"aqi":127,"pm10":95.0,"pm2_5":33.5,"mosquito_risk":0,"arthritis_risk":5,"migraine_risk":7,"frizz_risk":1,"updated_at":"2026-04-18T23:08:33.491455+05:30"},{"city":"Indore","state":"Madhya Pradesh","latitude":22.7196,"longitude":75.8577,"temp":27.4,"humidity":46,"rain":0.0,"pressure":948.3,"uv_index":8.15,"wind_gusts":25.6,"aqi":60,"pm10":41.8,"pm2_5":39.0,"mosquito_risk":4,"arthritis_risk":5,"migraine_risk":7,"frizz_risk":0,"updated_at":"2026-04-18T23:08:33.491461+05:30"},{"city":"Bhopal","state":"Madhya Pradesh","latitude":23.2599,"longitude":77.4126,"temp":30.0,"humidity":35,"rain":0.0,"pressure":953.6,"uv_index":7.7,"wind_gusts":24.5,"aqi":77,"pm10":25.6,"pm2_5":23.5,"mosquito_risk":4,"arthritis_risk":5,"migraine_risk":7,"frizz_risk":0,"updated_at":"2026-04-18T23:08:33.491466+05:30"},{"city":"Jabalpur","state":"Madhya Pradesh","latitude":23.1815,"longitude":79.9864,"temp":29.6,"humidity":47,"rain":0.0,"pressure":960.4,"uv_index":7.45,"wind_gusts":24.5,"aqi":92,"pm10":19.6,"pm2_5":18.0,"mosquito_risk":4,"arthritis_risk":5,"migraine_risk":7,"frizz_risk":1,"updated_at":"2026-04-18T23:08:33.491471+05:30"},{"city":"Ujjain","state":"Madhya Pradesh","latitude":23.1765,"longitude":75.7885,"temp":27.7,"humidity":46,"rain":0.0,"pressure":954.1,"uv_index":8.5,"wind_gusts":24.1,"aqi":54,"pm10":45.1,"pm2_5":41.9,"mosquito_risk":4,"arthritis_risk":5,"migraine_risk":7,"frizz_risk":0,"updated_at":"2026-04-18T23:08:33.491478+05:30"},{"city":"Visakhapatnam","state":"Andhra Pradesh","latitude":17.6868,"longitude":83.2185,"temp":27.9,"humidity":89,"rain":0.0,"pressure":1004.6,"uv_index":9.15,"wind_gusts":34.2,"aqi":61,"pm10":21.6,"pm2_5":15.1,"mosquito_risk":7,"arthritis_risk":5,"migraine_risk":4,"frizz_risk":1,"updated_at":"2026-04-18T23:08:33.491483+05:30"},{"city":"Vijayawada","state":"Andhra Pradesh","latitude":16.5062,"longitude":80.648,"temp":28.3,"humidity":82,"rain":0.0,"pressure":1003.4,"uv_index":8.8,"wind_gusts":26.3,"aqi":57,"pm10":16.3,"pm2_5":12.9,"mosquito_risk":7,"arthritis_risk":5,"migraine_risk":4,"frizz_risk":1,"updated_at":"2026-04-18T23:08:33.491489+05:30"},{"city":"Guntur","state":"Andhra Pradesh","latitude":16.3067,"longitude":80.4365,"temp":28.2,"humidity":85,"rain":0.0,"pressure":1004.6,"uv_index":8.9,"wind_gusts":29.5,"aqi":60,"pm10":17.8,"pm2_5":14.3,"mosquito_risk":7,"arthritis_risk":5,"migraine_risk":4,"frizz_risk":1,"updated_at":"2026-04-18T23:08:33.491494+05:30"},{"city":"Nellore","state":"Andhra Pradesh","latitude":14.4426,"longitude":79.9865,"temp":28.2,"humidity":81,"rain":0.0,"pressure":1006.3,"uv_index":8.7,"wind_gusts":32.8,"aqi":53,"pm10":10.5,"pm2_5":7.7,"mosquito_risk":7,"arthritis_risk":5,"migraine_risk":4,"frizz_risk":1,"updated_at":"2026-04-18T23:08:33.491500+05:30"},{"city":"Kurnool","state":"Andhra Pradesh","latitude":15.8281,"longitude":78.0373,"temp":34.1,"humidity":38,"rain":0.0,"pressure":976.3,"uv_index":9.2,"wind_gusts":28.4,"aqi":98,"pm10":37.7,"pm2_5":33.5,"mosquito_risk":0,"arthritis_risk":5,"migraine_risk":7,"frizz_risk":1,"updated_at":"2026-04-18T23:08:33.491506+05:30"},{"city":"Kakinada","state":"Andhra Pradesh","latitude":16.9891,"longitude":82.2475,"temp":28.1,"humidity":86,"rain":0.0,"pressure":1008.5,"uv_index":9.1,"wind_gusts":29.9,"aqi":52,"pm10":17.5,"pm2_5":10.7,"mosquito_risk":7,"arthritis_risk":0,"migraine_risk":4,"frizz_risk":1,"updated_at":"2026-04-18T23:08:33.491511+05:30"},{"city":"Tirupati","state":"Andhra Pradesh","latitude":13.6288,"longitude":79.4192,"temp":28.5,"humidity":76,"rain":0.0,"pressure":992.7,"uv_index":9.0,"wind_gusts":32.0,"aqi":65,"pm10":17.3,"pm2_5":15.6,"mosquito_risk":7,"arthritis_risk":5,"migraine_risk":7,"frizz_risk":1,"updated_at":"2026-04-18T23:08:33.491517+05:30"},{"city":"Warangal","state":"Telangana","latitude":17.9689,"longitude":79.5941,"temp":31.0,"humidity":62,"rain":0.0,"pressure":978.8,"uv_index":8.8,"wind_gusts":26.6,"aqi":98,"pm10":35.5,"pm2_5":32.2,"mosquito_risk":3,"arthritis_risk":5,"migraine_risk":7,"frizz_risk":1,"updated_at":"2026-04-18T23:08:33.491522+05:30"},{"city":"Nizamabad","state":"Telangana","latitude":18.6725,"longitude":78.0941,"temp":31.2,"humidity":45,"rain":0.0,"pressure":964.8,"uv_index":8.85,"wind_gusts":37.4,"aqi":117,"pm10":42.4,"pm2_5":38.6,"mosquito_risk":0,"arthritis_risk":5,"migraine_risk":7,"frizz_risk":1,"updated_at":"2026-04-18T23:08:33.491528+05:30"},{"city":"Mysore","state":"Karnataka","latitude":12.2958,"longitude":76.6396,"temp":25.2,"humidity":85,"rain":0.0,"pressure":929.0,"uv_index":9.0,"wind_gusts":40.3,"aqi":89,"pm10":31.3,"pm2_5":28.2,"mosquito_risk":7,"arthritis_risk":5,"migraine_risk":7,"frizz_risk":1,"updated_at":"2026-04-18T23:08:33.491532+05:30"},{"city":"Mangalore","state":"Karnataka","latitude":12.9141,"longitude":74.856,"temp":30.8,"humidity":78,"rain":0.0,"pressure":1006.7,"uv_index":9.1,"wind_gusts":23.0,"aqi":63,"pm10":34.1,"pm2_5":18.0,"mosquito_risk":3,"arthritis_risk":5,"migraine_risk":4,"frizz_risk":1,"updated_at":"2026-04-18T23:08:33.491538+05:30"},{"city":"Hubli-Dharwad","state":"Karnataka","latitude":15.3647,"longitude":75.124,"temp":25.8,"humidity":85,"rain":0.0,"pressure":941.4,"uv_index":9.2,"wind_gusts":39.2,"aqi":91,"pm10":29.0,"pm2_5":20.9,"mosquito_risk":7,"arthritis_risk":5,"migraine_risk":7,"frizz_risk":1,"updated_at":"2026-04-18T23:08:33.491544+05:30"},{"city":"Belgaum","state":"Karnataka","latitude":15.8497,"longitude":74.4977,"temp":24.7,"humidity":89,"rain":0.0,"pressure":926.2,"uv_index":8.85,"wind_gusts":34.2,"aqi":89,"pm10":47.3,"pm2_5":29.3,"mosquito_risk":3,"arthritis_risk":5,"migraine_risk":7,"frizz_risk":1,"updated_at":"2026-04-18T23:08:36.837568+05:30"},{"city":"Coimbatore","state":"Tamil Nadu","latitude":11.0168,"longitude":76.9558,"temp":26.1,"humidity":85,"rain":0.0,"pressure":962.6,"uv_index":9.25,"wind_gusts":31.3,"aqi":100,"pm10":48.9,"pm2_5":43.0,"mosquito_risk":7,"arthritis_risk":5,"migraine_risk":7,"frizz_risk":1,"updated_at":"2026-04-18T23:08:36.837600+05:30"},{"city":"Madurai","state":"Tamil Nadu","latitude":9.9252,"longitude":78.1198,"temp":28.8,"humidity":77,"rain":0.0,"pressure":994.1,"uv_index":9.35,"wind_gusts":30.6,"aqi":69,"pm10":21.9,"pm2_5":20.5,"mosquito_risk":7,"arthritis_risk":5,"migraine_risk":7,"frizz_risk":1,"updated_at":"2026-04-18T23:08:36.837609+05:30"},{"city":"Trichy","state":"Tamil Nadu","latitude":10.7905,"longitude":78.7047,"temp":28.1,"humidity":78,"rain":0.0,"pressure":1000.4,"uv_index":9.35,"wind_gusts":18.4,"aqi":55,"pm10":14.0,"pm2_5":13.2,"mosquito_risk":7,"arthritis_risk":5,"migraine_risk":4,"frizz_risk":1,"updated_at":"2026-04-18T23:08:36.837616+05:30"},{"city":"Salem","state":"Tamil Nadu","latitude":11.6643,"longitude":78.146,"temp":28.1,"humidity":68,"rain":0.0,"pressure":977.5,"uv_index":9.25,"wind_gusts":19.8,"aqi":81,"pm10":24.1,"pm2_5":20.9,"mosquito_risk":7,"arthritis_risk":5,"migraine_risk":7,"frizz_risk":1,"updated_at":"2026-04-18T23:08:36.837623+05:30"},{"city":"Tirunelveli","state":"Tamil Nadu","latitude":8.7139,"longitude":77.7567,"temp":28.9,"humidity":72,"rain":0.0,"pressure":1003.9,"uv_index":9.25,"wind_gusts":50.4,"aqi":86,"pm10":24.4,"pm2_5":21.5,"mosquito_risk":7,"arthritis_risk":5,"migraine_risk":4,"frizz_risk":1,"updated_at":"2026-04-18T23:08:36.837628+05:30"},{"city":"Vellore","state":"Tamil Nadu","latitude":12.9165,"longitude":79.1325,"temp":26.9,"humidity":83,"rain":0.0,"pressure":985.5,"uv_index":8.9,"wind_gusts":25.6,"aqi":85,"pm10":32.6,"pm2_5":30.7,"mosquito_risk":7,"arthritis_risk":5,"migraine_risk":7,"frizz_risk":1,"updated_at":"2026-04-18T23:08:36.837634+05:30"},{"city":"Erode","state":"Tamil Nadu","latitude":11.341,"longitude":77.7172,"temp":30.8,"humidity":53,"rain":0.0,"pressure":989.2,"uv_index":9.35,"wind_gusts":24.8,"aqi":72,"pm10":19.8,"pm2_5":17.0,"mosquito_risk":0,"arthritis_risk":5,"migraine_risk":7,"frizz_risk":1,"updated_at":"2026-04-18T23:08:36.837639+05:30"},{"city":"Kochi","state":"Kerala","latitude":9.9312,"longitude":76.2673,"temp":29.8,"humidity":78,"rain":0.0,"pressure":1009.2,"uv_index":9.15,"wind_gusts":31.3,"aqi":79,"pm10":34.6,"pm2_5":29.4,"mosquito_risk":7,"arthritis_risk":0,"migraine_risk":4,"frizz_risk":1,"updated_at":"2026-04-18T23:08:36.837644+05:30"},{"city":"Thiruvananthapuram","state":"Kerala","latitude":8.5241,"longitude":76.9366,"temp":29.0,"humidity":82,"rain":0.0,"pressure":1008.6,"uv_index":9.1,"wind_gusts":27.0,"aqi":76,"pm10":30.6,"pm2_5":19.8,"mosquito_risk":7,"arthritis_risk":0,"migraine_risk":4,"frizz_risk":1,"updated_at":"2026-04-18T23:08:36.837650+05:30"},{"city":"Kozhikode","state":"Kerala","latitude":11.2588,"longitude":75.7804,"temp":30.2,"humidity":83,"rain":0.0,"pressure":1008.0,"uv_index":9.05,"wind_gusts":33.1,"aqi":69,"pm10":27.6,"pm2_5":18.6,"mosquito_risk":3,"arthritis_risk":0,"migraine_risk":4,"frizz_risk":1,"updated_at":"2026-04-18T23:08:36.837654+05:30"},{"city":"Thrissur","state":"Kerala","latitude":10.5276,"longitude":76.2144,"temp":29.4,"humidity":85,"rain":0.0,"pressure":1007.2,"uv_index":8.65,"wind_gusts":36.4,"aqi":75,"pm10":35.3,"pm2_5":30.5,"mosquito_risk":7,"arthritis_risk":5,"migraine_risk":4,"frizz_risk":1,"updated_at":"2026-04-18T23:08:36.837660+05:30"},{"city":"Kannur","state":"Kerala","latitude":11.8745,"longitude":75.3704,"temp":30.3,"humidity":78,"rain":0.0,"pressure":1007.3,"uv_index":8.6,"wind_gusts":34.6,"aqi":68,"pm10":29.8,"pm2_5":21.3,"mosquito_risk":3,"arthritis_risk":5,"migraine_risk":4,"frizz_risk":1,"updated_at":"2026-04-18T23:08:36.837666+05:30"},{"city":"Patna","state":"Bihar","latitude":25.5941,"longitude":85.1376,"temp":30.2,"humidity":73,"rain":0.0,"pressure":998.9,"uv_index":8.6,"wind_gusts":25.6,"aqi":142,"pm10":66.6,"pm2_5":58.8,"mosquito_risk":3,"arthritis_risk":5,"migraine_risk":7,"frizz_risk":1,"updated_at":"2026-04-18T23:08:36.837671+05:30"},{"city":"Gaya","state":"Bihar","latitude":24.7914,"longitude":85.0002,"temp":32.0,"humidity":42,"rain":0.0,"pressure":991.9,"uv_index":8.65,"wind_gusts":28.4,"aqi":115,"pm10":76.6,"pm2_5":37.8,"mosquito_risk":0,"arthritis_risk":5,"migraine_risk":7,"frizz_risk":1,"updated_at":"2026-04-18T23:08:36.837676+05:30"},{"city":"Muzaffarpur","state":"Bihar","latitude":26.1209,"longitude":85.3647,"temp":28.3,"humidity":80,"rain":0.0,"pressure":999.4,"uv_index":8.6,"wind_gusts":31.0,"aqi":152,"pm10":69.2,"pm2_5":63.1,"mosquito_risk":7,"arthritis_risk":5,"migraine_risk":7,"frizz_risk":1,"updated_at":"2026-04-18T23:08:36.837681+05:30"},{"city":"Bhagalpur","state":"Bihar","latitude":25.2425,"longitude":87.0117,"temp":28.3,"humidity":86,"rain":0.0,"pressure":1000.3,"uv_index":8.25,"wind_gusts":24.8,"aqi":151,"pm10":48.8,"pm2_5":44.9,"mosquito_risk":7,"arthritis_risk":5,"migraine_risk":4,"frizz_risk":1,"updated_at":"2026-04-18T23:08:36.837685+05:30"},{"city":"Ranchi","state":"Jharkhand","latitude":23.3441,"longitude":85.3096,"temp":28.8,"humidity":42,"rain":0.0,"pressure":938.2,"uv_index":9.15,"wind_gusts":42.1,"aqi":81,"pm10":63.3,"pm2_5":28.9,"mosquito_risk":4,"arthritis_risk":5,"migraine_risk":7,"frizz_risk":0,"updated_at":"2026-04-18T23:08:36.837691+05:30"},{"city":"Jamshedpur","state":"Jharkhand","latitude":22.8046,"longitude":86.2029,"temp":29.4,"humidity":86,"rain":0.0,"pressure":990.2,"uv_index":8.9,"wind_gusts":22.7,"aqi":128,"pm10":43.0,"pm2_5":37.5,"mosquito_risk":7,"arthritis_risk":5,"migraine_risk":7,"frizz_risk":1,"updated_at":"2026-04-18T23:08:36.837696+05:30"},{"city":"Dhanbad","state":"Jharkhand","latitude":23.7957,"longitude":86.4304,"temp":30.5,"humidity":72,"rain":0.0,"pressure":979.1,"uv_index":8.95,"wind_gusts":26.6,"aqi":152,"pm10":105.2,"pm2_5":83.4,"mosquito_risk":3,"arthritis_risk":5,"migraine_risk":7,"frizz_risk":1,"updated_at":"2026-04-18T23:08:36.837700+05:30"},{"city":"Bokaro","state":"Jharkhand","latitude":23.6693,"longitude":86.1511,"temp":29.9,"humidity":66,"rain":0.0,"pressure":983.2,"uv_index":8.95,"wind_gusts":40.0,"aqi":153,"pm10":92.9,"pm2_5":62.9,"mosquito_risk":7,"arthritis_risk":5,"migraine_risk":7,"frizz_risk":1,"updated_at":"2026-04-18T23:08:36.837705+05:30"},{"city":"Bhubaneswar","state":"Odisha","latitude":20.2961,"longitude":85.8245,"temp":27.2,"humidity":92,"rain":0.0,"pressure":1002.6,"uv_index":8.65,"wind_gusts":29.9,"aqi":60,"pm10":21.8,"pm2_5":16.9,"mosquito_risk":7,"arthritis_risk":5,"migraine_risk":4,"frizz_risk":1,"updated_at":"2026-04-18T23:08:36.837710+05:30"},{"city":"Cuttack","state":"Odisha","latitude":20.4625,"longitude":85.8828,"temp":27.5,"humidity":91,"rain":0.0,"pressure":1004.3,"uv_index":8.9,"wind_gusts":29.2,"aqi":60,"pm10":21.8,"pm2_5":16.9,"mosquito_risk":7,"arthritis_risk":5,"migraine_risk":4,"frizz_risk":1,"updated_at":"2026-04-18T23:08:36.837715+05:30"},{"city":"Rourkela","state":"Odisha","latitude":22.2604,"longitude":84.8536,"temp":31.5,"humidity":57,"rain":0.0,"pressure":984.0,"uv_index":8.65,"wind_gusts":28.1,"aqi":127,"pm10":73.3,"pm2_5":49.5,"mosquito_risk":0,"arthritis_risk":5,"migraine_risk":7,"frizz_risk":1,"updated_at":"2026-04-18T23:08:36.837719+05:30"},{"city":"Raipur","state":"Chhattisgarh","latitude":21.2514,"longitude":81.6296,"temp":30.4,"humidity":54,"rain":0.0,"pressure":974.3,"uv_index":8.85,"wind_gusts":29.2,"aqi":177,"pm10":82.9,"pm2_5":61.0,"mosquito_risk":0,"arthritis_risk":5,"migraine_risk":7,"frizz_risk":1,"updated_at":"2026-04-18T23:08:36.837724+05:30"},{"city":"Bhilai","state":"Chhattisgarh","latitude":21.1938,"longitude":81.3509,"temp":29.9,"humidity":57,"rain":0.0,"pressure":974.8,"uv_index":8.5,"wind_gusts":36.4,"aqi":173,"pm10":92.7,"pm2_5":69.6,"mosquito_risk":4,"arthritis_risk":5,"migraine_risk":7,"frizz_risk":1,"updated_at":"2026-04-18T23:08:36.837728+05:30"},{"city":"Guwahati","state":"Assam","latitude":26.1158,"longitude":91.7086,"temp":24.9,"humidity":92,"rain":0.0,"pressure":1002.7,"uv_index":8.5,"wind_gusts":22.7,"aqi":136,"pm10":69.6,"pm2_5":61.7,"mosquito_risk":3,"arthritis_risk":5,"migraine_risk":4,"frizz_risk":1,"updated_at":"2026-04-18T23:08:36.837733+05:30"},{"city":"Agartala","state":"Tripura","latitude":23.8315,"longitude":91.2868,"temp":27.2,"humidity":87,"rain":0.0,"pressure":1006.4,"uv_index":8.7,"wind_gusts":16.9,"aqi":126,"pm10":65.0,"pm2_5":58.9,"mosquito_risk":7,"arthritis_risk":5,"migraine_risk":4,"frizz_risk":1,"updated_at":"2026-04-18T23:08:36.837738+05:30"},{"city":"Shillong","state":"Meghalaya","latitude":25.5788,"longitude":91.8933,"temp":15.4,"humidity":90,"rain":0.0,"pressure":857.1,"uv_index":6.85,"wind_gusts":30.6,"aqi":124,"pm10":51.0,"pm2_5":43.0,"mosquito_risk":3,"arthritis_risk":10,"migraine_risk":7,"frizz_risk":0,"updated_at":"2026-04-18T23:08:36.837743+05:30"},{"city":"Imphal","state":"Manipur","latitude":24.817,"longitude":93.9368,"temp":19.1,"humidity":79,"rain":0.0,"pressure":924.3,"uv_index":9.1,"wind_gusts":48.2,"aqi":152,"pm10":79.2,"pm2_5":65.4,"mosquito_risk":3,"arthritis_risk":5,"migraine_risk":7,"frizz_risk":0,"updated_at":"2026-04-18T23:08:36.837747+05:30"},{"city":"Aizawl","state":"Mizoram","latitude":23.7271,"longitude":92.7176,"temp":20.7,"humidity":85,"rain":0.0,"pressure":893.5,"uv_index":8.95,"wind_gusts":34.6,"aqi":116,"pm10":71.7,"pm2_5":54.9,"mosquito_risk":3,"arthritis_risk":5,"migraine_risk":7,"frizz_risk":1,"updated_at":"2026-04-18T23:08:36.837752+05:30"},{"city":"Kohima","state":"Nagaland","latitude":25.6701,"longitude":94.1077,"temp":16.6,"humidity":88,"rain":0.0,"pressure":856.1,"uv_index":9.0,"wind_gusts":48.6,"aqi":132,"pm10":54.5,"pm2_5":43.0,"mosquito_risk":3,"arthritis_risk":10,"migraine_risk":7,"frizz_risk":0,"updated_at":"2026-04-18T23:08:36.837757+05:30"},{"city":"Gangtok","state":"Sikkim","latitude":27.3314,"longitude":88.6138,"temp":16.5,"humidity":92,"rain":0.0,"pressure":838.6,"uv_index":8.85,"wind_gusts":19.1,"aqi":110,"pm10":50.5,"pm2_5":40.3,"mosquito_risk":3,"arthritis_risk":10,"migraine_risk":7,"frizz_risk":0,"updated_at":"2026-04-18T23:08:36.837762+05:30"},{"city":"Siliguri","state":"West Bengal","latitude":26.7271,"longitude":88.3953,"temp":22.4,"humidity":82,"rain":0.0,"pressure":995.1,"uv_index":8.05,"wind_gusts":20.9,"aqi":158,"pm10":89.2,"pm2_5":69.4,"mosquito_risk":3,"arthritis_risk":5,"migraine_risk":7,"frizz_risk":1,"updated_at":"2026-04-18T23:08:40.187516+05:30"},{"city":"Durgapur","state":"West Bengal","latitude":23.5204,"longitude":87.3119,"temp":28.5,"humidity":83,"rain":0.0,"pressure":994.5,"uv_index":8.85,"wind_gusts":37.1,"aqi":125,"pm10":37.1,"pm2_5":34.7,"mosquito_risk":7,"arthritis_risk":5,"migraine_risk":7,"frizz_risk":1,"updated_at":"2026-04-18T23:08:40.187546+05:30"},{"city":"Asansol","state":"West Bengal","latitude":23.6739,"longitude":86.9524,"temp":29.3,"humidity":79,"rain":0.0,"pressure":992.9,"uv_index":8.9,"wind_gusts":30.2,"aqi":130,"pm10":67.1,"pm2_5":58.7,"mosquito_risk":7,"arthritis_risk":5,"migraine_risk":7,"frizz_risk":1,"updated_at":"2026-04-18T23:08:40.187554+05:30"},{"city":"Pondicherry","state":"Puducherry","latitude":11.9139,"longitude":79.8145,"temp":26.9,"humidity":92,"rain":0.0,"pressure":1009.1,"uv_index":9.25,"wind_gusts":27.0,"aqi":33,"pm10":9.7,"pm2_5":5.7,"mosquito_risk":7,"arthritis_risk":0,"migraine_risk":4,"frizz_risk":1,"updated_at":"2026-04-18T23:08:40.187561+05:30"},{"city":"Port Blair","state":"Andaman and Nicobar Islands","latitude":11.6234,"longitude":92.7265,"temp":29.5,"humidity":76,"rain":0.0,"pressure":1007.9,"uv_index":9.2,"wind_gusts":13.7,"aqi":55,"pm10":19.6,"pm2_5":15.0,"mosquito_risk":7,"arthritis_risk":5,"migraine_risk":4,"frizz_risk":1,"updated_at":"2026-04-18T23:08:40.187567+05:30"},{"city":"Haridwar","state":"Uttarakhand","latitude":29.9457,"longitude":78.1642,"temp":23.8,"humidity":71,"rain":0.0,"pressure":973.7,"uv_index":6.6,"wind_gusts":34.6,"aqi":72,"pm10":40.7,"pm2_5":28.6,"mosquito_risk":3,"arthritis_risk":5,"migraine_risk":7,"frizz_risk":1,"updated_at":"2026-04-18T23:08:40.187574+05:30"},{"city":"Rishikesh","state":"Uttarakhand","latitude":30.0869,"longitude":78.2676,"temp":22.8,"humidity":67,"rain":0.0,"pressure":966.9,"uv_index":6.85,"wind_gusts":38.2,"aqi":80,"pm10":51.1,"pm2_5":20.2,"mosquito_risk":3,"arthritis_risk":5,"migraine_risk":7,"frizz_risk":1,"updated_at":"2026-04-18T23:08:40.187580+05:30"},{"city":"Nainital","state":"Uttarakhand","latitude":29.3919,"longitude":79.4542,"temp":24.0,"humidity":33,"rain":0.0,"pressure":809.1,"uv_index":8.05,"wind_gusts":69.1,"aqi":92,"pm10":67.8,"pm2_5":24.2,"mosquito_risk":0,"arthritis_risk":5,"migraine_risk":7,"frizz_risk":0,"updated_at":"2026-04-18T23:08:40.187586+05:30"},{"city":"Mussoorie","state":"Uttarakhand","latitude":30.4599,"longitude":78.0664,"temp":19.5,"humidity":48,"rain":0.0,"pressure":804.6,"uv_index":7.4,"wind_gusts":51.5,"aqi":68,"pm10":49.2,"pm2_5":27.7,"mosquito_risk":0,"arthritis_risk":5,"migraine_risk":7,"frizz_risk":0,"updated_at":"2026-04-18T23:08:40.187591+05:30"},{"city":"Dharamshala","state":"Himachal Pradesh","latitude":32.219,"longitude":76.3234,"temp":23.8,"humidity":31,"rain":0.0,"pressure":871.4,"uv_index":7.45,"wind_gusts":38.9,"aqi":62,"pm10":35.0,"pm2_5":14.6,"mosquito_risk":0,"arthritis_risk":5,"migraine_risk":7,"frizz_risk":0,"updated_at":"2026-04-18T23:08:40.187596+05:30"},{"city":"Dalhousie","state":"Himachal Pradesh","latitude":32.5387,"longitude":75.971,"temp":19.8,"humidity":37,"rain":0.0,"pressure":806.0,"uv_index":6.8,"wind_gusts":39.6,"aqi":63,"pm10":57.9,"pm2_5":27.8,"mosquito_risk":0,"arthritis_risk":5,"migraine_risk":7,"frizz_risk":0,"updated_at":"2026-04-18T23:08:40.187602+05:30"},{"city":"Patiala","state":"Punjab","latitude":30.3398,"longitude":76.3869,"temp":26.3,"humidity":53,"rain":0.0,"pressure":977.6,"uv_index":7.1,"wind_gusts":19.4,"aqi":119,"pm10":75.9,"pm2_5":62.2,"mosquito_risk":4,"arthritis_risk":5,"migraine_risk":7,"frizz_risk":0,"updated_at":"2026-04-18T23:08:40.187608+05:30"},{"city":"Bhatinda","state":"Punjab","latitude":30.211,"longitude":74.9455,"temp":28.4,"humidity":45,"rain":0.0,"pressure":983.0,"uv_index":7.75,"wind_gusts":36.7,"aqi":106,"pm10":69.6,"pm2_5":39.9,"mosquito_risk":4,"arthritis_risk":5,"migraine_risk":7,"frizz_risk":0,"updated_at":"2026-04-18T23:08:40.187613+05:30"},{"city":"Rohtak","state":"Haryana","latitude":28.8955,"longitude":76.6066,"temp":26.1,"humidity":61,"rain":0.0,"pressure":980.7,"uv_index":6.95,"wind_gusts":14.4,"aqi":324,"pm10":365.1,"pm2_5":73.3,"mosquito_risk":7,"arthritis_risk":5,"migraine_risk":7,"frizz_risk":1,"updated_at":"2026-04-18T23:08:40.187619+05:30"},{"city":"Panipat","state":"Haryana","latitude":29.3909,"longitude":76.9635,"temp":26.9,"humidity":53,"rain":0.0,"pressure":979.4,"uv_index":6.6,"wind_gusts":11.5,"aqi":469,"pm10":421.0,"pm2_5":87.5,"mosquito_risk":4,"arthritis_risk":5,"migraine_risk":7,"frizz_risk":1,"updated_at":"2026-04-18T23:08:40.187624+05:30"},{"city":"Mathura","state":"Uttar Pradesh","latitude":27.4924,"longitude":77.6737,"temp":28.5,"humidity":47,"rain":0.0,"pressure":985.3,"uv_index":7.65,"wind_gusts":22.7,"aqi":340,"pm10":357.6,"pm2_5":65.7,"mosquito_risk":4,"arthritis_risk":5,"migraine_risk":7,"frizz_risk":1,"updated_at":"2026-04-18T23:08:40.187629+05:30"},{"city":"Vrindavan","state":"Uttar Pradesh","latitude":27.5823,"longitude":77.7027,"temp":29.7,"humidity":43,"rain":0.0,"pressure":985.8,"uv_index":7.6,"wind_gusts":24.8,"aqi":340,"pm10":357.6,"pm2_5":65.7,"mosquito_risk":4,"arthritis_risk":5,"migraine_risk":7,"frizz_risk":0,"updated_at":"2026-04-18T23:08:40.187633+05:30"},{"city":"Ayodhya","state":"Uttar Pradesh","latitude":26.7922,"longitude":82.1998,"temp":28.8,"humidity":51,"rain":0.0,"pressure":993.5,"uv_index":7.75,"wind_gusts":36.7,"aqi":101,"pm10":119.7,"pm2_5":35.3,"mosquito_risk":4,"arthritis_risk":5,"migraine_risk":7,"frizz_risk":1,"updated_at":"2026-04-18T23:08:40.187638+05:30"},{"city":"Ratlam","state":"Madhya Pradesh","latitude":23.3315,"longitude":75.0367,"temp":29.0,"humidity":48,"rain":0.0,"pressure":954.7,"uv_index":8.3,"wind_gusts":24.1,"aqi":62,"pm10":24.1,"pm2_5":18.7,"mosquito_risk":4,"arthritis_risk":5,"migraine_risk":7,"frizz_risk":1,"updated_at":"2026-04-18T23:08:40.187643+05:30"},{"city":"Sagar","state":"Madhya Pradesh","latitude":23.8388,"longitude":78.7378,"temp":30.7,"humidity":41,"rain":0.0,"pressure":949.7,"uv_index":7.85,"wind_gusts":29.9,"aqi":96,"pm10":23.1,"pm2_5":21.3,"mosquito_risk":0,"arthritis_risk":5,"migraine_risk":7,"frizz_risk":0,"updated_at":"2026-04-18T23:08:40.187648+05:30"},{"city":"Satna","state":"Madhya Pradesh","latitude":24.6005,"longitude":80.8322,"temp":31.3,"humidity":40,"rain":0.0,"pressure":970.7,"uv_index":8.5,"wind_gusts":24.8,"aqi":99,"pm10":71.2,"pm2_5":23.1,"mosquito_risk":0,"arthritis_risk":5,"migraine_risk":7,"frizz_risk":1,"updated_at":"2026-04-18T23:08:40.187653+05:30"},{"city":"Akola","state":"Maharashtra","latitude":20.7002,"longitude":77.0082,"temp":30.8,"humidity":53,"rain":0.0,"pressure":974.7,"uv_index":8.7,"wind_gusts":31.7,"aqi":90,"pm10":30.9,"pm2_5":26.0,"mosquito_risk":0,"arthritis_risk":5,"migraine_risk":7,"frizz_risk":1,"updated_at":"2026-04-18T23:08:40.187659+05:30"},{"city":"Amravati","state":"Maharashtra","latitude":20.9374,"longitude":77.7796,"temp":29.7,"humidity":40,"rain":0.0,"pressure":966.6,"uv_index":8.2,"wind_gusts":23.0,"aqi":86,"pm10":35.7,"pm2_5":30.9,"mosquito_risk":4,"arthritis_risk":5,"migraine_risk":7,"frizz_risk":0,"updated_at":"2026-04-18T23:08:40.187665+05:30"},{"city":"Latur","state":"Maharashtra","latitude":18.4088,"longitude":76.5604,"temp":27.9,"humidity":54,"rain":0.0,"pressure":940.3,"uv_index":9.1,"wind_gusts":16.6,"aqi":128,"pm10":44.4,"pm2_5":40.7,"mosquito_risk":4,"arthritis_risk":5,"migraine_risk":7,"frizz_risk":1,"updated_at":"2026-04-18T23:08:40.187670+05:30"},{"city":"Nanded","state":"Maharashtra","latitude":19.1383,"longitude":77.3091,"temp":30.3,"humidity":54,"rain":0.0,"pressure":968.8,"uv_index":8.85,"wind_gusts":18.0,"aqi":96,"pm10":56.8,"pm2_5":49.0,"mosquito_risk":0,"arthritis_risk":5,"migraine_risk":7,"frizz_risk":1,"updated_at":"2026-04-18T23:08:40.187674+05:30"},{"city":"Gulbarga","state":"Karnataka","latitude":17.3297,"longitude":76.8343,"temp":29.6,"humidity":52,"rain":0.0,"pressure":959.2,"uv_index":9.0,"wind_gusts":49.3,"aqi":153,"pm10":38.8,"pm2_5":34.7,"mosquito_risk":4,"arthritis_risk":5,"migraine_risk":7,"frizz_risk":1,"updated_at":"2026-04-18T23:08:40.187679+05:30"},{"city":"Bidar","state":"Karnataka","latitude":17.9104,"longitude":77.5199,"temp":28.1,"humidity":62,"rain":0.0,"pressure":936.3,"uv_index":9.0,"wind_gusts":48.6,"aqi":129,"pm10":51.1,"pm2_5":45.8,"mosquito_risk":7,"arthritis_risk":5,"migraine_risk":7,"frizz_risk":1,"updated_at":"2026-04-18T23:08:40.187684+05:30"},{"city":"Hospet","state":"Karnataka","latitude":15.2689,"longitude":76.3909,"temp":30.6,"humidity":54,"rain":0.0,"pressure":955.4,"uv_index":9.25,"wind_gusts":20.9,"aqi":130,"pm10":47.6,"pm2_5":42.6,"mosquito_risk":0,"arthritis_risk":5,"migraine_risk":7,"frizz_risk":1,"updated_at":"2026-04-18T23:08:40.187688+05:30"},{"city":"Tirupur","state":"Tamil Nadu","latitude":11.1085,"longitude":77.3411,"temp":28.9,"humidity":70,"rain":0.0,"pressure":975.9,"uv_index":9.3,"wind_gusts":31.3,"aqi":85,"pm10":37.4,"pm2_5":31.2,"mosquito_risk":7,"arthritis_risk":5,"migraine_risk":7,"frizz_risk":1,"updated_at":"2026-04-18T23:08:40.187692+05:30"},{"city":"Alappuzha","state":"Kerala","latitude":9.4981,"longitude":76.3388,"temp":29.0,"humidity":82,"rain":0.0,"pressure":1009.5,"uv_index":9.1,"wind_gusts":26.6,"aqi":86,"pm10":38.6,"pm2_5":29.4,"mosquito_risk":7,"arthritis_risk":0,"migraine_risk":4,"frizz_risk":1,"updated_at":"2026-04-18T23:08:40.187697+05:30"},{"city":"Munnar","state":"Kerala","latitude":10.0889,"longitude":77.0595,"temp":21.7,"humidity":82,"rain":0.0,"pressure":857.7,"uv_index":9.7,"wind_gusts":23.8,"aqi":87,"pm10":38.6,"pm2_5":34.0,"mosquito_risk":3,"arthritis_risk":5,"migraine_risk":7,"frizz_risk":1,"updated_at":"2026-04-18T23:08:40.187702+05:30"},{"city":"Silchar","state":"Assam","latitude":24.8333,"longitude":92.7789,"temp":26.1,"humidity":89,"rain":0.0,"pressure":1005.6,"uv_index":8.75,"wind_gusts":19.1,"aqi":158,"pm10":115.5,"pm2_5":96.2,"mosquito_risk":7,"arthritis_risk":5,"migraine_risk":4,"frizz_risk":1,"updated_at":"2026-04-18T23:08:40.187708+05:30"},{"city":"Dibrugarh","state":"Assam","latitude":27.4728,"longitude":94.912,"temp":25.5,"humidity":89,"rain":0.0,"pressure":996.7,"uv_index":8.65,"wind_gusts":15.1,"aqi":121,"pm10":65.0,"pm2_5":52.6,"mosquito_risk":7,"arthritis_risk":5,"migraine_risk":7,"frizz_risk":1,"updated_at":"2026-04-18T23:08:40.187713+05:30"}]