[{"city":"Delhi","state":"Delhi","latitude":28.6139,"longitude":77.209,"temp":26.0,"humidity":66,"rain":0.0,"pressure":985.6,"uv_index":7.55,"wind_gusts":34.9,"aqi":444,"pm10":359.5,"pm2_5":64.7,"no2":18.7,"co":667.0,"o3":127.0,"so2":22.1,"mosquito_risk":7,"arthritis_risk":5,"migraine_risk":7,"frizz_risk":1,"updated_at":"2026-05-08T08:55:13.366113+05:30"},{"city":"Mumbai","state":"Maharashtra","latitude":19.076,"longitude":72.8777,"temp":30.8,"humidity":67,"rain":0.0,"pressure":1008.4,"uv_index":7.85,"wind_gusts":45.0,"aqi":93,"pm10":83.8,"pm2_5":29.7,"no2":16.3,"co":385.0,"o3":73.0,"so2":28.9,"mosquito_risk":3,"arthritis_risk":0,"migraine_risk":4,"frizz_risk":1,"updated_at":"2026-05-08T08:55:13.366148+05:30"},{"city":"Bangalore","state":"Karnataka","latitude":12.9716,"longitude":77.5946,"temp":25.8,"humidity":69,"rain":0.0,"pressure":912.7,"uv_index":9.45,"wind_gusts":40.0,"aqi":58,"pm10":12.8,"pm2_5":11.8,"no2":9.8,"co":464.0,"o3":56.0,"so2":7.5,"mosquito_risk":7,"arthritis_risk":5,"migraine_risk":7,"frizz_risk":1,"updated_at":"2026-05-08T08:55:13.366163+05:30"},{"city":"Hyderabad","state":"Telangana","latitude":17.385,"longitude":78.4867,"temp":27.5,"humidity":65,"rain":0.0,"pressure":955.5,"uv_index":9.25,"wind_gusts":34.9,"aqi":54,"pm10":10.5,"pm2_5":8.3,"no2":6.1,"co":381.0,"o3":59.0,"so2":7.5,"mosquito_risk":7,"arthritis_risk":5,"migraine_risk":7,"frizz_risk":1,"updated_at":"2026-05-08T08:55:13.366173+05:30"},{"city":"Chennai","state":"Tamil Nadu","latitude":13.0827,"longitude":80.2707,"temp":29.1,"humidity":71,"rain":0.0,"pressure":1008.3,"uv_index":7.4,"wind_gusts":40.0,"aqi":22,"pm10":5.0,"pm2_5":3.7,"no2":4.7,"co":150.0,"o3":51.0,"so2":3.7,"mosquito_risk":7,"arthritis_risk":0,"migraine_risk":4,"frizz_risk":1,"updated_at":"2026-05-08T08:55:13.366181+05:30"},{"city":"Kolkata","state":"West Bengal","latitude":22.5726,"longitude":88.3639,"temp":28.8,"humidity":78,"rain":0.0,"pressure":1009.8,"uv_index":8.9,"wind_gusts":42.1,"aqi":139,"pm10":44.0,"pm2_5":41.3,"no2":10.3,"co":520.0,"o3":134.0,"so2":22.1,"mosquito_risk":7,"arthritis_risk":0,"migraine_risk":4,"frizz_risk":1,"updated_at":"2026-05-08T08:55:13.366189+05:30"},{"city":"Pune","state":"Maharashtra","latitude":18.5204,"longitude":73.8567,"temp":29.7,"humidity":51,"rain":0.0,"pressure":949.5,"uv_index":8.45,"wind_gusts":38.2,"aqi":110,"pm10":86.6,"pm2_5":44.8,"no2":16.4,"co":417.0,"o3":108.0,"so2":24.8,"mosquito_risk":4,"arthritis_risk":5,"migraine_risk":7,"frizz_risk":1,"updated_at":"2026-05-08T08:55:13.366196+05:30"},{"city":"Ahmedabad","state":"Gujarat","latitude":23.0225,"longitude":72.5714,"temp":31.8,"humidity":28,"rain":0.0,"pressure":1001.7,"uv_index":8.1,"wind_gusts":31.7,"aqi":90,"pm10":21.5,"pm2_5":13.9,"no2":7.8,"co":335.0,"o3":77.0,"so2":6.0,"mosquito_risk":0,"arthritis_risk":5,"migraine_risk":4,"frizz_risk":0,"updated_at":"2026-05-08T08:55:13.366207+05:30"},{"city":"Jaipur","state":"Rajasthan","latitude":26.9124,"longitude":75.7873,"temp":26.8,"humidity":45,"rain":0.0,"pressure":960.3,"uv_index":8.1,"wind_gusts":33.1,"aqi":151,"pm10":210.0,"pm2_5":43.0,"no2":6.3,"co":423.0,"o3":109.0,"so2":7.4,"mosquito_risk":4,"arthritis_risk":5,"migraine_risk":7,"frizz_risk":0,"updated_at":"2026-05-08T08:55:13.366215+05:30"},{"city":"Lucknow","state":"Uttar Pradesh","latitude":26.8467,"longitude":80.9462,"temp":27.3,"humidity":62,"rain":0.0,"pressure":997.3,"uv_index":8.05,"wind_gusts":26.3,"aqi":98,"pm10":58.3,"pm2_5":35.9,"no2":8.9,"co":431.0,"o3":127.0,"so2":11.4,"mosquito_risk":7,"arthritis_risk":5,"migraine_risk":7,"frizz_risk":1,"updated_at":"2026-05-08T08:55:13.366222+05:30"},{"city":"Kanpur","state":"Uttar Pradesh","latitude":26.4499,"longitude":80.3319,"temp":26.8,"humidity":68,"rain":0.0,"pressure":995.3,"uv_index":8.05,"wind_gusts":28.1,"aqi":133,"pm10":249.6,"pm2_5":44.0,"no2":6.4,"co":407.0,"o3":136.0,"so2":10.1,"mosquito_risk":7,"arthritis_risk":5,"migraine_risk":7,"frizz_risk":1,"updated_at":"2026-05-08T08:55:13.366229+05:30"},{"city":"Chandigarh","state":"Chandigarh","latitude":30.7333,"longitude":76.7794,"temp":26.5,"humidity":49,"rain":0.0,"pressure":971.9,"uv_index":7.55,"wind_gusts":35.3,"aqi":87,"pm10":68.0,"pm2_5":28.2,"no2":5.5,"co":418.0,"o3":165.0,"so2":8.9,"mosquito_risk":4,"arthritis_risk":5,"migraine_risk":7,"frizz_risk":0,"updated_at":"2026-05-08T08:55:13.366237+05:30"},{"city":"Srinagar","state":"Jammu and Kashmir","latitude":34.0837,"longitude":74.7973,"temp":16.0,"humidity":58,"rain":0.0,"pressure":843.9,"uv_index":8.8,"wind_gusts":19.4,"aqi":80,"pm10":45.8,"pm2_5":23.3,"no2":7.1,"co":427.0,"o3":107.0,"so2":4.7,"mosquito_risk":0,"arthritis_risk":5,"migraine_risk":7,"frizz_risk":0,"updated_at":"2026-05-08T08:55:13.366245+05:30"},{"city":"Jammu","state":"Jammu and Kashmir","latitude":32.7266,"longitude":74.857,"temp":27.0,"humidity":51,"rain":0.0,"pressure":975.2,"uv_index":8.35,"wind_gusts":32.8,"aqi":91,"pm10":48.2,"pm2_5":30.9,"no2":8.9,"co":323.0,"o3":157.0,"so2":6.9,"mosquito_risk":4,"arthritis_risk":5,"migraine_risk":7,"frizz_risk":0,"updated_at":"2026-05-08T08:55:13.366252+05:30"},{"city":"Amritsar","state":"Punjab","latitude":31.634,"longitude":74.8723,"temp":26.6,"humidity":56,"rain":0.0,"pressure":983.1,"uv_index":8.25,"wind_gusts":29.2,"aqi":136,"pm10":292.4,"pm2_5":65.0,"no2":4.7,"co":377.0,"o3":130.0,"so2":10.9,"mosquito_risk":4,"arthritis_risk":5,"migraine_risk":7,"frizz_risk":1,"updated_at":"2026-05-08T08:55:13.366259+05:30"},{"city":"Ludhiana","state":"Punjab","latitude":30.901,"longitude":75.8573,"temp":26.0,"humidity":62,"rain":0.0,"pressure":981.1,"uv_index":7.8,"wind_gusts":28.8,"aqi":196,"pm10":190.9,"pm2_5":51.1,"no2":7.2,"co":447.0,"o3":131.0,"so2":12.4,"mosquito_risk":7,"arthritis_risk":5,"migraine_risk":7,"frizz_risk":1,"updated_at":"2026-05-08T08:55:13.366265+05:30"},{"city":"Jalandhar","state":"Punjab","latitude":31.326,"longitude":75.5762,"temp":26.0,"humidity":60,"rain":0.0,"pressure":982.4,"uv_index":8.0,"wind_gusts":30.6,"aqi":137,"pm10":180.7,"pm2_5":50.3,"no2":6.9,"co":413.0,"o3":129.0,"so2":12.0,"mosquito_risk":4,"arthritis_risk":5,"migraine_risk":7,"frizz_risk":1,"updated_at":"2026-05-08T08:55:13.366272+05:30"},{"city":"Dehradun","state":"Uttarakhand","latitude":30.6284,"longitude":78.0322,"temp":17.5,"humidity":59,"rain":0.0,"pressure":833.2,"uv_index":7.45,"wind_gusts":23.4,"aqi":64,"pm10":26.8,"pm2_5":13.4,"no2":1.7,"co":178.0,"o3":156.0,"so2":0.6,"mosquito_risk":0,"arthritis_risk":5,"migraine_risk":7,"frizz_risk":0,"updated_at":"2026-05-08T08:55:13.366281+05:30"},{"city":"Shimla","state":"Himachal Pradesh","latitude":31.1048,"longitude":77.1734,"temp":15.4,"humidity":58,"rain":0.0,"pressure":786.5,"uv_index":7.3,"wind_gusts":22.7,"aqi":70,"pm10":59.5,"pm2_5":20.5,"no2":1.9,"co":204.0,"o3":170.0,"so2":1.6,"mosquito_risk":0,"arthritis_risk":5,"migraine_risk":7,"frizz_risk":0,"updated_at":"2026-05-08T08:55:13.366288+05:30"},{"city":"Manali","state":"Himachal Pradesh","latitude":32.2396,"longitude":77.1887,"temp":17.3,"humidity":38,"rain":0.0,"pressure":818.4,"uv_index":9.55,"wind_gusts":36.4,"aqi":52,"pm10":22.9,"pm2_5":5.2,"no2":9.1,"co":216.0,"o3":105.0,"so2":0.5,"mosquito_risk":0,"arthritis_risk":5,"migraine_risk":7,"frizz_risk":0,"updated_at":"2026-05-08T08:55:13.366294+05:30"},{"city":"Gurgaon","state":"Haryana","latitude":28.4595,"longitude":77.0266,"temp":26.0,"humidity":65,"rain":0.0,"pressure":983.8,"uv_index":7.65,"wind_gusts":38.9,"aqi":1989,"pm10":1583.2,"pm2_5":180.7,"no2":15.9,"co":504.0,"o3":123.0,"so2":26.4,"mosquito_risk":7,"arthritis_risk":5,"migraine_risk":7,"frizz_risk":1,"updated_at":"2026-05-08T08:55:13.366301+05:30"},{"city":"Noida","state":"Uttar Pradesh","latitude":28.5355,"longitude":77.391,"temp":26.3,"humidity":67,"rain":0.0,"pressure":987.3,"uv_index":7.6,"wind_gusts":33.8,"aqi":1989,"pm10":1583.2,"pm2_5":180.7,"no2":15.9,"co":509.0,"o3":123.0,"so2":26.4,"mosquito_risk":7,"arthritis_risk":5,"migraine_risk":7,"frizz_risk":1,"updated_at":"2026-05-08T08:55:13.366308+05:30"},{"city":"Ghaziabad","state":"Uttar Pradesh","latitude":28.6692,"longitude":77.4538,"temp":26.4,"humidity":66,"rain":0.0,"pressure":985.6,"uv_index":7.55,"wind_gusts":35.6,"aqi":175,"pm10":227.2,"pm2_5":42.5,"no2":6.6,"co":362.0,"o3":127.0,"so2":10.1,"mosquito_risk":7,"arthritis_risk":5,"migraine_risk":7,"frizz_risk":1,"updated_at":"2026-05-08T08:55:13.366315+05:30"},{"city":"Faridabad","state":"Haryana","latitude":28.4089,"longitude":77.3178,"temp":25.6,"humidity":69,"rain":0.0,"pressure":986.4,"uv_index":7.6,"wind_gusts":34.9,"aqi":1989,"pm10":1583.2,"pm2_5":180.7,"no2":15.9,"co":452.0,"o3":123.0,"so2":26.4,"mosquito_risk":7,"arthritis_risk":5,"migraine_risk":7,"frizz_risk":1,"updated_at":"2026-05-08T08:55:13.366323+05:30"},{"city":"Meerut","state":"Uttar Pradesh","latitude":28.9845,"longitude":77.7064,"temp":25.8,"humidity":70,"rain":0.0,"pressure":984.6,"uv_index":7.45,"wind_gusts":36.0,"aqi":175,"pm10":227.2,"pm2_5":42.5,"no2":6.6,"co":393.0,"o3":127.0,"so2":10.1,"mosquito_risk":7,"arthritis_risk":5,"migraine_risk":7,"frizz_risk":1,"updated_at":"2026-05-08T08:55:13.366329+05:30"},{"city":"Agra","state":"Uttar Pradesh","latitude":27.1767,"longitude":78.0081,"temp":26.1,"humidity":60,"rain":0.0,"pressure":990.1,"uv_index":7.9,"wind_gusts":33.8,"aqi":1292,"pm10":540.2,"pm2_5":87.8,"no2":5.9,"co":373.0,"o3":133.0,"so2":11.0,"mosquito_risk":4,"arthritis_risk":5,"migraine_risk":7,"frizz_risk":1,"updated_at":"2026-05-08T08:55:13.366336+05:30"},{"city":"Varanasi","state":"Uttar Pradesh","latitude":25.3176,"longitude":82.9739,"temp":29.8,"humidity":56,"rain":0.0,"pressure":1000.6,"uv_index":8.55,"wind_gusts":52.6,"aqi":91,"pm10":45.5,"pm2_5":35.9,"no2":9.1,"co":903.0,"o3":149.0,"so2":19.9,"mosquito_risk":4,"arthritis_risk":5,"migraine_risk":4,"frizz_risk":1,"updated_at":"2026-05-08T08:55:13.366343+05:30"},{"city":"Prayagraj","state":"Uttar Pradesh","latitude":25.4358,"longitude":81.8463,"temp":29.0,"humidity":57,"rain":0.0,"pressure":999.0,"uv_index":8.45,"wind_gusts":28.1,"aqi":91,"pm10":43.2,"pm2_5":31.5,"no2":9.0,"co":494.0,"o3":139.0,"so2":14.1,"mosquito_risk":4,"arthritis_risk":5,"migraine_risk":7,"frizz_risk":1,"updated_at":"2026-05-08T08:55:13.366351+05:30"},{"city":"Gorakhpur","state":"Uttar Pradesh","latitude":26.7606,"longitude":83.3732,"temp":27.3,"humidity":60,"rain":0.0,"pressure":1001.8,"uv_index":8.4,"wind_gusts":36.4,"aqi":106,"pm10":31.0,"pm2_5":25.6,"no2":5.5,"co":518.0,"o3":139.0,"so2":7.6,"mosquito_risk":4,"arthritis_risk":5,"migraine_risk":4,"frizz_risk":1,"updated_at":"2026-05-08T08:55:13.366358+05:30"},{"city":"Bareilly","state":"Uttar Pradesh","latitude":28.367,"longitude":79.4304,"temp":26.9,"humidity":63,"rain":0.0,"pressure":990.7,"uv_index":7.85,"wind_gusts":27.4,"aqi":86,"pm10":62.2,"pm2_5":24.4,"no2":5.4,"co":382.0,"o3":134.0,"so2":7.3,"mosquito_risk":7,"arthritis_risk":5,"migraine_risk":7,"frizz_risk":1,"updated_at":"2026-05-08T08:55:13.366364+05:30"},{"city":"Aligarh","state":"Uttar Pradesh","latitude":27.8974,"longitude":78.088,"temp":26.3,"humidity":63,"rain":0.0,"pressure":988.6,"uv_index":7.7,"wind_gusts":35.6,"aqi":764,"pm10":696.6,"pm2_5":89.9,"no2":7.0,"co":345.0,"o3":126.0,"so2":19.8,"mosquito_risk":7,"arthritis_risk":5,"migraine_risk":7,"frizz_risk":1,"updated_at":"2026-05-08T08:55:13.366371+05:30"},{"city":"Moradabad","state":"Uttar Pradesh","latitude":28.8386,"longitude":78.7733,"temp":26.1,"humidity":67,"rain":0.0,"pressure":987.5,"uv_index":7.65,"wind_gusts":31.0,"aqi":92,"pm10":37.1,"pm2_5":26.3,"no2":6.9,"co":383.0,"o3":130.0,"so2":7.0,"mosquito_risk":7,"arthritis_risk":5,"migraine_risk":7,"frizz_risk":1,"updated_at":"2026-05-08T08:55:13.366377+05:30"},{"city":"Saharanpur","state":"Uttar Pradesh","latitude":29.9637,"longitude":77.546,"temp":25.2,"humidity":66,"rain":0.0,"pressure":979.0,"uv_index":7.25,"wind_gusts":31.7,"aqi":113,"pm10":66.4,"pm2_5":38.8,"no2":7.2,"co":380.0,"o3":148.0,"so2":10.5,"mosquito_risk":7,"arthritis_risk":5,"migraine_risk":7,"frizz_risk":1,"updated_at":"2026-05-08T08:55:13.366383+05:30"},{"city":"Jhansi","state":"Uttar Pradesh","latitude":25.4484,"longitude":78.5685,"temp":26.2,"humidity":56,"rain":0.0,"pressure":980.0,"uv_index":8.35,"wind_gusts":33.1,"aqi":64,"pm10":34.7,"pm2_5":22.9,"no2":3.9,"co":271.0,"o3":123.0,"so2":14.6,"mosquito_risk":4,"arthritis_risk":5,"migraine_risk":7,"frizz_risk":1,"updated_at":"2026-05-08T08:55:16.590373+05:30"},{"city":"Surat","state":"Gujarat","latitude":21.1702,"longitude":72.8311,"temp":31.5,"humidity":70,"rain":0.0,"pressure":1006.6,"uv_index":7.7,"wind_gusts":35.6,"aqi":130,"pm10":73.3,"pm2_5":53.1,"no2":45.0,"co":307.0,"o3":30.0,"so2":142.6,"mosquito_risk":3,"arthritis_risk":5,"migraine_risk":4,"frizz_risk":1,"updated_at":"2026-05-08T08:55:16.590399+05:30"},{"city":"Vadodara","state":"Gujarat","latitude":22.3072,"longitude":73.1812,"temp":32.3,"humidity":28,"rain":0.0,"pressure":1004.2,"uv_index":8.05,"wind_gusts":31.3,"aqi":99,"pm10":37.0,"pm2_5":23.1,"no2":11.6,"co":426.0,"o3":77.0,"so2":9.9,"mosquito_risk":0,"arthritis_risk":5,"migraine_risk":4,"frizz_risk":0,"updated_at":"2026-05-08T08:55:16.590408+05:30"},{"city":"Rajkot","state":"Gujarat","latitude":22.3039,"longitude":70.8022,"temp":28.5,"humidity":70,"rain":0.0,"pressure":994.3,"uv_index":7.7,"wind_gusts":46.8,"aqi":60,"pm10":32.6,"pm2_5":14.6,"no2":5.0,"co":197.0,"o3":64.0,"so2":6.7,"mosquito_risk":7,"arthritis_risk":5,"migraine_risk":7,"frizz_risk":1,"updated_at":"2026-05-08T08:55:16.590416+05:30"},{"city":"Thane","state":"Maharashtra","latitude":19.2183,"longitude":72.9781,"temp":30.9,"humidity":65,"rain":0.0,"pressure":1008.0,"uv_index":7.85,"wind_gusts":42.1,"aqi":93,"pm10":83.8,"pm2_5":29.7,"no2":16.3,"co":252.0,"o3":73.0,"so2":28.9,"mosquito_risk":3,"arthritis_risk":0,"migraine_risk":4,"frizz_risk":1,"updated_at":"2026-05-08T08:55:16.590422+05:30"},{"city":"Nagpur","state":"Maharashtra","latitude":21.1458,"longitude":79.0882,"temp":31.2,"humidity":45,"rain":0.0,"pressure":976.3,"uv_index":8.9,"wind_gusts":34.6,"aqi":139,"pm10":48.3,"pm2_5":39.2,"no2":13.2,"co":310.0,"o3":153.0,"so2":15.6,"mosquito_risk":0,"arthritis_risk":5,"migraine_risk":7,"frizz_risk":1,"updated_at":"2026-05-08T08:55:16.590429+05:30"},{"city":"Nashik","state":"Maharashtra","latitude":19.9975,"longitude":73.7898,"temp":28.9,"humidity":51,"rain":0.0,"pressure":946.9,"uv_index":8.15,"wind_gusts":41.0,"aqi":98,"pm10":100.4,"pm2_5":29.2,"no2":5.2,"co":284.0,"o3":119.0,"so2":5.5,"mosquito_risk":4,"arthritis_risk":5,"migraine_risk":7,"frizz_risk":1,"updated_at":"2026-05-08T08:55:16.590435+05:30"},{"city":"Aurangabad","state":"Maharashtra","latitude":19.8762,"longitude":75.3433,"temp":30.5,"humidity":40,"rain":0.0,"pressure":946.0,"uv_index":9.0,"wind_gusts":30.6,"aqi":83,"pm10":63.8,"pm2_5":31.1,"no2":5.6,"co":300.0,"o3":135.0,"so2":18.4,"mosquito_risk":0,"arthritis_risk":5,"migraine_risk":7,"frizz_risk":0,"updated_at":"2026-05-08T08:55:16.590442+05:30"},{"city":"Solapur","state":"Maharashtra","latitude":17.6599,"longitude":75.9064,"temp":29.6,"humidity":48,"rain":0.0,"pressure":959.0,"uv_index":9.05,"wind_gusts":32.4,"aqi":90,"pm10":22.3,"pm2_5":17.3,"no2":5.8,"co":240.0,"o3":104.0,"so2":7.0,"mosquito_risk":4,"arthritis_risk":5,"migraine_risk":7,"frizz_risk":1,"updated_at":"2026-05-08T08:55:16.590448+05:30"},{"city":"Kolhapur","state":"Maharashtra","latitude":16.705,"longitude":74.2433,"temp":28.0,"humidity":50,"rain":0.0,"pressure":949.0,"uv_index":8.9,"wind_gusts":46.8,"aqi":132,"pm10":69.8,"pm2_5":50.9,"no2":13.3,"co":347.0,"o3":122.0,"so2":8.1,"mosquito_risk":4,"arthritis_risk":5,"migraine_risk":7,"frizz_risk":1,"updated_at":"2026-05-08T08:55:16.590454+05:30"},{"city":"Goa","state":"Goa","latitude":15.2993,"longitude":74.124,"temp":28.5,"humidity":79,"rain":0.0,"pressure":998.0,"uv_index":8.9,"wind_gusts":41.0,"aqi":106,"pm10":67.3,"pm2_5":41.8,"no2":5.6,"co":234.0,"o3":107.0,"so2":5.7,"mosquito_risk":7,"arthritis_risk":5,"migraine_risk":7,"frizz_risk":1,"updated_at":"2026-05-08T08:55:16.590461+05:30"},{"city":"Jodhpur","state":"Rajasthan","latitude":26.2389,"longitude":73.0243,"temp":31.5,"humidity":36,"rain":0.0,"pressure":982.9,"uv_index":8.3,"wind_gusts":36.0,"aqi":120,"pm10":341.8,"pm2_5":62.4,"no2":3.2,"co":211.0,"o3":81.0,"so2":3.0,"mosquito_risk":0,"arthritis_risk":5,"migraine_risk":7,"frizz_risk":0,"updated_at":"2026-05-08T08:55:16.590467+05:30"},{"city":"Udaipur","state":"Rajasthan","latitude":24.5854,"longitude":73.7125,"temp":31.2,"humidity":32,"rain":0.0,"pressure":946.9,"uv_index":8.75,"wind_gusts":32.0,"aqi":67,"pm10":47.7,"pm2_5":14.6,"no2":2.5,"co":219.0,"o3":109.0,"so2":2.6,"mosquito_risk":0,"arthritis_risk":5,"migraine_risk":7,"frizz_risk":0,"updated_at":"2026-05-08T08:55:16.590473+05:30"},{"city":"Kota","state":"Rajasthan","latitude":25.2138,"longitude":75.8648,"temp":31.7,"humidity":35,"rain":0.0,"pressure":979.4,"uv_index":8.35,"wind_gusts":37.4,"aqi":71,"pm10":56.0,"pm2_5":25.7,"no2":5.2,"co":321.0,"o3":100.0,"so2":5.1,"mosquito_risk":0,"arthritis_risk":5,"migraine_risk":7,"frizz_risk":0,"updated_at":"2026-05-08T08:55:16.590479+05:30"},{"city":"Bikaner","state":"Rajasthan","latitude":28.0229,"longitude":73.3119,"temp":28.7,"humidity":37,"rain":0.0,"pressure":981.5,"uv_index":8.25,"wind_gusts":31.0,"aqi":62,"pm10":40.9,"pm2_5":24.6,"no2":2.7,"co":413.0,"o3":109.0,"so2":7.0,"mosquito_risk":4,"arthritis_risk":5,"migraine_risk":7,"frizz_risk":0,"updated_at":"2026-05-08T08:55:16.590486+05:30"},{"city":"Ajmer","state":"Rajasthan","latitude":26.4499,"longitude":74.6399,"temp":30.0,"humidity":27,"rain":0.0,"pressure":954.7,"uv_index":8.25,"wind_gusts":69.8,"aqi":63,"pm10":50.3,"pm2_5":16.9,"no2":3.0,"co":210.0,"o3":98.0,"so2":6.1,"mosquito_risk":4,"arthritis_risk":5,"migraine_risk":7,"frizz_risk":0,"updated_at":"2026-05-08T08:55:16.590492+05:30"},{"city":"Gwalior","state":"Madhya Pradesh","latitude":26.2183,"longitude":78.1828,"temp":26.1,"humidity":61,"rain":0.0,"pressure":985.3,"uv_index":8.15,"wind_gusts":36.0,"aqi":83,"pm10":44.7,"pm2_5":27.4,"no2":3.1,"co":284.0,"o3":127.0,"so2":9.9,"mosquito_risk":7,"arthritis_risk":5,"migraine_risk":7,"frizz_risk":1,"updated_at":"2026-05-08T08:55:16.590498+05:30"},{"city":"Indore","state":"Madhya Pradesh","latitude":22.7196,"longitude":75.8577,"temp":31.9,"humidity":28,"rain":0.0,"pressure":949.2,"uv_index":8.65,"wind_gusts":24.1,"aqi":73,"pm10":63.1,"pm2_5":26.4,"no2":5.7,"co":389.0,"o3":122.0,"so2":7.2,"mosquito_risk":0,"arthritis_risk":5,"migraine_risk":7,"frizz_risk":0,"updated_at":"2026-05-08T08:55:16.590504+05:30"},{"city":"Bhopal","state":"Madhya Pradesh","latitude":23.2599,"longitude":77.4126,"temp":31.5,"humidity":33,"rain":0.0,"pressure":954.9,"uv_index":8.65,"wind_gusts":40.7,"aqi":66,"pm10":42.6,"pm2_5":28.9,"no2":3.1,"co":408.0,"o3":144.0,"so2":10.9,"mosquito_risk":0,"arthritis_risk":5,"migraine_risk":7,"frizz_risk":0,"updated_at":"2026-05-08T08:55:16.590509+05:30"},{"city":"Jabalpur","state":"Madhya Pradesh","latitude":23.1815,"longitude":79.9864,"temp":32.3,"humidity":31,"rain":0.0,"pressure":963.3,"uv_index":8.8,"wind_gusts":44.6,"aqi":55,"pm10":33.2,"pm2_5":25.2,"no2":4.4,"co":234.0,"o3":161.0,"so2":6.7,"mosquito_risk":0,"arthritis_risk":5,"migraine_risk":7,"frizz_risk":0,"updated_at":"2026-05-08T08:55:16.590515+05:30"},{"city":"Ujjain","state":"Madhya Pradesh","latitude":23.1765,"longitude":75.7885,"temp":32.1,"humidity":26,"rain":0.0,"pressure":954.7,"uv_index":8.55,"wind_gusts":26.3,"aqi":71,"pm10":70.5,"pm2_5":29.1,"no2":4.4,"co":256.0,"o3":112.0,"so2":5.8,"mosquito_risk":0,"arthritis_risk":5,"migraine_risk":7,"frizz_risk":0,"updated_at":"2026-05-08T08:55:16.590522+05:30"},{"city":"Visakhapatnam","state":"Andhra Pradesh","latitude":17.6868,"longitude":83.2185,"temp":30.5,"humidity":67,"rain":0.0,"pressure":1006.4,"uv_index":9.15,"wind_gusts":35.3,"aqi":65,"pm10":25.3,"pm2_5":22.3,"no2":20.6,"co":1261.0,"o3":27.0,"so2":21.5,"mosquito_risk":3,"arthritis_risk":5,"migraine_risk":4,"frizz_risk":1,"updated_at":"2026-05-08T08:55:16.590528+05:30"},{"city":"Vijayawada","state":"Andhra Pradesh","latitude":16.5062,"longitude":80.648,"temp":31.9,"humidity":62,"rain":0.0,"pressure":1004.7,"uv_index":9.2,"wind_gusts":43.2,"aqi":51,"pm10":11.9,"pm2_5":9.7,"no2":4.3,"co":157.0,"o3":44.0,"so2":6.9,"mosquito_risk":3,"arthritis_risk":5,"migraine_risk":4,"frizz_risk":1,"updated_at":"2026-05-08T08:55:16.590533+05:30"},{"city":"Guntur","state":"Andhra Pradesh","latitude":16.3067,"longitude":80.4365,"temp":32.1,"humidity":60,"rain":0.0,"pressure":1005.8,"uv_index":9.2,"wind_gusts":40.7,"aqi":51,"pm10":11.5,"pm2_5":9.3,"no2":4.4,"co":167.0,"o3":45.0,"so2":7.1,"mosquito_risk":0,"arthritis_risk":5,"migraine_risk":4,"frizz_risk":1,"updated_at":"2026-05-08T08:55:16.590539+05:30"},{"city":"Nellore","state":"Andhra Pradesh","latitude":14.4426,"longitude":79.9865,"temp":30.1,"humidity":68,"rain":0.0,"pressure":1007.6,"uv_index":9.2,"wind_gusts":40.7,"aqi":26,"pm10":7.2,"pm2_5":5.1,"no2":2.4,"co":135.0,"o3":48.0,"so2":2.9,"mosquito_risk":3,"arthritis_risk":5,"migraine_risk":4,"frizz_risk":1,"updated_at":"2026-05-08T08:55:16.590546+05:30"},{"city":"Kurnool","state":"Andhra Pradesh","latitude":15.8281,"longitude":78.0373,"temp":30.8,"humidity":57,"rain":0.0,"pressure":978.9,"uv_index":9.15,"wind_gusts":46.1,"aqi":42,"pm10":6.1,"pm2_5":4.6,"no2":1.9,"co":145.0,"o3":51.0,"so2":1.6,"mosquito_risk":0,"arthritis_risk":5,"migraine_risk":7,"frizz_risk":1,"updated_at":"2026-05-08T08:55:16.590553+05:30"},{"city":"Kakinada","state":"Andhra Pradesh","latitude":16.9891,"longitude":82.2475,"temp":29.5,"humidity":73,"rain":0.0,"pressure":1009.8,"uv_index":9.15,"wind_gusts":42.1,"aqi":28,"pm10":8.9,"pm2_5":6.1,"no2":1.0,"co":156.0,"o3":50.0,"so2":0.6,"mosquito_risk":7,"arthritis_risk":0,"migraine_risk":4,"frizz_risk":1,"updated_at":"2026-05-08T08:55:16.590559+05:30"},{"city":"Tirupati","state":"Andhra Pradesh","latitude":13.6288,"longitude":79.4192,"temp":27.0,"humidity":76,"rain":0.0,"pressure":992.8,"uv_index":8.25,"wind_gusts":41.8,"aqi":37,"pm10":6.3,"pm2_5":4.9,"no2":2.6,"co":150.0,"o3":49.0,"so2":1.1,"mosquito_risk":7,"arthritis_risk":5,"migraine_risk":7,"frizz_risk":1,"updated_at":"2026-05-08T08:55:16.590565+05:30"},{"city":"Warangal","state":"Telangana","latitude":17.9689,"longitude":79.5941,"temp":30.5,"humidity":58,"rain":0.0,"pressure":981.2,"uv_index":9.15,"wind_gusts":32.8,"aqi":64,"pm10":10.9,"pm2_5":9.6,"no2":5.7,"co":203.0,"o3":51.0,"so2":11.1,"mosquito_risk":0,"arthritis_risk":5,"migraine_risk":7,"frizz_risk":1,"updated_at":"2026-05-08T08:55:16.590571+05:30"},{"city":"Nizamabad","state":"Telangana","latitude":18.6725,"longitude":78.0941,"temp":30.8,"humidity":49,"rain":0.0,"pressure":967.2,"uv_index":9.05,"wind_gusts":32.8,"aqi":86,"pm10":19.9,"pm2_5":17.3,"no2":6.3,"co":267.0,"o3":91.0,"so2":7.9,"mosquito_risk":0,"arthritis_risk":5,"migraine_risk":7,"frizz_risk":1,"updated_at":"2026-05-08T08:55:16.590577+05:30"},{"city":"Mysore","state":"Karnataka","latitude":12.2958,"longitude":76.6396,"temp":26.5,"humidity":68,"rain":0.0,"pressure":929.3,"uv_index":9.35,"wind_gusts":33.8,"aqi":79,"pm10":19.6,"pm2_5":18.7,"no2":7.3,"co":313.0,"o3":92.0,"so2":10.1,"mosquito_risk":7,"arthritis_risk":5,"migraine_risk":7,"frizz_risk":1,"updated_at":"2026-05-08T08:55:16.590583+05:30"},{"city":"Mangalore","state":"Karnataka","latitude":12.9141,"longitude":74.856,"temp":28.1,"humidity":78,"rain":0.0,"pressure":1006.7,"uv_index":9.0,"wind_gusts":36.0,"aqi":72,"pm10":46.4,"pm2_5":27.1,"no2":4.8,"co":266.0,"o3":105.0,"so2":3.3,"mosquito_risk":7,"arthritis_risk":5,"migraine_risk":4,"frizz_risk":1,"updated_at":"2026-05-08T08:55:16.590588+05:30"},{"city":"Hubli-Dharwad","state":"Karnataka","latitude":15.3647,"longitude":75.124,"temp":28.1,"humidity":51,"rain":0.0,"pressure":942.0,"uv_index":9.05,"wind_gusts":38.2,"aqi":92,"pm10":29.0,"pm2_5":25.6,"no2":8.8,"co":288.0,"o3":97.0,"so2":8.0,"mosquito_risk":4,"arthritis_risk":5,"migraine_risk":7,"frizz_risk":1,"updated_at":"2026-05-08T08:55:16.590595+05:30"},{"city":"Belgaum","state":"Karnataka","latitude":15.8497,"longitude":74.4977,"temp":27.5,"humidity":48,"rain":0.0,"pressure":927.1,"uv_index":8.9,"wind_gusts":36.7,"aqi":99,"pm10":45.3,"pm2_5":34.5,"no2":8.0,"co":274.0,"o3":115.0,"so2":7.3,"mosquito_risk":4,"arthritis_risk":5,"migraine_risk":7,"frizz_risk":0,"updated_at":"2026-05-08T08:55:19.814641+05:30"},{"city":"Coimbatore","state":"Tamil Nadu","latitude":11.0168,"longitude":76.9558,"temp":26.6,"humidity":77,"rain":0.0,"pressure":962.1,"uv_index":9.25,"wind_gusts":34.6,"aqi":65,"pm10":14.7,"pm2_5":13.9,"no2":5.7,"co":278.0,"o3":99.0,"so2":9.3,"mosquito_risk":7,"arthritis_risk":5,"migraine_risk":7,"frizz_risk":1,"updated_at":"2026-05-08T08:55:19.814663+05:30"},{"city":"Madurai","state":"Tamil Nadu","latitude":9.9252,"longitude":78.1198,"temp":28.2,"humidity":78,"rain":0.0,"pressure":993.1,"uv_index":8.4,"wind_gusts":43.2,"aqi":55,"pm10":10.2,"pm2_5":9.7,"no2":9.1,"co":331.0,"o3":77.0,"so2":5.5,"mosquito_risk":7,"arthritis_risk":5,"migraine_risk":7,"frizz_risk":1,"updated_at":"2026-05-08T08:55:19.814673+05:30"},{"city":"Trichy","state":"Tamil Nadu","latitude":10.7905,"longitude":78.7047,"temp":27.5,"humidity":80,"rain":0.0,"pressure":1000.3,"uv_index":8.45,"wind_gusts":35.6,"aqi":49,"pm10":7.9,"pm2_5":7.2,"no2":10.8,"co":249.0,"o3":35.0,"so2":19.6,"mosquito_risk":7,"arthritis_risk":5,"migraine_risk":4,"frizz_risk":1,"updated_at":"2026-05-08T08:55:19.814681+05:30"},{"city":"Salem","state":"Tamil Nadu","latitude":11.6643,"longitude":78.146,"temp":27.1,"humidity":77,"rain":0.0,"pressure":978.0,"uv_index":7.15,"wind_gusts":38.5,"aqi":68,"pm10":15.0,"pm2_5":14.5,"no2":12.5,"co":255.0,"o3":65.0,"so2":27.3,"mosquito_risk":7,"arthritis_risk":5,"migraine_risk":7,"frizz_risk":1,"updated_at":"2026-05-08T08:55:19.814687+05:30"},{"city":"Tirunelveli","state":"Tamil Nadu","latitude":8.7139,"longitude":77.7567,"temp":29.8,"humidity":67,"rain":0.0,"pressure":1003.2,"uv_index":7.95,"wind_gusts":35.3,"aqi":59,"pm10":8.5,"pm2_5":7.9,"no2":4.7,"co":245.0,"o3":82.0,"so2":2.5,"mosquito_risk":7,"arthritis_risk":5,"migraine_risk":4,"frizz_risk":1,"updated_at":"2026-05-08T08:55:19.814694+05:30"},{"city":"Vellore","state":"Tamil Nadu","latitude":12.9165,"longitude":79.1325,"temp":27.1,"humidity":75,"rain":0.0,"pressure":986.1,"uv_index":7.95,"wind_gusts":48.2,"aqi":43,"pm10":10.4,"pm2_5":8.7,"no2":7.5,"co":198.0,"o3":42.0,"so2":11.6,"mosquito_risk":7,"arthritis_risk":5,"migraine_risk":7,"frizz_risk":1,"updated_at":"2026-05-08T08:55:19.814700+05:30"},{"city":"Erode","state":"Tamil Nadu","latitude":11.341,"longitude":77.7172,"temp":27.2,"humidity":77,"rain":0.0,"pressure":989.9,"uv_index":8.9,"wind_gusts":36.7,"aqi":54,"pm10":13.4,"pm2_5":13.0,"no2":8.7,"co":294.0,"o3":79.0,"so2":11.4,"mosquito_risk":7,"arthritis_risk":5,"migraine_risk":7,"frizz_risk":1,"updated_at":"2026-05-08T08:55:19.814706+05:30"},{"city":"Kochi","state":"Kerala","latitude":9.9312,"longitude":76.2673,"temp":27.8,"humidity":83,"rain":0.0,"pressure":1007.5,"uv_index":8.9,"wind_gusts":28.4,"aqi":61,"pm10":19.3,"pm2_5":17.4,"no2":10.1,"co":372.0,"o3":84.0,"so2":4.5,"mosquito_risk":7,"arthritis_risk":5,"migraine_risk":4,"frizz_risk":1,"updated_at":"2026-05-08T08:55:19.814712+05:30"},{"city":"Thiruvananthapuram","state":"Kerala","latitude":8.5241,"longitude":76.9366,"temp":27.4,"humidity":84,"rain":0.0,"pressure":1006.8,"uv_index":8.75,"wind_gusts":25.6,"aqi":52,"pm10":11.7,"pm2_5":9.9,"no2":5.8,"co":378.0,"o3":94.0,"so2":3.9,"mosquito_risk":7,"arthritis_risk":5,"migraine_risk":4,"frizz_risk":1,"updated_at":"2026-05-08T08:55:19.814719+05:30"},{"city":"Kozhikode","state":"Kerala","latitude":11.2588,"longitude":75.7804,"temp":28.1,"humidity":85,"rain":0.0,"pressure":1007.7,"uv_index":8.7,"wind_gusts":30.2,"aqi":65,"pm10":31.9,"pm2_5":25.1,"no2":3.8,"co":377.0,"o3":123.0,"so2":5.2,"mosquito_risk":7,"arthritis_risk":5,"migraine_risk":4,"frizz_risk":1,"updated_at":"2026-05-08T08:55:19.814725+05:30"},{"city":"Thrissur","state":"Kerala","latitude":10.5276,"longitude":76.2144,"temp":28.5,"humidity":83,"rain":0.0,"pressure":1006.1,"uv_index":8.95,"wind_gusts":27.0,"aqi":70,"pm10":23.2,"pm2_5":21.7,"no2":7.8,"co":337.0,"o3":82.0,"so2":4.6,"mosquito_risk":7,"arthritis_risk":5,"migraine_risk":4,"frizz_risk":1,"updated_at":"2026-05-08T08:55:19.814732+05:30"},{"city":"Kannur","state":"Kerala","latitude":11.8745,"longitude":75.3704,"temp":29.1,"humidity":74,"rain":0.0,"pressure":1007.2,"uv_index":9.0,"wind_gusts":37.4,"aqi":73,"pm10":42.5,"pm2_5":27.7,"no2":5.3,"co":288.0,"o3":101.0,"so2":2.5,"mosquito_risk":7,"arthritis_risk":5,"migraine_risk":4,"frizz_risk":1,"updated_at":"2026-05-08T08:55:19.814738+05:30"},{"city":"Patna","state":"Bihar","latitude":25.5941,"longitude":85.1376,"temp":27.8,"humidity":68,"rain":0.0,"pressure":1004.6,"uv_index":8.7,"wind_gusts":34.9,"aqi":121,"pm10":48.5,"pm2_5":42.6,"no2":10.3,"co":495.0,"o3":157.0,"so2":20.0,"mosquito_risk":7,"arthritis_risk":5,"migraine_risk":4,"frizz_risk":1,"updated_at":"2026-05-08T08:55:19.814744+05:30"},{"city":"Gaya","state":"Bihar","latitude":24.7914,"longitude":85.0002,"temp":30.5,"humidity":53,"rain":0.0,"pressure":997.0,"uv_index":8.75,"wind_gusts":46.4,"aqi":118,"pm10":55.3,"pm2_5":49.2,"no2":6.7,"co":701.0,"o3":169.0,"so2":27.5,"mosquito_risk":0,"arthritis_risk":5,"migraine_risk":7,"frizz_risk":1,"updated_at":"2026-05-08T08:55:19.814751+05:30"},{"city":"Muzaffarpur","state":"Bihar","latitude":26.1209,"longitude":85.3647,"temp":25.5,"humidity":71,"rain":0.0,"pressure":1005.4,"uv_index":8.45,"wind_gusts":32.4,"aqi":125,"pm10":42.8,"pm2_5":38.2,"no2":9.7,"co":554.0,"o3":147.0,"so2":14.3,"mosquito_risk":7,"arthritis_risk":5,"migraine_risk":4,"frizz_risk":1,"updated_at":"2026-05-08T08:55:19.814757+05:30"},{"city":"Bhagalpur","state":"Bihar","latitude":25.2425,"longitude":87.0117,"temp":28.0,"humidity":67,"rain":0.0,"pressure":1005.8,"uv_index":8.7,"wind_gusts":28.4,"aqi":157,"pm10":59.1,"pm2_5":52.4,"no2":8.6,"co":352.0,"o3":164.0,"so2":17.3,"mosquito_risk":7,"arthritis_risk":5,"migraine_risk":4,"frizz_risk":1,"updated_at":"2026-05-08T08:55:19.814763+05:30"},{"city":"Ranchi","state":"Jharkhand","latitude":23.3441,"longitude":85.3096,"temp":26.8,"humidity":62,"rain":0.0,"pressure":941.6,"uv_index":9.2,"wind_gusts":53.6,"aqi":103,"pm10":27.9,"pm2_5":23.6,"no2":3.9,"co":282.0,"o3":127.0,"so2":19.2,"mosquito_risk":7,"arthritis_risk":5,"migraine_risk":7,"frizz_risk":1,"updated_at":"2026-05-08T08:55:19.814769+05:30"},{"city":"Jamshedpur","state":"Jharkhand","latitude":22.8046,"longitude":86.2029,"temp":29.4,"humidity":60,"rain":0.0,"pressure":994.8,"uv_index":8.9,"wind_gusts":44.3,"aqi":130,"pm10":35.9,"pm2_5":32.5,"no2":13.3,"co":644.0,"o3":105.0,"so2":33.1,"mosquito_risk":4,"arthritis_risk":5,"migraine_risk":7,"frizz_risk":1,"updated_at":"2026-05-08T08:55:19.814775+05:30"},{"city":"Dhanbad","state":"Jharkhand","latitude":23.7957,"longitude":86.4304,"temp":27.8,"humidity":69,"rain":0.0,"pressure":983.8,"uv_index":9.0,"wind_gusts":43.6,"aqi":168,"pm10":85.7,"pm2_5":81.5,"no2":51.6,"co":1839.0,"o3":93.0,"so2":123.8,"mosquito_risk":7,"arthritis_risk":5,"migraine_risk":7,"frizz_risk":1,"updated_at":"2026-05-08T08:55:19.814781+05:30"},{"city":"Bokaro","state":"Jharkhand","latitude":23.6693,"longitude":86.1511,"temp":29.1,"humidity":62,"rain":0.0,"pressure":987.6,"uv_index":9.0,"wind_gusts":42.5,"aqi":162,"pm10":75.9,"pm2_5":71.2,"no2":39.0,"co":3302.0,"o3":114.0,"so2":106.3,"mosquito_risk":7,"arthritis_risk":5,"migraine_risk":7,"frizz_risk":1,"updated_at":"2026-05-08T08:55:19.814788+05:30"},{"city":"Bhubaneswar","state":"Odisha","latitude":20.2961,"longitude":85.8245,"temp":29.6,"humidity":75,"rain":0.0,"pressure":1006.0,"uv_index":8.75,"wind_gusts":31.0,"aqi":50,"pm10":9.9,"pm2_5":7.0,"no2":2.7,"co":176.0,"o3":48.0,"so2":3.8,"mosquito_risk":7,"arthritis_risk":5,"migraine_risk":4,"frizz_risk":1,"updated_at":"2026-05-08T08:55:19.814794+05:30"},{"city":"Cuttack","state":"Odisha","latitude":20.4625,"longitude":85.8828,"temp":30.0,"humidity":73,"rain":0.0,"pressure":1007.8,"uv_index":9.0,"wind_gusts":30.2,"aqi":50,"pm10":9.9,"pm2_5":7.0,"no2":2.7,"co":190.0,"o3":48.0,"so2":3.8,"mosquito_risk":7,"arthritis_risk":5,"migraine_risk":4,"frizz_risk":1,"updated_at":"2026-05-08T08:55:19.814800+05:30"},{"city":"Rourkela","state":"Odisha","latitude":22.2604,"longitude":84.8536,"temp":30.0,"humidity":61,"rain":0.0,"pressure":989.0,"uv_index":8.7,"wind_gusts":45.4,"aqi":111,"pm10":41.0,"pm2_5":36.8,"no2":11.3,"co":679.0,"o3":143.0,"so2":70.8,"mosquito_risk":7,"arthritis_risk":5,"migraine_risk":7,"frizz_risk":1,"updated_at":"2026-05-08T08:55:19.814806+05:30"},{"city":"Raipur","state":"Chhattisgarh","latitude":21.2514,"longitude":81.6296,"temp":31.7,"humidity":34,"rain":0.0,"pressure":977.7,"uv_index":8.95,"wind_gusts":28.8,"aqi":116,"pm10":54.1,"pm2_5":48.7,"no2":35.2,"co":350.0,"o3":133.0,"so2":11.4,"mosquito_risk":0,"arthritis_risk":5,"migraine_risk":7,"frizz_risk":0,"updated_at":"2026-05-08T08:55:19.814812+05:30"},{"city":"Bhilai","state":"Chhattisgarh","latitude":21.1938,"longitude":81.3509,"temp":30.9,"humidity":33,"rain":0.0,"pressure":978.3,"uv_index":8.95,"wind_gusts":27.4,"aqi":98,"pm10":62.2,"pm2_5":56.3,"no2":62.0,"co":317.0,"o3":104.0,"so2":14.8,"mosquito_risk":0,"arthritis_risk":5,"migraine_risk":7,"frizz_risk":0,"updated_at":"2026-05-08T08:55:19.814819+05:30"},{"city":"Guwahati","state":"Assam","latitude":26.1158,"longitude":91.7086,"temp":25.4,"humidity":77,"rain":0.0,"pressure":1007.4,"uv_index":8.65,"wind_gusts":24.5,"aqi":102,"pm10":38.1,"pm2_5":29.2,"no2":2.0,"co":360.0,"o3":150.0,"so2":3.4,"mosquito_risk":7,"arthritis_risk":5,"migraine_risk":4,"frizz_risk":1,"updated_at":"2026-05-08T08:55:19.814825+05:30"},{"city":"Agartala","state":"Tripura","latitude":23.8315,"longitude":91.2868,"temp":28.9,"humidity":73,"rain":0.0,"pressure":1010.6,"uv_index":8.85,"wind_gusts":19.4,"aqi":154,"pm10":40.4,"pm2_5":36.4,"no2":7.2,"co":332.0,"o3":177.0,"so2":4.3,"mosquito_risk":7,"arthritis_risk":0,"migraine_risk":4,"frizz_risk":1,"updated_at":"2026-05-08T08:55:19.814831+05:30"},{"city":"Shillong","state":"Meghalaya","latitude":25.5788,"longitude":91.8933,"temp":21.6,"humidity":50,"rain":0.0,"pressure":862.1,"uv_index":8.9,"wind_gusts":19.1,"aqi":82,"pm10":31.1,"pm2_5":21.4,"no2":1.0,"co":268.0,"o3":150.0,"so2":2.6,"mosquito_risk":0,"arthritis_risk":5,"migraine_risk":7,"frizz_risk":0,"updated_at":"2026-05-08T08:55:19.814837+05:30"},{"city":"Imphal","state":"Manipur","latitude":24.817,"longitude":93.9368,"temp":25.1,"humidity":66,"rain":0.0,"pressure":927.8,"uv_index":9.2,"wind_gusts":29.5,"aqi":117,"pm10":24.2,"pm2_5":18.3,"no2":1.4,"co":288.0,"o3":138.0,"so2":2.8,"mosquito_risk":7,"arthritis_risk":5,"migraine_risk":7,"frizz_risk":1,"updated_at":"2026-05-08T08:55:19.814843+05:30"},{"city":"Aizawl","state":"Mizoram","latitude":23.7271,"longitude":92.7176,"temp":24.4,"humidity":58,"rain":0.0,"pressure":897.2,"uv_index":9.05,"wind_gusts":24.5,"aqi":78,"pm10":27.5,"pm2_5":19.8,"no2":0.8,"co":212.0,"o3":107.0,"so2":1.0,"mosquito_risk":0,"arthritis_risk":5,"migraine_risk":7,"frizz_risk":0,"updated_at":"2026-05-08T08:55:19.814850+05:30"},{"city":"Kohima","state":"Nagaland","latitude":25.6701,"longitude":94.1077,"temp":22.2,"humidity":61,"rain":0.1,"pressure":860.6,"uv_index":9.15,"wind_gusts":30.2,"aqi":88,"pm10":31.0,"pm2_5":21.0,"no2":0.8,"co":222.0,"o3":133.0,"so2":2.2,"mosquito_risk":6,"arthritis_risk":5,"migraine_risk":7,"frizz_risk":0,"updated_at":"2026-05-08T08:55:19.814856+05:30"},{"city":"Gangtok","state":"Sikkim","latitude":27.3314,"longitude":88.6138,"temp":17.7,"humidity":50,"rain":0.0,"pressure":842.1,"uv_index":9.0,"wind_gusts":38.9,"aqi":70,"pm10":29.2,"pm2_5":17.9,"no2":1.6,"co":271.0,"o3":129.0,"so2":0.7,"mosquito_risk":0,"arthritis_risk":5,"migraine_risk":7,"frizz_risk":0,"updated_at":"2026-05-08T08:55:19.814884+05:30"},{"city":"Siliguri","state":"West Bengal","latitude":26.7271,"longitude":88.3953,"temp":26.8,"humidity":64,"rain":0.0,"pressure":997.8,"uv_index":8.6,"wind_gusts":24.1,"aqi":113,"pm10":41.3,"pm2_5":28.3,"no2":4.0,"co":546.0,"o3":141.0,"so2":3.4,"mosquito_risk":7,"arthritis_risk":5,"migraine_risk":7,"frizz_risk":1,"updated_at":"2026-05-08T08:55:23.050344+05:30"},{"city":"Durgapur","state":"West Bengal","latitude":23.5204,"longitude":87.3119,"temp":27.5,"humidity":79,"rain":0.0,"pressure":999.0,"uv_index":8.65,"wind_gusts":49.0,"aqi":163,"pm10":82.4,"pm2_5":78.9,"no2":36.7,"co":520.0,"o3":114.0,"so2":91.5,"mosquito_risk":7,"arthritis_risk":5,"migraine_risk":7,"frizz_risk":1,"updated_at":"2026-05-08T08:55:23.050375+05:30"},{"city":"Asansol","state":"West Bengal","latitude":23.6739,"longitude":86.9524,"temp":28.1,"humidity":74,"rain":0.0,"pressure":997.6,"uv_index":8.95,"wind_gusts":47.5,"aqi":162,"pm10":80.1,"pm2_5":76.4,"no2":36.5,"co":441.0,"o3":106.0,"so2":97.2,"mosquito_risk":7,"arthritis_risk":5,"migraine_risk":7,"frizz_risk":1,"updated_at":"2026-05-08T08:55:23.050388+05:30"},{"city":"Pondicherry","state":"Puducherry","latitude":11.9139,"longitude":79.8145,"temp":27.2,"humidity":83,"rain":0.0,"pressure":1009.2,"uv_index":9.0,"wind_gusts":34.9,"aqi":21,"pm10":5.7,"pm2_5":4.1,"no2":2.8,"co":146.0,"o3":45.0,"so2":0.6,"mosquito_risk":7,"arthritis_risk":0,"migraine_risk":4,"frizz_risk":1,"updated_at":"2026-05-08T08:55:23.050398+05:30"},{"city":"Port Blair","state":"Andaman and Nicobar Islands","latitude":11.6234,"longitude":92.7265,"temp":28.8,"humidity":78,"rain":0.1,"pressure":1007.8,"uv_index":9.1,"wind_gusts":39.6,"aqi":32,"pm10":7.6,"pm2_5":6.1,"no2":0.6,"co":140.0,"o3":73.0,"so2":2.4,"mosquito_risk":10,"arthritis_risk":5,"migraine_risk":4,"frizz_risk":1,"updated_at":"2026-05-08T08:55:23.050407+05:30"},{"city":"Haridwar","state":"Uttarakhand","latitude":29.9457,"longitude":78.1642,"temp":25.9,"humidity":61,"rain":0.0,"pressure":977.7,"uv_index":7.25,"wind_gusts":29.2,"aqi":101,"pm10":47.6,"pm2_5":24.6,"no2":2.9,"co":269.0,"o3":157.0,"so2":5.0,"mosquito_risk":7,"arthritis_risk":5,"migraine_risk":7,"frizz_risk":1,"updated_at":"2026-05-08T08:55:23.050417+05:30"},{"city":"Rishikesh","state":"Uttarakhand","latitude":30.0869,"longitude":78.2676,"temp":25.4,"humidity":54,"rain":0.0,"pressure":970.4,"uv_index":7.2,"wind_gusts":24.1,"aqi":85,"pm10":35.3,"pm2_5":18.1,"no2":1.3,"co":243.0,"o3":159.0,"so2":2.3,"mosquito_risk":4,"arthritis_risk":5,"migraine_risk":7,"frizz_risk":0,"updated_at":"2026-05-08T08:55:23.050426+05:30"},{"city":"Nainital","state":"Uttarakhand","latitude":29.3919,"longitude":79.4542,"temp":14.6,"humidity":69,"rain":0.0,"pressure":807.9,"uv_index":8.0,"wind_gusts":25.6,"aqi":67,"pm10":14.1,"pm2_5":7.4,"no2":2.1,"co":212.0,"o3":147.0,"so2":1.2,"mosquito_risk":3,"arthritis_risk":5,"migraine_risk":7,"frizz_risk":0,"updated_at":"2026-05-08T08:55:23.050434+05:30"},{"city":"Mussoorie","state":"Uttarakhand","latitude":30.4599,"longitude":78.0664,"temp":16.3,"humidity":59,"rain":0.0,"pressure":805.5,"uv_index":7.6,"wind_gusts":26.6,"aqi":93,"pm10":40.3,"pm2_5":21.5,"no2":2.4,"co":227.0,"o3":158.0,"so2":6.1,"mosquito_risk":0,"arthritis_risk":5,"migraine_risk":7,"frizz_risk":0,"updated_at":"2026-05-08T08:55:23.050443+05:30"},{"city":"Dharamshala","state":"Himachal Pradesh","latitude":32.219,"longitude":76.3234,"temp":19.0,"humidity":68,"rain":0.0,"pressure":870.6,"uv_index":8.2,"wind_gusts":32.8,"aqi":54,"pm10":44.0,"pm2_5":11.7,"no2":1.2,"co":256.0,"o3":129.0,"so2":1.2,"mosquito_risk":3,"arthritis_risk":5,"migraine_risk":7,"frizz_risk":0,"updated_at":"2026-05-08T08:55:23.050452+05:30"},{"city":"Dalhousie","state":"Himachal Pradesh","latitude":32.5387,"longitude":75.971,"temp":16.2,"humidity":61,"rain":0.0,"pressure":806.0,"uv_index":8.45,"wind_gusts":34.2,"aqi":75,"pm10":45.5,"pm2_5":25.1,"no2":3.6,"co":222.0,"o3":163.0,"so2":5.9,"mosquito_risk":3,"arthritis_risk":5,"migraine_risk":7,"frizz_risk":0,"updated_at":"2026-05-08T08:55:23.050461+05:30"},{"city":"Patiala","state":"Punjab","latitude":30.3398,"longitude":76.3869,"temp":26.3,"humidity":62,"rain":0.0,"pressure":980.8,"uv_index":7.5,"wind_gusts":33.5,"aqi":815,"pm10":571.8,"pm2_5":76.8,"no2":6.1,"co":367.0,"o3":134.0,"so2":14.1,"mosquito_risk":7,"arthritis_risk":5,"migraine_risk":7,"frizz_risk":1,"updated_at":"2026-05-08T08:55:23.050467+05:30"},{"city":"Bhatinda","state":"Punjab","latitude":30.211,"longitude":74.9455,"temp":27.4,"humidity":58,"rain":0.0,"pressure":985.4,"uv_index":8.1,"wind_gusts":31.3,"aqi":859,"pm10":733.9,"pm2_5":137.4,"no2":5.6,"co":358.0,"o3":134.0,"so2":20.5,"mosquito_risk":4,"arthritis_risk":5,"migraine_risk":7,"frizz_risk":1,"updated_at":"2026-05-08T08:55:23.050474+05:30"},{"city":"Rohtak","state":"Haryana","latitude":28.8955,"longitude":76.6066,"temp":26.7,"humidity":62,"rain":0.0,"pressure":984.0,"uv_index":7.6,"wind_gusts":36.4,"aqi":895,"pm10":696.6,"pm2_5":98.5,"no2":16.4,"co":429.0,"o3":129.0,"so2":25.1,"mosquito_risk":7,"arthritis_risk":5,"migraine_risk":7,"frizz_risk":1,"updated_at":"2026-05-08T08:55:23.050480+05:30"},{"city":"Panipat","state":"Haryana","latitude":29.3909,"longitude":76.9635,"temp":26.2,"humidity":66,"rain":0.0,"pressure":983.1,"uv_index":7.45,"wind_gusts":36.4,"aqi":1518,"pm10":1117.6,"pm2_5":119.2,"no2":10.8,"co":390.0,"o3":125.0,"so2":15.9,"mosquito_risk":7,"arthritis_risk":5,"migraine_risk":7,"frizz_risk":1,"updated_at":"2026-05-08T08:55:23.050486+05:30"},{"city":"Mathura","state":"Uttar Pradesh","latitude":27.4924,"longitude":77.6737,"temp":26.5,"humidity":57,"rain":0.0,"pressure":989.4,"uv_index":7.85,"wind_gusts":38.2,"aqi":1368,"pm10":1166.0,"pm2_5":137.4,"no2":5.9,"co":346.0,"o3":130.0,"so2":12.9,"mosquito_risk":4,"arthritis_risk":5,"migraine_risk":7,"frizz_risk":1,"updated_at":"2026-05-08T08:55:23.050492+05:30"},{"city":"Vrindavan","state":"Uttar Pradesh","latitude":27.5823,"longitude":77.7027,"temp":26.6,"humidity":56,"rain":0.0,"pressure":989.9,"uv_index":7.85,"wind_gusts":38.2,"aqi":1368,"pm10":1166.0,"pm2_5":137.4,"no2":5.9,"co":339.0,"o3":130.0,"so2":12.9,"mosquito_risk":4,"arthritis_risk":5,"migraine_risk":7,"frizz_risk":1,"updated_at":"2026-05-08T08:55:23.050499+05:30"},{"city":"Ayodhya","state":"Uttar Pradesh","latitude":26.7922,"longitude":82.1998,"temp":27.7,"humidity":60,"rain":0.0,"pressure":999.5,"uv_index":8.2,"wind_gusts":25.2,"aqi":100,"pm10":48.4,"pm2_5":35.0,"no2":7.5,"co":424.0,"o3":130.0,"so2":8.5,"mosquito_risk":4,"arthritis_risk":5,"migraine_risk":7,"frizz_risk":1,"updated_at":"2026-05-08T08:55:23.050505+05:30"},{"city":"Ratlam","state":"Madhya Pradesh","latitude":23.3315,"longitude":75.0367,"temp":33.0,"humidity":23,"rain":0.0,"pressure":955.3,"uv_index":8.5,"wind_gusts":27.4,"aqi":62,"pm10":64.0,"pm2_5":25.1,"no2":2.8,"co":241.0,"o3":124.0,"so2":8.4,"mosquito_risk":0,"arthritis_risk":5,"migraine_risk":7,"frizz_risk":0,"updated_at":"2026-05-08T08:55:23.050511+05:30"},{"city":"Sagar","state":"Madhya Pradesh","latitude":23.8388,"longitude":78.7378,"temp":31.4,"humidity":32,"rain":0.0,"pressure":951.7,"uv_index":8.65,"wind_gusts":35.3,"aqi":45,"pm10":25.4,"pm2_5":18.9,"no2":3.8,"co":253.0,"o3":142.0,"so2":8.0,"mosquito_risk":0,"arthritis_risk":5,"migraine_risk":7,"frizz_risk":0,"updated_at":"2026-05-08T08:55:23.050517+05:30"},{"city":"Satna","state":"Madhya Pradesh","latitude":24.6005,"longitude":80.8322,"temp":29.6,"humidity":43,"rain":0.0,"pressure":974.2,"uv_index":8.7,"wind_gusts":40.0,"aqi":71,"pm10":37.1,"pm2_5":22.8,"no2":7.9,"co":297.0,"o3":119.0,"so2":16.0,"mosquito_risk":4,"arthritis_risk":5,"migraine_risk":7,"frizz_risk":0,"updated_at":"2026-05-08T08:55:23.050523+05:30"},{"city":"Akola","state":"Maharashtra","latitude":20.7002,"longitude":77.0082,"temp":32.3,"humidity":41,"rain":0.0,"pressure":977.0,"uv_index":8.85,"wind_gusts":26.3,"aqi":86,"pm10":44.4,"pm2_5":30.4,"no2":7.9,"co":312.0,"o3":115.0,"so2":9.0,"mosquito_risk":0,"arthritis_risk":5,"migraine_risk":7,"frizz_risk":1,"updated_at":"2026-05-08T08:55:23.050530+05:30"},{"city":"Amravati","state":"Maharashtra","latitude":20.9374,"longitude":77.7796,"temp":31.5,"humidity":43,"rain":0.0,"pressure":969.7,"uv_index":8.85,"wind_gusts":27.0,"aqi":90,"pm10":43.1,"pm2_5":30.7,"no2":8.7,"co":271.0,"o3":114.0,"so2":8.9,"mosquito_risk":0,"arthritis_risk":5,"migraine_risk":7,"frizz_risk":1,"updated_at":"2026-05-08T08:55:23.050536+05:30"},{"city":"Latur","state":"Maharashtra","latitude":18.4088,"longitude":76.5604,"temp":30.3,"humidity":44,"rain":0.0,"pressure":942.1,"uv_index":8.3,"wind_gusts":30.2,"aqi":90,"pm10":22.1,"pm2_5":15.9,"no2":3.9,"co":245.0,"o3":120.0,"so2":3.6,"mosquito_risk":0,"arthritis_risk":5,"migraine_risk":7,"frizz_risk":1,"updated_at":"2026-05-08T08:55:23.050542+05:30"},{"city":"Nanded","state":"Maharashtra","latitude":19.1383,"longitude":77.3091,"temp":31.5,"humidity":45,"rain":0.0,"pressure":971.0,"uv_index":8.95,"wind_gusts":25.2,"aqi":86,"pm10":35.0,"pm2_5":28.0,"no2":8.8,"co":326.0,"o3":114.0,"so2":5.5,"mosquito_risk":0,"arthritis_risk":5,"migraine_risk":7,"frizz_risk":1,"updated_at":"2026-05-08T08:55:23.050548+05:30"},{"city":"Gulbarga","state":"Karnataka","latitude":17.3297,"longitude":76.8343,"temp":29.5,"humidity":55,"rain":0.0,"pressure":960.8,"uv_index":9.05,"wind_gusts":32.8,"aqi":70,"pm10":11.2,"pm2_5":9.1,"no2":6.4,"co":203.0,"o3":70.0,"so2":7.4,"mosquito_risk":4,"arthritis_risk":5,"migraine_risk":7,"frizz_risk":1,"updated_at":"2026-05-08T08:55:23.050554+05:30"},{"city":"Bidar","state":"Karnataka","latitude":17.9104,"longitude":77.5199,"temp":30.0,"humidity":51,"rain":0.0,"pressure":937.8,"uv_index":9.1,"wind_gusts":33.1,"aqi":80,"pm10":15.5,"pm2_5":12.9,"no2":5.6,"co":237.0,"o3":83.0,"so2":6.2,"mosquito_risk":4,"arthritis_risk":5,"migraine_risk":7,"frizz_risk":1,"updated_at":"2026-05-08T08:55:23.050560+05:30"},{"city":"Hospet","state":"Karnataka","latitude":15.2689,"longitude":76.3909,"temp":28.5,"humidity":62,"rain":0.0,"pressure":957.5,"uv_index":9.15,"wind_gusts":40.3,"aqi":75,"pm10":9.4,"pm2_5":8.6,"no2":7.9,"co":211.0,"o3":63.0,"so2":11.3,"mosquito_risk":7,"arthritis_risk":5,"migraine_risk":7,"frizz_risk":1,"updated_at":"2026-05-08T08:55:23.050566+05:30"},{"city":"Tirupur","state":"Tamil Nadu","latitude":11.1085,"longitude":77.3411,"temp":25.6,"humidity":84,"rain":0.0,"pressure":975.8,"uv_index":9.15,"wind_gusts":32.4,"aqi":65,"pm10":13.8,"pm2_5":13.2,"no2":7.2,"co":275.0,"o3":93.0,"so2":8.8,"mosquito_risk":7,"arthritis_risk":5,"migraine_risk":7,"frizz_risk":1,"updated_at":"2026-05-08T08:55:23.050572+05:30"},{"city":"Alappuzha","state":"Kerala","latitude":9.4981,"longitude":76.3388,"temp":28.5,"humidity":76,"rain":0.0,"pressure":1007.5,"uv_index":8.85,"wind_gusts":33.1,"aqi":55,"pm10":17.4,"pm2_5":15.0,"no2":8.6,"co":276.0,"o3":105.0,"so2":6.4,"mosquito_risk":7,"arthritis_risk":5,"migraine_risk":4,"frizz_risk":1,"updated_at":"2026-05-08T08:55:23.050577+05:30"},{"city":"Munnar","state":"Kerala","latitude":10.0889,"longitude":77.0595,"temp":21.2,"humidity":75,"rain":0.0,"pressure":857.3,"uv_index":9.25,"wind_gusts":22.7,"aqi":51,"pm10":7.0,"pm2_5":6.5,"no2":3.2,"co":216.0,"o3":88.0,"so2":2.1,"mosquito_risk":3,"arthritis_risk":5,"migraine_risk":7,"frizz_risk":1,"updated_at":"2026-05-08T08:55:23.050583+05:30"},{"city":"Silchar","state":"Assam","latitude":24.8333,"longitude":92.7789,"temp":30.0,"humidity":65,"rain":0.0,"pressure":1009.1,"uv_index":8.85,"wind_gusts":22.3,"aqi":127,"pm10":35.9,"pm2_5":29.0,"no2":2.0,"co":291.0,"o3":137.0,"so2":5.0,"mosquito_risk":7,"arthritis_risk":0,"migraine_risk":4,"frizz_risk":1,"updated_at":"2026-05-08T08:55:23.050589+05:30"},{"city":"Dibrugarh","state":"Assam","latitude":27.4728,"longitude":94.912,"temp":26.0,"humidity":67,"rain":0.0,"pressure":1001.1,"uv_index":8.8,"wind_gusts":50.0,"aqi":81,"pm10":30.3,"pm2_5":22.1,"no2":2.6,"co":257.0,"o3":126.0,"so2":1.3,"mosquito_risk":7,"arthritis_risk":5,"migraine_risk":4,"frizz_risk":1,"updated_at":"2026-05-08T08:55:23.050595+05:30"}]