[{"city":"Delhi","state":"Delhi","latitude":28.6139,"longitude":77.209,"temp":42.0,"humidity":12,"rain":0.0,"pressure":976.2,"uv_index":7.7,"wind_gusts":38.9,"aqi":578,"pm10":434.0,"pm2_5":72.6,"no2":13.6,"co":274.0,"o3":120.0,"so2":7.9,"mosquito_risk":0,"arthritis_risk":5,"migraine_risk":10,"frizz_risk":0,"updated_at":"2026-05-19T18:11:27.517706+05:30"},{"city":"Mumbai","state":"Maharashtra","latitude":19.076,"longitude":72.8777,"temp":30.5,"humidity":67,"rain":0.0,"pressure":1004.7,"uv_index":7.1,"wind_gusts":40.3,"aqi":76,"pm10":52.2,"pm2_5":20.8,"no2":7.4,"co":207.0,"o3":71.0,"so2":4.6,"mosquito_risk":3,"arthritis_risk":5,"migraine_risk":4,"frizz_risk":1,"updated_at":"2026-05-19T18:11:27.517750+05:30"},{"city":"Bangalore","state":"Karnataka","latitude":12.9716,"longitude":77.5946,"temp":24.2,"humidity":83,"rain":0.2,"pressure":910.1,"uv_index":8.75,"wind_gusts":46.1,"aqi":60,"pm10":8.6,"pm2_5":7.9,"no2":8.4,"co":608.0,"o3":115.0,"so2":3.3,"mosquito_risk":6,"arthritis_risk":5,"migraine_risk":7,"frizz_risk":1,"updated_at":"2026-05-19T18:11:27.517765+05:30"},{"city":"Hyderabad","state":"Telangana","latitude":17.385,"longitude":78.4867,"temp":37.5,"humidity":30,"rain":0.0,"pressure":948.8,"uv_index":9.2,"wind_gusts":28.1,"aqi":127,"pm10":36.6,"pm2_5":24.8,"no2":5.0,"co":297.0,"o3":155.0,"so2":6.5,"mosquito_risk":0,"arthritis_risk":5,"migraine_risk":10,"frizz_risk":1,"updated_at":"2026-05-19T18:11:27.517776+05:30"},{"city":"Chennai","state":"Tamil Nadu","latitude":13.0827,"longitude":80.2707,"temp":32.7,"humidity":62,"rain":0.0,"pressure":1001.4,"uv_index":8.65,"wind_gusts":45.0,"aqi":145,"pm10":23.9,"pm2_5":19.3,"no2":6.7,"co":305.0,"o3":145.0,"so2":7.5,"mosquito_risk":3,"arthritis_risk":5,"migraine_risk":4,"frizz_risk":1,"updated_at":"2026-05-19T18:11:27.517784+05:30"},{"city":"Kolkata","state":"West Bengal","latitude":22.5726,"longitude":88.3639,"temp":32.2,"humidity":74,"rain":0.0,"pressure":998.7,"uv_index":8.95,"wind_gusts":42.5,"aqi":78,"pm10":31.9,"pm2_5":25.3,"no2":7.9,"co":369.0,"o3":92.0,"so2":8.9,"mosquito_risk":3,"arthritis_risk":5,"migraine_risk":7,"frizz_risk":1,"updated_at":"2026-05-19T18:11:27.517792+05:30"},{"city":"Pune","state":"Maharashtra","latitude":18.5204,"longitude":73.8567,"temp":32.2,"humidity":49,"rain":0.0,"pressure":945.1,"uv_index":8.5,"wind_gusts":42.8,"aqi":108,"pm10":39.9,"pm2_5":24.6,"no2":4.1,"co":218.0,"o3":143.0,"so2":9.4,"mosquito_risk":0,"arthritis_risk":5,"migraine_risk":7,"frizz_risk":1,"updated_at":"2026-05-19T18:11:27.517798+05:30"},{"city":"Ahmedabad","state":"Gujarat","latitude":23.0225,"longitude":72.5714,"temp":41.1,"humidity":15,"rain":0.0,"pressure":995.5,"uv_index":8.15,"wind_gusts":35.3,"aqi":63,"pm10":45.3,"pm2_5":15.8,"no2":2.4,"co":163.0,"o3":105.0,"so2":2.0,"mosquito_risk":0,"arthritis_risk":5,"migraine_risk":10,"frizz_risk":0,"updated_at":"2026-05-19T18:11:27.517805+05:30"},{"city":"Jaipur","state":"Rajasthan","latitude":26.9124,"longitude":75.7873,"temp":40.5,"humidity":14,"rain":0.0,"pressure":954.5,"uv_index":8.25,"wind_gusts":36.7,"aqi":156,"pm10":139.2,"pm2_5":26.8,"no2":2.0,"co":159.0,"o3":118.0,"so2":3.0,"mosquito_risk":0,"arthritis_risk":5,"migraine_risk":10,"frizz_risk":0,"updated_at":"2026-05-19T18:11:27.517818+05:30"},{"city":"Lucknow","state":"Uttar Pradesh","latitude":26.8467,"longitude":80.9462,"temp":40.0,"humidity":30,"rain":0.0,"pressure":986.0,"uv_index":8.25,"wind_gusts":33.5,"aqi":190,"pm10":199.3,"pm2_5":62.9,"no2":6.4,"co":367.0,"o3":158.0,"so2":9.7,"mosquito_risk":0,"arthritis_risk":5,"migraine_risk":10,"frizz_risk":1,"updated_at":"2026-05-19T18:11:27.517825+05:30"},{"city":"Kanpur","state":"Uttar Pradesh","latitude":26.4499,"longitude":80.3319,"temp":40.5,"humidity":21,"rain":0.0,"pressure":984.5,"uv_index":8.25,"wind_gusts":44.6,"aqi":420,"pm10":612.8,"pm2_5":96.4,"no2":4.0,"co":207.0,"o3":139.0,"so2":7.2,"mosquito_risk":0,"arthritis_risk":5,"migraine_risk":10,"frizz_risk":0,"updated_at":"2026-05-19T18:11:27.517833+05:30"},{"city":"Chandigarh","state":"Chandigarh","latitude":30.7333,"longitude":76.7794,"temp":38.5,"humidity":20,"rain":0.0,"pressure":962.8,"uv_index":7.75,"wind_gusts":28.1,"aqi":154,"pm10":88.9,"pm2_5":24.2,"no2":3.9,"co":364.0,"o3":138.0,"so2":6.6,"mosquito_risk":0,"arthritis_risk":5,"migraine_risk":10,"frizz_risk":0,"updated_at":"2026-05-19T18:11:27.517840+05:30"},{"city":"Srinagar","state":"Jammu and Kashmir","latitude":34.0837,"longitude":74.7973,"temp":22.8,"humidity":45,"rain":0.0,"pressure":842.3,"uv_index":8.95,"wind_gusts":34.2,"aqi":81,"pm10":23.5,"pm2_5":10.5,"no2":3.8,"co":289.0,"o3":114.0,"so2":2.2,"mosquito_risk":0,"arthritis_risk":5,"migraine_risk":7,"frizz_risk":0,"updated_at":"2026-05-19T18:11:27.517847+05:30"},{"city":"Jammu","state":"Jammu and Kashmir","latitude":32.7266,"longitude":74.857,"temp":39.4,"humidity":17,"rain":0.0,"pressure":966.2,"uv_index":8.55,"wind_gusts":30.6,"aqi":121,"pm10":48.4,"pm2_5":17.5,"no2":3.7,"co":237.0,"o3":134.0,"so2":4.2,"mosquito_risk":0,"arthritis_risk":5,"migraine_risk":10,"frizz_risk":0,"updated_at":"2026-05-19T18:11:27.517853+05:30"},{"city":"Amritsar","state":"Punjab","latitude":31.634,"longitude":74.8723,"temp":39.8,"humidity":17,"rain":0.0,"pressure":973.3,"uv_index":8.45,"wind_gusts":25.2,"aqi":122,"pm10":47.4,"pm2_5":16.6,"no2":4.2,"co":202.0,"o3":120.0,"so2":2.4,"mosquito_risk":0,"arthritis_risk":5,"migraine_risk":10,"frizz_risk":0,"updated_at":"2026-05-19T18:11:27.517859+05:30"},{"city":"Ludhiana","state":"Punjab","latitude":30.901,"longitude":75.8573,"temp":40.6,"humidity":13,"rain":0.0,"pressure":971.5,"uv_index":8.05,"wind_gusts":27.0,"aqi":105,"pm10":183.9,"pm2_5":32.8,"no2":3.6,"co":229.0,"o3":127.0,"so2":4.0,"mosquito_risk":0,"arthritis_risk":5,"migraine_risk":10,"frizz_risk":0,"updated_at":"2026-05-19T18:11:27.517865+05:30"},{"city":"Jalandhar","state":"Punjab","latitude":31.326,"longitude":75.5762,"temp":40.2,"humidity":15,"rain":0.0,"pressure":972.7,"uv_index":8.2,"wind_gusts":26.6,"aqi":115,"pm10":110.1,"pm2_5":26.3,"no2":5.3,"co":289.0,"o3":118.0,"so2":3.1,"mosquito_risk":0,"arthritis_risk":5,"migraine_risk":10,"frizz_risk":0,"updated_at":"2026-05-19T18:11:27.517871+05:30"},{"city":"Dehradun","state":"Uttarakhand","latitude":30.6284,"longitude":78.0322,"temp":24.3,"humidity":45,"rain":0.0,"pressure":829.7,"uv_index":8.2,"wind_gusts":48.2,"aqi":131,"pm10":27.5,"pm2_5":14.8,"no2":1.8,"co":321.0,"o3":149.0,"so2":6.7,"mosquito_risk":0,"arthritis_risk":5,"migraine_risk":7,"frizz_risk":0,"updated_at":"2026-05-19T18:11:27.517877+05:30"},{"city":"Shimla","state":"Himachal Pradesh","latitude":31.1048,"longitude":77.1734,"temp":23.0,"humidity":31,"rain":0.0,"pressure":786.2,"uv_index":8.25,"wind_gusts":44.6,"aqi":120,"pm10":28.1,"pm2_5":13.1,"no2":1.7,"co":224.0,"o3":149.0,"so2":7.0,"mosquito_risk":0,"arthritis_risk":5,"migraine_risk":7,"frizz_risk":0,"updated_at":"2026-05-19T18:11:27.517885+05:30"},{"city":"Manali","state":"Himachal Pradesh","latitude":32.2396,"longitude":77.1887,"temp":17.6,"humidity":84,"rain":0.1,"pressure":818.2,"uv_index":9.9,"wind_gusts":51.8,"aqi":114,"pm10":25.1,"pm2_5":13.9,"no2":12.6,"co":192.0,"o3":138.0,"so2":0.8,"mosquito_risk":6,"arthritis_risk":10,"migraine_risk":7,"frizz_risk":0,"updated_at":"2026-05-19T18:11:27.517891+05:30"},{"city":"Gurgaon","state":"Haryana","latitude":28.4595,"longitude":77.0266,"temp":40.7,"humidity":15,"rain":0.0,"pressure":974.8,"uv_index":7.85,"wind_gusts":35.6,"aqi":1223,"pm10":1113.9,"pm2_5":147.6,"no2":12.6,"co":365.0,"o3":116.0,"so2":6.7,"mosquito_risk":0,"arthritis_risk":5,"migraine_risk":10,"frizz_risk":0,"updated_at":"2026-05-19T18:11:27.517897+05:30"},{"city":"Noida","state":"Uttar Pradesh","latitude":28.5355,"longitude":77.391,"temp":39.7,"humidity":18,"rain":0.0,"pressure":977.3,"uv_index":7.75,"wind_gusts":33.5,"aqi":1223,"pm10":1113.9,"pm2_5":147.6,"no2":12.6,"co":334.0,"o3":116.0,"so2":6.7,"mosquito_risk":0,"arthritis_risk":5,"migraine_risk":10,"frizz_risk":0,"updated_at":"2026-05-19T18:11:27.517919+05:30"},{"city":"Ghaziabad","state":"Uttar Pradesh","latitude":28.6692,"longitude":77.4538,"temp":39.0,"humidity":23,"rain":0.0,"pressure":975.5,"uv_index":7.75,"wind_gusts":40.7,"aqi":499,"pm10":411.6,"pm2_5":75.9,"no2":9.9,"co":243.0,"o3":132.0,"so2":11.2,"mosquito_risk":0,"arthritis_risk":5,"migraine_risk":10,"frizz_risk":0,"updated_at":"2026-05-19T18:11:27.517925+05:30"},{"city":"Faridabad","state":"Haryana","latitude":28.4089,"longitude":77.3178,"temp":41.5,"humidity":13,"rain":0.0,"pressure":976.8,"uv_index":7.8,"wind_gusts":39.2,"aqi":1223,"pm10":1113.9,"pm2_5":147.6,"no2":12.6,"co":267.0,"o3":116.0,"so2":6.7,"mosquito_risk":0,"arthritis_risk":5,"migraine_risk":10,"frizz_risk":0,"updated_at":"2026-05-19T18:11:27.517931+05:30"},{"city":"Meerut","state":"Uttar Pradesh","latitude":28.9845,"longitude":77.7064,"temp":38.5,"humidity":35,"rain":0.0,"pressure":974.7,"uv_index":7.65,"wind_gusts":29.9,"aqi":499,"pm10":411.6,"pm2_5":75.9,"no2":9.9,"co":191.0,"o3":132.0,"so2":11.2,"mosquito_risk":0,"arthritis_risk":5,"migraine_risk":10,"frizz_risk":1,"updated_at":"2026-05-19T18:11:27.517937+05:30"},{"city":"Agra","state":"Uttar Pradesh","latitude":27.1767,"longitude":78.0081,"temp":41.7,"humidity":14,"rain":0.0,"pressure":980.5,"uv_index":8.1,"wind_gusts":43.2,"aqi":609,"pm10":566.2,"pm2_5":98.5,"no2":14.4,"co":195.0,"o3":122.0,"so2":7.9,"mosquito_risk":0,"arthritis_risk":5,"migraine_risk":10,"frizz_risk":0,"updated_at":"2026-05-19T18:11:27.517943+05:30"},{"city":"Varanasi","state":"Uttar Pradesh","latitude":25.3176,"longitude":82.9739,"temp":39.6,"humidity":35,"rain":0.0,"pressure":990.0,"uv_index":8.7,"wind_gusts":32.0,"aqi":186,"pm10":214.7,"pm2_5":71.0,"no2":7.8,"co":304.0,"o3":172.0,"so2":14.0,"mosquito_risk":0,"arthritis_risk":5,"migraine_risk":10,"frizz_risk":1,"updated_at":"2026-05-19T18:11:27.517950+05:30"},{"city":"Prayagraj","state":"Uttar Pradesh","latitude":25.4358,"longitude":81.8463,"temp":41.2,"humidity":23,"rain":0.0,"pressure":988.1,"uv_index":8.6,"wind_gusts":35.3,"aqi":195,"pm10":177.0,"pm2_5":56.5,"no2":5.3,"co":244.0,"o3":163.0,"so2":12.9,"mosquito_risk":0,"arthritis_risk":5,"migraine_risk":10,"frizz_risk":0,"updated_at":"2026-05-19T18:11:27.517956+05:30"},{"city":"Gorakhpur","state":"Uttar Pradesh","latitude":26.7606,"longitude":83.3732,"temp":34.7,"humidity":56,"rain":0.0,"pressure":990.4,"uv_index":8.6,"wind_gusts":36.0,"aqi":163,"pm10":128.1,"pm2_5":60.1,"no2":3.8,"co":427.0,"o3":170.0,"so2":11.5,"mosquito_risk":0,"arthritis_risk":5,"migraine_risk":7,"frizz_risk":1,"updated_at":"2026-05-19T18:11:27.517965+05:30"},{"city":"Bareilly","state":"Uttar Pradesh","latitude":28.367,"longitude":79.4304,"temp":35.5,"humidity":50,"rain":0.0,"pressure":979.7,"uv_index":8.05,"wind_gusts":28.4,"aqi":193,"pm10":82.2,"pm2_5":40.9,"no2":5.3,"co":377.0,"o3":175.0,"so2":12.2,"mosquito_risk":0,"arthritis_risk":5,"migraine_risk":10,"frizz_risk":1,"updated_at":"2026-05-19T18:11:27.517971+05:30"},{"city":"Aligarh","state":"Uttar Pradesh","latitude":27.8974,"longitude":78.088,"temp":38.8,"humidity":20,"rain":0.0,"pressure":978.5,"uv_index":7.9,"wind_gusts":33.5,"aqi":701,"pm10":529.0,"pm2_5":94.5,"no2":10.2,"co":209.0,"o3":141.0,"so2":11.2,"mosquito_risk":0,"arthritis_risk":5,"migraine_risk":10,"frizz_risk":0,"updated_at":"2026-05-19T18:11:27.517976+05:30"},{"city":"Moradabad","state":"Uttar Pradesh","latitude":28.8386,"longitude":78.7733,"temp":37.2,"humidity":40,"rain":0.0,"pressure":976.8,"uv_index":7.85,"wind_gusts":30.6,"aqi":202,"pm10":123.9,"pm2_5":53.6,"no2":10.6,"co":326.0,"o3":165.0,"so2":13.9,"mosquito_risk":0,"arthritis_risk":5,"migraine_risk":10,"frizz_risk":1,"updated_at":"2026-05-19T18:11:27.517982+05:30"},{"city":"Saharanpur","state":"Uttar Pradesh","latitude":29.9637,"longitude":77.546,"temp":37.3,"humidity":30,"rain":0.0,"pressure":968.9,"uv_index":7.4,"wind_gusts":26.6,"aqi":194,"pm10":170.0,"pm2_5":56.0,"no2":13.0,"co":280.0,"o3":168.0,"so2":20.0,"mosquito_risk":0,"arthritis_risk":5,"migraine_risk":10,"frizz_risk":1,"updated_at":"2026-05-19T18:11:27.517988+05:30"},{"city":"Jhansi","state":"Uttar Pradesh","latitude":25.4484,"longitude":78.5685,"temp":41.1,"humidity":15,"rain":0.0,"pressure":971.3,"uv_index":8.5,"wind_gusts":37.4,"aqi":84,"pm10":63.6,"pm2_5":19.6,"no2":2.8,"co":164.0,"o3":110.0,"so2":4.5,"mosquito_risk":0,"arthritis_risk":5,"migraine_risk":10,"frizz_risk":0,"updated_at":"2026-05-19T18:11:30.749905+05:30"},{"city":"Surat","state":"Gujarat","latitude":21.1702,"longitude":72.8311,"temp":32.2,"humidity":63,"rain":0.0,"pressure":1001.9,"uv_index":7.75,"wind_gusts":41.0,"aqi":105,"pm10":70.1,"pm2_5":31.7,"no2":23.5,"co":281.0,"o3":63.0,"so2":49.2,"mosquito_risk":3,"arthritis_risk":5,"migraine_risk":4,"frizz_risk":1,"updated_at":"2026-05-19T18:11:30.749940+05:30"},{"city":"Vadodara","state":"Gujarat","latitude":22.3072,"longitude":73.1812,"temp":41.5,"humidity":12,"rain":0.0,"pressure":997.5,"uv_index":7.75,"wind_gusts":45.0,"aqi":84,"pm10":38.9,"pm2_5":17.8,"no2":3.1,"co":176.0,"o3":129.0,"so2":4.9,"mosquito_risk":0,"arthritis_risk":5,"migraine_risk":10,"frizz_risk":0,"updated_at":"2026-05-19T18:11:30.749951+05:30"},{"city":"Rajkot","state":"Gujarat","latitude":22.3039,"longitude":70.8022,"temp":36.8,"humidity":32,"rain":0.0,"pressure":988.7,"uv_index":7.7,"wind_gusts":45.0,"aqi":64,"pm10":78.2,"pm2_5":25.2,"no2":1.8,"co":134.0,"o3":110.0,"so2":5.2,"mosquito_risk":0,"arthritis_risk":5,"migraine_risk":10,"frizz_risk":1,"updated_at":"2026-05-19T18:11:30.749960+05:30"},{"city":"Thane","state":"Maharashtra","latitude":19.2183,"longitude":72.9781,"temp":31.9,"humidity":56,"rain":0.0,"pressure":1003.9,"uv_index":7.45,"wind_gusts":37.8,"aqi":76,"pm10":52.2,"pm2_5":20.8,"no2":7.4,"co":183.0,"o3":71.0,"so2":4.6,"mosquito_risk":0,"arthritis_risk":5,"migraine_risk":4,"frizz_risk":1,"updated_at":"2026-05-19T18:11:30.749968+05:30"},{"city":"Nagpur","state":"Maharashtra","latitude":21.1458,"longitude":79.0882,"temp":41.4,"humidity":15,"rain":0.0,"pressure":966.4,"uv_index":8.55,"wind_gusts":36.0,"aqi":155,"pm10":59.6,"pm2_5":26.5,"no2":8.6,"co":230.0,"o3":166.0,"so2":24.8,"mosquito_risk":0,"arthritis_risk":5,"migraine_risk":10,"frizz_risk":0,"updated_at":"2026-05-19T18:11:30.749975+05:30"},{"city":"Nashik","state":"Maharashtra","latitude":19.9975,"longitude":73.7898,"temp":33.7,"humidity":38,"rain":0.0,"pressure":942.4,"uv_index":8.15,"wind_gusts":38.5,"aqi":73,"pm10":51.2,"pm2_5":21.2,"no2":1.9,"co":150.0,"o3":104.0,"so2":1.7,"mosquito_risk":0,"arthritis_risk":5,"migraine_risk":7,"frizz_risk":1,"updated_at":"2026-05-19T18:11:30.749982+05:30"},{"city":"Aurangabad","state":"Maharashtra","latitude":19.8762,"longitude":75.3433,"temp":39.0,"humidity":17,"rain":0.0,"pressure":939.5,"uv_index":9.05,"wind_gusts":34.2,"aqi":91,"pm10":41.1,"pm2_5":21.2,"no2":1.8,"co":170.0,"o3":137.0,"so2":4.7,"mosquito_risk":0,"arthritis_risk":5,"migraine_risk":10,"frizz_risk":0,"updated_at":"2026-05-19T18:11:30.749989+05:30"},{"city":"Solapur","state":"Maharashtra","latitude":17.6599,"longitude":75.9064,"temp":37.7,"humidity":29,"rain":0.0,"pressure":952.4,"uv_index":8.45,"wind_gusts":35.6,"aqi":119,"pm10":43.3,"pm2_5":27.3,"no2":2.4,"co":170.0,"o3":154.0,"so2":7.3,"mosquito_risk":0,"arthritis_risk":5,"migraine_risk":10,"frizz_risk":1,"updated_at":"2026-05-19T18:11:30.749996+05:30"},{"city":"Kolhapur","state":"Maharashtra","latitude":16.705,"longitude":74.2433,"temp":27.9,"humidity":64,"rain":0.0,"pressure":945.5,"uv_index":8.5,"wind_gusts":43.6,"aqi":68,"pm10":41.1,"pm2_5":22.0,"no2":4.2,"co":169.0,"o3":91.0,"so2":2.5,"mosquito_risk":7,"arthritis_risk":5,"migraine_risk":7,"frizz_risk":1,"updated_at":"2026-05-19T18:11:30.750003+05:30"},{"city":"Goa","state":"Goa","latitude":15.2993,"longitude":74.124,"temp":26.2,"humidity":95,"rain":0.1,"pressure":996.3,"uv_index":5.0,"wind_gusts":24.8,"aqi":65,"pm10":14.5,"pm2_5":8.8,"no2":3.2,"co":126.0,"o3":75.0,"so2":1.4,"mosquito_risk":10,"arthritis_risk":5,"migraine_risk":3,"frizz_risk":1,"updated_at":"2026-05-19T18:11:30.750011+05:30"},{"city":"Jodhpur","state":"Rajasthan","latitude":26.2389,"longitude":73.0243,"temp":39.3,"humidity":18,"rain":0.0,"pressure":976.7,"uv_index":8.45,"wind_gusts":37.1,"aqi":132,"pm10":199.3,"pm2_5":34.3,"no2":1.4,"co":136.0,"o3":107.0,"so2":1.3,"mosquito_risk":0,"arthritis_risk":5,"migraine_risk":10,"frizz_risk":0,"updated_at":"2026-05-19T18:11:30.750018+05:30"},{"city":"Udaipur","state":"Rajasthan","latitude":24.5854,"longitude":73.7125,"temp":36.7,"humidity":13,"rain":0.0,"pressure":942.6,"uv_index":8.85,"wind_gusts":39.2,"aqi":54,"pm10":26.4,"pm2_5":11.2,"no2":0.8,"co":135.0,"o3":112.0,"so2":1.3,"mosquito_risk":0,"arthritis_risk":5,"migraine_risk":10,"frizz_risk":0,"updated_at":"2026-05-19T18:11:30.750025+05:30"},{"city":"Kota","state":"Rajasthan","latitude":25.2138,"longitude":75.8648,"temp":42.3,"humidity":13,"rain":0.0,"pressure":972.2,"uv_index":8.4,"wind_gusts":33.5,"aqi":64,"pm10":41.9,"pm2_5":16.9,"no2":1.7,"co":154.0,"o3":124.0,"so2":4.7,"mosquito_risk":0,"arthritis_risk":5,"migraine_risk":10,"frizz_risk":0,"updated_at":"2026-05-19T18:11:30.750032+05:30"},{"city":"Bikaner","state":"Rajasthan","latitude":28.0229,"longitude":73.3119,"temp":41.0,"humidity":12,"rain":0.0,"pressure":974.7,"uv_index":8.4,"wind_gusts":34.9,"aqi":137,"pm10":71.9,"pm2_5":25.6,"no2":0.7,"co":133.0,"o3":113.0,"so2":2.4,"mosquito_risk":0,"arthritis_risk":5,"migraine_risk":10,"frizz_risk":0,"updated_at":"2026-05-19T18:11:30.750039+05:30"},{"city":"Ajmer","state":"Rajasthan","latitude":26.4499,"longitude":74.6399,"temp":37.4,"humidity":14,"rain":0.0,"pressure":950.2,"uv_index":8.4,"wind_gusts":40.3,"aqi":61,"pm10":32.1,"pm2_5":14.0,"no2":1.3,"co":138.0,"o3":115.0,"so2":1.7,"mosquito_risk":0,"arthritis_risk":5,"migraine_risk":10,"frizz_risk":0,"updated_at":"2026-05-19T18:11:30.750046+05:30"},{"city":"Gwalior","state":"Madhya Pradesh","latitude":26.2183,"longitude":78.1828,"temp":42.0,"humidity":12,"rain":0.0,"pressure":976.3,"uv_index":8.3,"wind_gusts":40.3,"aqi":80,"pm10":145.8,"pm2_5":33.2,"no2":3.1,"co":169.0,"o3":109.0,"so2":3.0,"mosquito_risk":0,"arthritis_risk":5,"migraine_risk":10,"frizz_risk":0,"updated_at":"2026-05-19T18:11:30.750053+05:30"},{"city":"Indore","state":"Madhya Pradesh","latitude":22.7196,"longitude":75.8577,"temp":39.0,"humidity":14,"rain":0.0,"pressure":943.7,"uv_index":8.65,"wind_gusts":42.5,"aqi":79,"pm10":44.4,"pm2_5":20.8,"no2":2.2,"co":196.0,"o3":122.0,"so2":3.4,"mosquito_risk":0,"arthritis_risk":5,"migraine_risk":10,"frizz_risk":0,"updated_at":"2026-05-19T18:11:30.750059+05:30"},{"city":"Bhopal","state":"Madhya Pradesh","latitude":23.2599,"longitude":77.4126,"temp":41.1,"humidity":14,"rain":0.0,"pressure":948.2,"uv_index":8.7,"wind_gusts":35.3,"aqi":91,"pm10":60.3,"pm2_5":21.5,"no2":3.0,"co":189.0,"o3":125.0,"so2":5.5,"mosquito_risk":0,"arthritis_risk":5,"migraine_risk":10,"frizz_risk":0,"updated_at":"2026-05-19T18:11:30.750066+05:30"},{"city":"Jabalpur","state":"Madhya Pradesh","latitude":23.1815,"longitude":79.9864,"temp":40.6,"humidity":15,"rain":0.0,"pressure":955.6,"uv_index":8.85,"wind_gusts":33.5,"aqi":102,"pm10":51.8,"pm2_5":19.0,"no2":2.8,"co":165.0,"o3":123.0,"so2":3.5,"mosquito_risk":0,"arthritis_risk":5,"migraine_risk":10,"frizz_risk":0,"updated_at":"2026-05-19T18:11:30.750073+05:30"},{"city":"Ujjain","state":"Madhya Pradesh","latitude":23.1765,"longitude":75.7885,"temp":39.2,"humidity":13,"rain":0.0,"pressure":949.2,"uv_index":8.35,"wind_gusts":42.5,"aqi":70,"pm10":35.5,"pm2_5":16.9,"no2":1.0,"co":158.0,"o3":120.0,"so2":2.7,"mosquito_risk":0,"arthritis_risk":5,"migraine_risk":10,"frizz_risk":0,"updated_at":"2026-05-19T18:11:30.750080+05:30"},{"city":"Visakhapatnam","state":"Andhra Pradesh","latitude":17.6868,"longitude":83.2185,"temp":31.5,"humidity":77,"rain":0.0,"pressure":997.5,"uv_index":9.1,"wind_gusts":50.4,"aqi":64,"pm10":30.4,"pm2_5":24.0,"no2":17.9,"co":354.0,"o3":91.0,"so2":35.9,"mosquito_risk":3,"arthritis_risk":5,"migraine_risk":7,"frizz_risk":1,"updated_at":"2026-05-19T18:11:30.750087+05:30"},{"city":"Vijayawada","state":"Andhra Pradesh","latitude":16.5062,"longitude":80.648,"temp":38.8,"humidity":37,"rain":0.0,"pressure":995.5,"uv_index":8.65,"wind_gusts":29.5,"aqi":130,"pm10":33.6,"pm2_5":29.4,"no2":5.9,"co":336.0,"o3":156.0,"so2":7.6,"mosquito_risk":0,"arthritis_risk":5,"migraine_risk":10,"frizz_risk":1,"updated_at":"2026-05-19T18:11:30.750094+05:30"},{"city":"Guntur","state":"Andhra Pradesh","latitude":16.3067,"longitude":80.4365,"temp":38.7,"humidity":37,"rain":0.0,"pressure":996.7,"uv_index":8.7,"wind_gusts":36.4,"aqi":118,"pm10":29.2,"pm2_5":23.7,"no2":3.0,"co":282.0,"o3":147.0,"so2":5.6,"mosquito_risk":0,"arthritis_risk":5,"migraine_risk":10,"frizz_risk":1,"updated_at":"2026-05-19T18:11:30.750101+05:30"},{"city":"Nellore","state":"Andhra Pradesh","latitude":14.4426,"longitude":79.9865,"temp":34.1,"humidity":58,"rain":0.0,"pressure":999.3,"uv_index":9.1,"wind_gusts":45.4,"aqi":136,"pm10":29.5,"pm2_5":25.5,"no2":3.1,"co":275.0,"o3":174.0,"so2":5.3,"mosquito_risk":0,"arthritis_risk":5,"migraine_risk":7,"frizz_risk":1,"updated_at":"2026-05-19T18:11:30.750108+05:30"},{"city":"Kurnool","state":"Andhra Pradesh","latitude":15.8281,"longitude":78.0373,"temp":38.5,"humidity":29,"rain":0.0,"pressure":971.4,"uv_index":9.15,"wind_gusts":41.4,"aqi":117,"pm10":35.3,"pm2_5":26.0,"no2":2.0,"co":201.0,"o3":157.0,"so2":8.1,"mosquito_risk":0,"arthritis_risk":5,"migraine_risk":10,"frizz_risk":1,"updated_at":"2026-05-19T18:11:30.750116+05:30"},{"city":"Kakinada","state":"Andhra Pradesh","latitude":16.9891,"longitude":82.2475,"temp":34.6,"humidity":52,"rain":0.0,"pressure":1000.3,"uv_index":8.65,"wind_gusts":33.8,"aqi":61,"pm10":28.7,"pm2_5":21.9,"no2":2.9,"co":311.0,"o3":132.0,"so2":4.4,"mosquito_risk":0,"arthritis_risk":5,"migraine_risk":4,"frizz_risk":1,"updated_at":"2026-05-19T18:11:30.750123+05:30"},{"city":"Tirupati","state":"Andhra Pradesh","latitude":13.6288,"longitude":79.4192,"temp":28.4,"humidity":76,"rain":0.0,"pressure":985.7,"uv_index":9.2,"wind_gusts":38.9,"aqi":103,"pm10":21.8,"pm2_5":20.1,"no2":13.0,"co":224.0,"o3":104.0,"so2":2.9,"mosquito_risk":7,"arthritis_risk":5,"migraine_risk":7,"frizz_risk":1,"updated_at":"2026-05-19T18:11:30.750130+05:30"},{"city":"Warangal","state":"Telangana","latitude":17.9689,"longitude":79.5941,"temp":37.4,"humidity":38,"rain":0.0,"pressure":973.1,"uv_index":9.1,"wind_gusts":36.0,"aqi":116,"pm10":38.6,"pm2_5":28.1,"no2":3.4,"co":257.0,"o3":146.0,"so2":5.4,"mosquito_risk":0,"arthritis_risk":5,"migraine_risk":10,"frizz_risk":1,"updated_at":"2026-05-19T18:11:30.750137+05:30"},{"city":"Nizamabad","state":"Telangana","latitude":18.6725,"longitude":78.0941,"temp":38.2,"humidity":24,"rain":0.0,"pressure":959.4,"uv_index":9.1,"wind_gusts":30.6,"aqi":139,"pm10":43.0,"pm2_5":29.5,"no2":2.1,"co":206.0,"o3":159.0,"so2":5.7,"mosquito_risk":0,"arthritis_risk":5,"migraine_risk":10,"frizz_risk":0,"updated_at":"2026-05-19T18:11:30.750144+05:30"},{"city":"Mysore","state":"Karnataka","latitude":12.2958,"longitude":76.6396,"temp":22.7,"humidity":100,"rain":0.1,"pressure":925.9,"uv_index":8.15,"wind_gusts":43.6,"aqi":42,"pm10":4.5,"pm2_5":4.4,"no2":8.6,"co":229.0,"o3":73.0,"so2":1.5,"mosquito_risk":6,"arthritis_risk":5,"migraine_risk":7,"frizz_risk":1,"updated_at":"2026-05-19T18:11:30.750150+05:30"},{"city":"Mangalore","state":"Karnataka","latitude":12.9141,"longitude":74.856,"temp":26.1,"humidity":97,"rain":0.1,"pressure":1004.6,"uv_index":7.05,"wind_gusts":38.9,"aqi":42,"pm10":6.8,"pm2_5":4.9,"no2":3.2,"co":240.0,"o3":70.0,"so2":1.2,"mosquito_risk":10,"arthritis_risk":5,"migraine_risk":4,"frizz_risk":1,"updated_at":"2026-05-19T18:11:30.750157+05:30"},{"city":"Hubli-Dharwad","state":"Karnataka","latitude":15.3647,"longitude":75.124,"temp":26.8,"humidity":76,"rain":0.1,"pressure":938.9,"uv_index":6.85,"wind_gusts":40.0,"aqi":48,"pm10":6.0,"pm2_5":4.9,"no2":6.0,"co":161.0,"o3":81.0,"so2":1.3,"mosquito_risk":10,"arthritis_risk":5,"migraine_risk":7,"frizz_risk":1,"updated_at":"2026-05-19T18:11:30.750164+05:30"},{"city":"Belgaum","state":"Karnataka","latitude":15.8497,"longitude":74.4977,"temp":25.4,"humidity":78,"rain":0.0,"pressure":923.7,"uv_index":6.35,"wind_gusts":36.7,"aqi":60,"pm10":26.8,"pm2_5":15.3,"no2":7.4,"co":138.0,"o3":75.0,"so2":2.5,"mosquito_risk":7,"arthritis_risk":5,"migraine_risk":7,"frizz_risk":1,"updated_at":"2026-05-19T18:11:33.989361+05:30"},{"city":"Coimbatore","state":"Tamil Nadu","latitude":11.0168,"longitude":76.9558,"temp":27.4,"humidity":75,"rain":0.0,"pressure":959.0,"uv_index":8.55,"wind_gusts":59.0,"aqi":39,"pm10":5.6,"pm2_5":4.8,"no2":5.4,"co":188.0,"o3":70.0,"so2":1.9,"mosquito_risk":7,"arthritis_risk":5,"migraine_risk":7,"frizz_risk":1,"updated_at":"2026-05-19T18:11:33.989396+05:30"},{"city":"Madurai","state":"Tamil Nadu","latitude":9.9252,"longitude":78.1198,"temp":31.4,"humidity":68,"rain":0.0,"pressure":988.9,"uv_index":9.0,"wind_gusts":40.3,"aqi":45,"pm10":8.4,"pm2_5":6.8,"no2":7.8,"co":283.0,"o3":68.0,"so2":2.0,"mosquito_risk":3,"arthritis_risk":5,"migraine_risk":7,"frizz_risk":1,"updated_at":"2026-05-19T18:11:33.989407+05:30"},{"city":"Trichy","state":"Tamil Nadu","latitude":10.7905,"longitude":78.7047,"temp":28.5,"humidity":89,"rain":0.2,"pressure":995.7,"uv_index":8.95,"wind_gusts":29.2,"aqi":51,"pm10":8.3,"pm2_5":7.6,"no2":8.6,"co":308.0,"o3":91.0,"so2":2.6,"mosquito_risk":10,"arthritis_risk":5,"migraine_risk":7,"frizz_risk":1,"updated_at":"2026-05-19T18:11:33.989415+05:30"},{"city":"Salem","state":"Tamil Nadu","latitude":11.6643,"longitude":78.146,"temp":29.1,"humidity":69,"rain":0.0,"pressure":974.0,"uv_index":8.95,"wind_gusts":46.8,"aqi":57,"pm10":8.1,"pm2_5":7.7,"no2":11.5,"co":260.0,"o3":94.0,"so2":7.9,"mosquito_risk":7,"arthritis_risk":5,"migraine_risk":7,"frizz_risk":1,"updated_at":"2026-05-19T18:11:33.989423+05:30"},{"city":"Tirunelveli","state":"Tamil Nadu","latitude":8.7139,"longitude":77.7567,"temp":32.3,"humidity":54,"rain":0.0,"pressure":999.7,"uv_index":8.85,"wind_gusts":21.6,"aqi":32,"pm10":6.6,"pm2_5":5.0,"no2":2.7,"co":147.0,"o3":62.0,"so2":0.7,"mosquito_risk":0,"arthritis_risk":5,"migraine_risk":7,"frizz_risk":1,"updated_at":"2026-05-19T18:11:33.989431+05:30"},{"city":"Vellore","state":"Tamil Nadu","latitude":12.9165,"longitude":79.1325,"temp":26.6,"humidity":72,"rain":0.0,"pressure":979.5,"uv_index":9.2,"wind_gusts":38.2,"aqi":92,"pm10":14.3,"pm2_5":13.4,"no2":6.1,"co":224.0,"o3":125.0,"so2":3.4,"mosquito_risk":7,"arthritis_risk":5,"migraine_risk":7,"frizz_risk":1,"updated_at":"2026-05-19T18:11:33.989438+05:30"},{"city":"Erode","state":"Tamil Nadu","latitude":11.341,"longitude":77.7172,"temp":32.2,"humidity":57,"rain":0.1,"pressure":985.6,"uv_index":9.05,"wind_gusts":46.8,"aqi":46,"pm10":7.5,"pm2_5":6.4,"no2":8.1,"co":203.0,"o3":85.0,"so2":1.8,"mosquito_risk":3,"arthritis_risk":5,"migraine_risk":7,"frizz_risk":1,"updated_at":"2026-05-19T18:11:33.989446+05:30"},{"city":"Kochi","state":"Kerala","latitude":9.9312,"longitude":76.2673,"temp":27.5,"humidity":85,"rain":0.1,"pressure":1006.6,"uv_index":7.55,"wind_gusts":32.8,"aqi":38,"pm10":11.0,"pm2_5":8.1,"no2":6.6,"co":204.0,"o3":58.0,"so2":2.0,"mosquito_risk":10,"arthritis_risk":5,"migraine_risk":4,"frizz_risk":1,"updated_at":"2026-05-19T18:11:33.989453+05:30"},{"city":"Thiruvananthapuram","state":"Kerala","latitude":8.5241,"longitude":76.9366,"temp":27.9,"humidity":82,"rain":0.1,"pressure":1006.1,"uv_index":6.0,"wind_gusts":35.3,"aqi":37,"pm10":8.6,"pm2_5":5.2,"no2":1.4,"co":160.0,"o3":58.0,"so2":0.4,"mosquito_risk":10,"arthritis_risk":5,"migraine_risk":0,"frizz_risk":1,"updated_at":"2026-05-19T18:11:33.989460+05:30"},{"city":"Kozhikode","state":"Kerala","latitude":11.2588,"longitude":75.7804,"temp":26.0,"humidity":99,"rain":0.3,"pressure":1006.3,"uv_index":3.9,"wind_gusts":30.6,"aqi":34,"pm10":6.8,"pm2_5":4.4,"no2":1.0,"co":228.0,"o3":68.0,"so2":0.4,"mosquito_risk":10,"arthritis_risk":5,"migraine_risk":0,"frizz_risk":1,"updated_at":"2026-05-19T18:11:33.989466+05:30"},{"city":"Thrissur","state":"Kerala","latitude":10.5276,"longitude":76.2144,"temp":25.5,"humidity":96,"rain":0.1,"pressure":1004.9,"uv_index":8.05,"wind_gusts":34.9,"aqi":37,"pm10":10.2,"pm2_5":8.1,"no2":6.2,"co":301.0,"o3":56.0,"so2":2.1,"mosquito_risk":10,"arthritis_risk":5,"migraine_risk":4,"frizz_risk":1,"updated_at":"2026-05-19T18:11:33.989474+05:30"},{"city":"Kannur","state":"Kerala","latitude":11.8745,"longitude":75.3704,"temp":26.0,"humidity":97,"rain":0.2,"pressure":1005.4,"uv_index":8.3,"wind_gusts":37.8,"aqi":32,"pm10":6.7,"pm2_5":4.6,"no2":2.8,"co":210.0,"o3":64.0,"so2":0.9,"mosquito_risk":10,"arthritis_risk":5,"migraine_risk":4,"frizz_risk":1,"updated_at":"2026-05-19T18:11:33.989481+05:30"},{"city":"Patna","state":"Bihar","latitude":25.5941,"longitude":85.1376,"temp":32.6,"humidity":61,"rain":0.0,"pressure":994.2,"uv_index":8.8,"wind_gusts":42.1,"aqi":186,"pm10":77.8,"pm2_5":57.6,"no2":8.2,"co":460.0,"o3":185.0,"so2":18.8,"mosquito_risk":3,"arthritis_risk":5,"migraine_risk":7,"frizz_risk":1,"updated_at":"2026-05-19T18:11:33.989487+05:30"},{"city":"Gaya","state":"Bihar","latitude":24.7914,"longitude":85.0002,"temp":35.1,"humidity":51,"rain":0.0,"pressure":987.3,"uv_index":8.85,"wind_gusts":30.2,"aqi":204,"pm10":84.3,"pm2_5":57.7,"no2":6.6,"co":406.0,"o3":184.0,"so2":16.0,"mosquito_risk":0,"arthritis_risk":5,"migraine_risk":10,"frizz_risk":1,"updated_at":"2026-05-19T18:11:33.989495+05:30"},{"city":"Muzaffarpur","state":"Bihar","latitude":26.1209,"longitude":85.3647,"temp":32.0,"humidity":65,"rain":0.0,"pressure":994.1,"uv_index":8.8,"wind_gusts":44.3,"aqi":161,"pm10":78.2,"pm2_5":54.2,"no2":11.5,"co":433.0,"o3":150.0,"so2":15.8,"mosquito_risk":3,"arthritis_risk":5,"migraine_risk":7,"frizz_risk":1,"updated_at":"2026-05-19T18:11:33.989501+05:30"},{"city":"Bhagalpur","state":"Bihar","latitude":25.2425,"longitude":87.0117,"temp":31.4,"humidity":66,"rain":0.0,"pressure":995.0,"uv_index":8.8,"wind_gusts":37.4,"aqi":147,"pm10":54.7,"pm2_5":45.5,"no2":9.2,"co":386.0,"o3":161.0,"so2":22.8,"mosquito_risk":3,"arthritis_risk":5,"migraine_risk":7,"frizz_risk":1,"updated_at":"2026-05-19T18:11:33.989507+05:30"},{"city":"Ranchi","state":"Jharkhand","latitude":23.3441,"longitude":85.3096,"temp":30.7,"humidity":48,"rain":0.0,"pressure":932.5,"uv_index":9.25,"wind_gusts":47.9,"aqi":133,"pm10":136.4,"pm2_5":45.4,"no2":4.8,"co":320.0,"o3":142.0,"so2":9.1,"mosquito_risk":0,"arthritis_risk":5,"migraine_risk":7,"frizz_risk":1,"updated_at":"2026-05-19T18:11:33.989514+05:30"},{"city":"Jamshedpur","state":"Jharkhand","latitude":22.8046,"longitude":86.2029,"temp":34.5,"humidity":54,"rain":0.0,"pressure":983.1,"uv_index":9.1,"wind_gusts":45.7,"aqi":201,"pm10":115.5,"pm2_5":54.1,"no2":19.2,"co":358.0,"o3":158.0,"so2":36.2,"mosquito_risk":0,"arthritis_risk":5,"migraine_risk":7,"frizz_risk":1,"updated_at":"2026-05-19T18:11:33.989537+05:30"},{"city":"Dhanbad","state":"Jharkhand","latitude":23.7957,"longitude":86.4304,"temp":36.2,"humidity":45,"rain":0.0,"pressure":973.1,"uv_index":9.05,"wind_gusts":25.2,"aqi":207,"pm10":105.7,"pm2_5":74.5,"no2":32.8,"co":310.0,"o3":165.0,"so2":76.4,"mosquito_risk":0,"arthritis_risk":5,"migraine_risk":10,"frizz_risk":1,"updated_at":"2026-05-19T18:11:33.989545+05:30"},{"city":"Bokaro","state":"Jharkhand","latitude":23.6693,"longitude":86.1511,"temp":34.7,"humidity":52,"rain":0.0,"pressure":976.5,"uv_index":9.05,"wind_gusts":21.6,"aqi":195,"pm10":98.5,"pm2_5":54.2,"no2":24.7,"co":351.0,"o3":152.0,"so2":73.0,"mosquito_risk":0,"arthritis_risk":5,"migraine_risk":7,"frizz_risk":1,"updated_at":"2026-05-19T18:11:33.989551+05:30"},{"city":"Bhubaneswar","state":"Odisha","latitude":20.2961,"longitude":85.8245,"temp":33.2,"humidity":65,"rain":0.0,"pressure":995.6,"uv_index":9.15,"wind_gusts":44.3,"aqi":98,"pm10":24.5,"pm2_5":19.4,"no2":5.8,"co":347.0,"o3":95.0,"so2":5.6,"mosquito_risk":3,"arthritis_risk":5,"migraine_risk":7,"frizz_risk":1,"updated_at":"2026-05-19T18:11:33.989559+05:30"},{"city":"Cuttack","state":"Odisha","latitude":20.4625,"longitude":85.8828,"temp":32.5,"humidity":75,"rain":0.0,"pressure":997.0,"uv_index":9.2,"wind_gusts":33.8,"aqi":98,"pm10":24.5,"pm2_5":19.4,"no2":5.8,"co":347.0,"o3":95.0,"so2":5.6,"mosquito_risk":3,"arthritis_risk":5,"migraine_risk":7,"frizz_risk":1,"updated_at":"2026-05-19T18:11:33.989565+05:30"},{"city":"Rourkela","state":"Odisha","latitude":22.2604,"longitude":84.8536,"temp":35.5,"humidity":49,"rain":0.0,"pressure":977.5,"uv_index":9.0,"wind_gusts":44.6,"aqi":182,"pm10":252.4,"pm2_5":64.0,"no2":11.9,"co":532.0,"o3":133.0,"so2":9.3,"mosquito_risk":0,"arthritis_risk":5,"migraine_risk":10,"frizz_risk":1,"updated_at":"2026-05-19T18:11:33.989572+05:30"},{"city":"Raipur","state":"Chhattisgarh","latitude":21.2514,"longitude":81.6296,"temp":39.8,"humidity":22,"rain":0.0,"pressure":968.6,"uv_index":9.0,"wind_gusts":46.8,"aqi":158,"pm10":57.7,"pm2_5":38.5,"no2":15.6,"co":191.0,"o3":147.0,"so2":32.9,"mosquito_risk":0,"arthritis_risk":5,"migraine_risk":10,"frizz_risk":0,"updated_at":"2026-05-19T18:11:33.989579+05:30"},{"city":"Bhilai","state":"Chhattisgarh","latitude":21.1938,"longitude":81.3509,"temp":38.7,"humidity":27,"rain":0.0,"pressure":968.9,"uv_index":9.0,"wind_gusts":46.8,"aqi":141,"pm10":52.3,"pm2_5":33.8,"no2":15.6,"co":251.0,"o3":137.0,"so2":31.2,"mosquito_risk":0,"arthritis_risk":5,"migraine_risk":10,"frizz_risk":1,"updated_at":"2026-05-19T18:11:33.989586+05:30"},{"city":"Guwahati","state":"Assam","latitude":26.1158,"longitude":91.7086,"temp":28.2,"humidity":82,"rain":0.0,"pressure":995.8,"uv_index":8.75,"wind_gusts":22.0,"aqi":105,"pm10":41.3,"pm2_5":26.4,"no2":5.4,"co":458.0,"o3":112.0,"so2":5.2,"mosquito_risk":7,"arthritis_risk":5,"migraine_risk":7,"frizz_risk":1,"updated_at":"2026-05-19T18:11:33.989593+05:30"},{"city":"Agartala","state":"Tripura","latitude":23.8315,"longitude":91.2868,"temp":28.8,"humidity":84,"rain":0.0,"pressure":999.9,"uv_index":8.75,"wind_gusts":35.3,"aqi":89,"pm10":36.0,"pm2_5":25.6,"no2":10.1,"co":261.0,"o3":101.0,"so2":3.5,"mosquito_risk":7,"arthritis_risk":5,"migraine_risk":7,"frizz_risk":1,"updated_at":"2026-05-19T18:11:33.989600+05:30"},{"city":"Shillong","state":"Meghalaya","latitude":25.5788,"longitude":91.8933,"temp":20.9,"humidity":86,"rain":0.0,"pressure":854.1,"uv_index":7.1,"wind_gusts":24.5,"aqi":95,"pm10":34.2,"pm2_5":20.1,"no2":5.4,"co":313.0,"o3":113.0,"so2":4.7,"mosquito_risk":3,"arthritis_risk":5,"migraine_risk":7,"frizz_risk":1,"updated_at":"2026-05-19T18:11:33.989606+05:30"},{"city":"Imphal","state":"Manipur","latitude":24.817,"longitude":93.9368,"temp":25.6,"humidity":71,"rain":0.0,"pressure":918.3,"uv_index":9.1,"wind_gusts":36.0,"aqi":77,"pm10":20.0,"pm2_5":13.9,"no2":4.7,"co":274.0,"o3":94.0,"so2":3.2,"mosquito_risk":7,"arthritis_risk":5,"migraine_risk":7,"frizz_risk":1,"updated_at":"2026-05-19T18:11:33.989612+05:30"},{"city":"Aizawl","state":"Mizoram","latitude":23.7271,"longitude":92.7176,"temp":23.0,"humidity":80,"rain":0.0,"pressure":888.7,"uv_index":9.1,"wind_gusts":29.9,"aqi":98,"pm10":56.0,"pm2_5":25.3,"no2":4.9,"co":220.0,"o3":89.0,"so2":3.8,"mosquito_risk":3,"arthritis_risk":5,"migraine_risk":7,"frizz_risk":1,"updated_at":"2026-05-19T18:11:33.989619+05:30"},{"city":"Kohima","state":"Nagaland","latitude":25.6701,"longitude":94.1077,"temp":20.7,"humidity":91,"rain":0.0,"pressure":852.1,"uv_index":8.65,"wind_gusts":27.7,"aqi":69,"pm10":21.4,"pm2_5":14.5,"no2":5.2,"co":262.0,"o3":93.0,"so2":2.6,"mosquito_risk":3,"arthritis_risk":5,"migraine_risk":7,"frizz_risk":1,"updated_at":"2026-05-19T18:11:33.989626+05:30"},{"city":"Gangtok","state":"Sikkim","latitude":27.3314,"longitude":88.6138,"temp":19.9,"humidity":84,"rain":0.0,"pressure":835.0,"uv_index":9.05,"wind_gusts":39.6,"aqi":98,"pm10":31.4,"pm2_5":22.6,"no2":4.0,"co":343.0,"o3":134.0,"so2":3.4,"mosquito_risk":3,"arthritis_risk":10,"migraine_risk":7,"frizz_risk":1,"updated_at":"2026-05-19T18:11:33.989632+05:30"},{"city":"Siliguri","state":"West Bengal","latitude":26.7271,"longitude":88.3953,"temp":28.8,"humidity":80,"rain":0.0,"pressure":987.5,"uv_index":8.7,"wind_gusts":28.8,"aqi":149,"pm10":67.3,"pm2_5":37.4,"no2":5.2,"co":675.0,"o3":136.0,"so2":6.1,"mosquito_risk":7,"arthritis_risk":5,"migraine_risk":7,"frizz_risk":1,"updated_at":"2026-05-19T18:11:37.234066+05:30"},{"city":"Durgapur","state":"West Bengal","latitude":23.5204,"longitude":87.3119,"temp":35.5,"humidity":59,"rain":0.0,"pressure":987.5,"uv_index":9.0,"wind_gusts":46.1,"aqi":206,"pm10":98.3,"pm2_5":87.8,"no2":26.1,"co":647.0,"o3":212.0,"so2":58.3,"mosquito_risk":0,"arthritis_risk":5,"migraine_risk":10,"frizz_risk":1,"updated_at":"2026-05-19T18:11:37.234102+05:30"},{"city":"Asansol","state":"West Bengal","latitude":23.6739,"longitude":86.9524,"temp":35.5,"humidity":54,"rain":0.0,"pressure":986.2,"uv_index":9.0,"wind_gusts":44.6,"aqi":216,"pm10":100.4,"pm2_5":85.7,"no2":27.2,"co":441.0,"o3":197.0,"so2":48.7,"mosquito_risk":0,"arthritis_risk":5,"migraine_risk":10,"frizz_risk":1,"updated_at":"2026-05-19T18:11:37.234113+05:30"},{"city":"Pondicherry","state":"Puducherry","latitude":11.9139,"longitude":79.8145,"temp":31.9,"humidity":72,"rain":0.0,"pressure":1003.3,"uv_index":8.85,"wind_gusts":36.4,"aqi":105,"pm10":19.8,"pm2_5":16.4,"no2":9.9,"co":268.0,"o3":123.0,"so2":8.9,"mosquito_risk":3,"arthritis_risk":5,"migraine_risk":4,"frizz_risk":1,"updated_at":"2026-05-19T18:11:37.234121+05:30"},{"city":"Port Blair","state":"Andaman and Nicobar Islands","latitude":11.6234,"longitude":92.7265,"temp":27.5,"humidity":81,"rain":0.3,"pressure":1004.5,"uv_index":8.8,"wind_gusts":50.8,"aqi":26,"pm10":11.1,"pm2_5":6.2,"no2":0.5,"co":146.0,"o3":55.0,"so2":0.3,"mosquito_risk":10,"arthritis_risk":5,"migraine_risk":4,"frizz_risk":1,"updated_at":"2026-05-19T18:11:37.234129+05:30"},{"city":"Haridwar","state":"Uttarakhand","latitude":29.9457,"longitude":78.1642,"temp":36.3,"humidity":40,"rain":0.0,"pressure":967.4,"uv_index":7.55,"wind_gusts":34.6,"aqi":186,"pm10":94.5,"pm2_5":39.1,"no2":5.4,"co":417.0,"o3":192.0,"so2":17.9,"mosquito_risk":0,"arthritis_risk":5,"migraine_risk":10,"frizz_risk":1,"updated_at":"2026-05-19T18:11:37.234137+05:30"},{"city":"Rishikesh","state":"Uttarakhand","latitude":30.0869,"longitude":78.2676,"temp":34.8,"humidity":42,"rain":0.0,"pressure":960.5,"uv_index":7.65,"wind_gusts":32.0,"aqi":171,"pm10":89.4,"pm2_5":30.3,"no2":1.8,"co":403.0,"o3":168.0,"so2":9.7,"mosquito_risk":0,"arthritis_risk":5,"migraine_risk":7,"frizz_risk":1,"updated_at":"2026-05-19T18:11:37.234144+05:30"},{"city":"Nainital","state":"Uttarakhand","latitude":29.3919,"longitude":79.4542,"temp":21.9,"humidity":69,"rain":0.0,"pressure":805.6,"uv_index":8.5,"wind_gusts":38.2,"aqi":169,"pm10":56.9,"pm2_5":29.5,"no2":2.5,"co":329.0,"o3":191.0,"so2":15.2,"mosquito_risk":3,"arthritis_risk":5,"migraine_risk":7,"frizz_risk":1,"updated_at":"2026-05-19T18:11:37.234151+05:30"},{"city":"Mussoorie","state":"Uttarakhand","latitude":30.4599,"longitude":78.0664,"temp":22.9,"humidity":42,"rain":0.0,"pressure":803.5,"uv_index":8.05,"wind_gusts":52.9,"aqi":191,"pm10":77.8,"pm2_5":34.3,"no2":4.4,"co":340.0,"o3":189.0,"so2":14.4,"mosquito_risk":0,"arthritis_risk":5,"migraine_risk":7,"frizz_risk":0,"updated_at":"2026-05-19T18:11:37.234159+05:30"},{"city":"Dharamshala","state":"Himachal Pradesh","latitude":32.219,"longitude":76.3234,"temp":28.2,"humidity":31,"rain":0.0,"pressure":868.2,"uv_index":8.45,"wind_gusts":44.3,"aqi":100,"pm10":29.7,"pm2_5":11.1,"no2":0.9,"co":202.0,"o3":124.0,"so2":2.1,"mosquito_risk":4,"arthritis_risk":5,"migraine_risk":7,"frizz_risk":0,"updated_at":"2026-05-19T18:11:37.234167+05:30"},{"city":"Dalhousie","state":"Himachal Pradesh","latitude":32.5387,"longitude":75.971,"temp":20.2,"humidity":46,"rain":0.0,"pressure":804.4,"uv_index":8.7,"wind_gusts":44.6,"aqi":126,"pm10":34.8,"pm2_5":12.4,"no2":2.7,"co":202.0,"o3":123.0,"so2":1.9,"mosquito_risk":0,"arthritis_risk":5,"migraine_risk":7,"frizz_risk":0,"updated_at":"2026-05-19T18:11:37.234174+05:30"},{"city":"Patiala","state":"Punjab","latitude":30.3398,"longitude":76.3869,"temp":40.5,"humidity":14,"rain":0.0,"pressure":971.3,"uv_index":7.65,"wind_gusts":36.4,"aqi":379,"pm10":862.4,"pm2_5":111.3,"no2":3.9,"co":188.0,"o3":116.0,"so2":3.8,"mosquito_risk":0,"arthritis_risk":5,"migraine_risk":10,"frizz_risk":0,"updated_at":"2026-05-19T18:11:37.234182+05:30"},{"city":"Bhatinda","state":"Punjab","latitude":30.211,"longitude":74.9455,"temp":40.2,"humidity":12,"rain":0.0,"pressure":976.3,"uv_index":8.3,"wind_gusts":28.1,"aqi":97,"pm10":60.5,"pm2_5":19.0,"no2":3.3,"co":161.0,"o3":138.0,"so2":7.5,"mosquito_risk":0,"arthritis_risk":5,"migraine_risk":10,"frizz_risk":0,"updated_at":"2026-05-19T18:11:37.234189+05:30"},{"city":"Rohtak","state":"Haryana","latitude":28.8955,"longitude":76.6066,"temp":39.5,"humidity":20,"rain":0.0,"pressure":974.8,"uv_index":7.8,"wind_gusts":31.7,"aqi":670,"pm10":553.2,"pm2_5":75.9,"no2":8.3,"co":285.0,"o3":114.0,"so2":3.2,"mosquito_risk":0,"arthritis_risk":5,"migraine_risk":10,"frizz_risk":0,"updated_at":"2026-05-19T18:11:37.234195+05:30"},{"city":"Panipat","state":"Haryana","latitude":29.3909,"longitude":76.9635,"temp":40.3,"humidity":17,"rain":0.0,"pressure":973.3,"uv_index":7.6,"wind_gusts":37.8,"aqi":1399,"pm10":1359.7,"pm2_5":171.4,"no2":7.2,"co":182.0,"o3":110.0,"so2":5.9,"mosquito_risk":0,"arthritis_risk":5,"migraine_risk":10,"frizz_risk":0,"updated_at":"2026-05-19T18:11:37.234202+05:30"},{"city":"Mathura","state":"Uttar Pradesh","latitude":27.4924,"longitude":77.6737,"temp":40.8,"humidity":17,"rain":0.0,"pressure":979.6,"uv_index":8.05,"wind_gusts":42.8,"aqi":656,"pm10":523.4,"pm2_5":83.4,"no2":12.5,"co":205.0,"o3":107.0,"so2":3.9,"mosquito_risk":0,"arthritis_risk":5,"migraine_risk":10,"frizz_risk":0,"updated_at":"2026-05-19T18:11:37.234208+05:30"},{"city":"Vrindavan","state":"Uttar Pradesh","latitude":27.5823,"longitude":77.7027,"temp":39.3,"humidity":28,"rain":0.0,"pressure":979.9,"uv_index":8.0,"wind_gusts":41.0,"aqi":656,"pm10":523.4,"pm2_5":83.4,"no2":12.5,"co":237.0,"o3":107.0,"so2":3.9,"mosquito_risk":0,"arthritis_risk":5,"migraine_risk":10,"frizz_risk":1,"updated_at":"2026-05-19T18:11:37.234215+05:30"},{"city":"Ayodhya","state":"Uttar Pradesh","latitude":26.7922,"longitude":82.1998,"temp":36.5,"humidity":51,"rain":0.0,"pressure":988.3,"uv_index":8.4,"wind_gusts":35.3,"aqi":169,"pm10":164.4,"pm2_5":58.8,"no2":4.2,"co":432.0,"o3":162.0,"so2":11.8,"mosquito_risk":0,"arthritis_risk":5,"migraine_risk":10,"frizz_risk":1,"updated_at":"2026-05-19T18:11:37.234221+05:30"},{"city":"Ratlam","state":"Madhya Pradesh","latitude":23.3315,"longitude":75.0367,"temp":37.2,"humidity":14,"rain":0.0,"pressure":950.9,"uv_index":8.55,"wind_gusts":39.6,"aqi":65,"pm10":32.9,"pm2_5":15.5,"no2":0.7,"co":136.0,"o3":120.0,"so2":2.2,"mosquito_risk":0,"arthritis_risk":5,"migraine_risk":10,"frizz_risk":0,"updated_at":"2026-05-19T18:11:37.234228+05:30"},{"city":"Sagar","state":"Madhya Pradesh","latitude":23.8388,"longitude":78.7378,"temp":39.5,"humidity":15,"rain":0.0,"pressure":944.9,"uv_index":8.75,"wind_gusts":31.7,"aqi":87,"pm10":52.2,"pm2_5":16.6,"no2":0.9,"co":160.0,"o3":126.0,"so2":3.5,"mosquito_risk":0,"arthritis_risk":5,"migraine_risk":10,"frizz_risk":0,"updated_at":"2026-05-19T18:11:37.234234+05:30"},{"city":"Satna","state":"Madhya Pradesh","latitude":24.6005,"longitude":80.8322,"temp":39.5,"humidity":18,"rain":0.0,"pressure":964.9,"uv_index":8.75,"wind_gusts":45.0,"aqi":121,"pm10":78.9,"pm2_5":23.5,"no2":2.1,"co":170.0,"o3":116.0,"so2":3.6,"mosquito_risk":0,"arthritis_risk":5,"migraine_risk":10,"frizz_risk":0,"updated_at":"2026-05-19T18:11:37.234240+05:30"},{"city":"Akola","state":"Maharashtra","latitude":20.7002,"longitude":77.0082,"temp":41.9,"humidity":15,"rain":0.0,"pressure":968.4,"uv_index":8.85,"wind_gusts":36.0,"aqi":115,"pm10":45.4,"pm2_5":20.1,"no2":2.5,"co":180.0,"o3":138.0,"so2":6.5,"mosquito_risk":0,"arthritis_risk":5,"migraine_risk":10,"frizz_risk":0,"updated_at":"2026-05-19T18:11:37.234248+05:30"},{"city":"Amravati","state":"Maharashtra","latitude":20.9374,"longitude":77.7796,"temp":42.0,"humidity":13,"rain":0.0,"pressure":960.8,"uv_index":8.9,"wind_gusts":44.3,"aqi":115,"pm10":47.5,"pm2_5":19.8,"no2":3.1,"co":183.0,"o3":137.0,"so2":7.4,"mosquito_risk":0,"arthritis_risk":5,"migraine_risk":10,"frizz_risk":0,"updated_at":"2026-05-19T18:11:37.234255+05:30"},{"city":"Latur","state":"Maharashtra","latitude":18.4088,"longitude":76.5604,"temp":38.5,"humidity":21,"rain":0.0,"pressure":935.5,"uv_index":8.0,"wind_gusts":37.4,"aqi":123,"pm10":43.7,"pm2_5":24.2,"no2":2.0,"co":175.0,"o3":157.0,"so2":7.9,"mosquito_risk":0,"arthritis_risk":5,"migraine_risk":10,"frizz_risk":0,"updated_at":"2026-05-19T18:11:37.234262+05:30"},{"city":"Nanded","state":"Maharashtra","latitude":19.1383,"longitude":77.3091,"temp":40.2,"humidity":17,"rain":0.0,"pressure":962.5,"uv_index":8.15,"wind_gusts":40.0,"aqi":135,"pm10":45.6,"pm2_5":22.8,"no2":2.2,"co":184.0,"o3":152.0,"so2":5.7,"mosquito_risk":0,"arthritis_risk":5,"migraine_risk":10,"frizz_risk":0,"updated_at":"2026-05-19T18:11:37.234269+05:30"},{"city":"Gulbarga","state":"Karnataka","latitude":17.3297,"longitude":76.8343,"temp":32.5,"humidity":46,"rain":0.1,"pressure":953.8,"uv_index":9.1,"wind_gusts":36.4,"aqi":116,"pm10":38.0,"pm2_5":26.8,"no2":3.3,"co":217.0,"o3":154.0,"so2":6.3,"mosquito_risk":3,"arthritis_risk":5,"migraine_risk":7,"frizz_risk":1,"updated_at":"2026-05-19T18:11:37.234276+05:30"},{"city":"Bidar","state":"Karnataka","latitude":17.9104,"longitude":77.5199,"temp":25.4,"humidity":94,"rain":0.8,"pressure":930.6,"uv_index":9.1,"wind_gusts":47.9,"aqi":138,"pm10":42.4,"pm2_5":29.2,"no2":3.0,"co":211.0,"o3":157.0,"so2":5.2,"mosquito_risk":10,"arthritis_risk":5,"migraine_risk":7,"frizz_risk":1,"updated_at":"2026-05-19T18:11:37.234283+05:30"},{"city":"Hospet","state":"Karnataka","latitude":15.2689,"longitude":76.3909,"temp":30.5,"humidity":62,"rain":0.0,"pressure":952.7,"uv_index":6.85,"wind_gusts":43.6,"aqi":58,"pm10":9.0,"pm2_5":7.8,"no2":4.7,"co":198.0,"o3":103.0,"so2":2.2,"mosquito_risk":3,"arthritis_risk":5,"migraine_risk":7,"frizz_risk":1,"updated_at":"2026-05-19T18:11:37.234289+05:30"},{"city":"Tirupur","state":"Tamil Nadu","latitude":11.1085,"longitude":77.3411,"temp":29.6,"humidity":64,"rain":0.0,"pressure":972.0,"uv_index":8.9,"wind_gusts":60.8,"aqi":44,"pm10":7.7,"pm2_5":6.7,"no2":8.3,"co":180.0,"o3":78.0,"so2":2.4,"mosquito_risk":7,"arthritis_risk":5,"migraine_risk":7,"frizz_risk":1,"updated_at":"2026-05-19T18:11:37.234296+05:30"},{"city":"Alappuzha","state":"Kerala","latitude":9.4981,"longitude":76.3388,"temp":27.5,"humidity":87,"rain":0.1,"pressure":1006.7,"uv_index":8.7,"wind_gusts":32.4,"aqi":34,"pm10":10.1,"pm2_5":7.0,"no2":5.3,"co":118.0,"o3":57.0,"so2":1.2,"mosquito_risk":10,"arthritis_risk":5,"migraine_risk":4,"frizz_risk":1,"updated_at":"2026-05-19T18:11:37.234302+05:30"},{"city":"Munnar","state":"Kerala","latitude":10.0889,"longitude":77.0595,"temp":18.1,"humidity":98,"rain":0.3,"pressure":855.2,"uv_index":8.6,"wind_gusts":41.0,"aqi":34,"pm10":5.9,"pm2_5":4.9,"no2":4.9,"co":142.0,"o3":61.0,"so2":1.0,"mosquito_risk":6,"arthritis_risk":10,"migraine_risk":7,"frizz_risk":1,"updated_at":"2026-05-19T18:11:37.234309+05:30"},{"city":"Silchar","state":"Assam","latitude":24.8333,"longitude":92.7789,"temp":29.5,"humidity":80,"rain":0.0,"pressure":999.2,"uv_index":8.9,"wind_gusts":30.2,"aqi":93,"pm10":46.1,"pm2_5":25.3,"no2":4.5,"co":339.0,"o3":110.0,"so2":6.2,"mosquito_risk":7,"arthritis_risk":5,"migraine_risk":7,"frizz_risk":1,"updated_at":"2026-05-19T18:11:37.234315+05:30"},{"city":"Dibrugarh","state":"Assam","latitude":27.4728,"longitude":94.912,"temp":27.9,"humidity":80,"rain":0.0,"pressure":989.5,"uv_index":8.85,"wind_gusts":14.4,"aqi":103,"pm10":23.2,"pm2_5":20.0,"no2":7.6,"co":336.0,"o3":98.0,"so2":2.5,"mosquito_risk":7,"arthritis_risk":5,"migraine_risk":7,"frizz_risk":1,"updated_at":"2026-05-19T18:11:37.234322+05:30"}]