[{"city":"Delhi","state":"Delhi","latitude":28.6139,"longitude":77.209,"temp":30.7,"humidity":28,"rain":0.0,"pressure":987.3,"uv_index":7.15,"wind_gusts":42.1,"aqi":279,"pm10":1132.5,"pm2_5":127.6,"mosquito_risk":0,"arthritis_risk":5,"migraine_risk":7,"frizz_risk":0,"updated_at":"2026-04-10T14:44:14.215800+05:30"},{"city":"Mumbai","state":"Maharashtra","latitude":19.076,"longitude":72.8777,"temp":28.2,"humidity":71,"rain":0.0,"pressure":1009.6,"uv_index":7.95,"wind_gusts":25.9,"aqi":98,"pm10":111.5,"pm2_5":35.5,"mosquito_risk":7,"arthritis_risk":0,"migraine_risk":4,"frizz_risk":1,"updated_at":"2026-04-10T14:44:14.215849+05:30"},{"city":"Bangalore","state":"Karnataka","latitude":12.9716,"longitude":77.5946,"temp":35.5,"humidity":28,"rain":0.0,"pressure":913.1,"uv_index":9.65,"wind_gusts":38.2,"aqi":109,"pm10":38.2,"pm2_5":28.2,"mosquito_risk":0,"arthritis_risk":5,"migraine_risk":10,"frizz_risk":0,"updated_at":"2026-04-10T14:44:14.215864+05:30"},{"city":"Hyderabad","state":"Telangana","latitude":17.385,"longitude":78.4867,"temp":38.5,"humidity":19,"rain":0.0,"pressure":954.7,"uv_index":9.15,"wind_gusts":19.1,"aqi":98,"pm10":51.2,"pm2_5":27.4,"mosquito_risk":0,"arthritis_risk":5,"migraine_risk":10,"frizz_risk":0,"updated_at":"2026-04-10T14:44:14.215875+05:30"},{"city":"Chennai","state":"Tamil Nadu","latitude":13.0827,"longitude":80.2707,"temp":34.4,"humidity":59,"rain":0.0,"pressure":1008.1,"uv_index":9.4,"wind_gusts":35.3,"aqi":67,"pm10":25.8,"pm2_5":18.7,"mosquito_risk":0,"arthritis_risk":0,"migraine_risk":4,"frizz_risk":1,"updated_at":"2026-04-10T14:44:14.215883+05:30"},{"city":"Kolkata","state":"West Bengal","latitude":22.5726,"longitude":88.3639,"temp":32.2,"humidity":42,"rain":0.0,"pressure":1007.1,"uv_index":8.7,"wind_gusts":25.6,"aqi":156,"pm10":78.9,"pm2_5":41.1,"mosquito_risk":0,"arthritis_risk":5,"migraine_risk":4,"frizz_risk":1,"updated_at":"2026-04-10T14:44:14.215893+05:30"},{"city":"Pune","state":"Maharashtra","latitude":18.5204,"longitude":73.8567,"temp":37.4,"humidity":24,"rain":0.0,"pressure":949.9,"uv_index":8.55,"wind_gusts":31.7,"aqi":105,"pm10":43.1,"pm2_5":18.1,"mosquito_risk":0,"arthritis_risk":5,"migraine_risk":10,"frizz_risk":0,"updated_at":"2026-04-10T14:44:14.215906+05:30"},{"city":"Ahmedabad","state":"Gujarat","latitude":23.0225,"longitude":72.5714,"temp":37.5,"humidity":16,"rain":0.0,"pressure":1005.6,"uv_index":8.0,"wind_gusts":36.4,"aqi":86,"pm10":42.8,"pm2_5":12.7,"mosquito_risk":0,"arthritis_risk":5,"migraine_risk":7,"frizz_risk":0,"updated_at":"2026-04-10T14:44:14.215915+05:30"},{"city":"Jaipur","state":"Rajasthan","latitude":26.9124,"longitude":75.7873,"temp":31.8,"humidity":22,"rain":0.0,"pressure":965.7,"uv_index":7.75,"wind_gusts":28.1,"aqi":145,"pm10":210.0,"pm2_5":27.4,"mosquito_risk":0,"arthritis_risk":5,"migraine_risk":7,"frizz_risk":0,"updated_at":"2026-04-10T14:44:14.215923+05:30"},{"city":"Lucknow","state":"Uttar Pradesh","latitude":26.8467,"longitude":80.9462,"temp":31.5,"humidity":25,"rain":0.0,"pressure":996.3,"uv_index":7.65,"wind_gusts":43.2,"aqi":90,"pm10":300.8,"pm2_5":43.4,"mosquito_risk":0,"arthritis_risk":5,"migraine_risk":7,"frizz_risk":0,"updated_at":"2026-04-10T14:44:14.215932+05:30"},{"city":"Kanpur","state":"Uttar Pradesh","latitude":26.4499,"longitude":80.3319,"temp":30.6,"humidity":33,"rain":0.0,"pressure":995.2,"uv_index":7.65,"wind_gusts":38.5,"aqi":162,"pm10":730.2,"pm2_5":79.2,"mosquito_risk":0,"arthritis_risk":5,"migraine_risk":7,"frizz_risk":0,"updated_at":"2026-04-10T14:44:14.215940+05:30"},{"city":"Chandigarh","state":"Chandigarh","latitude":30.7333,"longitude":76.7794,"temp":29.1,"humidity":29,"rain":0.0,"pressure":973.5,"uv_index":7.15,"wind_gusts":44.3,"aqi":96,"pm10":12.3,"pm2_5":10.6,"mosquito_risk":4,"arthritis_risk":5,"migraine_risk":7,"frizz_risk":0,"updated_at":"2026-04-10T14:44:14.215948+05:30"},{"city":"Srinagar","state":"Jammu and Kashmir","latitude":34.0837,"longitude":74.7973,"temp":17.2,"humidity":39,"rain":0.0,"pressure":845.9,"uv_index":8.1,"wind_gusts":12.6,"aqi":76,"pm10":21.2,"pm2_5":8.2,"mosquito_risk":0,"arthritis_risk":5,"migraine_risk":7,"frizz_risk":0,"updated_at":"2026-04-10T14:44:14.215955+05:30"},{"city":"Jammu","state":"Jammu and Kashmir","latitude":32.7266,"longitude":74.857,"temp":29.7,"humidity":27,"rain":0.0,"pressure":978.0,"uv_index":7.75,"wind_gusts":37.1,"aqi":70,"pm10":11.4,"pm2_5":6.8,"mosquito_risk":4,"arthritis_risk":5,"migraine_risk":7,"frizz_risk":0,"updated_at":"2026-04-10T14:44:14.215963+05:30"},{"city":"Amritsar","state":"Punjab","latitude":31.634,"longitude":74.8723,"temp":29.2,"humidity":31,"rain":0.0,"pressure":986.8,"uv_index":7.7,"wind_gusts":32.8,"aqi":85,"pm10":18.5,"pm2_5":14.3,"mosquito_risk":4,"arthritis_risk":5,"migraine_risk":7,"frizz_risk":0,"updated_at":"2026-04-10T14:44:14.215970+05:30"},{"city":"Ludhiana","state":"Punjab","latitude":30.901,"longitude":75.8573,"temp":29.9,"humidity":28,"rain":0.0,"pressure":984.2,"uv_index":7.3,"wind_gusts":34.9,"aqi":70,"pm10":38.1,"pm2_5":13.5,"mosquito_risk":4,"arthritis_risk":5,"migraine_risk":7,"frizz_risk":0,"updated_at":"2026-04-10T14:44:14.215976+05:30"},{"city":"Jalandhar","state":"Punjab","latitude":31.326,"longitude":75.5762,"temp":29.5,"humidity":29,"rain":0.0,"pressure":985.5,"uv_index":7.5,"wind_gusts":33.1,"aqi":78,"pm10":53.6,"pm2_5":15.4,"mosquito_risk":4,"arthritis_risk":5,"migraine_risk":7,"frizz_risk":0,"updated_at":"2026-04-10T14:44:14.215985+05:30"},{"city":"Dehradun","state":"Uttarakhand","latitude":30.6284,"longitude":78.0322,"temp":18.5,"humidity":53,"rain":0.0,"pressure":832.4,"uv_index":7.55,"wind_gusts":29.2,"aqi":99,"pm10":8.4,"pm2_5":3.3,"mosquito_risk":0,"arthritis_risk":5,"migraine_risk":7,"frizz_risk":0,"updated_at":"2026-04-10T14:44:14.215992+05:30"},{"city":"Shimla","state":"Himachal Pradesh","latitude":31.1048,"longitude":77.1734,"temp":16.5,"humidity":47,"rain":0.0,"pressure":787.9,"uv_index":7.6,"wind_gusts":50.4,"aqi":103,"pm10":9.7,"pm2_5":5.0,"mosquito_risk":0,"arthritis_risk":5,"migraine_risk":7,"frizz_risk":0,"updated_at":"2026-04-10T14:44:14.215999+05:30"},{"city":"Manali","state":"Himachal Pradesh","latitude":32.2396,"longitude":77.1887,"temp":20.4,"humidity":39,"rain":0.0,"pressure":822.6,"uv_index":9.9,"wind_gusts":28.4,"aqi":142,"pm10":11.1,"pm2_5":5.6,"mosquito_risk":0,"arthritis_risk":5,"migraine_risk":7,"frizz_risk":0,"updated_at":"2026-04-10T14:44:14.216007+05:30"},{"city":"Gurgaon","state":"Haryana","latitude":28.4595,"longitude":77.0266,"temp":30.8,"humidity":28,"rain":0.0,"pressure":986.1,"uv_index":7.25,"wind_gusts":40.0,"aqi":1086,"pm10":2838.7,"pm2_5":270.1,"mosquito_risk":0,"arthritis_risk":5,"migraine_risk":7,"frizz_risk":0,"updated_at":"2026-04-10T14:44:14.216014+05:30"},{"city":"Noida","state":"Uttar Pradesh","latitude":28.5355,"longitude":77.391,"temp":30.7,"humidity":28,"rain":0.0,"pressure":988.9,"uv_index":7.15,"wind_gusts":41.4,"aqi":1086,"pm10":2838.7,"pm2_5":270.1,"mosquito_risk":0,"arthritis_risk":5,"migraine_risk":7,"frizz_risk":0,"updated_at":"2026-04-10T14:44:14.216022+05:30"},{"city":"Ghaziabad","state":"Uttar Pradesh","latitude":28.6692,"longitude":77.4538,"temp":30.5,"humidity":29,"rain":0.0,"pressure":986.9,"uv_index":7.15,"wind_gusts":42.1,"aqi":156,"pm10":912.7,"pm2_5":110.4,"mosquito_risk":0,"arthritis_risk":5,"migraine_risk":7,"frizz_risk":0,"updated_at":"2026-04-10T14:44:14.216029+05:30"},{"city":"Faridabad","state":"Haryana","latitude":28.4089,"longitude":77.3178,"temp":30.5,"humidity":29,"rain":0.0,"pressure":988.3,"uv_index":7.2,"wind_gusts":40.7,"aqi":1086,"pm10":2838.7,"pm2_5":270.1,"mosquito_risk":0,"arthritis_risk":5,"migraine_risk":7,"frizz_risk":0,"updated_at":"2026-04-10T14:44:14.216036+05:30"},{"city":"Meerut","state":"Uttar Pradesh","latitude":28.9845,"longitude":77.7064,"temp":30.4,"humidity":27,"rain":0.0,"pressure":985.3,"uv_index":7.05,"wind_gusts":44.3,"aqi":156,"pm10":912.7,"pm2_5":110.4,"mosquito_risk":0,"arthritis_risk":5,"migraine_risk":7,"frizz_risk":0,"updated_at":"2026-04-10T14:44:14.216043+05:30"},{"city":"Agra","state":"Uttar Pradesh","latitude":27.1767,"longitude":78.0081,"temp":31.8,"humidity":24,"rain":0.0,"pressure":992.5,"uv_index":7.5,"wind_gusts":37.1,"aqi":613,"pm10":1482.7,"pm2_5":128.5,"mosquito_risk":0,"arthritis_risk":5,"migraine_risk":7,"frizz_risk":0,"updated_at":"2026-04-10T14:44:14.216050+05:30"},{"city":"Varanasi","state":"Uttar Pradesh","latitude":25.3176,"longitude":82.9739,"temp":33.5,"humidity":21,"rain":0.0,"pressure":999.9,"uv_index":8.2,"wind_gusts":41.8,"aqi":106,"pm10":61.5,"pm2_5":18.0,"mosquito_risk":0,"arthritis_risk":5,"migraine_risk":7,"frizz_risk":0,"updated_at":"2026-04-10T14:44:14.216060+05:30"},{"city":"Prayagraj","state":"Uttar Pradesh","latitude":25.4358,"longitude":81.8463,"temp":33.2,"humidity":24,"rain":0.0,"pressure":998.9,"uv_index":8.05,"wind_gusts":36.0,"aqi":103,"pm10":80.1,"pm2_5":21.6,"mosquito_risk":0,"arthritis_risk":5,"migraine_risk":7,"frizz_risk":0,"updated_at":"2026-04-10T14:44:14.216070+05:30"},{"city":"Gorakhpur","state":"Uttar Pradesh","latitude":26.7606,"longitude":83.3732,"temp":33.5,"humidity":15,"rain":0.0,"pressure":998.1,"uv_index":8.05,"wind_gusts":47.9,"aqi":101,"pm10":43.1,"pm2_5":14.5,"mosquito_risk":0,"arthritis_risk":5,"migraine_risk":7,"frizz_risk":0,"updated_at":"2026-04-10T14:44:14.216077+05:30"},{"city":"Bareilly","state":"Uttar Pradesh","latitude":28.367,"longitude":79.4304,"temp":30.2,"humidity":30,"rain":0.0,"pressure":989.7,"uv_index":7.4,"wind_gusts":39.2,"aqi":88,"pm10":48.1,"pm2_5":19.3,"mosquito_risk":0,"arthritis_risk":5,"migraine_risk":7,"frizz_risk":0,"updated_at":"2026-04-10T14:44:14.216084+05:30"},{"city":"Aligarh","state":"Uttar Pradesh","latitude":27.8974,"longitude":78.088,"temp":31.0,"humidity":26,"rain":0.0,"pressure":989.8,"uv_index":7.3,"wind_gusts":42.5,"aqi":455,"pm10":1803.0,"pm2_5":182.1,"mosquito_risk":0,"arthritis_risk":5,"migraine_risk":7,"frizz_risk":0,"updated_at":"2026-04-10T14:44:14.216091+05:30"},{"city":"Moradabad","state":"Uttar Pradesh","latitude":28.8386,"longitude":78.7733,"temp":30.1,"humidity":29,"rain":0.0,"pressure":986.7,"uv_index":7.2,"wind_gusts":40.7,"aqi":78,"pm10":76.1,"pm2_5":25.1,"mosquito_risk":0,"arthritis_risk":5,"migraine_risk":7,"frizz_risk":0,"updated_at":"2026-04-10T14:44:14.216098+05:30"},{"city":"Saharanpur","state":"Uttar Pradesh","latitude":29.9637,"longitude":77.546,"temp":29.7,"humidity":25,"rain":0.0,"pressure":979.2,"uv_index":6.85,"wind_gusts":56.2,"aqi":82,"pm10":146.2,"pm2_5":26.5,"mosquito_risk":4,"arthritis_risk":5,"migraine_risk":7,"frizz_risk":0,"updated_at":"2026-04-10T14:44:14.216105+05:30"},{"city":"Jhansi","state":"Uttar Pradesh","latitude":25.4484,"longitude":78.5685,"temp":33.2,"humidity":24,"rain":0.0,"pressure":982.4,"uv_index":8.0,"wind_gusts":33.1,"aqi":98,"pm10":93.4,"pm2_5":23.6,"mosquito_risk":0,"arthritis_risk":5,"migraine_risk":7,"frizz_risk":0,"updated_at":"2026-04-10T14:44:17.557060+05:30"},{"city":"Surat","state":"Gujarat","latitude":21.1702,"longitude":72.8311,"temp":36.3,"humidity":26,"rain":0.0,"pressure":1008.5,"uv_index":7.75,"wind_gusts":22.0,"aqi":140,"pm10":78.5,"pm2_5":49.7,"mosquito_risk":0,"arthritis_risk":0,"migraine_risk":7,"frizz_risk":0,"updated_at":"2026-04-10T14:44:17.557090+05:30"},{"city":"Vadodara","state":"Gujarat","latitude":22.3072,"longitude":73.1812,"temp":37.8,"humidity":17,"rain":0.0,"pressure":1006.8,"uv_index":8.0,"wind_gusts":29.5,"aqi":80,"pm10":39.9,"pm2_5":15.0,"mosquito_risk":0,"arthritis_risk":5,"migraine_risk":7,"frizz_risk":0,"updated_at":"2026-04-10T14:44:17.557100+05:30"},{"city":"Rajkot","state":"Gujarat","latitude":22.3039,"longitude":70.8022,"temp":37.2,"humidity":27,"rain":0.0,"pressure":997.2,"uv_index":7.7,"wind_gusts":25.9,"aqi":72,"pm10":44.0,"pm2_5":16.1,"mosquito_risk":0,"arthritis_risk":5,"migraine_risk":10,"frizz_risk":0,"updated_at":"2026-04-10T14:44:17.557108+05:30"},{"city":"Thane","state":"Maharashtra","latitude":19.2183,"longitude":72.9781,"temp":31.6,"humidity":51,"rain":0.0,"pressure":1009.5,"uv_index":7.95,"wind_gusts":37.1,"aqi":98,"pm10":111.5,"pm2_5":35.5,"mosquito_risk":0,"arthritis_risk":0,"migraine_risk":4,"frizz_risk":1,"updated_at":"2026-04-10T14:44:17.557115+05:30"},{"city":"Nagpur","state":"Maharashtra","latitude":21.1458,"longitude":79.0882,"temp":34.6,"humidity":31,"rain":0.0,"pressure":975.8,"uv_index":8.75,"wind_gusts":24.1,"aqi":101,"pm10":61.7,"pm2_5":27.2,"mosquito_risk":0,"arthritis_risk":5,"migraine_risk":7,"frizz_risk":0,"updated_at":"2026-04-10T14:44:17.557123+05:30"},{"city":"Nashik","state":"Maharashtra","latitude":19.9975,"longitude":73.7898,"temp":34.5,"humidity":25,"rain":0.0,"pressure":947.9,"uv_index":8.2,"wind_gusts":28.1,"aqi":83,"pm10":38.0,"pm2_5":19.2,"mosquito_risk":0,"arthritis_risk":5,"migraine_risk":7,"frizz_risk":0,"updated_at":"2026-04-10T14:44:17.557131+05:30"},{"city":"Aurangabad","state":"Maharashtra","latitude":19.8762,"longitude":75.3433,"temp":36.4,"humidity":20,"rain":0.0,"pressure":946.5,"uv_index":8.9,"wind_gusts":28.4,"aqi":109,"pm10":34.1,"pm2_5":17.6,"mosquito_risk":0,"arthritis_risk":5,"migraine_risk":10,"frizz_risk":0,"updated_at":"2026-04-10T14:44:17.557138+05:30"},{"city":"Solapur","state":"Maharashtra","latitude":17.6599,"longitude":75.9064,"temp":38.9,"humidity":21,"rain":0.0,"pressure":958.2,"uv_index":9.0,"wind_gusts":23.4,"aqi":80,"pm10":48.3,"pm2_5":20.2,"mosquito_risk":0,"arthritis_risk":5,"migraine_risk":10,"frizz_risk":0,"updated_at":"2026-04-10T14:44:17.557145+05:30"},{"city":"Kolhapur","state":"Maharashtra","latitude":16.705,"longitude":74.2433,"temp":36.2,"humidity":26,"rain":0.0,"pressure":949.2,"uv_index":9.0,"wind_gusts":35.3,"aqi":87,"pm10":43.2,"pm2_5":18.3,"mosquito_risk":0,"arthritis_risk":5,"migraine_risk":10,"frizz_risk":0,"updated_at":"2026-04-10T14:44:17.557153+05:30"},{"city":"Goa","state":"Goa","latitude":15.2993,"longitude":74.124,"temp":32.3,"humidity":56,"rain":0.0,"pressure":998.3,"uv_index":9.0,"wind_gusts":36.0,"aqi":69,"pm10":104.3,"pm2_5":33.2,"mosquito_risk":0,"arthritis_risk":5,"migraine_risk":7,"frizz_risk":1,"updated_at":"2026-04-10T14:44:17.557160+05:30"},{"city":"Jodhpur","state":"Rajasthan","latitude":26.2389,"longitude":73.0243,"temp":34.4,"humidity":19,"rain":0.0,"pressure":988.7,"uv_index":8.0,"wind_gusts":22.7,"aqi":85,"pm10":51.9,"pm2_5":13.1,"mosquito_risk":0,"arthritis_risk":5,"migraine_risk":7,"frizz_risk":0,"updated_at":"2026-04-10T14:44:17.557167+05:30"},{"city":"Udaipur","state":"Rajasthan","latitude":24.5854,"longitude":73.7125,"temp":33.1,"humidity":16,"rain":0.0,"pressure":952.1,"uv_index":8.55,"wind_gusts":29.9,"aqi":85,"pm10":42.6,"pm2_5":10.4,"mosquito_risk":0,"arthritis_risk":5,"migraine_risk":7,"frizz_risk":0,"updated_at":"2026-04-10T14:44:17.557174+05:30"},{"city":"Kota","state":"Rajasthan","latitude":25.2138,"longitude":75.8648,"temp":33.0,"humidity":20,"rain":0.0,"pressure":984.5,"uv_index":8.0,"wind_gusts":22.0,"aqi":77,"pm10":67.8,"pm2_5":17.3,"mosquito_risk":0,"arthritis_risk":5,"migraine_risk":7,"frizz_risk":0,"updated_at":"2026-04-10T14:44:17.557180+05:30"},{"city":"Bikaner","state":"Rajasthan","latitude":28.0229,"longitude":73.3119,"temp":33.3,"humidity":19,"rain":0.0,"pressure":988.0,"uv_index":7.85,"wind_gusts":19.8,"aqi":92,"pm10":39.2,"pm2_5":13.2,"mosquito_risk":0,"arthritis_risk":5,"migraine_risk":7,"frizz_risk":0,"updated_at":"2026-04-10T14:44:17.557186+05:30"},{"city":"Ajmer","state":"Rajasthan","latitude":26.4499,"longitude":74.6399,"temp":32.5,"humidity":17,"rain":0.0,"pressure":960.6,"uv_index":7.95,"wind_gusts":19.4,"aqi":74,"pm10":38.0,"pm2_5":11.0,"mosquito_risk":0,"arthritis_risk":5,"migraine_risk":7,"frizz_risk":0,"updated_at":"2026-04-10T14:44:17.557192+05:30"},{"city":"Gwalior","state":"Madhya Pradesh","latitude":26.2183,"longitude":78.1828,"temp":31.2,"humidity":31,"rain":0.0,"pressure":988.2,"uv_index":7.75,"wind_gusts":35.3,"aqi":124,"pm10":63.8,"pm2_5":17.8,"mosquito_risk":0,"arthritis_risk":5,"migraine_risk":7,"frizz_risk":0,"updated_at":"2026-04-10T14:44:17.557199+05:30"},{"city":"Indore","state":"Madhya Pradesh","latitude":22.7196,"longitude":75.8577,"temp":34.0,"humidity":19,"rain":0.0,"pressure":952.2,"uv_index":8.45,"wind_gusts":31.0,"aqi":91,"pm10":50.5,"pm2_5":18.0,"mosquito_risk":0,"arthritis_risk":5,"migraine_risk":7,"frizz_risk":0,"updated_at":"2026-04-10T14:44:17.557206+05:30"},{"city":"Bhopal","state":"Madhya Pradesh","latitude":23.2599,"longitude":77.4126,"temp":35.3,"humidity":16,"rain":0.0,"pressure":957.8,"uv_index":8.45,"wind_gusts":30.2,"aqi":82,"pm10":54.9,"pm2_5":15.4,"mosquito_risk":0,"arthritis_risk":5,"migraine_risk":10,"frizz_risk":0,"updated_at":"2026-04-10T14:44:17.557212+05:30"},{"city":"Jabalpur","state":"Madhya Pradesh","latitude":23.1815,"longitude":79.9864,"temp":33.7,"humidity":23,"rain":0.0,"pressure":965.1,"uv_index":8.55,"wind_gusts":24.1,"aqi":88,"pm10":70.3,"pm2_5":20.8,"mosquito_risk":0,"arthritis_risk":5,"migraine_risk":7,"frizz_risk":0,"updated_at":"2026-04-10T14:44:17.557219+05:30"},{"city":"Ujjain","state":"Madhya Pradesh","latitude":23.1765,"longitude":75.7885,"temp":34.1,"humidity":20,"rain":0.0,"pressure":958.1,"uv_index":8.35,"wind_gusts":29.5,"aqi":78,"pm10":44.0,"pm2_5":15.7,"mosquito_risk":0,"arthritis_risk":5,"migraine_risk":7,"frizz_risk":0,"updated_at":"2026-04-10T14:44:17.557226+05:30"},{"city":"Visakhapatnam","state":"Andhra Pradesh","latitude":17.6868,"longitude":83.2185,"temp":34.3,"humidity":55,"rain":0.0,"pressure":1004.5,"uv_index":9.1,"wind_gusts":36.7,"aqi":100,"pm10":57.2,"pm2_5":46.1,"mosquito_risk":0,"arthritis_risk":5,"migraine_risk":4,"frizz_risk":1,"updated_at":"2026-04-10T14:44:17.557233+05:30"},{"city":"Vijayawada","state":"Andhra Pradesh","latitude":16.5062,"longitude":80.648,"temp":39.0,"humidity":34,"rain":0.0,"pressure":1002.3,"uv_index":9.2,"wind_gusts":37.4,"aqi":89,"pm10":41.7,"pm2_5":30.5,"mosquito_risk":0,"arthritis_risk":5,"migraine_risk":7,"frizz_risk":1,"updated_at":"2026-04-10T14:44:17.557240+05:30"},{"city":"Guntur","state":"Andhra Pradesh","latitude":16.3067,"longitude":80.4365,"temp":36.7,"humidity":44,"rain":0.0,"pressure":1004.1,"uv_index":9.2,"wind_gusts":33.8,"aqi":90,"pm10":40.3,"pm2_5":27.8,"mosquito_risk":0,"arthritis_risk":5,"migraine_risk":7,"frizz_risk":1,"updated_at":"2026-04-10T14:44:17.557246+05:30"},{"city":"Nellore","state":"Andhra Pradesh","latitude":14.4426,"longitude":79.9865,"temp":37.7,"humidity":45,"rain":0.0,"pressure":1005.8,"uv_index":9.3,"wind_gusts":34.6,"aqi":74,"pm10":35.0,"pm2_5":26.1,"mosquito_risk":0,"arthritis_risk":5,"migraine_risk":7,"frizz_risk":1,"updated_at":"2026-04-10T14:44:17.557253+05:30"},{"city":"Kurnool","state":"Andhra Pradesh","latitude":15.8281,"longitude":78.0373,"temp":39.1,"humidity":31,"rain":0.0,"pressure":976.9,"uv_index":9.15,"wind_gusts":26.6,"aqi":92,"pm10":37.8,"pm2_5":26.7,"mosquito_risk":0,"arthritis_risk":5,"migraine_risk":10,"frizz_risk":1,"updated_at":"2026-04-10T14:44:17.557260+05:30"},{"city":"Kakinada","state":"Andhra Pradesh","latitude":16.9891,"longitude":82.2475,"temp":37.7,"humidity":41,"rain":0.0,"pressure":1007.5,"uv_index":9.15,"wind_gusts":39.2,"aqi":77,"pm10":28.7,"pm2_5":20.3,"mosquito_risk":0,"arthritis_risk":5,"migraine_risk":7,"frizz_risk":1,"updated_at":"2026-04-10T14:44:17.557267+05:30"},{"city":"Tirupati","state":"Andhra Pradesh","latitude":13.6288,"longitude":79.4192,"temp":36.1,"humidity":42,"rain":0.0,"pressure":991.9,"uv_index":9.15,"wind_gusts":30.2,"aqi":90,"pm10":35.4,"pm2_5":28.7,"mosquito_risk":0,"arthritis_risk":5,"migraine_risk":10,"frizz_risk":1,"updated_at":"2026-04-10T14:44:17.557273+05:30"},{"city":"Warangal","state":"Telangana","latitude":17.9689,"longitude":79.5941,"temp":38.2,"humidity":30,"rain":0.0,"pressure":979.4,"uv_index":9.05,"wind_gusts":23.4,"aqi":122,"pm10":57.6,"pm2_5":29.5,"mosquito_risk":0,"arthritis_risk":5,"migraine_risk":10,"frizz_risk":1,"updated_at":"2026-04-10T14:44:17.557279+05:30"},{"city":"Nizamabad","state":"Telangana","latitude":18.6725,"longitude":78.0941,"temp":36.9,"humidity":26,"rain":0.0,"pressure":966.7,"uv_index":8.95,"wind_gusts":30.2,"aqi":90,"pm10":48.5,"pm2_5":21.9,"mosquito_risk":0,"arthritis_risk":5,"migraine_risk":10,"frizz_risk":0,"updated_at":"2026-04-10T14:44:17.557286+05:30"},{"city":"Mysore","state":"Karnataka","latitude":12.2958,"longitude":76.6396,"temp":35.7,"humidity":29,"rain":0.0,"pressure":929.4,"uv_index":9.55,"wind_gusts":33.5,"aqi":79,"pm10":38.3,"pm2_5":20.1,"mosquito_risk":0,"arthritis_risk":5,"migraine_risk":10,"frizz_risk":0,"updated_at":"2026-04-10T14:44:17.557292+05:30"},{"city":"Mangalore","state":"Karnataka","latitude":12.9141,"longitude":74.856,"temp":29.0,"humidity":81,"rain":0.0,"pressure":1006.7,"uv_index":9.05,"wind_gusts":30.2,"aqi":67,"pm10":59.0,"pm2_5":18.9,"mosquito_risk":7,"arthritis_risk":5,"migraine_risk":4,"frizz_risk":1,"updated_at":"2026-04-10T14:44:17.557298+05:30"},{"city":"Hubli-Dharwad","state":"Karnataka","latitude":15.3647,"longitude":75.124,"temp":37.8,"humidity":22,"rain":0.0,"pressure":941.9,"uv_index":9.2,"wind_gusts":36.0,"aqi":65,"pm10":55.5,"pm2_5":22.7,"mosquito_risk":0,"arthritis_risk":5,"migraine_risk":10,"frizz_risk":0,"updated_at":"2026-04-10T14:44:17.557305+05:30"},{"city":"Belgaum","state":"Karnataka","latitude":15.8497,"longitude":74.4977,"temp":35.6,"humidity":26,"rain":0.0,"pressure":927.4,"uv_index":9.25,"wind_gusts":37.1,"aqi":73,"pm10":49.4,"pm2_5":20.5,"mosquito_risk":0,"arthritis_risk":5,"migraine_risk":10,"frizz_risk":0,"updated_at":"2026-04-10T14:44:20.895070+05:30"},{"city":"Coimbatore","state":"Tamil Nadu","latitude":11.0168,"longitude":76.9558,"temp":36.6,"humidity":34,"rain":0.0,"pressure":962.1,"uv_index":9.5,"wind_gusts":42.5,"aqi":83,"pm10":26.1,"pm2_5":20.5,"mosquito_risk":0,"arthritis_risk":5,"migraine_risk":10,"frizz_risk":1,"updated_at":"2026-04-10T14:44:20.895104+05:30"},{"city":"Madurai","state":"Tamil Nadu","latitude":9.9252,"longitude":78.1198,"temp":37.4,"humidity":35,"rain":0.0,"pressure":992.9,"uv_index":9.4,"wind_gusts":44.6,"aqi":92,"pm10":26.0,"pm2_5":22.8,"mosquito_risk":0,"arthritis_risk":5,"migraine_risk":10,"frizz_risk":1,"updated_at":"2026-04-10T14:44:20.895118+05:30"},{"city":"Trichy","state":"Tamil Nadu","latitude":10.7905,"longitude":78.7047,"temp":37.7,"humidity":35,"rain":0.0,"pressure":999.4,"uv_index":9.4,"wind_gusts":28.8,"aqi":66,"pm10":23.3,"pm2_5":18.1,"mosquito_risk":0,"arthritis_risk":5,"migraine_risk":10,"frizz_risk":1,"updated_at":"2026-04-10T14:44:20.895129+05:30"},{"city":"Salem","state":"Tamil Nadu","latitude":11.6643,"longitude":78.146,"temp":35.8,"humidity":42,"rain":0.0,"pressure":977.4,"uv_index":9.05,"wind_gusts":24.1,"aqi":80,"pm10":32.7,"pm2_5":28.8,"mosquito_risk":0,"arthritis_risk":5,"migraine_risk":10,"frizz_risk":1,"updated_at":"2026-04-10T14:44:20.895138+05:30"},{"city":"Tirunelveli","state":"Tamil Nadu","latitude":8.7139,"longitude":77.7567,"temp":38.1,"humidity":33,"rain":0.0,"pressure":1002.5,"uv_index":9.35,"wind_gusts":41.8,"aqi":94,"pm10":28.1,"pm2_5":25.3,"mosquito_risk":0,"arthritis_risk":5,"migraine_risk":7,"frizz_risk":1,"updated_at":"2026-04-10T14:44:20.895147+05:30"},{"city":"Vellore","state":"Tamil Nadu","latitude":12.9165,"longitude":79.1325,"temp":36.6,"humidity":38,"rain":0.0,"pressure":984.8,"uv_index":9.5,"wind_gusts":33.8,"aqi":94,"pm10":33.2,"pm2_5":27.4,"mosquito_risk":0,"arthritis_risk":5,"migraine_risk":10,"frizz_risk":1,"updated_at":"2026-04-10T14:44:20.895156+05:30"},{"city":"Erode","state":"Tamil Nadu","latitude":11.341,"longitude":77.7172,"temp":38.1,"humidity":36,"rain":0.0,"pressure":988.5,"uv_index":9.45,"wind_gusts":31.3,"aqi":76,"pm10":29.0,"pm2_5":24.2,"mosquito_risk":0,"arthritis_risk":5,"migraine_risk":10,"frizz_risk":1,"updated_at":"2026-04-10T14:44:20.895166+05:30"},{"city":"Kochi","state":"Kerala","latitude":9.9312,"longitude":76.2673,"temp":30.1,"humidity":79,"rain":0.0,"pressure":1008.3,"uv_index":9.25,"wind_gusts":28.8,"aqi":72,"pm10":32.4,"pm2_5":19.4,"mosquito_risk":3,"arthritis_risk":0,"migraine_risk":4,"frizz_risk":1,"updated_at":"2026-04-10T14:44:20.895175+05:30"},{"city":"Thiruvananthapuram","state":"Kerala","latitude":8.5241,"longitude":76.9366,"temp":30.0,"humidity":78,"rain":0.0,"pressure":1007.8,"uv_index":8.95,"wind_gusts":27.7,"aqi":72,"pm10":38.3,"pm2_5":21.4,"mosquito_risk":7,"arthritis_risk":5,"migraine_risk":4,"frizz_risk":1,"updated_at":"2026-04-10T14:44:20.895182+05:30"},{"city":"Kozhikode","state":"Kerala","latitude":11.2588,"longitude":75.7804,"temp":31.1,"humidity":71,"rain":0.0,"pressure":1007.7,"uv_index":9.15,"wind_gusts":28.8,"aqi":69,"pm10":61.0,"pm2_5":20.4,"mosquito_risk":3,"arthritis_risk":5,"migraine_risk":4,"frizz_risk":1,"updated_at":"2026-04-10T14:44:20.895188+05:30"},{"city":"Thrissur","state":"Kerala","latitude":10.5276,"longitude":76.2144,"temp":34.9,"humidity":52,"rain":0.0,"pressure":1006.8,"uv_index":9.2,"wind_gusts":34.9,"aqi":80,"pm10":34.0,"pm2_5":21.2,"mosquito_risk":0,"arthritis_risk":5,"migraine_risk":4,"frizz_risk":1,"updated_at":"2026-04-10T14:44:20.895195+05:30"},{"city":"Kannur","state":"Kerala","latitude":11.8745,"longitude":75.3704,"temp":32.2,"humidity":66,"rain":0.0,"pressure":1007.1,"uv_index":9.15,"wind_gusts":36.0,"aqi":69,"pm10":59.3,"pm2_5":20.1,"mosquito_risk":3,"arthritis_risk":5,"migraine_risk":4,"frizz_risk":1,"updated_at":"2026-04-10T14:44:20.895203+05:30"},{"city":"Patna","state":"Bihar","latitude":25.5941,"longitude":85.1376,"temp":33.3,"humidity":21,"rain":0.0,"pressure":1001.2,"uv_index":8.35,"wind_gusts":42.5,"aqi":104,"pm10":48.3,"pm2_5":16.5,"mosquito_risk":0,"arthritis_risk":5,"migraine_risk":4,"frizz_risk":0,"updated_at":"2026-04-10T14:44:20.895210+05:30"},{"city":"Gaya","state":"Bihar","latitude":24.7914,"longitude":85.0002,"temp":32.7,"humidity":22,"rain":0.0,"pressure":995.5,"uv_index":8.45,"wind_gusts":40.3,"aqi":104,"pm10":49.4,"pm2_5":15.6,"mosquito_risk":0,"arthritis_risk":5,"migraine_risk":7,"frizz_risk":0,"updated_at":"2026-04-10T14:44:20.895216+05:30"},{"city":"Muzaffarpur","state":"Bihar","latitude":26.1209,"longitude":85.3647,"temp":33.3,"humidity":20,"rain":0.0,"pressure":1000.8,"uv_index":8.35,"wind_gusts":40.0,"aqi":96,"pm10":41.6,"pm2_5":15.2,"mosquito_risk":0,"arthritis_risk":5,"migraine_risk":4,"frizz_risk":0,"updated_at":"2026-04-10T14:44:20.895223+05:30"},{"city":"Bhagalpur","state":"Bihar","latitude":25.2425,"longitude":87.0117,"temp":31.0,"humidity":30,"rain":0.0,"pressure":1002.3,"uv_index":8.4,"wind_gusts":34.9,"aqi":125,"pm10":31.7,"pm2_5":13.9,"mosquito_risk":0,"arthritis_risk":5,"migraine_risk":4,"frizz_risk":0,"updated_at":"2026-04-10T14:44:20.895229+05:30"},{"city":"Ranchi","state":"Jharkhand","latitude":23.3441,"longitude":85.3096,"temp":29.8,"humidity":27,"rain":0.0,"pressure":940.0,"uv_index":9.0,"wind_gusts":38.9,"aqi":101,"pm10":44.0,"pm2_5":13.0,"mosquito_risk":4,"arthritis_risk":5,"migraine_risk":7,"frizz_risk":0,"updated_at":"2026-04-10T14:44:20.895236+05:30"},{"city":"Jamshedpur","state":"Jharkhand","latitude":22.8046,"longitude":86.2029,"temp":32.8,"humidity":32,"rain":0.0,"pressure":992.5,"uv_index":8.85,"wind_gusts":19.1,"aqi":143,"pm10":61.2,"pm2_5":21.2,"mosquito_risk":0,"arthritis_risk":5,"migraine_risk":7,"frizz_risk":0,"updated_at":"2026-04-10T14:44:20.895243+05:30"},{"city":"Dhanbad","state":"Jharkhand","latitude":23.7957,"longitude":86.4304,"temp":32.9,"humidity":19,"rain":0.0,"pressure":981.4,"uv_index":8.75,"wind_gusts":36.4,"aqi":152,"pm10":43.5,"pm2_5":15.5,"mosquito_risk":0,"arthritis_risk":5,"migraine_risk":7,"frizz_risk":0,"updated_at":"2026-04-10T14:44:20.895249+05:30"},{"city":"Bokaro","state":"Jharkhand","latitude":23.6693,"longitude":86.1511,"temp":32.4,"humidity":22,"rain":0.0,"pressure":985.4,"uv_index":8.8,"wind_gusts":38.5,"aqi":138,"pm10":43.4,"pm2_5":15.3,"mosquito_risk":0,"arthritis_risk":5,"migraine_risk":7,"frizz_risk":0,"updated_at":"2026-04-10T14:44:20.895256+05:30"},{"city":"Bhubaneswar","state":"Odisha","latitude":20.2961,"longitude":85.8245,"temp":33.4,"humidity":52,"rain":0.0,"pressure":1003.9,"uv_index":9.0,"wind_gusts":25.9,"aqi":133,"pm10":93.8,"pm2_5":53.2,"mosquito_risk":0,"arthritis_risk":5,"migraine_risk":4,"frizz_risk":1,"updated_at":"2026-04-10T14:44:20.895263+05:30"},{"city":"Cuttack","state":"Odisha","latitude":20.4625,"longitude":85.8828,"temp":34.5,"humidity":45,"rain":0.0,"pressure":1005.7,"uv_index":9.05,"wind_gusts":24.5,"aqi":133,"pm10":93.8,"pm2_5":53.2,"mosquito_risk":0,"arthritis_risk":5,"migraine_risk":4,"frizz_risk":1,"updated_at":"2026-04-10T14:44:20.895269+05:30"},{"city":"Rourkela","state":"Odisha","latitude":22.2604,"longitude":84.8536,"temp":33.8,"humidity":30,"rain":0.0,"pressure":987.0,"uv_index":8.75,"wind_gusts":21.6,"aqi":104,"pm10":70.3,"pm2_5":22.0,"mosquito_risk":0,"arthritis_risk":5,"migraine_risk":7,"frizz_risk":0,"updated_at":"2026-04-10T14:44:20.895276+05:30"},{"city":"Raipur","state":"Chhattisgarh","latitude":21.2514,"longitude":81.6296,"temp":36.9,"humidity":21,"rain":0.0,"pressure":976.7,"uv_index":8.8,"wind_gusts":24.1,"aqi":132,"pm10":68.7,"pm2_5":29.8,"mosquito_risk":0,"arthritis_risk":5,"migraine_risk":10,"frizz_risk":0,"updated_at":"2026-04-10T14:44:20.895282+05:30"},{"city":"Bhilai","state":"Chhattisgarh","latitude":21.1938,"longitude":81.3509,"temp":37.0,"humidity":23,"rain":0.0,"pressure":977.1,"uv_index":8.8,"wind_gusts":22.3,"aqi":119,"pm10":70.5,"pm2_5":31.8,"mosquito_risk":0,"arthritis_risk":5,"migraine_risk":10,"frizz_risk":0,"updated_at":"2026-04-10T14:44:20.895289+05:30"},{"city":"Guwahati","state":"Assam","latitude":26.1158,"longitude":91.7086,"temp":26.6,"humidity":66,"rain":0.0,"pressure":1002.1,"uv_index":8.2,"wind_gusts":32.8,"aqi":90,"pm10":41.2,"pm2_5":28.3,"mosquito_risk":7,"arthritis_risk":5,"migraine_risk":4,"frizz_risk":1,"updated_at":"2026-04-10T14:44:20.895296+05:30"},{"city":"Agartala","state":"Tripura","latitude":23.8315,"longitude":91.2868,"temp":29.5,"humidity":54,"rain":0.0,"pressure":1006.9,"uv_index":8.55,"wind_gusts":26.6,"aqi":156,"pm10":61.5,"pm2_5":42.5,"mosquito_risk":4,"arthritis_risk":5,"migraine_risk":4,"frizz_risk":1,"updated_at":"2026-04-10T14:44:20.895302+05:30"},{"city":"Shillong","state":"Meghalaya","latitude":25.5788,"longitude":91.8933,"temp":16.7,"humidity":52,"rain":0.0,"pressure":855.6,"uv_index":7.05,"wind_gusts":47.9,"aqi":96,"pm10":40.6,"pm2_5":28.1,"mosquito_risk":0,"arthritis_risk":5,"migraine_risk":7,"frizz_risk":0,"updated_at":"2026-04-10T14:44:20.895308+05:30"},{"city":"Imphal","state":"Manipur","latitude":24.817,"longitude":93.9368,"temp":19.3,"humidity":66,"rain":0.0,"pressure":923.0,"uv_index":8.9,"wind_gusts":61.6,"aqi":117,"pm10":32.4,"pm2_5":23.2,"mosquito_risk":3,"arthritis_risk":5,"migraine_risk":7,"frizz_risk":0,"updated_at":"2026-04-10T14:44:20.895315+05:30"},{"city":"Aizawl","state":"Mizoram","latitude":23.7271,"longitude":92.7176,"temp":23.0,"humidity":45,"rain":0.0,"pressure":893.8,"uv_index":8.8,"wind_gusts":58.0,"aqi":76,"pm10":34.3,"pm2_5":16.3,"mosquito_risk":0,"arthritis_risk":5,"migraine_risk":7,"frizz_risk":0,"updated_at":"2026-04-10T14:44:20.895321+05:30"},{"city":"Kohima","state":"Nagaland","latitude":25.6701,"longitude":94.1077,"temp":15.2,"humidity":78,"rain":0.0,"pressure":853.5,"uv_index":8.45,"wind_gusts":64.4,"aqi":80,"pm10":23.6,"pm2_5":17.3,"mosquito_risk":3,"arthritis_risk":5,"migraine_risk":7,"frizz_risk":0,"updated_at":"2026-04-10T14:44:20.895328+05:30"},{"city":"Gangtok","state":"Sikkim","latitude":27.3314,"longitude":88.6138,"temp":15.7,"humidity":72,"rain":0.1,"pressure":836.1,"uv_index":8.4,"wind_gusts":15.5,"aqi":101,"pm10":32.8,"pm2_5":23.9,"mosquito_risk":6,"arthritis_risk":5,"migraine_risk":7,"frizz_risk":0,"updated_at":"2026-04-10T14:44:20.895334+05:30"},{"city":"Siliguri","state":"West Bengal","latitude":26.7271,"longitude":88.3953,"temp":22.5,"humidity":64,"rain":0.0,"pressure":994.4,"uv_index":8.2,"wind_gusts":29.9,"aqi":108,"pm10":47.3,"pm2_5":32.7,"mosquito_risk":3,"arthritis_risk":5,"migraine_risk":7,"frizz_risk":0,"updated_at":"2026-04-10T14:44:24.232417+05:30"},{"city":"Durgapur","state":"West Bengal","latitude":23.5204,"longitude":87.3119,"temp":32.5,"humidity":29,"rain":0.0,"pressure":996.4,"uv_index":8.7,"wind_gusts":24.1,"aqi":153,"pm10":45.4,"pm2_5":17.1,"mosquito_risk":0,"arthritis_risk":5,"migraine_risk":7,"frizz_risk":0,"updated_at":"2026-04-10T14:44:24.232448+05:30"},{"city":"Asansol","state":"West Bengal","latitude":23.6739,"longitude":86.9524,"temp":32.7,"humidity":26,"rain":0.0,"pressure":995.0,"uv_index":8.75,"wind_gusts":31.3,"aqi":137,"pm10":46.2,"pm2_5":17.2,"mosquito_risk":0,"arthritis_risk":5,"migraine_risk":7,"frizz_risk":0,"updated_at":"2026-04-10T14:44:24.232458+05:30"},{"city":"Pondicherry","state":"Puducherry","latitude":11.9139,"longitude":79.8145,"temp":36.6,"humidity":45,"rain":0.0,"pressure":1008.3,"uv_index":8.9,"wind_gusts":33.8,"aqi":65,"pm10":22.2,"pm2_5":16.1,"mosquito_risk":0,"arthritis_risk":0,"migraine_risk":7,"frizz_risk":1,"updated_at":"2026-04-10T14:44:24.232467+05:30"},{"city":"Port Blair","state":"Andaman and Nicobar Islands","latitude":11.6234,"longitude":92.7265,"temp":28.8,"humidity":80,"rain":0.0,"pressure":1007.9,"uv_index":9.15,"wind_gusts":18.4,"aqi":34,"pm10":9.1,"pm2_5":6.5,"mosquito_risk":7,"arthritis_risk":5,"migraine_risk":4,"frizz_risk":1,"updated_at":"2026-04-10T14:44:24.232475+05:30"},{"city":"Haridwar","state":"Uttarakhand","latitude":29.9457,"longitude":78.1642,"temp":30.1,"humidity":30,"rain":0.0,"pressure":977.0,"uv_index":6.95,"wind_gusts":50.8,"aqi":91,"pm10":25.6,"pm2_5":14.1,"mosquito_risk":0,"arthritis_risk":5,"migraine_risk":7,"frizz_risk":0,"updated_at":"2026-04-10T14:44:24.232482+05:30"},{"city":"Rishikesh","state":"Uttarakhand","latitude":30.0869,"longitude":78.2676,"temp":28.6,"humidity":34,"rain":0.0,"pressure":969.7,"uv_index":7.0,"wind_gusts":40.3,"aqi":107,"pm10":12.4,"pm2_5":11.8,"mosquito_risk":4,"arthritis_risk":5,"migraine_risk":7,"frizz_risk":0,"updated_at":"2026-04-10T14:44:24.232490+05:30"},{"city":"Nainital","state":"Uttarakhand","latitude":29.3919,"longitude":79.4542,"temp":20.4,"humidity":48,"rain":0.0,"pressure":808.2,"uv_index":7.85,"wind_gusts":61.9,"aqi":110,"pm10":14.2,"pm2_5":13.4,"mosquito_risk":0,"arthritis_risk":5,"migraine_risk":7,"frizz_risk":0,"updated_at":"2026-04-10T14:44:24.232498+05:30"},{"city":"Mussoorie","state":"Uttarakhand","latitude":30.4599,"longitude":78.0664,"temp":19.0,"humidity":47,"rain":0.0,"pressure":805.3,"uv_index":7.4,"wind_gusts":41.4,"aqi":101,"pm10":12.6,"pm2_5":11.9,"mosquito_risk":0,"arthritis_risk":5,"migraine_risk":7,"frizz_risk":0,"updated_at":"2026-04-10T14:44:24.232505+05:30"},{"city":"Dharamshala","state":"Himachal Pradesh","latitude":32.219,"longitude":76.3234,"temp":21.5,"humidity":48,"rain":0.0,"pressure":873.3,"uv_index":7.6,"wind_gusts":27.0,"aqi":145,"pm10":10.2,"pm2_5":5.3,"mosquito_risk":0,"arthritis_risk":5,"migraine_risk":7,"frizz_risk":0,"updated_at":"2026-04-10T14:44:24.232511+05:30"},{"city":"Dalhousie","state":"Himachal Pradesh","latitude":32.5387,"longitude":75.971,"temp":19.3,"humidity":47,"rain":0.0,"pressure":807.9,"uv_index":7.85,"wind_gusts":19.8,"aqi":90,"pm10":9.6,"pm2_5":7.9,"mosquito_risk":0,"arthritis_risk":5,"migraine_risk":7,"frizz_risk":0,"updated_at":"2026-04-10T14:44:24.232519+05:30"},{"city":"Patiala","state":"Punjab","latitude":30.3398,"longitude":76.3869,"temp":30.2,"humidity":26,"rain":0.0,"pressure":983.2,"uv_index":7.0,"wind_gusts":40.3,"aqi":484,"pm10":1076.6,"pm2_5":96.9,"mosquito_risk":0,"arthritis_risk":5,"migraine_risk":7,"frizz_risk":0,"updated_at":"2026-04-10T14:44:24.232525+05:30"},{"city":"Bhatinda","state":"Punjab","latitude":30.211,"longitude":74.9455,"temp":31.2,"humidity":25,"rain":0.0,"pressure":989.7,"uv_index":7.65,"wind_gusts":32.0,"aqi":83,"pm10":27.5,"pm2_5":12.3,"mosquito_risk":0,"arthritis_risk":5,"migraine_risk":7,"frizz_risk":0,"updated_at":"2026-04-10T14:44:24.232532+05:30"},{"city":"Rohtak","state":"Haryana","latitude":28.8955,"longitude":76.6066,"temp":31.9,"humidity":23,"rain":0.0,"pressure":986.6,"uv_index":7.15,"wind_gusts":41.8,"aqi":559,"pm10":1542.3,"pm2_5":150.4,"mosquito_risk":0,"arthritis_risk":5,"migraine_risk":7,"frizz_risk":0,"updated_at":"2026-04-10T14:44:24.232539+05:30"},{"city":"Panipat","state":"Haryana","latitude":29.3909,"longitude":76.9635,"temp":31.1,"humidity":24,"rain":0.0,"pressure":984.8,"uv_index":7.0,"wind_gusts":44.6,"aqi":1209,"pm10":2689.7,"pm2_5":245.9,"mosquito_risk":0,"arthritis_risk":5,"migraine_risk":7,"frizz_risk":0,"updated_at":"2026-04-10T14:44:24.232545+05:30"},{"city":"Mathura","state":"Uttar Pradesh","latitude":27.4924,"longitude":77.6737,"temp":31.6,"humidity":26,"rain":0.0,"pressure":991.6,"uv_index":7.45,"wind_gusts":35.6,"aqi":613,"pm10":1560.9,"pm2_5":137.4,"mosquito_risk":0,"arthritis_risk":5,"migraine_risk":7,"frizz_risk":0,"updated_at":"2026-04-10T14:44:24.232552+05:30"},{"city":"Vrindavan","state":"Uttar Pradesh","latitude":27.5823,"longitude":77.7027,"temp":31.1,"humidity":27,"rain":0.0,"pressure":991.9,"uv_index":7.4,"wind_gusts":40.0,"aqi":613,"pm10":1560.9,"pm2_5":137.4,"mosquito_risk":0,"arthritis_risk":5,"migraine_risk":7,"frizz_risk":0,"updated_at":"2026-04-10T14:44:24.232559+05:30"},{"city":"Ayodhya","state":"Uttar Pradesh","latitude":26.7922,"longitude":82.1998,"temp":32.8,"humidity":19,"rain":0.0,"pressure":997.2,"uv_index":7.8,"wind_gusts":50.4,"aqi":91,"pm10":50.1,"pm2_5":15.5,"mosquito_risk":0,"arthritis_risk":5,"migraine_risk":7,"frizz_risk":0,"updated_at":"2026-04-10T14:44:24.232566+05:30"},{"city":"Ratlam","state":"Madhya Pradesh","latitude":23.3315,"longitude":75.0367,"temp":34.0,"humidity":21,"rain":0.0,"pressure":958.8,"uv_index":8.3,"wind_gusts":32.4,"aqi":83,"pm10":38.5,"pm2_5":13.5,"mosquito_risk":0,"arthritis_risk":5,"migraine_risk":7,"frizz_risk":0,"updated_at":"2026-04-10T14:44:24.232572+05:30"},{"city":"Sagar","state":"Madhya Pradesh","latitude":23.8388,"longitude":78.7378,"temp":34.7,"humidity":14,"rain":0.0,"pressure":954.3,"uv_index":8.4,"wind_gusts":29.5,"aqi":88,"pm10":50.1,"pm2_5":13.3,"mosquito_risk":0,"arthritis_risk":5,"migraine_risk":7,"frizz_risk":0,"updated_at":"2026-04-10T14:44:24.232578+05:30"},{"city":"Satna","state":"Madhya Pradesh","latitude":24.6005,"longitude":80.8322,"temp":33.7,"humidity":18,"rain":0.0,"pressure":974.6,"uv_index":8.45,"wind_gusts":35.3,"aqi":103,"pm10":73.8,"pm2_5":17.2,"mosquito_risk":0,"arthritis_risk":5,"migraine_risk":7,"frizz_risk":0,"updated_at":"2026-04-10T14:44:24.232584+05:30"},{"city":"Akola","state":"Maharashtra","latitude":20.7002,"longitude":77.0082,"temp":38.9,"humidity":19,"rain":0.0,"pressure":977.0,"uv_index":8.7,"wind_gusts":21.6,"aqi":89,"pm10":46.8,"pm2_5":21.9,"mosquito_risk":0,"arthritis_risk":5,"migraine_risk":10,"frizz_risk":0,"updated_at":"2026-04-10T14:44:24.232591+05:30"},{"city":"Amravati","state":"Maharashtra","latitude":20.9374,"longitude":77.7796,"temp":37.4,"humidity":21,"rain":0.0,"pressure":969.7,"uv_index":8.7,"wind_gusts":28.4,"aqi":82,"pm10":48.4,"pm2_5":20.4,"mosquito_risk":0,"arthritis_risk":5,"migraine_risk":10,"frizz_risk":0,"updated_at":"2026-04-10T14:44:24.232599+05:30"},{"city":"Latur","state":"Maharashtra","latitude":18.4088,"longitude":76.5604,"temp":35.2,"humidity":29,"rain":0.0,"pressure":942.0,"uv_index":8.95,"wind_gusts":30.2,"aqi":81,"pm10":43.7,"pm2_5":22.3,"mosquito_risk":0,"arthritis_risk":5,"migraine_risk":10,"frizz_risk":0,"updated_at":"2026-04-10T14:44:24.232605+05:30"},{"city":"Nanded","state":"Maharashtra","latitude":19.1383,"longitude":77.3091,"temp":37.7,"humidity":23,"rain":0.0,"pressure":970.4,"uv_index":8.85,"wind_gusts":19.4,"aqi":83,"pm10":38.6,"pm2_5":19.0,"mosquito_risk":0,"arthritis_risk":5,"migraine_risk":10,"frizz_risk":0,"updated_at":"2026-04-10T14:44:24.232612+05:30"},{"city":"Gulbarga","state":"Karnataka","latitude":17.3297,"longitude":76.8343,"temp":39.0,"humidity":21,"rain":0.0,"pressure":959.8,"uv_index":9.05,"wind_gusts":26.3,"aqi":80,"pm10":47.7,"pm2_5":24.9,"mosquito_risk":0,"arthritis_risk":5,"migraine_risk":10,"frizz_risk":0,"updated_at":"2026-04-10T14:44:24.232618+05:30"},{"city":"Bidar","state":"Karnataka","latitude":17.9104,"longitude":77.5199,"temp":36.7,"humidity":23,"rain":0.0,"pressure":937.5,"uv_index":9.05,"wind_gusts":28.8,"aqi":87,"pm10":60.5,"pm2_5":24.0,"mosquito_risk":0,"arthritis_risk":5,"migraine_risk":10,"frizz_risk":0,"updated_at":"2026-04-10T14:44:24.232624+05:30"},{"city":"Hospet","state":"Karnataka","latitude":15.2689,"longitude":76.3909,"temp":37.6,"humidity":28,"rain":0.0,"pressure":956.3,"uv_index":9.25,"wind_gusts":23.4,"aqi":76,"pm10":39.3,"pm2_5":19.7,"mosquito_risk":0,"arthritis_risk":5,"migraine_risk":10,"frizz_risk":0,"updated_at":"2026-04-10T14:44:24.232630+05:30"},{"city":"Tirupur","state":"Tamil Nadu","latitude":11.1085,"longitude":77.3411,"temp":38.4,"humidity":31,"rain":0.0,"pressure":975.1,"uv_index":9.5,"wind_gusts":28.4,"aqi":93,"pm10":27.8,"pm2_5":22.6,"mosquito_risk":0,"arthritis_risk":5,"migraine_risk":10,"frizz_risk":1,"updated_at":"2026-04-10T14:44:24.232636+05:30"},{"city":"Alappuzha","state":"Kerala","latitude":9.4981,"longitude":76.3388,"temp":30.4,"humidity":76,"rain":0.0,"pressure":1008.4,"uv_index":9.2,"wind_gusts":25.9,"aqi":74,"pm10":45.5,"pm2_5":24.7,"mosquito_risk":3,"arthritis_risk":0,"migraine_risk":4,"frizz_risk":1,"updated_at":"2026-04-10T14:44:24.232643+05:30"},{"city":"Munnar","state":"Kerala","latitude":10.0889,"longitude":77.0595,"temp":29.7,"humidity":49,"rain":0.0,"pressure":860.1,"uv_index":8.1,"wind_gusts":28.8,"aqi":74,"pm10":25.9,"pm2_5":23.5,"mosquito_risk":4,"arthritis_risk":5,"migraine_risk":7,"frizz_risk":1,"updated_at":"2026-04-10T14:44:24.232650+05:30"},{"city":"Silchar","state":"Assam","latitude":24.8333,"longitude":92.7789,"temp":27.4,"humidity":59,"rain":0.0,"pressure":1006.1,"uv_index":8.55,"wind_gusts":32.8,"aqi":143,"pm10":49.5,"pm2_5":37.6,"mosquito_risk":4,"arthritis_risk":5,"migraine_risk":4,"frizz_risk":1,"updated_at":"2026-04-10T14:44:24.232656+05:30"},{"city":"Dibrugarh","state":"Assam","latitude":27.4728,"longitude":94.912,"temp":22.5,"humidity":77,"rain":0.0,"pressure":996.5,"uv_index":8.35,"wind_gusts":16.2,"aqi":107,"pm10":32.4,"pm2_5":23.0,"mosquito_risk":3,"arthritis_risk":5,"migraine_risk":7,"frizz_risk":1,"updated_at":"2026-04-10T14:44:24.232663+05:30"}]