[{"city":"Delhi","state":"Delhi","latitude":28.6139,"longitude":77.209,"temp":35.5,"humidity":42,"rain":0.0,"pressure":977.0,"uv_index":7.8,"wind_gusts":29.2,"aqi":206,"pm10":334.3,"pm2_5":87.3,"no2":4.2,"co":228.0,"o3":193.0,"so2":17.6,"mosquito_risk":0,"arthritis_risk":5,"migraine_risk":10,"frizz_risk":1,"updated_at":"2026-06-14T15:08:46.979430+05:30"},{"city":"Mumbai","state":"Maharashtra","latitude":19.076,"longitude":72.8777,"temp":32.6,"humidity":62,"rain":0.0,"pressure":1007.1,"uv_index":7.7,"wind_gusts":53.3,"aqi":69,"pm10":47.1,"pm2_5":22.0,"no2":2.6,"co":125.0,"o3":73.0,"so2":3.9,"mosquito_risk":3,"arthritis_risk":5,"migraine_risk":4,"frizz_risk":1,"updated_at":"2026-06-14T15:08:46.979474+05:30"},{"city":"Bangalore","state":"Karnataka","latitude":12.9716,"longitude":77.5946,"temp":30.1,"humidity":49,"rain":0.0,"pressure":910.9,"uv_index":8.2,"wind_gusts":40.7,"aqi":47,"pm10":40.4,"pm2_5":15.7,"no2":2.9,"co":213.0,"o3":83.0,"so2":2.4,"mosquito_risk":0,"arthritis_risk":5,"migraine_risk":7,"frizz_risk":1,"updated_at":"2026-06-14T15:08:46.979508+05:30"},{"city":"Hyderabad","state":"Telangana","latitude":17.385,"longitude":78.4867,"temp":33.8,"humidity":45,"rain":0.0,"pressure":950.3,"uv_index":4.35,"wind_gusts":40.3,"aqi":86,"pm10":48.7,"pm2_5":23.3,"no2":1.5,"co":177.0,"o3":119.0,"so2":4.5,"mosquito_risk":0,"arthritis_risk":5,"migraine_risk":3,"frizz_risk":1,"updated_at":"2026-06-14T15:08:46.979521+05:30"},{"city":"Chennai","state":"Tamil Nadu","latitude":13.0827,"longitude":80.2707,"temp":33.9,"humidity":52,"rain":0.0,"pressure":1003.5,"uv_index":8.8,"wind_gusts":37.8,"aqi":63,"pm10":38.2,"pm2_5":23.5,"no2":4.2,"co":155.0,"o3":141.0,"so2":7.1,"mosquito_risk":0,"arthritis_risk":5,"migraine_risk":4,"frizz_risk":1,"updated_at":"2026-06-14T15:08:46.979530+05:30"},{"city":"Kolkata","state":"West Bengal","latitude":22.5726,"longitude":88.3639,"temp":32.3,"humidity":67,"rain":0.0,"pressure":999.3,"uv_index":9.0,"wind_gusts":41.4,"aqi":109,"pm10":39.2,"pm2_5":35.0,"no2":3.0,"co":376.0,"o3":173.0,"so2":11.6,"mosquito_risk":3,"arthritis_risk":5,"migraine_risk":7,"frizz_risk":1,"updated_at":"2026-06-14T15:08:46.979539+05:30"},{"city":"Pune","state":"Maharashtra","latitude":18.5204,"longitude":73.8567,"temp":31.9,"humidity":47,"rain":0.0,"pressure":947.2,"uv_index":8.3,"wind_gusts":50.8,"aqi":56,"pm10":41.4,"pm2_5":19.3,"no2":1.5,"co":121.0,"o3":101.0,"so2":5.0,"mosquito_risk":0,"arthritis_risk":5,"migraine_risk":7,"frizz_risk":1,"updated_at":"2026-06-14T15:08:46.979546+05:30"},{"city":"Ahmedabad","state":"Gujarat","latitude":23.0225,"longitude":72.5714,"temp":40.0,"humidity":29,"rain":0.0,"pressure":997.3,"uv_index":8.05,"wind_gusts":47.5,"aqi":71,"pm10":69.6,"pm2_5":23.2,"no2":0.9,"co":120.0,"o3":82.0,"so2":2.5,"mosquito_risk":0,"arthritis_risk":5,"migraine_risk":10,"frizz_risk":1,"updated_at":"2026-06-14T15:08:46.979554+05:30"},{"city":"Jaipur","state":"Rajasthan","latitude":26.9124,"longitude":75.7873,"temp":37.4,"humidity":34,"rain":0.0,"pressure":954.7,"uv_index":8.2,"wind_gusts":45.0,"aqi":127,"pm10":336.2,"pm2_5":74.3,"no2":0.7,"co":142.0,"o3":100.0,"so2":3.4,"mosquito_risk":0,"arthritis_risk":5,"migraine_risk":10,"frizz_risk":1,"updated_at":"2026-06-14T15:08:46.979567+05:30"},{"city":"Lucknow","state":"Uttar Pradesh","latitude":26.8467,"longitude":80.9462,"temp":36.3,"humidity":39,"rain":0.0,"pressure":986.7,"uv_index":8.35,"wind_gusts":29.5,"aqi":153,"pm10":233.3,"pm2_5":64.0,"no2":1.2,"co":221.0,"o3":153.0,"so2":7.7,"mosquito_risk":0,"arthritis_risk":5,"migraine_risk":10,"frizz_risk":1,"updated_at":"2026-06-14T15:08:46.979574+05:30"},{"city":"Kanpur","state":"Uttar Pradesh","latitude":26.4499,"longitude":80.3319,"temp":38.9,"humidity":29,"rain":0.0,"pressure":985.2,"uv_index":8.3,"wind_gusts":36.0,"aqi":153,"pm10":338.1,"pm2_5":70.8,"no2":1.2,"co":216.0,"o3":143.0,"so2":6.1,"mosquito_risk":0,"arthritis_risk":5,"migraine_risk":10,"frizz_risk":1,"updated_at":"2026-06-14T15:08:46.979581+05:30"},{"city":"Chandigarh","state":"Chandigarh","latitude":30.7333,"longitude":76.7794,"temp":33.9,"humidity":41,"rain":0.0,"pressure":963.2,"uv_index":7.8,"wind_gusts":24.1,"aqi":98,"pm10":36.2,"pm2_5":18.9,"no2":1.7,"co":276.0,"o3":163.0,"so2":9.2,"mosquito_risk":0,"arthritis_risk":5,"migraine_risk":7,"frizz_risk":1,"updated_at":"2026-06-14T15:08:46.979588+05:30"},{"city":"Srinagar","state":"Jammu and Kashmir","latitude":34.0837,"longitude":74.7973,"temp":25.3,"humidity":42,"rain":0.0,"pressure":840.4,"uv_index":9.0,"wind_gusts":21.6,"aqi":70,"pm10":13.6,"pm2_5":8.2,"no2":1.1,"co":291.0,"o3":145.0,"so2":1.7,"mosquito_risk":4,"arthritis_risk":5,"migraine_risk":7,"frizz_risk":0,"updated_at":"2026-06-14T15:08:46.979596+05:30"},{"city":"Jammu","state":"Jammu and Kashmir","latitude":32.7266,"longitude":74.857,"temp":35.5,"humidity":27,"rain":0.0,"pressure":967.4,"uv_index":8.6,"wind_gusts":30.6,"aqi":81,"pm10":28.8,"pm2_5":16.5,"no2":1.6,"co":223.0,"o3":167.0,"so2":1.9,"mosquito_risk":0,"arthritis_risk":5,"migraine_risk":10,"frizz_risk":0,"updated_at":"2026-06-14T15:08:46.979603+05:30"},{"city":"Amritsar","state":"Punjab","latitude":31.634,"longitude":74.8723,"temp":34.6,"humidity":38,"rain":0.0,"pressure":975.1,"uv_index":8.4,"wind_gusts":18.4,"aqi":105,"pm10":43.9,"pm2_5":20.7,"no2":1.6,"co":250.0,"o3":169.0,"so2":4.0,"mosquito_risk":0,"arthritis_risk":5,"migraine_risk":7,"frizz_risk":1,"updated_at":"2026-06-14T15:08:46.979609+05:30"},{"city":"Ludhiana","state":"Punjab","latitude":30.901,"longitude":75.8573,"temp":35.4,"humidity":33,"rain":0.0,"pressure":972.7,"uv_index":8.05,"wind_gusts":21.6,"aqi":117,"pm10":73.1,"pm2_5":24.7,"no2":1.3,"co":251.0,"o3":143.0,"so2":2.3,"mosquito_risk":0,"arthritis_risk":5,"migraine_risk":10,"frizz_risk":1,"updated_at":"2026-06-14T15:08:46.979616+05:30"},{"city":"Jalandhar","state":"Punjab","latitude":31.326,"longitude":75.5762,"temp":34.8,"humidity":37,"rain":0.0,"pressure":974.0,"uv_index":8.2,"wind_gusts":22.3,"aqi":107,"pm10":104.3,"pm2_5":31.8,"no2":1.2,"co":245.0,"o3":144.0,"so2":2.0,"mosquito_risk":0,"arthritis_risk":5,"migraine_risk":7,"frizz_risk":1,"updated_at":"2026-06-14T15:08:46.979622+05:30"},{"city":"Dehradun","state":"Uttarakhand","latitude":30.6284,"longitude":78.0322,"temp":23.1,"humidity":54,"rain":0.1,"pressure":829.2,"uv_index":8.3,"wind_gusts":32.8,"aqi":56,"pm10":31.4,"pm2_5":12.5,"no2":0.5,"co":171.0,"o3":131.0,"so2":1.4,"mosquito_risk":3,"arthritis_risk":5,"migraine_risk":7,"frizz_risk":0,"updated_at":"2026-06-14T15:08:46.979629+05:30"},{"city":"Shimla","state":"Himachal Pradesh","latitude":31.1048,"longitude":77.1734,"temp":21.8,"humidity":42,"rain":0.0,"pressure":784.5,"uv_index":8.35,"wind_gusts":37.4,"aqi":72,"pm10":28.2,"pm2_5":14.8,"no2":1.0,"co":211.0,"o3":159.0,"so2":8.7,"mosquito_risk":0,"arthritis_risk":5,"migraine_risk":7,"frizz_risk":0,"updated_at":"2026-06-14T15:08:46.979638+05:30"},{"city":"Manali","state":"Himachal Pradesh","latitude":32.2396,"longitude":77.1887,"temp":21.9,"humidity":50,"rain":0.0,"pressure":817.8,"uv_index":9.95,"wind_gusts":42.5,"aqi":98,"pm10":8.5,"pm2_5":5.8,"no2":0.9,"co":134.0,"o3":152.0,"so2":0.4,"mosquito_risk":0,"arthritis_risk":5,"migraine_risk":7,"frizz_risk":0,"updated_at":"2026-06-14T15:08:46.979645+05:30"},{"city":"Gurgaon","state":"Haryana","latitude":28.4595,"longitude":77.0266,"temp":36.5,"humidity":38,"rain":0.0,"pressure":975.5,"uv_index":7.85,"wind_gusts":34.6,"aqi":408,"pm10":618.4,"pm2_5":112.2,"no2":3.8,"co":182.0,"o3":182.0,"so2":14.7,"mosquito_risk":0,"arthritis_risk":5,"migraine_risk":10,"frizz_risk":1,"updated_at":"2026-06-14T15:08:46.979653+05:30"},{"city":"Noida","state":"Uttar Pradesh","latitude":28.5355,"longitude":77.391,"temp":36.1,"humidity":40,"rain":0.0,"pressure":978.5,"uv_index":7.85,"wind_gusts":32.0,"aqi":408,"pm10":618.4,"pm2_5":112.2,"no2":3.8,"co":267.0,"o3":182.0,"so2":14.7,"mosquito_risk":0,"arthritis_risk":5,"migraine_risk":10,"frizz_risk":1,"updated_at":"2026-06-14T15:08:46.979660+05:30"},{"city":"Ghaziabad","state":"Uttar Pradesh","latitude":28.6692,"longitude":77.4538,"temp":35.8,"humidity":41,"rain":0.0,"pressure":976.7,"uv_index":7.8,"wind_gusts":28.4,"aqi":172,"pm10":346.5,"pm2_5":92.7,"no2":3.4,"co":364.0,"o3":213.0,"so2":24.1,"mosquito_risk":0,"arthritis_risk":5,"migraine_risk":10,"frizz_risk":1,"updated_at":"2026-06-14T15:08:46.979666+05:30"},{"city":"Faridabad","state":"Haryana","latitude":28.4089,"longitude":77.3178,"temp":36.2,"humidity":38,"rain":0.0,"pressure":977.7,"uv_index":7.85,"wind_gusts":37.8,"aqi":408,"pm10":618.4,"pm2_5":112.2,"no2":3.8,"co":201.0,"o3":182.0,"so2":14.7,"mosquito_risk":0,"arthritis_risk":5,"migraine_risk":10,"frizz_risk":1,"updated_at":"2026-06-14T15:08:46.979673+05:30"},{"city":"Meerut","state":"Uttar Pradesh","latitude":28.9845,"longitude":77.7064,"temp":34.3,"humidity":49,"rain":0.0,"pressure":975.7,"uv_index":7.7,"wind_gusts":33.8,"aqi":172,"pm10":346.5,"pm2_5":92.7,"no2":3.4,"co":270.0,"o3":213.0,"so2":24.1,"mosquito_risk":0,"arthritis_risk":5,"migraine_risk":7,"frizz_risk":1,"updated_at":"2026-06-14T15:08:46.979679+05:30"},{"city":"Agra","state":"Uttar Pradesh","latitude":27.1767,"longitude":78.0081,"temp":39.5,"humidity":30,"rain":0.0,"pressure":981.4,"uv_index":8.15,"wind_gusts":65.2,"aqi":414,"pm10":299.0,"pm2_5":62.4,"no2":1.2,"co":187.0,"o3":113.0,"so2":2.9,"mosquito_risk":0,"arthritis_risk":5,"migraine_risk":10,"frizz_risk":1,"updated_at":"2026-06-14T15:08:46.979686+05:30"},{"city":"Varanasi","state":"Uttar Pradesh","latitude":25.3176,"longitude":82.9739,"temp":38.3,"humidity":32,"rain":0.0,"pressure":990.3,"uv_index":8.8,"wind_gusts":35.6,"aqi":174,"pm10":133.2,"pm2_5":44.5,"no2":1.4,"co":233.0,"o3":164.0,"so2":7.8,"mosquito_risk":0,"arthritis_risk":5,"migraine_risk":10,"frizz_risk":1,"updated_at":"2026-06-14T15:08:46.979693+05:30"},{"city":"Prayagraj","state":"Uttar Pradesh","latitude":25.4358,"longitude":81.8463,"temp":38.7,"humidity":30,"rain":0.0,"pressure":989.1,"uv_index":8.7,"wind_gusts":35.6,"aqi":166,"pm10":183.9,"pm2_5":51.3,"no2":1.3,"co":217.0,"o3":158.0,"so2":7.7,"mosquito_risk":0,"arthritis_risk":5,"migraine_risk":10,"frizz_risk":1,"updated_at":"2026-06-14T15:08:46.979700+05:30"},{"city":"Gorakhpur","state":"Uttar Pradesh","latitude":26.7606,"longitude":83.3732,"temp":35.5,"humidity":46,"rain":0.0,"pressure":989.8,"uv_index":8.7,"wind_gusts":28.8,"aqi":156,"pm10":107.1,"pm2_5":42.6,"no2":1.3,"co":256.0,"o3":148.0,"so2":8.0,"mosquito_risk":0,"arthritis_risk":5,"migraine_risk":10,"frizz_risk":1,"updated_at":"2026-06-14T15:08:46.979708+05:30"},{"city":"Bareilly","state":"Uttar Pradesh","latitude":28.367,"longitude":79.4304,"temp":35.2,"humidity":42,"rain":0.0,"pressure":980.3,"uv_index":8.15,"wind_gusts":36.0,"aqi":159,"pm10":269.2,"pm2_5":74.3,"no2":1.4,"co":231.0,"o3":159.0,"so2":9.9,"mosquito_risk":0,"arthritis_risk":5,"migraine_risk":10,"frizz_risk":1,"updated_at":"2026-06-14T15:08:46.979715+05:30"},{"city":"Aligarh","state":"Uttar Pradesh","latitude":27.8974,"longitude":78.088,"temp":36.8,"humidity":38,"rain":0.0,"pressure":979.5,"uv_index":8.0,"wind_gusts":31.0,"aqi":194,"pm10":538.3,"pm2_5":94.5,"no2":1.7,"co":225.0,"o3":148.0,"so2":8.8,"mosquito_risk":0,"arthritis_risk":5,"migraine_risk":10,"frizz_risk":1,"updated_at":"2026-06-14T15:08:46.979721+05:30"},{"city":"Moradabad","state":"Uttar Pradesh","latitude":28.8386,"longitude":78.7733,"temp":34.7,"humidity":46,"rain":0.0,"pressure":977.6,"uv_index":7.95,"wind_gusts":40.3,"aqi":157,"pm10":359.5,"pm2_5":87.3,"no2":1.8,"co":255.0,"o3":149.0,"so2":10.1,"mosquito_risk":0,"arthritis_risk":5,"migraine_risk":7,"frizz_risk":1,"updated_at":"2026-06-14T15:08:46.979727+05:30"},{"city":"Saharanpur","state":"Uttar Pradesh","latitude":29.9637,"longitude":77.546,"temp":33.8,"humidity":45,"rain":0.0,"pressure":969.9,"uv_index":7.55,"wind_gusts":27.7,"aqi":150,"pm10":187.2,"pm2_5":52.3,"no2":2.1,"co":255.0,"o3":167.0,"so2":12.5,"mosquito_risk":0,"arthritis_risk":5,"migraine_risk":7,"frizz_risk":1,"updated_at":"2026-06-14T15:08:46.979733+05:30"},{"city":"Jhansi","state":"Uttar Pradesh","latitude":25.4484,"longitude":78.5685,"temp":38.4,"humidity":32,"rain":0.0,"pressure":972.5,"uv_index":8.5,"wind_gusts":49.3,"aqi":89,"pm10":131.8,"pm2_5":39.6,"no2":0.8,"co":140.0,"o3":113.0,"so2":5.3,"mosquito_risk":0,"arthritis_risk":5,"migraine_risk":10,"frizz_risk":1,"updated_at":"2026-06-14T15:08:50.209654+05:30"},{"city":"Surat","state":"Gujarat","latitude":21.1702,"longitude":72.8311,"temp":35.0,"humidity":52,"rain":0.0,"pressure":1004.0,"uv_index":7.55,"wind_gusts":54.7,"aqi":80,"pm10":53.6,"pm2_5":27.7,"no2":7.9,"co":214.0,"o3":69.0,"so2":27.9,"mosquito_risk":0,"arthritis_risk":5,"migraine_risk":4,"frizz_risk":1,"updated_at":"2026-06-14T15:08:50.209684+05:30"},{"city":"Vadodara","state":"Gujarat","latitude":22.3072,"longitude":73.1812,"temp":38.8,"humidity":33,"rain":0.0,"pressure":999.9,"uv_index":8.0,"wind_gusts":50.8,"aqi":76,"pm10":96.9,"pm2_5":31.1,"no2":1.2,"co":119.0,"o3":94.0,"so2":4.1,"mosquito_risk":0,"arthritis_risk":5,"migraine_risk":10,"frizz_risk":1,"updated_at":"2026-06-14T15:08:50.209694+05:30"},{"city":"Rajkot","state":"Gujarat","latitude":22.3039,"longitude":70.8022,"temp":38.8,"humidity":31,"rain":0.0,"pressure":990.5,"uv_index":7.55,"wind_gusts":52.9,"aqi":70,"pm10":49.2,"pm2_5":20.5,"no2":0.9,"co":100.0,"o3":91.0,"so2":4.2,"mosquito_risk":0,"arthritis_risk":5,"migraine_risk":10,"frizz_risk":1,"updated_at":"2026-06-14T15:08:50.209703+05:30"},{"city":"Thane","state":"Maharashtra","latitude":19.2183,"longitude":72.9781,"temp":34.4,"humidity":52,"rain":0.0,"pressure":1006.1,"uv_index":7.7,"wind_gusts":48.2,"aqi":69,"pm10":47.1,"pm2_5":22.0,"no2":2.6,"co":117.0,"o3":73.0,"so2":3.9,"mosquito_risk":0,"arthritis_risk":5,"migraine_risk":4,"frizz_risk":1,"updated_at":"2026-06-14T15:08:50.209710+05:30"},{"city":"Nagpur","state":"Maharashtra","latitude":21.1458,"longitude":79.0882,"temp":35.5,"humidity":36,"rain":0.1,"pressure":968.4,"uv_index":8.9,"wind_gusts":55.8,"aqi":103,"pm10":89.9,"pm2_5":34.5,"no2":3.2,"co":137.0,"o3":135.0,"so2":13.5,"mosquito_risk":3,"arthritis_risk":5,"migraine_risk":10,"frizz_risk":1,"updated_at":"2026-06-14T15:08:50.209718+05:30"},{"city":"Nashik","state":"Maharashtra","latitude":19.9975,"longitude":73.7898,"temp":33.4,"humidity":41,"rain":0.0,"pressure":943.9,"uv_index":8.05,"wind_gusts":55.4,"aqi":60,"pm10":48.9,"pm2_5":19.3,"no2":0.6,"co":108.0,"o3":69.0,"so2":1.0,"mosquito_risk":0,"arthritis_risk":5,"migraine_risk":7,"frizz_risk":1,"updated_at":"2026-06-14T15:08:50.209725+05:30"},{"city":"Aurangabad","state":"Maharashtra","latitude":19.8762,"longitude":75.3433,"temp":37.0,"humidity":23,"rain":0.0,"pressure":941.5,"uv_index":8.95,"wind_gusts":55.1,"aqi":61,"pm10":87.3,"pm2_5":24.2,"no2":0.8,"co":113.0,"o3":93.0,"so2":2.0,"mosquito_risk":0,"arthritis_risk":5,"migraine_risk":10,"frizz_risk":0,"updated_at":"2026-06-14T15:08:50.209733+05:30"},{"city":"Solapur","state":"Maharashtra","latitude":17.6599,"longitude":75.9064,"temp":36.7,"humidity":26,"rain":0.0,"pressure":954.6,"uv_index":8.9,"wind_gusts":55.8,"aqi":64,"pm10":79.2,"pm2_5":23.1,"no2":0.9,"co":115.0,"o3":106.0,"so2":2.8,"mosquito_risk":0,"arthritis_risk":5,"migraine_risk":10,"frizz_risk":0,"updated_at":"2026-06-14T15:08:50.209742+05:30"},{"city":"Kolhapur","state":"Maharashtra","latitude":16.705,"longitude":74.2433,"temp":28.5,"humidity":64,"rain":0.1,"pressure":947.4,"uv_index":8.75,"wind_gusts":48.2,"aqi":47,"pm10":24.7,"pm2_5":11.6,"no2":1.1,"co":115.0,"o3":77.0,"so2":1.5,"mosquito_risk":10,"arthritis_risk":5,"migraine_risk":7,"frizz_risk":1,"updated_at":"2026-06-14T15:08:50.209750+05:30"},{"city":"Goa","state":"Goa","latitude":15.2993,"longitude":74.124,"temp":28.6,"humidity":83,"rain":0.1,"pressure":998.0,"uv_index":7.7,"wind_gusts":35.6,"aqi":64,"pm10":38.8,"pm2_5":16.5,"no2":0.4,"co":107.0,"o3":61.0,"so2":1.1,"mosquito_risk":10,"arthritis_risk":5,"migraine_risk":7,"frizz_risk":1,"updated_at":"2026-06-14T15:08:50.209758+05:30"},{"city":"Jodhpur","state":"Rajasthan","latitude":26.2389,"longitude":73.0243,"temp":38.7,"humidity":32,"rain":0.0,"pressure":977.8,"uv_index":8.45,"wind_gusts":45.4,"aqi":162,"pm10":326.0,"pm2_5":65.0,"no2":0.4,"co":125.0,"o3":99.0,"so2":3.7,"mosquito_risk":0,"arthritis_risk":5,"migraine_risk":10,"frizz_risk":1,"updated_at":"2026-06-14T15:08:50.209765+05:30"},{"city":"Udaipur","state":"Rajasthan","latitude":24.5854,"longitude":73.7125,"temp":34.9,"humidity":35,"rain":0.0,"pressure":943.4,"uv_index":8.85,"wind_gusts":48.6,"aqi":75,"pm10":98.5,"pm2_5":30.3,"no2":0.5,"co":116.0,"o3":83.0,"so2":2.3,"mosquito_risk":0,"arthritis_risk":5,"migraine_risk":7,"frizz_risk":1,"updated_at":"2026-06-14T15:08:50.209773+05:30"},{"city":"Kota","state":"Rajasthan","latitude":25.2138,"longitude":75.8648,"temp":31.6,"humidity":55,"rain":0.0,"pressure":974.8,"uv_index":8.35,"wind_gusts":56.9,"aqi":109,"pm10":145.3,"pm2_5":40.7,"no2":0.6,"co":125.0,"o3":102.0,"so2":3.9,"mosquito_risk":0,"arthritis_risk":5,"migraine_risk":7,"frizz_risk":1,"updated_at":"2026-06-14T15:08:50.209780+05:30"},{"city":"Bikaner","state":"Rajasthan","latitude":28.0229,"longitude":73.3119,"temp":39.1,"humidity":26,"rain":0.0,"pressure":975.9,"uv_index":8.45,"wind_gusts":40.7,"aqi":152,"pm10":209.1,"pm2_5":59.6,"no2":0.3,"co":142.0,"o3":105.0,"so2":3.3,"mosquito_risk":0,"arthritis_risk":5,"migraine_risk":10,"frizz_risk":1,"updated_at":"2026-06-14T15:08:50.209788+05:30"},{"city":"Ajmer","state":"Rajasthan","latitude":26.4499,"longitude":74.6399,"temp":36.2,"humidity":39,"rain":0.0,"pressure":950.2,"uv_index":8.35,"wind_gusts":42.1,"aqi":112,"pm10":183.9,"pm2_5":51.0,"no2":0.4,"co":127.0,"o3":100.0,"so2":3.4,"mosquito_risk":0,"arthritis_risk":5,"migraine_risk":10,"frizz_risk":1,"updated_at":"2026-06-14T15:08:50.209795+05:30"},{"city":"Gwalior","state":"Madhya Pradesh","latitude":26.2183,"longitude":78.1828,"temp":37.9,"humidity":34,"rain":0.0,"pressure":977.5,"uv_index":8.3,"wind_gusts":55.1,"aqi":101,"pm10":149.9,"pm2_5":41.4,"no2":0.5,"co":150.0,"o3":102.0,"so2":2.4,"mosquito_risk":0,"arthritis_risk":5,"migraine_risk":10,"frizz_risk":1,"updated_at":"2026-06-14T15:08:50.209802+05:30"},{"city":"Indore","state":"Madhya Pradesh","latitude":22.7196,"longitude":75.8577,"temp":36.4,"humidity":30,"rain":0.0,"pressure":945.0,"uv_index":8.6,"wind_gusts":47.9,"aqi":78,"pm10":72.6,"pm2_5":29.0,"no2":0.8,"co":143.0,"o3":100.0,"so2":3.5,"mosquito_risk":0,"arthritis_risk":5,"migraine_risk":10,"frizz_risk":1,"updated_at":"2026-06-14T15:08:50.209809+05:30"},{"city":"Bhopal","state":"Madhya Pradesh","latitude":23.2599,"longitude":77.4126,"temp":36.9,"humidity":26,"rain":0.0,"pressure":949.8,"uv_index":8.65,"wind_gusts":60.8,"aqi":99,"pm10":73.3,"pm2_5":29.2,"no2":0.7,"co":146.0,"o3":105.0,"so2":3.9,"mosquito_risk":0,"arthritis_risk":5,"migraine_risk":10,"frizz_risk":0,"updated_at":"2026-06-14T15:08:50.209817+05:30"},{"city":"Jabalpur","state":"Madhya Pradesh","latitude":23.1815,"longitude":79.9864,"temp":36.7,"humidity":30,"rain":0.0,"pressure":956.6,"uv_index":8.85,"wind_gusts":27.4,"aqi":96,"pm10":103.8,"pm2_5":31.2,"no2":0.7,"co":145.0,"o3":117.0,"so2":3.2,"mosquito_risk":0,"arthritis_risk":5,"migraine_risk":10,"frizz_risk":1,"updated_at":"2026-06-14T15:08:50.209824+05:30"},{"city":"Ujjain","state":"Madhya Pradesh","latitude":23.1765,"longitude":75.7885,"temp":36.3,"humidity":29,"rain":0.0,"pressure":950.7,"uv_index":8.55,"wind_gusts":55.4,"aqi":77,"pm10":67.8,"pm2_5":26.4,"no2":0.6,"co":128.0,"o3":92.0,"so2":3.0,"mosquito_risk":0,"arthritis_risk":5,"migraine_risk":10,"frizz_risk":0,"updated_at":"2026-06-14T15:08:50.209831+05:30"},{"city":"Visakhapatnam","state":"Andhra Pradesh","latitude":17.6868,"longitude":83.2185,"temp":37.8,"humidity":41,"rain":0.0,"pressure":996.9,"uv_index":9.0,"wind_gusts":41.0,"aqi":95,"pm10":50.4,"pm2_5":35.9,"no2":6.4,"co":303.0,"o3":181.0,"so2":27.8,"mosquito_risk":0,"arthritis_risk":5,"migraine_risk":10,"frizz_risk":1,"updated_at":"2026-06-14T15:08:50.209838+05:30"},{"city":"Vijayawada","state":"Andhra Pradesh","latitude":16.5062,"longitude":80.648,"temp":33.1,"humidity":55,"rain":0.0,"pressure":997.8,"uv_index":5.5,"wind_gusts":37.8,"aqi":86,"pm10":63.8,"pm2_5":35.6,"no2":2.2,"co":185.0,"o3":136.0,"so2":7.5,"mosquito_risk":0,"arthritis_risk":5,"migraine_risk":3,"frizz_risk":1,"updated_at":"2026-06-14T15:08:50.209846+05:30"},{"city":"Guntur","state":"Andhra Pradesh","latitude":16.3067,"longitude":80.4365,"temp":33.5,"humidity":51,"rain":0.0,"pressure":999.3,"uv_index":5.6,"wind_gusts":40.7,"aqi":81,"pm10":51.8,"pm2_5":30.0,"no2":2.1,"co":165.0,"o3":127.0,"so2":6.6,"mosquito_risk":0,"arthritis_risk":5,"migraine_risk":3,"frizz_risk":1,"updated_at":"2026-06-14T15:08:50.209853+05:30"},{"city":"Nellore","state":"Andhra Pradesh","latitude":14.4426,"longitude":79.9865,"temp":34.9,"humidity":47,"rain":0.0,"pressure":1001.8,"uv_index":7.8,"wind_gusts":41.4,"aqi":63,"pm10":46.0,"pm2_5":23.1,"no2":1.6,"co":131.0,"o3":120.0,"so2":5.6,"mosquito_risk":0,"arthritis_risk":5,"migraine_risk":4,"frizz_risk":1,"updated_at":"2026-06-14T15:08:50.209861+05:30"},{"city":"Kurnool","state":"Andhra Pradesh","latitude":15.8281,"longitude":78.0373,"temp":36.0,"humidity":37,"rain":0.0,"pressure":973.7,"uv_index":1.45,"wind_gusts":39.6,"aqi":71,"pm10":50.3,"pm2_5":23.0,"no2":1.1,"co":125.0,"o3":122.0,"so2":7.7,"mosquito_risk":0,"arthritis_risk":5,"migraine_risk":6,"frizz_risk":1,"updated_at":"2026-06-14T15:08:50.209870+05:30"},{"city":"Kakinada","state":"Andhra Pradesh","latitude":16.9891,"longitude":82.2475,"temp":36.0,"humidity":47,"rain":0.0,"pressure":1001.3,"uv_index":8.85,"wind_gusts":44.3,"aqi":81,"pm10":70.5,"pm2_5":38.1,"no2":2.4,"co":195.0,"o3":162.0,"so2":6.2,"mosquito_risk":0,"arthritis_risk":5,"migraine_risk":7,"frizz_risk":1,"updated_at":"2026-06-14T15:08:50.209877+05:30"},{"city":"Tirupati","state":"Andhra Pradesh","latitude":13.6288,"longitude":79.4192,"temp":36.1,"humidity":37,"rain":0.0,"pressure":987.4,"uv_index":7.3,"wind_gusts":32.8,"aqi":58,"pm10":46.7,"pm2_5":19.3,"no2":1.0,"co":133.0,"o3":95.0,"so2":1.9,"mosquito_risk":0,"arthritis_risk":5,"migraine_risk":10,"frizz_risk":1,"updated_at":"2026-06-14T15:08:50.209885+05:30"},{"city":"Warangal","state":"Telangana","latitude":17.9689,"longitude":79.5941,"temp":35.6,"humidity":40,"rain":0.0,"pressure":974.1,"uv_index":8.35,"wind_gusts":42.1,"aqi":111,"pm10":56.3,"pm2_5":27.0,"no2":1.2,"co":144.0,"o3":128.0,"so2":7.0,"mosquito_risk":0,"arthritis_risk":5,"migraine_risk":10,"frizz_risk":1,"updated_at":"2026-06-14T15:08:50.209892+05:30"},{"city":"Nizamabad","state":"Telangana","latitude":18.6725,"longitude":78.0941,"temp":33.3,"humidity":47,"rain":0.1,"pressure":961.6,"uv_index":8.95,"wind_gusts":47.5,"aqi":91,"pm10":51.9,"pm2_5":20.8,"no2":0.8,"co":123.0,"o3":103.0,"so2":2.5,"mosquito_risk":3,"arthritis_risk":5,"migraine_risk":7,"frizz_risk":1,"updated_at":"2026-06-14T15:08:50.209899+05:30"},{"city":"Mysore","state":"Karnataka","latitude":12.2958,"longitude":76.6396,"temp":26.7,"humidity":68,"rain":0.1,"pressure":927.9,"uv_index":8.35,"wind_gusts":40.0,"aqi":39,"pm10":22.5,"pm2_5":8.7,"no2":1.7,"co":126.0,"o3":75.0,"so2":1.4,"mosquito_risk":10,"arthritis_risk":5,"migraine_risk":7,"frizz_risk":1,"updated_at":"2026-06-14T15:08:50.209906+05:30"},{"city":"Mangalore","state":"Karnataka","latitude":12.9141,"longitude":74.856,"temp":28.6,"humidity":78,"rain":0.0,"pressure":1007.3,"uv_index":8.2,"wind_gusts":34.6,"aqi":57,"pm10":23.8,"pm2_5":10.1,"no2":0.9,"co":109.0,"o3":65.0,"so2":1.5,"mosquito_risk":7,"arthritis_risk":5,"migraine_risk":4,"frizz_risk":1,"updated_at":"2026-06-14T15:08:50.209913+05:30"},{"city":"Hubli-Dharwad","state":"Karnataka","latitude":15.3647,"longitude":75.124,"temp":29.6,"humidity":60,"rain":0.1,"pressure":939.9,"uv_index":6.05,"wind_gusts":50.4,"aqi":48,"pm10":22.6,"pm2_5":9.9,"no2":1.0,"co":120.0,"o3":75.0,"so2":1.1,"mosquito_risk":7,"arthritis_risk":5,"migraine_risk":7,"frizz_risk":1,"updated_at":"2026-06-14T15:08:50.209920+05:30"},{"city":"Belgaum","state":"Karnataka","latitude":15.8497,"longitude":74.4977,"temp":27.7,"humidity":66,"rain":0.1,"pressure":925.5,"uv_index":5.5,"wind_gusts":53.3,"aqi":44,"pm10":20.8,"pm2_5":10.1,"no2":1.1,"co":109.0,"o3":68.0,"so2":1.2,"mosquito_risk":10,"arthritis_risk":5,"migraine_risk":3,"frizz_risk":1,"updated_at":"2026-06-14T15:08:53.439276+05:30"},{"city":"Coimbatore","state":"Tamil Nadu","latitude":11.0168,"longitude":76.9558,"temp":29.8,"humidity":61,"rain":0.1,"pressure":960.6,"uv_index":8.35,"wind_gusts":46.1,"aqi":37,"pm10":14.1,"pm2_5":6.6,"no2":1.3,"co":143.0,"o3":72.0,"so2":1.6,"mosquito_risk":10,"arthritis_risk":5,"migraine_risk":7,"frizz_risk":1,"updated_at":"2026-06-14T15:08:53.439309+05:30"},{"city":"Madurai","state":"Tamil Nadu","latitude":9.9252,"longitude":78.1198,"temp":39.1,"humidity":28,"rain":0.0,"pressure":989.9,"uv_index":8.65,"wind_gusts":46.1,"aqi":58,"pm10":26.7,"pm2_5":11.4,"no2":1.6,"co":136.0,"o3":94.0,"so2":1.7,"mosquito_risk":0,"arthritis_risk":5,"migraine_risk":10,"frizz_risk":1,"updated_at":"2026-06-14T15:08:53.439320+05:30"},{"city":"Trichy","state":"Tamil Nadu","latitude":10.7905,"longitude":78.7047,"temp":38.6,"humidity":33,"rain":0.0,"pressure":996.1,"uv_index":8.35,"wind_gusts":55.4,"aqi":51,"pm10":23.3,"pm2_5":11.1,"no2":1.2,"co":130.0,"o3":91.0,"so2":1.8,"mosquito_risk":0,"arthritis_risk":5,"migraine_risk":10,"frizz_risk":1,"updated_at":"2026-06-14T15:08:53.439330+05:30"},{"city":"Salem","state":"Tamil Nadu","latitude":11.6643,"longitude":78.146,"temp":30.7,"humidity":64,"rain":0.0,"pressure":975.6,"uv_index":8.6,"wind_gusts":38.5,"aqi":58,"pm10":32.5,"pm2_5":13.9,"no2":2.2,"co":136.0,"o3":96.0,"so2":4.4,"mosquito_risk":3,"arthritis_risk":5,"migraine_risk":7,"frizz_risk":1,"updated_at":"2026-06-14T15:08:53.439339+05:30"},{"city":"Tirunelveli","state":"Tamil Nadu","latitude":8.7139,"longitude":77.7567,"temp":36.5,"humidity":36,"rain":0.0,"pressure":1000.8,"uv_index":8.25,"wind_gusts":47.2,"aqi":43,"pm10":16.8,"pm2_5":8.6,"no2":1.0,"co":117.0,"o3":76.0,"so2":1.2,"mosquito_risk":0,"arthritis_risk":5,"migraine_risk":7,"frizz_risk":1,"updated_at":"2026-06-14T15:08:53.439348+05:30"},{"city":"Vellore","state":"Tamil Nadu","latitude":12.9165,"longitude":79.1325,"temp":34.9,"humidity":41,"rain":0.0,"pressure":981.0,"uv_index":8.3,"wind_gusts":47.9,"aqi":56,"pm10":29.2,"pm2_5":14.4,"no2":1.8,"co":121.0,"o3":93.0,"so2":1.9,"mosquito_risk":0,"arthritis_risk":5,"migraine_risk":7,"frizz_risk":1,"updated_at":"2026-06-14T15:08:53.439356+05:30"},{"city":"Erode","state":"Tamil Nadu","latitude":11.341,"longitude":77.7172,"temp":29.7,"humidity":70,"rain":0.0,"pressure":987.4,"uv_index":8.4,"wind_gusts":47.9,"aqi":49,"pm10":20.7,"pm2_5":9.5,"no2":1.4,"co":134.0,"o3":87.0,"so2":1.5,"mosquito_risk":7,"arthritis_risk":5,"migraine_risk":7,"frizz_risk":1,"updated_at":"2026-06-14T15:08:53.439364+05:30"},{"city":"Kochi","state":"Kerala","latitude":9.9312,"longitude":76.2673,"temp":29.0,"humidity":77,"rain":0.0,"pressure":1009.0,"uv_index":8.15,"wind_gusts":33.5,"aqi":65,"pm10":18.3,"pm2_5":8.8,"no2":1.7,"co":109.0,"o3":68.0,"so2":2.1,"mosquito_risk":7,"arthritis_risk":0,"migraine_risk":4,"frizz_risk":1,"updated_at":"2026-06-14T15:08:53.439372+05:30"},{"city":"Thiruvananthapuram","state":"Kerala","latitude":8.5241,"longitude":76.9366,"temp":28.9,"humidity":78,"rain":0.0,"pressure":1008.0,"uv_index":8.1,"wind_gusts":45.0,"aqi":44,"pm10":25.3,"pm2_5":12.2,"no2":0.9,"co":98.0,"o3":74.0,"so2":1.0,"mosquito_risk":7,"arthritis_risk":0,"migraine_risk":4,"frizz_risk":1,"updated_at":"2026-06-14T15:08:53.439380+05:30"},{"city":"Kozhikode","state":"Kerala","latitude":11.2588,"longitude":75.7804,"temp":29.2,"humidity":76,"rain":0.0,"pressure":1008.1,"uv_index":7.85,"wind_gusts":34.6,"aqi":37,"pm10":18.4,"pm2_5":7.7,"no2":0.5,"co":105.0,"o3":69.0,"so2":1.0,"mosquito_risk":7,"arthritis_risk":0,"migraine_risk":4,"frizz_risk":1,"updated_at":"2026-06-14T15:08:53.439387+05:30"},{"city":"Thrissur","state":"Kerala","latitude":10.5276,"longitude":76.2144,"temp":30.0,"humidity":72,"rain":0.0,"pressure":1007.2,"uv_index":8.45,"wind_gusts":38.5,"aqi":66,"pm10":17.6,"pm2_5":8.5,"no2":1.1,"co":107.0,"o3":66.0,"so2":1.4,"mosquito_risk":7,"arthritis_risk":5,"migraine_risk":4,"frizz_risk":1,"updated_at":"2026-06-14T15:08:53.439395+05:30"},{"city":"Kannur","state":"Kerala","latitude":11.8745,"longitude":75.3704,"temp":29.3,"humidity":75,"rain":0.0,"pressure":1007.6,"uv_index":8.05,"wind_gusts":33.5,"aqi":51,"pm10":20.1,"pm2_5":9.0,"no2":0.8,"co":100.0,"o3":66.0,"so2":1.1,"mosquito_risk":7,"arthritis_risk":5,"migraine_risk":4,"frizz_risk":1,"updated_at":"2026-06-14T15:08:53.439402+05:30"},{"city":"Patna","state":"Bihar","latitude":25.5941,"longitude":85.1376,"temp":35.3,"humidity":48,"rain":0.0,"pressure":992.7,"uv_index":8.9,"wind_gusts":31.7,"aqi":176,"pm10":73.6,"pm2_5":49.8,"no2":1.7,"co":314.0,"o3":179.0,"so2":8.4,"mosquito_risk":0,"arthritis_risk":5,"migraine_risk":10,"frizz_risk":1,"updated_at":"2026-06-14T15:08:53.439409+05:30"},{"city":"Gaya","state":"Bihar","latitude":24.7914,"longitude":85.0002,"temp":36.6,"humidity":39,"rain":0.0,"pressure":986.4,"uv_index":8.95,"wind_gusts":34.2,"aqi":169,"pm10":88.9,"pm2_5":59.3,"no2":1.4,"co":295.0,"o3":177.0,"so2":7.8,"mosquito_risk":0,"arthritis_risk":5,"migraine_risk":10,"frizz_risk":1,"updated_at":"2026-06-14T15:08:53.439416+05:30"},{"city":"Muzaffarpur","state":"Bihar","latitude":26.1209,"longitude":85.3647,"temp":33.9,"humidity":58,"rain":0.0,"pressure":992.7,"uv_index":8.85,"wind_gusts":25.2,"aqi":174,"pm10":75.9,"pm2_5":48.9,"no2":1.8,"co":372.0,"o3":177.0,"so2":8.5,"mosquito_risk":0,"arthritis_risk":5,"migraine_risk":7,"frizz_risk":1,"updated_at":"2026-06-14T15:08:53.439423+05:30"},{"city":"Bhagalpur","state":"Bihar","latitude":25.2425,"longitude":87.0117,"temp":35.4,"humidity":50,"rain":0.0,"pressure":993.2,"uv_index":8.85,"wind_gusts":22.0,"aqi":157,"pm10":99.4,"pm2_5":70.3,"no2":3.4,"co":305.0,"o3":224.0,"so2":24.1,"mosquito_risk":0,"arthritis_risk":5,"migraine_risk":10,"frizz_risk":1,"updated_at":"2026-06-14T15:08:53.439430+05:30"},{"city":"Ranchi","state":"Jharkhand","latitude":23.3441,"longitude":85.3096,"temp":32.8,"humidity":43,"rain":0.0,"pressure":932.6,"uv_index":7.1,"wind_gusts":32.4,"aqi":141,"pm10":96.6,"pm2_5":49.6,"no2":1.3,"co":176.0,"o3":153.0,"so2":8.0,"mosquito_risk":0,"arthritis_risk":5,"migraine_risk":7,"frizz_risk":1,"updated_at":"2026-06-14T15:08:53.439438+05:30"},{"city":"Jamshedpur","state":"Jharkhand","latitude":22.8046,"longitude":86.2029,"temp":36.0,"humidity":44,"rain":0.0,"pressure":983.6,"uv_index":8.75,"wind_gusts":27.4,"aqi":158,"pm10":97.6,"pm2_5":74.3,"no2":3.5,"co":193.0,"o3":236.0,"so2":27.3,"mosquito_risk":0,"arthritis_risk":5,"migraine_risk":10,"frizz_risk":1,"updated_at":"2026-06-14T15:08:53.439445+05:30"},{"city":"Dhanbad","state":"Jharkhand","latitude":23.7957,"longitude":86.4304,"temp":35.7,"humidity":43,"rain":0.0,"pressure":973.0,"uv_index":8.9,"wind_gusts":22.7,"aqi":170,"pm10":117.8,"pm2_5":77.8,"no2":8.4,"co":207.0,"o3":193.0,"so2":37.1,"mosquito_risk":0,"arthritis_risk":5,"migraine_risk":10,"frizz_risk":1,"updated_at":"2026-06-14T15:08:53.439453+05:30"},{"city":"Bokaro","state":"Jharkhand","latitude":23.6693,"longitude":86.1511,"temp":34.7,"humidity":51,"rain":0.0,"pressure":976.8,"uv_index":8.9,"wind_gusts":34.9,"aqi":163,"pm10":115.0,"pm2_5":75.9,"no2":8.9,"co":204.0,"o3":207.0,"so2":43.3,"mosquito_risk":0,"arthritis_risk":5,"migraine_risk":7,"frizz_risk":1,"updated_at":"2026-06-14T15:08:53.439460+05:30"},{"city":"Bhubaneswar","state":"Odisha","latitude":20.2961,"longitude":85.8245,"temp":33.1,"humidity":66,"rain":0.1,"pressure":996.2,"uv_index":9.05,"wind_gusts":32.0,"aqi":115,"pm10":52.7,"pm2_5":32.7,"no2":3.5,"co":224.0,"o3":144.0,"so2":9.8,"mosquito_risk":6,"arthritis_risk":5,"migraine_risk":7,"frizz_risk":1,"updated_at":"2026-06-14T15:08:53.439468+05:30"},{"city":"Cuttack","state":"Odisha","latitude":20.4625,"longitude":85.8828,"temp":30.9,"humidity":82,"rain":0.3,"pressure":998.2,"uv_index":9.15,"wind_gusts":25.9,"aqi":115,"pm10":52.7,"pm2_5":32.7,"no2":3.5,"co":227.0,"o3":144.0,"so2":9.8,"mosquito_risk":6,"arthritis_risk":5,"migraine_risk":7,"frizz_risk":1,"updated_at":"2026-06-14T15:08:53.439476+05:30"},{"city":"Rourkela","state":"Odisha","latitude":22.2604,"longitude":84.8536,"temp":37.1,"humidity":39,"rain":0.0,"pressure":978.0,"uv_index":8.75,"wind_gusts":28.8,"aqi":151,"pm10":73.8,"pm2_5":45.8,"no2":2.1,"co":233.0,"o3":171.0,"so2":13.9,"mosquito_risk":0,"arthritis_risk":5,"migraine_risk":10,"frizz_risk":1,"updated_at":"2026-06-14T15:08:53.439484+05:30"},{"city":"Raipur","state":"Chhattisgarh","latitude":21.2514,"longitude":81.6296,"temp":38.2,"humidity":29,"rain":0.0,"pressure":968.6,"uv_index":8.95,"wind_gusts":43.2,"aqi":131,"pm10":79.9,"pm2_5":38.0,"no2":3.9,"co":155.0,"o3":142.0,"so2":19.9,"mosquito_risk":0,"arthritis_risk":5,"migraine_risk":10,"frizz_risk":1,"updated_at":"2026-06-14T15:08:53.439511+05:30"},{"city":"Bhilai","state":"Chhattisgarh","latitude":21.1938,"longitude":81.3509,"temp":37.8,"humidity":30,"rain":0.0,"pressure":968.9,"uv_index":8.95,"wind_gusts":55.4,"aqi":123,"pm10":77.8,"pm2_5":34.1,"no2":4.4,"co":209.0,"o3":128.0,"so2":17.9,"mosquito_risk":0,"arthritis_risk":5,"migraine_risk":10,"frizz_risk":1,"updated_at":"2026-06-14T15:08:53.439521+05:30"},{"city":"Guwahati","state":"Assam","latitude":26.1158,"longitude":91.7086,"temp":26.8,"humidity":95,"rain":0.3,"pressure":994.2,"uv_index":8.6,"wind_gusts":36.0,"aqi":77,"pm10":17.4,"pm2_5":15.3,"no2":2.2,"co":286.0,"o3":110.0,"so2":2.3,"mosquito_risk":10,"arthritis_risk":5,"migraine_risk":7,"frizz_risk":1,"updated_at":"2026-06-14T15:08:53.439529+05:30"},{"city":"Agartala","state":"Tripura","latitude":23.8315,"longitude":91.2868,"temp":29.6,"humidity":81,"rain":0.1,"pressure":999.6,"uv_index":8.15,"wind_gusts":34.6,"aqi":71,"pm10":29.8,"pm2_5":22.7,"no2":3.2,"co":191.0,"o3":118.0,"so2":2.2,"mosquito_risk":10,"arthritis_risk":5,"migraine_risk":7,"frizz_risk":1,"updated_at":"2026-06-14T15:08:53.439536+05:30"},{"city":"Shillong","state":"Meghalaya","latitude":25.5788,"longitude":91.8933,"temp":23.4,"humidity":78,"rain":0.1,"pressure":853.2,"uv_index":6.95,"wind_gusts":26.3,"aqi":49,"pm10":7.7,"pm2_5":6.7,"no2":2.6,"co":238.0,"o3":105.0,"so2":2.4,"mosquito_risk":6,"arthritis_risk":5,"migraine_risk":7,"frizz_risk":1,"updated_at":"2026-06-14T15:08:53.439543+05:30"},{"city":"Imphal","state":"Manipur","latitude":24.817,"longitude":93.9368,"temp":28.5,"humidity":65,"rain":0.0,"pressure":917.5,"uv_index":9.05,"wind_gusts":33.1,"aqi":66,"pm10":16.1,"pm2_5":11.1,"no2":1.3,"co":196.0,"o3":89.0,"so2":1.3,"mosquito_risk":7,"arthritis_risk":5,"migraine_risk":7,"frizz_risk":1,"updated_at":"2026-06-14T15:08:53.439551+05:30"},{"city":"Aizawl","state":"Mizoram","latitude":23.7271,"longitude":92.7176,"temp":23.9,"humidity":75,"rain":0.1,"pressure":888.2,"uv_index":9.0,"wind_gusts":39.6,"aqi":53,"pm10":24.5,"pm2_5":16.1,"no2":0.5,"co":154.0,"o3":91.0,"so2":1.3,"mosquito_risk":6,"arthritis_risk":5,"migraine_risk":7,"frizz_risk":1,"updated_at":"2026-06-14T15:08:53.439558+05:30"},{"city":"Kohima","state":"Nagaland","latitude":25.6701,"longitude":94.1077,"temp":22.5,"humidity":94,"rain":0.1,"pressure":851.0,"uv_index":8.75,"wind_gusts":23.8,"aqi":45,"pm10":8.8,"pm2_5":6.5,"no2":1.0,"co":182.0,"o3":92.0,"so2":1.1,"mosquito_risk":6,"arthritis_risk":5,"migraine_risk":7,"frizz_risk":1,"updated_at":"2026-06-14T15:08:53.439565+05:30"},{"city":"Gangtok","state":"Sikkim","latitude":27.3314,"longitude":88.6138,"temp":20.1,"humidity":93,"rain":0.2,"pressure":833.5,"uv_index":8.8,"wind_gusts":35.3,"aqi":81,"pm10":11.0,"pm2_5":8.4,"no2":1.0,"co":262.0,"o3":135.0,"so2":1.8,"mosquito_risk":6,"arthritis_risk":5,"migraine_risk":7,"frizz_risk":1,"updated_at":"2026-06-14T15:08:53.439572+05:30"},{"city":"Siliguri","state":"West Bengal","latitude":26.7271,"longitude":88.3953,"temp":29.6,"humidity":78,"rain":0.0,"pressure":985.7,"uv_index":8.7,"wind_gusts":19.8,"aqi":118,"pm10":35.5,"pm2_5":26.4,"no2":1.7,"co":400.0,"o3":151.0,"so2":5.0,"mosquito_risk":7,"arthritis_risk":5,"migraine_risk":7,"frizz_risk":1,"updated_at":"2026-06-14T15:08:56.790347+05:30"},{"city":"Durgapur","state":"West Bengal","latitude":23.5204,"longitude":87.3119,"temp":35.1,"humidity":51,"rain":0.0,"pressure":987.6,"uv_index":9.05,"wind_gusts":30.6,"aqi":169,"pm10":122.0,"pm2_5":104.5,"no2":17.9,"co":320.0,"o3":241.0,"so2":71.3,"mosquito_risk":0,"arthritis_risk":5,"migraine_risk":10,"frizz_risk":1,"updated_at":"2026-06-14T15:08:56.790385+05:30"},{"city":"Asansol","state":"West Bengal","latitude":23.6739,"longitude":86.9524,"temp":35.3,"humidity":47,"rain":0.0,"pressure":986.3,"uv_index":8.9,"wind_gusts":30.2,"aqi":165,"pm10":112.9,"pm2_5":86.4,"no2":15.1,"co":280.0,"o3":197.0,"so2":49.0,"mosquito_risk":0,"arthritis_risk":5,"migraine_risk":10,"frizz_risk":1,"updated_at":"2026-06-14T15:08:56.790399+05:30"},{"city":"Pondicherry","state":"Puducherry","latitude":11.9139,"longitude":79.8145,"temp":34.8,"humidity":49,"rain":0.1,"pressure":1004.8,"uv_index":8.05,"wind_gusts":45.7,"aqi":65,"pm10":32.9,"pm2_5":21.5,"no2":2.6,"co":143.0,"o3":139.0,"so2":5.1,"mosquito_risk":3,"arthritis_risk":5,"migraine_risk":4,"frizz_risk":1,"updated_at":"2026-06-14T15:08:56.790410+05:30"},{"city":"Port Blair","state":"Andaman and Nicobar Islands","latitude":11.6234,"longitude":92.7265,"temp":30.1,"humidity":73,"rain":0.0,"pressure":1005.0,"uv_index":7.45,"wind_gusts":44.6,"aqi":30,"pm10":15.4,"pm2_5":8.8,"no2":0.2,"co":89.0,"o3":46.0,"so2":0.5,"mosquito_risk":3,"arthritis_risk":5,"migraine_risk":4,"frizz_risk":1,"updated_at":"2026-06-14T15:08:56.790422+05:30"},{"city":"Haridwar","state":"Uttarakhand","latitude":29.9457,"longitude":78.1642,"temp":34.2,"humidity":42,"rain":0.0,"pressure":968.1,"uv_index":7.65,"wind_gusts":28.8,"aqi":107,"pm10":90.8,"pm2_5":31.2,"no2":1.3,"co":235.0,"o3":158.0,"so2":7.2,"mosquito_risk":0,"arthritis_risk":5,"migraine_risk":7,"frizz_risk":1,"updated_at":"2026-06-14T15:08:56.790432+05:30"},{"city":"Rishikesh","state":"Uttarakhand","latitude":30.0869,"longitude":78.2676,"temp":34.0,"humidity":37,"rain":0.0,"pressure":961.1,"uv_index":7.75,"wind_gusts":24.1,"aqi":100,"pm10":54.5,"pm2_5":21.4,"no2":0.7,"co":200.0,"o3":150.0,"so2":4.0,"mosquito_risk":0,"arthritis_risk":5,"migraine_risk":7,"frizz_risk":1,"updated_at":"2026-06-14T15:08:56.790442+05:30"},{"city":"Nainital","state":"Uttarakhand","latitude":29.3919,"longitude":79.4542,"temp":23.0,"humidity":46,"rain":0.0,"pressure":805.0,"uv_index":8.6,"wind_gusts":36.4,"aqi":98,"pm10":96.4,"pm2_5":31.9,"no2":1.2,"co":186.0,"o3":156.0,"so2":6.2,"mosquito_risk":0,"arthritis_risk":5,"migraine_risk":7,"frizz_risk":0,"updated_at":"2026-06-14T15:08:56.790452+05:30"},{"city":"Mussoorie","state":"Uttarakhand","latitude":30.4599,"longitude":78.0664,"temp":22.0,"humidity":42,"rain":0.0,"pressure":802.2,"uv_index":8.15,"wind_gusts":40.7,"aqi":76,"pm10":40.9,"pm2_5":17.8,"no2":0.9,"co":169.0,"o3":149.0,"so2":4.6,"mosquito_risk":0,"arthritis_risk":5,"migraine_risk":7,"frizz_risk":0,"updated_at":"2026-06-14T15:08:56.790462+05:30"},{"city":"Dharamshala","state":"Himachal Pradesh","latitude":32.219,"longitude":76.3234,"temp":25.0,"humidity":45,"rain":0.0,"pressure":866.8,"uv_index":8.5,"wind_gusts":42.5,"aqi":80,"pm10":17.6,"pm2_5":7.4,"no2":0.6,"co":189.0,"o3":132.0,"so2":0.5,"mosquito_risk":4,"arthritis_risk":5,"migraine_risk":7,"frizz_risk":0,"updated_at":"2026-06-14T15:08:56.790471+05:30"},{"city":"Dalhousie","state":"Himachal Pradesh","latitude":32.5387,"longitude":75.971,"temp":21.6,"humidity":44,"rain":0.0,"pressure":804.2,"uv_index":8.75,"wind_gusts":34.9,"aqi":87,"pm10":46.4,"pm2_5":18.5,"no2":1.1,"co":185.0,"o3":143.0,"so2":1.2,"mosquito_risk":0,"arthritis_risk":5,"migraine_risk":7,"frizz_risk":0,"updated_at":"2026-06-14T15:08:56.790482+05:30"},{"city":"Patiala","state":"Punjab","latitude":30.3398,"longitude":76.3869,"temp":35.8,"humidity":33,"rain":0.0,"pressure":972.2,"uv_index":7.7,"wind_gusts":24.1,"aqi":143,"pm10":594.2,"pm2_5":71.7,"no2":1.2,"co":214.0,"o3":151.0,"so2":4.9,"mosquito_risk":0,"arthritis_risk":5,"migraine_risk":10,"frizz_risk":1,"updated_at":"2026-06-14T15:08:56.790492+05:30"},{"city":"Bhatinda","state":"Punjab","latitude":30.211,"longitude":74.9455,"temp":36.5,"humidity":38,"rain":0.0,"pressure":977.7,"uv_index":8.3,"wind_gusts":28.1,"aqi":115,"pm10":29.9,"pm2_5":19.2,"no2":2.6,"co":229.0,"o3":172.0,"so2":14.7,"mosquito_risk":0,"arthritis_risk":5,"migraine_risk":10,"frizz_risk":1,"updated_at":"2026-06-14T15:08:56.790529+05:30"},{"city":"Rohtak","state":"Haryana","latitude":28.8955,"longitude":76.6066,"temp":36.1,"humidity":39,"rain":0.0,"pressure":975.9,"uv_index":7.8,"wind_gusts":34.6,"aqi":392,"pm10":306.4,"pm2_5":71.5,"no2":1.5,"co":183.0,"o3":148.0,"so2":4.9,"mosquito_risk":0,"arthritis_risk":5,"migraine_risk":10,"frizz_risk":1,"updated_at":"2026-06-14T15:08:56.790538+05:30"},{"city":"Panipat","state":"Haryana","latitude":29.3909,"longitude":76.9635,"temp":35.5,"humidity":41,"rain":0.0,"pressure":974.5,"uv_index":7.65,"wind_gusts":30.6,"aqi":430,"pm10":825.2,"pm2_5":126.2,"no2":2.7,"co":244.0,"o3":160.0,"so2":16.7,"mosquito_risk":0,"arthritis_risk":5,"migraine_risk":10,"frizz_risk":1,"updated_at":"2026-06-14T15:08:56.790546+05:30"},{"city":"Mathura","state":"Uttar Pradesh","latitude":27.4924,"longitude":77.6737,"temp":38.0,"humidity":35,"rain":0.0,"pressure":980.5,"uv_index":8.1,"wind_gusts":38.2,"aqi":331,"pm10":720.8,"pm2_5":97.3,"no2":1.2,"co":174.0,"o3":109.0,"so2":2.9,"mosquito_risk":0,"arthritis_risk":5,"migraine_risk":10,"frizz_risk":1,"updated_at":"2026-06-14T15:08:56.790554+05:30"},{"city":"Vrindavan","state":"Uttar Pradesh","latitude":27.5823,"longitude":77.7027,"temp":38.2,"humidity":34,"rain":0.0,"pressure":980.9,"uv_index":8.05,"wind_gusts":36.4,"aqi":331,"pm10":720.8,"pm2_5":97.3,"no2":1.2,"co":174.0,"o3":109.0,"so2":2.9,"mosquito_risk":0,"arthritis_risk":5,"migraine_risk":10,"frizz_risk":1,"updated_at":"2026-06-14T15:08:56.790561+05:30"},{"city":"Ayodhya","state":"Uttar Pradesh","latitude":26.7922,"longitude":82.1998,"temp":35.5,"humidity":44,"rain":0.0,"pressure":988.2,"uv_index":8.45,"wind_gusts":31.7,"aqi":154,"pm10":128.1,"pm2_5":44.1,"no2":1.2,"co":232.0,"o3":156.0,"so2":8.1,"mosquito_risk":0,"arthritis_risk":5,"migraine_risk":10,"frizz_risk":1,"updated_at":"2026-06-14T15:08:56.790568+05:30"},{"city":"Ratlam","state":"Madhya Pradesh","latitude":23.3315,"longitude":75.0367,"temp":36.2,"humidity":38,"rain":0.0,"pressure":951.8,"uv_index":8.5,"wind_gusts":46.8,"aqi":75,"pm10":76.1,"pm2_5":27.4,"no2":0.5,"co":113.0,"o3":89.0,"so2":2.8,"mosquito_risk":0,"arthritis_risk":5,"migraine_risk":10,"frizz_risk":1,"updated_at":"2026-06-14T15:08:56.790575+05:30"},{"city":"Sagar","state":"Madhya Pradesh","latitude":23.8388,"longitude":78.7378,"temp":36.9,"humidity":29,"rain":0.0,"pressure":946.0,"uv_index":8.75,"wind_gusts":63.7,"aqi":77,"pm10":93.4,"pm2_5":32.0,"no2":0.6,"co":141.0,"o3":115.0,"so2":4.1,"mosquito_risk":0,"arthritis_risk":5,"migraine_risk":10,"frizz_risk":0,"updated_at":"2026-06-14T15:08:56.790583+05:30"},{"city":"Satna","state":"Madhya Pradesh","latitude":24.6005,"longitude":80.8322,"temp":37.0,"humidity":32,"rain":0.0,"pressure":965.8,"uv_index":8.8,"wind_gusts":37.1,"aqi":100,"pm10":110.1,"pm2_5":36.0,"no2":0.6,"co":175.0,"o3":125.0,"so2":3.3,"mosquito_risk":0,"arthritis_risk":5,"migraine_risk":10,"frizz_risk":1,"updated_at":"2026-06-14T15:08:56.790590+05:30"},{"city":"Akola","state":"Maharashtra","latitude":20.7002,"longitude":77.0082,"temp":37.1,"humidity":34,"rain":0.0,"pressure":971.4,"uv_index":8.85,"wind_gusts":52.6,"aqi":70,"pm10":64.5,"pm2_5":27.2,"no2":1.1,"co":113.0,"o3":105.0,"so2":5.8,"mosquito_risk":0,"arthritis_risk":5,"migraine_risk":10,"frizz_risk":1,"updated_at":"2026-06-14T15:08:56.790598+05:30"},{"city":"Amravati","state":"Maharashtra","latitude":20.9374,"longitude":77.7796,"temp":36.1,"humidity":34,"rain":0.0,"pressure":963.6,"uv_index":8.85,"wind_gusts":53.3,"aqi":72,"pm10":68.0,"pm2_5":27.9,"no2":1.3,"co":119.0,"o3":108.0,"so2":6.4,"mosquito_risk":0,"arthritis_risk":5,"migraine_risk":10,"frizz_risk":1,"updated_at":"2026-06-14T15:08:56.790609+05:30"},{"city":"Latur","state":"Maharashtra","latitude":18.4088,"longitude":76.5604,"temp":35.7,"humidity":26,"rain":0.0,"pressure":937.3,"uv_index":8.95,"wind_gusts":42.5,"aqi":77,"pm10":87.3,"pm2_5":26.0,"no2":0.8,"co":121.0,"o3":103.0,"so2":2.9,"mosquito_risk":0,"arthritis_risk":5,"migraine_risk":10,"frizz_risk":0,"updated_at":"2026-06-14T15:08:56.790617+05:30"},{"city":"Nanded","state":"Maharashtra","latitude":19.1383,"longitude":77.3091,"temp":37.1,"humidity":36,"rain":0.0,"pressure":964.8,"uv_index":8.9,"wind_gusts":49.7,"aqi":78,"pm10":65.2,"pm2_5":22.9,"no2":0.8,"co":121.0,"o3":97.0,"so2":2.2,"mosquito_risk":0,"arthritis_risk":5,"migraine_risk":10,"frizz_risk":1,"updated_at":"2026-06-14T15:08:56.790625+05:30"},{"city":"Gulbarga","state":"Karnataka","latitude":17.3297,"longitude":76.8343,"temp":35.9,"humidity":34,"rain":0.0,"pressure":955.8,"uv_index":8.9,"wind_gusts":43.9,"aqi":68,"pm10":56.5,"pm2_5":20.0,"no2":1.1,"co":121.0,"o3":107.0,"so2":3.0,"mosquito_risk":0,"arthritis_risk":5,"migraine_risk":10,"frizz_risk":1,"updated_at":"2026-06-14T15:08:56.790632+05:30"},{"city":"Bidar","state":"Karnataka","latitude":17.9104,"longitude":77.5199,"temp":34.1,"humidity":41,"rain":0.0,"pressure":933.2,"uv_index":8.95,"wind_gusts":40.3,"aqi":88,"pm10":56.1,"pm2_5":23.6,"no2":1.1,"co":129.0,"o3":114.0,"so2":4.4,"mosquito_risk":0,"arthritis_risk":5,"migraine_risk":7,"frizz_risk":1,"updated_at":"2026-06-14T15:08:56.790640+05:30"},{"city":"Hospet","state":"Karnataka","latitude":15.2689,"longitude":76.3909,"temp":33.9,"humidity":40,"rain":0.0,"pressure":953.9,"uv_index":8.85,"wind_gusts":48.2,"aqi":51,"pm10":37.4,"pm2_5":14.4,"no2":1.1,"co":121.0,"o3":93.0,"so2":2.0,"mosquito_risk":0,"arthritis_risk":5,"migraine_risk":7,"frizz_risk":1,"updated_at":"2026-06-14T15:08:56.790647+05:30"},{"city":"Tirupur","state":"Tamil Nadu","latitude":11.1085,"longitude":77.3411,"temp":31.9,"humidity":54,"rain":0.0,"pressure":973.9,"uv_index":8.55,"wind_gusts":47.5,"aqi":51,"pm10":19.2,"pm2_5":9.0,"no2":1.5,"co":141.0,"o3":83.0,"so2":1.9,"mosquito_risk":0,"arthritis_risk":5,"migraine_risk":7,"frizz_risk":1,"updated_at":"2026-06-14T15:08:56.790654+05:30"},{"city":"Alappuzha","state":"Kerala","latitude":9.4981,"longitude":76.3388,"temp":29.2,"humidity":77,"rain":0.0,"pressure":1009.1,"uv_index":8.0,"wind_gusts":37.8,"aqi":53,"pm10":17.9,"pm2_5":9.5,"no2":1.6,"co":94.0,"o3":83.0,"so2":2.4,"mosquito_risk":7,"arthritis_risk":0,"migraine_risk":4,"frizz_risk":1,"updated_at":"2026-06-14T15:08:56.790661+05:30"},{"city":"Munnar","state":"Kerala","latitude":10.0889,"longitude":77.0595,"temp":19.1,"humidity":90,"rain":0.1,"pressure":857.4,"uv_index":8.65,"wind_gusts":37.8,"aqi":36,"pm10":10.8,"pm2_5":5.3,"no2":1.4,"co":103.0,"o3":60.0,"so2":0.8,"mosquito_risk":6,"arthritis_risk":10,"migraine_risk":7,"frizz_risk":1,"updated_at":"2026-06-14T15:08:56.790669+05:30"},{"city":"Silchar","state":"Assam","latitude":24.8333,"longitude":92.7789,"temp":27.2,"humidity":93,"rain":0.1,"pressure":998.9,"uv_index":8.8,"wind_gusts":29.5,"aqi":71,"pm10":22.2,"pm2_5":16.1,"no2":1.7,"co":210.0,"o3":107.0,"so2":3.7,"mosquito_risk":10,"arthritis_risk":5,"migraine_risk":7,"frizz_risk":1,"updated_at":"2026-06-14T15:08:56.790677+05:30"},{"city":"Dibrugarh","state":"Assam","latitude":27.4728,"longitude":94.912,"temp":30.8,"humidity":70,"rain":0.0,"pressure":987.1,"uv_index":8.2,"wind_gusts":29.5,"aqi":72,"pm10":14.1,"pm2_5":12.5,"no2":1.3,"co":232.0,"o3":120.0,"so2":0.9,"mosquito_risk":3,"arthritis_risk":5,"migraine_risk":7,"frizz_risk":1,"updated_at":"2026-06-14T15:08:56.790684+05:30"}]