[{"city":"Delhi","state":"Delhi","latitude":28.6139,"longitude":77.209,"temp":24.8,"humidity":69,"rain":0.0,"pressure":985.0,"uv_index":7.45,"wind_gusts":45.7,"aqi":187,"pm10":134.1,"pm2_5":40.5,"no2":19.0,"co":571.0,"o3":110.0,"so2":15.4,"mosquito_risk":3,"arthritis_risk":5,"migraine_risk":7,"frizz_risk":1,"updated_at":"2026-05-04T22:18:59.161040+05:30"},{"city":"Mumbai","state":"Maharashtra","latitude":19.076,"longitude":72.8777,"temp":29.4,"humidity":71,"rain":0.0,"pressure":1008.3,"uv_index":7.85,"wind_gusts":44.6,"aqi":61,"pm10":38.9,"pm2_5":16.2,"no2":8.9,"co":214.0,"o3":64.0,"so2":19.7,"mosquito_risk":7,"arthritis_risk":0,"migraine_risk":4,"frizz_risk":1,"updated_at":"2026-05-04T22:18:59.161075+05:30"},{"city":"Bangalore","state":"Karnataka","latitude":12.9716,"longitude":77.5946,"temp":25.4,"humidity":58,"rain":0.0,"pressure":912.2,"uv_index":9.5,"wind_gusts":32.8,"aqi":82,"pm10":74.7,"pm2_5":48.5,"no2":78.4,"co":591.0,"o3":27.0,"so2":22.9,"mosquito_risk":4,"arthritis_risk":5,"migraine_risk":7,"frizz_risk":1,"updated_at":"2026-05-04T22:18:59.161091+05:30"},{"city":"Hyderabad","state":"Telangana","latitude":17.385,"longitude":78.4867,"temp":32.1,"humidity":30,"rain":0.0,"pressure":953.4,"uv_index":9.25,"wind_gusts":35.3,"aqi":122,"pm10":52.9,"pm2_5":32.9,"no2":32.1,"co":393.0,"o3":82.0,"so2":12.8,"mosquito_risk":0,"arthritis_risk":5,"migraine_risk":7,"frizz_risk":0,"updated_at":"2026-05-04T22:18:59.161101+05:30"},{"city":"Chennai","state":"Tamil Nadu","latitude":13.0827,"longitude":80.2707,"temp":29.9,"humidity":80,"rain":0.0,"pressure":1007.2,"uv_index":9.15,"wind_gusts":42.1,"aqi":75,"pm10":27.4,"pm2_5":20.3,"no2":5.5,"co":232.0,"o3":107.0,"so2":3.9,"mosquito_risk":7,"arthritis_risk":5,"migraine_risk":4,"frizz_risk":1,"updated_at":"2026-05-04T22:18:59.161109+05:30"},{"city":"Kolkata","state":"West Bengal","latitude":22.5726,"longitude":88.3639,"temp":25.7,"humidity":90,"rain":0.0,"pressure":1009.7,"uv_index":8.9,"wind_gusts":28.1,"aqi":80,"pm10":40.6,"pm2_5":34.7,"no2":21.6,"co":353.0,"o3":38.0,"so2":11.5,"mosquito_risk":7,"arthritis_risk":0,"migraine_risk":4,"frizz_risk":1,"updated_at":"2026-05-04T22:18:59.161118+05:30"},{"city":"Pune","state":"Maharashtra","latitude":18.5204,"longitude":73.8567,"temp":25.1,"humidity":80,"rain":0.0,"pressure":948.4,"uv_index":8.45,"wind_gusts":51.8,"aqi":56,"pm10":21.0,"pm2_5":10.0,"no2":8.3,"co":224.0,"o3":63.0,"so2":6.9,"mosquito_risk":7,"arthritis_risk":5,"migraine_risk":7,"frizz_risk":1,"updated_at":"2026-05-04T22:18:59.161125+05:30"},{"city":"Ahmedabad","state":"Gujarat","latitude":23.0225,"longitude":72.5714,"temp":30.4,"humidity":67,"rain":0.0,"pressure":999.6,"uv_index":8.05,"wind_gusts":42.5,"aqi":62,"pm10":61.0,"pm2_5":30.0,"no2":24.9,"co":213.0,"o3":57.0,"so2":11.4,"mosquito_risk":3,"arthritis_risk":5,"migraine_risk":7,"frizz_risk":1,"updated_at":"2026-05-04T22:18:59.161135+05:30"},{"city":"Jaipur","state":"Rajasthan","latitude":26.9124,"longitude":75.7873,"temp":26.4,"humidity":49,"rain":0.0,"pressure":960.4,"uv_index":8.05,"wind_gusts":35.3,"aqi":192,"pm10":154.6,"pm2_5":49.2,"no2":6.7,"co":314.0,"o3":128.0,"so2":5.4,"mosquito_risk":4,"arthritis_risk":5,"migraine_risk":7,"frizz_risk":0,"updated_at":"2026-05-04T22:18:59.161142+05:30"},{"city":"Lucknow","state":"Uttar Pradesh","latitude":26.8467,"longitude":80.9462,"temp":24.4,"humidity":80,"rain":0.0,"pressure":996.4,"uv_index":8.05,"wind_gusts":45.0,"aqi":144,"pm10":48.1,"pm2_5":37.3,"no2":12.2,"co":529.0,"o3":113.0,"so2":10.5,"mosquito_risk":3,"arthritis_risk":5,"migraine_risk":7,"frizz_risk":1,"updated_at":"2026-05-04T22:18:59.161149+05:30"},{"city":"Kanpur","state":"Uttar Pradesh","latitude":26.4499,"longitude":80.3319,"temp":25.2,"humidity":79,"rain":0.0,"pressure":994.1,"uv_index":8.05,"wind_gusts":52.9,"aqi":257,"pm10":206.8,"pm2_5":51.6,"no2":9.0,"co":414.0,"o3":127.0,"so2":10.7,"mosquito_risk":7,"arthritis_risk":5,"migraine_risk":7,"frizz_risk":1,"updated_at":"2026-05-04T22:18:59.161156+05:30"},{"city":"Chandigarh","state":"Chandigarh","latitude":30.7333,"longitude":76.7794,"temp":22.1,"humidity":60,"rain":0.0,"pressure":970.9,"uv_index":7.5,"wind_gusts":45.7,"aqi":108,"pm10":58.4,"pm2_5":28.6,"no2":16.9,"co":825.0,"o3":95.0,"so2":5.0,"mosquito_risk":0,"arthritis_risk":5,"migraine_risk":7,"frizz_risk":0,"updated_at":"2026-05-04T22:18:59.161164+05:30"},{"city":"Srinagar","state":"Jammu and Kashmir","latitude":34.0837,"longitude":74.7973,"temp":11.6,"humidity":89,"rain":0.0,"pressure":842.9,"uv_index":6.3,"wind_gusts":27.4,"aqi":74,"pm10":35.2,"pm2_5":25.2,"no2":21.4,"co":834.0,"o3":78.0,"so2":4.7,"mosquito_risk":3,"arthritis_risk":10,"migraine_risk":7,"frizz_risk":0,"updated_at":"2026-05-04T22:18:59.161175+05:30"},{"city":"Jammu","state":"Jammu and Kashmir","latitude":32.7266,"longitude":74.857,"temp":22.5,"humidity":59,"rain":0.0,"pressure":975.0,"uv_index":8.2,"wind_gusts":51.8,"aqi":93,"pm10":131.3,"pm2_5":57.6,"no2":40.5,"co":437.0,"o3":63.0,"so2":8.3,"mosquito_risk":0,"arthritis_risk":5,"migraine_risk":7,"frizz_risk":0,"updated_at":"2026-05-04T22:18:59.161182+05:30"},{"city":"Amritsar","state":"Punjab","latitude":31.634,"longitude":74.8723,"temp":23.9,"humidity":55,"rain":0.0,"pressure":982.9,"uv_index":8.1,"wind_gusts":55.4,"aqi":122,"pm10":116.4,"pm2_5":32.2,"no2":4.8,"co":442.0,"o3":129.0,"so2":5.8,"mosquito_risk":0,"arthritis_risk":5,"migraine_risk":7,"frizz_risk":0,"updated_at":"2026-05-04T22:18:59.161189+05:30"},{"city":"Ludhiana","state":"Punjab","latitude":30.901,"longitude":75.8573,"temp":23.8,"humidity":59,"rain":0.0,"pressure":980.9,"uv_index":7.7,"wind_gusts":51.1,"aqi":139,"pm10":50.1,"pm2_5":34.3,"no2":11.0,"co":412.0,"o3":108.0,"so2":5.1,"mosquito_risk":0,"arthritis_risk":5,"migraine_risk":7,"frizz_risk":0,"updated_at":"2026-05-04T22:18:59.161196+05:30"},{"city":"Jalandhar","state":"Punjab","latitude":31.326,"longitude":75.5762,"temp":22.0,"humidity":64,"rain":0.0,"pressure":982.0,"uv_index":7.9,"wind_gusts":51.8,"aqi":128,"pm10":77.5,"pm2_5":36.1,"no2":8.9,"co":368.0,"o3":115.0,"so2":6.1,"mosquito_risk":3,"arthritis_risk":5,"migraine_risk":7,"frizz_risk":0,"updated_at":"2026-05-04T22:18:59.161202+05:30"},{"city":"Dehradun","state":"Uttarakhand","latitude":30.6284,"longitude":78.0322,"temp":10.7,"humidity":92,"rain":0.0,"pressure":830.8,"uv_index":7.05,"wind_gusts":35.6,"aqi":85,"pm10":51.8,"pm2_5":20.0,"no2":25.3,"co":186.0,"o3":90.0,"so2":1.6,"mosquito_risk":3,"arthritis_risk":10,"migraine_risk":7,"frizz_risk":0,"updated_at":"2026-05-04T22:18:59.161211+05:30"},{"city":"Shimla","state":"Himachal Pradesh","latitude":31.1048,"longitude":77.1734,"temp":7.9,"humidity":93,"rain":0.0,"pressure":782.2,"uv_index":7.2,"wind_gusts":33.5,"aqi":78,"pm10":58.9,"pm2_5":24.0,"no2":26.4,"co":388.0,"o3":76.0,"so2":1.9,"mosquito_risk":3,"arthritis_risk":10,"migraine_risk":7,"frizz_risk":0,"updated_at":"2026-05-04T22:18:59.161218+05:30"},{"city":"Manali","state":"Himachal Pradesh","latitude":32.2396,"longitude":77.1887,"temp":8.4,"humidity":88,"rain":0.0,"pressure":816.7,"uv_index":9.0,"wind_gusts":34.2,"aqi":126,"pm10":27.5,"pm2_5":11.5,"no2":15.9,"co":270.0,"o3":129.0,"so2":1.4,"mosquito_risk":3,"arthritis_risk":10,"migraine_risk":7,"frizz_risk":0,"updated_at":"2026-05-04T22:18:59.161225+05:30"},{"city":"Gurgaon","state":"Haryana","latitude":28.4595,"longitude":77.0266,"temp":25.4,"humidity":63,"rain":0.0,"pressure":983.1,"uv_index":7.6,"wind_gusts":45.7,"aqi":1413,"pm10":334.3,"pm2_5":68.9,"no2":20.3,"co":593.0,"o3":114.0,"so2":16.0,"mosquito_risk":7,"arthritis_risk":5,"migraine_risk":7,"frizz_risk":1,"updated_at":"2026-05-04T22:18:59.161232+05:30"},{"city":"Noida","state":"Uttar Pradesh","latitude":28.5355,"longitude":77.391,"temp":24.0,"humidity":71,"rain":0.0,"pressure":986.5,"uv_index":7.5,"wind_gusts":43.2,"aqi":1413,"pm10":334.3,"pm2_5":68.9,"no2":20.3,"co":557.0,"o3":114.0,"so2":16.0,"mosquito_risk":3,"arthritis_risk":5,"migraine_risk":7,"frizz_risk":1,"updated_at":"2026-05-04T22:18:59.161239+05:30"},{"city":"Ghaziabad","state":"Uttar Pradesh","latitude":28.6692,"longitude":77.4538,"temp":24.1,"humidity":71,"rain":0.0,"pressure":984.9,"uv_index":7.45,"wind_gusts":45.7,"aqi":132,"pm10":129.0,"pm2_5":33.2,"no2":7.2,"co":408.0,"o3":117.0,"so2":7.2,"mosquito_risk":3,"arthritis_risk":5,"migraine_risk":7,"frizz_risk":1,"updated_at":"2026-05-04T22:18:59.161246+05:30"},{"city":"Faridabad","state":"Haryana","latitude":28.4089,"longitude":77.3178,"temp":24.5,"humidity":70,"rain":0.0,"pressure":985.7,"uv_index":7.55,"wind_gusts":49.0,"aqi":1413,"pm10":334.3,"pm2_5":68.9,"no2":20.3,"co":734.0,"o3":114.0,"so2":16.0,"mosquito_risk":3,"arthritis_risk":5,"migraine_risk":7,"frizz_risk":1,"updated_at":"2026-05-04T22:18:59.161253+05:30"},{"city":"Meerut","state":"Uttar Pradesh","latitude":28.9845,"longitude":77.7064,"temp":23.6,"humidity":73,"rain":0.0,"pressure":984.0,"uv_index":7.35,"wind_gusts":58.7,"aqi":132,"pm10":129.0,"pm2_5":33.2,"no2":7.2,"co":462.0,"o3":117.0,"so2":7.2,"mosquito_risk":3,"arthritis_risk":5,"migraine_risk":7,"frizz_risk":1,"updated_at":"2026-05-04T22:18:59.161259+05:30"},{"city":"Agra","state":"Uttar Pradesh","latitude":27.1767,"longitude":78.0081,"temp":26.3,"humidity":60,"rain":0.0,"pressure":989.5,"uv_index":7.7,"wind_gusts":56.2,"aqi":1105,"pm10":532.7,"pm2_5":96.9,"no2":14.2,"co":508.0,"o3":106.0,"so2":12.5,"mosquito_risk":4,"arthritis_risk":5,"migraine_risk":7,"frizz_risk":1,"updated_at":"2026-05-04T22:18:59.161265+05:30"},{"city":"Varanasi","state":"Uttar Pradesh","latitude":25.3176,"longitude":82.9739,"temp":24.7,"humidity":85,"rain":0.0,"pressure":999.5,"uv_index":8.65,"wind_gusts":44.3,"aqi":192,"pm10":63.1,"pm2_5":54.1,"no2":12.7,"co":565.0,"o3":137.0,"so2":20.2,"mosquito_risk":3,"arthritis_risk":5,"migraine_risk":7,"frizz_risk":1,"updated_at":"2026-05-04T22:18:59.161273+05:30"},{"city":"Prayagraj","state":"Uttar Pradesh","latitude":25.4358,"longitude":81.8463,"temp":26.5,"humidity":74,"rain":0.0,"pressure":998.3,"uv_index":8.5,"wind_gusts":56.9,"aqi":183,"pm10":61.2,"pm2_5":53.9,"no2":12.5,"co":463.0,"o3":138.0,"so2":19.5,"mosquito_risk":7,"arthritis_risk":5,"migraine_risk":7,"frizz_risk":1,"updated_at":"2026-05-04T22:18:59.161282+05:30"},{"city":"Gorakhpur","state":"Uttar Pradesh","latitude":26.7606,"longitude":83.3732,"temp":23.2,"humidity":81,"rain":0.0,"pressure":1000.5,"uv_index":8.45,"wind_gusts":43.9,"aqi":136,"pm10":46.6,"pm2_5":38.0,"no2":13.2,"co":431.0,"o3":105.0,"so2":8.5,"mosquito_risk":3,"arthritis_risk":5,"migraine_risk":4,"frizz_risk":1,"updated_at":"2026-05-04T22:18:59.161288+05:30"},{"city":"Bareilly","state":"Uttar Pradesh","latitude":28.367,"longitude":79.4304,"temp":23.2,"humidity":77,"rain":0.0,"pressure":989.9,"uv_index":6.85,"wind_gusts":58.3,"aqi":99,"pm10":42.7,"pm2_5":31.5,"no2":16.6,"co":648.0,"o3":81.0,"so2":5.4,"mosquito_risk":3,"arthritis_risk":5,"migraine_risk":7,"frizz_risk":1,"updated_at":"2026-05-04T22:18:59.161295+05:30"},{"city":"Aligarh","state":"Uttar Pradesh","latitude":27.8974,"longitude":78.088,"temp":25.2,"humidity":68,"rain":0.0,"pressure":987.7,"uv_index":7.7,"wind_gusts":54.0,"aqi":532,"pm10":421.9,"pm2_5":76.1,"no2":8.5,"co":493.0,"o3":127.0,"so2":13.1,"mosquito_risk":7,"arthritis_risk":5,"migraine_risk":7,"frizz_risk":1,"updated_at":"2026-05-04T22:18:59.161301+05:30"},{"city":"Moradabad","state":"Uttar Pradesh","latitude":28.8386,"longitude":78.7733,"temp":23.1,"humidity":76,"rain":0.0,"pressure":986.6,"uv_index":7.25,"wind_gusts":51.1,"aqi":98,"pm10":55.4,"pm2_5":37.0,"no2":15.5,"co":630.0,"o3":98.0,"so2":8.1,"mosquito_risk":3,"arthritis_risk":5,"migraine_risk":7,"frizz_risk":1,"updated_at":"2026-05-04T22:18:59.161307+05:30"},{"city":"Saharanpur","state":"Uttar Pradesh","latitude":29.9637,"longitude":77.546,"temp":21.8,"humidity":63,"rain":0.0,"pressure":978.6,"uv_index":7.1,"wind_gusts":56.9,"aqi":114,"pm10":57.6,"pm2_5":39.5,"no2":24.0,"co":350.0,"o3":73.0,"so2":10.4,"mosquito_risk":3,"arthritis_risk":5,"migraine_risk":7,"frizz_risk":0,"updated_at":"2026-05-04T22:18:59.161313+05:30"},{"city":"Jhansi","state":"Uttar Pradesh","latitude":25.4484,"longitude":78.5685,"temp":27.5,"humidity":57,"rain":0.0,"pressure":979.0,"uv_index":8.3,"wind_gusts":50.8,"aqi":155,"pm10":110.1,"pm2_5":37.3,"no2":3.1,"co":320.0,"o3":137.0,"so2":8.5,"mosquito_risk":4,"arthritis_risk":5,"migraine_risk":7,"frizz_risk":1,"updated_at":"2026-05-04T22:19:02.520097+05:30"},{"city":"Surat","state":"Gujarat","latitude":21.1702,"longitude":72.8311,"temp":29.2,"humidity":76,"rain":0.0,"pressure":1005.5,"uv_index":7.7,"wind_gusts":50.0,"aqi":61,"pm10":41.4,"pm2_5":19.0,"no2":17.0,"co":209.0,"o3":55.0,"so2":27.9,"mosquito_risk":7,"arthritis_risk":5,"migraine_risk":4,"frizz_risk":1,"updated_at":"2026-05-04T22:19:02.520120+05:30"},{"city":"Vadodara","state":"Gujarat","latitude":22.3072,"longitude":73.1812,"temp":29.6,"humidity":70,"rain":0.0,"pressure":1002.4,"uv_index":8.05,"wind_gusts":43.2,"aqi":57,"pm10":32.8,"pm2_5":17.7,"no2":14.7,"co":259.0,"o3":64.0,"so2":21.8,"mosquito_risk":7,"arthritis_risk":5,"migraine_risk":4,"frizz_risk":1,"updated_at":"2026-05-04T22:19:02.520129+05:30"},{"city":"Rajkot","state":"Gujarat","latitude":22.3039,"longitude":70.8022,"temp":29.4,"humidity":65,"rain":0.0,"pressure":991.6,"uv_index":7.7,"wind_gusts":40.3,"aqi":53,"pm10":31.1,"pm2_5":14.9,"no2":3.8,"co":161.0,"o3":73.0,"so2":3.5,"mosquito_risk":7,"arthritis_risk":5,"migraine_risk":7,"frizz_risk":1,"updated_at":"2026-05-04T22:19:02.520137+05:30"},{"city":"Thane","state":"Maharashtra","latitude":19.2183,"longitude":72.9781,"temp":29.5,"humidity":68,"rain":0.0,"pressure":1007.6,"uv_index":7.85,"wind_gusts":41.4,"aqi":61,"pm10":38.9,"pm2_5":16.2,"no2":8.9,"co":215.0,"o3":64.0,"so2":19.7,"mosquito_risk":7,"arthritis_risk":5,"migraine_risk":4,"frizz_risk":1,"updated_at":"2026-05-04T22:19:02.520144+05:30"},{"city":"Nagpur","state":"Maharashtra","latitude":21.1458,"longitude":79.0882,"temp":35.1,"humidity":18,"rain":0.0,"pressure":971.4,"uv_index":8.9,"wind_gusts":49.7,"aqi":80,"pm10":61.2,"pm2_5":36.1,"no2":30.3,"co":316.0,"o3":65.0,"so2":19.1,"mosquito_risk":0,"arthritis_risk":5,"migraine_risk":10,"frizz_risk":0,"updated_at":"2026-05-04T22:19:02.520151+05:30"},{"city":"Nashik","state":"Maharashtra","latitude":19.9975,"longitude":73.7898,"temp":25.0,"humidity":79,"rain":0.0,"pressure":945.3,"uv_index":8.15,"wind_gusts":48.2,"aqi":58,"pm10":31.1,"pm2_5":13.7,"no2":7.3,"co":188.0,"o3":72.0,"so2":8.3,"mosquito_risk":7,"arthritis_risk":5,"migraine_risk":7,"frizz_risk":1,"updated_at":"2026-05-04T22:19:02.520158+05:30"},{"city":"Aurangabad","state":"Maharashtra","latitude":19.8762,"longitude":75.3433,"temp":30.0,"humidity":40,"rain":0.0,"pressure":943.8,"uv_index":9.05,"wind_gusts":38.9,"aqi":72,"pm10":32.6,"pm2_5":14.8,"no2":6.1,"co":190.0,"o3":88.0,"so2":5.5,"mosquito_risk":4,"arthritis_risk":5,"migraine_risk":7,"frizz_risk":0,"updated_at":"2026-05-04T22:19:02.520165+05:30"},{"city":"Solapur","state":"Maharashtra","latitude":17.6599,"longitude":75.9064,"temp":32.0,"humidity":20,"rain":0.0,"pressure":956.0,"uv_index":9.05,"wind_gusts":38.2,"aqi":62,"pm10":44.5,"pm2_5":20.1,"no2":13.5,"co":359.0,"o3":76.0,"so2":4.4,"mosquito_risk":0,"arthritis_risk":5,"migraine_risk":7,"frizz_risk":0,"updated_at":"2026-05-04T22:19:02.520171+05:30"},{"city":"Kolhapur","state":"Maharashtra","latitude":16.705,"longitude":74.2433,"temp":24.2,"humidity":87,"rain":0.0,"pressure":948.2,"uv_index":8.9,"wind_gusts":46.1,"aqi":57,"pm10":23.9,"pm2_5":13.4,"no2":8.5,"co":190.0,"o3":58.0,"so2":2.8,"mosquito_risk":3,"arthritis_risk":5,"migraine_risk":7,"frizz_risk":1,"updated_at":"2026-05-04T22:19:02.520178+05:30"},{"city":"Goa","state":"Goa","latitude":15.2993,"longitude":74.124,"temp":28.5,"humidity":79,"rain":0.0,"pressure":998.8,"uv_index":8.9,"wind_gusts":35.3,"aqi":65,"pm10":42.6,"pm2_5":18.6,"no2":4.5,"co":193.0,"o3":58.0,"so2":1.5,"mosquito_risk":7,"arthritis_risk":5,"migraine_risk":7,"frizz_risk":1,"updated_at":"2026-05-04T22:19:02.520184+05:30"},{"city":"Jodhpur","state":"Rajasthan","latitude":26.2389,"longitude":73.0243,"temp":29.9,"humidity":37,"rain":0.0,"pressure":981.1,"uv_index":8.25,"wind_gusts":54.4,"aqi":91,"pm10":171.8,"pm2_5":33.9,"no2":14.9,"co":250.0,"o3":87.0,"so2":4.8,"mosquito_risk":4,"arthritis_risk":5,"migraine_risk":7,"frizz_risk":0,"updated_at":"2026-05-04T22:19:02.520190+05:30"},{"city":"Udaipur","state":"Rajasthan","latitude":24.5854,"longitude":73.7125,"temp":25.0,"humidity":66,"rain":0.0,"pressure":944.7,"uv_index":8.75,"wind_gusts":44.6,"aqi":83,"pm10":64.7,"pm2_5":24.4,"no2":6.0,"co":325.0,"o3":112.0,"so2":7.2,"mosquito_risk":7,"arthritis_risk":5,"migraine_risk":7,"frizz_risk":1,"updated_at":"2026-05-04T22:19:02.520196+05:30"},{"city":"Kota","state":"Rajasthan","latitude":25.2138,"longitude":75.8648,"temp":27.5,"humidity":56,"rain":0.0,"pressure":978.4,"uv_index":8.25,"wind_gusts":36.7,"aqi":108,"pm10":54.8,"pm2_5":23.5,"no2":5.7,"co":281.0,"o3":107.0,"so2":5.6,"mosquito_risk":4,"arthritis_risk":5,"migraine_risk":7,"frizz_risk":1,"updated_at":"2026-05-04T22:19:02.520202+05:30"},{"city":"Bikaner","state":"Rajasthan","latitude":28.0229,"longitude":73.3119,"temp":29.4,"humidity":33,"rain":0.0,"pressure":981.0,"uv_index":8.1,"wind_gusts":55.1,"aqi":128,"pm10":132.2,"pm2_5":52.6,"no2":3.4,"co":239.0,"o3":143.0,"so2":10.9,"mosquito_risk":4,"arthritis_risk":5,"migraine_risk":7,"frizz_risk":0,"updated_at":"2026-05-04T22:19:02.520208+05:30"},{"city":"Ajmer","state":"Rajasthan","latitude":26.4499,"longitude":74.6399,"temp":25.5,"humidity":58,"rain":0.0,"pressure":954.4,"uv_index":8.2,"wind_gusts":45.7,"aqi":86,"pm10":53.8,"pm2_5":23.3,"no2":5.5,"co":247.0,"o3":106.0,"so2":4.2,"mosquito_risk":4,"arthritis_risk":5,"migraine_risk":7,"frizz_risk":1,"updated_at":"2026-05-04T22:19:02.520215+05:30"},{"city":"Gwalior","state":"Madhya Pradesh","latitude":26.2183,"longitude":78.1828,"temp":28.8,"humidity":48,"rain":0.0,"pressure":984.4,"uv_index":8.1,"wind_gusts":52.9,"aqi":140,"pm10":247.7,"pm2_5":57.4,"no2":3.9,"co":349.0,"o3":133.0,"so2":6.5,"mosquito_risk":4,"arthritis_risk":5,"migraine_risk":7,"frizz_risk":1,"updated_at":"2026-05-04T22:19:02.520221+05:30"},{"city":"Indore","state":"Madhya Pradesh","latitude":22.7196,"longitude":75.8577,"temp":28.2,"humidity":43,"rain":0.0,"pressure":947.3,"uv_index":8.6,"wind_gusts":37.1,"aqi":57,"pm10":55.6,"pm2_5":31.8,"no2":18.1,"co":319.0,"o3":76.0,"so2":8.2,"mosquito_risk":4,"arthritis_risk":5,"migraine_risk":7,"frizz_risk":0,"updated_at":"2026-05-04T22:19:02.520227+05:30"},{"city":"Bhopal","state":"Madhya Pradesh","latitude":23.2599,"longitude":77.4126,"temp":27.9,"humidity":47,"rain":0.0,"pressure":953.1,"uv_index":8.65,"wind_gusts":62.6,"aqi":54,"pm10":27.3,"pm2_5":17.2,"no2":8.5,"co":225.0,"o3":69.0,"so2":4.4,"mosquito_risk":4,"arthritis_risk":5,"migraine_risk":7,"frizz_risk":0,"updated_at":"2026-05-04T22:19:02.520233+05:30"},{"city":"Jabalpur","state":"Madhya Pradesh","latitude":23.1815,"longitude":79.9864,"temp":30.0,"humidity":36,"rain":0.0,"pressure":961.4,"uv_index":8.85,"wind_gusts":32.4,"aqi":70,"pm10":29.8,"pm2_5":22.0,"no2":18.4,"co":240.0,"o3":85.0,"so2":7.9,"mosquito_risk":4,"arthritis_risk":5,"migraine_risk":7,"frizz_risk":0,"updated_at":"2026-05-04T22:19:02.520239+05:30"},{"city":"Ujjain","state":"Madhya Pradesh","latitude":23.1765,"longitude":75.7885,"temp":27.9,"humidity":48,"rain":0.0,"pressure":953.0,"uv_index":8.55,"wind_gusts":54.0,"aqi":54,"pm10":59.3,"pm2_5":31.3,"no2":9.6,"co":270.0,"o3":85.0,"so2":5.6,"mosquito_risk":4,"arthritis_risk":5,"migraine_risk":7,"frizz_risk":0,"updated_at":"2026-05-04T22:19:02.520245+05:30"},{"city":"Visakhapatnam","state":"Andhra Pradesh","latitude":17.6868,"longitude":83.2185,"temp":26.7,"humidity":96,"rain":0.0,"pressure":1005.2,"uv_index":8.05,"wind_gusts":32.4,"aqi":85,"pm10":33.3,"pm2_5":25.4,"no2":21.9,"co":2068.0,"o3":78.0,"so2":4.8,"mosquito_risk":7,"arthritis_risk":5,"migraine_risk":4,"frizz_risk":1,"updated_at":"2026-05-04T22:19:02.520251+05:30"},{"city":"Vijayawada","state":"Andhra Pradesh","latitude":16.5062,"longitude":80.648,"temp":29.5,"humidity":76,"rain":0.0,"pressure":1003.3,"uv_index":9.1,"wind_gusts":34.9,"aqi":105,"pm10":29.5,"pm2_5":23.3,"no2":6.4,"co":223.0,"o3":98.0,"so2":7.0,"mosquito_risk":7,"arthritis_risk":5,"migraine_risk":4,"frizz_risk":1,"updated_at":"2026-05-04T22:19:02.520257+05:30"},{"city":"Guntur","state":"Andhra Pradesh","latitude":16.3067,"longitude":80.4365,"temp":29.4,"humidity":82,"rain":0.0,"pressure":1004.4,"uv_index":9.15,"wind_gusts":41.4,"aqi":111,"pm10":31.4,"pm2_5":24.2,"no2":6.3,"co":217.0,"o3":102.0,"so2":6.7,"mosquito_risk":7,"arthritis_risk":5,"migraine_risk":4,"frizz_risk":1,"updated_at":"2026-05-04T22:19:02.520263+05:30"},{"city":"Nellore","state":"Andhra Pradesh","latitude":14.4426,"longitude":79.9865,"temp":29.7,"humidity":73,"rain":0.0,"pressure":1005.8,"uv_index":9.15,"wind_gusts":36.0,"aqi":113,"pm10":24.4,"pm2_5":18.5,"no2":3.1,"co":211.0,"o3":101.0,"so2":4.2,"mosquito_risk":7,"arthritis_risk":5,"migraine_risk":4,"frizz_risk":1,"updated_at":"2026-05-04T22:19:02.520270+05:30"},{"city":"Kurnool","state":"Andhra Pradesh","latitude":15.8281,"longitude":78.0373,"temp":32.0,"humidity":24,"rain":0.0,"pressure":975.8,"uv_index":9.15,"wind_gusts":31.3,"aqi":94,"pm10":68.2,"pm2_5":35.4,"no2":18.4,"co":298.0,"o3":80.0,"so2":7.3,"mosquito_risk":0,"arthritis_risk":5,"migraine_risk":7,"frizz_risk":0,"updated_at":"2026-05-04T22:19:02.520277+05:30"},{"city":"Kakinada","state":"Andhra Pradesh","latitude":16.9891,"longitude":82.2475,"temp":27.8,"humidity":94,"rain":0.0,"pressure":1008.6,"uv_index":9.1,"wind_gusts":32.8,"aqi":85,"pm10":29.3,"pm2_5":21.2,"no2":1.7,"co":327.0,"o3":104.0,"so2":1.6,"mosquito_risk":7,"arthritis_risk":0,"migraine_risk":4,"frizz_risk":1,"updated_at":"2026-05-04T22:19:02.520284+05:30"},{"city":"Tirupati","state":"Andhra Pradesh","latitude":13.6288,"longitude":79.4192,"temp":29.6,"humidity":60,"rain":0.0,"pressure":991.4,"uv_index":9.3,"wind_gusts":49.0,"aqi":126,"pm10":38.6,"pm2_5":32.9,"no2":21.0,"co":358.0,"o3":93.0,"so2":10.1,"mosquito_risk":4,"arthritis_risk":5,"migraine_risk":7,"frizz_risk":1,"updated_at":"2026-05-04T22:19:02.520290+05:30"},{"city":"Warangal","state":"Telangana","latitude":17.9689,"longitude":79.5941,"temp":29.6,"humidity":61,"rain":0.0,"pressure":978.6,"uv_index":9.15,"wind_gusts":34.6,"aqi":113,"pm10":45.9,"pm2_5":34.6,"no2":11.7,"co":296.0,"o3":110.0,"so2":10.7,"mosquito_risk":7,"arthritis_risk":5,"migraine_risk":7,"frizz_risk":1,"updated_at":"2026-05-04T22:19:02.520296+05:30"},{"city":"Nizamabad","state":"Telangana","latitude":18.6725,"longitude":78.0941,"temp":29.9,"humidity":21,"rain":0.0,"pressure":963.1,"uv_index":9.1,"wind_gusts":32.4,"aqi":78,"pm10":87.5,"pm2_5":55.2,"no2":32.0,"co":346.0,"o3":60.0,"so2":8.9,"mosquito_risk":4,"arthritis_risk":5,"migraine_risk":7,"frizz_risk":0,"updated_at":"2026-05-04T22:19:02.520302+05:30"},{"city":"Mysore","state":"Karnataka","latitude":12.2958,"longitude":76.6396,"temp":24.7,"humidity":80,"rain":0.0,"pressure":929.3,"uv_index":9.4,"wind_gusts":37.1,"aqi":66,"pm10":27.3,"pm2_5":17.3,"no2":14.4,"co":212.0,"o3":72.0,"so2":2.8,"mosquito_risk":3,"arthritis_risk":5,"migraine_risk":7,"frizz_risk":1,"updated_at":"2026-05-04T22:19:02.520308+05:30"},{"city":"Mangalore","state":"Karnataka","latitude":12.9141,"longitude":74.856,"temp":29.5,"humidity":72,"rain":0.0,"pressure":1007.5,"uv_index":9.05,"wind_gusts":45.4,"aqi":68,"pm10":44.5,"pm2_5":16.4,"no2":3.0,"co":175.0,"o3":62.0,"so2":1.5,"mosquito_risk":7,"arthritis_risk":5,"migraine_risk":4,"frizz_risk":1,"updated_at":"2026-05-04T22:19:02.520314+05:30"},{"city":"Hubli-Dharwad","state":"Karnataka","latitude":15.3647,"longitude":75.124,"temp":24.9,"humidity":82,"rain":0.0,"pressure":941.0,"uv_index":9.15,"wind_gusts":53.6,"aqi":54,"pm10":26.4,"pm2_5":14.1,"no2":7.7,"co":189.0,"o3":62.0,"so2":2.2,"mosquito_risk":3,"arthritis_risk":5,"migraine_risk":7,"frizz_risk":1,"updated_at":"2026-05-04T22:19:02.520320+05:30"},{"city":"Belgaum","state":"Karnataka","latitude":15.8497,"longitude":74.4977,"temp":22.5,"humidity":94,"rain":0.0,"pressure":925.6,"uv_index":9.15,"wind_gusts":49.0,"aqi":56,"pm10":25.7,"pm2_5":14.3,"no2":8.8,"co":174.0,"o3":49.0,"so2":2.4,"mosquito_risk":3,"arthritis_risk":5,"migraine_risk":7,"frizz_risk":1,"updated_at":"2026-05-04T22:19:05.868443+05:30"},{"city":"Coimbatore","state":"Tamil Nadu","latitude":11.0168,"longitude":76.9558,"temp":25.0,"humidity":87,"rain":0.0,"pressure":962.8,"uv_index":9.35,"wind_gusts":47.2,"aqi":67,"pm10":25.1,"pm2_5":13.6,"no2":8.4,"co":255.0,"o3":74.0,"so2":3.5,"mosquito_risk":7,"arthritis_risk":5,"migraine_risk":7,"frizz_risk":1,"updated_at":"2026-05-04T22:19:05.868467+05:30"},{"city":"Madurai","state":"Tamil Nadu","latitude":9.9252,"longitude":78.1198,"temp":26.5,"humidity":91,"rain":0.4,"pressure":993.8,"uv_index":7.9,"wind_gusts":44.3,"aqi":136,"pm10":36.4,"pm2_5":27.8,"no2":13.6,"co":361.0,"o3":99.0,"so2":5.3,"mosquito_risk":10,"arthritis_risk":5,"migraine_risk":7,"frizz_risk":1,"updated_at":"2026-05-04T22:19:05.868477+05:30"},{"city":"Trichy","state":"Tamil Nadu","latitude":10.7905,"longitude":78.7047,"temp":25.8,"humidity":88,"rain":0.4,"pressure":1000.8,"uv_index":9.25,"wind_gusts":43.6,"aqi":117,"pm10":29.6,"pm2_5":23.1,"no2":8.4,"co":246.0,"o3":93.0,"so2":3.8,"mosquito_risk":10,"arthritis_risk":5,"migraine_risk":4,"frizz_risk":1,"updated_at":"2026-05-04T22:19:05.868484+05:30"},{"city":"Salem","state":"Tamil Nadu","latitude":11.6643,"longitude":78.146,"temp":25.0,"humidity":86,"rain":0.2,"pressure":978.4,"uv_index":9.25,"wind_gusts":55.4,"aqi":128,"pm10":43.5,"pm2_5":30.0,"no2":10.0,"co":326.0,"o3":120.0,"so2":7.5,"mosquito_risk":10,"arthritis_risk":5,"migraine_risk":7,"frizz_risk":1,"updated_at":"2026-05-04T22:19:05.868491+05:30"},{"city":"Tirunelveli","state":"Tamil Nadu","latitude":8.7139,"longitude":77.7567,"temp":29.2,"humidity":64,"rain":0.0,"pressure":1003.8,"uv_index":8.15,"wind_gusts":36.4,"aqi":75,"pm10":44.0,"pm2_5":22.3,"no2":8.5,"co":220.0,"o3":61.0,"so2":2.4,"mosquito_risk":7,"arthritis_risk":5,"migraine_risk":4,"frizz_risk":1,"updated_at":"2026-05-04T22:19:05.868497+05:30"},{"city":"Vellore","state":"Tamil Nadu","latitude":12.9165,"longitude":79.1325,"temp":30.0,"humidity":56,"rain":0.0,"pressure":984.7,"uv_index":9.0,"wind_gusts":50.8,"aqi":137,"pm10":54.5,"pm2_5":40.9,"no2":15.9,"co":297.0,"o3":108.0,"so2":9.3,"mosquito_risk":4,"arthritis_risk":5,"migraine_risk":7,"frizz_risk":1,"updated_at":"2026-05-04T22:19:05.868504+05:30"},{"city":"Erode","state":"Tamil Nadu","latitude":11.341,"longitude":77.7172,"temp":28.9,"humidity":64,"rain":0.0,"pressure":990.3,"uv_index":9.25,"wind_gusts":51.1,"aqi":80,"pm10":34.6,"pm2_5":24.2,"no2":13.3,"co":253.0,"o3":85.0,"so2":2.4,"mosquito_risk":7,"arthritis_risk":5,"migraine_risk":7,"frizz_risk":1,"updated_at":"2026-05-04T22:19:05.868510+05:30"},{"city":"Kochi","state":"Kerala","latitude":9.9312,"longitude":76.2673,"temp":25.7,"humidity":92,"rain":0.0,"pressure":1010.7,"uv_index":9.05,"wind_gusts":29.9,"aqi":103,"pm10":40.4,"pm2_5":23.6,"no2":16.2,"co":258.0,"o3":52.0,"so2":4.0,"mosquito_risk":7,"arthritis_risk":0,"migraine_risk":4,"frizz_risk":1,"updated_at":"2026-05-04T22:19:05.868518+05:30"},{"city":"Thiruvananthapuram","state":"Kerala","latitude":8.5241,"longitude":76.9366,"temp":24.4,"humidity":94,"rain":0.0,"pressure":1009.7,"uv_index":7.95,"wind_gusts":43.6,"aqi":72,"pm10":55.2,"pm2_5":19.2,"no2":2.2,"co":271.0,"o3":67.0,"so2":1.0,"mosquito_risk":3,"arthritis_risk":0,"migraine_risk":4,"frizz_risk":1,"updated_at":"2026-05-04T22:19:05.868525+05:30"},{"city":"Kozhikode","state":"Kerala","latitude":11.2588,"longitude":75.7804,"temp":26.3,"humidity":93,"rain":0.0,"pressure":1009.1,"uv_index":9.0,"wind_gusts":38.5,"aqi":68,"pm10":47.3,"pm2_5":16.8,"no2":2.1,"co":356.0,"o3":71.0,"so2":0.8,"mosquito_risk":7,"arthritis_risk":0,"migraine_risk":4,"frizz_risk":1,"updated_at":"2026-05-04T22:19:05.868531+05:30"},{"city":"Thrissur","state":"Kerala","latitude":10.5276,"longitude":76.2144,"temp":24.5,"humidity":96,"rain":0.0,"pressure":1009.1,"uv_index":8.75,"wind_gusts":37.1,"aqi":93,"pm10":39.2,"pm2_5":24.2,"no2":14.8,"co":393.0,"o3":48.0,"so2":2.8,"mosquito_risk":3,"arthritis_risk":0,"migraine_risk":4,"frizz_risk":1,"updated_at":"2026-05-04T22:19:05.868538+05:30"},{"city":"Kannur","state":"Kerala","latitude":11.8745,"longitude":75.3704,"temp":29.5,"humidity":75,"rain":0.0,"pressure":1008.0,"uv_index":9.0,"wind_gusts":46.8,"aqi":67,"pm10":48.8,"pm2_5":18.2,"no2":5.1,"co":233.0,"o3":53.0,"so2":1.2,"mosquito_risk":7,"arthritis_risk":0,"migraine_risk":4,"frizz_risk":1,"updated_at":"2026-05-04T22:19:05.868544+05:30"},{"city":"Patna","state":"Bihar","latitude":25.5941,"longitude":85.1376,"temp":23.5,"humidity":92,"rain":0.0,"pressure":1002.9,"uv_index":8.7,"wind_gusts":45.4,"aqi":166,"pm10":61.7,"pm2_5":52.7,"no2":12.2,"co":402.0,"o3":133.0,"so2":14.7,"mosquito_risk":3,"arthritis_risk":5,"migraine_risk":4,"frizz_risk":1,"updated_at":"2026-05-04T22:19:05.868550+05:30"},{"city":"Gaya","state":"Bihar","latitude":24.7914,"longitude":85.0002,"temp":24.1,"humidity":83,"rain":0.0,"pressure":996.6,"uv_index":8.8,"wind_gusts":46.4,"aqi":178,"pm10":59.5,"pm2_5":54.4,"no2":7.8,"co":359.0,"o3":175.0,"so2":22.2,"mosquito_risk":3,"arthritis_risk":5,"migraine_risk":7,"frizz_risk":1,"updated_at":"2026-05-04T22:19:05.868556+05:30"},{"city":"Muzaffarpur","state":"Bihar","latitude":26.1209,"longitude":85.3647,"temp":23.2,"humidity":91,"rain":0.0,"pressure":1003.0,"uv_index":8.7,"wind_gusts":47.5,"aqi":135,"pm10":57.7,"pm2_5":46.6,"no2":15.7,"co":410.0,"o3":103.0,"so2":12.5,"mosquito_risk":3,"arthritis_risk":5,"migraine_risk":4,"frizz_risk":1,"updated_at":"2026-05-04T22:19:05.868562+05:30"},{"city":"Bhagalpur","state":"Bihar","latitude":25.2425,"longitude":87.0117,"temp":23.4,"humidity":96,"rain":0.4,"pressure":1005.6,"uv_index":8.7,"wind_gusts":36.7,"aqi":130,"pm10":51.9,"pm2_5":45.2,"no2":16.0,"co":279.0,"o3":104.0,"so2":12.4,"mosquito_risk":6,"arthritis_risk":5,"migraine_risk":4,"frizz_risk":1,"updated_at":"2026-05-04T22:19:05.868568+05:30"},{"city":"Ranchi","state":"Jharkhand","latitude":23.3441,"longitude":85.3096,"temp":21.0,"humidity":87,"rain":0.0,"pressure":940.0,"uv_index":9.25,"wind_gusts":34.6,"aqi":167,"pm10":54.7,"pm2_5":44.1,"no2":7.3,"co":335.0,"o3":162.0,"so2":17.7,"mosquito_risk":3,"arthritis_risk":5,"migraine_risk":7,"frizz_risk":1,"updated_at":"2026-05-04T22:19:05.868574+05:30"},{"city":"Jamshedpur","state":"Jharkhand","latitude":22.8046,"longitude":86.2029,"temp":23.9,"humidity":96,"rain":0.1,"pressure":994.4,"uv_index":9.05,"wind_gusts":44.6,"aqi":126,"pm10":37.7,"pm2_5":29.8,"no2":16.7,"co":381.0,"o3":79.0,"so2":20.1,"mosquito_risk":6,"arthritis_risk":5,"migraine_risk":7,"frizz_risk":1,"updated_at":"2026-05-04T22:19:05.868581+05:30"},{"city":"Dhanbad","state":"Jharkhand","latitude":23.7957,"longitude":86.4304,"temp":24.1,"humidity":94,"rain":0.0,"pressure":983.9,"uv_index":9.0,"wind_gusts":38.5,"aqi":153,"pm10":77.1,"pm2_5":65.4,"no2":49.2,"co":1200.0,"o3":64.0,"so2":74.2,"mosquito_risk":3,"arthritis_risk":5,"migraine_risk":7,"frizz_risk":1,"updated_at":"2026-05-04T22:19:05.868587+05:30"},{"city":"Bokaro","state":"Jharkhand","latitude":23.6693,"longitude":86.1511,"temp":23.6,"humidity":94,"rain":0.0,"pressure":987.2,"uv_index":9.0,"wind_gusts":37.4,"aqi":193,"pm10":81.5,"pm2_5":71.5,"no2":43.8,"co":1429.0,"o3":97.0,"so2":77.7,"mosquito_risk":3,"arthritis_risk":5,"migraine_risk":7,"frizz_risk":1,"updated_at":"2026-05-04T22:19:05.868593+05:30"},{"city":"Bhubaneswar","state":"Odisha","latitude":20.2961,"longitude":85.8245,"temp":26.4,"humidity":93,"rain":0.0,"pressure":1005.5,"uv_index":9.1,"wind_gusts":39.6,"aqi":69,"pm10":19.3,"pm2_5":15.6,"no2":6.9,"co":225.0,"o3":70.0,"so2":3.1,"mosquito_risk":7,"arthritis_risk":5,"migraine_risk":4,"frizz_risk":1,"updated_at":"2026-05-04T22:19:05.868599+05:30"},{"city":"Cuttack","state":"Odisha","latitude":20.4625,"longitude":85.8828,"temp":26.6,"humidity":90,"rain":0.0,"pressure":1007.4,"uv_index":9.15,"wind_gusts":38.5,"aqi":69,"pm10":19.3,"pm2_5":15.6,"no2":6.9,"co":235.0,"o3":70.0,"so2":3.1,"mosquito_risk":7,"arthritis_risk":5,"migraine_risk":4,"frizz_risk":1,"updated_at":"2026-05-04T22:19:05.868605+05:30"},{"city":"Rourkela","state":"Odisha","latitude":22.2604,"longitude":84.8536,"temp":24.9,"humidity":89,"rain":0.0,"pressure":987.7,"uv_index":8.95,"wind_gusts":34.6,"aqi":144,"pm10":51.1,"pm2_5":37.7,"no2":9.7,"co":392.0,"o3":127.0,"so2":33.3,"mosquito_risk":3,"arthritis_risk":5,"migraine_risk":7,"frizz_risk":1,"updated_at":"2026-05-04T22:19:05.868611+05:30"},{"city":"Raipur","state":"Chhattisgarh","latitude":21.2514,"longitude":81.6296,"temp":30.8,"humidity":40,"rain":0.0,"pressure":974.6,"uv_index":9.0,"wind_gusts":53.6,"aqi":128,"pm10":59.0,"pm2_5":39.3,"no2":18.9,"co":281.0,"o3":94.0,"so2":7.8,"mosquito_risk":0,"arthritis_risk":5,"migraine_risk":7,"frizz_risk":0,"updated_at":"2026-05-04T22:19:05.868618+05:30"},{"city":"Bhilai","state":"Chhattisgarh","latitude":21.1938,"longitude":81.3509,"temp":30.5,"humidity":46,"rain":0.0,"pressure":974.8,"uv_index":9.0,"wind_gusts":49.3,"aqi":109,"pm10":68.5,"pm2_5":47.5,"no2":35.5,"co":252.0,"o3":68.0,"so2":10.2,"mosquito_risk":0,"arthritis_risk":5,"migraine_risk":7,"frizz_risk":1,"updated_at":"2026-05-04T22:19:05.868623+05:30"},{"city":"Guwahati","state":"Assam","latitude":26.1158,"longitude":91.7086,"temp":22.3,"humidity":91,"rain":0.0,"pressure":1006.4,"uv_index":8.65,"wind_gusts":34.9,"aqi":85,"pm10":25.1,"pm2_5":21.2,"no2":9.0,"co":360.0,"o3":69.0,"so2":1.8,"mosquito_risk":3,"arthritis_risk":5,"migraine_risk":4,"frizz_risk":1,"updated_at":"2026-05-04T22:19:05.868629+05:30"},{"city":"Agartala","state":"Tripura","latitude":23.8315,"longitude":91.2868,"temp":24.0,"humidity":91,"rain":0.0,"pressure":1010.5,"uv_index":8.85,"wind_gusts":33.1,"aqi":61,"pm10":53.1,"pm2_5":43.0,"no2":26.0,"co":321.0,"o3":62.0,"so2":4.4,"mosquito_risk":3,"arthritis_risk":0,"migraine_risk":4,"frizz_risk":1,"updated_at":"2026-05-04T22:19:05.868635+05:30"},{"city":"Shillong","state":"Meghalaya","latitude":25.5788,"longitude":91.8933,"temp":14.4,"humidity":91,"rain":0.0,"pressure":859.0,"uv_index":9.05,"wind_gusts":31.7,"aqi":61,"pm10":17.3,"pm2_5":14.9,"no2":10.5,"co":503.0,"o3":76.0,"so2":1.0,"mosquito_risk":3,"arthritis_risk":10,"migraine_risk":7,"frizz_risk":0,"updated_at":"2026-05-04T22:19:05.868641+05:30"},{"city":"Imphal","state":"Manipur","latitude":24.817,"longitude":93.9368,"temp":17.5,"humidity":93,"rain":0.0,"pressure":926.4,"uv_index":6.85,"wind_gusts":27.0,"aqi":91,"pm10":55.1,"pm2_5":46.8,"no2":38.0,"co":859.0,"o3":44.0,"so2":5.9,"mosquito_risk":3,"arthritis_risk":10,"migraine_risk":7,"frizz_risk":1,"updated_at":"2026-05-04T22:19:05.868648+05:30"},{"city":"Aizawl","state":"Mizoram","latitude":23.7271,"longitude":92.7176,"temp":17.7,"humidity":89,"rain":0.0,"pressure":895.1,"uv_index":8.45,"wind_gusts":27.0,"aqi":44,"pm10":27.2,"pm2_5":18.6,"no2":11.2,"co":283.0,"o3":35.0,"so2":0.8,"mosquito_risk":3,"arthritis_risk":10,"migraine_risk":7,"frizz_risk":0,"updated_at":"2026-05-04T22:19:05.868654+05:30"},{"city":"Kohima","state":"Nagaland","latitude":25.6701,"longitude":94.1077,"temp":13.6,"humidity":93,"rain":0.0,"pressure":856.6,"uv_index":8.9,"wind_gusts":26.6,"aqi":72,"pm10":28.8,"pm2_5":23.0,"no2":21.1,"co":394.0,"o3":37.0,"so2":2.2,"mosquito_risk":3,"arthritis_risk":10,"migraine_risk":7,"frizz_risk":0,"updated_at":"2026-05-04T22:19:05.868660+05:30"},{"city":"Gangtok","state":"Sikkim","latitude":27.3314,"longitude":88.6138,"temp":12.4,"humidity":96,"rain":0.1,"pressure":840.2,"uv_index":7.8,"wind_gusts":44.6,"aqi":60,"pm10":26.5,"pm2_5":21.4,"no2":17.9,"co":355.0,"o3":90.0,"so2":1.5,"mosquito_risk":6,"arthritis_risk":10,"migraine_risk":7,"frizz_risk":0,"updated_at":"2026-05-04T22:19:05.868666+05:30"},{"city":"Siliguri","state":"West Bengal","latitude":26.7271,"longitude":88.3953,"temp":21.7,"humidity":91,"rain":0.0,"pressure":998.7,"uv_index":8.55,"wind_gusts":31.7,"aqi":86,"pm10":41.8,"pm2_5":32.5,"no2":14.9,"co":584.0,"o3":105.0,"so2":4.0,"mosquito_risk":3,"arthritis_risk":5,"migraine_risk":7,"frizz_risk":1,"updated_at":"2026-05-04T22:19:09.215374+05:30"},{"city":"Durgapur","state":"West Bengal","latitude":23.5204,"longitude":87.3119,"temp":24.6,"humidity":88,"rain":0.0,"pressure":998.9,"uv_index":8.95,"wind_gusts":40.7,"aqi":127,"pm10":78.0,"pm2_5":69.2,"no2":37.4,"co":442.0,"o3":65.0,"so2":41.9,"mosquito_risk":3,"arthritis_risk":5,"migraine_risk":7,"frizz_risk":1,"updated_at":"2026-05-04T22:19:09.215396+05:30"},{"city":"Asansol","state":"West Bengal","latitude":23.6739,"longitude":86.9524,"temp":23.9,"humidity":89,"rain":0.0,"pressure":997.7,"uv_index":8.95,"wind_gusts":33.5,"aqi":139,"pm10":71.2,"pm2_5":59.5,"no2":37.1,"co":689.0,"o3":69.0,"so2":54.4,"mosquito_risk":3,"arthritis_risk":5,"migraine_risk":7,"frizz_risk":1,"updated_at":"2026-05-04T22:19:09.215405+05:30"},{"city":"Pondicherry","state":"Puducherry","latitude":11.9139,"longitude":79.8145,"temp":29.9,"humidity":84,"rain":0.0,"pressure":1008.3,"uv_index":8.4,"wind_gusts":43.6,"aqi":98,"pm10":30.6,"pm2_5":20.8,"no2":3.6,"co":239.0,"o3":105.0,"so2":2.2,"mosquito_risk":7,"arthritis_risk":0,"migraine_risk":4,"frizz_risk":1,"updated_at":"2026-05-04T22:19:09.215413+05:30"},{"city":"Port Blair","state":"Andaman and Nicobar Islands","latitude":11.6234,"longitude":92.7265,"temp":27.9,"humidity":77,"rain":0.0,"pressure":1009.4,"uv_index":9.1,"wind_gusts":34.2,"aqi":24,"pm10":7.8,"pm2_5":5.7,"no2":0.4,"co":190.0,"o3":52.0,"so2":0.2,"mosquito_risk":7,"arthritis_risk":0,"migraine_risk":4,"frizz_risk":1,"updated_at":"2026-05-04T22:19:09.215420+05:30"},{"city":"Haridwar","state":"Uttarakhand","latitude":29.9457,"longitude":78.1642,"temp":21.1,"humidity":68,"rain":0.0,"pressure":977.2,"uv_index":6.25,"wind_gusts":43.9,"aqi":102,"pm10":78.9,"pm2_5":46.1,"no2":24.2,"co":267.0,"o3":77.0,"so2":8.3,"mosquito_risk":3,"arthritis_risk":5,"migraine_risk":7,"frizz_risk":0,"updated_at":"2026-05-04T22:19:09.215427+05:30"},{"city":"Rishikesh","state":"Uttarakhand","latitude":30.0869,"longitude":78.2676,"temp":19.0,"humidity":77,"rain":0.0,"pressure":969.6,"uv_index":6.2,"wind_gusts":41.8,"aqi":94,"pm10":60.8,"pm2_5":27.3,"no2":15.5,"co":322.0,"o3":92.0,"so2":2.7,"mosquito_risk":3,"arthritis_risk":5,"migraine_risk":7,"frizz_risk":0,"updated_at":"2026-05-04T22:19:09.215435+05:30"},{"city":"Nainital","state":"Uttarakhand","latitude":29.3919,"longitude":79.4542,"temp":9.9,"humidity":86,"rain":0.0,"pressure":805.2,"uv_index":7.8,"wind_gusts":43.9,"aqi":83,"pm10":28.0,"pm2_5":18.7,"no2":13.7,"co":323.0,"o3":74.0,"so2":2.8,"mosquito_risk":3,"arthritis_risk":10,"migraine_risk":7,"frizz_risk":0,"updated_at":"2026-05-04T22:19:09.215441+05:30"},{"city":"Mussoorie","state":"Uttarakhand","latitude":30.4599,"longitude":78.0664,"temp":8.6,"humidity":95,"rain":0.0,"pressure":801.8,"uv_index":6.75,"wind_gusts":42.8,"aqi":95,"pm10":85.9,"pm2_5":37.8,"no2":28.0,"co":250.0,"o3":88.0,"so2":11.8,"mosquito_risk":3,"arthritis_risk":10,"migraine_risk":7,"frizz_risk":0,"updated_at":"2026-05-04T22:19:09.215448+05:30"},{"city":"Dharamshala","state":"Himachal Pradesh","latitude":32.219,"longitude":76.3234,"temp":15.9,"humidity":54,"rain":0.0,"pressure":869.6,"uv_index":8.1,"wind_gusts":39.2,"aqi":92,"pm10":49.6,"pm2_5":15.4,"no2":10.9,"co":316.0,"o3":98.0,"so2":1.1,"mosquito_risk":0,"arthritis_risk":5,"migraine_risk":7,"frizz_risk":0,"updated_at":"2026-05-04T22:19:09.215454+05:30"},{"city":"Dalhousie","state":"Himachal Pradesh","latitude":32.5387,"longitude":75.971,"temp":8.2,"humidity":94,"rain":0.0,"pressure":801.6,"uv_index":8.25,"wind_gusts":38.2,"aqi":103,"pm10":118.5,"pm2_5":39.3,"no2":32.2,"co":458.0,"o3":90.0,"so2":4.4,"mosquito_risk":3,"arthritis_risk":10,"migraine_risk":7,"frizz_risk":0,"updated_at":"2026-05-04T22:19:09.215461+05:30"},{"city":"Patiala","state":"Punjab","latitude":30.3398,"longitude":76.3869,"temp":23.9,"humidity":55,"rain":0.0,"pressure":980.5,"uv_index":7.4,"wind_gusts":52.6,"aqi":224,"pm10":37.3,"pm2_5":25.8,"no2":7.7,"co":358.0,"o3":114.0,"so2":4.6,"mosquito_risk":0,"arthritis_risk":5,"migraine_risk":7,"frizz_risk":0,"updated_at":"2026-05-04T22:19:09.215467+05:30"},{"city":"Bhatinda","state":"Punjab","latitude":30.211,"longitude":74.9455,"temp":24.7,"humidity":54,"rain":0.0,"pressure":985.1,"uv_index":8.0,"wind_gusts":47.5,"aqi":554,"pm10":270.1,"pm2_5":58.0,"no2":6.7,"co":308.0,"o3":122.0,"so2":8.5,"mosquito_risk":0,"arthritis_risk":5,"migraine_risk":7,"frizz_risk":0,"updated_at":"2026-05-04T22:19:09.215473+05:30"},{"city":"Rohtak","state":"Haryana","latitude":28.8955,"longitude":76.6066,"temp":25.6,"humidity":56,"rain":0.0,"pressure":983.4,"uv_index":7.5,"wind_gusts":51.1,"aqi":693,"pm10":256.1,"pm2_5":59.0,"no2":18.6,"co":368.0,"o3":112.0,"so2":18.4,"mosquito_risk":4,"arthritis_risk":5,"migraine_risk":7,"frizz_risk":1,"updated_at":"2026-05-04T22:19:09.215479+05:30"},{"city":"Panipat","state":"Haryana","latitude":29.3909,"longitude":76.9635,"temp":24.1,"humidity":61,"rain":0.0,"pressure":982.8,"uv_index":7.35,"wind_gusts":46.1,"aqi":1212,"pm10":95.9,"pm2_5":32.9,"no2":7.2,"co":408.0,"o3":124.0,"so2":7.6,"mosquito_risk":3,"arthritis_risk":5,"migraine_risk":7,"frizz_risk":0,"updated_at":"2026-05-04T22:19:09.215486+05:30"},{"city":"Mathura","state":"Uttar Pradesh","latitude":27.4924,"longitude":77.6737,"temp":25.6,"humidity":64,"rain":0.0,"pressure":988.6,"uv_index":7.8,"wind_gusts":52.2,"aqi":942,"pm10":352.0,"pm2_5":72.4,"no2":9.8,"co":431.0,"o3":126.0,"so2":9.5,"mosquito_risk":7,"arthritis_risk":5,"migraine_risk":7,"frizz_risk":1,"updated_at":"2026-05-04T22:19:09.215493+05:30"},{"city":"Vrindavan","state":"Uttar Pradesh","latitude":27.5823,"longitude":77.7027,"temp":25.9,"humidity":63,"rain":0.0,"pressure":989.1,"uv_index":7.8,"wind_gusts":51.1,"aqi":942,"pm10":352.0,"pm2_5":72.4,"no2":9.8,"co":460.0,"o3":126.0,"so2":9.5,"mosquito_risk":7,"arthritis_risk":5,"migraine_risk":7,"frizz_risk":1,"updated_at":"2026-05-04T22:19:09.215499+05:30"},{"city":"Ayodhya","state":"Uttar Pradesh","latitude":26.7922,"longitude":82.1998,"temp":23.7,"humidity":79,"rain":0.0,"pressure":998.5,"uv_index":7.55,"wind_gusts":48.2,"aqi":135,"pm10":48.5,"pm2_5":38.5,"no2":13.6,"co":422.0,"o3":104.0,"so2":7.7,"mosquito_risk":3,"arthritis_risk":5,"migraine_risk":7,"frizz_risk":1,"updated_at":"2026-05-04T22:19:09.215505+05:30"},{"city":"Ratlam","state":"Madhya Pradesh","latitude":23.3315,"longitude":75.0367,"temp":28.5,"humidity":46,"rain":0.0,"pressure":953.8,"uv_index":8.45,"wind_gusts":34.6,"aqi":59,"pm10":41.9,"pm2_5":20.1,"no2":2.9,"co":283.0,"o3":104.0,"so2":4.6,"mosquito_risk":4,"arthritis_risk":5,"migraine_risk":7,"frizz_risk":0,"updated_at":"2026-05-04T22:19:09.215511+05:30"},{"city":"Sagar","state":"Madhya Pradesh","latitude":23.8388,"longitude":78.7378,"temp":27.9,"humidity":46,"rain":0.0,"pressure":950.6,"uv_index":8.65,"wind_gusts":36.4,"aqi":103,"pm10":30.6,"pm2_5":21.8,"no2":7.9,"co":321.0,"o3":108.0,"so2":5.8,"mosquito_risk":4,"arthritis_risk":5,"migraine_risk":7,"frizz_risk":0,"updated_at":"2026-05-04T22:19:09.215517+05:30"},{"city":"Satna","state":"Madhya Pradesh","latitude":24.6005,"longitude":80.8322,"temp":27.2,"humidity":60,"rain":0.0,"pressure":972.3,"uv_index":8.2,"wind_gusts":40.7,"aqi":151,"pm10":52.9,"pm2_5":35.9,"no2":8.3,"co":388.0,"o3":140.0,"so2":13.6,"mosquito_risk":4,"arthritis_risk":5,"migraine_risk":7,"frizz_risk":1,"updated_at":"2026-05-04T22:19:09.215524+05:30"},{"city":"Akola","state":"Maharashtra","latitude":20.7002,"longitude":77.0082,"temp":32.0,"humidity":18,"rain":0.0,"pressure":973.2,"uv_index":8.85,"wind_gusts":34.6,"aqi":85,"pm10":28.8,"pm2_5":16.1,"no2":7.4,"co":229.0,"o3":102.0,"so2":11.6,"mosquito_risk":0,"arthritis_risk":5,"migraine_risk":7,"frizz_risk":0,"updated_at":"2026-05-04T22:19:09.215531+05:30"},{"city":"Amravati","state":"Maharashtra","latitude":20.9374,"longitude":77.7796,"temp":32.0,"humidity":16,"rain":0.0,"pressure":965.7,"uv_index":8.9,"wind_gusts":36.4,"aqi":81,"pm10":36.6,"pm2_5":19.8,"no2":16.0,"co":281.0,"o3":82.0,"so2":9.0,"mosquito_risk":0,"arthritis_risk":5,"migraine_risk":7,"frizz_risk":0,"updated_at":"2026-05-04T22:19:09.215537+05:30"},{"city":"Latur","state":"Maharashtra","latitude":18.4088,"longitude":76.5604,"temp":30.0,"humidity":16,"rain":0.0,"pressure":938.5,"uv_index":9.1,"wind_gusts":39.2,"aqi":56,"pm10":61.0,"pm2_5":30.2,"no2":17.7,"co":202.0,"o3":74.0,"so2":5.0,"mosquito_risk":4,"arthritis_risk":5,"migraine_risk":7,"frizz_risk":0,"updated_at":"2026-05-04T22:19:09.215543+05:30"},{"city":"Nanded","state":"Maharashtra","latitude":19.1383,"longitude":77.3091,"temp":31.5,"humidity":21,"rain":0.0,"pressure":966.6,"uv_index":9.0,"wind_gusts":29.9,"aqi":64,"pm10":61.2,"pm2_5":29.6,"no2":25.8,"co":431.0,"o3":60.0,"so2":7.3,"mosquito_risk":0,"arthritis_risk":5,"migraine_risk":7,"frizz_risk":0,"updated_at":"2026-05-04T22:19:09.215549+05:30"},{"city":"Gulbarga","state":"Karnataka","latitude":17.3297,"longitude":76.8343,"temp":31.5,"humidity":17,"rain":0.0,"pressure":956.8,"uv_index":9.1,"wind_gusts":40.0,"aqi":56,"pm10":53.2,"pm2_5":26.8,"no2":32.9,"co":302.0,"o3":51.0,"so2":5.0,"mosquito_risk":0,"arthritis_risk":5,"migraine_risk":7,"frizz_risk":0,"updated_at":"2026-05-04T22:19:09.215555+05:30"},{"city":"Bidar","state":"Karnataka","latitude":17.9104,"longitude":77.5199,"temp":29.0,"humidity":21,"rain":0.0,"pressure":934.4,"uv_index":9.1,"wind_gusts":33.1,"aqi":78,"pm10":41.6,"pm2_5":22.9,"no2":18.5,"co":373.0,"o3":78.0,"so2":5.1,"mosquito_risk":4,"arthritis_risk":5,"migraine_risk":7,"frizz_risk":0,"updated_at":"2026-05-04T22:19:09.215561+05:30"},{"city":"Hospet","state":"Karnataka","latitude":15.2689,"longitude":76.3909,"temp":28.6,"humidity":52,"rain":0.0,"pressure":955.6,"uv_index":9.15,"wind_gusts":36.7,"aqi":56,"pm10":37.1,"pm2_5":22.2,"no2":23.3,"co":292.0,"o3":61.0,"so2":3.6,"mosquito_risk":4,"arthritis_risk":5,"migraine_risk":7,"frizz_risk":1,"updated_at":"2026-05-04T22:19:09.215567+05:30"},{"city":"Tirupur","state":"Tamil Nadu","latitude":11.1085,"longitude":77.3411,"temp":26.8,"humidity":78,"rain":0.0,"pressure":976.1,"uv_index":9.35,"wind_gusts":40.7,"aqi":71,"pm10":32.5,"pm2_5":19.8,"no2":12.6,"co":239.0,"o3":74.0,"so2":4.9,"mosquito_risk":7,"arthritis_risk":5,"migraine_risk":7,"frizz_risk":1,"updated_at":"2026-05-04T22:19:09.215573+05:30"},{"city":"Alappuzha","state":"Kerala","latitude":9.4981,"longitude":76.3388,"temp":25.3,"humidity":93,"rain":0.0,"pressure":1010.6,"uv_index":8.95,"wind_gusts":30.6,"aqi":85,"pm10":48.7,"pm2_5":23.2,"no2":12.1,"co":140.0,"o3":67.0,"so2":4.1,"mosquito_risk":7,"arthritis_risk":0,"migraine_risk":4,"frizz_risk":1,"updated_at":"2026-05-04T22:19:09.215579+05:30"},{"city":"Munnar","state":"Kerala","latitude":10.0889,"longitude":77.0595,"temp":17.7,"humidity":94,"rain":0.0,"pressure":857.7,"uv_index":7.7,"wind_gusts":25.2,"aqi":76,"pm10":25.3,"pm2_5":16.5,"no2":8.7,"co":325.0,"o3":68.0,"so2":1.8,"mosquito_risk":3,"arthritis_risk":10,"migraine_risk":7,"frizz_risk":1,"updated_at":"2026-05-04T22:19:09.215585+05:30"},{"city":"Silchar","state":"Assam","latitude":24.8333,"longitude":92.7789,"temp":21.9,"humidity":96,"rain":0.0,"pressure":1009.4,"uv_index":6.1,"wind_gusts":22.0,"aqi":95,"pm10":53.8,"pm2_5":46.0,"no2":23.5,"co":674.0,"o3":51.0,"so2":10.7,"mosquito_risk":3,"arthritis_risk":0,"migraine_risk":4,"frizz_risk":1,"updated_at":"2026-05-04T22:19:09.215591+05:30"},{"city":"Dibrugarh","state":"Assam","latitude":27.4728,"longitude":94.912,"temp":23.0,"humidity":90,"rain":0.0,"pressure":999.9,"uv_index":8.7,"wind_gusts":23.4,"aqi":86,"pm10":28.9,"pm2_5":27.4,"no2":20.0,"co":386.0,"o3":28.0,"so2":1.9,"mosquito_risk":3,"arthritis_risk":5,"migraine_risk":7,"frizz_risk":1,"updated_at":"2026-05-04T22:19:09.215597+05:30"}]