[{"city":"Delhi","state":"Delhi","latitude":28.6139,"longitude":77.209,"temp":40.4,"humidity":30,"rain":0.0,"pressure":978.7,"uv_index":7.75,"wind_gusts":34.2,"aqi":158,"pm10":262.6,"pm2_5":84.8,"no2":7.7,"co":271.0,"o3":189.0,"so2":21.1,"mosquito_risk":0,"arthritis_risk":5,"migraine_risk":10,"frizz_risk":1,"updated_at":"2026-06-27T12:24:20.884303+05:30"},{"city":"Mumbai","state":"Maharashtra","latitude":19.076,"longitude":72.8777,"temp":30.5,"humidity":75,"rain":0.0,"pressure":1006.8,"uv_index":7.4,"wind_gusts":35.6,"aqi":62,"pm10":26.3,"pm2_5":17.2,"no2":8.3,"co":193.0,"o3":92.0,"so2":15.0,"mosquito_risk":3,"arthritis_risk":5,"migraine_risk":4,"frizz_risk":1,"updated_at":"2026-06-27T12:24:20.884350+05:30"},{"city":"Bangalore","state":"Karnataka","latitude":12.9716,"longitude":77.5946,"temp":29.3,"humidity":50,"rain":0.1,"pressure":911.6,"uv_index":9.2,"wind_gusts":37.8,"aqi":39,"pm10":20.1,"pm2_5":9.7,"no2":2.9,"co":225.0,"o3":80.0,"so2":2.5,"mosquito_risk":7,"arthritis_risk":5,"migraine_risk":7,"frizz_risk":1,"updated_at":"2026-06-27T12:24:20.884365+05:30"},{"city":"Hyderabad","state":"Telangana","latitude":17.385,"longitude":78.4867,"temp":30.9,"humidity":58,"rain":0.0,"pressure":951.4,"uv_index":7.75,"wind_gusts":38.5,"aqi":81,"pm10":51.1,"pm2_5":25.8,"no2":2.7,"co":283.0,"o3":114.0,"so2":5.1,"mosquito_risk":0,"arthritis_risk":5,"migraine_risk":7,"frizz_risk":1,"updated_at":"2026-06-27T12:24:20.884374+05:30"},{"city":"Chennai","state":"Tamil Nadu","latitude":13.0827,"longitude":80.2707,"temp":36.2,"humidity":42,"rain":0.0,"pressure":1004.7,"uv_index":8.2,"wind_gusts":44.6,"aqi":81,"pm10":40.3,"pm2_5":28.8,"no2":9.9,"co":279.0,"o3":129.0,"so2":10.7,"mosquito_risk":0,"arthritis_risk":5,"migraine_risk":7,"frizz_risk":1,"updated_at":"2026-06-27T12:24:20.884381+05:30"},{"city":"Kolkata","state":"West Bengal","latitude":22.5726,"longitude":88.3639,"temp":32.9,"humidity":70,"rain":0.0,"pressure":1002.5,"uv_index":8.85,"wind_gusts":27.7,"aqi":81,"pm10":15.9,"pm2_5":12.5,"no2":1.9,"co":265.0,"o3":106.0,"so2":5.4,"mosquito_risk":3,"arthritis_risk":5,"migraine_risk":4,"frizz_risk":1,"updated_at":"2026-06-27T12:24:20.884389+05:30"},{"city":"Pune","state":"Maharashtra","latitude":18.5204,"longitude":73.8567,"temp":31.3,"humidity":49,"rain":0.0,"pressure":946.8,"uv_index":8.2,"wind_gusts":39.2,"aqi":49,"pm10":21.9,"pm2_5":10.9,"no2":2.2,"co":131.0,"o3":90.0,"so2":5.9,"mosquito_risk":0,"arthritis_risk":5,"migraine_risk":7,"frizz_risk":1,"updated_at":"2026-06-27T12:24:20.884396+05:30"},{"city":"Ahmedabad","state":"Gujarat","latitude":23.0225,"longitude":72.5714,"temp":37.6,"humidity":38,"rain":0.0,"pressure":999.1,"uv_index":8.05,"wind_gusts":37.8,"aqi":75,"pm10":56.0,"pm2_5":20.9,"no2":1.6,"co":131.0,"o3":87.0,"so2":3.5,"mosquito_risk":0,"arthritis_risk":5,"migraine_risk":10,"frizz_risk":1,"updated_at":"2026-06-27T12:24:20.884402+05:30"},{"city":"Jaipur","state":"Rajasthan","latitude":26.9124,"longitude":75.7873,"temp":37.5,"humidity":36,"rain":0.0,"pressure":957.2,"uv_index":8.2,"wind_gusts":33.8,"aqi":125,"pm10":132.2,"pm2_5":37.3,"no2":1.4,"co":163.0,"o3":109.0,"so2":2.8,"mosquito_risk":0,"arthritis_risk":5,"migraine_risk":10,"frizz_risk":1,"updated_at":"2026-06-27T12:24:20.884409+05:30"},{"city":"Lucknow","state":"Uttar Pradesh","latitude":26.8467,"longitude":80.9462,"temp":39.9,"humidity":37,"rain":0.0,"pressure":988.7,"uv_index":8.3,"wind_gusts":26.6,"aqi":127,"pm10":138.3,"pm2_5":51.2,"no2":2.2,"co":243.0,"o3":171.0,"so2":7.2,"mosquito_risk":0,"arthritis_risk":5,"migraine_risk":10,"frizz_risk":1,"updated_at":"2026-06-27T12:24:20.884419+05:30"},{"city":"Kanpur","state":"Uttar Pradesh","latitude":26.4499,"longitude":80.3319,"temp":41.1,"humidity":31,"rain":0.0,"pressure":986.9,"uv_index":8.3,"wind_gusts":31.3,"aqi":125,"pm10":177.9,"pm2_5":48.0,"no2":1.9,"co":201.0,"o3":151.0,"so2":5.6,"mosquito_risk":0,"arthritis_risk":5,"migraine_risk":10,"frizz_risk":1,"updated_at":"2026-06-27T12:24:20.884426+05:30"},{"city":"Chandigarh","state":"Chandigarh","latitude":30.7333,"longitude":76.7794,"temp":37.2,"humidity":37,"rain":0.0,"pressure":965.2,"uv_index":7.8,"wind_gusts":27.4,"aqi":153,"pm10":110.4,"pm2_5":49.8,"no2":2.5,"co":365.0,"o3":177.0,"so2":13.6,"mosquito_risk":0,"arthritis_risk":5,"migraine_risk":10,"frizz_risk":1,"updated_at":"2026-06-27T12:24:20.884432+05:30"},{"city":"Srinagar","state":"Jammu and Kashmir","latitude":34.0837,"longitude":74.7973,"temp":29.9,"humidity":37,"rain":0.0,"pressure":843.3,"uv_index":9.1,"wind_gusts":24.8,"aqi":75,"pm10":27.1,"pm2_5":21.5,"no2":1.6,"co":346.0,"o3":156.0,"so2":3.6,"mosquito_risk":4,"arthritis_risk":5,"migraine_risk":7,"frizz_risk":0,"updated_at":"2026-06-27T12:24:20.884438+05:30"},{"city":"Jammu","state":"Jammu and Kashmir","latitude":32.7266,"longitude":74.857,"temp":38.1,"humidity":34,"rain":0.0,"pressure":968.7,"uv_index":8.65,"wind_gusts":30.6,"aqi":138,"pm10":78.2,"pm2_5":36.0,"no2":2.0,"co":339.0,"o3":169.0,"so2":3.6,"mosquito_risk":0,"arthritis_risk":5,"migraine_risk":10,"frizz_risk":1,"updated_at":"2026-06-27T12:24:20.884444+05:30"},{"city":"Amritsar","state":"Punjab","latitude":31.634,"longitude":74.8723,"temp":35.9,"humidity":47,"rain":0.0,"pressure":976.7,"uv_index":8.45,"wind_gusts":13.3,"aqi":168,"pm10":96.4,"pm2_5":58.7,"no2":2.2,"co":359.0,"o3":196.0,"so2":8.1,"mosquito_risk":0,"arthritis_risk":5,"migraine_risk":10,"frizz_risk":1,"updated_at":"2026-06-27T12:24:20.884450+05:30"},{"city":"Ludhiana","state":"Punjab","latitude":30.901,"longitude":75.8573,"temp":38.5,"humidity":36,"rain":0.0,"pressure":974.6,"uv_index":8.05,"wind_gusts":25.2,"aqi":159,"pm10":138.8,"pm2_5":59.3,"no2":2.2,"co":359.0,"o3":169.0,"so2":8.3,"mosquito_risk":0,"arthritis_risk":5,"migraine_risk":10,"frizz_risk":1,"updated_at":"2026-06-27T12:24:20.884455+05:30"},{"city":"Jalandhar","state":"Punjab","latitude":31.326,"longitude":75.5762,"temp":38.4,"humidity":35,"rain":0.0,"pressure":975.4,"uv_index":8.25,"wind_gusts":23.4,"aqi":163,"pm10":115.3,"pm2_5":60.5,"no2":2.4,"co":346.0,"o3":184.0,"so2":8.1,"mosquito_risk":0,"arthritis_risk":5,"migraine_risk":10,"frizz_risk":1,"updated_at":"2026-06-27T12:24:20.884462+05:30"},{"city":"Dehradun","state":"Uttarakhand","latitude":30.6284,"longitude":78.0322,"temp":25.4,"humidity":57,"rain":0.0,"pressure":832.3,"uv_index":8.25,"wind_gusts":30.2,"aqi":69,"pm10":54.4,"pm2_5":21.0,"no2":0.9,"co":216.0,"o3":149.0,"so2":2.1,"mosquito_risk":4,"arthritis_risk":5,"migraine_risk":7,"frizz_risk":1,"updated_at":"2026-06-27T12:24:20.884468+05:30"},{"city":"Shimla","state":"Himachal Pradesh","latitude":31.1048,"longitude":77.1734,"temp":24.1,"humidity":48,"rain":0.0,"pressure":787.8,"uv_index":7.35,"wind_gusts":37.8,"aqi":91,"pm10":65.0,"pm2_5":28.8,"no2":1.0,"co":203.0,"o3":154.0,"so2":7.1,"mosquito_risk":0,"arthritis_risk":5,"migraine_risk":7,"frizz_risk":0,"updated_at":"2026-06-27T12:24:20.884474+05:30"},{"city":"Manali","state":"Himachal Pradesh","latitude":32.2396,"longitude":77.1887,"temp":27.0,"humidity":50,"rain":0.1,"pressure":820.9,"uv_index":8.7,"wind_gusts":34.9,"aqi":52,"pm10":6.3,"pm2_5":5.2,"no2":8.7,"co":178.0,"o3":118.0,"so2":0.6,"mosquito_risk":7,"arthritis_risk":5,"migraine_risk":7,"frizz_risk":0,"updated_at":"2026-06-27T12:24:20.884481+05:30"},{"city":"Gurgaon","state":"Haryana","latitude":28.4595,"longitude":77.0266,"temp":39.0,"humidity":32,"rain":0.0,"pressure":977.5,"uv_index":7.8,"wind_gusts":38.5,"aqi":168,"pm10":262.6,"pm2_5":79.6,"no2":7.2,"co":234.0,"o3":200.0,"so2":21.4,"mosquito_risk":0,"arthritis_risk":5,"migraine_risk":10,"frizz_risk":1,"updated_at":"2026-06-27T12:24:20.884487+05:30"},{"city":"Noida","state":"Uttar Pradesh","latitude":28.5355,"longitude":77.391,"temp":38.0,"humidity":40,"rain":0.0,"pressure":980.2,"uv_index":7.8,"wind_gusts":16.6,"aqi":168,"pm10":262.6,"pm2_5":79.6,"no2":7.2,"co":286.0,"o3":200.0,"so2":21.4,"mosquito_risk":0,"arthritis_risk":5,"migraine_risk":10,"frizz_risk":1,"updated_at":"2026-06-27T12:24:20.884493+05:30"},{"city":"Ghaziabad","state":"Uttar Pradesh","latitude":28.6692,"longitude":77.4538,"temp":37.4,"humidity":42,"rain":0.0,"pressure":978.6,"uv_index":7.75,"wind_gusts":24.5,"aqi":159,"pm10":244.0,"pm2_5":78.0,"no2":4.3,"co":338.0,"o3":203.0,"so2":24.2,"mosquito_risk":0,"arthritis_risk":5,"migraine_risk":10,"frizz_risk":1,"updated_at":"2026-06-27T12:24:20.884499+05:30"},{"city":"Faridabad","state":"Haryana","latitude":28.4089,"longitude":77.3178,"temp":39.3,"humidity":33,"rain":0.0,"pressure":979.5,"uv_index":7.8,"wind_gusts":31.3,"aqi":168,"pm10":262.6,"pm2_5":79.6,"no2":7.2,"co":236.0,"o3":200.0,"so2":21.4,"mosquito_risk":0,"arthritis_risk":5,"migraine_risk":10,"frizz_risk":1,"updated_at":"2026-06-27T12:24:20.884505+05:30"},{"city":"Meerut","state":"Uttar Pradesh","latitude":28.9845,"longitude":77.7064,"temp":38.4,"humidity":37,"rain":0.0,"pressure":977.4,"uv_index":7.7,"wind_gusts":29.2,"aqi":159,"pm10":244.0,"pm2_5":78.0,"no2":4.3,"co":287.0,"o3":203.0,"so2":24.2,"mosquito_risk":0,"arthritis_risk":5,"migraine_risk":10,"frizz_risk":1,"updated_at":"2026-06-27T12:24:20.884511+05:30"},{"city":"Agra","state":"Uttar Pradesh","latitude":27.1767,"longitude":78.0081,"temp":39.5,"humidity":33,"rain":0.0,"pressure":983.5,"uv_index":8.1,"wind_gusts":29.5,"aqi":133,"pm10":146.7,"pm2_5":48.0,"no2":2.8,"co":198.0,"o3":174.0,"so2":8.4,"mosquito_risk":0,"arthritis_risk":5,"migraine_risk":10,"frizz_risk":1,"updated_at":"2026-06-27T12:24:20.884518+05:30"},{"city":"Varanasi","state":"Uttar Pradesh","latitude":25.3176,"longitude":82.9739,"temp":38.9,"humidity":41,"rain":0.0,"pressure":993.3,"uv_index":8.8,"wind_gusts":23.4,"aqi":99,"pm10":42.1,"pm2_5":36.8,"no2":2.3,"co":241.0,"o3":176.0,"so2":10.9,"mosquito_risk":0,"arthritis_risk":5,"migraine_risk":10,"frizz_risk":1,"updated_at":"2026-06-27T12:24:20.884525+05:30"},{"city":"Prayagraj","state":"Uttar Pradesh","latitude":25.4358,"longitude":81.8463,"temp":39.2,"humidity":38,"rain":0.0,"pressure":991.6,"uv_index":8.7,"wind_gusts":51.1,"aqi":103,"pm10":51.3,"pm2_5":31.8,"no2":2.2,"co":186.0,"o3":167.0,"so2":7.7,"mosquito_risk":0,"arthritis_risk":5,"migraine_risk":10,"frizz_risk":1,"updated_at":"2026-06-27T12:24:20.884531+05:30"},{"city":"Gorakhpur","state":"Uttar Pradesh","latitude":26.7606,"longitude":83.3732,"temp":36.5,"humidity":48,"rain":0.0,"pressure":993.0,"uv_index":8.65,"wind_gusts":30.2,"aqi":159,"pm10":60.5,"pm2_5":46.7,"no2":2.4,"co":348.0,"o3":195.0,"so2":9.1,"mosquito_risk":0,"arthritis_risk":5,"migraine_risk":10,"frizz_risk":1,"updated_at":"2026-06-27T12:24:20.884537+05:30"},{"city":"Bareilly","state":"Uttar Pradesh","latitude":28.367,"longitude":79.4304,"temp":39.2,"humidity":32,"rain":0.0,"pressure":982.2,"uv_index":8.1,"wind_gusts":25.9,"aqi":161,"pm10":149.0,"pm2_5":66.8,"no2":3.0,"co":289.0,"o3":221.0,"so2":15.4,"mosquito_risk":0,"arthritis_risk":5,"migraine_risk":10,"frizz_risk":1,"updated_at":"2026-06-27T12:24:20.884544+05:30"},{"city":"Aligarh","state":"Uttar Pradesh","latitude":27.8974,"longitude":78.088,"temp":38.4,"humidity":37,"rain":0.0,"pressure":981.5,"uv_index":7.95,"wind_gusts":23.8,"aqi":160,"pm10":219.3,"pm2_5":77.8,"no2":4.3,"co":214.0,"o3":234.0,"so2":28.7,"mosquito_risk":0,"arthritis_risk":5,"migraine_risk":10,"frizz_risk":1,"updated_at":"2026-06-27T12:24:20.884550+05:30"},{"city":"Moradabad","state":"Uttar Pradesh","latitude":28.8386,"longitude":78.7733,"temp":39.3,"humidity":32,"rain":0.0,"pressure":979.3,"uv_index":7.95,"wind_gusts":31.3,"aqi":165,"pm10":147.1,"pm2_5":59.6,"no2":3.7,"co":346.0,"o3":227.0,"so2":20.9,"mosquito_risk":0,"arthritis_risk":5,"migraine_risk":10,"frizz_risk":1,"updated_at":"2026-06-27T12:24:20.884556+05:30"},{"city":"Saharanpur","state":"Uttar Pradesh","latitude":29.9637,"longitude":77.546,"temp":37.0,"humidity":38,"rain":0.0,"pressure":972.0,"uv_index":7.45,"wind_gusts":23.8,"aqi":167,"pm10":145.8,"pm2_5":53.8,"no2":2.5,"co":278.0,"o3":180.0,"so2":12.6,"mosquito_risk":0,"arthritis_risk":5,"migraine_risk":10,"frizz_risk":1,"updated_at":"2026-06-27T12:24:20.884561+05:30"},{"city":"Jhansi","state":"Uttar Pradesh","latitude":25.4484,"longitude":78.5685,"temp":38.8,"humidity":36,"rain":0.0,"pressure":974.2,"uv_index":8.35,"wind_gusts":29.2,"aqi":88,"pm10":75.2,"pm2_5":35.3,"no2":1.6,"co":159.0,"o3":123.0,"so2":11.3,"mosquito_risk":0,"arthritis_risk":5,"migraine_risk":10,"frizz_risk":1,"updated_at":"2026-06-27T12:24:24.338877+05:30"},{"city":"Surat","state":"Gujarat","latitude":21.1702,"longitude":72.8311,"temp":34.8,"humidity":48,"rain":0.0,"pressure":1004.4,"uv_index":7.6,"wind_gusts":41.0,"aqi":87,"pm10":68.2,"pm2_5":32.0,"no2":15.3,"co":439.0,"o3":60.0,"so2":52.4,"mosquito_risk":0,"arthritis_risk":5,"migraine_risk":4,"frizz_risk":1,"updated_at":"2026-06-27T12:24:24.338911+05:30"},{"city":"Vadodara","state":"Gujarat","latitude":22.3072,"longitude":73.1812,"temp":37.9,"humidity":40,"rain":0.0,"pressure":1001.3,"uv_index":8.0,"wind_gusts":40.0,"aqi":79,"pm10":57.5,"pm2_5":27.1,"no2":2.8,"co":151.0,"o3":99.0,"so2":8.3,"mosquito_risk":0,"arthritis_risk":5,"migraine_risk":7,"frizz_risk":1,"updated_at":"2026-06-27T12:24:24.338923+05:30"},{"city":"Rajkot","state":"Gujarat","latitude":22.3039,"longitude":70.8022,"temp":36.1,"humidity":41,"rain":0.0,"pressure":991.7,"uv_index":7.55,"wind_gusts":49.7,"aqi":64,"pm10":61.2,"pm2_5":21.2,"no2":1.3,"co":103.0,"o3":86.0,"so2":4.5,"mosquito_risk":0,"arthritis_risk":5,"migraine_risk":10,"frizz_risk":1,"updated_at":"2026-06-27T12:24:24.338933+05:30"},{"city":"Thane","state":"Maharashtra","latitude":19.2183,"longitude":72.9781,"temp":31.9,"humidity":69,"rain":0.0,"pressure":1006.0,"uv_index":6.5,"wind_gusts":33.1,"aqi":62,"pm10":26.3,"pm2_5":17.2,"no2":8.3,"co":207.0,"o3":92.0,"so2":15.0,"mosquito_risk":3,"arthritis_risk":5,"migraine_risk":4,"frizz_risk":1,"updated_at":"2026-06-27T12:24:24.338943+05:30"},{"city":"Nagpur","state":"Maharashtra","latitude":21.1458,"longitude":79.0882,"temp":33.1,"humidity":60,"rain":0.0,"pressure":969.9,"uv_index":8.85,"wind_gusts":43.2,"aqi":93,"pm10":31.0,"pm2_5":27.5,"no2":10.7,"co":274.0,"o3":138.0,"so2":38.6,"mosquito_risk":0,"arthritis_risk":5,"migraine_risk":7,"frizz_risk":1,"updated_at":"2026-06-27T12:24:24.338952+05:30"},{"city":"Nashik","state":"Maharashtra","latitude":19.9975,"longitude":73.7898,"temp":31.1,"humidity":52,"rain":0.0,"pressure":944.3,"uv_index":7.6,"wind_gusts":38.5,"aqi":59,"pm10":36.7,"pm2_5":16.4,"no2":1.6,"co":118.0,"o3":90.0,"so2":4.4,"mosquito_risk":0,"arthritis_risk":5,"migraine_risk":7,"frizz_risk":1,"updated_at":"2026-06-27T12:24:24.338961+05:30"},{"city":"Aurangabad","state":"Maharashtra","latitude":19.8762,"longitude":75.3433,"temp":31.3,"humidity":49,"rain":0.0,"pressure":942.9,"uv_index":7.85,"wind_gusts":29.9,"aqi":67,"pm10":66.6,"pm2_5":25.4,"no2":1.3,"co":121.0,"o3":95.0,"so2":3.6,"mosquito_risk":0,"arthritis_risk":5,"migraine_risk":7,"frizz_risk":1,"updated_at":"2026-06-27T12:24:24.338970+05:30"},{"city":"Solapur","state":"Maharashtra","latitude":17.6599,"longitude":75.9064,"temp":32.7,"humidity":48,"rain":0.0,"pressure":956.2,"uv_index":2.95,"wind_gusts":31.7,"aqi":54,"pm10":34.9,"pm2_5":16.7,"no2":1.5,"co":119.0,"o3":109.0,"so2":4.6,"mosquito_risk":0,"arthritis_risk":5,"migraine_risk":3,"frizz_risk":1,"updated_at":"2026-06-27T12:24:24.338980+05:30"},{"city":"Kolhapur","state":"Maharashtra","latitude":16.705,"longitude":74.2433,"temp":28.4,"humidity":62,"rain":0.1,"pressure":946.9,"uv_index":7.4,"wind_gusts":39.6,"aqi":33,"pm10":10.3,"pm2_5":6.2,"no2":1.8,"co":119.0,"o3":70.0,"so2":1.7,"mosquito_risk":10,"arthritis_risk":5,"migraine_risk":7,"frizz_risk":1,"updated_at":"2026-06-27T12:24:24.338990+05:30"},{"city":"Goa","state":"Goa","latitude":15.2993,"longitude":74.124,"temp":30.5,"humidity":70,"rain":0.1,"pressure":997.3,"uv_index":5.4,"wind_gusts":28.4,"aqi":51,"pm10":10.1,"pm2_5":5.3,"no2":0.8,"co":151.0,"o3":61.0,"so2":0.7,"mosquito_risk":6,"arthritis_risk":5,"migraine_risk":3,"frizz_risk":1,"updated_at":"2026-06-27T12:24:24.339016+05:30"},{"city":"Jodhpur","state":"Rajasthan","latitude":26.2389,"longitude":73.0243,"temp":36.6,"humidity":44,"rain":0.0,"pressure":980.1,"uv_index":8.45,"wind_gusts":26.3,"aqi":95,"pm10":163.9,"pm2_5":40.9,"no2":0.8,"co":112.0,"o3":89.0,"so2":4.3,"mosquito_risk":0,"arthritis_risk":5,"migraine_risk":10,"frizz_risk":1,"updated_at":"2026-06-27T12:24:24.339025+05:30"},{"city":"Udaipur","state":"Rajasthan","latitude":24.5854,"longitude":73.7125,"temp":34.4,"humidity":46,"rain":0.0,"pressure":944.9,"uv_index":8.2,"wind_gusts":44.3,"aqi":67,"pm10":53.7,"pm2_5":21.9,"no2":0.8,"co":118.0,"o3":93.0,"so2":3.1,"mosquito_risk":0,"arthritis_risk":5,"migraine_risk":7,"frizz_risk":1,"updated_at":"2026-06-27T12:24:24.339035+05:30"},{"city":"Kota","state":"Rajasthan","latitude":25.2138,"longitude":75.8648,"temp":37.5,"humidity":39,"rain":0.0,"pressure":975.6,"uv_index":8.35,"wind_gusts":42.5,"aqi":88,"pm10":71.0,"pm2_5":27.0,"no2":1.1,"co":145.0,"o3":105.0,"so2":3.4,"mosquito_risk":0,"arthritis_risk":5,"migraine_risk":10,"frizz_risk":1,"updated_at":"2026-06-27T12:24:24.339044+05:30"},{"city":"Bikaner","state":"Rajasthan","latitude":28.0229,"longitude":73.3119,"temp":40.4,"humidity":28,"rain":0.0,"pressure":978.3,"uv_index":8.45,"wind_gusts":32.0,"aqi":105,"pm10":100.4,"pm2_5":28.2,"no2":0.4,"co":116.0,"o3":83.0,"so2":2.3,"mosquito_risk":0,"arthritis_risk":5,"migraine_risk":10,"frizz_risk":1,"updated_at":"2026-06-27T12:24:24.339052+05:30"},{"city":"Ajmer","state":"Rajasthan","latitude":26.4499,"longitude":74.6399,"temp":35.4,"humidity":42,"rain":0.0,"pressure":952.5,"uv_index":8.35,"wind_gusts":33.8,"aqi":83,"pm10":80.8,"pm2_5":27.8,"no2":1.0,"co":132.0,"o3":98.0,"so2":2.7,"mosquito_risk":0,"arthritis_risk":5,"migraine_risk":10,"frizz_risk":1,"updated_at":"2026-06-27T12:24:24.339061+05:30"},{"city":"Gwalior","state":"Madhya Pradesh","latitude":26.2183,"longitude":78.1828,"temp":39.5,"humidity":33,"rain":0.0,"pressure":979.1,"uv_index":8.25,"wind_gusts":32.0,"aqi":82,"pm10":79.9,"pm2_5":34.6,"no2":1.1,"co":143.0,"o3":122.0,"so2":3.6,"mosquito_risk":0,"arthritis_risk":5,"migraine_risk":10,"frizz_risk":1,"updated_at":"2026-06-27T12:24:24.339070+05:30"},{"city":"Indore","state":"Madhya Pradesh","latitude":22.7196,"longitude":75.8577,"temp":32.5,"humidity":54,"rain":0.0,"pressure":946.4,"uv_index":8.5,"wind_gusts":40.7,"aqi":88,"pm10":61.5,"pm2_5":32.9,"no2":2.2,"co":204.0,"o3":111.0,"so2":9.5,"mosquito_risk":0,"arthritis_risk":5,"migraine_risk":7,"frizz_risk":1,"updated_at":"2026-06-27T12:24:24.339079+05:30"},{"city":"Bhopal","state":"Madhya Pradesh","latitude":23.2599,"longitude":77.4126,"temp":34.1,"humidity":51,"rain":0.0,"pressure":951.4,"uv_index":8.65,"wind_gusts":25.9,"aqi":82,"pm10":36.7,"pm2_5":21.3,"no2":1.2,"co":213.0,"o3":116.0,"so2":2.5,"mosquito_risk":0,"arthritis_risk":5,"migraine_risk":7,"frizz_risk":1,"updated_at":"2026-06-27T12:24:24.339088+05:30"},{"city":"Jabalpur","state":"Madhya Pradesh","latitude":23.1815,"longitude":79.9864,"temp":35.6,"humidity":46,"rain":0.0,"pressure":958.8,"uv_index":8.85,"wind_gusts":31.3,"aqi":69,"pm10":24.2,"pm2_5":16.8,"no2":1.3,"co":192.0,"o3":127.0,"so2":2.4,"mosquito_risk":0,"arthritis_risk":5,"migraine_risk":10,"frizz_risk":1,"updated_at":"2026-06-27T12:24:24.339097+05:30"},{"city":"Ujjain","state":"Madhya Pradesh","latitude":23.1765,"longitude":75.7885,"temp":33.3,"humidity":53,"rain":0.0,"pressure":952.0,"uv_index":8.5,"wind_gusts":31.3,"aqi":85,"pm10":59.4,"pm2_5":31.9,"no2":1.8,"co":178.0,"o3":110.0,"so2":9.2,"mosquito_risk":0,"arthritis_risk":5,"migraine_risk":7,"frizz_risk":1,"updated_at":"2026-06-27T12:24:24.339106+05:30"},{"city":"Visakhapatnam","state":"Andhra Pradesh","latitude":17.6868,"longitude":83.2185,"temp":31.8,"humidity":67,"rain":0.1,"pressure":1000.2,"uv_index":8.3,"wind_gusts":31.0,"aqi":95,"pm10":33.2,"pm2_5":28.2,"no2":13.1,"co":363.0,"o3":136.0,"so2":39.8,"mosquito_risk":6,"arthritis_risk":5,"migraine_risk":4,"frizz_risk":1,"updated_at":"2026-06-27T12:24:24.339115+05:30"},{"city":"Vijayawada","state":"Andhra Pradesh","latitude":16.5062,"longitude":80.648,"temp":34.3,"humidity":52,"rain":0.0,"pressure":999.4,"uv_index":8.45,"wind_gusts":29.9,"aqi":70,"pm10":44.0,"pm2_5":25.6,"no2":1.7,"co":171.0,"o3":118.0,"so2":6.1,"mosquito_risk":0,"arthritis_risk":5,"migraine_risk":7,"frizz_risk":1,"updated_at":"2026-06-27T12:24:24.339123+05:30"},{"city":"Guntur","state":"Andhra Pradesh","latitude":16.3067,"longitude":80.4365,"temp":34.6,"humidity":51,"rain":0.0,"pressure":1000.8,"uv_index":7.7,"wind_gusts":33.5,"aqi":70,"pm10":45.1,"pm2_5":25.6,"no2":1.7,"co":156.0,"o3":115.0,"so2":5.3,"mosquito_risk":0,"arthritis_risk":5,"migraine_risk":4,"frizz_risk":1,"updated_at":"2026-06-27T12:24:24.339133+05:30"},{"city":"Nellore","state":"Andhra Pradesh","latitude":14.4426,"longitude":79.9865,"temp":35.3,"humidity":43,"rain":0.0,"pressure":1003.4,"uv_index":8.7,"wind_gusts":35.3,"aqi":62,"pm10":25.1,"pm2_5":14.7,"no2":2.4,"co":135.0,"o3":97.0,"so2":6.1,"mosquito_risk":0,"arthritis_risk":5,"migraine_risk":7,"frizz_risk":1,"updated_at":"2026-06-27T12:24:24.339142+05:30"},{"city":"Kurnool","state":"Andhra Pradesh","latitude":15.8281,"longitude":78.0373,"temp":34.1,"humidity":47,"rain":0.0,"pressure":975.2,"uv_index":6.55,"wind_gusts":35.3,"aqi":55,"pm10":39.9,"pm2_5":19.5,"no2":2.1,"co":139.0,"o3":97.0,"so2":7.4,"mosquito_risk":0,"arthritis_risk":5,"migraine_risk":7,"frizz_risk":1,"updated_at":"2026-06-27T12:24:24.339152+05:30"},{"city":"Kakinada","state":"Andhra Pradesh","latitude":16.9891,"longitude":82.2475,"temp":32.4,"humidity":67,"rain":0.0,"pressure":1004.1,"uv_index":6.6,"wind_gusts":32.4,"aqi":72,"pm10":36.7,"pm2_5":22.5,"no2":1.7,"co":235.0,"o3":132.0,"so2":5.4,"mosquito_risk":3,"arthritis_risk":5,"migraine_risk":4,"frizz_risk":1,"updated_at":"2026-06-27T12:24:24.339161+05:30"},{"city":"Tirupati","state":"Andhra Pradesh","latitude":13.6288,"longitude":79.4192,"temp":36.3,"humidity":38,"rain":0.0,"pressure":988.7,"uv_index":8.7,"wind_gusts":36.4,"aqi":56,"pm10":27.0,"pm2_5":12.0,"no2":1.3,"co":117.0,"o3":78.0,"so2":1.4,"mosquito_risk":0,"arthritis_risk":5,"migraine_risk":10,"frizz_risk":1,"updated_at":"2026-06-27T12:24:24.339169+05:30"},{"city":"Warangal","state":"Telangana","latitude":17.9689,"longitude":79.5941,"temp":31.4,"humidity":62,"rain":0.0,"pressure":975.9,"uv_index":8.8,"wind_gusts":33.5,"aqi":83,"pm10":41.2,"pm2_5":22.9,"no2":1.6,"co":180.0,"o3":111.0,"so2":4.1,"mosquito_risk":3,"arthritis_risk":5,"migraine_risk":7,"frizz_risk":1,"updated_at":"2026-06-27T12:24:24.339177+05:30"},{"city":"Nizamabad","state":"Telangana","latitude":18.6725,"longitude":78.0941,"temp":29.9,"humidity":68,"rain":0.0,"pressure":962.8,"uv_index":8.15,"wind_gusts":35.6,"aqi":89,"pm10":53.4,"pm2_5":26.8,"no2":1.5,"co":160.0,"o3":110.0,"so2":4.9,"mosquito_risk":7,"arthritis_risk":5,"migraine_risk":7,"frizz_risk":1,"updated_at":"2026-06-27T12:24:24.339186+05:30"},{"city":"Mysore","state":"Karnataka","latitude":12.2958,"longitude":76.6396,"temp":30.4,"humidity":51,"rain":0.0,"pressure":928.3,"uv_index":8.4,"wind_gusts":38.9,"aqi":31,"pm10":11.1,"pm2_5":5.9,"no2":1.6,"co":119.0,"o3":75.0,"so2":1.4,"mosquito_risk":0,"arthritis_risk":5,"migraine_risk":7,"frizz_risk":1,"updated_at":"2026-06-27T12:24:24.339195+05:30"},{"city":"Mangalore","state":"Karnataka","latitude":12.9141,"longitude":74.856,"temp":29.1,"humidity":76,"rain":0.0,"pressure":1006.9,"uv_index":8.7,"wind_gusts":36.4,"aqi":44,"pm10":11.1,"pm2_5":5.9,"no2":1.2,"co":113.0,"o3":67.0,"so2":1.7,"mosquito_risk":7,"arthritis_risk":5,"migraine_risk":4,"frizz_risk":1,"updated_at":"2026-06-27T12:24:24.339203+05:30"},{"city":"Hubli-Dharwad","state":"Karnataka","latitude":15.3647,"longitude":75.124,"temp":29.6,"humidity":63,"rain":0.0,"pressure":940.4,"uv_index":7.1,"wind_gusts":41.8,"aqi":22,"pm10":6.1,"pm2_5":3.3,"no2":1.3,"co":113.0,"o3":63.0,"so2":0.9,"mosquito_risk":7,"arthritis_risk":5,"migraine_risk":7,"frizz_risk":1,"updated_at":"2026-06-27T12:24:24.339212+05:30"},{"city":"Belgaum","state":"Karnataka","latitude":15.8497,"longitude":74.4977,"temp":27.8,"humidity":68,"rain":0.1,"pressure":925.4,"uv_index":8.45,"wind_gusts":38.9,"aqi":25,"pm10":6.0,"pm2_5":3.5,"no2":1.8,"co":102.0,"o3":59.0,"so2":1.7,"mosquito_risk":10,"arthritis_risk":5,"migraine_risk":7,"frizz_risk":1,"updated_at":"2026-06-27T12:24:27.650719+05:30"},{"city":"Coimbatore","state":"Tamil Nadu","latitude":11.0168,"longitude":76.9558,"temp":31.3,"humidity":51,"rain":0.0,"pressure":961.0,"uv_index":8.8,"wind_gusts":45.0,"aqi":33,"pm10":13.8,"pm2_5":7.4,"no2":1.3,"co":138.0,"o3":75.0,"so2":1.9,"mosquito_risk":0,"arthritis_risk":5,"migraine_risk":7,"frizz_risk":1,"updated_at":"2026-06-27T12:24:27.650754+05:30"},{"city":"Madurai","state":"Tamil Nadu","latitude":9.9252,"longitude":78.1198,"temp":37.2,"humidity":33,"rain":0.0,"pressure":991.6,"uv_index":8.7,"wind_gusts":36.0,"aqi":66,"pm10":23.3,"pm2_5":11.8,"no2":1.9,"co":141.0,"o3":97.0,"so2":2.3,"mosquito_risk":0,"arthritis_risk":5,"migraine_risk":10,"frizz_risk":1,"updated_at":"2026-06-27T12:24:27.650766+05:30"},{"city":"Trichy","state":"Tamil Nadu","latitude":10.7905,"longitude":78.7047,"temp":35.6,"humidity":41,"rain":0.0,"pressure":998.1,"uv_index":7.8,"wind_gusts":36.0,"aqi":47,"pm10":23.6,"pm2_5":11.2,"no2":1.4,"co":115.0,"o3":78.0,"so2":2.0,"mosquito_risk":0,"arthritis_risk":5,"migraine_risk":10,"frizz_risk":1,"updated_at":"2026-06-27T12:24:27.650776+05:30"},{"city":"Salem","state":"Tamil Nadu","latitude":11.6643,"longitude":78.146,"temp":33.4,"humidity":48,"rain":0.0,"pressure":976.5,"uv_index":8.25,"wind_gusts":45.0,"aqi":56,"pm10":30.6,"pm2_5":18.2,"no2":3.1,"co":190.0,"o3":119.0,"so2":9.4,"mosquito_risk":0,"arthritis_risk":5,"migraine_risk":7,"frizz_risk":1,"updated_at":"2026-06-27T12:24:27.650786+05:30"},{"city":"Tirunelveli","state":"Tamil Nadu","latitude":8.7139,"longitude":77.7567,"temp":37.3,"humidity":36,"rain":0.1,"pressure":1001.7,"uv_index":8.65,"wind_gusts":39.6,"aqi":35,"pm10":8.7,"pm2_5":5.8,"no2":1.2,"co":119.0,"o3":76.0,"so2":1.4,"mosquito_risk":3,"arthritis_risk":5,"migraine_risk":7,"frizz_risk":1,"updated_at":"2026-06-27T12:24:27.650795+05:30"},{"city":"Vellore","state":"Tamil Nadu","latitude":12.9165,"longitude":79.1325,"temp":35.2,"humidity":41,"rain":0.0,"pressure":982.4,"uv_index":8.95,"wind_gusts":43.6,"aqi":60,"pm10":33.5,"pm2_5":15.1,"no2":1.7,"co":122.0,"o3":92.0,"so2":2.3,"mosquito_risk":0,"arthritis_risk":5,"migraine_risk":10,"frizz_risk":1,"updated_at":"2026-06-27T12:24:27.650803+05:30"},{"city":"Erode","state":"Tamil Nadu","latitude":11.341,"longitude":77.7172,"temp":36.0,"humidity":37,"rain":0.0,"pressure":987.7,"uv_index":8.4,"wind_gusts":44.6,"aqi":51,"pm10":22.8,"pm2_5":12.9,"no2":2.0,"co":167.0,"o3":98.0,"so2":2.4,"mosquito_risk":0,"arthritis_risk":5,"migraine_risk":10,"frizz_risk":1,"updated_at":"2026-06-27T12:24:27.650810+05:30"},{"city":"Kochi","state":"Kerala","latitude":9.9312,"longitude":76.2673,"temp":28.7,"humidity":75,"rain":0.0,"pressure":1009.4,"uv_index":8.55,"wind_gusts":36.0,"aqi":56,"pm10":12.9,"pm2_5":7.7,"no2":2.3,"co":116.0,"o3":71.0,"so2":2.7,"mosquito_risk":7,"arthritis_risk":0,"migraine_risk":4,"frizz_risk":1,"updated_at":"2026-06-27T12:24:27.650818+05:30"},{"city":"Thiruvananthapuram","state":"Kerala","latitude":8.5241,"longitude":76.9366,"temp":28.5,"humidity":77,"rain":0.1,"pressure":1008.8,"uv_index":8.3,"wind_gusts":40.0,"aqi":42,"pm10":13.0,"pm2_5":8.0,"no2":1.5,"co":103.0,"o3":75.0,"so2":1.6,"mosquito_risk":10,"arthritis_risk":0,"migraine_risk":4,"frizz_risk":1,"updated_at":"2026-06-27T12:24:27.650825+05:30"},{"city":"Kozhikode","state":"Kerala","latitude":11.2588,"longitude":75.7804,"temp":30.0,"humidity":70,"rain":0.1,"pressure":1007.9,"uv_index":8.6,"wind_gusts":37.1,"aqi":30,"pm10":11.8,"pm2_5":5.5,"no2":0.6,"co":114.0,"o3":61.0,"so2":0.8,"mosquito_risk":10,"arthritis_risk":5,"migraine_risk":4,"frizz_risk":1,"updated_at":"2026-06-27T12:24:27.650832+05:30"},{"city":"Thrissur","state":"Kerala","latitude":10.5276,"longitude":76.2144,"temp":29.9,"humidity":73,"rain":0.0,"pressure":1007.2,"uv_index":8.55,"wind_gusts":34.6,"aqi":56,"pm10":10.7,"pm2_5":6.3,"no2":1.5,"co":107.0,"o3":64.0,"so2":1.6,"mosquito_risk":7,"arthritis_risk":5,"migraine_risk":4,"frizz_risk":1,"updated_at":"2026-06-27T12:24:27.650840+05:30"},{"city":"Kannur","state":"Kerala","latitude":11.8745,"longitude":75.3704,"temp":30.0,"humidity":74,"rain":0.0,"pressure":1007.5,"uv_index":8.5,"wind_gusts":37.8,"aqi":43,"pm10":10.4,"pm2_5":5.2,"no2":1.1,"co":121.0,"o3":61.0,"so2":1.1,"mosquito_risk":7,"arthritis_risk":5,"migraine_risk":4,"frizz_risk":1,"updated_at":"2026-06-27T12:24:27.650847+05:30"},{"city":"Patna","state":"Bihar","latitude":25.5941,"longitude":85.1376,"temp":37.0,"humidity":49,"rain":0.0,"pressure":996.3,"uv_index":8.6,"wind_gusts":23.4,"aqi":151,"pm10":65.4,"pm2_5":56.2,"no2":3.1,"co":280.0,"o3":215.0,"so2":13.5,"mosquito_risk":0,"arthritis_risk":5,"migraine_risk":10,"frizz_risk":1,"updated_at":"2026-06-27T12:24:27.650854+05:30"},{"city":"Gaya","state":"Bihar","latitude":24.7914,"longitude":85.0002,"temp":37.0,"humidity":49,"rain":0.0,"pressure":990.0,"uv_index":8.9,"wind_gusts":21.2,"aqi":98,"pm10":39.3,"pm2_5":37.6,"no2":2.5,"co":220.0,"o3":168.0,"so2":12.7,"mosquito_risk":0,"arthritis_risk":5,"migraine_risk":10,"frizz_risk":1,"updated_at":"2026-06-27T12:24:27.650861+05:30"},{"city":"Muzaffarpur","state":"Bihar","latitude":26.1209,"longitude":85.3647,"temp":34.4,"humidity":65,"rain":0.1,"pressure":996.3,"uv_index":8.6,"wind_gusts":22.7,"aqi":154,"pm10":65.7,"pm2_5":57.5,"no2":3.4,"co":479.0,"o3":211.0,"so2":17.3,"mosquito_risk":6,"arthritis_risk":5,"migraine_risk":7,"frizz_risk":1,"updated_at":"2026-06-27T12:24:27.650868+05:30"},{"city":"Bhagalpur","state":"Bihar","latitude":25.2425,"longitude":87.0117,"temp":37.0,"humidity":50,"rain":0.0,"pressure":996.7,"uv_index":7.7,"wind_gusts":25.9,"aqi":109,"pm10":46.9,"pm2_5":42.7,"no2":3.8,"co":293.0,"o3":197.0,"so2":26.6,"mosquito_risk":0,"arthritis_risk":5,"migraine_risk":10,"frizz_risk":1,"updated_at":"2026-06-27T12:24:27.650875+05:30"},{"city":"Ranchi","state":"Jharkhand","latitude":23.3441,"longitude":85.3096,"temp":31.9,"humidity":57,"rain":0.0,"pressure":935.9,"uv_index":9.0,"wind_gusts":22.7,"aqi":103,"pm10":39.1,"pm2_5":35.0,"no2":1.9,"co":235.0,"o3":165.0,"so2":12.9,"mosquito_risk":0,"arthritis_risk":5,"migraine_risk":7,"frizz_risk":1,"updated_at":"2026-06-27T12:24:27.650882+05:30"},{"city":"Jamshedpur","state":"Jharkhand","latitude":22.8046,"longitude":86.2029,"temp":34.2,"humidity":57,"rain":0.0,"pressure":987.5,"uv_index":9.1,"wind_gusts":27.0,"aqi":110,"pm10":43.1,"pm2_5":38.5,"no2":3.0,"co":278.0,"o3":187.0,"so2":22.4,"mosquito_risk":0,"arthritis_risk":5,"migraine_risk":7,"frizz_risk":1,"updated_at":"2026-06-27T12:24:27.650889+05:30"},{"city":"Dhanbad","state":"Jharkhand","latitude":23.7957,"longitude":86.4304,"temp":36.5,"humidity":45,"rain":0.0,"pressure":976.8,"uv_index":8.85,"wind_gusts":27.4,"aqi":153,"pm10":61.9,"pm2_5":58.2,"no2":15.9,"co":296.0,"o3":193.0,"so2":68.1,"mosquito_risk":0,"arthritis_risk":5,"migraine_risk":10,"frizz_risk":1,"updated_at":"2026-06-27T12:24:27.650896+05:30"},{"city":"Bokaro","state":"Jharkhand","latitude":23.6693,"longitude":86.1511,"temp":36.5,"humidity":46,"rain":0.0,"pressure":980.5,"uv_index":9.1,"wind_gusts":31.0,"aqi":154,"pm10":59.8,"pm2_5":56.2,"no2":12.7,"co":249.0,"o3":204.0,"so2":60.5,"mosquito_risk":0,"arthritis_risk":5,"migraine_risk":10,"frizz_risk":1,"updated_at":"2026-06-27T12:24:27.650903+05:30"},{"city":"Bhubaneswar","state":"Odisha","latitude":20.2961,"longitude":85.8245,"temp":27.9,"humidity":91,"rain":0.1,"pressure":1000.0,"uv_index":9.0,"wind_gusts":39.6,"aqi":76,"pm10":20.4,"pm2_5":16.8,"no2":1.9,"co":233.0,"o3":125.0,"so2":6.5,"mosquito_risk":10,"arthritis_risk":5,"migraine_risk":4,"frizz_risk":1,"updated_at":"2026-06-27T12:24:27.650910+05:30"},{"city":"Cuttack","state":"Odisha","latitude":20.4625,"longitude":85.8828,"temp":33.2,"humidity":69,"rain":0.0,"pressure":1001.0,"uv_index":8.9,"wind_gusts":41.0,"aqi":76,"pm10":20.4,"pm2_5":16.8,"no2":1.9,"co":222.0,"o3":125.0,"so2":6.5,"mosquito_risk":3,"arthritis_risk":5,"migraine_risk":4,"frizz_risk":1,"updated_at":"2026-06-27T12:24:27.650917+05:30"},{"city":"Rourkela","state":"Odisha","latitude":22.2604,"longitude":84.8536,"temp":36.6,"humidity":48,"rain":0.0,"pressure":981.6,"uv_index":8.95,"wind_gusts":46.4,"aqi":94,"pm10":32.8,"pm2_5":29.2,"no2":2.1,"co":239.0,"o3":175.0,"so2":17.2,"mosquito_risk":0,"arthritis_risk":5,"migraine_risk":10,"frizz_risk":1,"updated_at":"2026-06-27T12:24:27.650924+05:30"},{"city":"Raipur","state":"Chhattisgarh","latitude":21.2514,"longitude":81.6296,"temp":37.1,"humidity":41,"rain":0.0,"pressure":971.3,"uv_index":8.9,"wind_gusts":36.0,"aqi":106,"pm10":34.5,"pm2_5":33.2,"no2":9.2,"co":343.0,"o3":148.0,"so2":35.8,"mosquito_risk":0,"arthritis_risk":5,"migraine_risk":10,"frizz_risk":1,"updated_at":"2026-06-27T12:24:27.650931+05:30"},{"city":"Bhilai","state":"Chhattisgarh","latitude":21.1938,"longitude":81.3509,"temp":36.8,"humidity":40,"rain":0.0,"pressure":971.8,"uv_index":8.95,"wind_gusts":36.0,"aqi":113,"pm10":31.9,"pm2_5":30.7,"no2":9.7,"co":339.0,"o3":133.0,"so2":34.4,"mosquito_risk":0,"arthritis_risk":5,"migraine_risk":10,"frizz_risk":1,"updated_at":"2026-06-27T12:24:27.650938+05:30"},{"city":"Guwahati","state":"Assam","latitude":26.1158,"longitude":91.7086,"temp":31.0,"humidity":75,"rain":0.0,"pressure":997.3,"uv_index":8.7,"wind_gusts":35.3,"aqi":82,"pm10":14.7,"pm2_5":13.0,"no2":1.5,"co":244.0,"o3":108.0,"so2":2.7,"mosquito_risk":3,"arthritis_risk":5,"migraine_risk":7,"frizz_risk":1,"updated_at":"2026-06-27T12:24:27.650945+05:30"},{"city":"Agartala","state":"Tripura","latitude":23.8315,"longitude":91.2868,"temp":32.3,"humidity":66,"rain":0.0,"pressure":1002.9,"uv_index":8.05,"wind_gusts":33.5,"aqi":64,"pm10":14.1,"pm2_5":11.2,"no2":2.4,"co":156.0,"o3":115.0,"so2":1.8,"mosquito_risk":3,"arthritis_risk":5,"migraine_risk":4,"frizz_risk":1,"updated_at":"2026-06-27T12:24:27.650952+05:30"},{"city":"Shillong","state":"Meghalaya","latitude":25.5788,"longitude":91.8933,"temp":25.2,"humidity":73,"rain":0.0,"pressure":856.7,"uv_index":6.65,"wind_gusts":30.2,"aqi":54,"pm10":8.1,"pm2_5":6.9,"no2":1.6,"co":208.0,"o3":101.0,"so2":2.4,"mosquito_risk":7,"arthritis_risk":5,"migraine_risk":7,"frizz_risk":1,"updated_at":"2026-06-27T12:24:27.650959+05:30"},{"city":"Imphal","state":"Manipur","latitude":24.817,"longitude":93.9368,"temp":29.3,"humidity":65,"rain":0.0,"pressure":920.3,"uv_index":8.05,"wind_gusts":33.1,"aqi":62,"pm10":4.5,"pm2_5":3.8,"no2":1.0,"co":148.0,"o3":87.0,"so2":1.9,"mosquito_risk":7,"arthritis_risk":5,"migraine_risk":7,"frizz_risk":1,"updated_at":"2026-06-27T12:24:27.650966+05:30"},{"city":"Aizawl","state":"Mizoram","latitude":23.7271,"longitude":92.7176,"temp":26.5,"humidity":65,"rain":0.0,"pressure":891.3,"uv_index":9.05,"wind_gusts":26.6,"aqi":52,"pm10":6.7,"pm2_5":5.0,"no2":0.6,"co":121.0,"o3":76.0,"so2":0.5,"mosquito_risk":7,"arthritis_risk":5,"migraine_risk":7,"frizz_risk":1,"updated_at":"2026-06-27T12:24:27.650974+05:30"},{"city":"Kohima","state":"Nagaland","latitude":25.6701,"longitude":94.1077,"temp":22.6,"humidity":92,"rain":0.1,"pressure":853.7,"uv_index":8.0,"wind_gusts":22.0,"aqi":54,"pm10":7.2,"pm2_5":5.5,"no2":0.8,"co":191.0,"o3":95.0,"so2":1.6,"mosquito_risk":6,"arthritis_risk":5,"migraine_risk":7,"frizz_risk":1,"updated_at":"2026-06-27T12:24:27.650981+05:30"},{"city":"Gangtok","state":"Sikkim","latitude":27.3314,"longitude":88.6138,"temp":23.2,"humidity":74,"rain":0.1,"pressure":837.2,"uv_index":8.8,"wind_gusts":38.5,"aqi":92,"pm10":7.6,"pm2_5":7.0,"no2":0.9,"co":297.0,"o3":148.0,"so2":3.2,"mosquito_risk":6,"arthritis_risk":5,"migraine_risk":7,"frizz_risk":1,"updated_at":"2026-06-27T12:24:27.650988+05:30"},{"city":"Siliguri","state":"West Bengal","latitude":26.7271,"longitude":88.3953,"temp":30.5,"humidity":72,"rain":0.1,"pressure":989.6,"uv_index":8.7,"wind_gusts":19.4,"aqi":98,"pm10":25.3,"pm2_5":22.5,"no2":1.8,"co":423.0,"o3":159.0,"so2":6.2,"mosquito_risk":6,"arthritis_risk":5,"migraine_risk":7,"frizz_risk":1,"updated_at":"2026-06-27T12:24:31.183205+05:30"},{"city":"Durgapur","state":"West Bengal","latitude":23.5204,"longitude":87.3119,"temp":34.3,"humidity":63,"rain":0.0,"pressure":991.7,"uv_index":8.85,"wind_gusts":30.2,"aqi":140,"pm10":55.1,"pm2_5":48.9,"no2":11.3,"co":637.0,"o3":167.0,"so2":49.0,"mosquito_risk":3,"arthritis_risk":5,"migraine_risk":7,"frizz_risk":1,"updated_at":"2026-06-27T12:24:31.183239+05:30"},{"city":"Asansol","state":"West Bengal","latitude":23.6739,"longitude":86.9524,"temp":34.9,"humidity":58,"rain":0.0,"pressure":990.2,"uv_index":8.9,"wind_gusts":28.1,"aqi":122,"pm10":53.6,"pm2_5":48.8,"no2":11.4,"co":334.0,"o3":172.0,"so2":47.0,"mosquito_risk":0,"arthritis_risk":5,"migraine_risk":7,"frizz_risk":1,"updated_at":"2026-06-27T12:24:31.183250+05:30"},{"city":"Pondicherry","state":"Puducherry","latitude":11.9139,"longitude":79.8145,"temp":33.9,"humidity":53,"rain":0.0,"pressure":1006.6,"uv_index":8.35,"wind_gusts":41.8,"aqi":77,"pm10":36.7,"pm2_5":24.5,"no2":4.1,"co":178.0,"o3":131.0,"so2":7.1,"mosquito_risk":0,"arthritis_risk":5,"migraine_risk":4,"frizz_risk":1,"updated_at":"2026-06-27T12:24:31.183260+05:30"},{"city":"Port Blair","state":"Andaman and Nicobar Islands","latitude":11.6234,"longitude":92.7265,"temp":28.0,"humidity":86,"rain":0.2,"pressure":1007.2,"uv_index":8.65,"wind_gusts":39.6,"aqi":21,"pm10":4.3,"pm2_5":2.6,"no2":0.2,"co":88.0,"o3":44.0,"so2":0.3,"mosquito_risk":10,"arthritis_risk":5,"migraine_risk":4,"frizz_risk":1,"updated_at":"2026-06-27T12:24:31.183269+05:30"},{"city":"Haridwar","state":"Uttarakhand","latitude":29.9457,"longitude":78.1642,"temp":37.9,"humidity":36,"rain":0.0,"pressure":970.2,"uv_index":7.6,"wind_gusts":26.3,"aqi":152,"pm10":125.7,"pm2_5":45.5,"no2":1.3,"co":249.0,"o3":164.0,"so2":5.3,"mosquito_risk":0,"arthritis_risk":5,"migraine_risk":10,"frizz_risk":1,"updated_at":"2026-06-27T12:24:31.183277+05:30"},{"city":"Rishikesh","state":"Uttarakhand","latitude":30.0869,"longitude":78.2676,"temp":36.3,"humidity":38,"rain":0.0,"pressure":963.3,"uv_index":7.7,"wind_gusts":24.1,"aqi":106,"pm10":111.3,"pm2_5":38.9,"no2":0.8,"co":237.0,"o3":153.0,"so2":3.4,"mosquito_risk":0,"arthritis_risk":5,"migraine_risk":10,"frizz_risk":1,"updated_at":"2026-06-27T12:24:31.183285+05:30"},{"city":"Nainital","state":"Uttarakhand","latitude":29.3919,"longitude":79.4542,"temp":22.7,"humidity":62,"rain":0.2,"pressure":807.5,"uv_index":6.85,"wind_gusts":28.8,"aqi":100,"pm10":109.2,"pm2_5":40.7,"no2":1.0,"co":222.0,"o3":160.0,"so2":5.9,"mosquito_risk":6,"arthritis_risk":5,"migraine_risk":7,"frizz_risk":0,"updated_at":"2026-06-27T12:24:31.183293+05:30"},{"city":"Mussoorie","state":"Uttarakhand","latitude":30.4599,"longitude":78.0664,"temp":24.2,"humidity":57,"rain":0.1,"pressure":805.8,"uv_index":8.15,"wind_gusts":39.2,"aqi":118,"pm10":106.2,"pm2_5":39.9,"no2":1.2,"co":217.0,"o3":165.0,"so2":5.1,"mosquito_risk":3,"arthritis_risk":5,"migraine_risk":7,"frizz_risk":0,"updated_at":"2026-06-27T12:24:31.183301+05:30"},{"city":"Dharamshala","state":"Himachal Pradesh","latitude":32.219,"longitude":76.3234,"temp":26.3,"humidity":66,"rain":0.1,"pressure":869.6,"uv_index":8.5,"wind_gusts":32.4,"aqi":58,"pm10":39.7,"pm2_5":18.4,"no2":0.6,"co":240.0,"o3":140.0,"so2":2.6,"mosquito_risk":10,"arthritis_risk":5,"migraine_risk":7,"frizz_risk":1,"updated_at":"2026-06-27T12:24:31.183308+05:30"},{"city":"Dalhousie","state":"Himachal Pradesh","latitude":32.5387,"longitude":75.971,"temp":23.6,"humidity":67,"rain":0.1,"pressure":807.1,"uv_index":8.3,"wind_gusts":31.0,"aqi":114,"pm10":82.9,"pm2_5":37.1,"no2":1.4,"co":256.0,"o3":166.0,"so2":5.3,"mosquito_risk":6,"arthritis_risk":5,"migraine_risk":7,"frizz_risk":1,"updated_at":"2026-06-27T12:24:31.183317+05:30"},{"city":"Patiala","state":"Punjab","latitude":30.3398,"longitude":76.3869,"temp":37.3,"humidity":38,"rain":0.0,"pressure":974.5,"uv_index":7.7,"wind_gusts":28.4,"aqi":163,"pm10":122.0,"pm2_5":56.5,"no2":2.8,"co":315.0,"o3":171.0,"so2":11.2,"mosquito_risk":0,"arthritis_risk":5,"migraine_risk":10,"frizz_risk":1,"updated_at":"2026-06-27T12:24:31.183324+05:30"},{"city":"Bhatinda","state":"Punjab","latitude":30.211,"longitude":74.9455,"temp":37.4,"humidity":40,"rain":0.0,"pressure":979.8,"uv_index":8.3,"wind_gusts":29.2,"aqi":155,"pm10":134.6,"pm2_5":59.6,"no2":3.6,"co":239.0,"o3":162.0,"so2":16.5,"mosquito_risk":0,"arthritis_risk":5,"migraine_risk":10,"frizz_risk":1,"updated_at":"2026-06-27T12:24:31.183331+05:30"},{"city":"Rohtak","state":"Haryana","latitude":28.8955,"longitude":76.6066,"temp":37.8,"humidity":39,"rain":0.0,"pressure":977.9,"uv_index":7.75,"wind_gusts":28.4,"aqi":159,"pm10":312.0,"pm2_5":84.3,"no2":4.0,"co":284.0,"o3":161.0,"so2":6.4,"mosquito_risk":0,"arthritis_risk":5,"migraine_risk":10,"frizz_risk":1,"updated_at":"2026-06-27T12:24:31.183339+05:30"},{"city":"Panipat","state":"Haryana","latitude":29.3909,"longitude":76.9635,"temp":37.8,"humidity":40,"rain":0.0,"pressure":976.3,"uv_index":7.65,"wind_gusts":23.0,"aqi":258,"pm10":314.8,"pm2_5":91.0,"no2":5.7,"co":262.0,"o3":167.0,"so2":19.2,"mosquito_risk":0,"arthritis_risk":5,"migraine_risk":10,"frizz_risk":1,"updated_at":"2026-06-27T12:24:31.183346+05:30"},{"city":"Mathura","state":"Uttar Pradesh","latitude":27.4924,"longitude":77.6737,"temp":38.4,"humidity":37,"rain":0.0,"pressure":982.7,"uv_index":8.05,"wind_gusts":24.8,"aqi":141,"pm10":195.6,"pm2_5":59.0,"no2":3.1,"co":199.0,"o3":168.0,"so2":12.1,"mosquito_risk":0,"arthritis_risk":5,"migraine_risk":10,"frizz_risk":1,"updated_at":"2026-06-27T12:24:31.183354+05:30"},{"city":"Vrindavan","state":"Uttar Pradesh","latitude":27.5823,"longitude":77.7027,"temp":37.9,"humidity":39,"rain":0.0,"pressure":983.1,"uv_index":8.0,"wind_gusts":22.7,"aqi":141,"pm10":195.6,"pm2_5":59.0,"no2":3.1,"co":193.0,"o3":168.0,"so2":12.1,"mosquito_risk":0,"arthritis_risk":5,"migraine_risk":10,"frizz_risk":1,"updated_at":"2026-06-27T12:24:31.183361+05:30"},{"city":"Ayodhya","state":"Uttar Pradesh","latitude":26.7922,"longitude":82.1998,"temp":36.1,"humidity":52,"rain":0.0,"pressure":991.1,"uv_index":8.4,"wind_gusts":29.2,"aqi":141,"pm10":69.8,"pm2_5":44.9,"no2":2.2,"co":298.0,"o3":178.0,"so2":8.1,"mosquito_risk":0,"arthritis_risk":5,"migraine_risk":10,"frizz_risk":1,"updated_at":"2026-06-27T12:24:31.183368+05:30"},{"city":"Ratlam","state":"Madhya Pradesh","latitude":23.3315,"longitude":75.0367,"temp":34.0,"humidity":50,"rain":0.0,"pressure":952.9,"uv_index":8.45,"wind_gusts":31.0,"aqi":80,"pm10":54.8,"pm2_5":29.8,"no2":1.7,"co":137.0,"o3":108.0,"so2":8.5,"mosquito_risk":0,"arthritis_risk":5,"migraine_risk":7,"frizz_risk":1,"updated_at":"2026-06-27T12:24:31.183376+05:30"},{"city":"Sagar","state":"Madhya Pradesh","latitude":23.8388,"longitude":78.7378,"temp":34.7,"humidity":49,"rain":0.0,"pressure":947.9,"uv_index":8.7,"wind_gusts":36.7,"aqi":63,"pm10":39.1,"pm2_5":19.7,"no2":0.9,"co":164.0,"o3":125.0,"so2":2.5,"mosquito_risk":0,"arthritis_risk":5,"migraine_risk":7,"frizz_risk":1,"updated_at":"2026-06-27T12:24:31.183383+05:30"},{"city":"Satna","state":"Madhya Pradesh","latitude":24.6005,"longitude":80.8322,"temp":37.6,"humidity":38,"rain":0.0,"pressure":968.1,"uv_index":8.8,"wind_gusts":42.1,"aqi":76,"pm10":57.4,"pm2_5":25.0,"no2":1.0,"co":170.0,"o3":130.0,"so2":3.1,"mosquito_risk":0,"arthritis_risk":5,"migraine_risk":10,"frizz_risk":1,"updated_at":"2026-06-27T12:24:31.183390+05:30"},{"city":"Akola","state":"Maharashtra","latitude":20.7002,"longitude":77.0082,"temp":32.9,"humidity":57,"rain":0.0,"pressure":972.8,"uv_index":8.25,"wind_gusts":39.6,"aqi":79,"pm10":55.1,"pm2_5":27.1,"no2":2.0,"co":127.0,"o3":109.0,"so2":6.0,"mosquito_risk":0,"arthritis_risk":5,"migraine_risk":7,"frizz_risk":1,"updated_at":"2026-06-27T12:24:31.183398+05:30"},{"city":"Amravati","state":"Maharashtra","latitude":20.9374,"longitude":77.7796,"temp":27.1,"humidity":84,"rain":0.0,"pressure":965.0,"uv_index":8.4,"wind_gusts":37.4,"aqi":75,"pm10":37.1,"pm2_5":20.6,"no2":3.0,"co":170.0,"o3":103.0,"so2":6.2,"mosquito_risk":7,"arthritis_risk":5,"migraine_risk":7,"frizz_risk":1,"updated_at":"2026-06-27T12:24:31.183406+05:30"},{"city":"Latur","state":"Maharashtra","latitude":18.4088,"longitude":76.5604,"temp":29.2,"humidity":59,"rain":0.0,"pressure":938.7,"uv_index":7.0,"wind_gusts":28.1,"aqi":83,"pm10":48.7,"pm2_5":21.9,"no2":1.3,"co":136.0,"o3":98.0,"so2":5.3,"mosquito_risk":4,"arthritis_risk":5,"migraine_risk":7,"frizz_risk":1,"updated_at":"2026-06-27T12:24:31.183413+05:30"},{"city":"Nanded","state":"Maharashtra","latitude":19.1383,"longitude":77.3091,"temp":29.6,"humidity":62,"rain":0.0,"pressure":967.1,"uv_index":4.9,"wind_gusts":40.0,"aqi":90,"pm10":61.0,"pm2_5":31.2,"no2":1.9,"co":155.0,"o3":114.0,"so2":5.4,"mosquito_risk":7,"arthritis_risk":5,"migraine_risk":3,"frizz_risk":1,"updated_at":"2026-06-27T12:24:31.183421+05:30"},{"city":"Gulbarga","state":"Karnataka","latitude":17.3297,"longitude":76.8343,"temp":32.7,"humidity":52,"rain":0.0,"pressure":957.3,"uv_index":5.7,"wind_gusts":31.7,"aqi":55,"pm10":34.9,"pm2_5":17.6,"no2":1.8,"co":131.0,"o3":113.0,"so2":5.0,"mosquito_risk":0,"arthritis_risk":5,"migraine_risk":3,"frizz_risk":1,"updated_at":"2026-06-27T12:24:31.183428+05:30"},{"city":"Bidar","state":"Karnataka","latitude":17.9104,"longitude":77.5199,"temp":30.2,"humidity":59,"rain":0.0,"pressure":934.0,"uv_index":4.45,"wind_gusts":34.2,"aqi":85,"pm10":54.4,"pm2_5":28.4,"no2":2.3,"co":161.0,"o3":111.0,"so2":5.4,"mosquito_risk":0,"arthritis_risk":5,"migraine_risk":3,"frizz_risk":1,"updated_at":"2026-06-27T12:24:31.183435+05:30"},{"city":"Hospet","state":"Karnataka","latitude":15.2689,"longitude":76.3909,"temp":31.3,"humidity":51,"rain":0.0,"pressure":954.9,"uv_index":7.5,"wind_gusts":52.9,"aqi":29,"pm10":12.5,"pm2_5":5.9,"no2":1.4,"co":117.0,"o3":65.0,"so2":1.9,"mosquito_risk":0,"arthritis_risk":5,"migraine_risk":7,"frizz_risk":1,"updated_at":"2026-06-27T12:24:31.183442+05:30"},{"city":"Tirupur","state":"Tamil Nadu","latitude":11.1085,"longitude":77.3411,"temp":35.3,"humidity":36,"rain":0.0,"pressure":974.3,"uv_index":8.85,"wind_gusts":44.6,"aqi":53,"pm10":21.4,"pm2_5":12.1,"no2":1.9,"co":147.0,"o3":97.0,"so2":2.7,"mosquito_risk":0,"arthritis_risk":5,"migraine_risk":10,"frizz_risk":1,"updated_at":"2026-06-27T12:24:31.183449+05:30"},{"city":"Alappuzha","state":"Kerala","latitude":9.4981,"longitude":76.3388,"temp":29.0,"humidity":77,"rain":0.0,"pressure":1009.6,"uv_index":8.5,"wind_gusts":35.6,"aqi":50,"pm10":14.6,"pm2_5":9.6,"no2":2.4,"co":88.0,"o3":82.0,"so2":3.0,"mosquito_risk":7,"arthritis_risk":0,"migraine_risk":4,"frizz_risk":1,"updated_at":"2026-06-27T12:24:31.183456+05:30"},{"city":"Munnar","state":"Kerala","latitude":10.0889,"longitude":77.0595,"temp":20.9,"humidity":79,"rain":0.1,"pressure":858.0,"uv_index":9.05,"wind_gusts":31.3,"aqi":26,"pm10":7.6,"pm2_5":4.2,"no2":0.8,"co":90.0,"o3":65.0,"so2":0.9,"mosquito_risk":6,"arthritis_risk":5,"migraine_risk":7,"frizz_risk":1,"updated_at":"2026-06-27T12:24:31.183463+05:30"},{"city":"Silchar","state":"Assam","latitude":24.8333,"longitude":92.7789,"temp":31.4,"humidity":74,"rain":0.0,"pressure":1001.2,"uv_index":8.75,"wind_gusts":29.9,"aqi":85,"pm10":14.3,"pm2_5":11.4,"no2":1.5,"co":152.0,"o3":87.0,"so2":2.4,"mosquito_risk":3,"arthritis_risk":5,"migraine_risk":4,"frizz_risk":1,"updated_at":"2026-06-27T12:24:31.183470+05:30"},{"city":"Dibrugarh","state":"Assam","latitude":27.4728,"longitude":94.912,"temp":31.5,"humidity":72,"rain":0.0,"pressure":990.3,"uv_index":7.9,"wind_gusts":30.2,"aqi":74,"pm10":20.7,"pm2_5":17.2,"no2":1.5,"co":258.0,"o3":132.0,"so2":2.8,"mosquito_risk":3,"arthritis_risk":5,"migraine_risk":7,"frizz_risk":1,"updated_at":"2026-06-27T12:24:31.183477+05:30"}]