[{"city":"Delhi","state":"Delhi","latitude":28.6139,"longitude":77.209,"temp":19.6,"humidity":85,"rain":0.0,"pressure":985.1,"uv_index":5.9,"wind_gusts":27.7,"aqi":163,"pm10":267.3,"pm2_5":79.2,"mosquito_risk":3,"arthritis_risk":10,"migraine_risk":3,"frizz_risk":1,"updated_at":"2026-03-09T04:58:38.451629+05:30"},{"city":"Mumbai","state":"Maharashtra","latitude":19.076,"longitude":72.8777,"temp":28.5,"humidity":65,"rain":0.0,"pressure":1007.4,"uv_index":7.55,"wind_gusts":23.8,"aqi":122,"pm10":26.5,"pm2_5":26.2,"mosquito_risk":7,"arthritis_risk":5,"migraine_risk":4,"frizz_risk":1,"updated_at":"2026-03-09T04:58:38.451670+05:30"},{"city":"Bangalore","state":"Karnataka","latitude":12.9716,"longitude":77.5946,"temp":19.4,"humidity":75,"rain":0.0,"pressure":911.1,"uv_index":9.25,"wind_gusts":37.1,"aqi":105,"pm10":48.2,"pm2_5":41.0,"mosquito_risk":3,"arthritis_risk":5,"migraine_risk":7,"frizz_risk":0,"updated_at":"2026-03-09T04:58:38.451685+05:30"},{"city":"Hyderabad","state":"Telangana","latitude":17.385,"longitude":78.4867,"temp":21.8,"humidity":74,"rain":0.0,"pressure":953.9,"uv_index":8.55,"wind_gusts":31.3,"aqi":101,"pm10":48.9,"pm2_5":38.4,"mosquito_risk":3,"arthritis_risk":5,"migraine_risk":7,"frizz_risk":1,"updated_at":"2026-03-09T04:58:38.451695+05:30"},{"city":"Chennai","state":"Tamil Nadu","latitude":13.0827,"longitude":80.2707,"temp":26.0,"humidity":80,"rain":0.0,"pressure":1009.1,"uv_index":8.95,"wind_gusts":33.5,"aqi":75,"pm10":41.0,"pm2_5":31.0,"mosquito_risk":7,"arthritis_risk":0,"migraine_risk":4,"frizz_risk":1,"updated_at":"2026-03-09T04:58:38.451703+05:30"},{"city":"Kolkata","state":"West Bengal","latitude":22.5726,"longitude":88.3639,"temp":23.1,"humidity":97,"rain":0.0,"pressure":1010.4,"uv_index":7.95,"wind_gusts":18.0,"aqi":151,"pm10":53.1,"pm2_5":47.1,"mosquito_risk":3,"arthritis_risk":0,"migraine_risk":4,"frizz_risk":1,"updated_at":"2026-03-09T04:58:38.451712+05:30"},{"city":"Pune","state":"Maharashtra","latitude":18.5204,"longitude":73.8567,"temp":24.2,"humidity":47,"rain":0.0,"pressure":948.3,"uv_index":8.1,"wind_gusts":31.3,"aqi":86,"pm10":29.5,"pm2_5":27.1,"mosquito_risk":0,"arthritis_risk":5,"migraine_risk":7,"frizz_risk":0,"updated_at":"2026-03-09T04:58:38.451723+05:30"},{"city":"Ahmedabad","state":"Gujarat","latitude":23.0225,"longitude":72.5714,"temp":20.9,"humidity":56,"rain":0.0,"pressure":1004.1,"uv_index":7.4,"wind_gusts":18.4,"aqi":73,"pm10":19.7,"pm2_5":14.8,"mosquito_risk":0,"arthritis_risk":5,"migraine_risk":4,"frizz_risk":0,"updated_at":"2026-03-09T04:58:38.451731+05:30"},{"city":"Jaipur","state":"Rajasthan","latitude":26.9124,"longitude":75.7873,"temp":24.4,"humidity":28,"rain":0.0,"pressure":962.0,"uv_index":6.7,"wind_gusts":25.2,"aqi":79,"pm10":132.7,"pm2_5":27.1,"mosquito_risk":0,"arthritis_risk":5,"migraine_risk":7,"frizz_risk":0,"updated_at":"2026-03-09T04:58:38.451738+05:30"},{"city":"Lucknow","state":"Uttar Pradesh","latitude":26.8467,"longitude":80.9462,"temp":21.8,"humidity":85,"rain":0.0,"pressure":996.0,"uv_index":6.55,"wind_gusts":21.2,"aqi":179,"pm10":237.5,"pm2_5":146.7,"mosquito_risk":3,"arthritis_risk":5,"migraine_risk":7,"frizz_risk":1,"updated_at":"2026-03-09T04:58:38.451745+05:30"},{"city":"Kanpur","state":"Uttar Pradesh","latitude":26.4499,"longitude":80.3319,"temp":20.9,"humidity":87,"rain":0.0,"pressure":994.2,"uv_index":6.55,"wind_gusts":16.9,"aqi":170,"pm10":195.6,"pm2_5":100.1,"mosquito_risk":3,"arthritis_risk":5,"migraine_risk":7,"frizz_risk":1,"updated_at":"2026-03-09T04:58:38.451752+05:30"},{"city":"Chandigarh","state":"Chandigarh","latitude":30.7333,"longitude":76.7794,"temp":19.7,"humidity":79,"rain":0.0,"pressure":970.3,"uv_index":5.95,"wind_gusts":24.5,"aqi":143,"pm10":42.4,"pm2_5":31.3,"mosquito_risk":3,"arthritis_risk":5,"migraine_risk":3,"frizz_risk":0,"updated_at":"2026-03-09T04:58:38.451760+05:30"},{"city":"Srinagar","state":"Jammu and Kashmir","latitude":34.0837,"longitude":74.7973,"temp":5.7,"humidity":79,"rain":0.0,"pressure":841.2,"uv_index":6.35,"wind_gusts":22.7,"aqi":123,"pm10":81.7,"pm2_5":68.0,"mosquito_risk":3,"arthritis_risk":5,"migraine_risk":7,"frizz_risk":0,"updated_at":"2026-03-09T04:58:38.451767+05:30"},{"city":"Jammu","state":"Jammu and Kashmir","latitude":32.7266,"longitude":74.857,"temp":17.7,"humidity":70,"rain":0.0,"pressure":975.2,"uv_index":6.4,"wind_gusts":20.9,"aqi":83,"pm10":31.0,"pm2_5":24.1,"mosquito_risk":3,"arthritis_risk":5,"migraine_risk":7,"frizz_risk":0,"updated_at":"2026-03-09T04:58:38.451774+05:30"},{"city":"Amritsar","state":"Punjab","latitude":31.634,"longitude":74.8723,"temp":19.6,"humidity":79,"rain":0.0,"pressure":983.5,"uv_index":6.5,"wind_gusts":18.0,"aqi":161,"pm10":100.6,"pm2_5":82.4,"mosquito_risk":3,"arthritis_risk":5,"migraine_risk":7,"frizz_risk":0,"updated_at":"2026-03-09T04:58:38.451780+05:30"},{"city":"Ludhiana","state":"Punjab","latitude":30.901,"longitude":75.8573,"temp":21.2,"humidity":78,"rain":0.0,"pressure":981.2,"uv_index":6.1,"wind_gusts":21.2,"aqi":161,"pm10":87.5,"pm2_5":72.6,"mosquito_risk":3,"arthritis_risk":5,"migraine_risk":7,"frizz_risk":1,"updated_at":"2026-03-09T04:58:38.451786+05:30"},{"city":"Jalandhar","state":"Punjab","latitude":31.326,"longitude":75.5762,"temp":19.7,"humidity":87,"rain":0.0,"pressure":982.4,"uv_index":6.2,"wind_gusts":19.8,"aqi":163,"pm10":109.2,"pm2_5":86.8,"mosquito_risk":3,"arthritis_risk":10,"migraine_risk":7,"frizz_risk":1,"updated_at":"2026-03-09T04:58:38.451796+05:30"},{"city":"Dehradun","state":"Uttarakhand","latitude":30.6284,"longitude":78.0322,"temp":13.4,"humidity":58,"rain":0.0,"pressure":830.0,"uv_index":6.3,"wind_gusts":25.9,"aqi":75,"pm10":26.3,"pm2_5":19.2,"mosquito_risk":0,"arthritis_risk":5,"migraine_risk":7,"frizz_risk":0,"updated_at":"2026-03-09T04:58:38.451803+05:30"},{"city":"Shimla","state":"Himachal Pradesh","latitude":31.1048,"longitude":77.1734,"temp":10.8,"humidity":45,"rain":0.0,"pressure":783.6,"uv_index":6.35,"wind_gusts":49.3,"aqi":80,"pm10":46.0,"pm2_5":26.6,"mosquito_risk":0,"arthritis_risk":5,"migraine_risk":7,"frizz_risk":1,"updated_at":"2026-03-09T04:58:38.451809+05:30"},{"city":"Manali","state":"Himachal Pradesh","latitude":32.2396,"longitude":77.1887,"temp":15.2,"humidity":25,"rain":0.0,"pressure":822.3,"uv_index":7.6,"wind_gusts":32.4,"aqi":41,"pm10":14.6,"pm2_5":7.5,"mosquito_risk":0,"arthritis_risk":5,"migraine_risk":7,"frizz_risk":1,"updated_at":"2026-03-09T04:58:38.451816+05:30"},{"city":"Gurgaon","state":"Haryana","latitude":28.4595,"longitude":77.0266,"temp":17.0,"humidity":92,"rain":0.0,"pressure":983.6,"uv_index":5.95,"wind_gusts":25.6,"aqi":516,"pm10":640.7,"pm2_5":110.6,"mosquito_risk":3,"arthritis_risk":10,"migraine_risk":3,"frizz_risk":0,"updated_at":"2026-03-09T04:58:38.451822+05:30"},{"city":"Noida","state":"Uttar Pradesh","latitude":28.5355,"longitude":77.391,"temp":19.7,"humidity":83,"rain":0.0,"pressure":986.6,"uv_index":5.75,"wind_gusts":27.0,"aqi":516,"pm10":640.7,"pm2_5":110.6,"mosquito_risk":3,"arthritis_risk":10,"migraine_risk":3,"frizz_risk":1,"updated_at":"2026-03-09T04:58:38.451829+05:30"},{"city":"Ghaziabad","state":"Uttar Pradesh","latitude":28.6692,"longitude":77.4538,"temp":19.8,"humidity":85,"rain":0.0,"pressure":984.6,"uv_index":5.95,"wind_gusts":26.6,"aqi":165,"pm10":223.1,"pm2_5":75.9,"mosquito_risk":3,"arthritis_risk":10,"migraine_risk":3,"frizz_risk":1,"updated_at":"2026-03-09T04:58:38.451835+05:30"},{"city":"Faridabad","state":"Haryana","latitude":28.4089,"longitude":77.3178,"temp":17.5,"humidity":86,"rain":0.0,"pressure":985.8,"uv_index":5.6,"wind_gusts":24.5,"aqi":516,"pm10":640.7,"pm2_5":110.6,"mosquito_risk":3,"arthritis_risk":10,"migraine_risk":3,"frizz_risk":0,"updated_at":"2026-03-09T04:58:38.451841+05:30"},{"city":"Meerut","state":"Uttar Pradesh","latitude":28.9845,"longitude":77.7064,"temp":19.5,"humidity":90,"rain":0.0,"pressure":983.3,"uv_index":5.85,"wind_gusts":25.9,"aqi":165,"pm10":223.1,"pm2_5":75.9,"mosquito_risk":3,"arthritis_risk":10,"migraine_risk":3,"frizz_risk":1,"updated_at":"2026-03-09T04:58:38.451847+05:30"},{"city":"Agra","state":"Uttar Pradesh","latitude":27.1767,"longitude":78.0081,"temp":18.1,"humidity":83,"rain":0.0,"pressure":989.8,"uv_index":6.05,"wind_gusts":23.4,"aqi":160,"pm10":411.6,"pm2_5":86.1,"mosquito_risk":3,"arthritis_risk":10,"migraine_risk":7,"frizz_risk":0,"updated_at":"2026-03-09T04:58:38.451853+05:30"},{"city":"Varanasi","state":"Uttar Pradesh","latitude":25.3176,"longitude":82.9739,"temp":20.2,"humidity":95,"rain":0.0,"pressure":1000.7,"uv_index":7.2,"wind_gusts":16.2,"aqi":182,"pm10":139.2,"pm2_5":129.9,"mosquito_risk":3,"arthritis_risk":5,"migraine_risk":4,"frizz_risk":1,"updated_at":"2026-03-09T04:58:38.451862+05:30"},{"city":"Prayagraj","state":"Uttar Pradesh","latitude":25.4358,"longitude":81.8463,"temp":21.4,"humidity":85,"rain":0.0,"pressure":998.9,"uv_index":7.1,"wind_gusts":15.1,"aqi":187,"pm10":183.0,"pm2_5":165.8,"mosquito_risk":3,"arthritis_risk":5,"migraine_risk":7,"frizz_risk":1,"updated_at":"2026-03-09T04:58:38.451869+05:30"},{"city":"Gorakhpur","state":"Uttar Pradesh","latitude":26.7606,"longitude":83.3732,"temp":20.4,"humidity":96,"rain":0.0,"pressure":1000.6,"uv_index":6.9,"wind_gusts":27.7,"aqi":182,"pm10":142.5,"pm2_5":132.2,"mosquito_risk":3,"arthritis_risk":5,"migraine_risk":4,"frizz_risk":1,"updated_at":"2026-03-09T04:58:38.451878+05:30"},{"city":"Bareilly","state":"Uttar Pradesh","latitude":28.367,"longitude":79.4304,"temp":20.1,"humidity":93,"rain":0.0,"pressure":988.7,"uv_index":6.25,"wind_gusts":14.8,"aqi":168,"pm10":127.1,"pm2_5":102.2,"mosquito_risk":3,"arthritis_risk":5,"migraine_risk":7,"frizz_risk":1,"updated_at":"2026-03-09T04:58:38.451884+05:30"},{"city":"Aligarh","state":"Uttar Pradesh","latitude":27.8974,"longitude":78.088,"temp":17.8,"humidity":84,"rain":0.0,"pressure":987.7,"uv_index":6.15,"wind_gusts":26.3,"aqi":198,"pm10":349.2,"pm2_5":96.9,"mosquito_risk":3,"arthritis_risk":10,"migraine_risk":7,"frizz_risk":0,"updated_at":"2026-03-09T04:58:38.451891+05:30"},{"city":"Moradabad","state":"Uttar Pradesh","latitude":28.8386,"longitude":78.7733,"temp":19.3,"humidity":91,"rain":0.0,"pressure":985.4,"uv_index":6.05,"wind_gusts":16.6,"aqi":175,"pm10":219.8,"pm2_5":122.5,"mosquito_risk":3,"arthritis_risk":10,"migraine_risk":7,"frizz_risk":1,"updated_at":"2026-03-09T04:58:38.451896+05:30"},{"city":"Saharanpur","state":"Uttar Pradesh","latitude":29.9637,"longitude":77.546,"temp":19.0,"humidity":87,"rain":0.0,"pressure":977.1,"uv_index":5.7,"wind_gusts":20.9,"aqi":163,"pm10":116.9,"pm2_5":91.7,"mosquito_risk":3,"arthritis_risk":10,"migraine_risk":3,"frizz_risk":1,"updated_at":"2026-03-09T04:58:38.451902+05:30"},{"city":"Jhansi","state":"Uttar Pradesh","latitude":25.4484,"longitude":78.5685,"temp":19.8,"humidity":64,"rain":0.0,"pressure":980.1,"uv_index":7.0,"wind_gusts":25.2,"aqi":83,"pm10":27.8,"pm2_5":20.5,"mosquito_risk":3,"arthritis_risk":5,"migraine_risk":7,"frizz_risk":0,"updated_at":"2026-03-09T04:58:41.725306+05:30"},{"city":"Surat","state":"Gujarat","latitude":21.1702,"longitude":72.8311,"temp":24.0,"humidity":61,"rain":0.0,"pressure":1007.7,"uv_index":7.25,"wind_gusts":24.1,"aqi":115,"pm10":34.2,"pm2_5":33.4,"mosquito_risk":3,"arthritis_risk":5,"migraine_risk":4,"frizz_risk":0,"updated_at":"2026-03-09T04:58:41.725337+05:30"},{"city":"Vadodara","state":"Gujarat","latitude":22.3072,"longitude":73.1812,"temp":22.1,"humidity":58,"rain":0.0,"pressure":1005.8,"uv_index":7.4,"wind_gusts":16.2,"aqi":76,"pm10":19.8,"pm2_5":18.3,"mosquito_risk":0,"arthritis_risk":5,"migraine_risk":4,"frizz_risk":0,"updated_at":"2026-03-09T04:58:41.725346+05:30"},{"city":"Rajkot","state":"Gujarat","latitude":22.3039,"longitude":70.8022,"temp":21.8,"humidity":61,"rain":0.0,"pressure":996.3,"uv_index":7.2,"wind_gusts":25.9,"aqi":69,"pm10":32.9,"pm2_5":18.0,"mosquito_risk":3,"arthritis_risk":5,"migraine_risk":7,"frizz_risk":0,"updated_at":"2026-03-09T04:58:41.725354+05:30"},{"city":"Thane","state":"Maharashtra","latitude":19.2183,"longitude":72.9781,"temp":26.0,"humidity":57,"rain":0.0,"pressure":1007.0,"uv_index":7.55,"wind_gusts":34.6,"aqi":122,"pm10":26.5,"pm2_5":26.2,"mosquito_risk":4,"arthritis_risk":5,"migraine_risk":4,"frizz_risk":1,"updated_at":"2026-03-09T04:58:41.725362+05:30"},{"city":"Nagpur","state":"Maharashtra","latitude":21.1458,"longitude":79.0882,"temp":19.8,"humidity":55,"rain":0.0,"pressure":974.7,"uv_index":7.95,"wind_gusts":29.2,"aqi":80,"pm10":35.2,"pm2_5":24.5,"mosquito_risk":0,"arthritis_risk":5,"migraine_risk":7,"frizz_risk":0,"updated_at":"2026-03-09T04:58:41.725369+05:30"},{"city":"Nashik","state":"Maharashtra","latitude":19.9975,"longitude":73.7898,"temp":23.2,"humidity":45,"rain":0.0,"pressure":945.9,"uv_index":7.75,"wind_gusts":30.2,"aqi":58,"pm10":16.3,"pm2_5":16.0,"mosquito_risk":0,"arthritis_risk":5,"migraine_risk":7,"frizz_risk":0,"updated_at":"2026-03-09T04:58:41.725375+05:30"},{"city":"Aurangabad","state":"Maharashtra","latitude":19.8762,"longitude":75.3433,"temp":21.1,"humidity":54,"rain":0.0,"pressure":944.4,"uv_index":8.25,"wind_gusts":38.5,"aqi":68,"pm10":24.3,"pm2_5":21.4,"mosquito_risk":0,"arthritis_risk":5,"migraine_risk":7,"frizz_risk":0,"updated_at":"2026-03-09T04:58:41.725382+05:30"},{"city":"Solapur","state":"Maharashtra","latitude":17.6599,"longitude":75.9064,"temp":22.2,"humidity":59,"rain":0.0,"pressure":957.2,"uv_index":8.45,"wind_gusts":26.3,"aqi":72,"pm10":34.6,"pm2_5":27.7,"mosquito_risk":0,"arthritis_risk":5,"migraine_risk":7,"frizz_risk":0,"updated_at":"2026-03-09T04:58:41.725389+05:30"},{"city":"Kolhapur","state":"Maharashtra","latitude":16.705,"longitude":74.2433,"temp":20.5,"humidity":70,"rain":0.0,"pressure":946.8,"uv_index":8.6,"wind_gusts":41.0,"aqi":139,"pm10":81.7,"pm2_5":79.4,"mosquito_risk":3,"arthritis_risk":5,"migraine_risk":7,"frizz_risk":0,"updated_at":"2026-03-09T04:58:41.725395+05:30"},{"city":"Goa","state":"Goa","latitude":15.2993,"longitude":74.124,"temp":24.9,"humidity":92,"rain":0.0,"pressure":997.5,"uv_index":8.65,"wind_gusts":34.6,"aqi":136,"pm10":67.5,"pm2_5":63.1,"mosquito_risk":3,"arthritis_risk":5,"migraine_risk":7,"frizz_risk":1,"updated_at":"2026-03-09T04:58:41.725402+05:30"},{"city":"Jodhpur","state":"Rajasthan","latitude":26.2389,"longitude":73.0243,"temp":22.5,"humidity":45,"rain":0.0,"pressure":985.9,"uv_index":7.1,"wind_gusts":21.2,"aqi":57,"pm10":83.1,"pm2_5":18.9,"mosquito_risk":0,"arthritis_risk":5,"migraine_risk":7,"frizz_risk":0,"updated_at":"2026-03-09T04:58:41.725408+05:30"},{"city":"Udaipur","state":"Rajasthan","latitude":24.5854,"longitude":73.7125,"temp":19.3,"humidity":43,"rain":0.0,"pressure":948.8,"uv_index":7.7,"wind_gusts":17.3,"aqi":40,"pm10":11.4,"pm2_5":9.6,"mosquito_risk":0,"arthritis_risk":5,"migraine_risk":7,"frizz_risk":0,"updated_at":"2026-03-09T04:58:41.725415+05:30"},{"city":"Kota","state":"Rajasthan","latitude":25.2138,"longitude":75.8648,"temp":18.9,"humidity":66,"rain":0.0,"pressure":981.0,"uv_index":7.1,"wind_gusts":16.9,"aqi":84,"pm10":28.8,"pm2_5":28.8,"mosquito_risk":3,"arthritis_risk":5,"migraine_risk":7,"frizz_risk":0,"updated_at":"2026-03-09T04:58:41.725422+05:30"},{"city":"Bikaner","state":"Rajasthan","latitude":28.0229,"longitude":73.3119,"temp":21.8,"humidity":55,"rain":0.0,"pressure":984.6,"uv_index":6.8,"wind_gusts":20.5,"aqi":57,"pm10":35.4,"pm2_5":13.4,"mosquito_risk":0,"arthritis_risk":5,"migraine_risk":7,"frizz_risk":0,"updated_at":"2026-03-09T04:58:41.725428+05:30"},{"city":"Ajmer","state":"Rajasthan","latitude":26.4499,"longitude":74.6399,"temp":19.8,"humidity":47,"rain":0.0,"pressure":956.8,"uv_index":7.1,"wind_gusts":19.4,"aqi":53,"pm10":12.5,"pm2_5":8.6,"mosquito_risk":0,"arthritis_risk":5,"migraine_risk":7,"frizz_risk":0,"updated_at":"2026-03-09T04:58:41.725435+05:30"},{"city":"Gwalior","state":"Madhya Pradesh","latitude":26.2183,"longitude":78.1828,"temp":21.3,"humidity":65,"rain":0.0,"pressure":985.2,"uv_index":6.75,"wind_gusts":22.7,"aqi":79,"pm10":32.2,"pm2_5":16.9,"mosquito_risk":3,"arthritis_risk":5,"migraine_risk":7,"frizz_risk":0,"updated_at":"2026-03-09T04:58:41.725441+05:30"},{"city":"Indore","state":"Madhya Pradesh","latitude":22.7196,"longitude":75.8577,"temp":18.9,"humidity":47,"rain":0.0,"pressure":949.1,"uv_index":7.65,"wind_gusts":22.3,"aqi":76,"pm10":38.2,"pm2_5":37.7,"mosquito_risk":0,"arthritis_risk":5,"migraine_risk":7,"frizz_risk":0,"updated_at":"2026-03-09T04:58:41.725447+05:30"},{"city":"Bhopal","state":"Madhya Pradesh","latitude":23.2599,"longitude":77.4126,"temp":20.0,"humidity":50,"rain":0.0,"pressure":955.4,"uv_index":7.55,"wind_gusts":16.6,"aqi":69,"pm10":32.7,"pm2_5":27.3,"mosquito_risk":0,"arthritis_risk":5,"migraine_risk":7,"frizz_risk":0,"updated_at":"2026-03-09T04:58:41.725454+05:30"},{"city":"Jabalpur","state":"Madhya Pradesh","latitude":23.1815,"longitude":79.9864,"temp":19.4,"humidity":72,"rain":0.0,"pressure":963.5,"uv_index":7.65,"wind_gusts":23.8,"aqi":123,"pm10":65.0,"pm2_5":44.5,"mosquito_risk":3,"arthritis_risk":5,"migraine_risk":7,"frizz_risk":0,"updated_at":"2026-03-09T04:58:41.725460+05:30"},{"city":"Ujjain","state":"Madhya Pradesh","latitude":23.1765,"longitude":75.7885,"temp":19.0,"humidity":55,"rain":0.0,"pressure":955.3,"uv_index":7.55,"wind_gusts":12.2,"aqi":98,"pm10":47.1,"pm2_5":46.6,"mosquito_risk":0,"arthritis_risk":5,"migraine_risk":7,"frizz_risk":0,"updated_at":"2026-03-09T04:58:41.725467+05:30"},{"city":"Visakhapatnam","state":"Andhra Pradesh","latitude":17.6868,"longitude":83.2185,"temp":25.2,"humidity":83,"rain":0.0,"pressure":1006.8,"uv_index":8.55,"wind_gusts":32.4,"aqi":92,"pm10":42.8,"pm2_5":34.2,"mosquito_risk":7,"arthritis_risk":5,"migraine_risk":4,"frizz_risk":1,"updated_at":"2026-03-09T04:58:41.725474+05:30"},{"city":"Vijayawada","state":"Andhra Pradesh","latitude":16.5062,"longitude":80.648,"temp":25.1,"humidity":86,"rain":0.0,"pressure":1005.0,"uv_index":8.65,"wind_gusts":24.1,"aqi":90,"pm10":42.5,"pm2_5":35.3,"mosquito_risk":7,"arthritis_risk":5,"migraine_risk":4,"frizz_risk":1,"updated_at":"2026-03-09T04:58:41.725481+05:30"},{"city":"Guntur","state":"Andhra Pradesh","latitude":16.3067,"longitude":80.4365,"temp":25.1,"humidity":88,"rain":0.0,"pressure":1006.0,"uv_index":8.65,"wind_gusts":26.6,"aqi":88,"pm10":34.6,"pm2_5":28.6,"mosquito_risk":7,"arthritis_risk":5,"migraine_risk":4,"frizz_risk":1,"updated_at":"2026-03-09T04:58:41.725488+05:30"},{"city":"Nellore","state":"Andhra Pradesh","latitude":14.4426,"longitude":79.9865,"temp":25.3,"humidity":86,"rain":0.0,"pressure":1007.8,"uv_index":8.8,"wind_gusts":33.5,"aqi":80,"pm10":26.8,"pm2_5":20.3,"mosquito_risk":7,"arthritis_risk":5,"migraine_risk":4,"frizz_risk":1,"updated_at":"2026-03-09T04:58:41.725495+05:30"},{"city":"Kurnool","state":"Andhra Pradesh","latitude":15.8281,"longitude":78.0373,"temp":24.2,"humidity":79,"rain":0.0,"pressure":977.7,"uv_index":8.65,"wind_gusts":37.1,"aqi":96,"pm10":33.4,"pm2_5":28.7,"mosquito_risk":3,"arthritis_risk":5,"migraine_risk":7,"frizz_risk":1,"updated_at":"2026-03-09T04:58:41.725502+05:30"},{"city":"Kakinada","state":"Andhra Pradesh","latitude":16.9891,"longitude":82.2475,"temp":24.7,"humidity":86,"rain":0.0,"pressure":1010.3,"uv_index":8.55,"wind_gusts":30.6,"aqi":79,"pm10":43.5,"pm2_5":32.1,"mosquito_risk":3,"arthritis_risk":0,"migraine_risk":4,"frizz_risk":1,"updated_at":"2026-03-09T04:58:41.725509+05:30"},{"city":"Tirupati","state":"Andhra Pradesh","latitude":13.6288,"longitude":79.4192,"temp":22.5,"humidity":90,"rain":0.0,"pressure":993.4,"uv_index":8.95,"wind_gusts":42.5,"aqi":99,"pm10":39.7,"pm2_5":33.4,"mosquito_risk":3,"arthritis_risk":5,"migraine_risk":7,"frizz_risk":1,"updated_at":"2026-03-09T04:58:41.725532+05:30"},{"city":"Warangal","state":"Telangana","latitude":17.9689,"longitude":79.5941,"temp":22.3,"humidity":93,"rain":0.0,"pressure":980.3,"uv_index":8.4,"wind_gusts":29.2,"aqi":121,"pm10":33.5,"pm2_5":31.1,"mosquito_risk":3,"arthritis_risk":5,"migraine_risk":7,"frizz_risk":1,"updated_at":"2026-03-09T04:58:41.725539+05:30"},{"city":"Nizamabad","state":"Telangana","latitude":18.6725,"longitude":78.0941,"temp":19.4,"humidity":73,"rain":0.0,"pressure":965.1,"uv_index":8.25,"wind_gusts":33.5,"aqi":108,"pm10":75.0,"pm2_5":66.6,"mosquito_risk":3,"arthritis_risk":5,"migraine_risk":7,"frizz_risk":0,"updated_at":"2026-03-09T04:58:41.725545+05:30"},{"city":"Mysore","state":"Karnataka","latitude":12.2958,"longitude":76.6396,"temp":21.6,"humidity":95,"rain":0.0,"pressure":928.5,"uv_index":9.25,"wind_gusts":40.7,"aqi":124,"pm10":61.9,"pm2_5":56.5,"mosquito_risk":3,"arthritis_risk":5,"migraine_risk":7,"frizz_risk":1,"updated_at":"2026-03-09T04:58:41.725552+05:30"},{"city":"Mangalore","state":"Karnataka","latitude":12.9141,"longitude":74.856,"temp":28.5,"humidity":80,"rain":0.0,"pressure":1006.6,"uv_index":8.85,"wind_gusts":23.8,"aqi":118,"pm10":53.7,"pm2_5":49.5,"mosquito_risk":7,"arthritis_risk":5,"migraine_risk":4,"frizz_risk":1,"updated_at":"2026-03-09T04:58:41.725558+05:30"},{"city":"Hubli-Dharwad","state":"Karnataka","latitude":15.3647,"longitude":75.124,"temp":20.5,"humidity":96,"rain":0.0,"pressure":940.1,"uv_index":8.85,"wind_gusts":38.2,"aqi":90,"pm10":47.1,"pm2_5":42.8,"mosquito_risk":3,"arthritis_risk":5,"migraine_risk":7,"frizz_risk":1,"updated_at":"2026-03-09T04:58:41.725565+05:30"},{"city":"Belgaum","state":"Karnataka","latitude":15.8497,"longitude":74.4977,"temp":21.4,"humidity":82,"rain":0.0,"pressure":924.6,"uv_index":8.85,"wind_gusts":48.2,"aqi":117,"pm10":73.6,"pm2_5":70.1,"mosquito_risk":3,"arthritis_risk":5,"migraine_risk":7,"frizz_risk":1,"updated_at":"2026-03-09T04:58:44.994724+05:30"},{"city":"Coimbatore","state":"Tamil Nadu","latitude":11.0168,"longitude":76.9558,"temp":22.1,"humidity":83,"rain":0.0,"pressure":962.2,"uv_index":9.25,"wind_gusts":53.3,"aqi":119,"pm10":46.9,"pm2_5":42.6,"mosquito_risk":3,"arthritis_risk":5,"migraine_risk":7,"frizz_risk":1,"updated_at":"2026-03-09T04:58:44.994754+05:30"},{"city":"Madurai","state":"Tamil Nadu","latitude":9.9252,"longitude":78.1198,"temp":24.3,"humidity":87,"rain":0.0,"pressure":994.4,"uv_index":9.2,"wind_gusts":35.6,"aqi":98,"pm10":48.0,"pm2_5":40.9,"mosquito_risk":3,"arthritis_risk":5,"migraine_risk":7,"frizz_risk":1,"updated_at":"2026-03-09T04:58:44.994764+05:30"},{"city":"Trichy","state":"Tamil Nadu","latitude":10.7905,"longitude":78.7047,"temp":23.5,"humidity":95,"rain":0.0,"pressure":1001.5,"uv_index":9.1,"wind_gusts":31.3,"aqi":89,"pm10":27.4,"pm2_5":22.6,"mosquito_risk":3,"arthritis_risk":5,"migraine_risk":4,"frizz_risk":1,"updated_at":"2026-03-09T04:58:44.994772+05:30"},{"city":"Salem","state":"Tamil Nadu","latitude":11.6643,"longitude":78.146,"temp":23.4,"humidity":88,"rain":0.0,"pressure":978.6,"uv_index":9.15,"wind_gusts":33.1,"aqi":110,"pm10":50.8,"pm2_5":44.8,"mosquito_risk":3,"arthritis_risk":5,"migraine_risk":7,"frizz_risk":1,"updated_at":"2026-03-09T04:58:44.994779+05:30"},{"city":"Tirunelveli","state":"Tamil Nadu","latitude":8.7139,"longitude":77.7567,"temp":24.4,"humidity":92,"rain":0.0,"pressure":1004.3,"uv_index":9.2,"wind_gusts":34.9,"aqi":107,"pm10":54.7,"pm2_5":47.4,"mosquito_risk":3,"arthritis_risk":5,"migraine_risk":4,"frizz_risk":1,"updated_at":"2026-03-09T04:58:44.994786+05:30"},{"city":"Vellore","state":"Tamil Nadu","latitude":12.9165,"longitude":79.1325,"temp":22.2,"humidity":92,"rain":0.0,"pressure":986.4,"uv_index":9.05,"wind_gusts":38.5,"aqi":117,"pm10":55.1,"pm2_5":48.3,"mosquito_risk":3,"arthritis_risk":5,"migraine_risk":7,"frizz_risk":1,"updated_at":"2026-03-09T04:58:44.994793+05:30"},{"city":"Erode","state":"Tamil Nadu","latitude":11.341,"longitude":77.7172,"temp":24.6,"humidity":86,"rain":0.0,"pressure":990.5,"uv_index":9.15,"wind_gusts":27.4,"aqi":90,"pm10":25.9,"pm2_5":20.1,"mosquito_risk":3,"arthritis_risk":5,"migraine_risk":7,"frizz_risk":1,"updated_at":"2026-03-09T04:58:44.994800+05:30"},{"city":"Kochi","state":"Kerala","latitude":9.9312,"longitude":76.2673,"temp":26.7,"humidity":85,"rain":0.0,"pressure":1008.9,"uv_index":8.95,"wind_gusts":28.8,"aqi":143,"pm10":61.2,"pm2_5":58.3,"mosquito_risk":7,"arthritis_risk":0,"migraine_risk":4,"frizz_risk":1,"updated_at":"2026-03-09T04:58:44.994808+05:30"},{"city":"Thiruvananthapuram","state":"Kerala","latitude":8.5241,"longitude":76.9366,"temp":27.4,"humidity":82,"rain":0.0,"pressure":1008.1,"uv_index":9.1,"wind_gusts":26.3,"aqi":101,"pm10":46.8,"pm2_5":42.4,"mosquito_risk":7,"arthritis_risk":0,"migraine_risk":4,"frizz_risk":1,"updated_at":"2026-03-09T04:58:44.994815+05:30"},{"city":"Kozhikode","state":"Kerala","latitude":11.2588,"longitude":75.7804,"temp":26.8,"humidity":85,"rain":0.0,"pressure":1008.3,"uv_index":8.15,"wind_gusts":25.9,"aqi":102,"pm10":47.3,"pm2_5":43.5,"mosquito_risk":7,"arthritis_risk":0,"migraine_risk":4,"frizz_risk":1,"updated_at":"2026-03-09T04:58:44.994821+05:30"},{"city":"Thrissur","state":"Kerala","latitude":10.5276,"longitude":76.2144,"temp":25.3,"humidity":93,"rain":0.0,"pressure":1007.4,"uv_index":9.05,"wind_gusts":43.2,"aqi":129,"pm10":52.9,"pm2_5":50.3,"mosquito_risk":7,"arthritis_risk":5,"migraine_risk":4,"frizz_risk":1,"updated_at":"2026-03-09T04:58:44.994829+05:30"},{"city":"Kannur","state":"Kerala","latitude":11.8745,"longitude":75.3704,"temp":27.3,"humidity":86,"rain":0.0,"pressure":1007.2,"uv_index":8.95,"wind_gusts":27.7,"aqi":116,"pm10":52.4,"pm2_5":49.5,"mosquito_risk":7,"arthritis_risk":5,"migraine_risk":4,"frizz_risk":1,"updated_at":"2026-03-09T04:58:44.994836+05:30"},{"city":"Patna","state":"Bihar","latitude":25.5941,"longitude":85.1376,"temp":23.0,"humidity":89,"rain":0.0,"pressure":1003.9,"uv_index":7.4,"wind_gusts":29.5,"aqi":173,"pm10":114.6,"pm2_5":104.1,"mosquito_risk":3,"arthritis_risk":5,"migraine_risk":4,"frizz_risk":1,"updated_at":"2026-03-09T04:58:44.994842+05:30"},{"city":"Gaya","state":"Bihar","latitude":24.7914,"longitude":85.0002,"temp":21.8,"humidity":88,"rain":0.0,"pressure":996.9,"uv_index":7.5,"wind_gusts":26.6,"aqi":162,"pm10":82.9,"pm2_5":77.1,"mosquito_risk":3,"arthritis_risk":5,"migraine_risk":7,"frizz_risk":1,"updated_at":"2026-03-09T04:58:44.994849+05:30"},{"city":"Muzaffarpur","state":"Bihar","latitude":26.1209,"longitude":85.3647,"temp":22.0,"humidity":88,"rain":0.0,"pressure":1004.4,"uv_index":7.35,"wind_gusts":34.9,"aqi":176,"pm10":123.9,"pm2_5":112.7,"mosquito_risk":3,"arthritis_risk":5,"migraine_risk":4,"frizz_risk":1,"updated_at":"2026-03-09T04:58:44.994856+05:30"},{"city":"Bhagalpur","state":"Bihar","latitude":25.2425,"longitude":87.0117,"temp":22.3,"humidity":92,"rain":0.0,"pressure":1005.2,"uv_index":5.45,"wind_gusts":26.6,"aqi":162,"pm10":84.1,"pm2_5":73.8,"mosquito_risk":3,"arthritis_risk":5,"migraine_risk":0,"frizz_risk":1,"updated_at":"2026-03-09T04:58:44.994862+05:30"},{"city":"Ranchi","state":"Jharkhand","latitude":23.3441,"longitude":85.3096,"temp":20.9,"humidity":91,"rain":0.0,"pressure":940.3,"uv_index":8.15,"wind_gusts":29.2,"aqi":164,"pm10":92.7,"pm2_5":78.2,"mosquito_risk":3,"arthritis_risk":5,"migraine_risk":7,"frizz_risk":1,"updated_at":"2026-03-09T04:58:44.994869+05:30"},{"city":"Jamshedpur","state":"Jharkhand","latitude":22.8046,"longitude":86.2029,"temp":24.1,"humidity":94,"rain":0.0,"pressure":994.7,"uv_index":8.0,"wind_gusts":33.8,"aqi":158,"pm10":61.2,"pm2_5":54.9,"mosquito_risk":3,"arthritis_risk":5,"migraine_risk":7,"frizz_risk":1,"updated_at":"2026-03-09T04:58:44.994875+05:30"},{"city":"Dhanbad","state":"Jharkhand","latitude":23.7957,"longitude":86.4304,"temp":23.9,"humidity":86,"rain":0.0,"pressure":983.4,"uv_index":7.9,"wind_gusts":31.0,"aqi":169,"pm10":92.0,"pm2_5":87.1,"mosquito_risk":3,"arthritis_risk":5,"migraine_risk":7,"frizz_risk":1,"updated_at":"2026-03-09T04:58:44.994882+05:30"},{"city":"Bokaro","state":"Jharkhand","latitude":23.6693,"longitude":86.1511,"temp":23.3,"humidity":89,"rain":0.0,"pressure":987.5,"uv_index":7.9,"wind_gusts":41.4,"aqi":174,"pm10":118.7,"pm2_5":111.3,"mosquito_risk":3,"arthritis_risk":5,"migraine_risk":7,"frizz_risk":1,"updated_at":"2026-03-09T04:58:44.994888+05:30"},{"city":"Bhubaneswar","state":"Odisha","latitude":20.2961,"longitude":85.8245,"temp":24.8,"humidity":86,"rain":0.0,"pressure":1006.2,"uv_index":8.3,"wind_gusts":30.2,"aqi":100,"pm10":33.4,"pm2_5":28.6,"mosquito_risk":3,"arthritis_risk":5,"migraine_risk":4,"frizz_risk":1,"updated_at":"2026-03-09T04:58:44.994896+05:30"},{"city":"Cuttack","state":"Odisha","latitude":20.4625,"longitude":85.8828,"temp":24.9,"humidity":89,"rain":0.0,"pressure":1008.2,"uv_index":8.35,"wind_gusts":28.1,"aqi":100,"pm10":33.4,"pm2_5":28.6,"mosquito_risk":3,"arthritis_risk":0,"migraine_risk":4,"frizz_risk":1,"updated_at":"2026-03-09T04:58:44.994902+05:30"},{"city":"Rourkela","state":"Odisha","latitude":22.2604,"longitude":84.8536,"temp":24.4,"humidity":82,"rain":0.0,"pressure":988.2,"uv_index":7.9,"wind_gusts":22.7,"aqi":167,"pm10":96.4,"pm2_5":82.2,"mosquito_risk":3,"arthritis_risk":5,"migraine_risk":7,"frizz_risk":1,"updated_at":"2026-03-09T04:58:44.994909+05:30"},{"city":"Raipur","state":"Chhattisgarh","latitude":21.2514,"longitude":81.6296,"temp":23.4,"humidity":63,"rain":0.0,"pressure":976.4,"uv_index":8.0,"wind_gusts":24.8,"aqi":161,"pm10":73.8,"pm2_5":65.7,"mosquito_risk":3,"arthritis_risk":5,"migraine_risk":7,"frizz_risk":0,"updated_at":"2026-03-09T04:58:44.994915+05:30"},{"city":"Bhilai","state":"Chhattisgarh","latitude":21.1938,"longitude":81.3509,"temp":22.7,"humidity":65,"rain":0.0,"pressure":976.8,"uv_index":8.0,"wind_gusts":25.2,"aqi":156,"pm10":60.3,"pm2_5":50.5,"mosquito_risk":3,"arthritis_risk":5,"migraine_risk":7,"frizz_risk":0,"updated_at":"2026-03-09T04:58:44.994921+05:30"},{"city":"Guwahati","state":"Assam","latitude":26.1158,"longitude":91.7086,"temp":24.3,"humidity":73,"rain":0.0,"pressure":1005.8,"uv_index":7.25,"wind_gusts":16.6,"aqi":153,"pm10":68.0,"pm2_5":58.0,"mosquito_risk":3,"arthritis_risk":5,"migraine_risk":4,"frizz_risk":1,"updated_at":"2026-03-09T04:58:44.994927+05:30"},{"city":"Agartala","state":"Tripura","latitude":23.8315,"longitude":91.2868,"temp":19.9,"humidity":95,"rain":0.0,"pressure":1010.9,"uv_index":7.7,"wind_gusts":13.3,"aqi":159,"pm10":78.9,"pm2_5":71.0,"mosquito_risk":3,"arthritis_risk":5,"migraine_risk":4,"frizz_risk":1,"updated_at":"2026-03-09T04:58:44.994934+05:30"},{"city":"Shillong","state":"Meghalaya","latitude":25.5788,"longitude":91.8933,"temp":11.2,"humidity":87,"rain":0.0,"pressure":857.5,"uv_index":5.65,"wind_gusts":26.3,"aqi":131,"pm10":63.8,"pm2_5":55.3,"mosquito_risk":3,"arthritis_risk":10,"migraine_risk":3,"frizz_risk":0,"updated_at":"2026-03-09T04:58:44.994940+05:30"},{"city":"Imphal","state":"Manipur","latitude":24.817,"longitude":93.9368,"temp":16.5,"humidity":92,"rain":0.0,"pressure":926.8,"uv_index":7.95,"wind_gusts":23.0,"aqi":159,"pm10":100.8,"pm2_5":95.2,"mosquito_risk":3,"arthritis_risk":10,"migraine_risk":7,"frizz_risk":0,"updated_at":"2026-03-09T04:58:44.994946+05:30"},{"city":"Aizawl","state":"Mizoram","latitude":23.7271,"longitude":92.7176,"temp":15.4,"humidity":84,"rain":0.0,"pressure":894.9,"uv_index":7.85,"wind_gusts":26.3,"aqi":159,"pm10":112.7,"pm2_5":99.2,"mosquito_risk":3,"arthritis_risk":10,"migraine_risk":7,"frizz_risk":0,"updated_at":"2026-03-09T04:58:44.994952+05:30"},{"city":"Kohima","state":"Nagaland","latitude":25.6701,"longitude":94.1077,"temp":13.7,"humidity":85,"rain":0.0,"pressure":857.4,"uv_index":6.9,"wind_gusts":52.9,"aqi":156,"pm10":60.1,"pm2_5":56.3,"mosquito_risk":3,"arthritis_risk":10,"migraine_risk":7,"frizz_risk":0,"updated_at":"2026-03-09T04:58:44.994958+05:30"},{"city":"Gangtok","state":"Sikkim","latitude":27.3314,"longitude":88.6138,"temp":13.4,"humidity":74,"rain":0.0,"pressure":839.0,"uv_index":3.1,"wind_gusts":18.0,"aqi":153,"pm10":87.5,"pm2_5":66.1,"mosquito_risk":3,"arthritis_risk":5,"migraine_risk":3,"frizz_risk":0,"updated_at":"2026-03-09T04:58:44.994964+05:30"},{"city":"Siliguri","state":"West Bengal","latitude":26.7271,"longitude":88.3953,"temp":20.7,"humidity":63,"rain":0.0,"pressure":998.4,"uv_index":7.35,"wind_gusts":18.4,"aqi":155,"pm10":99.2,"pm2_5":73.3,"mosquito_risk":3,"arthritis_risk":5,"migraine_risk":7,"frizz_risk":0,"updated_at":"2026-03-09T04:58:48.271511+05:30"},{"city":"Durgapur","state":"West Bengal","latitude":23.5204,"longitude":87.3119,"temp":23.7,"humidity":93,"rain":0.0,"pressure":999.3,"uv_index":7.55,"wind_gusts":24.5,"aqi":160,"pm10":71.7,"pm2_5":67.5,"mosquito_risk":3,"arthritis_risk":5,"migraine_risk":7,"frizz_risk":1,"updated_at":"2026-03-09T04:58:48.271562+05:30"},{"city":"Asansol","state":"West Bengal","latitude":23.6739,"longitude":86.9524,"temp":24.0,"humidity":90,"rain":0.0,"pressure":997.7,"uv_index":7.55,"wind_gusts":23.4,"aqi":160,"pm10":69.4,"pm2_5":65.2,"mosquito_risk":3,"arthritis_risk":5,"migraine_risk":7,"frizz_risk":1,"updated_at":"2026-03-09T04:58:48.271572+05:30"},{"city":"Pondicherry","state":"Puducherry","latitude":11.9139,"longitude":79.8145,"temp":24.1,"humidity":92,"rain":0.0,"pressure":1010.0,"uv_index":8.95,"wind_gusts":33.8,"aqi":68,"pm10":37.8,"pm2_5":27.6,"mosquito_risk":3,"arthritis_risk":0,"migraine_risk":4,"frizz_risk":1,"updated_at":"2026-03-09T04:58:48.271581+05:30"},{"city":"Port Blair","state":"Andaman and Nicobar Islands","latitude":11.6234,"longitude":92.7265,"temp":26.7,"humidity":83,"rain":0.0,"pressure":1008.5,"uv_index":8.9,"wind_gusts":28.4,"aqi":85,"pm10":33.6,"pm2_5":27.0,"mosquito_risk":7,"arthritis_risk":0,"migraine_risk":4,"frizz_risk":1,"updated_at":"2026-03-09T04:58:48.271589+05:30"},{"city":"Haridwar","state":"Uttarakhand","latitude":29.9457,"longitude":78.1642,"temp":19.2,"humidity":91,"rain":0.0,"pressure":975.6,"uv_index":5.8,"wind_gusts":27.0,"aqi":159,"pm10":91.5,"pm2_5":78.2,"mosquito_risk":3,"arthritis_risk":10,"migraine_risk":3,"frizz_risk":1,"updated_at":"2026-03-09T04:58:48.271598+05:30"},{"city":"Rishikesh","state":"Uttarakhand","latitude":30.0869,"longitude":78.2676,"temp":19.7,"humidity":81,"rain":0.0,"pressure":968.4,"uv_index":5.85,"wind_gusts":27.0,"aqi":156,"pm10":69.6,"pm2_5":60.3,"mosquito_risk":3,"arthritis_risk":10,"migraine_risk":3,"frizz_risk":1,"updated_at":"2026-03-09T04:58:48.271606+05:30"},{"city":"Nainital","state":"Uttarakhand","latitude":29.3919,"longitude":79.4542,"temp":16.7,"humidity":79,"rain":0.0,"pressure":806.5,"uv_index":6.7,"wind_gusts":51.8,"aqi":159,"pm10":90.1,"pm2_5":71.5,"mosquito_risk":3,"arthritis_risk":5,"migraine_risk":7,"frizz_risk":0,"updated_at":"2026-03-09T04:58:48.271613+05:30"},{"city":"Mussoorie","state":"Uttarakhand","latitude":30.4599,"longitude":78.0664,"temp":16.3,"humidity":46,"rain":0.0,"pressure":803.3,"uv_index":6.2,"wind_gusts":34.6,"aqi":153,"pm10":51.3,"pm2_5":44.1,"mosquito_risk":0,"arthritis_risk":5,"migraine_risk":7,"frizz_risk":0,"updated_at":"2026-03-09T04:58:48.271620+05:30"},{"city":"Dharamshala","state":"Himachal Pradesh","latitude":32.219,"longitude":76.3234,"temp":20.8,"humidity":28,"rain":0.0,"pressure":871.3,"uv_index":6.25,"wind_gusts":26.3,"aqi":54,"pm10":15.5,"pm2_5":6.2,"mosquito_risk":0,"arthritis_risk":5,"migraine_risk":7,"frizz_risk":0,"updated_at":"2026-03-09T04:58:48.271627+05:30"},{"city":"Dalhousie","state":"Himachal Pradesh","latitude":32.5387,"longitude":75.971,"temp":17.3,"humidity":31,"rain":0.0,"pressure":805.8,"uv_index":6.65,"wind_gusts":22.7,"aqi":83,"pm10":29.4,"pm2_5":22.8,"mosquito_risk":0,"arthritis_risk":5,"migraine_risk":7,"frizz_risk":0,"updated_at":"2026-03-09T04:58:48.271636+05:30"},{"city":"Patiala","state":"Punjab","latitude":30.3398,"longitude":76.3869,"temp":19.7,"humidity":85,"rain":0.0,"pressure":980.2,"uv_index":5.65,"wind_gusts":23.4,"aqi":164,"pm10":330.6,"pm2_5":82.0,"mosquito_risk":3,"arthritis_risk":10,"migraine_risk":3,"frizz_risk":1,"updated_at":"2026-03-09T04:58:48.271643+05:30"},{"city":"Bhatinda","state":"Punjab","latitude":30.211,"longitude":74.9455,"temp":20.2,"humidity":86,"rain":0.0,"pressure":986.3,"uv_index":5.95,"wind_gusts":20.2,"aqi":152,"pm10":93.1,"pm2_5":69.8,"mosquito_risk":3,"arthritis_risk":5,"migraine_risk":3,"frizz_risk":1,"updated_at":"2026-03-09T04:58:48.271650+05:30"},{"city":"Rohtak","state":"Haryana","latitude":28.8955,"longitude":76.6066,"temp":18.3,"humidity":90,"rain":0.0,"pressure":984.0,"uv_index":6.05,"wind_gusts":26.6,"aqi":176,"pm10":230.5,"pm2_5":72.6,"mosquito_risk":3,"arthritis_risk":10,"migraine_risk":7,"frizz_risk":1,"updated_at":"2026-03-09T04:58:48.271657+05:30"},{"city":"Panipat","state":"Haryana","latitude":29.3909,"longitude":76.9635,"temp":19.3,"humidity":92,"rain":0.0,"pressure":982.2,"uv_index":5.8,"wind_gusts":26.6,"aqi":421,"pm10":687.3,"pm2_5":114.1,"mosquito_risk":3,"arthritis_risk":10,"migraine_risk":3,"frizz_risk":1,"updated_at":"2026-03-09T04:58:48.271663+05:30"},{"city":"Mathura","state":"Uttar Pradesh","latitude":27.4924,"longitude":77.6737,"temp":19.1,"humidity":76,"rain":0.0,"pressure":988.9,"uv_index":6.25,"wind_gusts":24.5,"aqi":172,"pm10":325.0,"pm2_5":76.8,"mosquito_risk":3,"arthritis_risk":5,"migraine_risk":7,"frizz_risk":0,"updated_at":"2026-03-09T04:58:48.271669+05:30"},{"city":"Vrindavan","state":"Uttar Pradesh","latitude":27.5823,"longitude":77.7027,"temp":18.8,"humidity":76,"rain":0.0,"pressure":989.4,"uv_index":6.2,"wind_gusts":25.9,"aqi":172,"pm10":325.0,"pm2_5":76.8,"mosquito_risk":3,"arthritis_risk":5,"migraine_risk":7,"frizz_risk":0,"updated_at":"2026-03-09T04:58:48.271676+05:30"},{"city":"Ayodhya","state":"Uttar Pradesh","latitude":26.7922,"longitude":82.1998,"temp":20.6,"humidity":94,"rain":0.0,"pressure":998.0,"uv_index":6.7,"wind_gusts":20.9,"aqi":191,"pm10":198.4,"pm2_5":169.0,"mosquito_risk":3,"arthritis_risk":5,"migraine_risk":7,"frizz_risk":1,"updated_at":"2026-03-09T04:58:48.271682+05:30"},{"city":"Ratlam","state":"Madhya Pradesh","latitude":23.3315,"longitude":75.0367,"temp":18.9,"humidity":78,"rain":0.0,"pressure":955.8,"uv_index":7.5,"wind_gusts":10.4,"aqi":84,"pm10":37.0,"pm2_5":36.3,"mosquito_risk":3,"arthritis_risk":5,"migraine_risk":7,"frizz_risk":0,"updated_at":"2026-03-09T04:58:48.271689+05:30"},{"city":"Sagar","state":"Madhya Pradesh","latitude":23.8388,"longitude":78.7378,"temp":18.4,"humidity":66,"rain":0.0,"pressure":952.0,"uv_index":7.5,"wind_gusts":20.5,"aqi":76,"pm10":44.7,"pm2_5":25.2,"mosquito_risk":3,"arthritis_risk":5,"migraine_risk":7,"frizz_risk":0,"updated_at":"2026-03-09T04:58:48.271695+05:30"},{"city":"Satna","state":"Madhya Pradesh","latitude":24.6005,"longitude":80.8322,"temp":19.2,"humidity":79,"rain":0.0,"pressure":973.8,"uv_index":7.45,"wind_gusts":26.3,"aqi":154,"pm10":99.4,"pm2_5":67.1,"mosquito_risk":3,"arthritis_risk":5,"migraine_risk":7,"frizz_risk":0,"updated_at":"2026-03-09T04:58:48.271701+05:30"},{"city":"Akola","state":"Maharashtra","latitude":20.7002,"longitude":77.0082,"temp":22.5,"humidity":48,"rain":0.0,"pressure":976.6,"uv_index":7.95,"wind_gusts":19.8,"aqi":70,"pm10":27.6,"pm2_5":20.9,"mosquito_risk":0,"arthritis_risk":5,"migraine_risk":7,"frizz_risk":0,"updated_at":"2026-03-09T04:58:48.271708+05:30"},{"city":"Amravati","state":"Maharashtra","latitude":20.9374,"longitude":77.7796,"temp":19.2,"humidity":61,"rain":0.0,"pressure":968.3,"uv_index":7.9,"wind_gusts":27.0,"aqi":64,"pm10":26.9,"pm2_5":19.0,"mosquito_risk":3,"arthritis_risk":5,"migraine_risk":7,"frizz_risk":0,"updated_at":"2026-03-09T04:58:48.271715+05:30"},{"city":"Latur","state":"Maharashtra","latitude":18.4088,"longitude":76.5604,"temp":20.9,"humidity":55,"rain":0.0,"pressure":939.9,"uv_index":8.4,"wind_gusts":30.6,"aqi":92,"pm10":58.3,"pm2_5":49.1,"mosquito_risk":0,"arthritis_risk":5,"migraine_risk":7,"frizz_risk":0,"updated_at":"2026-03-09T04:58:48.271722+05:30"},{"city":"Nanded","state":"Maharashtra","latitude":19.1383,"longitude":77.3091,"temp":21.4,"humidity":56,"rain":0.0,"pressure":969.3,"uv_index":8.15,"wind_gusts":29.5,"aqi":81,"pm10":34.2,"pm2_5":30.2,"mosquito_risk":0,"arthritis_risk":5,"migraine_risk":7,"frizz_risk":0,"updated_at":"2026-03-09T04:58:48.271728+05:30"},{"city":"Gulbarga","state":"Karnataka","latitude":17.3297,"longitude":76.8343,"temp":23.2,"humidity":56,"rain":0.0,"pressure":959.2,"uv_index":8.5,"wind_gusts":32.8,"aqi":81,"pm10":39.6,"pm2_5":31.5,"mosquito_risk":0,"arthritis_risk":5,"migraine_risk":7,"frizz_risk":0,"updated_at":"2026-03-09T04:58:48.271734+05:30"},{"city":"Bidar","state":"Karnataka","latitude":17.9104,"longitude":77.5199,"temp":21.9,"humidity":61,"rain":0.0,"pressure":935.4,"uv_index":8.45,"wind_gusts":32.8,"aqi":101,"pm10":61.0,"pm2_5":50.2,"mosquito_risk":3,"arthritis_risk":5,"migraine_risk":7,"frizz_risk":0,"updated_at":"2026-03-09T04:58:48.271740+05:30"},{"city":"Hospet","state":"Karnataka","latitude":15.2689,"longitude":76.3909,"temp":25.3,"humidity":53,"rain":0.0,"pressure":956.2,"uv_index":8.8,"wind_gusts":39.6,"aqi":90,"pm10":32.8,"pm2_5":29.2,"mosquito_risk":4,"arthritis_risk":5,"migraine_risk":7,"frizz_risk":0,"updated_at":"2026-03-09T04:58:48.271746+05:30"},{"city":"Tirupur","state":"Tamil Nadu","latitude":11.1085,"longitude":77.3411,"temp":24.5,"humidity":84,"rain":0.0,"pressure":976.4,"uv_index":9.25,"wind_gusts":36.4,"aqi":113,"pm10":34.3,"pm2_5":28.2,"mosquito_risk":3,"arthritis_risk":5,"migraine_risk":7,"frizz_risk":1,"updated_at":"2026-03-09T04:58:48.271753+05:30"},{"city":"Alappuzha","state":"Kerala","latitude":9.4981,"longitude":76.3388,"temp":25.7,"humidity":81,"rain":0.0,"pressure":1009.3,"uv_index":8.95,"wind_gusts":23.4,"aqi":133,"pm10":45.3,"pm2_5":42.4,"mosquito_risk":7,"arthritis_risk":0,"migraine_risk":4,"frizz_risk":1,"updated_at":"2026-03-09T04:58:48.271759+05:30"},{"city":"Munnar","state":"Kerala","latitude":10.0889,"longitude":77.0595,"temp":16.4,"humidity":82,"rain":0.0,"pressure":854.8,"uv_index":9.55,"wind_gusts":19.4,"aqi":106,"pm10":41.6,"pm2_5":35.3,"mosquito_risk":3,"arthritis_risk":10,"migraine_risk":7,"frizz_risk":0,"updated_at":"2026-03-09T04:58:48.271766+05:30"},{"city":"Silchar","state":"Assam","latitude":24.8333,"longitude":92.7789,"temp":21.8,"humidity":89,"rain":0.0,"pressure":1009.6,"uv_index":7.65,"wind_gusts":15.8,"aqi":165,"pm10":113.9,"pm2_5":101.5,"mosquito_risk":3,"arthritis_risk":0,"migraine_risk":4,"frizz_risk":1,"updated_at":"2026-03-09T04:58:48.271772+05:30"},{"city":"Dibrugarh","state":"Assam","latitude":27.4728,"longitude":94.912,"temp":22.4,"humidity":81,"rain":0.0,"pressure":1000.4,"uv_index":7.4,"wind_gusts":17.6,"aqi":158,"pm10":72.6,"pm2_5":65.2,"mosquito_risk":3,"arthritis_risk":5,"migraine_risk":4,"frizz_risk":1,"updated_at":"2026-03-09T04:58:48.271778+05:30"}]