[{"city":"Delhi","state":"Delhi","latitude":28.6139,"longitude":77.209,"temp":28.6,"humidity":86,"rain":0.0,"pressure":974.9,"uv_index":7.55,"wind_gusts":23.0,"aqi":179,"pm10":95.7,"pm2_5":90.1,"no2":66.8,"co":1056.0,"o3":75.0,"so2":48.6,"mosquito_risk":7,"arthritis_risk":5,"migraine_risk":7,"frizz_risk":1,"updated_at":"2026-07-07T22:48:24.285996+05:30"},{"city":"Mumbai","state":"Maharashtra","latitude":19.076,"longitude":72.8777,"temp":26.3,"humidity":93,"rain":0.5,"pressure":1002.4,"uv_index":0.75,"wind_gusts":62.6,"aqi":54,"pm10":20.4,"pm2_5":10.8,"no2":6.2,"co":229.0,"o3":65.0,"so2":4.2,"mosquito_risk":10,"arthritis_risk":5,"migraine_risk":0,"frizz_risk":1,"updated_at":"2026-07-07T22:48:24.286037+05:30"},{"city":"Bangalore","state":"Karnataka","latitude":12.9716,"longitude":77.5946,"temp":21.9,"humidity":79,"rain":0.0,"pressure":911.9,"uv_index":8.15,"wind_gusts":70.2,"aqi":28,"pm10":9.4,"pm2_5":6.2,"no2":9.3,"co":246.0,"o3":42.0,"so2":3.3,"mosquito_risk":3,"arthritis_risk":5,"migraine_risk":7,"frizz_risk":1,"updated_at":"2026-07-07T22:48:24.286052+05:30"},{"city":"Hyderabad","state":"Telangana","latitude":17.385,"longitude":78.4867,"temp":26.1,"humidity":74,"rain":0.0,"pressure":949.6,"uv_index":7.05,"wind_gusts":62.3,"aqi":32,"pm10":5.5,"pm2_5":4.1,"no2":6.7,"co":180.0,"o3":48.0,"so2":4.2,"mosquito_risk":7,"arthritis_risk":5,"migraine_risk":7,"frizz_risk":1,"updated_at":"2026-07-07T22:48:24.286062+05:30"},{"city":"Chennai","state":"Tamil Nadu","latitude":13.0827,"longitude":80.2707,"temp":33.8,"humidity":41,"rain":0.0,"pressure":1005.7,"uv_index":8.6,"wind_gusts":58.3,"aqi":60,"pm10":25.9,"pm2_5":17.9,"no2":14.9,"co":268.0,"o3":60.0,"so2":7.9,"mosquito_risk":0,"arthritis_risk":5,"migraine_risk":4,"frizz_risk":1,"updated_at":"2026-07-07T22:48:24.286070+05:30"},{"city":"Kolkata","state":"West Bengal","latitude":22.5726,"longitude":88.3639,"temp":28.5,"humidity":84,"rain":0.0,"pressure":1001.8,"uv_index":7.9,"wind_gusts":45.4,"aqi":62,"pm10":22.2,"pm2_5":17.1,"no2":6.6,"co":202.0,"o3":67.0,"so2":6.2,"mosquito_risk":7,"arthritis_risk":5,"migraine_risk":4,"frizz_risk":1,"updated_at":"2026-07-07T22:48:24.286077+05:30"},{"city":"Pune","state":"Maharashtra","latitude":18.5204,"longitude":73.8567,"temp":23.3,"humidity":91,"rain":0.1,"pressure":942.5,"uv_index":1.3,"wind_gusts":63.4,"aqi":23,"pm10":3.4,"pm2_5":2.5,"no2":6.2,"co":140.0,"o3":50.0,"so2":4.3,"mosquito_risk":6,"arthritis_risk":5,"migraine_risk":3,"frizz_risk":1,"updated_at":"2026-07-07T22:48:24.286084+05:30"},{"city":"Ahmedabad","state":"Gujarat","latitude":23.0225,"longitude":72.5714,"temp":27.6,"humidity":93,"rain":0.0,"pressure":994.2,"uv_index":2.6,"wind_gusts":39.2,"aqi":94,"pm10":34.3,"pm2_5":26.3,"no2":15.2,"co":266.0,"o3":56.0,"so2":7.3,"mosquito_risk":7,"arthritis_risk":5,"migraine_risk":3,"frizz_risk":1,"updated_at":"2026-07-07T22:48:24.286091+05:30"},{"city":"Jaipur","state":"Rajasthan","latitude":26.9124,"longitude":75.7873,"temp":29.2,"humidity":79,"rain":0.0,"pressure":951.6,"uv_index":8.2,"wind_gusts":26.6,"aqi":68,"pm10":35.6,"pm2_5":31.2,"no2":30.9,"co":721.0,"o3":52.0,"so2":9.8,"mosquito_risk":7,"arthritis_risk":5,"migraine_risk":7,"frizz_risk":1,"updated_at":"2026-07-07T22:48:24.286098+05:30"},{"city":"Lucknow","state":"Uttar Pradesh","latitude":26.8467,"longitude":80.9462,"temp":26.5,"humidity":96,"rain":0.1,"pressure":985.0,"uv_index":5.25,"wind_gusts":48.6,"aqi":56,"pm10":24.0,"pm2_5":24.0,"no2":13.3,"co":348.0,"o3":82.0,"so2":10.2,"mosquito_risk":10,"arthritis_risk":5,"migraine_risk":3,"frizz_risk":1,"updated_at":"2026-07-07T22:48:24.286108+05:30"},{"city":"Kanpur","state":"Uttar Pradesh","latitude":26.4499,"longitude":80.3319,"temp":26.4,"humidity":95,"rain":0.0,"pressure":982.6,"uv_index":4.6,"wind_gusts":53.3,"aqi":58,"pm10":20.3,"pm2_5":20.3,"no2":13.1,"co":305.0,"o3":78.0,"so2":7.4,"mosquito_risk":7,"arthritis_risk":5,"migraine_risk":3,"frizz_risk":1,"updated_at":"2026-07-07T22:48:24.286116+05:30"},{"city":"Chandigarh","state":"Chandigarh","latitude":30.7333,"longitude":76.7794,"temp":28.0,"humidity":84,"rain":0.0,"pressure":961.3,"uv_index":7.1,"wind_gusts":26.3,"aqi":145,"pm10":75.4,"pm2_5":72.4,"no2":42.8,"co":1007.0,"o3":74.0,"so2":13.5,"mosquito_risk":7,"arthritis_risk":5,"migraine_risk":7,"frizz_risk":1,"updated_at":"2026-07-07T22:48:24.286123+05:30"},{"city":"Srinagar","state":"Jammu and Kashmir","latitude":34.0837,"longitude":74.7973,"temp":22.4,"humidity":72,"rain":0.0,"pressure":837.0,"uv_index":9.1,"wind_gusts":22.7,"aqi":71,"pm10":53.3,"pm2_5":46.7,"no2":33.7,"co":1028.0,"o3":40.0,"so2":3.1,"mosquito_risk":3,"arthritis_risk":5,"migraine_risk":7,"frizz_risk":1,"updated_at":"2026-07-07T22:48:24.286132+05:30"},{"city":"Jammu","state":"Jammu and Kashmir","latitude":32.7266,"longitude":74.857,"temp":29.8,"humidity":67,"rain":0.0,"pressure":963.4,"uv_index":8.65,"wind_gusts":54.0,"aqi":116,"pm10":64.3,"pm2_5":59.8,"no2":62.3,"co":630.0,"o3":49.0,"so2":9.4,"mosquito_risk":7,"arthritis_risk":5,"migraine_risk":7,"frizz_risk":1,"updated_at":"2026-07-07T22:48:24.286138+05:30"},{"city":"Amritsar","state":"Punjab","latitude":31.634,"longitude":74.8723,"temp":30.3,"humidity":78,"rain":0.0,"pressure":971.1,"uv_index":8.4,"wind_gusts":37.8,"aqi":156,"pm10":100.1,"pm2_5":84.5,"no2":37.6,"co":769.0,"o3":58.0,"so2":8.6,"mosquito_risk":3,"arthritis_risk":5,"migraine_risk":7,"frizz_risk":1,"updated_at":"2026-07-07T22:48:24.286144+05:30"},{"city":"Ludhiana","state":"Punjab","latitude":30.901,"longitude":75.8573,"temp":29.6,"humidity":84,"rain":0.0,"pressure":969.7,"uv_index":7.2,"wind_gusts":34.2,"aqi":157,"pm10":68.0,"pm2_5":56.2,"no2":27.0,"co":1061.0,"o3":81.0,"so2":10.4,"mosquito_risk":7,"arthritis_risk":5,"migraine_risk":7,"frizz_risk":1,"updated_at":"2026-07-07T22:48:24.286150+05:30"},{"city":"Jalandhar","state":"Punjab","latitude":31.326,"longitude":75.5762,"temp":29.6,"humidity":79,"rain":0.0,"pressure":970.5,"uv_index":7.7,"wind_gusts":35.3,"aqi":159,"pm10":135.0,"pm2_5":100.4,"no2":46.3,"co":1022.0,"o3":65.0,"so2":10.3,"mosquito_risk":7,"arthritis_risk":5,"migraine_risk":7,"frizz_risk":1,"updated_at":"2026-07-07T22:48:24.286156+05:30"},{"city":"Dehradun","state":"Uttarakhand","latitude":30.6284,"longitude":78.0322,"temp":20.2,"humidity":97,"rain":0.2,"pressure":826.1,"uv_index":7.55,"wind_gusts":33.8,"aqi":85,"pm10":21.5,"pm2_5":21.1,"no2":16.3,"co":271.0,"o3":96.0,"so2":3.8,"mosquito_risk":6,"arthritis_risk":5,"migraine_risk":7,"frizz_risk":1,"updated_at":"2026-07-07T22:48:24.286162+05:30"},{"city":"Shimla","state":"Himachal Pradesh","latitude":31.1048,"longitude":77.1734,"temp":16.5,"humidity":93,"rain":0.0,"pressure":780.2,"uv_index":5.7,"wind_gusts":32.8,"aqi":102,"pm10":50.9,"pm2_5":48.2,"no2":27.3,"co":390.0,"o3":69.0,"so2":2.6,"mosquito_risk":3,"arthritis_risk":10,"migraine_risk":3,"frizz_risk":0,"updated_at":"2026-07-07T22:48:24.286168+05:30"},{"city":"Manali","state":"Himachal Pradesh","latitude":32.2396,"longitude":77.1887,"temp":20.0,"humidity":89,"rain":0.1,"pressure":815.3,"uv_index":9.55,"wind_gusts":32.8,"aqi":47,"pm10":14.7,"pm2_5":14.3,"no2":48.6,"co":297.0,"o3":72.0,"so2":0.0,"mosquito_risk":6,"arthritis_risk":5,"migraine_risk":7,"frizz_risk":1,"updated_at":"2026-07-07T22:48:24.286177+05:30"},{"city":"Gurgaon","state":"Haryana","latitude":28.4595,"longitude":77.0266,"temp":28.9,"humidity":83,"rain":0.0,"pressure":973.3,"uv_index":7.75,"wind_gusts":26.3,"aqi":140,"pm10":102.9,"pm2_5":76.8,"no2":68.4,"co":851.0,"o3":72.0,"so2":45.4,"mosquito_risk":7,"arthritis_risk":5,"migraine_risk":7,"frizz_risk":1,"updated_at":"2026-07-07T22:48:24.286185+05:30"},{"city":"Noida","state":"Uttar Pradesh","latitude":28.5355,"longitude":77.391,"temp":28.5,"humidity":86,"rain":0.0,"pressure":976.6,"uv_index":7.05,"wind_gusts":28.4,"aqi":140,"pm10":102.9,"pm2_5":76.8,"no2":68.4,"co":571.0,"o3":72.0,"so2":45.4,"mosquito_risk":7,"arthritis_risk":5,"migraine_risk":7,"frizz_risk":1,"updated_at":"2026-07-07T22:48:24.286191+05:30"},{"city":"Ghaziabad","state":"Uttar Pradesh","latitude":28.6692,"longitude":77.4538,"temp":28.0,"humidity":90,"rain":0.0,"pressure":974.8,"uv_index":7.05,"wind_gusts":26.6,"aqi":145,"pm10":69.6,"pm2_5":60.3,"no2":32.5,"co":345.0,"o3":73.0,"so2":15.1,"mosquito_risk":7,"arthritis_risk":5,"migraine_risk":7,"frizz_risk":1,"updated_at":"2026-07-07T22:48:24.286197+05:30"},{"city":"Faridabad","state":"Haryana","latitude":28.4089,"longitude":77.3178,"temp":28.8,"humidity":84,"rain":0.0,"pressure":975.8,"uv_index":6.55,"wind_gusts":29.2,"aqi":140,"pm10":102.9,"pm2_5":76.8,"no2":68.4,"co":454.0,"o3":72.0,"so2":45.4,"mosquito_risk":7,"arthritis_risk":5,"migraine_risk":7,"frizz_risk":1,"updated_at":"2026-07-07T22:48:24.286202+05:30"},{"city":"Meerut","state":"Uttar Pradesh","latitude":28.9845,"longitude":77.7064,"temp":27.2,"humidity":92,"rain":0.0,"pressure":973.7,"uv_index":6.8,"wind_gusts":26.3,"aqi":145,"pm10":69.6,"pm2_5":60.3,"no2":32.5,"co":455.0,"o3":73.0,"so2":15.1,"mosquito_risk":7,"arthritis_risk":5,"migraine_risk":7,"frizz_risk":1,"updated_at":"2026-07-07T22:48:24.286208+05:30"},{"city":"Agra","state":"Uttar Pradesh","latitude":27.1767,"longitude":78.0081,"temp":29.2,"humidity":83,"rain":0.0,"pressure":979.3,"uv_index":3.7,"wind_gusts":26.6,"aqi":120,"pm10":23.2,"pm2_5":23.0,"no2":15.5,"co":352.0,"o3":93.0,"so2":9.1,"mosquito_risk":7,"arthritis_risk":5,"migraine_risk":3,"frizz_risk":1,"updated_at":"2026-07-07T22:48:24.286215+05:30"},{"city":"Varanasi","state":"Uttar Pradesh","latitude":25.3176,"longitude":82.9739,"temp":28.7,"humidity":83,"rain":0.0,"pressure":990.0,"uv_index":6.7,"wind_gusts":36.0,"aqi":60,"pm10":31.5,"pm2_5":31.2,"no2":19.1,"co":416.0,"o3":72.0,"so2":18.1,"mosquito_risk":7,"arthritis_risk":5,"migraine_risk":7,"frizz_risk":1,"updated_at":"2026-07-07T22:48:24.286221+05:30"},{"city":"Prayagraj","state":"Uttar Pradesh","latitude":25.4358,"longitude":81.8463,"temp":27.0,"humidity":95,"rain":0.0,"pressure":987.7,"uv_index":3.55,"wind_gusts":35.3,"aqi":57,"pm10":23.5,"pm2_5":23.2,"no2":17.4,"co":322.0,"o3":76.0,"so2":12.6,"mosquito_risk":7,"arthritis_risk":5,"migraine_risk":3,"frizz_risk":1,"updated_at":"2026-07-07T22:48:24.286227+05:30"},{"city":"Gorakhpur","state":"Uttar Pradesh","latitude":26.7606,"longitude":83.3732,"temp":26.5,"humidity":96,"rain":0.4,"pressure":991.6,"uv_index":7.25,"wind_gusts":49.0,"aqi":70,"pm10":19.6,"pm2_5":19.5,"no2":11.1,"co":283.0,"o3":95.0,"so2":7.0,"mosquito_risk":10,"arthritis_risk":5,"migraine_risk":7,"frizz_risk":1,"updated_at":"2026-07-07T22:48:24.286234+05:30"},{"city":"Bareilly","state":"Uttar Pradesh","latitude":28.367,"longitude":79.4304,"temp":28.1,"humidity":92,"rain":0.0,"pressure":979.4,"uv_index":7.0,"wind_gusts":28.8,"aqi":115,"pm10":18.0,"pm2_5":17.9,"no2":14.7,"co":359.0,"o3":72.0,"so2":6.9,"mosquito_risk":7,"arthritis_risk":5,"migraine_risk":7,"frizz_risk":1,"updated_at":"2026-07-07T22:48:24.286242+05:30"},{"city":"Aligarh","state":"Uttar Pradesh","latitude":27.8974,"longitude":78.088,"temp":28.9,"humidity":85,"rain":0.0,"pressure":977.5,"uv_index":5.65,"wind_gusts":34.9,"aqi":106,"pm10":85.4,"pm2_5":44.0,"no2":22.4,"co":324.0,"o3":76.0,"so2":11.3,"mosquito_risk":7,"arthritis_risk":5,"migraine_risk":3,"frizz_risk":1,"updated_at":"2026-07-07T22:48:24.286248+05:30"},{"city":"Moradabad","state":"Uttar Pradesh","latitude":28.8386,"longitude":78.7733,"temp":28.1,"humidity":89,"rain":0.0,"pressure":976.3,"uv_index":6.55,"wind_gusts":26.6,"aqi":155,"pm10":66.8,"pm2_5":66.6,"no2":29.6,"co":347.0,"o3":89.0,"so2":20.6,"mosquito_risk":7,"arthritis_risk":5,"migraine_risk":7,"frizz_risk":1,"updated_at":"2026-07-07T22:48:24.286254+05:30"},{"city":"Saharanpur","state":"Uttar Pradesh","latitude":29.9637,"longitude":77.546,"temp":27.5,"humidity":96,"rain":0.0,"pressure":968.3,"uv_index":6.75,"wind_gusts":29.9,"aqi":154,"pm10":76.6,"pm2_5":73.3,"no2":37.4,"co":577.0,"o3":97.0,"so2":19.0,"mosquito_risk":7,"arthritis_risk":5,"migraine_risk":7,"frizz_risk":1,"updated_at":"2026-07-07T22:48:24.286260+05:30"},{"city":"Jhansi","state":"Uttar Pradesh","latitude":25.4484,"longitude":78.5685,"temp":26.1,"humidity":96,"rain":0.3,"pressure":968.8,"uv_index":5.6,"wind_gusts":40.0,"aqi":55,"pm10":9.3,"pm2_5":9.1,"no2":8.2,"co":261.0,"o3":90.0,"so2":3.2,"mosquito_risk":10,"arthritis_risk":5,"migraine_risk":3,"frizz_risk":1,"updated_at":"2026-07-07T22:48:27.671644+05:30"},{"city":"Surat","state":"Gujarat","latitude":21.1702,"longitude":72.8311,"temp":25.8,"humidity":98,"rain":1.4,"pressure":999.1,"uv_index":2.25,"wind_gusts":32.0,"aqi":99,"pm10":43.4,"pm2_5":38.6,"no2":44.4,"co":415.0,"o3":34.0,"so2":56.2,"mosquito_risk":10,"arthritis_risk":5,"migraine_risk":3,"frizz_risk":1,"updated_at":"2026-07-07T22:48:27.671676+05:30"},{"city":"Vadodara","state":"Gujarat","latitude":22.3072,"longitude":73.1812,"temp":26.7,"humidity":97,"rain":0.1,"pressure":996.5,"uv_index":2.7,"wind_gusts":33.5,"aqi":89,"pm10":26.7,"pm2_5":23.8,"no2":15.1,"co":330.0,"o3":61.0,"so2":5.7,"mosquito_risk":10,"arthritis_risk":5,"migraine_risk":3,"frizz_risk":1,"updated_at":"2026-07-07T22:48:27.671687+05:30"},{"city":"Rajkot","state":"Gujarat","latitude":22.3039,"longitude":70.8022,"temp":27.8,"humidity":86,"rain":0.0,"pressure":986.7,"uv_index":0.9,"wind_gusts":34.9,"aqi":77,"pm10":40.3,"pm2_5":22.4,"no2":8.3,"co":131.0,"o3":50.0,"so2":7.3,"mosquito_risk":7,"arthritis_risk":5,"migraine_risk":3,"frizz_risk":1,"updated_at":"2026-07-07T22:48:27.671695+05:30"},{"city":"Thane","state":"Maharashtra","latitude":19.2183,"longitude":72.9781,"temp":25.9,"humidity":97,"rain":0.2,"pressure":1001.6,"uv_index":0.7,"wind_gusts":47.5,"aqi":54,"pm10":20.4,"pm2_5":10.8,"no2":6.2,"co":320.0,"o3":65.0,"so2":4.2,"mosquito_risk":10,"arthritis_risk":5,"migraine_risk":0,"frizz_risk":1,"updated_at":"2026-07-07T22:48:27.671704+05:30"},{"city":"Nagpur","state":"Maharashtra","latitude":21.1458,"longitude":79.0882,"temp":25.9,"humidity":94,"rain":0.0,"pressure":966.3,"uv_index":7.75,"wind_gusts":46.4,"aqi":39,"pm10":9.3,"pm2_5":9.1,"no2":13.8,"co":248.0,"o3":57.0,"so2":14.2,"mosquito_risk":7,"arthritis_risk":5,"migraine_risk":7,"frizz_risk":1,"updated_at":"2026-07-07T22:48:27.671712+05:30"},{"city":"Nashik","state":"Maharashtra","latitude":19.9975,"longitude":73.7898,"temp":23.0,"humidity":97,"rain":0.0,"pressure":938.3,"uv_index":2.3,"wind_gusts":42.1,"aqi":27,"pm10":3.7,"pm2_5":2.8,"no2":10.7,"co":136.0,"o3":46.0,"so2":2.9,"mosquito_risk":3,"arthritis_risk":5,"migraine_risk":3,"frizz_risk":1,"updated_at":"2026-07-07T22:48:27.671720+05:30"},{"city":"Aurangabad","state":"Maharashtra","latitude":19.8762,"longitude":75.3433,"temp":23.4,"humidity":94,"rain":0.0,"pressure":937.9,"uv_index":2.2,"wind_gusts":56.2,"aqi":36,"pm10":5.9,"pm2_5":5.5,"no2":11.9,"co":162.0,"o3":45.0,"so2":8.3,"mosquito_risk":3,"arthritis_risk":5,"migraine_risk":3,"frizz_risk":1,"updated_at":"2026-07-07T22:48:27.671727+05:30"},{"city":"Solapur","state":"Maharashtra","latitude":17.6599,"longitude":75.9064,"temp":25.4,"humidity":78,"rain":0.0,"pressure":953.7,"uv_index":6.6,"wind_gusts":67.0,"aqi":26,"pm10":4.3,"pm2_5":3.3,"no2":4.4,"co":127.0,"o3":45.0,"so2":2.2,"mosquito_risk":7,"arthritis_risk":5,"migraine_risk":7,"frizz_risk":1,"updated_at":"2026-07-07T22:48:27.671735+05:30"},{"city":"Kolhapur","state":"Maharashtra","latitude":16.705,"longitude":74.2433,"temp":22.2,"humidity":95,"rain":0.3,"pressure":944.4,"uv_index":6.1,"wind_gusts":60.5,"aqi":22,"pm10":5.8,"pm2_5":4.3,"no2":4.4,"co":131.0,"o3":45.0,"so2":1.8,"mosquito_risk":6,"arthritis_risk":5,"migraine_risk":7,"frizz_risk":1,"updated_at":"2026-07-07T22:48:27.671742+05:30"},{"city":"Goa","state":"Goa","latitude":15.2993,"longitude":74.124,"temp":23.8,"humidity":99,"rain":0.6,"pressure":998.1,"uv_index":5.85,"wind_gusts":44.3,"aqi":58,"pm10":27.3,"pm2_5":13.6,"no2":1.7,"co":195.0,"o3":46.0,"so2":0.7,"mosquito_risk":6,"arthritis_risk":5,"migraine_risk":3,"frizz_risk":1,"updated_at":"2026-07-07T22:48:27.671750+05:30"},{"city":"Jodhpur","state":"Rajasthan","latitude":26.2389,"longitude":73.0243,"temp":30.1,"humidity":79,"rain":0.0,"pressure":974.1,"uv_index":6.8,"wind_gusts":24.5,"aqi":80,"pm10":197.4,"pm2_5":54.2,"no2":8.9,"co":294.0,"o3":71.0,"so2":3.6,"mosquito_risk":3,"arthritis_risk":5,"migraine_risk":7,"frizz_risk":1,"updated_at":"2026-07-07T22:48:27.671757+05:30"},{"city":"Udaipur","state":"Rajasthan","latitude":24.5854,"longitude":73.7125,"temp":26.9,"humidity":83,"rain":0.0,"pressure":938.7,"uv_index":8.75,"wind_gusts":34.6,"aqi":66,"pm10":34.3,"pm2_5":24.7,"no2":11.9,"co":236.0,"o3":67.0,"so2":6.1,"mosquito_risk":7,"arthritis_risk":5,"migraine_risk":7,"frizz_risk":1,"updated_at":"2026-07-07T22:48:27.671764+05:30"},{"city":"Kota","state":"Rajasthan","latitude":25.2138,"longitude":75.8648,"temp":28.2,"humidity":88,"rain":0.0,"pressure":970.1,"uv_index":5.75,"wind_gusts":44.6,"aqi":63,"pm10":20.1,"pm2_5":17.9,"no2":12.6,"co":436.0,"o3":69.0,"so2":2.8,"mosquito_risk":7,"arthritis_risk":5,"migraine_risk":3,"frizz_risk":1,"updated_at":"2026-07-07T22:48:27.671771+05:30"},{"city":"Bikaner","state":"Rajasthan","latitude":28.0229,"longitude":73.3119,"temp":35.5,"humidity":44,"rain":0.0,"pressure":971.6,"uv_index":8.45,"wind_gusts":28.4,"aqi":93,"pm10":87.5,"pm2_5":39.0,"no2":6.5,"co":209.0,"o3":61.0,"so2":3.4,"mosquito_risk":0,"arthritis_risk":5,"migraine_risk":10,"frizz_risk":1,"updated_at":"2026-07-07T22:48:27.671779+05:30"},{"city":"Ajmer","state":"Rajasthan","latitude":26.4499,"longitude":74.6399,"temp":29.0,"humidity":78,"rain":0.0,"pressure":946.6,"uv_index":8.4,"wind_gusts":28.4,"aqi":65,"pm10":28.3,"pm2_5":25.0,"no2":15.1,"co":272.0,"o3":69.0,"so2":4.4,"mosquito_risk":7,"arthritis_risk":5,"migraine_risk":7,"frizz_risk":1,"updated_at":"2026-07-07T22:48:27.671786+05:30"},{"city":"Gwalior","state":"Madhya Pradesh","latitude":26.2183,"longitude":78.1828,"temp":27.1,"humidity":95,"rain":0.4,"pressure":974.5,"uv_index":4.35,"wind_gusts":40.3,"aqi":69,"pm10":10.9,"pm2_5":10.3,"no2":7.0,"co":294.0,"o3":98.0,"so2":2.2,"mosquito_risk":10,"arthritis_risk":5,"migraine_risk":3,"frizz_risk":1,"updated_at":"2026-07-07T22:48:27.671794+05:30"},{"city":"Indore","state":"Madhya Pradesh","latitude":22.7196,"longitude":75.8577,"temp":24.6,"humidity":96,"rain":0.0,"pressure":939.7,"uv_index":7.8,"wind_gusts":27.4,"aqi":75,"pm10":23.1,"pm2_5":23.1,"no2":14.2,"co":479.0,"o3":71.0,"so2":4.6,"mosquito_risk":3,"arthritis_risk":5,"migraine_risk":7,"frizz_risk":1,"updated_at":"2026-07-07T22:48:27.671801+05:30"},{"city":"Bhopal","state":"Madhya Pradesh","latitude":23.2599,"longitude":77.4126,"temp":25.2,"humidity":95,"rain":0.0,"pressure":944.8,"uv_index":8.5,"wind_gusts":27.7,"aqi":53,"pm10":11.4,"pm2_5":11.3,"no2":10.5,"co":280.0,"o3":65.0,"so2":2.6,"mosquito_risk":7,"arthritis_risk":5,"migraine_risk":7,"frizz_risk":1,"updated_at":"2026-07-07T22:48:27.671807+05:30"},{"city":"Jabalpur","state":"Madhya Pradesh","latitude":23.1815,"longitude":79.9864,"temp":24.6,"humidity":97,"rain":0.1,"pressure":953.1,"uv_index":8.3,"wind_gusts":33.8,"aqi":42,"pm10":7.3,"pm2_5":7.2,"no2":7.6,"co":210.0,"o3":62.0,"so2":6.4,"mosquito_risk":6,"arthritis_risk":5,"migraine_risk":7,"frizz_risk":1,"updated_at":"2026-07-07T22:48:27.671815+05:30"},{"city":"Ujjain","state":"Madhya Pradesh","latitude":23.1765,"longitude":75.7885,"temp":25.3,"humidity":96,"rain":0.1,"pressure":945.5,"uv_index":7.95,"wind_gusts":35.3,"aqi":75,"pm10":22.3,"pm2_5":22.1,"no2":9.6,"co":467.0,"o3":77.0,"so2":3.3,"mosquito_risk":10,"arthritis_risk":5,"migraine_risk":7,"frizz_risk":1,"updated_at":"2026-07-07T22:48:27.671822+05:30"},{"city":"Visakhapatnam","state":"Andhra Pradesh","latitude":17.6868,"longitude":83.2185,"temp":28.1,"humidity":82,"rain":0.0,"pressure":1001.1,"uv_index":8.6,"wind_gusts":60.1,"aqi":72,"pm10":32.2,"pm2_5":22.1,"no2":11.4,"co":229.0,"o3":91.0,"so2":21.6,"mosquito_risk":7,"arthritis_risk":5,"migraine_risk":4,"frizz_risk":1,"updated_at":"2026-07-07T22:48:27.671829+05:30"},{"city":"Vijayawada","state":"Andhra Pradesh","latitude":16.5062,"longitude":80.648,"temp":29.2,"humidity":73,"rain":0.0,"pressure":999.5,"uv_index":4.9,"wind_gusts":54.0,"aqi":51,"pm10":29.2,"pm2_5":21.7,"no2":9.2,"co":226.0,"o3":83.0,"so2":5.5,"mosquito_risk":7,"arthritis_risk":5,"migraine_risk":3,"frizz_risk":1,"updated_at":"2026-07-07T22:48:27.671836+05:30"},{"city":"Guntur","state":"Andhra Pradesh","latitude":16.3067,"longitude":80.4365,"temp":30.2,"humidity":65,"rain":0.0,"pressure":1000.8,"uv_index":5.2,"wind_gusts":57.6,"aqi":43,"pm10":25.9,"pm2_5":20.4,"no2":13.3,"co":310.0,"o3":59.0,"so2":4.8,"mosquito_risk":3,"arthritis_risk":5,"migraine_risk":0,"frizz_risk":1,"updated_at":"2026-07-07T22:48:27.671843+05:30"},{"city":"Nellore","state":"Andhra Pradesh","latitude":14.4426,"longitude":79.9865,"temp":32.7,"humidity":47,"rain":0.0,"pressure":1003.9,"uv_index":8.35,"wind_gusts":55.1,"aqi":39,"pm10":30.2,"pm2_5":14.2,"no2":6.3,"co":135.0,"o3":47.0,"so2":3.0,"mosquito_risk":0,"arthritis_risk":5,"migraine_risk":4,"frizz_risk":1,"updated_at":"2026-07-07T22:48:27.671851+05:30"},{"city":"Kurnool","state":"Andhra Pradesh","latitude":15.8281,"longitude":78.0373,"temp":27.5,"humidity":68,"rain":0.0,"pressure":975.5,"uv_index":4.45,"wind_gusts":67.0,"aqi":29,"pm10":8.6,"pm2_5":5.3,"no2":5.5,"co":122.0,"o3":44.0,"so2":3.5,"mosquito_risk":7,"arthritis_risk":5,"migraine_risk":3,"frizz_risk":1,"updated_at":"2026-07-07T22:48:27.671859+05:30"},{"city":"Kakinada","state":"Andhra Pradesh","latitude":16.9891,"longitude":82.2475,"temp":29.2,"humidity":77,"rain":0.0,"pressure":1004.5,"uv_index":7.95,"wind_gusts":57.2,"aqi":64,"pm10":32.2,"pm2_5":21.6,"no2":2.9,"co":187.0,"o3":105.0,"so2":3.6,"mosquito_risk":7,"arthritis_risk":5,"migraine_risk":4,"frizz_risk":1,"updated_at":"2026-07-07T22:48:27.671866+05:30"},{"city":"Tirupati","state":"Andhra Pradesh","latitude":13.6288,"longitude":79.4192,"temp":30.8,"humidity":48,"rain":0.0,"pressure":990.2,"uv_index":7.95,"wind_gusts":58.0,"aqi":33,"pm10":16.9,"pm2_5":10.1,"no2":7.6,"co":129.0,"o3":49.0,"so2":2.1,"mosquito_risk":0,"arthritis_risk":5,"migraine_risk":7,"frizz_risk":1,"updated_at":"2026-07-07T22:48:27.671873+05:30"},{"city":"Warangal","state":"Telangana","latitude":17.9689,"longitude":79.5941,"temp":29.2,"humidity":63,"rain":0.0,"pressure":974.5,"uv_index":6.8,"wind_gusts":63.0,"aqi":34,"pm10":8.3,"pm2_5":6.8,"no2":7.0,"co":173.0,"o3":54.0,"so2":4.0,"mosquito_risk":7,"arthritis_risk":5,"migraine_risk":7,"frizz_risk":1,"updated_at":"2026-07-07T22:48:27.671880+05:30"},{"city":"Nizamabad","state":"Telangana","latitude":18.6725,"longitude":78.0941,"temp":27.4,"humidity":69,"rain":0.0,"pressure":960.0,"uv_index":8.55,"wind_gusts":60.1,"aqi":27,"pm10":5.4,"pm2_5":4.6,"no2":5.5,"co":152.0,"o3":46.0,"so2":2.7,"mosquito_risk":7,"arthritis_risk":5,"migraine_risk":7,"frizz_risk":1,"updated_at":"2026-07-07T22:48:27.671887+05:30"},{"city":"Mysore","state":"Karnataka","latitude":12.2958,"longitude":76.6396,"temp":21.8,"humidity":87,"rain":0.0,"pressure":929.5,"uv_index":8.0,"wind_gusts":65.5,"aqi":27,"pm10":7.6,"pm2_5":4.8,"no2":5.5,"co":122.0,"o3":44.0,"so2":1.7,"mosquito_risk":3,"arthritis_risk":5,"migraine_risk":7,"frizz_risk":1,"updated_at":"2026-07-07T22:48:27.671894+05:30"},{"city":"Mangalore","state":"Karnataka","latitude":12.9141,"longitude":74.856,"temp":24.8,"humidity":95,"rain":0.3,"pressure":1009.0,"uv_index":8.7,"wind_gusts":54.4,"aqi":64,"pm10":29.0,"pm2_5":15.5,"no2":5.2,"co":147.0,"o3":41.0,"so2":2.0,"mosquito_risk":6,"arthritis_risk":0,"migraine_risk":4,"frizz_risk":1,"updated_at":"2026-07-07T22:48:27.671901+05:30"},{"city":"Hubli-Dharwad","state":"Karnataka","latitude":15.3647,"longitude":75.124,"temp":22.0,"humidity":97,"rain":0.1,"pressure":939.2,"uv_index":4.95,"wind_gusts":68.0,"aqi":22,"pm10":3.7,"pm2_5":2.4,"no2":3.4,"co":115.0,"o3":42.0,"so2":0.9,"mosquito_risk":6,"arthritis_risk":5,"migraine_risk":3,"frizz_risk":1,"updated_at":"2026-07-07T22:48:27.671908+05:30"},{"city":"Belgaum","state":"Karnataka","latitude":15.8497,"longitude":74.4977,"temp":21.0,"humidity":97,"rain":0.2,"pressure":923.4,"uv_index":1.35,"wind_gusts":71.3,"aqi":22,"pm10":3.2,"pm2_5":2.1,"no2":3.3,"co":103.0,"o3":45.0,"so2":1.3,"mosquito_risk":6,"arthritis_risk":5,"migraine_risk":3,"frizz_risk":1,"updated_at":"2026-07-07T22:48:31.019735+05:30"},{"city":"Coimbatore","state":"Tamil Nadu","latitude":11.0168,"longitude":76.9558,"temp":23.2,"humidity":93,"rain":0.0,"pressure":962.8,"uv_index":8.45,"wind_gusts":59.8,"aqi":29,"pm10":14.3,"pm2_5":9.5,"no2":8.2,"co":181.0,"o3":37.0,"so2":2.7,"mosquito_risk":3,"arthritis_risk":5,"migraine_risk":7,"frizz_risk":1,"updated_at":"2026-07-07T22:48:31.019766+05:30"},{"city":"Madurai","state":"Tamil Nadu","latitude":9.9252,"longitude":78.1198,"temp":29.6,"humidity":54,"rain":0.0,"pressure":993.4,"uv_index":8.6,"wind_gusts":53.3,"aqi":59,"pm10":41.1,"pm2_5":24.7,"no2":18.9,"co":156.0,"o3":36.0,"so2":5.4,"mosquito_risk":4,"arthritis_risk":5,"migraine_risk":7,"frizz_risk":1,"updated_at":"2026-07-07T22:48:31.019778+05:30"},{"city":"Trichy","state":"Tamil Nadu","latitude":10.7905,"longitude":78.7047,"temp":30.3,"humidity":51,"rain":0.0,"pressure":1000.2,"uv_index":8.5,"wind_gusts":72.4,"aqi":49,"pm10":26.8,"pm2_5":15.6,"no2":4.5,"co":120.0,"o3":50.0,"so2":2.2,"mosquito_risk":0,"arthritis_risk":5,"migraine_risk":4,"frizz_risk":1,"updated_at":"2026-07-07T22:48:31.019786+05:30"},{"city":"Salem","state":"Tamil Nadu","latitude":11.6643,"longitude":78.146,"temp":26.6,"humidity":69,"rain":0.0,"pressure":978.0,"uv_index":8.3,"wind_gusts":42.8,"aqi":50,"pm10":27.8,"pm2_5":18.0,"no2":14.0,"co":325.0,"o3":40.0,"so2":5.8,"mosquito_risk":7,"arthritis_risk":5,"migraine_risk":7,"frizz_risk":1,"updated_at":"2026-07-07T22:48:31.019795+05:30"},{"city":"Tirunelveli","state":"Tamil Nadu","latitude":8.7139,"longitude":77.7567,"temp":30.0,"humidity":54,"rain":0.0,"pressure":1004.8,"uv_index":8.6,"wind_gusts":52.2,"aqi":53,"pm10":20.7,"pm2_5":13.0,"no2":5.3,"co":155.0,"o3":46.0,"so2":2.0,"mosquito_risk":4,"arthritis_risk":5,"migraine_risk":4,"frizz_risk":1,"updated_at":"2026-07-07T22:48:31.019803+05:30"},{"city":"Vellore","state":"Tamil Nadu","latitude":12.9165,"longitude":79.1325,"temp":30.8,"humidity":47,"rain":0.0,"pressure":983.8,"uv_index":7.7,"wind_gusts":55.4,"aqi":35,"pm10":15.9,"pm2_5":9.4,"no2":6.5,"co":129.0,"o3":52.0,"so2":2.8,"mosquito_risk":0,"arthritis_risk":5,"migraine_risk":7,"frizz_risk":1,"updated_at":"2026-07-07T22:48:31.019810+05:30"},{"city":"Erode","state":"Tamil Nadu","latitude":11.341,"longitude":77.7172,"temp":26.7,"humidity":73,"rain":0.0,"pressure":990.0,"uv_index":8.35,"wind_gusts":54.4,"aqi":49,"pm10":27.8,"pm2_5":18.6,"no2":15.9,"co":197.0,"o3":36.0,"so2":3.8,"mosquito_risk":7,"arthritis_risk":5,"migraine_risk":7,"frizz_risk":1,"updated_at":"2026-07-07T22:48:31.019817+05:30"},{"city":"Kochi","state":"Kerala","latitude":9.9312,"longitude":76.2673,"temp":27.7,"humidity":86,"rain":0.0,"pressure":1011.5,"uv_index":7.95,"wind_gusts":43.2,"aqi":63,"pm10":32.0,"pm2_5":24.9,"no2":25.3,"co":152.0,"o3":14.0,"so2":6.3,"mosquito_risk":7,"arthritis_risk":0,"migraine_risk":4,"frizz_risk":1,"updated_at":"2026-07-07T22:48:31.019825+05:30"},{"city":"Thiruvananthapuram","state":"Kerala","latitude":8.5241,"longitude":76.9366,"temp":26.5,"humidity":87,"rain":0.0,"pressure":1010.7,"uv_index":8.35,"wind_gusts":49.7,"aqi":54,"pm10":16.5,"pm2_5":10.1,"no2":4.0,"co":114.0,"o3":46.0,"so2":1.5,"mosquito_risk":7,"arthritis_risk":0,"migraine_risk":4,"frizz_risk":1,"updated_at":"2026-07-07T22:48:31.019833+05:30"},{"city":"Kozhikode","state":"Kerala","latitude":11.2588,"longitude":75.7804,"temp":23.8,"humidity":99,"rain":0.2,"pressure":1011.3,"uv_index":8.1,"wind_gusts":38.5,"aqi":61,"pm10":33.1,"pm2_5":16.2,"no2":1.7,"co":272.0,"o3":50.0,"so2":1.0,"mosquito_risk":6,"arthritis_risk":0,"migraine_risk":4,"frizz_risk":1,"updated_at":"2026-07-07T22:48:31.019840+05:30"},{"city":"Thrissur","state":"Kerala","latitude":10.5276,"longitude":76.2144,"temp":24.5,"humidity":99,"rain":0.1,"pressure":1010.1,"uv_index":8.45,"wind_gusts":47.2,"aqi":58,"pm10":27.0,"pm2_5":17.9,"no2":14.1,"co":241.0,"o3":26.0,"so2":4.0,"mosquito_risk":6,"arthritis_risk":0,"migraine_risk":4,"frizz_risk":1,"updated_at":"2026-07-07T22:48:31.019848+05:30"},{"city":"Kannur","state":"Kerala","latitude":11.8745,"longitude":75.3704,"temp":23.5,"humidity":97,"rain":0.1,"pressure":1010.3,"uv_index":7.85,"wind_gusts":49.7,"aqi":62,"pm10":31.8,"pm2_5":19.6,"no2":10.3,"co":292.0,"o3":31.0,"so2":2.4,"mosquito_risk":6,"arthritis_risk":0,"migraine_risk":4,"frizz_risk":1,"updated_at":"2026-07-07T22:48:31.019855+05:30"},{"city":"Patna","state":"Bihar","latitude":25.5941,"longitude":85.1376,"temp":28.7,"humidity":86,"rain":0.0,"pressure":994.7,"uv_index":8.55,"wind_gusts":38.5,"aqi":60,"pm10":34.0,"pm2_5":33.8,"no2":23.7,"co":262.0,"o3":55.0,"so2":13.9,"mosquito_risk":7,"arthritis_risk":5,"migraine_risk":7,"frizz_risk":1,"updated_at":"2026-07-07T22:48:31.019862+05:30"},{"city":"Gaya","state":"Bihar","latitude":24.7914,"longitude":85.0002,"temp":29.3,"humidity":70,"rain":0.0,"pressure":988.1,"uv_index":8.75,"wind_gusts":34.2,"aqi":61,"pm10":28.5,"pm2_5":25.5,"no2":15.0,"co":270.0,"o3":57.0,"so2":11.4,"mosquito_risk":7,"arthritis_risk":5,"migraine_risk":7,"frizz_risk":1,"updated_at":"2026-07-07T22:48:31.019870+05:30"},{"city":"Muzaffarpur","state":"Bihar","latitude":26.1209,"longitude":85.3647,"temp":27.9,"humidity":91,"rain":0.0,"pressure":995.2,"uv_index":7.95,"wind_gusts":43.9,"aqi":59,"pm10":36.3,"pm2_5":36.3,"no2":24.9,"co":385.0,"o3":59.0,"so2":15.0,"mosquito_risk":7,"arthritis_risk":5,"migraine_risk":7,"frizz_risk":1,"updated_at":"2026-07-07T22:48:31.019877+05:30"},{"city":"Bhagalpur","state":"Bihar","latitude":25.2425,"longitude":87.0117,"temp":28.0,"humidity":90,"rain":0.0,"pressure":996.6,"uv_index":8.45,"wind_gusts":43.9,"aqi":63,"pm10":27.8,"pm2_5":27.0,"no2":16.6,"co":363.0,"o3":80.0,"so2":26.8,"mosquito_risk":7,"arthritis_risk":5,"migraine_risk":7,"frizz_risk":1,"updated_at":"2026-07-07T22:48:31.019884+05:30"},{"city":"Ranchi","state":"Jharkhand","latitude":23.3441,"longitude":85.3096,"temp":24.5,"humidity":90,"rain":0.0,"pressure":933.4,"uv_index":7.9,"wind_gusts":52.2,"aqi":43,"pm10":17.6,"pm2_5":14.5,"no2":9.2,"co":296.0,"o3":70.0,"so2":14.2,"mosquito_risk":3,"arthritis_risk":5,"migraine_risk":7,"frizz_risk":1,"updated_at":"2026-07-07T22:48:31.019892+05:30"},{"city":"Jamshedpur","state":"Jharkhand","latitude":22.8046,"longitude":86.2029,"temp":27.8,"humidity":83,"rain":0.0,"pressure":986.3,"uv_index":5.4,"wind_gusts":53.3,"aqi":57,"pm10":30.6,"pm2_5":26.8,"no2":20.1,"co":519.0,"o3":61.0,"so2":26.9,"mosquito_risk":7,"arthritis_risk":5,"migraine_risk":3,"frizz_risk":1,"updated_at":"2026-07-07T22:48:31.019899+05:30"},{"city":"Dhanbad","state":"Jharkhand","latitude":23.7957,"longitude":86.4304,"temp":26.8,"humidity":92,"rain":0.0,"pressure":975.5,"uv_index":7.7,"wind_gusts":43.6,"aqi":79,"pm10":44.2,"pm2_5":41.4,"no2":49.2,"co":267.0,"o3":33.0,"so2":102.3,"mosquito_risk":7,"arthritis_risk":5,"migraine_risk":7,"frizz_risk":1,"updated_at":"2026-07-07T22:48:31.019906+05:30"},{"city":"Bokaro","state":"Jharkhand","latitude":23.6693,"longitude":86.1511,"temp":27.3,"humidity":84,"rain":0.0,"pressure":979.1,"uv_index":7.1,"wind_gusts":48.6,"aqi":67,"pm10":45.6,"pm2_5":39.3,"no2":37.7,"co":1385.0,"o3":42.0,"so2":82.9,"mosquito_risk":7,"arthritis_risk":5,"migraine_risk":7,"frizz_risk":1,"updated_at":"2026-07-07T22:48:31.019913+05:30"},{"city":"Bhubaneswar","state":"Odisha","latitude":20.2961,"longitude":85.8245,"temp":28.1,"humidity":78,"rain":0.0,"pressure":998.6,"uv_index":8.9,"wind_gusts":59.0,"aqi":63,"pm10":24.2,"pm2_5":16.8,"no2":4.7,"co":146.0,"o3":80.0,"so2":4.3,"mosquito_risk":7,"arthritis_risk":5,"migraine_risk":7,"frizz_risk":1,"updated_at":"2026-07-07T22:48:31.019920+05:30"},{"city":"Cuttack","state":"Odisha","latitude":20.4625,"longitude":85.8828,"temp":28.3,"humidity":77,"rain":0.0,"pressure":1000.2,"uv_index":8.85,"wind_gusts":54.0,"aqi":63,"pm10":24.2,"pm2_5":16.8,"no2":4.7,"co":162.0,"o3":80.0,"so2":4.3,"mosquito_risk":7,"arthritis_risk":5,"migraine_risk":4,"frizz_risk":1,"updated_at":"2026-07-07T22:48:31.019927+05:30"},{"city":"Rourkela","state":"Odisha","latitude":22.2604,"longitude":84.8536,"temp":26.2,"humidity":94,"rain":0.0,"pressure":980.1,"uv_index":7.05,"wind_gusts":55.1,"aqi":45,"pm10":16.6,"pm2_5":15.3,"no2":12.3,"co":267.0,"o3":57.0,"so2":11.8,"mosquito_risk":7,"arthritis_risk":5,"migraine_risk":7,"frizz_risk":1,"updated_at":"2026-07-07T22:48:31.019933+05:30"},{"city":"Raipur","state":"Chhattisgarh","latitude":21.2514,"longitude":81.6296,"temp":27.0,"humidity":80,"rain":0.0,"pressure":968.5,"uv_index":6.45,"wind_gusts":57.2,"aqi":50,"pm10":16.7,"pm2_5":13.4,"no2":14.4,"co":192.0,"o3":58.0,"so2":24.9,"mosquito_risk":7,"arthritis_risk":5,"migraine_risk":7,"frizz_risk":1,"updated_at":"2026-07-07T22:48:31.019941+05:30"},{"city":"Bhilai","state":"Chhattisgarh","latitude":21.1938,"longitude":81.3509,"temp":26.2,"humidity":85,"rain":0.0,"pressure":968.9,"uv_index":7.65,"wind_gusts":61.9,"aqi":50,"pm10":16.6,"pm2_5":13.3,"no2":16.3,"co":322.0,"o3":56.0,"so2":28.6,"mosquito_risk":7,"arthritis_risk":5,"migraine_risk":7,"frizz_risk":1,"updated_at":"2026-07-07T22:48:31.019948+05:30"},{"city":"Guwahati","state":"Assam","latitude":26.1158,"longitude":91.7086,"temp":26.4,"humidity":98,"rain":0.1,"pressure":997.9,"uv_index":6.95,"wind_gusts":22.7,"aqi":37,"pm10":16.4,"pm2_5":16.2,"no2":11.6,"co":322.0,"o3":35.0,"so2":2.3,"mosquito_risk":10,"arthritis_risk":5,"migraine_risk":7,"frizz_risk":1,"updated_at":"2026-07-07T22:48:31.019955+05:30"},{"city":"Agartala","state":"Tripura","latitude":23.8315,"longitude":91.2868,"temp":24.7,"humidity":99,"rain":0.3,"pressure":1003.6,"uv_index":6.3,"wind_gusts":37.8,"aqi":37,"pm10":14.3,"pm2_5":12.4,"no2":9.3,"co":145.0,"o3":48.0,"so2":2.4,"mosquito_risk":6,"arthritis_risk":5,"migraine_risk":4,"frizz_risk":1,"updated_at":"2026-07-07T22:48:31.019983+05:30"},{"city":"Shillong","state":"Meghalaya","latitude":25.5788,"longitude":91.8933,"temp":20.2,"humidity":96,"rain":0.3,"pressure":855.1,"uv_index":3.4,"wind_gusts":34.2,"aqi":30,"pm10":2.0,"pm2_5":2.0,"no2":7.2,"co":230.0,"o3":53.0,"so2":1.9,"mosquito_risk":6,"arthritis_risk":5,"migraine_risk":3,"frizz_risk":1,"updated_at":"2026-07-07T22:48:31.019991+05:30"},{"city":"Imphal","state":"Manipur","latitude":24.817,"longitude":93.9368,"temp":23.1,"humidity":92,"rain":0.0,"pressure":920.9,"uv_index":8.05,"wind_gusts":27.7,"aqi":23,"pm10":5.0,"pm2_5":4.9,"no2":6.7,"co":354.0,"o3":48.0,"so2":1.8,"mosquito_risk":3,"arthritis_risk":5,"migraine_risk":7,"frizz_risk":1,"updated_at":"2026-07-07T22:48:31.019998+05:30"},{"city":"Aizawl","state":"Mizoram","latitude":23.7271,"longitude":92.7176,"temp":19.4,"humidity":98,"rain":0.1,"pressure":890.1,"uv_index":1.25,"wind_gusts":50.4,"aqi":27,"pm10":1.2,"pm2_5":1.1,"no2":3.9,"co":115.0,"o3":49.0,"so2":1.2,"mosquito_risk":6,"arthritis_risk":10,"migraine_risk":3,"frizz_risk":1,"updated_at":"2026-07-07T22:48:31.020006+05:30"},{"city":"Kohima","state":"Nagaland","latitude":25.6701,"longitude":94.1077,"temp":21.0,"humidity":97,"rain":0.1,"pressure":853.6,"uv_index":4.5,"wind_gusts":20.5,"aqi":24,"pm10":2.9,"pm2_5":2.8,"no2":5.6,"co":259.0,"o3":42.0,"so2":0.7,"mosquito_risk":6,"arthritis_risk":5,"migraine_risk":3,"frizz_risk":1,"updated_at":"2026-07-07T22:48:31.020013+05:30"},{"city":"Gangtok","state":"Sikkim","latitude":27.3314,"longitude":88.6138,"temp":18.8,"humidity":99,"rain":0.0,"pressure":836.3,"uv_index":4.05,"wind_gusts":25.2,"aqi":43,"pm10":6.0,"pm2_5":5.9,"no2":5.5,"co":220.0,"o3":91.0,"so2":1.9,"mosquito_risk":3,"arthritis_risk":10,"migraine_risk":3,"frizz_risk":1,"updated_at":"2026-07-07T22:48:31.020020+05:30"},{"city":"Siliguri","state":"West Bengal","latitude":26.7271,"longitude":88.3953,"temp":25.6,"humidity":97,"rain":0.0,"pressure":989.8,"uv_index":8.35,"wind_gusts":29.5,"aqi":42,"pm10":17.1,"pm2_5":17.0,"no2":11.2,"co":334.0,"o3":85.0,"so2":3.7,"mosquito_risk":7,"arthritis_risk":5,"migraine_risk":7,"frizz_risk":1,"updated_at":"2026-07-07T22:48:34.387908+05:30"},{"city":"Durgapur","state":"West Bengal","latitude":23.5204,"longitude":87.3119,"temp":27.0,"humidity":95,"rain":0.0,"pressure":990.8,"uv_index":7.7,"wind_gusts":41.0,"aqi":76,"pm10":34.7,"pm2_5":31.9,"no2":24.2,"co":294.0,"o3":50.0,"so2":31.4,"mosquito_risk":7,"arthritis_risk":5,"migraine_risk":7,"frizz_risk":1,"updated_at":"2026-07-07T22:48:34.387939+05:30"},{"city":"Asansol","state":"West Bengal","latitude":23.6739,"longitude":86.9524,"temp":27.2,"humidity":95,"rain":0.1,"pressure":989.2,"uv_index":8.2,"wind_gusts":45.0,"aqi":70,"pm10":27.9,"pm2_5":25.7,"no2":24.8,"co":701.0,"o3":52.0,"so2":35.3,"mosquito_risk":10,"arthritis_risk":5,"migraine_risk":7,"frizz_risk":1,"updated_at":"2026-07-07T22:48:34.387951+05:30"},{"city":"Pondicherry","state":"Puducherry","latitude":11.9139,"longitude":79.8145,"temp":32.0,"humidity":49,"rain":0.0,"pressure":1007.5,"uv_index":8.6,"wind_gusts":47.2,"aqi":59,"pm10":25.5,"pm2_5":17.7,"no2":15.5,"co":305.0,"o3":60.0,"so2":9.2,"mosquito_risk":0,"arthritis_risk":5,"migraine_risk":4,"frizz_risk":1,"updated_at":"2026-07-07T22:48:34.387979+05:30"},{"city":"Port Blair","state":"Andaman and Nicobar Islands","latitude":11.6234,"longitude":92.7265,"temp":27.4,"humidity":80,"rain":0.0,"pressure":1009.5,"uv_index":8.05,"wind_gusts":37.8,"aqi":58,"pm10":30.3,"pm2_5":17.3,"no2":0.2,"co":96.0,"o3":68.0,"so2":0.6,"mosquito_risk":7,"arthritis_risk":0,"migraine_risk":4,"frizz_risk":1,"updated_at":"2026-07-07T22:48:34.387990+05:30"},{"city":"Haridwar","state":"Uttarakhand","latitude":29.9457,"longitude":78.1642,"temp":26.7,"humidity":99,"rain":0.0,"pressure":967.0,"uv_index":7.25,"wind_gusts":42.8,"aqi":120,"pm10":59.6,"pm2_5":57.3,"no2":33.7,"co":401.0,"o3":83.0,"so2":12.8,"mosquito_risk":7,"arthritis_risk":5,"migraine_risk":7,"frizz_risk":1,"updated_at":"2026-07-07T22:48:34.387999+05:30"},{"city":"Rishikesh","state":"Uttarakhand","latitude":30.0869,"longitude":78.2676,"temp":26.0,"humidity":97,"rain":0.0,"pressure":959.5,"uv_index":6.9,"wind_gusts":40.3,"aqi":107,"pm10":36.3,"pm2_5":35.0,"no2":17.1,"co":416.0,"o3":103.0,"so2":7.2,"mosquito_risk":7,"arthritis_risk":5,"migraine_risk":7,"frizz_risk":1,"updated_at":"2026-07-07T22:48:34.388006+05:30"},{"city":"Nainital","state":"Uttarakhand","latitude":29.3919,"longitude":79.4542,"temp":18.1,"humidity":99,"rain":0.0,"pressure":802.1,"uv_index":6.45,"wind_gusts":22.7,"aqi":84,"pm10":20.5,"pm2_5":20.2,"no2":9.4,"co":237.0,"o3":97.0,"so2":4.9,"mosquito_risk":3,"arthritis_risk":10,"migraine_risk":7,"frizz_risk":1,"updated_at":"2026-07-07T22:48:34.388014+05:30"},{"city":"Mussoorie","state":"Uttarakhand","latitude":30.4599,"longitude":78.0664,"temp":18.1,"humidity":96,"rain":0.0,"pressure":798.7,"uv_index":7.45,"wind_gusts":38.9,"aqi":111,"pm10":43.9,"pm2_5":42.5,"no2":28.8,"co":362.0,"o3":101.0,"so2":12.0,"mosquito_risk":3,"arthritis_risk":10,"migraine_risk":7,"frizz_risk":1,"updated_at":"2026-07-07T22:48:34.388021+05:30"},{"city":"Dharamshala","state":"Himachal Pradesh","latitude":32.219,"longitude":76.3234,"temp":23.4,"humidity":73,"rain":0.0,"pressure":863.8,"uv_index":8.2,"wind_gusts":37.1,"aqi":56,"pm10":13.7,"pm2_5":13.3,"no2":15.9,"co":459.0,"o3":56.0,"so2":0.7,"mosquito_risk":3,"arthritis_risk":5,"migraine_risk":7,"frizz_risk":1,"updated_at":"2026-07-07T22:48:34.388029+05:30"},{"city":"Dalhousie","state":"Himachal Pradesh","latitude":32.5387,"longitude":75.971,"temp":16.9,"humidity":98,"rain":0.0,"pressure":799.4,"uv_index":8.7,"wind_gusts":33.5,"aqi":114,"pm10":56.5,"pm2_5":54.0,"no2":39.7,"co":667.0,"o3":59.0,"so2":4.0,"mosquito_risk":3,"arthritis_risk":10,"migraine_risk":7,"frizz_risk":1,"updated_at":"2026-07-07T22:48:34.388036+05:30"},{"city":"Patiala","state":"Punjab","latitude":30.3398,"longitude":76.3869,"temp":28.6,"humidity":78,"rain":0.0,"pressure":970.0,"uv_index":7.35,"wind_gusts":31.7,"aqi":151,"pm10":56.1,"pm2_5":52.9,"no2":24.7,"co":663.0,"o3":78.0,"so2":9.6,"mosquito_risk":7,"arthritis_risk":5,"migraine_risk":7,"frizz_risk":1,"updated_at":"2026-07-07T22:48:34.388044+05:30"},{"city":"Bhatinda","state":"Punjab","latitude":30.211,"longitude":74.9455,"temp":31.7,"humidity":68,"rain":0.0,"pressure":974.3,"uv_index":8.0,"wind_gusts":55.1,"aqi":167,"pm10":189.5,"pm2_5":118.0,"no2":41.2,"co":573.0,"o3":79.0,"so2":17.7,"mosquito_risk":3,"arthritis_risk":5,"migraine_risk":7,"frizz_risk":1,"updated_at":"2026-07-07T22:48:34.388051+05:30"},{"city":"Rohtak","state":"Haryana","latitude":28.8955,"longitude":76.6066,"temp":28.5,"humidity":79,"rain":0.0,"pressure":973.5,"uv_index":7.0,"wind_gusts":34.2,"aqi":127,"pm10":80.3,"pm2_5":74.3,"no2":60.7,"co":992.0,"o3":76.0,"so2":31.3,"mosquito_risk":7,"arthritis_risk":5,"migraine_risk":7,"frizz_risk":1,"updated_at":"2026-07-07T22:48:34.388059+05:30"},{"city":"Panipat","state":"Haryana","latitude":29.3909,"longitude":76.9635,"temp":28.0,"humidity":84,"rain":0.0,"pressure":972.4,"uv_index":5.0,"wind_gusts":27.7,"aqi":132,"pm10":105.7,"pm2_5":97.8,"no2":48.5,"co":563.0,"o3":79.0,"so2":25.1,"mosquito_risk":7,"arthritis_risk":5,"migraine_risk":3,"frizz_risk":1,"updated_at":"2026-07-07T22:48:34.388066+05:30"},{"city":"Mathura","state":"Uttar Pradesh","latitude":27.4924,"longitude":77.6737,"temp":29.5,"humidity":82,"rain":0.0,"pressure":978.6,"uv_index":3.95,"wind_gusts":25.9,"aqi":115,"pm10":243.1,"pm2_5":55.6,"no2":25.5,"co":321.0,"o3":77.0,"so2":10.5,"mosquito_risk":7,"arthritis_risk":5,"migraine_risk":3,"frizz_risk":1,"updated_at":"2026-07-07T22:48:34.388074+05:30"},{"city":"Vrindavan","state":"Uttar Pradesh","latitude":27.5823,"longitude":77.7027,"temp":29.6,"humidity":81,"rain":0.0,"pressure":979.0,"uv_index":4.25,"wind_gusts":25.9,"aqi":115,"pm10":243.1,"pm2_5":55.6,"no2":25.5,"co":308.0,"o3":77.0,"so2":10.5,"mosquito_risk":7,"arthritis_risk":5,"migraine_risk":3,"frizz_risk":1,"updated_at":"2026-07-07T22:48:34.388080+05:30"},{"city":"Ayodhya","state":"Uttar Pradesh","latitude":26.7922,"longitude":82.1998,"temp":26.9,"humidity":95,"rain":0.2,"pressure":988.2,"uv_index":6.2,"wind_gusts":47.2,"aqi":57,"pm10":26.0,"pm2_5":26.0,"no2":11.9,"co":331.0,"o3":102.0,"so2":10.7,"mosquito_risk":10,"arthritis_risk":5,"migraine_risk":7,"frizz_risk":1,"updated_at":"2026-07-07T22:48:34.388088+05:30"},{"city":"Ratlam","state":"Madhya Pradesh","latitude":23.3315,"longitude":75.0367,"temp":25.2,"humidity":98,"rain":0.3,"pressure":946.9,"uv_index":7.4,"wind_gusts":33.8,"aqi":70,"pm10":19.7,"pm2_5":19.4,"no2":6.8,"co":260.0,"o3":83.0,"so2":2.6,"mosquito_risk":10,"arthritis_risk":5,"migraine_risk":7,"frizz_risk":1,"updated_at":"2026-07-07T22:48:34.388095+05:30"},{"city":"Sagar","state":"Madhya Pradesh","latitude":23.8388,"longitude":78.7378,"temp":24.8,"humidity":95,"rain":0.0,"pressure":940.8,"uv_index":4.05,"wind_gusts":24.8,"aqi":39,"pm10":7.3,"pm2_5":6.9,"no2":9.0,"co":287.0,"o3":75.0,"so2":2.9,"mosquito_risk":3,"arthritis_risk":5,"migraine_risk":3,"frizz_risk":1,"updated_at":"2026-07-07T22:48:34.388102+05:30"},{"city":"Satna","state":"Madhya Pradesh","latitude":24.6005,"longitude":80.8322,"temp":27.1,"humidity":83,"rain":0.0,"pressure":962.5,"uv_index":5.4,"wind_gusts":33.1,"aqi":41,"pm10":13.5,"pm2_5":13.1,"no2":12.7,"co":239.0,"o3":56.0,"so2":7.1,"mosquito_risk":7,"arthritis_risk":5,"migraine_risk":3,"frizz_risk":1,"updated_at":"2026-07-07T22:48:34.388109+05:30"},{"city":"Akola","state":"Maharashtra","latitude":20.7002,"longitude":77.0082,"temp":27.3,"humidity":76,"rain":0.1,"pressure":967.9,"uv_index":7.1,"wind_gusts":44.6,"aqi":40,"pm10":10.9,"pm2_5":9.9,"no2":9.5,"co":169.0,"o3":81.0,"so2":8.8,"mosquito_risk":10,"arthritis_risk":5,"migraine_risk":7,"frizz_risk":1,"updated_at":"2026-07-07T22:48:34.388117+05:30"},{"city":"Amravati","state":"Maharashtra","latitude":20.9374,"longitude":77.7796,"temp":25.9,"humidity":89,"rain":0.0,"pressure":960.1,"uv_index":5.55,"wind_gusts":43.6,"aqi":38,"pm10":10.8,"pm2_5":10.0,"no2":9.5,"co":199.0,"o3":83.0,"so2":9.1,"mosquito_risk":7,"arthritis_risk":5,"migraine_risk":3,"frizz_risk":1,"updated_at":"2026-07-07T22:48:34.388125+05:30"},{"city":"Latur","state":"Maharashtra","latitude":18.4088,"longitude":76.5604,"temp":24.7,"humidity":80,"rain":0.0,"pressure":935.3,"uv_index":8.0,"wind_gusts":70.9,"aqi":27,"pm10":4.5,"pm2_5":3.6,"no2":4.6,"co":142.0,"o3":46.0,"so2":2.1,"mosquito_risk":3,"arthritis_risk":5,"migraine_risk":7,"frizz_risk":1,"updated_at":"2026-07-07T22:48:34.388131+05:30"},{"city":"Nanded","state":"Maharashtra","latitude":19.1383,"longitude":77.3091,"temp":27.6,"humidity":68,"rain":0.0,"pressure":963.3,"uv_index":6.2,"wind_gusts":60.5,"aqi":29,"pm10":5.0,"pm2_5":4.5,"no2":6.6,"co":150.0,"o3":49.0,"so2":4.5,"mosquito_risk":7,"arthritis_risk":5,"migraine_risk":7,"frizz_risk":1,"updated_at":"2026-07-07T22:48:34.388138+05:30"},{"city":"Gulbarga","state":"Karnataka","latitude":17.3297,"longitude":76.8343,"temp":25.8,"humidity":76,"rain":0.0,"pressure":955.6,"uv_index":6.9,"wind_gusts":69.8,"aqi":27,"pm10":5.7,"pm2_5":4.0,"no2":6.0,"co":135.0,"o3":43.0,"so2":2.6,"mosquito_risk":7,"arthritis_risk":5,"migraine_risk":7,"frizz_risk":1,"updated_at":"2026-07-07T22:48:34.388145+05:30"},{"city":"Bidar","state":"Karnataka","latitude":17.9104,"longitude":77.5199,"temp":25.2,"humidity":75,"rain":0.0,"pressure":931.7,"uv_index":7.45,"wind_gusts":65.9,"aqi":27,"pm10":5.8,"pm2_5":4.3,"no2":6.0,"co":128.0,"o3":45.0,"so2":2.5,"mosquito_risk":7,"arthritis_risk":5,"migraine_risk":7,"frizz_risk":1,"updated_at":"2026-07-07T22:48:34.388152+05:30"},{"city":"Hospet","state":"Karnataka","latitude":15.2689,"longitude":76.3909,"temp":24.1,"humidity":86,"rain":0.0,"pressure":954.7,"uv_index":6.8,"wind_gusts":73.8,"aqi":24,"pm10":5.2,"pm2_5":3.4,"no2":4.5,"co":121.0,"o3":41.0,"so2":1.4,"mosquito_risk":3,"arthritis_risk":5,"migraine_risk":7,"frizz_risk":1,"updated_at":"2026-07-07T22:48:34.388159+05:30"},{"city":"Tirupur","state":"Tamil Nadu","latitude":11.1085,"longitude":77.3411,"temp":24.5,"humidity":87,"rain":0.0,"pressure":975.9,"uv_index":8.35,"wind_gusts":69.5,"aqi":50,"pm10":27.8,"pm2_5":19.0,"no2":19.5,"co":174.0,"o3":31.0,"so2":5.0,"mosquito_risk":3,"arthritis_risk":5,"migraine_risk":7,"frizz_risk":1,"updated_at":"2026-07-07T22:48:34.388165+05:30"},{"city":"Alappuzha","state":"Kerala","latitude":9.4981,"longitude":76.3388,"temp":28.0,"humidity":83,"rain":0.0,"pressure":1011.5,"uv_index":8.2,"wind_gusts":45.4,"aqi":63,"pm10":27.5,"pm2_5":18.9,"no2":12.9,"co":87.0,"o3":35.0,"so2":3.7,"mosquito_risk":7,"arthritis_risk":0,"migraine_risk":4,"frizz_risk":1,"updated_at":"2026-07-07T22:48:34.388172+05:30"},{"city":"Munnar","state":"Kerala","latitude":10.0889,"longitude":77.0595,"temp":16.2,"humidity":99,"rain":0.0,"pressure":858.1,"uv_index":7.2,"wind_gusts":61.9,"aqi":34,"pm10":19.7,"pm2_5":13.2,"no2":8.9,"co":93.0,"o3":33.0,"so2":1.9,"mosquito_risk":3,"arthritis_risk":10,"migraine_risk":7,"frizz_risk":0,"updated_at":"2026-07-07T22:48:34.388179+05:30"},{"city":"Silchar","state":"Assam","latitude":24.8333,"longitude":92.7789,"temp":25.8,"humidity":97,"rain":0.0,"pressure":1002.4,"uv_index":1.0,"wind_gusts":27.0,"aqi":34,"pm10":7.1,"pm2_5":6.8,"no2":6.0,"co":215.0,"o3":49.0,"so2":1.8,"mosquito_risk":7,"arthritis_risk":5,"migraine_risk":0,"frizz_risk":1,"updated_at":"2026-07-07T22:48:34.388185+05:30"},{"city":"Dibrugarh","state":"Assam","latitude":27.4728,"longitude":94.912,"temp":25.6,"humidity":98,"rain":0.2,"pressure":991.8,"uv_index":3.7,"wind_gusts":31.0,"aqi":34,"pm10":8.8,"pm2_5":8.5,"no2":7.8,"co":169.0,"o3":50.0,"so2":1.6,"mosquito_risk":10,"arthritis_risk":5,"migraine_risk":3,"frizz_risk":1,"updated_at":"2026-07-07T22:48:34.388192+05:30"}]