[{"city":"Delhi","state":"Delhi","latitude":28.6139,"longitude":77.209,"temp":30.9,"humidity":77,"rain":0.0,"pressure":973.2,"uv_index":7.65,"wind_gusts":28.4,"aqi":386,"pm10":456.3,"pm2_5":145.3,"no2":78.6,"co":2665.0,"o3":16.0,"so2":26.2,"mosquito_risk":3,"arthritis_risk":5,"migraine_risk":7,"frizz_risk":1,"updated_at":"2026-07-11T21:30:11.060270+05:30"},{"city":"Mumbai","state":"Maharashtra","latitude":19.076,"longitude":72.8777,"temp":27.6,"humidity":88,"rain":0.0,"pressure":1007.1,"uv_index":6.15,"wind_gusts":52.6,"aqi":55,"pm10":28.8,"pm2_5":12.7,"no2":7.1,"co":205.0,"o3":42.0,"so2":4.8,"mosquito_risk":7,"arthritis_risk":5,"migraine_risk":4,"frizz_risk":1,"updated_at":"2026-07-11T21:30:11.060310+05:30"},{"city":"Bangalore","state":"Karnataka","latitude":12.9716,"longitude":77.5946,"temp":24.7,"humidity":70,"rain":0.0,"pressure":912.5,"uv_index":7.2,"wind_gusts":46.8,"aqi":48,"pm10":20.7,"pm2_5":12.8,"no2":21.3,"co":619.0,"o3":36.0,"so2":5.2,"mosquito_risk":3,"arthritis_risk":5,"migraine_risk":7,"frizz_risk":1,"updated_at":"2026-07-11T21:30:11.060323+05:30"},{"city":"Hyderabad","state":"Telangana","latitude":17.385,"longitude":78.4867,"temp":29.2,"humidity":55,"rain":0.0,"pressure":951.1,"uv_index":8.35,"wind_gusts":47.9,"aqi":63,"pm10":38.2,"pm2_5":20.4,"no2":14.4,"co":400.0,"o3":52.0,"so2":4.9,"mosquito_risk":4,"arthritis_risk":5,"migraine_risk":7,"frizz_risk":1,"updated_at":"2026-07-11T21:30:11.060331+05:30"},{"city":"Chennai","state":"Tamil Nadu","latitude":13.0827,"longitude":80.2707,"temp":29.9,"humidity":78,"rain":0.0,"pressure":1005.3,"uv_index":8.15,"wind_gusts":33.1,"aqi":85,"pm10":39.2,"pm2_5":24.4,"no2":9.3,"co":217.0,"o3":113.0,"so2":7.5,"mosquito_risk":7,"arthritis_risk":5,"migraine_risk":4,"frizz_risk":1,"updated_at":"2026-07-11T21:30:11.060337+05:30"},{"city":"Kolkata","state":"West Bengal","latitude":22.5726,"longitude":88.3639,"temp":28.2,"humidity":94,"rain":0.0,"pressure":998.8,"uv_index":2.35,"wind_gusts":39.6,"aqi":111,"pm10":80.6,"pm2_5":62.9,"no2":21.3,"co":541.0,"o3":72.0,"so2":14.7,"mosquito_risk":7,"arthritis_risk":5,"migraine_risk":3,"frizz_risk":1,"updated_at":"2026-07-11T21:30:11.060343+05:30"},{"city":"Pune","state":"Maharashtra","latitude":18.5204,"longitude":73.8567,"temp":23.6,"humidity":89,"rain":0.0,"pressure":946.6,"uv_index":7.65,"wind_gusts":57.2,"aqi":34,"pm10":16.3,"pm2_5":8.6,"no2":9.3,"co":160.0,"o3":34.0,"so2":5.6,"mosquito_risk":3,"arthritis_risk":5,"migraine_risk":7,"frizz_risk":1,"updated_at":"2026-07-11T21:30:11.060349+05:30"},{"city":"Ahmedabad","state":"Gujarat","latitude":23.0225,"longitude":72.5714,"temp":31.3,"humidity":61,"rain":0.0,"pressure":996.1,"uv_index":6.1,"wind_gusts":48.6,"aqi":65,"pm10":43.4,"pm2_5":23.0,"no2":7.1,"co":148.0,"o3":57.0,"so2":4.4,"mosquito_risk":3,"arthritis_risk":5,"migraine_risk":7,"frizz_risk":1,"updated_at":"2026-07-11T21:30:11.060355+05:30"},{"city":"Jaipur","state":"Rajasthan","latitude":26.9124,"longitude":75.7873,"temp":29.9,"humidity":65,"rain":0.0,"pressure":951.4,"uv_index":7.7,"wind_gusts":41.0,"aqi":452,"pm10":475.0,"pm2_5":88.0,"no2":12.1,"co":217.0,"o3":61.0,"so2":5.2,"mosquito_risk":7,"arthritis_risk":5,"migraine_risk":7,"frizz_risk":1,"updated_at":"2026-07-11T21:30:11.060360+05:30"},{"city":"Lucknow","state":"Uttar Pradesh","latitude":26.8467,"longitude":80.9462,"temp":27.0,"humidity":96,"rain":0.2,"pressure":984.4,"uv_index":6.1,"wind_gusts":51.8,"aqi":153,"pm10":118.0,"pm2_5":66.6,"no2":24.7,"co":350.0,"o3":49.0,"so2":9.4,"mosquito_risk":10,"arthritis_risk":5,"migraine_risk":7,"frizz_risk":1,"updated_at":"2026-07-11T21:30:11.060369+05:30"},{"city":"Kanpur","state":"Uttar Pradesh","latitude":26.4499,"longitude":80.3319,"temp":30.4,"humidity":69,"rain":0.0,"pressure":983.0,"uv_index":8.05,"wind_gusts":47.2,"aqi":129,"pm10":105.5,"pm2_5":43.1,"no2":11.7,"co":182.0,"o3":80.0,"so2":7.6,"mosquito_risk":3,"arthritis_risk":5,"migraine_risk":7,"frizz_risk":1,"updated_at":"2026-07-11T21:30:11.060375+05:30"},{"city":"Chandigarh","state":"Chandigarh","latitude":30.7333,"longitude":76.7794,"temp":27.6,"humidity":84,"rain":0.0,"pressure":959.7,"uv_index":7.7,"wind_gusts":22.3,"aqi":153,"pm10":128.5,"pm2_5":88.7,"no2":60.9,"co":1807.0,"o3":47.0,"so2":15.3,"mosquito_risk":7,"arthritis_risk":5,"migraine_risk":7,"frizz_risk":1,"updated_at":"2026-07-11T21:30:11.060381+05:30"},{"city":"Srinagar","state":"Jammu and Kashmir","latitude":34.0837,"longitude":74.7973,"temp":20.4,"humidity":89,"rain":0.1,"pressure":836.1,"uv_index":9.0,"wind_gusts":26.6,"aqi":105,"pm10":16.4,"pm2_5":15.7,"no2":22.6,"co":744.0,"o3":81.0,"so2":2.5,"mosquito_risk":6,"arthritis_risk":5,"migraine_risk":7,"frizz_risk":1,"updated_at":"2026-07-11T21:30:11.060387+05:30"},{"city":"Jammu","state":"Jammu and Kashmir","latitude":32.7266,"longitude":74.857,"temp":28.3,"humidity":87,"rain":0.0,"pressure":963.1,"uv_index":8.55,"wind_gusts":29.9,"aqi":129,"pm10":33.1,"pm2_5":28.9,"no2":27.6,"co":608.0,"o3":82.0,"so2":4.5,"mosquito_risk":7,"arthritis_risk":5,"migraine_risk":7,"frizz_risk":1,"updated_at":"2026-07-11T21:30:11.060392+05:30"},{"city":"Amritsar","state":"Punjab","latitude":31.634,"longitude":74.8723,"temp":29.1,"humidity":84,"rain":0.0,"pressure":970.7,"uv_index":8.4,"wind_gusts":31.7,"aqi":159,"pm10":202.6,"pm2_5":100.6,"no2":26.3,"co":395.0,"o3":69.0,"so2":7.1,"mosquito_risk":7,"arthritis_risk":5,"migraine_risk":7,"frizz_risk":1,"updated_at":"2026-07-11T21:30:11.060398+05:30"},{"city":"Ludhiana","state":"Punjab","latitude":30.901,"longitude":75.8573,"temp":29.0,"humidity":86,"rain":0.0,"pressure":968.9,"uv_index":7.9,"wind_gusts":31.0,"aqi":161,"pm10":348.3,"pm2_5":154.6,"no2":51.7,"co":665.0,"o3":45.0,"so2":12.1,"mosquito_risk":7,"arthritis_risk":5,"migraine_risk":7,"frizz_risk":1,"updated_at":"2026-07-11T21:30:11.060402+05:30"},{"city":"Jalandhar","state":"Punjab","latitude":31.326,"longitude":75.5762,"temp":28.3,"humidity":88,"rain":0.0,"pressure":970.0,"uv_index":8.15,"wind_gusts":27.7,"aqi":165,"pm10":324.1,"pm2_5":151.3,"no2":51.9,"co":946.0,"o3":54.0,"so2":9.0,"mosquito_risk":7,"arthritis_risk":5,"migraine_risk":7,"frizz_risk":1,"updated_at":"2026-07-11T21:30:11.060407+05:30"},{"city":"Dehradun","state":"Uttarakhand","latitude":30.6284,"longitude":78.0322,"temp":17.7,"humidity":100,"rain":0.0,"pressure":824.5,"uv_index":7.85,"wind_gusts":21.6,"aqi":96,"pm10":13.6,"pm2_5":12.8,"no2":21.8,"co":259.0,"o3":95.0,"so2":2.7,"mosquito_risk":3,"arthritis_risk":10,"migraine_risk":7,"frizz_risk":1,"updated_at":"2026-07-11T21:30:11.060412+05:30"},{"city":"Shimla","state":"Himachal Pradesh","latitude":31.1048,"longitude":77.1734,"temp":15.7,"humidity":96,"rain":0.0,"pressure":779.0,"uv_index":3.75,"wind_gusts":31.3,"aqi":146,"pm10":53.0,"pm2_5":44.2,"no2":15.0,"co":611.0,"o3":125.0,"so2":6.6,"mosquito_risk":3,"arthritis_risk":10,"migraine_risk":3,"frizz_risk":0,"updated_at":"2026-07-11T21:30:11.060418+05:30"},{"city":"Manali","state":"Himachal Pradesh","latitude":32.2396,"longitude":77.1887,"temp":19.5,"humidity":96,"rain":0.1,"pressure":814.3,"uv_index":7.7,"wind_gusts":19.1,"aqi":102,"pm10":4.2,"pm2_5":4.1,"no2":51.1,"co":224.0,"o3":86.0,"so2":0.6,"mosquito_risk":6,"arthritis_risk":10,"migraine_risk":7,"frizz_risk":1,"updated_at":"2026-07-11T21:30:11.060425+05:30"},{"city":"Gurgaon","state":"Haryana","latitude":28.4595,"longitude":77.0266,"temp":30.6,"humidity":76,"rain":0.0,"pressure":971.7,"uv_index":7.7,"wind_gusts":30.2,"aqi":493,"pm10":823.3,"pm2_5":187.2,"no2":50.0,"co":1579.0,"o3":32.0,"so2":13.6,"mosquito_risk":3,"arthritis_risk":5,"migraine_risk":7,"frizz_risk":1,"updated_at":"2026-07-11T21:30:11.060432+05:30"},{"city":"Noida","state":"Uttar Pradesh","latitude":28.5355,"longitude":77.391,"temp":31.0,"humidity":78,"rain":0.0,"pressure":974.7,"uv_index":7.65,"wind_gusts":29.2,"aqi":493,"pm10":823.3,"pm2_5":187.2,"no2":50.0,"co":1419.0,"o3":32.0,"so2":13.6,"mosquito_risk":3,"arthritis_risk":5,"migraine_risk":7,"frizz_risk":1,"updated_at":"2026-07-11T21:30:11.060438+05:30"},{"city":"Ghaziabad","state":"Uttar Pradesh","latitude":28.6692,"longitude":77.4538,"temp":31.1,"humidity":76,"rain":0.0,"pressure":973.0,"uv_index":7.05,"wind_gusts":34.2,"aqi":222,"pm10":614.7,"pm2_5":180.2,"no2":61.2,"co":1092.0,"o3":36.0,"so2":23.0,"mosquito_risk":3,"arthritis_risk":5,"migraine_risk":7,"frizz_risk":1,"updated_at":"2026-07-11T21:30:11.060443+05:30"},{"city":"Faridabad","state":"Haryana","latitude":28.4089,"longitude":77.3178,"temp":30.7,"humidity":84,"rain":0.0,"pressure":974.0,"uv_index":7.65,"wind_gusts":31.3,"aqi":493,"pm10":823.3,"pm2_5":187.2,"no2":50.0,"co":1027.0,"o3":32.0,"so2":13.6,"mosquito_risk":3,"arthritis_risk":5,"migraine_risk":7,"frizz_risk":1,"updated_at":"2026-07-11T21:30:11.060448+05:30"},{"city":"Meerut","state":"Uttar Pradesh","latitude":28.9845,"longitude":77.7064,"temp":29.5,"humidity":89,"rain":0.0,"pressure":971.9,"uv_index":7.6,"wind_gusts":28.4,"aqi":222,"pm10":614.7,"pm2_5":180.2,"no2":61.2,"co":816.0,"o3":36.0,"so2":23.0,"mosquito_risk":7,"arthritis_risk":5,"migraine_risk":7,"frizz_risk":1,"updated_at":"2026-07-11T21:30:11.060453+05:30"},{"city":"Agra","state":"Uttar Pradesh","latitude":27.1767,"longitude":78.0081,"temp":30.1,"humidity":67,"rain":0.0,"pressure":978.5,"uv_index":8.0,"wind_gusts":39.6,"aqi":157,"pm10":163.0,"pm2_5":46.9,"no2":20.7,"co":311.0,"o3":54.0,"so2":6.7,"mosquito_risk":3,"arthritis_risk":5,"migraine_risk":7,"frizz_risk":1,"updated_at":"2026-07-11T21:30:11.060470+05:30"},{"city":"Varanasi","state":"Uttar Pradesh","latitude":25.3176,"longitude":82.9739,"temp":29.5,"humidity":76,"rain":0.0,"pressure":989.5,"uv_index":6.3,"wind_gusts":47.5,"aqi":110,"pm10":55.2,"pm2_5":38.3,"no2":12.0,"co":302.0,"o3":76.0,"so2":8.4,"mosquito_risk":7,"arthritis_risk":5,"migraine_risk":7,"frizz_risk":1,"updated_at":"2026-07-11T21:30:11.060475+05:30"},{"city":"Prayagraj","state":"Uttar Pradesh","latitude":25.4358,"longitude":81.8463,"temp":30.8,"humidity":66,"rain":0.0,"pressure":987.9,"uv_index":8.25,"wind_gusts":43.9,"aqi":110,"pm10":60.1,"pm2_5":39.2,"no2":11.7,"co":196.0,"o3":77.0,"so2":8.2,"mosquito_risk":3,"arthritis_risk":5,"migraine_risk":7,"frizz_risk":1,"updated_at":"2026-07-11T21:30:11.060480+05:30"},{"city":"Gorakhpur","state":"Uttar Pradesh","latitude":26.7606,"longitude":83.3732,"temp":26.7,"humidity":97,"rain":0.0,"pressure":988.8,"uv_index":6.05,"wind_gusts":36.0,"aqi":106,"pm10":81.0,"pm2_5":59.4,"no2":18.4,"co":350.0,"o3":78.0,"so2":6.7,"mosquito_risk":7,"arthritis_risk":5,"migraine_risk":7,"frizz_risk":1,"updated_at":"2026-07-11T21:30:11.060485+05:30"},{"city":"Bareilly","state":"Uttar Pradesh","latitude":28.367,"longitude":79.4304,"temp":25.5,"humidity":96,"rain":0.0,"pressure":977.6,"uv_index":8.0,"wind_gusts":36.0,"aqi":152,"pm10":155.5,"pm2_5":82.0,"no2":26.3,"co":348.0,"o3":62.0,"so2":8.6,"mosquito_risk":7,"arthritis_risk":5,"migraine_risk":7,"frizz_risk":1,"updated_at":"2026-07-11T21:30:11.060491+05:30"},{"city":"Aligarh","state":"Uttar Pradesh","latitude":27.8974,"longitude":78.088,"temp":30.2,"humidity":67,"rain":0.0,"pressure":976.1,"uv_index":7.8,"wind_gusts":32.8,"aqi":331,"pm10":482.4,"pm2_5":110.8,"no2":18.7,"co":238.0,"o3":64.0,"so2":5.9,"mosquito_risk":3,"arthritis_risk":5,"migraine_risk":7,"frizz_risk":1,"updated_at":"2026-07-11T21:30:11.060496+05:30"},{"city":"Moradabad","state":"Uttar Pradesh","latitude":28.8386,"longitude":78.7733,"temp":26.8,"humidity":96,"rain":0.1,"pressure":974.5,"uv_index":7.8,"wind_gusts":33.5,"aqi":156,"pm10":148.5,"pm2_5":75.4,"no2":24.6,"co":617.0,"o3":82.0,"so2":9.7,"mosquito_risk":10,"arthritis_risk":5,"migraine_risk":7,"frizz_risk":1,"updated_at":"2026-07-11T21:30:11.060500+05:30"},{"city":"Saharanpur","state":"Uttar Pradesh","latitude":29.9637,"longitude":77.546,"temp":27.9,"humidity":88,"rain":0.0,"pressure":966.5,"uv_index":7.35,"wind_gusts":23.4,"aqi":130,"pm10":80.8,"pm2_5":64.0,"no2":24.9,"co":663.0,"o3":74.0,"so2":10.3,"mosquito_risk":7,"arthritis_risk":5,"migraine_risk":7,"frizz_risk":1,"updated_at":"2026-07-11T21:30:11.060505+05:30"},{"city":"Jhansi","state":"Uttar Pradesh","latitude":25.4484,"longitude":78.5685,"temp":30.0,"humidity":63,"rain":0.0,"pressure":970.4,"uv_index":8.4,"wind_gusts":46.8,"aqi":95,"pm10":43.0,"pm2_5":25.8,"no2":8.1,"co":168.0,"o3":73.0,"so2":6.3,"mosquito_risk":7,"arthritis_risk":5,"migraine_risk":7,"frizz_risk":1,"updated_at":"2026-07-11T21:30:14.400989+05:30"},{"city":"Surat","state":"Gujarat","latitude":21.1702,"longitude":72.8311,"temp":28.5,"humidity":86,"rain":0.0,"pressure":1003.3,"uv_index":5.1,"wind_gusts":61.6,"aqi":60,"pm10":23.1,"pm2_5":13.4,"no2":13.4,"co":210.0,"o3":35.0,"so2":21.5,"mosquito_risk":7,"arthritis_risk":5,"migraine_risk":0,"frizz_risk":1,"updated_at":"2026-07-11T21:30:14.401021+05:30"},{"city":"Vadodara","state":"Gujarat","latitude":22.3072,"longitude":73.1812,"temp":29.0,"humidity":82,"rain":0.0,"pressure":999.3,"uv_index":7.75,"wind_gusts":54.0,"aqi":58,"pm10":32.0,"pm2_5":18.6,"no2":10.3,"co":141.0,"o3":44.0,"so2":7.6,"mosquito_risk":7,"arthritis_risk":5,"migraine_risk":7,"frizz_risk":1,"updated_at":"2026-07-11T21:30:14.401030+05:30"},{"city":"Rajkot","state":"Gujarat","latitude":22.3039,"longitude":70.8022,"temp":28.5,"humidity":75,"rain":0.0,"pressure":989.2,"uv_index":7.1,"wind_gusts":58.7,"aqi":60,"pm10":39.6,"pm2_5":18.9,"no2":4.0,"co":106.0,"o3":47.0,"so2":3.7,"mosquito_risk":7,"arthritis_risk":5,"migraine_risk":7,"frizz_risk":1,"updated_at":"2026-07-11T21:30:14.401037+05:30"},{"city":"Thane","state":"Maharashtra","latitude":19.2183,"longitude":72.9781,"temp":27.3,"humidity":89,"rain":0.0,"pressure":1006.3,"uv_index":6.2,"wind_gusts":44.6,"aqi":55,"pm10":28.8,"pm2_5":12.7,"no2":7.1,"co":236.0,"o3":42.0,"so2":4.8,"mosquito_risk":7,"arthritis_risk":5,"migraine_risk":4,"frizz_risk":1,"updated_at":"2026-07-11T21:30:14.401043+05:30"},{"city":"Nagpur","state":"Maharashtra","latitude":21.1458,"longitude":79.0882,"temp":28.4,"humidity":71,"rain":0.0,"pressure":968.8,"uv_index":6.8,"wind_gusts":47.2,"aqi":83,"pm10":49.9,"pm2_5":27.0,"no2":13.0,"co":269.0,"o3":60.0,"so2":10.5,"mosquito_risk":7,"arthritis_risk":5,"migraine_risk":7,"frizz_risk":1,"updated_at":"2026-07-11T21:30:14.401049+05:30"},{"city":"Nashik","state":"Maharashtra","latitude":19.9975,"longitude":73.7898,"temp":23.7,"humidity":92,"rain":0.0,"pressure":943.3,"uv_index":7.45,"wind_gusts":63.7,"aqi":36,"pm10":14.6,"pm2_5":8.4,"no2":7.6,"co":128.0,"o3":37.0,"so2":3.1,"mosquito_risk":3,"arthritis_risk":5,"migraine_risk":7,"frizz_risk":1,"updated_at":"2026-07-11T21:30:14.401054+05:30"},{"city":"Aurangabad","state":"Maharashtra","latitude":19.8762,"longitude":75.3433,"temp":25.6,"humidity":78,"rain":0.0,"pressure":941.5,"uv_index":8.9,"wind_gusts":60.5,"aqi":50,"pm10":22.9,"pm2_5":12.5,"no2":6.5,"co":148.0,"o3":52.0,"so2":6.5,"mosquito_risk":7,"arthritis_risk":5,"migraine_risk":7,"frizz_risk":1,"updated_at":"2026-07-11T21:30:14.401060+05:30"},{"city":"Solapur","state":"Maharashtra","latitude":17.6599,"longitude":75.9064,"temp":27.7,"humidity":65,"rain":0.0,"pressure":955.7,"uv_index":7.85,"wind_gusts":48.2,"aqi":45,"pm10":24.2,"pm2_5":12.0,"no2":5.5,"co":140.0,"o3":45.0,"so2":2.3,"mosquito_risk":7,"arthritis_risk":5,"migraine_risk":7,"frizz_risk":1,"updated_at":"2026-07-11T21:30:14.401066+05:30"},{"city":"Kolhapur","state":"Maharashtra","latitude":16.705,"longitude":74.2433,"temp":23.0,"humidity":91,"rain":0.0,"pressure":947.7,"uv_index":7.2,"wind_gusts":50.4,"aqi":38,"pm10":16.9,"pm2_5":8.8,"no2":6.8,"co":153.0,"o3":36.0,"so2":2.7,"mosquito_risk":3,"arthritis_risk":5,"migraine_risk":7,"frizz_risk":1,"updated_at":"2026-07-11T21:30:14.401072+05:30"},{"city":"Goa","state":"Goa","latitude":15.2993,"longitude":74.124,"temp":26.5,"humidity":90,"rain":0.0,"pressure":998.7,"uv_index":8.0,"wind_gusts":34.2,"aqi":55,"pm10":25.1,"pm2_5":13.1,"no2":3.9,"co":250.0,"o3":42.0,"so2":1.6,"mosquito_risk":7,"arthritis_risk":5,"migraine_risk":7,"frizz_risk":1,"updated_at":"2026-07-11T21:30:14.401078+05:30"},{"city":"Jodhpur","state":"Rajasthan","latitude":26.2389,"longitude":73.0243,"temp":33.2,"humidity":52,"rain":0.0,"pressure":973.7,"uv_index":8.4,"wind_gusts":53.6,"aqi":200,"pm10":378.1,"pm2_5":88.9,"no2":4.5,"co":124.0,"o3":67.0,"so2":2.5,"mosquito_risk":0,"arthritis_risk":5,"migraine_risk":7,"frizz_risk":1,"updated_at":"2026-07-11T21:30:14.401084+05:30"},{"city":"Udaipur","state":"Rajasthan","latitude":24.5854,"longitude":73.7125,"temp":27.3,"humidity":64,"rain":0.0,"pressure":939.9,"uv_index":8.6,"wind_gusts":53.3,"aqi":69,"pm10":43.4,"pm2_5":23.3,"no2":3.8,"co":118.0,"o3":75.0,"so2":3.5,"mosquito_risk":7,"arthritis_risk":5,"migraine_risk":7,"frizz_risk":1,"updated_at":"2026-07-11T21:30:14.401089+05:30"},{"city":"Kota","state":"Rajasthan","latitude":25.2138,"longitude":75.8648,"temp":30.4,"humidity":60,"rain":0.0,"pressure":971.3,"uv_index":8.3,"wind_gusts":42.5,"aqi":84,"pm10":38.4,"pm2_5":22.1,"no2":6.4,"co":163.0,"o3":74.0,"so2":5.7,"mosquito_risk":0,"arthritis_risk":5,"migraine_risk":7,"frizz_risk":1,"updated_at":"2026-07-11T21:30:14.401094+05:30"},{"city":"Bikaner","state":"Rajasthan","latitude":28.0229,"longitude":73.3119,"temp":34.1,"humidity":50,"rain":0.0,"pressure":971.0,"uv_index":8.45,"wind_gusts":42.5,"aqi":159,"pm10":326.0,"pm2_5":97.8,"no2":3.0,"co":125.0,"o3":73.0,"so2":3.9,"mosquito_risk":0,"arthritis_risk":5,"migraine_risk":7,"frizz_risk":1,"updated_at":"2026-07-11T21:30:14.401100+05:30"},{"city":"Ajmer","state":"Rajasthan","latitude":26.4499,"longitude":74.6399,"temp":29.6,"humidity":61,"rain":0.0,"pressure":946.7,"uv_index":8.25,"wind_gusts":52.2,"aqi":80,"pm10":35.5,"pm2_5":20.9,"no2":5.8,"co":140.0,"o3":71.0,"so2":3.4,"mosquito_risk":7,"arthritis_risk":5,"migraine_risk":7,"frizz_risk":1,"updated_at":"2026-07-11T21:30:14.401106+05:30"},{"city":"Gwalior","state":"Madhya Pradesh","latitude":26.2183,"longitude":78.1828,"temp":29.2,"humidity":69,"rain":0.0,"pressure":974.8,"uv_index":8.15,"wind_gusts":45.7,"aqi":89,"pm10":44.0,"pm2_5":27.4,"no2":9.2,"co":181.0,"o3":71.0,"so2":6.1,"mosquito_risk":7,"arthritis_risk":5,"migraine_risk":7,"frizz_risk":1,"updated_at":"2026-07-11T21:30:14.401111+05:30"},{"city":"Indore","state":"Madhya Pradesh","latitude":22.7196,"longitude":75.8577,"temp":26.2,"humidity":80,"rain":0.0,"pressure":943.5,"uv_index":8.45,"wind_gusts":61.2,"aqi":67,"pm10":30.6,"pm2_5":19.1,"no2":7.1,"co":216.0,"o3":68.0,"so2":7.2,"mosquito_risk":7,"arthritis_risk":5,"migraine_risk":7,"frizz_risk":1,"updated_at":"2026-07-11T21:30:14.401115+05:30"},{"city":"Bhopal","state":"Madhya Pradesh","latitude":23.2599,"longitude":77.4126,"temp":27.3,"humidity":73,"rain":0.0,"pressure":948.5,"uv_index":8.55,"wind_gusts":50.4,"aqi":79,"pm10":39.5,"pm2_5":23.1,"no2":6.5,"co":211.0,"o3":70.0,"so2":4.7,"mosquito_risk":7,"arthritis_risk":5,"migraine_risk":7,"frizz_risk":1,"updated_at":"2026-07-11T21:30:14.401120+05:30"},{"city":"Jabalpur","state":"Madhya Pradesh","latitude":23.1815,"longitude":79.9864,"temp":26.9,"humidity":73,"rain":0.0,"pressure":956.4,"uv_index":5.9,"wind_gusts":44.6,"aqi":84,"pm10":49.0,"pm2_5":26.7,"no2":5.4,"co":196.0,"o3":72.0,"so2":4.7,"mosquito_risk":7,"arthritis_risk":5,"migraine_risk":3,"frizz_risk":1,"updated_at":"2026-07-11T21:30:14.401126+05:30"},{"city":"Ujjain","state":"Madhya Pradesh","latitude":23.1765,"longitude":75.7885,"temp":26.8,"humidity":77,"rain":0.0,"pressure":948.9,"uv_index":7.35,"wind_gusts":54.7,"aqi":67,"pm10":32.6,"pm2_5":20.5,"no2":5.2,"co":183.0,"o3":70.0,"so2":6.2,"mosquito_risk":7,"arthritis_risk":5,"migraine_risk":7,"frizz_risk":1,"updated_at":"2026-07-11T21:30:14.401131+05:30"},{"city":"Visakhapatnam","state":"Andhra Pradesh","latitude":17.6868,"longitude":83.2185,"temp":30.1,"humidity":65,"rain":0.0,"pressure":998.9,"uv_index":7.7,"wind_gusts":37.8,"aqi":93,"pm10":43.7,"pm2_5":27.2,"no2":19.9,"co":321.0,"o3":66.0,"so2":31.7,"mosquito_risk":3,"arthritis_risk":5,"migraine_risk":7,"frizz_risk":1,"updated_at":"2026-07-11T21:30:14.401137+05:30"},{"city":"Vijayawada","state":"Andhra Pradesh","latitude":16.5062,"longitude":80.648,"temp":31.7,"humidity":60,"rain":0.0,"pressure":999.4,"uv_index":5.95,"wind_gusts":44.6,"aqi":85,"pm10":45.5,"pm2_5":31.3,"no2":20.3,"co":255.0,"o3":36.0,"so2":6.5,"mosquito_risk":0,"arthritis_risk":5,"migraine_risk":3,"frizz_risk":1,"updated_at":"2026-07-11T21:30:14.401142+05:30"},{"city":"Guntur","state":"Andhra Pradesh","latitude":16.3067,"longitude":80.4365,"temp":33.3,"humidity":42,"rain":0.0,"pressure":1000.6,"uv_index":5.5,"wind_gusts":47.5,"aqi":80,"pm10":44.6,"pm2_5":28.1,"no2":18.9,"co":342.0,"o3":38.0,"so2":6.1,"mosquito_risk":0,"arthritis_risk":5,"migraine_risk":0,"frizz_risk":1,"updated_at":"2026-07-11T21:30:14.401147+05:30"},{"city":"Nellore","state":"Andhra Pradesh","latitude":14.4426,"longitude":79.9865,"temp":31.4,"humidity":63,"rain":0.0,"pressure":1003.3,"uv_index":7.85,"wind_gusts":42.5,"aqi":66,"pm10":44.6,"pm2_5":25.9,"no2":9.4,"co":197.0,"o3":95.0,"so2":5.2,"mosquito_risk":3,"arthritis_risk":5,"migraine_risk":4,"frizz_risk":1,"updated_at":"2026-07-11T21:30:14.401153+05:30"},{"city":"Kurnool","state":"Andhra Pradesh","latitude":15.8281,"longitude":78.0373,"temp":31.1,"humidity":46,"rain":0.0,"pressure":975.1,"uv_index":7.7,"wind_gusts":47.5,"aqi":58,"pm10":33.8,"pm2_5":16.2,"no2":8.4,"co":147.0,"o3":58.0,"so2":6.0,"mosquito_risk":0,"arthritis_risk":5,"migraine_risk":7,"frizz_risk":1,"updated_at":"2026-07-11T21:30:14.401159+05:30"},{"city":"Kakinada","state":"Andhra Pradesh","latitude":16.9891,"longitude":82.2475,"temp":30.4,"humidity":69,"rain":0.0,"pressure":1003.5,"uv_index":7.9,"wind_gusts":49.0,"aqi":78,"pm10":38.5,"pm2_5":23.1,"no2":8.1,"co":279.0,"o3":81.0,"so2":5.1,"mosquito_risk":3,"arthritis_risk":5,"migraine_risk":4,"frizz_risk":1,"updated_at":"2026-07-11T21:30:14.401165+05:30"},{"city":"Tirupati","state":"Andhra Pradesh","latitude":13.6288,"longitude":79.4192,"temp":31.3,"humidity":55,"rain":0.0,"pressure":989.4,"uv_index":8.1,"wind_gusts":37.1,"aqi":66,"pm10":89.4,"pm2_5":51.5,"no2":58.2,"co":522.0,"o3":12.0,"so2":6.6,"mosquito_risk":0,"arthritis_risk":5,"migraine_risk":7,"frizz_risk":1,"updated_at":"2026-07-11T21:30:14.401170+05:30"},{"city":"Warangal","state":"Telangana","latitude":17.9689,"longitude":79.5941,"temp":28.6,"humidity":66,"rain":0.0,"pressure":975.6,"uv_index":5.6,"wind_gusts":44.3,"aqi":75,"pm10":62.4,"pm2_5":40.6,"no2":20.7,"co":336.0,"o3":33.0,"so2":5.9,"mosquito_risk":7,"arthritis_risk":5,"migraine_risk":3,"frizz_risk":1,"updated_at":"2026-07-11T21:30:14.401175+05:30"},{"city":"Nizamabad","state":"Telangana","latitude":18.6725,"longitude":78.0941,"temp":27.9,"humidity":63,"rain":0.0,"pressure":961.5,"uv_index":8.7,"wind_gusts":49.0,"aqi":69,"pm10":45.3,"pm2_5":24.7,"no2":11.2,"co":210.0,"o3":53.0,"so2":5.6,"mosquito_risk":7,"arthritis_risk":5,"migraine_risk":7,"frizz_risk":1,"updated_at":"2026-07-11T21:30:14.401180+05:30"},{"city":"Mysore","state":"Karnataka","latitude":12.2958,"longitude":76.6396,"temp":23.2,"humidity":89,"rain":0.0,"pressure":929.5,"uv_index":6.0,"wind_gusts":43.2,"aqi":33,"pm10":15.9,"pm2_5":8.8,"no2":10.6,"co":173.0,"o3":42.0,"so2":2.5,"mosquito_risk":3,"arthritis_risk":5,"migraine_risk":3,"frizz_risk":1,"updated_at":"2026-07-11T21:30:14.401185+05:30"},{"city":"Mangalore","state":"Karnataka","latitude":12.9141,"longitude":74.856,"temp":26.4,"humidity":90,"rain":0.1,"pressure":1008.3,"uv_index":8.15,"wind_gusts":44.6,"aqi":52,"pm10":19.4,"pm2_5":10.8,"no2":6.5,"co":176.0,"o3":38.0,"so2":2.3,"mosquito_risk":10,"arthritis_risk":0,"migraine_risk":4,"frizz_risk":1,"updated_at":"2026-07-11T21:30:14.401190+05:30"},{"city":"Hubli-Dharwad","state":"Karnataka","latitude":15.3647,"longitude":75.124,"temp":23.2,"humidity":89,"rain":0.0,"pressure":941.0,"uv_index":7.25,"wind_gusts":49.3,"aqi":32,"pm10":13.1,"pm2_5":7.0,"no2":6.3,"co":139.0,"o3":39.0,"so2":1.7,"mosquito_risk":3,"arthritis_risk":5,"migraine_risk":7,"frizz_risk":1,"updated_at":"2026-07-11T21:30:14.401195+05:30"},{"city":"Belgaum","state":"Karnataka","latitude":15.8497,"longitude":74.4977,"temp":21.5,"humidity":94,"rain":0.0,"pressure":925.5,"uv_index":8.35,"wind_gusts":49.7,"aqi":32,"pm10":17.3,"pm2_5":7.8,"no2":5.8,"co":130.0,"o3":36.0,"so2":1.7,"mosquito_risk":3,"arthritis_risk":5,"migraine_risk":7,"frizz_risk":1,"updated_at":"2026-07-11T21:30:17.727171+05:30"},{"city":"Coimbatore","state":"Tamil Nadu","latitude":11.0168,"longitude":76.9558,"temp":24.5,"humidity":93,"rain":0.0,"pressure":962.2,"uv_index":8.25,"wind_gusts":47.9,"aqi":36,"pm10":15.7,"pm2_5":11.4,"no2":14.6,"co":212.0,"o3":26.0,"so2":3.8,"mosquito_risk":3,"arthritis_risk":5,"migraine_risk":7,"frizz_risk":1,"updated_at":"2026-07-11T21:30:17.727203+05:30"},{"city":"Madurai","state":"Tamil Nadu","latitude":9.9252,"longitude":78.1198,"temp":31.0,"humidity":61,"rain":0.0,"pressure":992.7,"uv_index":8.15,"wind_gusts":28.1,"aqi":55,"pm10":26.3,"pm2_5":23.6,"no2":37.9,"co":189.0,"o3":9.0,"so2":9.4,"mosquito_risk":3,"arthritis_risk":5,"migraine_risk":7,"frizz_risk":1,"updated_at":"2026-07-11T21:30:17.727213+05:30"},{"city":"Trichy","state":"Tamil Nadu","latitude":10.7905,"longitude":78.7047,"temp":30.8,"humidity":59,"rain":0.0,"pressure":999.4,"uv_index":8.05,"wind_gusts":47.9,"aqi":48,"pm10":19.1,"pm2_5":11.8,"no2":11.6,"co":135.0,"o3":43.0,"so2":3.7,"mosquito_risk":0,"arthritis_risk":5,"migraine_risk":7,"frizz_risk":1,"updated_at":"2026-07-11T21:30:17.727220+05:30"},{"city":"Salem","state":"Tamil Nadu","latitude":11.6643,"longitude":78.146,"temp":28.1,"humidity":74,"rain":0.0,"pressure":977.4,"uv_index":7.8,"wind_gusts":27.4,"aqi":60,"pm10":31.1,"pm2_5":18.3,"no2":17.7,"co":418.0,"o3":46.0,"so2":6.2,"mosquito_risk":7,"arthritis_risk":5,"migraine_risk":7,"frizz_risk":1,"updated_at":"2026-07-11T21:30:17.727227+05:30"},{"city":"Tirunelveli","state":"Tamil Nadu","latitude":8.7139,"longitude":77.7567,"temp":30.5,"humidity":61,"rain":0.0,"pressure":1003.7,"uv_index":8.6,"wind_gusts":49.3,"aqi":29,"pm10":14.0,"pm2_5":8.0,"no2":6.0,"co":148.0,"o3":45.0,"so2":2.1,"mosquito_risk":3,"arthritis_risk":5,"migraine_risk":4,"frizz_risk":1,"updated_at":"2026-07-11T21:30:17.727234+05:30"},{"city":"Vellore","state":"Tamil Nadu","latitude":12.9165,"longitude":79.1325,"temp":32.0,"humidity":40,"rain":0.0,"pressure":983.2,"uv_index":8.75,"wind_gusts":41.4,"aqi":60,"pm10":49.2,"pm2_5":28.9,"no2":24.3,"co":190.0,"o3":36.0,"so2":5.2,"mosquito_risk":0,"arthritis_risk":5,"migraine_risk":7,"frizz_risk":1,"updated_at":"2026-07-11T21:30:17.727240+05:30"},{"city":"Erode","state":"Tamil Nadu","latitude":11.341,"longitude":77.7172,"temp":28.7,"humidity":71,"rain":0.0,"pressure":989.1,"uv_index":7.85,"wind_gusts":35.6,"aqi":53,"pm10":32.2,"pm2_5":17.5,"no2":18.4,"co":199.0,"o3":35.0,"so2":4.0,"mosquito_risk":7,"arthritis_risk":5,"migraine_risk":7,"frizz_risk":1,"updated_at":"2026-07-11T21:30:17.727246+05:30"},{"city":"Kochi","state":"Kerala","latitude":9.9312,"longitude":76.2673,"temp":27.5,"humidity":88,"rain":0.0,"pressure":1010.5,"uv_index":7.75,"wind_gusts":36.7,"aqi":51,"pm10":20.7,"pm2_5":15.7,"no2":18.3,"co":152.0,"o3":22.0,"so2":4.8,"mosquito_risk":7,"arthritis_risk":0,"migraine_risk":4,"frizz_risk":1,"updated_at":"2026-07-11T21:30:17.727252+05:30"},{"city":"Thiruvananthapuram","state":"Kerala","latitude":8.5241,"longitude":76.9366,"temp":26.4,"humidity":89,"rain":0.0,"pressure":1010.0,"uv_index":8.0,"wind_gusts":49.3,"aqi":35,"pm10":15.9,"pm2_5":9.1,"no2":5.3,"co":138.0,"o3":46.0,"so2":1.8,"mosquito_risk":7,"arthritis_risk":0,"migraine_risk":4,"frizz_risk":1,"updated_at":"2026-07-11T21:30:17.727258+05:30"},{"city":"Kozhikode","state":"Kerala","latitude":11.2588,"longitude":75.7804,"temp":25.9,"humidity":95,"rain":0.0,"pressure":1009.6,"uv_index":7.4,"wind_gusts":37.8,"aqi":40,"pm10":16.9,"pm2_5":8.8,"no2":2.6,"co":196.0,"o3":49.0,"so2":1.4,"mosquito_risk":7,"arthritis_risk":0,"migraine_risk":4,"frizz_risk":1,"updated_at":"2026-07-11T21:30:17.727264+05:30"},{"city":"Thrissur","state":"Kerala","latitude":10.5276,"longitude":76.2144,"temp":26.7,"humidity":88,"rain":0.0,"pressure":1008.7,"uv_index":7.1,"wind_gusts":36.7,"aqi":52,"pm10":18.8,"pm2_5":13.4,"no2":11.6,"co":285.0,"o3":29.0,"so2":3.5,"mosquito_risk":7,"arthritis_risk":0,"migraine_risk":4,"frizz_risk":1,"updated_at":"2026-07-11T21:30:17.727269+05:30"},{"city":"Kannur","state":"Kerala","latitude":11.8745,"longitude":75.3704,"temp":27.0,"humidity":87,"rain":0.0,"pressure":1008.8,"uv_index":8.05,"wind_gusts":41.4,"aqi":48,"pm10":16.8,"pm2_5":10.2,"no2":10.2,"co":203.0,"o3":33.0,"so2":2.4,"mosquito_risk":7,"arthritis_risk":0,"migraine_risk":4,"frizz_risk":1,"updated_at":"2026-07-11T21:30:17.727275+05:30"},{"city":"Patna","state":"Bihar","latitude":25.5941,"longitude":85.1376,"temp":27.1,"humidity":95,"rain":0.2,"pressure":992.6,"uv_index":4.8,"wind_gusts":31.0,"aqi":113,"pm10":85.9,"pm2_5":66.4,"no2":23.3,"co":367.0,"o3":67.0,"so2":11.9,"mosquito_risk":10,"arthritis_risk":5,"migraine_risk":3,"frizz_risk":1,"updated_at":"2026-07-11T21:30:17.727280+05:30"},{"city":"Gaya","state":"Bihar","latitude":24.7914,"longitude":85.0002,"temp":29.1,"humidity":80,"rain":0.0,"pressure":986.3,"uv_index":7.5,"wind_gusts":40.3,"aqi":99,"pm10":52.4,"pm2_5":40.0,"no2":19.0,"co":274.0,"o3":73.0,"so2":29.4,"mosquito_risk":7,"arthritis_risk":5,"migraine_risk":7,"frizz_risk":1,"updated_at":"2026-07-11T21:30:17.727286+05:30"},{"city":"Muzaffarpur","state":"Bihar","latitude":26.1209,"longitude":85.3647,"temp":27.2,"humidity":96,"rain":0.1,"pressure":992.5,"uv_index":4.95,"wind_gusts":29.5,"aqi":117,"pm10":95.2,"pm2_5":71.0,"no2":21.6,"co":481.0,"o3":74.0,"so2":8.8,"mosquito_risk":10,"arthritis_risk":5,"migraine_risk":3,"frizz_risk":1,"updated_at":"2026-07-11T21:30:17.727291+05:30"},{"city":"Bhagalpur","state":"Bihar","latitude":25.2425,"longitude":87.0117,"temp":28.6,"humidity":84,"rain":0.0,"pressure":993.2,"uv_index":7.65,"wind_gusts":34.2,"aqi":81,"pm10":34.5,"pm2_5":26.8,"no2":12.4,"co":352.0,"o3":77.0,"so2":5.7,"mosquito_risk":7,"arthritis_risk":5,"migraine_risk":7,"frizz_risk":1,"updated_at":"2026-07-11T21:30:17.727296+05:30"},{"city":"Ranchi","state":"Jharkhand","latitude":23.3441,"longitude":85.3096,"temp":24.5,"humidity":94,"rain":0.0,"pressure":931.9,"uv_index":7.0,"wind_gusts":40.7,"aqi":89,"pm10":43.9,"pm2_5":31.5,"no2":9.2,"co":234.0,"o3":67.0,"so2":4.7,"mosquito_risk":3,"arthritis_risk":5,"migraine_risk":7,"frizz_risk":1,"updated_at":"2026-07-11T21:30:17.727301+05:30"},{"city":"Jamshedpur","state":"Jharkhand","latitude":22.8046,"longitude":86.2029,"temp":28.4,"humidity":80,"rain":0.0,"pressure":984.5,"uv_index":8.5,"wind_gusts":34.2,"aqi":110,"pm10":50.3,"pm2_5":35.5,"no2":16.1,"co":340.0,"o3":61.0,"so2":15.7,"mosquito_risk":7,"arthritis_risk":5,"migraine_risk":7,"frizz_risk":1,"updated_at":"2026-07-11T21:30:17.727307+05:30"},{"city":"Dhanbad","state":"Jharkhand","latitude":23.7957,"longitude":86.4304,"temp":27.2,"humidity":90,"rain":0.0,"pressure":972.8,"uv_index":8.65,"wind_gusts":32.0,"aqi":120,"pm10":49.1,"pm2_5":37.3,"no2":35.6,"co":267.0,"o3":39.0,"so2":77.0,"mosquito_risk":7,"arthritis_risk":5,"migraine_risk":7,"frizz_risk":1,"updated_at":"2026-07-11T21:30:17.727312+05:30"},{"city":"Bokaro","state":"Jharkhand","latitude":23.6693,"longitude":86.1511,"temp":28.0,"humidity":82,"rain":0.0,"pressure":976.7,"uv_index":6.9,"wind_gusts":33.5,"aqi":110,"pm10":50.9,"pm2_5":36.3,"no2":26.3,"co":286.0,"o3":48.0,"so2":59.3,"mosquito_risk":7,"arthritis_risk":5,"migraine_risk":7,"frizz_risk":1,"updated_at":"2026-07-11T21:30:17.727317+05:30"},{"city":"Bhubaneswar","state":"Odisha","latitude":20.2961,"longitude":85.8245,"temp":28.5,"humidity":86,"rain":0.0,"pressure":996.7,"uv_index":8.45,"wind_gusts":35.3,"aqi":90,"pm10":59.8,"pm2_5":42.3,"no2":17.7,"co":386.0,"o3":70.0,"so2":9.3,"mosquito_risk":7,"arthritis_risk":5,"migraine_risk":7,"frizz_risk":1,"updated_at":"2026-07-11T21:30:17.727322+05:30"},{"city":"Cuttack","state":"Odisha","latitude":20.4625,"longitude":85.8828,"temp":29.1,"humidity":83,"rain":0.0,"pressure":998.5,"uv_index":8.55,"wind_gusts":36.0,"aqi":90,"pm10":59.8,"pm2_5":42.3,"no2":17.7,"co":412.0,"o3":70.0,"so2":9.3,"mosquito_risk":7,"arthritis_risk":5,"migraine_risk":7,"frizz_risk":1,"updated_at":"2026-07-11T21:30:17.727327+05:30"},{"city":"Rourkela","state":"Odisha","latitude":22.2604,"longitude":84.8536,"temp":28.0,"humidity":80,"rain":0.0,"pressure":979.4,"uv_index":8.2,"wind_gusts":32.8,"aqi":128,"pm10":57.7,"pm2_5":39.9,"no2":13.0,"co":388.0,"o3":93.0,"so2":25.1,"mosquito_risk":7,"arthritis_risk":5,"migraine_risk":7,"frizz_risk":1,"updated_at":"2026-07-11T21:30:17.727332+05:30"},{"city":"Raipur","state":"Chhattisgarh","latitude":21.2514,"longitude":81.6296,"temp":28.5,"humidity":64,"rain":0.0,"pressure":969.8,"uv_index":7.6,"wind_gusts":40.7,"aqi":114,"pm10":61.7,"pm2_5":38.6,"no2":23.7,"co":453.0,"o3":63.0,"so2":40.8,"mosquito_risk":7,"arthritis_risk":5,"migraine_risk":7,"frizz_risk":1,"updated_at":"2026-07-11T21:30:17.727337+05:30"},{"city":"Bhilai","state":"Chhattisgarh","latitude":21.1938,"longitude":81.3509,"temp":27.8,"humidity":69,"rain":0.0,"pressure":970.3,"uv_index":7.4,"wind_gusts":45.4,"aqi":107,"pm10":58.9,"pm2_5":35.3,"no2":18.7,"co":625.0,"o3":68.0,"so2":32.6,"mosquito_risk":7,"arthritis_risk":5,"migraine_risk":7,"frizz_risk":1,"updated_at":"2026-07-11T21:30:17.727341+05:30"},{"city":"Guwahati","state":"Assam","latitude":26.1158,"longitude":91.7086,"temp":26.0,"humidity":98,"rain":0.3,"pressure":993.5,"uv_index":8.55,"wind_gusts":24.5,"aqi":41,"pm10":22.1,"pm2_5":22.0,"no2":11.9,"co":376.0,"o3":51.0,"so2":2.7,"mosquito_risk":10,"arthritis_risk":5,"migraine_risk":7,"frizz_risk":1,"updated_at":"2026-07-11T21:30:17.727346+05:30"},{"city":"Agartala","state":"Tripura","latitude":23.8315,"longitude":91.2868,"temp":26.2,"humidity":99,"rain":0.1,"pressure":999.5,"uv_index":6.75,"wind_gusts":35.6,"aqi":81,"pm10":37.5,"pm2_5":30.0,"no2":9.7,"co":239.0,"o3":75.0,"so2":4.2,"mosquito_risk":10,"arthritis_risk":5,"migraine_risk":7,"frizz_risk":1,"updated_at":"2026-07-11T21:30:17.727350+05:30"},{"city":"Shillong","state":"Meghalaya","latitude":25.5788,"longitude":91.8933,"temp":21.3,"humidity":95,"rain":0.0,"pressure":852.0,"uv_index":3.95,"wind_gusts":27.4,"aqi":41,"pm10":3.9,"pm2_5":3.8,"no2":7.2,"co":323.0,"o3":84.0,"so2":3.7,"mosquito_risk":3,"arthritis_risk":5,"migraine_risk":3,"frizz_risk":1,"updated_at":"2026-07-11T21:30:17.727355+05:30"},{"city":"Imphal","state":"Manipur","latitude":24.817,"longitude":93.9368,"temp":23.7,"humidity":97,"rain":0.1,"pressure":917.5,"uv_index":8.55,"wind_gusts":33.1,"aqi":33,"pm10":12.0,"pm2_5":11.6,"no2":13.6,"co":406.0,"o3":43.0,"so2":3.1,"mosquito_risk":6,"arthritis_risk":5,"migraine_risk":7,"frizz_risk":1,"updated_at":"2026-07-11T21:30:17.727360+05:30"},{"city":"Aizawl","state":"Mizoram","latitude":23.7271,"longitude":92.7176,"temp":20.5,"humidity":95,"rain":0.1,"pressure":887.3,"uv_index":8.25,"wind_gusts":40.0,"aqi":40,"pm10":11.9,"pm2_5":8.3,"no2":4.1,"co":160.0,"o3":76.0,"so2":3.5,"mosquito_risk":6,"arthritis_risk":5,"migraine_risk":7,"frizz_risk":1,"updated_at":"2026-07-11T21:30:17.727365+05:30"},{"city":"Kohima","state":"Nagaland","latitude":25.6701,"longitude":94.1077,"temp":21.2,"humidity":96,"rain":0.0,"pressure":850.5,"uv_index":6.6,"wind_gusts":20.9,"aqi":32,"pm10":7.9,"pm2_5":7.7,"no2":9.5,"co":317.0,"o3":52.0,"so2":1.9,"mosquito_risk":3,"arthritis_risk":5,"migraine_risk":7,"frizz_risk":1,"updated_at":"2026-07-11T21:30:17.727370+05:30"},{"city":"Gangtok","state":"Sikkim","latitude":27.3314,"longitude":88.6138,"temp":19.4,"humidity":97,"rain":0.2,"pressure":832.8,"uv_index":8.5,"wind_gusts":30.6,"aqi":48,"pm10":8.9,"pm2_5":8.8,"no2":6.6,"co":365.0,"o3":94.0,"so2":1.0,"mosquito_risk":6,"arthritis_risk":10,"migraine_risk":7,"frizz_risk":1,"updated_at":"2026-07-11T21:30:17.727376+05:30"},{"city":"Siliguri","state":"West Bengal","latitude":26.7271,"longitude":88.3953,"temp":26.2,"humidity":98,"rain":0.1,"pressure":985.0,"uv_index":5.0,"wind_gusts":25.6,"aqi":87,"pm10":27.3,"pm2_5":27.1,"no2":12.9,"co":1049.0,"o3":97.0,"so2":3.9,"mosquito_risk":10,"arthritis_risk":5,"migraine_risk":3,"frizz_risk":1,"updated_at":"2026-07-11T21:30:21.056049+05:30"},{"city":"Durgapur","state":"West Bengal","latitude":23.5204,"longitude":87.3119,"temp":28.5,"humidity":84,"rain":0.0,"pressure":987.7,"uv_index":6.3,"wind_gusts":35.3,"aqi":125,"pm10":43.5,"pm2_5":35.3,"no2":43.0,"co":300.0,"o3":30.0,"so2":63.4,"mosquito_risk":7,"arthritis_risk":5,"migraine_risk":7,"frizz_risk":1,"updated_at":"2026-07-11T21:30:21.056082+05:30"},{"city":"Asansol","state":"West Bengal","latitude":23.6739,"longitude":86.9524,"temp":28.3,"humidity":85,"rain":0.0,"pressure":986.1,"uv_index":7.05,"wind_gusts":38.2,"aqi":110,"pm10":41.4,"pm2_5":30.7,"no2":36.2,"co":1108.0,"o3":38.0,"so2":54.6,"mosquito_risk":7,"arthritis_risk":5,"migraine_risk":7,"frizz_risk":1,"updated_at":"2026-07-11T21:30:21.056092+05:30"},{"city":"Pondicherry","state":"Puducherry","latitude":11.9139,"longitude":79.8145,"temp":30.7,"humidity":74,"rain":0.0,"pressure":1006.7,"uv_index":8.15,"wind_gusts":38.2,"aqi":77,"pm10":37.1,"pm2_5":21.7,"no2":13.7,"co":193.0,"o3":83.0,"so2":8.6,"mosquito_risk":3,"arthritis_risk":5,"migraine_risk":4,"frizz_risk":1,"updated_at":"2026-07-11T21:30:21.056099+05:30"},{"city":"Port Blair","state":"Andaman and Nicobar Islands","latitude":11.6234,"longitude":92.7265,"temp":26.9,"humidity":86,"rain":0.1,"pressure":1007.2,"uv_index":8.8,"wind_gusts":57.6,"aqi":33,"pm10":16.2,"pm2_5":8.8,"no2":0.3,"co":90.0,"o3":52.0,"so2":0.4,"mosquito_risk":10,"arthritis_risk":5,"migraine_risk":4,"frizz_risk":1,"updated_at":"2026-07-11T21:30:21.056106+05:30"},{"city":"Haridwar","state":"Uttarakhand","latitude":29.9457,"longitude":78.1642,"temp":27.0,"humidity":95,"rain":0.0,"pressure":965.1,"uv_index":7.5,"wind_gusts":20.5,"aqi":127,"pm10":83.4,"pm2_5":65.2,"no2":21.4,"co":445.0,"o3":81.0,"so2":9.4,"mosquito_risk":7,"arthritis_risk":5,"migraine_risk":7,"frizz_risk":1,"updated_at":"2026-07-11T21:30:21.056113+05:30"},{"city":"Rishikesh","state":"Uttarakhand","latitude":30.0869,"longitude":78.2676,"temp":26.4,"humidity":95,"rain":0.1,"pressure":958.2,"uv_index":7.6,"wind_gusts":19.1,"aqi":120,"pm10":34.8,"pm2_5":26.8,"no2":7.5,"co":463.0,"o3":123.0,"so2":5.0,"mosquito_risk":10,"arthritis_risk":5,"migraine_risk":7,"frizz_risk":1,"updated_at":"2026-07-11T21:30:21.056119+05:30"},{"city":"Nainital","state":"Uttarakhand","latitude":29.3919,"longitude":79.4542,"temp":17.4,"humidity":100,"rain":0.0,"pressure":800.0,"uv_index":3.1,"wind_gusts":27.7,"aqi":90,"pm10":57.2,"pm2_5":39.1,"no2":16.6,"co":363.0,"o3":90.0,"so2":7.5,"mosquito_risk":3,"arthritis_risk":10,"migraine_risk":3,"frizz_risk":1,"updated_at":"2026-07-11T21:30:21.056125+05:30"},{"city":"Mussoorie","state":"Uttarakhand","latitude":30.4599,"longitude":78.0664,"temp":17.1,"humidity":100,"rain":0.0,"pressure":797.7,"uv_index":7.75,"wind_gusts":25.2,"aqi":122,"pm10":33.2,"pm2_5":29.5,"no2":27.4,"co":354.0,"o3":89.0,"so2":7.3,"mosquito_risk":3,"arthritis_risk":10,"migraine_risk":7,"frizz_risk":1,"updated_at":"2026-07-11T21:30:21.056132+05:30"},{"city":"Dharamshala","state":"Himachal Pradesh","latitude":32.219,"longitude":76.3234,"temp":22.0,"humidity":93,"rain":0.0,"pressure":862.8,"uv_index":8.4,"wind_gusts":27.4,"aqi":105,"pm10":15.0,"pm2_5":13.0,"no2":15.7,"co":691.0,"o3":83.0,"so2":1.7,"mosquito_risk":3,"arthritis_risk":5,"migraine_risk":7,"frizz_risk":1,"updated_at":"2026-07-11T21:30:21.056138+05:30"},{"city":"Dalhousie","state":"Himachal Pradesh","latitude":32.5387,"longitude":75.971,"temp":18.0,"humidity":92,"rain":0.0,"pressure":799.3,"uv_index":8.65,"wind_gusts":20.9,"aqi":155,"pm10":48.2,"pm2_5":38.5,"no2":31.3,"co":672.0,"o3":118.0,"so2":4.6,"mosquito_risk":3,"arthritis_risk":10,"migraine_risk":7,"frizz_risk":1,"updated_at":"2026-07-11T21:30:21.056144+05:30"},{"city":"Patiala","state":"Punjab","latitude":30.3398,"longitude":76.3869,"temp":29.6,"humidity":82,"rain":0.0,"pressure":968.6,"uv_index":7.5,"wind_gusts":24.5,"aqi":162,"pm10":339.0,"pm2_5":139.7,"no2":45.4,"co":817.0,"o3":44.0,"so2":9.5,"mosquito_risk":7,"arthritis_risk":5,"migraine_risk":7,"frizz_risk":1,"updated_at":"2026-07-11T21:30:21.056150+05:30"},{"city":"Bhatinda","state":"Punjab","latitude":30.211,"longitude":74.9455,"temp":32.4,"humidity":67,"rain":0.0,"pressure":973.0,"uv_index":8.1,"wind_gusts":27.0,"aqi":175,"pm10":235.6,"pm2_5":118.3,"no2":39.1,"co":474.0,"o3":53.0,"so2":11.8,"mosquito_risk":3,"arthritis_risk":5,"migraine_risk":7,"frizz_risk":1,"updated_at":"2026-07-11T21:30:21.056155+05:30"},{"city":"Rohtak","state":"Haryana","latitude":28.8955,"longitude":76.6066,"temp":30.9,"humidity":67,"rain":0.0,"pressure":971.9,"uv_index":7.6,"wind_gusts":32.0,"aqi":669,"pm10":892.2,"pm2_5":163.4,"no2":32.7,"co":328.0,"o3":46.0,"so2":5.5,"mosquito_risk":3,"arthritis_risk":5,"migraine_risk":7,"frizz_risk":1,"updated_at":"2026-07-11T21:30:21.056162+05:30"},{"city":"Panipat","state":"Haryana","latitude":29.3909,"longitude":76.9635,"temp":30.1,"humidity":83,"rain":0.0,"pressure":970.8,"uv_index":7.1,"wind_gusts":25.6,"aqi":807,"pm10":1128.8,"pm2_5":213.7,"no2":41.3,"co":924.0,"o3":38.0,"so2":8.9,"mosquito_risk":3,"arthritis_risk":5,"migraine_risk":7,"frizz_risk":1,"updated_at":"2026-07-11T21:30:21.056167+05:30"},{"city":"Mathura","state":"Uttar Pradesh","latitude":27.4924,"longitude":77.6737,"temp":31.2,"humidity":60,"rain":0.0,"pressure":977.4,"uv_index":7.6,"wind_gusts":32.4,"aqi":529,"pm10":819.6,"pm2_5":127.1,"no2":20.4,"co":221.0,"o3":59.0,"so2":4.6,"mosquito_risk":0,"arthritis_risk":5,"migraine_risk":7,"frizz_risk":1,"updated_at":"2026-07-11T21:30:21.056173+05:30"},{"city":"Vrindavan","state":"Uttar Pradesh","latitude":27.5823,"longitude":77.7027,"temp":31.3,"humidity":60,"rain":0.0,"pressure":977.8,"uv_index":7.75,"wind_gusts":30.6,"aqi":529,"pm10":819.6,"pm2_5":127.1,"no2":20.4,"co":211.0,"o3":59.0,"so2":4.6,"mosquito_risk":0,"arthritis_risk":5,"migraine_risk":7,"frizz_risk":1,"updated_at":"2026-07-11T21:30:21.056179+05:30"},{"city":"Ayodhya","state":"Uttar Pradesh","latitude":26.7922,"longitude":82.1998,"temp":27.6,"humidity":93,"rain":0.4,"pressure":987.0,"uv_index":6.95,"wind_gusts":37.4,"aqi":150,"pm10":115.0,"pm2_5":62.9,"no2":20.6,"co":446.0,"o3":59.0,"so2":6.4,"mosquito_risk":10,"arthritis_risk":5,"migraine_risk":7,"frizz_risk":1,"updated_at":"2026-07-11T21:30:21.056185+05:30"},{"city":"Ratlam","state":"Madhya Pradesh","latitude":23.3315,"longitude":75.0367,"temp":26.7,"humidity":80,"rain":0.0,"pressure":949.6,"uv_index":5.5,"wind_gusts":59.0,"aqi":64,"pm10":29.7,"pm2_5":18.7,"no2":5.0,"co":142.0,"o3":69.0,"so2":6.6,"mosquito_risk":7,"arthritis_risk":5,"migraine_risk":3,"frizz_risk":1,"updated_at":"2026-07-11T21:30:21.056193+05:30"},{"city":"Sagar","state":"Madhya Pradesh","latitude":23.8388,"longitude":78.7378,"temp":27.4,"humidity":70,"rain":0.0,"pressure":944.4,"uv_index":7.7,"wind_gusts":52.6,"aqi":86,"pm10":40.4,"pm2_5":23.0,"no2":5.0,"co":170.0,"o3":70.0,"so2":3.2,"mosquito_risk":7,"arthritis_risk":5,"migraine_risk":7,"frizz_risk":1,"updated_at":"2026-07-11T21:30:21.056199+05:30"},{"city":"Satna","state":"Madhya Pradesh","latitude":24.6005,"longitude":80.8322,"temp":29.1,"humidity":61,"rain":0.0,"pressure":964.8,"uv_index":8.15,"wind_gusts":45.0,"aqi":92,"pm10":46.1,"pm2_5":27.0,"no2":7.7,"co":162.0,"o3":70.0,"so2":4.0,"mosquito_risk":7,"arthritis_risk":5,"migraine_risk":7,"frizz_risk":1,"updated_at":"2026-07-11T21:30:21.056205+05:30"},{"city":"Akola","state":"Maharashtra","latitude":20.7002,"longitude":77.0082,"temp":30.2,"humidity":58,"rain":0.0,"pressure":971.2,"uv_index":8.7,"wind_gusts":50.4,"aqi":64,"pm10":25.8,"pm2_5":13.5,"no2":7.4,"co":126.0,"o3":53.0,"so2":6.4,"mosquito_risk":0,"arthritis_risk":5,"migraine_risk":7,"frizz_risk":1,"updated_at":"2026-07-11T21:30:21.056212+05:30"},{"city":"Amravati","state":"Maharashtra","latitude":20.9374,"longitude":77.7796,"temp":29.0,"humidity":63,"rain":0.0,"pressure":963.3,"uv_index":8.65,"wind_gusts":52.9,"aqi":67,"pm10":28.9,"pm2_5":14.9,"no2":8.6,"co":161.0,"o3":55.0,"so2":7.6,"mosquito_risk":7,"arthritis_risk":5,"migraine_risk":7,"frizz_risk":1,"updated_at":"2026-07-11T21:30:21.056218+05:30"},{"city":"Latur","state":"Maharashtra","latitude":18.4088,"longitude":76.5604,"temp":26.9,"humidity":62,"rain":0.0,"pressure":937.5,"uv_index":8.5,"wind_gusts":46.8,"aqi":51,"pm10":25.3,"pm2_5":12.6,"no2":4.1,"co":162.0,"o3":55.0,"so2":2.5,"mosquito_risk":7,"arthritis_risk":5,"migraine_risk":7,"frizz_risk":1,"updated_at":"2026-07-11T21:30:21.056224+05:30"},{"city":"Nanded","state":"Maharashtra","latitude":19.1383,"longitude":77.3091,"temp":29.1,"humidity":58,"rain":0.0,"pressure":965.3,"uv_index":8.1,"wind_gusts":46.4,"aqi":61,"pm10":35.2,"pm2_5":19.2,"no2":7.3,"co":220.0,"o3":61.0,"so2":3.8,"mosquito_risk":4,"arthritis_risk":5,"migraine_risk":7,"frizz_risk":1,"updated_at":"2026-07-11T21:30:21.056229+05:30"},{"city":"Gulbarga","state":"Karnataka","latitude":17.3297,"longitude":76.8343,"temp":28.5,"humidity":59,"rain":0.0,"pressure":956.8,"uv_index":7.65,"wind_gusts":49.3,"aqi":51,"pm10":29.3,"pm2_5":14.1,"no2":7.7,"co":137.0,"o3":49.0,"so2":2.7,"mosquito_risk":4,"arthritis_risk":5,"migraine_risk":7,"frizz_risk":1,"updated_at":"2026-07-11T21:30:21.056234+05:30"},{"city":"Bidar","state":"Karnataka","latitude":17.9104,"longitude":77.5199,"temp":27.4,"humidity":54,"rain":0.0,"pressure":933.3,"uv_index":6.4,"wind_gusts":44.3,"aqi":58,"pm10":36.0,"pm2_5":16.5,"no2":7.1,"co":149.0,"o3":59.0,"so2":2.4,"mosquito_risk":4,"arthritis_risk":5,"migraine_risk":7,"frizz_risk":1,"updated_at":"2026-07-11T21:30:21.056240+05:30"},{"city":"Hospet","state":"Karnataka","latitude":15.2689,"longitude":76.3909,"temp":26.5,"humidity":70,"rain":0.0,"pressure":955.7,"uv_index":8.3,"wind_gusts":49.0,"aqi":42,"pm10":15.4,"pm2_5":8.6,"no2":6.6,"co":142.0,"o3":43.0,"so2":1.9,"mosquito_risk":7,"arthritis_risk":5,"migraine_risk":7,"frizz_risk":1,"updated_at":"2026-07-11T21:30:21.056245+05:30"},{"city":"Tirupur","state":"Tamil Nadu","latitude":11.1085,"longitude":77.3411,"temp":26.4,"humidity":82,"rain":0.0,"pressure":975.6,"uv_index":8.1,"wind_gusts":50.0,"aqi":55,"pm10":38.4,"pm2_5":21.0,"no2":22.9,"co":179.0,"o3":30.0,"so2":5.6,"mosquito_risk":7,"arthritis_risk":5,"migraine_risk":7,"frizz_risk":1,"updated_at":"2026-07-11T21:30:21.056251+05:30"},{"city":"Alappuzha","state":"Kerala","latitude":9.4981,"longitude":76.3388,"temp":27.4,"humidity":88,"rain":0.0,"pressure":1010.8,"uv_index":8.2,"wind_gusts":41.8,"aqi":44,"pm10":18.6,"pm2_5":11.9,"no2":11.1,"co":83.0,"o3":38.0,"so2":3.3,"mosquito_risk":7,"arthritis_risk":0,"migraine_risk":4,"frizz_risk":1,"updated_at":"2026-07-11T21:30:21.056256+05:30"},{"city":"Munnar","state":"Kerala","latitude":10.0889,"longitude":77.0595,"temp":17.1,"humidity":97,"rain":0.0,"pressure":857.6,"uv_index":8.2,"wind_gusts":38.2,"aqi":21,"pm10":11.4,"pm2_5":8.2,"no2":11.4,"co":125.0,"o3":24.0,"so2":2.0,"mosquito_risk":3,"arthritis_risk":10,"migraine_risk":7,"frizz_risk":1,"updated_at":"2026-07-11T21:30:21.056262+05:30"},{"city":"Silchar","state":"Assam","latitude":24.8333,"longitude":92.7789,"temp":27.0,"humidity":96,"rain":0.1,"pressure":998.2,"uv_index":7.95,"wind_gusts":27.7,"aqi":39,"pm10":17.6,"pm2_5":16.1,"no2":7.7,"co":346.0,"o3":74.0,"so2":4.1,"mosquito_risk":10,"arthritis_risk":5,"migraine_risk":7,"frizz_risk":1,"updated_at":"2026-07-11T21:30:21.056267+05:30"},{"city":"Dibrugarh","state":"Assam","latitude":27.4728,"longitude":94.912,"temp":28.3,"humidity":91,"rain":0.1,"pressure":987.1,"uv_index":6.55,"wind_gusts":28.4,"aqi":45,"pm10":10.2,"pm2_5":10.1,"no2":9.9,"co":217.0,"o3":62.0,"so2":1.6,"mosquito_risk":10,"arthritis_risk":5,"migraine_risk":7,"frizz_risk":1,"updated_at":"2026-07-11T21:30:21.056272+05:30"}]