[{"city":"Delhi","state":"Delhi","latitude":28.6139,"longitude":77.209,"temp":41.9,"humidity":15,"rain":0.0,"pressure":976.3,"uv_index":7.7,"wind_gusts":42.1,"aqi":548,"pm10":841.9,"pm2_5":148.1,"no2":5.7,"co":225.0,"o3":137.0,"so2":10.0,"mosquito_risk":0,"arthritis_risk":5,"migraine_risk":10,"frizz_risk":0,"updated_at":"2026-05-25T15:43:51.974472+05:30"},{"city":"Mumbai","state":"Maharashtra","latitude":19.076,"longitude":72.8777,"temp":31.4,"humidity":70,"rain":0.1,"pressure":1007.4,"uv_index":7.8,"wind_gusts":45.7,"aqi":52,"pm10":16.5,"pm2_5":11.6,"no2":4.1,"co":170.0,"o3":66.0,"so2":3.8,"mosquito_risk":6,"arthritis_risk":5,"migraine_risk":4,"frizz_risk":1,"updated_at":"2026-05-25T15:43:51.974507+05:30"},{"city":"Bangalore","state":"Karnataka","latitude":12.9716,"longitude":77.5946,"temp":24.6,"humidity":83,"rain":0.2,"pressure":910.6,"uv_index":6.6,"wind_gusts":44.3,"aqi":62,"pm10":20.7,"pm2_5":16.9,"no2":8.4,"co":378.0,"o3":138.0,"so2":4.2,"mosquito_risk":6,"arthritis_risk":5,"migraine_risk":7,"frizz_risk":1,"updated_at":"2026-05-25T15:43:51.974522+05:30"},{"city":"Hyderabad","state":"Telangana","latitude":17.385,"longitude":78.4867,"temp":38.5,"humidity":25,"rain":0.0,"pressure":950.6,"uv_index":9.2,"wind_gusts":35.3,"aqi":65,"pm10":50.6,"pm2_5":25.7,"no2":2.2,"co":235.0,"o3":135.0,"so2":4.6,"mosquito_risk":0,"arthritis_risk":5,"migraine_risk":10,"frizz_risk":0,"updated_at":"2026-05-25T15:43:51.974531+05:30"},{"city":"Chennai","state":"Tamil Nadu","latitude":13.0827,"longitude":80.2707,"temp":35.7,"humidity":55,"rain":0.0,"pressure":1003.2,"uv_index":9.05,"wind_gusts":42.1,"aqi":104,"pm10":32.8,"pm2_5":26.7,"no2":4.3,"co":315.0,"o3":174.0,"so2":8.1,"mosquito_risk":0,"arthritis_risk":5,"migraine_risk":7,"frizz_risk":1,"updated_at":"2026-05-25T15:43:51.974539+05:30"},{"city":"Kolkata","state":"West Bengal","latitude":22.5726,"longitude":88.3639,"temp":33.8,"humidity":65,"rain":0.0,"pressure":1000.0,"uv_index":8.95,"wind_gusts":51.8,"aqi":107,"pm10":47.0,"pm2_5":36.8,"no2":3.3,"co":284.0,"o3":113.0,"so2":6.2,"mosquito_risk":3,"arthritis_risk":5,"migraine_risk":4,"frizz_risk":1,"updated_at":"2026-05-25T15:43:51.974547+05:30"},{"city":"Pune","state":"Maharashtra","latitude":18.5204,"longitude":73.8567,"temp":30.2,"humidity":63,"rain":0.1,"pressure":947.6,"uv_index":8.45,"wind_gusts":52.2,"aqi":43,"pm10":25.1,"pm2_5":16.5,"no2":2.4,"co":179.0,"o3":120.0,"so2":6.3,"mosquito_risk":6,"arthritis_risk":5,"migraine_risk":7,"frizz_risk":1,"updated_at":"2026-05-25T15:43:51.974554+05:30"},{"city":"Ahmedabad","state":"Gujarat","latitude":23.0225,"longitude":72.5714,"temp":42.1,"humidity":17,"rain":0.0,"pressure":998.0,"uv_index":8.15,"wind_gusts":35.6,"aqi":54,"pm10":68.2,"pm2_5":25.1,"no2":1.5,"co":147.0,"o3":96.0,"so2":2.3,"mosquito_risk":0,"arthritis_risk":5,"migraine_risk":10,"frizz_risk":0,"updated_at":"2026-05-25T15:43:51.974560+05:30"},{"city":"Jaipur","state":"Rajasthan","latitude":26.9124,"longitude":75.7873,"temp":41.7,"humidity":15,"rain":0.0,"pressure":955.1,"uv_index":8.25,"wind_gusts":49.7,"aqi":203,"pm10":367.9,"pm2_5":70.8,"no2":1.1,"co":146.0,"o3":106.0,"so2":2.8,"mosquito_risk":0,"arthritis_risk":5,"migraine_risk":10,"frizz_risk":0,"updated_at":"2026-05-25T15:43:51.974571+05:30"},{"city":"Lucknow","state":"Uttar Pradesh","latitude":26.8467,"longitude":80.9462,"temp":42.3,"humidity":18,"rain":0.0,"pressure":986.0,"uv_index":8.15,"wind_gusts":46.1,"aqi":285,"pm10":653.8,"pm2_5":129.5,"no2":1.6,"co":166.0,"o3":137.0,"so2":5.4,"mosquito_risk":0,"arthritis_risk":5,"migraine_risk":10,"frizz_risk":0,"updated_at":"2026-05-25T15:43:51.974578+05:30"},{"city":"Kanpur","state":"Uttar Pradesh","latitude":26.4499,"longitude":80.3319,"temp":43.5,"humidity":16,"rain":0.0,"pressure":984.5,"uv_index":8.25,"wind_gusts":56.2,"aqi":541,"pm10":983.5,"pm2_5":144.4,"no2":1.4,"co":136.0,"o3":121.0,"so2":4.2,"mosquito_risk":0,"arthritis_risk":5,"migraine_risk":10,"frizz_risk":0,"updated_at":"2026-05-25T15:43:51.974584+05:30"},{"city":"Chandigarh","state":"Chandigarh","latitude":30.7333,"longitude":76.7794,"temp":40.5,"humidity":14,"rain":0.0,"pressure":962.6,"uv_index":7.7,"wind_gusts":26.6,"aqi":120,"pm10":44.2,"pm2_5":18.6,"no2":1.7,"co":227.0,"o3":162.0,"so2":9.1,"mosquito_risk":0,"arthritis_risk":5,"migraine_risk":10,"frizz_risk":0,"updated_at":"2026-05-25T15:43:51.974591+05:30"},{"city":"Srinagar","state":"Jammu and Kashmir","latitude":34.0837,"longitude":74.7973,"temp":21.0,"humidity":53,"rain":0.1,"pressure":842.3,"uv_index":8.4,"wind_gusts":34.2,"aqi":65,"pm10":21.0,"pm2_5":10.2,"no2":2.0,"co":239.0,"o3":128.0,"so2":1.6,"mosquito_risk":3,"arthritis_risk":5,"migraine_risk":7,"frizz_risk":0,"updated_at":"2026-05-25T15:43:51.974598+05:30"},{"city":"Jammu","state":"Jammu and Kashmir","latitude":32.7266,"longitude":74.857,"temp":37.7,"humidity":15,"rain":0.0,"pressure":967.9,"uv_index":8.55,"wind_gusts":40.0,"aqi":79,"pm10":35.2,"pm2_5":16.1,"no2":0.6,"co":173.0,"o3":146.0,"so2":2.0,"mosquito_risk":0,"arthritis_risk":5,"migraine_risk":10,"frizz_risk":0,"updated_at":"2026-05-25T15:43:51.974604+05:30"},{"city":"Amritsar","state":"Punjab","latitude":31.634,"longitude":74.8723,"temp":39.8,"humidity":15,"rain":0.0,"pressure":975.0,"uv_index":8.4,"wind_gusts":25.2,"aqi":83,"pm10":36.4,"pm2_5":15.9,"no2":1.6,"co":184.0,"o3":146.0,"so2":2.7,"mosquito_risk":0,"arthritis_risk":5,"migraine_risk":10,"frizz_risk":0,"updated_at":"2026-05-25T15:43:51.974610+05:30"},{"city":"Ludhiana","state":"Punjab","latitude":30.901,"longitude":75.8573,"temp":40.5,"humidity":14,"rain":0.0,"pressure":972.5,"uv_index":8.0,"wind_gusts":35.3,"aqi":87,"pm10":58.0,"pm2_5":19.4,"no2":1.1,"co":206.0,"o3":140.0,"so2":3.0,"mosquito_risk":0,"arthritis_risk":5,"migraine_risk":10,"frizz_risk":0,"updated_at":"2026-05-25T15:43:51.974618+05:30"},{"city":"Jalandhar","state":"Punjab","latitude":31.326,"longitude":75.5762,"temp":40.7,"humidity":13,"rain":0.0,"pressure":973.5,"uv_index":8.15,"wind_gusts":35.6,"aqi":88,"pm10":41.6,"pm2_5":16.5,"no2":1.2,"co":194.0,"o3":143.0,"so2":2.2,"mosquito_risk":0,"arthritis_risk":5,"migraine_risk":10,"frizz_risk":0,"updated_at":"2026-05-25T15:43:51.974625+05:30"},{"city":"Dehradun","state":"Uttarakhand","latitude":30.6284,"longitude":78.0322,"temp":26.0,"humidity":34,"rain":0.0,"pressure":831.3,"uv_index":8.15,"wind_gusts":33.5,"aqi":68,"pm10":48.9,"pm2_5":17.8,"no2":1.5,"co":155.0,"o3":144.0,"so2":3.7,"mosquito_risk":4,"arthritis_risk":5,"migraine_risk":7,"frizz_risk":0,"updated_at":"2026-05-25T15:43:51.974631+05:30"},{"city":"Shimla","state":"Himachal Pradesh","latitude":31.1048,"longitude":77.1734,"temp":25.1,"humidity":18,"rain":0.0,"pressure":786.9,"uv_index":8.25,"wind_gusts":45.4,"aqi":78,"pm10":31.4,"pm2_5":12.7,"no2":0.7,"co":170.0,"o3":150.0,"so2":5.9,"mosquito_risk":4,"arthritis_risk":5,"migraine_risk":7,"frizz_risk":1,"updated_at":"2026-05-25T15:43:51.974640+05:30"},{"city":"Manali","state":"Himachal Pradesh","latitude":32.2396,"longitude":77.1887,"temp":22.2,"humidity":42,"rain":0.0,"pressure":820.1,"uv_index":9.9,"wind_gusts":49.3,"aqi":73,"pm10":23.0,"pm2_5":8.1,"no2":2.7,"co":123.0,"o3":139.0,"so2":0.6,"mosquito_risk":0,"arthritis_risk":5,"migraine_risk":7,"frizz_risk":0,"updated_at":"2026-05-25T15:43:51.974648+05:30"},{"city":"Gurgaon","state":"Haryana","latitude":28.4595,"longitude":77.0266,"temp":41.2,"humidity":17,"rain":0.0,"pressure":974.9,"uv_index":7.8,"wind_gusts":46.4,"aqi":1905,"pm10":1583.2,"pm2_5":210.9,"no2":4.1,"co":171.0,"o3":124.0,"so2":7.5,"mosquito_risk":0,"arthritis_risk":5,"migraine_risk":10,"frizz_risk":0,"updated_at":"2026-05-25T15:43:51.974654+05:30"},{"city":"Noida","state":"Uttar Pradesh","latitude":28.5355,"longitude":77.391,"temp":41.8,"humidity":15,"rain":0.0,"pressure":977.9,"uv_index":7.75,"wind_gusts":47.2,"aqi":1905,"pm10":1583.2,"pm2_5":210.9,"no2":4.1,"co":211.0,"o3":124.0,"so2":7.5,"mosquito_risk":0,"arthritis_risk":5,"migraine_risk":10,"frizz_risk":0,"updated_at":"2026-05-25T15:43:51.974661+05:30"},{"city":"Ghaziabad","state":"Uttar Pradesh","latitude":28.6692,"longitude":77.4538,"temp":42.5,"humidity":14,"rain":0.0,"pressure":976.0,"uv_index":7.75,"wind_gusts":36.7,"aqi":454,"pm10":661.2,"pm2_5":128.5,"no2":4.6,"co":200.0,"o3":170.0,"so2":15.3,"mosquito_risk":0,"arthritis_risk":5,"migraine_risk":10,"frizz_risk":0,"updated_at":"2026-05-25T15:43:51.974667+05:30"},{"city":"Faridabad","state":"Haryana","latitude":28.4089,"longitude":77.3178,"temp":41.2,"humidity":16,"rain":0.0,"pressure":977.2,"uv_index":7.8,"wind_gusts":47.5,"aqi":1905,"pm10":1583.2,"pm2_5":210.9,"no2":4.1,"co":181.0,"o3":124.0,"so2":7.5,"mosquito_risk":0,"arthritis_risk":5,"migraine_risk":10,"frizz_risk":0,"updated_at":"2026-05-25T15:43:51.974673+05:30"},{"city":"Meerut","state":"Uttar Pradesh","latitude":28.9845,"longitude":77.7064,"temp":41.3,"humidity":17,"rain":0.0,"pressure":975.1,"uv_index":7.65,"wind_gusts":30.6,"aqi":454,"pm10":661.2,"pm2_5":128.5,"no2":4.6,"co":177.0,"o3":170.0,"so2":15.3,"mosquito_risk":0,"arthritis_risk":5,"migraine_risk":10,"frizz_risk":0,"updated_at":"2026-05-25T15:43:51.974679+05:30"},{"city":"Agra","state":"Uttar Pradesh","latitude":27.1767,"longitude":78.0081,"temp":42.3,"humidity":18,"rain":0.0,"pressure":981.1,"uv_index":8.05,"wind_gusts":48.6,"aqi":1405,"pm10":197.0,"pm2_5":43.1,"no2":2.8,"co":142.0,"o3":113.0,"so2":3.1,"mosquito_risk":0,"arthritis_risk":5,"migraine_risk":10,"frizz_risk":0,"updated_at":"2026-05-25T15:43:51.974685+05:30"},{"city":"Varanasi","state":"Uttar Pradesh","latitude":25.3176,"longitude":82.9739,"temp":43.5,"humidity":14,"rain":0.0,"pressure":989.8,"uv_index":8.7,"wind_gusts":49.3,"aqi":131,"pm10":146.7,"pm2_5":38.1,"no2":2.2,"co":167.0,"o3":126.0,"so2":4.3,"mosquito_risk":0,"arthritis_risk":5,"migraine_risk":10,"frizz_risk":0,"updated_at":"2026-05-25T15:43:51.974691+05:30"},{"city":"Prayagraj","state":"Uttar Pradesh","latitude":25.4358,"longitude":81.8463,"temp":43.2,"humidity":15,"rain":0.0,"pressure":988.7,"uv_index":8.65,"wind_gusts":47.9,"aqi":150,"pm10":244.9,"pm2_5":60.3,"no2":1.5,"co":143.0,"o3":121.0,"so2":3.9,"mosquito_risk":0,"arthritis_risk":5,"migraine_risk":10,"frizz_risk":0,"updated_at":"2026-05-25T15:43:51.974698+05:30"},{"city":"Gorakhpur","state":"Uttar Pradesh","latitude":26.7606,"longitude":83.3732,"temp":38.8,"humidity":36,"rain":0.0,"pressure":989.7,"uv_index":8.6,"wind_gusts":39.6,"aqi":158,"pm10":218.4,"pm2_5":72.2,"no2":2.3,"co":373.0,"o3":192.0,"so2":11.8,"mosquito_risk":0,"arthritis_risk":5,"migraine_risk":10,"frizz_risk":1,"updated_at":"2026-05-25T15:43:51.974705+05:30"},{"city":"Bareilly","state":"Uttar Pradesh","latitude":28.367,"longitude":79.4304,"temp":39.2,"humidity":28,"rain":0.0,"pressure":979.8,"uv_index":8.05,"wind_gusts":23.8,"aqi":166,"pm10":322.2,"pm2_5":81.3,"no2":2.1,"co":252.0,"o3":196.0,"so2":9.9,"mosquito_risk":0,"arthritis_risk":5,"migraine_risk":10,"frizz_risk":1,"updated_at":"2026-05-25T15:43:51.974711+05:30"},{"city":"Aligarh","state":"Uttar Pradesh","latitude":27.8974,"longitude":78.088,"temp":40.8,"humidity":21,"rain":0.0,"pressure":978.7,"uv_index":7.9,"wind_gusts":49.3,"aqi":1061,"pm10":1054.3,"pm2_5":148.5,"no2":2.5,"co":145.0,"o3":124.0,"so2":6.0,"mosquito_risk":0,"arthritis_risk":5,"migraine_risk":10,"frizz_risk":0,"updated_at":"2026-05-25T15:43:51.974718+05:30"},{"city":"Moradabad","state":"Uttar Pradesh","latitude":28.8386,"longitude":78.7733,"temp":39.5,"humidity":26,"rain":0.0,"pressure":976.9,"uv_index":7.85,"wind_gusts":29.2,"aqi":171,"pm10":275.7,"pm2_5":79.2,"no2":3.8,"co":273.0,"o3":229.0,"so2":19.3,"mosquito_risk":0,"arthritis_risk":5,"migraine_risk":10,"frizz_risk":1,"updated_at":"2026-05-25T15:43:51.974724+05:30"},{"city":"Saharanpur","state":"Uttar Pradesh","latitude":29.9637,"longitude":77.546,"temp":40.0,"humidity":17,"rain":0.0,"pressure":969.4,"uv_index":7.35,"wind_gusts":24.1,"aqi":150,"pm10":72.2,"pm2_5":28.1,"no2":3.7,"co":260.0,"o3":175.0,"so2":12.4,"mosquito_risk":0,"arthritis_risk":5,"migraine_risk":10,"frizz_risk":0,"updated_at":"2026-05-25T15:43:51.974730+05:30"},{"city":"Jhansi","state":"Uttar Pradesh","latitude":25.4484,"longitude":78.5685,"temp":43.0,"humidity":12,"rain":0.0,"pressure":972.4,"uv_index":8.45,"wind_gusts":44.6,"aqi":56,"pm10":43.7,"pm2_5":13.8,"no2":1.0,"co":134.0,"o3":109.0,"so2":2.8,"mosquito_risk":0,"arthritis_risk":5,"migraine_risk":10,"frizz_risk":0,"updated_at":"2026-05-25T15:43:55.267598+05:30"},{"city":"Surat","state":"Gujarat","latitude":21.1702,"longitude":72.8311,"temp":35.3,"humidity":53,"rain":0.0,"pressure":1004.4,"uv_index":7.7,"wind_gusts":46.8,"aqi":58,"pm10":23.6,"pm2_5":18.5,"no2":12.9,"co":321.0,"o3":57.0,"so2":39.8,"mosquito_risk":0,"arthritis_risk":5,"migraine_risk":7,"frizz_risk":1,"updated_at":"2026-05-25T15:43:55.267625+05:30"},{"city":"Vadodara","state":"Gujarat","latitude":22.3072,"longitude":73.1812,"temp":40.4,"humidity":28,"rain":0.0,"pressure":1000.5,"uv_index":8.1,"wind_gusts":42.8,"aqi":51,"pm10":12.1,"pm2_5":8.4,"no2":1.2,"co":155.0,"o3":90.0,"so2":2.4,"mosquito_risk":0,"arthritis_risk":5,"migraine_risk":7,"frizz_risk":1,"updated_at":"2026-05-25T15:43:55.267635+05:30"},{"city":"Rajkot","state":"Gujarat","latitude":22.3039,"longitude":70.8022,"temp":41.0,"humidity":25,"rain":0.0,"pressure":990.9,"uv_index":7.7,"wind_gusts":50.8,"aqi":53,"pm10":64.0,"pm2_5":25.3,"no2":1.1,"co":121.0,"o3":103.0,"so2":4.5,"mosquito_risk":0,"arthritis_risk":5,"migraine_risk":10,"frizz_risk":1,"updated_at":"2026-05-25T15:43:55.267642+05:30"},{"city":"Thane","state":"Maharashtra","latitude":19.2183,"longitude":72.9781,"temp":32.8,"humidity":64,"rain":0.1,"pressure":1006.5,"uv_index":7.8,"wind_gusts":37.4,"aqi":52,"pm10":16.5,"pm2_5":11.6,"no2":4.1,"co":147.0,"o3":66.0,"so2":3.8,"mosquito_risk":6,"arthritis_risk":5,"migraine_risk":4,"frizz_risk":1,"updated_at":"2026-05-25T15:43:55.267650+05:30"},{"city":"Nagpur","state":"Maharashtra","latitude":21.1458,"longitude":79.0882,"temp":43.2,"humidity":11,"rain":0.0,"pressure":968.3,"uv_index":8.9,"wind_gusts":45.4,"aqi":92,"pm10":78.0,"pm2_5":27.2,"no2":4.9,"co":153.0,"o3":148.0,"so2":15.9,"mosquito_risk":0,"arthritis_risk":5,"migraine_risk":10,"frizz_risk":0,"updated_at":"2026-05-25T15:43:55.267657+05:30"},{"city":"Nashik","state":"Maharashtra","latitude":19.9975,"longitude":73.7898,"temp":32.7,"humidity":47,"rain":0.1,"pressure":944.6,"uv_index":8.15,"wind_gusts":44.3,"aqi":34,"pm10":14.8,"pm2_5":9.1,"no2":1.0,"co":124.0,"o3":73.0,"so2":0.7,"mosquito_risk":3,"arthritis_risk":5,"migraine_risk":7,"frizz_risk":1,"updated_at":"2026-05-25T15:43:55.267664+05:30"},{"city":"Aurangabad","state":"Maharashtra","latitude":19.8762,"longitude":75.3433,"temp":39.0,"humidity":26,"rain":0.0,"pressure":942.2,"uv_index":9.0,"wind_gusts":38.9,"aqi":48,"pm10":36.9,"pm2_5":18.4,"no2":1.0,"co":144.0,"o3":112.0,"so2":2.5,"mosquito_risk":0,"arthritis_risk":5,"migraine_risk":10,"frizz_risk":0,"updated_at":"2026-05-25T15:43:55.267671+05:30"},{"city":"Solapur","state":"Maharashtra","latitude":17.6599,"longitude":75.9064,"temp":37.5,"humidity":33,"rain":0.0,"pressure":955.1,"uv_index":9.0,"wind_gusts":32.0,"aqi":55,"pm10":44.5,"pm2_5":22.4,"no2":0.6,"co":139.0,"o3":129.0,"so2":4.0,"mosquito_risk":0,"arthritis_risk":5,"migraine_risk":10,"frizz_risk":1,"updated_at":"2026-05-25T15:43:55.267678+05:30"},{"city":"Kolhapur","state":"Maharashtra","latitude":16.705,"longitude":74.2433,"temp":31.0,"humidity":59,"rain":0.0,"pressure":947.4,"uv_index":8.85,"wind_gusts":41.4,"aqi":37,"pm10":18.6,"pm2_5":11.5,"no2":2.0,"co":143.0,"o3":98.0,"so2":1.9,"mosquito_risk":0,"arthritis_risk":5,"migraine_risk":7,"frizz_risk":1,"updated_at":"2026-05-25T15:43:55.267685+05:30"},{"city":"Goa","state":"Goa","latitude":15.2993,"longitude":74.124,"temp":31.8,"humidity":70,"rain":0.1,"pressure":997.1,"uv_index":6.35,"wind_gusts":25.9,"aqi":48,"pm10":11.4,"pm2_5":7.5,"no2":0.7,"co":141.0,"o3":61.0,"so2":0.9,"mosquito_risk":6,"arthritis_risk":5,"migraine_risk":7,"frizz_risk":1,"updated_at":"2026-05-25T15:43:55.267693+05:30"},{"city":"Jodhpur","state":"Rajasthan","latitude":26.2389,"longitude":73.0243,"temp":39.2,"humidity":33,"rain":0.0,"pressure":978.4,"uv_index":8.4,"wind_gusts":47.5,"aqi":254,"pm10":527.1,"pm2_5":94.8,"no2":0.6,"co":127.0,"o3":89.0,"so2":2.7,"mosquito_risk":0,"arthritis_risk":5,"migraine_risk":10,"frizz_risk":1,"updated_at":"2026-05-25T15:43:55.267700+05:30"},{"city":"Udaipur","state":"Rajasthan","latitude":24.5854,"longitude":73.7125,"temp":38.4,"humidity":18,"rain":0.0,"pressure":944.3,"uv_index":8.8,"wind_gusts":46.4,"aqi":64,"pm10":77.5,"pm2_5":28.5,"no2":0.5,"co":127.0,"o3":96.0,"so2":1.4,"mosquito_risk":0,"arthritis_risk":5,"migraine_risk":10,"frizz_risk":0,"updated_at":"2026-05-25T15:43:55.267708+05:30"},{"city":"Kota","state":"Rajasthan","latitude":25.2138,"longitude":75.8648,"temp":43.9,"humidity":10,"rain":0.0,"pressure":973.8,"uv_index":8.4,"wind_gusts":41.8,"aqi":57,"pm10":49.1,"pm2_5":20.1,"no2":1.1,"co":133.0,"o3":111.0,"so2":3.7,"mosquito_risk":0,"arthritis_risk":5,"migraine_risk":10,"frizz_risk":0,"updated_at":"2026-05-25T15:43:55.267714+05:30"},{"city":"Bikaner","state":"Rajasthan","latitude":28.0229,"longitude":73.3119,"temp":43.2,"humidity":14,"rain":0.0,"pressure":975.7,"uv_index":8.4,"wind_gusts":40.3,"aqi":183,"pm10":245.9,"pm2_5":87.5,"no2":0.3,"co":165.0,"o3":109.0,"so2":4.1,"mosquito_risk":0,"arthritis_risk":5,"migraine_risk":10,"frizz_risk":0,"updated_at":"2026-05-25T15:43:55.267721+05:30"},{"city":"Ajmer","state":"Rajasthan","latitude":26.4499,"longitude":74.6399,"temp":38.3,"humidity":26,"rain":0.0,"pressure":951.0,"uv_index":8.35,"wind_gusts":56.2,"aqi":84,"pm10":115.9,"pm2_5":40.0,"no2":0.8,"co":130.0,"o3":101.0,"so2":2.3,"mosquito_risk":0,"arthritis_risk":5,"migraine_risk":10,"frizz_risk":0,"updated_at":"2026-05-25T15:43:55.267728+05:30"},{"city":"Gwalior","state":"Madhya Pradesh","latitude":26.2183,"longitude":78.1828,"temp":43.0,"humidity":13,"rain":0.0,"pressure":976.9,"uv_index":8.25,"wind_gusts":55.8,"aqi":58,"pm10":57.6,"pm2_5":18.4,"no2":0.7,"co":129.0,"o3":105.0,"so2":1.5,"mosquito_risk":0,"arthritis_risk":5,"migraine_risk":10,"frizz_risk":0,"updated_at":"2026-05-25T15:43:55.267735+05:30"},{"city":"Indore","state":"Madhya Pradesh","latitude":22.7196,"longitude":75.8577,"temp":40.3,"humidity":18,"rain":0.0,"pressure":945.8,"uv_index":8.65,"wind_gusts":45.4,"aqi":62,"pm10":38.3,"pm2_5":19.3,"no2":1.1,"co":175.0,"o3":121.0,"so2":4.8,"mosquito_risk":0,"arthritis_risk":5,"migraine_risk":10,"frizz_risk":0,"updated_at":"2026-05-25T15:43:55.267741+05:30"},{"city":"Bhopal","state":"Madhya Pradesh","latitude":23.2599,"longitude":77.4126,"temp":41.8,"humidity":13,"rain":0.0,"pressure":950.3,"uv_index":8.7,"wind_gusts":39.2,"aqi":69,"pm10":68.5,"pm2_5":21.7,"no2":0.7,"co":152.0,"o3":114.0,"so2":3.3,"mosquito_risk":0,"arthritis_risk":5,"migraine_risk":10,"frizz_risk":0,"updated_at":"2026-05-25T15:43:55.267748+05:30"},{"city":"Jabalpur","state":"Madhya Pradesh","latitude":23.1815,"longitude":79.9864,"temp":42.5,"humidity":12,"rain":0.0,"pressure":957.2,"uv_index":8.85,"wind_gusts":32.4,"aqi":76,"pm10":76.6,"pm2_5":21.7,"no2":0.8,"co":131.0,"o3":118.0,"so2":2.6,"mosquito_risk":0,"arthritis_risk":5,"migraine_risk":10,"frizz_risk":0,"updated_at":"2026-05-25T15:43:55.267755+05:30"},{"city":"Ujjain","state":"Madhya Pradesh","latitude":23.1765,"longitude":75.7885,"temp":40.3,"humidity":19,"rain":0.0,"pressure":951.1,"uv_index":8.6,"wind_gusts":45.4,"aqi":60,"pm10":29.4,"pm2_5":16.1,"no2":0.7,"co":145.0,"o3":111.0,"so2":4.5,"mosquito_risk":0,"arthritis_risk":5,"migraine_risk":10,"frizz_risk":0,"updated_at":"2026-05-25T15:43:55.267762+05:30"},{"city":"Visakhapatnam","state":"Andhra Pradesh","latitude":17.6868,"longitude":83.2185,"temp":36.2,"humidity":57,"rain":0.0,"pressure":997.9,"uv_index":9.1,"wind_gusts":32.8,"aqi":145,"pm10":50.4,"pm2_5":44.4,"no2":18.2,"co":493.0,"o3":147.0,"so2":50.2,"mosquito_risk":0,"arthritis_risk":5,"migraine_risk":10,"frizz_risk":1,"updated_at":"2026-05-25T15:43:55.267769+05:30"},{"city":"Vijayawada","state":"Andhra Pradesh","latitude":16.5062,"longitude":80.648,"temp":42.8,"humidity":23,"rain":0.0,"pressure":996.2,"uv_index":9.1,"wind_gusts":40.0,"aqi":97,"pm10":51.0,"pm2_5":31.3,"no2":3.5,"co":190.0,"o3":162.0,"so2":9.5,"mosquito_risk":0,"arthritis_risk":5,"migraine_risk":10,"frizz_risk":1,"updated_at":"2026-05-25T15:43:55.267776+05:30"},{"city":"Guntur","state":"Andhra Pradesh","latitude":16.3067,"longitude":80.4365,"temp":43.2,"humidity":22,"rain":0.0,"pressure":997.3,"uv_index":9.15,"wind_gusts":43.6,"aqi":83,"pm10":53.4,"pm2_5":29.6,"no2":1.5,"co":194.0,"o3":154.0,"so2":7.7,"mosquito_risk":0,"arthritis_risk":5,"migraine_risk":10,"frizz_risk":1,"updated_at":"2026-05-25T15:43:55.267782+05:30"},{"city":"Nellore","state":"Andhra Pradesh","latitude":14.4426,"longitude":79.9865,"temp":40.0,"humidity":36,"rain":0.0,"pressure":1000.5,"uv_index":9.05,"wind_gusts":44.3,"aqi":79,"pm10":31.4,"pm2_5":23.2,"no2":2.8,"co":211.0,"o3":158.0,"so2":4.7,"mosquito_risk":0,"arthritis_risk":5,"migraine_risk":7,"frizz_risk":1,"updated_at":"2026-05-25T15:43:55.267790+05:30"},{"city":"Kurnool","state":"Andhra Pradesh","latitude":15.8281,"longitude":78.0373,"temp":38.0,"humidity":36,"rain":0.0,"pressure":973.6,"uv_index":9.05,"wind_gusts":56.2,"aqi":52,"pm10":39.1,"pm2_5":23.3,"no2":0.8,"co":160.0,"o3":146.0,"so2":8.8,"mosquito_risk":0,"arthritis_risk":5,"migraine_risk":10,"frizz_risk":1,"updated_at":"2026-05-25T15:43:55.267797+05:30"},{"city":"Kakinada","state":"Andhra Pradesh","latitude":16.9891,"longitude":82.2475,"temp":38.7,"humidity":48,"rain":0.0,"pressure":1001.1,"uv_index":9.1,"wind_gusts":31.3,"aqi":119,"pm10":33.4,"pm2_5":25.4,"no2":2.7,"co":311.0,"o3":148.0,"so2":3.1,"mosquito_risk":0,"arthritis_risk":5,"migraine_risk":7,"frizz_risk":1,"updated_at":"2026-05-25T15:43:55.267804+05:30"},{"city":"Tirupati","state":"Andhra Pradesh","latitude":13.6288,"longitude":79.4192,"temp":36.6,"humidity":39,"rain":0.1,"pressure":987.7,"uv_index":9.1,"wind_gusts":35.6,"aqi":83,"pm10":26.2,"pm2_5":20.6,"no2":5.6,"co":339.0,"o3":137.0,"so2":3.8,"mosquito_risk":3,"arthritis_risk":5,"migraine_risk":10,"frizz_risk":1,"updated_at":"2026-05-25T15:43:55.267811+05:30"},{"city":"Warangal","state":"Telangana","latitude":17.9689,"longitude":79.5941,"temp":41.2,"humidity":21,"rain":0.0,"pressure":974.0,"uv_index":7.65,"wind_gusts":41.4,"aqi":91,"pm10":61.0,"pm2_5":33.4,"no2":3.0,"co":245.0,"o3":164.0,"so2":10.8,"mosquito_risk":0,"arthritis_risk":5,"migraine_risk":10,"frizz_risk":0,"updated_at":"2026-05-25T15:43:55.267818+05:30"},{"city":"Nizamabad","state":"Telangana","latitude":18.6725,"longitude":78.0941,"temp":40.8,"humidity":20,"rain":0.0,"pressure":961.5,"uv_index":9.1,"wind_gusts":36.7,"aqi":71,"pm10":50.4,"pm2_5":22.7,"no2":0.4,"co":147.0,"o3":123.0,"so2":3.9,"mosquito_risk":0,"arthritis_risk":5,"migraine_risk":10,"frizz_risk":0,"updated_at":"2026-05-25T15:43:55.267824+05:30"},{"city":"Mysore","state":"Karnataka","latitude":12.2958,"longitude":76.6396,"temp":32.3,"humidity":46,"rain":0.0,"pressure":927.4,"uv_index":8.1,"wind_gusts":42.1,"aqi":52,"pm10":18.2,"pm2_5":14.1,"no2":3.2,"co":221.0,"o3":126.0,"so2":2.3,"mosquito_risk":0,"arthritis_risk":5,"migraine_risk":7,"frizz_risk":1,"updated_at":"2026-05-25T15:43:55.267831+05:30"},{"city":"Mangalore","state":"Karnataka","latitude":12.9141,"longitude":74.856,"temp":30.0,"humidity":72,"rain":0.1,"pressure":1006.2,"uv_index":7.45,"wind_gusts":32.4,"aqi":61,"pm10":18.9,"pm2_5":11.7,"no2":0.8,"co":131.0,"o3":70.0,"so2":1.3,"mosquito_risk":10,"arthritis_risk":5,"migraine_risk":4,"frizz_risk":1,"updated_at":"2026-05-25T15:43:55.267838+05:30"},{"city":"Hubli-Dharwad","state":"Karnataka","latitude":15.3647,"longitude":75.124,"temp":33.1,"humidity":50,"rain":0.0,"pressure":940.4,"uv_index":9.0,"wind_gusts":37.1,"aqi":36,"pm10":19.2,"pm2_5":12.2,"no2":1.9,"co":157.0,"o3":101.0,"so2":1.5,"mosquito_risk":0,"arthritis_risk":5,"migraine_risk":7,"frizz_risk":1,"updated_at":"2026-05-25T15:43:55.267865+05:30"},{"city":"Belgaum","state":"Karnataka","latitude":15.8497,"longitude":74.4977,"temp":28.5,"humidity":66,"rain":0.1,"pressure":925.8,"uv_index":9.0,"wind_gusts":36.0,"aqi":34,"pm10":15.0,"pm2_5":9.7,"no2":1.6,"co":137.0,"o3":83.0,"so2":1.4,"mosquito_risk":10,"arthritis_risk":5,"migraine_risk":7,"frizz_risk":1,"updated_at":"2026-05-25T15:43:58.553365+05:30"},{"city":"Coimbatore","state":"Tamil Nadu","latitude":11.0168,"longitude":76.9558,"temp":33.1,"humidity":49,"rain":0.0,"pressure":960.0,"uv_index":8.6,"wind_gusts":60.1,"aqi":40,"pm10":13.6,"pm2_5":10.5,"no2":2.9,"co":182.0,"o3":92.0,"so2":2.1,"mosquito_risk":0,"arthritis_risk":5,"migraine_risk":7,"frizz_risk":1,"updated_at":"2026-05-25T15:43:58.553397+05:30"},{"city":"Madurai","state":"Tamil Nadu","latitude":9.9252,"longitude":78.1198,"temp":37.3,"humidity":35,"rain":0.0,"pressure":989.7,"uv_index":8.95,"wind_gusts":35.3,"aqi":69,"pm10":22.1,"pm2_5":14.8,"no2":2.0,"co":199.0,"o3":123.0,"so2":2.3,"mosquito_risk":0,"arthritis_risk":5,"migraine_risk":10,"frizz_risk":1,"updated_at":"2026-05-25T15:43:58.553410+05:30"},{"city":"Trichy","state":"Tamil Nadu","latitude":10.7905,"longitude":78.7047,"temp":37.8,"humidity":31,"rain":0.0,"pressure":996.0,"uv_index":8.95,"wind_gusts":45.4,"aqi":48,"pm10":17.3,"pm2_5":13.0,"no2":4.0,"co":179.0,"o3":115.0,"so2":2.5,"mosquito_risk":0,"arthritis_risk":5,"migraine_risk":10,"frizz_risk":1,"updated_at":"2026-05-25T15:43:58.553420+05:30"},{"city":"Salem","state":"Tamil Nadu","latitude":11.6643,"longitude":78.146,"temp":37.4,"humidity":32,"rain":0.0,"pressure":974.4,"uv_index":9.05,"wind_gusts":45.4,"aqi":71,"pm10":21.4,"pm2_5":16.5,"no2":3.4,"co":212.0,"o3":150.0,"so2":8.0,"mosquito_risk":0,"arthritis_risk":5,"migraine_risk":10,"frizz_risk":1,"updated_at":"2026-05-25T15:43:58.553429+05:30"},{"city":"Tirunelveli","state":"Tamil Nadu","latitude":8.7139,"longitude":77.7567,"temp":37.0,"humidity":36,"rain":0.0,"pressure":1000.6,"uv_index":8.85,"wind_gusts":37.4,"aqi":33,"pm10":7.9,"pm2_5":6.3,"no2":2.3,"co":157.0,"o3":79.0,"so2":1.2,"mosquito_risk":0,"arthritis_risk":5,"migraine_risk":7,"frizz_risk":1,"updated_at":"2026-05-25T15:43:58.553438+05:30"},{"city":"Vellore","state":"Tamil Nadu","latitude":12.9165,"longitude":79.1325,"temp":33.2,"humidity":54,"rain":0.0,"pressure":981.8,"uv_index":9.1,"wind_gusts":53.3,"aqi":77,"pm10":21.9,"pm2_5":17.3,"no2":3.4,"co":189.0,"o3":135.0,"so2":3.4,"mosquito_risk":0,"arthritis_risk":5,"migraine_risk":7,"frizz_risk":1,"updated_at":"2026-05-25T15:43:58.553447+05:30"},{"city":"Erode","state":"Tamil Nadu","latitude":11.341,"longitude":77.7172,"temp":38.0,"humidity":31,"rain":0.0,"pressure":985.5,"uv_index":9.0,"wind_gusts":37.8,"aqi":49,"pm10":18.5,"pm2_5":13.8,"no2":2.9,"co":222.0,"o3":122.0,"so2":2.1,"mosquito_risk":0,"arthritis_risk":5,"migraine_risk":10,"frizz_risk":1,"updated_at":"2026-05-25T15:43:58.553455+05:30"},{"city":"Kochi","state":"Kerala","latitude":9.9312,"longitude":76.2673,"temp":28.8,"humidity":80,"rain":0.0,"pressure":1008.7,"uv_index":7.85,"wind_gusts":29.9,"aqi":57,"pm10":12.9,"pm2_5":9.7,"no2":5.4,"co":149.0,"o3":75.0,"so2":4.2,"mosquito_risk":7,"arthritis_risk":0,"migraine_risk":4,"frizz_risk":1,"updated_at":"2026-05-25T15:43:58.553464+05:30"},{"city":"Thiruvananthapuram","state":"Kerala","latitude":8.5241,"longitude":76.9366,"temp":27.1,"humidity":87,"rain":0.2,"pressure":1008.2,"uv_index":7.8,"wind_gusts":35.3,"aqi":35,"pm10":15.0,"pm2_5":9.2,"no2":1.7,"co":112.0,"o3":71.0,"so2":0.9,"mosquito_risk":10,"arthritis_risk":0,"migraine_risk":4,"frizz_risk":1,"updated_at":"2026-05-25T15:43:58.553473+05:30"},{"city":"Kozhikode","state":"Kerala","latitude":11.2588,"longitude":75.7804,"temp":28.4,"humidity":80,"rain":0.1,"pressure":1007.3,"uv_index":8.6,"wind_gusts":33.5,"aqi":40,"pm10":18.6,"pm2_5":11.6,"no2":0.6,"co":133.0,"o3":77.0,"so2":1.1,"mosquito_risk":10,"arthritis_risk":5,"migraine_risk":4,"frizz_risk":1,"updated_at":"2026-05-25T15:43:58.553482+05:30"},{"city":"Thrissur","state":"Kerala","latitude":10.5276,"longitude":76.2144,"temp":29.1,"humidity":76,"rain":0.0,"pressure":1006.9,"uv_index":8.65,"wind_gusts":31.0,"aqi":52,"pm10":12.8,"pm2_5":9.7,"no2":3.7,"co":122.0,"o3":72.0,"so2":2.2,"mosquito_risk":7,"arthritis_risk":5,"migraine_risk":4,"frizz_risk":1,"updated_at":"2026-05-25T15:43:58.553490+05:30"},{"city":"Kannur","state":"Kerala","latitude":11.8745,"longitude":75.3704,"temp":30.0,"humidity":72,"rain":0.1,"pressure":1006.6,"uv_index":8.35,"wind_gusts":34.6,"aqi":56,"pm10":21.8,"pm2_5":14.1,"no2":0.9,"co":124.0,"o3":82.0,"so2":1.5,"mosquito_risk":10,"arthritis_risk":5,"migraine_risk":4,"frizz_risk":1,"updated_at":"2026-05-25T15:43:58.553497+05:30"},{"city":"Patna","state":"Bihar","latitude":25.5941,"longitude":85.1376,"temp":38.5,"humidity":43,"rain":0.0,"pressure":992.8,"uv_index":8.85,"wind_gusts":32.0,"aqi":168,"pm10":143.4,"pm2_5":70.8,"no2":5.6,"co":405.0,"o3":206.0,"so2":17.4,"mosquito_risk":0,"arthritis_risk":5,"migraine_risk":10,"frizz_risk":1,"updated_at":"2026-05-25T15:43:58.553504+05:30"},{"city":"Gaya","state":"Bihar","latitude":24.7914,"longitude":85.0002,"temp":41.8,"humidity":20,"rain":0.0,"pressure":986.3,"uv_index":8.9,"wind_gusts":29.2,"aqi":168,"pm10":227.2,"pm2_5":70.8,"no2":4.0,"co":250.0,"o3":198.0,"so2":11.7,"mosquito_risk":0,"arthritis_risk":5,"migraine_risk":10,"frizz_risk":0,"updated_at":"2026-05-25T15:43:58.553511+05:30"},{"city":"Muzaffarpur","state":"Bihar","latitude":26.1209,"longitude":85.3647,"temp":35.2,"humidity":56,"rain":0.0,"pressure":993.4,"uv_index":8.85,"wind_gusts":44.3,"aqi":165,"pm10":114.3,"pm2_5":73.8,"no2":6.2,"co":407.0,"o3":198.0,"so2":19.0,"mosquito_risk":0,"arthritis_risk":5,"migraine_risk":10,"frizz_risk":1,"updated_at":"2026-05-25T15:43:58.553518+05:30"},{"city":"Bhagalpur","state":"Bihar","latitude":25.2425,"longitude":87.0117,"temp":35.0,"humidity":56,"rain":0.0,"pressure":994.5,"uv_index":8.8,"wind_gusts":31.0,"aqi":153,"pm10":53.4,"pm2_5":38.0,"no2":5.2,"co":351.0,"o3":195.0,"so2":18.3,"mosquito_risk":0,"arthritis_risk":5,"migraine_risk":7,"frizz_risk":1,"updated_at":"2026-05-25T15:43:58.553525+05:30"},{"city":"Ranchi","state":"Jharkhand","latitude":23.3441,"longitude":85.3096,"temp":37.2,"humidity":21,"rain":0.0,"pressure":933.9,"uv_index":9.3,"wind_gusts":38.9,"aqi":132,"pm10":65.4,"pm2_5":23.5,"no2":2.7,"co":172.0,"o3":150.0,"so2":7.6,"mosquito_risk":0,"arthritis_risk":5,"migraine_risk":10,"frizz_risk":0,"updated_at":"2026-05-25T15:43:58.553532+05:30"},{"city":"Jamshedpur","state":"Jharkhand","latitude":22.8046,"longitude":86.2029,"temp":37.7,"humidity":33,"rain":0.0,"pressure":984.8,"uv_index":9.1,"wind_gusts":53.6,"aqi":150,"pm10":172.8,"pm2_5":45.4,"no2":5.6,"co":255.0,"o3":160.0,"so2":13.2,"mosquito_risk":0,"arthritis_risk":5,"migraine_risk":10,"frizz_risk":1,"updated_at":"2026-05-25T15:43:58.553538+05:30"},{"city":"Dhanbad","state":"Jharkhand","latitude":23.7957,"longitude":86.4304,"temp":42.1,"humidity":15,"rain":0.0,"pressure":973.2,"uv_index":9.1,"wind_gusts":42.1,"aqi":152,"pm10":217.0,"pm2_5":51.0,"no2":14.4,"co":144.0,"o3":145.0,"so2":45.5,"mosquito_risk":0,"arthritis_risk":5,"migraine_risk":10,"frizz_risk":0,"updated_at":"2026-05-25T15:43:58.553545+05:30"},{"city":"Bokaro","state":"Jharkhand","latitude":23.6693,"longitude":86.1511,"temp":42.0,"humidity":15,"rain":0.0,"pressure":977.0,"uv_index":9.1,"wind_gusts":37.1,"aqi":152,"pm10":187.2,"pm2_5":48.2,"no2":12.4,"co":148.0,"o3":156.0,"so2":51.5,"mosquito_risk":0,"arthritis_risk":5,"migraine_risk":10,"frizz_risk":0,"updated_at":"2026-05-25T15:43:58.553553+05:30"},{"city":"Bhubaneswar","state":"Odisha","latitude":20.2961,"longitude":85.8245,"temp":35.5,"humidity":58,"rain":0.0,"pressure":997.0,"uv_index":9.1,"wind_gusts":45.4,"aqi":103,"pm10":50.9,"pm2_5":43.4,"no2":2.7,"co":234.0,"o3":125.0,"so2":5.6,"mosquito_risk":0,"arthritis_risk":5,"migraine_risk":10,"frizz_risk":1,"updated_at":"2026-05-25T15:43:58.553560+05:30"},{"city":"Cuttack","state":"Odisha","latitude":20.4625,"longitude":85.8828,"temp":35.5,"humidity":59,"rain":0.0,"pressure":998.4,"uv_index":9.15,"wind_gusts":40.3,"aqi":103,"pm10":50.9,"pm2_5":43.4,"no2":2.7,"co":245.0,"o3":125.0,"so2":5.6,"mosquito_risk":0,"arthritis_risk":5,"migraine_risk":10,"frizz_risk":1,"updated_at":"2026-05-25T15:43:58.553567+05:30"},{"city":"Rourkela","state":"Odisha","latitude":22.2604,"longitude":84.8536,"temp":36.5,"humidity":44,"rain":0.0,"pressure":979.6,"uv_index":9.0,"wind_gusts":43.2,"aqi":138,"pm10":65.0,"pm2_5":25.7,"no2":4.9,"co":258.0,"o3":158.0,"so2":7.7,"mosquito_risk":0,"arthritis_risk":5,"migraine_risk":10,"frizz_risk":1,"updated_at":"2026-05-25T15:43:58.553574+05:30"},{"city":"Raipur","state":"Chhattisgarh","latitude":21.2514,"longitude":81.6296,"temp":43.1,"humidity":13,"rain":0.0,"pressure":969.8,"uv_index":9.0,"wind_gusts":33.8,"aqi":149,"pm10":95.7,"pm2_5":33.5,"no2":6.1,"co":149.0,"o3":146.0,"so2":21.3,"mosquito_risk":0,"arthritis_risk":5,"migraine_risk":10,"frizz_risk":0,"updated_at":"2026-05-25T15:43:58.553581+05:30"},{"city":"Bhilai","state":"Chhattisgarh","latitude":21.1938,"longitude":81.3509,"temp":42.2,"humidity":14,"rain":0.0,"pressure":970.2,"uv_index":8.95,"wind_gusts":26.6,"aqi":134,"pm10":87.1,"pm2_5":31.9,"no2":8.6,"co":141.0,"o3":136.0,"so2":25.5,"mosquito_risk":0,"arthritis_risk":5,"migraine_risk":10,"frizz_risk":0,"updated_at":"2026-05-25T15:43:58.553588+05:30"},{"city":"Guwahati","state":"Assam","latitude":26.1158,"longitude":91.7086,"temp":25.4,"humidity":90,"rain":0.0,"pressure":997.7,"uv_index":8.8,"wind_gusts":28.1,"aqi":80,"pm10":20.0,"pm2_5":11.3,"no2":3.7,"co":289.0,"o3":112.0,"so2":2.7,"mosquito_risk":7,"arthritis_risk":5,"migraine_risk":7,"frizz_risk":1,"updated_at":"2026-05-25T15:43:58.553594+05:30"},{"city":"Agartala","state":"Tripura","latitude":23.8315,"longitude":91.2868,"temp":26.9,"humidity":95,"rain":0.6,"pressure":1002.8,"uv_index":8.2,"wind_gusts":58.0,"aqi":65,"pm10":29.1,"pm2_5":20.4,"no2":7.7,"co":201.0,"o3":88.0,"so2":1.9,"mosquito_risk":10,"arthritis_risk":5,"migraine_risk":4,"frizz_risk":1,"updated_at":"2026-05-25T15:43:58.553601+05:30"},{"city":"Shillong","state":"Meghalaya","latitude":25.5788,"longitude":91.8933,"temp":19.7,"humidity":97,"rain":0.6,"pressure":854.7,"uv_index":7.55,"wind_gusts":44.3,"aqi":53,"pm10":12.3,"pm2_5":6.4,"no2":3.6,"co":211.0,"o3":98.0,"so2":2.7,"mosquito_risk":6,"arthritis_risk":10,"migraine_risk":7,"frizz_risk":1,"updated_at":"2026-05-25T15:43:58.553609+05:30"},{"city":"Imphal","state":"Manipur","latitude":24.817,"longitude":93.9368,"temp":30.0,"humidity":51,"rain":0.0,"pressure":920.8,"uv_index":9.3,"wind_gusts":35.3,"aqi":90,"pm10":35.9,"pm2_5":18.6,"no2":2.3,"co":195.0,"o3":93.0,"so2":2.1,"mosquito_risk":4,"arthritis_risk":5,"migraine_risk":7,"frizz_risk":1,"updated_at":"2026-05-25T15:43:58.553616+05:30"},{"city":"Aizawl","state":"Mizoram","latitude":23.7271,"longitude":92.7176,"temp":25.7,"humidity":68,"rain":0.1,"pressure":890.5,"uv_index":9.1,"wind_gusts":44.3,"aqi":59,"pm10":31.8,"pm2_5":15.0,"no2":1.4,"co":162.0,"o3":94.0,"so2":1.9,"mosquito_risk":10,"arthritis_risk":5,"migraine_risk":7,"frizz_risk":1,"updated_at":"2026-05-25T15:43:58.553623+05:30"},{"city":"Kohima","state":"Nagaland","latitude":25.6701,"longitude":94.1077,"temp":21.4,"humidity":94,"rain":0.2,"pressure":854.1,"uv_index":9.3,"wind_gusts":32.4,"aqi":64,"pm10":25.5,"pm2_5":11.8,"no2":1.9,"co":209.0,"o3":94.0,"so2":1.4,"mosquito_risk":6,"arthritis_risk":5,"migraine_risk":7,"frizz_risk":1,"updated_at":"2026-05-25T15:43:58.553629+05:30"},{"city":"Gangtok","state":"Sikkim","latitude":27.3314,"longitude":88.6138,"temp":19.0,"humidity":89,"rain":0.1,"pressure":835.1,"uv_index":9.15,"wind_gusts":39.2,"aqi":109,"pm10":42.6,"pm2_5":25.4,"no2":1.7,"co":297.0,"o3":145.0,"so2":3.3,"mosquito_risk":6,"arthritis_risk":10,"migraine_risk":7,"frizz_risk":1,"updated_at":"2026-05-25T15:43:58.553636+05:30"},{"city":"Siliguri","state":"West Bengal","latitude":26.7271,"longitude":88.3953,"temp":29.8,"humidity":64,"rain":0.1,"pressure":988.2,"uv_index":8.7,"wind_gusts":32.8,"aqi":134,"pm10":55.9,"pm2_5":35.2,"no2":3.3,"co":445.0,"o3":151.0,"so2":6.0,"mosquito_risk":10,"arthritis_risk":5,"migraine_risk":7,"frizz_risk":1,"updated_at":"2026-05-25T15:44:01.846334+05:30"},{"city":"Durgapur","state":"West Bengal","latitude":23.5204,"longitude":87.3119,"temp":35.2,"humidity":61,"rain":0.0,"pressure":988.3,"uv_index":9.0,"wind_gusts":40.0,"aqi":164,"pm10":188.1,"pm2_5":62.2,"no2":14.0,"co":511.0,"o3":209.0,"so2":37.0,"mosquito_risk":3,"arthritis_risk":5,"migraine_risk":10,"frizz_risk":1,"updated_at":"2026-05-25T15:44:01.846365+05:30"},{"city":"Asansol","state":"West Bengal","latitude":23.6739,"longitude":86.9524,"temp":40.2,"humidity":26,"rain":0.0,"pressure":986.2,"uv_index":9.05,"wind_gusts":36.7,"aqi":150,"pm10":208.2,"pm2_5":55.5,"no2":13.9,"co":379.0,"o3":159.0,"so2":21.2,"mosquito_risk":0,"arthritis_risk":5,"migraine_risk":10,"frizz_risk":1,"updated_at":"2026-05-25T15:44:01.846378+05:30"},{"city":"Pondicherry","state":"Puducherry","latitude":11.9139,"longitude":79.8145,"temp":35.2,"humidity":57,"rain":0.0,"pressure":1004.6,"uv_index":8.95,"wind_gusts":35.3,"aqi":91,"pm10":38.8,"pm2_5":33.6,"no2":9.8,"co":257.0,"o3":181.0,"so2":12.3,"mosquito_risk":0,"arthritis_risk":5,"migraine_risk":7,"frizz_risk":1,"updated_at":"2026-05-25T15:44:01.846387+05:30"},{"city":"Port Blair","state":"Andaman and Nicobar Islands","latitude":11.6234,"longitude":92.7265,"temp":29.2,"humidity":74,"rain":0.0,"pressure":1006.2,"uv_index":8.8,"wind_gusts":31.7,"aqi":35,"pm10":11.6,"pm2_5":6.6,"no2":0.4,"co":120.0,"o3":70.0,"so2":0.4,"mosquito_risk":7,"arthritis_risk":5,"migraine_risk":4,"frizz_risk":1,"updated_at":"2026-05-25T15:44:01.846396+05:30"},{"city":"Haridwar","state":"Uttarakhand","latitude":29.9457,"longitude":78.1642,"temp":40.0,"humidity":19,"rain":0.0,"pressure":967.7,"uv_index":7.5,"wind_gusts":28.4,"aqi":122,"pm10":61.5,"pm2_5":24.1,"no2":1.1,"co":243.0,"o3":165.0,"so2":6.9,"mosquito_risk":0,"arthritis_risk":5,"migraine_risk":10,"frizz_risk":0,"updated_at":"2026-05-25T15:44:01.846406+05:30"},{"city":"Rishikesh","state":"Uttarakhand","latitude":30.0869,"longitude":78.2676,"temp":38.8,"humidity":19,"rain":0.0,"pressure":960.9,"uv_index":7.6,"wind_gusts":20.9,"aqi":100,"pm10":65.9,"pm2_5":22.5,"no2":0.6,"co":217.0,"o3":154.0,"so2":4.7,"mosquito_risk":0,"arthritis_risk":5,"migraine_risk":10,"frizz_risk":0,"updated_at":"2026-05-25T15:44:01.846420+05:30"},{"city":"Nainital","state":"Uttarakhand","latitude":29.3919,"longitude":79.4542,"temp":24.2,"humidity":30,"rain":0.0,"pressure":806.5,"uv_index":8.5,"wind_gusts":48.2,"aqi":126,"pm10":116.4,"pm2_5":33.2,"no2":1.2,"co":242.0,"o3":174.0,"so2":8.3,"mosquito_risk":0,"arthritis_risk":5,"migraine_risk":7,"frizz_risk":0,"updated_at":"2026-05-25T15:44:01.846429+05:30"},{"city":"Mussoorie","state":"Uttarakhand","latitude":30.4599,"longitude":78.0664,"temp":24.3,"humidity":25,"rain":0.0,"pressure":804.4,"uv_index":8.05,"wind_gusts":50.8,"aqi":106,"pm10":54.9,"pm2_5":23.2,"no2":1.3,"co":149.0,"o3":163.0,"so2":7.1,"mosquito_risk":0,"arthritis_risk":5,"migraine_risk":7,"frizz_risk":0,"updated_at":"2026-05-25T15:44:01.846437+05:30"},{"city":"Dharamshala","state":"Himachal Pradesh","latitude":32.219,"longitude":76.3234,"temp":28.3,"humidity":23,"rain":0.0,"pressure":868.2,"uv_index":8.45,"wind_gusts":46.4,"aqi":77,"pm10":20.1,"pm2_5":8.3,"no2":0.1,"co":146.0,"o3":137.0,"so2":1.0,"mosquito_risk":4,"arthritis_risk":5,"migraine_risk":7,"frizz_risk":0,"updated_at":"2026-05-25T15:44:01.846446+05:30"},{"city":"Dalhousie","state":"Himachal Pradesh","latitude":32.5387,"longitude":75.971,"temp":24.2,"humidity":25,"rain":0.0,"pressure":806.1,"uv_index":8.65,"wind_gusts":50.0,"aqi":82,"pm10":25.5,"pm2_5":11.0,"no2":0.3,"co":155.0,"o3":138.0,"so2":1.2,"mosquito_risk":0,"arthritis_risk":5,"migraine_risk":7,"frizz_risk":0,"updated_at":"2026-05-25T15:44:01.846455+05:30"},{"city":"Patiala","state":"Punjab","latitude":30.3398,"longitude":76.3869,"temp":41.3,"humidity":14,"rain":0.0,"pressure":971.8,"uv_index":7.6,"wind_gusts":34.9,"aqi":127,"pm10":354.8,"pm2_5":49.1,"no2":1.5,"co":208.0,"o3":148.0,"so2":5.0,"mosquito_risk":0,"arthritis_risk":5,"migraine_risk":10,"frizz_risk":0,"updated_at":"2026-05-25T15:44:01.846463+05:30"},{"city":"Bhatinda","state":"Punjab","latitude":30.211,"longitude":74.9455,"temp":41.7,"humidity":15,"rain":0.0,"pressure":977.4,"uv_index":8.25,"wind_gusts":28.4,"aqi":99,"pm10":88.7,"pm2_5":27.1,"no2":2.0,"co":178.0,"o3":162.0,"so2":10.8,"mosquito_risk":0,"arthritis_risk":5,"migraine_risk":10,"frizz_risk":0,"updated_at":"2026-05-25T15:44:01.846472+05:30"},{"city":"Rohtak","state":"Haryana","latitude":28.8955,"longitude":76.6066,"temp":41.4,"humidity":18,"rain":0.0,"pressure":975.1,"uv_index":7.75,"wind_gusts":37.8,"aqi":681,"pm10":964.9,"pm2_5":152.3,"no2":2.2,"co":167.0,"o3":121.0,"so2":4.4,"mosquito_risk":0,"arthritis_risk":5,"migraine_risk":10,"frizz_risk":0,"updated_at":"2026-05-25T15:44:01.846480+05:30"},{"city":"Panipat","state":"Haryana","latitude":29.3909,"longitude":76.9635,"temp":41.9,"humidity":13,"rain":0.0,"pressure":973.8,"uv_index":7.6,"wind_gusts":32.8,"aqi":839,"pm10":1207.0,"pm2_5":177.0,"no2":3.8,"co":165.0,"o3":148.0,"so2":17.1,"mosquito_risk":0,"arthritis_risk":5,"migraine_risk":10,"frizz_risk":0,"updated_at":"2026-05-25T15:44:01.846488+05:30"},{"city":"Mathura","state":"Uttar Pradesh","latitude":27.4924,"longitude":77.6737,"temp":43.5,"humidity":17,"rain":0.0,"pressure":979.6,"uv_index":8.0,"wind_gusts":49.0,"aqi":1176,"pm10":773.0,"pm2_5":93.6,"no2":1.7,"co":162.0,"o3":113.0,"so2":2.7,"mosquito_risk":0,"arthritis_risk":5,"migraine_risk":10,"frizz_risk":0,"updated_at":"2026-05-25T15:44:01.846495+05:30"},{"city":"Vrindavan","state":"Uttar Pradesh","latitude":27.5823,"longitude":77.7027,"temp":43.0,"humidity":18,"rain":0.0,"pressure":980.1,"uv_index":8.0,"wind_gusts":45.4,"aqi":1176,"pm10":773.0,"pm2_5":93.6,"no2":1.7,"co":153.0,"o3":113.0,"so2":2.7,"mosquito_risk":0,"arthritis_risk":5,"migraine_risk":10,"frizz_risk":0,"updated_at":"2026-05-25T15:44:01.846503+05:30"},{"city":"Ayodhya","state":"Uttar Pradesh","latitude":26.7922,"longitude":82.1998,"temp":40.5,"humidity":24,"rain":0.0,"pressure":987.6,"uv_index":8.35,"wind_gusts":29.9,"aqi":168,"pm10":326.9,"pm2_5":80.1,"no2":1.6,"co":277.0,"o3":180.0,"so2":8.7,"mosquito_risk":0,"arthritis_risk":5,"migraine_risk":10,"frizz_risk":1,"updated_at":"2026-05-25T15:44:01.846511+05:30"},{"city":"Ratlam","state":"Madhya Pradesh","latitude":23.3315,"longitude":75.0367,"temp":39.2,"humidity":23,"rain":0.0,"pressure":952.5,"uv_index":8.55,"wind_gusts":47.9,"aqi":59,"pm10":26.0,"pm2_5":15.0,"no2":0.6,"co":126.0,"o3":107.0,"so2":4.7,"mosquito_risk":0,"arthritis_risk":5,"migraine_risk":10,"frizz_risk":0,"updated_at":"2026-05-25T15:44:01.846519+05:30"},{"city":"Sagar","state":"Madhya Pradesh","latitude":23.8388,"longitude":78.7378,"temp":41.0,"humidity":14,"rain":0.0,"pressure":947.2,"uv_index":8.7,"wind_gusts":46.1,"aqi":65,"pm10":75.0,"pm2_5":20.4,"no2":0.4,"co":133.0,"o3":110.0,"so2":2.2,"mosquito_risk":0,"arthritis_risk":5,"migraine_risk":10,"frizz_risk":0,"updated_at":"2026-05-25T15:44:01.846526+05:30"},{"city":"Satna","state":"Madhya Pradesh","latitude":24.6005,"longitude":80.8322,"temp":42.2,"humidity":12,"rain":0.0,"pressure":966.5,"uv_index":8.75,"wind_gusts":48.6,"aqi":67,"pm10":63.6,"pm2_5":20.7,"no2":0.7,"co":131.0,"o3":117.0,"so2":2.2,"mosquito_risk":0,"arthritis_risk":5,"migraine_risk":10,"frizz_risk":0,"updated_at":"2026-05-25T15:44:01.846534+05:30"},{"city":"Akola","state":"Maharashtra","latitude":20.7002,"longitude":77.0082,"temp":42.8,"humidity":17,"rain":0.0,"pressure":971.0,"uv_index":8.85,"wind_gusts":45.7,"aqi":64,"pm10":49.2,"pm2_5":20.7,"no2":1.3,"co":144.0,"o3":121.0,"so2":5.5,"mosquito_risk":0,"arthritis_risk":5,"migraine_risk":10,"frizz_risk":0,"updated_at":"2026-05-25T15:44:01.846543+05:30"},{"city":"Amravati","state":"Maharashtra","latitude":20.9374,"longitude":77.7796,"temp":43.2,"humidity":13,"rain":0.0,"pressure":963.3,"uv_index":8.1,"wind_gusts":40.3,"aqi":67,"pm10":54.8,"pm2_5":21.4,"no2":1.4,"co":145.0,"o3":122.0,"so2":6.1,"mosquito_risk":0,"arthritis_risk":5,"migraine_risk":10,"frizz_risk":0,"updated_at":"2026-05-25T15:44:01.846553+05:30"},{"city":"Latur","state":"Maharashtra","latitude":18.4088,"longitude":76.5604,"temp":36.5,"humidity":28,"rain":0.0,"pressure":938.2,"uv_index":9.0,"wind_gusts":46.4,"aqi":60,"pm10":46.0,"pm2_5":22.2,"no2":0.5,"co":146.0,"o3":120.0,"so2":3.4,"mosquito_risk":0,"arthritis_risk":5,"migraine_risk":10,"frizz_risk":0,"updated_at":"2026-05-25T15:44:01.846561+05:30"},{"city":"Nanded","state":"Maharashtra","latitude":19.1383,"longitude":77.3091,"temp":41.1,"humidity":22,"rain":0.0,"pressure":965.1,"uv_index":8.95,"wind_gusts":36.4,"aqi":63,"pm10":45.5,"pm2_5":21.9,"no2":0.6,"co":144.0,"o3":122.0,"so2":3.6,"mosquito_risk":0,"arthritis_risk":5,"migraine_risk":10,"frizz_risk":0,"updated_at":"2026-05-25T15:44:01.846569+05:30"},{"city":"Gulbarga","state":"Karnataka","latitude":17.3297,"longitude":76.8343,"temp":36.5,"humidity":38,"rain":0.0,"pressure":956.1,"uv_index":9.05,"wind_gusts":37.4,"aqi":56,"pm10":46.6,"pm2_5":23.6,"no2":1.0,"co":171.0,"o3":136.0,"so2":4.7,"mosquito_risk":0,"arthritis_risk":5,"migraine_risk":10,"frizz_risk":1,"updated_at":"2026-05-25T15:44:01.846576+05:30"},{"city":"Bidar","state":"Karnataka","latitude":17.9104,"longitude":77.5199,"temp":37.7,"humidity":29,"rain":0.0,"pressure":933.7,"uv_index":9.1,"wind_gusts":38.9,"aqi":63,"pm10":49.9,"pm2_5":24.4,"no2":0.8,"co":154.0,"o3":128.0,"so2":3.8,"mosquito_risk":0,"arthritis_risk":5,"migraine_risk":10,"frizz_risk":1,"updated_at":"2026-05-25T15:44:01.846584+05:30"},{"city":"Hospet","state":"Karnataka","latitude":15.2689,"longitude":76.3909,"temp":34.7,"humidity":42,"rain":0.0,"pressure":954.0,"uv_index":9.1,"wind_gusts":39.2,"aqi":43,"pm10":24.9,"pm2_5":15.0,"no2":2.0,"co":189.0,"o3":119.0,"so2":3.8,"mosquito_risk":0,"arthritis_risk":5,"migraine_risk":7,"frizz_risk":1,"updated_at":"2026-05-25T15:44:01.846592+05:30"},{"city":"Tirupur","state":"Tamil Nadu","latitude":11.1085,"longitude":77.3411,"temp":35.0,"humidity":40,"rain":0.0,"pressure":972.8,"uv_index":8.75,"wind_gusts":64.1,"aqi":50,"pm10":16.3,"pm2_5":12.2,"no2":3.1,"co":176.0,"o3":114.0,"so2":2.7,"mosquito_risk":0,"arthritis_risk":5,"migraine_risk":7,"frizz_risk":1,"updated_at":"2026-05-25T15:44:01.846600+05:30"},{"city":"Alappuzha","state":"Kerala","latitude":9.4981,"longitude":76.3388,"temp":28.0,"humidity":86,"rain":0.1,"pressure":1008.9,"uv_index":7.5,"wind_gusts":32.4,"aqi":42,"pm10":9.8,"pm2_5":7.1,"no2":4.4,"co":109.0,"o3":69.0,"so2":2.6,"mosquito_risk":10,"arthritis_risk":0,"migraine_risk":4,"frizz_risk":1,"updated_at":"2026-05-25T15:44:01.846608+05:30"},{"city":"Munnar","state":"Kerala","latitude":10.0889,"longitude":77.0595,"temp":19.6,"humidity":91,"rain":0.1,"pressure":857.6,"uv_index":8.75,"wind_gusts":30.2,"aqi":30,"pm10":11.4,"pm2_5":8.0,"no2":2.8,"co":163.0,"o3":74.0,"so2":1.3,"mosquito_risk":6,"arthritis_risk":10,"migraine_risk":7,"frizz_risk":1,"updated_at":"2026-05-25T15:44:01.846616+05:30"},{"city":"Silchar","state":"Assam","latitude":24.8333,"longitude":92.7789,"temp":28.4,"humidity":84,"rain":0.0,"pressure":1001.2,"uv_index":8.95,"wind_gusts":30.6,"aqi":80,"pm10":16.2,"pm2_5":11.9,"no2":3.6,"co":216.0,"o3":81.0,"so2":3.3,"mosquito_risk":7,"arthritis_risk":5,"migraine_risk":4,"frizz_risk":1,"updated_at":"2026-05-25T15:44:01.846625+05:30"},{"city":"Dibrugarh","state":"Assam","latitude":27.4728,"longitude":94.912,"temp":25.1,"humidity":94,"rain":0.2,"pressure":992.8,"uv_index":8.95,"wind_gusts":29.2,"aqi":86,"pm10":46.4,"pm2_5":23.3,"no2":2.5,"co":250.0,"o3":115.0,"so2":2.2,"mosquito_risk":10,"arthritis_risk":5,"migraine_risk":7,"frizz_risk":1,"updated_at":"2026-05-25T15:44:01.846633+05:30"}]