[{"city":"Delhi","state":"Delhi","latitude":28.6139,"longitude":77.209,"temp":22.6,"humidity":58,"rain":0.0,"pressure":984.9,"uv_index":5.75,"wind_gusts":29.2,"aqi":374,"pm10":814.0,"pm2_5":125.7,"mosquito_risk":0,"arthritis_risk":5,"migraine_risk":3,"frizz_risk":0,"updated_at":"2026-03-13T22:14:46.721662+05:30"},{"city":"Mumbai","state":"Maharashtra","latitude":19.076,"longitude":72.8777,"temp":29.3,"humidity":67,"rain":0.0,"pressure":1008.3,"uv_index":7.65,"wind_gusts":23.8,"aqi":209,"pm10":28.4,"pm2_5":23.2,"mosquito_risk":7,"arthritis_risk":0,"migraine_risk":4,"frizz_risk":1,"updated_at":"2026-03-13T22:14:46.721702+05:30"},{"city":"Bangalore","state":"Karnataka","latitude":12.9716,"longitude":77.5946,"temp":24.3,"humidity":54,"rain":0.0,"pressure":912.9,"uv_index":9.3,"wind_gusts":28.8,"aqi":106,"pm10":41.6,"pm2_5":37.5,"mosquito_risk":0,"arthritis_risk":5,"migraine_risk":7,"frizz_risk":0,"updated_at":"2026-03-13T22:14:46.721717+05:30"},{"city":"Hyderabad","state":"Telangana","latitude":17.385,"longitude":78.4867,"temp":26.8,"humidity":41,"rain":0.0,"pressure":953.9,"uv_index":8.65,"wind_gusts":19.1,"aqi":154,"pm10":37.7,"pm2_5":29.9,"mosquito_risk":4,"arthritis_risk":5,"migraine_risk":7,"frizz_risk":0,"updated_at":"2026-03-13T22:14:46.721728+05:30"},{"city":"Chennai","state":"Tamil Nadu","latitude":13.0827,"longitude":80.2707,"temp":26.7,"humidity":83,"rain":0.0,"pressure":1009.3,"uv_index":9.05,"wind_gusts":32.4,"aqi":60,"pm10":19.7,"pm2_5":15.4,"mosquito_risk":7,"arthritis_risk":0,"migraine_risk":4,"frizz_risk":1,"updated_at":"2026-03-13T22:14:46.721736+05:30"},{"city":"Kolkata","state":"West Bengal","latitude":22.5726,"longitude":88.3639,"temp":26.0,"humidity":89,"rain":0.0,"pressure":1007.0,"uv_index":8.0,"wind_gusts":29.2,"aqi":117,"pm10":28.3,"pm2_5":24.5,"mosquito_risk":7,"arthritis_risk":5,"migraine_risk":4,"frizz_risk":1,"updated_at":"2026-03-13T22:14:46.721745+05:30"},{"city":"Pune","state":"Maharashtra","latitude":18.5204,"longitude":73.8567,"temp":27.1,"humidity":51,"rain":0.0,"pressure":949.1,"uv_index":8.2,"wind_gusts":36.0,"aqi":150,"pm10":43.8,"pm2_5":42.4,"mosquito_risk":4,"arthritis_risk":5,"migraine_risk":7,"frizz_risk":1,"updated_at":"2026-03-13T22:14:46.721757+05:30"},{"city":"Ahmedabad","state":"Gujarat","latitude":23.0225,"longitude":72.5714,"temp":28.2,"humidity":44,"rain":0.0,"pressure":1002.3,"uv_index":7.45,"wind_gusts":22.3,"aqi":109,"pm10":60.1,"pm2_5":43.9,"mosquito_risk":4,"arthritis_risk":5,"migraine_risk":4,"frizz_risk":0,"updated_at":"2026-03-13T22:14:46.721764+05:30"},{"city":"Jaipur","state":"Rajasthan","latitude":26.9124,"longitude":75.7873,"temp":25.9,"humidity":34,"rain":0.0,"pressure":961.2,"uv_index":6.95,"wind_gusts":23.8,"aqi":116,"pm10":233.3,"pm2_5":49.6,"mosquito_risk":4,"arthritis_risk":5,"migraine_risk":7,"frizz_risk":0,"updated_at":"2026-03-13T22:14:46.721771+05:30"},{"city":"Lucknow","state":"Uttar Pradesh","latitude":26.8467,"longitude":80.9462,"temp":25.6,"humidity":57,"rain":0.0,"pressure":994.4,"uv_index":6.05,"wind_gusts":28.4,"aqi":163,"pm10":215.1,"pm2_5":64.5,"mosquito_risk":4,"arthritis_risk":5,"migraine_risk":7,"frizz_risk":1,"updated_at":"2026-03-13T22:14:46.721779+05:30"},{"city":"Kanpur","state":"Uttar Pradesh","latitude":26.4499,"longitude":80.3319,"temp":24.4,"humidity":65,"rain":0.0,"pressure":992.4,"uv_index":6.35,"wind_gusts":18.7,"aqi":228,"pm10":325.0,"pm2_5":73.6,"mosquito_risk":3,"arthritis_risk":5,"migraine_risk":7,"frizz_risk":1,"updated_at":"2026-03-13T22:14:46.721786+05:30"},{"city":"Chandigarh","state":"Chandigarh","latitude":30.7333,"longitude":76.7794,"temp":19.5,"humidity":71,"rain":0.0,"pressure":969.9,"uv_index":5.35,"wind_gusts":29.5,"aqi":78,"pm10":28.2,"pm2_5":25.6,"mosquito_risk":3,"arthritis_risk":5,"migraine_risk":3,"frizz_risk":0,"updated_at":"2026-03-13T22:14:46.721795+05:30"},{"city":"Srinagar","state":"Jammu and Kashmir","latitude":34.0837,"longitude":74.7973,"temp":7.9,"humidity":79,"rain":0.0,"pressure":839.9,"uv_index":6.75,"wind_gusts":15.1,"aqi":77,"pm10":68.2,"pm2_5":52.9,"mosquito_risk":3,"arthritis_risk":5,"migraine_risk":7,"frizz_risk":0,"updated_at":"2026-03-13T22:14:46.721802+05:30"},{"city":"Jammu","state":"Jammu and Kashmir","latitude":32.7266,"longitude":74.857,"temp":20.9,"humidity":57,"rain":0.0,"pressure":974.1,"uv_index":6.45,"wind_gusts":24.8,"aqi":71,"pm10":42.4,"pm2_5":36.2,"mosquito_risk":0,"arthritis_risk":5,"migraine_risk":7,"frizz_risk":0,"updated_at":"2026-03-13T22:14:46.721809+05:30"},{"city":"Amritsar","state":"Punjab","latitude":31.634,"longitude":74.8723,"temp":20.3,"humidity":62,"rain":0.0,"pressure":982.8,"uv_index":5.85,"wind_gusts":25.6,"aqi":87,"pm10":34.1,"pm2_5":27.2,"mosquito_risk":3,"arthritis_risk":5,"migraine_risk":3,"frizz_risk":0,"updated_at":"2026-03-13T22:14:46.721816+05:30"},{"city":"Ludhiana","state":"Punjab","latitude":30.901,"longitude":75.8573,"temp":21.0,"humidity":67,"rain":0.0,"pressure":980.7,"uv_index":5.7,"wind_gusts":27.7,"aqi":99,"pm10":36.2,"pm2_5":28.1,"mosquito_risk":3,"arthritis_risk":5,"migraine_risk":3,"frizz_risk":0,"updated_at":"2026-03-13T22:14:46.721822+05:30"},{"city":"Jalandhar","state":"Punjab","latitude":31.326,"longitude":75.5762,"temp":20.6,"humidity":63,"rain":0.0,"pressure":981.8,"uv_index":5.7,"wind_gusts":25.6,"aqi":97,"pm10":45.8,"pm2_5":29.8,"mosquito_risk":3,"arthritis_risk":5,"migraine_risk":3,"frizz_risk":0,"updated_at":"2026-03-13T22:14:46.721831+05:30"},{"city":"Dehradun","state":"Uttarakhand","latitude":30.6284,"longitude":78.0322,"temp":13.8,"humidity":72,"rain":0.0,"pressure":829.4,"uv_index":5.7,"wind_gusts":28.8,"aqi":66,"pm10":43.2,"pm2_5":25.3,"mosquito_risk":3,"arthritis_risk":5,"migraine_risk":3,"frizz_risk":0,"updated_at":"2026-03-13T22:14:46.721838+05:30"},{"city":"Shimla","state":"Himachal Pradesh","latitude":31.1048,"longitude":77.1734,"temp":10.9,"humidity":69,"rain":0.0,"pressure":783.0,"uv_index":5.15,"wind_gusts":39.2,"aqi":61,"pm10":31.0,"pm2_5":21.9,"mosquito_risk":3,"arthritis_risk":5,"migraine_risk":3,"frizz_risk":0,"updated_at":"2026-03-13T22:14:46.721845+05:30"},{"city":"Manali","state":"Himachal Pradesh","latitude":32.2396,"longitude":77.1887,"temp":12.4,"humidity":32,"rain":0.0,"pressure":819.6,"uv_index":8.05,"wind_gusts":38.5,"aqi":74,"pm10":28.0,"pm2_5":12.4,"mosquito_risk":0,"arthritis_risk":5,"migraine_risk":7,"frizz_risk":1,"updated_at":"2026-03-13T22:14:46.721851+05:30"},{"city":"Gurgaon","state":"Haryana","latitude":28.4595,"longitude":77.0266,"temp":20.1,"humidity":67,"rain":0.0,"pressure":983.2,"uv_index":6.15,"wind_gusts":28.1,"aqi":1182,"pm10":1944.6,"pm2_5":233.3,"mosquito_risk":3,"arthritis_risk":5,"migraine_risk":7,"frizz_risk":0,"updated_at":"2026-03-13T22:14:46.721858+05:30"},{"city":"Noida","state":"Uttar Pradesh","latitude":28.5355,"longitude":77.391,"temp":22.4,"humidity":59,"rain":0.0,"pressure":986.4,"uv_index":5.95,"wind_gusts":28.8,"aqi":1182,"pm10":1944.6,"pm2_5":233.3,"mosquito_risk":0,"arthritis_risk":5,"migraine_risk":3,"frizz_risk":0,"updated_at":"2026-03-13T22:14:46.721865+05:30"},{"city":"Ghaziabad","state":"Uttar Pradesh","latitude":28.6692,"longitude":77.4538,"temp":21.6,"humidity":64,"rain":0.0,"pressure":984.4,"uv_index":5.75,"wind_gusts":27.7,"aqi":191,"pm10":642.6,"pm2_5":106.2,"mosquito_risk":3,"arthritis_risk":5,"migraine_risk":3,"frizz_risk":0,"updated_at":"2026-03-13T22:14:46.721872+05:30"},{"city":"Faridabad","state":"Haryana","latitude":28.4089,"longitude":77.3178,"temp":20.9,"humidity":59,"rain":0.0,"pressure":985.6,"uv_index":6.2,"wind_gusts":27.7,"aqi":1182,"pm10":1944.6,"pm2_5":233.3,"mosquito_risk":0,"arthritis_risk":5,"migraine_risk":7,"frizz_risk":0,"updated_at":"2026-03-13T22:14:46.721880+05:30"},{"city":"Meerut","state":"Uttar Pradesh","latitude":28.9845,"longitude":77.7064,"temp":19.7,"humidity":70,"rain":0.0,"pressure":982.9,"uv_index":4.85,"wind_gusts":27.7,"aqi":191,"pm10":642.6,"pm2_5":106.2,"mosquito_risk":3,"arthritis_risk":5,"migraine_risk":3,"frizz_risk":0,"updated_at":"2026-03-13T22:14:46.721887+05:30"},{"city":"Agra","state":"Uttar Pradesh","latitude":27.1767,"longitude":78.0081,"temp":22.5,"humidity":49,"rain":0.0,"pressure":989.1,"uv_index":6.25,"wind_gusts":24.8,"aqi":556,"pm10":957.4,"pm2_5":124.8,"mosquito_risk":0,"arthritis_risk":5,"migraine_risk":7,"frizz_risk":0,"updated_at":"2026-03-13T22:14:46.721894+05:30"},{"city":"Varanasi","state":"Uttar Pradesh","latitude":25.3176,"longitude":82.9739,"temp":23.6,"humidity":60,"rain":0.0,"pressure":998.4,"uv_index":7.35,"wind_gusts":25.2,"aqi":127,"pm10":146.7,"pm2_5":60.5,"mosquito_risk":0,"arthritis_risk":5,"migraine_risk":7,"frizz_risk":0,"updated_at":"2026-03-13T22:14:46.721903+05:30"},{"city":"Prayagraj","state":"Uttar Pradesh","latitude":25.4358,"longitude":81.8463,"temp":25.6,"humidity":56,"rain":0.0,"pressure":996.7,"uv_index":7.1,"wind_gusts":21.6,"aqi":150,"pm10":120.1,"pm2_5":51.7,"mosquito_risk":4,"arthritis_risk":5,"migraine_risk":7,"frizz_risk":1,"updated_at":"2026-03-13T22:14:46.721910+05:30"},{"city":"Gorakhpur","state":"Uttar Pradesh","latitude":26.7606,"longitude":83.3732,"temp":23.5,"humidity":66,"rain":0.0,"pressure":997.3,"uv_index":7.05,"wind_gusts":28.4,"aqi":181,"pm10":62.4,"pm2_5":44.2,"mosquito_risk":3,"arthritis_risk":5,"migraine_risk":7,"frizz_risk":1,"updated_at":"2026-03-13T22:14:46.721916+05:30"},{"city":"Bareilly","state":"Uttar Pradesh","latitude":28.367,"longitude":79.4304,"temp":20.7,"humidity":66,"rain":0.0,"pressure":987.6,"uv_index":6.35,"wind_gusts":26.6,"aqi":148,"pm10":66.1,"pm2_5":39.6,"mosquito_risk":3,"arthritis_risk":5,"migraine_risk":7,"frizz_risk":0,"updated_at":"2026-03-13T22:14:46.721923+05:30"},{"city":"Aligarh","state":"Uttar Pradesh","latitude":27.8974,"longitude":78.088,"temp":19.6,"humidity":60,"rain":0.0,"pressure":987.2,"uv_index":5.9,"wind_gusts":28.8,"aqi":593,"pm10":1113.9,"pm2_5":161.6,"mosquito_risk":0,"arthritis_risk":5,"migraine_risk":3,"frizz_risk":0,"updated_at":"2026-03-13T22:14:46.721929+05:30"},{"city":"Moradabad","state":"Uttar Pradesh","latitude":28.8386,"longitude":78.7733,"temp":21.1,"humidity":65,"rain":0.0,"pressure":984.7,"uv_index":5.75,"wind_gusts":27.4,"aqi":142,"pm10":167.2,"pm2_5":50.8,"mosquito_risk":3,"arthritis_risk":5,"migraine_risk":3,"frizz_risk":0,"updated_at":"2026-03-13T22:14:46.721935+05:30"},{"city":"Saharanpur","state":"Uttar Pradesh","latitude":29.9637,"longitude":77.546,"temp":19.9,"humidity":70,"rain":0.0,"pressure":976.6,"uv_index":4.95,"wind_gusts":27.4,"aqi":133,"pm10":136.9,"pm2_5":47.1,"mosquito_risk":3,"arthritis_risk":5,"migraine_risk":3,"frizz_risk":0,"updated_at":"2026-03-13T22:14:46.721943+05:30"},{"city":"Jhansi","state":"Uttar Pradesh","latitude":25.4484,"longitude":78.5685,"temp":25.6,"humidity":57,"rain":0.0,"pressure":978.9,"uv_index":6.75,"wind_gusts":20.9,"aqi":70,"pm10":87.1,"pm2_5":38.1,"mosquito_risk":4,"arthritis_risk":5,"migraine_risk":7,"frizz_risk":1,"updated_at":"2026-03-13T22:14:49.944763+05:30"},{"city":"Surat","state":"Gujarat","latitude":21.1702,"longitude":72.8311,"temp":26.9,"humidity":64,"rain":0.0,"pressure":1006.5,"uv_index":7.35,"wind_gusts":23.8,"aqi":146,"pm10":73.8,"pm2_5":68.5,"mosquito_risk":7,"arthritis_risk":5,"migraine_risk":4,"frizz_risk":1,"updated_at":"2026-03-13T22:14:49.944790+05:30"},{"city":"Vadodara","state":"Gujarat","latitude":22.3072,"longitude":73.1812,"temp":30.5,"humidity":33,"rain":0.0,"pressure":1004.0,"uv_index":7.5,"wind_gusts":23.8,"aqi":129,"pm10":68.7,"pm2_5":58.2,"mosquito_risk":0,"arthritis_risk":5,"migraine_risk":4,"frizz_risk":0,"updated_at":"2026-03-13T22:14:49.944800+05:30"},{"city":"Rajkot","state":"Gujarat","latitude":22.3039,"longitude":70.8022,"temp":27.4,"humidity":33,"rain":0.0,"pressure":995.4,"uv_index":7.3,"wind_gusts":29.5,"aqi":89,"pm10":50.4,"pm2_5":23.2,"mosquito_risk":4,"arthritis_risk":5,"migraine_risk":7,"frizz_risk":0,"updated_at":"2026-03-13T22:14:49.944808+05:30"},{"city":"Thane","state":"Maharashtra","latitude":19.2183,"longitude":72.9781,"temp":28.5,"humidity":55,"rain":0.0,"pressure":1007.6,"uv_index":7.65,"wind_gusts":38.2,"aqi":209,"pm10":28.4,"pm2_5":23.2,"mosquito_risk":4,"arthritis_risk":5,"migraine_risk":4,"frizz_risk":1,"updated_at":"2026-03-13T22:14:49.944815+05:30"},{"city":"Nagpur","state":"Maharashtra","latitude":21.1458,"longitude":79.0882,"temp":26.0,"humidity":46,"rain":0.0,"pressure":973.0,"uv_index":8.05,"wind_gusts":19.4,"aqi":110,"pm10":53.0,"pm2_5":48.7,"mosquito_risk":4,"arthritis_risk":5,"migraine_risk":7,"frizz_risk":0,"updated_at":"2026-03-13T22:14:49.944822+05:30"},{"city":"Nashik","state":"Maharashtra","latitude":19.9975,"longitude":73.7898,"temp":26.7,"humidity":41,"rain":0.0,"pressure":946.4,"uv_index":7.85,"wind_gusts":34.9,"aqi":143,"pm10":29.8,"pm2_5":27.6,"mosquito_risk":4,"arthritis_risk":5,"migraine_risk":7,"frizz_risk":0,"updated_at":"2026-03-13T22:14:49.944829+05:30"},{"city":"Aurangabad","state":"Maharashtra","latitude":19.8762,"longitude":75.3433,"temp":26.7,"humidity":44,"rain":0.0,"pressure":944.4,"uv_index":8.35,"wind_gusts":29.5,"aqi":142,"pm10":35.7,"pm2_5":34.0,"mosquito_risk":4,"arthritis_risk":5,"migraine_risk":7,"frizz_risk":0,"updated_at":"2026-03-13T22:14:49.944836+05:30"},{"city":"Solapur","state":"Maharashtra","latitude":17.6599,"longitude":75.9064,"temp":27.9,"humidity":44,"rain":0.0,"pressure":956.8,"uv_index":8.6,"wind_gusts":24.1,"aqi":146,"pm10":47.8,"pm2_5":42.3,"mosquito_risk":4,"arthritis_risk":5,"migraine_risk":7,"frizz_risk":0,"updated_at":"2026-03-13T22:14:49.944843+05:30"},{"city":"Kolhapur","state":"Maharashtra","latitude":16.705,"longitude":74.2433,"temp":24.3,"humidity":84,"rain":0.0,"pressure":948.5,"uv_index":8.7,"wind_gusts":47.9,"aqi":151,"pm10":51.1,"pm2_5":49.7,"mosquito_risk":3,"arthritis_risk":5,"migraine_risk":7,"frizz_risk":1,"updated_at":"2026-03-13T22:14:49.944849+05:30"},{"city":"Goa","state":"Goa","latitude":15.2993,"longitude":74.124,"temp":28.0,"humidity":82,"rain":0.0,"pressure":998.7,"uv_index":8.7,"wind_gusts":31.3,"aqi":133,"pm10":53.1,"pm2_5":48.3,"mosquito_risk":7,"arthritis_risk":5,"migraine_risk":7,"frizz_risk":1,"updated_at":"2026-03-13T22:14:49.944856+05:30"},{"city":"Jodhpur","state":"Rajasthan","latitude":26.2389,"longitude":73.0243,"temp":28.0,"humidity":39,"rain":0.0,"pressure":983.4,"uv_index":6.8,"wind_gusts":18.7,"aqi":87,"pm10":156.0,"pm2_5":36.4,"mosquito_risk":4,"arthritis_risk":5,"migraine_risk":7,"frizz_risk":0,"updated_at":"2026-03-13T22:14:49.944862+05:30"},{"city":"Udaipur","state":"Rajasthan","latitude":24.5854,"longitude":73.7125,"temp":25.0,"humidity":28,"rain":0.0,"pressure":947.6,"uv_index":7.8,"wind_gusts":30.2,"aqi":91,"pm10":30.6,"pm2_5":17.5,"mosquito_risk":4,"arthritis_risk":5,"migraine_risk":7,"frizz_risk":0,"updated_at":"2026-03-13T22:14:49.944869+05:30"},{"city":"Kota","state":"Rajasthan","latitude":25.2138,"longitude":75.8648,"temp":26.9,"humidity":41,"rain":0.0,"pressure":978.8,"uv_index":7.1,"wind_gusts":17.6,"aqi":86,"pm10":38.8,"pm2_5":19.2,"mosquito_risk":4,"arthritis_risk":5,"migraine_risk":7,"frizz_risk":0,"updated_at":"2026-03-13T22:14:49.944875+05:30"},{"city":"Bikaner","state":"Rajasthan","latitude":28.0229,"longitude":73.3119,"temp":27.4,"humidity":31,"rain":0.0,"pressure":983.0,"uv_index":6.75,"wind_gusts":24.8,"aqi":85,"pm10":20.8,"pm2_5":15.5,"mosquito_risk":4,"arthritis_risk":5,"migraine_risk":7,"frizz_risk":0,"updated_at":"2026-03-13T22:14:49.944881+05:30"},{"city":"Ajmer","state":"Rajasthan","latitude":26.4499,"longitude":74.6399,"temp":24.4,"humidity":35,"rain":0.0,"pressure":955.3,"uv_index":7.05,"wind_gusts":22.0,"aqi":76,"pm10":80.6,"pm2_5":32.8,"mosquito_risk":0,"arthritis_risk":5,"migraine_risk":7,"frizz_risk":0,"updated_at":"2026-03-13T22:14:49.944888+05:30"},{"city":"Gwalior","state":"Madhya Pradesh","latitude":26.2183,"longitude":78.1828,"temp":25.8,"humidity":66,"rain":0.0,"pressure":984.3,"uv_index":6.8,"wind_gusts":21.2,"aqi":99,"pm10":181.6,"pm2_5":52.5,"mosquito_risk":7,"arthritis_risk":5,"migraine_risk":7,"frizz_risk":1,"updated_at":"2026-03-13T22:14:49.944894+05:30"},{"city":"Indore","state":"Madhya Pradesh","latitude":22.7196,"longitude":75.8577,"temp":23.5,"humidity":38,"rain":0.0,"pressure":948.6,"uv_index":7.75,"wind_gusts":32.4,"aqi":85,"pm10":43.1,"pm2_5":39.1,"mosquito_risk":0,"arthritis_risk":5,"migraine_risk":7,"frizz_risk":0,"updated_at":"2026-03-13T22:14:49.944900+05:30"},{"city":"Bhopal","state":"Madhya Pradesh","latitude":23.2599,"longitude":77.4126,"temp":25.2,"humidity":30,"rain":0.0,"pressure":954.1,"uv_index":7.55,"wind_gusts":31.0,"aqi":93,"pm10":22.1,"pm2_5":21.5,"mosquito_risk":4,"arthritis_risk":5,"migraine_risk":7,"frizz_risk":0,"updated_at":"2026-03-13T22:14:49.944907+05:30"},{"city":"Jabalpur","state":"Madhya Pradesh","latitude":23.1815,"longitude":79.9864,"temp":26.2,"humidity":48,"rain":0.0,"pressure":962.1,"uv_index":7.75,"wind_gusts":20.2,"aqi":111,"pm10":27.1,"pm2_5":26.1,"mosquito_risk":4,"arthritis_risk":5,"migraine_risk":7,"frizz_risk":0,"updated_at":"2026-03-13T22:14:49.944913+05:30"},{"city":"Ujjain","state":"Madhya Pradesh","latitude":23.1765,"longitude":75.7885,"temp":23.3,"humidity":40,"rain":0.0,"pressure":954.4,"uv_index":7.65,"wind_gusts":26.3,"aqi":72,"pm10":49.1,"pm2_5":43.8,"mosquito_risk":0,"arthritis_risk":5,"migraine_risk":7,"frizz_risk":0,"updated_at":"2026-03-13T22:14:49.944920+05:30"},{"city":"Visakhapatnam","state":"Andhra Pradesh","latitude":17.6868,"longitude":83.2185,"temp":26.1,"humidity":84,"rain":0.0,"pressure":1006.1,"uv_index":8.65,"wind_gusts":40.3,"aqi":82,"pm10":20.8,"pm2_5":17.3,"mosquito_risk":7,"arthritis_risk":5,"migraine_risk":4,"frizz_risk":1,"updated_at":"2026-03-13T22:14:49.944927+05:30"},{"city":"Vijayawada","state":"Andhra Pradesh","latitude":16.5062,"longitude":80.648,"temp":25.9,"humidity":86,"rain":0.0,"pressure":1004.7,"uv_index":8.75,"wind_gusts":31.3,"aqi":86,"pm10":16.2,"pm2_5":14.2,"mosquito_risk":7,"arthritis_risk":5,"migraine_risk":4,"frizz_risk":1,"updated_at":"2026-03-13T22:14:49.944933+05:30"},{"city":"Guntur","state":"Andhra Pradesh","latitude":16.3067,"longitude":80.4365,"temp":25.6,"humidity":88,"rain":0.0,"pressure":1005.7,"uv_index":8.75,"wind_gusts":33.8,"aqi":81,"pm10":15.1,"pm2_5":13.2,"mosquito_risk":7,"arthritis_risk":5,"migraine_risk":4,"frizz_risk":1,"updated_at":"2026-03-13T22:14:49.944940+05:30"},{"city":"Nellore","state":"Andhra Pradesh","latitude":14.4426,"longitude":79.9865,"temp":25.9,"humidity":90,"rain":0.0,"pressure":1007.8,"uv_index":8.9,"wind_gusts":30.2,"aqi":71,"pm10":15.0,"pm2_5":11.8,"mosquito_risk":7,"arthritis_risk":5,"migraine_risk":4,"frizz_risk":1,"updated_at":"2026-03-13T22:14:49.944947+05:30"},{"city":"Kurnool","state":"Andhra Pradesh","latitude":15.8281,"longitude":78.0373,"temp":30.5,"humidity":33,"rain":0.0,"pressure":977.4,"uv_index":8.7,"wind_gusts":23.8,"aqi":151,"pm10":56.0,"pm2_5":46.6,"mosquito_risk":0,"arthritis_risk":5,"migraine_risk":7,"frizz_risk":0,"updated_at":"2026-03-13T22:14:49.944954+05:30"},{"city":"Kakinada","state":"Andhra Pradesh","latitude":16.9891,"longitude":82.2475,"temp":25.0,"humidity":90,"rain":0.0,"pressure":1010.0,"uv_index":8.65,"wind_gusts":34.6,"aqi":72,"pm10":15.7,"pm2_5":11.8,"mosquito_risk":7,"arthritis_risk":0,"migraine_risk":4,"frizz_risk":1,"updated_at":"2026-03-13T22:14:49.944960+05:30"},{"city":"Tirupati","state":"Andhra Pradesh","latitude":13.6288,"longitude":79.4192,"temp":26.6,"humidity":71,"rain":0.0,"pressure":993.8,"uv_index":9.05,"wind_gusts":33.5,"aqi":91,"pm10":22.4,"pm2_5":20.4,"mosquito_risk":7,"arthritis_risk":5,"migraine_risk":7,"frizz_risk":1,"updated_at":"2026-03-13T22:14:49.944966+05:30"},{"city":"Warangal","state":"Telangana","latitude":17.9689,"longitude":79.5941,"temp":26.3,"humidity":64,"rain":0.0,"pressure":979.0,"uv_index":8.5,"wind_gusts":28.8,"aqi":123,"pm10":46.1,"pm2_5":40.0,"mosquito_risk":7,"arthritis_risk":5,"migraine_risk":7,"frizz_risk":1,"updated_at":"2026-03-13T22:14:49.944973+05:30"},{"city":"Nizamabad","state":"Telangana","latitude":18.6725,"longitude":78.0941,"temp":26.0,"humidity":45,"rain":0.0,"pressure":964.7,"uv_index":8.4,"wind_gusts":19.1,"aqi":145,"pm10":65.7,"pm2_5":55.4,"mosquito_risk":4,"arthritis_risk":5,"migraine_risk":7,"frizz_risk":0,"updated_at":"2026-03-13T22:14:49.944979+05:30"},{"city":"Mysore","state":"Karnataka","latitude":12.2958,"longitude":76.6396,"temp":25.1,"humidity":48,"rain":0.0,"pressure":929.0,"uv_index":9.3,"wind_gusts":29.9,"aqi":112,"pm10":39.7,"pm2_5":35.9,"mosquito_risk":4,"arthritis_risk":5,"migraine_risk":7,"frizz_risk":0,"updated_at":"2026-03-13T22:14:49.944985+05:30"},{"city":"Mangalore","state":"Karnataka","latitude":12.9141,"longitude":74.856,"temp":29.0,"humidity":82,"rain":0.0,"pressure":1007.8,"uv_index":8.95,"wind_gusts":23.0,"aqi":115,"pm10":46.2,"pm2_5":39.7,"mosquito_risk":7,"arthritis_risk":5,"migraine_risk":4,"frizz_risk":1,"updated_at":"2026-03-13T22:14:49.944991+05:30"},{"city":"Hubli-Dharwad","state":"Karnataka","latitude":15.3647,"longitude":75.124,"temp":25.8,"humidity":68,"rain":0.0,"pressure":941.4,"uv_index":8.9,"wind_gusts":29.2,"aqi":146,"pm10":34.9,"pm2_5":32.0,"mosquito_risk":7,"arthritis_risk":5,"migraine_risk":7,"frizz_risk":1,"updated_at":"2026-03-13T22:14:49.944997+05:30"},{"city":"Belgaum","state":"Karnataka","latitude":15.8497,"longitude":74.4977,"temp":24.2,"humidity":84,"rain":0.0,"pressure":926.5,"uv_index":8.95,"wind_gusts":41.0,"aqi":137,"pm10":50.9,"pm2_5":48.7,"mosquito_risk":3,"arthritis_risk":5,"migraine_risk":7,"frizz_risk":1,"updated_at":"2026-03-13T22:14:53.472025+05:30"},{"city":"Coimbatore","state":"Tamil Nadu","latitude":11.0168,"longitude":76.9558,"temp":24.1,"humidity":83,"rain":0.0,"pressure":963.3,"uv_index":9.3,"wind_gusts":42.8,"aqi":89,"pm10":38.0,"pm2_5":33.1,"mosquito_risk":3,"arthritis_risk":5,"migraine_risk":7,"frizz_risk":1,"updated_at":"2026-03-13T22:14:53.472058+05:30"},{"city":"Madurai","state":"Tamil Nadu","latitude":9.9252,"longitude":78.1198,"temp":27.4,"humidity":62,"rain":0.0,"pressure":994.7,"uv_index":9.25,"wind_gusts":26.6,"aqi":79,"pm10":21.4,"pm2_5":19.6,"mosquito_risk":7,"arthritis_risk":5,"migraine_risk":7,"frizz_risk":1,"updated_at":"2026-03-13T22:14:53.472070+05:30"},{"city":"Trichy","state":"Tamil Nadu","latitude":10.7905,"longitude":78.7047,"temp":26.5,"humidity":79,"rain":0.0,"pressure":1001.5,"uv_index":9.15,"wind_gusts":23.0,"aqi":81,"pm10":21.2,"pm2_5":19.9,"mosquito_risk":7,"arthritis_risk":5,"migraine_risk":4,"frizz_risk":1,"updated_at":"2026-03-13T22:14:53.472079+05:30"},{"city":"Salem","state":"Tamil Nadu","latitude":11.6643,"longitude":78.146,"temp":26.7,"humidity":65,"rain":0.0,"pressure":978.5,"uv_index":9.2,"wind_gusts":24.8,"aqi":109,"pm10":42.5,"pm2_5":37.5,"mosquito_risk":7,"arthritis_risk":5,"migraine_risk":7,"frizz_risk":1,"updated_at":"2026-03-13T22:14:53.472088+05:30"},{"city":"Tirunelveli","state":"Tamil Nadu","latitude":8.7139,"longitude":77.7567,"temp":26.6,"humidity":73,"rain":0.0,"pressure":1005.0,"uv_index":9.2,"wind_gusts":29.9,"aqi":62,"pm10":16.2,"pm2_5":14.6,"mosquito_risk":7,"arthritis_risk":5,"migraine_risk":4,"frizz_risk":1,"updated_at":"2026-03-13T22:14:53.472136+05:30"},{"city":"Vellore","state":"Tamil Nadu","latitude":12.9165,"longitude":79.1325,"temp":25.4,"humidity":77,"rain":0.0,"pressure":986.7,"uv_index":9.1,"wind_gusts":33.1,"aqi":105,"pm10":30.9,"pm2_5":28.7,"mosquito_risk":7,"arthritis_risk":5,"migraine_risk":7,"frizz_risk":1,"updated_at":"2026-03-13T22:14:53.472147+05:30"},{"city":"Erode","state":"Tamil Nadu","latitude":11.341,"longitude":77.7172,"temp":28.4,"humidity":59,"rain":0.0,"pressure":990.1,"uv_index":9.15,"wind_gusts":23.8,"aqi":86,"pm10":30.5,"pm2_5":27.1,"mosquito_risk":4,"arthritis_risk":5,"migraine_risk":7,"frizz_risk":1,"updated_at":"2026-03-13T22:14:53.472156+05:30"},{"city":"Kochi","state":"Kerala","latitude":9.9312,"longitude":76.2673,"temp":28.1,"humidity":81,"rain":0.0,"pressure":1010.2,"uv_index":9.1,"wind_gusts":33.8,"aqi":120,"pm10":31.4,"pm2_5":29.6,"mosquito_risk":7,"arthritis_risk":0,"migraine_risk":4,"frizz_risk":1,"updated_at":"2026-03-13T22:14:53.472164+05:30"},{"city":"Thiruvananthapuram","state":"Kerala","latitude":8.5241,"longitude":76.9366,"temp":27.6,"humidity":82,"rain":0.0,"pressure":1009.6,"uv_index":9.1,"wind_gusts":24.1,"aqi":89,"pm10":20.8,"pm2_5":16.1,"mosquito_risk":7,"arthritis_risk":0,"migraine_risk":4,"frizz_risk":1,"updated_at":"2026-03-13T22:14:53.472173+05:30"},{"city":"Kozhikode","state":"Kerala","latitude":11.2588,"longitude":75.7804,"temp":28.4,"humidity":82,"rain":0.0,"pressure":1009.2,"uv_index":9.0,"wind_gusts":29.9,"aqi":92,"pm10":29.3,"pm2_5":25.5,"mosquito_risk":7,"arthritis_risk":0,"migraine_risk":4,"frizz_risk":1,"updated_at":"2026-03-13T22:14:53.472180+05:30"},{"city":"Thrissur","state":"Kerala","latitude":10.5276,"longitude":76.2144,"temp":27.6,"humidity":84,"rain":0.0,"pressure":1008.4,"uv_index":9.05,"wind_gusts":37.1,"aqi":103,"pm10":25.8,"pm2_5":23.6,"mosquito_risk":7,"arthritis_risk":0,"migraine_risk":4,"frizz_risk":1,"updated_at":"2026-03-13T22:14:53.472187+05:30"},{"city":"Kannur","state":"Kerala","latitude":11.8745,"longitude":75.3704,"temp":28.8,"humidity":81,"rain":0.0,"pressure":1008.1,"uv_index":9.0,"wind_gusts":28.1,"aqi":105,"pm10":38.6,"pm2_5":33.4,"mosquito_risk":7,"arthritis_risk":0,"migraine_risk":4,"frizz_risk":1,"updated_at":"2026-03-13T22:14:53.472193+05:30"},{"city":"Patna","state":"Bihar","latitude":25.5941,"longitude":85.1376,"temp":26.0,"humidity":61,"rain":0.0,"pressure":1000.7,"uv_index":7.5,"wind_gusts":23.0,"aqi":176,"pm10":145.8,"pm2_5":60.3,"mosquito_risk":7,"arthritis_risk":5,"migraine_risk":4,"frizz_risk":1,"updated_at":"2026-03-13T22:14:53.472199+05:30"},{"city":"Gaya","state":"Bihar","latitude":24.7914,"longitude":85.0002,"temp":27.0,"humidity":50,"rain":0.0,"pressure":994.8,"uv_index":7.6,"wind_gusts":19.4,"aqi":147,"pm10":178.3,"pm2_5":60.3,"mosquito_risk":4,"arthritis_risk":5,"migraine_risk":7,"frizz_risk":0,"updated_at":"2026-03-13T22:14:53.472205+05:30"},{"city":"Muzaffarpur","state":"Bihar","latitude":26.1209,"longitude":85.3647,"temp":25.1,"humidity":76,"rain":0.0,"pressure":1000.7,"uv_index":7.45,"wind_gusts":24.8,"aqi":177,"pm10":166.2,"pm2_5":94.1,"mosquito_risk":7,"arthritis_risk":5,"migraine_risk":4,"frizz_risk":1,"updated_at":"2026-03-13T22:14:53.472211+05:30"},{"city":"Bhagalpur","state":"Bihar","latitude":25.2425,"longitude":87.0117,"temp":26.5,"humidity":73,"rain":0.0,"pressure":1001.6,"uv_index":7.5,"wind_gusts":26.6,"aqi":165,"pm10":182.1,"pm2_5":98.7,"mosquito_risk":7,"arthritis_risk":5,"migraine_risk":4,"frizz_risk":1,"updated_at":"2026-03-13T22:14:53.472217+05:30"},{"city":"Ranchi","state":"Jharkhand","latitude":23.3441,"longitude":85.3096,"temp":23.3,"humidity":36,"rain":0.0,"pressure":938.7,"uv_index":8.2,"wind_gusts":26.3,"aqi":91,"pm10":33.5,"pm2_5":22.6,"mosquito_risk":0,"arthritis_risk":5,"migraine_risk":7,"frizz_risk":0,"updated_at":"2026-03-13T22:14:53.472224+05:30"},{"city":"Jamshedpur","state":"Jharkhand","latitude":22.8046,"longitude":86.2029,"temp":27.8,"humidity":53,"rain":0.0,"pressure":991.1,"uv_index":8.05,"wind_gusts":16.6,"aqi":151,"pm10":64.5,"pm2_5":46.1,"mosquito_risk":4,"arthritis_risk":5,"migraine_risk":7,"frizz_risk":1,"updated_at":"2026-03-13T22:14:53.472230+05:30"},{"city":"Dhanbad","state":"Jharkhand","latitude":23.7957,"longitude":86.4304,"temp":26.7,"humidity":40,"rain":0.0,"pressure":980.4,"uv_index":7.95,"wind_gusts":26.3,"aqi":164,"pm10":95.2,"pm2_5":58.3,"mosquito_risk":4,"arthritis_risk":5,"migraine_risk":7,"frizz_risk":0,"updated_at":"2026-03-13T22:14:53.472237+05:30"},{"city":"Bokaro","state":"Jharkhand","latitude":23.6693,"longitude":86.1511,"temp":27.3,"humidity":42,"rain":0.0,"pressure":984.9,"uv_index":7.95,"wind_gusts":26.6,"aqi":150,"pm10":88.9,"pm2_5":57.2,"mosquito_risk":4,"arthritis_risk":5,"migraine_risk":7,"frizz_risk":0,"updated_at":"2026-03-13T22:14:53.472243+05:30"},{"city":"Bhubaneswar","state":"Odisha","latitude":20.2961,"longitude":85.8245,"temp":26.0,"humidity":86,"rain":0.0,"pressure":1004.6,"uv_index":8.4,"wind_gusts":33.5,"aqi":94,"pm10":23.7,"pm2_5":20.7,"mosquito_risk":7,"arthritis_risk":5,"migraine_risk":4,"frizz_risk":1,"updated_at":"2026-03-13T22:14:53.472249+05:30"},{"city":"Cuttack","state":"Odisha","latitude":20.4625,"longitude":85.8828,"temp":26.1,"humidity":86,"rain":0.0,"pressure":1006.3,"uv_index":8.4,"wind_gusts":28.1,"aqi":94,"pm10":23.7,"pm2_5":20.7,"mosquito_risk":7,"arthritis_risk":5,"migraine_risk":4,"frizz_risk":1,"updated_at":"2026-03-13T22:14:53.472256+05:30"},{"city":"Rourkela","state":"Odisha","latitude":22.2604,"longitude":84.8536,"temp":25.1,"humidity":59,"rain":0.0,"pressure":985.3,"uv_index":8.0,"wind_gusts":19.4,"aqi":118,"pm10":61.2,"pm2_5":38.8,"mosquito_risk":4,"arthritis_risk":5,"migraine_risk":7,"frizz_risk":1,"updated_at":"2026-03-13T22:14:53.472262+05:30"},{"city":"Raipur","state":"Chhattisgarh","latitude":21.2514,"longitude":81.6296,"temp":27.6,"humidity":38,"rain":0.0,"pressure":974.7,"uv_index":8.15,"wind_gusts":18.0,"aqi":135,"pm10":48.3,"pm2_5":42.6,"mosquito_risk":4,"arthritis_risk":5,"migraine_risk":7,"frizz_risk":0,"updated_at":"2026-03-13T22:14:53.472268+05:30"},{"city":"Bhilai","state":"Chhattisgarh","latitude":21.1938,"longitude":81.3509,"temp":27.1,"humidity":39,"rain":0.0,"pressure":975.0,"uv_index":8.15,"wind_gusts":14.8,"aqi":124,"pm10":48.3,"pm2_5":42.8,"mosquito_risk":4,"arthritis_risk":5,"migraine_risk":7,"frizz_risk":0,"updated_at":"2026-03-13T22:14:53.472274+05:30"},{"city":"Guwahati","state":"Assam","latitude":26.1158,"longitude":91.7086,"temp":22.3,"humidity":92,"rain":0.0,"pressure":1003.5,"uv_index":6.6,"wind_gusts":29.9,"aqi":146,"pm10":33.2,"pm2_5":26.8,"mosquito_risk":3,"arthritis_risk":5,"migraine_risk":4,"frizz_risk":1,"updated_at":"2026-03-13T22:14:53.472279+05:30"},{"city":"Agartala","state":"Tripura","latitude":23.8315,"longitude":91.2868,"temp":22.5,"humidity":91,"rain":0.0,"pressure":1008.6,"uv_index":7.6,"wind_gusts":32.8,"aqi":118,"pm10":30.0,"pm2_5":27.3,"mosquito_risk":3,"arthritis_risk":0,"migraine_risk":4,"frizz_risk":1,"updated_at":"2026-03-13T22:14:53.472286+05:30"},{"city":"Shillong","state":"Meghalaya","latitude":25.5788,"longitude":91.8933,"temp":13.4,"humidity":90,"rain":0.0,"pressure":856.0,"uv_index":7.0,"wind_gusts":54.7,"aqi":110,"pm10":21.1,"pm2_5":16.2,"mosquito_risk":3,"arthritis_risk":10,"migraine_risk":7,"frizz_risk":0,"updated_at":"2026-03-13T22:14:53.472292+05:30"},{"city":"Imphal","state":"Manipur","latitude":24.817,"longitude":93.9368,"temp":16.4,"humidity":94,"rain":0.0,"pressure":924.8,"uv_index":7.3,"wind_gusts":61.2,"aqi":157,"pm10":71.2,"pm2_5":64.5,"mosquito_risk":3,"arthritis_risk":10,"migraine_risk":7,"frizz_risk":0,"updated_at":"2026-03-13T22:14:53.472298+05:30"},{"city":"Aizawl","state":"Mizoram","latitude":23.7271,"longitude":92.7176,"temp":17.6,"humidity":87,"rain":0.0,"pressure":894.1,"uv_index":7.15,"wind_gusts":76.0,"aqi":143,"pm10":39.9,"pm2_5":35.9,"mosquito_risk":3,"arthritis_risk":10,"migraine_risk":7,"frizz_risk":0,"updated_at":"2026-03-13T22:14:53.472304+05:30"},{"city":"Kohima","state":"Nagaland","latitude":25.6701,"longitude":94.1077,"temp":14.4,"humidity":82,"rain":0.0,"pressure":855.0,"uv_index":6.25,"wind_gusts":82.8,"aqi":131,"pm10":26.0,"pm2_5":23.8,"mosquito_risk":3,"arthritis_risk":10,"migraine_risk":7,"frizz_risk":0,"updated_at":"2026-03-13T22:14:53.472310+05:30"},{"city":"Gangtok","state":"Sikkim","latitude":27.3314,"longitude":88.6138,"temp":14.0,"humidity":95,"rain":0.0,"pressure":836.4,"uv_index":5.15,"wind_gusts":15.8,"aqi":94,"pm10":27.1,"pm2_5":26.1,"mosquito_risk":3,"arthritis_risk":10,"migraine_risk":3,"frizz_risk":0,"updated_at":"2026-03-13T22:14:53.472316+05:30"},{"city":"Siliguri","state":"West Bengal","latitude":26.7271,"longitude":88.3953,"temp":19.2,"humidity":91,"rain":0.0,"pressure":995.2,"uv_index":7.3,"wind_gusts":29.5,"aqi":148,"pm10":48.8,"pm2_5":44.0,"mosquito_risk":3,"arthritis_risk":10,"migraine_risk":7,"frizz_risk":1,"updated_at":"2026-03-13T22:14:56.760007+05:30"},{"city":"Durgapur","state":"West Bengal","latitude":23.5204,"longitude":87.3119,"temp":28.1,"humidity":46,"rain":0.0,"pressure":995.8,"uv_index":7.95,"wind_gusts":26.3,"aqi":160,"pm10":100.1,"pm2_5":71.2,"mosquito_risk":4,"arthritis_risk":5,"migraine_risk":7,"frizz_risk":0,"updated_at":"2026-03-13T22:14:56.760036+05:30"},{"city":"Asansol","state":"West Bengal","latitude":23.6739,"longitude":86.9524,"temp":28.5,"humidity":44,"rain":0.0,"pressure":994.2,"uv_index":7.95,"wind_gusts":23.4,"aqi":160,"pm10":81.0,"pm2_5":45.5,"mosquito_risk":4,"arthritis_risk":5,"migraine_risk":7,"frizz_risk":0,"updated_at":"2026-03-13T22:14:56.760046+05:30"},{"city":"Pondicherry","state":"Puducherry","latitude":11.9139,"longitude":79.8145,"temp":25.0,"humidity":92,"rain":0.0,"pressure":1010.5,"uv_index":9.0,"wind_gusts":27.7,"aqi":58,"pm10":19.0,"pm2_5":14.5,"mosquito_risk":7,"arthritis_risk":0,"migraine_risk":4,"frizz_risk":1,"updated_at":"2026-03-13T22:14:56.760054+05:30"},{"city":"Port Blair","state":"Andaman and Nicobar Islands","latitude":11.6234,"longitude":92.7265,"temp":28.0,"humidity":80,"rain":0.0,"pressure":1008.9,"uv_index":8.95,"wind_gusts":21.6,"aqi":64,"pm10":11.7,"pm2_5":9.0,"mosquito_risk":7,"arthritis_risk":0,"migraine_risk":4,"frizz_risk":1,"updated_at":"2026-03-13T22:14:56.760062+05:30"},{"city":"Haridwar","state":"Uttarakhand","latitude":29.9457,"longitude":78.1642,"temp":20.2,"humidity":74,"rain":0.0,"pressure":975.1,"uv_index":5.6,"wind_gusts":29.5,"aqi":86,"pm10":94.3,"pm2_5":43.1,"mosquito_risk":3,"arthritis_risk":5,"migraine_risk":3,"frizz_risk":0,"updated_at":"2026-03-13T22:14:56.760070+05:30"},{"city":"Rishikesh","state":"Uttarakhand","latitude":30.0869,"longitude":78.2676,"temp":19.2,"humidity":75,"rain":0.0,"pressure":967.7,"uv_index":5.8,"wind_gusts":30.2,"aqi":73,"pm10":43.3,"pm2_5":27.0,"mosquito_risk":3,"arthritis_risk":5,"migraine_risk":3,"frizz_risk":0,"updated_at":"2026-03-13T22:14:56.760077+05:30"},{"city":"Nainital","state":"Uttarakhand","latitude":29.3919,"longitude":79.4542,"temp":17.7,"humidity":36,"rain":0.0,"pressure":806.0,"uv_index":6.55,"wind_gusts":44.3,"aqi":93,"pm10":37.6,"pm2_5":27.6,"mosquito_risk":0,"arthritis_risk":5,"migraine_risk":7,"frizz_risk":0,"updated_at":"2026-03-13T22:14:56.760085+05:30"},{"city":"Mussoorie","state":"Uttarakhand","latitude":30.4599,"longitude":78.0664,"temp":15.6,"humidity":59,"rain":0.0,"pressure":802.4,"uv_index":5.75,"wind_gusts":30.6,"aqi":72,"pm10":56.1,"pm2_5":42.5,"mosquito_risk":0,"arthritis_risk":5,"migraine_risk":3,"frizz_risk":0,"updated_at":"2026-03-13T22:14:56.760120+05:30"},{"city":"Dharamshala","state":"Himachal Pradesh","latitude":32.219,"longitude":76.3234,"temp":18.9,"humidity":42,"rain":0.0,"pressure":869.8,"uv_index":6.0,"wind_gusts":24.8,"aqi":70,"pm10":25.8,"pm2_5":17.8,"mosquito_risk":0,"arthritis_risk":5,"migraine_risk":3,"frizz_risk":0,"updated_at":"2026-03-13T22:14:56.760133+05:30"},{"city":"Dalhousie","state":"Himachal Pradesh","latitude":32.5387,"longitude":75.971,"temp":14.7,"humidity":49,"rain":0.0,"pressure":803.4,"uv_index":6.4,"wind_gusts":31.0,"aqi":66,"pm10":41.1,"pm2_5":33.5,"mosquito_risk":0,"arthritis_risk":5,"migraine_risk":7,"frizz_risk":0,"updated_at":"2026-03-13T22:14:56.760141+05:30"},{"city":"Patiala","state":"Punjab","latitude":30.3398,"longitude":76.3869,"temp":19.1,"humidity":77,"rain":0.0,"pressure":979.8,"uv_index":5.2,"wind_gusts":27.0,"aqi":380,"pm10":475.9,"pm2_5":68.9,"mosquito_risk":3,"arthritis_risk":5,"migraine_risk":3,"frizz_risk":0,"updated_at":"2026-03-13T22:14:56.760148+05:30"},{"city":"Bhatinda","state":"Punjab","latitude":30.211,"longitude":74.9455,"temp":21.5,"humidity":68,"rain":0.0,"pressure":985.9,"uv_index":6.25,"wind_gusts":27.7,"aqi":112,"pm10":51.0,"pm2_5":43.5,"mosquito_risk":3,"arthritis_risk":5,"migraine_risk":7,"frizz_risk":0,"updated_at":"2026-03-13T22:14:56.760155+05:30"},{"city":"Rohtak","state":"Haryana","latitude":28.8955,"longitude":76.6066,"temp":20.1,"humidity":72,"rain":0.0,"pressure":983.7,"uv_index":5.3,"wind_gusts":26.6,"aqi":549,"pm10":923.9,"pm2_5":134.1,"mosquito_risk":3,"arthritis_risk":5,"migraine_risk":3,"frizz_risk":0,"updated_at":"2026-03-13T22:14:56.760162+05:30"},{"city":"Panipat","state":"Haryana","latitude":29.3909,"longitude":76.9635,"temp":19.1,"humidity":76,"rain":0.0,"pressure":982.1,"uv_index":4.9,"wind_gusts":24.8,"aqi":1021,"pm10":1333.7,"pm2_5":168.1,"mosquito_risk":3,"arthritis_risk":5,"migraine_risk":3,"frizz_risk":0,"updated_at":"2026-03-13T22:14:56.760169+05:30"},{"city":"Mathura","state":"Uttar Pradesh","latitude":27.4924,"longitude":77.6737,"temp":21.6,"humidity":52,"rain":0.0,"pressure":988.5,"uv_index":5.65,"wind_gusts":25.6,"aqi":679,"pm10":1307.6,"pm2_5":163.0,"mosquito_risk":0,"arthritis_risk":5,"migraine_risk":3,"frizz_risk":0,"updated_at":"2026-03-13T22:14:56.760176+05:30"},{"city":"Vrindavan","state":"Uttar Pradesh","latitude":27.5823,"longitude":77.7027,"temp":20.2,"humidity":57,"rain":0.0,"pressure":989.0,"uv_index":5.75,"wind_gusts":28.8,"aqi":679,"pm10":1307.6,"pm2_5":163.0,"mosquito_risk":0,"arthritis_risk":5,"migraine_risk":3,"frizz_risk":0,"updated_at":"2026-03-13T22:14:56.760182+05:30"},{"city":"Ayodhya","state":"Uttar Pradesh","latitude":26.7922,"longitude":82.1998,"temp":23.4,"humidity":62,"rain":0.0,"pressure":996.0,"uv_index":6.35,"wind_gusts":30.2,"aqi":156,"pm10":76.4,"pm2_5":45.5,"mosquito_risk":3,"arthritis_risk":5,"migraine_risk":7,"frizz_risk":0,"updated_at":"2026-03-13T22:14:56.760189+05:30"},{"city":"Ratlam","state":"Madhya Pradesh","latitude":23.3315,"longitude":75.0367,"temp":27.2,"humidity":37,"rain":0.0,"pressure":955.4,"uv_index":7.6,"wind_gusts":30.6,"aqi":102,"pm10":25.8,"pm2_5":23.3,"mosquito_risk":4,"arthritis_risk":5,"migraine_risk":7,"frizz_risk":0,"updated_at":"2026-03-13T22:14:56.760195+05:30"},{"city":"Sagar","state":"Madhya Pradesh","latitude":23.8388,"longitude":78.7378,"temp":27.2,"humidity":32,"rain":0.0,"pressure":951.1,"uv_index":7.6,"wind_gusts":29.2,"aqi":100,"pm10":14.6,"pm2_5":13.9,"mosquito_risk":4,"arthritis_risk":5,"migraine_risk":7,"frizz_risk":0,"updated_at":"2026-03-13T22:14:56.760202+05:30"},{"city":"Satna","state":"Madhya Pradesh","latitude":24.6005,"longitude":80.8322,"temp":25.7,"humidity":31,"rain":0.0,"pressure":972.5,"uv_index":7.2,"wind_gusts":29.9,"aqi":86,"pm10":32.7,"pm2_5":15.9,"mosquito_risk":4,"arthritis_risk":5,"migraine_risk":7,"frizz_risk":0,"updated_at":"2026-03-13T22:14:56.760208+05:30"},{"city":"Akola","state":"Maharashtra","latitude":20.7002,"longitude":77.0082,"temp":28.3,"humidity":41,"rain":0.0,"pressure":975.0,"uv_index":8.05,"wind_gusts":24.8,"aqi":146,"pm10":40.7,"pm2_5":37.1,"mosquito_risk":4,"arthritis_risk":5,"migraine_risk":7,"frizz_risk":0,"updated_at":"2026-03-13T22:14:56.760215+05:30"},{"city":"Amravati","state":"Maharashtra","latitude":20.9374,"longitude":77.7796,"temp":28.2,"humidity":37,"rain":0.0,"pressure":967.3,"uv_index":8.0,"wind_gusts":15.1,"aqi":146,"pm10":42.5,"pm2_5":37.5,"mosquito_risk":4,"arthritis_risk":5,"migraine_risk":7,"frizz_risk":0,"updated_at":"2026-03-13T22:14:56.760221+05:30"},{"city":"Latur","state":"Maharashtra","latitude":18.4088,"longitude":76.5604,"temp":26.4,"humidity":51,"rain":0.0,"pressure":940.0,"uv_index":8.5,"wind_gusts":21.2,"aqi":144,"pm10":40.3,"pm2_5":36.4,"mosquito_risk":4,"arthritis_risk":5,"migraine_risk":7,"frizz_risk":0,"updated_at":"2026-03-13T22:14:56.760228+05:30"},{"city":"Nanded","state":"Maharashtra","latitude":19.1383,"longitude":77.3091,"temp":29.9,"humidity":35,"rain":0.0,"pressure":968.5,"uv_index":8.25,"wind_gusts":21.6,"aqi":152,"pm10":65.0,"pm2_5":57.9,"mosquito_risk":4,"arthritis_risk":5,"migraine_risk":7,"frizz_risk":0,"updated_at":"2026-03-13T22:14:56.760234+05:30"},{"city":"Gulbarga","state":"Karnataka","latitude":17.3297,"longitude":76.8343,"temp":29.7,"humidity":41,"rain":0.0,"pressure":958.9,"uv_index":8.6,"wind_gusts":32.0,"aqi":155,"pm10":40.3,"pm2_5":34.5,"mosquito_risk":4,"arthritis_risk":5,"migraine_risk":7,"frizz_risk":0,"updated_at":"2026-03-13T22:14:56.760240+05:30"},{"city":"Bidar","state":"Karnataka","latitude":17.9104,"longitude":77.5199,"temp":27.5,"humidity":38,"rain":0.0,"pressure":935.7,"uv_index":8.55,"wind_gusts":26.6,"aqi":145,"pm10":47.8,"pm2_5":39.2,"mosquito_risk":4,"arthritis_risk":5,"migraine_risk":7,"frizz_risk":0,"updated_at":"2026-03-13T22:14:56.760246+05:30"},{"city":"Hospet","state":"Karnataka","latitude":15.2689,"longitude":76.3909,"temp":30.1,"humidity":46,"rain":0.0,"pressure":956.0,"uv_index":8.9,"wind_gusts":24.1,"aqi":155,"pm10":43.1,"pm2_5":36.9,"mosquito_risk":0,"arthritis_risk":5,"migraine_risk":7,"frizz_risk":1,"updated_at":"2026-03-13T22:14:56.760252+05:30"},{"city":"Tirupur","state":"Tamil Nadu","latitude":11.1085,"longitude":77.3411,"temp":28.5,"humidity":48,"rain":0.0,"pressure":976.7,"uv_index":9.3,"wind_gusts":30.6,"aqi":93,"pm10":38.6,"pm2_5":34.0,"mosquito_risk":4,"arthritis_risk":5,"migraine_risk":7,"frizz_risk":1,"updated_at":"2026-03-13T22:14:56.760259+05:30"},{"city":"Alappuzha","state":"Kerala","latitude":9.4981,"longitude":76.3388,"temp":27.9,"humidity":81,"rain":0.0,"pressure":1010.5,"uv_index":9.1,"wind_gusts":28.1,"aqi":119,"pm10":25.5,"pm2_5":22.4,"mosquito_risk":7,"arthritis_risk":0,"migraine_risk":4,"frizz_risk":1,"updated_at":"2026-03-13T22:14:56.760265+05:30"},{"city":"Munnar","state":"Kerala","latitude":10.0889,"longitude":77.0595,"temp":21.9,"humidity":78,"rain":0.0,"pressure":858.0,"uv_index":9.55,"wind_gusts":24.5,"aqi":73,"pm10":28.9,"pm2_5":26.5,"mosquito_risk":3,"arthritis_risk":5,"migraine_risk":7,"frizz_risk":1,"updated_at":"2026-03-13T22:14:56.760272+05:30"},{"city":"Silchar","state":"Assam","latitude":24.8333,"longitude":92.7789,"temp":21.1,"humidity":93,"rain":0.0,"pressure":1008.8,"uv_index":7.75,"wind_gusts":42.8,"aqi":160,"pm10":45.9,"pm2_5":39.0,"mosquito_risk":3,"arthritis_risk":0,"migraine_risk":4,"frizz_risk":1,"updated_at":"2026-03-13T22:14:56.760279+05:30"},{"city":"Dibrugarh","state":"Assam","latitude":27.4728,"longitude":94.912,"temp":20.7,"humidity":87,"rain":0.0,"pressure":997.1,"uv_index":5.5,"wind_gusts":25.2,"aqi":142,"pm10":50.6,"pm2_5":46.0,"mosquito_risk":3,"arthritis_risk":5,"migraine_risk":3,"frizz_risk":1,"updated_at":"2026-03-13T22:14:56.760285+05:30"}]