[{"city":"Delhi","state":"Delhi","latitude":28.6139,"longitude":77.209,"temp":23.7,"humidity":47,"rain":0.0,"pressure":983.9,"uv_index":7.25,"wind_gusts":28.8,"aqi":454,"pm10":719.0,"pm2_5":122.0,"mosquito_risk":0,"arthritis_risk":5,"migraine_risk":7,"frizz_risk":0,"updated_at":"2026-04-13T01:11:28.727624+05:30"},{"city":"Mumbai","state":"Maharashtra","latitude":19.076,"longitude":72.8777,"temp":29.2,"humidity":81,"rain":0.0,"pressure":1007.5,"uv_index":8.0,"wind_gusts":20.9,"aqi":122,"pm10":73.8,"pm2_5":37.5,"mosquito_risk":7,"arthritis_risk":5,"migraine_risk":4,"frizz_risk":1,"updated_at":"2026-04-13T01:11:28.727672+05:30"},{"city":"Bangalore","state":"Karnataka","latitude":12.9716,"longitude":77.5946,"temp":25.4,"humidity":61,"rain":0.0,"pressure":912.0,"uv_index":9.6,"wind_gusts":27.7,"aqi":90,"pm10":31.1,"pm2_5":27.3,"mosquito_risk":7,"arthritis_risk":5,"migraine_risk":7,"frizz_risk":1,"updated_at":"2026-04-13T01:11:28.727688+05:30"},{"city":"Hyderabad","state":"Telangana","latitude":17.385,"longitude":78.4867,"temp":29.2,"humidity":54,"rain":0.0,"pressure":952.6,"uv_index":9.25,"wind_gusts":34.2,"aqi":82,"pm10":25.3,"pm2_5":22.2,"mosquito_risk":4,"arthritis_risk":5,"migraine_risk":7,"frizz_risk":1,"updated_at":"2026-04-13T01:11:28.727699+05:30"},{"city":"Chennai","state":"Tamil Nadu","latitude":13.0827,"longitude":80.2707,"temp":27.7,"humidity":84,"rain":0.0,"pressure":1007.4,"uv_index":9.35,"wind_gusts":35.3,"aqi":41,"pm10":11.7,"pm2_5":7.5,"mosquito_risk":7,"arthritis_risk":5,"migraine_risk":4,"frizz_risk":1,"updated_at":"2026-04-13T01:11:28.727709+05:30"},{"city":"Kolkata","state":"West Bengal","latitude":22.5726,"longitude":88.3639,"temp":26.5,"humidity":93,"rain":0.0,"pressure":1004.8,"uv_index":8.85,"wind_gusts":30.6,"aqi":101,"pm10":24.6,"pm2_5":19.4,"mosquito_risk":7,"arthritis_risk":5,"migraine_risk":4,"frizz_risk":1,"updated_at":"2026-04-13T01:11:28.727718+05:30"},{"city":"Pune","state":"Maharashtra","latitude":18.5204,"longitude":73.8567,"temp":27.9,"humidity":51,"rain":0.0,"pressure":948.3,"uv_index":8.6,"wind_gusts":38.5,"aqi":152,"pm10":46.9,"pm2_5":40.0,"mosquito_risk":4,"arthritis_risk":5,"migraine_risk":7,"frizz_risk":1,"updated_at":"2026-04-13T01:11:28.727729+05:30"},{"city":"Ahmedabad","state":"Gujarat","latitude":23.0225,"longitude":72.5714,"temp":28.6,"humidity":25,"rain":0.0,"pressure":1001.3,"uv_index":8.1,"wind_gusts":24.5,"aqi":99,"pm10":57.9,"pm2_5":27.1,"mosquito_risk":4,"arthritis_risk":5,"migraine_risk":4,"frizz_risk":0,"updated_at":"2026-04-13T01:11:28.727737+05:30"},{"city":"Jaipur","state":"Rajasthan","latitude":26.9124,"longitude":75.7873,"temp":25.5,"humidity":31,"rain":0.0,"pressure":960.3,"uv_index":7.9,"wind_gusts":24.5,"aqi":147,"pm10":103.4,"pm2_5":34.8,"mosquito_risk":4,"arthritis_risk":5,"migraine_risk":7,"frizz_risk":0,"updated_at":"2026-04-13T01:11:28.727745+05:30"},{"city":"Lucknow","state":"Uttar Pradesh","latitude":26.8467,"longitude":80.9462,"temp":24.0,"humidity":52,"rain":0.0,"pressure":993.3,"uv_index":7.75,"wind_gusts":37.1,"aqi":144,"pm10":342.7,"pm2_5":68.2,"mosquito_risk":0,"arthritis_risk":5,"migraine_risk":7,"frizz_risk":0,"updated_at":"2026-04-13T01:11:28.727753+05:30"},{"city":"Kanpur","state":"Uttar Pradesh","latitude":26.4499,"longitude":80.3319,"temp":23.5,"humidity":66,"rain":0.0,"pressure":991.8,"uv_index":7.75,"wind_gusts":27.0,"aqi":335,"pm10":726.4,"pm2_5":107.8,"mosquito_risk":3,"arthritis_risk":5,"migraine_risk":7,"frizz_risk":1,"updated_at":"2026-04-13T01:11:28.727760+05:30"},{"city":"Chandigarh","state":"Chandigarh","latitude":30.7333,"longitude":76.7794,"temp":19.8,"humidity":66,"rain":0.0,"pressure":969.7,"uv_index":7.2,"wind_gusts":30.2,"aqi":74,"pm10":32.4,"pm2_5":20.7,"mosquito_risk":3,"arthritis_risk":5,"migraine_risk":7,"frizz_risk":0,"updated_at":"2026-04-13T01:11:28.727767+05:30"},{"city":"Srinagar","state":"Jammu and Kashmir","latitude":34.0837,"longitude":74.7973,"temp":8.7,"humidity":82,"rain":0.0,"pressure":840.2,"uv_index":8.1,"wind_gusts":16.2,"aqi":78,"pm10":54.2,"pm2_5":48.4,"mosquito_risk":3,"arthritis_risk":10,"migraine_risk":7,"frizz_risk":0,"updated_at":"2026-04-13T01:11:28.727775+05:30"},{"city":"Jammu","state":"Jammu and Kashmir","latitude":32.7266,"longitude":74.857,"temp":18.6,"humidity":79,"rain":0.0,"pressure":973.9,"uv_index":7.75,"wind_gusts":31.7,"aqi":65,"pm10":27.2,"pm2_5":21.0,"mosquito_risk":3,"arthritis_risk":5,"migraine_risk":7,"frizz_risk":0,"updated_at":"2026-04-13T01:11:28.727782+05:30"},{"city":"Amritsar","state":"Punjab","latitude":31.634,"longitude":74.8723,"temp":20.8,"humidity":62,"rain":0.0,"pressure":982.0,"uv_index":7.8,"wind_gusts":23.8,"aqi":77,"pm10":53.9,"pm2_5":32.1,"mosquito_risk":3,"arthritis_risk":5,"migraine_risk":7,"frizz_risk":0,"updated_at":"2026-04-13T01:11:28.727788+05:30"},{"city":"Ludhiana","state":"Punjab","latitude":30.901,"longitude":75.8573,"temp":21.4,"humidity":56,"rain":0.0,"pressure":980.1,"uv_index":7.45,"wind_gusts":26.6,"aqi":72,"pm10":36.0,"pm2_5":28.5,"mosquito_risk":0,"arthritis_risk":5,"migraine_risk":7,"frizz_risk":0,"updated_at":"2026-04-13T01:11:28.727795+05:30"},{"city":"Jalandhar","state":"Punjab","latitude":31.326,"longitude":75.5762,"temp":20.1,"humidity":64,"rain":0.0,"pressure":981.3,"uv_index":7.6,"wind_gusts":23.8,"aqi":76,"pm10":54.9,"pm2_5":42.1,"mosquito_risk":3,"arthritis_risk":5,"migraine_risk":7,"frizz_risk":0,"updated_at":"2026-04-13T01:11:28.727804+05:30"},{"city":"Dehradun","state":"Uttarakhand","latitude":30.6284,"longitude":78.0322,"temp":12.6,"humidity":74,"rain":0.0,"pressure":828.7,"uv_index":7.25,"wind_gusts":31.0,"aqi":90,"pm10":37.7,"pm2_5":21.2,"mosquito_risk":3,"arthritis_risk":5,"migraine_risk":7,"frizz_risk":0,"updated_at":"2026-04-13T01:11:28.727810+05:30"},{"city":"Shimla","state":"Himachal Pradesh","latitude":31.1048,"longitude":77.1734,"temp":10.8,"humidity":75,"rain":0.0,"pressure":782.9,"uv_index":7.7,"wind_gusts":40.3,"aqi":87,"pm10":46.6,"pm2_5":18.7,"mosquito_risk":3,"arthritis_risk":5,"migraine_risk":7,"frizz_risk":0,"updated_at":"2026-04-13T01:11:28.727817+05:30"},{"city":"Manali","state":"Himachal Pradesh","latitude":32.2396,"longitude":77.1887,"temp":12.2,"humidity":68,"rain":0.0,"pressure":818.2,"uv_index":9.65,"wind_gusts":27.4,"aqi":115,"pm10":25.2,"pm2_5":16.7,"mosquito_risk":3,"arthritis_risk":5,"migraine_risk":7,"frizz_risk":0,"updated_at":"2026-04-13T01:11:28.727824+05:30"},{"city":"Gurgaon","state":"Haryana","latitude":28.4595,"longitude":77.0266,"temp":21.1,"humidity":59,"rain":0.0,"pressure":982.3,"uv_index":7.35,"wind_gusts":22.7,"aqi":1157,"pm10":1106.4,"pm2_5":158.8,"mosquito_risk":0,"arthritis_risk":5,"migraine_risk":7,"frizz_risk":0,"updated_at":"2026-04-13T01:11:28.727831+05:30"},{"city":"Noida","state":"Uttar Pradesh","latitude":28.5355,"longitude":77.391,"temp":23.3,"humidity":49,"rain":0.0,"pressure":985.6,"uv_index":7.3,"wind_gusts":29.2,"aqi":1157,"pm10":1106.4,"pm2_5":158.8,"mosquito_risk":0,"arthritis_risk":5,"migraine_risk":7,"frizz_risk":0,"updated_at":"2026-04-13T01:11:28.727838+05:30"},{"city":"Ghaziabad","state":"Uttar Pradesh","latitude":28.6692,"longitude":77.4538,"temp":21.7,"humidity":55,"rain":0.0,"pressure":983.6,"uv_index":7.25,"wind_gusts":29.2,"aqi":244,"pm10":577.4,"pm2_5":98.7,"mosquito_risk":0,"arthritis_risk":5,"migraine_risk":7,"frizz_risk":0,"updated_at":"2026-04-13T01:11:28.727846+05:30"},{"city":"Faridabad","state":"Haryana","latitude":28.4089,"longitude":77.3178,"temp":22.3,"humidity":52,"rain":0.0,"pressure":984.6,"uv_index":7.3,"wind_gusts":27.0,"aqi":1157,"pm10":1106.4,"pm2_5":158.8,"mosquito_risk":0,"arthritis_risk":5,"migraine_risk":7,"frizz_risk":0,"updated_at":"2026-04-13T01:11:28.727853+05:30"},{"city":"Meerut","state":"Uttar Pradesh","latitude":28.9845,"longitude":77.7064,"temp":20.4,"humidity":59,"rain":0.0,"pressure":982.1,"uv_index":7.15,"wind_gusts":33.8,"aqi":244,"pm10":577.4,"pm2_5":98.7,"mosquito_risk":0,"arthritis_risk":5,"migraine_risk":7,"frizz_risk":0,"updated_at":"2026-04-13T01:11:28.727859+05:30"},{"city":"Agra","state":"Uttar Pradesh","latitude":27.1767,"longitude":78.0081,"temp":22.5,"humidity":50,"rain":0.0,"pressure":988.4,"uv_index":7.65,"wind_gusts":19.1,"aqi":784,"pm10":1359.7,"pm2_5":165.3,"mosquito_risk":0,"arthritis_risk":5,"migraine_risk":7,"frizz_risk":0,"updated_at":"2026-04-13T01:11:28.727866+05:30"},{"city":"Varanasi","state":"Uttar Pradesh","latitude":25.3176,"longitude":82.9739,"temp":24.6,"humidity":50,"rain":0.0,"pressure":996.3,"uv_index":8.35,"wind_gusts":39.2,"aqi":109,"pm10":88.9,"pm2_5":35.4,"mosquito_risk":0,"arthritis_risk":5,"migraine_risk":7,"frizz_risk":0,"updated_at":"2026-04-13T01:11:28.727875+05:30"},{"city":"Prayagraj","state":"Uttar Pradesh","latitude":25.4358,"longitude":81.8463,"temp":25.0,"humidity":53,"rain":0.0,"pressure":995.4,"uv_index":8.25,"wind_gusts":35.3,"aqi":138,"pm10":134.6,"pm2_5":38.2,"mosquito_risk":4,"arthritis_risk":5,"migraine_risk":7,"frizz_risk":0,"updated_at":"2026-04-13T01:11:28.727881+05:30"},{"city":"Gorakhpur","state":"Uttar Pradesh","latitude":26.7606,"longitude":83.3732,"temp":24.2,"humidity":45,"rain":0.0,"pressure":995.6,"uv_index":8.15,"wind_gusts":26.6,"aqi":97,"pm10":88.7,"pm2_5":33.4,"mosquito_risk":0,"arthritis_risk":5,"migraine_risk":7,"frizz_risk":0,"updated_at":"2026-04-13T01:11:28.727887+05:30"},{"city":"Bareilly","state":"Uttar Pradesh","latitude":28.367,"longitude":79.4304,"temp":21.2,"humidity":64,"rain":0.0,"pressure":987.2,"uv_index":7.55,"wind_gusts":38.2,"aqi":79,"pm10":144.8,"pm2_5":39.6,"mosquito_risk":3,"arthritis_risk":5,"migraine_risk":7,"frizz_risk":0,"updated_at":"2026-04-13T01:11:28.727894+05:30"},{"city":"Aligarh","state":"Uttar Pradesh","latitude":27.8974,"longitude":78.088,"temp":20.8,"humidity":56,"rain":0.0,"pressure":986.2,"uv_index":7.45,"wind_gusts":31.0,"aqi":651,"pm10":940.6,"pm2_5":148.5,"mosquito_risk":0,"arthritis_risk":5,"migraine_risk":7,"frizz_risk":0,"updated_at":"2026-04-13T01:11:28.727902+05:30"},{"city":"Moradabad","state":"Uttar Pradesh","latitude":28.8386,"longitude":78.7733,"temp":20.7,"humidity":64,"rain":0.0,"pressure":984.1,"uv_index":7.35,"wind_gusts":36.7,"aqi":95,"pm10":190.5,"pm2_5":50.3,"mosquito_risk":3,"arthritis_risk":5,"migraine_risk":7,"frizz_risk":0,"updated_at":"2026-04-13T01:11:28.727908+05:30"},{"city":"Saharanpur","state":"Uttar Pradesh","latitude":29.9637,"longitude":77.546,"temp":18.9,"humidity":71,"rain":0.0,"pressure":976.2,"uv_index":6.8,"wind_gusts":31.0,"aqi":89,"pm10":35.3,"pm2_5":23.4,"mosquito_risk":3,"arthritis_risk":5,"migraine_risk":7,"frizz_risk":0,"updated_at":"2026-04-13T01:11:28.727914+05:30"},{"city":"Jhansi","state":"Uttar Pradesh","latitude":25.4484,"longitude":78.5685,"temp":24.9,"humidity":49,"rain":0.0,"pressure":978.2,"uv_index":8.15,"wind_gusts":23.0,"aqi":76,"pm10":134.1,"pm2_5":33.8,"mosquito_risk":0,"arthritis_risk":5,"migraine_risk":7,"frizz_risk":0,"updated_at":"2026-04-13T01:11:31.949446+05:30"},{"city":"Surat","state":"Gujarat","latitude":21.1702,"longitude":72.8311,"temp":28.2,"humidity":79,"rain":0.0,"pressure":1005.9,"uv_index":7.8,"wind_gusts":26.3,"aqi":144,"pm10":51.7,"pm2_5":32.2,"mosquito_risk":7,"arthritis_risk":5,"migraine_risk":4,"frizz_risk":1,"updated_at":"2026-04-13T01:11:31.949501+05:30"},{"city":"Vadodara","state":"Gujarat","latitude":22.3072,"longitude":73.1812,"temp":27.9,"humidity":69,"rain":0.0,"pressure":1003.6,"uv_index":8.1,"wind_gusts":22.0,"aqi":128,"pm10":105.7,"pm2_5":72.4,"mosquito_risk":7,"arthritis_risk":5,"migraine_risk":4,"frizz_risk":1,"updated_at":"2026-04-13T01:11:31.949512+05:30"},{"city":"Rajkot","state":"Gujarat","latitude":22.3039,"longitude":70.8022,"temp":26.7,"humidity":63,"rain":0.0,"pressure":994.5,"uv_index":7.8,"wind_gusts":35.6,"aqi":77,"pm10":54.0,"pm2_5":27.2,"mosquito_risk":7,"arthritis_risk":5,"migraine_risk":7,"frizz_risk":1,"updated_at":"2026-04-13T01:11:31.949519+05:30"},{"city":"Thane","state":"Maharashtra","latitude":19.2183,"longitude":72.9781,"temp":27.6,"humidity":88,"rain":0.0,"pressure":1007.0,"uv_index":8.0,"wind_gusts":34.6,"aqi":122,"pm10":73.8,"pm2_5":37.5,"mosquito_risk":7,"arthritis_risk":5,"migraine_risk":4,"frizz_risk":1,"updated_at":"2026-04-13T01:11:31.949527+05:30"},{"city":"Nagpur","state":"Maharashtra","latitude":21.1458,"longitude":79.0882,"temp":24.9,"humidity":68,"rain":0.0,"pressure":971.4,"uv_index":8.85,"wind_gusts":25.2,"aqi":98,"pm10":47.6,"pm2_5":39.2,"mosquito_risk":3,"arthritis_risk":5,"migraine_risk":7,"frizz_risk":1,"updated_at":"2026-04-13T01:11:31.949535+05:30"},{"city":"Nashik","state":"Maharashtra","latitude":19.9975,"longitude":73.7898,"temp":26.1,"humidity":51,"rain":0.0,"pressure":945.3,"uv_index":8.25,"wind_gusts":32.0,"aqi":107,"pm10":61.2,"pm2_5":43.0,"mosquito_risk":4,"arthritis_risk":5,"migraine_risk":7,"frizz_risk":0,"updated_at":"2026-04-13T01:11:31.949542+05:30"},{"city":"Aurangabad","state":"Maharashtra","latitude":19.8762,"longitude":75.3433,"temp":28.6,"humidity":39,"rain":0.0,"pressure":943.9,"uv_index":8.95,"wind_gusts":28.8,"aqi":79,"pm10":44.5,"pm2_5":31.0,"mosquito_risk":4,"arthritis_risk":5,"migraine_risk":7,"frizz_risk":0,"updated_at":"2026-04-13T01:11:31.949549+05:30"},{"city":"Solapur","state":"Maharashtra","latitude":17.6599,"longitude":75.9064,"temp":31.3,"humidity":47,"rain":0.0,"pressure":956.1,"uv_index":9.05,"wind_gusts":27.7,"aqi":96,"pm10":39.7,"pm2_5":33.4,"mosquito_risk":0,"arthritis_risk":5,"migraine_risk":7,"frizz_risk":1,"updated_at":"2026-04-13T01:11:31.949556+05:30"},{"city":"Kolhapur","state":"Maharashtra","latitude":16.705,"longitude":74.2433,"temp":23.7,"humidity":82,"rain":0.0,"pressure":947.6,"uv_index":9.05,"wind_gusts":46.1,"aqi":91,"pm10":37.3,"pm2_5":30.3,"mosquito_risk":3,"arthritis_risk":5,"migraine_risk":7,"frizz_risk":1,"updated_at":"2026-04-13T01:11:31.949563+05:30"},{"city":"Goa","state":"Goa","latitude":15.2993,"longitude":74.124,"temp":28.4,"humidity":81,"rain":0.0,"pressure":998.3,"uv_index":9.0,"wind_gusts":28.4,"aqi":96,"pm10":53.6,"pm2_5":38.1,"mosquito_risk":7,"arthritis_risk":5,"migraine_risk":7,"frizz_risk":1,"updated_at":"2026-04-13T01:11:31.949570+05:30"},{"city":"Jodhpur","state":"Rajasthan","latitude":26.2389,"longitude":73.0243,"temp":26.8,"humidity":39,"rain":0.0,"pressure":983.4,"uv_index":8.15,"wind_gusts":24.1,"aqi":74,"pm10":65.0,"pm2_5":30.3,"mosquito_risk":4,"arthritis_risk":5,"migraine_risk":7,"frizz_risk":0,"updated_at":"2026-04-13T01:11:31.949577+05:30"},{"city":"Udaipur","state":"Rajasthan","latitude":24.5854,"longitude":73.7125,"temp":23.0,"humidity":40,"rain":0.0,"pressure":947.1,"uv_index":8.7,"wind_gusts":24.8,"aqi":64,"pm10":39.0,"pm2_5":15.0,"mosquito_risk":0,"arthritis_risk":5,"migraine_risk":7,"frizz_risk":0,"updated_at":"2026-04-13T01:11:31.949584+05:30"},{"city":"Kota","state":"Rajasthan","latitude":25.2138,"longitude":75.8648,"temp":25.3,"humidity":48,"rain":0.0,"pressure":979.0,"uv_index":8.15,"wind_gusts":14.0,"aqi":83,"pm10":71.5,"pm2_5":24.5,"mosquito_risk":4,"arthritis_risk":5,"migraine_risk":7,"frizz_risk":0,"updated_at":"2026-04-13T01:11:31.949591+05:30"},{"city":"Bikaner","state":"Rajasthan","latitude":28.0229,"longitude":73.3119,"temp":27.3,"humidity":33,"rain":0.0,"pressure":982.0,"uv_index":7.95,"wind_gusts":20.9,"aqi":61,"pm10":27.8,"pm2_5":13.2,"mosquito_risk":4,"arthritis_risk":5,"migraine_risk":7,"frizz_risk":0,"updated_at":"2026-04-13T01:11:31.949598+05:30"},{"city":"Ajmer","state":"Rajasthan","latitude":26.4499,"longitude":74.6399,"temp":25.3,"humidity":31,"rain":0.0,"pressure":955.1,"uv_index":8.1,"wind_gusts":29.5,"aqi":78,"pm10":59.5,"pm2_5":25.4,"mosquito_risk":4,"arthritis_risk":5,"migraine_risk":7,"frizz_risk":0,"updated_at":"2026-04-13T01:11:31.949604+05:30"},{"city":"Gwalior","state":"Madhya Pradesh","latitude":26.2183,"longitude":78.1828,"temp":25.5,"humidity":53,"rain":0.0,"pressure":983.8,"uv_index":7.9,"wind_gusts":31.0,"aqi":134,"pm10":508.5,"pm2_5":74.7,"mosquito_risk":4,"arthritis_risk":5,"migraine_risk":7,"frizz_risk":0,"updated_at":"2026-04-13T01:11:31.949610+05:30"},{"city":"Indore","state":"Madhya Pradesh","latitude":22.7196,"longitude":75.8577,"temp":24.9,"humidity":52,"rain":0.0,"pressure":947.7,"uv_index":8.55,"wind_gusts":28.1,"aqi":74,"pm10":63.6,"pm2_5":39.0,"mosquito_risk":0,"arthritis_risk":5,"migraine_risk":7,"frizz_risk":0,"updated_at":"2026-04-13T01:11:31.949617+05:30"},{"city":"Bhopal","state":"Madhya Pradesh","latitude":23.2599,"longitude":77.4126,"temp":25.7,"humidity":48,"rain":0.0,"pressure":953.6,"uv_index":8.55,"wind_gusts":22.7,"aqi":63,"pm10":61.2,"pm2_5":27.1,"mosquito_risk":4,"arthritis_risk":5,"migraine_risk":7,"frizz_risk":0,"updated_at":"2026-04-13T01:11:31.949623+05:30"},{"city":"Jabalpur","state":"Madhya Pradesh","latitude":23.1815,"longitude":79.9864,"temp":26.6,"humidity":48,"rain":0.0,"pressure":960.2,"uv_index":8.65,"wind_gusts":24.8,"aqi":70,"pm10":39.7,"pm2_5":31.2,"mosquito_risk":4,"arthritis_risk":5,"migraine_risk":7,"frizz_risk":0,"updated_at":"2026-04-13T01:11:31.949629+05:30"},{"city":"Ujjain","state":"Madhya Pradesh","latitude":23.1765,"longitude":75.7885,"temp":25.6,"humidity":47,"rain":0.0,"pressure":953.5,"uv_index":8.45,"wind_gusts":26.3,"aqi":70,"pm10":78.2,"pm2_5":38.4,"mosquito_risk":4,"arthritis_risk":5,"migraine_risk":7,"frizz_risk":0,"updated_at":"2026-04-13T01:11:31.949636+05:30"},{"city":"Visakhapatnam","state":"Andhra Pradesh","latitude":17.6868,"longitude":83.2185,"temp":27.7,"humidity":84,"rain":0.0,"pressure":1003.7,"uv_index":9.15,"wind_gusts":45.0,"aqi":74,"pm10":23.5,"pm2_5":15.5,"mosquito_risk":7,"arthritis_risk":5,"migraine_risk":4,"frizz_risk":1,"updated_at":"2026-04-13T01:11:31.949643+05:30"},{"city":"Vijayawada","state":"Andhra Pradesh","latitude":16.5062,"longitude":80.648,"temp":26.8,"humidity":87,"rain":0.0,"pressure":1002.6,"uv_index":9.2,"wind_gusts":29.5,"aqi":56,"pm10":18.3,"pm2_5":12.4,"mosquito_risk":7,"arthritis_risk":5,"migraine_risk":4,"frizz_risk":1,"updated_at":"2026-04-13T01:11:31.949649+05:30"},{"city":"Guntur","state":"Andhra Pradesh","latitude":16.3067,"longitude":80.4365,"temp":26.9,"humidity":88,"rain":0.0,"pressure":1003.7,"uv_index":9.2,"wind_gusts":31.3,"aqi":55,"pm10":19.1,"pm2_5":12.7,"mosquito_risk":7,"arthritis_risk":5,"migraine_risk":4,"frizz_risk":1,"updated_at":"2026-04-13T01:11:31.949656+05:30"},{"city":"Nellore","state":"Andhra Pradesh","latitude":14.4426,"longitude":79.9865,"temp":26.7,"humidity":87,"rain":0.0,"pressure":1005.5,"uv_index":9.3,"wind_gusts":36.7,"aqi":56,"pm10":14.6,"pm2_5":9.9,"mosquito_risk":7,"arthritis_risk":5,"migraine_risk":4,"frizz_risk":1,"updated_at":"2026-04-13T01:11:31.949663+05:30"},{"city":"Kurnool","state":"Andhra Pradesh","latitude":15.8281,"longitude":78.0373,"temp":31.8,"humidity":47,"rain":0.0,"pressure":975.6,"uv_index":9.2,"wind_gusts":29.5,"aqi":73,"pm10":23.6,"pm2_5":20.5,"mosquito_risk":0,"arthritis_risk":5,"migraine_risk":7,"frizz_risk":1,"updated_at":"2026-04-13T01:11:31.949671+05:30"},{"city":"Kakinada","state":"Andhra Pradesh","latitude":16.9891,"longitude":82.2475,"temp":27.5,"humidity":85,"rain":0.0,"pressure":1007.7,"uv_index":9.2,"wind_gusts":31.3,"aqi":52,"pm10":21.4,"pm2_5":11.4,"mosquito_risk":7,"arthritis_risk":5,"migraine_risk":4,"frizz_risk":1,"updated_at":"2026-04-13T01:11:31.949678+05:30"},{"city":"Tirupati","state":"Andhra Pradesh","latitude":13.6288,"longitude":79.4192,"temp":25.8,"humidity":72,"rain":0.0,"pressure":992.1,"uv_index":9.4,"wind_gusts":31.3,"aqi":68,"pm10":25.0,"pm2_5":20.7,"mosquito_risk":7,"arthritis_risk":5,"migraine_risk":7,"frizz_risk":1,"updated_at":"2026-04-13T01:11:31.949685+05:30"},{"city":"Warangal","state":"Telangana","latitude":17.9689,"longitude":79.5941,"temp":28.7,"humidity":65,"rain":0.0,"pressure":977.8,"uv_index":9.1,"wind_gusts":31.0,"aqi":85,"pm10":23.9,"pm2_5":20.5,"mosquito_risk":7,"arthritis_risk":5,"migraine_risk":7,"frizz_risk":1,"updated_at":"2026-04-13T01:11:31.949692+05:30"},{"city":"Nizamabad","state":"Telangana","latitude":18.6725,"longitude":78.0941,"temp":28.0,"humidity":51,"rain":0.0,"pressure":963.1,"uv_index":9.05,"wind_gusts":36.7,"aqi":126,"pm10":47.0,"pm2_5":40.6,"mosquito_risk":4,"arthritis_risk":5,"migraine_risk":7,"frizz_risk":1,"updated_at":"2026-04-13T01:11:31.949698+05:30"},{"city":"Mysore","state":"Karnataka","latitude":12.2958,"longitude":76.6396,"temp":24.7,"humidity":84,"rain":0.0,"pressure":928.8,"uv_index":9.5,"wind_gusts":45.0,"aqi":99,"pm10":39.5,"pm2_5":33.9,"mosquito_risk":3,"arthritis_risk":5,"migraine_risk":7,"frizz_risk":1,"updated_at":"2026-04-13T01:11:31.949704+05:30"},{"city":"Mangalore","state":"Karnataka","latitude":12.9141,"longitude":74.856,"temp":30.0,"humidity":79,"rain":0.0,"pressure":1006.6,"uv_index":9.15,"wind_gusts":25.6,"aqi":96,"pm10":53.2,"pm2_5":29.6,"mosquito_risk":7,"arthritis_risk":5,"migraine_risk":4,"frizz_risk":1,"updated_at":"2026-04-13T01:11:31.949711+05:30"},{"city":"Hubli-Dharwad","state":"Karnataka","latitude":15.3647,"longitude":75.124,"temp":24.2,"humidity":91,"rain":0.0,"pressure":940.8,"uv_index":9.25,"wind_gusts":36.0,"aqi":91,"pm10":31.1,"pm2_5":24.7,"mosquito_risk":3,"arthritis_risk":5,"migraine_risk":7,"frizz_risk":1,"updated_at":"2026-04-13T01:11:31.949717+05:30"},{"city":"Belgaum","state":"Karnataka","latitude":15.8497,"longitude":74.4977,"temp":23.2,"humidity":91,"rain":0.0,"pressure":926.3,"uv_index":9.3,"wind_gusts":37.8,"aqi":94,"pm10":43.3,"pm2_5":35.9,"mosquito_risk":3,"arthritis_risk":5,"migraine_risk":7,"frizz_risk":1,"updated_at":"2026-04-13T01:11:35.171162+05:30"},{"city":"Coimbatore","state":"Tamil Nadu","latitude":11.0168,"longitude":76.9558,"temp":25.5,"humidity":87,"rain":0.0,"pressure":962.0,"uv_index":9.45,"wind_gusts":39.2,"aqi":92,"pm10":45.4,"pm2_5":36.9,"mosquito_risk":7,"arthritis_risk":5,"migraine_risk":7,"frizz_risk":1,"updated_at":"2026-04-13T01:11:35.171195+05:30"},{"city":"Madurai","state":"Tamil Nadu","latitude":9.9252,"longitude":78.1198,"temp":27.5,"humidity":87,"rain":0.0,"pressure":993.7,"uv_index":9.35,"wind_gusts":42.8,"aqi":85,"pm10":27.8,"pm2_5":24.9,"mosquito_risk":7,"arthritis_risk":5,"migraine_risk":7,"frizz_risk":1,"updated_at":"2026-04-13T01:11:35.171205+05:30"},{"city":"Trichy","state":"Tamil Nadu","latitude":10.7905,"longitude":78.7047,"temp":26.1,"humidity":88,"rain":0.0,"pressure":1000.1,"uv_index":9.35,"wind_gusts":24.5,"aqi":62,"pm10":13.3,"pm2_5":12.1,"mosquito_risk":7,"arthritis_risk":5,"migraine_risk":4,"frizz_risk":1,"updated_at":"2026-04-13T01:11:35.171213+05:30"},{"city":"Salem","state":"Tamil Nadu","latitude":11.6643,"longitude":78.146,"temp":27.4,"humidity":74,"rain":0.0,"pressure":977.3,"uv_index":9.45,"wind_gusts":16.2,"aqi":77,"pm10":28.2,"pm2_5":24.1,"mosquito_risk":7,"arthritis_risk":5,"migraine_risk":7,"frizz_risk":1,"updated_at":"2026-04-13T01:11:35.171220+05:30"},{"city":"Tirunelveli","state":"Tamil Nadu","latitude":8.7139,"longitude":77.7567,"temp":26.9,"humidity":87,"rain":0.0,"pressure":1003.6,"uv_index":8.75,"wind_gusts":44.6,"aqi":83,"pm10":35.4,"pm2_5":28.1,"mosquito_risk":7,"arthritis_risk":5,"migraine_risk":4,"frizz_risk":1,"updated_at":"2026-04-13T01:11:35.171228+05:30"},{"city":"Vellore","state":"Tamil Nadu","latitude":12.9165,"longitude":79.1325,"temp":25.3,"humidity":67,"rain":0.0,"pressure":984.9,"uv_index":9.45,"wind_gusts":29.5,"aqi":87,"pm10":39.6,"pm2_5":35.5,"mosquito_risk":7,"arthritis_risk":5,"migraine_risk":7,"frizz_risk":1,"updated_at":"2026-04-13T01:11:35.171235+05:30"},{"city":"Erode","state":"Tamil Nadu","latitude":11.341,"longitude":77.7172,"temp":28.5,"humidity":72,"rain":0.0,"pressure":989.3,"uv_index":9.4,"wind_gusts":22.0,"aqi":66,"pm10":15.5,"pm2_5":13.0,"mosquito_risk":7,"arthritis_risk":5,"migraine_risk":7,"frizz_risk":1,"updated_at":"2026-04-13T01:11:35.171242+05:30"},{"city":"Kochi","state":"Kerala","latitude":9.9312,"longitude":76.2673,"temp":27.9,"humidity":85,"rain":0.0,"pressure":1008.8,"uv_index":9.15,"wind_gusts":28.8,"aqi":98,"pm10":47.6,"pm2_5":39.6,"mosquito_risk":7,"arthritis_risk":0,"migraine_risk":4,"frizz_risk":1,"updated_at":"2026-04-13T01:11:35.171250+05:30"},{"city":"Thiruvananthapuram","state":"Kerala","latitude":8.5241,"longitude":76.9366,"temp":28.6,"humidity":82,"rain":0.0,"pressure":1008.1,"uv_index":9.15,"wind_gusts":27.0,"aqi":81,"pm10":39.7,"pm2_5":23.1,"mosquito_risk":7,"arthritis_risk":0,"migraine_risk":4,"frizz_risk":1,"updated_at":"2026-04-13T01:11:35.171257+05:30"},{"city":"Kozhikode","state":"Kerala","latitude":11.2588,"longitude":75.7804,"temp":30.0,"humidity":80,"rain":0.0,"pressure":1007.7,"uv_index":9.15,"wind_gusts":26.3,"aqi":92,"pm10":65.2,"pm2_5":33.4,"mosquito_risk":7,"arthritis_risk":5,"migraine_risk":4,"frizz_risk":1,"updated_at":"2026-04-13T01:11:35.171264+05:30"},{"city":"Thrissur","state":"Kerala","latitude":10.5276,"longitude":76.2144,"temp":28.4,"humidity":87,"rain":0.0,"pressure":1007.1,"uv_index":9.15,"wind_gusts":33.8,"aqi":95,"pm10":54.5,"pm2_5":41.6,"mosquito_risk":7,"arthritis_risk":5,"migraine_risk":4,"frizz_risk":1,"updated_at":"2026-04-13T01:11:35.171271+05:30"},{"city":"Kannur","state":"Kerala","latitude":11.8745,"longitude":75.3704,"temp":29.3,"humidity":82,"rain":0.0,"pressure":1007.2,"uv_index":9.15,"wind_gusts":33.1,"aqi":113,"pm10":83.1,"pm2_5":56.7,"mosquito_risk":7,"arthritis_risk":5,"migraine_risk":4,"frizz_risk":1,"updated_at":"2026-04-13T01:11:35.171278+05:30"},{"city":"Patna","state":"Bihar","latitude":25.5941,"longitude":85.1376,"temp":25.8,"humidity":61,"rain":0.0,"pressure":998.3,"uv_index":8.5,"wind_gusts":33.1,"aqi":107,"pm10":72.2,"pm2_5":36.7,"mosquito_risk":7,"arthritis_risk":5,"migraine_risk":7,"frizz_risk":1,"updated_at":"2026-04-13T01:11:35.171285+05:30"},{"city":"Gaya","state":"Bihar","latitude":24.7914,"longitude":85.0002,"temp":26.8,"humidity":45,"rain":0.0,"pressure":991.7,"uv_index":8.6,"wind_gusts":27.4,"aqi":98,"pm10":73.6,"pm2_5":36.2,"mosquito_risk":4,"arthritis_risk":5,"migraine_risk":7,"frizz_risk":0,"updated_at":"2026-04-13T01:11:35.171291+05:30"},{"city":"Muzaffarpur","state":"Bihar","latitude":26.1209,"longitude":85.3647,"temp":24.0,"humidity":69,"rain":0.0,"pressure":998.6,"uv_index":8.5,"wind_gusts":24.5,"aqi":136,"pm10":65.2,"pm2_5":40.0,"mosquito_risk":3,"arthritis_risk":5,"migraine_risk":7,"frizz_risk":1,"updated_at":"2026-04-13T01:11:35.171298+05:30"},{"city":"Bhagalpur","state":"Bihar","latitude":25.2425,"longitude":87.0117,"temp":24.2,"humidity":73,"rain":0.0,"pressure":999.1,"uv_index":8.5,"wind_gusts":15.5,"aqi":135,"pm10":90.3,"pm2_5":44.8,"mosquito_risk":3,"arthritis_risk":5,"migraine_risk":7,"frizz_risk":1,"updated_at":"2026-04-13T01:11:35.171304+05:30"},{"city":"Ranchi","state":"Jharkhand","latitude":23.3441,"longitude":85.3096,"temp":25.2,"humidity":45,"rain":0.0,"pressure":936.6,"uv_index":9.1,"wind_gusts":25.9,"aqi":100,"pm10":37.3,"pm2_5":25.0,"mosquito_risk":4,"arthritis_risk":5,"migraine_risk":7,"frizz_risk":0,"updated_at":"2026-04-13T01:11:35.171311+05:30"},{"city":"Jamshedpur","state":"Jharkhand","latitude":22.8046,"longitude":86.2029,"temp":25.8,"humidity":67,"rain":0.0,"pressure":989.2,"uv_index":8.95,"wind_gusts":18.4,"aqi":91,"pm10":47.6,"pm2_5":28.5,"mosquito_risk":7,"arthritis_risk":5,"migraine_risk":7,"frizz_risk":1,"updated_at":"2026-04-13T01:11:35.171318+05:30"},{"city":"Dhanbad","state":"Jharkhand","latitude":23.7957,"longitude":86.4304,"temp":27.8,"humidity":40,"rain":0.0,"pressure":978.0,"uv_index":8.9,"wind_gusts":22.3,"aqi":126,"pm10":105.7,"pm2_5":84.1,"mosquito_risk":4,"arthritis_risk":5,"migraine_risk":7,"frizz_risk":0,"updated_at":"2026-04-13T01:11:35.171324+05:30"},{"city":"Bokaro","state":"Jharkhand","latitude":23.6693,"longitude":86.1511,"temp":25.3,"humidity":52,"rain":0.0,"pressure":982.3,"uv_index":8.9,"wind_gusts":25.6,"aqi":113,"pm10":90.3,"pm2_5":71.2,"mosquito_risk":4,"arthritis_risk":5,"migraine_risk":7,"frizz_risk":0,"updated_at":"2026-04-13T01:11:35.171331+05:30"},{"city":"Bhubaneswar","state":"Odisha","latitude":20.2961,"longitude":85.8245,"temp":27.0,"humidity":89,"rain":0.0,"pressure":1002.2,"uv_index":9.1,"wind_gusts":38.9,"aqi":80,"pm10":20.0,"pm2_5":15.1,"mosquito_risk":7,"arthritis_risk":5,"migraine_risk":4,"frizz_risk":1,"updated_at":"2026-04-13T01:11:35.171337+05:30"},{"city":"Cuttack","state":"Odisha","latitude":20.4625,"longitude":85.8828,"temp":26.9,"humidity":91,"rain":0.0,"pressure":1003.9,"uv_index":9.1,"wind_gusts":33.8,"aqi":80,"pm10":20.0,"pm2_5":15.1,"mosquito_risk":7,"arthritis_risk":5,"migraine_risk":4,"frizz_risk":1,"updated_at":"2026-04-13T01:11:35.171343+05:30"},{"city":"Rourkela","state":"Odisha","latitude":22.2604,"longitude":84.8536,"temp":26.3,"humidity":56,"rain":0.0,"pressure":983.1,"uv_index":8.85,"wind_gusts":26.6,"aqi":129,"pm10":56.3,"pm2_5":30.9,"mosquito_risk":4,"arthritis_risk":5,"migraine_risk":7,"frizz_risk":1,"updated_at":"2026-04-13T01:11:35.171349+05:30"},{"city":"Raipur","state":"Chhattisgarh","latitude":21.2514,"longitude":81.6296,"temp":28.1,"humidity":38,"rain":0.0,"pressure":972.5,"uv_index":8.9,"wind_gusts":34.2,"aqi":126,"pm10":52.6,"pm2_5":46.8,"mosquito_risk":4,"arthritis_risk":5,"migraine_risk":7,"frizz_risk":0,"updated_at":"2026-04-13T01:11:35.171355+05:30"},{"city":"Bhilai","state":"Chhattisgarh","latitude":21.1938,"longitude":81.3509,"temp":27.4,"humidity":40,"rain":0.0,"pressure":972.9,"uv_index":8.9,"wind_gusts":33.1,"aqi":126,"pm10":42.5,"pm2_5":38.1,"mosquito_risk":4,"arthritis_risk":5,"migraine_risk":7,"frizz_risk":0,"updated_at":"2026-04-13T01:11:35.171362+05:30"},{"city":"Guwahati","state":"Assam","latitude":26.1158,"longitude":91.7086,"temp":22.2,"humidity":93,"rain":0.0,"pressure":1001.7,"uv_index":8.4,"wind_gusts":43.9,"aqi":124,"pm10":58.7,"pm2_5":42.4,"mosquito_risk":3,"arthritis_risk":5,"migraine_risk":4,"frizz_risk":1,"updated_at":"2026-04-13T01:11:35.171369+05:30"},{"city":"Agartala","state":"Tripura","latitude":23.8315,"longitude":91.2868,"temp":24.6,"humidity":95,"rain":0.0,"pressure":1005.1,"uv_index":8.65,"wind_gusts":34.9,"aqi":99,"pm10":27.0,"pm2_5":22.5,"mosquito_risk":3,"arthritis_risk":5,"migraine_risk":4,"frizz_risk":1,"updated_at":"2026-04-13T01:11:35.171375+05:30"},{"city":"Shillong","state":"Meghalaya","latitude":25.5788,"longitude":91.8933,"temp":15.1,"humidity":68,"rain":0.0,"pressure":855.0,"uv_index":8.2,"wind_gusts":72.4,"aqi":112,"pm10":67.1,"pm2_5":40.2,"mosquito_risk":3,"arthritis_risk":5,"migraine_risk":7,"frizz_risk":0,"updated_at":"2026-04-13T01:11:35.171381+05:30"},{"city":"Imphal","state":"Manipur","latitude":24.817,"longitude":93.9368,"temp":17.2,"humidity":90,"rain":0.0,"pressure":922.5,"uv_index":8.4,"wind_gusts":79.6,"aqi":112,"pm10":80.3,"pm2_5":52.0,"mosquito_risk":3,"arthritis_risk":10,"migraine_risk":7,"frizz_risk":0,"updated_at":"2026-04-13T01:11:35.171389+05:30"},{"city":"Aizawl","state":"Mizoram","latitude":23.7271,"longitude":92.7176,"temp":19.0,"humidity":74,"rain":0.0,"pressure":892.2,"uv_index":8.9,"wind_gusts":48.2,"aqi":95,"pm10":70.8,"pm2_5":34.8,"mosquito_risk":3,"arthritis_risk":5,"migraine_risk":7,"frizz_risk":0,"updated_at":"2026-04-13T01:11:35.171395+05:30"},{"city":"Kohima","state":"Nagaland","latitude":25.6701,"longitude":94.1077,"temp":14.9,"humidity":83,"rain":0.0,"pressure":853.8,"uv_index":8.95,"wind_gusts":117.4,"aqi":97,"pm10":41.4,"pm2_5":21.2,"mosquito_risk":3,"arthritis_risk":10,"migraine_risk":7,"frizz_risk":0,"updated_at":"2026-04-13T01:11:35.171401+05:30"},{"city":"Gangtok","state":"Sikkim","latitude":27.3314,"longitude":88.6138,"temp":12.8,"humidity":86,"rain":0.0,"pressure":834.8,"uv_index":8.55,"wind_gusts":14.0,"aqi":102,"pm10":85.9,"pm2_5":37.5,"mosquito_risk":3,"arthritis_risk":10,"migraine_risk":7,"frizz_risk":0,"updated_at":"2026-04-13T01:11:35.171408+05:30"},{"city":"Siliguri","state":"West Bengal","latitude":26.7271,"longitude":88.3953,"temp":20.1,"humidity":67,"rain":0.0,"pressure":992.9,"uv_index":8.4,"wind_gusts":24.5,"aqi":131,"pm10":136.0,"pm2_5":57.0,"mosquito_risk":3,"arthritis_risk":5,"migraine_risk":7,"frizz_risk":0,"updated_at":"2026-04-13T01:11:38.399956+05:30"},{"city":"Durgapur","state":"West Bengal","latitude":23.5204,"longitude":87.3119,"temp":25.2,"humidity":73,"rain":0.0,"pressure":993.1,"uv_index":8.85,"wind_gusts":19.4,"aqi":119,"pm10":40.2,"pm2_5":30.7,"mosquito_risk":7,"arthritis_risk":5,"migraine_risk":7,"frizz_risk":1,"updated_at":"2026-04-13T01:11:38.399991+05:30"},{"city":"Asansol","state":"West Bengal","latitude":23.6739,"longitude":86.9524,"temp":27.4,"humidity":53,"rain":0.0,"pressure":991.6,"uv_index":8.85,"wind_gusts":16.9,"aqi":103,"pm10":42.3,"pm2_5":30.3,"mosquito_risk":4,"arthritis_risk":5,"migraine_risk":7,"frizz_risk":1,"updated_at":"2026-04-13T01:11:38.400001+05:30"},{"city":"Pondicherry","state":"Puducherry","latitude":11.9139,"longitude":79.8145,"temp":25.7,"humidity":94,"rain":0.0,"pressure":1008.8,"uv_index":9.3,"wind_gusts":29.9,"aqi":34,"pm10":9.3,"pm2_5":5.8,"mosquito_risk":7,"arthritis_risk":0,"migraine_risk":4,"frizz_risk":1,"updated_at":"2026-04-13T01:11:38.400009+05:30"},{"city":"Port Blair","state":"Andaman and Nicobar Islands","latitude":11.6234,"longitude":92.7265,"temp":28.7,"humidity":81,"rain":0.0,"pressure":1006.4,"uv_index":9.2,"wind_gusts":19.1,"aqi":57,"pm10":30.0,"pm2_5":15.9,"mosquito_risk":7,"arthritis_risk":5,"migraine_risk":4,"frizz_risk":1,"updated_at":"2026-04-13T01:11:38.400017+05:30"},{"city":"Haridwar","state":"Uttarakhand","latitude":29.9457,"longitude":78.1642,"temp":17.9,"humidity":80,"rain":0.0,"pressure":974.7,"uv_index":6.95,"wind_gusts":32.8,"aqi":80,"pm10":35.6,"pm2_5":30.4,"mosquito_risk":3,"arthritis_risk":5,"migraine_risk":7,"frizz_risk":0,"updated_at":"2026-04-13T01:11:38.400025+05:30"},{"city":"Rishikesh","state":"Uttarakhand","latitude":30.0869,"longitude":78.2676,"temp":18.2,"humidity":69,"rain":0.0,"pressure":967.4,"uv_index":7.15,"wind_gusts":34.6,"aqi":109,"pm10":47.5,"pm2_5":26.0,"mosquito_risk":3,"arthritis_risk":5,"migraine_risk":7,"frizz_risk":0,"updated_at":"2026-04-13T01:11:38.400032+05:30"},{"city":"Nainital","state":"Uttarakhand","latitude":29.3919,"longitude":79.4542,"temp":16.7,"humidity":44,"rain":0.0,"pressure":805.0,"uv_index":8.0,"wind_gusts":41.8,"aqi":98,"pm10":44.6,"pm2_5":20.9,"mosquito_risk":0,"arthritis_risk":5,"migraine_risk":7,"frizz_risk":0,"updated_at":"2026-04-13T01:11:38.400040+05:30"},{"city":"Mussoorie","state":"Uttarakhand","latitude":30.4599,"longitude":78.0664,"temp":14.1,"humidity":60,"rain":0.0,"pressure":801.3,"uv_index":7.45,"wind_gusts":34.9,"aqi":94,"pm10":50.1,"pm2_5":35.6,"mosquito_risk":0,"arthritis_risk":5,"migraine_risk":7,"frizz_risk":0,"updated_at":"2026-04-13T01:11:38.400047+05:30"},{"city":"Dharamshala","state":"Himachal Pradesh","latitude":32.219,"longitude":76.3234,"temp":17.5,"humidity":51,"rain":0.0,"pressure":869.1,"uv_index":7.75,"wind_gusts":24.1,"aqi":79,"pm10":16.9,"pm2_5":8.6,"mosquito_risk":0,"arthritis_risk":5,"migraine_risk":7,"frizz_risk":0,"updated_at":"2026-04-13T01:11:38.400053+05:30"},{"city":"Dalhousie","state":"Himachal Pradesh","latitude":32.5387,"longitude":75.971,"temp":13.7,"humidity":52,"rain":0.0,"pressure":802.7,"uv_index":7.45,"wind_gusts":21.2,"aqi":60,"pm10":38.2,"pm2_5":25.6,"mosquito_risk":0,"arthritis_risk":5,"migraine_risk":7,"frizz_risk":0,"updated_at":"2026-04-13T01:11:38.400060+05:30"},{"city":"Patiala","state":"Punjab","latitude":30.3398,"longitude":76.3869,"temp":19.7,"humidity":63,"rain":0.0,"pressure":979.4,"uv_index":7.1,"wind_gusts":28.1,"aqi":392,"pm10":408.9,"pm2_5":58.8,"mosquito_risk":3,"arthritis_risk":5,"migraine_risk":7,"frizz_risk":0,"updated_at":"2026-04-13T01:11:38.400067+05:30"},{"city":"Bhatinda","state":"Punjab","latitude":30.211,"longitude":74.9455,"temp":21.9,"humidity":51,"rain":0.0,"pressure":984.7,"uv_index":7.8,"wind_gusts":24.5,"aqi":80,"pm10":45.5,"pm2_5":23.3,"mosquito_risk":0,"arthritis_risk":5,"migraine_risk":7,"frizz_risk":0,"updated_at":"2026-04-13T01:11:38.400074+05:30"},{"city":"Rohtak","state":"Haryana","latitude":28.8955,"longitude":76.6066,"temp":20.9,"humidity":57,"rain":0.0,"pressure":982.5,"uv_index":7.3,"wind_gusts":29.5,"aqi":704,"pm10":929.5,"pm2_5":141.1,"mosquito_risk":0,"arthritis_risk":5,"migraine_risk":7,"frizz_risk":0,"updated_at":"2026-04-13T01:11:38.400081+05:30"},{"city":"Panipat","state":"Haryana","latitude":29.3909,"longitude":76.9635,"temp":20.2,"humidity":59,"rain":0.0,"pressure":981.0,"uv_index":7.1,"wind_gusts":32.0,"aqi":1051,"pm10":979.8,"pm2_5":136.0,"mosquito_risk":0,"arthritis_risk":5,"migraine_risk":7,"frizz_risk":0,"updated_at":"2026-04-13T01:11:38.400088+05:30"},{"city":"Mathura","state":"Uttar Pradesh","latitude":27.4924,"longitude":77.6737,"temp":22.2,"humidity":49,"rain":0.0,"pressure":987.7,"uv_index":7.6,"wind_gusts":22.3,"aqi":832,"pm10":871.7,"pm2_5":129.5,"mosquito_risk":0,"arthritis_risk":5,"migraine_risk":7,"frizz_risk":0,"updated_at":"2026-04-13T01:11:38.400094+05:30"},{"city":"Vrindavan","state":"Uttar Pradesh","latitude":27.5823,"longitude":77.7027,"temp":20.7,"humidity":57,"rain":0.0,"pressure":988.0,"uv_index":7.55,"wind_gusts":24.5,"aqi":832,"pm10":871.7,"pm2_5":129.5,"mosquito_risk":0,"arthritis_risk":5,"migraine_risk":7,"frizz_risk":0,"updated_at":"2026-04-13T01:11:38.400100+05:30"},{"city":"Ayodhya","state":"Uttar Pradesh","latitude":26.7922,"longitude":82.1998,"temp":24.2,"humidity":47,"rain":0.0,"pressure":994.3,"uv_index":7.95,"wind_gusts":35.6,"aqi":111,"pm10":181.1,"pm2_5":44.4,"mosquito_risk":0,"arthritis_risk":5,"migraine_risk":7,"frizz_risk":0,"updated_at":"2026-04-13T01:11:38.400106+05:30"},{"city":"Ratlam","state":"Madhya Pradesh","latitude":23.3315,"longitude":75.0367,"temp":26.2,"humidity":54,"rain":0.0,"pressure":954.1,"uv_index":8.4,"wind_gusts":24.1,"aqi":59,"pm10":62.6,"pm2_5":30.7,"mosquito_risk":4,"arthritis_risk":5,"migraine_risk":7,"frizz_risk":1,"updated_at":"2026-04-13T01:11:38.400113+05:30"},{"city":"Sagar","state":"Madhya Pradesh","latitude":23.8388,"longitude":78.7378,"temp":25.3,"humidity":44,"rain":0.0,"pressure":950.1,"uv_index":8.55,"wind_gusts":23.0,"aqi":59,"pm10":80.6,"pm2_5":28.3,"mosquito_risk":4,"arthritis_risk":5,"migraine_risk":7,"frizz_risk":0,"updated_at":"2026-04-13T01:11:38.400119+05:30"},{"city":"Satna","state":"Madhya Pradesh","latitude":24.6005,"longitude":80.8322,"temp":25.9,"humidity":47,"rain":0.0,"pressure":971.2,"uv_index":8.55,"wind_gusts":25.9,"aqi":74,"pm10":141.6,"pm2_5":32.8,"mosquito_risk":4,"arthritis_risk":5,"migraine_risk":7,"frizz_risk":0,"updated_at":"2026-04-13T01:11:38.400125+05:30"},{"city":"Akola","state":"Maharashtra","latitude":20.7002,"longitude":77.0082,"temp":27.1,"humidity":55,"rain":0.0,"pressure":973.7,"uv_index":8.8,"wind_gusts":22.0,"aqi":78,"pm10":39.7,"pm2_5":27.4,"mosquito_risk":4,"arthritis_risk":5,"migraine_risk":7,"frizz_risk":1,"updated_at":"2026-04-13T01:11:38.400132+05:30"},{"city":"Amravati","state":"Maharashtra","latitude":20.9374,"longitude":77.7796,"temp":27.0,"humidity":48,"rain":0.0,"pressure":965.8,"uv_index":8.8,"wind_gusts":23.8,"aqi":78,"pm10":39.6,"pm2_5":27.6,"mosquito_risk":4,"arthritis_risk":5,"migraine_risk":7,"frizz_risk":0,"updated_at":"2026-04-13T01:11:38.400138+05:30"},{"city":"Latur","state":"Maharashtra","latitude":18.4088,"longitude":76.5604,"temp":27.7,"humidity":54,"rain":0.0,"pressure":938.4,"uv_index":9.05,"wind_gusts":19.8,"aqi":85,"pm10":39.7,"pm2_5":29.8,"mosquito_risk":4,"arthritis_risk":5,"migraine_risk":7,"frizz_risk":1,"updated_at":"2026-04-13T01:11:38.400145+05:30"},{"city":"Nanded","state":"Maharashtra","latitude":19.1383,"longitude":77.3091,"temp":29.0,"humidity":52,"rain":0.0,"pressure":966.5,"uv_index":8.95,"wind_gusts":16.6,"aqi":104,"pm10":66.6,"pm2_5":53.6,"mosquito_risk":4,"arthritis_risk":5,"migraine_risk":7,"frizz_risk":1,"updated_at":"2026-04-13T01:11:38.400151+05:30"},{"city":"Gulbarga","state":"Karnataka","latitude":17.3297,"longitude":76.8343,"temp":31.2,"humidity":49,"rain":0.0,"pressure":957.9,"uv_index":9.1,"wind_gusts":29.9,"aqi":102,"pm10":32.7,"pm2_5":26.5,"mosquito_risk":0,"arthritis_risk":5,"migraine_risk":7,"frizz_risk":1,"updated_at":"2026-04-13T01:11:38.400156+05:30"},{"city":"Bidar","state":"Karnataka","latitude":17.9104,"longitude":77.5199,"temp":30.2,"humidity":56,"rain":0.0,"pressure":934.7,"uv_index":9.1,"wind_gusts":24.1,"aqi":87,"pm10":37.0,"pm2_5":31.1,"mosquito_risk":0,"arthritis_risk":5,"migraine_risk":7,"frizz_risk":1,"updated_at":"2026-04-13T01:11:38.400163+05:30"},{"city":"Hospet","state":"Karnataka","latitude":15.2689,"longitude":76.3909,"temp":28.6,"humidity":75,"rain":0.0,"pressure":955.4,"uv_index":9.3,"wind_gusts":26.6,"aqi":101,"pm10":48.2,"pm2_5":41.2,"mosquito_risk":7,"arthritis_risk":5,"migraine_risk":7,"frizz_risk":1,"updated_at":"2026-04-13T01:11:38.400169+05:30"},{"city":"Tirupur","state":"Tamil Nadu","latitude":11.1085,"longitude":77.3411,"temp":27.7,"humidity":77,"rain":0.0,"pressure":975.6,"uv_index":9.45,"wind_gusts":24.5,"aqi":83,"pm10":32.8,"pm2_5":27.7,"mosquito_risk":7,"arthritis_risk":5,"migraine_risk":7,"frizz_risk":1,"updated_at":"2026-04-13T01:11:38.400175+05:30"},{"city":"Alappuzha","state":"Kerala","latitude":9.4981,"longitude":76.3388,"temp":27.7,"humidity":86,"rain":0.0,"pressure":1009.1,"uv_index":9.15,"wind_gusts":25.9,"aqi":95,"pm10":43.0,"pm2_5":26.8,"mosquito_risk":7,"arthritis_risk":0,"migraine_risk":4,"frizz_risk":1,"updated_at":"2026-04-13T01:11:38.400182+05:30"},{"city":"Munnar","state":"Kerala","latitude":10.0889,"longitude":77.0595,"temp":21.9,"humidity":90,"rain":0.0,"pressure":857.2,"uv_index":9.7,"wind_gusts":32.8,"aqi":87,"pm10":41.1,"pm2_5":35.9,"mosquito_risk":3,"arthritis_risk":5,"migraine_risk":7,"frizz_risk":1,"updated_at":"2026-04-13T01:11:38.400188+05:30"},{"city":"Silchar","state":"Assam","latitude":24.8333,"longitude":92.7789,"temp":23.0,"humidity":89,"rain":0.0,"pressure":1004.6,"uv_index":8.7,"wind_gusts":42.8,"aqi":149,"pm10":75.4,"pm2_5":57.0,"mosquito_risk":3,"arthritis_risk":5,"migraine_risk":4,"frizz_risk":1,"updated_at":"2026-04-13T01:11:38.400194+05:30"},{"city":"Dibrugarh","state":"Assam","latitude":27.4728,"longitude":94.912,"temp":21.5,"humidity":77,"rain":0.0,"pressure":996.3,"uv_index":5.6,"wind_gusts":22.3,"aqi":88,"pm10":25.9,"pm2_5":21.1,"mosquito_risk":3,"arthritis_risk":5,"migraine_risk":3,"frizz_risk":1,"updated_at":"2026-04-13T01:11:38.400200+05:30"}]