[{"city":"Delhi","state":"Delhi","latitude":28.6139,"longitude":77.209,"temp":27.0,"humidity":48,"rain":0.0,"pressure":985.1,"uv_index":7.15,"wind_gusts":31.0,"aqi":532,"pm10":501.1,"pm2_5":90.3,"mosquito_risk":4,"arthritis_risk":5,"migraine_risk":7,"frizz_risk":0,"updated_at":"2026-04-11T21:06:41.434788+05:30"},{"city":"Mumbai","state":"Maharashtra","latitude":19.076,"longitude":72.8777,"temp":29.0,"humidity":72,"rain":0.0,"pressure":1009.5,"uv_index":7.95,"wind_gusts":23.4,"aqi":167,"pm10":38.9,"pm2_5":31.7,"mosquito_risk":7,"arthritis_risk":0,"migraine_risk":4,"frizz_risk":1,"updated_at":"2026-04-11T21:06:41.434834+05:30"},{"city":"Bangalore","state":"Karnataka","latitude":12.9716,"longitude":77.5946,"temp":29.6,"humidity":38,"rain":0.0,"pressure":913.2,"uv_index":9.65,"wind_gusts":27.4,"aqi":115,"pm10":38.6,"pm2_5":32.0,"mosquito_risk":4,"arthritis_risk":5,"migraine_risk":7,"frizz_risk":0,"updated_at":"2026-04-11T21:06:41.434850+05:30"},{"city":"Hyderabad","state":"Telangana","latitude":17.385,"longitude":78.4867,"temp":33.3,"humidity":34,"rain":0.0,"pressure":954.7,"uv_index":9.2,"wind_gusts":18.7,"aqi":168,"pm10":47.7,"pm2_5":39.6,"mosquito_risk":0,"arthritis_risk":5,"migraine_risk":7,"frizz_risk":0,"updated_at":"2026-04-11T21:06:41.434860+05:30"},{"city":"Chennai","state":"Tamil Nadu","latitude":13.0827,"longitude":80.2707,"temp":29.2,"humidity":82,"rain":0.0,"pressure":1008.9,"uv_index":9.05,"wind_gusts":35.6,"aqi":56,"pm10":18.2,"pm2_5":12.7,"mosquito_risk":7,"arthritis_risk":0,"migraine_risk":4,"frizz_risk":1,"updated_at":"2026-04-11T21:06:41.434868+05:30"},{"city":"Kolkata","state":"West Bengal","latitude":22.5726,"longitude":88.3639,"temp":26.0,"humidity":79,"rain":0.0,"pressure":1007.3,"uv_index":8.75,"wind_gusts":18.0,"aqi":132,"pm10":85.4,"pm2_5":73.6,"mosquito_risk":7,"arthritis_risk":5,"migraine_risk":4,"frizz_risk":1,"updated_at":"2026-04-11T21:06:41.434877+05:30"},{"city":"Pune","state":"Maharashtra","latitude":18.5204,"longitude":73.8567,"temp":29.1,"humidity":49,"rain":0.0,"pressure":950.2,"uv_index":8.55,"wind_gusts":38.9,"aqi":176,"pm10":50.1,"pm2_5":44.4,"mosquito_risk":4,"arthritis_risk":5,"migraine_risk":7,"frizz_risk":1,"updated_at":"2026-04-11T21:06:41.434888+05:30"},{"city":"Ahmedabad","state":"Gujarat","latitude":23.0225,"longitude":72.5714,"temp":33.0,"humidity":29,"rain":0.0,"pressure":1002.9,"uv_index":8.05,"wind_gusts":22.3,"aqi":142,"pm10":60.3,"pm2_5":45.8,"mosquito_risk":0,"arthritis_risk":5,"migraine_risk":4,"frizz_risk":0,"updated_at":"2026-04-11T21:06:41.434896+05:30"},{"city":"Jaipur","state":"Rajasthan","latitude":26.9124,"longitude":75.7873,"temp":29.0,"humidity":30,"rain":0.0,"pressure":961.3,"uv_index":7.85,"wind_gusts":40.7,"aqi":111,"pm10":160.2,"pm2_5":35.5,"mosquito_risk":4,"arthritis_risk":5,"migraine_risk":7,"frizz_risk":0,"updated_at":"2026-04-11T21:06:41.434903+05:30"},{"city":"Lucknow","state":"Uttar Pradesh","latitude":26.8467,"longitude":80.9462,"temp":28.1,"humidity":38,"rain":0.0,"pressure":995.1,"uv_index":7.65,"wind_gusts":42.1,"aqi":277,"pm10":334.3,"pm2_5":62.2,"mosquito_risk":4,"arthritis_risk":5,"migraine_risk":7,"frizz_risk":0,"updated_at":"2026-04-11T21:06:41.434911+05:30"},{"city":"Kanpur","state":"Uttar Pradesh","latitude":26.4499,"longitude":80.3319,"temp":26.3,"humidity":54,"rain":0.0,"pressure":993.5,"uv_index":7.65,"wind_gusts":36.4,"aqi":625,"pm10":558.8,"pm2_5":83.8,"mosquito_risk":4,"arthritis_risk":5,"migraine_risk":7,"frizz_risk":1,"updated_at":"2026-04-11T21:06:41.434918+05:30"},{"city":"Chandigarh","state":"Chandigarh","latitude":30.7333,"longitude":76.7794,"temp":22.4,"humidity":57,"rain":0.0,"pressure":971.7,"uv_index":7.15,"wind_gusts":29.9,"aqi":114,"pm10":89.9,"pm2_5":39.2,"mosquito_risk":0,"arthritis_risk":5,"migraine_risk":7,"frizz_risk":0,"updated_at":"2026-04-11T21:06:41.434926+05:30"},{"city":"Srinagar","state":"Jammu and Kashmir","latitude":34.0837,"longitude":74.7973,"temp":9.6,"humidity":79,"rain":0.0,"pressure":841.1,"uv_index":7.4,"wind_gusts":14.0,"aqi":91,"pm10":44.4,"pm2_5":27.7,"mosquito_risk":3,"arthritis_risk":5,"migraine_risk":7,"frizz_risk":0,"updated_at":"2026-04-11T21:06:41.434934+05:30"},{"city":"Jammu","state":"Jammu and Kashmir","latitude":32.7266,"longitude":74.857,"temp":21.3,"humidity":64,"rain":0.0,"pressure":976.1,"uv_index":6.8,"wind_gusts":16.6,"aqi":98,"pm10":55.9,"pm2_5":31.8,"mosquito_risk":3,"arthritis_risk":5,"migraine_risk":7,"frizz_risk":0,"updated_at":"2026-04-11T21:06:41.434941+05:30"},{"city":"Amritsar","state":"Punjab","latitude":31.634,"longitude":74.8723,"temp":22.5,"humidity":61,"rain":0.0,"pressure":984.3,"uv_index":7.7,"wind_gusts":18.7,"aqi":104,"pm10":80.8,"pm2_5":36.1,"mosquito_risk":3,"arthritis_risk":5,"migraine_risk":7,"frizz_risk":0,"updated_at":"2026-04-11T21:06:41.434947+05:30"},{"city":"Ludhiana","state":"Punjab","latitude":30.901,"longitude":75.8573,"temp":24.3,"humidity":48,"rain":0.0,"pressure":982.1,"uv_index":7.35,"wind_gusts":28.8,"aqi":101,"pm10":106.9,"pm2_5":48.4,"mosquito_risk":0,"arthritis_risk":5,"migraine_risk":7,"frizz_risk":0,"updated_at":"2026-04-11T21:06:41.434954+05:30"},{"city":"Jalandhar","state":"Punjab","latitude":31.326,"longitude":75.5762,"temp":22.7,"humidity":59,"rain":0.0,"pressure":983.4,"uv_index":7.5,"wind_gusts":23.4,"aqi":101,"pm10":89.2,"pm2_5":36.7,"mosquito_risk":0,"arthritis_risk":5,"migraine_risk":7,"frizz_risk":0,"updated_at":"2026-04-11T21:06:41.434962+05:30"},{"city":"Dehradun","state":"Uttarakhand","latitude":30.6284,"longitude":78.0322,"temp":13.6,"humidity":68,"rain":0.0,"pressure":830.8,"uv_index":7.55,"wind_gusts":42.5,"aqi":96,"pm10":74.5,"pm2_5":18.3,"mosquito_risk":3,"arthritis_risk":5,"migraine_risk":7,"frizz_risk":0,"updated_at":"2026-04-11T21:06:41.434968+05:30"},{"city":"Shimla","state":"Himachal Pradesh","latitude":31.1048,"longitude":77.1734,"temp":11.5,"humidity":68,"rain":0.0,"pressure":784.8,"uv_index":7.5,"wind_gusts":46.4,"aqi":96,"pm10":78.7,"pm2_5":23.9,"mosquito_risk":3,"arthritis_risk":5,"migraine_risk":7,"frizz_risk":0,"updated_at":"2026-04-11T21:06:41.434975+05:30"},{"city":"Manali","state":"Himachal Pradesh","latitude":32.2396,"longitude":77.1887,"temp":12.5,"humidity":86,"rain":0.0,"pressure":820.0,"uv_index":8.5,"wind_gusts":29.5,"aqi":136,"pm10":25.1,"pm2_5":8.4,"mosquito_risk":3,"arthritis_risk":10,"migraine_risk":7,"frizz_risk":0,"updated_at":"2026-04-11T21:06:41.434983+05:30"},{"city":"Gurgaon","state":"Haryana","latitude":28.4595,"longitude":77.0266,"temp":26.0,"humidity":52,"rain":0.0,"pressure":983.4,"uv_index":7.3,"wind_gusts":26.3,"aqi":1417,"pm10":895.9,"pm2_5":124.8,"mosquito_risk":4,"arthritis_risk":5,"migraine_risk":7,"frizz_risk":0,"updated_at":"2026-04-11T21:06:41.434990+05:30"},{"city":"Noida","state":"Uttar Pradesh","latitude":28.5355,"longitude":77.391,"temp":26.7,"humidity":50,"rain":0.0,"pressure":986.5,"uv_index":7.2,"wind_gusts":31.3,"aqi":1417,"pm10":895.9,"pm2_5":124.8,"mosquito_risk":4,"arthritis_risk":5,"migraine_risk":7,"frizz_risk":0,"updated_at":"2026-04-11T21:06:41.434997+05:30"},{"city":"Ghaziabad","state":"Uttar Pradesh","latitude":28.6692,"longitude":77.4538,"temp":25.8,"humidity":55,"rain":0.0,"pressure":984.6,"uv_index":7.15,"wind_gusts":29.9,"aqi":411,"pm10":401.4,"pm2_5":77.5,"mosquito_risk":4,"arthritis_risk":5,"migraine_risk":7,"frizz_risk":1,"updated_at":"2026-04-11T21:06:41.435003+05:30"},{"city":"Faridabad","state":"Haryana","latitude":28.4089,"longitude":77.3178,"temp":26.3,"humidity":52,"rain":0.0,"pressure":985.9,"uv_index":7.25,"wind_gusts":31.0,"aqi":1417,"pm10":895.9,"pm2_5":124.8,"mosquito_risk":4,"arthritis_risk":5,"migraine_risk":7,"frizz_risk":0,"updated_at":"2026-04-11T21:06:41.435010+05:30"},{"city":"Meerut","state":"Uttar Pradesh","latitude":28.9845,"longitude":77.7064,"temp":24.2,"humidity":57,"rain":0.0,"pressure":983.5,"uv_index":7.05,"wind_gusts":34.2,"aqi":411,"pm10":401.4,"pm2_5":77.5,"mosquito_risk":0,"arthritis_risk":5,"migraine_risk":7,"frizz_risk":0,"updated_at":"2026-04-11T21:06:41.435016+05:30"},{"city":"Agra","state":"Uttar Pradesh","latitude":27.1767,"longitude":78.0081,"temp":27.7,"humidity":44,"rain":0.0,"pressure":989.5,"uv_index":7.55,"wind_gusts":28.8,"aqi":901,"pm10":868.0,"pm2_5":111.3,"mosquito_risk":4,"arthritis_risk":5,"migraine_risk":7,"frizz_risk":0,"updated_at":"2026-04-11T21:06:41.435022+05:30"},{"city":"Varanasi","state":"Uttar Pradesh","latitude":25.3176,"longitude":82.9739,"temp":27.8,"humidity":41,"rain":0.0,"pressure":998.9,"uv_index":8.25,"wind_gusts":37.8,"aqi":122,"pm10":93.1,"pm2_5":39.7,"mosquito_risk":4,"arthritis_risk":5,"migraine_risk":7,"frizz_risk":0,"updated_at":"2026-04-11T21:06:41.435031+05:30"},{"city":"Prayagraj","state":"Uttar Pradesh","latitude":25.4358,"longitude":81.8463,"temp":28.0,"humidity":38,"rain":0.0,"pressure":997.8,"uv_index":8.15,"wind_gusts":39.2,"aqi":132,"pm10":158.8,"pm2_5":48.0,"mosquito_risk":4,"arthritis_risk":5,"migraine_risk":7,"frizz_risk":0,"updated_at":"2026-04-11T21:06:41.435039+05:30"},{"city":"Gorakhpur","state":"Uttar Pradesh","latitude":26.7606,"longitude":83.3732,"temp":27.4,"humidity":36,"rain":0.0,"pressure":997.8,"uv_index":8.1,"wind_gusts":29.2,"aqi":139,"pm10":69.6,"pm2_5":30.0,"mosquito_risk":4,"arthritis_risk":5,"migraine_risk":7,"frizz_risk":0,"updated_at":"2026-04-11T21:06:41.435047+05:30"},{"city":"Bareilly","state":"Uttar Pradesh","latitude":28.367,"longitude":79.4304,"temp":24.4,"humidity":55,"rain":0.0,"pressure":988.4,"uv_index":7.45,"wind_gusts":46.4,"aqi":101,"pm10":71.7,"pm2_5":29.2,"mosquito_risk":0,"arthritis_risk":5,"migraine_risk":7,"frizz_risk":0,"updated_at":"2026-04-11T21:06:41.435075+05:30"},{"city":"Aligarh","state":"Uttar Pradesh","latitude":27.8974,"longitude":78.088,"temp":24.8,"humidity":49,"rain":0.0,"pressure":987.5,"uv_index":7.35,"wind_gusts":37.1,"aqi":956,"pm10":700.4,"pm2_5":114.3,"mosquito_risk":0,"arthritis_risk":5,"migraine_risk":7,"frizz_risk":0,"updated_at":"2026-04-11T21:06:41.435082+05:30"},{"city":"Moradabad","state":"Uttar Pradesh","latitude":28.8386,"longitude":78.7733,"temp":24.4,"humidity":59,"rain":0.0,"pressure":985.5,"uv_index":7.3,"wind_gusts":41.4,"aqi":101,"pm10":151.3,"pm2_5":45.4,"mosquito_risk":0,"arthritis_risk":5,"migraine_risk":7,"frizz_risk":0,"updated_at":"2026-04-11T21:06:41.435091+05:30"},{"city":"Saharanpur","state":"Uttar Pradesh","latitude":29.9637,"longitude":77.546,"temp":23.2,"humidity":54,"rain":0.0,"pressure":978.3,"uv_index":6.85,"wind_gusts":35.3,"aqi":99,"pm10":108.0,"pm2_5":37.7,"mosquito_risk":0,"arthritis_risk":5,"migraine_risk":7,"frizz_risk":0,"updated_at":"2026-04-11T21:06:41.435098+05:30"},{"city":"Jhansi","state":"Uttar Pradesh","latitude":25.4484,"longitude":78.5685,"temp":29.1,"humidity":36,"rain":0.0,"pressure":979.9,"uv_index":8.1,"wind_gusts":25.6,"aqi":109,"pm10":34.7,"pm2_5":17.3,"mosquito_risk":4,"arthritis_risk":5,"migraine_risk":7,"frizz_risk":0,"updated_at":"2026-04-11T21:06:44.781956+05:30"},{"city":"Surat","state":"Gujarat","latitude":21.1702,"longitude":72.8311,"temp":30.0,"humidity":47,"rain":0.0,"pressure":1007.4,"uv_index":7.8,"wind_gusts":27.7,"aqi":153,"pm10":80.1,"pm2_5":74.5,"mosquito_risk":4,"arthritis_risk":5,"migraine_risk":4,"frizz_risk":1,"updated_at":"2026-04-11T21:06:44.781988+05:30"},{"city":"Vadodara","state":"Gujarat","latitude":22.3072,"longitude":73.1812,"temp":31.2,"humidity":34,"rain":0.0,"pressure":1004.7,"uv_index":8.05,"wind_gusts":18.4,"aqi":174,"pm10":51.5,"pm2_5":43.2,"mosquito_risk":0,"arthritis_risk":5,"migraine_risk":4,"frizz_risk":0,"updated_at":"2026-04-11T21:06:44.781998+05:30"},{"city":"Rajkot","state":"Gujarat","latitude":22.3039,"longitude":70.8022,"temp":29.9,"humidity":35,"rain":0.0,"pressure":996.4,"uv_index":7.75,"wind_gusts":31.3,"aqi":116,"pm10":67.5,"pm2_5":27.0,"mosquito_risk":4,"arthritis_risk":5,"migraine_risk":7,"frizz_risk":0,"updated_at":"2026-04-11T21:06:44.782006+05:30"},{"city":"Thane","state":"Maharashtra","latitude":19.2183,"longitude":72.9781,"temp":28.1,"humidity":71,"rain":0.0,"pressure":1008.9,"uv_index":7.95,"wind_gusts":37.1,"aqi":167,"pm10":38.9,"pm2_5":31.7,"mosquito_risk":7,"arthritis_risk":0,"migraine_risk":4,"frizz_risk":1,"updated_at":"2026-04-11T21:06:44.782013+05:30"},{"city":"Nagpur","state":"Maharashtra","latitude":21.1458,"longitude":79.0882,"temp":29.1,"humidity":45,"rain":0.0,"pressure":974.7,"uv_index":8.75,"wind_gusts":22.7,"aqi":148,"pm10":33.5,"pm2_5":27.7,"mosquito_risk":4,"arthritis_risk":5,"migraine_risk":7,"frizz_risk":0,"updated_at":"2026-04-11T21:06:44.782021+05:30"},{"city":"Nashik","state":"Maharashtra","latitude":19.9975,"longitude":73.7898,"temp":28.5,"humidity":45,"rain":0.0,"pressure":947.4,"uv_index":8.25,"wind_gusts":36.7,"aqi":177,"pm10":35.9,"pm2_5":30.7,"mosquito_risk":4,"arthritis_risk":5,"migraine_risk":7,"frizz_risk":0,"updated_at":"2026-04-11T21:06:44.782028+05:30"},{"city":"Aurangabad","state":"Maharashtra","latitude":19.8762,"longitude":75.3433,"temp":31.0,"humidity":29,"rain":0.0,"pressure":945.6,"uv_index":8.9,"wind_gusts":33.1,"aqi":135,"pm10":27.9,"pm2_5":20.5,"mosquito_risk":0,"arthritis_risk":5,"migraine_risk":7,"frizz_risk":0,"updated_at":"2026-04-11T21:06:44.782036+05:30"},{"city":"Solapur","state":"Maharashtra","latitude":17.6599,"longitude":75.9064,"temp":34.3,"humidity":28,"rain":0.0,"pressure":957.5,"uv_index":9.0,"wind_gusts":18.7,"aqi":157,"pm10":49.6,"pm2_5":36.8,"mosquito_risk":0,"arthritis_risk":5,"migraine_risk":7,"frizz_risk":0,"updated_at":"2026-04-11T21:06:44.782043+05:30"},{"city":"Kolhapur","state":"Maharashtra","latitude":16.705,"longitude":74.2433,"temp":25.8,"humidity":61,"rain":0.0,"pressure":949.3,"uv_index":8.5,"wind_gusts":42.5,"aqi":143,"pm10":37.0,"pm2_5":31.1,"mosquito_risk":7,"arthritis_risk":5,"migraine_risk":7,"frizz_risk":1,"updated_at":"2026-04-11T21:06:44.782050+05:30"},{"city":"Goa","state":"Goa","latitude":15.2993,"longitude":74.124,"temp":28.5,"humidity":76,"rain":0.0,"pressure":999.8,"uv_index":9.05,"wind_gusts":34.9,"aqi":107,"pm10":70.1,"pm2_5":32.2,"mosquito_risk":7,"arthritis_risk":5,"migraine_risk":7,"frizz_risk":1,"updated_at":"2026-04-11T21:06:44.782080+05:30"},{"city":"Jodhpur","state":"Rajasthan","latitude":26.2389,"longitude":73.0243,"temp":30.1,"humidity":35,"rain":0.0,"pressure":984.4,"uv_index":8.05,"wind_gusts":33.1,"aqi":92,"pm10":256.1,"pm2_5":48.4,"mosquito_risk":0,"arthritis_risk":5,"migraine_risk":7,"frizz_risk":0,"updated_at":"2026-04-11T21:06:44.782087+05:30"},{"city":"Udaipur","state":"Rajasthan","latitude":24.5854,"longitude":73.7125,"temp":28.5,"humidity":35,"rain":0.0,"pressure":948.7,"uv_index":8.6,"wind_gusts":36.4,"aqi":114,"pm10":25.1,"pm2_5":14.8,"mosquito_risk":4,"arthritis_risk":5,"migraine_risk":7,"frizz_risk":0,"updated_at":"2026-04-11T21:06:44.782095+05:30"},{"city":"Kota","state":"Rajasthan","latitude":25.2138,"longitude":75.8648,"temp":27.8,"humidity":49,"rain":0.0,"pressure":980.1,"uv_index":8.1,"wind_gusts":21.6,"aqi":127,"pm10":39.8,"pm2_5":29.6,"mosquito_risk":4,"arthritis_risk":5,"migraine_risk":7,"frizz_risk":1,"updated_at":"2026-04-11T21:06:44.782101+05:30"},{"city":"Bikaner","state":"Rajasthan","latitude":28.0229,"longitude":73.3119,"temp":30.1,"humidity":30,"rain":0.0,"pressure":984.0,"uv_index":7.9,"wind_gusts":32.8,"aqi":109,"pm10":74.0,"pm2_5":23.1,"mosquito_risk":0,"arthritis_risk":5,"migraine_risk":7,"frizz_risk":0,"updated_at":"2026-04-11T21:06:44.782108+05:30"},{"city":"Ajmer","state":"Rajasthan","latitude":26.4499,"longitude":74.6399,"temp":26.4,"humidity":44,"rain":0.0,"pressure":955.9,"uv_index":8.0,"wind_gusts":40.3,"aqi":112,"pm10":68.0,"pm2_5":22.9,"mosquito_risk":4,"arthritis_risk":5,"migraine_risk":7,"frizz_risk":0,"updated_at":"2026-04-11T21:06:44.782115+05:30"},{"city":"Gwalior","state":"Madhya Pradesh","latitude":26.2183,"longitude":78.1828,"temp":28.1,"humidity":46,"rain":0.0,"pressure":984.8,"uv_index":7.8,"wind_gusts":30.6,"aqi":115,"pm10":41.6,"pm2_5":22.0,"mosquito_risk":4,"arthritis_risk":5,"migraine_risk":7,"frizz_risk":0,"updated_at":"2026-04-11T21:06:44.782121+05:30"},{"city":"Indore","state":"Madhya Pradesh","latitude":22.7196,"longitude":75.8577,"temp":26.5,"humidity":41,"rain":0.0,"pressure":949.8,"uv_index":8.5,"wind_gusts":21.6,"aqi":146,"pm10":50.6,"pm2_5":39.7,"mosquito_risk":4,"arthritis_risk":5,"migraine_risk":7,"frizz_risk":0,"updated_at":"2026-04-11T21:06:44.782128+05:30"},{"city":"Bhopal","state":"Madhya Pradesh","latitude":23.2599,"longitude":77.4126,"temp":29.2,"humidity":28,"rain":0.0,"pressure":955.4,"uv_index":8.5,"wind_gusts":24.5,"aqi":114,"pm10":34.0,"pm2_5":19.0,"mosquito_risk":4,"arthritis_risk":5,"migraine_risk":7,"frizz_risk":0,"updated_at":"2026-04-11T21:06:44.782135+05:30"},{"city":"Jabalpur","state":"Madhya Pradesh","latitude":23.1815,"longitude":79.9864,"temp":29.3,"humidity":34,"rain":0.0,"pressure":963.1,"uv_index":8.6,"wind_gusts":18.4,"aqi":116,"pm10":67.1,"pm2_5":32.9,"mosquito_risk":4,"arthritis_risk":5,"migraine_risk":7,"frizz_risk":0,"updated_at":"2026-04-11T21:06:44.782141+05:30"},{"city":"Ujjain","state":"Madhya Pradesh","latitude":23.1765,"longitude":75.7885,"temp":27.3,"humidity":40,"rain":0.0,"pressure":955.7,"uv_index":8.4,"wind_gusts":20.5,"aqi":129,"pm10":61.9,"pm2_5":50.2,"mosquito_risk":4,"arthritis_risk":5,"migraine_risk":7,"frizz_risk":0,"updated_at":"2026-04-11T21:06:44.782148+05:30"},{"city":"Visakhapatnam","state":"Andhra Pradesh","latitude":17.6868,"longitude":83.2185,"temp":28.3,"humidity":85,"rain":0.0,"pressure":1005.6,"uv_index":9.15,"wind_gusts":39.6,"aqi":77,"pm10":27.6,"pm2_5":21.3,"mosquito_risk":7,"arthritis_risk":5,"migraine_risk":4,"frizz_risk":1,"updated_at":"2026-04-11T21:06:44.782155+05:30"},{"city":"Vijayawada","state":"Andhra Pradesh","latitude":16.5062,"longitude":80.648,"temp":30.3,"humidity":63,"rain":0.0,"pressure":1003.7,"uv_index":9.2,"wind_gusts":25.6,"aqi":87,"pm10":21.8,"pm2_5":18.3,"mosquito_risk":3,"arthritis_risk":5,"migraine_risk":4,"frizz_risk":1,"updated_at":"2026-04-11T21:06:44.782163+05:30"},{"city":"Guntur","state":"Andhra Pradesh","latitude":16.3067,"longitude":80.4365,"temp":28.7,"humidity":76,"rain":0.0,"pressure":1005.2,"uv_index":9.25,"wind_gusts":33.5,"aqi":109,"pm10":28.9,"pm2_5":24.7,"mosquito_risk":7,"arthritis_risk":5,"migraine_risk":4,"frizz_risk":1,"updated_at":"2026-04-11T21:06:44.782169+05:30"},{"city":"Nellore","state":"Andhra Pradesh","latitude":14.4426,"longitude":79.9865,"temp":28.5,"humidity":85,"rain":0.0,"pressure":1007.4,"uv_index":9.3,"wind_gusts":40.7,"aqi":70,"pm10":16.4,"pm2_5":11.6,"mosquito_risk":7,"arthritis_risk":5,"migraine_risk":4,"frizz_risk":1,"updated_at":"2026-04-11T21:06:44.782177+05:30"},{"city":"Kurnool","state":"Andhra Pradesh","latitude":15.8281,"longitude":78.0373,"temp":35.3,"humidity":39,"rain":0.0,"pressure":976.7,"uv_index":9.2,"wind_gusts":27.0,"aqi":122,"pm10":34.6,"pm2_5":27.1,"mosquito_risk":0,"arthritis_risk":5,"migraine_risk":10,"frizz_risk":1,"updated_at":"2026-04-11T21:06:44.782185+05:30"},{"city":"Kakinada","state":"Andhra Pradesh","latitude":16.9891,"longitude":82.2475,"temp":28.5,"humidity":84,"rain":0.0,"pressure":1009.1,"uv_index":9.2,"wind_gusts":33.8,"aqi":60,"pm10":21.7,"pm2_5":14.2,"mosquito_risk":7,"arthritis_risk":0,"migraine_risk":4,"frizz_risk":1,"updated_at":"2026-04-11T21:06:44.782192+05:30"},{"city":"Tirupati","state":"Andhra Pradesh","latitude":13.6288,"longitude":79.4192,"temp":29.6,"humidity":68,"rain":0.0,"pressure":993.5,"uv_index":9.4,"wind_gusts":32.0,"aqi":94,"pm10":25.0,"pm2_5":21.9,"mosquito_risk":7,"arthritis_risk":5,"migraine_risk":7,"frizz_risk":1,"updated_at":"2026-04-11T21:06:44.782199+05:30"},{"city":"Warangal","state":"Telangana","latitude":17.9689,"longitude":79.5941,"temp":32.5,"humidity":40,"rain":0.0,"pressure":979.5,"uv_index":9.05,"wind_gusts":25.2,"aqi":157,"pm10":49.8,"pm2_5":39.7,"mosquito_risk":0,"arthritis_risk":5,"migraine_risk":7,"frizz_risk":1,"updated_at":"2026-04-11T21:06:44.782205+05:30"},{"city":"Nizamabad","state":"Telangana","latitude":18.6725,"longitude":78.0941,"temp":31.4,"humidity":45,"rain":0.0,"pressure":965.9,"uv_index":9.0,"wind_gusts":24.8,"aqi":161,"pm10":58.8,"pm2_5":46.1,"mosquito_risk":0,"arthritis_risk":5,"migraine_risk":7,"frizz_risk":1,"updated_at":"2026-04-11T21:06:44.782211+05:30"},{"city":"Mysore","state":"Karnataka","latitude":12.2958,"longitude":76.6396,"temp":26.8,"humidity":71,"rain":0.0,"pressure":929.9,"uv_index":9.35,"wind_gusts":38.9,"aqi":115,"pm10":53.2,"pm2_5":43.1,"mosquito_risk":7,"arthritis_risk":5,"migraine_risk":7,"frizz_risk":1,"updated_at":"2026-04-11T21:06:44.782218+05:30"},{"city":"Mangalore","state":"Karnataka","latitude":12.9141,"longitude":74.856,"temp":29.6,"humidity":81,"rain":0.0,"pressure":1008.0,"uv_index":8.6,"wind_gusts":25.9,"aqi":88,"pm10":71.0,"pm2_5":30.2,"mosquito_risk":7,"arthritis_risk":0,"migraine_risk":4,"frizz_risk":1,"updated_at":"2026-04-11T21:06:44.782225+05:30"},{"city":"Hubli-Dharwad","state":"Karnataka","latitude":15.3647,"longitude":75.124,"temp":25.8,"humidity":79,"rain":0.0,"pressure":942.2,"uv_index":9.25,"wind_gusts":42.5,"aqi":163,"pm10":42.1,"pm2_5":27.4,"mosquito_risk":7,"arthritis_risk":5,"migraine_risk":7,"frizz_risk":1,"updated_at":"2026-04-11T21:06:44.782231+05:30"},{"city":"Belgaum","state":"Karnataka","latitude":15.8497,"longitude":74.4977,"temp":24.3,"humidity":83,"rain":0.0,"pressure":927.1,"uv_index":9.3,"wind_gusts":43.9,"aqi":151,"pm10":44.0,"pm2_5":28.8,"mosquito_risk":3,"arthritis_risk":5,"migraine_risk":7,"frizz_risk":1,"updated_at":"2026-04-11T21:06:48.122575+05:30"},{"city":"Coimbatore","state":"Tamil Nadu","latitude":11.0168,"longitude":76.9558,"temp":27.5,"humidity":76,"rain":0.0,"pressure":963.0,"uv_index":8.2,"wind_gusts":46.1,"aqi":106,"pm10":44.1,"pm2_5":37.4,"mosquito_risk":7,"arthritis_risk":5,"migraine_risk":7,"frizz_risk":1,"updated_at":"2026-04-11T21:06:48.122612+05:30"},{"city":"Madurai","state":"Tamil Nadu","latitude":9.9252,"longitude":78.1198,"temp":30.0,"humidity":65,"rain":0.0,"pressure":994.7,"uv_index":8.45,"wind_gusts":40.0,"aqi":84,"pm10":29.9,"pm2_5":25.6,"mosquito_risk":7,"arthritis_risk":5,"migraine_risk":7,"frizz_risk":1,"updated_at":"2026-04-11T21:06:48.122626+05:30"},{"city":"Trichy","state":"Tamil Nadu","latitude":10.7905,"longitude":78.7047,"temp":30.2,"humidity":69,"rain":0.0,"pressure":1000.9,"uv_index":9.4,"wind_gusts":27.7,"aqi":85,"pm10":24.6,"pm2_5":21.7,"mosquito_risk":3,"arthritis_risk":5,"migraine_risk":4,"frizz_risk":1,"updated_at":"2026-04-11T21:06:48.122637+05:30"},{"city":"Salem","state":"Tamil Nadu","latitude":11.6643,"longitude":78.146,"temp":31.8,"humidity":47,"rain":0.0,"pressure":978.0,"uv_index":9.1,"wind_gusts":21.6,"aqi":112,"pm10":30.6,"pm2_5":25.8,"mosquito_risk":0,"arthritis_risk":5,"migraine_risk":7,"frizz_risk":1,"updated_at":"2026-04-11T21:06:48.122647+05:30"},{"city":"Tirunelveli","state":"Tamil Nadu","latitude":8.7139,"longitude":77.7567,"temp":30.2,"humidity":64,"rain":0.0,"pressure":1004.5,"uv_index":9.25,"wind_gusts":46.1,"aqi":100,"pm10":23.6,"pm2_5":20.3,"mosquito_risk":3,"arthritis_risk":5,"migraine_risk":4,"frizz_risk":1,"updated_at":"2026-04-11T21:06:48.122658+05:30"},{"city":"Vellore","state":"Tamil Nadu","latitude":12.9165,"longitude":79.1325,"temp":29.7,"humidity":62,"rain":0.0,"pressure":986.1,"uv_index":9.45,"wind_gusts":35.3,"aqi":101,"pm10":30.5,"pm2_5":27.3,"mosquito_risk":7,"arthritis_risk":5,"migraine_risk":7,"frizz_risk":1,"updated_at":"2026-04-11T21:06:48.122668+05:30"},{"city":"Erode","state":"Tamil Nadu","latitude":11.341,"longitude":77.7172,"temp":33.0,"humidity":44,"rain":0.0,"pressure":989.4,"uv_index":8.95,"wind_gusts":31.0,"aqi":112,"pm10":28.7,"pm2_5":23.9,"mosquito_risk":0,"arthritis_risk":5,"migraine_risk":7,"frizz_risk":1,"updated_at":"2026-04-11T21:06:48.122681+05:30"},{"city":"Kochi","state":"Kerala","latitude":9.9312,"longitude":76.2673,"temp":29.6,"humidity":82,"rain":0.0,"pressure":1009.6,"uv_index":8.8,"wind_gusts":29.9,"aqi":67,"pm10":34.1,"pm2_5":22.8,"mosquito_risk":7,"arthritis_risk":0,"migraine_risk":4,"frizz_risk":1,"updated_at":"2026-04-11T21:06:48.122691+05:30"},{"city":"Thiruvananthapuram","state":"Kerala","latitude":8.5241,"longitude":76.9366,"temp":29.2,"humidity":81,"rain":0.0,"pressure":1009.4,"uv_index":7.6,"wind_gusts":36.4,"aqi":74,"pm10":32.4,"pm2_5":17.4,"mosquito_risk":7,"arthritis_risk":0,"migraine_risk":4,"frizz_risk":1,"updated_at":"2026-04-11T21:06:48.122699+05:30"},{"city":"Kozhikode","state":"Kerala","latitude":11.2588,"longitude":75.7804,"temp":30.0,"humidity":81,"rain":0.0,"pressure":1008.7,"uv_index":8.75,"wind_gusts":28.8,"aqi":60,"pm10":39.0,"pm2_5":16.5,"mosquito_risk":7,"arthritis_risk":0,"migraine_risk":4,"frizz_risk":1,"updated_at":"2026-04-11T21:06:48.122707+05:30"},{"city":"Thrissur","state":"Kerala","latitude":10.5276,"longitude":76.2144,"temp":29.1,"humidity":82,"rain":0.0,"pressure":1008.0,"uv_index":8.8,"wind_gusts":31.7,"aqi":66,"pm10":31.1,"pm2_5":19.6,"mosquito_risk":7,"arthritis_risk":0,"migraine_risk":4,"frizz_risk":1,"updated_at":"2026-04-11T21:06:48.122716+05:30"},{"city":"Kannur","state":"Kerala","latitude":11.8745,"longitude":75.3704,"temp":29.6,"humidity":79,"rain":0.0,"pressure":1008.2,"uv_index":8.65,"wind_gusts":31.3,"aqi":66,"pm10":63.1,"pm2_5":32.4,"mosquito_risk":7,"arthritis_risk":0,"migraine_risk":4,"frizz_risk":1,"updated_at":"2026-04-11T21:06:48.122724+05:30"},{"city":"Patna","state":"Bihar","latitude":25.5941,"longitude":85.1376,"temp":28.0,"humidity":42,"rain":0.0,"pressure":1000.6,"uv_index":8.45,"wind_gusts":28.4,"aqi":129,"pm10":106.6,"pm2_5":56.9,"mosquito_risk":4,"arthritis_risk":5,"migraine_risk":4,"frizz_risk":0,"updated_at":"2026-04-11T21:06:48.122732+05:30"},{"city":"Gaya","state":"Bihar","latitude":24.7914,"longitude":85.0002,"temp":26.9,"humidity":38,"rain":0.0,"pressure":994.7,"uv_index":8.5,"wind_gusts":33.5,"aqi":116,"pm10":78.5,"pm2_5":37.1,"mosquito_risk":4,"arthritis_risk":5,"migraine_risk":7,"frizz_risk":0,"updated_at":"2026-04-11T21:06:48.122739+05:30"},{"city":"Muzaffarpur","state":"Bihar","latitude":26.1209,"longitude":85.3647,"temp":25.6,"humidity":48,"rain":0.0,"pressure":1000.9,"uv_index":8.4,"wind_gusts":16.2,"aqi":125,"pm10":123.9,"pm2_5":65.9,"mosquito_risk":4,"arthritis_risk":5,"migraine_risk":4,"frizz_risk":0,"updated_at":"2026-04-11T21:06:48.122747+05:30"},{"city":"Bhagalpur","state":"Bihar","latitude":25.2425,"longitude":87.0117,"temp":25.2,"humidity":61,"rain":0.0,"pressure":1001.8,"uv_index":8.45,"wind_gusts":20.5,"aqi":148,"pm10":324.1,"pm2_5":79.4,"mosquito_risk":7,"arthritis_risk":5,"migraine_risk":4,"frizz_risk":1,"updated_at":"2026-04-11T21:06:48.122754+05:30"},{"city":"Ranchi","state":"Jharkhand","latitude":23.3441,"longitude":85.3096,"temp":23.9,"humidity":35,"rain":0.0,"pressure":939.7,"uv_index":9.05,"wind_gusts":31.7,"aqi":114,"pm10":76.8,"pm2_5":26.5,"mosquito_risk":0,"arthritis_risk":5,"migraine_risk":7,"frizz_risk":0,"updated_at":"2026-04-11T21:06:48.122762+05:30"},{"city":"Jamshedpur","state":"Jharkhand","latitude":22.8046,"longitude":86.2029,"temp":25.9,"humidity":61,"rain":0.0,"pressure":992.2,"uv_index":8.85,"wind_gusts":14.8,"aqi":129,"pm10":161.6,"pm2_5":46.0,"mosquito_risk":7,"arthritis_risk":5,"migraine_risk":7,"frizz_risk":1,"updated_at":"2026-04-11T21:06:48.122769+05:30"},{"city":"Dhanbad","state":"Jharkhand","latitude":23.7957,"longitude":86.4304,"temp":28.1,"humidity":37,"rain":0.0,"pressure":980.9,"uv_index":8.8,"wind_gusts":24.5,"aqi":148,"pm10":150.4,"pm2_5":64.3,"mosquito_risk":4,"arthritis_risk":5,"migraine_risk":7,"frizz_risk":0,"updated_at":"2026-04-11T21:06:48.122777+05:30"},{"city":"Bokaro","state":"Jharkhand","latitude":23.6693,"longitude":86.1511,"temp":25.0,"humidity":43,"rain":0.0,"pressure":985.1,"uv_index":8.8,"wind_gusts":25.6,"aqi":142,"pm10":131.3,"pm2_5":54.8,"mosquito_risk":4,"arthritis_risk":5,"migraine_risk":7,"frizz_risk":0,"updated_at":"2026-04-11T21:06:48.122785+05:30"},{"city":"Bhubaneswar","state":"Odisha","latitude":20.2961,"longitude":85.8245,"temp":27.4,"humidity":90,"rain":0.0,"pressure":1004.8,"uv_index":9.0,"wind_gusts":26.3,"aqi":155,"pm10":48.7,"pm2_5":43.4,"mosquito_risk":7,"arthritis_risk":5,"migraine_risk":4,"frizz_risk":1,"updated_at":"2026-04-11T21:06:48.122793+05:30"},{"city":"Cuttack","state":"Odisha","latitude":20.4625,"longitude":85.8828,"temp":28.0,"humidity":84,"rain":0.0,"pressure":1006.5,"uv_index":9.05,"wind_gusts":20.2,"aqi":155,"pm10":48.7,"pm2_5":43.4,"mosquito_risk":7,"arthritis_risk":5,"migraine_risk":4,"frizz_risk":1,"updated_at":"2026-04-11T21:06:48.122800+05:30"},{"city":"Rourkela","state":"Odisha","latitude":22.2604,"longitude":84.8536,"temp":24.4,"humidity":68,"rain":0.0,"pressure":986.6,"uv_index":8.75,"wind_gusts":16.2,"aqi":127,"pm10":149.9,"pm2_5":50.2,"mosquito_risk":3,"arthritis_risk":5,"migraine_risk":7,"frizz_risk":1,"updated_at":"2026-04-11T21:06:48.122808+05:30"},{"city":"Raipur","state":"Chhattisgarh","latitude":21.2514,"longitude":81.6296,"temp":31.1,"humidity":32,"rain":0.0,"pressure":975.9,"uv_index":8.85,"wind_gusts":21.6,"aqi":151,"pm10":49.0,"pm2_5":33.6,"mosquito_risk":0,"arthritis_risk":5,"migraine_risk":7,"frizz_risk":0,"updated_at":"2026-04-11T21:06:48.122815+05:30"},{"city":"Bhilai","state":"Chhattisgarh","latitude":21.1938,"longitude":81.3509,"temp":29.3,"humidity":40,"rain":0.0,"pressure":976.1,"uv_index":8.85,"wind_gusts":19.8,"aqi":132,"pm10":64.0,"pm2_5":46.3,"mosquito_risk":4,"arthritis_risk":5,"migraine_risk":7,"frizz_risk":0,"updated_at":"2026-04-11T21:06:48.122822+05:30"},{"city":"Guwahati","state":"Assam","latitude":26.1158,"longitude":91.7086,"temp":25.5,"humidity":74,"rain":0.0,"pressure":1003.6,"uv_index":8.35,"wind_gusts":20.2,"aqi":117,"pm10":52.6,"pm2_5":42.1,"mosquito_risk":7,"arthritis_risk":5,"migraine_risk":4,"frizz_risk":1,"updated_at":"2026-04-11T21:06:48.122829+05:30"},{"city":"Agartala","state":"Tripura","latitude":23.8315,"longitude":91.2868,"temp":25.1,"humidity":70,"rain":0.0,"pressure":1007.8,"uv_index":8.6,"wind_gusts":21.6,"aqi":153,"pm10":44.6,"pm2_5":37.6,"mosquito_risk":7,"arthritis_risk":5,"migraine_risk":4,"frizz_risk":1,"updated_at":"2026-04-11T21:06:48.122836+05:30"},{"city":"Shillong","state":"Meghalaya","latitude":25.5788,"longitude":91.8933,"temp":12.7,"humidity":80,"rain":0.0,"pressure":856.2,"uv_index":8.75,"wind_gusts":52.2,"aqi":142,"pm10":55.6,"pm2_5":41.3,"mosquito_risk":3,"arthritis_risk":5,"migraine_risk":7,"frizz_risk":0,"updated_at":"2026-04-11T21:06:48.122844+05:30"},{"city":"Imphal","state":"Manipur","latitude":24.817,"longitude":93.9368,"temp":16.6,"humidity":77,"rain":0.0,"pressure":924.7,"uv_index":8.95,"wind_gusts":52.2,"aqi":114,"pm10":49.8,"pm2_5":36.2,"mosquito_risk":3,"arthritis_risk":5,"migraine_risk":7,"frizz_risk":0,"updated_at":"2026-04-11T21:06:48.122852+05:30"},{"city":"Aizawl","state":"Mizoram","latitude":23.7271,"longitude":92.7176,"temp":18.1,"humidity":73,"rain":0.0,"pressure":894.1,"uv_index":8.8,"wind_gusts":41.8,"aqi":116,"pm10":53.7,"pm2_5":37.4,"mosquito_risk":3,"arthritis_risk":5,"migraine_risk":7,"frizz_risk":0,"updated_at":"2026-04-11T21:06:48.122859+05:30"},{"city":"Kohima","state":"Nagaland","latitude":25.6701,"longitude":94.1077,"temp":14.0,"humidity":79,"rain":0.0,"pressure":855.4,"uv_index":7.6,"wind_gusts":65.9,"aqi":112,"pm10":44.5,"pm2_5":31.5,"mosquito_risk":3,"arthritis_risk":5,"migraine_risk":7,"frizz_risk":0,"updated_at":"2026-04-11T21:06:48.122867+05:30"},{"city":"Gangtok","state":"Sikkim","latitude":27.3314,"longitude":88.6138,"temp":12.9,"humidity":94,"rain":0.0,"pressure":837.2,"uv_index":8.55,"wind_gusts":18.4,"aqi":103,"pm10":38.2,"pm2_5":33.8,"mosquito_risk":3,"arthritis_risk":10,"migraine_risk":7,"frizz_risk":0,"updated_at":"2026-04-11T21:06:48.122874+05:30"},{"city":"Siliguri","state":"West Bengal","latitude":26.7271,"longitude":88.3953,"temp":20.1,"humidity":66,"rain":0.0,"pressure":995.6,"uv_index":8.2,"wind_gusts":18.0,"aqi":115,"pm10":63.1,"pm2_5":48.3,"mosquito_risk":3,"arthritis_risk":5,"migraine_risk":7,"frizz_risk":0,"updated_at":"2026-04-11T21:06:51.466518+05:30"},{"city":"Durgapur","state":"West Bengal","latitude":23.5204,"longitude":87.3119,"temp":25.5,"humidity":56,"rain":0.0,"pressure":995.9,"uv_index":8.75,"wind_gusts":20.9,"aqi":142,"pm10":231.0,"pm2_5":83.6,"mosquito_risk":4,"arthritis_risk":5,"migraine_risk":7,"frizz_risk":0,"updated_at":"2026-04-11T21:06:51.466550+05:30"},{"city":"Asansol","state":"West Bengal","latitude":23.6739,"longitude":86.9524,"temp":26.8,"humidity":48,"rain":0.0,"pressure":994.5,"uv_index":8.75,"wind_gusts":22.7,"aqi":130,"pm10":175.6,"pm2_5":62.9,"mosquito_risk":4,"arthritis_risk":5,"migraine_risk":7,"frizz_risk":0,"updated_at":"2026-04-11T21:06:51.466561+05:30"},{"city":"Pondicherry","state":"Puducherry","latitude":11.9139,"longitude":79.8145,"temp":28.1,"humidity":89,"rain":0.0,"pressure":1009.8,"uv_index":9.35,"wind_gusts":34.9,"aqi":56,"pm10":18.0,"pm2_5":12.3,"mosquito_risk":7,"arthritis_risk":0,"migraine_risk":4,"frizz_risk":1,"updated_at":"2026-04-11T21:06:51.466569+05:30"},{"city":"Port Blair","state":"Andaman and Nicobar Islands","latitude":11.6234,"longitude":92.7265,"temp":29.0,"humidity":78,"rain":0.0,"pressure":1009.0,"uv_index":9.25,"wind_gusts":26.3,"aqi":30,"pm10":10.0,"pm2_5":6.4,"mosquito_risk":7,"arthritis_risk":0,"migraine_risk":4,"frizz_risk":1,"updated_at":"2026-04-11T21:06:51.466577+05:30"},{"city":"Haridwar","state":"Uttarakhand","latitude":29.9457,"longitude":78.1642,"temp":22.3,"humidity":59,"rain":0.0,"pressure":976.6,"uv_index":7.0,"wind_gusts":42.1,"aqi":96,"pm10":68.2,"pm2_5":28.3,"mosquito_risk":0,"arthritis_risk":5,"migraine_risk":7,"frizz_risk":0,"updated_at":"2026-04-11T21:06:51.466586+05:30"},{"city":"Rishikesh","state":"Uttarakhand","latitude":30.0869,"longitude":78.2676,"temp":20.4,"humidity":65,"rain":0.0,"pressure":969.4,"uv_index":6.9,"wind_gusts":42.1,"aqi":93,"pm10":65.7,"pm2_5":21.7,"mosquito_risk":3,"arthritis_risk":5,"migraine_risk":7,"frizz_risk":0,"updated_at":"2026-04-11T21:06:51.466594+05:30"},{"city":"Nainital","state":"Uttarakhand","latitude":29.3919,"longitude":79.4542,"temp":18.4,"humidity":43,"rain":0.0,"pressure":807.5,"uv_index":7.85,"wind_gusts":69.8,"aqi":85,"pm10":82.9,"pm2_5":24.0,"mosquito_risk":0,"arthritis_risk":5,"migraine_risk":7,"frizz_risk":0,"updated_at":"2026-04-11T21:06:51.466601+05:30"},{"city":"Mussoorie","state":"Uttarakhand","latitude":30.4599,"longitude":78.0664,"temp":14.6,"humidity":55,"rain":0.0,"pressure":803.3,"uv_index":7.45,"wind_gusts":59.8,"aqi":91,"pm10":102.9,"pm2_5":28.7,"mosquito_risk":0,"arthritis_risk":5,"migraine_risk":7,"frizz_risk":0,"updated_at":"2026-04-11T21:06:51.466609+05:30"},{"city":"Dharamshala","state":"Himachal Pradesh","latitude":32.219,"longitude":76.3234,"temp":16.4,"humidity":62,"rain":0.0,"pressure":870.5,"uv_index":7.5,"wind_gusts":30.6,"aqi":110,"pm10":34.5,"pm2_5":13.2,"mosquito_risk":3,"arthritis_risk":5,"migraine_risk":7,"frizz_risk":0,"updated_at":"2026-04-11T21:06:51.466617+05:30"},{"city":"Dalhousie","state":"Himachal Pradesh","latitude":32.5387,"longitude":75.971,"temp":13.1,"humidity":66,"rain":0.0,"pressure":804.0,"uv_index":6.7,"wind_gusts":23.4,"aqi":103,"pm10":70.3,"pm2_5":27.4,"mosquito_risk":3,"arthritis_risk":5,"migraine_risk":7,"frizz_risk":0,"updated_at":"2026-04-11T21:06:51.466625+05:30"},{"city":"Patiala","state":"Punjab","latitude":30.3398,"longitude":76.3869,"temp":23.7,"humidity":51,"rain":0.0,"pressure":981.2,"uv_index":6.95,"wind_gusts":30.6,"aqi":433,"pm10":135.0,"pm2_5":45.9,"mosquito_risk":0,"arthritis_risk":5,"migraine_risk":7,"frizz_risk":0,"updated_at":"2026-04-11T21:06:51.466633+05:30"},{"city":"Bhatinda","state":"Punjab","latitude":30.211,"longitude":74.9455,"temp":24.5,"humidity":49,"rain":0.0,"pressure":986.8,"uv_index":7.7,"wind_gusts":30.2,"aqi":127,"pm10":120.6,"pm2_5":40.3,"mosquito_risk":0,"arthritis_risk":5,"migraine_risk":7,"frizz_risk":0,"updated_at":"2026-04-11T21:06:51.466640+05:30"},{"city":"Rohtak","state":"Haryana","latitude":28.8955,"longitude":76.6066,"temp":24.9,"humidity":51,"rain":0.0,"pressure":983.8,"uv_index":7.1,"wind_gusts":25.9,"aqi":722,"pm10":616.5,"pm2_5":95.2,"mosquito_risk":0,"arthritis_risk":5,"migraine_risk":7,"frizz_risk":0,"updated_at":"2026-04-11T21:06:51.466648+05:30"},{"city":"Panipat","state":"Haryana","latitude":29.3909,"longitude":76.9635,"temp":23.9,"humidity":52,"rain":0.0,"pressure":982.6,"uv_index":6.95,"wind_gusts":29.5,"aqi":1493,"pm10":1050.5,"pm2_5":135.5,"mosquito_risk":0,"arthritis_risk":5,"migraine_risk":7,"frizz_risk":0,"updated_at":"2026-04-11T21:06:51.466655+05:30"},{"city":"Mathura","state":"Uttar Pradesh","latitude":27.4924,"longitude":77.6737,"temp":26.1,"humidity":48,"rain":0.0,"pressure":988.6,"uv_index":7.5,"wind_gusts":27.7,"aqi":936,"pm10":683.6,"pm2_5":99.4,"mosquito_risk":4,"arthritis_risk":5,"migraine_risk":7,"frizz_risk":0,"updated_at":"2026-04-11T21:06:51.466663+05:30"},{"city":"Vrindavan","state":"Uttar Pradesh","latitude":27.5823,"longitude":77.7027,"temp":25.4,"humidity":48,"rain":0.0,"pressure":989.2,"uv_index":7.45,"wind_gusts":32.0,"aqi":936,"pm10":683.6,"pm2_5":99.4,"mosquito_risk":4,"arthritis_risk":5,"migraine_risk":7,"frizz_risk":0,"updated_at":"2026-04-11T21:06:51.466671+05:30"},{"city":"Ayodhya","state":"Uttar Pradesh","latitude":26.7922,"longitude":82.1998,"temp":27.8,"humidity":35,"rain":0.0,"pressure":996.3,"uv_index":7.85,"wind_gusts":43.6,"aqi":151,"pm10":154.1,"pm2_5":39.2,"mosquito_risk":4,"arthritis_risk":5,"migraine_risk":7,"frizz_risk":0,"updated_at":"2026-04-11T21:06:51.466678+05:30"},{"city":"Ratlam","state":"Madhya Pradesh","latitude":23.3315,"longitude":75.0367,"temp":28.3,"humidity":43,"rain":0.0,"pressure":956.5,"uv_index":8.35,"wind_gusts":19.8,"aqi":123,"pm10":27.0,"pm2_5":19.6,"mosquito_risk":4,"arthritis_risk":5,"migraine_risk":7,"frizz_risk":0,"updated_at":"2026-04-11T21:06:51.466686+05:30"},{"city":"Sagar","state":"Madhya Pradesh","latitude":23.8388,"longitude":78.7378,"temp":28.5,"humidity":36,"rain":0.0,"pressure":952.0,"uv_index":8.5,"wind_gusts":27.4,"aqi":108,"pm10":50.5,"pm2_5":17.9,"mosquito_risk":4,"arthritis_risk":5,"migraine_risk":7,"frizz_risk":0,"updated_at":"2026-04-11T21:06:51.466693+05:30"},{"city":"Satna","state":"Madhya Pradesh","latitude":24.6005,"longitude":80.8322,"temp":29.8,"humidity":30,"rain":0.0,"pressure":973.5,"uv_index":8.5,"wind_gusts":28.1,"aqi":116,"pm10":67.1,"pm2_5":23.6,"mosquito_risk":4,"arthritis_risk":5,"migraine_risk":7,"frizz_risk":0,"updated_at":"2026-04-11T21:06:51.466701+05:30"},{"city":"Akola","state":"Maharashtra","latitude":20.7002,"longitude":77.0082,"temp":30.7,"humidity":30,"rain":0.0,"pressure":976.2,"uv_index":8.75,"wind_gusts":29.5,"aqi":159,"pm10":32.9,"pm2_5":24.2,"mosquito_risk":0,"arthritis_risk":5,"migraine_risk":7,"frizz_risk":0,"updated_at":"2026-04-11T21:06:51.466710+05:30"},{"city":"Amravati","state":"Maharashtra","latitude":20.9374,"longitude":77.7796,"temp":30.2,"humidity":39,"rain":0.0,"pressure":968.3,"uv_index":8.75,"wind_gusts":23.4,"aqi":164,"pm10":35.3,"pm2_5":26.5,"mosquito_risk":0,"arthritis_risk":5,"migraine_risk":7,"frizz_risk":0,"updated_at":"2026-04-11T21:06:51.466718+05:30"},{"city":"Latur","state":"Maharashtra","latitude":18.4088,"longitude":76.5604,"temp":29.3,"humidity":43,"rain":0.0,"pressure":941.2,"uv_index":9.0,"wind_gusts":20.9,"aqi":160,"pm10":30.7,"pm2_5":24.3,"mosquito_risk":4,"arthritis_risk":5,"migraine_risk":7,"frizz_risk":0,"updated_at":"2026-04-11T21:06:51.466726+05:30"},{"city":"Nanded","state":"Maharashtra","latitude":19.1383,"longitude":77.3091,"temp":32.0,"humidity":40,"rain":0.0,"pressure":969.5,"uv_index":8.9,"wind_gusts":17.3,"aqi":145,"pm10":49.1,"pm2_5":37.0,"mosquito_risk":0,"arthritis_risk":5,"migraine_risk":7,"frizz_risk":1,"updated_at":"2026-04-11T21:06:51.466733+05:30"},{"city":"Gulbarga","state":"Karnataka","latitude":17.3297,"longitude":76.8343,"temp":34.3,"humidity":29,"rain":0.0,"pressure":959.5,"uv_index":9.05,"wind_gusts":19.8,"aqi":155,"pm10":40.4,"pm2_5":31.5,"mosquito_risk":0,"arthritis_risk":5,"migraine_risk":7,"frizz_risk":0,"updated_at":"2026-04-11T21:06:51.466740+05:30"},{"city":"Bidar","state":"Karnataka","latitude":17.9104,"longitude":77.5199,"temp":31.2,"humidity":37,"rain":0.0,"pressure":937.0,"uv_index":9.05,"wind_gusts":25.2,"aqi":154,"pm10":31.3,"pm2_5":24.8,"mosquito_risk":0,"arthritis_risk":5,"migraine_risk":7,"frizz_risk":0,"updated_at":"2026-04-11T21:06:51.466747+05:30"},{"city":"Hospet","state":"Karnataka","latitude":15.2689,"longitude":76.3909,"temp":34.0,"humidity":42,"rain":0.0,"pressure":956.3,"uv_index":9.25,"wind_gusts":27.7,"aqi":180,"pm10":46.8,"pm2_5":39.8,"mosquito_risk":0,"arthritis_risk":5,"migraine_risk":7,"frizz_risk":1,"updated_at":"2026-04-11T21:06:51.466754+05:30"},{"city":"Tirupur","state":"Tamil Nadu","latitude":11.1085,"longitude":77.3411,"temp":31.0,"humidity":61,"rain":0.0,"pressure":976.1,"uv_index":8.95,"wind_gusts":32.4,"aqi":124,"pm10":43.8,"pm2_5":36.3,"mosquito_risk":3,"arthritis_risk":5,"migraine_risk":7,"frizz_risk":1,"updated_at":"2026-04-11T21:06:51.466761+05:30"},{"city":"Alappuzha","state":"Kerala","latitude":9.4981,"longitude":76.3388,"temp":29.7,"humidity":81,"rain":0.0,"pressure":1009.8,"uv_index":8.9,"wind_gusts":30.6,"aqi":72,"pm10":44.6,"pm2_5":25.7,"mosquito_risk":7,"arthritis_risk":0,"migraine_risk":4,"frizz_risk":1,"updated_at":"2026-04-11T21:06:51.466768+05:30"},{"city":"Munnar","state":"Kerala","latitude":10.0889,"longitude":77.0595,"temp":22.6,"humidity":94,"rain":0.0,"pressure":858.7,"uv_index":9.65,"wind_gusts":38.5,"aqi":77,"pm10":35.9,"pm2_5":30.9,"mosquito_risk":3,"arthritis_risk":5,"migraine_risk":7,"frizz_risk":1,"updated_at":"2026-04-11T21:06:51.466776+05:30"},{"city":"Silchar","state":"Assam","latitude":24.8333,"longitude":92.7789,"temp":24.0,"humidity":78,"rain":0.0,"pressure":1006.7,"uv_index":8.6,"wind_gusts":24.5,"aqi":138,"pm10":68.7,"pm2_5":53.8,"mosquito_risk":3,"arthritis_risk":5,"migraine_risk":4,"frizz_risk":1,"updated_at":"2026-04-11T21:06:51.466783+05:30"},{"city":"Dibrugarh","state":"Assam","latitude":27.4728,"longitude":94.912,"temp":21.9,"humidity":86,"rain":0.0,"pressure":998.6,"uv_index":8.4,"wind_gusts":25.2,"aqi":92,"pm10":57.4,"pm2_5":50.5,"mosquito_risk":3,"arthritis_risk":5,"migraine_risk":7,"frizz_risk":1,"updated_at":"2026-04-11T21:06:51.466791+05:30"}]