[{"city":"Delhi","state":"Delhi","latitude":28.6139,"longitude":77.209,"temp":24.1,"humidity":55,"rain":0.0,"pressure":990.1,"uv_index":5.7,"wind_gusts":25.2,"aqi":160,"pm10":105.7,"pm2_5":52.4,"mosquito_risk":0,"arthritis_risk":5,"migraine_risk":3,"frizz_risk":0,"updated_at":"2026-03-21T12:20:44.216692+05:30"},{"city":"Mumbai","state":"Maharashtra","latitude":19.076,"longitude":72.8777,"temp":28.3,"humidity":63,"rain":0.0,"pressure":1011.4,"uv_index":7.85,"wind_gusts":29.5,"aqi":78,"pm10":46.3,"pm2_5":24.4,"mosquito_risk":7,"arthritis_risk":0,"migraine_risk":4,"frizz_risk":1,"updated_at":"2026-03-21T12:20:44.216733+05:30"},{"city":"Bangalore","state":"Karnataka","latitude":12.9716,"longitude":77.5946,"temp":29.6,"humidity":42,"rain":0.0,"pressure":914.2,"uv_index":8.55,"wind_gusts":37.1,"aqi":90,"pm10":29.6,"pm2_5":22.9,"mosquito_risk":4,"arthritis_risk":5,"migraine_risk":7,"frizz_risk":0,"updated_at":"2026-03-21T12:20:44.216750+05:30"},{"city":"Hyderabad","state":"Telangana","latitude":17.385,"longitude":78.4867,"temp":32.8,"humidity":32,"rain":0.0,"pressure":955.9,"uv_index":8.85,"wind_gusts":24.1,"aqi":82,"pm10":23.2,"pm2_5":14.4,"mosquito_risk":0,"arthritis_risk":5,"migraine_risk":7,"frizz_risk":0,"updated_at":"2026-03-21T12:20:44.216760+05:30"},{"city":"Chennai","state":"Tamil Nadu","latitude":13.0827,"longitude":80.2707,"temp":32.8,"humidity":55,"rain":0.0,"pressure":1009.6,"uv_index":9.15,"wind_gusts":34.6,"aqi":39,"pm10":13.1,"pm2_5":8.8,"mosquito_risk":0,"arthritis_risk":0,"migraine_risk":4,"frizz_risk":1,"updated_at":"2026-03-21T12:20:44.216769+05:30"},{"city":"Kolkata","state":"West Bengal","latitude":22.5726,"longitude":88.3639,"temp":25.9,"humidity":72,"rain":0.0,"pressure":1010.6,"uv_index":7.5,"wind_gusts":25.9,"aqi":64,"pm10":9.2,"pm2_5":8.8,"mosquito_risk":7,"arthritis_risk":0,"migraine_risk":4,"frizz_risk":1,"updated_at":"2026-03-21T12:20:44.216778+05:30"},{"city":"Pune","state":"Maharashtra","latitude":18.5204,"longitude":73.8567,"temp":31.8,"humidity":30,"rain":0.0,"pressure":951.6,"uv_index":8.4,"wind_gusts":28.8,"aqi":90,"pm10":42.4,"pm2_5":16.1,"mosquito_risk":0,"arthritis_risk":5,"migraine_risk":7,"frizz_risk":0,"updated_at":"2026-03-21T12:20:44.216790+05:30"},{"city":"Ahmedabad","state":"Gujarat","latitude":23.0225,"longitude":72.5714,"temp":31.9,"humidity":30,"rain":0.0,"pressure":1007.3,"uv_index":7.7,"wind_gusts":14.0,"aqi":68,"pm10":29.1,"pm2_5":12.4,"mosquito_risk":0,"arthritis_risk":5,"migraine_risk":4,"frizz_risk":0,"updated_at":"2026-03-21T12:20:44.216798+05:30"},{"city":"Jaipur","state":"Rajasthan","latitude":26.9124,"longitude":75.7873,"temp":25.7,"humidity":52,"rain":0.0,"pressure":966.2,"uv_index":6.5,"wind_gusts":24.1,"aqi":71,"pm10":44.8,"pm2_5":17.1,"mosquito_risk":4,"arthritis_risk":5,"migraine_risk":7,"frizz_risk":0,"updated_at":"2026-03-21T12:20:44.216807+05:30"},{"city":"Lucknow","state":"Uttar Pradesh","latitude":26.8467,"longitude":80.9462,"temp":22.1,"humidity":70,"rain":0.0,"pressure":1000.6,"uv_index":6.25,"wind_gusts":24.5,"aqi":120,"pm10":54.1,"pm2_5":27.0,"mosquito_risk":3,"arthritis_risk":5,"migraine_risk":4,"frizz_risk":1,"updated_at":"2026-03-21T12:20:44.216815+05:30"},{"city":"Kanpur","state":"Uttar Pradesh","latitude":26.4499,"longitude":80.3319,"temp":23.7,"humidity":65,"rain":0.0,"pressure":998.6,"uv_index":6.7,"wind_gusts":23.8,"aqi":117,"pm10":80.1,"pm2_5":24.8,"mosquito_risk":3,"arthritis_risk":5,"migraine_risk":7,"frizz_risk":1,"updated_at":"2026-03-21T12:20:44.216822+05:30"},{"city":"Chandigarh","state":"Chandigarh","latitude":30.7333,"longitude":76.7794,"temp":23.2,"humidity":56,"rain":0.0,"pressure":975.5,"uv_index":6.35,"wind_gusts":28.8,"aqi":77,"pm10":20.4,"pm2_5":12.5,"mosquito_risk":0,"arthritis_risk":5,"migraine_risk":7,"frizz_risk":0,"updated_at":"2026-03-21T12:20:44.216830+05:30"},{"city":"Srinagar","state":"Jammu and Kashmir","latitude":34.0837,"longitude":74.7973,"temp":11.8,"humidity":63,"rain":0.0,"pressure":844.1,"uv_index":6.55,"wind_gusts":13.7,"aqi":58,"pm10":19.7,"pm2_5":17.1,"mosquito_risk":3,"arthritis_risk":5,"migraine_risk":7,"frizz_risk":0,"updated_at":"2026-03-21T12:20:44.216837+05:30"},{"city":"Jammu","state":"Jammu and Kashmir","latitude":32.7266,"longitude":74.857,"temp":21.7,"humidity":61,"rain":0.0,"pressure":979.6,"uv_index":6.8,"wind_gusts":18.7,"aqi":85,"pm10":25.9,"pm2_5":15.6,"mosquito_risk":3,"arthritis_risk":5,"migraine_risk":7,"frizz_risk":0,"updated_at":"2026-03-21T12:20:44.216844+05:30"},{"city":"Amritsar","state":"Punjab","latitude":31.634,"longitude":74.8723,"temp":23.3,"humidity":58,"rain":0.0,"pressure":988.1,"uv_index":6.2,"wind_gusts":13.7,"aqi":99,"pm10":60.5,"pm2_5":37.6,"mosquito_risk":0,"arthritis_risk":5,"migraine_risk":7,"frizz_risk":0,"updated_at":"2026-03-21T12:20:44.216850+05:30"},{"city":"Ludhiana","state":"Punjab","latitude":30.901,"longitude":75.8573,"temp":22.9,"humidity":61,"rain":0.0,"pressure":985.9,"uv_index":5.75,"wind_gusts":22.3,"aqi":131,"pm10":41.4,"pm2_5":25.5,"mosquito_risk":3,"arthritis_risk":5,"migraine_risk":3,"frizz_risk":0,"updated_at":"2026-03-21T12:20:44.216857+05:30"},{"city":"Jalandhar","state":"Punjab","latitude":31.326,"longitude":75.5762,"temp":22.4,"humidity":60,"rain":0.0,"pressure":987.1,"uv_index":6.1,"wind_gusts":18.4,"aqi":114,"pm10":45.3,"pm2_5":25.7,"mosquito_risk":0,"arthritis_risk":5,"migraine_risk":7,"frizz_risk":0,"updated_at":"2026-03-21T12:20:44.216866+05:30"},{"city":"Dehradun","state":"Uttarakhand","latitude":30.6284,"longitude":78.0322,"temp":14.8,"humidity":62,"rain":0.0,"pressure":832.7,"uv_index":6.7,"wind_gusts":22.3,"aqi":46,"pm10":3.8,"pm2_5":1.7,"mosquito_risk":3,"arthritis_risk":5,"migraine_risk":7,"frizz_risk":0,"updated_at":"2026-03-21T12:20:44.216873+05:30"},{"city":"Shimla","state":"Himachal Pradesh","latitude":31.1048,"longitude":77.1734,"temp":13.5,"humidity":58,"rain":0.0,"pressure":787.0,"uv_index":6.35,"wind_gusts":32.0,"aqi":44,"pm10":9.1,"pm2_5":3.7,"mosquito_risk":0,"arthritis_risk":5,"migraine_risk":7,"frizz_risk":0,"updated_at":"2026-03-21T12:20:44.216880+05:30"},{"city":"Manali","state":"Himachal Pradesh","latitude":32.2396,"longitude":77.1887,"temp":14.9,"humidity":41,"rain":0.0,"pressure":820.2,"uv_index":8.55,"wind_gusts":22.0,"aqi":47,"pm10":7.1,"pm2_5":3.4,"mosquito_risk":0,"arthritis_risk":5,"migraine_risk":7,"frizz_risk":0,"updated_at":"2026-03-21T12:20:44.216888+05:30"},{"city":"Gurgaon","state":"Haryana","latitude":28.4595,"longitude":77.0266,"temp":23.6,"humidity":64,"rain":0.0,"pressure":988.7,"uv_index":5.85,"wind_gusts":21.6,"aqi":165,"pm10":327.8,"pm2_5":74.0,"mosquito_risk":3,"arthritis_risk":5,"migraine_risk":3,"frizz_risk":1,"updated_at":"2026-03-21T12:20:44.216894+05:30"},{"city":"Noida","state":"Uttar Pradesh","latitude":28.5355,"longitude":77.391,"temp":24.3,"humidity":58,"rain":0.0,"pressure":991.6,"uv_index":6.0,"wind_gusts":23.8,"aqi":165,"pm10":327.8,"pm2_5":74.0,"mosquito_risk":0,"arthritis_risk":5,"migraine_risk":3,"frizz_risk":0,"updated_at":"2026-03-21T12:20:44.216901+05:30"},{"city":"Ghaziabad","state":"Uttar Pradesh","latitude":28.6692,"longitude":77.4538,"temp":23.2,"humidity":62,"rain":0.0,"pressure":989.8,"uv_index":5.7,"wind_gusts":22.7,"aqi":161,"pm10":64.0,"pm2_5":47.4,"mosquito_risk":3,"arthritis_risk":5,"migraine_risk":3,"frizz_risk":0,"updated_at":"2026-03-21T12:20:44.216907+05:30"},{"city":"Faridabad","state":"Haryana","latitude":28.4089,"longitude":77.3178,"temp":24.0,"humidity":61,"rain":0.0,"pressure":990.9,"uv_index":6.3,"wind_gusts":23.8,"aqi":165,"pm10":327.8,"pm2_5":74.0,"mosquito_risk":3,"arthritis_risk":5,"migraine_risk":7,"frizz_risk":0,"updated_at":"2026-03-21T12:20:44.216914+05:30"},{"city":"Meerut","state":"Uttar Pradesh","latitude":28.9845,"longitude":77.7064,"temp":23.2,"humidity":68,"rain":0.0,"pressure":988.5,"uv_index":6.05,"wind_gusts":23.0,"aqi":161,"pm10":64.0,"pm2_5":47.4,"mosquito_risk":3,"arthritis_risk":5,"migraine_risk":7,"frizz_risk":1,"updated_at":"2026-03-21T12:20:44.216920+05:30"},{"city":"Agra","state":"Uttar Pradesh","latitude":27.1767,"longitude":78.0081,"temp":26.4,"humidity":49,"rain":0.0,"pressure":995.0,"uv_index":6.8,"wind_gusts":29.5,"aqi":151,"pm10":348.3,"pm2_5":64.7,"mosquito_risk":4,"arthritis_risk":5,"migraine_risk":7,"frizz_risk":0,"updated_at":"2026-03-21T12:20:44.216943+05:30"},{"city":"Varanasi","state":"Uttar Pradesh","latitude":25.3176,"longitude":82.9739,"temp":22.4,"humidity":72,"rain":0.0,"pressure":1004.2,"uv_index":5.1,"wind_gusts":25.9,"aqi":97,"pm10":51.6,"pm2_5":25.7,"mosquito_risk":3,"arthritis_risk":5,"migraine_risk":0,"frizz_risk":1,"updated_at":"2026-03-21T12:20:44.216955+05:30"},{"city":"Prayagraj","state":"Uttar Pradesh","latitude":25.4358,"longitude":81.8463,"temp":22.9,"humidity":76,"rain":0.0,"pressure":1002.8,"uv_index":7.35,"wind_gusts":26.3,"aqi":98,"pm10":72.4,"pm2_5":28.5,"mosquito_risk":3,"arthritis_risk":5,"migraine_risk":4,"frizz_risk":1,"updated_at":"2026-03-21T12:20:44.216962+05:30"},{"city":"Gorakhpur","state":"Uttar Pradesh","latitude":26.7606,"longitude":83.3732,"temp":20.9,"humidity":79,"rain":0.0,"pressure":1004.4,"uv_index":5.65,"wind_gusts":21.2,"aqi":120,"pm10":62.2,"pm2_5":35.3,"mosquito_risk":3,"arthritis_risk":5,"migraine_risk":0,"frizz_risk":1,"updated_at":"2026-03-21T12:20:44.216969+05:30"},{"city":"Bareilly","state":"Uttar Pradesh","latitude":28.367,"longitude":79.4304,"temp":23.6,"humidity":61,"rain":0.0,"pressure":993.6,"uv_index":6.55,"wind_gusts":19.8,"aqi":151,"pm10":44.4,"pm2_5":30.2,"mosquito_risk":3,"arthritis_risk":5,"migraine_risk":7,"frizz_risk":0,"updated_at":"2026-03-21T12:20:44.216976+05:30"},{"city":"Aligarh","state":"Uttar Pradesh","latitude":27.8974,"longitude":78.088,"temp":23.6,"humidity":66,"rain":0.0,"pressure":992.8,"uv_index":6.4,"wind_gusts":24.8,"aqi":161,"pm10":68.5,"pm2_5":53.7,"mosquito_risk":3,"arthritis_risk":5,"migraine_risk":7,"frizz_risk":1,"updated_at":"2026-03-21T12:20:44.216982+05:30"},{"city":"Moradabad","state":"Uttar Pradesh","latitude":28.8386,"longitude":78.7733,"temp":23.3,"humidity":59,"rain":0.0,"pressure":990.7,"uv_index":6.45,"wind_gusts":19.4,"aqi":153,"pm10":44.7,"pm2_5":31.4,"mosquito_risk":0,"arthritis_risk":5,"migraine_risk":7,"frizz_risk":0,"updated_at":"2026-03-21T12:20:44.216991+05:30"},{"city":"Saharanpur","state":"Uttar Pradesh","latitude":29.9637,"longitude":77.546,"temp":23.1,"humidity":60,"rain":0.0,"pressure":982.5,"uv_index":6.1,"wind_gusts":27.4,"aqi":157,"pm10":41.8,"pm2_5":35.0,"mosquito_risk":0,"arthritis_risk":5,"migraine_risk":7,"frizz_risk":0,"updated_at":"2026-03-21T12:20:44.216997+05:30"},{"city":"Jhansi","state":"Uttar Pradesh","latitude":25.4484,"longitude":78.5685,"temp":26.2,"humidity":45,"rain":0.0,"pressure":984.7,"uv_index":7.4,"wind_gusts":26.3,"aqi":119,"pm10":44.9,"pm2_5":22.8,"mosquito_risk":4,"arthritis_risk":5,"migraine_risk":7,"frizz_risk":0,"updated_at":"2026-03-21T12:20:47.433839+05:30"},{"city":"Surat","state":"Gujarat","latitude":21.1702,"longitude":72.8311,"temp":31.7,"humidity":36,"rain":0.0,"pressure":1011.0,"uv_index":7.55,"wind_gusts":27.4,"aqi":113,"pm10":30.5,"pm2_5":25.0,"mosquito_risk":0,"arthritis_risk":0,"migraine_risk":4,"frizz_risk":0,"updated_at":"2026-03-21T12:20:47.433870+05:30"},{"city":"Vadodara","state":"Gujarat","latitude":22.3072,"longitude":73.1812,"temp":33.5,"humidity":28,"rain":0.0,"pressure":1009.0,"uv_index":7.35,"wind_gusts":14.0,"aqi":71,"pm10":25.0,"pm2_5":11.5,"mosquito_risk":0,"arthritis_risk":0,"migraine_risk":4,"frizz_risk":0,"updated_at":"2026-03-21T12:20:47.433879+05:30"},{"city":"Rajkot","state":"Gujarat","latitude":22.3039,"longitude":70.8022,"temp":30.7,"humidity":41,"rain":0.0,"pressure":999.0,"uv_index":7.0,"wind_gusts":22.7,"aqi":62,"pm10":21.1,"pm2_5":7.7,"mosquito_risk":0,"arthritis_risk":5,"migraine_risk":7,"frizz_risk":0,"updated_at":"2026-03-21T12:20:47.433888+05:30"},{"city":"Thane","state":"Maharashtra","latitude":19.2183,"longitude":72.9781,"temp":33.7,"humidity":31,"rain":0.0,"pressure":1010.7,"uv_index":7.85,"wind_gusts":42.8,"aqi":78,"pm10":46.3,"pm2_5":24.4,"mosquito_risk":0,"arthritis_risk":0,"migraine_risk":4,"frizz_risk":0,"updated_at":"2026-03-21T12:20:47.433895+05:30"},{"city":"Nagpur","state":"Maharashtra","latitude":21.1458,"longitude":79.0882,"temp":30.2,"humidity":35,"rain":0.0,"pressure":977.8,"uv_index":8.3,"wind_gusts":24.8,"aqi":69,"pm10":43.2,"pm2_5":19.1,"mosquito_risk":0,"arthritis_risk":5,"migraine_risk":7,"frizz_risk":0,"updated_at":"2026-03-21T12:20:47.433902+05:30"},{"city":"Nashik","state":"Maharashtra","latitude":19.9975,"longitude":73.7898,"temp":29.2,"humidity":34,"rain":0.0,"pressure":949.1,"uv_index":8.05,"wind_gusts":24.1,"aqi":65,"pm10":15.8,"pm2_5":7.5,"mosquito_risk":4,"arthritis_risk":5,"migraine_risk":7,"frizz_risk":0,"updated_at":"2026-03-21T12:20:47.433909+05:30"},{"city":"Aurangabad","state":"Maharashtra","latitude":19.8762,"longitude":75.3433,"temp":30.7,"humidity":29,"rain":0.0,"pressure":947.8,"uv_index":8.6,"wind_gusts":24.5,"aqi":62,"pm10":15.4,"pm2_5":9.1,"mosquito_risk":0,"arthritis_risk":5,"migraine_risk":7,"frizz_risk":0,"updated_at":"2026-03-21T12:20:47.433916+05:30"},{"city":"Solapur","state":"Maharashtra","latitude":17.6599,"longitude":75.9064,"temp":33.1,"humidity":30,"rain":0.0,"pressure":960.4,"uv_index":8.75,"wind_gusts":27.7,"aqi":67,"pm10":34.2,"pm2_5":16.5,"mosquito_risk":0,"arthritis_risk":5,"migraine_risk":7,"frizz_risk":0,"updated_at":"2026-03-21T12:20:47.433939+05:30"},{"city":"Kolhapur","state":"Maharashtra","latitude":16.705,"longitude":74.2433,"temp":30.5,"humidity":34,"rain":0.0,"pressure":951.1,"uv_index":8.85,"wind_gusts":28.1,"aqi":79,"pm10":43.9,"pm2_5":18.3,"mosquito_risk":0,"arthritis_risk":5,"migraine_risk":7,"frizz_risk":0,"updated_at":"2026-03-21T12:20:47.433948+05:30"},{"city":"Goa","state":"Goa","latitude":15.2993,"longitude":74.124,"temp":32.2,"humidity":46,"rain":0.0,"pressure":1000.7,"uv_index":8.85,"wind_gusts":35.6,"aqi":72,"pm10":23.5,"pm2_5":15.2,"mosquito_risk":0,"arthritis_risk":5,"migraine_risk":4,"frizz_risk":1,"updated_at":"2026-03-21T12:20:47.433955+05:30"},{"city":"Jodhpur","state":"Rajasthan","latitude":26.2389,"longitude":73.0243,"temp":29.0,"humidity":44,"rain":0.0,"pressure":988.9,"uv_index":6.65,"wind_gusts":20.5,"aqi":68,"pm10":93.4,"pm2_5":18.5,"mosquito_risk":4,"arthritis_risk":5,"migraine_risk":7,"frizz_risk":0,"updated_at":"2026-03-21T12:20:47.433962+05:30"},{"city":"Udaipur","state":"Rajasthan","latitude":24.5854,"longitude":73.7125,"temp":27.6,"humidity":33,"rain":0.0,"pressure":951.7,"uv_index":6.9,"wind_gusts":11.9,"aqi":52,"pm10":37.6,"pm2_5":11.0,"mosquito_risk":4,"arthritis_risk":5,"migraine_risk":7,"frizz_risk":0,"updated_at":"2026-03-21T12:20:47.433970+05:30"},{"city":"Kota","state":"Rajasthan","latitude":25.2138,"longitude":75.8648,"temp":29.4,"humidity":38,"rain":0.0,"pressure":985.0,"uv_index":7.5,"wind_gusts":19.1,"aqi":82,"pm10":37.1,"pm2_5":17.3,"mosquito_risk":4,"arthritis_risk":5,"migraine_risk":7,"frizz_risk":0,"updated_at":"2026-03-21T12:20:47.433976+05:30"},{"city":"Bikaner","state":"Rajasthan","latitude":28.0229,"longitude":73.3119,"temp":28.5,"humidity":41,"rain":0.0,"pressure":987.5,"uv_index":6.25,"wind_gusts":23.4,"aqi":56,"pm10":83.4,"pm2_5":18.2,"mosquito_risk":4,"arthritis_risk":5,"migraine_risk":7,"frizz_risk":0,"updated_at":"2026-03-21T12:20:47.433983+05:30"},{"city":"Ajmer","state":"Rajasthan","latitude":26.4499,"longitude":74.6399,"temp":27.2,"humidity":39,"rain":0.0,"pressure":960.2,"uv_index":7.25,"wind_gusts":21.6,"aqi":66,"pm10":33.5,"pm2_5":12.4,"mosquito_risk":4,"arthritis_risk":5,"migraine_risk":7,"frizz_risk":0,"updated_at":"2026-03-21T12:20:47.433990+05:30"},{"city":"Gwalior","state":"Madhya Pradesh","latitude":26.2183,"longitude":78.1828,"temp":26.2,"humidity":46,"rain":0.0,"pressure":990.3,"uv_index":7.1,"wind_gusts":27.0,"aqi":86,"pm10":40.5,"pm2_5":19.6,"mosquito_risk":4,"arthritis_risk":5,"migraine_risk":7,"frizz_risk":0,"updated_at":"2026-03-21T12:20:47.433996+05:30"},{"city":"Indore","state":"Madhya Pradesh","latitude":22.7196,"longitude":75.8577,"temp":28.5,"humidity":36,"rain":0.0,"pressure":953.1,"uv_index":7.95,"wind_gusts":22.7,"aqi":66,"pm10":21.7,"pm2_5":11.5,"mosquito_risk":4,"arthritis_risk":5,"migraine_risk":7,"frizz_risk":0,"updated_at":"2026-03-21T12:20:47.434003+05:30"},{"city":"Bhopal","state":"Madhya Pradesh","latitude":23.2599,"longitude":77.4126,"temp":28.6,"humidity":31,"rain":0.0,"pressure":959.2,"uv_index":7.9,"wind_gusts":25.6,"aqi":72,"pm10":26.4,"pm2_5":11.1,"mosquito_risk":4,"arthritis_risk":5,"migraine_risk":7,"frizz_risk":0,"updated_at":"2026-03-21T12:20:47.434010+05:30"},{"city":"Jabalpur","state":"Madhya Pradesh","latitude":23.1815,"longitude":79.9864,"temp":27.2,"humidity":38,"rain":0.0,"pressure":966.6,"uv_index":8.0,"wind_gusts":36.0,"aqi":65,"pm10":31.9,"pm2_5":16.1,"mosquito_risk":4,"arthritis_risk":5,"migraine_risk":7,"frizz_risk":0,"updated_at":"2026-03-21T12:20:47.434016+05:30"},{"city":"Ujjain","state":"Madhya Pradesh","latitude":23.1765,"longitude":75.7885,"temp":28.0,"humidity":42,"rain":0.0,"pressure":959.1,"uv_index":7.65,"wind_gusts":19.4,"aqi":66,"pm10":25.0,"pm2_5":12.7,"mosquito_risk":4,"arthritis_risk":5,"migraine_risk":7,"frizz_risk":0,"updated_at":"2026-03-21T12:20:47.434023+05:30"},{"city":"Visakhapatnam","state":"Andhra Pradesh","latitude":17.6868,"longitude":83.2185,"temp":32.5,"humidity":48,"rain":0.0,"pressure":1006.7,"uv_index":8.8,"wind_gusts":33.1,"aqi":74,"pm10":32.1,"pm2_5":26.3,"mosquito_risk":0,"arthritis_risk":5,"migraine_risk":4,"frizz_risk":1,"updated_at":"2026-03-21T12:20:47.434030+05:30"},{"city":"Vijayawada","state":"Andhra Pradesh","latitude":16.5062,"longitude":80.648,"temp":32.8,"humidity":51,"rain":0.0,"pressure":1005.5,"uv_index":8.85,"wind_gusts":32.4,"aqi":58,"pm10":19.6,"pm2_5":13.0,"mosquito_risk":0,"arthritis_risk":5,"migraine_risk":4,"frizz_risk":1,"updated_at":"2026-03-21T12:20:47.434037+05:30"},{"city":"Guntur","state":"Andhra Pradesh","latitude":16.3067,"longitude":80.4365,"temp":33.6,"humidity":49,"rain":0.0,"pressure":1006.1,"uv_index":8.85,"wind_gusts":23.8,"aqi":53,"pm10":20.7,"pm2_5":12.1,"mosquito_risk":0,"arthritis_risk":5,"migraine_risk":4,"frizz_risk":1,"updated_at":"2026-03-21T12:20:47.434044+05:30"},{"city":"Nellore","state":"Andhra Pradesh","latitude":14.4426,"longitude":79.9865,"temp":35.0,"humidity":47,"rain":0.0,"pressure":1007.6,"uv_index":9.05,"wind_gusts":37.8,"aqi":35,"pm10":20.3,"pm2_5":15.0,"mosquito_risk":0,"arthritis_risk":5,"migraine_risk":4,"frizz_risk":1,"updated_at":"2026-03-21T12:20:47.434051+05:30"},{"city":"Kurnool","state":"Andhra Pradesh","latitude":15.8281,"longitude":78.0373,"temp":35.5,"humidity":30,"rain":0.0,"pressure":979.0,"uv_index":8.9,"wind_gusts":18.7,"aqi":70,"pm10":22.2,"pm2_5":16.4,"mosquito_risk":0,"arthritis_risk":5,"migraine_risk":10,"frizz_risk":0,"updated_at":"2026-03-21T12:20:47.434059+05:30"},{"city":"Kakinada","state":"Andhra Pradesh","latitude":16.9891,"longitude":82.2475,"temp":32.8,"humidity":53,"rain":0.0,"pressure":1010.4,"uv_index":8.85,"wind_gusts":23.8,"aqi":46,"pm10":13.9,"pm2_5":10.1,"mosquito_risk":0,"arthritis_risk":0,"migraine_risk":4,"frizz_risk":1,"updated_at":"2026-03-21T12:20:47.434065+05:30"},{"city":"Tirupati","state":"Andhra Pradesh","latitude":13.6288,"longitude":79.4192,"temp":32.7,"humidity":50,"rain":0.0,"pressure":993.8,"uv_index":9.15,"wind_gusts":26.3,"aqi":70,"pm10":19.6,"pm2_5":16.2,"mosquito_risk":0,"arthritis_risk":5,"migraine_risk":7,"frizz_risk":1,"updated_at":"2026-03-21T12:20:47.434072+05:30"},{"city":"Warangal","state":"Telangana","latitude":17.9689,"longitude":79.5941,"temp":30.8,"humidity":53,"rain":0.0,"pressure":982.4,"uv_index":8.65,"wind_gusts":22.0,"aqi":116,"pm10":20.8,"pm2_5":16.9,"mosquito_risk":0,"arthritis_risk":5,"migraine_risk":7,"frizz_risk":1,"updated_at":"2026-03-21T12:20:47.434079+05:30"},{"city":"Nizamabad","state":"Telangana","latitude":18.6725,"longitude":78.0941,"temp":32.2,"humidity":35,"rain":0.0,"pressure":968.2,"uv_index":8.6,"wind_gusts":34.9,"aqi":101,"pm10":35.6,"pm2_5":24.3,"mosquito_risk":0,"arthritis_risk":5,"migraine_risk":7,"frizz_risk":0,"updated_at":"2026-03-21T12:20:47.434086+05:30"},{"city":"Mysore","state":"Karnataka","latitude":12.2958,"longitude":76.6396,"temp":31.3,"humidity":38,"rain":0.0,"pressure":930.9,"uv_index":9.4,"wind_gusts":40.3,"aqi":81,"pm10":23.9,"pm2_5":18.7,"mosquito_risk":0,"arthritis_risk":5,"migraine_risk":7,"frizz_risk":0,"updated_at":"2026-03-21T12:20:47.434092+05:30"},{"city":"Mangalore","state":"Karnataka","latitude":12.9141,"longitude":74.856,"temp":28.5,"humidity":78,"rain":0.0,"pressure":1008.8,"uv_index":9.05,"wind_gusts":30.2,"aqi":66,"pm10":27.8,"pm2_5":18.4,"mosquito_risk":7,"arthritis_risk":0,"migraine_risk":4,"frizz_risk":1,"updated_at":"2026-03-21T12:20:47.434099+05:30"},{"city":"Hubli-Dharwad","state":"Karnataka","latitude":15.3647,"longitude":75.124,"temp":32.2,"humidity":30,"rain":0.0,"pressure":943.8,"uv_index":9.05,"wind_gusts":28.8,"aqi":64,"pm10":26.0,"pm2_5":13.6,"mosquito_risk":0,"arthritis_risk":5,"migraine_risk":7,"frizz_risk":0,"updated_at":"2026-03-21T12:20:47.434106+05:30"},{"city":"Belgaum","state":"Karnataka","latitude":15.8497,"longitude":74.4977,"temp":30.5,"humidity":30,"rain":0.0,"pressure":929.0,"uv_index":9.1,"wind_gusts":36.7,"aqi":69,"pm10":30.5,"pm2_5":14.4,"mosquito_risk":0,"arthritis_risk":5,"migraine_risk":7,"frizz_risk":0,"updated_at":"2026-03-21T12:20:50.647029+05:30"},{"city":"Coimbatore","state":"Tamil Nadu","latitude":11.0168,"longitude":76.9558,"temp":32.7,"humidity":43,"rain":0.0,"pressure":963.9,"uv_index":9.35,"wind_gusts":43.6,"aqi":74,"pm10":22.6,"pm2_5":16.9,"mosquito_risk":0,"arthritis_risk":5,"migraine_risk":7,"frizz_risk":1,"updated_at":"2026-03-21T12:20:50.647060+05:30"},{"city":"Madurai","state":"Tamil Nadu","latitude":9.9252,"longitude":78.1198,"temp":34.1,"humidity":43,"rain":0.0,"pressure":995.0,"uv_index":9.35,"wind_gusts":38.5,"aqi":71,"pm10":18.5,"pm2_5":14.2,"mosquito_risk":0,"arthritis_risk":5,"migraine_risk":7,"frizz_risk":1,"updated_at":"2026-03-21T12:20:50.647070+05:30"},{"city":"Trichy","state":"Tamil Nadu","latitude":10.7905,"longitude":78.7047,"temp":34.0,"humidity":46,"rain":0.0,"pressure":1001.7,"uv_index":9.15,"wind_gusts":27.4,"aqi":62,"pm10":13.1,"pm2_5":11.0,"mosquito_risk":0,"arthritis_risk":5,"migraine_risk":4,"frizz_risk":1,"updated_at":"2026-03-21T12:20:50.647080+05:30"},{"city":"Salem","state":"Tamil Nadu","latitude":11.6643,"longitude":78.146,"temp":33.7,"humidity":43,"rain":0.0,"pressure":979.2,"uv_index":9.3,"wind_gusts":26.6,"aqi":81,"pm10":22.2,"pm2_5":18.0,"mosquito_risk":0,"arthritis_risk":5,"migraine_risk":7,"frizz_risk":1,"updated_at":"2026-03-21T12:20:50.647087+05:30"},{"city":"Tirunelveli","state":"Tamil Nadu","latitude":8.7139,"longitude":77.7567,"temp":35.3,"humidity":39,"rain":0.0,"pressure":1004.8,"uv_index":9.3,"wind_gusts":46.8,"aqi":94,"pm10":25.3,"pm2_5":21.1,"mosquito_risk":0,"arthritis_risk":5,"migraine_risk":7,"frizz_risk":1,"updated_at":"2026-03-21T12:20:50.647095+05:30"},{"city":"Vellore","state":"Tamil Nadu","latitude":12.9165,"longitude":79.1325,"temp":32.7,"humidity":48,"rain":0.0,"pressure":986.8,"uv_index":9.2,"wind_gusts":30.2,"aqi":99,"pm10":29.3,"pm2_5":26.3,"mosquito_risk":0,"arthritis_risk":5,"migraine_risk":7,"frizz_risk":1,"updated_at":"2026-03-21T12:20:50.647101+05:30"},{"city":"Erode","state":"Tamil Nadu","latitude":11.341,"longitude":77.7172,"temp":34.3,"humidity":46,"rain":0.0,"pressure":990.9,"uv_index":9.3,"wind_gusts":27.0,"aqi":60,"pm10":16.4,"pm2_5":12.7,"mosquito_risk":0,"arthritis_risk":5,"migraine_risk":7,"frizz_risk":1,"updated_at":"2026-03-21T12:20:50.647109+05:30"},{"city":"Kochi","state":"Kerala","latitude":9.9312,"longitude":76.2673,"temp":28.9,"humidity":72,"rain":0.0,"pressure":1010.2,"uv_index":9.15,"wind_gusts":31.7,"aqi":76,"pm10":19.0,"pm2_5":14.9,"mosquito_risk":7,"arthritis_risk":0,"migraine_risk":4,"frizz_risk":1,"updated_at":"2026-03-21T12:20:50.647116+05:30"},{"city":"Thiruvananthapuram","state":"Kerala","latitude":8.5241,"longitude":76.9366,"temp":28.8,"humidity":74,"rain":0.0,"pressure":1009.4,"uv_index":8.3,"wind_gusts":24.8,"aqi":67,"pm10":27.4,"pm2_5":21.4,"mosquito_risk":7,"arthritis_risk":0,"migraine_risk":4,"frizz_risk":1,"updated_at":"2026-03-21T12:20:50.647123+05:30"},{"city":"Kozhikode","state":"Kerala","latitude":11.2588,"longitude":75.7804,"temp":30.3,"humidity":69,"rain":0.0,"pressure":1009.5,"uv_index":9.05,"wind_gusts":29.9,"aqi":59,"pm10":24.5,"pm2_5":18.2,"mosquito_risk":3,"arthritis_risk":0,"migraine_risk":4,"frizz_risk":1,"updated_at":"2026-03-21T12:20:50.647129+05:30"},{"city":"Thrissur","state":"Kerala","latitude":10.5276,"longitude":76.2144,"temp":33.9,"humidity":50,"rain":0.0,"pressure":1008.4,"uv_index":9.15,"wind_gusts":37.4,"aqi":74,"pm10":19.6,"pm2_5":14.4,"mosquito_risk":0,"arthritis_risk":0,"migraine_risk":4,"frizz_risk":1,"updated_at":"2026-03-21T12:20:50.647136+05:30"},{"city":"Kannur","state":"Kerala","latitude":11.8745,"longitude":75.3704,"temp":31.9,"humidity":60,"rain":0.0,"pressure":1009.0,"uv_index":9.1,"wind_gusts":33.8,"aqi":66,"pm10":24.1,"pm2_5":17.6,"mosquito_risk":0,"arthritis_risk":0,"migraine_risk":4,"frizz_risk":1,"updated_at":"2026-03-21T12:20:50.647143+05:30"},{"city":"Patna","state":"Bihar","latitude":25.5941,"longitude":85.1376,"temp":23.4,"humidity":72,"rain":0.0,"pressure":1006.7,"uv_index":6.7,"wind_gusts":24.5,"aqi":150,"pm10":59.0,"pm2_5":41.9,"mosquito_risk":3,"arthritis_risk":5,"migraine_risk":4,"frizz_risk":1,"updated_at":"2026-03-21T12:20:50.647151+05:30"},{"city":"Gaya","state":"Bihar","latitude":24.7914,"longitude":85.0002,"temp":23.4,"humidity":72,"rain":0.0,"pressure":999.5,"uv_index":7.7,"wind_gusts":26.6,"aqi":119,"pm10":49.8,"pm2_5":33.2,"mosquito_risk":3,"arthritis_risk":5,"migraine_risk":7,"frizz_risk":1,"updated_at":"2026-03-21T12:20:50.647157+05:30"},{"city":"Muzaffarpur","state":"Bihar","latitude":26.1209,"longitude":85.3647,"temp":21.1,"humidity":82,"rain":0.0,"pressure":1007.2,"uv_index":3.65,"wind_gusts":23.8,"aqi":151,"pm10":53.2,"pm2_5":40.5,"mosquito_risk":3,"arthritis_risk":5,"migraine_risk":0,"frizz_risk":1,"updated_at":"2026-03-21T12:20:50.647163+05:30"},{"city":"Bhagalpur","state":"Bihar","latitude":25.2425,"longitude":87.0117,"temp":24.5,"humidity":68,"rain":0.0,"pressure":1007.0,"uv_index":5.85,"wind_gusts":24.5,"aqi":133,"pm10":41.9,"pm2_5":37.1,"mosquito_risk":3,"arthritis_risk":5,"migraine_risk":0,"frizz_risk":1,"updated_at":"2026-03-21T12:20:50.647170+05:30"},{"city":"Ranchi","state":"Jharkhand","latitude":23.3441,"longitude":85.3096,"temp":26.3,"humidity":43,"rain":0.0,"pressure":940.7,"uv_index":8.35,"wind_gusts":39.6,"aqi":95,"pm10":36.9,"pm2_5":23.7,"mosquito_risk":4,"arthritis_risk":5,"migraine_risk":7,"frizz_risk":0,"updated_at":"2026-03-21T12:20:50.647176+05:30"},{"city":"Jamshedpur","state":"Jharkhand","latitude":22.8046,"longitude":86.2029,"temp":29.4,"humidity":49,"rain":0.0,"pressure":994.4,"uv_index":8.15,"wind_gusts":35.3,"aqi":148,"pm10":51.3,"pm2_5":45.8,"mosquito_risk":4,"arthritis_risk":5,"migraine_risk":7,"frizz_risk":1,"updated_at":"2026-03-21T12:20:50.647184+05:30"},{"city":"Dhanbad","state":"Jharkhand","latitude":23.7957,"longitude":86.4304,"temp":26.2,"humidity":58,"rain":0.0,"pressure":984.0,"uv_index":7.6,"wind_gusts":33.8,"aqi":151,"pm10":42.6,"pm2_5":38.1,"mosquito_risk":4,"arthritis_risk":5,"migraine_risk":7,"frizz_risk":1,"updated_at":"2026-03-21T12:20:50.647190+05:30"},{"city":"Bokaro","state":"Jharkhand","latitude":23.6693,"longitude":86.1511,"temp":27.2,"humidity":56,"rain":0.0,"pressure":987.9,"uv_index":5.8,"wind_gusts":37.8,"aqi":135,"pm10":46.8,"pm2_5":39.6,"mosquito_risk":4,"arthritis_risk":5,"migraine_risk":3,"frizz_risk":1,"updated_at":"2026-03-21T12:20:50.647197+05:30"},{"city":"Bhubaneswar","state":"Odisha","latitude":20.2961,"longitude":85.8245,"temp":31.5,"humidity":47,"rain":0.0,"pressure":1005.8,"uv_index":8.55,"wind_gusts":26.6,"aqi":71,"pm10":53.0,"pm2_5":44.2,"mosquito_risk":0,"arthritis_risk":5,"migraine_risk":4,"frizz_risk":1,"updated_at":"2026-03-21T12:20:50.647204+05:30"},{"city":"Cuttack","state":"Odisha","latitude":20.4625,"longitude":85.8828,"temp":31.6,"humidity":47,"rain":0.0,"pressure":1007.7,"uv_index":8.6,"wind_gusts":22.7,"aqi":71,"pm10":53.0,"pm2_5":44.2,"mosquito_risk":0,"arthritis_risk":5,"migraine_risk":4,"frizz_risk":1,"updated_at":"2026-03-21T12:20:50.647210+05:30"},{"city":"Rourkela","state":"Odisha","latitude":22.2604,"longitude":84.8536,"temp":30.7,"humidity":44,"rain":0.0,"pressure":988.4,"uv_index":8.15,"wind_gusts":31.7,"aqi":107,"pm10":51.0,"pm2_5":37.1,"mosquito_risk":0,"arthritis_risk":5,"migraine_risk":7,"frizz_risk":1,"updated_at":"2026-03-21T12:20:50.647217+05:30"},{"city":"Raipur","state":"Chhattisgarh","latitude":21.2514,"longitude":81.6296,"temp":30.7,"humidity":37,"rain":0.0,"pressure":978.7,"uv_index":8.35,"wind_gusts":28.1,"aqi":126,"pm10":55.8,"pm2_5":26.8,"mosquito_risk":0,"arthritis_risk":5,"migraine_risk":7,"frizz_risk":0,"updated_at":"2026-03-21T12:20:50.647223+05:30"},{"city":"Bhilai","state":"Chhattisgarh","latitude":21.1938,"longitude":81.3509,"temp":31.0,"humidity":37,"rain":0.0,"pressure":979.0,"uv_index":8.35,"wind_gusts":28.8,"aqi":115,"pm10":56.0,"pm2_5":23.9,"mosquito_risk":0,"arthritis_risk":5,"migraine_risk":7,"frizz_risk":0,"updated_at":"2026-03-21T12:20:50.647229+05:30"},{"city":"Guwahati","state":"Assam","latitude":26.1158,"longitude":91.7086,"temp":24.0,"humidity":79,"rain":0.0,"pressure":1007.6,"uv_index":2.65,"wind_gusts":17.3,"aqi":94,"pm10":43.5,"pm2_5":31.0,"mosquito_risk":3,"arthritis_risk":5,"migraine_risk":0,"frizz_risk":1,"updated_at":"2026-03-21T12:20:50.647235+05:30"},{"city":"Agartala","state":"Tripura","latitude":23.8315,"longitude":91.2868,"temp":26.2,"humidity":65,"rain":0.0,"pressure":1010.7,"uv_index":5.1,"wind_gusts":21.6,"aqi":113,"pm10":52.0,"pm2_5":39.2,"mosquito_risk":7,"arthritis_risk":0,"migraine_risk":0,"frizz_risk":1,"updated_at":"2026-03-21T12:20:50.647242+05:30"},{"city":"Shillong","state":"Meghalaya","latitude":25.5788,"longitude":91.8933,"temp":15.5,"humidity":62,"rain":0.0,"pressure":859.0,"uv_index":3.35,"wind_gusts":21.2,"aqi":77,"pm10":41.6,"pm2_5":26.6,"mosquito_risk":3,"arthritis_risk":5,"migraine_risk":3,"frizz_risk":0,"updated_at":"2026-03-21T12:20:50.647249+05:30"},{"city":"Imphal","state":"Manipur","latitude":24.817,"longitude":93.9368,"temp":23.4,"humidity":44,"rain":0.0,"pressure":926.4,"uv_index":7.45,"wind_gusts":25.2,"aqi":86,"pm10":37.4,"pm2_5":21.9,"mosquito_risk":0,"arthritis_risk":5,"migraine_risk":7,"frizz_risk":0,"updated_at":"2026-03-21T12:20:50.647255+05:30"},{"city":"Aizawl","state":"Mizoram","latitude":23.7271,"longitude":92.7176,"temp":24.1,"humidity":46,"rain":0.0,"pressure":896.3,"uv_index":5.8,"wind_gusts":28.1,"aqi":110,"pm10":66.1,"pm2_5":47.1,"mosquito_risk":0,"arthritis_risk":5,"migraine_risk":3,"frizz_risk":0,"updated_at":"2026-03-21T12:20:50.647261+05:30"},{"city":"Kohima","state":"Nagaland","latitude":25.6701,"longitude":94.1077,"temp":17.9,"humidity":78,"rain":0.0,"pressure":858.3,"uv_index":7.0,"wind_gusts":60.8,"aqi":75,"pm10":43.9,"pm2_5":24.9,"mosquito_risk":3,"arthritis_risk":5,"migraine_risk":7,"frizz_risk":0,"updated_at":"2026-03-21T12:20:50.647268+05:30"},{"city":"Gangtok","state":"Sikkim","latitude":27.3314,"longitude":88.6138,"temp":12.2,"humidity":86,"rain":0.4,"pressure":839.4,"uv_index":1.95,"wind_gusts":16.6,"aqi":104,"pm10":21.9,"pm2_5":16.6,"mosquito_risk":6,"arthritis_risk":10,"migraine_risk":3,"frizz_risk":0,"updated_at":"2026-03-21T12:20:50.647275+05:30"},{"city":"Siliguri","state":"West Bengal","latitude":26.7271,"longitude":88.3953,"temp":18.5,"humidity":84,"rain":0.2,"pressure":1000.5,"uv_index":0.45,"wind_gusts":29.2,"aqi":82,"pm10":41.4,"pm2_5":31.2,"mosquito_risk":6,"arthritis_risk":10,"migraine_risk":0,"frizz_risk":0,"updated_at":"2026-03-21T12:20:53.859691+05:30"},{"city":"Durgapur","state":"West Bengal","latitude":23.5204,"longitude":87.3119,"temp":26.5,"humidity":59,"rain":0.0,"pressure":999.5,"uv_index":7.65,"wind_gusts":24.5,"aqi":151,"pm10":41.9,"pm2_5":38.8,"mosquito_risk":4,"arthritis_risk":5,"migraine_risk":7,"frizz_risk":1,"updated_at":"2026-03-21T12:20:53.859726+05:30"},{"city":"Asansol","state":"West Bengal","latitude":23.6739,"longitude":86.9524,"temp":26.5,"humidity":60,"rain":0.0,"pressure":998.2,"uv_index":6.2,"wind_gusts":27.4,"aqi":151,"pm10":40.5,"pm2_5":36.9,"mosquito_risk":4,"arthritis_risk":5,"migraine_risk":7,"frizz_risk":1,"updated_at":"2026-03-21T12:20:53.859737+05:30"},{"city":"Pondicherry","state":"Puducherry","latitude":11.9139,"longitude":79.8145,"temp":32.5,"humidity":58,"rain":0.0,"pressure":1010.8,"uv_index":9.15,"wind_gusts":28.8,"aqi":44,"pm10":11.6,"pm2_5":7.4,"mosquito_risk":0,"arthritis_risk":0,"migraine_risk":4,"frizz_risk":1,"updated_at":"2026-03-21T12:20:53.859745+05:30"},{"city":"Port Blair","state":"Andaman and Nicobar Islands","latitude":11.6234,"longitude":92.7265,"temp":28.5,"humidity":77,"rain":0.0,"pressure":1009.4,"uv_index":9.1,"wind_gusts":15.5,"aqi":54,"pm10":17.9,"pm2_5":14.0,"mosquito_risk":7,"arthritis_risk":0,"migraine_risk":4,"frizz_risk":1,"updated_at":"2026-03-21T12:20:53.859753+05:30"},{"city":"Haridwar","state":"Uttarakhand","latitude":29.9457,"longitude":78.1642,"temp":24.2,"humidity":53,"rain":0.0,"pressure":980.8,"uv_index":6.15,"wind_gusts":22.7,"aqi":99,"pm10":18.7,"pm2_5":14.0,"mosquito_risk":0,"arthritis_risk":5,"migraine_risk":7,"frizz_risk":0,"updated_at":"2026-03-21T12:20:53.859761+05:30"},{"city":"Rishikesh","state":"Uttarakhand","latitude":30.0869,"longitude":78.2676,"temp":23.4,"humidity":55,"rain":0.0,"pressure":973.1,"uv_index":6.15,"wind_gusts":22.0,"aqi":62,"pm10":9.5,"pm2_5":5.7,"mosquito_risk":0,"arthritis_risk":5,"migraine_risk":7,"frizz_risk":0,"updated_at":"2026-03-21T12:20:53.859768+05:30"},{"city":"Nainital","state":"Uttarakhand","latitude":29.3919,"longitude":79.4542,"temp":13.2,"humidity":90,"rain":0.0,"pressure":807.6,"uv_index":6.9,"wind_gusts":34.2,"aqi":70,"pm10":16.6,"pm2_5":10.3,"mosquito_risk":3,"arthritis_risk":10,"migraine_risk":7,"frizz_risk":0,"updated_at":"2026-03-21T12:20:53.859776+05:30"},{"city":"Mussoorie","state":"Uttarakhand","latitude":30.4599,"longitude":78.0664,"temp":15.0,"humidity":62,"rain":0.0,"pressure":805.4,"uv_index":6.55,"wind_gusts":27.4,"aqi":56,"pm10":9.4,"pm2_5":5.6,"mosquito_risk":3,"arthritis_risk":5,"migraine_risk":7,"frizz_risk":0,"updated_at":"2026-03-21T12:20:53.859784+05:30"},{"city":"Dharamshala","state":"Himachal Pradesh","latitude":32.219,"longitude":76.3234,"temp":16.3,"humidity":71,"rain":0.0,"pressure":872.1,"uv_index":6.2,"wind_gusts":18.0,"aqi":45,"pm10":10.7,"pm2_5":4.1,"mosquito_risk":3,"arthritis_risk":5,"migraine_risk":7,"frizz_risk":0,"updated_at":"2026-03-21T12:20:53.859790+05:30"},{"city":"Dalhousie","state":"Himachal Pradesh","latitude":32.5387,"longitude":75.971,"temp":14.4,"humidity":55,"rain":0.0,"pressure":806.0,"uv_index":6.35,"wind_gusts":19.8,"aqi":72,"pm10":16.6,"pm2_5":9.0,"mosquito_risk":0,"arthritis_risk":5,"migraine_risk":7,"frizz_risk":0,"updated_at":"2026-03-21T12:20:53.859798+05:30"},{"city":"Patiala","state":"Punjab","latitude":30.3398,"longitude":76.3869,"temp":22.6,"humidity":68,"rain":0.0,"pressure":985.3,"uv_index":5.65,"wind_gusts":22.3,"aqi":147,"pm10":46.9,"pm2_5":35.5,"mosquito_risk":3,"arthritis_risk":5,"migraine_risk":3,"frizz_risk":1,"updated_at":"2026-03-21T12:20:53.859805+05:30"},{"city":"Bhatinda","state":"Punjab","latitude":30.211,"longitude":74.9455,"temp":24.2,"humidity":58,"rain":0.0,"pressure":991.0,"uv_index":5.5,"wind_gusts":18.0,"aqi":139,"pm10":69.6,"pm2_5":45.2,"mosquito_risk":0,"arthritis_risk":5,"migraine_risk":3,"frizz_risk":0,"updated_at":"2026-03-21T12:20:53.859812+05:30"},{"city":"Rohtak","state":"Haryana","latitude":28.8955,"longitude":76.6066,"temp":23.6,"humidity":64,"rain":0.0,"pressure":989.0,"uv_index":5.75,"wind_gusts":23.0,"aqi":160,"pm10":85.4,"pm2_5":46.8,"mosquito_risk":3,"arthritis_risk":5,"migraine_risk":3,"frizz_risk":1,"updated_at":"2026-03-21T12:20:53.859818+05:30"},{"city":"Panipat","state":"Haryana","latitude":29.3909,"longitude":76.9635,"temp":23.1,"humidity":68,"rain":0.0,"pressure":987.5,"uv_index":6.15,"wind_gusts":25.6,"aqi":159,"pm10":62.4,"pm2_5":46.3,"mosquito_risk":3,"arthritis_risk":5,"migraine_risk":7,"frizz_risk":1,"updated_at":"2026-03-21T12:20:53.859825+05:30"},{"city":"Mathura","state":"Uttar Pradesh","latitude":27.4924,"longitude":77.6737,"temp":25.5,"humidity":54,"rain":0.0,"pressure":994.2,"uv_index":6.7,"wind_gusts":25.6,"aqi":148,"pm10":179.7,"pm2_5":56.9,"mosquito_risk":4,"arthritis_risk":5,"migraine_risk":7,"frizz_risk":0,"updated_at":"2026-03-21T12:20:53.859831+05:30"},{"city":"Vrindavan","state":"Uttar Pradesh","latitude":27.5823,"longitude":77.7027,"temp":24.8,"humidity":58,"rain":0.0,"pressure":994.6,"uv_index":6.65,"wind_gusts":26.6,"aqi":148,"pm10":179.7,"pm2_5":56.9,"mosquito_risk":0,"arthritis_risk":5,"migraine_risk":7,"frizz_risk":0,"updated_at":"2026-03-21T12:20:53.859838+05:30"},{"city":"Ayodhya","state":"Uttar Pradesh","latitude":26.7922,"longitude":82.1998,"temp":22.1,"humidity":74,"rain":0.0,"pressure":1002.3,"uv_index":6.9,"wind_gusts":22.0,"aqi":108,"pm10":70.8,"pm2_5":36.8,"mosquito_risk":3,"arthritis_risk":5,"migraine_risk":4,"frizz_risk":1,"updated_at":"2026-03-21T12:20:53.859844+05:30"},{"city":"Ratlam","state":"Madhya Pradesh","latitude":23.3315,"longitude":75.0367,"temp":29.0,"humidity":38,"rain":0.0,"pressure":959.7,"uv_index":7.35,"wind_gusts":21.2,"aqi":61,"pm10":24.1,"pm2_5":11.5,"mosquito_risk":4,"arthritis_risk":5,"migraine_risk":7,"frizz_risk":0,"updated_at":"2026-03-21T12:20:53.859850+05:30"},{"city":"Sagar","state":"Madhya Pradesh","latitude":23.8388,"longitude":78.7378,"temp":27.2,"humidity":37,"rain":0.0,"pressure":955.8,"uv_index":7.9,"wind_gusts":27.7,"aqi":93,"pm10":32.5,"pm2_5":14.3,"mosquito_risk":4,"arthritis_risk":5,"migraine_risk":7,"frizz_risk":0,"updated_at":"2026-03-21T12:20:53.859856+05:30"},{"city":"Satna","state":"Madhya Pradesh","latitude":24.6005,"longitude":80.8322,"temp":23.7,"humidity":58,"rain":0.0,"pressure":977.2,"uv_index":7.8,"wind_gusts":32.8,"aqi":78,"pm10":33.8,"pm2_5":15.0,"mosquito_risk":0,"arthritis_risk":5,"migraine_risk":7,"frizz_risk":0,"updated_at":"2026-03-21T12:20:53.859862+05:30"},{"city":"Akola","state":"Maharashtra","latitude":20.7002,"longitude":77.0082,"temp":31.8,"humidity":32,"rain":0.0,"pressure":979.5,"uv_index":8.25,"wind_gusts":22.3,"aqi":64,"pm10":26.8,"pm2_5":14.4,"mosquito_risk":0,"arthritis_risk":5,"migraine_risk":7,"frizz_risk":0,"updated_at":"2026-03-21T12:20:53.859869+05:30"},{"city":"Amravati","state":"Maharashtra","latitude":20.9374,"longitude":77.7796,"temp":31.7,"humidity":29,"rain":0.0,"pressure":971.8,"uv_index":8.3,"wind_gusts":25.2,"aqi":66,"pm10":27.8,"pm2_5":13.7,"mosquito_risk":0,"arthritis_risk":5,"migraine_risk":7,"frizz_risk":0,"updated_at":"2026-03-21T12:20:53.859876+05:30"},{"city":"Latur","state":"Maharashtra","latitude":18.4088,"longitude":76.5604,"temp":30.7,"humidity":33,"rain":0.0,"pressure":943.3,"uv_index":8.65,"wind_gusts":34.2,"aqi":74,"pm10":37.7,"pm2_5":16.2,"mosquito_risk":0,"arthritis_risk":5,"migraine_risk":7,"frizz_risk":0,"updated_at":"2026-03-21T12:20:53.859882+05:30"},{"city":"Nanded","state":"Maharashtra","latitude":19.1383,"longitude":77.3091,"temp":33.3,"humidity":28,"rain":0.0,"pressure":972.4,"uv_index":8.5,"wind_gusts":28.1,"aqi":67,"pm10":38.4,"pm2_5":13.9,"mosquito_risk":0,"arthritis_risk":5,"migraine_risk":7,"frizz_risk":0,"updated_at":"2026-03-21T12:20:53.859889+05:30"},{"city":"Gulbarga","state":"Karnataka","latitude":17.3297,"longitude":76.8343,"temp":33.3,"humidity":30,"rain":0.0,"pressure":961.5,"uv_index":8.75,"wind_gusts":42.1,"aqi":69,"pm10":30.2,"pm2_5":21.1,"mosquito_risk":0,"arthritis_risk":5,"migraine_risk":7,"frizz_risk":0,"updated_at":"2026-03-21T12:20:53.859895+05:30"},{"city":"Bidar","state":"Karnataka","latitude":17.9104,"longitude":77.5199,"temp":31.4,"humidity":31,"rain":0.0,"pressure":938.8,"uv_index":8.75,"wind_gusts":40.3,"aqi":85,"pm10":32.7,"pm2_5":20.8,"mosquito_risk":0,"arthritis_risk":5,"migraine_risk":7,"frizz_risk":0,"updated_at":"2026-03-21T12:20:53.859901+05:30"},{"city":"Hospet","state":"Karnataka","latitude":15.2689,"longitude":76.3909,"temp":32.1,"humidity":37,"rain":0.0,"pressure":958.5,"uv_index":9.0,"wind_gusts":19.4,"aqi":78,"pm10":34.2,"pm2_5":20.5,"mosquito_risk":0,"arthritis_risk":5,"migraine_risk":7,"frizz_risk":0,"updated_at":"2026-03-21T12:20:53.859907+05:30"},{"city":"Tirupur","state":"Tamil Nadu","latitude":11.1085,"longitude":77.3411,"temp":34.1,"humidity":41,"rain":0.0,"pressure":977.3,"uv_index":9.4,"wind_gusts":33.1,"aqi":79,"pm10":20.5,"pm2_5":16.4,"mosquito_risk":0,"arthritis_risk":5,"migraine_risk":7,"frizz_risk":1,"updated_at":"2026-03-21T12:20:53.859913+05:30"},{"city":"Alappuzha","state":"Kerala","latitude":9.4981,"longitude":76.3388,"temp":29.2,"humidity":70,"rain":0.0,"pressure":1010.3,"uv_index":9.1,"wind_gusts":28.1,"aqi":79,"pm10":26.0,"pm2_5":20.3,"mosquito_risk":7,"arthritis_risk":0,"migraine_risk":4,"frizz_risk":1,"updated_at":"2026-03-21T12:20:53.859919+05:30"},{"city":"Munnar","state":"Kerala","latitude":10.0889,"longitude":77.0595,"temp":29.6,"humidity":43,"rain":0.0,"pressure":860.7,"uv_index":9.65,"wind_gusts":29.2,"aqi":65,"pm10":17.6,"pm2_5":12.5,"mosquito_risk":4,"arthritis_risk":5,"migraine_risk":7,"frizz_risk":0,"updated_at":"2026-03-21T12:20:53.859942+05:30"},{"city":"Silchar","state":"Assam","latitude":24.8333,"longitude":92.7789,"temp":28.1,"humidity":51,"rain":0.0,"pressure":1009.0,"uv_index":6.8,"wind_gusts":19.8,"aqi":87,"pm10":43.1,"pm2_5":27.6,"mosquito_risk":4,"arthritis_risk":0,"migraine_risk":4,"frizz_risk":1,"updated_at":"2026-03-21T12:20:53.859950+05:30"},{"city":"Dibrugarh","state":"Assam","latitude":27.4728,"longitude":94.912,"temp":26.0,"humidity":67,"rain":0.0,"pressure":1000.3,"uv_index":6.3,"wind_gusts":16.2,"aqi":94,"pm10":49.2,"pm2_5":29.2,"mosquito_risk":7,"arthritis_risk":5,"migraine_risk":4,"frizz_risk":1,"updated_at":"2026-03-21T12:20:53.859957+05:30"}]