[{"city":"Delhi","state":"Delhi","latitude":28.6139,"longitude":77.209,"temp":31.2,"humidity":34,"rain":0.0,"pressure":975.1,"uv_index":7.8,"wind_gusts":41.4,"aqi":518,"pm10":650.1,"pm2_5":148.5,"no2":73.6,"co":535.0,"o3":10.0,"so2":29.8,"mosquito_risk":0,"arthritis_risk":5,"migraine_risk":7,"frizz_risk":0,"updated_at":"2026-06-09T05:38:38.643472+05:30"},{"city":"Mumbai","state":"Maharashtra","latitude":19.076,"longitude":72.8777,"temp":27.2,"humidity":93,"rain":0.1,"pressure":1006.1,"uv_index":7.45,"wind_gusts":40.7,"aqi":82,"pm10":62.2,"pm2_5":20.7,"no2":6.4,"co":147.0,"o3":51.0,"so2":6.8,"mosquito_risk":10,"arthritis_risk":5,"migraine_risk":4,"frizz_risk":1,"updated_at":"2026-06-09T05:38:38.643530+05:30"},{"city":"Bangalore","state":"Karnataka","latitude":12.9716,"longitude":77.5946,"temp":20.9,"humidity":95,"rain":0.0,"pressure":911.2,"uv_index":7.0,"wind_gusts":51.5,"aqi":20,"pm10":2.4,"pm2_5":2.3,"no2":6.4,"co":180.0,"o3":39.0,"so2":3.5,"mosquito_risk":3,"arthritis_risk":5,"migraine_risk":7,"frizz_risk":1,"updated_at":"2026-06-09T05:38:38.643546+05:30"},{"city":"Hyderabad","state":"Telangana","latitude":17.385,"longitude":78.4867,"temp":23.7,"humidity":90,"rain":0.2,"pressure":951.1,"uv_index":8.2,"wind_gusts":44.3,"aqi":65,"pm10":14.3,"pm2_5":10.9,"no2":12.1,"co":217.0,"o3":43.0,"so2":5.3,"mosquito_risk":6,"arthritis_risk":5,"migraine_risk":7,"frizz_risk":1,"updated_at":"2026-06-09T05:38:38.643558+05:30"},{"city":"Chennai","state":"Tamil Nadu","latitude":13.0827,"longitude":80.2707,"temp":30.8,"humidity":56,"rain":0.0,"pressure":1004.9,"uv_index":7.85,"wind_gusts":50.8,"aqi":51,"pm10":7.1,"pm2_5":5.8,"no2":12.3,"co":167.0,"o3":34.0,"so2":8.4,"mosquito_risk":0,"arthritis_risk":5,"migraine_risk":4,"frizz_risk":1,"updated_at":"2026-06-09T05:38:38.643567+05:30"},{"city":"Kolkata","state":"West Bengal","latitude":22.5726,"longitude":88.3639,"temp":29.2,"humidity":95,"rain":0.0,"pressure":999.3,"uv_index":8.95,"wind_gusts":49.0,"aqi":123,"pm10":53.3,"pm2_5":46.2,"no2":15.7,"co":527.0,"o3":74.0,"so2":10.3,"mosquito_risk":7,"arthritis_risk":5,"migraine_risk":7,"frizz_risk":1,"updated_at":"2026-06-09T05:38:38.643576+05:30"},{"city":"Pune","state":"Maharashtra","latitude":18.5204,"longitude":73.8567,"temp":24.1,"humidity":88,"rain":0.0,"pressure":946.0,"uv_index":7.15,"wind_gusts":46.1,"aqi":51,"pm10":24.7,"pm2_5":11.7,"no2":7.0,"co":124.0,"o3":45.0,"so2":6.4,"mosquito_risk":3,"arthritis_risk":5,"migraine_risk":7,"frizz_risk":1,"updated_at":"2026-06-09T05:38:38.643585+05:30"},{"city":"Ahmedabad","state":"Gujarat","latitude":23.0225,"longitude":72.5714,"temp":30.5,"humidity":66,"rain":0.0,"pressure":998.2,"uv_index":8.1,"wind_gusts":44.3,"aqi":82,"pm10":63.8,"pm2_5":30.4,"no2":4.4,"co":127.0,"o3":52.0,"so2":5.0,"mosquito_risk":3,"arthritis_risk":5,"migraine_risk":7,"frizz_risk":1,"updated_at":"2026-06-09T05:38:38.643593+05:30"},{"city":"Jaipur","state":"Rajasthan","latitude":26.9124,"longitude":75.7873,"temp":30.7,"humidity":55,"rain":0.0,"pressure":953.9,"uv_index":8.25,"wind_gusts":43.2,"aqi":135,"pm10":295.2,"pm2_5":62.6,"no2":3.9,"co":146.0,"o3":67.0,"so2":3.6,"mosquito_risk":0,"arthritis_risk":5,"migraine_risk":7,"frizz_risk":1,"updated_at":"2026-06-09T05:38:38.643621+05:30"},{"city":"Lucknow","state":"Uttar Pradesh","latitude":26.8467,"longitude":80.9462,"temp":30.5,"humidity":36,"rain":0.0,"pressure":985.9,"uv_index":8.3,"wind_gusts":37.1,"aqi":157,"pm10":192.3,"pm2_5":64.3,"no2":24.8,"co":275.0,"o3":45.0,"so2":10.0,"mosquito_risk":0,"arthritis_risk":5,"migraine_risk":7,"frizz_risk":0,"updated_at":"2026-06-09T05:38:38.643630+05:30"},{"city":"Kanpur","state":"Uttar Pradesh","latitude":26.4499,"longitude":80.3319,"temp":30.6,"humidity":50,"rain":0.0,"pressure":984.3,"uv_index":8.35,"wind_gusts":54.0,"aqi":240,"pm10":225.4,"pm2_5":54.0,"no2":22.9,"co":213.0,"o3":35.0,"so2":6.6,"mosquito_risk":0,"arthritis_risk":5,"migraine_risk":7,"frizz_risk":1,"updated_at":"2026-06-09T05:38:38.643638+05:30"},{"city":"Chandigarh","state":"Chandigarh","latitude":30.7333,"longitude":76.7794,"temp":23.1,"humidity":67,"rain":0.0,"pressure":959.9,"uv_index":7.8,"wind_gusts":33.1,"aqi":77,"pm10":31.0,"pm2_5":29.7,"no2":39.7,"co":445.0,"o3":12.0,"so2":3.7,"mosquito_risk":3,"arthritis_risk":5,"migraine_risk":7,"frizz_risk":1,"updated_at":"2026-06-09T05:38:38.643649+05:30"},{"city":"Srinagar","state":"Jammu and Kashmir","latitude":34.0837,"longitude":74.7973,"temp":12.8,"humidity":92,"rain":0.0,"pressure":835.9,"uv_index":9.0,"wind_gusts":37.1,"aqi":77,"pm10":35.0,"pm2_5":32.2,"no2":22.0,"co":263.0,"o3":19.0,"so2":1.2,"mosquito_risk":3,"arthritis_risk":10,"migraine_risk":7,"frizz_risk":0,"updated_at":"2026-06-09T05:38:38.643658+05:30"},{"city":"Jammu","state":"Jammu and Kashmir","latitude":32.7266,"longitude":74.857,"temp":24.0,"humidity":52,"rain":0.0,"pressure":963.7,"uv_index":8.6,"wind_gusts":33.8,"aqi":73,"pm10":31.2,"pm2_5":29.5,"no2":35.7,"co":300.0,"o3":8.0,"so2":2.0,"mosquito_risk":0,"arthritis_risk":5,"migraine_risk":7,"frizz_risk":0,"updated_at":"2026-06-09T05:38:38.643666+05:30"},{"city":"Amritsar","state":"Punjab","latitude":31.634,"longitude":74.8723,"temp":28.3,"humidity":45,"rain":0.0,"pressure":972.1,"uv_index":8.45,"wind_gusts":28.1,"aqi":116,"pm10":82.7,"pm2_5":72.9,"no2":63.0,"co":532.0,"o3":14.0,"so2":10.8,"mosquito_risk":4,"arthritis_risk":5,"migraine_risk":7,"frizz_risk":0,"updated_at":"2026-06-09T05:38:38.643674+05:30"},{"city":"Ludhiana","state":"Punjab","latitude":30.901,"longitude":75.8573,"temp":28.2,"humidity":49,"rain":0.0,"pressure":970.3,"uv_index":8.0,"wind_gusts":42.5,"aqi":111,"pm10":66.1,"pm2_5":63.3,"no2":53.0,"co":672.0,"o3":15.0,"so2":9.5,"mosquito_risk":4,"arthritis_risk":5,"migraine_risk":7,"frizz_risk":1,"updated_at":"2026-06-09T05:38:38.643681+05:30"},{"city":"Jalandhar","state":"Punjab","latitude":31.326,"longitude":75.5762,"temp":28.4,"humidity":46,"rain":0.0,"pressure":971.2,"uv_index":8.25,"wind_gusts":30.2,"aqi":102,"pm10":66.8,"pm2_5":62.6,"no2":60.5,"co":562.0,"o3":17.0,"so2":8.4,"mosquito_risk":4,"arthritis_risk":5,"migraine_risk":7,"frizz_risk":0,"updated_at":"2026-06-09T05:38:38.643689+05:30"},{"city":"Dehradun","state":"Uttarakhand","latitude":30.6284,"longitude":78.0322,"temp":14.1,"humidity":89,"rain":0.0,"pressure":823.8,"uv_index":8.25,"wind_gusts":42.8,"aqi":56,"pm10":17.2,"pm2_5":15.1,"no2":16.2,"co":252.0,"o3":32.0,"so2":0.0,"mosquito_risk":3,"arthritis_risk":10,"migraine_risk":7,"frizz_risk":0,"updated_at":"2026-06-09T05:38:38.643697+05:30"},{"city":"Shimla","state":"Himachal Pradesh","latitude":31.1048,"longitude":77.1734,"temp":12.5,"humidity":55,"rain":0.0,"pressure":777.9,"uv_index":8.35,"wind_gusts":51.8,"aqi":58,"pm10":27.4,"pm2_5":24.5,"no2":23.5,"co":190.0,"o3":38.0,"so2":1.1,"mosquito_risk":0,"arthritis_risk":5,"migraine_risk":7,"frizz_risk":0,"updated_at":"2026-06-09T05:38:38.643707+05:30"},{"city":"Manali","state":"Himachal Pradesh","latitude":32.2396,"longitude":77.1887,"temp":11.0,"humidity":56,"rain":0.0,"pressure":811.1,"uv_index":9.0,"wind_gusts":34.6,"aqi":50,"pm10":10.4,"pm2_5":8.2,"no2":26.9,"co":187.0,"o3":89.0,"so2":0.0,"mosquito_risk":0,"arthritis_risk":5,"migraine_risk":7,"frizz_risk":0,"updated_at":"2026-06-09T05:38:38.643714+05:30"},{"city":"Gurgaon","state":"Haryana","latitude":28.4595,"longitude":77.0266,"temp":29.4,"humidity":39,"rain":0.0,"pressure":973.6,"uv_index":7.9,"wind_gusts":45.4,"aqi":986,"pm10":700.4,"pm2_5":126.7,"no2":52.5,"co":373.0,"o3":14.0,"so2":17.9,"mosquito_risk":4,"arthritis_risk":5,"migraine_risk":7,"frizz_risk":0,"updated_at":"2026-06-09T05:38:38.643722+05:30"},{"city":"Noida","state":"Uttar Pradesh","latitude":28.5355,"longitude":77.391,"temp":30.1,"humidity":40,"rain":0.0,"pressure":976.3,"uv_index":7.85,"wind_gusts":34.6,"aqi":986,"pm10":700.4,"pm2_5":126.7,"no2":52.5,"co":614.0,"o3":14.0,"so2":17.9,"mosquito_risk":0,"arthritis_risk":5,"migraine_risk":7,"frizz_risk":0,"updated_at":"2026-06-09T05:38:38.643730+05:30"},{"city":"Ghaziabad","state":"Uttar Pradesh","latitude":28.6692,"longitude":77.4538,"temp":29.1,"humidity":51,"rain":0.0,"pressure":974.2,"uv_index":7.85,"wind_gusts":35.6,"aqi":378,"pm10":758.1,"pm2_5":171.4,"no2":83.4,"co":873.0,"o3":6.0,"so2":30.7,"mosquito_risk":4,"arthritis_risk":5,"migraine_risk":7,"frizz_risk":1,"updated_at":"2026-06-09T05:38:38.643737+05:30"},{"city":"Faridabad","state":"Haryana","latitude":28.4089,"longitude":77.3178,"temp":31.1,"humidity":35,"rain":0.0,"pressure":975.8,"uv_index":7.9,"wind_gusts":43.6,"aqi":986,"pm10":700.4,"pm2_5":126.7,"no2":52.5,"co":429.0,"o3":14.0,"so2":17.9,"mosquito_risk":0,"arthritis_risk":5,"migraine_risk":7,"frizz_risk":0,"updated_at":"2026-06-09T05:38:38.643747+05:30"},{"city":"Meerut","state":"Uttar Pradesh","latitude":28.9845,"longitude":77.7064,"temp":27.3,"humidity":64,"rain":0.0,"pressure":972.9,"uv_index":7.75,"wind_gusts":32.0,"aqi":378,"pm10":758.1,"pm2_5":171.4,"no2":83.4,"co":847.0,"o3":6.0,"so2":30.7,"mosquito_risk":7,"arthritis_risk":5,"migraine_risk":7,"frizz_risk":1,"updated_at":"2026-06-09T05:38:38.643753+05:30"},{"city":"Agra","state":"Uttar Pradesh","latitude":27.1767,"longitude":78.0081,"temp":30.9,"humidity":39,"rain":0.0,"pressure":980.3,"uv_index":8.15,"wind_gusts":49.0,"aqi":635,"pm10":264.5,"pm2_5":50.4,"no2":31.8,"co":263.0,"o3":22.0,"so2":7.1,"mosquito_risk":0,"arthritis_risk":5,"migraine_risk":7,"frizz_risk":0,"updated_at":"2026-06-09T05:38:38.643761+05:30"},{"city":"Varanasi","state":"Uttar Pradesh","latitude":25.3176,"longitude":82.9739,"temp":31.4,"humidity":47,"rain":0.0,"pressure":990.2,"uv_index":8.8,"wind_gusts":40.3,"aqi":135,"pm10":38.4,"pm2_5":27.4,"no2":14.2,"co":246.0,"o3":54.0,"so2":6.9,"mosquito_risk":0,"arthritis_risk":5,"migraine_risk":7,"frizz_risk":1,"updated_at":"2026-06-09T05:38:38.643769+05:30"},{"city":"Prayagraj","state":"Uttar Pradesh","latitude":25.4358,"longitude":81.8463,"temp":30.7,"humidity":52,"rain":0.0,"pressure":988.8,"uv_index":8.7,"wind_gusts":46.4,"aqi":139,"pm10":34.5,"pm2_5":27.3,"no2":19.7,"co":195.0,"o3":41.0,"so2":7.5,"mosquito_risk":0,"arthritis_risk":5,"migraine_risk":7,"frizz_risk":1,"updated_at":"2026-06-09T05:38:38.643776+05:30"},{"city":"Gorakhpur","state":"Uttar Pradesh","latitude":26.7606,"longitude":83.3732,"temp":26.3,"humidity":82,"rain":0.0,"pressure":990.0,"uv_index":8.7,"wind_gusts":21.6,"aqi":149,"pm10":107.8,"pm2_5":81.7,"no2":33.0,"co":648.0,"o3":33.0,"so2":13.0,"mosquito_risk":7,"arthritis_risk":5,"migraine_risk":7,"frizz_risk":1,"updated_at":"2026-06-09T05:38:38.643790+05:30"},{"city":"Bareilly","state":"Uttar Pradesh","latitude":28.367,"longitude":79.4304,"temp":26.2,"humidity":66,"rain":0.0,"pressure":978.8,"uv_index":8.15,"wind_gusts":24.8,"aqi":154,"pm10":189.5,"pm2_5":96.9,"no2":68.0,"co":537.0,"o3":13.0,"so2":15.6,"mosquito_risk":7,"arthritis_risk":5,"migraine_risk":7,"frizz_risk":1,"updated_at":"2026-06-09T05:38:38.643796+05:30"},{"city":"Aligarh","state":"Uttar Pradesh","latitude":27.8974,"longitude":78.088,"temp":28.1,"humidity":44,"rain":0.0,"pressure":977.3,"uv_index":8.0,"wind_gusts":45.7,"aqi":617,"pm10":378.1,"pm2_5":108.5,"no2":57.1,"co":462.0,"o3":4.0,"so2":10.6,"mosquito_risk":4,"arthritis_risk":5,"migraine_risk":7,"frizz_risk":0,"updated_at":"2026-06-09T05:38:38.643804+05:30"},{"city":"Moradabad","state":"Uttar Pradesh","latitude":28.8386,"longitude":78.7733,"temp":28.4,"humidity":57,"rain":0.0,"pressure":975.5,"uv_index":7.95,"wind_gusts":34.2,"aqi":165,"pm10":180.2,"pm2_5":112.5,"no2":76.6,"co":790.0,"o3":13.0,"so2":18.3,"mosquito_risk":4,"arthritis_risk":5,"migraine_risk":7,"frizz_risk":1,"updated_at":"2026-06-09T05:38:38.643811+05:30"},{"city":"Saharanpur","state":"Uttar Pradesh","latitude":29.9637,"longitude":77.546,"temp":25.8,"humidity":55,"rain":0.0,"pressure":967.3,"uv_index":7.5,"wind_gusts":31.7,"aqi":113,"pm10":57.2,"pm2_5":47.5,"no2":37.7,"co":531.0,"o3":37.0,"so2":9.8,"mosquito_risk":4,"arthritis_risk":5,"migraine_risk":7,"frizz_risk":1,"updated_at":"2026-06-09T05:38:38.643817+05:30"},{"city":"Jhansi","state":"Uttar Pradesh","latitude":25.4484,"longitude":78.5685,"temp":31.3,"humidity":45,"rain":0.0,"pressure":971.5,"uv_index":8.25,"wind_gusts":42.5,"aqi":78,"pm10":32.2,"pm2_5":21.0,"no2":6.8,"co":173.0,"o3":66.0,"so2":6.8,"mosquito_risk":0,"arthritis_risk":5,"migraine_risk":7,"frizz_risk":1,"updated_at":"2026-06-09T05:38:41.891196+05:30"},{"city":"Surat","state":"Gujarat","latitude":21.1702,"longitude":72.8311,"temp":29.6,"humidity":78,"rain":0.0,"pressure":1003.4,"uv_index":7.6,"wind_gusts":52.9,"aqi":81,"pm10":47.4,"pm2_5":24.2,"no2":20.0,"co":346.0,"o3":37.0,"so2":35.1,"mosquito_risk":7,"arthritis_risk":5,"migraine_risk":4,"frizz_risk":1,"updated_at":"2026-06-09T05:38:41.891232+05:30"},{"city":"Vadodara","state":"Gujarat","latitude":22.3072,"longitude":73.1812,"temp":29.7,"humidity":72,"rain":0.0,"pressure":1000.8,"uv_index":8.05,"wind_gusts":47.5,"aqi":80,"pm10":43.4,"pm2_5":24.4,"no2":7.1,"co":133.0,"o3":43.0,"so2":4.8,"mosquito_risk":7,"arthritis_risk":5,"migraine_risk":4,"frizz_risk":1,"updated_at":"2026-06-09T05:38:41.891244+05:30"},{"city":"Rajkot","state":"Gujarat","latitude":22.3039,"longitude":70.8022,"temp":28.6,"humidity":76,"rain":0.0,"pressure":990.3,"uv_index":7.5,"wind_gusts":50.0,"aqi":80,"pm10":65.2,"pm2_5":27.0,"no2":4.1,"co":100.0,"o3":55.0,"so2":4.6,"mosquito_risk":7,"arthritis_risk":5,"migraine_risk":7,"frizz_risk":1,"updated_at":"2026-06-09T05:38:41.891252+05:30"},{"city":"Thane","state":"Maharashtra","latitude":19.2183,"longitude":72.9781,"temp":27.1,"humidity":89,"rain":0.0,"pressure":1005.4,"uv_index":7.2,"wind_gusts":40.3,"aqi":82,"pm10":62.2,"pm2_5":20.7,"no2":6.4,"co":140.0,"o3":51.0,"so2":6.8,"mosquito_risk":7,"arthritis_risk":5,"migraine_risk":4,"frizz_risk":1,"updated_at":"2026-06-09T05:38:41.891260+05:30"},{"city":"Nagpur","state":"Maharashtra","latitude":21.1458,"longitude":79.0882,"temp":31.3,"humidity":53,"rain":0.0,"pressure":969.0,"uv_index":8.25,"wind_gusts":35.3,"aqi":87,"pm10":77.1,"pm2_5":42.1,"no2":16.5,"co":207.0,"o3":58.0,"so2":11.0,"mosquito_risk":0,"arthritis_risk":5,"migraine_risk":7,"frizz_risk":1,"updated_at":"2026-06-09T05:38:41.891268+05:30"},{"city":"Nashik","state":"Maharashtra","latitude":19.9975,"longitude":73.7898,"temp":24.4,"humidity":91,"rain":0.0,"pressure":942.9,"uv_index":7.8,"wind_gusts":48.6,"aqi":70,"pm10":48.5,"pm2_5":20.8,"no2":8.8,"co":130.0,"o3":40.0,"so2":8.7,"mosquito_risk":3,"arthritis_risk":5,"migraine_risk":7,"frizz_risk":1,"updated_at":"2026-06-09T05:38:41.891275+05:30"},{"city":"Aurangabad","state":"Maharashtra","latitude":19.8762,"longitude":75.3433,"temp":25.4,"humidity":81,"rain":0.0,"pressure":941.7,"uv_index":9.0,"wind_gusts":47.9,"aqi":72,"pm10":46.7,"pm2_5":21.2,"no2":8.8,"co":148.0,"o3":41.0,"so2":8.0,"mosquito_risk":7,"arthritis_risk":5,"migraine_risk":7,"frizz_risk":1,"updated_at":"2026-06-09T05:38:41.891282+05:30"},{"city":"Solapur","state":"Maharashtra","latitude":17.6599,"longitude":75.9064,"temp":26.7,"humidity":75,"rain":0.0,"pressure":955.6,"uv_index":5.75,"wind_gusts":52.6,"aqi":62,"pm10":13.2,"pm2_5":8.5,"no2":7.8,"co":123.0,"o3":41.0,"so2":2.6,"mosquito_risk":7,"arthritis_risk":5,"migraine_risk":3,"frizz_risk":1,"updated_at":"2026-06-09T05:38:41.891290+05:30"},{"city":"Kolhapur","state":"Maharashtra","latitude":16.705,"longitude":74.2433,"temp":23.3,"humidity":90,"rain":0.0,"pressure":946.6,"uv_index":7.15,"wind_gusts":42.8,"aqi":27,"pm10":3.4,"pm2_5":3.1,"no2":4.4,"co":117.0,"o3":52.0,"so2":1.9,"mosquito_risk":3,"arthritis_risk":5,"migraine_risk":7,"frizz_risk":1,"updated_at":"2026-06-09T05:38:41.891298+05:30"},{"city":"Goa","state":"Goa","latitude":15.2993,"longitude":74.124,"temp":24.4,"humidity":98,"rain":0.1,"pressure":997.7,"uv_index":3.95,"wind_gusts":33.1,"aqi":26,"pm10":12.0,"pm2_5":6.6,"no2":2.8,"co":233.0,"o3":53.0,"so2":0.8,"mosquito_risk":6,"arthritis_risk":5,"migraine_risk":3,"frizz_risk":1,"updated_at":"2026-06-09T05:38:41.891306+05:30"},{"city":"Jodhpur","state":"Rajasthan","latitude":26.2389,"longitude":73.0243,"temp":30.4,"humidity":63,"rain":0.0,"pressure":977.3,"uv_index":8.45,"wind_gusts":45.7,"aqi":151,"pm10":317.6,"pm2_5":81.7,"no2":2.2,"co":117.0,"o3":62.0,"so2":2.6,"mosquito_risk":3,"arthritis_risk":5,"migraine_risk":7,"frizz_risk":1,"updated_at":"2026-06-09T05:38:41.891314+05:30"},{"city":"Udaipur","state":"Rajasthan","latitude":24.5854,"longitude":73.7125,"temp":25.7,"humidity":71,"rain":0.0,"pressure":942.3,"uv_index":8.85,"wind_gusts":42.1,"aqi":77,"pm10":46.0,"pm2_5":26.5,"no2":4.3,"co":122.0,"o3":57.0,"so2":3.4,"mosquito_risk":7,"arthritis_risk":5,"migraine_risk":7,"frizz_risk":1,"updated_at":"2026-06-09T05:38:41.891321+05:30"},{"city":"Kota","state":"Rajasthan","latitude":25.2138,"longitude":75.8648,"temp":30.5,"humidity":62,"rain":0.0,"pressure":973.2,"uv_index":8.4,"wind_gusts":41.4,"aqi":81,"pm10":36.3,"pm2_5":23.9,"no2":6.3,"co":168.0,"o3":67.0,"so2":10.5,"mosquito_risk":3,"arthritis_risk":5,"migraine_risk":7,"frizz_risk":1,"updated_at":"2026-06-09T05:38:41.891329+05:30"},{"city":"Bikaner","state":"Rajasthan","latitude":28.0229,"longitude":73.3119,"temp":32.6,"humidity":50,"rain":0.0,"pressure":974.5,"uv_index":8.45,"wind_gusts":40.0,"aqi":137,"pm10":122.9,"pm2_5":54.0,"no2":2.4,"co":117.0,"o3":61.0,"so2":4.8,"mosquito_risk":0,"arthritis_risk":5,"migraine_risk":7,"frizz_risk":1,"updated_at":"2026-06-09T05:38:41.891337+05:30"},{"city":"Ajmer","state":"Rajasthan","latitude":26.4499,"longitude":74.6399,"temp":28.5,"humidity":66,"rain":0.0,"pressure":949.3,"uv_index":8.35,"wind_gusts":51.8,"aqi":89,"pm10":62.6,"pm2_5":28.9,"no2":3.6,"co":147.0,"o3":67.0,"so2":3.2,"mosquito_risk":7,"arthritis_risk":5,"migraine_risk":7,"frizz_risk":1,"updated_at":"2026-06-09T05:38:41.891344+05:30"},{"city":"Gwalior","state":"Madhya Pradesh","latitude":26.2183,"longitude":78.1828,"temp":32.0,"humidity":43,"rain":0.0,"pressure":976.4,"uv_index":8.25,"wind_gusts":50.4,"aqi":92,"pm10":40.2,"pm2_5":20.3,"no2":7.4,"co":168.0,"o3":62.0,"so2":3.2,"mosquito_risk":0,"arthritis_risk":5,"migraine_risk":7,"frizz_risk":1,"updated_at":"2026-06-09T05:38:41.891352+05:30"},{"city":"Indore","state":"Madhya Pradesh","latitude":22.7196,"longitude":75.8577,"temp":26.3,"humidity":79,"rain":0.0,"pressure":944.8,"uv_index":8.65,"wind_gusts":48.2,"aqi":85,"pm10":42.6,"pm2_5":22.1,"no2":6.5,"co":148.0,"o3":46.0,"so2":8.8,"mosquito_risk":7,"arthritis_risk":5,"migraine_risk":7,"frizz_risk":1,"updated_at":"2026-06-09T05:38:41.891359+05:30"},{"city":"Bhopal","state":"Madhya Pradesh","latitude":23.2599,"longitude":77.4126,"temp":28.5,"humidity":62,"rain":0.0,"pressure":949.4,"uv_index":8.7,"wind_gusts":41.4,"aqi":85,"pm10":37.7,"pm2_5":26.2,"no2":4.7,"co":204.0,"o3":86.0,"so2":8.4,"mosquito_risk":7,"arthritis_risk":5,"migraine_risk":7,"frizz_risk":1,"updated_at":"2026-06-09T05:38:41.891365+05:30"},{"city":"Jabalpur","state":"Madhya Pradesh","latitude":23.1815,"longitude":79.9864,"temp":28.0,"humidity":67,"rain":0.0,"pressure":956.9,"uv_index":8.85,"wind_gusts":34.2,"aqi":79,"pm10":31.4,"pm2_5":21.6,"no2":7.4,"co":210.0,"o3":79.0,"so2":3.7,"mosquito_risk":7,"arthritis_risk":5,"migraine_risk":7,"frizz_risk":1,"updated_at":"2026-06-09T05:38:41.891372+05:30"},{"city":"Ujjain","state":"Madhya Pradesh","latitude":23.1765,"longitude":75.7885,"temp":26.4,"humidity":80,"rain":0.0,"pressure":950.3,"uv_index":8.6,"wind_gusts":45.7,"aqi":83,"pm10":40.7,"pm2_5":21.7,"no2":6.7,"co":154.0,"o3":44.0,"so2":9.5,"mosquito_risk":7,"arthritis_risk":5,"migraine_risk":7,"frizz_risk":1,"updated_at":"2026-06-09T05:38:41.891379+05:30"},{"city":"Visakhapatnam","state":"Andhra Pradesh","latitude":17.6868,"longitude":83.2185,"temp":29.3,"humidity":70,"rain":0.0,"pressure":998.0,"uv_index":8.0,"wind_gusts":39.6,"aqi":84,"pm10":27.3,"pm2_5":23.5,"no2":24.1,"co":422.0,"o3":53.0,"so2":36.7,"mosquito_risk":7,"arthritis_risk":5,"migraine_risk":7,"frizz_risk":1,"updated_at":"2026-06-09T05:38:41.891386+05:30"},{"city":"Vijayawada","state":"Andhra Pradesh","latitude":16.5062,"longitude":80.648,"temp":30.0,"humidity":60,"rain":0.0,"pressure":999.1,"uv_index":5.7,"wind_gusts":41.0,"aqi":71,"pm10":16.2,"pm2_5":14.2,"no2":10.6,"co":181.0,"o3":48.0,"so2":6.9,"mosquito_risk":4,"arthritis_risk":5,"migraine_risk":3,"frizz_risk":1,"updated_at":"2026-06-09T05:38:41.891393+05:30"},{"city":"Guntur","state":"Andhra Pradesh","latitude":16.3067,"longitude":80.4365,"temp":29.4,"humidity":63,"rain":0.0,"pressure":1000.3,"uv_index":6.95,"wind_gusts":40.3,"aqi":65,"pm10":12.9,"pm2_5":11.3,"no2":11.6,"co":192.0,"o3":39.0,"so2":7.8,"mosquito_risk":7,"arthritis_risk":5,"migraine_risk":4,"frizz_risk":1,"updated_at":"2026-06-09T05:38:41.891400+05:30"},{"city":"Nellore","state":"Andhra Pradesh","latitude":14.4426,"longitude":79.9865,"temp":29.2,"humidity":66,"rain":0.0,"pressure":1003.3,"uv_index":7.1,"wind_gusts":48.6,"aqi":39,"pm10":5.5,"pm2_5":4.4,"no2":7.8,"co":145.0,"o3":45.0,"so2":5.6,"mosquito_risk":7,"arthritis_risk":5,"migraine_risk":4,"frizz_risk":1,"updated_at":"2026-06-09T05:38:41.891409+05:30"},{"city":"Kurnool","state":"Andhra Pradesh","latitude":15.8281,"longitude":78.0373,"temp":25.4,"humidity":85,"rain":0.0,"pressure":975.3,"uv_index":7.0,"wind_gusts":45.7,"aqi":47,"pm10":4.3,"pm2_5":3.7,"no2":9.1,"co":160.0,"o3":38.0,"so2":3.8,"mosquito_risk":7,"arthritis_risk":5,"migraine_risk":7,"frizz_risk":1,"updated_at":"2026-06-09T05:38:41.891417+05:30"},{"city":"Kakinada","state":"Andhra Pradesh","latitude":16.9891,"longitude":82.2475,"temp":29.9,"humidity":66,"rain":0.0,"pressure":1002.9,"uv_index":7.95,"wind_gusts":47.5,"aqi":68,"pm10":28.2,"pm2_5":24.1,"no2":11.2,"co":312.0,"o3":65.0,"so2":7.1,"mosquito_risk":7,"arthritis_risk":5,"migraine_risk":4,"frizz_risk":1,"updated_at":"2026-06-09T05:38:41.891424+05:30"},{"city":"Tirupati","state":"Andhra Pradesh","latitude":13.6288,"longitude":79.4192,"temp":27.9,"humidity":64,"rain":0.0,"pressure":989.2,"uv_index":7.65,"wind_gusts":45.7,"aqi":26,"pm10":6.0,"pm2_5":5.2,"no2":9.6,"co":120.0,"o3":34.0,"so2":2.5,"mosquito_risk":7,"arthritis_risk":5,"migraine_risk":7,"frizz_risk":1,"updated_at":"2026-06-09T05:38:41.891432+05:30"},{"city":"Warangal","state":"Telangana","latitude":17.9689,"longitude":79.5941,"temp":25.8,"humidity":91,"rain":0.1,"pressure":976.5,"uv_index":5.2,"wind_gusts":39.2,"aqi":77,"pm10":24.9,"pm2_5":17.2,"no2":7.8,"co":189.0,"o3":71.0,"so2":4.5,"mosquito_risk":10,"arthritis_risk":5,"migraine_risk":3,"frizz_risk":1,"updated_at":"2026-06-09T05:38:41.891439+05:30"},{"city":"Nizamabad","state":"Telangana","latitude":18.6725,"longitude":78.0941,"temp":28.2,"humidity":62,"rain":0.0,"pressure":961.8,"uv_index":8.95,"wind_gusts":49.7,"aqi":84,"pm10":34.8,"pm2_5":24.4,"no2":9.3,"co":183.0,"o3":59.0,"so2":6.0,"mosquito_risk":7,"arthritis_risk":5,"migraine_risk":7,"frizz_risk":1,"updated_at":"2026-06-09T05:38:41.891445+05:30"},{"city":"Mysore","state":"Karnataka","latitude":12.2958,"longitude":76.6396,"temp":21.7,"humidity":91,"rain":0.0,"pressure":928.6,"uv_index":7.4,"wind_gusts":55.4,"aqi":19,"pm10":1.7,"pm2_5":1.7,"no2":4.0,"co":122.0,"o3":41.0,"so2":1.5,"mosquito_risk":3,"arthritis_risk":5,"migraine_risk":7,"frizz_risk":1,"updated_at":"2026-06-09T05:38:41.891452+05:30"},{"city":"Mangalore","state":"Karnataka","latitude":12.9141,"longitude":74.856,"temp":23.8,"humidity":97,"rain":0.3,"pressure":1007.6,"uv_index":7.25,"wind_gusts":41.8,"aqi":34,"pm10":9.2,"pm2_5":4.7,"no2":1.8,"co":140.0,"o3":53.0,"so2":0.8,"mosquito_risk":6,"arthritis_risk":5,"migraine_risk":4,"frizz_risk":1,"updated_at":"2026-06-09T05:38:41.891458+05:30"},{"city":"Hubli-Dharwad","state":"Karnataka","latitude":15.3647,"longitude":75.124,"temp":21.9,"humidity":98,"rain":0.3,"pressure":940.0,"uv_index":4.9,"wind_gusts":42.5,"aqi":22,"pm10":1.8,"pm2_5":1.7,"no2":4.1,"co":121.0,"o3":42.0,"so2":0.6,"mosquito_risk":6,"arthritis_risk":5,"migraine_risk":3,"frizz_risk":1,"updated_at":"2026-06-09T05:38:41.891465+05:30"},{"city":"Belgaum","state":"Karnataka","latitude":15.8497,"longitude":74.4977,"temp":21.5,"humidity":97,"rain":0.0,"pressure":924.5,"uv_index":6.25,"wind_gusts":38.9,"aqi":22,"pm10":3.0,"pm2_5":2.8,"no2":5.2,"co":104.0,"o3":44.0,"so2":0.8,"mosquito_risk":3,"arthritis_risk":5,"migraine_risk":7,"frizz_risk":1,"updated_at":"2026-06-09T05:38:45.125209+05:30"},{"city":"Coimbatore","state":"Tamil Nadu","latitude":11.0168,"longitude":76.9558,"temp":22.8,"humidity":91,"rain":0.0,"pressure":961.8,"uv_index":7.05,"wind_gusts":50.4,"aqi":16,"pm10":1.1,"pm2_5":1.0,"no2":3.6,"co":114.0,"o3":39.0,"so2":1.6,"mosquito_risk":3,"arthritis_risk":5,"migraine_risk":7,"frizz_risk":1,"updated_at":"2026-06-09T05:38:45.125246+05:30"},{"city":"Madurai","state":"Tamil Nadu","latitude":9.9252,"longitude":78.1198,"temp":29.3,"humidity":61,"rain":0.0,"pressure":993.0,"uv_index":7.9,"wind_gusts":69.8,"aqi":29,"pm10":7.8,"pm2_5":7.1,"no2":13.7,"co":109.0,"o3":14.0,"so2":4.1,"mosquito_risk":7,"arthritis_risk":5,"migraine_risk":7,"frizz_risk":1,"updated_at":"2026-06-09T05:38:45.125258+05:30"},{"city":"Trichy","state":"Tamil Nadu","latitude":10.7905,"longitude":78.7047,"temp":28.0,"humidity":69,"rain":0.0,"pressure":999.7,"uv_index":8.15,"wind_gusts":68.8,"aqi":21,"pm10":4.5,"pm2_5":4.1,"no2":9.0,"co":109.0,"o3":27.0,"so2":3.6,"mosquito_risk":7,"arthritis_risk":5,"migraine_risk":7,"frizz_risk":1,"updated_at":"2026-06-09T05:38:45.125266+05:30"},{"city":"Salem","state":"Tamil Nadu","latitude":11.6643,"longitude":78.146,"temp":25.9,"humidity":77,"rain":0.0,"pressure":977.9,"uv_index":7.05,"wind_gusts":39.2,"aqi":26,"pm10":6.8,"pm2_5":6.5,"no2":14.3,"co":169.0,"o3":22.0,"so2":6.8,"mosquito_risk":7,"arthritis_risk":5,"migraine_risk":7,"frizz_risk":1,"updated_at":"2026-06-09T05:38:45.125275+05:30"},{"city":"Tirunelveli","state":"Tamil Nadu","latitude":8.7139,"longitude":77.7567,"temp":27.3,"humidity":78,"rain":0.0,"pressure":1004.1,"uv_index":6.85,"wind_gusts":51.5,"aqi":15,"pm10":4.3,"pm2_5":3.4,"no2":5.9,"co":150.0,"o3":24.0,"so2":1.5,"mosquito_risk":7,"arthritis_risk":5,"migraine_risk":4,"frizz_risk":1,"updated_at":"2026-06-09T05:38:45.125283+05:30"},{"city":"Vellore","state":"Tamil Nadu","latitude":12.9165,"longitude":79.1325,"temp":27.8,"humidity":66,"rain":0.0,"pressure":983.0,"uv_index":8.35,"wind_gusts":59.0,"aqi":25,"pm10":3.3,"pm2_5":3.0,"no2":6.1,"co":116.0,"o3":38.0,"so2":3.3,"mosquito_risk":7,"arthritis_risk":5,"migraine_risk":7,"frizz_risk":1,"updated_at":"2026-06-09T05:38:45.125290+05:30"},{"city":"Erode","state":"Tamil Nadu","latitude":11.341,"longitude":77.7172,"temp":25.9,"humidity":76,"rain":0.0,"pressure":989.7,"uv_index":7.05,"wind_gusts":58.3,"aqi":16,"pm10":3.3,"pm2_5":3.0,"no2":7.0,"co":122.0,"o3":34.0,"so2":2.9,"mosquito_risk":7,"arthritis_risk":5,"migraine_risk":7,"frizz_risk":1,"updated_at":"2026-06-09T05:38:45.125298+05:30"},{"city":"Kochi","state":"Kerala","latitude":9.9312,"longitude":76.2673,"temp":26.2,"humidity":92,"rain":0.1,"pressure":1010.7,"uv_index":8.4,"wind_gusts":47.9,"aqi":35,"pm10":10.7,"pm2_5":7.4,"no2":7.6,"co":88.0,"o3":25.0,"so2":2.3,"mosquito_risk":10,"arthritis_risk":0,"migraine_risk":4,"frizz_risk":1,"updated_at":"2026-06-09T05:38:45.125306+05:30"},{"city":"Thiruvananthapuram","state":"Kerala","latitude":8.5241,"longitude":76.9366,"temp":25.0,"humidity":94,"rain":0.1,"pressure":1010.3,"uv_index":7.85,"wind_gusts":57.6,"aqi":33,"pm10":14.3,"pm2_5":7.5,"no2":1.5,"co":82.0,"o3":37.0,"so2":0.4,"mosquito_risk":10,"arthritis_risk":0,"migraine_risk":4,"frizz_risk":1,"updated_at":"2026-06-09T05:38:45.125314+05:30"},{"city":"Kozhikode","state":"Kerala","latitude":11.2588,"longitude":75.7804,"temp":24.5,"humidity":98,"rain":0.3,"pressure":1009.9,"uv_index":6.7,"wind_gusts":34.9,"aqi":26,"pm10":10.2,"pm2_5":4.9,"no2":0.6,"co":97.0,"o3":61.0,"so2":0.3,"mosquito_risk":6,"arthritis_risk":0,"migraine_risk":4,"frizz_risk":1,"updated_at":"2026-06-09T05:38:45.125320+05:30"},{"city":"Thrissur","state":"Kerala","latitude":10.5276,"longitude":76.2144,"temp":24.3,"humidity":98,"rain":0.3,"pressure":1009.2,"uv_index":8.2,"wind_gusts":41.0,"aqi":33,"pm10":9.8,"pm2_5":6.4,"no2":4.9,"co":104.0,"o3":37.0,"so2":1.8,"mosquito_risk":6,"arthritis_risk":0,"migraine_risk":4,"frizz_risk":1,"updated_at":"2026-06-09T05:38:45.125328+05:30"},{"city":"Kannur","state":"Kerala","latitude":11.8745,"longitude":75.3704,"temp":24.8,"humidity":96,"rain":0.3,"pressure":1008.4,"uv_index":7.6,"wind_gusts":37.1,"aqi":23,"pm10":7.8,"pm2_5":4.3,"no2":1.8,"co":98.0,"o3":54.0,"so2":0.6,"mosquito_risk":6,"arthritis_risk":0,"migraine_risk":4,"frizz_risk":1,"updated_at":"2026-06-09T05:38:45.125335+05:30"},{"city":"Patna","state":"Bihar","latitude":25.5941,"longitude":85.1376,"temp":28.0,"humidity":77,"rain":0.0,"pressure":993.3,"uv_index":8.85,"wind_gusts":24.5,"aqi":171,"pm10":147.6,"pm2_5":117.6,"no2":47.7,"co":596.0,"o3":34.0,"so2":22.5,"mosquito_risk":7,"arthritis_risk":5,"migraine_risk":7,"frizz_risk":1,"updated_at":"2026-06-09T05:38:45.125342+05:30"},{"city":"Gaya","state":"Bihar","latitude":24.7914,"longitude":85.0002,"temp":28.7,"humidity":62,"rain":0.0,"pressure":986.5,"uv_index":8.15,"wind_gusts":31.7,"aqi":154,"pm10":99.2,"pm2_5":59.6,"no2":23.8,"co":340.0,"o3":57.0,"so2":9.8,"mosquito_risk":7,"arthritis_risk":5,"migraine_risk":7,"frizz_risk":1,"updated_at":"2026-06-09T05:38:45.125349+05:30"},{"city":"Muzaffarpur","state":"Bihar","latitude":26.1209,"longitude":85.3647,"temp":27.3,"humidity":80,"rain":0.0,"pressure":993.7,"uv_index":8.85,"wind_gusts":29.5,"aqi":175,"pm10":102.0,"pm2_5":92.2,"no2":15.7,"co":579.0,"o3":77.0,"so2":17.0,"mosquito_risk":7,"arthritis_risk":5,"migraine_risk":7,"frizz_risk":1,"updated_at":"2026-06-09T05:38:45.125356+05:30"},{"city":"Bhagalpur","state":"Bihar","latitude":25.2425,"longitude":87.0117,"temp":27.6,"humidity":82,"rain":0.0,"pressure":994.6,"uv_index":8.85,"wind_gusts":32.0,"aqi":154,"pm10":67.3,"pm2_5":60.5,"no2":17.5,"co":665.0,"o3":75.0,"so2":21.4,"mosquito_risk":7,"arthritis_risk":5,"migraine_risk":7,"frizz_risk":1,"updated_at":"2026-06-09T05:38:45.125371+05:30"},{"city":"Ranchi","state":"Jharkhand","latitude":23.3441,"longitude":85.3096,"temp":25.7,"humidity":63,"rain":0.0,"pressure":932.3,"uv_index":9.25,"wind_gusts":32.0,"aqi":126,"pm10":63.8,"pm2_5":52.5,"no2":10.9,"co":313.0,"o3":95.0,"so2":12.6,"mosquito_risk":7,"arthritis_risk":5,"migraine_risk":7,"frizz_risk":1,"updated_at":"2026-06-09T05:38:45.125383+05:30"},{"city":"Jamshedpur","state":"Jharkhand","latitude":22.8046,"longitude":86.2029,"temp":27.6,"humidity":77,"rain":0.0,"pressure":984.8,"uv_index":8.9,"wind_gusts":26.6,"aqi":146,"pm10":71.7,"pm2_5":56.0,"no2":17.5,"co":429.0,"o3":83.0,"so2":30.1,"mosquito_risk":7,"arthritis_risk":5,"migraine_risk":7,"frizz_risk":1,"updated_at":"2026-06-09T05:38:45.125393+05:30"},{"city":"Dhanbad","state":"Jharkhand","latitude":23.7957,"longitude":86.4304,"temp":28.7,"humidity":64,"rain":0.0,"pressure":973.0,"uv_index":8.9,"wind_gusts":31.0,"aqi":159,"pm10":102.2,"pm2_5":79.9,"no2":53.8,"co":309.0,"o3":48.0,"so2":108.5,"mosquito_risk":7,"arthritis_risk":5,"migraine_risk":7,"frizz_risk":1,"updated_at":"2026-06-09T05:38:45.125403+05:30"},{"city":"Bokaro","state":"Jharkhand","latitude":23.6693,"longitude":86.1511,"temp":28.7,"humidity":64,"rain":0.0,"pressure":976.8,"uv_index":8.75,"wind_gusts":31.7,"aqi":161,"pm10":130.9,"pm2_5":94.8,"no2":55.9,"co":329.0,"o3":30.0,"so2":63.7,"mosquito_risk":7,"arthritis_risk":5,"migraine_risk":7,"frizz_risk":1,"updated_at":"2026-06-09T05:38:45.125413+05:30"},{"city":"Bhubaneswar","state":"Odisha","latitude":20.2961,"longitude":85.8245,"temp":28.4,"humidity":97,"rain":0.0,"pressure":996.8,"uv_index":8.15,"wind_gusts":31.7,"aqi":107,"pm10":58.1,"pm2_5":48.5,"no2":15.4,"co":443.0,"o3":63.0,"so2":7.7,"mosquito_risk":7,"arthritis_risk":5,"migraine_risk":7,"frizz_risk":1,"updated_at":"2026-06-09T05:38:45.125425+05:30"},{"city":"Cuttack","state":"Odisha","latitude":20.4625,"longitude":85.8828,"temp":28.1,"humidity":95,"rain":0.0,"pressure":998.6,"uv_index":9.0,"wind_gusts":30.6,"aqi":107,"pm10":58.1,"pm2_5":48.5,"no2":15.4,"co":464.0,"o3":63.0,"so2":7.7,"mosquito_risk":7,"arthritis_risk":5,"migraine_risk":7,"frizz_risk":1,"updated_at":"2026-06-09T05:38:45.125431+05:30"},{"city":"Rourkela","state":"Odisha","latitude":22.2604,"longitude":84.8536,"temp":27.5,"humidity":73,"rain":0.0,"pressure":979.2,"uv_index":8.5,"wind_gusts":33.1,"aqi":133,"pm10":48.9,"pm2_5":39.6,"no2":10.6,"co":357.0,"o3":80.0,"so2":9.7,"mosquito_risk":7,"arthritis_risk":5,"migraine_risk":7,"frizz_risk":1,"updated_at":"2026-06-09T05:38:45.125438+05:30"},{"city":"Raipur","state":"Chhattisgarh","latitude":21.2514,"longitude":81.6296,"temp":29.1,"humidity":61,"rain":0.0,"pressure":970.6,"uv_index":8.15,"wind_gusts":36.7,"aqi":118,"pm10":46.9,"pm2_5":41.0,"no2":39.2,"co":445.0,"o3":47.0,"so2":55.1,"mosquito_risk":7,"arthritis_risk":5,"migraine_risk":7,"frizz_risk":1,"updated_at":"2026-06-09T05:38:45.125445+05:30"},{"city":"Bhilai","state":"Chhattisgarh","latitude":21.1938,"longitude":81.3509,"temp":26.7,"humidity":77,"rain":0.1,"pressure":970.9,"uv_index":8.35,"wind_gusts":37.8,"aqi":107,"pm10":46.8,"pm2_5":38.8,"no2":32.0,"co":610.0,"o3":51.0,"so2":45.8,"mosquito_risk":10,"arthritis_risk":5,"migraine_risk":7,"frizz_risk":1,"updated_at":"2026-06-09T05:38:45.125452+05:30"},{"city":"Guwahati","state":"Assam","latitude":26.1158,"longitude":91.7086,"temp":25.1,"humidity":95,"rain":0.0,"pressure":996.9,"uv_index":8.8,"wind_gusts":28.1,"aqi":83,"pm10":38.4,"pm2_5":33.4,"no2":6.6,"co":340.0,"o3":78.0,"so2":3.7,"mosquito_risk":7,"arthritis_risk":5,"migraine_risk":7,"frizz_risk":1,"updated_at":"2026-06-09T05:38:45.125459+05:30"},{"city":"Agartala","state":"Tripura","latitude":23.8315,"longitude":91.2868,"temp":26.2,"humidity":86,"rain":0.0,"pressure":1001.4,"uv_index":8.85,"wind_gusts":35.3,"aqi":69,"pm10":17.5,"pm2_5":15.1,"no2":10.8,"co":229.0,"o3":58.0,"so2":3.9,"mosquito_risk":7,"arthritis_risk":5,"migraine_risk":4,"frizz_risk":1,"updated_at":"2026-06-09T05:38:45.125466+05:30"},{"city":"Shillong","state":"Meghalaya","latitude":25.5788,"longitude":91.8933,"temp":19.3,"humidity":91,"rain":0.0,"pressure":853.7,"uv_index":8.1,"wind_gusts":29.5,"aqi":54,"pm10":12.7,"pm2_5":10.3,"no2":4.1,"co":285.0,"o3":78.0,"so2":2.9,"mosquito_risk":3,"arthritis_risk":10,"migraine_risk":7,"frizz_risk":1,"updated_at":"2026-06-09T05:38:45.125473+05:30"},{"city":"Imphal","state":"Manipur","latitude":24.817,"longitude":93.9368,"temp":22.6,"humidity":93,"rain":0.2,"pressure":919.7,"uv_index":8.9,"wind_gusts":34.2,"aqi":62,"pm10":13.8,"pm2_5":12.2,"no2":4.5,"co":469.0,"o3":72.0,"so2":2.3,"mosquito_risk":6,"arthritis_risk":5,"migraine_risk":7,"frizz_risk":1,"updated_at":"2026-06-09T05:38:45.125480+05:30"},{"city":"Aizawl","state":"Mizoram","latitude":23.7271,"longitude":92.7176,"temp":19.7,"humidity":96,"rain":0.0,"pressure":888.9,"uv_index":8.9,"wind_gusts":32.0,"aqi":33,"pm10":12.0,"pm2_5":9.5,"no2":3.4,"co":184.0,"o3":50.0,"so2":0.8,"mosquito_risk":3,"arthritis_risk":10,"migraine_risk":7,"frizz_risk":1,"updated_at":"2026-06-09T05:38:45.125486+05:30"},{"city":"Kohima","state":"Nagaland","latitude":25.6701,"longitude":94.1077,"temp":20.0,"humidity":93,"rain":0.1,"pressure":852.3,"uv_index":9.15,"wind_gusts":28.1,"aqi":38,"pm10":9.9,"pm2_5":7.8,"no2":3.3,"co":224.0,"o3":76.0,"so2":1.3,"mosquito_risk":6,"arthritis_risk":5,"migraine_risk":7,"frizz_risk":1,"updated_at":"2026-06-09T05:38:45.125493+05:30"},{"city":"Gangtok","state":"Sikkim","latitude":27.3314,"longitude":88.6138,"temp":17.2,"humidity":91,"rain":0.1,"pressure":833.5,"uv_index":9.25,"wind_gusts":37.4,"aqi":76,"pm10":31.1,"pm2_5":25.6,"no2":5.6,"co":535.0,"o3":122.0,"so2":2.8,"mosquito_risk":6,"arthritis_risk":10,"migraine_risk":7,"frizz_risk":0,"updated_at":"2026-06-09T05:38:45.125499+05:30"},{"city":"Siliguri","state":"West Bengal","latitude":26.7271,"longitude":88.3953,"temp":22.8,"humidity":99,"rain":0.1,"pressure":988.2,"uv_index":8.7,"wind_gusts":25.2,"aqi":116,"pm10":51.9,"pm2_5":36.0,"no2":7.0,"co":417.0,"o3":129.0,"so2":3.3,"mosquito_risk":6,"arthritis_risk":5,"migraine_risk":7,"frizz_risk":1,"updated_at":"2026-06-09T05:38:48.384228+05:30"},{"city":"Durgapur","state":"West Bengal","latitude":23.5204,"longitude":87.3119,"temp":28.2,"humidity":80,"rain":0.0,"pressure":988.1,"uv_index":9.0,"wind_gusts":28.8,"aqi":160,"pm10":97.1,"pm2_5":82.2,"no2":34.6,"co":879.0,"o3":45.0,"so2":42.3,"mosquito_risk":7,"arthritis_risk":5,"migraine_risk":7,"frizz_risk":1,"updated_at":"2026-06-09T05:38:48.384266+05:30"},{"city":"Asansol","state":"West Bengal","latitude":23.6739,"longitude":86.9524,"temp":28.6,"humidity":68,"rain":0.0,"pressure":986.6,"uv_index":8.85,"wind_gusts":29.2,"aqi":155,"pm10":92.0,"pm2_5":73.1,"no2":38.7,"co":1176.0,"o3":51.0,"so2":55.5,"mosquito_risk":7,"arthritis_risk":5,"migraine_risk":7,"frizz_risk":1,"updated_at":"2026-06-09T05:38:48.384278+05:30"},{"city":"Pondicherry","state":"Puducherry","latitude":11.9139,"longitude":79.8145,"temp":28.9,"humidity":67,"rain":0.0,"pressure":1007.0,"uv_index":7.75,"wind_gusts":40.0,"aqi":41,"pm10":6.0,"pm2_5":5.3,"no2":10.3,"co":157.0,"o3":30.0,"so2":7.8,"mosquito_risk":7,"arthritis_risk":5,"migraine_risk":4,"frizz_risk":1,"updated_at":"2026-06-09T05:38:48.384289+05:30"},{"city":"Port Blair","state":"Andaman and Nicobar Islands","latitude":11.6234,"longitude":92.7265,"temp":25.0,"humidity":98,"rain":0.1,"pressure":1006.9,"uv_index":8.6,"wind_gusts":50.0,"aqi":24,"pm10":6.3,"pm2_5":3.7,"no2":0.3,"co":87.0,"o3":49.0,"so2":0.3,"mosquito_risk":10,"arthritis_risk":5,"migraine_risk":4,"frizz_risk":1,"updated_at":"2026-06-09T05:38:48.384298+05:30"},{"city":"Haridwar","state":"Uttarakhand","latitude":29.9457,"longitude":78.1642,"temp":23.2,"humidity":75,"rain":0.0,"pressure":965.6,"uv_index":7.65,"wind_gusts":25.9,"aqi":93,"pm10":34.9,"pm2_5":33.3,"no2":30.9,"co":283.0,"o3":31.0,"so2":5.6,"mosquito_risk":3,"arthritis_risk":5,"migraine_risk":7,"frizz_risk":1,"updated_at":"2026-06-09T05:38:48.384307+05:30"},{"city":"Rishikesh","state":"Uttarakhand","latitude":30.0869,"longitude":78.2676,"temp":21.9,"humidity":81,"rain":0.0,"pressure":958.5,"uv_index":7.75,"wind_gusts":27.7,"aqi":76,"pm10":30.6,"pm2_5":26.8,"no2":19.7,"co":328.0,"o3":69.0,"so2":5.4,"mosquito_risk":3,"arthritis_risk":5,"migraine_risk":7,"frizz_risk":1,"updated_at":"2026-06-09T05:38:48.384315+05:30"},{"city":"Nainital","state":"Uttarakhand","latitude":29.3919,"longitude":79.4542,"temp":15.8,"humidity":63,"rain":0.0,"pressure":800.7,"uv_index":8.55,"wind_gusts":46.8,"aqi":81,"pm10":26.2,"pm2_5":23.1,"no2":24.7,"co":284.0,"o3":44.0,"so2":2.7,"mosquito_risk":3,"arthritis_risk":5,"migraine_risk":7,"frizz_risk":0,"updated_at":"2026-06-09T05:38:48.384323+05:30"},{"city":"Mussoorie","state":"Uttarakhand","latitude":30.4599,"longitude":78.0664,"temp":15.8,"humidity":63,"rain":0.0,"pressure":797.9,"uv_index":8.15,"wind_gusts":51.8,"aqi":77,"pm10":28.8,"pm2_5":26.1,"no2":28.1,"co":203.0,"o3":38.0,"so2":4.3,"mosquito_risk":3,"arthritis_risk":5,"migraine_risk":7,"frizz_risk":0,"updated_at":"2026-06-09T05:38:48.384332+05:30"},{"city":"Dharamshala","state":"Himachal Pradesh","latitude":32.219,"longitude":76.3234,"temp":23.3,"humidity":41,"rain":0.0,"pressure":864.1,"uv_index":8.5,"wind_gusts":48.6,"aqi":51,"pm10":12.0,"pm2_5":10.1,"no2":13.4,"co":188.0,"o3":32.0,"so2":0.1,"mosquito_risk":0,"arthritis_risk":5,"migraine_risk":7,"frizz_risk":0,"updated_at":"2026-06-09T05:38:48.384340+05:30"},{"city":"Dalhousie","state":"Himachal Pradesh","latitude":32.5387,"longitude":75.971,"temp":11.7,"humidity":74,"rain":0.0,"pressure":796.5,"uv_index":8.75,"wind_gusts":39.6,"aqi":66,"pm10":23.7,"pm2_5":22.4,"no2":25.3,"co":249.0,"o3":17.0,"so2":0.7,"mosquito_risk":3,"arthritis_risk":5,"migraine_risk":7,"frizz_risk":0,"updated_at":"2026-06-09T05:38:48.384347+05:30"},{"city":"Patiala","state":"Punjab","latitude":30.3398,"longitude":76.3869,"temp":28.5,"humidity":48,"rain":0.0,"pressure":969.7,"uv_index":7.65,"wind_gusts":38.9,"aqi":255,"pm10":249.6,"pm2_5":87.8,"no2":35.3,"co":644.0,"o3":43.0,"so2":11.3,"mosquito_risk":4,"arthritis_risk":5,"migraine_risk":7,"frizz_risk":1,"updated_at":"2026-06-09T05:38:48.384355+05:30"},{"city":"Bhatinda","state":"Punjab","latitude":30.211,"longitude":74.9455,"temp":30.2,"humidity":44,"rain":0.0,"pressure":974.7,"uv_index":8.35,"wind_gusts":24.5,"aqi":96,"pm10":75.4,"pm2_5":53.1,"no2":51.2,"co":478.0,"o3":33.0,"so2":10.1,"mosquito_risk":0,"arthritis_risk":5,"migraine_risk":7,"frizz_risk":1,"updated_at":"2026-06-09T05:38:48.384363+05:30"},{"city":"Rohtak","state":"Haryana","latitude":28.8955,"longitude":76.6066,"temp":28.2,"humidity":49,"rain":0.0,"pressure":973.6,"uv_index":7.85,"wind_gusts":32.0,"aqi":660,"pm10":468.5,"pm2_5":108.3,"no2":52.9,"co":505.0,"o3":12.0,"so2":7.2,"mosquito_risk":4,"arthritis_risk":5,"migraine_risk":7,"frizz_risk":1,"updated_at":"2026-06-09T05:38:48.384370+05:30"},{"city":"Panipat","state":"Haryana","latitude":29.3909,"longitude":76.9635,"temp":26.8,"humidity":57,"rain":0.0,"pressure":972.0,"uv_index":7.7,"wind_gusts":34.2,"aqi":1132,"pm10":462.9,"pm2_5":125.7,"no2":54.6,"co":485.0,"o3":20.0,"so2":8.4,"mosquito_risk":4,"arthritis_risk":5,"migraine_risk":7,"frizz_risk":1,"updated_at":"2026-06-09T05:38:48.384376+05:30"},{"city":"Mathura","state":"Uttar Pradesh","latitude":27.4924,"longitude":77.6737,"temp":29.8,"humidity":42,"rain":0.0,"pressure":979.0,"uv_index":8.1,"wind_gusts":43.9,"aqi":484,"pm10":302.7,"pm2_5":55.5,"no2":40.8,"co":314.0,"o3":13.0,"so2":5.2,"mosquito_risk":4,"arthritis_risk":5,"migraine_risk":7,"frizz_risk":0,"updated_at":"2026-06-09T05:38:48.384383+05:30"},{"city":"Vrindavan","state":"Uttar Pradesh","latitude":27.5823,"longitude":77.7027,"temp":29.7,"humidity":42,"rain":0.0,"pressure":979.3,"uv_index":8.05,"wind_gusts":43.6,"aqi":484,"pm10":302.7,"pm2_5":55.5,"no2":40.8,"co":344.0,"o3":13.0,"so2":5.2,"mosquito_risk":4,"arthritis_risk":5,"migraine_risk":7,"frizz_risk":0,"updated_at":"2026-06-09T05:38:48.384390+05:30"},{"city":"Ayodhya","state":"Uttar Pradesh","latitude":26.7922,"longitude":82.1998,"temp":26.7,"humidity":67,"rain":0.0,"pressure":988.0,"uv_index":8.45,"wind_gusts":15.5,"aqi":151,"pm10":141.6,"pm2_5":70.1,"no2":43.2,"co":467.0,"o3":20.0,"so2":10.1,"mosquito_risk":7,"arthritis_risk":5,"migraine_risk":7,"frizz_risk":1,"updated_at":"2026-06-09T05:38:48.384397+05:30"},{"city":"Ratlam","state":"Madhya Pradesh","latitude":23.3315,"longitude":75.0367,"temp":26.6,"humidity":83,"rain":0.0,"pressure":951.4,"uv_index":8.55,"wind_gusts":43.6,"aqi":81,"pm10":38.5,"pm2_5":21.2,"no2":7.1,"co":151.0,"o3":42.0,"so2":10.2,"mosquito_risk":7,"arthritis_risk":5,"migraine_risk":7,"frizz_risk":1,"updated_at":"2026-06-09T05:38:48.384405+05:30"},{"city":"Sagar","state":"Madhya Pradesh","latitude":23.8388,"longitude":78.7378,"temp":28.3,"humidity":58,"rain":0.0,"pressure":945.5,"uv_index":8.55,"wind_gusts":40.3,"aqi":78,"pm10":32.9,"pm2_5":22.7,"no2":6.0,"co":178.0,"o3":73.0,"so2":5.6,"mosquito_risk":4,"arthritis_risk":5,"migraine_risk":7,"frizz_risk":1,"updated_at":"2026-06-09T05:38:48.384412+05:30"},{"city":"Satna","state":"Madhya Pradesh","latitude":24.6005,"longitude":80.8322,"temp":29.8,"humidity":53,"rain":0.0,"pressure":965.5,"uv_index":8.75,"wind_gusts":44.6,"aqi":82,"pm10":36.8,"pm2_5":22.5,"no2":11.0,"co":165.0,"o3":59.0,"so2":5.2,"mosquito_risk":4,"arthritis_risk":5,"migraine_risk":7,"frizz_risk":1,"updated_at":"2026-06-09T05:38:48.384420+05:30"},{"city":"Akola","state":"Maharashtra","latitude":20.7002,"longitude":77.0082,"temp":29.3,"humidity":55,"rain":0.0,"pressure":972.3,"uv_index":8.8,"wind_gusts":44.6,"aqi":83,"pm10":47.3,"pm2_5":24.6,"no2":7.2,"co":127.0,"o3":48.0,"so2":7.3,"mosquito_risk":4,"arthritis_risk":5,"migraine_risk":7,"frizz_risk":1,"updated_at":"2026-06-09T05:38:48.384428+05:30"},{"city":"Amravati","state":"Maharashtra","latitude":20.9374,"longitude":77.7796,"temp":29.6,"humidity":47,"rain":0.0,"pressure":964.1,"uv_index":8.85,"wind_gusts":43.2,"aqi":86,"pm10":50.5,"pm2_5":26.2,"no2":7.4,"co":149.0,"o3":55.0,"so2":8.8,"mosquito_risk":4,"arthritis_risk":5,"migraine_risk":7,"frizz_risk":1,"updated_at":"2026-06-09T05:38:48.384437+05:30"},{"city":"Latur","state":"Maharashtra","latitude":18.4088,"longitude":76.5604,"temp":26.3,"humidity":73,"rain":0.0,"pressure":937.6,"uv_index":7.95,"wind_gusts":47.5,"aqi":75,"pm10":34.8,"pm2_5":19.4,"no2":6.8,"co":137.0,"o3":48.0,"so2":5.3,"mosquito_risk":7,"arthritis_risk":5,"migraine_risk":7,"frizz_risk":1,"updated_at":"2026-06-09T05:38:48.384445+05:30"},{"city":"Nanded","state":"Maharashtra","latitude":19.1383,"longitude":77.3091,"temp":29.1,"humidity":57,"rain":0.0,"pressure":965.7,"uv_index":8.9,"wind_gusts":47.5,"aqi":85,"pm10":52.5,"pm2_5":31.5,"no2":6.3,"co":144.0,"o3":69.0,"so2":7.8,"mosquito_risk":4,"arthritis_risk":5,"migraine_risk":7,"frizz_risk":1,"updated_at":"2026-06-09T05:38:48.384452+05:30"},{"city":"Gulbarga","state":"Karnataka","latitude":17.3297,"longitude":76.8343,"temp":24.9,"humidity":87,"rain":0.0,"pressure":956.8,"uv_index":8.8,"wind_gusts":49.0,"aqi":60,"pm10":9.7,"pm2_5":7.0,"no2":10.3,"co":125.0,"o3":39.0,"so2":3.5,"mosquito_risk":3,"arthritis_risk":5,"migraine_risk":7,"frizz_risk":1,"updated_at":"2026-06-09T05:38:48.384460+05:30"},{"city":"Bidar","state":"Karnataka","latitude":17.9104,"longitude":77.5199,"temp":25.6,"humidity":76,"rain":0.0,"pressure":933.3,"uv_index":8.8,"wind_gusts":60.1,"aqi":74,"pm10":22.5,"pm2_5":16.5,"no2":10.7,"co":128.0,"o3":45.0,"so2":3.4,"mosquito_risk":7,"arthritis_risk":5,"migraine_risk":7,"frizz_risk":1,"updated_at":"2026-06-09T05:38:48.384467+05:30"},{"city":"Hospet","state":"Karnataka","latitude":15.2689,"longitude":76.3909,"temp":23.2,"humidity":93,"rain":0.0,"pressure":955.0,"uv_index":2.85,"wind_gusts":45.4,"aqi":20,"pm10":1.9,"pm2_5":1.8,"no2":4.1,"co":131.0,"o3":46.0,"so2":1.0,"mosquito_risk":3,"arthritis_risk":5,"migraine_risk":3,"frizz_risk":1,"updated_at":"2026-06-09T05:38:48.384473+05:30"},{"city":"Tirupur","state":"Tamil Nadu","latitude":11.1085,"longitude":77.3411,"temp":23.7,"humidity":88,"rain":0.0,"pressure":975.6,"uv_index":6.85,"wind_gusts":60.1,"aqi":17,"pm10":3.6,"pm2_5":3.4,"no2":8.0,"co":119.0,"o3":33.0,"so2":3.2,"mosquito_risk":3,"arthritis_risk":5,"migraine_risk":7,"frizz_risk":1,"updated_at":"2026-06-09T05:38:48.384480+05:30"},{"city":"Alappuzha","state":"Kerala","latitude":9.4981,"longitude":76.3388,"temp":26.6,"humidity":91,"rain":0.1,"pressure":1010.6,"uv_index":7.8,"wind_gusts":48.2,"aqi":32,"pm10":13.2,"pm2_5":6.8,"no2":3.7,"co":80.0,"o3":38.0,"so2":1.1,"mosquito_risk":10,"arthritis_risk":0,"migraine_risk":4,"frizz_risk":1,"updated_at":"2026-06-09T05:38:48.384487+05:30"},{"city":"Munnar","state":"Kerala","latitude":10.0889,"longitude":77.0595,"temp":16.8,"humidity":100,"rain":0.7,"pressure":857.3,"uv_index":7.6,"wind_gusts":57.6,"aqi":13,"pm10":1.0,"pm2_5":0.9,"no2":3.2,"co":88.0,"o3":31.0,"so2":1.0,"mosquito_risk":6,"arthritis_risk":10,"migraine_risk":7,"frizz_risk":1,"updated_at":"2026-06-09T05:38:48.384494+05:30"},{"city":"Silchar","state":"Assam","latitude":24.8333,"longitude":92.7789,"temp":24.9,"humidity":99,"rain":0.1,"pressure":1001.5,"uv_index":8.95,"wind_gusts":25.2,"aqi":69,"pm10":21.0,"pm2_5":18.5,"no2":8.5,"co":255.0,"o3":67.0,"so2":3.9,"mosquito_risk":6,"arthritis_risk":5,"migraine_risk":4,"frizz_risk":1,"updated_at":"2026-06-09T05:38:48.384501+05:30"},{"city":"Dibrugarh","state":"Assam","latitude":27.4728,"longitude":94.912,"temp":24.6,"humidity":96,"rain":0.1,"pressure":991.1,"uv_index":7.7,"wind_gusts":24.1,"aqi":90,"pm10":25.4,"pm2_5":22.6,"no2":6.9,"co":276.0,"o3":93.0,"so2":2.0,"mosquito_risk":6,"arthritis_risk":5,"migraine_risk":7,"frizz_risk":1,"updated_at":"2026-06-09T05:38:48.384507+05:30"}]