[{"city":"Delhi","state":"Delhi","latitude":28.6139,"longitude":77.209,"temp":32.2,"humidity":68,"rain":0.0,"pressure":972.4,"uv_index":7.0,"wind_gusts":23.4,"aqi":169,"pm10":72.4,"pm2_5":43.5,"no2":14.3,"co":671.0,"o3":197.0,"so2":26.4,"mosquito_risk":3,"arthritis_risk":5,"migraine_risk":7,"frizz_risk":1,"updated_at":"2026-07-04T17:38:41.737219+05:30"},{"city":"Mumbai","state":"Maharashtra","latitude":19.076,"longitude":72.8777,"temp":25.8,"humidity":91,"rain":0.6,"pressure":1000.2,"uv_index":0.3,"wind_gusts":55.4,"aqi":30,"pm10":8.4,"pm2_5":5.7,"no2":9.0,"co":245.0,"o3":47.0,"so2":3.0,"mosquito_risk":10,"arthritis_risk":5,"migraine_risk":0,"frizz_risk":1,"updated_at":"2026-07-04T17:38:41.737285+05:30"},{"city":"Bangalore","state":"Karnataka","latitude":12.9716,"longitude":77.5946,"temp":26.0,"humidity":59,"rain":0.0,"pressure":908.6,"uv_index":5.8,"wind_gusts":67.3,"aqi":26,"pm10":9.0,"pm2_5":5.4,"no2":9.6,"co":306.0,"o3":51.0,"so2":2.3,"mosquito_risk":4,"arthritis_risk":5,"migraine_risk":3,"frizz_risk":1,"updated_at":"2026-07-04T17:38:41.737303+05:30"},{"city":"Hyderabad","state":"Telangana","latitude":17.385,"longitude":78.4867,"temp":25.0,"humidity":86,"rain":0.0,"pressure":946.1,"uv_index":2.8,"wind_gusts":56.9,"aqi":23,"pm10":5.2,"pm2_5":4.1,"no2":6.6,"co":330.0,"o3":61.0,"so2":3.0,"mosquito_risk":7,"arthritis_risk":5,"migraine_risk":3,"frizz_risk":1,"updated_at":"2026-07-04T17:38:41.737314+05:30"},{"city":"Chennai","state":"Tamil Nadu","latitude":13.0827,"longitude":80.2707,"temp":29.8,"humidity":67,"rain":0.0,"pressure":1002.0,"uv_index":2.15,"wind_gusts":41.8,"aqi":36,"pm10":17.2,"pm2_5":12.6,"no2":12.2,"co":496.0,"o3":75.0,"so2":9.1,"mosquito_risk":7,"arthritis_risk":5,"migraine_risk":0,"frizz_risk":1,"updated_at":"2026-07-04T17:38:41.737326+05:30"},{"city":"Kolkata","state":"West Bengal","latitude":22.5726,"longitude":88.3639,"temp":30.3,"humidity":78,"rain":0.0,"pressure":991.5,"uv_index":7.5,"wind_gusts":50.4,"aqi":48,"pm10":12.1,"pm2_5":10.9,"no2":8.6,"co":615.0,"o3":80.0,"so2":7.9,"mosquito_risk":3,"arthritis_risk":5,"migraine_risk":7,"frizz_risk":1,"updated_at":"2026-07-04T17:38:41.737337+05:30"},{"city":"Pune","state":"Maharashtra","latitude":18.5204,"longitude":73.8567,"temp":23.8,"humidity":91,"rain":0.2,"pressure":940.1,"uv_index":0.55,"wind_gusts":47.9,"aqi":21,"pm10":1.8,"pm2_5":1.7,"no2":8.0,"co":175.0,"o3":45.0,"so2":2.1,"mosquito_risk":6,"arthritis_risk":5,"migraine_risk":3,"frizz_risk":1,"updated_at":"2026-07-04T17:38:41.737346+05:30"},{"city":"Ahmedabad","state":"Gujarat","latitude":23.0225,"longitude":72.5714,"temp":31.5,"humidity":67,"rain":0.0,"pressure":991.6,"uv_index":5.85,"wind_gusts":34.9,"aqi":57,"pm10":40.2,"pm2_5":19.8,"no2":11.8,"co":258.0,"o3":59.0,"so2":4.9,"mosquito_risk":3,"arthritis_risk":5,"migraine_risk":3,"frizz_risk":1,"updated_at":"2026-07-04T17:38:41.737355+05:30"},{"city":"Jaipur","state":"Rajasthan","latitude":26.9124,"longitude":75.7873,"temp":33.2,"humidity":59,"rain":0.0,"pressure":949.0,"uv_index":7.4,"wind_gusts":27.7,"aqi":113,"pm10":73.6,"pm2_5":31.8,"no2":3.8,"co":277.0,"o3":149.0,"so2":5.6,"mosquito_risk":0,"arthritis_risk":5,"migraine_risk":7,"frizz_risk":1,"updated_at":"2026-07-04T17:38:41.737364+05:30"},{"city":"Lucknow","state":"Uttar Pradesh","latitude":26.8467,"longitude":80.9462,"temp":34.7,"humidity":62,"rain":0.0,"pressure":981.4,"uv_index":7.7,"wind_gusts":21.6,"aqi":125,"pm10":24.7,"pm2_5":24.0,"no2":4.6,"co":352.0,"o3":137.0,"so2":6.2,"mosquito_risk":3,"arthritis_risk":5,"migraine_risk":7,"frizz_risk":1,"updated_at":"2026-07-04T17:38:41.737379+05:30"},{"city":"Kanpur","state":"Uttar Pradesh","latitude":26.4499,"longitude":80.3319,"temp":35.0,"humidity":59,"rain":0.0,"pressure":979.4,"uv_index":8.05,"wind_gusts":28.4,"aqi":131,"pm10":23.2,"pm2_5":22.5,"no2":4.2,"co":295.0,"o3":146.0,"so2":6.9,"mosquito_risk":0,"arthritis_risk":5,"migraine_risk":7,"frizz_risk":1,"updated_at":"2026-07-04T17:38:41.737389+05:30"},{"city":"Chandigarh","state":"Chandigarh","latitude":30.7333,"longitude":76.7794,"temp":31.4,"humidity":72,"rain":0.0,"pressure":958.8,"uv_index":7.1,"wind_gusts":23.0,"aqi":142,"pm10":32.5,"pm2_5":31.1,"no2":8.7,"co":588.0,"o3":165.0,"so2":16.6,"mosquito_risk":3,"arthritis_risk":5,"migraine_risk":7,"frizz_risk":1,"updated_at":"2026-07-04T17:38:41.737397+05:30"},{"city":"Srinagar","state":"Jammu and Kashmir","latitude":34.0837,"longitude":74.7973,"temp":30.7,"humidity":33,"rain":0.0,"pressure":837.4,"uv_index":9.0,"wind_gusts":21.2,"aqi":130,"pm10":19.2,"pm2_5":12.2,"no2":3.0,"co":346.0,"o3":141.0,"so2":2.3,"mosquito_risk":0,"arthritis_risk":5,"migraine_risk":7,"frizz_risk":0,"updated_at":"2026-07-04T17:38:41.737406+05:30"},{"city":"Jammu","state":"Jammu and Kashmir","latitude":32.7266,"longitude":74.857,"temp":36.1,"humidity":42,"rain":0.0,"pressure":962.3,"uv_index":8.6,"wind_gusts":29.9,"aqi":176,"pm10":30.9,"pm2_5":24.4,"no2":3.9,"co":328.0,"o3":185.0,"so2":3.7,"mosquito_risk":0,"arthritis_risk":5,"migraine_risk":10,"frizz_risk":1,"updated_at":"2026-07-04T17:38:41.737414+05:30"},{"city":"Amritsar","state":"Punjab","latitude":31.634,"longitude":74.8723,"temp":35.9,"humidity":50,"rain":0.0,"pressure":970.1,"uv_index":8.45,"wind_gusts":29.2,"aqi":132,"pm10":42.1,"pm2_5":33.2,"no2":4.0,"co":386.0,"o3":154.0,"so2":4.1,"mosquito_risk":0,"arthritis_risk":5,"migraine_risk":10,"frizz_risk":1,"updated_at":"2026-07-04T17:38:41.737423+05:30"},{"city":"Ludhiana","state":"Punjab","latitude":30.901,"longitude":75.8573,"temp":32.6,"humidity":68,"rain":0.0,"pressure":968.2,"uv_index":7.95,"wind_gusts":36.4,"aqi":133,"pm10":37.4,"pm2_5":32.9,"no2":6.4,"co":411.0,"o3":159.0,"so2":9.0,"mosquito_risk":3,"arthritis_risk":5,"migraine_risk":7,"frizz_risk":1,"updated_at":"2026-07-04T17:38:41.737431+05:30"},{"city":"Jalandhar","state":"Punjab","latitude":31.326,"longitude":75.5762,"temp":33.3,"humidity":65,"rain":0.0,"pressure":969.3,"uv_index":8.2,"wind_gusts":34.2,"aqi":151,"pm10":42.1,"pm2_5":34.9,"no2":5.1,"co":437.0,"o3":164.0,"so2":5.7,"mosquito_risk":3,"arthritis_risk":5,"migraine_risk":7,"frizz_risk":1,"updated_at":"2026-07-04T17:38:41.737439+05:30"},{"city":"Dehradun","state":"Uttarakhand","latitude":30.6284,"longitude":78.0322,"temp":22.5,"humidity":85,"rain":0.0,"pressure":825.6,"uv_index":7.15,"wind_gusts":26.3,"aqi":75,"pm10":8.1,"pm2_5":8.0,"no2":2.3,"co":258.0,"o3":121.0,"so2":1.3,"mosquito_risk":3,"arthritis_risk":5,"migraine_risk":7,"frizz_risk":1,"updated_at":"2026-07-04T17:38:41.737448+05:30"},{"city":"Shimla","state":"Himachal Pradesh","latitude":31.1048,"longitude":77.1734,"temp":20.4,"humidity":78,"rain":0.0,"pressure":780.8,"uv_index":7.4,"wind_gusts":25.2,"aqi":99,"pm10":11.3,"pm2_5":11.0,"no2":4.8,"co":294.0,"o3":131.0,"so2":5.2,"mosquito_risk":3,"arthritis_risk":5,"migraine_risk":7,"frizz_risk":1,"updated_at":"2026-07-04T17:38:41.737456+05:30"},{"city":"Manali","state":"Himachal Pradesh","latitude":32.2396,"longitude":77.1887,"temp":24.3,"humidity":84,"rain":0.0,"pressure":815.3,"uv_index":9.45,"wind_gusts":33.5,"aqi":109,"pm10":18.7,"pm2_5":18.3,"no2":43.7,"co":196.0,"o3":122.0,"so2":1.1,"mosquito_risk":3,"arthritis_risk":5,"migraine_risk":7,"frizz_risk":1,"updated_at":"2026-07-04T17:38:41.737467+05:30"},{"city":"Gurgaon","state":"Haryana","latitude":28.4595,"longitude":77.0266,"temp":32.5,"humidity":67,"rain":0.0,"pressure":970.7,"uv_index":6.4,"wind_gusts":30.2,"aqi":165,"pm10":91.7,"pm2_5":41.4,"no2":13.1,"co":630.0,"o3":216.0,"so2":24.9,"mosquito_risk":3,"arthritis_risk":5,"migraine_risk":7,"frizz_risk":1,"updated_at":"2026-07-04T17:38:41.737476+05:30"},{"city":"Noida","state":"Uttar Pradesh","latitude":28.5355,"longitude":77.391,"temp":31.9,"humidity":73,"rain":0.0,"pressure":973.7,"uv_index":6.8,"wind_gusts":27.4,"aqi":165,"pm10":91.7,"pm2_5":41.4,"no2":13.1,"co":520.0,"o3":216.0,"so2":24.9,"mosquito_risk":3,"arthritis_risk":5,"migraine_risk":7,"frizz_risk":1,"updated_at":"2026-07-04T17:38:41.737483+05:30"},{"city":"Ghaziabad","state":"Uttar Pradesh","latitude":28.6692,"longitude":77.4538,"temp":31.3,"humidity":76,"rain":0.0,"pressure":972.1,"uv_index":7.55,"wind_gusts":28.4,"aqi":155,"pm10":32.5,"pm2_5":30.9,"no2":7.0,"co":304.0,"o3":172.0,"so2":15.6,"mosquito_risk":3,"arthritis_risk":5,"migraine_risk":7,"frizz_risk":1,"updated_at":"2026-07-04T17:38:41.737494+05:30"},{"city":"Faridabad","state":"Haryana","latitude":28.4089,"longitude":77.3178,"temp":32.4,"humidity":67,"rain":0.0,"pressure":973.0,"uv_index":6.75,"wind_gusts":28.4,"aqi":165,"pm10":91.7,"pm2_5":41.4,"no2":13.1,"co":535.0,"o3":216.0,"so2":24.9,"mosquito_risk":3,"arthritis_risk":5,"migraine_risk":7,"frizz_risk":1,"updated_at":"2026-07-04T17:38:41.737503+05:30"},{"city":"Meerut","state":"Uttar Pradesh","latitude":28.9845,"longitude":77.7064,"temp":31.7,"humidity":74,"rain":0.0,"pressure":971.0,"uv_index":7.0,"wind_gusts":26.3,"aqi":155,"pm10":32.5,"pm2_5":30.9,"no2":7.0,"co":330.0,"o3":172.0,"so2":15.6,"mosquito_risk":3,"arthritis_risk":5,"migraine_risk":7,"frizz_risk":1,"updated_at":"2026-07-04T17:38:41.737512+05:30"},{"city":"Agra","state":"Uttar Pradesh","latitude":27.1767,"longitude":78.0081,"temp":32.3,"humidity":72,"rain":0.0,"pressure":976.2,"uv_index":6.65,"wind_gusts":22.3,"aqi":165,"pm10":34.5,"pm2_5":31.1,"no2":6.5,"co":303.0,"o3":165.0,"so2":6.2,"mosquito_risk":3,"arthritis_risk":5,"migraine_risk":7,"frizz_risk":1,"updated_at":"2026-07-04T17:38:41.737519+05:30"},{"city":"Varanasi","state":"Uttar Pradesh","latitude":25.3176,"longitude":82.9739,"temp":35.0,"humidity":56,"rain":0.0,"pressure":984.9,"uv_index":8.7,"wind_gusts":31.0,"aqi":86,"pm10":18.1,"pm2_5":17.8,"no2":6.5,"co":378.0,"o3":116.0,"so2":6.1,"mosquito_risk":0,"arthritis_risk":5,"migraine_risk":7,"frizz_risk":1,"updated_at":"2026-07-04T17:38:41.737528+05:30"},{"city":"Prayagraj","state":"Uttar Pradesh","latitude":25.4358,"longitude":81.8463,"temp":34.8,"humidity":61,"rain":0.0,"pressure":983.1,"uv_index":8.15,"wind_gusts":31.7,"aqi":122,"pm10":18.5,"pm2_5":18.2,"no2":4.5,"co":306.0,"o3":139.0,"so2":6.0,"mosquito_risk":3,"arthritis_risk":5,"migraine_risk":7,"frizz_risk":1,"updated_at":"2026-07-04T17:38:41.737536+05:30"},{"city":"Gorakhpur","state":"Uttar Pradesh","latitude":26.7606,"longitude":83.3732,"temp":34.4,"humidity":64,"rain":0.1,"pressure":985.3,"uv_index":8.55,"wind_gusts":28.8,"aqi":125,"pm10":23.0,"pm2_5":22.5,"no2":5.0,"co":280.0,"o3":140.0,"so2":5.5,"mosquito_risk":6,"arthritis_risk":5,"migraine_risk":7,"frizz_risk":1,"updated_at":"2026-07-04T17:38:41.737544+05:30"},{"city":"Bareilly","state":"Uttar Pradesh","latitude":28.367,"longitude":79.4304,"temp":33.7,"humidity":64,"rain":0.0,"pressure":975.7,"uv_index":7.9,"wind_gusts":24.1,"aqi":154,"pm10":31.4,"pm2_5":28.9,"no2":6.4,"co":337.0,"o3":148.0,"so2":6.9,"mosquito_risk":3,"arthritis_risk":5,"migraine_risk":7,"frizz_risk":1,"updated_at":"2026-07-04T17:38:41.737555+05:30"},{"city":"Aligarh","state":"Uttar Pradesh","latitude":27.8974,"longitude":78.088,"temp":32.0,"humidity":73,"rain":0.0,"pressure":974.5,"uv_index":7.8,"wind_gusts":26.3,"aqi":151,"pm10":40.2,"pm2_5":31.1,"no2":5.9,"co":294.0,"o3":176.0,"so2":12.4,"mosquito_risk":3,"arthritis_risk":5,"migraine_risk":7,"frizz_risk":1,"updated_at":"2026-07-04T17:38:41.737563+05:30"},{"city":"Moradabad","state":"Uttar Pradesh","latitude":28.8386,"longitude":78.7733,"temp":32.2,"humidity":72,"rain":0.0,"pressure":973.1,"uv_index":7.7,"wind_gusts":24.1,"aqi":179,"pm10":29.9,"pm2_5":29.4,"no2":7.2,"co":332.0,"o3":172.0,"so2":12.8,"mosquito_risk":3,"arthritis_risk":5,"migraine_risk":7,"frizz_risk":1,"updated_at":"2026-07-04T17:38:41.737570+05:30"},{"city":"Saharanpur","state":"Uttar Pradesh","latitude":29.9637,"longitude":77.546,"temp":31.0,"humidity":75,"rain":0.0,"pressure":965.6,"uv_index":6.7,"wind_gusts":19.4,"aqi":156,"pm10":33.4,"pm2_5":32.8,"no2":8.3,"co":396.0,"o3":178.0,"so2":20.4,"mosquito_risk":3,"arthritis_risk":5,"migraine_risk":7,"frizz_risk":1,"updated_at":"2026-07-04T17:38:41.737579+05:30"},{"city":"Jhansi","state":"Uttar Pradesh","latitude":25.4484,"longitude":78.5685,"temp":34.9,"humidity":54,"rain":0.0,"pressure":965.8,"uv_index":6.75,"wind_gusts":29.5,"aqi":125,"pm10":24.5,"pm2_5":23.9,"no2":3.6,"co":235.0,"o3":153.0,"so2":10.1,"mosquito_risk":0,"arthritis_risk":5,"migraine_risk":7,"frizz_risk":1,"updated_at":"2026-07-04T17:38:45.146753+05:30"},{"city":"Surat","state":"Gujarat","latitude":21.1702,"longitude":72.8311,"temp":27.8,"humidity":87,"rain":0.2,"pressure":997.1,"uv_index":0.9,"wind_gusts":33.1,"aqi":69,"pm10":25.1,"pm2_5":19.8,"no2":32.5,"co":444.0,"o3":35.0,"so2":45.0,"mosquito_risk":10,"arthritis_risk":5,"migraine_risk":3,"frizz_risk":1,"updated_at":"2026-07-04T17:38:45.146790+05:30"},{"city":"Vadodara","state":"Gujarat","latitude":22.3072,"longitude":73.1812,"temp":27.4,"humidity":92,"rain":0.1,"pressure":994.5,"uv_index":1.05,"wind_gusts":28.4,"aqi":51,"pm10":33.4,"pm2_5":18.8,"no2":20.7,"co":414.0,"o3":43.0,"so2":11.6,"mosquito_risk":10,"arthritis_risk":5,"migraine_risk":3,"frizz_risk":1,"updated_at":"2026-07-04T17:38:45.146802+05:30"},{"city":"Rajkot","state":"Gujarat","latitude":22.3039,"longitude":70.8022,"temp":32.5,"humidity":60,"rain":0.0,"pressure":983.8,"uv_index":6.55,"wind_gusts":36.0,"aqi":57,"pm10":49.8,"pm2_5":22.0,"no2":3.5,"co":104.0,"o3":76.0,"so2":4.9,"mosquito_risk":0,"arthritis_risk":5,"migraine_risk":7,"frizz_risk":1,"updated_at":"2026-07-04T17:38:45.146839+05:30"},{"city":"Thane","state":"Maharashtra","latitude":19.2183,"longitude":72.9781,"temp":25.7,"humidity":94,"rain":0.5,"pressure":999.4,"uv_index":0.4,"wind_gusts":39.2,"aqi":30,"pm10":8.4,"pm2_5":5.7,"no2":9.0,"co":241.0,"o3":47.0,"so2":3.0,"mosquito_risk":10,"arthritis_risk":5,"migraine_risk":3,"frizz_risk":1,"updated_at":"2026-07-04T17:38:45.146852+05:30"},{"city":"Nagpur","state":"Maharashtra","latitude":21.1458,"longitude":79.0882,"temp":27.1,"humidity":86,"rain":0.1,"pressure":962.5,"uv_index":8.3,"wind_gusts":31.0,"aqi":66,"pm10":16.2,"pm2_5":15.5,"no2":15.9,"co":335.0,"o3":90.0,"so2":19.2,"mosquito_risk":10,"arthritis_risk":5,"migraine_risk":7,"frizz_risk":1,"updated_at":"2026-07-04T17:38:45.146862+05:30"},{"city":"Nashik","state":"Maharashtra","latitude":19.9975,"longitude":73.7898,"temp":24.0,"humidity":93,"rain":0.1,"pressure":936.6,"uv_index":1.15,"wind_gusts":34.6,"aqi":27,"pm10":3.6,"pm2_5":3.0,"no2":9.6,"co":162.0,"o3":53.0,"so2":3.5,"mosquito_risk":6,"arthritis_risk":5,"migraine_risk":3,"frizz_risk":1,"updated_at":"2026-07-04T17:38:45.146871+05:30"},{"city":"Aurangabad","state":"Maharashtra","latitude":19.8762,"longitude":75.3433,"temp":24.1,"humidity":92,"rain":0.0,"pressure":935.4,"uv_index":1.7,"wind_gusts":38.5,"aqi":33,"pm10":5.1,"pm2_5":4.7,"no2":6.8,"co":196.0,"o3":73.0,"so2":4.0,"mosquito_risk":3,"arthritis_risk":5,"migraine_risk":3,"frizz_risk":1,"updated_at":"2026-07-04T17:38:45.146881+05:30"},{"city":"Solapur","state":"Maharashtra","latitude":17.6599,"longitude":75.9064,"temp":24.8,"humidity":88,"rain":0.1,"pressure":950.4,"uv_index":1.05,"wind_gusts":48.2,"aqi":23,"pm10":2.2,"pm2_5":2.0,"no2":4.1,"co":115.0,"o3":49.0,"so2":1.3,"mosquito_risk":6,"arthritis_risk":5,"migraine_risk":3,"frizz_risk":1,"updated_at":"2026-07-04T17:38:45.146891+05:30"},{"city":"Kolhapur","state":"Maharashtra","latitude":16.705,"longitude":74.2433,"temp":22.3,"humidity":96,"rain":0.3,"pressure":941.9,"uv_index":1.3,"wind_gusts":51.8,"aqi":22,"pm10":2.6,"pm2_5":2.1,"no2":5.0,"co":142.0,"o3":45.0,"so2":1.0,"mosquito_risk":6,"arthritis_risk":5,"migraine_risk":3,"frizz_risk":1,"updated_at":"2026-07-04T17:38:45.146900+05:30"},{"city":"Goa","state":"Goa","latitude":15.2993,"longitude":74.124,"temp":24.8,"humidity":97,"rain":0.3,"pressure":995.1,"uv_index":3.8,"wind_gusts":39.2,"aqi":50,"pm10":16.5,"pm2_5":8.3,"no2":1.7,"co":153.0,"o3":51.0,"so2":0.5,"mosquito_risk":6,"arthritis_risk":5,"migraine_risk":3,"frizz_risk":1,"updated_at":"2026-07-04T17:38:45.146909+05:30"},{"city":"Jodhpur","state":"Rajasthan","latitude":26.2389,"longitude":73.0243,"temp":35.0,"humidity":52,"rain":0.0,"pressure":971.4,"uv_index":7.85,"wind_gusts":27.4,"aqi":150,"pm10":244.0,"pm2_5":72.2,"no2":2.7,"co":170.0,"o3":101.0,"so2":4.1,"mosquito_risk":0,"arthritis_risk":5,"migraine_risk":7,"frizz_risk":1,"updated_at":"2026-07-04T17:38:45.146918+05:30"},{"city":"Udaipur","state":"Rajasthan","latitude":24.5854,"longitude":73.7125,"temp":27.8,"humidity":84,"rain":0.2,"pressure":936.5,"uv_index":4.0,"wind_gusts":34.2,"aqi":57,"pm10":93.8,"pm2_5":31.8,"no2":2.1,"co":219.0,"o3":91.0,"so2":4.9,"mosquito_risk":10,"arthritis_risk":5,"migraine_risk":3,"frizz_risk":1,"updated_at":"2026-07-04T17:38:45.146928+05:30"},{"city":"Kota","state":"Rajasthan","latitude":25.2138,"longitude":75.8648,"temp":33.4,"humidity":60,"rain":0.0,"pressure":966.9,"uv_index":7.2,"wind_gusts":30.6,"aqi":90,"pm10":55.6,"pm2_5":26.7,"no2":2.3,"co":182.0,"o3":125.0,"so2":4.1,"mosquito_risk":0,"arthritis_risk":5,"migraine_risk":7,"frizz_risk":1,"updated_at":"2026-07-04T17:38:45.146936+05:30"},{"city":"Bikaner","state":"Rajasthan","latitude":28.0229,"longitude":73.3119,"temp":38.4,"humidity":38,"rain":0.0,"pressure":969.9,"uv_index":7.05,"wind_gusts":25.9,"aqi":117,"pm10":64.5,"pm2_5":30.2,"no2":1.0,"co":229.0,"o3":132.0,"so2":3.5,"mosquito_risk":0,"arthritis_risk":5,"migraine_risk":10,"frizz_risk":1,"updated_at":"2026-07-04T17:38:45.146945+05:30"},{"city":"Ajmer","state":"Rajasthan","latitude":26.4499,"longitude":74.6399,"temp":33.0,"humidity":54,"rain":0.0,"pressure":944.0,"uv_index":7.25,"wind_gusts":33.5,"aqi":120,"pm10":113.6,"pm2_5":40.6,"no2":2.1,"co":233.0,"o3":120.0,"so2":3.3,"mosquito_risk":0,"arthritis_risk":5,"migraine_risk":7,"frizz_risk":1,"updated_at":"2026-07-04T17:38:45.146954+05:30"},{"city":"Gwalior","state":"Madhya Pradesh","latitude":26.2183,"longitude":78.1828,"temp":33.2,"humidity":67,"rain":0.0,"pressure":971.3,"uv_index":7.65,"wind_gusts":25.9,"aqi":112,"pm10":21.9,"pm2_5":21.0,"no2":2.8,"co":254.0,"o3":137.0,"so2":3.5,"mosquito_risk":3,"arthritis_risk":5,"migraine_risk":7,"frizz_risk":1,"updated_at":"2026-07-04T17:38:45.146963+05:30"},{"city":"Indore","state":"Madhya Pradesh","latitude":22.7196,"longitude":75.8577,"temp":26.4,"humidity":88,"rain":0.3,"pressure":938.0,"uv_index":7.45,"wind_gusts":31.3,"aqi":46,"pm10":24.6,"pm2_5":14.7,"no2":5.4,"co":441.0,"o3":100.0,"so2":2.6,"mosquito_risk":10,"arthritis_risk":5,"migraine_risk":7,"frizz_risk":1,"updated_at":"2026-07-04T17:38:45.146973+05:30"},{"city":"Bhopal","state":"Madhya Pradesh","latitude":23.2599,"longitude":77.4126,"temp":27.4,"humidity":87,"rain":0.1,"pressure":942.4,"uv_index":8.5,"wind_gusts":29.9,"aqi":61,"pm10":11.4,"pm2_5":10.3,"no2":4.4,"co":340.0,"o3":97.0,"so2":2.4,"mosquito_risk":10,"arthritis_risk":5,"migraine_risk":7,"frizz_risk":1,"updated_at":"2026-07-04T17:38:45.146981+05:30"},{"city":"Jabalpur","state":"Madhya Pradesh","latitude":23.1815,"longitude":79.9864,"temp":26.8,"humidity":96,"rain":0.0,"pressure":950.4,"uv_index":8.8,"wind_gusts":24.8,"aqi":102,"pm10":24.2,"pm2_5":23.9,"no2":4.8,"co":221.0,"o3":122.0,"so2":7.4,"mosquito_risk":7,"arthritis_risk":5,"migraine_risk":7,"frizz_risk":1,"updated_at":"2026-07-04T17:38:45.146990+05:30"},{"city":"Ujjain","state":"Madhya Pradesh","latitude":23.1765,"longitude":75.7885,"temp":27.2,"humidity":82,"rain":0.1,"pressure":943.5,"uv_index":7.4,"wind_gusts":30.6,"aqi":50,"pm10":25.4,"pm2_5":14.5,"no2":3.5,"co":265.0,"o3":90.0,"so2":2.5,"mosquito_risk":10,"arthritis_risk":5,"migraine_risk":7,"frizz_risk":1,"updated_at":"2026-07-04T17:38:45.146999+05:30"},{"city":"Visakhapatnam","state":"Andhra Pradesh","latitude":17.6868,"longitude":83.2185,"temp":26.5,"humidity":90,"rain":0.1,"pressure":991.5,"uv_index":2.7,"wind_gusts":61.9,"aqi":41,"pm10":12.2,"pm2_5":10.9,"no2":13.0,"co":234.0,"o3":77.0,"so2":21.5,"mosquito_risk":10,"arthritis_risk":5,"migraine_risk":3,"frizz_risk":1,"updated_at":"2026-07-04T17:38:45.147008+05:30"},{"city":"Vijayawada","state":"Andhra Pradesh","latitude":16.5062,"longitude":80.648,"temp":29.4,"humidity":70,"rain":0.0,"pressure":994.4,"uv_index":2.0,"wind_gusts":66.2,"aqi":37,"pm10":12.6,"pm2_5":9.4,"no2":5.4,"co":145.0,"o3":67.0,"so2":4.4,"mosquito_risk":7,"arthritis_risk":5,"migraine_risk":3,"frizz_risk":1,"updated_at":"2026-07-04T17:38:45.147016+05:30"},{"city":"Guntur","state":"Andhra Pradesh","latitude":16.3067,"longitude":80.4365,"temp":31.2,"humidity":58,"rain":0.0,"pressure":996.1,"uv_index":2.05,"wind_gusts":51.8,"aqi":33,"pm10":11.3,"pm2_5":8.1,"no2":5.5,"co":145.0,"o3":62.0,"so2":4.5,"mosquito_risk":0,"arthritis_risk":5,"migraine_risk":3,"frizz_risk":1,"updated_at":"2026-07-04T17:38:45.147025+05:30"},{"city":"Nellore","state":"Andhra Pradesh","latitude":14.4426,"longitude":79.9865,"temp":31.5,"humidity":58,"rain":0.0,"pressure":1000.1,"uv_index":1.65,"wind_gusts":46.8,"aqi":31,"pm10":16.5,"pm2_5":8.2,"no2":3.8,"co":127.0,"o3":64.0,"so2":2.8,"mosquito_risk":0,"arthritis_risk":5,"migraine_risk":0,"frizz_risk":1,"updated_at":"2026-07-04T17:38:45.147035+05:30"},{"city":"Kurnool","state":"Andhra Pradesh","latitude":15.8281,"longitude":78.0373,"temp":29.4,"humidity":59,"rain":0.0,"pressure":971.2,"uv_index":1.15,"wind_gusts":62.3,"aqi":28,"pm10":4.9,"pm2_5":3.2,"no2":3.3,"co":126.0,"o3":58.0,"so2":1.6,"mosquito_risk":4,"arthritis_risk":5,"migraine_risk":3,"frizz_risk":1,"updated_at":"2026-07-04T17:38:45.147045+05:30"},{"city":"Kakinada","state":"Andhra Pradesh","latitude":16.9891,"longitude":82.2475,"temp":28.2,"humidity":77,"rain":0.0,"pressure":997.7,"uv_index":1.75,"wind_gusts":77.0,"aqi":37,"pm10":9.7,"pm2_5":7.5,"no2":3.8,"co":164.0,"o3":77.0,"so2":3.4,"mosquito_risk":7,"arthritis_risk":5,"migraine_risk":3,"frizz_risk":1,"updated_at":"2026-07-04T17:38:45.147053+05:30"},{"city":"Tirupati","state":"Andhra Pradesh","latitude":13.6288,"longitude":79.4192,"temp":32.2,"humidity":48,"rain":0.0,"pressure":985.6,"uv_index":2.6,"wind_gusts":50.0,"aqi":32,"pm10":15.0,"pm2_5":8.7,"no2":6.3,"co":126.0,"o3":59.0,"so2":1.7,"mosquito_risk":0,"arthritis_risk":5,"migraine_risk":3,"frizz_risk":1,"updated_at":"2026-07-04T17:38:45.147062+05:30"},{"city":"Warangal","state":"Telangana","latitude":17.9689,"longitude":79.5941,"temp":28.3,"humidity":71,"rain":0.0,"pressure":970.0,"uv_index":2.25,"wind_gusts":58.3,"aqi":28,"pm10":4.2,"pm2_5":4.0,"no2":5.3,"co":146.0,"o3":54.0,"so2":1.4,"mosquito_risk":7,"arthritis_risk":5,"migraine_risk":3,"frizz_risk":1,"updated_at":"2026-07-04T17:38:45.147070+05:30"},{"city":"Nizamabad","state":"Telangana","latitude":18.6725,"longitude":78.0941,"temp":27.1,"humidity":72,"rain":0.0,"pressure":956.6,"uv_index":1.9,"wind_gusts":54.0,"aqi":24,"pm10":4.5,"pm2_5":4.5,"no2":5.5,"co":150.0,"o3":60.0,"so2":3.3,"mosquito_risk":7,"arthritis_risk":5,"migraine_risk":3,"frizz_risk":1,"updated_at":"2026-07-04T17:38:45.147079+05:30"},{"city":"Mysore","state":"Karnataka","latitude":12.2958,"longitude":76.6396,"temp":24.5,"humidity":77,"rain":0.0,"pressure":926.0,"uv_index":8.05,"wind_gusts":63.7,"aqi":28,"pm10":4.4,"pm2_5":2.9,"no2":4.8,"co":125.0,"o3":53.0,"so2":1.2,"mosquito_risk":3,"arthritis_risk":5,"migraine_risk":7,"frizz_risk":1,"updated_at":"2026-07-04T17:38:45.147087+05:30"},{"city":"Mangalore","state":"Karnataka","latitude":12.9141,"longitude":74.856,"temp":24.5,"humidity":94,"rain":0.1,"pressure":1005.8,"uv_index":8.15,"wind_gusts":59.4,"aqi":36,"pm10":15.6,"pm2_5":8.9,"no2":3.8,"co":111.0,"o3":47.0,"so2":0.9,"mosquito_risk":6,"arthritis_risk":5,"migraine_risk":4,"frizz_risk":1,"updated_at":"2026-07-04T17:38:45.147095+05:30"},{"city":"Hubli-Dharwad","state":"Karnataka","latitude":15.3647,"longitude":75.124,"temp":22.7,"humidity":94,"rain":0.1,"pressure":936.4,"uv_index":1.9,"wind_gusts":54.4,"aqi":23,"pm10":1.7,"pm2_5":1.4,"no2":5.0,"co":126.0,"o3":45.0,"so2":0.7,"mosquito_risk":6,"arthritis_risk":5,"migraine_risk":3,"frizz_risk":1,"updated_at":"2026-07-04T17:38:45.147104+05:30"},{"city":"Belgaum","state":"Karnataka","latitude":15.8497,"longitude":74.4977,"temp":21.7,"humidity":96,"rain":0.3,"pressure":920.8,"uv_index":1.95,"wind_gusts":56.2,"aqi":22,"pm10":1.7,"pm2_5":1.5,"no2":4.9,"co":133.0,"o3":42.0,"so2":0.6,"mosquito_risk":6,"arthritis_risk":5,"migraine_risk":3,"frizz_risk":1,"updated_at":"2026-07-04T17:38:48.633920+05:30"},{"city":"Coimbatore","state":"Tamil Nadu","latitude":11.0168,"longitude":76.9558,"temp":25.3,"humidity":82,"rain":0.0,"pressure":959.7,"uv_index":5.85,"wind_gusts":59.8,"aqi":28,"pm10":4.1,"pm2_5":3.3,"no2":6.7,"co":168.0,"o3":48.0,"so2":1.7,"mosquito_risk":7,"arthritis_risk":5,"migraine_risk":3,"frizz_risk":1,"updated_at":"2026-07-04T17:38:48.633954+05:30"},{"city":"Madurai","state":"Tamil Nadu","latitude":9.9252,"longitude":78.1198,"temp":31.9,"humidity":50,"rain":0.0,"pressure":990.4,"uv_index":2.15,"wind_gusts":59.4,"aqi":32,"pm10":7.1,"pm2_5":4.2,"no2":4.4,"co":136.0,"o3":70.0,"so2":1.6,"mosquito_risk":0,"arthritis_risk":5,"migraine_risk":3,"frizz_risk":1,"updated_at":"2026-07-04T17:38:48.633966+05:30"},{"city":"Trichy","state":"Tamil Nadu","latitude":10.7905,"longitude":78.7047,"temp":33.0,"humidity":45,"rain":0.0,"pressure":996.2,"uv_index":6.05,"wind_gusts":63.0,"aqi":31,"pm10":8.4,"pm2_5":4.8,"no2":3.5,"co":119.0,"o3":62.0,"so2":1.6,"mosquito_risk":0,"arthritis_risk":5,"migraine_risk":7,"frizz_risk":1,"updated_at":"2026-07-04T17:38:48.633975+05:30"},{"city":"Salem","state":"Tamil Nadu","latitude":11.6643,"longitude":78.146,"temp":29.0,"humidity":67,"rain":0.0,"pressure":974.0,"uv_index":7.15,"wind_gusts":38.5,"aqi":35,"pm10":9.3,"pm2_5":6.4,"no2":6.2,"co":177.0,"o3":68.0,"so2":4.5,"mosquito_risk":7,"arthritis_risk":5,"migraine_risk":7,"frizz_risk":1,"updated_at":"2026-07-04T17:38:48.633985+05:30"},{"city":"Tirunelveli","state":"Tamil Nadu","latitude":8.7139,"longitude":77.7567,"temp":30.8,"humidity":55,"rain":0.0,"pressure":1001.7,"uv_index":3.25,"wind_gusts":56.2,"aqi":27,"pm10":6.7,"pm2_5":3.6,"no2":2.7,"co":112.0,"o3":53.0,"so2":0.9,"mosquito_risk":0,"arthritis_risk":5,"migraine_risk":0,"frizz_risk":1,"updated_at":"2026-07-04T17:38:48.633993+05:30"},{"city":"Vellore","state":"Tamil Nadu","latitude":12.9165,"longitude":79.1325,"temp":33.4,"humidity":41,"rain":0.0,"pressure":979.4,"uv_index":2.35,"wind_gusts":56.2,"aqi":30,"pm10":13.8,"pm2_5":8.9,"no2":7.7,"co":134.0,"o3":63.0,"so2":2.5,"mosquito_risk":0,"arthritis_risk":5,"migraine_risk":3,"frizz_risk":1,"updated_at":"2026-07-04T17:38:48.634001+05:30"},{"city":"Erode","state":"Tamil Nadu","latitude":11.341,"longitude":77.7172,"temp":30.4,"humidity":57,"rain":0.0,"pressure":985.6,"uv_index":6.3,"wind_gusts":60.1,"aqi":30,"pm10":6.3,"pm2_5":4.4,"no2":6.2,"co":148.0,"o3":58.0,"so2":1.6,"mosquito_risk":0,"arthritis_risk":5,"migraine_risk":7,"frizz_risk":1,"updated_at":"2026-07-04T17:38:48.634009+05:30"},{"city":"Kochi","state":"Kerala","latitude":9.9312,"longitude":76.2673,"temp":28.0,"humidity":80,"rain":0.0,"pressure":1008.7,"uv_index":6.9,"wind_gusts":45.7,"aqi":39,"pm10":18.7,"pm2_5":9.7,"no2":6.1,"co":184.0,"o3":48.0,"so2":2.1,"mosquito_risk":7,"arthritis_risk":0,"migraine_risk":4,"frizz_risk":1,"updated_at":"2026-07-04T17:38:48.634017+05:30"},{"city":"Thiruvananthapuram","state":"Kerala","latitude":8.5241,"longitude":76.9366,"temp":26.2,"humidity":90,"rain":0.0,"pressure":1008.4,"uv_index":7.35,"wind_gusts":52.9,"aqi":34,"pm10":14.1,"pm2_5":7.2,"no2":2.9,"co":122.0,"o3":52.0,"so2":0.7,"mosquito_risk":7,"arthritis_risk":0,"migraine_risk":4,"frizz_risk":1,"updated_at":"2026-07-04T17:38:48.634025+05:30"},{"city":"Kozhikode","state":"Kerala","latitude":11.2588,"longitude":75.7804,"temp":25.2,"humidity":92,"rain":0.2,"pressure":1007.9,"uv_index":5.85,"wind_gusts":36.4,"aqi":31,"pm10":13.9,"pm2_5":6.7,"no2":1.0,"co":157.0,"o3":60.0,"so2":0.7,"mosquito_risk":10,"arthritis_risk":5,"migraine_risk":0,"frizz_risk":1,"updated_at":"2026-07-04T17:38:48.634032+05:30"},{"city":"Thrissur","state":"Kerala","latitude":10.5276,"longitude":76.2144,"temp":27.0,"humidity":87,"rain":0.1,"pressure":1007.0,"uv_index":7.8,"wind_gusts":39.2,"aqi":35,"pm10":12.6,"pm2_5":7.7,"no2":5.6,"co":154.0,"o3":44.0,"so2":1.3,"mosquito_risk":10,"arthritis_risk":5,"migraine_risk":4,"frizz_risk":1,"updated_at":"2026-07-04T17:38:48.634041+05:30"},{"city":"Kannur","state":"Kerala","latitude":11.8745,"longitude":75.3704,"temp":27.0,"humidity":85,"rain":0.1,"pressure":1006.4,"uv_index":8.5,"wind_gusts":39.6,"aqi":35,"pm10":14.8,"pm2_5":8.1,"no2":5.4,"co":146.0,"o3":45.0,"so2":1.1,"mosquito_risk":10,"arthritis_risk":5,"migraine_risk":4,"frizz_risk":1,"updated_at":"2026-07-04T17:38:48.634049+05:30"},{"city":"Patna","state":"Bihar","latitude":25.5941,"longitude":85.1376,"temp":32.3,"humidity":71,"rain":0.1,"pressure":988.3,"uv_index":8.5,"wind_gusts":37.8,"aqi":120,"pm10":16.4,"pm2_5":15.9,"no2":5.6,"co":281.0,"o3":140.0,"so2":7.5,"mosquito_risk":6,"arthritis_risk":5,"migraine_risk":7,"frizz_risk":1,"updated_at":"2026-07-04T17:38:48.634056+05:30"},{"city":"Gaya","state":"Bihar","latitude":24.7914,"longitude":85.0002,"temp":32.8,"humidity":68,"rain":0.0,"pressure":981.9,"uv_index":8.5,"wind_gusts":38.5,"aqi":59,"pm10":14.3,"pm2_5":13.5,"no2":4.8,"co":204.0,"o3":95.0,"so2":3.9,"mosquito_risk":3,"arthritis_risk":5,"migraine_risk":7,"frizz_risk":1,"updated_at":"2026-07-04T17:38:48.634064+05:30"},{"city":"Muzaffarpur","state":"Bihar","latitude":26.1209,"longitude":85.3647,"temp":34.1,"humidity":68,"rain":0.0,"pressure":988.1,"uv_index":8.1,"wind_gusts":31.7,"aqi":132,"pm10":18.2,"pm2_5":17.8,"no2":7.5,"co":270.0,"o3":140.0,"so2":7.0,"mosquito_risk":3,"arthritis_risk":5,"migraine_risk":7,"frizz_risk":1,"updated_at":"2026-07-04T17:38:48.634071+05:30"},{"city":"Bhagalpur","state":"Bihar","latitude":25.2425,"longitude":87.0117,"temp":33.5,"humidity":67,"rain":0.1,"pressure":988.8,"uv_index":7.6,"wind_gusts":38.9,"aqi":68,"pm10":12.7,"pm2_5":12.3,"no2":6.7,"co":191.0,"o3":113.0,"so2":7.8,"mosquito_risk":6,"arthritis_risk":5,"migraine_risk":7,"frizz_risk":1,"updated_at":"2026-07-04T17:38:48.634078+05:30"},{"city":"Ranchi","state":"Jharkhand","latitude":23.3441,"longitude":85.3096,"temp":25.0,"humidity":93,"rain":0.1,"pressure":926.8,"uv_index":7.15,"wind_gusts":55.1,"aqi":67,"pm10":18.9,"pm2_5":18.6,"no2":6.8,"co":336.0,"o3":126.0,"so2":20.0,"mosquito_risk":10,"arthritis_risk":5,"migraine_risk":7,"frizz_risk":1,"updated_at":"2026-07-04T17:38:48.634086+05:30"},{"city":"Jamshedpur","state":"Jharkhand","latitude":22.8046,"longitude":86.2029,"temp":28.5,"humidity":85,"rain":0.1,"pressure":977.7,"uv_index":7.45,"wind_gusts":44.3,"aqi":61,"pm10":10.8,"pm2_5":10.6,"no2":7.7,"co":259.0,"o3":87.0,"so2":6.0,"mosquito_risk":10,"arthritis_risk":5,"migraine_risk":7,"frizz_risk":1,"updated_at":"2026-07-04T17:38:48.634094+05:30"},{"city":"Dhanbad","state":"Jharkhand","latitude":23.7957,"longitude":86.4304,"temp":29.3,"humidity":83,"rain":0.0,"pressure":968.1,"uv_index":6.2,"wind_gusts":53.6,"aqi":83,"pm10":15.9,"pm2_5":15.7,"no2":14.0,"co":255.0,"o3":109.0,"so2":34.0,"mosquito_risk":7,"arthritis_risk":5,"migraine_risk":7,"frizz_risk":1,"updated_at":"2026-07-04T17:38:48.634102+05:30"},{"city":"Bokaro","state":"Jharkhand","latitude":23.6693,"longitude":86.1511,"temp":28.1,"humidity":89,"rain":0.0,"pressure":971.9,"uv_index":5.1,"wind_gusts":51.1,"aqi":87,"pm10":15.7,"pm2_5":15.5,"no2":13.2,"co":235.0,"o3":114.0,"so2":36.8,"mosquito_risk":7,"arthritis_risk":5,"migraine_risk":3,"frizz_risk":1,"updated_at":"2026-07-04T17:38:48.634109+05:30"},{"city":"Bhubaneswar","state":"Odisha","latitude":20.2961,"longitude":85.8245,"temp":26.4,"humidity":95,"rain":0.2,"pressure":987.1,"uv_index":2.95,"wind_gusts":35.3,"aqi":73,"pm10":12.0,"pm2_5":11.4,"no2":13.2,"co":335.0,"o3":65.0,"so2":3.9,"mosquito_risk":10,"arthritis_risk":5,"migraine_risk":3,"frizz_risk":1,"updated_at":"2026-07-04T17:38:48.634117+05:30"},{"city":"Cuttack","state":"Odisha","latitude":20.4625,"longitude":85.8828,"temp":27.5,"humidity":95,"rain":0.0,"pressure":989.1,"uv_index":2.3,"wind_gusts":43.6,"aqi":73,"pm10":12.0,"pm2_5":11.4,"no2":13.2,"co":296.0,"o3":65.0,"so2":3.9,"mosquito_risk":7,"arthritis_risk":5,"migraine_risk":3,"frizz_risk":1,"updated_at":"2026-07-04T17:38:48.634125+05:30"},{"city":"Rourkela","state":"Odisha","latitude":22.2604,"longitude":84.8536,"temp":28.2,"humidity":87,"rain":0.0,"pressure":971.6,"uv_index":6.7,"wind_gusts":51.8,"aqi":66,"pm10":13.2,"pm2_5":13.0,"no2":7.1,"co":278.0,"o3":103.0,"so2":13.1,"mosquito_risk":7,"arthritis_risk":5,"migraine_risk":7,"frizz_risk":1,"updated_at":"2026-07-04T17:38:48.634134+05:30"},{"city":"Raipur","state":"Chhattisgarh","latitude":21.2514,"longitude":81.6296,"temp":26.0,"humidity":96,"rain":0.2,"pressure":963.0,"uv_index":7.3,"wind_gusts":33.1,"aqi":68,"pm10":23.2,"pm2_5":23.1,"no2":16.4,"co":333.0,"o3":109.0,"so2":37.0,"mosquito_risk":10,"arthritis_risk":5,"migraine_risk":7,"frizz_risk":1,"updated_at":"2026-07-04T17:38:48.634142+05:30"},{"city":"Bhilai","state":"Chhattisgarh","latitude":21.1938,"longitude":81.3509,"temp":26.9,"humidity":93,"rain":0.2,"pressure":963.5,"uv_index":6.8,"wind_gusts":30.6,"aqi":63,"pm10":23.0,"pm2_5":22.9,"no2":21.6,"co":1415.0,"o3":90.0,"so2":43.7,"mosquito_risk":10,"arthritis_risk":5,"migraine_risk":7,"frizz_risk":1,"updated_at":"2026-07-04T17:38:48.634149+05:30"},{"city":"Guwahati","state":"Assam","latitude":26.1158,"longitude":91.7086,"temp":30.0,"humidity":85,"rain":0.0,"pressure":990.0,"uv_index":8.7,"wind_gusts":33.1,"aqi":48,"pm10":7.6,"pm2_5":7.4,"no2":4.2,"co":251.0,"o3":86.0,"so2":1.3,"mosquito_risk":7,"arthritis_risk":5,"migraine_risk":7,"frizz_risk":1,"updated_at":"2026-07-04T17:38:48.634157+05:30"},{"city":"Agartala","state":"Tripura","latitude":23.8315,"longitude":91.2868,"temp":30.3,"humidity":82,"rain":0.0,"pressure":994.8,"uv_index":8.55,"wind_gusts":27.7,"aqi":49,"pm10":10.4,"pm2_5":10.0,"no2":10.6,"co":161.0,"o3":78.0,"so2":1.2,"mosquito_risk":3,"arthritis_risk":5,"migraine_risk":7,"frizz_risk":1,"updated_at":"2026-07-04T17:38:48.634165+05:30"},{"city":"Shillong","state":"Meghalaya","latitude":25.5788,"longitude":91.8933,"temp":22.3,"humidity":96,"rain":0.1,"pressure":850.7,"uv_index":8.3,"wind_gusts":34.9,"aqi":39,"pm10":4.9,"pm2_5":4.9,"no2":6.0,"co":220.0,"o3":70.0,"so2":1.1,"mosquito_risk":6,"arthritis_risk":5,"migraine_risk":7,"frizz_risk":1,"updated_at":"2026-07-04T17:38:48.634172+05:30"},{"city":"Imphal","state":"Manipur","latitude":24.817,"longitude":93.9368,"temp":26.4,"humidity":78,"rain":0.0,"pressure":916.4,"uv_index":7.75,"wind_gusts":32.4,"aqi":33,"pm10":2.9,"pm2_5":2.8,"no2":3.1,"co":227.0,"o3":62.0,"so2":0.8,"mosquito_risk":7,"arthritis_risk":5,"migraine_risk":7,"frizz_risk":1,"updated_at":"2026-07-04T17:38:48.634179+05:30"},{"city":"Aizawl","state":"Mizoram","latitude":23.7271,"longitude":92.7176,"temp":22.5,"humidity":96,"rain":0.1,"pressure":883.6,"uv_index":8.7,"wind_gusts":24.8,"aqi":29,"pm10":4.2,"pm2_5":4.1,"no2":5.3,"co":156.0,"o3":41.0,"so2":0.5,"mosquito_risk":6,"arthritis_risk":5,"migraine_risk":7,"frizz_risk":1,"updated_at":"2026-07-04T17:38:48.634187+05:30"},{"city":"Kohima","state":"Nagaland","latitude":25.6701,"longitude":94.1077,"temp":24.5,"humidity":84,"rain":0.0,"pressure":850.0,"uv_index":9.1,"wind_gusts":29.2,"aqi":36,"pm10":4.1,"pm2_5":4.1,"no2":4.1,"co":181.0,"o3":60.0,"so2":0.5,"mosquito_risk":3,"arthritis_risk":5,"migraine_risk":7,"frizz_risk":1,"updated_at":"2026-07-04T17:38:48.634194+05:30"},{"city":"Gangtok","state":"Sikkim","latitude":27.3314,"longitude":88.6138,"temp":21.6,"humidity":97,"rain":0.1,"pressure":832.6,"uv_index":8.5,"wind_gusts":32.4,"aqi":50,"pm10":9.8,"pm2_5":9.5,"no2":5.5,"co":242.0,"o3":102.0,"so2":0.9,"mosquito_risk":6,"arthritis_risk":5,"migraine_risk":7,"frizz_risk":1,"updated_at":"2026-07-04T17:38:48.634202+05:30"},{"city":"Siliguri","state":"West Bengal","latitude":26.7271,"longitude":88.3953,"temp":32.2,"humidity":72,"rain":0.0,"pressure":981.7,"uv_index":8.7,"wind_gusts":24.5,"aqi":82,"pm10":15.8,"pm2_5":15.5,"no2":7.7,"co":506.0,"o3":110.0,"so2":2.4,"mosquito_risk":3,"arthritis_risk":5,"migraine_risk":7,"frizz_risk":1,"updated_at":"2026-07-04T17:38:52.042592+05:30"},{"city":"Durgapur","state":"West Bengal","latitude":23.5204,"longitude":87.3119,"temp":30.5,"humidity":77,"rain":0.0,"pressure":982.6,"uv_index":6.95,"wind_gusts":52.6,"aqi":66,"pm10":15.5,"pm2_5":15.2,"no2":14.1,"co":290.0,"o3":94.0,"so2":19.7,"mosquito_risk":3,"arthritis_risk":5,"migraine_risk":7,"frizz_risk":1,"updated_at":"2026-07-04T17:38:52.042627+05:30"},{"city":"Asansol","state":"West Bengal","latitude":23.6739,"longitude":86.9524,"temp":28.4,"humidity":89,"rain":0.1,"pressure":981.5,"uv_index":5.6,"wind_gusts":52.9,"aqi":65,"pm10":13.5,"pm2_5":13.2,"no2":13.7,"co":269.0,"o3":100.0,"so2":19.1,"mosquito_risk":10,"arthritis_risk":5,"migraine_risk":3,"frizz_risk":1,"updated_at":"2026-07-04T17:38:52.042638+05:30"},{"city":"Pondicherry","state":"Puducherry","latitude":11.9139,"longitude":79.8145,"temp":29.7,"humidity":70,"rain":0.0,"pressure":1003.9,"uv_index":5.25,"wind_gusts":36.0,"aqi":42,"pm10":17.1,"pm2_5":12.4,"no2":15.1,"co":215.0,"o3":74.0,"so2":15.3,"mosquito_risk":7,"arthritis_risk":5,"migraine_risk":0,"frizz_risk":1,"updated_at":"2026-07-04T17:38:52.042647+05:30"},{"city":"Port Blair","state":"Andaman and Nicobar Islands","latitude":11.6234,"longitude":92.7265,"temp":25.0,"humidity":96,"rain":0.2,"pressure":1005.6,"uv_index":5.1,"wind_gusts":58.7,"aqi":50,"pm10":19.6,"pm2_5":10.6,"no2":0.6,"co":100.0,"o3":50.0,"so2":0.4,"mosquito_risk":10,"arthritis_risk":5,"migraine_risk":0,"frizz_risk":1,"updated_at":"2026-07-04T17:38:52.042656+05:30"},{"city":"Haridwar","state":"Uttarakhand","latitude":29.9457,"longitude":78.1642,"temp":31.8,"humidity":71,"rain":0.0,"pressure":964.0,"uv_index":6.55,"wind_gusts":18.7,"aqi":140,"pm10":27.6,"pm2_5":27.5,"no2":4.3,"co":330.0,"o3":182.0,"so2":12.6,"mosquito_risk":3,"arthritis_risk":5,"migraine_risk":7,"frizz_risk":1,"updated_at":"2026-07-04T17:38:52.042664+05:30"},{"city":"Rishikesh","state":"Uttarakhand","latitude":30.0869,"longitude":78.2676,"temp":31.1,"humidity":71,"rain":0.0,"pressure":957.0,"uv_index":6.7,"wind_gusts":24.8,"aqi":105,"pm10":19.2,"pm2_5":19.1,"no2":2.1,"co":313.0,"o3":151.0,"so2":5.7,"mosquito_risk":3,"arthritis_risk":5,"migraine_risk":7,"frizz_risk":1,"updated_at":"2026-07-04T17:38:52.042672+05:30"},{"city":"Nainital","state":"Uttarakhand","latitude":29.3919,"longitude":79.4542,"temp":19.8,"humidity":97,"rain":0.1,"pressure":801.1,"uv_index":6.65,"wind_gusts":25.2,"aqi":87,"pm10":14.9,"pm2_5":14.6,"no2":3.4,"co":261.0,"o3":130.0,"so2":4.9,"mosquito_risk":6,"arthritis_risk":10,"migraine_risk":7,"frizz_risk":1,"updated_at":"2026-07-04T17:38:52.042681+05:30"},{"city":"Mussoorie","state":"Uttarakhand","latitude":30.4599,"longitude":78.0664,"temp":22.4,"humidity":75,"rain":0.0,"pressure":799.3,"uv_index":6.75,"wind_gusts":31.0,"aqi":117,"pm10":19.0,"pm2_5":18.8,"no2":3.7,"co":273.0,"o3":155.0,"so2":6.4,"mosquito_risk":3,"arthritis_risk":5,"migraine_risk":7,"frizz_risk":1,"updated_at":"2026-07-04T17:38:52.042688+05:30"},{"city":"Dharamshala","state":"Himachal Pradesh","latitude":32.219,"longitude":76.3234,"temp":24.6,"humidity":89,"rain":0.0,"pressure":863.0,"uv_index":8.45,"wind_gusts":31.0,"aqi":88,"pm10":6.4,"pm2_5":5.9,"no2":1.7,"co":312.0,"o3":139.0,"so2":0.8,"mosquito_risk":3,"arthritis_risk":5,"migraine_risk":7,"frizz_risk":1,"updated_at":"2026-07-04T17:38:52.042696+05:30"},{"city":"Dalhousie","state":"Himachal Pradesh","latitude":32.5387,"longitude":75.971,"temp":20.5,"humidity":93,"rain":0.0,"pressure":800.5,"uv_index":8.65,"wind_gusts":23.8,"aqi":154,"pm10":20.4,"pm2_5":18.0,"no2":3.6,"co":323.0,"o3":170.0,"so2":2.7,"mosquito_risk":3,"arthritis_risk":5,"migraine_risk":7,"frizz_risk":1,"updated_at":"2026-07-04T17:38:52.042704+05:30"},{"city":"Patiala","state":"Punjab","latitude":30.3398,"longitude":76.3869,"temp":31.7,"humidity":73,"rain":0.0,"pressure":967.8,"uv_index":7.25,"wind_gusts":28.4,"aqi":112,"pm10":31.7,"pm2_5":29.6,"no2":6.9,"co":425.0,"o3":157.0,"so2":10.5,"mosquito_risk":3,"arthritis_risk":5,"migraine_risk":7,"frizz_risk":1,"updated_at":"2026-07-04T17:38:52.042712+05:30"},{"city":"Bhatinda","state":"Punjab","latitude":30.211,"longitude":74.9455,"temp":34.3,"humidity":58,"rain":0.0,"pressure":972.8,"uv_index":7.95,"wind_gusts":25.9,"aqi":191,"pm10":61.9,"pm2_5":41.2,"no2":6.5,"co":335.0,"o3":197.0,"so2":21.6,"mosquito_risk":0,"arthritis_risk":5,"migraine_risk":7,"frizz_risk":1,"updated_at":"2026-07-04T17:38:52.042719+05:30"},{"city":"Rohtak","state":"Haryana","latitude":28.8955,"longitude":76.6066,"temp":32.1,"humidity":71,"rain":0.0,"pressure":971.1,"uv_index":6.25,"wind_gusts":28.4,"aqi":176,"pm10":514.1,"pm2_5":90.8,"no2":11.9,"co":420.0,"o3":205.0,"so2":27.0,"mosquito_risk":3,"arthritis_risk":5,"migraine_risk":7,"frizz_risk":1,"updated_at":"2026-07-04T17:38:52.042726+05:30"},{"city":"Panipat","state":"Haryana","latitude":29.3909,"longitude":76.9635,"temp":31.8,"humidity":71,"rain":0.0,"pressure":970.0,"uv_index":6.5,"wind_gusts":22.3,"aqi":160,"pm10":922.0,"pm2_5":129.0,"no2":14.2,"co":379.0,"o3":176.0,"so2":33.6,"mosquito_risk":3,"arthritis_risk":5,"migraine_risk":7,"frizz_risk":1,"updated_at":"2026-07-04T17:38:52.042733+05:30"},{"city":"Mathura","state":"Uttar Pradesh","latitude":27.4924,"longitude":77.6737,"temp":33.0,"humidity":69,"rain":0.0,"pressure":975.3,"uv_index":6.7,"wind_gusts":23.0,"aqi":155,"pm10":53.8,"pm2_5":31.8,"no2":6.9,"co":297.0,"o3":172.0,"so2":4.4,"mosquito_risk":3,"arthritis_risk":5,"migraine_risk":7,"frizz_risk":1,"updated_at":"2026-07-04T17:38:52.042739+05:30"},{"city":"Vrindavan","state":"Uttar Pradesh","latitude":27.5823,"longitude":77.7027,"temp":32.9,"humidity":68,"rain":0.1,"pressure":975.8,"uv_index":7.05,"wind_gusts":25.6,"aqi":155,"pm10":53.8,"pm2_5":31.8,"no2":6.9,"co":295.0,"o3":172.0,"so2":4.4,"mosquito_risk":6,"arthritis_risk":5,"migraine_risk":7,"frizz_risk":1,"updated_at":"2026-07-04T17:38:52.042746+05:30"},{"city":"Ayodhya","state":"Uttar Pradesh","latitude":26.7922,"longitude":82.1998,"temp":34.5,"humidity":62,"rain":0.0,"pressure":983.3,"uv_index":8.05,"wind_gusts":25.6,"aqi":118,"pm10":23.1,"pm2_5":22.6,"no2":5.9,"co":266.0,"o3":126.0,"so2":5.4,"mosquito_risk":3,"arthritis_risk":5,"migraine_risk":7,"frizz_risk":1,"updated_at":"2026-07-04T17:38:52.042753+05:30"},{"city":"Ratlam","state":"Madhya Pradesh","latitude":23.3315,"longitude":75.0367,"temp":26.6,"humidity":90,"rain":0.3,"pressure":944.3,"uv_index":6.1,"wind_gusts":30.6,"aqi":43,"pm10":33.1,"pm2_5":15.9,"no2":2.7,"co":188.0,"o3":83.0,"so2":2.3,"mosquito_risk":10,"arthritis_risk":5,"migraine_risk":7,"frizz_risk":1,"updated_at":"2026-07-04T17:38:52.042760+05:30"},{"city":"Sagar","state":"Madhya Pradesh","latitude":23.8388,"longitude":78.7378,"temp":26.6,"humidity":89,"rain":0.0,"pressure":939.6,"uv_index":8.0,"wind_gusts":25.2,"aqi":91,"pm10":21.3,"pm2_5":21.1,"no2":3.6,"co":256.0,"o3":112.0,"so2":5.1,"mosquito_risk":7,"arthritis_risk":5,"migraine_risk":7,"frizz_risk":1,"updated_at":"2026-07-04T17:38:52.042767+05:30"},{"city":"Satna","state":"Madhya Pradesh","latitude":24.6005,"longitude":80.8322,"temp":32.6,"humidity":66,"rain":0.0,"pressure":958.7,"uv_index":7.15,"wind_gusts":43.6,"aqi":113,"pm10":14.5,"pm2_5":14.1,"no2":2.6,"co":238.0,"o3":127.0,"so2":4.6,"mosquito_risk":3,"arthritis_risk":5,"migraine_risk":7,"frizz_risk":1,"updated_at":"2026-07-04T17:38:52.042774+05:30"},{"city":"Akola","state":"Maharashtra","latitude":20.7002,"longitude":77.0082,"temp":28.8,"humidity":72,"rain":0.1,"pressure":965.2,"uv_index":6.95,"wind_gusts":40.7,"aqi":31,"pm10":7.3,"pm2_5":6.0,"no2":5.6,"co":164.0,"o3":81.0,"so2":8.4,"mosquito_risk":10,"arthritis_risk":5,"migraine_risk":7,"frizz_risk":1,"updated_at":"2026-07-04T17:38:52.042782+05:30"},{"city":"Amravati","state":"Maharashtra","latitude":20.9374,"longitude":77.7796,"temp":26.7,"humidity":92,"rain":0.2,"pressure":957.2,"uv_index":7.25,"wind_gusts":47.2,"aqi":36,"pm10":6.5,"pm2_5":5.2,"no2":5.6,"co":172.0,"o3":82.0,"so2":8.8,"mosquito_risk":10,"arthritis_risk":5,"migraine_risk":7,"frizz_risk":1,"updated_at":"2026-07-04T17:38:52.042790+05:30"},{"city":"Latur","state":"Maharashtra","latitude":18.4088,"longitude":76.5604,"temp":24.1,"humidity":90,"rain":0.1,"pressure":932.0,"uv_index":2.4,"wind_gusts":47.5,"aqi":23,"pm10":2.2,"pm2_5":2.1,"no2":3.8,"co":135.0,"o3":51.0,"so2":0.8,"mosquito_risk":6,"arthritis_risk":5,"migraine_risk":3,"frizz_risk":1,"updated_at":"2026-07-04T17:38:52.042798+05:30"},{"city":"Nanded","state":"Maharashtra","latitude":19.1383,"longitude":77.3091,"temp":26.8,"humidity":79,"rain":0.0,"pressure":960.0,"uv_index":1.75,"wind_gusts":42.8,"aqi":26,"pm10":4.5,"pm2_5":4.5,"no2":6.1,"co":155.0,"o3":62.0,"so2":3.7,"mosquito_risk":7,"arthritis_risk":5,"migraine_risk":3,"frizz_risk":1,"updated_at":"2026-07-04T17:38:52.042805+05:30"},{"city":"Gulbarga","state":"Karnataka","latitude":17.3297,"longitude":76.8343,"temp":25.7,"humidity":80,"rain":0.1,"pressure":952.1,"uv_index":1.5,"wind_gusts":54.0,"aqi":25,"pm10":3.9,"pm2_5":2.8,"no2":5.6,"co":147.0,"o3":50.0,"so2":1.9,"mosquito_risk":10,"arthritis_risk":5,"migraine_risk":3,"frizz_risk":1,"updated_at":"2026-07-04T17:38:52.042847+05:30"},{"city":"Bidar","state":"Karnataka","latitude":17.9104,"longitude":77.5199,"temp":23.5,"humidity":93,"rain":0.1,"pressure":928.2,"uv_index":1.35,"wind_gusts":55.1,"aqi":24,"pm10":2.5,"pm2_5":2.4,"no2":6.0,"co":140.0,"o3":52.0,"so2":1.1,"mosquito_risk":6,"arthritis_risk":5,"migraine_risk":3,"frizz_risk":1,"updated_at":"2026-07-04T17:38:52.042859+05:30"},{"city":"Hospet","state":"Karnataka","latitude":15.2689,"longitude":76.3909,"temp":26.1,"humidity":72,"rain":0.0,"pressure":951.3,"uv_index":1.7,"wind_gusts":65.2,"aqi":28,"pm10":2.6,"pm2_5":2.0,"no2":3.9,"co":116.0,"o3":55.0,"so2":1.3,"mosquito_risk":7,"arthritis_risk":5,"migraine_risk":3,"frizz_risk":1,"updated_at":"2026-07-04T17:38:52.042867+05:30"},{"city":"Tirupur","state":"Tamil Nadu","latitude":11.1085,"longitude":77.3411,"temp":27.2,"humidity":71,"rain":0.0,"pressure":972.4,"uv_index":7.75,"wind_gusts":65.9,"aqi":30,"pm10":7.0,"pm2_5":5.2,"no2":7.5,"co":143.0,"o3":57.0,"so2":2.4,"mosquito_risk":7,"arthritis_risk":5,"migraine_risk":7,"frizz_risk":1,"updated_at":"2026-07-04T17:38:52.042873+05:30"},{"city":"Alappuzha","state":"Kerala","latitude":9.4981,"longitude":76.3388,"temp":28.2,"humidity":79,"rain":0.0,"pressure":1008.9,"uv_index":6.75,"wind_gusts":47.2,"aqi":36,"pm10":17.6,"pm2_5":9.0,"no2":3.3,"co":89.0,"o3":56.0,"so2":1.4,"mosquito_risk":7,"arthritis_risk":0,"migraine_risk":4,"frizz_risk":1,"updated_at":"2026-07-04T17:38:52.042881+05:30"},{"city":"Munnar","state":"Kerala","latitude":10.0889,"longitude":77.0595,"temp":16.6,"humidity":99,"rain":0.5,"pressure":855.5,"uv_index":3.75,"wind_gusts":63.7,"aqi":27,"pm10":4.6,"pm2_5":3.2,"no2":4.9,"co":100.0,"o3":49.0,"so2":1.0,"mosquito_risk":6,"arthritis_risk":10,"migraine_risk":3,"frizz_risk":1,"updated_at":"2026-07-04T17:38:52.042888+05:30"},{"city":"Silchar","state":"Assam","latitude":24.8333,"longitude":92.7789,"temp":30.0,"humidity":89,"rain":0.0,"pressure":993.6,"uv_index":8.65,"wind_gusts":28.1,"aqi":51,"pm10":6.9,"pm2_5":6.8,"no2":3.8,"co":191.0,"o3":67.0,"so2":1.9,"mosquito_risk":7,"arthritis_risk":5,"migraine_risk":7,"frizz_risk":1,"updated_at":"2026-07-04T17:38:52.042895+05:30"},{"city":"Dibrugarh","state":"Assam","latitude":27.4728,"longitude":94.912,"temp":33.7,"humidity":73,"rain":0.0,"pressure":984.3,"uv_index":8.9,"wind_gusts":26.3,"aqi":54,"pm10":9.1,"pm2_5":8.9,"no2":5.3,"co":245.0,"o3":72.0,"so2":1.1,"mosquito_risk":3,"arthritis_risk":5,"migraine_risk":7,"frizz_risk":1,"updated_at":"2026-07-04T17:38:52.042902+05:30"}]