[{"city":"Delhi","state":"Delhi","latitude":28.6139,"longitude":77.209,"temp":27.4,"humidity":54,"rain":0.0,"pressure":984.3,"uv_index":5.8,"wind_gusts":32.8,"aqi":305,"pm10":291.5,"pm2_5":51.5,"mosquito_risk":4,"arthritis_risk":5,"migraine_risk":3,"frizz_risk":1,"updated_at":"2026-04-03T18:40:41.972236+05:30"},{"city":"Mumbai","state":"Maharashtra","latitude":19.076,"longitude":72.8777,"temp":28.2,"humidity":74,"rain":0.0,"pressure":1009.0,"uv_index":7.45,"wind_gusts":25.2,"aqi":85,"pm10":57.5,"pm2_5":23.5,"mosquito_risk":7,"arthritis_risk":0,"migraine_risk":4,"frizz_risk":1,"updated_at":"2026-04-03T18:40:41.972274+05:30"},{"city":"Bangalore","state":"Karnataka","latitude":12.9716,"longitude":77.5946,"temp":30.8,"humidity":39,"rain":0.0,"pressure":911.5,"uv_index":9.6,"wind_gusts":26.6,"aqi":183,"pm10":38.4,"pm2_5":34.7,"mosquito_risk":0,"arthritis_risk":5,"migraine_risk":7,"frizz_risk":0,"updated_at":"2026-04-03T18:40:41.972289+05:30"},{"city":"Hyderabad","state":"Telangana","latitude":17.385,"longitude":78.4867,"temp":33.6,"humidity":29,"rain":0.0,"pressure":952.4,"uv_index":8.85,"wind_gusts":19.8,"aqi":105,"pm10":27.8,"pm2_5":21.8,"mosquito_risk":0,"arthritis_risk":5,"migraine_risk":7,"frizz_risk":0,"updated_at":"2026-04-03T18:40:41.972299+05:30"},{"city":"Chennai","state":"Tamil Nadu","latitude":13.0827,"longitude":80.2707,"temp":29.4,"humidity":65,"rain":0.0,"pressure":1007.3,"uv_index":9.3,"wind_gusts":36.7,"aqi":46,"pm10":11.3,"pm2_5":8.8,"mosquito_risk":7,"arthritis_risk":5,"migraine_risk":4,"frizz_risk":1,"updated_at":"2026-04-03T18:40:41.972308+05:30"},{"city":"Kolkata","state":"West Bengal","latitude":22.5726,"longitude":88.3639,"temp":31.0,"humidity":69,"rain":0.0,"pressure":1004.0,"uv_index":8.65,"wind_gusts":20.2,"aqi":128,"pm10":42.3,"pm2_5":38.4,"mosquito_risk":3,"arthritis_risk":5,"migraine_risk":4,"frizz_risk":1,"updated_at":"2026-04-03T18:40:41.972316+05:30"},{"city":"Pune","state":"Maharashtra","latitude":18.5204,"longitude":73.8567,"temp":29.6,"humidity":45,"rain":0.0,"pressure":948.8,"uv_index":8.5,"wind_gusts":36.4,"aqi":151,"pm10":42.4,"pm2_5":35.5,"mosquito_risk":4,"arthritis_risk":5,"migraine_risk":7,"frizz_risk":1,"updated_at":"2026-04-03T18:40:41.972327+05:30"},{"city":"Ahmedabad","state":"Gujarat","latitude":23.0225,"longitude":72.5714,"temp":30.6,"humidity":40,"rain":0.0,"pressure":1002.2,"uv_index":7.2,"wind_gusts":42.1,"aqi":65,"pm10":38.8,"pm2_5":13.0,"mosquito_risk":0,"arthritis_risk":5,"migraine_risk":4,"frizz_risk":0,"updated_at":"2026-04-03T18:40:41.972335+05:30"},{"city":"Jaipur","state":"Rajasthan","latitude":26.9124,"longitude":75.7873,"temp":26.0,"humidity":57,"rain":0.0,"pressure":960.3,"uv_index":7.45,"wind_gusts":55.8,"aqi":129,"pm10":135.5,"pm2_5":27.6,"mosquito_risk":4,"arthritis_risk":5,"migraine_risk":7,"frizz_risk":1,"updated_at":"2026-04-03T18:40:41.972342+05:30"},{"city":"Lucknow","state":"Uttar Pradesh","latitude":26.8467,"longitude":80.9462,"temp":31.6,"humidity":46,"rain":0.0,"pressure":993.2,"uv_index":6.75,"wind_gusts":28.8,"aqi":103,"pm10":154.1,"pm2_5":41.1,"mosquito_risk":0,"arthritis_risk":5,"migraine_risk":7,"frizz_risk":1,"updated_at":"2026-04-03T18:40:41.972350+05:30"},{"city":"Kanpur","state":"Uttar Pradesh","latitude":26.4499,"longitude":80.3319,"temp":30.7,"humidity":53,"rain":0.0,"pressure":991.7,"uv_index":5.2,"wind_gusts":26.3,"aqi":154,"pm10":190.9,"pm2_5":38.1,"mosquito_risk":0,"arthritis_risk":5,"migraine_risk":3,"frizz_risk":1,"updated_at":"2026-04-03T18:40:41.972357+05:30"},{"city":"Chandigarh","state":"Chandigarh","latitude":30.7333,"longitude":76.7794,"temp":21.4,"humidity":83,"rain":0.0,"pressure":971.0,"uv_index":5.85,"wind_gusts":49.3,"aqi":107,"pm10":70.3,"pm2_5":31.8,"mosquito_risk":3,"arthritis_risk":5,"migraine_risk":3,"frizz_risk":1,"updated_at":"2026-04-03T18:40:41.972364+05:30"},{"city":"Srinagar","state":"Jammu and Kashmir","latitude":34.0837,"longitude":74.7973,"temp":12.3,"humidity":68,"rain":0.0,"pressure":839.2,"uv_index":6.65,"wind_gusts":35.3,"aqi":101,"pm10":27.2,"pm2_5":21.4,"mosquito_risk":3,"arthritis_risk":5,"migraine_risk":7,"frizz_risk":0,"updated_at":"2026-04-03T18:40:41.972371+05:30"},{"city":"Jammu","state":"Jammu and Kashmir","latitude":32.7266,"longitude":74.857,"temp":20.6,"humidity":88,"rain":0.1,"pressure":974.4,"uv_index":5.1,"wind_gusts":35.3,"aqi":74,"pm10":23.2,"pm2_5":13.8,"mosquito_risk":6,"arthritis_risk":5,"migraine_risk":3,"frizz_risk":1,"updated_at":"2026-04-03T18:40:41.972379+05:30"},{"city":"Amritsar","state":"Punjab","latitude":31.634,"longitude":74.8723,"temp":20.3,"humidity":89,"rain":0.0,"pressure":982.0,"uv_index":4.55,"wind_gusts":57.6,"aqi":90,"pm10":35.9,"pm2_5":16.1,"mosquito_risk":3,"arthritis_risk":5,"migraine_risk":3,"frizz_risk":1,"updated_at":"2026-04-03T18:40:41.972385+05:30"},{"city":"Ludhiana","state":"Punjab","latitude":30.901,"longitude":75.8573,"temp":20.9,"humidity":82,"rain":0.0,"pressure":981.1,"uv_index":4.9,"wind_gusts":45.4,"aqi":105,"pm10":76.6,"pm2_5":33.5,"mosquito_risk":3,"arthritis_risk":5,"migraine_risk":3,"frizz_risk":1,"updated_at":"2026-04-03T18:40:41.972391+05:30"},{"city":"Jalandhar","state":"Punjab","latitude":31.326,"longitude":75.5762,"temp":20.7,"humidity":86,"rain":0.0,"pressure":982.1,"uv_index":5.85,"wind_gusts":41.8,"aqi":87,"pm10":59.8,"pm2_5":25.6,"mosquito_risk":3,"arthritis_risk":5,"migraine_risk":3,"frizz_risk":1,"updated_at":"2026-04-03T18:40:41.972399+05:30"},{"city":"Dehradun","state":"Uttarakhand","latitude":30.6284,"longitude":78.0322,"temp":18.0,"humidity":69,"rain":0.0,"pressure":831.9,"uv_index":5.7,"wind_gusts":34.2,"aqi":83,"pm10":28.8,"pm2_5":15.2,"mosquito_risk":3,"arthritis_risk":5,"migraine_risk":3,"frizz_risk":0,"updated_at":"2026-04-03T18:40:41.972406+05:30"},{"city":"Shimla","state":"Himachal Pradesh","latitude":31.1048,"longitude":77.1734,"temp":13.5,"humidity":84,"rain":0.0,"pressure":784.9,"uv_index":5.95,"wind_gusts":51.5,"aqi":93,"pm10":22.6,"pm2_5":15.3,"mosquito_risk":3,"arthritis_risk":10,"migraine_risk":3,"frizz_risk":0,"updated_at":"2026-04-03T18:40:41.972412+05:30"},{"city":"Manali","state":"Himachal Pradesh","latitude":32.2396,"longitude":77.1887,"temp":17.0,"humidity":66,"rain":0.0,"pressure":819.5,"uv_index":7.1,"wind_gusts":46.1,"aqi":63,"pm10":8.5,"pm2_5":4.7,"mosquito_risk":3,"arthritis_risk":5,"migraine_risk":7,"frizz_risk":0,"updated_at":"2026-04-03T18:40:41.972419+05:30"},{"city":"Gurgaon","state":"Haryana","latitude":28.4595,"longitude":77.0266,"temp":26.6,"humidity":54,"rain":0.0,"pressure":982.7,"uv_index":6.45,"wind_gusts":32.0,"aqi":746,"pm10":338.1,"pm2_5":54.6,"mosquito_risk":4,"arthritis_risk":5,"migraine_risk":7,"frizz_risk":1,"updated_at":"2026-04-03T18:40:41.972426+05:30"},{"city":"Noida","state":"Uttar Pradesh","latitude":28.5355,"longitude":77.391,"temp":27.3,"humidity":57,"rain":0.0,"pressure":985.8,"uv_index":6.1,"wind_gusts":29.5,"aqi":746,"pm10":338.1,"pm2_5":54.6,"mosquito_risk":4,"arthritis_risk":5,"migraine_risk":7,"frizz_risk":1,"updated_at":"2026-04-03T18:40:41.972432+05:30"},{"city":"Ghaziabad","state":"Uttar Pradesh","latitude":28.6692,"longitude":77.4538,"temp":26.2,"humidity":66,"rain":0.0,"pressure":984.1,"uv_index":6.25,"wind_gusts":30.6,"aqi":193,"pm10":295.2,"pm2_5":69.2,"mosquito_risk":7,"arthritis_risk":5,"migraine_risk":7,"frizz_risk":1,"updated_at":"2026-04-03T18:40:41.972441+05:30"},{"city":"Faridabad","state":"Haryana","latitude":28.4089,"longitude":77.3178,"temp":27.6,"humidity":48,"rain":0.0,"pressure":985.0,"uv_index":6.5,"wind_gusts":30.2,"aqi":746,"pm10":338.1,"pm2_5":54.6,"mosquito_risk":4,"arthritis_risk":5,"migraine_risk":7,"frizz_risk":0,"updated_at":"2026-04-03T18:40:41.972447+05:30"},{"city":"Meerut","state":"Uttar Pradesh","latitude":28.9845,"longitude":77.7064,"temp":25.8,"humidity":70,"rain":0.0,"pressure":982.9,"uv_index":6.1,"wind_gusts":26.3,"aqi":193,"pm10":295.2,"pm2_5":69.2,"mosquito_risk":7,"arthritis_risk":5,"migraine_risk":7,"frizz_risk":1,"updated_at":"2026-04-03T18:40:41.972454+05:30"},{"city":"Agra","state":"Uttar Pradesh","latitude":27.1767,"longitude":78.0081,"temp":30.9,"humidity":36,"rain":0.0,"pressure":988.1,"uv_index":7.35,"wind_gusts":35.6,"aqi":583,"pm10":797.2,"pm2_5":90.3,"mosquito_risk":0,"arthritis_risk":5,"migraine_risk":7,"frizz_risk":0,"updated_at":"2026-04-03T18:40:41.972460+05:30"},{"city":"Varanasi","state":"Uttar Pradesh","latitude":25.3176,"longitude":82.9739,"temp":32.0,"humidity":47,"rain":0.0,"pressure":996.7,"uv_index":7.8,"wind_gusts":32.0,"aqi":118,"pm10":29.8,"pm2_5":23.4,"mosquito_risk":0,"arthritis_risk":5,"migraine_risk":7,"frizz_risk":1,"updated_at":"2026-04-03T18:40:41.972469+05:30"},{"city":"Prayagraj","state":"Uttar Pradesh","latitude":25.4358,"longitude":81.8463,"temp":31.8,"humidity":46,"rain":0.0,"pressure":995.6,"uv_index":7.25,"wind_gusts":36.7,"aqi":86,"pm10":35.9,"pm2_5":24.3,"mosquito_risk":0,"arthritis_risk":5,"migraine_risk":7,"frizz_risk":1,"updated_at":"2026-04-03T18:40:41.972476+05:30"},{"city":"Gorakhpur","state":"Uttar Pradesh","latitude":26.7606,"longitude":83.3732,"temp":32.0,"humidity":33,"rain":0.0,"pressure":995.8,"uv_index":7.1,"wind_gusts":39.6,"aqi":118,"pm10":28.3,"pm2_5":18.1,"mosquito_risk":0,"arthritis_risk":5,"migraine_risk":7,"frizz_risk":0,"updated_at":"2026-04-03T18:40:41.972484+05:30"},{"city":"Bareilly","state":"Uttar Pradesh","latitude":28.367,"longitude":79.4304,"temp":28.1,"humidity":56,"rain":0.0,"pressure":987.3,"uv_index":6.25,"wind_gusts":19.1,"aqi":120,"pm10":100.4,"pm2_5":44.5,"mosquito_risk":4,"arthritis_risk":5,"migraine_risk":7,"frizz_risk":1,"updated_at":"2026-04-03T18:40:41.972490+05:30"},{"city":"Aligarh","state":"Uttar Pradesh","latitude":27.8974,"longitude":78.088,"temp":28.4,"humidity":45,"rain":0.0,"pressure":986.3,"uv_index":7.1,"wind_gusts":28.1,"aqi":534,"pm10":599.8,"pm2_5":85.4,"mosquito_risk":4,"arthritis_risk":5,"migraine_risk":7,"frizz_risk":0,"updated_at":"2026-04-03T18:40:41.972496+05:30"},{"city":"Moradabad","state":"Uttar Pradesh","latitude":28.8386,"longitude":78.7733,"temp":27.2,"humidity":65,"rain":0.0,"pressure":984.4,"uv_index":6.05,"wind_gusts":20.5,"aqi":138,"pm10":128.5,"pm2_5":53.9,"mosquito_risk":7,"arthritis_risk":5,"migraine_risk":7,"frizz_risk":1,"updated_at":"2026-04-03T18:40:41.972502+05:30"},{"city":"Saharanpur","state":"Uttar Pradesh","latitude":29.9637,"longitude":77.546,"temp":24.8,"humidity":69,"rain":0.0,"pressure":977.5,"uv_index":6.55,"wind_gusts":29.9,"aqi":123,"pm10":192.8,"pm2_5":55.1,"mosquito_risk":3,"arthritis_risk":5,"migraine_risk":7,"frizz_risk":1,"updated_at":"2026-04-03T18:40:41.972508+05:30"},{"city":"Jhansi","state":"Uttar Pradesh","latitude":25.4484,"longitude":78.5685,"temp":29.1,"humidity":48,"rain":0.0,"pressure":978.3,"uv_index":7.7,"wind_gusts":40.3,"aqi":102,"pm10":30.0,"pm2_5":19.3,"mosquito_risk":4,"arthritis_risk":5,"migraine_risk":7,"frizz_risk":1,"updated_at":"2026-04-03T18:40:45.219592+05:30"},{"city":"Surat","state":"Gujarat","latitude":21.1702,"longitude":72.8311,"temp":28.0,"humidity":73,"rain":0.0,"pressure":1007.3,"uv_index":7.65,"wind_gusts":30.6,"aqi":94,"pm10":48.7,"pm2_5":30.3,"mosquito_risk":7,"arthritis_risk":5,"migraine_risk":4,"frizz_risk":1,"updated_at":"2026-04-03T18:40:45.219622+05:30"},{"city":"Vadodara","state":"Gujarat","latitude":22.3072,"longitude":73.1812,"temp":31.6,"humidity":42,"rain":0.0,"pressure":1004.4,"uv_index":7.85,"wind_gusts":33.1,"aqi":83,"pm10":41.6,"pm2_5":18.2,"mosquito_risk":0,"arthritis_risk":5,"migraine_risk":4,"frizz_risk":1,"updated_at":"2026-04-03T18:40:45.219633+05:30"},{"city":"Rajkot","state":"Gujarat","latitude":22.3039,"longitude":70.8022,"temp":27.4,"humidity":60,"rain":0.0,"pressure":994.9,"uv_index":7.15,"wind_gusts":45.4,"aqi":64,"pm10":21.4,"pm2_5":8.0,"mosquito_risk":4,"arthritis_risk":5,"migraine_risk":7,"frizz_risk":1,"updated_at":"2026-04-03T18:40:45.219642+05:30"},{"city":"Thane","state":"Maharashtra","latitude":19.2183,"longitude":72.9781,"temp":28.2,"humidity":68,"rain":0.0,"pressure":1008.5,"uv_index":7.6,"wind_gusts":37.1,"aqi":85,"pm10":57.5,"pm2_5":23.5,"mosquito_risk":7,"arthritis_risk":0,"migraine_risk":4,"frizz_risk":1,"updated_at":"2026-04-03T18:40:45.219651+05:30"},{"city":"Nagpur","state":"Maharashtra","latitude":21.1458,"longitude":79.0882,"temp":31.6,"humidity":49,"rain":0.0,"pressure":973.3,"uv_index":8.7,"wind_gusts":23.4,"aqi":140,"pm10":34.8,"pm2_5":28.5,"mosquito_risk":0,"arthritis_risk":5,"migraine_risk":7,"frizz_risk":1,"updated_at":"2026-04-03T18:40:45.219658+05:30"},{"city":"Nashik","state":"Maharashtra","latitude":19.9975,"longitude":73.7898,"temp":27.7,"humidity":52,"rain":0.0,"pressure":945.9,"uv_index":7.95,"wind_gusts":40.0,"aqi":68,"pm10":30.9,"pm2_5":13.7,"mosquito_risk":4,"arthritis_risk":5,"migraine_risk":7,"frizz_risk":1,"updated_at":"2026-04-03T18:40:45.219666+05:30"},{"city":"Aurangabad","state":"Maharashtra","latitude":19.8762,"longitude":75.3433,"temp":30.3,"humidity":41,"rain":0.0,"pressure":944.5,"uv_index":8.85,"wind_gusts":29.5,"aqi":113,"pm10":39.8,"pm2_5":30.2,"mosquito_risk":0,"arthritis_risk":5,"migraine_risk":7,"frizz_risk":0,"updated_at":"2026-04-03T18:40:45.219673+05:30"},{"city":"Solapur","state":"Maharashtra","latitude":17.6599,"longitude":75.9064,"temp":32.1,"humidity":39,"rain":0.0,"pressure":957.1,"uv_index":8.95,"wind_gusts":50.8,"aqi":140,"pm10":28.5,"pm2_5":22.8,"mosquito_risk":0,"arthritis_risk":5,"migraine_risk":7,"frizz_risk":1,"updated_at":"2026-04-03T18:40:45.219681+05:30"},{"city":"Kolhapur","state":"Maharashtra","latitude":16.705,"longitude":74.2433,"temp":27.3,"humidity":68,"rain":0.0,"pressure":948.3,"uv_index":8.95,"wind_gusts":34.6,"aqi":158,"pm10":40.4,"pm2_5":36.6,"mosquito_risk":7,"arthritis_risk":5,"migraine_risk":7,"frizz_risk":1,"updated_at":"2026-04-03T18:40:45.219689+05:30"},{"city":"Goa","state":"Goa","latitude":15.2993,"longitude":74.124,"temp":29.4,"humidity":72,"rain":0.0,"pressure":998.4,"uv_index":9.0,"wind_gusts":31.7,"aqi":79,"pm10":25.8,"pm2_5":19.6,"mosquito_risk":7,"arthritis_risk":5,"migraine_risk":7,"frizz_risk":1,"updated_at":"2026-04-03T18:40:45.219697+05:30"},{"city":"Jodhpur","state":"Rajasthan","latitude":26.2389,"longitude":73.0243,"temp":28.0,"humidity":36,"rain":0.0,"pressure":982.6,"uv_index":6.9,"wind_gusts":44.6,"aqi":139,"pm10":247.7,"pm2_5":33.9,"mosquito_risk":4,"arthritis_risk":5,"migraine_risk":7,"frizz_risk":0,"updated_at":"2026-04-03T18:40:45.219704+05:30"},{"city":"Udaipur","state":"Rajasthan","latitude":24.5854,"longitude":73.7125,"temp":25.7,"humidity":41,"rain":0.0,"pressure":946.6,"uv_index":8.1,"wind_gusts":54.7,"aqi":51,"pm10":50.3,"pm2_5":16.2,"mosquito_risk":4,"arthritis_risk":5,"migraine_risk":7,"frizz_risk":0,"updated_at":"2026-04-03T18:40:45.219711+05:30"},{"city":"Kota","state":"Rajasthan","latitude":25.2138,"longitude":75.8648,"temp":32.9,"humidity":26,"rain":0.0,"pressure":977.8,"uv_index":7.85,"wind_gusts":48.2,"aqi":66,"pm10":30.5,"pm2_5":13.3,"mosquito_risk":0,"arthritis_risk":5,"migraine_risk":7,"frizz_risk":0,"updated_at":"2026-04-03T18:40:45.219718+05:30"},{"city":"Bikaner","state":"Rajasthan","latitude":28.0229,"longitude":73.3119,"temp":23.9,"humidity":58,"rain":0.0,"pressure":982.6,"uv_index":7.15,"wind_gusts":54.7,"aqi":63,"pm10":55.8,"pm2_5":16.6,"mosquito_risk":0,"arthritis_risk":5,"migraine_risk":7,"frizz_risk":0,"updated_at":"2026-04-03T18:40:45.219726+05:30"},{"city":"Ajmer","state":"Rajasthan","latitude":26.4499,"longitude":74.6399,"temp":24.6,"humidity":61,"rain":0.0,"pressure":954.7,"uv_index":7.55,"wind_gusts":59.8,"aqi":80,"pm10":55.3,"pm2_5":17.1,"mosquito_risk":3,"arthritis_risk":5,"migraine_risk":7,"frizz_risk":1,"updated_at":"2026-04-03T18:40:45.219733+05:30"},{"city":"Gwalior","state":"Madhya Pradesh","latitude":26.2183,"longitude":78.1828,"temp":28.7,"humidity":53,"rain":0.0,"pressure":983.3,"uv_index":7.65,"wind_gusts":42.1,"aqi":86,"pm10":49.9,"pm2_5":22.3,"mosquito_risk":4,"arthritis_risk":5,"migraine_risk":7,"frizz_risk":1,"updated_at":"2026-04-03T18:40:45.219741+05:30"},{"city":"Indore","state":"Madhya Pradesh","latitude":22.7196,"longitude":75.8577,"temp":30.6,"humidity":32,"rain":0.0,"pressure":948.0,"uv_index":8.3,"wind_gusts":37.1,"aqi":87,"pm10":24.8,"pm2_5":15.4,"mosquito_risk":0,"arthritis_risk":5,"migraine_risk":7,"frizz_risk":0,"updated_at":"2026-04-03T18:40:45.219748+05:30"},{"city":"Bhopal","state":"Madhya Pradesh","latitude":23.2599,"longitude":77.4126,"temp":28.5,"humidity":54,"rain":0.0,"pressure":953.3,"uv_index":7.9,"wind_gusts":31.7,"aqi":96,"pm10":24.6,"pm2_5":20.7,"mosquito_risk":4,"arthritis_risk":5,"migraine_risk":7,"frizz_risk":1,"updated_at":"2026-04-03T18:40:45.219754+05:30"},{"city":"Jabalpur","state":"Madhya Pradesh","latitude":23.1815,"longitude":79.9864,"temp":31.0,"humidity":44,"rain":0.0,"pressure":962.0,"uv_index":8.3,"wind_gusts":22.3,"aqi":107,"pm10":30.3,"pm2_5":26.0,"mosquito_risk":0,"arthritis_risk":5,"migraine_risk":7,"frizz_risk":1,"updated_at":"2026-04-03T18:40:45.219760+05:30"},{"city":"Ujjain","state":"Madhya Pradesh","latitude":23.1765,"longitude":75.7885,"temp":30.3,"humidity":36,"rain":0.0,"pressure":953.6,"uv_index":8.2,"wind_gusts":36.0,"aqi":72,"pm10":24.2,"pm2_5":13.1,"mosquito_risk":0,"arthritis_risk":5,"migraine_risk":7,"frizz_risk":0,"updated_at":"2026-04-03T18:40:45.219766+05:30"},{"city":"Visakhapatnam","state":"Andhra Pradesh","latitude":17.6868,"longitude":83.2185,"temp":28.4,"humidity":75,"rain":0.0,"pressure":1003.7,"uv_index":9.0,"wind_gusts":41.8,"aqi":59,"pm10":14.1,"pm2_5":11.8,"mosquito_risk":7,"arthritis_risk":5,"migraine_risk":4,"frizz_risk":1,"updated_at":"2026-04-03T18:40:45.219772+05:30"},{"city":"Vijayawada","state":"Andhra Pradesh","latitude":16.5062,"longitude":80.648,"temp":32.9,"humidity":47,"rain":0.0,"pressure":1001.5,"uv_index":8.5,"wind_gusts":31.0,"aqi":47,"pm10":14.0,"pm2_5":13.1,"mosquito_risk":0,"arthritis_risk":5,"migraine_risk":4,"frizz_risk":1,"updated_at":"2026-04-03T18:40:45.219778+05:30"},{"city":"Guntur","state":"Andhra Pradesh","latitude":16.3067,"longitude":80.4365,"temp":31.2,"humidity":50,"rain":0.0,"pressure":1003.0,"uv_index":8.45,"wind_gusts":32.8,"aqi":47,"pm10":14.0,"pm2_5":12.6,"mosquito_risk":0,"arthritis_risk":5,"migraine_risk":4,"frizz_risk":1,"updated_at":"2026-04-03T18:40:45.219784+05:30"},{"city":"Nellore","state":"Andhra Pradesh","latitude":14.4426,"longitude":79.9865,"temp":29.6,"humidity":65,"rain":0.0,"pressure":1005.6,"uv_index":9.25,"wind_gusts":34.2,"aqi":87,"pm10":11.2,"pm2_5":9.2,"mosquito_risk":7,"arthritis_risk":5,"migraine_risk":4,"frizz_risk":1,"updated_at":"2026-04-03T18:40:45.219790+05:30"},{"city":"Kurnool","state":"Andhra Pradesh","latitude":15.8281,"longitude":78.0373,"temp":36.2,"humidity":22,"rain":0.0,"pressure":975.2,"uv_index":8.8,"wind_gusts":20.5,"aqi":86,"pm10":24.0,"pm2_5":17.0,"mosquito_risk":0,"arthritis_risk":5,"migraine_risk":10,"frizz_risk":0,"updated_at":"2026-04-03T18:40:45.219797+05:30"},{"city":"Kakinada","state":"Andhra Pradesh","latitude":16.9891,"longitude":82.2475,"temp":29.9,"humidity":64,"rain":0.0,"pressure":1006.9,"uv_index":8.85,"wind_gusts":39.6,"aqi":34,"pm10":5.7,"pm2_5":4.1,"mosquito_risk":7,"arthritis_risk":5,"migraine_risk":4,"frizz_risk":1,"updated_at":"2026-04-03T18:40:45.219802+05:30"},{"city":"Tirupati","state":"Andhra Pradesh","latitude":13.6288,"longitude":79.4192,"temp":32.9,"humidity":40,"rain":0.0,"pressure":990.7,"uv_index":9.35,"wind_gusts":31.7,"aqi":90,"pm10":16.5,"pm2_5":14.5,"mosquito_risk":0,"arthritis_risk":5,"migraine_risk":7,"frizz_risk":1,"updated_at":"2026-04-03T18:40:45.219808+05:30"},{"city":"Warangal","state":"Telangana","latitude":17.9689,"longitude":79.5941,"temp":34.0,"humidity":44,"rain":0.0,"pressure":977.4,"uv_index":8.75,"wind_gusts":17.6,"aqi":84,"pm10":28.5,"pm2_5":23.2,"mosquito_risk":0,"arthritis_risk":5,"migraine_risk":7,"frizz_risk":1,"updated_at":"2026-04-03T18:40:45.219813+05:30"},{"city":"Nizamabad","state":"Telangana","latitude":18.6725,"longitude":78.0941,"temp":32.7,"humidity":42,"rain":0.0,"pressure":964.2,"uv_index":8.4,"wind_gusts":25.9,"aqi":121,"pm10":42.6,"pm2_5":35.5,"mosquito_risk":0,"arthritis_risk":5,"migraine_risk":7,"frizz_risk":1,"updated_at":"2026-04-03T18:40:45.219819+05:30"},{"city":"Mysore","state":"Karnataka","latitude":12.2958,"longitude":76.6396,"temp":26.9,"humidity":65,"rain":0.0,"pressure":928.9,"uv_index":9.5,"wind_gusts":45.7,"aqi":150,"pm10":25.3,"pm2_5":21.8,"mosquito_risk":7,"arthritis_risk":5,"migraine_risk":7,"frizz_risk":1,"updated_at":"2026-04-03T18:40:45.219825+05:30"},{"city":"Mangalore","state":"Karnataka","latitude":12.9141,"longitude":74.856,"temp":29.6,"humidity":80,"rain":0.0,"pressure":1006.8,"uv_index":9.15,"wind_gusts":24.5,"aqi":97,"pm10":19.6,"pm2_5":14.6,"mosquito_risk":7,"arthritis_risk":5,"migraine_risk":4,"frizz_risk":1,"updated_at":"2026-04-03T18:40:45.219830+05:30"},{"city":"Hubli-Dharwad","state":"Karnataka","latitude":15.3647,"longitude":75.124,"temp":28.6,"humidity":62,"rain":0.0,"pressure":940.9,"uv_index":9.2,"wind_gusts":38.9,"aqi":160,"pm10":28.6,"pm2_5":25.1,"mosquito_risk":7,"arthritis_risk":5,"migraine_risk":7,"frizz_risk":1,"updated_at":"2026-04-03T18:40:45.219836+05:30"},{"city":"Belgaum","state":"Karnataka","latitude":15.8497,"longitude":74.4977,"temp":26.0,"humidity":73,"rain":0.0,"pressure":926.0,"uv_index":9.25,"wind_gusts":33.1,"aqi":161,"pm10":26.9,"pm2_5":24.4,"mosquito_risk":7,"arthritis_risk":5,"migraine_risk":7,"frizz_risk":1,"updated_at":"2026-04-03T18:40:48.465149+05:30"},{"city":"Coimbatore","state":"Tamil Nadu","latitude":11.0168,"longitude":76.9558,"temp":27.9,"humidity":66,"rain":0.0,"pressure":962.0,"uv_index":9.45,"wind_gusts":45.0,"aqi":138,"pm10":23.7,"pm2_5":21.4,"mosquito_risk":7,"arthritis_risk":5,"migraine_risk":7,"frizz_risk":1,"updated_at":"2026-04-03T18:40:48.465175+05:30"},{"city":"Madurai","state":"Tamil Nadu","latitude":9.9252,"longitude":78.1198,"temp":28.7,"humidity":71,"rain":0.0,"pressure":993.9,"uv_index":9.2,"wind_gusts":34.6,"aqi":103,"pm10":18.9,"pm2_5":17.6,"mosquito_risk":7,"arthritis_risk":5,"migraine_risk":7,"frizz_risk":1,"updated_at":"2026-04-03T18:40:48.465184+05:30"},{"city":"Trichy","state":"Tamil Nadu","latitude":10.7905,"longitude":78.7047,"temp":32.1,"humidity":58,"rain":0.0,"pressure":999.3,"uv_index":9.4,"wind_gusts":34.6,"aqi":90,"pm10":16.8,"pm2_5":15.9,"mosquito_risk":0,"arthritis_risk":5,"migraine_risk":7,"frizz_risk":1,"updated_at":"2026-04-03T18:40:48.465191+05:30"},{"city":"Salem","state":"Tamil Nadu","latitude":11.6643,"longitude":78.146,"temp":35.3,"humidity":33,"rain":0.0,"pressure":976.2,"uv_index":9.45,"wind_gusts":33.1,"aqi":116,"pm10":16.4,"pm2_5":14.8,"mosquito_risk":0,"arthritis_risk":5,"migraine_risk":10,"frizz_risk":1,"updated_at":"2026-04-03T18:40:48.465199+05:30"},{"city":"Tirunelveli","state":"Tamil Nadu","latitude":8.7139,"longitude":77.7567,"temp":28.8,"humidity":76,"rain":0.0,"pressure":1004.2,"uv_index":9.35,"wind_gusts":37.1,"aqi":85,"pm10":19.1,"pm2_5":17.3,"mosquito_risk":7,"arthritis_risk":5,"migraine_risk":4,"frizz_risk":1,"updated_at":"2026-04-03T18:40:48.465205+05:30"},{"city":"Vellore","state":"Tamil Nadu","latitude":12.9165,"longitude":79.1325,"temp":32.3,"humidity":37,"rain":0.0,"pressure":983.9,"uv_index":9.4,"wind_gusts":37.1,"aqi":117,"pm10":29.6,"pm2_5":27.7,"mosquito_risk":0,"arthritis_risk":5,"migraine_risk":7,"frizz_risk":0,"updated_at":"2026-04-03T18:40:48.465213+05:30"},{"city":"Erode","state":"Tamil Nadu","latitude":11.341,"longitude":77.7172,"temp":35.8,"humidity":32,"rain":0.0,"pressure":987.5,"uv_index":9.4,"wind_gusts":29.2,"aqi":115,"pm10":16.4,"pm2_5":14.6,"mosquito_risk":0,"arthritis_risk":5,"migraine_risk":10,"frizz_risk":1,"updated_at":"2026-04-03T18:40:48.465219+05:30"},{"city":"Kochi","state":"Kerala","latitude":9.9312,"longitude":76.2673,"temp":29.6,"humidity":77,"rain":0.0,"pressure":1009.0,"uv_index":9.05,"wind_gusts":24.1,"aqi":116,"pm10":21.7,"pm2_5":19.1,"mosquito_risk":7,"arthritis_risk":0,"migraine_risk":4,"frizz_risk":1,"updated_at":"2026-04-03T18:40:48.465225+05:30"},{"city":"Thiruvananthapuram","state":"Kerala","latitude":8.5241,"longitude":76.9366,"temp":28.8,"humidity":79,"rain":0.0,"pressure":1008.8,"uv_index":9.0,"wind_gusts":23.8,"aqi":91,"pm10":22.9,"pm2_5":17.2,"mosquito_risk":7,"arthritis_risk":0,"migraine_risk":4,"frizz_risk":1,"updated_at":"2026-04-03T18:40:48.465230+05:30"},{"city":"Kozhikode","state":"Kerala","latitude":11.2588,"longitude":75.7804,"temp":29.9,"humidity":77,"rain":0.0,"pressure":1008.0,"uv_index":9.15,"wind_gusts":25.2,"aqi":73,"pm10":16.5,"pm2_5":13.4,"mosquito_risk":7,"arthritis_risk":0,"migraine_risk":4,"frizz_risk":1,"updated_at":"2026-04-03T18:40:48.465236+05:30"},{"city":"Thrissur","state":"Kerala","latitude":10.5276,"longitude":76.2144,"temp":30.0,"humidity":73,"rain":0.0,"pressure":1007.3,"uv_index":9.2,"wind_gusts":30.2,"aqi":84,"pm10":20.9,"pm2_5":18.6,"mosquito_risk":7,"arthritis_risk":5,"migraine_risk":4,"frizz_risk":1,"updated_at":"2026-04-03T18:40:48.465242+05:30"},{"city":"Kannur","state":"Kerala","latitude":11.8745,"longitude":75.3704,"temp":30.2,"humidity":72,"rain":0.0,"pressure":1007.5,"uv_index":9.15,"wind_gusts":27.4,"aqi":76,"pm10":19.3,"pm2_5":15.5,"mosquito_risk":3,"arthritis_risk":5,"migraine_risk":4,"frizz_risk":1,"updated_at":"2026-04-03T18:40:48.465248+05:30"},{"city":"Patna","state":"Bihar","latitude":25.5941,"longitude":85.1376,"temp":34.4,"humidity":33,"rain":0.0,"pressure":998.1,"uv_index":8.3,"wind_gusts":36.4,"aqi":148,"pm10":28.5,"pm2_5":25.4,"mosquito_risk":0,"arthritis_risk":5,"migraine_risk":7,"frizz_risk":0,"updated_at":"2026-04-03T18:40:48.465254+05:30"},{"city":"Gaya","state":"Bihar","latitude":24.7914,"longitude":85.0002,"temp":32.7,"humidity":41,"rain":0.0,"pressure":992.0,"uv_index":8.4,"wind_gusts":27.0,"aqi":151,"pm10":30.3,"pm2_5":25.6,"mosquito_risk":0,"arthritis_risk":5,"migraine_risk":7,"frizz_risk":1,"updated_at":"2026-04-03T18:40:48.465260+05:30"},{"city":"Muzaffarpur","state":"Bihar","latitude":26.1209,"longitude":85.3647,"temp":32.7,"humidity":32,"rain":0.0,"pressure":998.0,"uv_index":8.25,"wind_gusts":39.2,"aqi":135,"pm10":27.6,"pm2_5":23.2,"mosquito_risk":0,"arthritis_risk":5,"migraine_risk":7,"frizz_risk":0,"updated_at":"2026-04-03T18:40:48.465266+05:30"},{"city":"Bhagalpur","state":"Bihar","latitude":25.2425,"longitude":87.0117,"temp":32.2,"humidity":49,"rain":0.0,"pressure":998.5,"uv_index":8.3,"wind_gusts":23.8,"aqi":142,"pm10":41.4,"pm2_5":28.0,"mosquito_risk":0,"arthritis_risk":5,"migraine_risk":7,"frizz_risk":1,"updated_at":"2026-04-03T18:40:48.465271+05:30"},{"city":"Ranchi","state":"Jharkhand","latitude":23.3441,"longitude":85.3096,"temp":32.0,"humidity":28,"rain":0.0,"pressure":937.8,"uv_index":8.95,"wind_gusts":26.6,"aqi":122,"pm10":25.0,"pm2_5":21.7,"mosquito_risk":0,"arthritis_risk":5,"migraine_risk":7,"frizz_risk":0,"updated_at":"2026-04-03T18:40:48.465277+05:30"},{"city":"Jamshedpur","state":"Jharkhand","latitude":22.8046,"longitude":86.2029,"temp":34.7,"humidity":43,"rain":0.0,"pressure":988.9,"uv_index":8.8,"wind_gusts":23.4,"aqi":183,"pm10":37.4,"pm2_5":30.4,"mosquito_risk":0,"arthritis_risk":5,"migraine_risk":7,"frizz_risk":1,"updated_at":"2026-04-03T18:40:48.465283+05:30"},{"city":"Dhanbad","state":"Jharkhand","latitude":23.7957,"longitude":86.4304,"temp":36.0,"humidity":25,"rain":0.0,"pressure":977.8,"uv_index":8.7,"wind_gusts":21.6,"aqi":151,"pm10":46.9,"pm2_5":41.8,"mosquito_risk":0,"arthritis_risk":5,"migraine_risk":10,"frizz_risk":0,"updated_at":"2026-04-03T18:40:48.465288+05:30"},{"city":"Bokaro","state":"Jharkhand","latitude":23.6693,"longitude":86.1511,"temp":34.9,"humidity":34,"rain":0.0,"pressure":982.0,"uv_index":8.7,"wind_gusts":19.8,"aqi":150,"pm10":44.2,"pm2_5":39.9,"mosquito_risk":0,"arthritis_risk":5,"migraine_risk":7,"frizz_risk":1,"updated_at":"2026-04-03T18:40:48.465294+05:30"},{"city":"Bhubaneswar","state":"Odisha","latitude":20.2961,"longitude":85.8245,"temp":30.0,"humidity":71,"rain":0.0,"pressure":1002.1,"uv_index":8.95,"wind_gusts":30.2,"aqi":111,"pm10":21.4,"pm2_5":18.9,"mosquito_risk":7,"arthritis_risk":5,"migraine_risk":4,"frizz_risk":1,"updated_at":"2026-04-03T18:40:48.465300+05:30"},{"city":"Cuttack","state":"Odisha","latitude":20.4625,"longitude":85.8828,"temp":32.3,"humidity":61,"rain":0.0,"pressure":1003.5,"uv_index":9.0,"wind_gusts":37.8,"aqi":111,"pm10":21.4,"pm2_5":18.9,"mosquito_risk":3,"arthritis_risk":5,"migraine_risk":4,"frizz_risk":1,"updated_at":"2026-04-03T18:40:48.465306+05:30"},{"city":"Rourkela","state":"Odisha","latitude":22.2604,"longitude":84.8536,"temp":34.7,"humidity":35,"rain":0.0,"pressure":983.8,"uv_index":8.7,"wind_gusts":26.6,"aqi":178,"pm10":46.9,"pm2_5":41.1,"mosquito_risk":0,"arthritis_risk":5,"migraine_risk":7,"frizz_risk":1,"updated_at":"2026-04-03T18:40:48.465312+05:30"},{"city":"Raipur","state":"Chhattisgarh","latitude":21.2514,"longitude":81.6296,"temp":34.8,"humidity":35,"rain":0.0,"pressure":974.0,"uv_index":8.8,"wind_gusts":26.3,"aqi":167,"pm10":53.7,"pm2_5":48.4,"mosquito_risk":0,"arthritis_risk":5,"migraine_risk":7,"frizz_risk":1,"updated_at":"2026-04-03T18:40:48.465317+05:30"},{"city":"Bhilai","state":"Chhattisgarh","latitude":21.1938,"longitude":81.3509,"temp":33.6,"humidity":38,"rain":0.0,"pressure":974.4,"uv_index":8.8,"wind_gusts":27.7,"aqi":138,"pm10":45.9,"pm2_5":40.3,"mosquito_risk":0,"arthritis_risk":5,"migraine_risk":7,"frizz_risk":1,"updated_at":"2026-04-03T18:40:48.465323+05:30"},{"city":"Guwahati","state":"Assam","latitude":26.1158,"longitude":91.7086,"temp":27.4,"humidity":82,"rain":0.0,"pressure":1000.6,"uv_index":8.25,"wind_gusts":43.6,"aqi":141,"pm10":62.9,"pm2_5":54.8,"mosquito_risk":7,"arthritis_risk":5,"migraine_risk":4,"frizz_risk":1,"updated_at":"2026-04-03T18:40:48.465329+05:30"},{"city":"Agartala","state":"Tripura","latitude":23.8315,"longitude":91.2868,"temp":30.4,"humidity":71,"rain":0.0,"pressure":1003.9,"uv_index":8.45,"wind_gusts":23.8,"aqi":97,"pm10":48.9,"pm2_5":42.6,"mosquito_risk":3,"arthritis_risk":5,"migraine_risk":4,"frizz_risk":1,"updated_at":"2026-04-03T18:40:48.465334+05:30"},{"city":"Shillong","state":"Meghalaya","latitude":25.5788,"longitude":91.8933,"temp":16.6,"humidity":80,"rain":0.0,"pressure":856.2,"uv_index":8.55,"wind_gusts":55.1,"aqi":116,"pm10":47.5,"pm2_5":39.3,"mosquito_risk":3,"arthritis_risk":5,"migraine_risk":7,"frizz_risk":0,"updated_at":"2026-04-03T18:40:48.465340+05:30"},{"city":"Imphal","state":"Manipur","latitude":24.817,"longitude":93.9368,"temp":20.5,"humidity":79,"rain":0.0,"pressure":922.8,"uv_index":8.85,"wind_gusts":60.8,"aqi":118,"pm10":58.7,"pm2_5":48.8,"mosquito_risk":3,"arthritis_risk":5,"migraine_risk":7,"frizz_risk":1,"updated_at":"2026-04-03T18:40:48.465346+05:30"},{"city":"Aizawl","state":"Mizoram","latitude":23.7271,"longitude":92.7176,"temp":23.0,"humidity":71,"rain":0.0,"pressure":892.6,"uv_index":8.7,"wind_gusts":52.9,"aqi":124,"pm10":53.6,"pm2_5":39.2,"mosquito_risk":3,"arthritis_risk":5,"migraine_risk":7,"frizz_risk":1,"updated_at":"2026-04-03T18:40:48.465352+05:30"},{"city":"Kohima","state":"Nagaland","latitude":25.6701,"longitude":94.1077,"temp":16.9,"humidity":97,"rain":0.0,"pressure":855.0,"uv_index":8.75,"wind_gusts":80.3,"aqi":104,"pm10":53.8,"pm2_5":42.5,"mosquito_risk":3,"arthritis_risk":10,"migraine_risk":7,"frizz_risk":1,"updated_at":"2026-04-03T18:40:48.465357+05:30"},{"city":"Gangtok","state":"Sikkim","latitude":27.3314,"longitude":88.6138,"temp":18.2,"humidity":87,"rain":0.0,"pressure":837.8,"uv_index":7.55,"wind_gusts":19.1,"aqi":123,"pm10":59.0,"pm2_5":47.5,"mosquito_risk":3,"arthritis_risk":10,"migraine_risk":7,"frizz_risk":0,"updated_at":"2026-04-03T18:40:48.465363+05:30"},{"city":"Siliguri","state":"West Bengal","latitude":26.7271,"longitude":88.3953,"temp":25.4,"humidity":73,"rain":0.0,"pressure":992.6,"uv_index":8.2,"wind_gusts":18.7,"aqi":153,"pm10":70.8,"pm2_5":55.3,"mosquito_risk":7,"arthritis_risk":5,"migraine_risk":7,"frizz_risk":1,"updated_at":"2026-04-03T18:40:51.717575+05:30"},{"city":"Durgapur","state":"West Bengal","latitude":23.5204,"longitude":87.3119,"temp":35.5,"humidity":37,"rain":0.0,"pressure":992.4,"uv_index":8.65,"wind_gusts":17.3,"aqi":174,"pm10":69.4,"pm2_5":62.6,"mosquito_risk":0,"arthritis_risk":5,"migraine_risk":10,"frizz_risk":1,"updated_at":"2026-04-03T18:40:51.717604+05:30"},{"city":"Asansol","state":"West Bengal","latitude":23.6739,"longitude":86.9524,"temp":35.0,"humidity":38,"rain":0.0,"pressure":990.9,"uv_index":8.65,"wind_gusts":16.9,"aqi":163,"pm10":50.5,"pm2_5":44.1,"mosquito_risk":0,"arthritis_risk":5,"migraine_risk":7,"frizz_risk":1,"updated_at":"2026-04-03T18:40:51.717616+05:30"},{"city":"Pondicherry","state":"Puducherry","latitude":11.9139,"longitude":79.8145,"temp":29.2,"humidity":71,"rain":0.0,"pressure":1008.3,"uv_index":9.3,"wind_gusts":34.6,"aqi":46,"pm10":13.1,"pm2_5":9.6,"mosquito_risk":7,"arthritis_risk":0,"migraine_risk":4,"frizz_risk":1,"updated_at":"2026-04-03T18:40:51.717625+05:30"},{"city":"Port Blair","state":"Andaman and Nicobar Islands","latitude":11.6234,"longitude":92.7265,"temp":28.7,"humidity":75,"rain":0.0,"pressure":1007.8,"uv_index":9.2,"wind_gusts":22.7,"aqi":44,"pm10":19.6,"pm2_5":10.5,"mosquito_risk":7,"arthritis_risk":5,"migraine_risk":4,"frizz_risk":1,"updated_at":"2026-04-03T18:40:51.717633+05:30"},{"city":"Haridwar","state":"Uttarakhand","latitude":29.9457,"longitude":78.1642,"temp":26.3,"humidity":70,"rain":0.0,"pressure":975.8,"uv_index":6.15,"wind_gusts":22.0,"aqi":123,"pm10":134.6,"pm2_5":53.1,"mosquito_risk":7,"arthritis_risk":5,"migraine_risk":7,"frizz_risk":1,"updated_at":"2026-04-03T18:40:51.717642+05:30"},{"city":"Rishikesh","state":"Uttarakhand","latitude":30.0869,"longitude":78.2676,"temp":26.1,"humidity":60,"rain":0.0,"pressure":968.7,"uv_index":5.6,"wind_gusts":23.8,"aqi":116,"pm10":73.8,"pm2_5":33.4,"mosquito_risk":4,"arthritis_risk":5,"migraine_risk":3,"frizz_risk":1,"updated_at":"2026-04-03T18:40:51.717650+05:30"},{"city":"Nainital","state":"Uttarakhand","latitude":29.3919,"longitude":79.4542,"temp":20.5,"humidity":58,"rain":0.0,"pressure":808.1,"uv_index":5.0,"wind_gusts":36.4,"aqi":112,"pm10":56.7,"pm2_5":28.3,"mosquito_risk":0,"arthritis_risk":5,"migraine_risk":3,"frizz_risk":0,"updated_at":"2026-04-03T18:40:51.717658+05:30"},{"city":"Mussoorie","state":"Uttarakhand","latitude":30.4599,"longitude":78.0664,"temp":18.3,"humidity":62,"rain":0.0,"pressure":804.6,"uv_index":5.6,"wind_gusts":45.4,"aqi":113,"pm10":66.4,"pm2_5":31.8,"mosquito_risk":3,"arthritis_risk":5,"migraine_risk":3,"frizz_risk":0,"updated_at":"2026-04-03T18:40:51.717666+05:30"},{"city":"Dharamshala","state":"Himachal Pradesh","latitude":32.219,"longitude":76.3234,"temp":15.8,"humidity":97,"rain":0.1,"pressure":869.4,"uv_index":4.55,"wind_gusts":51.5,"aqi":55,"pm10":11.2,"pm2_5":6.5,"mosquito_risk":6,"arthritis_risk":10,"migraine_risk":3,"frizz_risk":0,"updated_at":"2026-04-03T18:40:51.717674+05:30"},{"city":"Dalhousie","state":"Himachal Pradesh","latitude":32.5387,"longitude":75.971,"temp":13.1,"humidity":88,"rain":0.1,"pressure":803.0,"uv_index":4.95,"wind_gusts":50.4,"aqi":58,"pm10":24.0,"pm2_5":15.8,"mosquito_risk":6,"arthritis_risk":10,"migraine_risk":3,"frizz_risk":0,"updated_at":"2026-04-03T18:40:51.717682+05:30"},{"city":"Patiala","state":"Punjab","latitude":30.3398,"longitude":76.3869,"temp":22.2,"humidity":74,"rain":0.0,"pressure":980.3,"uv_index":5.55,"wind_gusts":42.8,"aqi":121,"pm10":217.5,"pm2_5":42.4,"mosquito_risk":3,"arthritis_risk":5,"migraine_risk":3,"frizz_risk":1,"updated_at":"2026-04-03T18:40:51.717690+05:30"},{"city":"Bhatinda","state":"Punjab","latitude":30.211,"longitude":74.9455,"temp":22.3,"humidity":77,"rain":0.0,"pressure":985.2,"uv_index":6.45,"wind_gusts":44.6,"aqi":87,"pm10":93.6,"pm2_5":21.7,"mosquito_risk":3,"arthritis_risk":5,"migraine_risk":7,"frizz_risk":1,"updated_at":"2026-04-03T18:40:51.717698+05:30"},{"city":"Rohtak","state":"Haryana","latitude":28.8955,"longitude":76.6066,"temp":26.6,"humidity":55,"rain":0.0,"pressure":983.0,"uv_index":5.9,"wind_gusts":31.7,"aqi":446,"pm10":258.9,"pm2_5":44.4,"mosquito_risk":4,"arthritis_risk":5,"migraine_risk":3,"frizz_risk":1,"updated_at":"2026-04-03T18:40:51.717706+05:30"},{"city":"Panipat","state":"Haryana","latitude":29.3909,"longitude":76.9635,"temp":25.6,"humidity":65,"rain":0.0,"pressure":981.9,"uv_index":6.2,"wind_gusts":43.9,"aqi":762,"pm10":273.8,"pm2_5":49.7,"mosquito_risk":7,"arthritis_risk":5,"migraine_risk":7,"frizz_risk":1,"updated_at":"2026-04-03T18:40:51.717714+05:30"},{"city":"Mathura","state":"Uttar Pradesh","latitude":27.4924,"longitude":77.6737,"temp":29.4,"humidity":39,"rain":0.0,"pressure":987.4,"uv_index":7.25,"wind_gusts":31.7,"aqi":646,"pm10":432.1,"pm2_5":57.7,"mosquito_risk":4,"arthritis_risk":5,"migraine_risk":7,"frizz_risk":0,"updated_at":"2026-04-03T18:40:51.717721+05:30"},{"city":"Vrindavan","state":"Uttar Pradesh","latitude":27.5823,"longitude":77.7027,"temp":29.0,"humidity":43,"rain":0.0,"pressure":988.0,"uv_index":7.2,"wind_gusts":34.9,"aqi":646,"pm10":432.1,"pm2_5":57.7,"mosquito_risk":4,"arthritis_risk":5,"migraine_risk":7,"frizz_risk":0,"updated_at":"2026-04-03T18:40:51.717729+05:30"},{"city":"Ayodhya","state":"Uttar Pradesh","latitude":26.7922,"longitude":82.1998,"temp":30.7,"humidity":44,"rain":0.0,"pressure":994.5,"uv_index":6.6,"wind_gusts":36.0,"aqi":103,"pm10":54.1,"pm2_5":26.3,"mosquito_risk":0,"arthritis_risk":5,"migraine_risk":7,"frizz_risk":1,"updated_at":"2026-04-03T18:40:51.717737+05:30"},{"city":"Ratlam","state":"Madhya Pradesh","latitude":23.3315,"longitude":75.0367,"temp":29.4,"humidity":40,"rain":0.0,"pressure":954.6,"uv_index":8.15,"wind_gusts":42.8,"aqi":68,"pm10":24.1,"pm2_5":11.6,"mosquito_risk":4,"arthritis_risk":5,"migraine_risk":7,"frizz_risk":0,"updated_at":"2026-04-03T18:40:51.717744+05:30"},{"city":"Sagar","state":"Madhya Pradesh","latitude":23.8388,"longitude":78.7378,"temp":31.1,"humidity":35,"rain":0.0,"pressure":950.7,"uv_index":7.5,"wind_gusts":26.6,"aqi":94,"pm10":23.7,"pm2_5":18.0,"mosquito_risk":0,"arthritis_risk":5,"migraine_risk":7,"frizz_risk":0,"updated_at":"2026-04-03T18:40:51.717752+05:30"},{"city":"Satna","state":"Madhya Pradesh","latitude":24.6005,"longitude":80.8322,"temp":33.1,"humidity":35,"rain":0.0,"pressure":971.7,"uv_index":7.65,"wind_gusts":36.0,"aqi":96,"pm10":24.0,"pm2_5":20.7,"mosquito_risk":0,"arthritis_risk":5,"migraine_risk":7,"frizz_risk":0,"updated_at":"2026-04-03T18:40:51.717760+05:30"},{"city":"Akola","state":"Maharashtra","latitude":20.7002,"longitude":77.0082,"temp":32.3,"humidity":47,"rain":0.0,"pressure":974.6,"uv_index":8.6,"wind_gusts":31.3,"aqi":131,"pm10":40.4,"pm2_5":36.4,"mosquito_risk":0,"arthritis_risk":5,"migraine_risk":7,"frizz_risk":1,"updated_at":"2026-04-03T18:40:51.717768+05:30"},{"city":"Amravati","state":"Maharashtra","latitude":20.9374,"longitude":77.7796,"temp":31.0,"humidity":50,"rain":0.0,"pressure":967.5,"uv_index":8.65,"wind_gusts":43.6,"aqi":133,"pm10":44.8,"pm2_5":40.2,"mosquito_risk":0,"arthritis_risk":5,"migraine_risk":7,"frizz_risk":1,"updated_at":"2026-04-03T18:40:51.717776+05:30"},{"city":"Latur","state":"Maharashtra","latitude":18.4088,"longitude":76.5604,"temp":29.9,"humidity":48,"rain":0.0,"pressure":939.2,"uv_index":8.8,"wind_gusts":33.5,"aqi":125,"pm10":35.0,"pm2_5":28.7,"mosquito_risk":4,"arthritis_risk":5,"migraine_risk":7,"frizz_risk":1,"updated_at":"2026-04-03T18:40:51.717784+05:30"},{"city":"Nanded","state":"Maharashtra","latitude":19.1383,"longitude":77.3091,"temp":31.5,"humidity":46,"rain":0.0,"pressure":968.4,"uv_index":8.3,"wind_gusts":29.5,"aqi":130,"pm10":37.4,"pm2_5":29.6,"mosquito_risk":0,"arthritis_risk":5,"migraine_risk":7,"frizz_risk":1,"updated_at":"2026-04-03T18:40:51.717791+05:30"},{"city":"Gulbarga","state":"Karnataka","latitude":17.3297,"longitude":76.8343,"temp":36.1,"humidity":21,"rain":0.0,"pressure":957.2,"uv_index":8.5,"wind_gusts":36.7,"aqi":164,"pm10":23.8,"pm2_5":19.7,"mosquito_risk":0,"arthritis_risk":5,"migraine_risk":10,"frizz_risk":0,"updated_at":"2026-04-03T18:40:51.717799+05:30"},{"city":"Bidar","state":"Karnataka","latitude":17.9104,"longitude":77.5199,"temp":33.7,"humidity":28,"rain":0.0,"pressure":934.8,"uv_index":8.3,"wind_gusts":33.5,"aqi":116,"pm10":24.7,"pm2_5":19.6,"mosquito_risk":0,"arthritis_risk":5,"migraine_risk":7,"frizz_risk":0,"updated_at":"2026-04-03T18:40:51.717806+05:30"},{"city":"Hospet","state":"Karnataka","latitude":15.2689,"longitude":76.3909,"temp":35.0,"humidity":21,"rain":0.0,"pressure":954.9,"uv_index":9.2,"wind_gusts":36.4,"aqi":179,"pm10":26.9,"pm2_5":23.0,"mosquito_risk":0,"arthritis_risk":5,"migraine_risk":7,"frizz_risk":0,"updated_at":"2026-04-03T18:40:51.717814+05:30"},{"city":"Tirupur","state":"Tamil Nadu","latitude":11.1085,"longitude":77.3411,"temp":31.7,"humidity":52,"rain":0.0,"pressure":974.8,"uv_index":9.5,"wind_gusts":43.6,"aqi":151,"pm10":21.5,"pm2_5":19.2,"mosquito_risk":0,"arthritis_risk":5,"migraine_risk":7,"frizz_risk":1,"updated_at":"2026-04-03T18:40:51.717821+05:30"},{"city":"Alappuzha","state":"Kerala","latitude":9.4981,"longitude":76.3388,"temp":29.5,"humidity":78,"rain":0.0,"pressure":1009.1,"uv_index":9.2,"wind_gusts":23.0,"aqi":104,"pm10":21.2,"pm2_5":16.7,"mosquito_risk":7,"arthritis_risk":0,"migraine_risk":4,"frizz_risk":1,"updated_at":"2026-04-03T18:40:51.717828+05:30"},{"city":"Munnar","state":"Kerala","latitude":10.0889,"longitude":77.0595,"temp":22.6,"humidity":87,"rain":0.0,"pressure":857.9,"uv_index":8.0,"wind_gusts":29.2,"aqi":66,"pm10":15.2,"pm2_5":14.3,"mosquito_risk":3,"arthritis_risk":5,"migraine_risk":7,"frizz_risk":1,"updated_at":"2026-04-03T18:40:51.717836+05:30"},{"city":"Silchar","state":"Assam","latitude":24.8333,"longitude":92.7789,"temp":28.6,"humidity":73,"rain":0.0,"pressure":1003.6,"uv_index":8.5,"wind_gusts":29.2,"aqi":150,"pm10":79.6,"pm2_5":66.8,"mosquito_risk":7,"arthritis_risk":5,"migraine_risk":4,"frizz_risk":1,"updated_at":"2026-04-03T18:40:51.717844+05:30"},{"city":"Dibrugarh","state":"Assam","latitude":27.4728,"longitude":94.912,"temp":26.1,"humidity":76,"rain":0.0,"pressure":995.2,"uv_index":8.3,"wind_gusts":12.6,"aqi":99,"pm10":47.1,"pm2_5":41.1,"mosquito_risk":7,"arthritis_risk":5,"migraine_risk":7,"frizz_risk":1,"updated_at":"2026-04-03T18:40:51.717851+05:30"}]