[{"city":"Delhi","state":"Delhi","latitude":28.6139,"longitude":77.209,"temp":39.1,"humidity":31,"rain":0.0,"pressure":977.9,"uv_index":7.8,"wind_gusts":42.5,"aqi":524,"pm10":750.6,"pm2_5":113.4,"no2":3.7,"co":262.0,"o3":154.0,"so2":9.7,"mosquito_risk":0,"arthritis_risk":5,"migraine_risk":10,"frizz_risk":1,"updated_at":"2026-06-20T14:50:10.099827+05:30"},{"city":"Mumbai","state":"Maharashtra","latitude":19.076,"longitude":72.8777,"temp":32.9,"humidity":55,"rain":0.0,"pressure":1007.0,"uv_index":7.75,"wind_gusts":41.8,"aqi":52,"pm10":23.9,"pm2_5":14.4,"no2":4.0,"co":140.0,"o3":88.0,"so2":6.3,"mosquito_risk":0,"arthritis_risk":5,"migraine_risk":4,"frizz_risk":1,"updated_at":"2026-06-20T14:50:10.099877+05:30"},{"city":"Bangalore","state":"Karnataka","latitude":12.9716,"longitude":77.5946,"temp":28.8,"humidity":52,"rain":0.0,"pressure":911.2,"uv_index":7.9,"wind_gusts":24.8,"aqi":62,"pm10":23.3,"pm2_5":14.4,"no2":5.4,"co":432.0,"o3":124.0,"so2":3.9,"mosquito_risk":4,"arthritis_risk":5,"migraine_risk":7,"frizz_risk":1,"updated_at":"2026-06-20T14:50:10.099893+05:30"},{"city":"Hyderabad","state":"Telangana","latitude":17.385,"longitude":78.4867,"temp":36.5,"humidity":34,"rain":0.0,"pressure":951.0,"uv_index":8.3,"wind_gusts":39.6,"aqi":67,"pm10":26.0,"pm2_5":18.5,"no2":2.9,"co":249.0,"o3":136.0,"so2":6.1,"mosquito_risk":0,"arthritis_risk":5,"migraine_risk":10,"frizz_risk":1,"updated_at":"2026-06-20T14:50:10.099904+05:30"},{"city":"Chennai","state":"Tamil Nadu","latitude":13.0827,"longitude":80.2707,"temp":33.4,"humidity":65,"rain":0.0,"pressure":1004.3,"uv_index":7.7,"wind_gusts":30.6,"aqi":85,"pm10":33.1,"pm2_5":26.1,"no2":4.0,"co":307.0,"o3":168.0,"so2":9.0,"mosquito_risk":3,"arthritis_risk":5,"migraine_risk":4,"frizz_risk":1,"updated_at":"2026-06-20T14:50:10.099912+05:30"},{"city":"Kolkata","state":"West Bengal","latitude":22.5726,"longitude":88.3639,"temp":33.2,"humidity":64,"rain":0.2,"pressure":1000.6,"uv_index":8.35,"wind_gusts":36.4,"aqi":163,"pm10":36.4,"pm2_5":31.1,"no2":2.9,"co":322.0,"o3":144.0,"so2":7.1,"mosquito_risk":6,"arthritis_risk":5,"migraine_risk":4,"frizz_risk":1,"updated_at":"2026-06-20T14:50:10.099920+05:30"},{"city":"Pune","state":"Maharashtra","latitude":18.5204,"longitude":73.8567,"temp":35.1,"humidity":34,"rain":0.0,"pressure":946.9,"uv_index":7.85,"wind_gusts":45.4,"aqi":39,"pm10":15.3,"pm2_5":9.4,"no2":1.5,"co":128.0,"o3":100.0,"so2":3.2,"mosquito_risk":0,"arthritis_risk":5,"migraine_risk":10,"frizz_risk":1,"updated_at":"2026-06-20T14:50:10.099928+05:30"},{"city":"Ahmedabad","state":"Gujarat","latitude":23.0225,"longitude":72.5714,"temp":38.8,"humidity":33,"rain":0.0,"pressure":998.6,"uv_index":8.05,"wind_gusts":40.3,"aqi":73,"pm10":63.3,"pm2_5":21.0,"no2":1.4,"co":128.0,"o3":88.0,"so2":3.4,"mosquito_risk":0,"arthritis_risk":5,"migraine_risk":10,"frizz_risk":1,"updated_at":"2026-06-20T14:50:10.099935+05:30"},{"city":"Jaipur","state":"Rajasthan","latitude":26.9124,"longitude":75.7873,"temp":35.8,"humidity":39,"rain":0.1,"pressure":956.8,"uv_index":8.2,"wind_gusts":48.6,"aqi":133,"pm10":147.6,"pm2_5":40.5,"no2":1.5,"co":142.0,"o3":93.0,"so2":2.6,"mosquito_risk":3,"arthritis_risk":5,"migraine_risk":10,"frizz_risk":1,"updated_at":"2026-06-20T14:50:10.099942+05:30"},{"city":"Lucknow","state":"Uttar Pradesh","latitude":26.8467,"longitude":80.9462,"temp":39.9,"humidity":31,"rain":0.0,"pressure":987.0,"uv_index":8.35,"wind_gusts":42.8,"aqi":159,"pm10":344.6,"pm2_5":74.7,"no2":1.2,"co":191.0,"o3":131.0,"so2":5.9,"mosquito_risk":0,"arthritis_risk":5,"migraine_risk":10,"frizz_risk":1,"updated_at":"2026-06-20T14:50:10.099953+05:30"},{"city":"Kanpur","state":"Uttar Pradesh","latitude":26.4499,"longitude":80.3319,"temp":40.3,"humidity":29,"rain":0.0,"pressure":985.8,"uv_index":8.3,"wind_gusts":42.5,"aqi":220,"pm10":322.2,"pm2_5":64.5,"no2":1.3,"co":158.0,"o3":125.0,"so2":5.5,"mosquito_risk":0,"arthritis_risk":5,"migraine_risk":10,"frizz_risk":1,"updated_at":"2026-06-20T14:50:10.099960+05:30"},{"city":"Chandigarh","state":"Chandigarh","latitude":30.7333,"longitude":76.7794,"temp":36.3,"humidity":35,"rain":0.0,"pressure":964.0,"uv_index":7.8,"wind_gusts":36.4,"aqi":150,"pm10":38.8,"pm2_5":28.3,"no2":2.1,"co":304.0,"o3":165.0,"so2":7.4,"mosquito_risk":0,"arthritis_risk":5,"migraine_risk":10,"frizz_risk":1,"updated_at":"2026-06-20T14:50:10.099968+05:30"},{"city":"Srinagar","state":"Jammu and Kashmir","latitude":34.0837,"longitude":74.7973,"temp":22.8,"humidity":60,"rain":0.1,"pressure":842.8,"uv_index":9.05,"wind_gusts":23.0,"aqi":68,"pm10":16.1,"pm2_5":9.2,"no2":2.0,"co":270.0,"o3":129.0,"so2":1.7,"mosquito_risk":3,"arthritis_risk":5,"migraine_risk":7,"frizz_risk":0,"updated_at":"2026-06-20T14:50:10.099979+05:30"},{"city":"Jammu","state":"Jammu and Kashmir","latitude":32.7266,"longitude":74.857,"temp":37.1,"humidity":24,"rain":0.0,"pressure":968.9,"uv_index":8.6,"wind_gusts":36.7,"aqi":100,"pm10":26.3,"pm2_5":16.5,"no2":1.5,"co":237.0,"o3":149.0,"so2":2.1,"mosquito_risk":0,"arthritis_risk":5,"migraine_risk":10,"frizz_risk":0,"updated_at":"2026-06-20T14:50:10.099986+05:30"},{"city":"Amritsar","state":"Punjab","latitude":31.634,"longitude":74.8723,"temp":35.8,"humidity":40,"rain":0.0,"pressure":976.5,"uv_index":8.45,"wind_gusts":25.9,"aqi":160,"pm10":49.1,"pm2_5":35.5,"no2":2.2,"co":356.0,"o3":191.0,"so2":9.4,"mosquito_risk":0,"arthritis_risk":5,"migraine_risk":10,"frizz_risk":1,"updated_at":"2026-06-20T14:50:10.099993+05:30"},{"city":"Ludhiana","state":"Punjab","latitude":30.901,"longitude":75.8573,"temp":37.7,"humidity":30,"rain":0.0,"pressure":974.2,"uv_index":8.05,"wind_gusts":38.9,"aqi":130,"pm10":49.4,"pm2_5":31.4,"no2":1.6,"co":281.0,"o3":161.0,"so2":3.9,"mosquito_risk":0,"arthritis_risk":5,"migraine_risk":10,"frizz_risk":1,"updated_at":"2026-06-20T14:50:10.100000+05:30"},{"city":"Jalandhar","state":"Punjab","latitude":31.326,"longitude":75.5762,"temp":37.3,"humidity":32,"rain":0.0,"pressure":975.2,"uv_index":8.2,"wind_gusts":35.3,"aqi":150,"pm10":74.7,"pm2_5":34.6,"no2":1.7,"co":299.0,"o3":176.0,"so2":5.7,"mosquito_risk":0,"arthritis_risk":5,"migraine_risk":10,"frizz_risk":1,"updated_at":"2026-06-20T14:50:10.100007+05:30"},{"city":"Dehradun","state":"Uttarakhand","latitude":30.6284,"longitude":78.0322,"temp":25.0,"humidity":58,"rain":0.0,"pressure":830.7,"uv_index":8.25,"wind_gusts":28.4,"aqi":91,"pm10":36.0,"pm2_5":25.4,"no2":1.2,"co":249.0,"o3":158.0,"so2":3.6,"mosquito_risk":4,"arthritis_risk":5,"migraine_risk":7,"frizz_risk":1,"updated_at":"2026-06-20T14:50:10.100014+05:30"},{"city":"Shimla","state":"Himachal Pradesh","latitude":31.1048,"longitude":77.1734,"temp":23.1,"humidity":39,"rain":0.0,"pressure":786.5,"uv_index":8.35,"wind_gusts":34.9,"aqi":95,"pm10":42.0,"pm2_5":27.2,"no2":0.9,"co":216.0,"o3":149.0,"so2":4.7,"mosquito_risk":0,"arthritis_risk":5,"migraine_risk":7,"frizz_risk":0,"updated_at":"2026-06-20T14:50:10.100021+05:30"},{"city":"Manali","state":"Himachal Pradesh","latitude":32.2396,"longitude":77.1887,"temp":25.7,"humidity":35,"rain":0.0,"pressure":820.3,"uv_index":9.6,"wind_gusts":40.0,"aqi":83,"pm10":17.5,"pm2_5":11.6,"no2":3.5,"co":140.0,"o3":167.0,"so2":0.6,"mosquito_risk":4,"arthritis_risk":5,"migraine_risk":7,"frizz_risk":0,"updated_at":"2026-06-20T14:50:10.100030+05:30"},{"city":"Gurgaon","state":"Haryana","latitude":28.4595,"longitude":77.0266,"temp":38.3,"humidity":33,"rain":0.0,"pressure":976.6,"uv_index":7.9,"wind_gusts":41.0,"aqi":734,"pm10":1404.4,"pm2_5":178.8,"no2":3.7,"co":228.0,"o3":151.0,"so2":9.1,"mosquito_risk":0,"arthritis_risk":5,"migraine_risk":10,"frizz_risk":1,"updated_at":"2026-06-20T14:50:10.100037+05:30"},{"city":"Noida","state":"Uttar Pradesh","latitude":28.5355,"longitude":77.391,"temp":38.6,"humidity":33,"rain":0.0,"pressure":979.1,"uv_index":7.85,"wind_gusts":36.4,"aqi":734,"pm10":1404.4,"pm2_5":178.8,"no2":3.7,"co":266.0,"o3":151.0,"so2":9.1,"mosquito_risk":0,"arthritis_risk":5,"migraine_risk":10,"frizz_risk":1,"updated_at":"2026-06-20T14:50:10.100043+05:30"},{"city":"Ghaziabad","state":"Uttar Pradesh","latitude":28.6692,"longitude":77.4538,"temp":37.5,"humidity":37,"rain":0.0,"pressure":977.5,"uv_index":7.85,"wind_gusts":40.7,"aqi":406,"pm10":581.1,"pm2_5":97.6,"no2":3.0,"co":218.0,"o3":164.0,"so2":11.0,"mosquito_risk":0,"arthritis_risk":5,"migraine_risk":10,"frizz_risk":1,"updated_at":"2026-06-20T14:50:10.100050+05:30"},{"city":"Faridabad","state":"Haryana","latitude":28.4089,"longitude":77.3178,"temp":38.8,"humidity":31,"rain":0.0,"pressure":978.6,"uv_index":7.9,"wind_gusts":42.1,"aqi":734,"pm10":1404.4,"pm2_5":178.8,"no2":3.7,"co":220.0,"o3":151.0,"so2":9.1,"mosquito_risk":0,"arthritis_risk":5,"migraine_risk":10,"frizz_risk":1,"updated_at":"2026-06-20T14:50:10.100057+05:30"},{"city":"Meerut","state":"Uttar Pradesh","latitude":28.9845,"longitude":77.7064,"temp":36.6,"humidity":41,"rain":0.0,"pressure":976.4,"uv_index":7.75,"wind_gusts":41.0,"aqi":406,"pm10":581.1,"pm2_5":97.6,"no2":3.0,"co":233.0,"o3":164.0,"so2":11.0,"mosquito_risk":0,"arthritis_risk":5,"migraine_risk":10,"frizz_risk":1,"updated_at":"2026-06-20T14:50:10.100064+05:30"},{"city":"Agra","state":"Uttar Pradesh","latitude":27.1767,"longitude":78.0081,"temp":38.9,"humidity":31,"rain":0.0,"pressure":983.0,"uv_index":8.15,"wind_gusts":40.7,"aqi":578,"pm10":888.5,"pm2_5":115.7,"no2":1.7,"co":166.0,"o3":137.0,"so2":6.0,"mosquito_risk":0,"arthritis_risk":5,"migraine_risk":10,"frizz_risk":1,"updated_at":"2026-06-20T14:50:10.100071+05:30"},{"city":"Varanasi","state":"Uttar Pradesh","latitude":25.3176,"longitude":82.9739,"temp":40.5,"humidity":31,"rain":0.0,"pressure":990.6,"uv_index":8.8,"wind_gusts":34.9,"aqi":100,"pm10":170.9,"pm2_5":54.8,"no2":1.3,"co":179.0,"o3":148.0,"so2":7.4,"mosquito_risk":0,"arthritis_risk":5,"migraine_risk":10,"frizz_risk":1,"updated_at":"2026-06-20T14:50:10.100078+05:30"},{"city":"Prayagraj","state":"Uttar Pradesh","latitude":25.4358,"longitude":81.8463,"temp":41.0,"humidity":29,"rain":0.0,"pressure":989.4,"uv_index":8.75,"wind_gusts":34.9,"aqi":110,"pm10":173.2,"pm2_5":51.6,"no2":1.3,"co":150.0,"o3":140.0,"so2":6.8,"mosquito_risk":0,"arthritis_risk":5,"migraine_risk":10,"frizz_risk":1,"updated_at":"2026-06-20T14:50:10.100086+05:30"},{"city":"Gorakhpur","state":"Uttar Pradesh","latitude":26.7606,"longitude":83.3732,"temp":37.3,"humidity":44,"rain":0.0,"pressure":990.1,"uv_index":8.7,"wind_gusts":36.7,"aqi":158,"pm10":145.8,"pm2_5":69.8,"no2":2.0,"co":283.0,"o3":202.0,"so2":10.5,"mosquito_risk":0,"arthritis_risk":5,"migraine_risk":10,"frizz_risk":1,"updated_at":"2026-06-20T14:50:10.100093+05:30"},{"city":"Bareilly","state":"Uttar Pradesh","latitude":28.367,"longitude":79.4304,"temp":37.7,"humidity":36,"rain":0.0,"pressure":980.7,"uv_index":8.15,"wind_gusts":36.7,"aqi":163,"pm10":72.4,"pm2_5":41.3,"no2":1.6,"co":215.0,"o3":169.0,"so2":8.1,"mosquito_risk":0,"arthritis_risk":5,"migraine_risk":10,"frizz_risk":1,"updated_at":"2026-06-20T14:50:10.100102+05:30"},{"city":"Aligarh","state":"Uttar Pradesh","latitude":27.8974,"longitude":78.088,"temp":37.8,"humidity":36,"rain":0.0,"pressure":980.6,"uv_index":8.0,"wind_gusts":44.6,"aqi":477,"pm10":864.3,"pm2_5":124.8,"no2":2.4,"co":190.0,"o3":182.0,"so2":12.3,"mosquito_risk":0,"arthritis_risk":5,"migraine_risk":10,"frizz_risk":1,"updated_at":"2026-06-20T14:50:10.100108+05:30"},{"city":"Moradabad","state":"Uttar Pradesh","latitude":28.8386,"longitude":78.7733,"temp":37.1,"humidity":39,"rain":0.0,"pressure":978.0,"uv_index":7.95,"wind_gusts":44.6,"aqi":174,"pm10":52.2,"pm2_5":32.2,"no2":1.9,"co":246.0,"o3":159.0,"so2":6.9,"mosquito_risk":0,"arthritis_risk":5,"migraine_risk":10,"frizz_risk":1,"updated_at":"2026-06-20T14:50:10.100114+05:30"},{"city":"Saharanpur","state":"Uttar Pradesh","latitude":29.9637,"longitude":77.546,"temp":36.0,"humidity":37,"rain":0.0,"pressure":970.5,"uv_index":7.55,"wind_gusts":37.1,"aqi":161,"pm10":163.4,"pm2_5":45.3,"no2":2.1,"co":302.0,"o3":168.0,"so2":9.4,"mosquito_risk":0,"arthritis_risk":5,"migraine_risk":10,"frizz_risk":1,"updated_at":"2026-06-20T14:50:10.100121+05:30"},{"city":"Jhansi","state":"Uttar Pradesh","latitude":25.4484,"longitude":78.5685,"temp":36.0,"humidity":40,"rain":0.2,"pressure":974.3,"uv_index":7.85,"wind_gusts":47.5,"aqi":71,"pm10":117.3,"pm2_5":35.7,"no2":0.9,"co":124.0,"o3":101.0,"so2":3.6,"mosquito_risk":3,"arthritis_risk":5,"migraine_risk":10,"frizz_risk":1,"updated_at":"2026-06-20T14:50:13.451361+05:30"},{"city":"Surat","state":"Gujarat","latitude":21.1702,"longitude":72.8311,"temp":34.0,"humidity":53,"rain":0.0,"pressure":1004.9,"uv_index":7.6,"wind_gusts":44.6,"aqi":62,"pm10":18.9,"pm2_5":13.9,"no2":9.1,"co":223.0,"o3":55.0,"so2":31.3,"mosquito_risk":0,"arthritis_risk":5,"migraine_risk":4,"frizz_risk":1,"updated_at":"2026-06-20T14:50:13.451393+05:30"},{"city":"Vadodara","state":"Gujarat","latitude":22.3072,"longitude":73.1812,"temp":36.7,"humidity":41,"rain":0.0,"pressure":1001.3,"uv_index":8.05,"wind_gusts":43.6,"aqi":62,"pm10":39.1,"pm2_5":18.0,"no2":1.6,"co":130.0,"o3":94.0,"so2":3.5,"mosquito_risk":0,"arthritis_risk":5,"migraine_risk":7,"frizz_risk":1,"updated_at":"2026-06-20T14:50:13.451404+05:30"},{"city":"Rajkot","state":"Gujarat","latitude":22.3039,"longitude":70.8022,"temp":37.8,"humidity":36,"rain":0.0,"pressure":991.0,"uv_index":7.55,"wind_gusts":51.5,"aqi":65,"pm10":71.2,"pm2_5":22.8,"no2":0.9,"co":104.0,"o3":87.0,"so2":2.8,"mosquito_risk":0,"arthritis_risk":5,"migraine_risk":10,"frizz_risk":1,"updated_at":"2026-06-20T14:50:13.451412+05:30"},{"city":"Thane","state":"Maharashtra","latitude":19.2183,"longitude":72.9781,"temp":35.4,"humidity":44,"rain":0.0,"pressure":1005.9,"uv_index":7.7,"wind_gusts":41.4,"aqi":52,"pm10":23.9,"pm2_5":14.4,"no2":4.0,"co":140.0,"o3":88.0,"so2":6.3,"mosquito_risk":0,"arthritis_risk":5,"migraine_risk":7,"frizz_risk":1,"updated_at":"2026-06-20T14:50:13.451419+05:30"},{"city":"Nagpur","state":"Maharashtra","latitude":21.1458,"longitude":79.0882,"temp":39.0,"humidity":24,"rain":0.0,"pressure":969.9,"uv_index":8.9,"wind_gusts":45.0,"aqi":59,"pm10":32.0,"pm2_5":18.9,"no2":3.1,"co":142.0,"o3":131.0,"so2":12.3,"mosquito_risk":0,"arthritis_risk":5,"migraine_risk":10,"frizz_risk":0,"updated_at":"2026-06-20T14:50:13.451428+05:30"},{"city":"Nashik","state":"Maharashtra","latitude":19.9975,"longitude":73.7898,"temp":33.9,"humidity":39,"rain":0.0,"pressure":944.5,"uv_index":8.05,"wind_gusts":40.3,"aqi":44,"pm10":13.4,"pm2_5":8.4,"no2":1.0,"co":118.0,"o3":94.0,"so2":2.3,"mosquito_risk":0,"arthritis_risk":5,"migraine_risk":7,"frizz_risk":1,"updated_at":"2026-06-20T14:50:13.451435+05:30"},{"city":"Aurangabad","state":"Maharashtra","latitude":19.8762,"longitude":75.3433,"temp":34.8,"humidity":29,"rain":0.1,"pressure":942.5,"uv_index":9.0,"wind_gusts":37.8,"aqi":44,"pm10":18.4,"pm2_5":11.4,"no2":1.1,"co":126.0,"o3":107.0,"so2":3.3,"mosquito_risk":3,"arthritis_risk":5,"migraine_risk":7,"frizz_risk":0,"updated_at":"2026-06-20T14:50:13.451443+05:30"},{"city":"Solapur","state":"Maharashtra","latitude":17.6599,"longitude":75.9064,"temp":36.0,"humidity":33,"rain":0.0,"pressure":955.4,"uv_index":8.4,"wind_gusts":36.0,"aqi":52,"pm10":22.8,"pm2_5":13.8,"no2":1.2,"co":123.0,"o3":117.0,"so2":2.4,"mosquito_risk":0,"arthritis_risk":5,"migraine_risk":10,"frizz_risk":1,"updated_at":"2026-06-20T14:50:13.451451+05:30"},{"city":"Kolhapur","state":"Maharashtra","latitude":16.705,"longitude":74.2433,"temp":34.1,"humidity":37,"rain":0.0,"pressure":947.0,"uv_index":8.3,"wind_gusts":45.7,"aqi":47,"pm10":19.8,"pm2_5":11.3,"no2":1.4,"co":119.0,"o3":93.0,"so2":1.5,"mosquito_risk":0,"arthritis_risk":5,"migraine_risk":7,"frizz_risk":1,"updated_at":"2026-06-20T14:50:13.451459+05:30"},{"city":"Goa","state":"Goa","latitude":15.2993,"longitude":74.124,"temp":32.4,"humidity":56,"rain":0.1,"pressure":996.8,"uv_index":8.1,"wind_gusts":29.2,"aqi":59,"pm10":22.8,"pm2_5":10.2,"no2":0.5,"co":101.0,"o3":61.0,"so2":1.1,"mosquito_risk":3,"arthritis_risk":5,"migraine_risk":7,"frizz_risk":1,"updated_at":"2026-06-20T14:50:13.451466+05:30"},{"city":"Jodhpur","state":"Rajasthan","latitude":26.2389,"longitude":73.0243,"temp":37.1,"humidity":36,"rain":0.0,"pressure":979.5,"uv_index":8.4,"wind_gusts":40.0,"aqi":111,"pm10":159.7,"pm2_5":38.1,"no2":0.6,"co":109.0,"o3":84.0,"so2":2.0,"mosquito_risk":0,"arthritis_risk":5,"migraine_risk":10,"frizz_risk":1,"updated_at":"2026-06-20T14:50:13.451473+05:30"},{"city":"Udaipur","state":"Rajasthan","latitude":24.5854,"longitude":73.7125,"temp":32.6,"humidity":47,"rain":0.0,"pressure":944.9,"uv_index":8.8,"wind_gusts":36.0,"aqi":77,"pm10":55.1,"pm2_5":21.2,"no2":0.6,"co":108.0,"o3":83.0,"so2":2.4,"mosquito_risk":0,"arthritis_risk":5,"migraine_risk":7,"frizz_risk":1,"updated_at":"2026-06-20T14:50:13.451481+05:30"},{"city":"Kota","state":"Rajasthan","latitude":25.2138,"longitude":75.8648,"temp":28.4,"humidity":80,"rain":0.2,"pressure":976.6,"uv_index":8.4,"wind_gusts":39.2,"aqi":77,"pm10":83.8,"pm2_5":32.5,"no2":1.5,"co":128.0,"o3":102.0,"so2":6.1,"mosquito_risk":10,"arthritis_risk":5,"migraine_risk":7,"frizz_risk":1,"updated_at":"2026-06-20T14:50:13.451489+05:30"},{"city":"Bikaner","state":"Rajasthan","latitude":28.0229,"longitude":73.3119,"temp":37.4,"humidity":38,"rain":0.0,"pressure":977.9,"uv_index":8.45,"wind_gusts":47.9,"aqi":114,"pm10":185.8,"pm2_5":50.8,"no2":0.3,"co":114.0,"o3":75.0,"so2":1.6,"mosquito_risk":0,"arthritis_risk":5,"migraine_risk":10,"frizz_risk":1,"updated_at":"2026-06-20T14:50:13.451496+05:30"},{"city":"Ajmer","state":"Rajasthan","latitude":26.4499,"longitude":74.6399,"temp":33.9,"humidity":47,"rain":0.0,"pressure":952.0,"uv_index":8.4,"wind_gusts":45.0,"aqi":88,"pm10":153.2,"pm2_5":47.6,"no2":0.9,"co":115.0,"o3":84.0,"so2":2.1,"mosquito_risk":0,"arthritis_risk":5,"migraine_risk":7,"frizz_risk":1,"updated_at":"2026-06-20T14:50:13.451503+05:30"},{"city":"Gwalior","state":"Madhya Pradesh","latitude":26.2183,"longitude":78.1828,"temp":34.0,"humidity":49,"rain":0.0,"pressure":979.9,"uv_index":7.7,"wind_gusts":54.4,"aqi":78,"pm10":156.9,"pm2_5":43.4,"no2":0.7,"co":135.0,"o3":107.0,"so2":2.8,"mosquito_risk":0,"arthritis_risk":5,"migraine_risk":7,"frizz_risk":1,"updated_at":"2026-06-20T14:50:13.451510+05:30"},{"city":"Indore","state":"Madhya Pradesh","latitude":22.7196,"longitude":75.8577,"temp":29.2,"humidity":60,"rain":0.2,"pressure":946.6,"uv_index":7.9,"wind_gusts":39.6,"aqi":69,"pm10":38.1,"pm2_5":20.0,"no2":2.3,"co":185.0,"o3":88.0,"so2":3.0,"mosquito_risk":7,"arthritis_risk":5,"migraine_risk":7,"frizz_risk":1,"updated_at":"2026-06-20T14:50:13.451518+05:30"},{"city":"Bhopal","state":"Madhya Pradesh","latitude":23.2599,"longitude":77.4126,"temp":30.7,"humidity":55,"rain":0.0,"pressure":951.5,"uv_index":8.65,"wind_gusts":33.5,"aqi":69,"pm10":45.8,"pm2_5":25.0,"no2":1.2,"co":169.0,"o3":93.0,"so2":2.1,"mosquito_risk":0,"arthritis_risk":5,"migraine_risk":7,"frizz_risk":1,"updated_at":"2026-06-20T14:50:13.451525+05:30"},{"city":"Jabalpur","state":"Madhya Pradesh","latitude":23.1815,"longitude":79.9864,"temp":36.7,"humidity":33,"rain":0.0,"pressure":958.0,"uv_index":8.35,"wind_gusts":31.0,"aqi":65,"pm10":33.5,"pm2_5":18.1,"no2":0.8,"co":150.0,"o3":112.0,"so2":3.1,"mosquito_risk":0,"arthritis_risk":5,"migraine_risk":10,"frizz_risk":1,"updated_at":"2026-06-20T14:50:13.451532+05:30"},{"city":"Ujjain","state":"Madhya Pradesh","latitude":23.1765,"longitude":75.7885,"temp":33.4,"humidity":44,"rain":0.1,"pressure":951.4,"uv_index":8.55,"wind_gusts":41.8,"aqi":70,"pm10":53.6,"pm2_5":25.7,"no2":1.0,"co":158.0,"o3":92.0,"so2":3.6,"mosquito_risk":3,"arthritis_risk":5,"migraine_risk":7,"frizz_risk":1,"updated_at":"2026-06-20T14:50:13.451539+05:30"},{"city":"Visakhapatnam","state":"Andhra Pradesh","latitude":17.6868,"longitude":83.2185,"temp":33.1,"humidity":70,"rain":0.0,"pressure":998.9,"uv_index":8.85,"wind_gusts":38.9,"aqi":101,"pm10":38.9,"pm2_5":34.2,"no2":13.4,"co":364.0,"o3":170.0,"so2":41.6,"mosquito_risk":3,"arthritis_risk":5,"migraine_risk":7,"frizz_risk":1,"updated_at":"2026-06-20T14:50:13.451547+05:30"},{"city":"Vijayawada","state":"Andhra Pradesh","latitude":16.5062,"longitude":80.648,"temp":35.9,"humidity":47,"rain":0.0,"pressure":998.3,"uv_index":8.4,"wind_gusts":28.1,"aqi":89,"pm10":25.1,"pm2_5":21.0,"no2":2.2,"co":172.0,"o3":151.0,"so2":9.2,"mosquito_risk":0,"arthritis_risk":5,"migraine_risk":10,"frizz_risk":1,"updated_at":"2026-06-20T14:50:13.451554+05:30"},{"city":"Guntur","state":"Andhra Pradesh","latitude":16.3067,"longitude":80.4365,"temp":33.8,"humidity":54,"rain":0.0,"pressure":999.8,"uv_index":8.35,"wind_gusts":29.9,"aqi":83,"pm10":26.7,"pm2_5":20.0,"no2":1.9,"co":175.0,"o3":140.0,"so2":6.7,"mosquito_risk":0,"arthritis_risk":5,"migraine_risk":7,"frizz_risk":1,"updated_at":"2026-06-20T14:50:13.451562+05:30"},{"city":"Nellore","state":"Andhra Pradesh","latitude":14.4426,"longitude":79.9865,"temp":35.2,"humidity":47,"rain":0.0,"pressure":1002.8,"uv_index":7.45,"wind_gusts":30.2,"aqi":70,"pm10":29.3,"pm2_5":22.4,"no2":3.7,"co":154.0,"o3":151.0,"so2":6.5,"mosquito_risk":0,"arthritis_risk":5,"migraine_risk":7,"frizz_risk":1,"updated_at":"2026-06-20T14:50:13.451570+05:30"},{"city":"Kurnool","state":"Andhra Pradesh","latitude":15.8281,"longitude":78.0373,"temp":36.1,"humidity":38,"rain":0.0,"pressure":974.3,"uv_index":5.9,"wind_gusts":31.7,"aqi":66,"pm10":29.0,"pm2_5":19.1,"no2":1.6,"co":142.0,"o3":128.0,"so2":8.0,"mosquito_risk":0,"arthritis_risk":5,"migraine_risk":6,"frizz_risk":1,"updated_at":"2026-06-20T14:50:13.451578+05:30"},{"city":"Kakinada","state":"Andhra Pradesh","latitude":16.9891,"longitude":82.2475,"temp":37.0,"humidity":45,"rain":0.0,"pressure":1002.6,"uv_index":7.5,"wind_gusts":37.4,"aqi":106,"pm10":30.6,"pm2_5":23.1,"no2":1.9,"co":222.0,"o3":148.0,"so2":5.5,"mosquito_risk":0,"arthritis_risk":5,"migraine_risk":7,"frizz_risk":1,"updated_at":"2026-06-20T14:50:13.451586+05:30"},{"city":"Tirupati","state":"Andhra Pradesh","latitude":13.6288,"longitude":79.4192,"temp":36.0,"humidity":42,"rain":0.0,"pressure":988.3,"uv_index":7.8,"wind_gusts":34.6,"aqi":64,"pm10":23.3,"pm2_5":15.4,"no2":1.7,"co":175.0,"o3":131.0,"so2":3.1,"mosquito_risk":0,"arthritis_risk":5,"migraine_risk":10,"frizz_risk":1,"updated_at":"2026-06-20T14:50:13.451593+05:30"},{"city":"Warangal","state":"Telangana","latitude":17.9689,"longitude":79.5941,"temp":37.4,"humidity":33,"rain":0.0,"pressure":975.2,"uv_index":7.65,"wind_gusts":32.0,"aqi":107,"pm10":25.0,"pm2_5":19.2,"no2":1.6,"co":171.0,"o3":158.0,"so2":7.3,"mosquito_risk":0,"arthritis_risk":5,"migraine_risk":10,"frizz_risk":1,"updated_at":"2026-06-20T14:50:13.451600+05:30"},{"city":"Nizamabad","state":"Telangana","latitude":18.6725,"longitude":78.0941,"temp":37.3,"humidity":33,"rain":0.0,"pressure":962.4,"uv_index":9.0,"wind_gusts":33.8,"aqi":69,"pm10":23.4,"pm2_5":15.7,"no2":1.0,"co":131.0,"o3":122.0,"so2":5.1,"mosquito_risk":0,"arthritis_risk":5,"migraine_risk":10,"frizz_risk":1,"updated_at":"2026-06-20T14:50:13.451607+05:30"},{"city":"Mysore","state":"Karnataka","latitude":12.2958,"longitude":76.6396,"temp":30.2,"humidity":42,"rain":0.0,"pressure":927.9,"uv_index":8.1,"wind_gusts":36.7,"aqi":58,"pm10":44.9,"pm2_5":17.6,"no2":2.1,"co":147.0,"o3":98.0,"so2":1.6,"mosquito_risk":0,"arthritis_risk":5,"migraine_risk":7,"frizz_risk":0,"updated_at":"2026-06-20T14:50:13.451614+05:30"},{"city":"Mangalore","state":"Karnataka","latitude":12.9141,"longitude":74.856,"temp":29.9,"humidity":73,"rain":0.0,"pressure":1006.2,"uv_index":7.65,"wind_gusts":34.9,"aqi":78,"pm10":13.9,"pm2_5":8.1,"no2":1.0,"co":116.0,"o3":56.0,"so2":1.3,"mosquito_risk":7,"arthritis_risk":5,"migraine_risk":4,"frizz_risk":1,"updated_at":"2026-06-20T14:50:13.451621+05:30"},{"city":"Hubli-Dharwad","state":"Karnataka","latitude":15.3647,"longitude":75.124,"temp":32.6,"humidity":35,"rain":0.0,"pressure":940.4,"uv_index":8.3,"wind_gusts":44.3,"aqi":46,"pm10":32.9,"pm2_5":12.8,"no2":1.2,"co":113.0,"o3":87.0,"so2":0.9,"mosquito_risk":0,"arthritis_risk":5,"migraine_risk":7,"frizz_risk":0,"updated_at":"2026-06-20T14:50:13.451629+05:30"},{"city":"Belgaum","state":"Karnataka","latitude":15.8497,"longitude":74.4977,"temp":30.8,"humidity":45,"rain":0.0,"pressure":925.4,"uv_index":8.55,"wind_gusts":38.9,"aqi":50,"pm10":24.0,"pm2_5":11.8,"no2":1.2,"co":114.0,"o3":85.0,"so2":1.8,"mosquito_risk":0,"arthritis_risk":5,"migraine_risk":7,"frizz_risk":1,"updated_at":"2026-06-20T14:50:16.797537+05:30"},{"city":"Coimbatore","state":"Tamil Nadu","latitude":11.0168,"longitude":76.9558,"temp":33.2,"humidity":43,"rain":0.0,"pressure":960.8,"uv_index":8.05,"wind_gusts":42.1,"aqi":54,"pm10":41.3,"pm2_5":18.0,"no2":1.5,"co":156.0,"o3":99.0,"so2":2.5,"mosquito_risk":0,"arthritis_risk":5,"migraine_risk":7,"frizz_risk":1,"updated_at":"2026-06-20T14:50:16.797569+05:30"},{"city":"Madurai","state":"Tamil Nadu","latitude":9.9252,"longitude":78.1198,"temp":35.4,"humidity":40,"rain":0.0,"pressure":990.9,"uv_index":8.65,"wind_gusts":32.0,"aqi":60,"pm10":30.4,"pm2_5":16.5,"no2":2.2,"co":197.0,"o3":126.0,"so2":2.3,"mosquito_risk":0,"arthritis_risk":5,"migraine_risk":10,"frizz_risk":1,"updated_at":"2026-06-20T14:50:16.797580+05:30"},{"city":"Trichy","state":"Tamil Nadu","latitude":10.7905,"longitude":78.7047,"temp":35.5,"humidity":44,"rain":0.0,"pressure":997.1,"uv_index":8.45,"wind_gusts":33.5,"aqi":57,"pm10":28.1,"pm2_5":16.4,"no2":1.7,"co":146.0,"o3":127.0,"so2":2.6,"mosquito_risk":0,"arthritis_risk":5,"migraine_risk":10,"frizz_risk":1,"updated_at":"2026-06-20T14:50:16.797588+05:30"},{"city":"Salem","state":"Tamil Nadu","latitude":11.6643,"longitude":78.146,"temp":33.2,"humidity":50,"rain":0.0,"pressure":975.8,"uv_index":8.2,"wind_gusts":22.0,"aqi":69,"pm10":22.2,"pm2_5":14.5,"no2":2.8,"co":203.0,"o3":138.0,"so2":8.3,"mosquito_risk":0,"arthritis_risk":5,"migraine_risk":7,"frizz_risk":1,"updated_at":"2026-06-20T14:50:16.797596+05:30"},{"city":"Tirunelveli","state":"Tamil Nadu","latitude":8.7139,"longitude":77.7567,"temp":36.9,"humidity":29,"rain":0.0,"pressure":1000.7,"uv_index":8.65,"wind_gusts":25.9,"aqi":61,"pm10":33.6,"pm2_5":14.3,"no2":1.3,"co":130.0,"o3":85.0,"so2":1.1,"mosquito_risk":0,"arthritis_risk":5,"migraine_risk":7,"frizz_risk":0,"updated_at":"2026-06-20T14:50:16.797605+05:30"},{"city":"Vellore","state":"Tamil Nadu","latitude":12.9165,"longitude":79.1325,"temp":30.8,"humidity":65,"rain":0.0,"pressure":982.7,"uv_index":7.75,"wind_gusts":32.0,"aqi":75,"pm10":22.0,"pm2_5":16.3,"no2":2.0,"co":184.0,"o3":140.0,"so2":3.5,"mosquito_risk":3,"arthritis_risk":5,"migraine_risk":7,"frizz_risk":1,"updated_at":"2026-06-20T14:50:16.797612+05:30"},{"city":"Erode","state":"Tamil Nadu","latitude":11.341,"longitude":77.7172,"temp":34.4,"humidity":43,"rain":0.0,"pressure":987.2,"uv_index":8.25,"wind_gusts":27.0,"aqi":63,"pm10":30.3,"pm2_5":16.1,"no2":2.1,"co":176.0,"o3":120.0,"so2":2.1,"mosquito_risk":0,"arthritis_risk":5,"migraine_risk":7,"frizz_risk":1,"updated_at":"2026-06-20T14:50:16.797620+05:30"},{"city":"Kochi","state":"Kerala","latitude":9.9312,"longitude":76.2673,"temp":29.3,"humidity":76,"rain":0.0,"pressure":1007.8,"uv_index":8.25,"wind_gusts":33.8,"aqi":104,"pm10":28.3,"pm2_5":16.4,"no2":2.3,"co":121.0,"o3":93.0,"so2":3.5,"mosquito_risk":7,"arthritis_risk":5,"migraine_risk":4,"frizz_risk":1,"updated_at":"2026-06-20T14:50:16.797627+05:30"},{"city":"Thiruvananthapuram","state":"Kerala","latitude":8.5241,"longitude":76.9366,"temp":29.0,"humidity":74,"rain":0.0,"pressure":1007.4,"uv_index":8.2,"wind_gusts":32.8,"aqi":61,"pm10":23.3,"pm2_5":12.5,"no2":1.0,"co":109.0,"o3":79.0,"so2":1.4,"mosquito_risk":7,"arthritis_risk":5,"migraine_risk":4,"frizz_risk":1,"updated_at":"2026-06-20T14:50:16.797635+05:30"},{"city":"Kozhikode","state":"Kerala","latitude":11.2588,"longitude":75.7804,"temp":30.1,"humidity":70,"rain":0.0,"pressure":1007.3,"uv_index":8.0,"wind_gusts":31.7,"aqi":56,"pm10":11.8,"pm2_5":6.4,"no2":0.4,"co":114.0,"o3":55.0,"so2":0.8,"mosquito_risk":3,"arthritis_risk":5,"migraine_risk":4,"frizz_risk":1,"updated_at":"2026-06-20T14:50:16.797642+05:30"},{"city":"Thrissur","state":"Kerala","latitude":10.5276,"longitude":76.2144,"temp":30.4,"humidity":69,"rain":0.0,"pressure":1006.3,"uv_index":7.95,"wind_gusts":31.7,"aqi":112,"pm10":24.8,"pm2_5":15.1,"no2":2.0,"co":124.0,"o3":84.0,"so2":2.4,"mosquito_risk":3,"arthritis_risk":5,"migraine_risk":4,"frizz_risk":1,"updated_at":"2026-06-20T14:50:16.797650+05:30"},{"city":"Kannur","state":"Kerala","latitude":11.8745,"longitude":75.3704,"temp":30.1,"humidity":70,"rain":0.0,"pressure":1006.8,"uv_index":7.8,"wind_gusts":30.2,"aqi":75,"pm10":13.3,"pm2_5":7.9,"no2":1.1,"co":98.0,"o3":60.0,"so2":1.2,"mosquito_risk":3,"arthritis_risk":5,"migraine_risk":4,"frizz_risk":1,"updated_at":"2026-06-20T14:50:16.797657+05:30"},{"city":"Patna","state":"Bihar","latitude":25.5941,"longitude":85.1376,"temp":36.7,"humidity":50,"rain":0.1,"pressure":993.5,"uv_index":8.9,"wind_gusts":29.2,"aqi":151,"pm10":96.9,"pm2_5":47.1,"no2":2.4,"co":250.0,"o3":194.0,"so2":10.4,"mosquito_risk":3,"arthritis_risk":5,"migraine_risk":10,"frizz_risk":1,"updated_at":"2026-06-20T14:50:16.797664+05:30"},{"city":"Gaya","state":"Bihar","latitude":24.7914,"longitude":85.0002,"temp":38.1,"humidity":40,"rain":0.0,"pressure":987.1,"uv_index":8.2,"wind_gusts":29.2,"aqi":86,"pm10":99.7,"pm2_5":38.4,"no2":1.2,"co":207.0,"o3":146.0,"so2":6.7,"mosquito_risk":0,"arthritis_risk":5,"migraine_risk":10,"frizz_risk":1,"updated_at":"2026-06-20T14:50:16.797671+05:30"},{"city":"Muzaffarpur","state":"Bihar","latitude":26.1209,"longitude":85.3647,"temp":35.4,"humidity":56,"rain":0.0,"pressure":993.4,"uv_index":8.9,"wind_gusts":29.9,"aqi":157,"pm10":99.0,"pm2_5":59.8,"no2":3.0,"co":360.0,"o3":212.0,"so2":14.6,"mosquito_risk":0,"arthritis_risk":5,"migraine_risk":10,"frizz_risk":1,"updated_at":"2026-06-20T14:50:16.797678+05:30"},{"city":"Bhagalpur","state":"Bihar","latitude":25.2425,"longitude":87.0117,"temp":36.2,"humidity":52,"rain":0.0,"pressure":994.0,"uv_index":8.85,"wind_gusts":26.6,"aqi":155,"pm10":92.4,"pm2_5":53.8,"no2":3.7,"co":226.0,"o3":193.0,"so2":17.4,"mosquito_risk":0,"arthritis_risk":5,"migraine_risk":10,"frizz_risk":1,"updated_at":"2026-06-20T14:50:16.797684+05:30"},{"city":"Ranchi","state":"Jharkhand","latitude":23.3441,"longitude":85.3096,"temp":33.2,"humidity":50,"rain":0.0,"pressure":933.9,"uv_index":8.7,"wind_gusts":29.5,"aqi":95,"pm10":72.2,"pm2_5":35.7,"no2":2.1,"co":158.0,"o3":124.0,"so2":4.0,"mosquito_risk":0,"arthritis_risk":5,"migraine_risk":7,"frizz_risk":1,"updated_at":"2026-06-20T14:50:16.797692+05:30"},{"city":"Jamshedpur","state":"Jharkhand","latitude":22.8046,"longitude":86.2029,"temp":33.4,"humidity":61,"rain":0.0,"pressure":985.8,"uv_index":8.65,"wind_gusts":32.8,"aqi":140,"pm10":53.9,"pm2_5":38.8,"no2":2.9,"co":210.0,"o3":190.0,"so2":18.0,"mosquito_risk":3,"arthritis_risk":5,"migraine_risk":7,"frizz_risk":1,"updated_at":"2026-06-20T14:50:16.797698+05:30"},{"city":"Dhanbad","state":"Jharkhand","latitude":23.7957,"longitude":86.4304,"temp":34.7,"humidity":52,"rain":0.0,"pressure":974.1,"uv_index":9.0,"wind_gusts":25.9,"aqi":155,"pm10":72.9,"pm2_5":45.5,"no2":8.5,"co":183.0,"o3":183.0,"so2":35.4,"mosquito_risk":0,"arthritis_risk":5,"migraine_risk":7,"frizz_risk":1,"updated_at":"2026-06-20T14:50:16.797705+05:30"},{"city":"Bokaro","state":"Jharkhand","latitude":23.6693,"longitude":86.1511,"temp":36.1,"humidity":47,"rain":0.0,"pressure":977.9,"uv_index":8.9,"wind_gusts":26.6,"aqi":141,"pm10":69.2,"pm2_5":39.5,"no2":8.3,"co":187.0,"o3":168.0,"so2":34.4,"mosquito_risk":0,"arthritis_risk":5,"migraine_risk":10,"frizz_risk":1,"updated_at":"2026-06-20T14:50:16.797712+05:30"},{"city":"Bhubaneswar","state":"Odisha","latitude":20.2961,"longitude":85.8245,"temp":29.0,"humidity":86,"rain":0.1,"pressure":998.9,"uv_index":9.05,"wind_gusts":33.5,"aqi":91,"pm10":33.9,"pm2_5":30.4,"no2":5.9,"co":305.0,"o3":143.0,"so2":10.9,"mosquito_risk":10,"arthritis_risk":5,"migraine_risk":7,"frizz_risk":1,"updated_at":"2026-06-20T14:50:16.797719+05:30"},{"city":"Cuttack","state":"Odisha","latitude":20.4625,"longitude":85.8828,"temp":28.6,"humidity":91,"rain":0.2,"pressure":1000.6,"uv_index":9.1,"wind_gusts":40.7,"aqi":91,"pm10":33.9,"pm2_5":30.4,"no2":5.9,"co":340.0,"o3":143.0,"so2":10.9,"mosquito_risk":10,"arthritis_risk":5,"migraine_risk":4,"frizz_risk":1,"updated_at":"2026-06-20T14:50:16.797725+05:30"},{"city":"Rourkela","state":"Odisha","latitude":22.2604,"longitude":84.8536,"temp":33.5,"humidity":58,"rain":0.0,"pressure":980.5,"uv_index":8.85,"wind_gusts":29.9,"aqi":123,"pm10":36.6,"pm2_5":29.0,"no2":2.6,"co":188.0,"o3":156.0,"so2":12.5,"mosquito_risk":0,"arthritis_risk":5,"migraine_risk":7,"frizz_risk":1,"updated_at":"2026-06-20T14:50:16.797732+05:30"},{"city":"Raipur","state":"Chhattisgarh","latitude":21.2514,"longitude":81.6296,"temp":38.4,"humidity":28,"rain":0.0,"pressure":970.7,"uv_index":8.25,"wind_gusts":32.8,"aqi":91,"pm10":26.6,"pm2_5":19.8,"no2":4.0,"co":121.0,"o3":140.0,"so2":18.9,"mosquito_risk":0,"arthritis_risk":5,"migraine_risk":10,"frizz_risk":1,"updated_at":"2026-06-20T14:50:16.797739+05:30"},{"city":"Bhilai","state":"Chhattisgarh","latitude":21.1938,"longitude":81.3509,"temp":38.8,"humidity":24,"rain":0.0,"pressure":971.1,"uv_index":9.0,"wind_gusts":38.2,"aqi":90,"pm10":22.3,"pm2_5":15.8,"no2":4.4,"co":211.0,"o3":126.0,"so2":17.2,"mosquito_risk":0,"arthritis_risk":5,"migraine_risk":10,"frizz_risk":0,"updated_at":"2026-06-20T14:50:16.797746+05:30"},{"city":"Guwahati","state":"Assam","latitude":26.1158,"longitude":91.7086,"temp":29.4,"humidity":85,"rain":0.1,"pressure":995.0,"uv_index":8.7,"wind_gusts":29.5,"aqi":149,"pm10":30.7,"pm2_5":24.8,"no2":2.2,"co":298.0,"o3":115.0,"so2":3.5,"mosquito_risk":10,"arthritis_risk":5,"migraine_risk":7,"frizz_risk":1,"updated_at":"2026-06-20T14:50:16.797752+05:30"},{"city":"Agartala","state":"Tripura","latitude":23.8315,"longitude":91.2868,"temp":30.2,"humidity":78,"rain":0.1,"pressure":1000.8,"uv_index":7.9,"wind_gusts":37.8,"aqi":89,"pm10":43.5,"pm2_5":37.1,"no2":3.6,"co":169.0,"o3":164.0,"so2":6.5,"mosquito_risk":6,"arthritis_risk":5,"migraine_risk":4,"frizz_risk":1,"updated_at":"2026-06-20T14:50:16.797759+05:30"},{"city":"Shillong","state":"Meghalaya","latitude":25.5788,"longitude":91.8933,"temp":23.6,"humidity":77,"rain":0.1,"pressure":854.4,"uv_index":6.3,"wind_gusts":29.9,"aqi":81,"pm10":10.8,"pm2_5":8.6,"no2":2.7,"co":218.0,"o3":104.0,"so2":2.2,"mosquito_risk":6,"arthritis_risk":5,"migraine_risk":7,"frizz_risk":1,"updated_at":"2026-06-20T14:50:16.797766+05:30"},{"city":"Imphal","state":"Manipur","latitude":24.817,"longitude":93.9368,"temp":28.1,"humidity":68,"rain":0.0,"pressure":918.9,"uv_index":9.25,"wind_gusts":34.6,"aqi":79,"pm10":9.3,"pm2_5":6.8,"no2":1.2,"co":193.0,"o3":94.0,"so2":1.4,"mosquito_risk":7,"arthritis_risk":5,"migraine_risk":7,"frizz_risk":1,"updated_at":"2026-06-20T14:50:16.797772+05:30"},{"city":"Aizawl","state":"Mizoram","latitude":23.7271,"longitude":92.7176,"temp":24.7,"humidity":73,"rain":0.0,"pressure":889.6,"uv_index":8.25,"wind_gusts":35.6,"aqi":59,"pm10":6.2,"pm2_5":4.2,"no2":0.9,"co":150.0,"o3":91.0,"so2":1.2,"mosquito_risk":3,"arthritis_risk":5,"migraine_risk":7,"frizz_risk":1,"updated_at":"2026-06-20T14:50:16.797779+05:30"},{"city":"Kohima","state":"Nagaland","latitude":25.6701,"longitude":94.1077,"temp":22.3,"humidity":91,"rain":0.1,"pressure":852.2,"uv_index":9.05,"wind_gusts":27.7,"aqi":61,"pm10":6.3,"pm2_5":4.7,"no2":1.2,"co":187.0,"o3":91.0,"so2":1.4,"mosquito_risk":6,"arthritis_risk":5,"migraine_risk":7,"frizz_risk":1,"updated_at":"2026-06-20T14:50:16.797786+05:30"},{"city":"Gangtok","state":"Sikkim","latitude":27.3314,"longitude":88.6138,"temp":20.5,"humidity":93,"rain":0.2,"pressure":834.3,"uv_index":7.95,"wind_gusts":31.0,"aqi":93,"pm10":10.1,"pm2_5":8.7,"no2":1.9,"co":301.0,"o3":142.0,"so2":4.8,"mosquito_risk":6,"arthritis_risk":5,"migraine_risk":7,"frizz_risk":1,"updated_at":"2026-06-20T14:50:16.797793+05:30"},{"city":"Siliguri","state":"West Bengal","latitude":26.7271,"longitude":88.3953,"temp":28.2,"humidity":82,"rain":0.1,"pressure":986.7,"uv_index":8.7,"wind_gusts":23.8,"aqi":157,"pm10":40.0,"pm2_5":31.8,"no2":2.4,"co":429.0,"o3":159.0,"so2":12.3,"mosquito_risk":10,"arthritis_risk":5,"migraine_risk":7,"frizz_risk":1,"updated_at":"2026-06-20T14:50:20.144264+05:30"},{"city":"Durgapur","state":"West Bengal","latitude":23.5204,"longitude":87.3119,"temp":33.1,"humidity":68,"rain":0.0,"pressure":989.3,"uv_index":8.95,"wind_gusts":33.8,"aqi":162,"pm10":86.4,"pm2_5":73.3,"no2":9.6,"co":366.0,"o3":246.0,"so2":51.5,"mosquito_risk":3,"arthritis_risk":5,"migraine_risk":7,"frizz_risk":1,"updated_at":"2026-06-20T14:50:20.144302+05:30"},{"city":"Asansol","state":"West Bengal","latitude":23.6739,"longitude":86.9524,"temp":34.0,"humidity":61,"rain":0.0,"pressure":987.6,"uv_index":9.05,"wind_gusts":34.6,"aqi":157,"pm10":79.6,"pm2_5":59.3,"no2":7.6,"co":419.0,"o3":220.0,"so2":38.6,"mosquito_risk":3,"arthritis_risk":5,"migraine_risk":7,"frizz_risk":1,"updated_at":"2026-06-20T14:50:20.144341+05:30"},{"city":"Pondicherry","state":"Puducherry","latitude":11.9139,"longitude":79.8145,"temp":31.0,"humidity":83,"rain":0.1,"pressure":1006.3,"uv_index":8.0,"wind_gusts":33.8,"aqi":79,"pm10":35.9,"pm2_5":29.3,"no2":4.2,"co":237.0,"o3":172.0,"so2":14.6,"mosquito_risk":6,"arthritis_risk":5,"migraine_risk":4,"frizz_risk":1,"updated_at":"2026-06-20T14:50:20.144356+05:30"},{"city":"Port Blair","state":"Andaman and Nicobar Islands","latitude":11.6234,"longitude":92.7265,"temp":29.7,"humidity":71,"rain":0.1,"pressure":1006.9,"uv_index":8.75,"wind_gusts":35.3,"aqi":28,"pm10":29.1,"pm2_5":13.1,"no2":0.3,"co":102.0,"o3":48.0,"so2":0.5,"mosquito_risk":10,"arthritis_risk":5,"migraine_risk":4,"frizz_risk":1,"updated_at":"2026-06-20T14:50:20.144367+05:30"},{"city":"Haridwar","state":"Uttarakhand","latitude":29.9457,"longitude":78.1642,"temp":36.3,"humidity":39,"rain":0.0,"pressure":968.6,"uv_index":7.65,"wind_gusts":29.9,"aqi":156,"pm10":50.5,"pm2_5":32.9,"no2":1.5,"co":317.0,"o3":169.0,"so2":8.2,"mosquito_risk":0,"arthritis_risk":5,"migraine_risk":10,"frizz_risk":1,"updated_at":"2026-06-20T14:50:20.144379+05:30"},{"city":"Rishikesh","state":"Uttarakhand","latitude":30.0869,"longitude":78.2676,"temp":35.7,"humidity":40,"rain":0.0,"pressure":961.6,"uv_index":7.75,"wind_gusts":26.6,"aqi":127,"pm10":39.6,"pm2_5":29.7,"no2":0.9,"co":280.0,"o3":167.0,"so2":7.1,"mosquito_risk":0,"arthritis_risk":5,"migraine_risk":10,"frizz_risk":1,"updated_at":"2026-06-20T14:50:20.144390+05:30"},{"city":"Nainital","state":"Uttarakhand","latitude":29.3919,"longitude":79.4542,"temp":23.2,"humidity":59,"rain":0.0,"pressure":806.0,"uv_index":6.75,"wind_gusts":28.8,"aqi":135,"pm10":60.1,"pm2_5":35.9,"no2":1.3,"co":265.0,"o3":173.0,"so2":8.2,"mosquito_risk":0,"arthritis_risk":5,"migraine_risk":7,"frizz_risk":0,"updated_at":"2026-06-20T14:50:20.144401+05:30"},{"city":"Mussoorie","state":"Uttarakhand","latitude":30.4599,"longitude":78.0664,"temp":23.9,"humidity":55,"rain":0.0,"pressure":804.2,"uv_index":8.15,"wind_gusts":41.8,"aqi":131,"pm10":42.8,"pm2_5":33.4,"no2":1.3,"co":227.0,"o3":175.0,"so2":7.5,"mosquito_risk":0,"arthritis_risk":5,"migraine_risk":7,"frizz_risk":0,"updated_at":"2026-06-20T14:50:20.144411+05:30"},{"city":"Dharamshala","state":"Himachal Pradesh","latitude":32.219,"longitude":76.3234,"temp":26.4,"humidity":53,"rain":0.0,"pressure":868.5,"uv_index":8.55,"wind_gusts":41.8,"aqi":82,"pm10":26.0,"pm2_5":14.5,"no2":0.6,"co":220.0,"o3":141.0,"so2":1.1,"mosquito_risk":4,"arthritis_risk":5,"migraine_risk":7,"frizz_risk":1,"updated_at":"2026-06-20T14:50:20.144422+05:30"},{"city":"Dalhousie","state":"Himachal Pradesh","latitude":32.5387,"longitude":75.971,"temp":22.7,"humidity":51,"rain":0.1,"pressure":806.1,"uv_index":8.75,"wind_gusts":27.0,"aqi":90,"pm10":34.0,"pm2_5":20.3,"no2":1.3,"co":217.0,"o3":149.0,"so2":1.4,"mosquito_risk":3,"arthritis_risk":5,"migraine_risk":7,"frizz_risk":0,"updated_at":"2026-06-20T14:50:20.144434+05:30"},{"city":"Patiala","state":"Punjab","latitude":30.3398,"longitude":76.3869,"temp":37.2,"humidity":33,"rain":0.0,"pressure":973.5,"uv_index":7.7,"wind_gusts":36.4,"aqi":356,"pm10":635.2,"pm2_5":91.3,"no2":1.4,"co":286.0,"o3":157.0,"so2":5.0,"mosquito_risk":0,"arthritis_risk":5,"migraine_risk":10,"frizz_risk":1,"updated_at":"2026-06-20T14:50:20.144445+05:30"},{"city":"Bhatinda","state":"Punjab","latitude":30.211,"longitude":74.9455,"temp":37.1,"humidity":37,"rain":0.0,"pressure":979.6,"uv_index":8.3,"wind_gusts":27.4,"aqi":140,"pm10":67.1,"pm2_5":35.3,"no2":2.0,"co":234.0,"o3":161.0,"so2":10.1,"mosquito_risk":0,"arthritis_risk":5,"migraine_risk":10,"frizz_risk":1,"updated_at":"2026-06-20T14:50:20.144455+05:30"},{"city":"Rohtak","state":"Haryana","latitude":28.8955,"longitude":76.6066,"temp":37.4,"humidity":37,"rain":0.0,"pressure":976.9,"uv_index":7.8,"wind_gusts":34.2,"aqi":594,"pm10":767.4,"pm2_5":106.6,"no2":1.9,"co":227.0,"o3":141.0,"so2":5.7,"mosquito_risk":0,"arthritis_risk":5,"migraine_risk":10,"frizz_risk":1,"updated_at":"2026-06-20T14:50:20.144465+05:30"},{"city":"Panipat","state":"Haryana","latitude":29.3909,"longitude":76.9635,"temp":36.8,"humidity":39,"rain":0.0,"pressure":975.3,"uv_index":7.65,"wind_gusts":34.2,"aqi":1374,"pm10":2108.5,"pm2_5":236.6,"no2":2.4,"co":225.0,"o3":148.0,"so2":8.9,"mosquito_risk":0,"arthritis_risk":5,"migraine_risk":10,"frizz_risk":1,"updated_at":"2026-06-20T14:50:20.144476+05:30"},{"city":"Mathura","state":"Uttar Pradesh","latitude":27.4924,"longitude":77.6737,"temp":37.8,"humidity":35,"rain":0.0,"pressure":981.8,"uv_index":8.1,"wind_gusts":36.7,"aqi":280,"pm10":901.5,"pm2_5":119.2,"no2":1.7,"co":157.0,"o3":135.0,"so2":5.4,"mosquito_risk":0,"arthritis_risk":5,"migraine_risk":10,"frizz_risk":1,"updated_at":"2026-06-20T14:50:20.144486+05:30"},{"city":"Vrindavan","state":"Uttar Pradesh","latitude":27.5823,"longitude":77.7027,"temp":37.6,"humidity":37,"rain":0.0,"pressure":982.3,"uv_index":8.1,"wind_gusts":36.7,"aqi":280,"pm10":901.5,"pm2_5":119.2,"no2":1.7,"co":158.0,"o3":135.0,"so2":5.4,"mosquito_risk":0,"arthritis_risk":5,"migraine_risk":10,"frizz_risk":1,"updated_at":"2026-06-20T14:50:20.144496+05:30"},{"city":"Ayodhya","state":"Uttar Pradesh","latitude":26.7922,"longitude":82.1998,"temp":38.1,"humidity":44,"rain":0.0,"pressure":988.3,"uv_index":8.45,"wind_gusts":34.2,"aqi":154,"pm10":314.8,"pm2_5":86.1,"no2":1.2,"co":249.0,"o3":155.0,"so2":9.9,"mosquito_risk":0,"arthritis_risk":5,"migraine_risk":10,"frizz_risk":1,"updated_at":"2026-06-20T14:50:20.144506+05:30"},{"city":"Ratlam","state":"Madhya Pradesh","latitude":23.3315,"longitude":75.0367,"temp":33.0,"humidity":47,"rain":0.0,"pressure":952.8,"uv_index":8.3,"wind_gusts":39.6,"aqi":69,"pm10":51.9,"pm2_5":24.3,"no2":0.8,"co":118.0,"o3":91.0,"so2":3.4,"mosquito_risk":0,"arthritis_risk":5,"migraine_risk":7,"frizz_risk":1,"updated_at":"2026-06-20T14:50:20.144517+05:30"},{"city":"Sagar","state":"Madhya Pradesh","latitude":23.8388,"longitude":78.7378,"temp":34.7,"humidity":41,"rain":0.0,"pressure":947.5,"uv_index":8.7,"wind_gusts":38.9,"aqi":64,"pm10":59.6,"pm2_5":24.9,"no2":0.7,"co":130.0,"o3":104.0,"so2":2.3,"mosquito_risk":0,"arthritis_risk":5,"migraine_risk":7,"frizz_risk":1,"updated_at":"2026-06-20T14:50:20.144527+05:30"},{"city":"Satna","state":"Madhya Pradesh","latitude":24.6005,"longitude":80.8322,"temp":38.3,"humidity":34,"rain":0.0,"pressure":966.8,"uv_index":8.8,"wind_gusts":34.6,"aqi":65,"pm10":50.6,"pm2_5":20.9,"no2":0.7,"co":136.0,"o3":109.0,"so2":2.7,"mosquito_risk":0,"arthritis_risk":5,"migraine_risk":10,"frizz_risk":1,"updated_at":"2026-06-20T14:50:20.144538+05:30"},{"city":"Akola","state":"Maharashtra","latitude":20.7002,"longitude":77.0082,"temp":38.5,"humidity":29,"rain":0.0,"pressure":972.4,"uv_index":8.85,"wind_gusts":41.8,"aqi":50,"pm10":22.6,"pm2_5":13.5,"no2":1.3,"co":117.0,"o3":112.0,"so2":5.1,"mosquito_risk":0,"arthritis_risk":5,"migraine_risk":10,"frizz_risk":1,"updated_at":"2026-06-20T14:50:20.144549+05:30"},{"city":"Amravati","state":"Maharashtra","latitude":20.9374,"longitude":77.7796,"temp":37.7,"humidity":25,"rain":0.0,"pressure":964.8,"uv_index":8.85,"wind_gusts":41.8,"aqi":52,"pm10":23.5,"pm2_5":14.0,"no2":1.5,"co":117.0,"o3":115.0,"so2":5.8,"mosquito_risk":0,"arthritis_risk":5,"migraine_risk":10,"frizz_risk":0,"updated_at":"2026-06-20T14:50:20.144560+05:30"},{"city":"Latur","state":"Maharashtra","latitude":18.4088,"longitude":76.5604,"temp":35.1,"humidity":34,"rain":0.0,"pressure":938.5,"uv_index":8.95,"wind_gusts":34.6,"aqi":55,"pm10":23.2,"pm2_5":15.0,"no2":0.9,"co":136.0,"o3":114.0,"so2":3.2,"mosquito_risk":0,"arthritis_risk":5,"migraine_risk":10,"frizz_risk":1,"updated_at":"2026-06-20T14:50:20.144570+05:30"},{"city":"Nanded","state":"Maharashtra","latitude":19.1383,"longitude":77.3091,"temp":38.6,"humidity":28,"rain":0.0,"pressure":966.0,"uv_index":8.9,"wind_gusts":33.1,"aqi":61,"pm10":18.9,"pm2_5":12.7,"no2":1.1,"co":135.0,"o3":115.0,"so2":2.7,"mosquito_risk":0,"arthritis_risk":5,"migraine_risk":10,"frizz_risk":1,"updated_at":"2026-06-20T14:50:20.144580+05:30"},{"city":"Gulbarga","state":"Karnataka","latitude":17.3297,"longitude":76.8343,"temp":36.5,"humidity":32,"rain":0.0,"pressure":956.8,"uv_index":8.4,"wind_gusts":38.2,"aqi":57,"pm10":23.9,"pm2_5":15.3,"no2":1.5,"co":136.0,"o3":123.0,"so2":3.2,"mosquito_risk":0,"arthritis_risk":5,"migraine_risk":10,"frizz_risk":1,"updated_at":"2026-06-20T14:50:20.144590+05:30"},{"city":"Bidar","state":"Karnataka","latitude":17.9104,"longitude":77.5199,"temp":33.8,"humidity":42,"rain":0.0,"pressure":934.3,"uv_index":8.85,"wind_gusts":33.1,"aqi":69,"pm10":25.6,"pm2_5":17.3,"no2":1.4,"co":152.0,"o3":129.0,"so2":5.2,"mosquito_risk":0,"arthritis_risk":5,"migraine_risk":7,"frizz_risk":1,"updated_at":"2026-06-20T14:50:20.144600+05:30"},{"city":"Hospet","state":"Karnataka","latitude":15.2689,"longitude":76.3909,"temp":32.5,"humidity":45,"rain":0.0,"pressure":954.6,"uv_index":8.5,"wind_gusts":40.7,"aqi":52,"pm10":27.0,"pm2_5":13.6,"no2":1.5,"co":132.0,"o3":101.0,"so2":2.4,"mosquito_risk":0,"arthritis_risk":5,"migraine_risk":7,"frizz_risk":1,"updated_at":"2026-06-20T14:50:20.144610+05:30"},{"city":"Tirupur","state":"Tamil Nadu","latitude":11.1085,"longitude":77.3411,"temp":34.5,"humidity":42,"rain":0.0,"pressure":973.6,"uv_index":8.3,"wind_gusts":40.7,"aqi":64,"pm10":36.3,"pm2_5":17.9,"no2":2.1,"co":151.0,"o3":116.0,"so2":2.9,"mosquito_risk":0,"arthritis_risk":5,"migraine_risk":7,"frizz_risk":1,"updated_at":"2026-06-20T14:50:20.144620+05:30"},{"city":"Alappuzha","state":"Kerala","latitude":9.4981,"longitude":76.3388,"temp":29.3,"humidity":75,"rain":0.0,"pressure":1007.9,"uv_index":8.45,"wind_gusts":32.8,"aqi":77,"pm10":23.2,"pm2_5":13.3,"no2":2.2,"co":108.0,"o3":78.0,"so2":2.4,"mosquito_risk":7,"arthritis_risk":5,"migraine_risk":4,"frizz_risk":1,"updated_at":"2026-06-20T14:50:20.144630+05:30"},{"city":"Munnar","state":"Kerala","latitude":10.0889,"longitude":77.0595,"temp":22.1,"humidity":69,"rain":0.0,"pressure":857.6,"uv_index":8.75,"wind_gusts":28.8,"aqi":47,"pm10":50.5,"pm2_5":17.4,"no2":0.9,"co":114.0,"o3":83.0,"so2":1.4,"mosquito_risk":3,"arthritis_risk":5,"migraine_risk":7,"frizz_risk":1,"updated_at":"2026-06-20T14:50:20.144640+05:30"},{"city":"Silchar","state":"Assam","latitude":24.8333,"longitude":92.7789,"temp":31.1,"humidity":72,"rain":0.1,"pressure":999.4,"uv_index":7.65,"wind_gusts":34.2,"aqi":95,"pm10":16.9,"pm2_5":13.1,"no2":1.8,"co":213.0,"o3":97.0,"so2":2.7,"mosquito_risk":6,"arthritis_risk":5,"migraine_risk":7,"frizz_risk":1,"updated_at":"2026-06-20T14:50:20.144651+05:30"},{"city":"Dibrugarh","state":"Assam","latitude":27.4728,"longitude":94.912,"temp":30.5,"humidity":73,"rain":0.1,"pressure":988.8,"uv_index":8.45,"wind_gusts":27.7,"aqi":76,"pm10":61.9,"pm2_5":37.6,"no2":1.5,"co":247.0,"o3":140.0,"so2":3.9,"mosquito_risk":6,"arthritis_risk":5,"migraine_risk":7,"frizz_risk":1,"updated_at":"2026-06-20T14:50:20.144661+05:30"}]