[{"city":"Delhi","state":"Delhi","latitude":28.6139,"longitude":77.209,"temp":26.2,"humidity":92,"rain":0.0,"pressure":974.9,"uv_index":6.45,"wind_gusts":36.0,"aqi":84,"pm10":20.1,"pm2_5":20.1,"no2":16.6,"co":288.0,"o3":71.0,"so2":17.8,"mosquito_risk":7,"arthritis_risk":5,"migraine_risk":7,"frizz_risk":1,"updated_at":"2026-07-24T03:36:16.453966+05:30"},{"city":"Mumbai","state":"Maharashtra","latitude":19.076,"longitude":72.8777,"temp":27.6,"humidity":83,"rain":0.1,"pressure":1002.0,"uv_index":7.75,"wind_gusts":64.4,"aqi":57,"pm10":27.0,"pm2_5":12.1,"no2":2.5,"co":94.0,"o3":41.0,"so2":2.3,"mosquito_risk":10,"arthritis_risk":5,"migraine_risk":4,"frizz_risk":1,"updated_at":"2026-07-24T03:36:16.454009+05:30"},{"city":"Bangalore","state":"Karnataka","latitude":12.9716,"longitude":77.5946,"temp":20.0,"humidity":97,"rain":0.0,"pressure":910.1,"uv_index":8.45,"wind_gusts":51.1,"aqi":35,"pm10":21.0,"pm2_5":9.7,"no2":7.9,"co":149.0,"o3":28.0,"so2":3.9,"mosquito_risk":3,"arthritis_risk":5,"migraine_risk":7,"frizz_risk":1,"updated_at":"2026-07-24T03:36:16.454024+05:30"},{"city":"Hyderabad","state":"Telangana","latitude":17.385,"longitude":78.4867,"temp":24.3,"humidity":77,"rain":0.0,"pressure":949.2,"uv_index":5.95,"wind_gusts":62.3,"aqi":63,"pm10":48.1,"pm2_5":26.0,"no2":5.4,"co":136.0,"o3":46.0,"so2":3.6,"mosquito_risk":3,"arthritis_risk":5,"migraine_risk":3,"frizz_risk":1,"updated_at":"2026-07-24T03:36:16.454033+05:30"},{"city":"Chennai","state":"Tamil Nadu","latitude":13.0827,"longitude":80.2707,"temp":25.7,"humidity":93,"rain":0.0,"pressure":1005.5,"uv_index":7.2,"wind_gusts":43.9,"aqi":71,"pm10":23.2,"pm2_5":17.3,"no2":15.9,"co":239.0,"o3":54.0,"so2":13.3,"mosquito_risk":7,"arthritis_risk":5,"migraine_risk":4,"frizz_risk":1,"updated_at":"2026-07-24T03:36:16.454041+05:30"},{"city":"Kolkata","state":"West Bengal","latitude":22.5726,"longitude":88.3639,"temp":26.0,"humidity":95,"rain":0.1,"pressure":999.8,"uv_index":7.8,"wind_gusts":31.3,"aqi":68,"pm10":22.2,"pm2_5":18.1,"no2":9.0,"co":233.0,"o3":64.0,"so2":8.3,"mosquito_risk":10,"arthritis_risk":5,"migraine_risk":7,"frizz_risk":1,"updated_at":"2026-07-24T03:36:16.454049+05:30"},{"city":"Pune","state":"Maharashtra","latitude":18.5204,"longitude":73.8567,"temp":22.4,"humidity":92,"rain":0.2,"pressure":942.0,"uv_index":7.1,"wind_gusts":67.3,"aqi":35,"pm10":3.3,"pm2_5":1.8,"no2":2.4,"co":95.0,"o3":38.0,"so2":2.0,"mosquito_risk":6,"arthritis_risk":5,"migraine_risk":7,"frizz_risk":1,"updated_at":"2026-07-24T03:36:16.454057+05:30"},{"city":"Ahmedabad","state":"Gujarat","latitude":23.0225,"longitude":72.5714,"temp":25.4,"humidity":98,"rain":0.1,"pressure":991.0,"uv_index":4.7,"wind_gusts":58.3,"aqi":60,"pm10":17.9,"pm2_5":8.6,"no2":5.5,"co":111.0,"o3":41.0,"so2":3.1,"mosquito_risk":10,"arthritis_risk":5,"migraine_risk":3,"frizz_risk":1,"updated_at":"2026-07-24T03:36:16.454064+05:30"},{"city":"Jaipur","state":"Rajasthan","latitude":26.9124,"longitude":75.7873,"temp":25.3,"humidity":94,"rain":0.0,"pressure":950.4,"uv_index":6.55,"wind_gusts":28.4,"aqi":63,"pm10":15.0,"pm2_5":15.0,"no2":11.3,"co":292.0,"o3":78.0,"so2":7.0,"mosquito_risk":7,"arthritis_risk":5,"migraine_risk":7,"frizz_risk":1,"updated_at":"2026-07-24T03:36:16.454070+05:30"},{"city":"Lucknow","state":"Uttar Pradesh","latitude":26.8467,"longitude":80.9462,"temp":25.4,"humidity":97,"rain":0.2,"pressure":986.8,"uv_index":4.6,"wind_gusts":26.3,"aqi":66,"pm10":13.0,"pm2_5":13.0,"no2":9.9,"co":255.0,"o3":70.0,"so2":7.8,"mosquito_risk":10,"arthritis_risk":5,"migraine_risk":3,"frizz_risk":1,"updated_at":"2026-07-24T03:36:16.454081+05:30"},{"city":"Kanpur","state":"Uttar Pradesh","latitude":26.4499,"longitude":80.3319,"temp":25.0,"humidity":98,"rain":0.1,"pressure":984.5,"uv_index":7.2,"wind_gusts":27.4,"aqi":63,"pm10":10.3,"pm2_5":10.2,"no2":12.0,"co":228.0,"o3":51.0,"so2":6.0,"mosquito_risk":10,"arthritis_risk":5,"migraine_risk":7,"frizz_risk":1,"updated_at":"2026-07-24T03:36:16.454088+05:30"},{"city":"Chandigarh","state":"Chandigarh","latitude":30.7333,"longitude":76.7794,"temp":27.3,"humidity":80,"rain":0.0,"pressure":962.7,"uv_index":7.65,"wind_gusts":28.1,"aqi":85,"pm10":38.4,"pm2_5":38.3,"no2":34.5,"co":253.0,"o3":24.0,"so2":6.3,"mosquito_risk":7,"arthritis_risk":5,"migraine_risk":7,"frizz_risk":1,"updated_at":"2026-07-24T03:36:16.454095+05:30"},{"city":"Srinagar","state":"Jammu and Kashmir","latitude":34.0837,"longitude":74.7973,"temp":17.7,"humidity":91,"rain":0.0,"pressure":838.4,"uv_index":6.05,"wind_gusts":22.3,"aqi":69,"pm10":32.4,"pm2_5":32.2,"no2":30.0,"co":186.0,"o3":5.0,"so2":1.2,"mosquito_risk":3,"arthritis_risk":10,"migraine_risk":7,"frizz_risk":1,"updated_at":"2026-07-24T03:36:16.454103+05:30"},{"city":"Jammu","state":"Jammu and Kashmir","latitude":32.7266,"longitude":74.857,"temp":23.9,"humidity":91,"rain":0.3,"pressure":966.3,"uv_index":8.0,"wind_gusts":28.1,"aqi":80,"pm10":46.2,"pm2_5":45.5,"no2":49.8,"co":201.0,"o3":0.0,"so2":3.8,"mosquito_risk":6,"arthritis_risk":5,"migraine_risk":7,"frizz_risk":1,"updated_at":"2026-07-24T03:36:16.454110+05:30"},{"city":"Amritsar","state":"Punjab","latitude":31.634,"longitude":74.8723,"temp":25.3,"humidity":93,"rain":0.4,"pressure":974.3,"uv_index":8.05,"wind_gusts":30.2,"aqi":101,"pm10":59.4,"pm2_5":57.9,"no2":41.3,"co":424.0,"o3":14.0,"so2":7.1,"mosquito_risk":10,"arthritis_risk":5,"migraine_risk":7,"frizz_risk":1,"updated_at":"2026-07-24T03:36:16.454116+05:30"},{"city":"Ludhiana","state":"Punjab","latitude":30.901,"longitude":75.8573,"temp":27.5,"humidity":86,"rain":0.0,"pressure":971.6,"uv_index":7.85,"wind_gusts":36.7,"aqi":137,"pm10":54.2,"pm2_5":53.9,"no2":30.4,"co":559.0,"o3":46.0,"so2":13.3,"mosquito_risk":7,"arthritis_risk":5,"migraine_risk":7,"frizz_risk":1,"updated_at":"2026-07-24T03:36:16.454123+05:30"},{"city":"Jalandhar","state":"Punjab","latitude":31.326,"longitude":75.5762,"temp":26.4,"humidity":93,"rain":0.0,"pressure":972.6,"uv_index":7.95,"wind_gusts":28.8,"aqi":118,"pm10":65.4,"pm2_5":65.0,"no2":44.2,"co":471.0,"o3":22.0,"so2":11.8,"mosquito_risk":7,"arthritis_risk":5,"migraine_risk":7,"frizz_risk":1,"updated_at":"2026-07-24T03:36:16.454129+05:30"},{"city":"Dehradun","state":"Uttarakhand","latitude":30.6284,"longitude":78.0322,"temp":17.3,"humidity":99,"rain":0.0,"pressure":825.9,"uv_index":7.25,"wind_gusts":27.4,"aqi":48,"pm10":5.9,"pm2_5":5.8,"no2":15.4,"co":168.0,"o3":35.0,"so2":0.5,"mosquito_risk":3,"arthritis_risk":10,"migraine_risk":7,"frizz_risk":1,"updated_at":"2026-07-24T03:36:16.454135+05:30"},{"city":"Shimla","state":"Himachal Pradesh","latitude":31.1048,"longitude":77.1734,"temp":13.6,"humidity":98,"rain":0.0,"pressure":779.2,"uv_index":7.0,"wind_gusts":24.8,"aqi":51,"pm10":6.3,"pm2_5":6.2,"no2":12.0,"co":294.0,"o3":50.0,"so2":0.6,"mosquito_risk":3,"arthritis_risk":10,"migraine_risk":7,"frizz_risk":0,"updated_at":"2026-07-24T03:36:16.454144+05:30"},{"city":"Manali","state":"Himachal Pradesh","latitude":32.2396,"longitude":77.1887,"temp":19.5,"humidity":82,"rain":0.0,"pressure":815.1,"uv_index":9.25,"wind_gusts":30.2,"aqi":16,"pm10":1.6,"pm2_5":1.6,"no2":17.0,"co":216.0,"o3":24.0,"so2":0.3,"mosquito_risk":3,"arthritis_risk":10,"migraine_risk":7,"frizz_risk":1,"updated_at":"2026-07-24T03:36:16.454152+05:30"},{"city":"Gurgaon","state":"Haryana","latitude":28.4595,"longitude":77.0266,"temp":26.0,"humidity":95,"rain":0.0,"pressure":973.2,"uv_index":6.6,"wind_gusts":37.1,"aqi":95,"pm10":20.8,"pm2_5":20.7,"no2":14.8,"co":296.0,"o3":73.0,"so2":15.4,"mosquito_risk":7,"arthritis_risk":5,"migraine_risk":7,"frizz_risk":1,"updated_at":"2026-07-24T03:36:16.454161+05:30"},{"city":"Noida","state":"Uttar Pradesh","latitude":28.5355,"longitude":77.391,"temp":26.3,"humidity":92,"rain":0.0,"pressure":976.4,"uv_index":6.25,"wind_gusts":38.9,"aqi":95,"pm10":20.8,"pm2_5":20.7,"no2":14.8,"co":280.0,"o3":73.0,"so2":15.4,"mosquito_risk":7,"arthritis_risk":5,"migraine_risk":7,"frizz_risk":1,"updated_at":"2026-07-24T03:36:16.454167+05:30"},{"city":"Ghaziabad","state":"Uttar Pradesh","latitude":28.6692,"longitude":77.4538,"temp":26.3,"humidity":91,"rain":0.0,"pressure":974.7,"uv_index":6.0,"wind_gusts":43.9,"aqi":71,"pm10":17.9,"pm2_5":17.9,"no2":11.4,"co":294.0,"o3":75.0,"so2":9.8,"mosquito_risk":7,"arthritis_risk":5,"migraine_risk":3,"frizz_risk":1,"updated_at":"2026-07-24T03:36:16.454173+05:30"},{"city":"Faridabad","state":"Haryana","latitude":28.4089,"longitude":77.3178,"temp":26.2,"humidity":93,"rain":0.0,"pressure":975.6,"uv_index":6.6,"wind_gusts":42.8,"aqi":95,"pm10":20.8,"pm2_5":20.7,"no2":14.8,"co":276.0,"o3":73.0,"so2":15.4,"mosquito_risk":7,"arthritis_risk":5,"migraine_risk":7,"frizz_risk":1,"updated_at":"2026-07-24T03:36:16.454179+05:30"},{"city":"Meerut","state":"Uttar Pradesh","latitude":28.9845,"longitude":77.7064,"temp":26.0,"humidity":93,"rain":0.0,"pressure":974.0,"uv_index":6.95,"wind_gusts":49.3,"aqi":71,"pm10":17.9,"pm2_5":17.9,"no2":11.4,"co":305.0,"o3":75.0,"so2":9.8,"mosquito_risk":7,"arthritis_risk":5,"migraine_risk":7,"frizz_risk":1,"updated_at":"2026-07-24T03:36:16.454185+05:30"},{"city":"Agra","state":"Uttar Pradesh","latitude":27.1767,"longitude":78.0081,"temp":25.8,"humidity":98,"rain":0.1,"pressure":978.8,"uv_index":6.2,"wind_gusts":32.8,"aqi":72,"pm10":16.4,"pm2_5":16.4,"no2":11.4,"co":231.0,"o3":74.0,"so2":8.3,"mosquito_risk":10,"arthritis_risk":5,"migraine_risk":7,"frizz_risk":1,"updated_at":"2026-07-24T03:36:16.454191+05:30"},{"city":"Varanasi","state":"Uttar Pradesh","latitude":25.3176,"longitude":82.9739,"temp":26.3,"humidity":98,"rain":0.2,"pressure":991.2,"uv_index":7.9,"wind_gusts":22.7,"aqi":66,"pm10":15.9,"pm2_5":15.8,"no2":26.5,"co":300.0,"o3":28.0,"so2":19.5,"mosquito_risk":10,"arthritis_risk":5,"migraine_risk":7,"frizz_risk":1,"updated_at":"2026-07-24T03:36:16.454197+05:30"},{"city":"Prayagraj","state":"Uttar Pradesh","latitude":25.4358,"longitude":81.8463,"temp":26.1,"humidity":98,"rain":0.1,"pressure":989.4,"uv_index":8.1,"wind_gusts":19.8,"aqi":66,"pm10":15.3,"pm2_5":15.1,"no2":19.4,"co":267.0,"o3":33.0,"so2":9.8,"mosquito_risk":10,"arthritis_risk":5,"migraine_risk":7,"frizz_risk":1,"updated_at":"2026-07-24T03:36:16.454204+05:30"},{"city":"Gorakhpur","state":"Uttar Pradesh","latitude":26.7606,"longitude":83.3732,"temp":25.4,"humidity":98,"rain":0.0,"pressure":991.4,"uv_index":6.5,"wind_gusts":28.8,"aqi":71,"pm10":21.8,"pm2_5":21.8,"no2":13.4,"co":304.0,"o3":65.0,"so2":7.3,"mosquito_risk":7,"arthritis_risk":5,"migraine_risk":7,"frizz_risk":1,"updated_at":"2026-07-24T03:36:16.454210+05:30"},{"city":"Bareilly","state":"Uttar Pradesh","latitude":28.367,"longitude":79.4304,"temp":25.9,"humidity":92,"rain":0.0,"pressure":980.1,"uv_index":7.3,"wind_gusts":43.2,"aqi":64,"pm10":20.2,"pm2_5":20.1,"no2":11.4,"co":350.0,"o3":73.0,"so2":7.7,"mosquito_risk":7,"arthritis_risk":5,"migraine_risk":7,"frizz_risk":1,"updated_at":"2026-07-24T03:36:16.454218+05:30"},{"city":"Aligarh","state":"Uttar Pradesh","latitude":27.8974,"longitude":78.088,"temp":26.2,"humidity":90,"rain":0.0,"pressure":977.2,"uv_index":6.2,"wind_gusts":35.6,"aqi":71,"pm10":18.0,"pm2_5":18.0,"no2":10.6,"co":258.0,"o3":80.0,"so2":9.0,"mosquito_risk":7,"arthritis_risk":5,"migraine_risk":7,"frizz_risk":1,"updated_at":"2026-07-24T03:36:16.454224+05:30"},{"city":"Moradabad","state":"Uttar Pradesh","latitude":28.8386,"longitude":78.7733,"temp":26.6,"humidity":86,"rain":0.0,"pressure":976.8,"uv_index":6.55,"wind_gusts":50.0,"aqi":65,"pm10":18.2,"pm2_5":18.2,"no2":10.5,"co":307.0,"o3":77.0,"so2":7.8,"mosquito_risk":7,"arthritis_risk":5,"migraine_risk":7,"frizz_risk":1,"updated_at":"2026-07-24T03:36:16.454230+05:30"},{"city":"Saharanpur","state":"Uttar Pradesh","latitude":29.9637,"longitude":77.546,"temp":27.0,"humidity":83,"rain":0.0,"pressure":969.1,"uv_index":7.3,"wind_gusts":46.8,"aqi":71,"pm10":35.4,"pm2_5":34.9,"no2":28.2,"co":285.0,"o3":19.0,"so2":6.4,"mosquito_risk":7,"arthritis_risk":5,"migraine_risk":7,"frizz_risk":1,"updated_at":"2026-07-24T03:36:16.454236+05:30"},{"city":"Jhansi","state":"Uttar Pradesh","latitude":25.4484,"longitude":78.5685,"temp":26.2,"humidity":83,"rain":0.0,"pressure":969.4,"uv_index":7.05,"wind_gusts":36.0,"aqi":59,"pm10":9.4,"pm2_5":9.3,"no2":14.9,"co":192.0,"o3":35.0,"so2":4.6,"mosquito_risk":7,"arthritis_risk":5,"migraine_risk":7,"frizz_risk":1,"updated_at":"2026-07-24T03:36:19.835829+05:30"},{"city":"Surat","state":"Gujarat","latitude":21.1702,"longitude":72.8311,"temp":25.3,"humidity":93,"rain":0.1,"pressure":997.5,"uv_index":7.2,"wind_gusts":63.7,"aqi":57,"pm10":14.1,"pm2_5":9.1,"no2":9.6,"co":206.0,"o3":34.0,"so2":17.2,"mosquito_risk":10,"arthritis_risk":5,"migraine_risk":7,"frizz_risk":1,"updated_at":"2026-07-24T03:36:19.835864+05:30"},{"city":"Vadodara","state":"Gujarat","latitude":22.3072,"longitude":73.1812,"temp":25.5,"humidity":95,"rain":0.1,"pressure":993.9,"uv_index":5.95,"wind_gusts":59.4,"aqi":53,"pm10":6.6,"pm2_5":4.9,"no2":7.0,"co":102.0,"o3":38.0,"so2":3.0,"mosquito_risk":10,"arthritis_risk":5,"migraine_risk":3,"frizz_risk":1,"updated_at":"2026-07-24T03:36:19.835877+05:30"},{"city":"Rajkot","state":"Gujarat","latitude":22.3039,"longitude":70.8022,"temp":25.4,"humidity":96,"rain":0.7,"pressure":983.4,"uv_index":0.65,"wind_gusts":51.5,"aqi":57,"pm10":16.3,"pm2_5":7.6,"no2":3.7,"co":91.0,"o3":40.0,"so2":4.0,"mosquito_risk":10,"arthritis_risk":5,"migraine_risk":3,"frizz_risk":1,"updated_at":"2026-07-24T03:36:19.835888+05:30"},{"city":"Thane","state":"Maharashtra","latitude":19.2183,"longitude":72.9781,"temp":24.2,"humidity":96,"rain":0.0,"pressure":1001.6,"uv_index":7.7,"wind_gusts":52.6,"aqi":57,"pm10":27.0,"pm2_5":12.1,"no2":2.5,"co":101.0,"o3":41.0,"so2":2.3,"mosquito_risk":3,"arthritis_risk":5,"migraine_risk":4,"frizz_risk":1,"updated_at":"2026-07-24T03:36:19.835897+05:30"},{"city":"Nagpur","state":"Maharashtra","latitude":21.1458,"longitude":79.0882,"temp":25.4,"humidity":80,"rain":0.0,"pressure":967.1,"uv_index":6.9,"wind_gusts":46.1,"aqi":56,"pm10":6.8,"pm2_5":5.9,"no2":9.1,"co":138.0,"o3":29.0,"so2":6.4,"mosquito_risk":7,"arthritis_risk":5,"migraine_risk":7,"frizz_risk":1,"updated_at":"2026-07-24T03:36:19.835907+05:30"},{"city":"Nashik","state":"Maharashtra","latitude":19.9975,"longitude":73.7898,"temp":21.9,"humidity":96,"rain":0.1,"pressure":937.8,"uv_index":6.55,"wind_gusts":68.0,"aqi":19,"pm10":8.2,"pm2_5":4.0,"no2":2.5,"co":95.0,"o3":40.0,"so2":1.6,"mosquito_risk":6,"arthritis_risk":5,"migraine_risk":7,"frizz_risk":1,"updated_at":"2026-07-24T03:36:19.835916+05:30"},{"city":"Aurangabad","state":"Maharashtra","latitude":19.8762,"longitude":75.3433,"temp":22.5,"humidity":94,"rain":0.0,"pressure":937.2,"uv_index":7.55,"wind_gusts":66.6,"aqi":19,"pm10":3.3,"pm2_5":2.1,"no2":4.9,"co":107.0,"o3":36.0,"so2":5.2,"mosquito_risk":3,"arthritis_risk":5,"migraine_risk":7,"frizz_risk":1,"updated_at":"2026-07-24T03:36:19.835925+05:30"},{"city":"Solapur","state":"Maharashtra","latitude":17.6599,"longitude":75.9064,"temp":24.5,"humidity":77,"rain":0.0,"pressure":953.2,"uv_index":6.95,"wind_gusts":66.2,"aqi":63,"pm10":8.2,"pm2_5":5.2,"no2":3.1,"co":104.0,"o3":41.0,"so2":1.6,"mosquito_risk":3,"arthritis_risk":5,"migraine_risk":7,"frizz_risk":1,"updated_at":"2026-07-24T03:36:19.835934+05:30"},{"city":"Kolhapur","state":"Maharashtra","latitude":16.705,"longitude":74.2433,"temp":21.9,"humidity":94,"rain":0.0,"pressure":944.1,"uv_index":8.7,"wind_gusts":68.4,"aqi":66,"pm10":11.3,"pm2_5":5.4,"no2":1.9,"co":97.0,"o3":45.0,"so2":1.2,"mosquito_risk":3,"arthritis_risk":5,"migraine_risk":7,"frizz_risk":1,"updated_at":"2026-07-24T03:36:19.835943+05:30"},{"city":"Goa","state":"Goa","latitude":15.2993,"longitude":74.124,"temp":22.9,"humidity":99,"rain":0.5,"pressure":996.3,"uv_index":8.65,"wind_gusts":48.6,"aqi":95,"pm10":115.5,"pm2_5":39.5,"no2":2.3,"co":221.0,"o3":49.0,"so2":0.8,"mosquito_risk":6,"arthritis_risk":5,"migraine_risk":7,"frizz_risk":1,"updated_at":"2026-07-24T03:36:19.835952+05:30"},{"city":"Jodhpur","state":"Rajasthan","latitude":26.2389,"longitude":73.0243,"temp":27.0,"humidity":98,"rain":0.0,"pressure":972.2,"uv_index":7.15,"wind_gusts":23.4,"aqi":56,"pm10":12.5,"pm2_5":12.2,"no2":10.4,"co":232.0,"o3":67.0,"so2":2.1,"mosquito_risk":7,"arthritis_risk":5,"migraine_risk":7,"frizz_risk":1,"updated_at":"2026-07-24T03:36:19.835961+05:30"},{"city":"Udaipur","state":"Rajasthan","latitude":24.5854,"longitude":73.7125,"temp":23.7,"humidity":97,"rain":0.0,"pressure":935.6,"uv_index":8.1,"wind_gusts":42.1,"aqi":34,"pm10":6.0,"pm2_5":5.9,"no2":6.1,"co":219.0,"o3":78.0,"so2":2.1,"mosquito_risk":3,"arthritis_risk":5,"migraine_risk":7,"frizz_risk":1,"updated_at":"2026-07-24T03:36:19.835970+05:30"},{"city":"Kota","state":"Rajasthan","latitude":25.2138,"longitude":75.8648,"temp":26.1,"humidity":92,"rain":0.0,"pressure":968.6,"uv_index":6.95,"wind_gusts":40.0,"aqi":66,"pm10":14.0,"pm2_5":13.8,"no2":15.2,"co":270.0,"o3":38.0,"so2":6.0,"mosquito_risk":7,"arthritis_risk":5,"migraine_risk":7,"frizz_risk":1,"updated_at":"2026-07-24T03:36:19.835978+05:30"},{"city":"Bikaner","state":"Rajasthan","latitude":28.0229,"longitude":73.3119,"temp":28.4,"humidity":83,"rain":0.0,"pressure":971.8,"uv_index":8.2,"wind_gusts":28.8,"aqi":63,"pm10":29.5,"pm2_5":22.5,"no2":6.0,"co":289.0,"o3":98.0,"so2":11.4,"mosquito_risk":7,"arthritis_risk":5,"migraine_risk":7,"frizz_risk":1,"updated_at":"2026-07-24T03:36:19.835985+05:30"},{"city":"Ajmer","state":"Rajasthan","latitude":26.4499,"longitude":74.6399,"temp":25.3,"humidity":92,"rain":0.0,"pressure":944.8,"uv_index":8.0,"wind_gusts":32.8,"aqi":56,"pm10":15.9,"pm2_5":15.4,"no2":8.5,"co":302.0,"o3":82.0,"so2":3.6,"mosquito_risk":7,"arthritis_risk":5,"migraine_risk":7,"frizz_risk":1,"updated_at":"2026-07-24T03:36:19.835992+05:30"},{"city":"Gwalior","state":"Madhya Pradesh","latitude":26.2183,"longitude":78.1828,"temp":26.0,"humidity":97,"rain":0.0,"pressure":974.1,"uv_index":7.9,"wind_gusts":32.0,"aqi":64,"pm10":6.0,"pm2_5":6.0,"no2":8.7,"co":223.0,"o3":70.0,"so2":4.5,"mosquito_risk":7,"arthritis_risk":5,"migraine_risk":7,"frizz_risk":1,"updated_at":"2026-07-24T03:36:19.835999+05:30"},{"city":"Indore","state":"Madhya Pradesh","latitude":22.7196,"longitude":75.8577,"temp":23.6,"humidity":92,"rain":0.0,"pressure":939.1,"uv_index":6.7,"wind_gusts":51.8,"aqi":33,"pm10":2.9,"pm2_5":2.8,"no2":8.0,"co":125.0,"o3":32.0,"so2":6.5,"mosquito_risk":3,"arthritis_risk":5,"migraine_risk":7,"frizz_risk":1,"updated_at":"2026-07-24T03:36:19.836006+05:30"},{"city":"Bhopal","state":"Madhya Pradesh","latitude":23.2599,"longitude":77.4126,"temp":23.5,"humidity":92,"rain":0.0,"pressure":945.2,"uv_index":4.0,"wind_gusts":46.8,"aqi":30,"pm10":2.9,"pm2_5":2.7,"no2":7.6,"co":146.0,"o3":31.0,"so2":4.6,"mosquito_risk":3,"arthritis_risk":5,"migraine_risk":3,"frizz_risk":1,"updated_at":"2026-07-24T03:36:19.836013+05:30"},{"city":"Jabalpur","state":"Madhya Pradesh","latitude":23.1815,"longitude":79.9864,"temp":24.3,"humidity":89,"rain":0.0,"pressure":954.9,"uv_index":7.8,"wind_gusts":37.1,"aqi":45,"pm10":17.5,"pm2_5":15.3,"no2":8.8,"co":158.0,"o3":44.0,"so2":7.9,"mosquito_risk":3,"arthritis_risk":5,"migraine_risk":7,"frizz_risk":1,"updated_at":"2026-07-24T03:36:19.836020+05:30"},{"city":"Ujjain","state":"Madhya Pradesh","latitude":23.1765,"longitude":75.7885,"temp":23.3,"humidity":94,"rain":0.4,"pressure":944.1,"uv_index":6.65,"wind_gusts":54.0,"aqi":45,"pm10":4.1,"pm2_5":3.9,"no2":9.1,"co":167.0,"o3":30.0,"so2":6.3,"mosquito_risk":6,"arthritis_risk":5,"migraine_risk":7,"frizz_risk":1,"updated_at":"2026-07-24T03:36:19.836028+05:30"},{"city":"Visakhapatnam","state":"Andhra Pradesh","latitude":17.6868,"longitude":83.2185,"temp":27.0,"humidity":82,"rain":0.0,"pressure":999.8,"uv_index":8.4,"wind_gusts":47.9,"aqi":71,"pm10":26.7,"pm2_5":19.9,"no2":14.3,"co":279.0,"o3":81.0,"so2":26.3,"mosquito_risk":7,"arthritis_risk":5,"migraine_risk":7,"frizz_risk":1,"updated_at":"2026-07-24T03:36:19.836035+05:30"},{"city":"Vijayawada","state":"Andhra Pradesh","latitude":16.5062,"longitude":80.648,"temp":29.2,"humidity":71,"rain":0.0,"pressure":999.3,"uv_index":8.85,"wind_gusts":45.4,"aqi":62,"pm10":23.1,"pm2_5":17.6,"no2":8.6,"co":205.0,"o3":68.0,"so2":5.7,"mosquito_risk":7,"arthritis_risk":5,"migraine_risk":7,"frizz_risk":1,"updated_at":"2026-07-24T03:36:19.836042+05:30"},{"city":"Guntur","state":"Andhra Pradesh","latitude":16.3067,"longitude":80.4365,"temp":29.9,"humidity":56,"rain":0.0,"pressure":1000.5,"uv_index":8.95,"wind_gusts":45.0,"aqi":60,"pm10":23.1,"pm2_5":17.2,"no2":10.7,"co":161.0,"o3":56.0,"so2":5.2,"mosquito_risk":4,"arthritis_risk":5,"migraine_risk":4,"frizz_risk":1,"updated_at":"2026-07-24T03:36:19.836050+05:30"},{"city":"Nellore","state":"Andhra Pradesh","latitude":14.4426,"longitude":79.9865,"temp":24.2,"humidity":93,"rain":0.4,"pressure":1004.1,"uv_index":8.1,"wind_gusts":43.2,"aqi":60,"pm10":26.7,"pm2_5":15.9,"no2":10.6,"co":201.0,"o3":42.0,"so2":4.3,"mosquito_risk":6,"arthritis_risk":5,"migraine_risk":4,"frizz_risk":1,"updated_at":"2026-07-24T03:36:19.836058+05:30"},{"city":"Kurnool","state":"Andhra Pradesh","latitude":15.8281,"longitude":78.0373,"temp":25.8,"humidity":74,"rain":0.0,"pressure":974.5,"uv_index":8.1,"wind_gusts":56.5,"aqi":60,"pm10":57.4,"pm2_5":28.3,"no2":6.2,"co":118.0,"o3":41.0,"so2":4.2,"mosquito_risk":7,"arthritis_risk":5,"migraine_risk":7,"frizz_risk":1,"updated_at":"2026-07-24T03:36:19.836066+05:30"},{"city":"Kakinada","state":"Andhra Pradesh","latitude":16.9891,"longitude":82.2475,"temp":28.9,"humidity":79,"rain":0.0,"pressure":1003.7,"uv_index":8.4,"wind_gusts":57.6,"aqi":65,"pm10":24.9,"pm2_5":15.8,"no2":2.5,"co":190.0,"o3":101.0,"so2":4.4,"mosquito_risk":7,"arthritis_risk":5,"migraine_risk":4,"frizz_risk":1,"updated_at":"2026-07-24T03:36:19.836073+05:30"},{"city":"Tirupati","state":"Andhra Pradesh","latitude":13.6288,"longitude":79.4192,"temp":25.9,"humidity":84,"rain":0.0,"pressure":989.5,"uv_index":8.4,"wind_gusts":36.7,"aqi":60,"pm10":28.2,"pm2_5":19.9,"no2":24.5,"co":120.0,"o3":12.0,"so2":3.2,"mosquito_risk":7,"arthritis_risk":5,"migraine_risk":7,"frizz_risk":1,"updated_at":"2026-07-24T03:36:19.836081+05:30"},{"city":"Warangal","state":"Telangana","latitude":17.9689,"longitude":79.5941,"temp":25.6,"humidity":71,"rain":0.0,"pressure":974.7,"uv_index":7.4,"wind_gusts":48.6,"aqi":65,"pm10":41.3,"pm2_5":23.4,"no2":6.8,"co":138.0,"o3":42.0,"so2":3.4,"mosquito_risk":7,"arthritis_risk":5,"migraine_risk":7,"frizz_risk":1,"updated_at":"2026-07-24T03:36:19.836088+05:30"},{"city":"Nizamabad","state":"Telangana","latitude":18.6725,"longitude":78.0941,"temp":24.8,"humidity":78,"rain":0.0,"pressure":960.0,"uv_index":7.6,"wind_gusts":54.7,"aqi":60,"pm10":11.3,"pm2_5":7.6,"no2":4.7,"co":122.0,"o3":35.0,"so2":2.0,"mosquito_risk":3,"arthritis_risk":5,"migraine_risk":7,"frizz_risk":1,"updated_at":"2026-07-24T03:36:19.836096+05:30"},{"city":"Mysore","state":"Karnataka","latitude":12.2958,"longitude":76.6396,"temp":20.7,"humidity":96,"rain":0.0,"pressure":927.2,"uv_index":8.2,"wind_gusts":46.4,"aqi":25,"pm10":13.2,"pm2_5":5.9,"no2":4.7,"co":100.0,"o3":30.0,"so2":1.6,"mosquito_risk":3,"arthritis_risk":5,"migraine_risk":7,"frizz_risk":1,"updated_at":"2026-07-24T03:36:19.836103+05:30"},{"city":"Mangalore","state":"Karnataka","latitude":12.9141,"longitude":74.856,"temp":23.9,"humidity":98,"rain":0.0,"pressure":1006.5,"uv_index":8.6,"wind_gusts":43.2,"aqi":52,"pm10":26.6,"pm2_5":12.9,"no2":5.2,"co":156.0,"o3":31.0,"so2":1.6,"mosquito_risk":3,"arthritis_risk":5,"migraine_risk":4,"frizz_risk":1,"updated_at":"2026-07-24T03:36:19.836110+05:30"},{"city":"Hubli-Dharwad","state":"Karnataka","latitude":15.3647,"longitude":75.124,"temp":21.4,"humidity":98,"rain":0.1,"pressure":938.4,"uv_index":8.95,"wind_gusts":64.1,"aqi":63,"pm10":61.2,"pm2_5":26.8,"no2":2.8,"co":96.0,"o3":45.0,"so2":1.0,"mosquito_risk":6,"arthritis_risk":5,"migraine_risk":7,"frizz_risk":1,"updated_at":"2026-07-24T03:36:19.836117+05:30"},{"city":"Belgaum","state":"Karnataka","latitude":15.8497,"longitude":74.4977,"temp":20.4,"humidity":97,"rain":0.0,"pressure":922.3,"uv_index":8.85,"wind_gusts":67.7,"aqi":72,"pm10":28.6,"pm2_5":12.3,"no2":2.2,"co":93.0,"o3":54.0,"so2":1.5,"mosquito_risk":3,"arthritis_risk":5,"migraine_risk":7,"frizz_risk":1,"updated_at":"2026-07-24T03:36:23.199379+05:30"},{"city":"Coimbatore","state":"Tamil Nadu","latitude":11.0168,"longitude":76.9558,"temp":22.6,"humidity":93,"rain":0.0,"pressure":960.5,"uv_index":8.95,"wind_gusts":51.1,"aqi":35,"pm10":6.2,"pm2_5":4.9,"no2":6.9,"co":175.0,"o3":23.0,"so2":2.4,"mosquito_risk":3,"arthritis_risk":5,"migraine_risk":7,"frizz_risk":1,"updated_at":"2026-07-24T03:36:23.199410+05:30"},{"city":"Madurai","state":"Tamil Nadu","latitude":9.9252,"longitude":78.1198,"temp":27.8,"humidity":63,"rain":0.0,"pressure":991.4,"uv_index":8.75,"wind_gusts":33.1,"aqi":64,"pm10":22.4,"pm2_5":19.7,"no2":34.5,"co":143.0,"o3":2.0,"so2":6.0,"mosquito_risk":7,"arthritis_risk":5,"migraine_risk":7,"frizz_risk":1,"updated_at":"2026-07-24T03:36:23.199421+05:30"},{"city":"Trichy","state":"Tamil Nadu","latitude":10.7905,"longitude":78.7047,"temp":27.8,"humidity":67,"rain":0.0,"pressure":998.3,"uv_index":8.25,"wind_gusts":44.6,"aqi":55,"pm10":6.3,"pm2_5":4.7,"no2":7.1,"co":111.0,"o3":28.0,"so2":3.3,"mosquito_risk":7,"arthritis_risk":5,"migraine_risk":7,"frizz_risk":1,"updated_at":"2026-07-24T03:36:23.199430+05:30"},{"city":"Salem","state":"Tamil Nadu","latitude":11.6643,"longitude":78.146,"temp":25.2,"humidity":80,"rain":0.0,"pressure":976.3,"uv_index":7.65,"wind_gusts":33.8,"aqi":59,"pm10":15.0,"pm2_5":12.0,"no2":17.3,"co":309.0,"o3":22.0,"so2":6.7,"mosquito_risk":7,"arthritis_risk":5,"migraine_risk":7,"frizz_risk":1,"updated_at":"2026-07-24T03:36:23.199439+05:30"},{"city":"Tirunelveli","state":"Tamil Nadu","latitude":8.7139,"longitude":77.7567,"temp":27.8,"humidity":71,"rain":0.0,"pressure":1002.1,"uv_index":8.7,"wind_gusts":50.8,"aqi":37,"pm10":7.6,"pm2_5":6.0,"no2":7.3,"co":148.0,"o3":27.0,"so2":2.3,"mosquito_risk":7,"arthritis_risk":5,"migraine_risk":4,"frizz_risk":1,"updated_at":"2026-07-24T03:36:23.199447+05:30"},{"city":"Vellore","state":"Tamil Nadu","latitude":12.9165,"longitude":79.1325,"temp":27.1,"humidity":65,"rain":0.0,"pressure":983.0,"uv_index":6.8,"wind_gusts":39.6,"aqi":59,"pm10":11.9,"pm2_5":9.1,"no2":12.9,"co":116.0,"o3":24.0,"so2":3.8,"mosquito_risk":7,"arthritis_risk":5,"migraine_risk":7,"frizz_risk":1,"updated_at":"2026-07-24T03:36:23.199455+05:30"},{"city":"Erode","state":"Tamil Nadu","latitude":11.341,"longitude":77.7172,"temp":25.5,"humidity":77,"rain":0.0,"pressure":988.1,"uv_index":8.05,"wind_gusts":40.7,"aqi":53,"pm10":12.5,"pm2_5":10.5,"no2":15.4,"co":143.0,"o3":23.0,"so2":4.0,"mosquito_risk":7,"arthritis_risk":5,"migraine_risk":7,"frizz_risk":1,"updated_at":"2026-07-24T03:36:23.199463+05:30"},{"city":"Kochi","state":"Kerala","latitude":9.9312,"longitude":76.2673,"temp":25.2,"humidity":94,"rain":0.0,"pressure":1008.7,"uv_index":8.25,"wind_gusts":35.6,"aqi":55,"pm10":17.3,"pm2_5":15.2,"no2":17.3,"co":185.0,"o3":8.0,"so2":5.2,"mosquito_risk":7,"arthritis_risk":0,"migraine_risk":4,"frizz_risk":1,"updated_at":"2026-07-24T03:36:23.199471+05:30"},{"city":"Thiruvananthapuram","state":"Kerala","latitude":8.5241,"longitude":76.9366,"temp":24.4,"humidity":97,"rain":0.1,"pressure":1008.3,"uv_index":8.55,"wind_gusts":41.4,"aqi":50,"pm10":11.4,"pm2_5":7.6,"no2":5.4,"co":156.0,"o3":36.0,"so2":3.2,"mosquito_risk":6,"arthritis_risk":0,"migraine_risk":4,"frizz_risk":1,"updated_at":"2026-07-24T03:36:23.199479+05:30"},{"city":"Kozhikode","state":"Kerala","latitude":11.2588,"longitude":75.7804,"temp":23.5,"humidity":99,"rain":0.0,"pressure":1008.3,"uv_index":8.3,"wind_gusts":35.6,"aqi":33,"pm10":7.4,"pm2_5":4.1,"no2":2.6,"co":261.0,"o3":38.0,"so2":1.5,"mosquito_risk":3,"arthritis_risk":0,"migraine_risk":4,"frizz_risk":1,"updated_at":"2026-07-24T03:36:23.199486+05:30"},{"city":"Thrissur","state":"Kerala","latitude":10.5276,"longitude":76.2144,"temp":23.7,"humidity":100,"rain":0.0,"pressure":1007.3,"uv_index":8.6,"wind_gusts":36.7,"aqi":52,"pm10":16.7,"pm2_5":14.5,"no2":13.9,"co":358.0,"o3":11.0,"so2":3.7,"mosquito_risk":3,"arthritis_risk":5,"migraine_risk":4,"frizz_risk":1,"updated_at":"2026-07-24T03:36:23.199494+05:30"},{"city":"Kannur","state":"Kerala","latitude":11.8745,"longitude":75.3704,"temp":23.2,"humidity":97,"rain":0.0,"pressure":1007.4,"uv_index":7.9,"wind_gusts":38.9,"aqi":34,"pm10":5.4,"pm2_5":3.0,"no2":5.1,"co":161.0,"o3":28.0,"so2":1.6,"mosquito_risk":3,"arthritis_risk":5,"migraine_risk":4,"frizz_risk":1,"updated_at":"2026-07-24T03:36:23.199500+05:30"},{"city":"Patna","state":"Bihar","latitude":25.5941,"longitude":85.1376,"temp":25.9,"humidity":97,"rain":0.0,"pressure":994.3,"uv_index":5.7,"wind_gusts":24.5,"aqi":72,"pm10":23.2,"pm2_5":23.2,"no2":15.8,"co":299.0,"o3":56.0,"so2":14.3,"mosquito_risk":7,"arthritis_risk":5,"migraine_risk":3,"frizz_risk":1,"updated_at":"2026-07-24T03:36:23.199507+05:30"},{"city":"Gaya","state":"Bihar","latitude":24.7914,"longitude":85.0002,"temp":26.3,"humidity":97,"rain":0.0,"pressure":987.8,"uv_index":6.45,"wind_gusts":25.2,"aqi":62,"pm10":18.4,"pm2_5":18.2,"no2":18.0,"co":219.0,"o3":38.0,"so2":8.5,"mosquito_risk":7,"arthritis_risk":5,"migraine_risk":7,"frizz_risk":1,"updated_at":"2026-07-24T03:36:23.199515+05:30"},{"city":"Muzaffarpur","state":"Bihar","latitude":26.1209,"longitude":85.3647,"temp":25.9,"humidity":97,"rain":0.0,"pressure":994.5,"uv_index":6.95,"wind_gusts":27.7,"aqi":72,"pm10":25.9,"pm2_5":25.9,"no2":16.2,"co":363.0,"o3":56.0,"so2":14.4,"mosquito_risk":7,"arthritis_risk":5,"migraine_risk":7,"frizz_risk":1,"updated_at":"2026-07-24T03:36:23.199521+05:30"},{"city":"Bhagalpur","state":"Bihar","latitude":25.2425,"longitude":87.0117,"temp":26.5,"humidity":93,"rain":0.0,"pressure":994.9,"uv_index":7.85,"wind_gusts":26.3,"aqi":67,"pm10":30.3,"pm2_5":30.0,"no2":23.9,"co":315.0,"o3":24.0,"so2":20.5,"mosquito_risk":7,"arthritis_risk":5,"migraine_risk":7,"frizz_risk":1,"updated_at":"2026-07-24T03:36:23.199528+05:30"},{"city":"Ranchi","state":"Jharkhand","latitude":23.3441,"longitude":85.3096,"temp":21.8,"humidity":94,"rain":0.0,"pressure":932.0,"uv_index":6.6,"wind_gusts":28.8,"aqi":39,"pm10":15.3,"pm2_5":13.8,"no2":11.7,"co":185.0,"o3":44.0,"so2":19.4,"mosquito_risk":3,"arthritis_risk":5,"migraine_risk":7,"frizz_risk":1,"updated_at":"2026-07-24T03:36:23.199535+05:30"},{"city":"Jamshedpur","state":"Jharkhand","latitude":22.8046,"longitude":86.2029,"temp":25.8,"humidity":85,"rain":0.0,"pressure":985.2,"uv_index":7.1,"wind_gusts":38.9,"aqi":57,"pm10":19.2,"pm2_5":16.3,"no2":21.0,"co":192.0,"o3":31.0,"so2":25.3,"mosquito_risk":7,"arthritis_risk":5,"migraine_risk":7,"frizz_risk":1,"updated_at":"2026-07-24T03:36:23.199542+05:30"},{"city":"Dhanbad","state":"Jharkhand","latitude":23.7957,"longitude":86.4304,"temp":25.1,"humidity":90,"rain":0.0,"pressure":973.7,"uv_index":6.7,"wind_gusts":27.4,"aqi":77,"pm10":30.3,"pm2_5":28.9,"no2":37.3,"co":203.0,"o3":22.0,"so2":84.7,"mosquito_risk":7,"arthritis_risk":5,"migraine_risk":7,"frizz_risk":1,"updated_at":"2026-07-24T03:36:23.199549+05:30"},{"city":"Bokaro","state":"Jharkhand","latitude":23.6693,"longitude":86.1511,"temp":24.7,"humidity":93,"rain":0.1,"pressure":977.7,"uv_index":4.65,"wind_gusts":29.5,"aqi":64,"pm10":24.9,"pm2_5":23.5,"no2":25.2,"co":157.0,"o3":31.0,"so2":58.2,"mosquito_risk":6,"arthritis_risk":5,"migraine_risk":3,"frizz_risk":1,"updated_at":"2026-07-24T03:36:23.199556+05:30"},{"city":"Bhubaneswar","state":"Odisha","latitude":20.2961,"longitude":85.8245,"temp":26.1,"humidity":95,"rain":0.0,"pressure":997.7,"uv_index":8.7,"wind_gusts":37.1,"aqi":67,"pm10":18.7,"pm2_5":14.8,"no2":8.6,"co":198.0,"o3":60.0,"so2":9.7,"mosquito_risk":7,"arthritis_risk":5,"migraine_risk":7,"frizz_risk":1,"updated_at":"2026-07-24T03:36:23.199562+05:30"},{"city":"Cuttack","state":"Odisha","latitude":20.4625,"longitude":85.8828,"temp":26.3,"humidity":95,"rain":0.0,"pressure":999.4,"uv_index":8.65,"wind_gusts":38.9,"aqi":67,"pm10":18.7,"pm2_5":14.8,"no2":8.6,"co":214.0,"o3":60.0,"so2":9.7,"mosquito_risk":7,"arthritis_risk":5,"migraine_risk":7,"frizz_risk":1,"updated_at":"2026-07-24T03:36:23.199568+05:30"},{"city":"Rourkela","state":"Odisha","latitude":22.2604,"longitude":84.8536,"temp":24.9,"humidity":92,"rain":0.1,"pressure":980.0,"uv_index":8.4,"wind_gusts":36.0,"aqi":51,"pm10":19.5,"pm2_5":15.8,"no2":11.2,"co":237.0,"o3":38.0,"so2":5.6,"mosquito_risk":6,"arthritis_risk":5,"migraine_risk":7,"frizz_risk":1,"updated_at":"2026-07-24T03:36:23.199575+05:30"},{"city":"Raipur","state":"Chhattisgarh","latitude":21.2514,"longitude":81.6296,"temp":24.5,"humidity":87,"rain":0.0,"pressure":969.4,"uv_index":7.1,"wind_gusts":47.2,"aqi":64,"pm10":25.4,"pm2_5":19.7,"no2":15.1,"co":195.0,"o3":44.0,"so2":24.2,"mosquito_risk":3,"arthritis_risk":5,"migraine_risk":7,"frizz_risk":1,"updated_at":"2026-07-24T03:36:23.199581+05:30"},{"city":"Bhilai","state":"Chhattisgarh","latitude":21.1938,"longitude":81.3509,"temp":24.4,"humidity":87,"rain":0.0,"pressure":969.8,"uv_index":6.1,"wind_gusts":52.2,"aqi":63,"pm10":21.2,"pm2_5":17.2,"no2":13.8,"co":311.0,"o3":42.0,"so2":22.4,"mosquito_risk":3,"arthritis_risk":5,"migraine_risk":7,"frizz_risk":1,"updated_at":"2026-07-24T03:36:23.199588+05:30"},{"city":"Guwahati","state":"Assam","latitude":26.1158,"longitude":91.7086,"temp":25.5,"humidity":99,"rain":0.1,"pressure":996.7,"uv_index":8.4,"wind_gusts":19.4,"aqi":44,"pm10":12.3,"pm2_5":11.8,"no2":10.7,"co":232.0,"o3":33.0,"so2":3.0,"mosquito_risk":10,"arthritis_risk":5,"migraine_risk":7,"frizz_risk":1,"updated_at":"2026-07-24T03:36:23.199595+05:30"},{"city":"Agartala","state":"Tripura","latitude":23.8315,"longitude":91.2868,"temp":24.3,"humidity":98,"rain":0.0,"pressure":1001.9,"uv_index":7.05,"wind_gusts":35.3,"aqi":44,"pm10":9.6,"pm2_5":8.1,"no2":8.7,"co":178.0,"o3":44.0,"so2":2.1,"mosquito_risk":3,"arthritis_risk":5,"migraine_risk":4,"frizz_risk":1,"updated_at":"2026-07-24T03:36:23.199602+05:30"},{"city":"Shillong","state":"Meghalaya","latitude":25.5788,"longitude":91.8933,"temp":19.7,"humidity":96,"rain":0.0,"pressure":853.8,"uv_index":7.85,"wind_gusts":25.6,"aqi":25,"pm10":1.1,"pm2_5":1.1,"no2":4.5,"co":177.0,"o3":47.0,"so2":1.9,"mosquito_risk":3,"arthritis_risk":10,"migraine_risk":7,"frizz_risk":1,"updated_at":"2026-07-24T03:36:23.199609+05:30"},{"city":"Imphal","state":"Manipur","latitude":24.817,"longitude":93.9368,"temp":22.2,"humidity":98,"rain":0.0,"pressure":919.5,"uv_index":6.65,"wind_gusts":17.3,"aqi":37,"pm10":7.3,"pm2_5":7.0,"no2":7.0,"co":270.0,"o3":28.0,"so2":1.7,"mosquito_risk":3,"arthritis_risk":5,"migraine_risk":7,"frizz_risk":1,"updated_at":"2026-07-24T03:36:23.199616+05:30"},{"city":"Aizawl","state":"Mizoram","latitude":23.7271,"longitude":92.7176,"temp":19.4,"humidity":95,"rain":0.0,"pressure":888.7,"uv_index":8.8,"wind_gusts":27.7,"aqi":23,"pm10":1.2,"pm2_5":1.0,"no2":2.5,"co":134.0,"o3":40.0,"so2":0.9,"mosquito_risk":3,"arthritis_risk":10,"migraine_risk":7,"frizz_risk":1,"updated_at":"2026-07-24T03:36:23.199623+05:30"},{"city":"Kohima","state":"Nagaland","latitude":25.6701,"longitude":94.1077,"temp":19.5,"humidity":95,"rain":0.0,"pressure":852.3,"uv_index":5.9,"wind_gusts":22.0,"aqi":23,"pm10":6.3,"pm2_5":6.0,"no2":8.3,"co":233.0,"o3":22.0,"so2":0.8,"mosquito_risk":3,"arthritis_risk":10,"migraine_risk":3,"frizz_risk":1,"updated_at":"2026-07-24T03:36:23.199630+05:30"},{"city":"Gangtok","state":"Sikkim","latitude":27.3314,"longitude":88.6138,"temp":16.7,"humidity":97,"rain":0.0,"pressure":833.6,"uv_index":6.7,"wind_gusts":32.4,"aqi":38,"pm10":4.5,"pm2_5":4.5,"no2":5.2,"co":357.0,"o3":75.0,"so2":1.8,"mosquito_risk":3,"arthritis_risk":10,"migraine_risk":7,"frizz_risk":1,"updated_at":"2026-07-24T03:36:23.199637+05:30"},{"city":"Siliguri","state":"West Bengal","latitude":26.7271,"longitude":88.3953,"temp":24.6,"humidity":95,"rain":0.0,"pressure":988.2,"uv_index":7.75,"wind_gusts":27.7,"aqi":54,"pm10":15.8,"pm2_5":15.7,"no2":10.7,"co":198.0,"o3":71.0,"so2":4.3,"mosquito_risk":3,"arthritis_risk":5,"migraine_risk":7,"frizz_risk":1,"updated_at":"2026-07-24T03:36:26.557772+05:30"},{"city":"Durgapur","state":"West Bengal","latitude":23.5204,"longitude":87.3119,"temp":25.8,"humidity":96,"rain":0.1,"pressure":988.8,"uv_index":6.7,"wind_gusts":30.6,"aqi":74,"pm10":25.8,"pm2_5":24.4,"no2":33.0,"co":678.0,"o3":22.0,"so2":45.9,"mosquito_risk":10,"arthritis_risk":5,"migraine_risk":7,"frizz_risk":1,"updated_at":"2026-07-24T03:36:26.557802+05:30"},{"city":"Asansol","state":"West Bengal","latitude":23.6739,"longitude":86.9524,"temp":25.5,"humidity":93,"rain":0.0,"pressure":987.4,"uv_index":6.75,"wind_gusts":26.3,"aqi":68,"pm10":22.9,"pm2_5":21.7,"no2":33.9,"co":371.0,"o3":22.0,"so2":53.9,"mosquito_risk":7,"arthritis_risk":5,"migraine_risk":7,"frizz_risk":1,"updated_at":"2026-07-24T03:36:26.557812+05:30"},{"city":"Pondicherry","state":"Puducherry","latitude":11.9139,"longitude":79.8145,"temp":27.9,"humidity":79,"rain":0.0,"pressure":1006.6,"uv_index":7.9,"wind_gusts":50.4,"aqi":67,"pm10":14.8,"pm2_5":10.9,"no2":11.1,"co":196.0,"o3":52.0,"so2":9.6,"mosquito_risk":7,"arthritis_risk":5,"migraine_risk":4,"frizz_risk":1,"updated_at":"2026-07-24T03:36:26.557820+05:30"},{"city":"Port Blair","state":"Andaman and Nicobar Islands","latitude":11.6234,"longitude":92.7265,"temp":26.8,"humidity":83,"rain":0.0,"pressure":1005.6,"uv_index":7.1,"wind_gusts":45.7,"aqi":34,"pm10":9.8,"pm2_5":5.7,"no2":0.1,"co":91.0,"o3":46.0,"so2":0.4,"mosquito_risk":7,"arthritis_risk":5,"migraine_risk":4,"frizz_risk":1,"updated_at":"2026-07-24T03:36:26.557828+05:30"},{"city":"Haridwar","state":"Uttarakhand","latitude":29.9457,"longitude":78.1642,"temp":26.2,"humidity":91,"rain":0.0,"pressure":967.6,"uv_index":6.7,"wind_gusts":38.2,"aqi":67,"pm10":31.2,"pm2_5":30.7,"no2":27.9,"co":245.0,"o3":18.0,"so2":4.2,"mosquito_risk":7,"arthritis_risk":5,"migraine_risk":7,"frizz_risk":1,"updated_at":"2026-07-24T03:36:26.557837+05:30"},{"city":"Rishikesh","state":"Uttarakhand","latitude":30.0869,"longitude":78.2676,"temp":25.3,"humidity":91,"rain":0.0,"pressure":960.4,"uv_index":6.7,"wind_gusts":24.8,"aqi":51,"pm10":10.2,"pm2_5":10.1,"no2":9.0,"co":364.0,"o3":64.0,"so2":2.8,"mosquito_risk":7,"arthritis_risk":5,"migraine_risk":7,"frizz_risk":1,"updated_at":"2026-07-24T03:36:26.557844+05:30"},{"city":"Nainital","state":"Uttarakhand","latitude":29.3919,"longitude":79.4542,"temp":14.9,"humidity":100,"rain":0.0,"pressure":801.0,"uv_index":7.85,"wind_gusts":44.3,"aqi":50,"pm10":8.6,"pm2_5":8.5,"no2":7.2,"co":216.0,"o3":66.0,"so2":1.9,"mosquito_risk":3,"arthritis_risk":10,"migraine_risk":7,"frizz_risk":0,"updated_at":"2026-07-24T03:36:26.557852+05:30"},{"city":"Mussoorie","state":"Uttarakhand","latitude":30.4599,"longitude":78.0664,"temp":15.9,"humidity":100,"rain":0.0,"pressure":798.6,"uv_index":6.4,"wind_gusts":33.5,"aqi":54,"pm10":11.8,"pm2_5":11.7,"no2":30.7,"co":212.0,"o3":17.0,"so2":3.0,"mosquito_risk":3,"arthritis_risk":10,"migraine_risk":7,"frizz_risk":0,"updated_at":"2026-07-24T03:36:26.557860+05:30"},{"city":"Dharamshala","state":"Himachal Pradesh","latitude":32.219,"longitude":76.3234,"temp":20.9,"humidity":84,"rain":0.0,"pressure":864.6,"uv_index":7.05,"wind_gusts":31.3,"aqi":44,"pm10":11.0,"pm2_5":10.9,"no2":17.0,"co":341.0,"o3":26.0,"so2":0.5,"mosquito_risk":3,"arthritis_risk":5,"migraine_risk":7,"frizz_risk":1,"updated_at":"2026-07-24T03:36:26.557868+05:30"},{"city":"Dalhousie","state":"Himachal Pradesh","latitude":32.5387,"longitude":75.971,"temp":17.0,"humidity":90,"rain":0.0,"pressure":800.7,"uv_index":8.4,"wind_gusts":30.2,"aqi":63,"pm10":20.5,"pm2_5":20.0,"no2":22.1,"co":292.0,"o3":61.0,"so2":3.5,"mosquito_risk":3,"arthritis_risk":10,"migraine_risk":7,"frizz_risk":0,"updated_at":"2026-07-24T03:36:26.557876+05:30"},{"city":"Patiala","state":"Punjab","latitude":30.3398,"longitude":76.3869,"temp":27.4,"humidity":84,"rain":0.0,"pressure":971.3,"uv_index":7.5,"wind_gusts":46.1,"aqi":79,"pm10":24.8,"pm2_5":24.6,"no2":20.9,"co":349.0,"o3":49.0,"so2":8.1,"mosquito_risk":7,"arthritis_risk":5,"migraine_risk":7,"frizz_risk":1,"updated_at":"2026-07-24T03:36:26.557883+05:30"},{"city":"Bhatinda","state":"Punjab","latitude":30.211,"longitude":74.9455,"temp":28.2,"humidity":83,"rain":0.0,"pressure":975.9,"uv_index":7.35,"wind_gusts":33.8,"aqi":86,"pm10":44.9,"pm2_5":44.4,"no2":26.3,"co":419.0,"o3":40.0,"so2":7.6,"mosquito_risk":7,"arthritis_risk":5,"migraine_risk":7,"frizz_risk":1,"updated_at":"2026-07-24T03:36:26.557890+05:30"},{"city":"Rohtak","state":"Haryana","latitude":28.8955,"longitude":76.6066,"temp":26.4,"humidity":90,"rain":0.0,"pressure":973.7,"uv_index":6.15,"wind_gusts":40.0,"aqi":87,"pm10":21.2,"pm2_5":21.1,"no2":17.9,"co":368.0,"o3":70.0,"so2":19.1,"mosquito_risk":7,"arthritis_risk":5,"migraine_risk":7,"frizz_risk":1,"updated_at":"2026-07-24T03:36:26.557897+05:30"},{"city":"Panipat","state":"Haryana","latitude":29.3909,"longitude":76.9635,"temp":27.0,"humidity":85,"rain":0.0,"pressure":973.1,"uv_index":6.45,"wind_gusts":43.9,"aqi":77,"pm10":20.4,"pm2_5":20.4,"no2":15.4,"co":304.0,"o3":69.0,"so2":13.4,"mosquito_risk":7,"arthritis_risk":5,"migraine_risk":7,"frizz_risk":1,"updated_at":"2026-07-24T03:36:26.557904+05:30"},{"city":"Mathura","state":"Uttar Pradesh","latitude":27.4924,"longitude":77.6737,"temp":26.0,"humidity":96,"rain":0.0,"pressure":978.0,"uv_index":5.95,"wind_gusts":34.2,"aqi":71,"pm10":16.7,"pm2_5":16.7,"no2":10.1,"co":235.0,"o3":83.0,"so2":5.7,"mosquito_risk":7,"arthritis_risk":5,"migraine_risk":3,"frizz_risk":1,"updated_at":"2026-07-24T03:36:26.557911+05:30"},{"city":"Vrindavan","state":"Uttar Pradesh","latitude":27.5823,"longitude":77.7027,"temp":26.1,"humidity":95,"rain":0.0,"pressure":978.6,"uv_index":5.75,"wind_gusts":33.8,"aqi":71,"pm10":16.7,"pm2_5":16.7,"no2":10.1,"co":238.0,"o3":83.0,"so2":5.7,"mosquito_risk":7,"arthritis_risk":5,"migraine_risk":3,"frizz_risk":1,"updated_at":"2026-07-24T03:36:26.557918+05:30"},{"city":"Ayodhya","state":"Uttar Pradesh","latitude":26.7922,"longitude":82.1998,"temp":25.7,"humidity":96,"rain":0.1,"pressure":989.4,"uv_index":5.8,"wind_gusts":26.6,"aqi":70,"pm10":20.0,"pm2_5":19.9,"no2":9.7,"co":376.0,"o3":78.0,"so2":6.4,"mosquito_risk":10,"arthritis_risk":5,"migraine_risk":3,"frizz_risk":1,"updated_at":"2026-07-24T03:36:26.557925+05:30"},{"city":"Ratlam","state":"Madhya Pradesh","latitude":23.3315,"longitude":75.0367,"temp":23.4,"humidity":99,"rain":0.3,"pressure":944.6,"uv_index":6.45,"wind_gusts":54.7,"aqi":39,"pm10":3.7,"pm2_5":3.5,"no2":9.3,"co":168.0,"o3":30.0,"so2":6.2,"mosquito_risk":6,"arthritis_risk":5,"migraine_risk":7,"frizz_risk":1,"updated_at":"2026-07-24T03:36:26.557931+05:30"},{"city":"Sagar","state":"Madhya Pradesh","latitude":23.8388,"longitude":78.7378,"temp":24.5,"humidity":81,"rain":0.0,"pressure":942.4,"uv_index":8.2,"wind_gusts":41.0,"aqi":30,"pm10":10.6,"pm2_5":9.7,"no2":8.7,"co":142.0,"o3":36.0,"so2":6.2,"mosquito_risk":3,"arthritis_risk":5,"migraine_risk":7,"frizz_risk":1,"updated_at":"2026-07-24T03:36:26.557938+05:30"},{"city":"Satna","state":"Madhya Pradesh","latitude":24.6005,"longitude":80.8322,"temp":24.9,"humidity":87,"rain":0.0,"pressure":964.6,"uv_index":6.8,"wind_gusts":32.0,"aqi":43,"pm10":12.8,"pm2_5":11.0,"no2":9.6,"co":167.0,"o3":40.0,"so2":7.4,"mosquito_risk":3,"arthritis_risk":5,"migraine_risk":7,"frizz_risk":1,"updated_at":"2026-07-24T03:36:26.557945+05:30"},{"city":"Akola","state":"Maharashtra","latitude":20.7002,"longitude":77.0082,"temp":24.3,"humidity":93,"rain":0.0,"pressure":968.4,"uv_index":6.9,"wind_gusts":51.5,"aqi":33,"pm10":7.2,"pm2_5":4.4,"no2":6.4,"co":124.0,"o3":33.0,"so2":5.1,"mosquito_risk":3,"arthritis_risk":5,"migraine_risk":7,"frizz_risk":1,"updated_at":"2026-07-24T03:36:26.557953+05:30"},{"city":"Amravati","state":"Maharashtra","latitude":20.9374,"longitude":77.7796,"temp":24.1,"humidity":90,"rain":0.1,"pressure":961.1,"uv_index":6.25,"wind_gusts":50.8,"aqi":41,"pm10":7.7,"pm2_5":4.6,"no2":6.5,"co":127.0,"o3":32.0,"so2":4.8,"mosquito_risk":6,"arthritis_risk":5,"migraine_risk":7,"frizz_risk":1,"updated_at":"2026-07-24T03:36:26.557961+05:30"},{"city":"Latur","state":"Maharashtra","latitude":18.4088,"longitude":76.5604,"temp":22.8,"humidity":86,"rain":0.0,"pressure":934.6,"uv_index":6.7,"wind_gusts":59.8,"aqi":57,"pm10":4.3,"pm2_5":3.0,"no2":3.4,"co":106.0,"o3":36.0,"so2":1.4,"mosquito_risk":3,"arthritis_risk":5,"migraine_risk":7,"frizz_risk":1,"updated_at":"2026-07-24T03:36:26.557969+05:30"},{"city":"Nanded","state":"Maharashtra","latitude":19.1383,"longitude":77.3091,"temp":24.9,"humidity":80,"rain":0.0,"pressure":963.5,"uv_index":7.35,"wind_gusts":54.0,"aqi":57,"pm10":4.9,"pm2_5":3.1,"no2":4.7,"co":117.0,"o3":34.0,"so2":3.1,"mosquito_risk":3,"arthritis_risk":5,"migraine_risk":7,"frizz_risk":1,"updated_at":"2026-07-24T03:36:26.557975+05:30"},{"city":"Gulbarga","state":"Karnataka","latitude":17.3297,"longitude":76.8343,"temp":24.2,"humidity":78,"rain":0.0,"pressure":955.0,"uv_index":6.4,"wind_gusts":61.6,"aqi":67,"pm10":38.0,"pm2_5":21.0,"no2":4.6,"co":107.0,"o3":47.0,"so2":2.3,"mosquito_risk":3,"arthritis_risk":5,"migraine_risk":7,"frizz_risk":1,"updated_at":"2026-07-24T03:36:26.557982+05:30"},{"city":"Bidar","state":"Karnataka","latitude":17.9104,"longitude":77.5199,"temp":22.5,"humidity":87,"rain":0.0,"pressure":930.9,"uv_index":7.4,"wind_gusts":61.2,"aqi":64,"pm10":24.0,"pm2_5":14.3,"no2":4.5,"co":113.0,"o3":42.0,"so2":2.2,"mosquito_risk":3,"arthritis_risk":5,"migraine_risk":7,"frizz_risk":1,"updated_at":"2026-07-24T03:36:26.557989+05:30"},{"city":"Hospet","state":"Karnataka","latitude":15.2689,"longitude":76.3909,"temp":23.3,"humidity":86,"rain":0.0,"pressure":953.6,"uv_index":8.9,"wind_gusts":65.9,"aqi":55,"pm10":19.6,"pm2_5":9.1,"no2":4.0,"co":110.0,"o3":35.0,"so2":1.6,"mosquito_risk":3,"arthritis_risk":5,"migraine_risk":7,"frizz_risk":1,"updated_at":"2026-07-24T03:36:26.557995+05:30"},{"city":"Tirupur","state":"Tamil Nadu","latitude":11.1085,"longitude":77.3411,"temp":23.8,"humidity":86,"rain":0.0,"pressure":974.2,"uv_index":8.9,"wind_gusts":52.6,"aqi":55,"pm10":16.2,"pm2_5":13.7,"no2":20.0,"co":141.0,"o3":17.0,"so2":5.0,"mosquito_risk":3,"arthritis_risk":5,"migraine_risk":7,"frizz_risk":1,"updated_at":"2026-07-24T03:36:26.558001+05:30"},{"city":"Alappuzha","state":"Kerala","latitude":9.4981,"longitude":76.3388,"temp":25.4,"humidity":97,"rain":0.0,"pressure":1008.8,"uv_index":8.55,"wind_gusts":33.5,"aqi":56,"pm10":13.9,"pm2_5":10.5,"no2":12.0,"co":171.0,"o3":27.0,"so2":5.4,"mosquito_risk":7,"arthritis_risk":0,"migraine_risk":4,"frizz_risk":1,"updated_at":"2026-07-24T03:36:26.558008+05:30"},{"city":"Munnar","state":"Kerala","latitude":10.0889,"longitude":77.0595,"temp":16.0,"humidity":97,"rain":0.0,"pressure":855.6,"uv_index":8.45,"wind_gusts":39.6,"aqi":34,"pm10":6.9,"pm2_5":5.6,"no2":8.0,"co":85.0,"o3":20.0,"so2":1.7,"mosquito_risk":3,"arthritis_risk":10,"migraine_risk":7,"frizz_risk":0,"updated_at":"2026-07-24T03:36:26.558015+05:30"},{"city":"Silchar","state":"Assam","latitude":24.8333,"longitude":92.7789,"temp":25.4,"humidity":97,"rain":0.0,"pressure":1001.3,"uv_index":8.5,"wind_gusts":23.4,"aqi":49,"pm10":6.6,"pm2_5":6.1,"no2":6.9,"co":242.0,"o3":51.0,"so2":3.6,"mosquito_risk":7,"arthritis_risk":5,"migraine_risk":4,"frizz_risk":1,"updated_at":"2026-07-24T03:36:26.558022+05:30"},{"city":"Dibrugarh","state":"Assam","latitude":27.4728,"longitude":94.912,"temp":24.8,"humidity":98,"rain":0.2,"pressure":991.7,"uv_index":7.15,"wind_gusts":22.0,"aqi":45,"pm10":5.7,"pm2_5":5.6,"no2":5.5,"co":186.0,"o3":63.0,"so2":0.9,"mosquito_risk":6,"arthritis_risk":5,"migraine_risk":7,"frizz_risk":1,"updated_at":"2026-07-24T03:36:26.558029+05:30"}]