[{"city":"Delhi","state":"Delhi","latitude":28.6139,"longitude":77.209,"temp":30.9,"humidity":51,"rain":0.0,"pressure":984.5,"uv_index":7.6,"wind_gusts":35.3,"aqi":189,"pm10":330.6,"pm2_5":66.8,"no2":14.1,"co":444.0,"o3":150.0,"so2":32.7,"mosquito_risk":0,"arthritis_risk":5,"migraine_risk":7,"frizz_risk":1,"updated_at":"2026-05-31T10:51:00.069073+05:30"},{"city":"Mumbai","state":"Maharashtra","latitude":19.076,"longitude":72.8777,"temp":31.3,"humidity":69,"rain":0.0,"pressure":1010.0,"uv_index":7.8,"wind_gusts":38.5,"aqi":60,"pm10":31.3,"pm2_5":19.2,"no2":3.7,"co":159.0,"o3":83.0,"so2":5.2,"mosquito_risk":3,"arthritis_risk":0,"migraine_risk":4,"frizz_risk":1,"updated_at":"2026-05-31T10:51:00.069112+05:30"},{"city":"Bangalore","state":"Karnataka","latitude":12.9716,"longitude":77.5946,"temp":28.4,"humidity":61,"rain":0.0,"pressure":914.5,"uv_index":9.25,"wind_gusts":50.8,"aqi":81,"pm10":17.9,"pm2_5":13.5,"no2":4.9,"co":301.0,"o3":119.0,"so2":4.4,"mosquito_risk":7,"arthritis_risk":5,"migraine_risk":7,"frizz_risk":1,"updated_at":"2026-05-31T10:51:00.069127+05:30"},{"city":"Hyderabad","state":"Telangana","latitude":17.385,"longitude":78.4867,"temp":31.3,"humidity":46,"rain":0.0,"pressure":955.2,"uv_index":9.05,"wind_gusts":63.7,"aqi":67,"pm10":41.0,"pm2_5":25.3,"no2":2.9,"co":210.0,"o3":116.0,"so2":7.3,"mosquito_risk":0,"arthritis_risk":5,"migraine_risk":7,"frizz_risk":1,"updated_at":"2026-05-31T10:51:00.069137+05:30"},{"city":"Chennai","state":"Tamil Nadu","latitude":13.0827,"longitude":80.2707,"temp":37.2,"humidity":35,"rain":0.0,"pressure":1007.5,"uv_index":7.9,"wind_gusts":43.9,"aqi":83,"pm10":33.3,"pm2_5":27.2,"no2":9.2,"co":339.0,"o3":121.0,"so2":15.2,"mosquito_risk":0,"arthritis_risk":5,"migraine_risk":7,"frizz_risk":1,"updated_at":"2026-05-31T10:51:00.069145+05:30"},{"city":"Kolkata","state":"West Bengal","latitude":22.5726,"longitude":88.3639,"temp":32.2,"humidity":66,"rain":0.0,"pressure":1006.0,"uv_index":8.85,"wind_gusts":23.0,"aqi":152,"pm10":66.6,"pm2_5":38.4,"no2":2.1,"co":307.0,"o3":145.0,"so2":12.2,"mosquito_risk":3,"arthritis_risk":5,"migraine_risk":4,"frizz_risk":1,"updated_at":"2026-05-31T10:51:00.069153+05:30"},{"city":"Pune","state":"Maharashtra","latitude":18.5204,"longitude":73.8567,"temp":33.0,"humidity":45,"rain":0.0,"pressure":950.3,"uv_index":7.95,"wind_gusts":43.9,"aqi":51,"pm10":25.4,"pm2_5":14.4,"no2":2.2,"co":136.0,"o3":83.0,"so2":5.4,"mosquito_risk":0,"arthritis_risk":5,"migraine_risk":7,"frizz_risk":1,"updated_at":"2026-05-31T10:51:00.069159+05:30"},{"city":"Ahmedabad","state":"Gujarat","latitude":23.0225,"longitude":72.5714,"temp":34.8,"humidity":46,"rain":0.0,"pressure":1002.1,"uv_index":8.1,"wind_gusts":53.3,"aqi":72,"pm10":44.8,"pm2_5":17.4,"no2":1.5,"co":132.0,"o3":71.0,"so2":3.9,"mosquito_risk":0,"arthritis_risk":5,"migraine_risk":4,"frizz_risk":1,"updated_at":"2026-05-31T10:51:00.069166+05:30"},{"city":"Jaipur","state":"Rajasthan","latitude":26.9124,"longitude":75.7873,"temp":32.0,"humidity":36,"rain":0.0,"pressure":961.3,"uv_index":8.15,"wind_gusts":46.4,"aqi":91,"pm10":97.8,"pm2_5":23.9,"no2":2.3,"co":206.0,"o3":116.0,"so2":5.3,"mosquito_risk":0,"arthritis_risk":5,"migraine_risk":7,"frizz_risk":0,"updated_at":"2026-05-31T10:51:00.069176+05:30"},{"city":"Lucknow","state":"Uttar Pradesh","latitude":26.8467,"longitude":80.9462,"temp":32.3,"humidity":50,"rain":0.0,"pressure":994.9,"uv_index":8.15,"wind_gusts":45.0,"aqi":73,"pm10":37.1,"pm2_5":28.2,"no2":2.9,"co":291.0,"o3":172.0,"so2":10.1,"mosquito_risk":0,"arthritis_risk":5,"migraine_risk":7,"frizz_risk":1,"updated_at":"2026-05-31T10:51:00.069183+05:30"},{"city":"Kanpur","state":"Uttar Pradesh","latitude":26.4499,"longitude":80.3319,"temp":32.5,"humidity":50,"rain":0.0,"pressure":993.2,"uv_index":8.1,"wind_gusts":24.1,"aqi":126,"pm10":121.1,"pm2_5":37.7,"no2":3.2,"co":284.0,"o3":173.0,"so2":10.4,"mosquito_risk":0,"arthritis_risk":5,"migraine_risk":7,"frizz_risk":1,"updated_at":"2026-05-31T10:51:00.069189+05:30"},{"city":"Chandigarh","state":"Chandigarh","latitude":30.7333,"longitude":76.7794,"temp":27.3,"humidity":53,"rain":0.0,"pressure":971.1,"uv_index":6.3,"wind_gusts":19.8,"aqi":79,"pm10":42.0,"pm2_5":23.0,"no2":4.7,"co":350.0,"o3":153.0,"so2":8.0,"mosquito_risk":4,"arthritis_risk":5,"migraine_risk":7,"frizz_risk":1,"updated_at":"2026-05-31T10:51:00.069196+05:30"},{"city":"Srinagar","state":"Jammu and Kashmir","latitude":34.0837,"longitude":74.7973,"temp":23.0,"humidity":43,"rain":0.0,"pressure":844.3,"uv_index":8.95,"wind_gusts":23.4,"aqi":113,"pm10":81.5,"pm2_5":35.9,"no2":2.0,"co":337.0,"o3":157.0,"so2":5.7,"mosquito_risk":0,"arthritis_risk":5,"migraine_risk":7,"frizz_risk":0,"updated_at":"2026-05-31T10:51:00.069203+05:30"},{"city":"Jammu","state":"Jammu and Kashmir","latitude":32.7266,"longitude":74.857,"temp":29.6,"humidity":40,"rain":0.0,"pressure":975.2,"uv_index":8.5,"wind_gusts":28.4,"aqi":119,"pm10":74.5,"pm2_5":27.7,"no2":1.9,"co":262.0,"o3":168.0,"so2":3.5,"mosquito_risk":4,"arthritis_risk":5,"migraine_risk":7,"frizz_risk":0,"updated_at":"2026-05-31T10:51:00.069210+05:30"},{"city":"Amritsar","state":"Punjab","latitude":31.634,"longitude":74.8723,"temp":30.1,"humidity":46,"rain":0.0,"pressure":982.9,"uv_index":8.3,"wind_gusts":32.0,"aqi":73,"pm10":145.3,"pm2_5":37.6,"no2":2.5,"co":314.0,"o3":160.0,"so2":8.9,"mosquito_risk":0,"arthritis_risk":5,"migraine_risk":7,"frizz_risk":1,"updated_at":"2026-05-31T10:51:00.069216+05:30"},{"city":"Ludhiana","state":"Punjab","latitude":30.901,"longitude":75.8573,"temp":29.7,"humidity":50,"rain":0.0,"pressure":980.8,"uv_index":7.25,"wind_gusts":34.9,"aqi":81,"pm10":215.6,"pm2_5":47.6,"no2":3.1,"co":371.0,"o3":153.0,"so2":8.9,"mosquito_risk":4,"arthritis_risk":5,"migraine_risk":7,"frizz_risk":1,"updated_at":"2026-05-31T10:51:00.069223+05:30"},{"city":"Jalandhar","state":"Punjab","latitude":31.326,"longitude":75.5762,"temp":30.6,"humidity":40,"rain":0.0,"pressure":981.9,"uv_index":7.2,"wind_gusts":33.5,"aqi":70,"pm10":216.5,"pm2_5":47.5,"no2":2.9,"co":335.0,"o3":162.0,"so2":10.5,"mosquito_risk":0,"arthritis_risk":5,"migraine_risk":7,"frizz_risk":0,"updated_at":"2026-05-31T10:51:00.069229+05:30"},{"city":"Dehradun","state":"Uttarakhand","latitude":30.6284,"longitude":78.0322,"temp":19.1,"humidity":57,"rain":0.0,"pressure":833.8,"uv_index":5.25,"wind_gusts":25.2,"aqi":61,"pm10":31.3,"pm2_5":13.8,"no2":0.2,"co":227.0,"o3":159.0,"so2":2.5,"mosquito_risk":0,"arthritis_risk":5,"migraine_risk":3,"frizz_risk":0,"updated_at":"2026-05-31T10:51:00.069237+05:30"},{"city":"Shimla","state":"Himachal Pradesh","latitude":31.1048,"longitude":77.1734,"temp":16.8,"humidity":54,"rain":0.1,"pressure":787.3,"uv_index":6.25,"wind_gusts":26.6,"aqi":67,"pm10":30.0,"pm2_5":14.1,"no2":1.5,"co":235.0,"o3":149.0,"so2":1.9,"mosquito_risk":3,"arthritis_risk":5,"migraine_risk":7,"frizz_risk":0,"updated_at":"2026-05-31T10:51:00.069250+05:30"},{"city":"Manali","state":"Himachal Pradesh","latitude":32.2396,"longitude":77.1887,"temp":18.7,"humidity":64,"rain":0.0,"pressure":820.5,"uv_index":7.1,"wind_gusts":33.8,"aqi":41,"pm10":15.1,"pm2_5":6.4,"no2":1.9,"co":166.0,"o3":151.0,"so2":0.6,"mosquito_risk":3,"arthritis_risk":5,"migraine_risk":7,"frizz_risk":0,"updated_at":"2026-05-31T10:51:00.069256+05:30"},{"city":"Gurgaon","state":"Haryana","latitude":28.4595,"longitude":77.0266,"temp":31.3,"humidity":49,"rain":0.0,"pressure":982.8,"uv_index":7.7,"wind_gusts":38.2,"aqi":1044,"pm10":1400.7,"pm2_5":175.6,"no2":9.0,"co":373.0,"o3":145.0,"so2":18.3,"mosquito_risk":0,"arthritis_risk":5,"migraine_risk":7,"frizz_risk":1,"updated_at":"2026-05-31T10:51:00.069263+05:30"},{"city":"Noida","state":"Uttar Pradesh","latitude":28.5355,"longitude":77.391,"temp":31.1,"humidity":53,"rain":0.0,"pressure":986.1,"uv_index":7.65,"wind_gusts":37.1,"aqi":1044,"pm10":1400.7,"pm2_5":175.6,"no2":9.0,"co":362.0,"o3":145.0,"so2":18.3,"mosquito_risk":0,"arthritis_risk":5,"migraine_risk":7,"frizz_risk":1,"updated_at":"2026-05-31T10:51:00.069271+05:30"},{"city":"Ghaziabad","state":"Uttar Pradesh","latitude":28.6692,"longitude":77.4538,"temp":31.1,"humidity":52,"rain":0.0,"pressure":984.4,"uv_index":7.6,"wind_gusts":44.6,"aqi":117,"pm10":265.4,"pm2_5":49.2,"no2":4.6,"co":314.0,"o3":147.0,"so2":15.0,"mosquito_risk":0,"arthritis_risk":5,"migraine_risk":7,"frizz_risk":1,"updated_at":"2026-05-31T10:51:00.069277+05:30"},{"city":"Faridabad","state":"Haryana","latitude":28.4089,"longitude":77.3178,"temp":31.0,"humidity":51,"rain":0.0,"pressure":985.3,"uv_index":7.65,"wind_gusts":40.0,"aqi":1044,"pm10":1400.7,"pm2_5":175.6,"no2":9.0,"co":357.0,"o3":145.0,"so2":18.3,"mosquito_risk":0,"arthritis_risk":5,"migraine_risk":7,"frizz_risk":1,"updated_at":"2026-05-31T10:51:00.069283+05:30"},{"city":"Meerut","state":"Uttar Pradesh","latitude":28.9845,"longitude":77.7064,"temp":29.6,"humidity":58,"rain":0.0,"pressure":983.5,"uv_index":7.5,"wind_gusts":31.7,"aqi":117,"pm10":265.4,"pm2_5":49.2,"no2":4.6,"co":330.0,"o3":147.0,"so2":15.0,"mosquito_risk":4,"arthritis_risk":5,"migraine_risk":7,"frizz_risk":1,"updated_at":"2026-05-31T10:51:00.069289+05:30"},{"city":"Agra","state":"Uttar Pradesh","latitude":27.1767,"longitude":78.0081,"temp":32.4,"humidity":47,"rain":0.0,"pressure":989.4,"uv_index":7.9,"wind_gusts":33.8,"aqi":612,"pm10":573.7,"pm2_5":76.6,"no2":3.0,"co":307.0,"o3":150.0,"so2":7.2,"mosquito_risk":0,"arthritis_risk":5,"migraine_risk":7,"frizz_risk":1,"updated_at":"2026-05-31T10:51:00.069295+05:30"},{"city":"Varanasi","state":"Uttar Pradesh","latitude":25.3176,"longitude":82.9739,"temp":32.5,"humidity":52,"rain":0.0,"pressure":998.8,"uv_index":8.7,"wind_gusts":22.7,"aqi":105,"pm10":59.8,"pm2_5":38.6,"no2":3.5,"co":421.0,"o3":176.0,"so2":12.6,"mosquito_risk":0,"arthritis_risk":5,"migraine_risk":7,"frizz_risk":1,"updated_at":"2026-05-31T10:51:00.069301+05:30"},{"city":"Prayagraj","state":"Uttar Pradesh","latitude":25.4358,"longitude":81.8463,"temp":34.0,"humidity":45,"rain":0.0,"pressure":996.9,"uv_index":8.55,"wind_gusts":23.4,"aqi":87,"pm10":49.8,"pm2_5":35.4,"no2":3.7,"co":375.0,"o3":180.0,"so2":13.2,"mosquito_risk":0,"arthritis_risk":5,"migraine_risk":7,"frizz_risk":1,"updated_at":"2026-05-31T10:51:00.069308+05:30"},{"city":"Gorakhpur","state":"Uttar Pradesh","latitude":26.7606,"longitude":83.3732,"temp":31.5,"humidity":57,"rain":0.0,"pressure":998.9,"uv_index":8.55,"wind_gusts":27.7,"aqi":77,"pm10":51.2,"pm2_5":39.3,"no2":2.4,"co":319.0,"o3":175.0,"so2":12.6,"mosquito_risk":0,"arthritis_risk":5,"migraine_risk":7,"frizz_risk":1,"updated_at":"2026-05-31T10:51:00.069339+05:30"},{"city":"Bareilly","state":"Uttar Pradesh","latitude":28.367,"longitude":79.4304,"temp":30.4,"humidity":53,"rain":0.0,"pressure":989.0,"uv_index":7.95,"wind_gusts":29.5,"aqi":92,"pm10":20.7,"pm2_5":15.3,"no2":1.6,"co":311.0,"o3":139.0,"so2":2.3,"mosquito_risk":0,"arthritis_risk":5,"migraine_risk":7,"frizz_risk":1,"updated_at":"2026-05-31T10:51:00.069346+05:30"},{"city":"Aligarh","state":"Uttar Pradesh","latitude":27.8974,"longitude":78.088,"temp":32.0,"humidity":49,"rain":0.0,"pressure":987.2,"uv_index":7.75,"wind_gusts":51.8,"aqi":185,"pm10":472.2,"pm2_5":64.7,"no2":3.7,"co":315.0,"o3":144.0,"so2":10.5,"mosquito_risk":0,"arthritis_risk":5,"migraine_risk":7,"frizz_risk":1,"updated_at":"2026-05-31T10:51:00.069352+05:30"},{"city":"Moradabad","state":"Uttar Pradesh","latitude":28.8386,"longitude":78.7733,"temp":29.5,"humidity":55,"rain":0.0,"pressure":986.0,"uv_index":7.75,"wind_gusts":35.6,"aqi":97,"pm10":30.4,"pm2_5":22.8,"no2":3.6,"co":330.0,"o3":149.0,"so2":9.0,"mosquito_risk":4,"arthritis_risk":5,"migraine_risk":7,"frizz_risk":1,"updated_at":"2026-05-31T10:51:00.069358+05:30"},{"city":"Saharanpur","state":"Uttar Pradesh","latitude":29.9637,"longitude":77.546,"temp":26.6,"humidity":67,"rain":0.0,"pressure":978.2,"uv_index":4.95,"wind_gusts":31.7,"aqi":81,"pm10":48.2,"pm2_5":30.2,"no2":2.5,"co":332.0,"o3":151.0,"so2":10.0,"mosquito_risk":7,"arthritis_risk":5,"migraine_risk":3,"frizz_risk":1,"updated_at":"2026-05-31T10:51:00.069365+05:30"},{"city":"Jhansi","state":"Uttar Pradesh","latitude":25.4484,"longitude":78.5685,"temp":33.2,"humidity":43,"rain":0.0,"pressure":979.5,"uv_index":8.35,"wind_gusts":20.9,"aqi":60,"pm10":22.9,"pm2_5":16.7,"no2":2.8,"co":245.0,"o3":150.0,"so2":12.1,"mosquito_risk":0,"arthritis_risk":5,"migraine_risk":7,"frizz_risk":1,"updated_at":"2026-05-31T10:51:03.301108+05:30"},{"city":"Surat","state":"Gujarat","latitude":21.1702,"longitude":72.8311,"temp":33.4,"humidity":59,"rain":0.0,"pressure":1007.3,"uv_index":7.65,"wind_gusts":50.8,"aqi":78,"pm10":39.8,"pm2_5":24.0,"no2":10.2,"co":265.0,"o3":61.0,"so2":31.6,"mosquito_risk":0,"arthritis_risk":5,"migraine_risk":4,"frizz_risk":1,"updated_at":"2026-05-31T10:51:03.301140+05:30"},{"city":"Vadodara","state":"Gujarat","latitude":22.3072,"longitude":73.1812,"temp":34.2,"humidity":54,"rain":0.0,"pressure":1004.4,"uv_index":8.0,"wind_gusts":43.6,"aqi":75,"pm10":43.2,"pm2_5":19.6,"no2":1.6,"co":137.0,"o3":72.0,"so2":3.1,"mosquito_risk":0,"arthritis_risk":5,"migraine_risk":4,"frizz_risk":1,"updated_at":"2026-05-31T10:51:03.301153+05:30"},{"city":"Rajkot","state":"Gujarat","latitude":22.3039,"longitude":70.8022,"temp":35.0,"humidity":46,"rain":0.0,"pressure":994.0,"uv_index":7.7,"wind_gusts":43.6,"aqi":65,"pm10":47.8,"pm2_5":21.0,"no2":1.2,"co":109.0,"o3":70.0,"so2":3.0,"mosquito_risk":0,"arthritis_risk":5,"migraine_risk":7,"frizz_risk":1,"updated_at":"2026-05-31T10:51:03.301164+05:30"},{"city":"Thane","state":"Maharashtra","latitude":19.2183,"longitude":72.9781,"temp":32.5,"humidity":62,"rain":0.1,"pressure":1009.3,"uv_index":7.8,"wind_gusts":37.1,"aqi":60,"pm10":31.3,"pm2_5":19.2,"no2":3.7,"co":158.0,"o3":83.0,"so2":5.2,"mosquito_risk":6,"arthritis_risk":0,"migraine_risk":4,"frizz_risk":1,"updated_at":"2026-05-31T10:51:03.301174+05:30"},{"city":"Nagpur","state":"Maharashtra","latitude":21.1458,"longitude":79.0882,"temp":37.0,"humidity":30,"rain":0.0,"pressure":973.3,"uv_index":8.85,"wind_gusts":41.4,"aqi":91,"pm10":41.6,"pm2_5":25.2,"no2":9.8,"co":226.0,"o3":131.0,"so2":35.4,"mosquito_risk":0,"arthritis_risk":5,"migraine_risk":10,"frizz_risk":1,"updated_at":"2026-05-31T10:51:03.301183+05:30"},{"city":"Nashik","state":"Maharashtra","latitude":19.9975,"longitude":73.7898,"temp":32.5,"humidity":46,"rain":0.0,"pressure":947.6,"uv_index":8.1,"wind_gusts":47.5,"aqi":57,"pm10":30.4,"pm2_5":14.4,"no2":1.1,"co":121.0,"o3":72.0,"so2":1.3,"mosquito_risk":0,"arthritis_risk":5,"migraine_risk":7,"frizz_risk":1,"updated_at":"2026-05-31T10:51:03.301192+05:30"},{"city":"Aurangabad","state":"Maharashtra","latitude":19.8762,"longitude":75.3433,"temp":32.7,"humidity":44,"rain":0.0,"pressure":946.1,"uv_index":8.9,"wind_gusts":54.7,"aqi":63,"pm10":39.8,"pm2_5":17.2,"no2":1.4,"co":127.0,"o3":80.0,"so2":3.4,"mosquito_risk":0,"arthritis_risk":5,"migraine_risk":7,"frizz_risk":1,"updated_at":"2026-05-31T10:51:03.301201+05:30"},{"city":"Solapur","state":"Maharashtra","latitude":17.6599,"longitude":75.9064,"temp":33.9,"humidity":44,"rain":0.0,"pressure":959.3,"uv_index":8.95,"wind_gusts":59.8,"aqi":60,"pm10":26.8,"pm2_5":14.3,"no2":1.5,"co":128.0,"o3":83.0,"so2":3.3,"mosquito_risk":0,"arthritis_risk":5,"migraine_risk":7,"frizz_risk":1,"updated_at":"2026-05-31T10:51:03.301210+05:30"},{"city":"Kolhapur","state":"Maharashtra","latitude":16.705,"longitude":74.2433,"temp":32.2,"humidity":49,"rain":0.0,"pressure":950.7,"uv_index":8.75,"wind_gusts":44.6,"aqi":39,"pm10":11.3,"pm2_5":7.1,"no2":1.7,"co":130.0,"o3":74.0,"so2":1.8,"mosquito_risk":0,"arthritis_risk":5,"migraine_risk":7,"frizz_risk":1,"updated_at":"2026-05-31T10:51:03.301218+05:30"},{"city":"Goa","state":"Goa","latitude":15.2993,"longitude":74.124,"temp":31.7,"humidity":69,"rain":0.0,"pressure":1000.3,"uv_index":7.25,"wind_gusts":31.7,"aqi":51,"pm10":16.0,"pm2_5":10.1,"no2":0.7,"co":150.0,"o3":64.0,"so2":1.3,"mosquito_risk":3,"arthritis_risk":5,"migraine_risk":4,"frizz_risk":1,"updated_at":"2026-05-31T10:51:03.301226+05:30"},{"city":"Jodhpur","state":"Rajasthan","latitude":26.2389,"longitude":73.0243,"temp":33.8,"humidity":47,"rain":0.0,"pressure":982.8,"uv_index":8.4,"wind_gusts":38.2,"aqi":96,"pm10":186.3,"pm2_5":40.2,"no2":0.9,"co":122.0,"o3":73.0,"so2":1.9,"mosquito_risk":0,"arthritis_risk":5,"migraine_risk":7,"frizz_risk":1,"updated_at":"2026-05-31T10:51:03.301235+05:30"},{"city":"Udaipur","state":"Rajasthan","latitude":24.5854,"longitude":73.7125,"temp":31.9,"humidity":48,"rain":0.0,"pressure":947.4,"uv_index":8.8,"wind_gusts":34.9,"aqi":68,"pm10":49.1,"pm2_5":23.4,"no2":1.5,"co":126.0,"o3":79.0,"so2":5.1,"mosquito_risk":0,"arthritis_risk":5,"migraine_risk":7,"frizz_risk":1,"updated_at":"2026-05-31T10:51:03.301243+05:30"},{"city":"Kota","state":"Rajasthan","latitude":25.2138,"longitude":75.8648,"temp":34.3,"humidity":38,"rain":0.0,"pressure":980.0,"uv_index":8.35,"wind_gusts":32.8,"aqi":63,"pm10":40.6,"pm2_5":19.1,"no2":1.7,"co":151.0,"o3":113.0,"so2":6.7,"mosquito_risk":0,"arthritis_risk":5,"migraine_risk":7,"frizz_risk":1,"updated_at":"2026-05-31T10:51:03.301252+05:30"},{"city":"Bikaner","state":"Rajasthan","latitude":28.0229,"longitude":73.3119,"temp":33.7,"humidity":44,"rain":0.0,"pressure":981.9,"uv_index":8.35,"wind_gusts":24.1,"aqi":60,"pm10":119.7,"pm2_5":30.2,"no2":1.0,"co":163.0,"o3":90.0,"so2":4.0,"mosquito_risk":0,"arthritis_risk":5,"migraine_risk":7,"frizz_risk":1,"updated_at":"2026-05-31T10:51:03.301260+05:30"},{"city":"Ajmer","state":"Rajasthan","latitude":26.4499,"longitude":74.6399,"temp":32.0,"humidity":41,"rain":0.0,"pressure":955.6,"uv_index":8.3,"wind_gusts":41.0,"aqi":53,"pm10":41.8,"pm2_5":18.2,"no2":1.4,"co":135.0,"o3":96.0,"so2":3.5,"mosquito_risk":0,"arthritis_risk":5,"migraine_risk":7,"frizz_risk":1,"updated_at":"2026-05-31T10:51:03.301268+05:30"},{"city":"Gwalior","state":"Madhya Pradesh","latitude":26.2183,"longitude":78.1828,"temp":33.0,"humidity":44,"rain":0.0,"pressure":984.6,"uv_index":8.15,"wind_gusts":22.7,"aqi":83,"pm10":53.0,"pm2_5":26.7,"no2":1.7,"co":243.0,"o3":144.0,"so2":7.4,"mosquito_risk":0,"arthritis_risk":5,"migraine_risk":7,"frizz_risk":1,"updated_at":"2026-05-31T10:51:03.301277+05:30"},{"city":"Indore","state":"Madhya Pradesh","latitude":22.7196,"longitude":75.8577,"temp":33.2,"humidity":41,"rain":0.0,"pressure":949.5,"uv_index":8.55,"wind_gusts":67.7,"aqi":70,"pm10":35.9,"pm2_5":20.4,"no2":1.8,"co":157.0,"o3":81.0,"so2":3.7,"mosquito_risk":0,"arthritis_risk":5,"migraine_risk":7,"frizz_risk":1,"updated_at":"2026-05-31T10:51:03.301285+05:30"},{"city":"Bhopal","state":"Madhya Pradesh","latitude":23.2599,"longitude":77.4126,"temp":34.8,"humidity":30,"rain":0.0,"pressure":954.9,"uv_index":8.6,"wind_gusts":42.1,"aqi":62,"pm10":18.0,"pm2_5":10.0,"no2":1.4,"co":208.0,"o3":124.0,"so2":5.8,"mosquito_risk":0,"arthritis_risk":5,"migraine_risk":7,"frizz_risk":0,"updated_at":"2026-05-31T10:51:03.301294+05:30"},{"city":"Jabalpur","state":"Madhya Pradesh","latitude":23.1815,"longitude":79.9864,"temp":36.0,"humidity":32,"rain":0.0,"pressure":962.0,"uv_index":8.75,"wind_gusts":62.6,"aqi":67,"pm10":34.5,"pm2_5":17.9,"no2":1.2,"co":212.0,"o3":140.0,"so2":5.7,"mosquito_risk":0,"arthritis_risk":5,"migraine_risk":10,"frizz_risk":1,"updated_at":"2026-05-31T10:51:03.301303+05:30"},{"city":"Ujjain","state":"Madhya Pradesh","latitude":23.1765,"longitude":75.7885,"temp":33.3,"humidity":43,"rain":0.0,"pressure":955.1,"uv_index":8.4,"wind_gusts":52.6,"aqi":69,"pm10":36.7,"pm2_5":20.6,"no2":1.6,"co":143.0,"o3":77.0,"so2":4.6,"mosquito_risk":0,"arthritis_risk":5,"migraine_risk":7,"frizz_risk":1,"updated_at":"2026-05-31T10:51:03.301334+05:30"},{"city":"Visakhapatnam","state":"Andhra Pradesh","latitude":17.6868,"longitude":83.2185,"temp":35.2,"humidity":52,"rain":0.0,"pressure":1002.7,"uv_index":9.0,"wind_gusts":39.6,"aqi":102,"pm10":55.4,"pm2_5":48.5,"no2":27.1,"co":751.0,"o3":137.0,"so2":74.1,"mosquito_risk":0,"arthritis_risk":5,"migraine_risk":7,"frizz_risk":1,"updated_at":"2026-05-31T10:51:03.301343+05:30"},{"city":"Vijayawada","state":"Andhra Pradesh","latitude":16.5062,"longitude":80.648,"temp":38.1,"humidity":38,"rain":0.0,"pressure":1001.7,"uv_index":9.05,"wind_gusts":40.7,"aqi":76,"pm10":25.7,"pm2_5":21.5,"no2":3.2,"co":202.0,"o3":131.0,"so2":8.0,"mosquito_risk":0,"arthritis_risk":5,"migraine_risk":7,"frizz_risk":1,"updated_at":"2026-05-31T10:51:03.301349+05:30"},{"city":"Guntur","state":"Andhra Pradesh","latitude":16.3067,"longitude":80.4365,"temp":37.9,"humidity":38,"rain":0.0,"pressure":1003.0,"uv_index":8.95,"wind_gusts":47.9,"aqi":73,"pm10":25.9,"pm2_5":20.1,"no2":2.9,"co":194.0,"o3":126.0,"so2":7.2,"mosquito_risk":0,"arthritis_risk":5,"migraine_risk":7,"frizz_risk":1,"updated_at":"2026-05-31T10:51:03.301355+05:30"},{"city":"Nellore","state":"Andhra Pradesh","latitude":14.4426,"longitude":79.9865,"temp":35.8,"humidity":46,"rain":0.0,"pressure":1005.7,"uv_index":8.25,"wind_gusts":35.3,"aqi":69,"pm10":20.4,"pm2_5":16.6,"no2":3.0,"co":165.0,"o3":122.0,"so2":7.0,"mosquito_risk":0,"arthritis_risk":5,"migraine_risk":7,"frizz_risk":1,"updated_at":"2026-05-31T10:51:03.301363+05:30"},{"city":"Kurnool","state":"Andhra Pradesh","latitude":15.8281,"longitude":78.0373,"temp":34.8,"humidity":43,"rain":0.0,"pressure":978.5,"uv_index":8.95,"wind_gusts":51.8,"aqi":56,"pm10":29.5,"pm2_5":17.4,"no2":2.8,"co":151.0,"o3":97.0,"so2":8.3,"mosquito_risk":0,"arthritis_risk":5,"migraine_risk":7,"frizz_risk":1,"updated_at":"2026-05-31T10:51:03.301370+05:30"},{"city":"Kakinada","state":"Andhra Pradesh","latitude":16.9891,"longitude":82.2475,"temp":36.2,"humidity":50,"rain":0.0,"pressure":1006.1,"uv_index":8.85,"wind_gusts":36.0,"aqi":79,"pm10":30.7,"pm2_5":24.6,"no2":2.7,"co":312.0,"o3":132.0,"so2":5.1,"mosquito_risk":0,"arthritis_risk":5,"migraine_risk":7,"frizz_risk":1,"updated_at":"2026-05-31T10:51:03.301376+05:30"},{"city":"Tirupati","state":"Andhra Pradesh","latitude":13.6288,"longitude":79.4192,"temp":35.7,"humidity":41,"rain":0.0,"pressure":991.7,"uv_index":8.95,"wind_gusts":49.3,"aqi":70,"pm10":23.5,"pm2_5":17.3,"no2":2.1,"co":163.0,"o3":123.0,"so2":2.7,"mosquito_risk":0,"arthritis_risk":5,"migraine_risk":10,"frizz_risk":1,"updated_at":"2026-05-31T10:51:03.301383+05:30"},{"city":"Warangal","state":"Telangana","latitude":17.9689,"longitude":79.5941,"temp":35.0,"humidity":39,"rain":0.0,"pressure":979.1,"uv_index":9.0,"wind_gusts":54.7,"aqi":91,"pm10":44.0,"pm2_5":26.4,"no2":3.0,"co":181.0,"o3":123.0,"so2":8.0,"mosquito_risk":0,"arthritis_risk":5,"migraine_risk":7,"frizz_risk":1,"updated_at":"2026-05-31T10:51:03.301389+05:30"},{"city":"Nizamabad","state":"Telangana","latitude":18.6725,"longitude":78.0941,"temp":33.5,"humidity":44,"rain":0.0,"pressure":966.0,"uv_index":9.0,"wind_gusts":53.3,"aqi":85,"pm10":52.6,"pm2_5":23.9,"no2":1.2,"co":158.0,"o3":92.0,"so2":3.1,"mosquito_risk":0,"arthritis_risk":5,"migraine_risk":7,"frizz_risk":1,"updated_at":"2026-05-31T10:51:03.301395+05:30"},{"city":"Mysore","state":"Karnataka","latitude":12.2958,"longitude":76.6396,"temp":26.9,"humidity":70,"rain":0.0,"pressure":931.0,"uv_index":9.15,"wind_gusts":45.0,"aqi":52,"pm10":12.9,"pm2_5":8.6,"no2":2.1,"co":147.0,"o3":95.0,"so2":1.7,"mosquito_risk":7,"arthritis_risk":5,"migraine_risk":7,"frizz_risk":1,"updated_at":"2026-05-31T10:51:03.301401+05:30"},{"city":"Mangalore","state":"Karnataka","latitude":12.9141,"longitude":74.856,"temp":30.6,"humidity":70,"rain":0.0,"pressure":1009.1,"uv_index":8.6,"wind_gusts":34.2,"aqi":41,"pm10":10.8,"pm2_5":7.6,"no2":2.0,"co":166.0,"o3":85.0,"so2":2.6,"mosquito_risk":3,"arthritis_risk":0,"migraine_risk":4,"frizz_risk":1,"updated_at":"2026-05-31T10:51:03.301407+05:30"},{"city":"Hubli-Dharwad","state":"Karnataka","latitude":15.3647,"longitude":75.124,"temp":32.0,"humidity":51,"rain":0.0,"pressure":943.9,"uv_index":8.9,"wind_gusts":43.9,"aqi":38,"pm10":12.0,"pm2_5":7.3,"no2":1.3,"co":137.0,"o3":75.0,"so2":1.0,"mosquito_risk":0,"arthritis_risk":5,"migraine_risk":7,"frizz_risk":1,"updated_at":"2026-05-31T10:51:03.301413+05:30"},{"city":"Belgaum","state":"Karnataka","latitude":15.8497,"longitude":74.4977,"temp":30.1,"humidity":54,"rain":0.0,"pressure":929.2,"uv_index":7.3,"wind_gusts":42.1,"aqi":24,"pm10":12.1,"pm2_5":7.1,"no2":1.4,"co":123.0,"o3":74.0,"so2":1.6,"mosquito_risk":0,"arthritis_risk":5,"migraine_risk":7,"frizz_risk":1,"updated_at":"2026-05-31T10:51:06.534404+05:30"},{"city":"Coimbatore","state":"Tamil Nadu","latitude":11.0168,"longitude":76.9558,"temp":32.6,"humidity":51,"rain":0.0,"pressure":963.7,"uv_index":8.1,"wind_gusts":46.8,"aqi":30,"pm10":13.1,"pm2_5":7.5,"no2":1.5,"co":132.0,"o3":91.0,"so2":2.1,"mosquito_risk":0,"arthritis_risk":5,"migraine_risk":7,"frizz_risk":1,"updated_at":"2026-05-31T10:51:06.534437+05:30"},{"city":"Madurai","state":"Tamil Nadu","latitude":9.9252,"longitude":78.1198,"temp":35.9,"humidity":41,"rain":0.0,"pressure":994.0,"uv_index":8.75,"wind_gusts":27.0,"aqi":73,"pm10":25.7,"pm2_5":16.6,"no2":5.1,"co":177.0,"o3":137.0,"so2":4.9,"mosquito_risk":0,"arthritis_risk":5,"migraine_risk":10,"frizz_risk":1,"updated_at":"2026-05-31T10:51:06.534447+05:30"},{"city":"Trichy","state":"Tamil Nadu","latitude":10.7905,"longitude":78.7047,"temp":34.8,"humidity":49,"rain":0.0,"pressure":1000.7,"uv_index":8.85,"wind_gusts":41.4,"aqi":52,"pm10":10.6,"pm2_5":7.8,"no2":2.2,"co":151.0,"o3":97.0,"so2":3.3,"mosquito_risk":0,"arthritis_risk":5,"migraine_risk":4,"frizz_risk":1,"updated_at":"2026-05-31T10:51:06.534456+05:30"},{"city":"Salem","state":"Tamil Nadu","latitude":11.6643,"longitude":78.146,"temp":34.7,"humidity":42,"rain":0.0,"pressure":978.9,"uv_index":8.75,"wind_gusts":35.6,"aqi":70,"pm10":25.8,"pm2_5":19.3,"no2":5.0,"co":193.0,"o3":145.0,"so2":13.8,"mosquito_risk":0,"arthritis_risk":5,"migraine_risk":7,"frizz_risk":1,"updated_at":"2026-05-31T10:51:06.534463+05:30"},{"city":"Tirunelveli","state":"Tamil Nadu","latitude":8.7139,"longitude":77.7567,"temp":36.3,"humidity":40,"rain":0.0,"pressure":1004.2,"uv_index":8.75,"wind_gusts":32.8,"aqi":22,"pm10":6.0,"pm2_5":3.9,"no2":1.3,"co":132.0,"o3":73.0,"so2":1.1,"mosquito_risk":0,"arthritis_risk":5,"migraine_risk":7,"frizz_risk":1,"updated_at":"2026-05-31T10:51:06.534470+05:30"},{"city":"Vellore","state":"Tamil Nadu","latitude":12.9165,"longitude":79.1325,"temp":34.8,"humidity":43,"rain":0.0,"pressure":985.4,"uv_index":8.7,"wind_gusts":35.3,"aqi":96,"pm10":31.7,"pm2_5":24.4,"no2":4.1,"co":223.0,"o3":142.0,"so2":5.2,"mosquito_risk":0,"arthritis_risk":5,"migraine_risk":7,"frizz_risk":1,"updated_at":"2026-05-31T10:51:06.534477+05:30"},{"city":"Erode","state":"Tamil Nadu","latitude":11.341,"longitude":77.7172,"temp":35.0,"humidity":43,"rain":0.0,"pressure":990.3,"uv_index":8.45,"wind_gusts":53.6,"aqi":51,"pm10":15.3,"pm2_5":10.5,"no2":2.7,"co":187.0,"o3":111.0,"so2":2.8,"mosquito_risk":0,"arthritis_risk":5,"migraine_risk":7,"frizz_risk":1,"updated_at":"2026-05-31T10:51:06.534484+05:30"},{"city":"Kochi","state":"Kerala","latitude":9.9312,"longitude":76.2673,"temp":29.2,"humidity":77,"rain":0.0,"pressure":1011.4,"uv_index":8.35,"wind_gusts":35.6,"aqi":61,"pm10":13.0,"pm2_5":9.8,"no2":3.1,"co":144.0,"o3":87.0,"so2":4.1,"mosquito_risk":7,"arthritis_risk":0,"migraine_risk":4,"frizz_risk":1,"updated_at":"2026-05-31T10:51:06.534491+05:30"},{"city":"Thiruvananthapuram","state":"Kerala","latitude":8.5241,"longitude":76.9366,"temp":28.5,"humidity":79,"rain":0.1,"pressure":1010.8,"uv_index":8.0,"wind_gusts":39.6,"aqi":27,"pm10":7.9,"pm2_5":4.5,"no2":1.1,"co":115.0,"o3":66.0,"so2":0.6,"mosquito_risk":10,"arthritis_risk":0,"migraine_risk":4,"frizz_risk":1,"updated_at":"2026-05-31T10:51:06.534497+05:30"},{"city":"Kozhikode","state":"Kerala","latitude":11.2588,"longitude":75.7804,"temp":30.7,"humidity":70,"rain":0.0,"pressure":1010.4,"uv_index":7.45,"wind_gusts":38.5,"aqi":28,"pm10":6.5,"pm2_5":4.0,"no2":0.8,"co":163.0,"o3":66.0,"so2":0.9,"mosquito_risk":3,"arthritis_risk":0,"migraine_risk":4,"frizz_risk":1,"updated_at":"2026-05-31T10:51:06.534504+05:30"},{"city":"Thrissur","state":"Kerala","latitude":10.5276,"longitude":76.2144,"temp":30.0,"humidity":74,"rain":0.0,"pressure":1009.6,"uv_index":7.85,"wind_gusts":32.0,"aqi":55,"pm10":10.0,"pm2_5":7.8,"no2":3.0,"co":173.0,"o3":81.0,"so2":4.1,"mosquito_risk":7,"arthritis_risk":0,"migraine_risk":4,"frizz_risk":1,"updated_at":"2026-05-31T10:51:06.534512+05:30"},{"city":"Kannur","state":"Kerala","latitude":11.8745,"longitude":75.3704,"temp":29.9,"humidity":76,"rain":0.0,"pressure":1009.7,"uv_index":8.65,"wind_gusts":36.0,"aqi":38,"pm10":8.6,"pm2_5":6.2,"no2":1.5,"co":156.0,"o3":75.0,"so2":1.9,"mosquito_risk":7,"arthritis_risk":0,"migraine_risk":4,"frizz_risk":1,"updated_at":"2026-05-31T10:51:06.534518+05:30"},{"city":"Patna","state":"Bihar","latitude":25.5941,"longitude":85.1376,"temp":29.2,"humidity":73,"rain":0.0,"pressure":1001.9,"uv_index":8.6,"wind_gusts":33.5,"aqi":151,"pm10":83.1,"pm2_5":59.1,"no2":4.2,"co":394.0,"o3":200.0,"so2":20.0,"mosquito_risk":7,"arthritis_risk":5,"migraine_risk":4,"frizz_risk":1,"updated_at":"2026-05-31T10:51:06.534525+05:30"},{"city":"Gaya","state":"Bihar","latitude":24.7914,"longitude":85.0002,"temp":30.6,"humidity":64,"rain":0.0,"pressure":995.1,"uv_index":8.85,"wind_gusts":20.2,"aqi":152,"pm10":75.9,"pm2_5":56.5,"no2":3.1,"co":350.0,"o3":191.0,"so2":29.1,"mosquito_risk":3,"arthritis_risk":5,"migraine_risk":7,"frizz_risk":1,"updated_at":"2026-05-31T10:51:06.534532+05:30"},{"city":"Muzaffarpur","state":"Bihar","latitude":26.1209,"longitude":85.3647,"temp":30.2,"humidity":69,"rain":0.0,"pressure":1001.9,"uv_index":8.8,"wind_gusts":33.5,"aqi":135,"pm10":78.7,"pm2_5":59.4,"no2":4.1,"co":377.0,"o3":196.0,"so2":20.9,"mosquito_risk":3,"arthritis_risk":5,"migraine_risk":4,"frizz_risk":1,"updated_at":"2026-05-31T10:51:06.534538+05:30"},{"city":"Bhagalpur","state":"Bihar","latitude":25.2425,"longitude":87.0117,"temp":32.2,"humidity":63,"rain":0.0,"pressure":1002.2,"uv_index":8.75,"wind_gusts":25.2,"aqi":156,"pm10":97.3,"pm2_5":63.3,"no2":4.1,"co":342.0,"o3":204.0,"so2":37.0,"mosquito_risk":3,"arthritis_risk":5,"migraine_risk":4,"frizz_risk":1,"updated_at":"2026-05-31T10:51:06.534545+05:30"},{"city":"Ranchi","state":"Jharkhand","latitude":23.3441,"longitude":85.3096,"temp":29.5,"humidity":57,"rain":0.0,"pressure":939.4,"uv_index":9.25,"wind_gusts":20.9,"aqi":134,"pm10":52.4,"pm2_5":33.5,"no2":0.7,"co":234.0,"o3":142.0,"so2":8.3,"mosquito_risk":4,"arthritis_risk":5,"migraine_risk":7,"frizz_risk":1,"updated_at":"2026-05-31T10:51:06.534551+05:30"},{"city":"Jamshedpur","state":"Jharkhand","latitude":22.8046,"longitude":86.2029,"temp":31.2,"humidity":61,"rain":0.0,"pressure":991.7,"uv_index":9.05,"wind_gusts":36.7,"aqi":118,"pm10":56.5,"pm2_5":36.1,"no2":5.3,"co":386.0,"o3":145.0,"so2":26.1,"mosquito_risk":3,"arthritis_risk":5,"migraine_risk":7,"frizz_risk":1,"updated_at":"2026-05-31T10:51:06.534557+05:30"},{"city":"Dhanbad","state":"Jharkhand","latitude":23.7957,"longitude":86.4304,"temp":30.8,"humidity":64,"rain":0.0,"pressure":980.9,"uv_index":8.85,"wind_gusts":28.1,"aqi":164,"pm10":75.7,"pm2_5":56.1,"no2":22.5,"co":423.0,"o3":149.0,"so2":82.4,"mosquito_risk":3,"arthritis_risk":5,"migraine_risk":7,"frizz_risk":1,"updated_at":"2026-05-31T10:51:06.534564+05:30"},{"city":"Bokaro","state":"Jharkhand","latitude":23.6693,"longitude":86.1511,"temp":30.8,"humidity":65,"rain":0.0,"pressure":984.8,"uv_index":9.05,"wind_gusts":23.8,"aqi":172,"pm10":80.6,"pm2_5":58.1,"no2":23.2,"co":608.0,"o3":150.0,"so2":91.4,"mosquito_risk":3,"arthritis_risk":5,"migraine_risk":7,"frizz_risk":1,"updated_at":"2026-05-31T10:51:06.534570+05:30"},{"city":"Bhubaneswar","state":"Odisha","latitude":20.2961,"longitude":85.8245,"temp":33.0,"humidity":63,"rain":0.0,"pressure":1002.3,"uv_index":9.1,"wind_gusts":29.5,"aqi":108,"pm10":35.0,"pm2_5":26.1,"no2":2.3,"co":220.0,"o3":132.0,"so2":7.6,"mosquito_risk":3,"arthritis_risk":5,"migraine_risk":4,"frizz_risk":1,"updated_at":"2026-05-31T10:51:06.534577+05:30"},{"city":"Cuttack","state":"Odisha","latitude":20.4625,"longitude":85.8828,"temp":32.8,"humidity":64,"rain":0.0,"pressure":1004.1,"uv_index":9.15,"wind_gusts":32.8,"aqi":108,"pm10":35.0,"pm2_5":26.1,"no2":2.3,"co":233.0,"o3":132.0,"so2":7.6,"mosquito_risk":3,"arthritis_risk":5,"migraine_risk":4,"frizz_risk":1,"updated_at":"2026-05-31T10:51:06.534583+05:30"},{"city":"Rourkela","state":"Odisha","latitude":22.2604,"longitude":84.8536,"temp":31.1,"humidity":63,"rain":0.0,"pressure":985.6,"uv_index":8.7,"wind_gusts":37.1,"aqi":141,"pm10":67.8,"pm2_5":44.9,"no2":4.5,"co":269.0,"o3":161.0,"so2":28.3,"mosquito_risk":3,"arthritis_risk":5,"migraine_risk":7,"frizz_risk":1,"updated_at":"2026-05-31T10:51:06.534590+05:30"},{"city":"Raipur","state":"Chhattisgarh","latitude":21.2514,"longitude":81.6296,"temp":35.2,"humidity":42,"rain":0.0,"pressure":975.3,"uv_index":9.0,"wind_gusts":53.6,"aqi":127,"pm10":66.8,"pm2_5":44.6,"no2":11.5,"co":251.0,"o3":158.0,"so2":39.7,"mosquito_risk":0,"arthritis_risk":5,"migraine_risk":10,"frizz_risk":1,"updated_at":"2026-05-31T10:51:06.534596+05:30"},{"city":"Bhilai","state":"Chhattisgarh","latitude":21.1938,"longitude":81.3509,"temp":34.5,"humidity":45,"rain":0.0,"pressure":975.7,"uv_index":9.0,"wind_gusts":55.4,"aqi":133,"pm10":76.6,"pm2_5":53.6,"no2":21.0,"co":287.0,"o3":151.0,"so2":70.8,"mosquito_risk":0,"arthritis_risk":5,"migraine_risk":7,"frizz_risk":1,"updated_at":"2026-05-31T10:51:06.534603+05:30"},{"city":"Guwahati","state":"Assam","latitude":26.1158,"longitude":91.7086,"temp":31.1,"humidity":68,"rain":0.0,"pressure":1001.9,"uv_index":8.75,"wind_gusts":29.9,"aqi":64,"pm10":39.0,"pm2_5":21.4,"no2":0.8,"co":311.0,"o3":130.0,"so2":2.8,"mosquito_risk":3,"arthritis_risk":5,"migraine_risk":4,"frizz_risk":1,"updated_at":"2026-05-31T10:51:06.534610+05:30"},{"city":"Agartala","state":"Tripura","latitude":23.8315,"longitude":91.2868,"temp":32.7,"humidity":59,"rain":0.0,"pressure":1006.1,"uv_index":8.85,"wind_gusts":23.0,"aqi":157,"pm10":55.2,"pm2_5":34.2,"no2":3.4,"co":339.0,"o3":184.0,"so2":7.4,"mosquito_risk":0,"arthritis_risk":5,"migraine_risk":4,"frizz_risk":1,"updated_at":"2026-05-31T10:51:06.534616+05:30"},{"city":"Shillong","state":"Meghalaya","latitude":25.5788,"longitude":91.8933,"temp":23.1,"humidity":72,"rain":0.0,"pressure":859.8,"uv_index":7.95,"wind_gusts":22.7,"aqi":65,"pm10":45.4,"pm2_5":20.7,"no2":0.6,"co":222.0,"o3":119.0,"so2":2.4,"mosquito_risk":3,"arthritis_risk":5,"migraine_risk":7,"frizz_risk":1,"updated_at":"2026-05-31T10:51:06.534623+05:30"},{"city":"Imphal","state":"Manipur","latitude":24.817,"longitude":93.9368,"temp":24.7,"humidity":78,"rain":0.0,"pressure":924.7,"uv_index":8.55,"wind_gusts":24.5,"aqi":79,"pm10":11.8,"pm2_5":8.1,"no2":1.2,"co":193.0,"o3":73.0,"so2":1.2,"mosquito_risk":3,"arthritis_risk":5,"migraine_risk":7,"frizz_risk":1,"updated_at":"2026-05-31T10:51:06.534629+05:30"},{"city":"Aizawl","state":"Mizoram","latitude":23.7271,"longitude":92.7176,"temp":25.0,"humidity":74,"rain":0.0,"pressure":893.8,"uv_index":7.8,"wind_gusts":21.6,"aqi":50,"pm10":19.5,"pm2_5":9.3,"no2":0.5,"co":211.0,"o3":82.0,"so2":0.5,"mosquito_risk":7,"arthritis_risk":5,"migraine_risk":7,"frizz_risk":1,"updated_at":"2026-05-31T10:51:06.534636+05:30"},{"city":"Kohima","state":"Nagaland","latitude":25.6701,"longitude":94.1077,"temp":20.9,"humidity":96,"rain":0.0,"pressure":857.1,"uv_index":3.7,"wind_gusts":18.7,"aqi":58,"pm10":20.3,"pm2_5":12.3,"no2":0.7,"co":197.0,"o3":89.0,"so2":0.9,"mosquito_risk":3,"arthritis_risk":5,"migraine_risk":3,"frizz_risk":1,"updated_at":"2026-05-31T10:51:06.534642+05:30"},{"city":"Gangtok","state":"Sikkim","latitude":27.3314,"longitude":88.6138,"temp":24.8,"humidity":45,"rain":0.0,"pressure":841.9,"uv_index":9.15,"wind_gusts":42.1,"aqi":66,"pm10":31.8,"pm2_5":16.9,"no2":0.3,"co":190.0,"o3":126.0,"so2":1.5,"mosquito_risk":0,"arthritis_risk":5,"migraine_risk":7,"frizz_risk":0,"updated_at":"2026-05-31T10:51:06.534649+05:30"},{"city":"Siliguri","state":"West Bengal","latitude":26.7271,"longitude":88.3953,"temp":31.0,"humidity":66,"rain":0.1,"pressure":994.0,"uv_index":8.7,"wind_gusts":17.6,"aqi":134,"pm10":67.5,"pm2_5":38.0,"no2":1.1,"co":357.0,"o3":166.0,"so2":4.7,"mosquito_risk":6,"arthritis_risk":5,"migraine_risk":7,"frizz_risk":1,"updated_at":"2026-05-31T10:51:09.761745+05:30"},{"city":"Durgapur","state":"West Bengal","latitude":23.5204,"longitude":87.3119,"temp":31.8,"humidity":67,"rain":0.0,"pressure":995.8,"uv_index":8.95,"wind_gusts":17.6,"aqi":160,"pm10":68.0,"pm2_5":52.2,"no2":17.9,"co":276.0,"o3":157.0,"so2":68.0,"mosquito_risk":3,"arthritis_risk":5,"migraine_risk":7,"frizz_risk":1,"updated_at":"2026-05-31T10:51:09.761774+05:30"},{"city":"Asansol","state":"West Bengal","latitude":23.6739,"longitude":86.9524,"temp":31.9,"humidity":64,"rain":0.0,"pressure":994.5,"uv_index":8.9,"wind_gusts":24.5,"aqi":156,"pm10":67.3,"pm2_5":50.2,"no2":15.9,"co":480.0,"o3":151.0,"so2":59.9,"mosquito_risk":3,"arthritis_risk":5,"migraine_risk":7,"frizz_risk":1,"updated_at":"2026-05-31T10:51:09.761784+05:30"},{"city":"Pondicherry","state":"Puducherry","latitude":11.9139,"longitude":79.8145,"temp":33.8,"humidity":57,"rain":0.0,"pressure":1008.8,"uv_index":8.75,"wind_gusts":38.5,"aqi":77,"pm10":25.8,"pm2_5":21.7,"no2":6.4,"co":257.0,"o3":119.0,"so2":10.6,"mosquito_risk":0,"arthritis_risk":0,"migraine_risk":4,"frizz_risk":1,"updated_at":"2026-05-31T10:51:09.761793+05:30"},{"city":"Port Blair","state":"Andaman and Nicobar Islands","latitude":11.6234,"longitude":92.7265,"temp":30.2,"humidity":74,"rain":0.1,"pressure":1007.8,"uv_index":8.1,"wind_gusts":39.2,"aqi":35,"pm10":8.6,"pm2_5":5.3,"no2":0.2,"co":121.0,"o3":79.0,"so2":0.4,"mosquito_risk":6,"arthritis_risk":5,"migraine_risk":4,"frizz_risk":1,"updated_at":"2026-05-31T10:51:09.761801+05:30"},{"city":"Haridwar","state":"Uttarakhand","latitude":29.9457,"longitude":78.1642,"temp":28.5,"humidity":57,"rain":0.0,"pressure":976.8,"uv_index":4.4,"wind_gusts":23.0,"aqi":71,"pm10":32.9,"pm2_5":22.8,"no2":1.6,"co":264.0,"o3":156.0,"so2":7.8,"mosquito_risk":4,"arthritis_risk":5,"migraine_risk":3,"frizz_risk":1,"updated_at":"2026-05-31T10:51:09.761808+05:30"},{"city":"Rishikesh","state":"Uttarakhand","latitude":30.0869,"longitude":78.2676,"temp":28.6,"humidity":55,"rain":0.0,"pressure":969.4,"uv_index":5.7,"wind_gusts":26.6,"aqi":65,"pm10":29.6,"pm2_5":17.6,"no2":0.9,"co":276.0,"o3":153.0,"so2":4.6,"mosquito_risk":4,"arthritis_risk":5,"migraine_risk":3,"frizz_risk":1,"updated_at":"2026-05-31T10:51:09.761816+05:30"},{"city":"Nainital","state":"Uttarakhand","latitude":29.3919,"longitude":79.4542,"temp":18.3,"humidity":61,"rain":0.0,"pressure":809.1,"uv_index":6.75,"wind_gusts":25.2,"aqi":61,"pm10":15.8,"pm2_5":8.7,"no2":1.0,"co":244.0,"o3":137.0,"so2":1.4,"mosquito_risk":3,"arthritis_risk":5,"migraine_risk":7,"frizz_risk":0,"updated_at":"2026-05-31T10:51:09.761823+05:30"},{"city":"Mussoorie","state":"Uttarakhand","latitude":30.4599,"longitude":78.0664,"temp":16.4,"humidity":65,"rain":0.0,"pressure":805.8,"uv_index":5.25,"wind_gusts":29.5,"aqi":59,"pm10":37.7,"pm2_5":18.2,"no2":0.3,"co":255.0,"o3":166.0,"so2":4.7,"mosquito_risk":3,"arthritis_risk":5,"migraine_risk":3,"frizz_risk":0,"updated_at":"2026-05-31T10:51:09.761831+05:30"},{"city":"Dharamshala","state":"Himachal Pradesh","latitude":32.219,"longitude":76.3234,"temp":21.3,"humidity":61,"rain":0.0,"pressure":871.7,"uv_index":6.85,"wind_gusts":34.2,"aqi":38,"pm10":25.4,"pm2_5":10.0,"no2":0.3,"co":208.0,"o3":140.0,"so2":0.7,"mosquito_risk":3,"arthritis_risk":5,"migraine_risk":7,"frizz_risk":0,"updated_at":"2026-05-31T10:51:09.761838+05:30"},{"city":"Dalhousie","state":"Himachal Pradesh","latitude":32.5387,"longitude":75.971,"temp":18.0,"humidity":65,"rain":0.0,"pressure":807.5,"uv_index":7.85,"wind_gusts":35.3,"aqi":67,"pm10":57.6,"pm2_5":19.2,"no2":0.9,"co":227.0,"o3":162.0,"so2":2.5,"mosquito_risk":3,"arthritis_risk":5,"migraine_risk":7,"frizz_risk":0,"updated_at":"2026-05-31T10:51:09.761846+05:30"},{"city":"Patiala","state":"Punjab","latitude":30.3398,"longitude":76.3869,"temp":29.6,"humidity":54,"rain":0.0,"pressure":980.2,"uv_index":7.5,"wind_gusts":32.4,"aqi":180,"pm10":111.3,"pm2_5":33.1,"no2":4.3,"co":320.0,"o3":142.0,"so2":9.8,"mosquito_risk":4,"arthritis_risk":5,"migraine_risk":7,"frizz_risk":1,"updated_at":"2026-05-31T10:51:09.761853+05:30"},{"city":"Bhatinda","state":"Punjab","latitude":30.211,"longitude":74.9455,"temp":30.4,"humidity":50,"rain":0.0,"pressure":985.1,"uv_index":8.2,"wind_gusts":29.2,"aqi":384,"pm10":453.6,"pm2_5":88.7,"no2":4.7,"co":293.0,"o3":161.0,"so2":20.9,"mosquito_risk":0,"arthritis_risk":5,"migraine_risk":7,"frizz_risk":1,"updated_at":"2026-05-31T10:51:09.761860+05:30"},{"city":"Rohtak","state":"Haryana","latitude":28.8955,"longitude":76.6066,"temp":31.0,"humidity":49,"rain":0.0,"pressure":983.2,"uv_index":7.6,"wind_gusts":38.2,"aqi":558,"pm10":360.4,"pm2_5":75.0,"no2":11.8,"co":358.0,"o3":145.0,"so2":24.6,"mosquito_risk":0,"arthritis_risk":5,"migraine_risk":7,"frizz_risk":1,"updated_at":"2026-05-31T10:51:09.761867+05:30"},{"city":"Panipat","state":"Haryana","latitude":29.3909,"longitude":76.9635,"temp":29.4,"humidity":58,"rain":0.0,"pressure":982.4,"uv_index":7.45,"wind_gusts":45.0,"aqi":889,"pm10":196.0,"pm2_5":54.6,"no2":11.6,"co":350.0,"o3":127.0,"so2":22.7,"mosquito_risk":4,"arthritis_risk":5,"migraine_risk":7,"frizz_risk":1,"updated_at":"2026-05-31T10:51:09.761874+05:30"},{"city":"Mathura","state":"Uttar Pradesh","latitude":27.4924,"longitude":77.6737,"temp":31.9,"humidity":50,"rain":0.0,"pressure":988.4,"uv_index":7.85,"wind_gusts":42.5,"aqi":608,"pm10":586.7,"pm2_5":76.4,"no2":2.9,"co":329.0,"o3":143.0,"so2":5.0,"mosquito_risk":0,"arthritis_risk":5,"migraine_risk":7,"frizz_risk":1,"updated_at":"2026-05-31T10:51:09.761881+05:30"},{"city":"Vrindavan","state":"Uttar Pradesh","latitude":27.5823,"longitude":77.7027,"temp":31.8,"humidity":50,"rain":0.0,"pressure":988.9,"uv_index":7.85,"wind_gusts":44.6,"aqi":608,"pm10":586.7,"pm2_5":76.4,"no2":2.9,"co":327.0,"o3":143.0,"so2":5.0,"mosquito_risk":0,"arthritis_risk":5,"migraine_risk":7,"frizz_risk":1,"updated_at":"2026-05-31T10:51:09.761888+05:30"},{"city":"Ayodhya","state":"Uttar Pradesh","latitude":26.7922,"longitude":82.1998,"temp":31.5,"humidity":57,"rain":0.0,"pressure":997.2,"uv_index":8.25,"wind_gusts":27.4,"aqi":74,"pm10":39.6,"pm2_5":30.4,"no2":2.7,"co":298.0,"o3":169.0,"so2":9.4,"mosquito_risk":0,"arthritis_risk":5,"migraine_risk":7,"frizz_risk":1,"updated_at":"2026-05-31T10:51:09.761895+05:30"},{"city":"Ratlam","state":"Madhya Pradesh","latitude":23.3315,"longitude":75.0367,"temp":32.8,"humidity":47,"rain":0.0,"pressure":956.2,"uv_index":8.4,"wind_gusts":47.2,"aqi":69,"pm10":40.4,"pm2_5":22.4,"no2":1.7,"co":129.0,"o3":78.0,"so2":5.8,"mosquito_risk":0,"arthritis_risk":5,"migraine_risk":7,"frizz_risk":1,"updated_at":"2026-05-31T10:51:09.761902+05:30"},{"city":"Sagar","state":"Madhya Pradesh","latitude":23.8388,"longitude":78.7378,"temp":33.0,"humidity":34,"rain":0.1,"pressure":951.6,"uv_index":8.65,"wind_gusts":33.8,"aqi":50,"pm10":19.2,"pm2_5":9.3,"no2":1.5,"co":173.0,"o3":133.0,"so2":6.2,"mosquito_risk":3,"arthritis_risk":5,"migraine_risk":7,"frizz_risk":0,"updated_at":"2026-05-31T10:51:09.761909+05:30"},{"city":"Satna","state":"Madhya Pradesh","latitude":24.6005,"longitude":80.8322,"temp":34.5,"humidity":36,"rain":0.0,"pressure":972.1,"uv_index":8.7,"wind_gusts":25.2,"aqi":65,"pm10":36.1,"pm2_5":21.4,"no2":2.4,"co":278.0,"o3":149.0,"so2":13.8,"mosquito_risk":0,"arthritis_risk":5,"migraine_risk":7,"frizz_risk":1,"updated_at":"2026-05-31T10:51:09.761916+05:30"},{"city":"Akola","state":"Maharashtra","latitude":20.7002,"longitude":77.0082,"temp":34.5,"humidity":42,"rain":0.0,"pressure":976.5,"uv_index":8.75,"wind_gusts":64.1,"aqi":74,"pm10":37.7,"pm2_5":20.8,"no2":2.3,"co":128.0,"o3":96.0,"so2":7.7,"mosquito_risk":0,"arthritis_risk":5,"migraine_risk":7,"frizz_risk":1,"updated_at":"2026-05-31T10:51:09.761924+05:30"},{"city":"Amravati","state":"Maharashtra","latitude":20.9374,"longitude":77.7796,"temp":34.4,"humidity":39,"rain":0.0,"pressure":968.5,"uv_index":8.75,"wind_gusts":49.0,"aqi":75,"pm10":39.2,"pm2_5":21.2,"no2":2.7,"co":159.0,"o3":108.0,"so2":9.8,"mosquito_risk":0,"arthritis_risk":5,"migraine_risk":7,"frizz_risk":1,"updated_at":"2026-05-31T10:51:09.761932+05:30"},{"city":"Latur","state":"Maharashtra","latitude":18.4088,"longitude":76.5604,"temp":33.5,"humidity":40,"rain":0.0,"pressure":942.1,"uv_index":8.95,"wind_gusts":57.2,"aqi":59,"pm10":51.0,"pm2_5":19.7,"no2":1.7,"co":146.0,"o3":85.0,"so2":4.7,"mosquito_risk":0,"arthritis_risk":5,"migraine_risk":7,"frizz_risk":1,"updated_at":"2026-05-31T10:51:09.761939+05:30"},{"city":"Nanded","state":"Maharashtra","latitude":19.1383,"longitude":77.3091,"temp":35.2,"humidity":37,"rain":0.0,"pressure":969.8,"uv_index":8.9,"wind_gusts":51.8,"aqi":74,"pm10":46.7,"pm2_5":21.3,"no2":1.5,"co":138.0,"o3":89.0,"so2":2.8,"mosquito_risk":0,"arthritis_risk":5,"migraine_risk":10,"frizz_risk":1,"updated_at":"2026-05-31T10:51:09.761946+05:30"},{"city":"Gulbarga","state":"Karnataka","latitude":17.3297,"longitude":76.8343,"temp":34.7,"humidity":39,"rain":0.0,"pressure":960.9,"uv_index":8.95,"wind_gusts":53.3,"aqi":55,"pm10":29.8,"pm2_5":15.4,"no2":1.7,"co":136.0,"o3":85.0,"so2":3.2,"mosquito_risk":0,"arthritis_risk":5,"migraine_risk":7,"frizz_risk":1,"updated_at":"2026-05-31T10:51:09.761953+05:30"},{"city":"Bidar","state":"Karnataka","latitude":17.9104,"longitude":77.5199,"temp":31.2,"humidity":49,"rain":0.0,"pressure":937.8,"uv_index":9.0,"wind_gusts":57.6,"aqi":68,"pm10":54.7,"pm2_5":25.7,"no2":2.0,"co":153.0,"o3":105.0,"so2":8.0,"mosquito_risk":0,"arthritis_risk":5,"migraine_risk":7,"frizz_risk":1,"updated_at":"2026-05-31T10:51:09.761960+05:30"},{"city":"Hospet","state":"Karnataka","latitude":15.2689,"longitude":76.3909,"temp":31.6,"humidity":55,"rain":0.0,"pressure":958.5,"uv_index":8.95,"wind_gusts":61.9,"aqi":47,"pm10":11.6,"pm2_5":7.1,"no2":1.7,"co":146.0,"o3":75.0,"so2":2.5,"mosquito_risk":0,"arthritis_risk":5,"migraine_risk":7,"frizz_risk":1,"updated_at":"2026-05-31T10:51:09.761966+05:30"},{"city":"Tirupur","state":"Tamil Nadu","latitude":11.1085,"longitude":77.3411,"temp":35.2,"humidity":40,"rain":0.0,"pressure":976.7,"uv_index":8.25,"wind_gusts":41.4,"aqi":52,"pm10":15.4,"pm2_5":10.3,"no2":2.5,"co":141.0,"o3":109.0,"so2":2.9,"mosquito_risk":0,"arthritis_risk":5,"migraine_risk":10,"frizz_risk":1,"updated_at":"2026-05-31T10:51:09.761973+05:30"},{"city":"Alappuzha","state":"Kerala","latitude":9.4981,"longitude":76.3388,"temp":28.5,"humidity":80,"rain":0.1,"pressure":1011.6,"uv_index":8.15,"wind_gusts":35.3,"aqi":41,"pm10":9.2,"pm2_5":5.9,"no2":2.0,"co":102.0,"o3":70.0,"so2":1.6,"mosquito_risk":10,"arthritis_risk":0,"migraine_risk":4,"frizz_risk":1,"updated_at":"2026-05-31T10:51:09.761979+05:30"},{"city":"Munnar","state":"Kerala","latitude":10.0889,"longitude":77.0595,"temp":22.5,"humidity":78,"rain":0.0,"pressure":860.5,"uv_index":8.3,"wind_gusts":29.2,"aqi":28,"pm10":13.9,"pm2_5":7.5,"no2":1.0,"co":116.0,"o3":86.0,"so2":1.4,"mosquito_risk":3,"arthritis_risk":5,"migraine_risk":7,"frizz_risk":1,"updated_at":"2026-05-31T10:51:09.761987+05:30"},{"city":"Silchar","state":"Assam","latitude":24.8333,"longitude":92.7789,"temp":31.7,"humidity":69,"rain":0.0,"pressure":1004.7,"uv_index":8.9,"wind_gusts":16.6,"aqi":122,"pm10":43.5,"pm2_5":23.3,"no2":1.4,"co":224.0,"o3":107.0,"so2":3.3,"mosquito_risk":3,"arthritis_risk":5,"migraine_risk":4,"frizz_risk":1,"updated_at":"2026-05-31T10:51:09.761994+05:30"},{"city":"Dibrugarh","state":"Assam","latitude":27.4728,"longitude":94.912,"temp":31.0,"humidity":66,"rain":0.0,"pressure":995.7,"uv_index":6.1,"wind_gusts":23.4,"aqi":121,"pm10":33.5,"pm2_5":24.1,"no2":1.0,"co":176.0,"o3":108.0,"so2":1.8,"mosquito_risk":3,"arthritis_risk":5,"migraine_risk":7,"frizz_risk":1,"updated_at":"2026-05-31T10:51:09.762000+05:30"}]