[{"city":"Delhi","state":"Delhi","latitude":28.6139,"longitude":77.209,"temp":26.6,"humidity":67,"rain":0.0,"pressure":983.4,"uv_index":7.55,"wind_gusts":37.4,"aqi":160,"pm10":123.9,"pm2_5":45.8,"no2":26.1,"co":500.0,"o3":96.0,"so2":25.6,"mosquito_risk":7,"arthritis_risk":5,"migraine_risk":7,"frizz_risk":1,"updated_at":"2026-05-31T21:42:33.596881+05:30"},{"city":"Mumbai","state":"Maharashtra","latitude":19.076,"longitude":72.8777,"temp":30.5,"humidity":73,"rain":0.0,"pressure":1009.1,"uv_index":7.8,"wind_gusts":39.2,"aqi":61,"pm10":22.1,"pm2_5":13.4,"no2":6.1,"co":196.0,"o3":45.0,"so2":4.2,"mosquito_risk":3,"arthritis_risk":0,"migraine_risk":4,"frizz_risk":1,"updated_at":"2026-05-31T21:42:33.596921+05:30"},{"city":"Bangalore","state":"Karnataka","latitude":12.9716,"longitude":77.5946,"temp":24.1,"humidity":78,"rain":0.1,"pressure":913.4,"uv_index":9.25,"wind_gusts":29.2,"aqi":79,"pm10":30.7,"pm2_5":26.6,"no2":33.1,"co":699.0,"o3":54.0,"so2":8.2,"mosquito_risk":6,"arthritis_risk":5,"migraine_risk":7,"frizz_risk":1,"updated_at":"2026-05-31T21:42:33.596937+05:30"},{"city":"Hyderabad","state":"Telangana","latitude":17.385,"longitude":78.4867,"temp":32.2,"humidity":46,"rain":0.0,"pressure":953.6,"uv_index":9.05,"wind_gusts":55.1,"aqi":75,"pm10":76.8,"pm2_5":50.1,"no2":38.2,"co":509.0,"o3":36.0,"so2":11.6,"mosquito_risk":0,"arthritis_risk":5,"migraine_risk":7,"frizz_risk":1,"updated_at":"2026-05-31T21:42:33.596946+05:30"},{"city":"Chennai","state":"Tamil Nadu","latitude":13.0827,"longitude":80.2707,"temp":31.5,"humidity":73,"rain":0.0,"pressure":1007.1,"uv_index":8.3,"wind_gusts":38.5,"aqi":102,"pm10":31.8,"pm2_5":24.7,"no2":7.3,"co":210.0,"o3":114.0,"so2":7.8,"mosquito_risk":3,"arthritis_risk":5,"migraine_risk":4,"frizz_risk":1,"updated_at":"2026-05-31T21:42:33.596955+05:30"},{"city":"Kolkata","state":"West Bengal","latitude":22.5726,"longitude":88.3639,"temp":29.1,"humidity":83,"rain":0.0,"pressure":1006.1,"uv_index":8.95,"wind_gusts":32.4,"aqi":152,"pm10":47.1,"pm2_5":39.7,"no2":16.0,"co":476.0,"o3":41.0,"so2":8.4,"mosquito_risk":7,"arthritis_risk":5,"migraine_risk":4,"frizz_risk":1,"updated_at":"2026-05-31T21:42:33.596963+05:30"},{"city":"Pune","state":"Maharashtra","latitude":18.5204,"longitude":73.8567,"temp":27.0,"humidity":71,"rain":0.0,"pressure":949.4,"uv_index":5.75,"wind_gusts":38.9,"aqi":53,"pm10":27.2,"pm2_5":15.7,"no2":5.5,"co":164.0,"o3":62.0,"so2":6.3,"mosquito_risk":7,"arthritis_risk":5,"migraine_risk":3,"frizz_risk":1,"updated_at":"2026-05-31T21:42:33.596970+05:30"},{"city":"Ahmedabad","state":"Gujarat","latitude":23.0225,"longitude":72.5714,"temp":32.2,"humidity":58,"rain":0.0,"pressure":1000.8,"uv_index":8.1,"wind_gusts":53.3,"aqi":73,"pm10":50.1,"pm2_5":26.5,"no2":8.8,"co":163.0,"o3":67.0,"so2":5.5,"mosquito_risk":0,"arthritis_risk":5,"migraine_risk":4,"frizz_risk":1,"updated_at":"2026-05-31T21:42:33.596997+05:30"},{"city":"Jaipur","state":"Rajasthan","latitude":26.9124,"longitude":75.7873,"temp":28.2,"humidity":62,"rain":0.0,"pressure":960.1,"uv_index":8.15,"wind_gusts":35.3,"aqi":90,"pm10":132.2,"pm2_5":46.6,"no2":18.6,"co":244.0,"o3":60.0,"so2":10.1,"mosquito_risk":7,"arthritis_risk":5,"migraine_risk":7,"frizz_risk":1,"updated_at":"2026-05-31T21:42:33.597009+05:30"},{"city":"Lucknow","state":"Uttar Pradesh","latitude":26.8467,"longitude":80.9462,"temp":27.8,"humidity":75,"rain":0.0,"pressure":993.8,"uv_index":8.15,"wind_gusts":29.5,"aqi":102,"pm10":55.3,"pm2_5":35.9,"no2":25.8,"co":419.0,"o3":67.0,"so2":11.5,"mosquito_risk":7,"arthritis_risk":5,"migraine_risk":7,"frizz_risk":1,"updated_at":"2026-05-31T21:42:33.597016+05:30"},{"city":"Kanpur","state":"Uttar Pradesh","latitude":26.4499,"longitude":80.3319,"temp":28.1,"humidity":74,"rain":0.0,"pressure":992.0,"uv_index":8.15,"wind_gusts":47.9,"aqi":119,"pm10":120.6,"pm2_5":34.8,"no2":14.2,"co":319.0,"o3":89.0,"so2":7.5,"mosquito_risk":7,"arthritis_risk":5,"migraine_risk":7,"frizz_risk":1,"updated_at":"2026-05-31T21:42:33.597022+05:30"},{"city":"Chandigarh","state":"Chandigarh","latitude":30.7333,"longitude":76.7794,"temp":23.0,"humidity":80,"rain":0.0,"pressure":969.5,"uv_index":7.0,"wind_gusts":40.0,"aqi":120,"pm10":38.3,"pm2_5":35.2,"no2":28.3,"co":787.0,"o3":70.0,"so2":7.3,"mosquito_risk":3,"arthritis_risk":5,"migraine_risk":7,"frizz_risk":1,"updated_at":"2026-05-31T21:42:33.597029+05:30"},{"city":"Srinagar","state":"Jammu and Kashmir","latitude":34.0837,"longitude":74.7973,"temp":21.0,"humidity":61,"rain":0.0,"pressure":841.4,"uv_index":9.0,"wind_gusts":25.6,"aqi":119,"pm10":71.5,"pm2_5":45.4,"no2":25.2,"co":748.0,"o3":58.0,"so2":3.4,"mosquito_risk":3,"arthritis_risk":5,"migraine_risk":7,"frizz_risk":0,"updated_at":"2026-05-31T21:42:33.597036+05:30"},{"city":"Jammu","state":"Jammu and Kashmir","latitude":32.7266,"longitude":74.857,"temp":27.8,"humidity":51,"rain":0.0,"pressure":973.5,"uv_index":8.5,"wind_gusts":28.1,"aqi":114,"pm10":89.6,"pm2_5":46.6,"no2":29.5,"co":376.0,"o3":77.0,"so2":6.8,"mosquito_risk":4,"arthritis_risk":5,"migraine_risk":7,"frizz_risk":1,"updated_at":"2026-05-31T21:42:33.597043+05:30"},{"city":"Amritsar","state":"Punjab","latitude":31.634,"longitude":74.8723,"temp":27.1,"humidity":53,"rain":0.0,"pressure":981.5,"uv_index":8.3,"wind_gusts":38.5,"aqi":116,"pm10":52.3,"pm2_5":32.0,"no2":10.4,"co":359.0,"o3":106.0,"so2":7.2,"mosquito_risk":4,"arthritis_risk":5,"migraine_risk":7,"frizz_risk":1,"updated_at":"2026-05-31T21:42:33.597052+05:30"},{"city":"Ludhiana","state":"Punjab","latitude":30.901,"longitude":75.8573,"temp":26.0,"humidity":66,"rain":0.0,"pressure":979.4,"uv_index":7.85,"wind_gusts":38.5,"aqi":126,"pm10":60.8,"pm2_5":37.1,"no2":13.3,"co":562.0,"o3":109.0,"so2":11.4,"mosquito_risk":7,"arthritis_risk":5,"migraine_risk":7,"frizz_risk":1,"updated_at":"2026-05-31T21:42:33.597058+05:30"},{"city":"Jalandhar","state":"Punjab","latitude":31.326,"longitude":75.5762,"temp":26.5,"humidity":58,"rain":0.0,"pressure":980.4,"uv_index":8.05,"wind_gusts":40.3,"aqi":125,"pm10":52.7,"pm2_5":43.1,"no2":20.4,"co":459.0,"o3":94.0,"so2":11.9,"mosquito_risk":4,"arthritis_risk":5,"migraine_risk":7,"frizz_risk":1,"updated_at":"2026-05-31T21:42:33.597064+05:30"},{"city":"Dehradun","state":"Uttarakhand","latitude":30.6284,"longitude":78.0322,"temp":13.7,"humidity":81,"rain":0.0,"pressure":829.4,"uv_index":7.25,"wind_gusts":31.0,"aqi":85,"pm10":11.7,"pm2_5":9.4,"no2":20.4,"co":233.0,"o3":80.0,"so2":1.3,"mosquito_risk":3,"arthritis_risk":10,"migraine_risk":7,"frizz_risk":0,"updated_at":"2026-05-31T21:42:33.597071+05:30"},{"city":"Shimla","state":"Himachal Pradesh","latitude":31.1048,"longitude":77.1734,"temp":11.8,"humidity":71,"rain":0.0,"pressure":783.7,"uv_index":2.85,"wind_gusts":25.9,"aqi":91,"pm10":14.7,"pm2_5":12.4,"no2":16.8,"co":485.0,"o3":98.0,"so2":0.6,"mosquito_risk":3,"arthritis_risk":5,"migraine_risk":3,"frizz_risk":0,"updated_at":"2026-05-31T21:42:33.597079+05:30"},{"city":"Manali","state":"Himachal Pradesh","latitude":32.2396,"longitude":77.1887,"temp":15.0,"humidity":78,"rain":0.0,"pressure":819.3,"uv_index":7.6,"wind_gusts":33.5,"aqi":118,"pm10":8.0,"pm2_5":6.1,"no2":26.1,"co":231.0,"o3":108.0,"so2":0.5,"mosquito_risk":3,"arthritis_risk":5,"migraine_risk":7,"frizz_risk":0,"updated_at":"2026-05-31T21:42:33.597086+05:30"},{"city":"Gurgaon","state":"Haryana","latitude":28.4595,"longitude":77.0266,"temp":25.5,"humidity":70,"rain":0.0,"pressure":981.6,"uv_index":7.65,"wind_gusts":37.4,"aqi":732,"pm10":1195.8,"pm2_5":180.7,"no2":26.6,"co":592.0,"o3":102.0,"so2":28.5,"mosquito_risk":7,"arthritis_risk":5,"migraine_risk":7,"frizz_risk":1,"updated_at":"2026-05-31T21:42:33.597092+05:30"},{"city":"Noida","state":"Uttar Pradesh","latitude":28.5355,"longitude":77.391,"temp":26.1,"humidity":71,"rain":0.0,"pressure":984.8,"uv_index":7.6,"wind_gusts":41.4,"aqi":732,"pm10":1195.8,"pm2_5":180.7,"no2":26.6,"co":532.0,"o3":102.0,"so2":28.5,"mosquito_risk":7,"arthritis_risk":5,"migraine_risk":7,"frizz_risk":1,"updated_at":"2026-05-31T21:42:33.597098+05:30"},{"city":"Ghaziabad","state":"Uttar Pradesh","latitude":28.6692,"longitude":77.4538,"temp":26.3,"humidity":70,"rain":0.0,"pressure":983.0,"uv_index":7.6,"wind_gusts":42.8,"aqi":112,"pm10":61.9,"pm2_5":37.0,"no2":16.8,"co":412.0,"o3":89.0,"so2":9.8,"mosquito_risk":7,"arthritis_risk":5,"migraine_risk":7,"frizz_risk":1,"updated_at":"2026-05-31T21:42:33.597104+05:30"},{"city":"Faridabad","state":"Haryana","latitude":28.4089,"longitude":77.3178,"temp":26.2,"humidity":66,"rain":0.0,"pressure":984.0,"uv_index":7.65,"wind_gusts":42.8,"aqi":732,"pm10":1195.8,"pm2_5":180.7,"no2":26.6,"co":520.0,"o3":102.0,"so2":28.5,"mosquito_risk":7,"arthritis_risk":5,"migraine_risk":7,"frizz_risk":1,"updated_at":"2026-05-31T21:42:33.597110+05:30"},{"city":"Meerut","state":"Uttar Pradesh","latitude":28.9845,"longitude":77.7064,"temp":24.7,"humidity":80,"rain":0.0,"pressure":981.9,"uv_index":6.9,"wind_gusts":51.1,"aqi":112,"pm10":61.9,"pm2_5":37.0,"no2":16.8,"co":444.0,"o3":89.0,"so2":9.8,"mosquito_risk":3,"arthritis_risk":5,"migraine_risk":7,"frizz_risk":1,"updated_at":"2026-05-31T21:42:33.597116+05:30"},{"city":"Agra","state":"Uttar Pradesh","latitude":27.1767,"longitude":78.0081,"temp":26.8,"humidity":75,"rain":0.0,"pressure":987.4,"uv_index":7.95,"wind_gusts":43.2,"aqi":521,"pm10":236.1,"pm2_5":52.7,"no2":16.1,"co":316.0,"o3":86.0,"so2":9.7,"mosquito_risk":7,"arthritis_risk":5,"migraine_risk":7,"frizz_risk":1,"updated_at":"2026-05-31T21:42:33.597124+05:30"},{"city":"Varanasi","state":"Uttar Pradesh","latitude":25.3176,"longitude":82.9739,"temp":29.9,"humidity":59,"rain":0.0,"pressure":997.3,"uv_index":8.65,"wind_gusts":31.0,"aqi":137,"pm10":67.5,"pm2_5":52.6,"no2":22.2,"co":734.0,"o3":88.0,"so2":13.4,"mosquito_risk":4,"arthritis_risk":5,"migraine_risk":7,"frizz_risk":1,"updated_at":"2026-05-31T21:42:33.597131+05:30"},{"city":"Prayagraj","state":"Uttar Pradesh","latitude":25.4358,"longitude":81.8463,"temp":30.0,"humidity":60,"rain":0.0,"pressure":996.0,"uv_index":8.55,"wind_gusts":28.1,"aqi":140,"pm10":46.6,"pm2_5":34.8,"no2":13.1,"co":379.0,"o3":102.0,"so2":9.8,"mosquito_risk":4,"arthritis_risk":5,"migraine_risk":7,"frizz_risk":1,"updated_at":"2026-05-31T21:42:33.597138+05:30"},{"city":"Gorakhpur","state":"Uttar Pradesh","latitude":26.7606,"longitude":83.3732,"temp":28.0,"humidity":74,"rain":0.0,"pressure":997.3,"uv_index":8.55,"wind_gusts":26.3,"aqi":119,"pm10":64.7,"pm2_5":54.4,"no2":25.0,"co":485.0,"o3":78.0,"so2":10.8,"mosquito_risk":7,"arthritis_risk":5,"migraine_risk":7,"frizz_risk":1,"updated_at":"2026-05-31T21:42:33.597146+05:30"},{"city":"Bareilly","state":"Uttar Pradesh","latitude":28.367,"longitude":79.4304,"temp":26.1,"humidity":76,"rain":0.0,"pressure":987.0,"uv_index":7.95,"wind_gusts":33.5,"aqi":98,"pm10":53.3,"pm2_5":46.0,"no2":35.7,"co":386.0,"o3":57.0,"so2":9.3,"mosquito_risk":7,"arthritis_risk":5,"migraine_risk":7,"frizz_risk":1,"updated_at":"2026-05-31T21:42:33.597152+05:30"},{"city":"Aligarh","state":"Uttar Pradesh","latitude":27.8974,"longitude":78.088,"temp":26.0,"humidity":72,"rain":0.0,"pressure":985.3,"uv_index":7.75,"wind_gusts":26.6,"aqi":129,"pm10":68.7,"pm2_5":34.1,"no2":13.4,"co":339.0,"o3":102.0,"so2":9.2,"mosquito_risk":7,"arthritis_risk":5,"migraine_risk":7,"frizz_risk":1,"updated_at":"2026-05-31T21:42:33.597159+05:30"},{"city":"Moradabad","state":"Uttar Pradesh","latitude":28.8386,"longitude":78.7733,"temp":24.5,"humidity":94,"rain":0.0,"pressure":984.0,"uv_index":7.75,"wind_gusts":30.2,"aqi":123,"pm10":59.5,"pm2_5":50.5,"no2":31.3,"co":380.0,"o3":69.0,"so2":14.4,"mosquito_risk":3,"arthritis_risk":5,"migraine_risk":7,"frizz_risk":1,"updated_at":"2026-05-31T21:42:33.597165+05:30"},{"city":"Saharanpur","state":"Uttar Pradesh","latitude":29.9637,"longitude":77.546,"temp":24.6,"humidity":83,"rain":0.0,"pressure":976.2,"uv_index":6.55,"wind_gusts":39.6,"aqi":101,"pm10":71.2,"pm2_5":62.6,"no2":40.6,"co":698.0,"o3":57.0,"so2":12.4,"mosquito_risk":3,"arthritis_risk":5,"migraine_risk":7,"frizz_risk":1,"updated_at":"2026-05-31T21:42:33.597171+05:30"},{"city":"Jhansi","state":"Uttar Pradesh","latitude":25.4484,"longitude":78.5685,"temp":28.1,"humidity":59,"rain":0.0,"pressure":978.2,"uv_index":8.35,"wind_gusts":32.0,"aqi":95,"pm10":30.2,"pm2_5":19.4,"no2":8.7,"co":294.0,"o3":82.0,"so2":6.0,"mosquito_risk":4,"arthritis_risk":5,"migraine_risk":7,"frizz_risk":1,"updated_at":"2026-05-31T21:42:36.934118+05:30"},{"city":"Surat","state":"Gujarat","latitude":21.1702,"longitude":72.8311,"temp":30.3,"humidity":79,"rain":0.0,"pressure":1006.1,"uv_index":7.7,"wind_gusts":50.8,"aqi":75,"pm10":22.1,"pm2_5":16.9,"no2":18.2,"co":225.0,"o3":32.0,"so2":30.2,"mosquito_risk":3,"arthritis_risk":5,"migraine_risk":4,"frizz_risk":1,"updated_at":"2026-05-31T21:42:36.934149+05:30"},{"city":"Vadodara","state":"Gujarat","latitude":22.3072,"longitude":73.1812,"temp":31.5,"humidity":55,"rain":0.0,"pressure":1003.5,"uv_index":8.05,"wind_gusts":42.5,"aqi":70,"pm10":24.3,"pm2_5":17.9,"no2":14.2,"co":171.0,"o3":40.0,"so2":17.2,"mosquito_risk":0,"arthritis_risk":5,"migraine_risk":4,"frizz_risk":1,"updated_at":"2026-05-31T21:42:36.934159+05:30"},{"city":"Rajkot","state":"Gujarat","latitude":22.3039,"longitude":70.8022,"temp":32.8,"humidity":54,"rain":0.0,"pressure":993.2,"uv_index":7.7,"wind_gusts":43.6,"aqi":65,"pm10":32.6,"pm2_5":18.1,"no2":3.7,"co":115.0,"o3":56.0,"so2":4.5,"mosquito_risk":0,"arthritis_risk":5,"migraine_risk":7,"frizz_risk":1,"updated_at":"2026-05-31T21:42:36.934168+05:30"},{"city":"Thane","state":"Maharashtra","latitude":19.2183,"longitude":72.9781,"temp":30.4,"humidity":73,"rain":0.0,"pressure":1008.5,"uv_index":7.8,"wind_gusts":38.2,"aqi":61,"pm10":22.1,"pm2_5":13.4,"no2":6.1,"co":170.0,"o3":45.0,"so2":4.2,"mosquito_risk":3,"arthritis_risk":0,"migraine_risk":4,"frizz_risk":1,"updated_at":"2026-05-31T21:42:36.934176+05:30"},{"city":"Nagpur","state":"Maharashtra","latitude":21.1458,"longitude":79.0882,"temp":34.3,"humidity":29,"rain":0.0,"pressure":972.6,"uv_index":8.8,"wind_gusts":38.2,"aqi":87,"pm10":29.3,"pm2_5":19.8,"no2":10.9,"co":274.0,"o3":93.0,"so2":10.8,"mosquito_risk":0,"arthritis_risk":5,"migraine_risk":7,"frizz_risk":0,"updated_at":"2026-05-31T21:42:36.934184+05:30"},{"city":"Nashik","state":"Maharashtra","latitude":19.9975,"longitude":73.7898,"temp":26.8,"humidity":73,"rain":0.0,"pressure":946.5,"uv_index":8.1,"wind_gusts":49.0,"aqi":52,"pm10":17.6,"pm2_5":10.7,"no2":3.2,"co":137.0,"o3":50.0,"so2":1.2,"mosquito_risk":7,"arthritis_risk":5,"migraine_risk":7,"frizz_risk":1,"updated_at":"2026-05-31T21:42:36.934191+05:30"},{"city":"Aurangabad","state":"Maharashtra","latitude":19.8762,"longitude":75.3433,"temp":30.9,"humidity":42,"rain":0.0,"pressure":945.0,"uv_index":8.85,"wind_gusts":49.0,"aqi":63,"pm10":26.8,"pm2_5":16.4,"no2":7.4,"co":174.0,"o3":65.0,"so2":4.2,"mosquito_risk":0,"arthritis_risk":5,"migraine_risk":7,"frizz_risk":1,"updated_at":"2026-05-31T21:42:36.934198+05:30"},{"city":"Solapur","state":"Maharashtra","latitude":17.6599,"longitude":75.9064,"temp":29.9,"humidity":48,"rain":0.0,"pressure":957.8,"uv_index":8.9,"wind_gusts":51.5,"aqi":65,"pm10":38.2,"pm2_5":20.3,"no2":4.3,"co":178.0,"o3":85.0,"so2":2.6,"mosquito_risk":4,"arthritis_risk":5,"migraine_risk":7,"frizz_risk":1,"updated_at":"2026-05-31T21:42:36.934206+05:30"},{"city":"Kolhapur","state":"Maharashtra","latitude":16.705,"longitude":74.2433,"temp":27.2,"humidity":74,"rain":0.0,"pressure":949.4,"uv_index":8.75,"wind_gusts":46.1,"aqi":38,"pm10":14.4,"pm2_5":10.2,"no2":4.6,"co":166.0,"o3":57.0,"so2":2.4,"mosquito_risk":7,"arthritis_risk":5,"migraine_risk":7,"frizz_risk":1,"updated_at":"2026-05-31T21:42:36.934213+05:30"},{"city":"Goa","state":"Goa","latitude":15.2993,"longitude":74.124,"temp":28.8,"humidity":83,"rain":0.0,"pressure":999.4,"uv_index":7.35,"wind_gusts":31.0,"aqi":49,"pm10":16.7,"pm2_5":11.9,"no2":3.8,"co":345.0,"o3":46.0,"so2":1.5,"mosquito_risk":7,"arthritis_risk":5,"migraine_risk":7,"frizz_risk":1,"updated_at":"2026-05-31T21:42:36.934221+05:30"},{"city":"Jodhpur","state":"Rajasthan","latitude":26.2389,"longitude":73.0243,"temp":33.7,"humidity":39,"rain":0.0,"pressure":981.0,"uv_index":8.4,"wind_gusts":39.6,"aqi":90,"pm10":228.2,"pm2_5":47.5,"no2":14.7,"co":210.0,"o3":57.0,"so2":4.1,"mosquito_risk":0,"arthritis_risk":5,"migraine_risk":7,"frizz_risk":1,"updated_at":"2026-05-31T21:42:36.934228+05:30"},{"city":"Udaipur","state":"Rajasthan","latitude":24.5854,"longitude":73.7125,"temp":31.0,"humidity":42,"rain":0.0,"pressure":946.4,"uv_index":8.75,"wind_gusts":38.2,"aqi":68,"pm10":79.2,"pm2_5":25.9,"no2":6.0,"co":237.0,"o3":64.0,"so2":3.1,"mosquito_risk":0,"arthritis_risk":5,"migraine_risk":7,"frizz_risk":1,"updated_at":"2026-05-31T21:42:36.934235+05:30"},{"city":"Kota","state":"Rajasthan","latitude":25.2138,"longitude":75.8648,"temp":30.8,"humidity":54,"rain":0.0,"pressure":978.7,"uv_index":8.3,"wind_gusts":33.1,"aqi":60,"pm10":68.5,"pm2_5":35.4,"no2":13.9,"co":257.0,"o3":71.0,"so2":8.2,"mosquito_risk":0,"arthritis_risk":5,"migraine_risk":7,"frizz_risk":1,"updated_at":"2026-05-31T21:42:36.934243+05:30"},{"city":"Bikaner","state":"Rajasthan","latitude":28.0229,"longitude":73.3119,"temp":31.4,"humidity":54,"rain":0.0,"pressure":980.7,"uv_index":8.35,"wind_gusts":25.9,"aqi":72,"pm10":156.9,"pm2_5":46.0,"no2":6.4,"co":276.0,"o3":54.0,"so2":3.7,"mosquito_risk":0,"arthritis_risk":5,"migraine_risk":7,"frizz_risk":1,"updated_at":"2026-05-31T21:42:36.934250+05:30"},{"city":"Ajmer","state":"Rajasthan","latitude":26.4499,"longitude":74.6399,"temp":23.4,"humidity":87,"rain":0.1,"pressure":954.9,"uv_index":8.3,"wind_gusts":40.3,"aqi":58,"pm10":115.0,"pm2_5":38.0,"no2":12.1,"co":221.0,"o3":65.0,"so2":4.6,"mosquito_risk":6,"arthritis_risk":5,"migraine_risk":7,"frizz_risk":1,"updated_at":"2026-05-31T21:42:36.934258+05:30"},{"city":"Gwalior","state":"Madhya Pradesh","latitude":26.2183,"longitude":78.1828,"temp":25.5,"humidity":81,"rain":0.2,"pressure":983.0,"uv_index":8.15,"wind_gusts":35.6,"aqi":88,"pm10":51.2,"pm2_5":25.7,"no2":12.0,"co":394.0,"o3":79.0,"so2":6.5,"mosquito_risk":10,"arthritis_risk":5,"migraine_risk":7,"frizz_risk":1,"updated_at":"2026-05-31T21:42:36.934265+05:30"},{"city":"Indore","state":"Madhya Pradesh","latitude":22.7196,"longitude":75.8577,"temp":24.9,"humidity":74,"rain":0.0,"pressure":948.9,"uv_index":8.15,"wind_gusts":67.7,"aqi":66,"pm10":47.1,"pm2_5":27.7,"no2":9.1,"co":218.0,"o3":77.0,"so2":6.4,"mosquito_risk":3,"arthritis_risk":5,"migraine_risk":7,"frizz_risk":1,"updated_at":"2026-05-31T21:42:36.934273+05:30"},{"city":"Bhopal","state":"Madhya Pradesh","latitude":23.2599,"longitude":77.4126,"temp":31.2,"humidity":36,"rain":0.0,"pressure":953.8,"uv_index":8.6,"wind_gusts":42.1,"aqi":75,"pm10":31.4,"pm2_5":18.7,"no2":9.2,"co":295.0,"o3":78.0,"so2":4.7,"mosquito_risk":0,"arthritis_risk":5,"migraine_risk":7,"frizz_risk":0,"updated_at":"2026-05-31T21:42:36.934280+05:30"},{"city":"Jabalpur","state":"Madhya Pradesh","latitude":23.1815,"longitude":79.9864,"temp":30.2,"humidity":48,"rain":0.0,"pressure":961.8,"uv_index":8.75,"wind_gusts":45.4,"aqi":79,"pm10":53.7,"pm2_5":36.6,"no2":19.4,"co":242.0,"o3":65.0,"so2":6.2,"mosquito_risk":0,"arthritis_risk":5,"migraine_risk":7,"frizz_risk":1,"updated_at":"2026-05-31T21:42:36.934287+05:30"},{"city":"Ujjain","state":"Madhya Pradesh","latitude":23.1765,"longitude":75.7885,"temp":28.9,"humidity":58,"rain":0.0,"pressure":954.5,"uv_index":8.3,"wind_gusts":52.6,"aqi":66,"pm10":51.5,"pm2_5":28.5,"no2":4.9,"co":249.0,"o3":74.0,"so2":4.8,"mosquito_risk":4,"arthritis_risk":5,"migraine_risk":7,"frizz_risk":1,"updated_at":"2026-05-31T21:42:36.934295+05:30"},{"city":"Visakhapatnam","state":"Andhra Pradesh","latitude":17.6868,"longitude":83.2185,"temp":30.5,"humidity":81,"rain":0.0,"pressure":1002.4,"uv_index":9.0,"wind_gusts":41.0,"aqi":120,"pm10":41.9,"pm2_5":33.5,"no2":21.7,"co":346.0,"o3":88.0,"so2":37.2,"mosquito_risk":3,"arthritis_risk":5,"migraine_risk":4,"frizz_risk":1,"updated_at":"2026-05-31T21:42:36.934302+05:30"},{"city":"Vijayawada","state":"Andhra Pradesh","latitude":16.5062,"longitude":80.648,"temp":33.2,"humidity":50,"rain":0.0,"pressure":1001.1,"uv_index":8.95,"wind_gusts":42.5,"aqi":94,"pm10":33.5,"pm2_5":30.9,"no2":8.8,"co":401.0,"o3":93.0,"so2":5.8,"mosquito_risk":0,"arthritis_risk":5,"migraine_risk":4,"frizz_risk":1,"updated_at":"2026-05-31T21:42:36.934310+05:30"},{"city":"Guntur","state":"Andhra Pradesh","latitude":16.3067,"longitude":80.4365,"temp":31.5,"humidity":58,"rain":0.0,"pressure":1002.6,"uv_index":8.55,"wind_gusts":45.0,"aqi":87,"pm10":38.9,"pm2_5":33.6,"no2":13.4,"co":478.0,"o3":83.0,"so2":6.1,"mosquito_risk":0,"arthritis_risk":5,"migraine_risk":4,"frizz_risk":1,"updated_at":"2026-05-31T21:42:36.934317+05:30"},{"city":"Nellore","state":"Andhra Pradesh","latitude":14.4426,"longitude":79.9865,"temp":30.9,"humidity":69,"rain":0.0,"pressure":1005.0,"uv_index":8.3,"wind_gusts":38.2,"aqi":108,"pm10":32.8,"pm2_5":29.3,"no2":5.8,"co":291.0,"o3":128.0,"so2":6.7,"mosquito_risk":3,"arthritis_risk":5,"migraine_risk":4,"frizz_risk":1,"updated_at":"2026-05-31T21:42:36.934325+05:30"},{"city":"Kurnool","state":"Andhra Pradesh","latitude":15.8281,"longitude":78.0373,"temp":30.2,"humidity":54,"rain":0.0,"pressure":976.3,"uv_index":9.0,"wind_gusts":43.6,"aqi":65,"pm10":57.9,"pm2_5":38.2,"no2":23.9,"co":360.0,"o3":68.0,"so2":11.0,"mosquito_risk":0,"arthritis_risk":5,"migraine_risk":7,"frizz_risk":1,"updated_at":"2026-05-31T21:42:36.934332+05:30"},{"city":"Kakinada","state":"Andhra Pradesh","latitude":16.9891,"longitude":82.2475,"temp":31.0,"humidity":76,"rain":0.0,"pressure":1005.9,"uv_index":8.8,"wind_gusts":36.0,"aqi":90,"pm10":37.4,"pm2_5":29.9,"no2":3.7,"co":371.0,"o3":116.0,"so2":3.6,"mosquito_risk":3,"arthritis_risk":5,"migraine_risk":4,"frizz_risk":1,"updated_at":"2026-05-31T21:42:36.934340+05:30"},{"city":"Tirupati","state":"Andhra Pradesh","latitude":13.6288,"longitude":79.4192,"temp":29.2,"humidity":70,"rain":0.0,"pressure":991.4,"uv_index":9.05,"wind_gusts":36.0,"aqi":73,"pm10":22.9,"pm2_5":20.3,"no2":17.1,"co":300.0,"o3":64.0,"so2":4.1,"mosquito_risk":7,"arthritis_risk":5,"migraine_risk":7,"frizz_risk":1,"updated_at":"2026-05-31T21:42:36.934346+05:30"},{"city":"Warangal","state":"Telangana","latitude":17.9689,"longitude":79.5941,"temp":32.2,"humidity":47,"rain":0.0,"pressure":978.1,"uv_index":8.55,"wind_gusts":59.0,"aqi":96,"pm10":83.1,"pm2_5":61.2,"no2":30.2,"co":471.0,"o3":46.0,"so2":10.4,"mosquito_risk":0,"arthritis_risk":5,"migraine_risk":7,"frizz_risk":1,"updated_at":"2026-05-31T21:42:36.934353+05:30"},{"city":"Nizamabad","state":"Telangana","latitude":18.6725,"longitude":78.0941,"temp":28.2,"humidity":62,"rain":0.0,"pressure":964.3,"uv_index":9.0,"wind_gusts":40.0,"aqi":89,"pm10":98.7,"pm2_5":41.9,"no2":12.7,"co":310.0,"o3":63.0,"so2":3.8,"mosquito_risk":7,"arthritis_risk":5,"migraine_risk":7,"frizz_risk":1,"updated_at":"2026-05-31T21:42:36.934360+05:30"},{"city":"Mysore","state":"Karnataka","latitude":12.2958,"longitude":76.6396,"temp":25.5,"humidity":77,"rain":0.0,"pressure":930.6,"uv_index":9.15,"wind_gusts":29.2,"aqi":51,"pm10":14.7,"pm2_5":13.0,"no2":12.0,"co":272.0,"o3":64.0,"so2":2.4,"mosquito_risk":7,"arthritis_risk":5,"migraine_risk":7,"frizz_risk":1,"updated_at":"2026-05-31T21:42:36.934367+05:30"},{"city":"Mangalore","state":"Karnataka","latitude":12.9141,"longitude":74.856,"temp":26.6,"humidity":97,"rain":0.1,"pressure":1009.1,"uv_index":8.75,"wind_gusts":26.6,"aqi":47,"pm10":27.6,"pm2_5":23.3,"no2":11.9,"co":274.0,"o3":42.0,"so2":4.2,"mosquito_risk":10,"arthritis_risk":0,"migraine_risk":4,"frizz_risk":1,"updated_at":"2026-05-31T21:42:36.934374+05:30"},{"city":"Hubli-Dharwad","state":"Karnataka","latitude":15.3647,"longitude":75.124,"temp":26.8,"humidity":76,"rain":0.0,"pressure":942.5,"uv_index":8.9,"wind_gusts":38.9,"aqi":37,"pm10":10.2,"pm2_5":7.7,"no2":4.5,"co":166.0,"o3":50.0,"so2":1.6,"mosquito_risk":7,"arthritis_risk":5,"migraine_risk":7,"frizz_risk":1,"updated_at":"2026-05-31T21:42:36.934381+05:30"},{"city":"Belgaum","state":"Karnataka","latitude":15.8497,"longitude":74.4977,"temp":24.4,"humidity":89,"rain":0.0,"pressure":927.4,"uv_index":7.55,"wind_gusts":36.7,"aqi":33,"pm10":14.4,"pm2_5":10.8,"no2":6.1,"co":160.0,"o3":46.0,"so2":1.7,"mosquito_risk":3,"arthritis_risk":5,"migraine_risk":7,"frizz_risk":1,"updated_at":"2026-05-31T21:42:40.270139+05:30"},{"city":"Coimbatore","state":"Tamil Nadu","latitude":11.0168,"longitude":76.9558,"temp":25.6,"humidity":87,"rain":0.0,"pressure":963.6,"uv_index":7.95,"wind_gusts":42.5,"aqi":38,"pm10":7.9,"pm2_5":6.6,"no2":5.9,"co":202.0,"o3":62.0,"so2":2.7,"mosquito_risk":7,"arthritis_risk":5,"migraine_risk":7,"frizz_risk":1,"updated_at":"2026-05-31T21:42:40.270170+05:30"},{"city":"Madurai","state":"Tamil Nadu","latitude":9.9252,"longitude":78.1198,"temp":28.9,"humidity":69,"rain":0.0,"pressure":994.6,"uv_index":8.8,"wind_gusts":29.5,"aqi":81,"pm10":21.9,"pm2_5":18.0,"no2":26.8,"co":262.0,"o3":45.0,"so2":6.5,"mosquito_risk":7,"arthritis_risk":5,"migraine_risk":7,"frizz_risk":1,"updated_at":"2026-05-31T21:42:40.270181+05:30"},{"city":"Trichy","state":"Tamil Nadu","latitude":10.7905,"longitude":78.7047,"temp":30.0,"humidity":74,"rain":0.0,"pressure":1001.0,"uv_index":8.9,"wind_gusts":38.5,"aqi":52,"pm10":15.0,"pm2_5":12.0,"no2":10.1,"co":240.0,"o3":52.0,"so2":3.9,"mosquito_risk":7,"arthritis_risk":5,"migraine_risk":4,"frizz_risk":1,"updated_at":"2026-05-31T21:42:40.270191+05:30"},{"city":"Salem","state":"Tamil Nadu","latitude":11.6643,"longitude":78.146,"temp":29.0,"humidity":64,"rain":0.0,"pressure":978.8,"uv_index":8.35,"wind_gusts":36.4,"aqi":123,"pm10":35.7,"pm2_5":27.3,"no2":13.4,"co":239.0,"o3":96.0,"so2":8.5,"mosquito_risk":7,"arthritis_risk":5,"migraine_risk":7,"frizz_risk":1,"updated_at":"2026-05-31T21:42:40.270199+05:30"},{"city":"Tirunelveli","state":"Tamil Nadu","latitude":8.7139,"longitude":77.7567,"temp":30.6,"humidity":63,"rain":0.0,"pressure":1004.6,"uv_index":8.45,"wind_gusts":20.5,"aqi":36,"pm10":10.3,"pm2_5":7.7,"no2":5.4,"co":177.0,"o3":53.0,"so2":1.6,"mosquito_risk":3,"arthritis_risk":5,"migraine_risk":4,"frizz_risk":1,"updated_at":"2026-05-31T21:42:40.270207+05:30"},{"city":"Vellore","state":"Tamil Nadu","latitude":12.9165,"longitude":79.1325,"temp":28.6,"humidity":74,"rain":0.0,"pressure":984.9,"uv_index":8.45,"wind_gusts":26.3,"aqi":97,"pm10":40.6,"pm2_5":35.6,"no2":24.7,"co":252.0,"o3":45.0,"so2":6.4,"mosquito_risk":7,"arthritis_risk":5,"migraine_risk":7,"frizz_risk":1,"updated_at":"2026-05-31T21:42:40.270215+05:30"},{"city":"Erode","state":"Tamil Nadu","latitude":11.341,"longitude":77.7172,"temp":29.0,"humidity":71,"rain":0.0,"pressure":990.5,"uv_index":8.75,"wind_gusts":37.8,"aqi":65,"pm10":17.2,"pm2_5":13.4,"no2":9.3,"co":371.0,"o3":65.0,"so2":2.9,"mosquito_risk":7,"arthritis_risk":5,"migraine_risk":7,"frizz_risk":1,"updated_at":"2026-05-31T21:42:40.270222+05:30"},{"city":"Kochi","state":"Kerala","latitude":9.9312,"longitude":76.2673,"temp":27.0,"humidity":86,"rain":0.0,"pressure":1011.9,"uv_index":7.75,"wind_gusts":29.2,"aqi":61,"pm10":17.2,"pm2_5":14.4,"no2":16.9,"co":240.0,"o3":30.0,"so2":5.1,"mosquito_risk":7,"arthritis_risk":0,"migraine_risk":4,"frizz_risk":1,"updated_at":"2026-05-31T21:42:40.270230+05:30"},{"city":"Thiruvananthapuram","state":"Kerala","latitude":8.5241,"longitude":76.9366,"temp":25.4,"humidity":95,"rain":0.0,"pressure":1011.4,"uv_index":7.35,"wind_gusts":32.4,"aqi":32,"pm10":11.4,"pm2_5":6.6,"no2":2.7,"co":214.0,"o3":59.0,"so2":1.1,"mosquito_risk":7,"arthritis_risk":0,"migraine_risk":4,"frizz_risk":1,"updated_at":"2026-05-31T21:42:40.270237+05:30"},{"city":"Kozhikode","state":"Kerala","latitude":11.2588,"longitude":75.7804,"temp":26.0,"humidity":99,"rain":0.1,"pressure":1010.6,"uv_index":8.65,"wind_gusts":32.4,"aqi":30,"pm10":10.7,"pm2_5":5.7,"no2":1.2,"co":316.0,"o3":70.0,"so2":0.7,"mosquito_risk":10,"arthritis_risk":0,"migraine_risk":4,"frizz_risk":1,"updated_at":"2026-05-31T21:42:40.270245+05:30"},{"city":"Thrissur","state":"Kerala","latitude":10.5276,"longitude":76.2144,"temp":25.5,"humidity":97,"rain":0.1,"pressure":1010.1,"uv_index":7.4,"wind_gusts":30.6,"aqi":55,"pm10":15.0,"pm2_5":12.3,"no2":10.3,"co":280.0,"o3":41.0,"so2":3.9,"mosquito_risk":10,"arthritis_risk":0,"migraine_risk":4,"frizz_risk":1,"updated_at":"2026-05-31T21:42:40.270253+05:30"},{"city":"Kannur","state":"Kerala","latitude":11.8745,"longitude":75.3704,"temp":26.0,"humidity":98,"rain":0.0,"pressure":1009.7,"uv_index":7.1,"wind_gusts":25.6,"aqi":41,"pm10":19.5,"pm2_5":16.6,"no2":13.3,"co":315.0,"o3":38.0,"so2":3.0,"mosquito_risk":7,"arthritis_risk":0,"migraine_risk":4,"frizz_risk":1,"updated_at":"2026-05-31T21:42:40.270260+05:30"},{"city":"Patna","state":"Bihar","latitude":25.5941,"longitude":85.1376,"temp":29.1,"humidity":77,"rain":0.0,"pressure":1000.5,"uv_index":8.8,"wind_gusts":33.5,"aqi":153,"pm10":111.1,"pm2_5":94.8,"no2":41.1,"co":949.0,"o3":76.0,"so2":26.3,"mosquito_risk":7,"arthritis_risk":5,"migraine_risk":4,"frizz_risk":1,"updated_at":"2026-05-31T21:42:40.270267+05:30"},{"city":"Gaya","state":"Bihar","latitude":24.7914,"longitude":85.0002,"temp":27.9,"humidity":74,"rain":0.0,"pressure":994.0,"uv_index":8.85,"wind_gusts":21.2,"aqi":136,"pm10":79.4,"pm2_5":69.6,"no2":34.3,"co":530.0,"o3":65.0,"so2":18.4,"mosquito_risk":7,"arthritis_risk":5,"migraine_risk":7,"frizz_risk":1,"updated_at":"2026-05-31T21:42:40.270274+05:30"},{"city":"Muzaffarpur","state":"Bihar","latitude":26.1209,"longitude":85.3647,"temp":27.6,"humidity":85,"rain":0.0,"pressure":1000.3,"uv_index":8.75,"wind_gusts":33.5,"aqi":152,"pm10":132.7,"pm2_5":113.6,"no2":44.9,"co":762.0,"o3":80.0,"so2":27.2,"mosquito_risk":7,"arthritis_risk":5,"migraine_risk":4,"frizz_risk":1,"updated_at":"2026-05-31T21:42:40.270282+05:30"},{"city":"Bhagalpur","state":"Bihar","latitude":25.2425,"longitude":87.0117,"temp":29.5,"humidity":85,"rain":0.0,"pressure":1001.1,"uv_index":8.75,"wind_gusts":19.8,"aqi":198,"pm10":92.4,"pm2_5":77.1,"no2":25.1,"co":346.0,"o3":106.0,"so2":22.4,"mosquito_risk":7,"arthritis_risk":5,"migraine_risk":4,"frizz_risk":1,"updated_at":"2026-05-31T21:42:40.270290+05:30"},{"city":"Ranchi","state":"Jharkhand","latitude":23.3441,"longitude":85.3096,"temp":24.2,"humidity":87,"rain":0.0,"pressure":938.2,"uv_index":9.2,"wind_gusts":34.9,"aqi":118,"pm10":54.4,"pm2_5":43.0,"no2":15.1,"co":450.0,"o3":95.0,"so2":8.2,"mosquito_risk":3,"arthritis_risk":5,"migraine_risk":7,"frizz_risk":1,"updated_at":"2026-05-31T21:42:40.270297+05:30"},{"city":"Jamshedpur","state":"Jharkhand","latitude":22.8046,"longitude":86.2029,"temp":27.0,"humidity":88,"rain":0.0,"pressure":991.3,"uv_index":5.55,"wind_gusts":36.7,"aqi":155,"pm10":73.8,"pm2_5":63.3,"no2":28.9,"co":569.0,"o3":86.0,"so2":27.9,"mosquito_risk":7,"arthritis_risk":5,"migraine_risk":3,"frizz_risk":1,"updated_at":"2026-05-31T21:42:40.270305+05:30"},{"city":"Dhanbad","state":"Jharkhand","latitude":23.7957,"longitude":86.4304,"temp":27.0,"humidity":88,"rain":0.0,"pressure":980.4,"uv_index":8.85,"wind_gusts":25.2,"aqi":162,"pm10":123.4,"pm2_5":110.1,"no2":61.7,"co":1680.0,"o3":80.0,"so2":152.3,"mosquito_risk":7,"arthritis_risk":5,"migraine_risk":7,"frizz_risk":1,"updated_at":"2026-05-31T21:42:40.270312+05:30"},{"city":"Bokaro","state":"Jharkhand","latitude":23.6693,"longitude":86.1511,"temp":27.2,"humidity":85,"rain":0.0,"pressure":984.2,"uv_index":9.0,"wind_gusts":30.6,"aqi":173,"pm10":139.2,"pm2_5":124.8,"no2":65.4,"co":1614.0,"o3":82.0,"so2":154.6,"mosquito_risk":7,"arthritis_risk":5,"migraine_risk":7,"frizz_risk":1,"updated_at":"2026-05-31T21:42:40.270322+05:30"},{"city":"Bhubaneswar","state":"Odisha","latitude":20.2961,"longitude":85.8245,"temp":28.4,"humidity":88,"rain":0.0,"pressure":1002.7,"uv_index":8.85,"wind_gusts":24.8,"aqi":116,"pm10":40.6,"pm2_5":38.0,"no2":13.3,"co":377.0,"o3":79.0,"so2":8.2,"mosquito_risk":7,"arthritis_risk":5,"migraine_risk":4,"frizz_risk":1,"updated_at":"2026-05-31T21:42:40.270329+05:30"},{"city":"Cuttack","state":"Odisha","latitude":20.4625,"longitude":85.8828,"temp":28.9,"humidity":88,"rain":0.0,"pressure":1004.4,"uv_index":9.1,"wind_gusts":27.4,"aqi":116,"pm10":40.6,"pm2_5":38.0,"no2":13.3,"co":417.0,"o3":79.0,"so2":8.2,"mosquito_risk":7,"arthritis_risk":5,"migraine_risk":4,"frizz_risk":1,"updated_at":"2026-05-31T21:42:40.270337+05:30"},{"city":"Rourkela","state":"Odisha","latitude":22.2604,"longitude":84.8536,"temp":28.8,"humidity":74,"rain":0.0,"pressure":984.5,"uv_index":8.9,"wind_gusts":37.1,"aqi":161,"pm10":49.4,"pm2_5":41.6,"no2":12.4,"co":296.0,"o3":119.0,"so2":19.5,"mosquito_risk":7,"arthritis_risk":5,"migraine_risk":7,"frizz_risk":1,"updated_at":"2026-05-31T21:42:40.270344+05:30"},{"city":"Raipur","state":"Chhattisgarh","latitude":21.2514,"longitude":81.6296,"temp":32.6,"humidity":36,"rain":0.0,"pressure":974.0,"uv_index":8.85,"wind_gusts":30.2,"aqi":125,"pm10":77.5,"pm2_5":58.4,"no2":41.3,"co":452.0,"o3":73.0,"so2":42.7,"mosquito_risk":0,"arthritis_risk":5,"migraine_risk":7,"frizz_risk":0,"updated_at":"2026-05-31T21:42:40.270351+05:30"},{"city":"Bhilai","state":"Chhattisgarh","latitude":21.1938,"longitude":81.3509,"temp":33.0,"humidity":33,"rain":0.0,"pressure":974.3,"uv_index":8.85,"wind_gusts":28.4,"aqi":134,"pm10":84.1,"pm2_5":59.3,"no2":42.6,"co":572.0,"o3":57.0,"so2":41.8,"mosquito_risk":0,"arthritis_risk":5,"migraine_risk":7,"frizz_risk":0,"updated_at":"2026-05-31T21:42:40.270358+05:30"},{"city":"Guwahati","state":"Assam","latitude":26.1158,"longitude":91.7086,"temp":26.9,"humidity":86,"rain":0.0,"pressure":1001.7,"uv_index":8.75,"wind_gusts":29.9,"aqi":68,"pm10":25.1,"pm2_5":21.8,"no2":10.1,"co":293.0,"o3":45.0,"so2":2.1,"mosquito_risk":7,"arthritis_risk":5,"migraine_risk":4,"frizz_risk":1,"updated_at":"2026-05-31T21:42:40.270366+05:30"},{"city":"Agartala","state":"Tripura","latitude":23.8315,"longitude":91.2868,"temp":27.8,"humidity":81,"rain":0.0,"pressure":1006.2,"uv_index":8.85,"wind_gusts":23.8,"aqi":151,"pm10":108.5,"pm2_5":99.9,"no2":46.2,"co":686.0,"o3":70.0,"so2":13.9,"mosquito_risk":7,"arthritis_risk":5,"migraine_risk":4,"frizz_risk":1,"updated_at":"2026-05-31T21:42:40.270373+05:30"},{"city":"Shillong","state":"Meghalaya","latitude":25.5788,"longitude":91.8933,"temp":19.2,"humidity":93,"rain":0.0,"pressure":858.7,"uv_index":9.05,"wind_gusts":23.8,"aqi":64,"pm10":9.0,"pm2_5":7.4,"no2":6.4,"co":361.0,"o3":70.0,"so2":1.7,"mosquito_risk":3,"arthritis_risk":10,"migraine_risk":7,"frizz_risk":1,"updated_at":"2026-05-31T21:42:40.270380+05:30"},{"city":"Imphal","state":"Manipur","latitude":24.817,"longitude":93.9368,"temp":22.6,"humidity":94,"rain":0.0,"pressure":924.5,"uv_index":9.0,"wind_gusts":20.5,"aqi":58,"pm10":13.2,"pm2_5":13.0,"no2":12.9,"co":732.0,"o3":31.0,"so2":2.8,"mosquito_risk":3,"arthritis_risk":5,"migraine_risk":7,"frizz_risk":1,"updated_at":"2026-05-31T21:42:40.270388+05:30"},{"city":"Aizawl","state":"Mizoram","latitude":23.7271,"longitude":92.7176,"temp":20.7,"humidity":98,"rain":0.0,"pressure":893.2,"uv_index":8.2,"wind_gusts":23.4,"aqi":35,"pm10":8.6,"pm2_5":7.6,"no2":7.2,"co":269.0,"o3":31.0,"so2":0.8,"mosquito_risk":3,"arthritis_risk":5,"migraine_risk":7,"frizz_risk":1,"updated_at":"2026-05-31T21:42:40.270395+05:30"},{"city":"Kohima","state":"Nagaland","latitude":25.6701,"longitude":94.1077,"temp":18.8,"humidity":97,"rain":0.2,"pressure":856.4,"uv_index":1.95,"wind_gusts":23.0,"aqi":47,"pm10":9.1,"pm2_5":8.1,"no2":11.2,"co":267.0,"o3":34.0,"so2":1.3,"mosquito_risk":6,"arthritis_risk":10,"migraine_risk":3,"frizz_risk":1,"updated_at":"2026-05-31T21:42:40.270402+05:30"},{"city":"Gangtok","state":"Sikkim","latitude":27.3314,"longitude":88.6138,"temp":17.7,"humidity":84,"rain":0.0,"pressure":839.6,"uv_index":9.2,"wind_gusts":40.7,"aqi":78,"pm10":33.3,"pm2_5":23.7,"no2":11.5,"co":398.0,"o3":99.0,"so2":2.4,"mosquito_risk":3,"arthritis_risk":10,"migraine_risk":7,"frizz_risk":0,"updated_at":"2026-05-31T21:42:40.270409+05:30"},{"city":"Siliguri","state":"West Bengal","latitude":26.7271,"longitude":88.3953,"temp":27.0,"humidity":80,"rain":0.0,"pressure":993.0,"uv_index":8.6,"wind_gusts":20.9,"aqi":132,"pm10":71.9,"pm2_5":50.9,"no2":17.8,"co":976.0,"o3":114.0,"so2":7.7,"mosquito_risk":7,"arthritis_risk":5,"migraine_risk":7,"frizz_risk":1,"updated_at":"2026-05-31T21:42:43.611191+05:30"},{"city":"Durgapur","state":"West Bengal","latitude":23.5204,"longitude":87.3119,"temp":27.6,"humidity":86,"rain":0.0,"pressure":995.3,"uv_index":8.95,"wind_gusts":19.1,"aqi":160,"pm10":172.8,"pm2_5":163.4,"no2":56.9,"co":536.0,"o3":71.0,"so2":58.7,"mosquito_risk":7,"arthritis_risk":5,"migraine_risk":7,"frizz_risk":1,"updated_at":"2026-05-31T21:42:43.611227+05:30"},{"city":"Asansol","state":"West Bengal","latitude":23.6739,"longitude":86.9524,"temp":27.8,"humidity":88,"rain":0.0,"pressure":993.9,"uv_index":9.0,"wind_gusts":30.6,"aqi":155,"pm10":118.0,"pm2_5":106.9,"no2":43.7,"co":750.0,"o3":89.0,"so2":50.0,"mosquito_risk":7,"arthritis_risk":5,"migraine_risk":7,"frizz_risk":1,"updated_at":"2026-05-31T21:42:43.611240+05:30"},{"city":"Pondicherry","state":"Puducherry","latitude":11.9139,"longitude":79.8145,"temp":30.6,"humidity":80,"rain":0.0,"pressure":1008.4,"uv_index":8.85,"wind_gusts":38.2,"aqi":112,"pm10":19.8,"pm2_5":14.4,"no2":6.6,"co":204.0,"o3":77.0,"so2":5.3,"mosquito_risk":3,"arthritis_risk":0,"migraine_risk":4,"frizz_risk":1,"updated_at":"2026-05-31T21:42:43.611250+05:30"},{"city":"Port Blair","state":"Andaman and Nicobar Islands","latitude":11.6234,"longitude":92.7265,"temp":25.5,"humidity":96,"rain":0.0,"pressure":1008.7,"uv_index":8.0,"wind_gusts":36.0,"aqi":36,"pm10":10.0,"pm2_5":5.5,"no2":0.3,"co":129.0,"o3":79.0,"so2":0.4,"mosquito_risk":7,"arthritis_risk":0,"migraine_risk":4,"frizz_risk":1,"updated_at":"2026-05-31T21:42:43.611260+05:30"},{"city":"Haridwar","state":"Uttarakhand","latitude":29.9457,"longitude":78.1642,"temp":23.5,"humidity":92,"rain":0.0,"pressure":974.5,"uv_index":7.15,"wind_gusts":33.8,"aqi":92,"pm10":47.5,"pm2_5":41.4,"no2":28.2,"co":332.0,"o3":60.0,"so2":7.6,"mosquito_risk":3,"arthritis_risk":5,"migraine_risk":7,"frizz_risk":1,"updated_at":"2026-05-31T21:42:43.611269+05:30"},{"city":"Rishikesh","state":"Uttarakhand","latitude":30.0869,"longitude":78.2676,"temp":22.4,"humidity":94,"rain":0.0,"pressure":967.2,"uv_index":6.9,"wind_gusts":22.7,"aqi":72,"pm10":27.0,"pm2_5":21.3,"no2":14.9,"co":397.0,"o3":86.0,"so2":3.3,"mosquito_risk":3,"arthritis_risk":5,"migraine_risk":7,"frizz_risk":1,"updated_at":"2026-05-31T21:42:43.611279+05:30"},{"city":"Nainital","state":"Uttarakhand","latitude":29.3919,"longitude":79.4542,"temp":12.4,"humidity":90,"rain":0.0,"pressure":804.4,"uv_index":6.15,"wind_gusts":27.4,"aqi":85,"pm10":29.3,"pm2_5":23.2,"no2":16.4,"co":337.0,"o3":82.0,"so2":2.8,"mosquito_risk":3,"arthritis_risk":10,"migraine_risk":7,"frizz_risk":0,"updated_at":"2026-05-31T21:42:43.611288+05:30"},{"city":"Mussoorie","state":"Uttarakhand","latitude":30.4599,"longitude":78.0664,"temp":12.1,"humidity":85,"rain":0.0,"pressure":801.6,"uv_index":7.65,"wind_gusts":38.9,"aqi":91,"pm10":23.5,"pm2_5":20.5,"no2":24.2,"co":330.0,"o3":66.0,"so2":5.5,"mosquito_risk":3,"arthritis_risk":10,"migraine_risk":7,"frizz_risk":0,"updated_at":"2026-05-31T21:42:43.611295+05:30"},{"city":"Dharamshala","state":"Himachal Pradesh","latitude":32.219,"longitude":76.3234,"temp":18.3,"humidity":62,"rain":0.0,"pressure":869.8,"uv_index":7.85,"wind_gusts":30.2,"aqi":73,"pm10":23.9,"pm2_5":16.9,"no2":12.9,"co":238.0,"o3":67.0,"so2":0.5,"mosquito_risk":3,"arthritis_risk":5,"migraine_risk":7,"frizz_risk":0,"updated_at":"2026-05-31T21:42:43.611302+05:30"},{"city":"Dalhousie","state":"Himachal Pradesh","latitude":32.5387,"longitude":75.971,"temp":12.8,"humidity":93,"rain":0.0,"pressure":804.5,"uv_index":7.7,"wind_gusts":31.3,"aqi":116,"pm10":49.0,"pm2_5":26.4,"no2":25.7,"co":506.0,"o3":97.0,"so2":3.4,"mosquito_risk":3,"arthritis_risk":10,"migraine_risk":7,"frizz_risk":0,"updated_at":"2026-05-31T21:42:43.611310+05:30"},{"city":"Patiala","state":"Punjab","latitude":30.3398,"longitude":76.3869,"temp":24.6,"humidity":69,"rain":0.0,"pressure":978.8,"uv_index":7.5,"wind_gusts":44.6,"aqi":295,"pm10":295.2,"pm2_5":55.8,"no2":9.5,"co":454.0,"o3":108.0,"so2":7.6,"mosquito_risk":3,"arthritis_risk":5,"migraine_risk":7,"frizz_risk":1,"updated_at":"2026-05-31T21:42:43.611318+05:30"},{"city":"Bhatinda","state":"Punjab","latitude":30.211,"longitude":74.9455,"temp":27.9,"humidity":55,"rain":0.0,"pressure":983.9,"uv_index":8.2,"wind_gusts":33.5,"aqi":480,"pm10":646.3,"pm2_5":141.6,"no2":12.7,"co":367.0,"o3":100.0,"so2":10.8,"mosquito_risk":4,"arthritis_risk":5,"migraine_risk":7,"frizz_risk":1,"updated_at":"2026-05-31T21:42:43.611325+05:30"},{"city":"Rohtak","state":"Haryana","latitude":28.8955,"longitude":76.6066,"temp":26.6,"humidity":67,"rain":0.0,"pressure":982.3,"uv_index":7.6,"wind_gusts":36.4,"aqi":468,"pm10":566.2,"pm2_5":98.0,"no2":20.4,"co":416.0,"o3":122.0,"so2":25.5,"mosquito_risk":7,"arthritis_risk":5,"migraine_risk":7,"frizz_risk":1,"updated_at":"2026-05-31T21:42:43.611332+05:30"},{"city":"Panipat","state":"Haryana","latitude":29.3909,"longitude":76.9635,"temp":25.5,"humidity":71,"rain":0.0,"pressure":981.0,"uv_index":7.4,"wind_gusts":36.0,"aqi":508,"pm10":1195.8,"pm2_5":165.3,"no2":12.6,"co":460.0,"o3":115.0,"so2":12.3,"mosquito_risk":7,"arthritis_risk":5,"migraine_risk":7,"frizz_risk":1,"updated_at":"2026-05-31T21:42:43.611339+05:30"},{"city":"Mathura","state":"Uttar Pradesh","latitude":27.4924,"longitude":77.6737,"temp":25.9,"humidity":72,"rain":0.0,"pressure":986.4,"uv_index":7.9,"wind_gusts":49.0,"aqi":418,"pm10":378.1,"pm2_5":61.9,"no2":13.9,"co":331.0,"o3":100.0,"so2":7.8,"mosquito_risk":7,"arthritis_risk":5,"migraine_risk":7,"frizz_risk":1,"updated_at":"2026-05-31T21:42:43.611346+05:30"},{"city":"Vrindavan","state":"Uttar Pradesh","latitude":27.5823,"longitude":77.7027,"temp":26.1,"humidity":69,"rain":0.0,"pressure":986.8,"uv_index":7.85,"wind_gusts":54.7,"aqi":418,"pm10":378.1,"pm2_5":61.9,"no2":13.9,"co":325.0,"o3":100.0,"so2":7.8,"mosquito_risk":7,"arthritis_risk":5,"migraine_risk":7,"frizz_risk":1,"updated_at":"2026-05-31T21:42:43.611353+05:30"},{"city":"Ayodhya","state":"Uttar Pradesh","latitude":26.7922,"longitude":82.1998,"temp":26.6,"humidity":84,"rain":0.0,"pressure":995.5,"uv_index":8.25,"wind_gusts":36.7,"aqi":108,"pm10":54.1,"pm2_5":41.0,"no2":22.8,"co":373.0,"o3":84.0,"so2":8.8,"mosquito_risk":7,"arthritis_risk":5,"migraine_risk":7,"frizz_risk":1,"updated_at":"2026-05-31T21:42:43.611360+05:30"},{"city":"Ratlam","state":"Madhya Pradesh","latitude":23.3315,"longitude":75.0367,"temp":30.0,"humidity":52,"rain":0.0,"pressure":955.0,"uv_index":8.4,"wind_gusts":47.2,"aqi":67,"pm10":55.3,"pm2_5":28.8,"no2":4.4,"co":191.0,"o3":72.0,"so2":5.0,"mosquito_risk":4,"arthritis_risk":5,"migraine_risk":7,"frizz_risk":1,"updated_at":"2026-05-31T21:42:43.611367+05:30"},{"city":"Sagar","state":"Madhya Pradesh","latitude":23.8388,"longitude":78.7378,"temp":28.0,"humidity":51,"rain":0.0,"pressure":950.5,"uv_index":8.65,"wind_gusts":42.8,"aqi":78,"pm10":15.4,"pm2_5":10.8,"no2":8.0,"co":295.0,"o3":91.0,"so2":3.2,"mosquito_risk":4,"arthritis_risk":5,"migraine_risk":7,"frizz_risk":1,"updated_at":"2026-05-31T21:42:43.611374+05:30"},{"city":"Satna","state":"Madhya Pradesh","latitude":24.6005,"longitude":80.8322,"temp":29.8,"humidity":52,"rain":0.0,"pressure":971.7,"uv_index":8.7,"wind_gusts":55.4,"aqi":111,"pm10":29.7,"pm2_5":21.6,"no2":10.0,"co":340.0,"o3":97.0,"so2":4.2,"mosquito_risk":4,"arthritis_risk":5,"migraine_risk":7,"frizz_risk":1,"updated_at":"2026-05-31T21:42:43.611380+05:30"},{"city":"Akola","state":"Maharashtra","latitude":20.7002,"longitude":77.0082,"temp":33.4,"humidity":37,"rain":0.0,"pressure":974.9,"uv_index":8.75,"wind_gusts":64.1,"aqi":73,"pm10":54.4,"pm2_5":27.9,"no2":12.4,"co":201.0,"o3":75.0,"so2":5.4,"mosquito_risk":0,"arthritis_risk":5,"migraine_risk":7,"frizz_risk":1,"updated_at":"2026-05-31T21:42:43.611388+05:30"},{"city":"Amravati","state":"Maharashtra","latitude":20.9374,"longitude":77.7796,"temp":32.5,"humidity":37,"rain":0.0,"pressure":967.3,"uv_index":8.75,"wind_gusts":48.6,"aqi":73,"pm10":52.6,"pm2_5":27.1,"no2":14.0,"co":186.0,"o3":73.0,"so2":6.1,"mosquito_risk":0,"arthritis_risk":5,"migraine_risk":7,"frizz_risk":1,"updated_at":"2026-05-31T21:42:43.611396+05:30"},{"city":"Latur","state":"Maharashtra","latitude":18.4088,"longitude":76.5604,"temp":30.7,"humidity":37,"rain":0.0,"pressure":940.4,"uv_index":8.95,"wind_gusts":44.3,"aqi":70,"pm10":34.2,"pm2_5":19.9,"no2":5.9,"co":168.0,"o3":82.0,"so2":2.6,"mosquito_risk":0,"arthritis_risk":5,"migraine_risk":7,"frizz_risk":0,"updated_at":"2026-05-31T21:42:43.611403+05:30"},{"city":"Nanded","state":"Maharashtra","latitude":19.1383,"longitude":77.3091,"temp":33.5,"humidity":36,"rain":0.0,"pressure":968.4,"uv_index":8.85,"wind_gusts":47.2,"aqi":78,"pm10":47.6,"pm2_5":24.4,"no2":5.9,"co":175.0,"o3":81.0,"so2":1.9,"mosquito_risk":0,"arthritis_risk":5,"migraine_risk":7,"frizz_risk":1,"updated_at":"2026-05-31T21:42:43.611409+05:30"},{"city":"Gulbarga","state":"Karnataka","latitude":17.3297,"longitude":76.8343,"temp":33.3,"humidity":31,"rain":0.0,"pressure":958.9,"uv_index":8.95,"wind_gusts":46.4,"aqi":61,"pm10":50.6,"pm2_5":23.9,"no2":15.8,"co":172.0,"o3":63.0,"so2":3.5,"mosquito_risk":0,"arthritis_risk":5,"migraine_risk":7,"frizz_risk":0,"updated_at":"2026-05-31T21:42:43.611416+05:30"},{"city":"Bidar","state":"Karnataka","latitude":17.9104,"longitude":77.5199,"temp":28.9,"humidity":49,"rain":0.0,"pressure":935.4,"uv_index":9.0,"wind_gusts":45.4,"aqi":77,"pm10":100.8,"pm2_5":47.4,"no2":21.3,"co":232.0,"o3":57.0,"so2":5.7,"mosquito_risk":4,"arthritis_risk":5,"migraine_risk":7,"frizz_risk":1,"updated_at":"2026-05-31T21:42:43.611422+05:30"},{"city":"Hospet","state":"Karnataka","latitude":15.2689,"longitude":76.3909,"temp":25.5,"humidity":75,"rain":0.0,"pressure":957.0,"uv_index":9.0,"wind_gusts":56.5,"aqi":44,"pm10":13.5,"pm2_5":10.5,"no2":6.5,"co":170.0,"o3":67.0,"so2":1.7,"mosquito_risk":7,"arthritis_risk":5,"migraine_risk":7,"frizz_risk":1,"updated_at":"2026-05-31T21:42:43.611429+05:30"},{"city":"Tirupur","state":"Tamil Nadu","latitude":11.1085,"longitude":77.3411,"temp":26.6,"humidity":84,"rain":0.0,"pressure":976.5,"uv_index":8.5,"wind_gusts":41.4,"aqi":54,"pm10":15.1,"pm2_5":12.4,"no2":10.0,"co":194.0,"o3":64.0,"so2":3.5,"mosquito_risk":7,"arthritis_risk":5,"migraine_risk":7,"frizz_risk":1,"updated_at":"2026-05-31T21:42:43.611436+05:30"},{"city":"Alappuzha","state":"Kerala","latitude":9.4981,"longitude":76.3388,"temp":26.3,"humidity":92,"rain":0.0,"pressure":1012.0,"uv_index":6.4,"wind_gusts":37.8,"aqi":46,"pm10":18.8,"pm2_5":13.7,"no2":10.9,"co":107.0,"o3":47.0,"so2":3.0,"mosquito_risk":7,"arthritis_risk":0,"migraine_risk":4,"frizz_risk":1,"updated_at":"2026-05-31T21:42:43.611443+05:30"},{"city":"Munnar","state":"Kerala","latitude":10.0889,"longitude":77.0595,"temp":18.2,"humidity":99,"rain":0.0,"pressure":858.9,"uv_index":7.95,"wind_gusts":25.9,"aqi":39,"pm10":4.6,"pm2_5":4.1,"no2":6.5,"co":185.0,"o3":60.0,"so2":1.8,"mosquito_risk":3,"arthritis_risk":10,"migraine_risk":7,"frizz_risk":1,"updated_at":"2026-05-31T21:42:43.611450+05:30"},{"city":"Silchar","state":"Assam","latitude":24.8333,"longitude":92.7789,"temp":28.0,"humidity":91,"rain":0.0,"pressure":1005.0,"uv_index":8.2,"wind_gusts":24.8,"aqi":105,"pm10":44.2,"pm2_5":36.4,"no2":12.0,"co":494.0,"o3":54.0,"so2":7.0,"mosquito_risk":7,"arthritis_risk":5,"migraine_risk":4,"frizz_risk":1,"updated_at":"2026-05-31T21:42:43.611457+05:30"},{"city":"Dibrugarh","state":"Assam","latitude":27.4728,"longitude":94.912,"temp":28.0,"humidity":89,"rain":0.0,"pressure":995.6,"uv_index":5.15,"wind_gusts":22.7,"aqi":104,"pm10":36.2,"pm2_5":33.9,"no2":23.1,"co":377.0,"o3":15.0,"so2":2.5,"mosquito_risk":7,"arthritis_risk":5,"migraine_risk":3,"frizz_risk":1,"updated_at":"2026-05-31T21:42:43.611464+05:30"}]