[{"city":"Delhi","state":"Delhi","latitude":28.6139,"longitude":77.209,"temp":22.5,"humidity":52,"rain":0.0,"pressure":984.8,"uv_index":6.0,"wind_gusts":26.3,"aqi":195,"pm10":344.6,"pm2_5":94.5,"mosquito_risk":0,"arthritis_risk":5,"migraine_risk":3,"frizz_risk":0,"updated_at":"2026-03-12T00:31:05.155338+05:30"},{"city":"Mumbai","state":"Maharashtra","latitude":19.076,"longitude":72.8777,"temp":27.8,"humidity":87,"rain":0.0,"pressure":1010.3,"uv_index":7.6,"wind_gusts":31.0,"aqi":153,"pm10":71.5,"pm2_5":66.4,"mosquito_risk":7,"arthritis_risk":0,"migraine_risk":4,"frizz_risk":1,"updated_at":"2026-03-12T00:31:05.155401+05:30"},{"city":"Bangalore","state":"Karnataka","latitude":12.9716,"longitude":77.5946,"temp":22.3,"humidity":63,"rain":0.0,"pressure":913.2,"uv_index":9.3,"wind_gusts":32.0,"aqi":60,"pm10":21.0,"pm2_5":20.4,"mosquito_risk":3,"arthritis_risk":5,"migraine_risk":7,"frizz_risk":0,"updated_at":"2026-03-12T00:31:05.155418+05:30"},{"city":"Hyderabad","state":"Telangana","latitude":17.385,"longitude":78.4867,"temp":24.1,"humidity":56,"rain":0.0,"pressure":955.2,"uv_index":8.65,"wind_gusts":18.7,"aqi":75,"pm10":47.0,"pm2_5":37.5,"mosquito_risk":0,"arthritis_risk":5,"migraine_risk":7,"frizz_risk":0,"updated_at":"2026-03-12T00:31:05.155430+05:30"},{"city":"Chennai","state":"Tamil Nadu","latitude":13.0827,"longitude":80.2707,"temp":25.2,"humidity":87,"rain":0.0,"pressure":1009.7,"uv_index":9.05,"wind_gusts":29.5,"aqi":67,"pm10":27.2,"pm2_5":22.7,"mosquito_risk":7,"arthritis_risk":0,"migraine_risk":4,"frizz_risk":1,"updated_at":"2026-03-12T00:31:05.155440+05:30"},{"city":"Kolkata","state":"West Bengal","latitude":22.5726,"longitude":88.3639,"temp":24.2,"humidity":95,"rain":0.0,"pressure":1007.7,"uv_index":8.0,"wind_gusts":24.5,"aqi":135,"pm10":40.4,"pm2_5":37.5,"mosquito_risk":3,"arthritis_risk":5,"migraine_risk":4,"frizz_risk":1,"updated_at":"2026-03-12T00:31:05.155451+05:30"},{"city":"Pune","state":"Maharashtra","latitude":18.5204,"longitude":73.8567,"temp":22.9,"humidity":87,"rain":0.0,"pressure":950.3,"uv_index":8.15,"wind_gusts":28.4,"aqi":118,"pm10":74.3,"pm2_5":70.3,"mosquito_risk":3,"arthritis_risk":5,"migraine_risk":7,"frizz_risk":1,"updated_at":"2026-03-12T00:31:05.155468+05:30"},{"city":"Ahmedabad","state":"Gujarat","latitude":23.0225,"longitude":72.5714,"temp":26.2,"humidity":30,"rain":0.0,"pressure":1004.4,"uv_index":7.45,"wind_gusts":29.2,"aqi":69,"pm10":26.0,"pm2_5":25.0,"mosquito_risk":4,"arthritis_risk":5,"migraine_risk":4,"frizz_risk":0,"updated_at":"2026-03-12T00:31:05.155478+05:30"},{"city":"Jaipur","state":"Rajasthan","latitude":26.9124,"longitude":75.7873,"temp":27.2,"humidity":22,"rain":0.0,"pressure":962.4,"uv_index":5.9,"wind_gusts":38.2,"aqi":102,"pm10":77.8,"pm2_5":30.3,"mosquito_risk":4,"arthritis_risk":5,"migraine_risk":3,"frizz_risk":0,"updated_at":"2026-03-12T00:31:05.155487+05:30"},{"city":"Lucknow","state":"Uttar Pradesh","latitude":26.8467,"longitude":80.9462,"temp":24.2,"humidity":67,"rain":0.0,"pressure":994.7,"uv_index":6.5,"wind_gusts":30.2,"aqi":173,"pm10":306.4,"pm2_5":64.7,"mosquito_risk":3,"arthritis_risk":5,"migraine_risk":7,"frizz_risk":1,"updated_at":"2026-03-12T00:31:05.155496+05:30"},{"city":"Kanpur","state":"Uttar Pradesh","latitude":26.4499,"longitude":80.3319,"temp":24.1,"humidity":73,"rain":0.0,"pressure":993.1,"uv_index":6.05,"wind_gusts":25.2,"aqi":169,"pm10":450.8,"pm2_5":73.8,"mosquito_risk":3,"arthritis_risk":5,"migraine_risk":7,"frizz_risk":1,"updated_at":"2026-03-12T00:31:05.155504+05:30"},{"city":"Chandigarh","state":"Chandigarh","latitude":30.7333,"longitude":76.7794,"temp":21.4,"humidity":58,"rain":0.0,"pressure":970.4,"uv_index":5.75,"wind_gusts":27.7,"aqi":122,"pm10":61.7,"pm2_5":47.0,"mosquito_risk":0,"arthritis_risk":5,"migraine_risk":3,"frizz_risk":0,"updated_at":"2026-03-12T00:31:05.155513+05:30"},{"city":"Srinagar","state":"Jammu and Kashmir","latitude":34.0837,"longitude":74.7973,"temp":8.6,"humidity":94,"rain":0.0,"pressure":843.8,"uv_index":6.95,"wind_gusts":22.3,"aqi":113,"pm10":64.7,"pm2_5":56.3,"mosquito_risk":3,"arthritis_risk":10,"migraine_risk":7,"frizz_risk":0,"updated_at":"2026-03-12T00:31:05.155522+05:30"},{"city":"Jammu","state":"Jammu and Kashmir","latitude":32.7266,"longitude":74.857,"temp":19.3,"humidity":67,"rain":0.0,"pressure":974.8,"uv_index":6.65,"wind_gusts":24.8,"aqi":80,"pm10":26.9,"pm2_5":21.0,"mosquito_risk":3,"arthritis_risk":5,"migraine_risk":7,"frizz_risk":0,"updated_at":"2026-03-12T00:31:05.155529+05:30"},{"city":"Amritsar","state":"Punjab","latitude":31.634,"longitude":74.8723,"temp":21.9,"humidity":87,"rain":0.0,"pressure":983.2,"uv_index":6.65,"wind_gusts":18.4,"aqi":156,"pm10":75.9,"pm2_5":60.1,"mosquito_risk":3,"arthritis_risk":5,"migraine_risk":7,"frizz_risk":1,"updated_at":"2026-03-12T00:31:05.155536+05:30"},{"city":"Ludhiana","state":"Punjab","latitude":30.901,"longitude":75.8573,"temp":23.6,"humidity":58,"rain":0.0,"pressure":980.8,"uv_index":5.95,"wind_gusts":37.8,"aqi":171,"pm10":152.3,"pm2_5":108.0,"mosquito_risk":0,"arthritis_risk":5,"migraine_risk":3,"frizz_risk":0,"updated_at":"2026-03-12T00:31:05.155562+05:30"},{"city":"Jalandhar","state":"Punjab","latitude":31.326,"longitude":75.5762,"temp":22.4,"humidity":67,"rain":0.0,"pressure":982.1,"uv_index":6.35,"wind_gusts":31.7,"aqi":166,"pm10":143.9,"pm2_5":106.2,"mosquito_risk":3,"arthritis_risk":5,"migraine_risk":7,"frizz_risk":0,"updated_at":"2026-03-12T00:31:05.155573+05:30"},{"city":"Dehradun","state":"Uttarakhand","latitude":30.6284,"longitude":78.0322,"temp":14.8,"humidity":57,"rain":0.0,"pressure":831.0,"uv_index":5.25,"wind_gusts":29.2,"aqi":66,"pm10":39.2,"pm2_5":28.4,"mosquito_risk":0,"arthritis_risk":5,"migraine_risk":3,"frizz_risk":0,"updated_at":"2026-03-12T00:31:05.155580+05:30"},{"city":"Shimla","state":"Himachal Pradesh","latitude":31.1048,"longitude":77.1734,"temp":12.5,"humidity":73,"rain":0.0,"pressure":785.2,"uv_index":5.85,"wind_gusts":38.2,"aqi":94,"pm10":49.5,"pm2_5":38.6,"mosquito_risk":3,"arthritis_risk":5,"migraine_risk":3,"frizz_risk":0,"updated_at":"2026-03-12T00:31:05.155587+05:30"},{"city":"Manali","state":"Himachal Pradesh","latitude":32.2396,"longitude":77.1887,"temp":14.0,"humidity":65,"rain":0.0,"pressure":822.7,"uv_index":3.55,"wind_gusts":40.7,"aqi":50,"pm10":14.5,"pm2_5":6.6,"mosquito_risk":3,"arthritis_risk":5,"migraine_risk":3,"frizz_risk":0,"updated_at":"2026-03-12T00:31:05.155595+05:30"},{"city":"Gurgaon","state":"Haryana","latitude":28.4595,"longitude":77.0266,"temp":20.1,"humidity":61,"rain":0.0,"pressure":983.1,"uv_index":6.05,"wind_gusts":22.0,"aqi":658,"pm10":599.8,"pm2_5":123.4,"mosquito_risk":3,"arthritis_risk":5,"migraine_risk":7,"frizz_risk":0,"updated_at":"2026-03-12T00:31:05.155603+05:30"},{"city":"Noida","state":"Uttar Pradesh","latitude":28.5355,"longitude":77.391,"temp":22.4,"humidity":53,"rain":0.0,"pressure":986.3,"uv_index":6.1,"wind_gusts":26.3,"aqi":658,"pm10":599.8,"pm2_5":123.4,"mosquito_risk":0,"arthritis_risk":5,"migraine_risk":7,"frizz_risk":0,"updated_at":"2026-03-12T00:31:05.155610+05:30"},{"city":"Ghaziabad","state":"Uttar Pradesh","latitude":28.6692,"longitude":77.4538,"temp":20.8,"humidity":61,"rain":0.0,"pressure":984.3,"uv_index":6.05,"wind_gusts":26.3,"aqi":166,"pm10":309.2,"pm2_5":79.6,"mosquito_risk":3,"arthritis_risk":5,"migraine_risk":7,"frizz_risk":0,"updated_at":"2026-03-12T00:31:05.155617+05:30"},{"city":"Faridabad","state":"Haryana","latitude":28.4089,"longitude":77.3178,"temp":20.0,"humidity":59,"rain":0.0,"pressure":985.4,"uv_index":5.75,"wind_gusts":23.4,"aqi":658,"pm10":599.8,"pm2_5":123.4,"mosquito_risk":0,"arthritis_risk":5,"migraine_risk":3,"frizz_risk":0,"updated_at":"2026-03-12T00:31:05.155624+05:30"},{"city":"Meerut","state":"Uttar Pradesh","latitude":28.9845,"longitude":77.7064,"temp":19.6,"humidity":75,"rain":0.0,"pressure":983.0,"uv_index":5.65,"wind_gusts":31.7,"aqi":166,"pm10":309.2,"pm2_5":79.6,"mosquito_risk":3,"arthritis_risk":5,"migraine_risk":3,"frizz_risk":0,"updated_at":"2026-03-12T00:31:05.155632+05:30"},{"city":"Agra","state":"Uttar Pradesh","latitude":27.1767,"longitude":78.0081,"temp":19.5,"humidity":79,"rain":0.0,"pressure":989.8,"uv_index":6.05,"wind_gusts":19.4,"aqi":360,"pm10":517.8,"pm2_5":104.3,"mosquito_risk":3,"arthritis_risk":5,"migraine_risk":7,"frizz_risk":0,"updated_at":"2026-03-12T00:31:05.155641+05:30"},{"city":"Varanasi","state":"Uttar Pradesh","latitude":25.3176,"longitude":82.9739,"temp":23.1,"humidity":74,"rain":0.0,"pressure":999.0,"uv_index":7.3,"wind_gusts":24.1,"aqi":177,"pm10":101.7,"pm2_5":57.7,"mosquito_risk":3,"arthritis_risk":5,"migraine_risk":7,"frizz_risk":1,"updated_at":"2026-03-12T00:31:05.155651+05:30"},{"city":"Prayagraj","state":"Uttar Pradesh","latitude":25.4358,"longitude":81.8463,"temp":24.2,"humidity":64,"rain":0.0,"pressure":997.8,"uv_index":6.75,"wind_gusts":23.4,"aqi":177,"pm10":154.6,"pm2_5":80.3,"mosquito_risk":3,"arthritis_risk":5,"migraine_risk":7,"frizz_risk":1,"updated_at":"2026-03-12T00:31:05.155659+05:30"},{"city":"Gorakhpur","state":"Uttar Pradesh","latitude":26.7606,"longitude":83.3732,"temp":23.3,"humidity":82,"rain":0.0,"pressure":998.3,"uv_index":6.85,"wind_gusts":20.2,"aqi":207,"pm10":164.4,"pm2_5":150.9,"mosquito_risk":3,"arthritis_risk":5,"migraine_risk":7,"frizz_risk":1,"updated_at":"2026-03-12T00:31:05.155666+05:30"},{"city":"Bareilly","state":"Uttar Pradesh","latitude":28.367,"longitude":79.4304,"temp":20.3,"humidity":75,"rain":0.0,"pressure":988.0,"uv_index":5.65,"wind_gusts":29.5,"aqi":187,"pm10":143.0,"pm2_5":52.7,"mosquito_risk":3,"arthritis_risk":5,"migraine_risk":3,"frizz_risk":0,"updated_at":"2026-03-12T00:31:05.155673+05:30"},{"city":"Aligarh","state":"Uttar Pradesh","latitude":27.8974,"longitude":78.088,"temp":20.0,"humidity":59,"rain":0.0,"pressure":987.1,"uv_index":5.35,"wind_gusts":29.5,"aqi":425,"pm10":534.6,"pm2_5":121.5,"mosquito_risk":0,"arthritis_risk":5,"migraine_risk":3,"frizz_risk":0,"updated_at":"2026-03-12T00:31:05.155680+05:30"},{"city":"Moradabad","state":"Uttar Pradesh","latitude":28.8386,"longitude":78.7733,"temp":20.2,"humidity":76,"rain":0.0,"pressure":984.9,"uv_index":5.55,"wind_gusts":35.3,"aqi":179,"pm10":136.0,"pm2_5":50.1,"mosquito_risk":3,"arthritis_risk":5,"migraine_risk":3,"frizz_risk":0,"updated_at":"2026-03-12T00:31:05.155687+05:30"},{"city":"Saharanpur","state":"Uttar Pradesh","latitude":29.9637,"longitude":77.546,"temp":20.1,"humidity":68,"rain":0.0,"pressure":977.0,"uv_index":5.6,"wind_gusts":34.9,"aqi":160,"pm10":97.8,"pm2_5":68.7,"mosquito_risk":3,"arthritis_risk":5,"migraine_risk":3,"frizz_risk":0,"updated_at":"2026-03-12T00:31:05.155694+05:30"},{"city":"Jhansi","state":"Uttar Pradesh","latitude":25.4484,"longitude":78.5685,"temp":22.6,"humidity":54,"rain":0.0,"pressure":979.8,"uv_index":6.75,"wind_gusts":27.4,"aqi":92,"pm10":26.1,"pm2_5":18.5,"mosquito_risk":0,"arthritis_risk":5,"migraine_risk":7,"frizz_risk":0,"updated_at":"2026-03-12T00:31:08.432773+05:30"},{"city":"Surat","state":"Gujarat","latitude":21.1702,"longitude":72.8311,"temp":26.6,"humidity":75,"rain":0.0,"pressure":1008.3,"uv_index":7.35,"wind_gusts":24.5,"aqi":151,"pm10":69.6,"pm2_5":67.3,"mosquito_risk":7,"arthritis_risk":0,"migraine_risk":4,"frizz_risk":1,"updated_at":"2026-03-12T00:31:08.432808+05:30"},{"city":"Vadodara","state":"Gujarat","latitude":22.3072,"longitude":73.1812,"temp":27.8,"humidity":31,"rain":0.0,"pressure":1006.3,"uv_index":7.5,"wind_gusts":23.8,"aqi":72,"pm10":34.0,"pm2_5":32.4,"mosquito_risk":4,"arthritis_risk":5,"migraine_risk":4,"frizz_risk":0,"updated_at":"2026-03-12T00:31:08.432819+05:30"},{"city":"Rajkot","state":"Gujarat","latitude":22.3039,"longitude":70.8022,"temp":25.2,"humidity":35,"rain":0.0,"pressure":997.2,"uv_index":7.3,"wind_gusts":28.1,"aqi":82,"pm10":9.7,"pm2_5":9.6,"mosquito_risk":4,"arthritis_risk":5,"migraine_risk":7,"frizz_risk":0,"updated_at":"2026-03-12T00:31:08.432827+05:30"},{"city":"Thane","state":"Maharashtra","latitude":19.2183,"longitude":72.9781,"temp":25.8,"humidity":95,"rain":0.0,"pressure":1009.9,"uv_index":7.6,"wind_gusts":42.1,"aqi":153,"pm10":71.5,"pm2_5":66.4,"mosquito_risk":7,"arthritis_risk":0,"migraine_risk":4,"frizz_risk":1,"updated_at":"2026-03-12T00:31:08.432835+05:30"},{"city":"Nagpur","state":"Maharashtra","latitude":21.1458,"longitude":79.0882,"temp":23.5,"humidity":64,"rain":0.0,"pressure":974.9,"uv_index":8.05,"wind_gusts":15.5,"aqi":84,"pm10":47.6,"pm2_5":33.2,"mosquito_risk":3,"arthritis_risk":5,"migraine_risk":7,"frizz_risk":1,"updated_at":"2026-03-12T00:31:08.432843+05:30"},{"city":"Nashik","state":"Maharashtra","latitude":19.9975,"longitude":73.7898,"temp":23.2,"humidity":62,"rain":0.0,"pressure":947.5,"uv_index":7.8,"wind_gusts":34.2,"aqi":128,"pm10":58.2,"pm2_5":55.1,"mosquito_risk":3,"arthritis_risk":5,"migraine_risk":7,"frizz_risk":0,"updated_at":"2026-03-12T00:31:08.432851+05:30"},{"city":"Aurangabad","state":"Maharashtra","latitude":19.8762,"longitude":75.3433,"temp":23.2,"humidity":47,"rain":0.0,"pressure":945.6,"uv_index":8.35,"wind_gusts":20.9,"aqi":105,"pm10":52.3,"pm2_5":46.8,"mosquito_risk":0,"arthritis_risk":5,"migraine_risk":7,"frizz_risk":0,"updated_at":"2026-03-12T00:31:08.432859+05:30"},{"city":"Solapur","state":"Maharashtra","latitude":17.6599,"longitude":75.9064,"temp":25.9,"humidity":66,"rain":0.0,"pressure":958.6,"uv_index":8.55,"wind_gusts":16.6,"aqi":100,"pm10":37.1,"pm2_5":32.4,"mosquito_risk":7,"arthritis_risk":5,"migraine_risk":7,"frizz_risk":1,"updated_at":"2026-03-12T00:31:08.432868+05:30"},{"city":"Kolhapur","state":"Maharashtra","latitude":16.705,"longitude":74.2433,"temp":23.0,"humidity":86,"rain":0.0,"pressure":949.8,"uv_index":8.65,"wind_gusts":26.3,"aqi":145,"pm10":66.8,"pm2_5":62.9,"mosquito_risk":3,"arthritis_risk":5,"migraine_risk":7,"frizz_risk":1,"updated_at":"2026-03-12T00:31:08.432876+05:30"},{"city":"Goa","state":"Goa","latitude":15.2993,"longitude":74.124,"temp":27.7,"humidity":83,"rain":0.0,"pressure":1000.0,"uv_index":8.7,"wind_gusts":36.4,"aqi":150,"pm10":76.6,"pm2_5":67.3,"mosquito_risk":7,"arthritis_risk":5,"migraine_risk":4,"frizz_risk":1,"updated_at":"2026-03-12T00:31:08.432884+05:30"},{"city":"Jodhpur","state":"Rajasthan","latitude":26.2389,"longitude":73.0243,"temp":25.4,"humidity":29,"rain":0.0,"pressure":985.7,"uv_index":6.4,"wind_gusts":28.1,"aqi":85,"pm10":127.1,"pm2_5":24.0,"mosquito_risk":4,"arthritis_risk":5,"migraine_risk":7,"frizz_risk":0,"updated_at":"2026-03-12T00:31:08.432891+05:30"},{"city":"Udaipur","state":"Rajasthan","latitude":24.5854,"longitude":73.7125,"temp":22.0,"humidity":35,"rain":0.0,"pressure":949.5,"uv_index":7.4,"wind_gusts":32.4,"aqi":66,"pm10":16.5,"pm2_5":15.3,"mosquito_risk":0,"arthritis_risk":5,"migraine_risk":7,"frizz_risk":0,"updated_at":"2026-03-12T00:31:08.432899+05:30"},{"city":"Kota","state":"Rajasthan","latitude":25.2138,"longitude":75.8648,"temp":21.2,"humidity":52,"rain":0.0,"pressure":981.1,"uv_index":6.7,"wind_gusts":29.9,"aqi":77,"pm10":59.8,"pm2_5":31.1,"mosquito_risk":0,"arthritis_risk":5,"migraine_risk":7,"frizz_risk":0,"updated_at":"2026-03-12T00:31:08.432907+05:30"},{"city":"Bikaner","state":"Rajasthan","latitude":28.0229,"longitude":73.3119,"temp":24.9,"humidity":29,"rain":0.0,"pressure":984.0,"uv_index":5.95,"wind_gusts":23.0,"aqi":73,"pm10":125.7,"pm2_5":31.7,"mosquito_risk":0,"arthritis_risk":5,"migraine_risk":3,"frizz_risk":0,"updated_at":"2026-03-12T00:31:08.432915+05:30"},{"city":"Ajmer","state":"Rajasthan","latitude":26.4499,"longitude":74.6399,"temp":22.5,"humidity":37,"rain":0.0,"pressure":957.1,"uv_index":6.05,"wind_gusts":34.6,"aqi":73,"pm10":51.8,"pm2_5":19.0,"mosquito_risk":0,"arthritis_risk":5,"migraine_risk":7,"frizz_risk":0,"updated_at":"2026-03-12T00:31:08.432922+05:30"},{"city":"Gwalior","state":"Madhya Pradesh","latitude":26.2183,"longitude":78.1828,"temp":25.2,"humidity":39,"rain":0.0,"pressure":985.2,"uv_index":6.45,"wind_gusts":32.8,"aqi":101,"pm10":72.2,"pm2_5":28.8,"mosquito_risk":4,"arthritis_risk":5,"migraine_risk":7,"frizz_risk":0,"updated_at":"2026-03-12T00:31:08.432930+05:30"},{"city":"Indore","state":"Madhya Pradesh","latitude":22.7196,"longitude":75.8577,"temp":20.2,"humidity":47,"rain":0.0,"pressure":949.8,"uv_index":7.75,"wind_gusts":25.9,"aqi":66,"pm10":34.6,"pm2_5":25.2,"mosquito_risk":0,"arthritis_risk":5,"migraine_risk":7,"frizz_risk":0,"updated_at":"2026-03-12T00:31:08.432940+05:30"},{"city":"Bhopal","state":"Madhya Pradesh","latitude":23.2599,"longitude":77.4126,"temp":23.9,"humidity":35,"rain":0.0,"pressure":955.8,"uv_index":7.6,"wind_gusts":29.5,"aqi":69,"pm10":39.1,"pm2_5":29.7,"mosquito_risk":0,"arthritis_risk":5,"migraine_risk":7,"frizz_risk":0,"updated_at":"2026-03-12T00:31:08.432947+05:30"},{"city":"Jabalpur","state":"Madhya Pradesh","latitude":23.1815,"longitude":79.9864,"temp":25.4,"humidity":32,"rain":0.0,"pressure":963.3,"uv_index":7.75,"wind_gusts":21.2,"aqi":94,"pm10":84.1,"pm2_5":38.1,"mosquito_risk":4,"arthritis_risk":5,"migraine_risk":7,"frizz_risk":0,"updated_at":"2026-03-12T00:31:08.432955+05:30"},{"city":"Ujjain","state":"Madhya Pradesh","latitude":23.1765,"longitude":75.7885,"temp":22.8,"humidity":50,"rain":0.0,"pressure":955.8,"uv_index":7.65,"wind_gusts":23.8,"aqi":76,"pm10":50.6,"pm2_5":42.6,"mosquito_risk":0,"arthritis_risk":5,"migraine_risk":7,"frizz_risk":0,"updated_at":"2026-03-12T00:31:08.432962+05:30"},{"city":"Visakhapatnam","state":"Andhra Pradesh","latitude":17.6868,"longitude":83.2185,"temp":25.6,"humidity":84,"rain":0.0,"pressure":1005.6,"uv_index":8.65,"wind_gusts":41.4,"aqi":87,"pm10":21.2,"pm2_5":18.3,"mosquito_risk":7,"arthritis_risk":5,"migraine_risk":4,"frizz_risk":1,"updated_at":"2026-03-12T00:31:08.432969+05:30"},{"city":"Vijayawada","state":"Andhra Pradesh","latitude":16.5062,"longitude":80.648,"temp":24.5,"humidity":78,"rain":0.0,"pressure":1004.9,"uv_index":8.7,"wind_gusts":27.0,"aqi":83,"pm10":16.0,"pm2_5":15.3,"mosquito_risk":3,"arthritis_risk":5,"migraine_risk":4,"frizz_risk":1,"updated_at":"2026-03-12T00:31:08.432976+05:30"},{"city":"Guntur","state":"Andhra Pradesh","latitude":16.3067,"longitude":80.4365,"temp":23.7,"humidity":83,"rain":0.0,"pressure":1006.2,"uv_index":8.7,"wind_gusts":33.1,"aqi":73,"pm10":15.6,"pm2_5":15.1,"mosquito_risk":3,"arthritis_risk":5,"migraine_risk":4,"frizz_risk":1,"updated_at":"2026-03-12T00:31:08.432984+05:30"},{"city":"Nellore","state":"Andhra Pradesh","latitude":14.4426,"longitude":79.9865,"temp":23.7,"humidity":92,"rain":0.0,"pressure":1008.5,"uv_index":8.9,"wind_gusts":31.3,"aqi":63,"pm10":19.4,"pm2_5":16.8,"mosquito_risk":3,"arthritis_risk":0,"migraine_risk":4,"frizz_risk":1,"updated_at":"2026-03-12T00:31:08.432991+05:30"},{"city":"Kurnool","state":"Andhra Pradesh","latitude":15.8281,"longitude":78.0373,"temp":27.5,"humidity":47,"rain":0.0,"pressure":979.0,"uv_index":8.7,"wind_gusts":24.8,"aqi":66,"pm10":31.2,"pm2_5":27.1,"mosquito_risk":4,"arthritis_risk":5,"migraine_risk":7,"frizz_risk":0,"updated_at":"2026-03-12T00:31:08.432999+05:30"},{"city":"Kakinada","state":"Andhra Pradesh","latitude":16.9891,"longitude":82.2475,"temp":23.0,"humidity":91,"rain":0.0,"pressure":1009.8,"uv_index":8.65,"wind_gusts":34.2,"aqi":78,"pm10":17.9,"pm2_5":14.6,"mosquito_risk":3,"arthritis_risk":0,"migraine_risk":4,"frizz_risk":1,"updated_at":"2026-03-12T00:31:08.433006+05:30"},{"city":"Tirupati","state":"Andhra Pradesh","latitude":13.6288,"longitude":79.4192,"temp":22.9,"humidity":76,"rain":0.0,"pressure":994.4,"uv_index":9.05,"wind_gusts":33.5,"aqi":77,"pm10":34.6,"pm2_5":33.1,"mosquito_risk":3,"arthritis_risk":5,"migraine_risk":7,"frizz_risk":1,"updated_at":"2026-03-12T00:31:08.433013+05:30"},{"city":"Warangal","state":"Telangana","latitude":17.9689,"longitude":79.5941,"temp":26.4,"humidity":53,"rain":0.0,"pressure":980.1,"uv_index":8.5,"wind_gusts":12.2,"aqi":81,"pm10":39.9,"pm2_5":35.7,"mosquito_risk":4,"arthritis_risk":5,"migraine_risk":7,"frizz_risk":0,"updated_at":"2026-03-12T00:31:08.433020+05:30"},{"city":"Nizamabad","state":"Telangana","latitude":18.6725,"longitude":78.0941,"temp":23.7,"humidity":51,"rain":0.0,"pressure":966.3,"uv_index":8.35,"wind_gusts":24.8,"aqi":118,"pm10":53.9,"pm2_5":48.2,"mosquito_risk":0,"arthritis_risk":5,"migraine_risk":7,"frizz_risk":0,"updated_at":"2026-03-12T00:31:08.433027+05:30"},{"city":"Mysore","state":"Karnataka","latitude":12.2958,"longitude":76.6396,"temp":23.0,"humidity":58,"rain":0.0,"pressure":929.6,"uv_index":9.3,"wind_gusts":34.9,"aqi":60,"pm10":16.1,"pm2_5":15.4,"mosquito_risk":0,"arthritis_risk":5,"migraine_risk":7,"frizz_risk":0,"updated_at":"2026-03-12T00:31:08.433034+05:30"},{"city":"Mangalore","state":"Karnataka","latitude":12.9141,"longitude":74.856,"temp":29.2,"humidity":77,"rain":0.0,"pressure":1008.7,"uv_index":8.95,"wind_gusts":32.8,"aqi":103,"pm10":47.8,"pm2_5":42.0,"mosquito_risk":7,"arthritis_risk":0,"migraine_risk":4,"frizz_risk":1,"updated_at":"2026-03-12T00:31:08.433041+05:30"},{"city":"Hubli-Dharwad","state":"Karnataka","latitude":15.3647,"longitude":75.124,"temp":21.9,"humidity":63,"rain":0.0,"pressure":942.4,"uv_index":8.85,"wind_gusts":25.9,"aqi":68,"pm10":23.0,"pm2_5":20.5,"mosquito_risk":3,"arthritis_risk":5,"migraine_risk":7,"frizz_risk":0,"updated_at":"2026-03-12T00:31:08.433048+05:30"},{"city":"Belgaum","state":"Karnataka","latitude":15.8497,"longitude":74.4977,"temp":22.6,"humidity":80,"rain":0.0,"pressure":927.5,"uv_index":8.95,"wind_gusts":33.1,"aqi":102,"pm10":53.1,"pm2_5":46.1,"mosquito_risk":3,"arthritis_risk":5,"migraine_risk":7,"frizz_risk":1,"updated_at":"2026-03-12T00:31:11.691747+05:30"},{"city":"Coimbatore","state":"Tamil Nadu","latitude":11.0168,"longitude":76.9558,"temp":23.6,"humidity":69,"rain":0.0,"pressure":964.0,"uv_index":9.3,"wind_gusts":44.3,"aqi":71,"pm10":31.5,"pm2_5":30.3,"mosquito_risk":3,"arthritis_risk":5,"migraine_risk":7,"frizz_risk":1,"updated_at":"2026-03-12T00:31:11.691783+05:30"},{"city":"Madurai","state":"Tamil Nadu","latitude":9.9252,"longitude":78.1198,"temp":25.5,"humidity":86,"rain":0.0,"pressure":995.6,"uv_index":9.25,"wind_gusts":25.9,"aqi":63,"pm10":17.5,"pm2_5":16.4,"mosquito_risk":7,"arthritis_risk":5,"migraine_risk":7,"frizz_risk":1,"updated_at":"2026-03-12T00:31:11.691794+05:30"},{"city":"Trichy","state":"Tamil Nadu","latitude":10.7905,"longitude":78.7047,"temp":24.7,"humidity":92,"rain":0.0,"pressure":1002.3,"uv_index":9.15,"wind_gusts":23.4,"aqi":65,"pm10":21.1,"pm2_5":19.4,"mosquito_risk":3,"arthritis_risk":5,"migraine_risk":4,"frizz_risk":1,"updated_at":"2026-03-12T00:31:11.691803+05:30"},{"city":"Salem","state":"Tamil Nadu","latitude":11.6643,"longitude":78.146,"temp":24.9,"humidity":80,"rain":0.0,"pressure":979.4,"uv_index":9.2,"wind_gusts":25.9,"aqi":68,"pm10":23.6,"pm2_5":22.5,"mosquito_risk":3,"arthritis_risk":5,"migraine_risk":7,"frizz_risk":1,"updated_at":"2026-03-12T00:31:11.691811+05:30"},{"city":"Tirunelveli","state":"Tamil Nadu","latitude":8.7139,"longitude":77.7567,"temp":25.2,"humidity":81,"rain":0.0,"pressure":1005.9,"uv_index":9.05,"wind_gusts":42.1,"aqi":54,"pm10":19.0,"pm2_5":17.4,"mosquito_risk":7,"arthritis_risk":5,"migraine_risk":4,"frizz_risk":1,"updated_at":"2026-03-12T00:31:11.691819+05:30"},{"city":"Vellore","state":"Tamil Nadu","latitude":12.9165,"longitude":79.1325,"temp":23.4,"humidity":90,"rain":0.0,"pressure":987.4,"uv_index":9.1,"wind_gusts":33.1,"aqi":89,"pm10":44.1,"pm2_5":42.0,"mosquito_risk":3,"arthritis_risk":5,"migraine_risk":7,"frizz_risk":1,"updated_at":"2026-03-12T00:31:11.691827+05:30"},{"city":"Erode","state":"Tamil Nadu","latitude":11.341,"longitude":77.7172,"temp":25.5,"humidity":81,"rain":0.0,"pressure":991.4,"uv_index":9.2,"wind_gusts":23.0,"aqi":72,"pm10":20.2,"pm2_5":19.3,"mosquito_risk":7,"arthritis_risk":5,"migraine_risk":7,"frizz_risk":1,"updated_at":"2026-03-12T00:31:11.691835+05:30"},{"city":"Kochi","state":"Kerala","latitude":9.9312,"longitude":76.2673,"temp":27.0,"humidity":84,"rain":0.0,"pressure":1010.7,"uv_index":9.1,"wind_gusts":36.4,"aqi":112,"pm10":52.7,"pm2_5":51.0,"mosquito_risk":7,"arthritis_risk":0,"migraine_risk":4,"frizz_risk":1,"updated_at":"2026-03-12T00:31:11.691843+05:30"},{"city":"Thiruvananthapuram","state":"Kerala","latitude":8.5241,"longitude":76.9366,"temp":27.5,"humidity":82,"rain":0.0,"pressure":1009.7,"uv_index":9.1,"wind_gusts":24.1,"aqi":75,"pm10":22.8,"pm2_5":19.3,"mosquito_risk":7,"arthritis_risk":0,"migraine_risk":4,"frizz_risk":1,"updated_at":"2026-03-12T00:31:11.691851+05:30"},{"city":"Kozhikode","state":"Kerala","latitude":11.2588,"longitude":75.7804,"temp":28.6,"humidity":82,"rain":0.0,"pressure":1009.2,"uv_index":9.0,"wind_gusts":32.4,"aqi":112,"pm10":37.3,"pm2_5":31.8,"mosquito_risk":7,"arthritis_risk":0,"migraine_risk":4,"frizz_risk":1,"updated_at":"2026-03-12T00:31:11.691859+05:30"},{"city":"Thrissur","state":"Kerala","latitude":10.5276,"longitude":76.2144,"temp":27.3,"humidity":85,"rain":0.0,"pressure":1008.7,"uv_index":9.05,"wind_gusts":38.2,"aqi":87,"pm10":51.9,"pm2_5":49.6,"mosquito_risk":7,"arthritis_risk":0,"migraine_risk":4,"frizz_risk":1,"updated_at":"2026-03-12T00:31:11.691868+05:30"},{"city":"Kannur","state":"Kerala","latitude":11.8745,"longitude":75.3704,"temp":27.6,"humidity":84,"rain":0.0,"pressure":1008.7,"uv_index":9.0,"wind_gusts":32.8,"aqi":118,"pm10":41.8,"pm2_5":36.9,"mosquito_risk":7,"arthritis_risk":0,"migraine_risk":4,"frizz_risk":1,"updated_at":"2026-03-12T00:31:11.691876+05:30"},{"city":"Patna","state":"Bihar","latitude":25.5941,"longitude":85.1376,"temp":25.4,"humidity":86,"rain":0.0,"pressure":1002.1,"uv_index":7.5,"wind_gusts":29.5,"aqi":201,"pm10":192.3,"pm2_5":181.1,"mosquito_risk":7,"arthritis_risk":5,"migraine_risk":4,"frizz_risk":1,"updated_at":"2026-03-12T00:31:11.691883+05:30"},{"city":"Gaya","state":"Bihar","latitude":24.7914,"longitude":85.0002,"temp":24.9,"humidity":85,"rain":0.0,"pressure":995.8,"uv_index":7.35,"wind_gusts":20.2,"aqi":179,"pm10":155.1,"pm2_5":145.3,"mosquito_risk":3,"arthritis_risk":5,"migraine_risk":7,"frizz_risk":1,"updated_at":"2026-03-12T00:31:11.691890+05:30"},{"city":"Muzaffarpur","state":"Bihar","latitude":26.1209,"longitude":85.3647,"temp":24.2,"humidity":85,"rain":0.0,"pressure":1002.0,"uv_index":7.45,"wind_gusts":31.7,"aqi":213,"pm10":199.3,"pm2_5":186.7,"mosquito_risk":3,"arthritis_risk":5,"migraine_risk":4,"frizz_risk":1,"updated_at":"2026-03-12T00:31:11.691897+05:30"},{"city":"Bhagalpur","state":"Bihar","latitude":25.2425,"longitude":87.0117,"temp":24.5,"humidity":92,"rain":0.0,"pressure":1002.8,"uv_index":7.5,"wind_gusts":21.6,"aqi":174,"pm10":105.5,"pm2_5":96.9,"mosquito_risk":3,"arthritis_risk":5,"migraine_risk":4,"frizz_risk":1,"updated_at":"2026-03-12T00:31:11.691905+05:30"},{"city":"Ranchi","state":"Jharkhand","latitude":23.3441,"longitude":85.3096,"temp":22.9,"humidity":66,"rain":0.0,"pressure":939.2,"uv_index":8.2,"wind_gusts":34.9,"aqi":169,"pm10":111.3,"pm2_5":96.6,"mosquito_risk":3,"arthritis_risk":5,"migraine_risk":7,"frizz_risk":1,"updated_at":"2026-03-12T00:31:11.691912+05:30"},{"city":"Jamshedpur","state":"Jharkhand","latitude":22.8046,"longitude":86.2029,"temp":24.3,"humidity":86,"rain":0.0,"pressure":992.8,"uv_index":8.05,"wind_gusts":18.4,"aqi":162,"pm10":83.8,"pm2_5":72.4,"mosquito_risk":3,"arthritis_risk":5,"migraine_risk":7,"frizz_risk":1,"updated_at":"2026-03-12T00:31:11.691919+05:30"},{"city":"Dhanbad","state":"Jharkhand","latitude":23.7957,"longitude":86.4304,"temp":23.4,"humidity":82,"rain":0.0,"pressure":981.7,"uv_index":6.9,"wind_gusts":21.6,"aqi":195,"pm10":152.7,"pm2_5":144.4,"mosquito_risk":3,"arthritis_risk":5,"migraine_risk":7,"frizz_risk":1,"updated_at":"2026-03-12T00:31:11.691927+05:30"},{"city":"Bokaro","state":"Jharkhand","latitude":23.6693,"longitude":86.1511,"temp":23.6,"humidity":86,"rain":0.0,"pressure":985.9,"uv_index":8.0,"wind_gusts":22.0,"aqi":193,"pm10":143.0,"pm2_5":132.7,"mosquito_risk":3,"arthritis_risk":5,"migraine_risk":7,"frizz_risk":1,"updated_at":"2026-03-12T00:31:11.691935+05:30"},{"city":"Bhubaneswar","state":"Odisha","latitude":20.2961,"longitude":85.8245,"temp":25.4,"humidity":87,"rain":0.0,"pressure":1003.9,"uv_index":8.35,"wind_gusts":35.3,"aqi":92,"pm10":21.3,"pm2_5":18.2,"mosquito_risk":7,"arthritis_risk":5,"migraine_risk":4,"frizz_risk":1,"updated_at":"2026-03-12T00:31:11.691943+05:30"},{"city":"Cuttack","state":"Odisha","latitude":20.4625,"longitude":85.8828,"temp":25.4,"humidity":89,"rain":0.0,"pressure":1005.7,"uv_index":8.4,"wind_gusts":31.3,"aqi":92,"pm10":21.3,"pm2_5":18.2,"mosquito_risk":7,"arthritis_risk":5,"migraine_risk":4,"frizz_risk":1,"updated_at":"2026-03-12T00:31:11.691950+05:30"},{"city":"Rourkela","state":"Odisha","latitude":22.2604,"longitude":84.8536,"temp":24.2,"humidity":74,"rain":0.0,"pressure":986.4,"uv_index":8.0,"wind_gusts":16.6,"aqi":163,"pm10":91.5,"pm2_5":82.4,"mosquito_risk":3,"arthritis_risk":5,"migraine_risk":7,"frizz_risk":1,"updated_at":"2026-03-12T00:31:11.691957+05:30"},{"city":"Raipur","state":"Chhattisgarh","latitude":21.2514,"longitude":81.6296,"temp":24.3,"humidity":39,"rain":0.0,"pressure":976.3,"uv_index":8.1,"wind_gusts":15.1,"aqi":159,"pm10":128.1,"pm2_5":105.5,"mosquito_risk":0,"arthritis_risk":5,"migraine_risk":7,"frizz_risk":0,"updated_at":"2026-03-12T00:31:11.691965+05:30"},{"city":"Bhilai","state":"Chhattisgarh","latitude":21.1938,"longitude":81.3509,"temp":23.5,"humidity":36,"rain":0.0,"pressure":976.6,"uv_index":8.1,"wind_gusts":13.7,"aqi":155,"pm10":98.5,"pm2_5":75.9,"mosquito_risk":0,"arthritis_risk":5,"migraine_risk":7,"frizz_risk":0,"updated_at":"2026-03-12T00:31:11.691973+05:30"},{"city":"Guwahati","state":"Assam","latitude":26.1158,"longitude":91.7086,"temp":24.3,"humidity":85,"rain":0.0,"pressure":1002.6,"uv_index":6.95,"wind_gusts":22.0,"aqi":152,"pm10":56.2,"pm2_5":51.7,"mosquito_risk":3,"arthritis_risk":5,"migraine_risk":4,"frizz_risk":1,"updated_at":"2026-03-12T00:31:11.691980+05:30"},{"city":"Agartala","state":"Tripura","latitude":23.8315,"longitude":91.2868,"temp":22.3,"humidity":91,"rain":0.0,"pressure":1008.1,"uv_index":7.75,"wind_gusts":18.4,"aqi":173,"pm10":84.8,"pm2_5":78.7,"mosquito_risk":3,"arthritis_risk":0,"migraine_risk":4,"frizz_risk":1,"updated_at":"2026-03-12T00:31:11.691989+05:30"},{"city":"Shillong","state":"Meghalaya","latitude":25.5788,"longitude":91.8933,"temp":13.1,"humidity":91,"rain":0.0,"pressure":856.4,"uv_index":7.55,"wind_gusts":34.2,"aqi":115,"pm10":33.4,"pm2_5":31.3,"mosquito_risk":3,"arthritis_risk":10,"migraine_risk":7,"frizz_risk":0,"updated_at":"2026-03-12T00:31:11.691997+05:30"},{"city":"Imphal","state":"Manipur","latitude":24.817,"longitude":93.9368,"temp":18.0,"humidity":87,"rain":0.0,"pressure":924.8,"uv_index":8.0,"wind_gusts":39.6,"aqi":161,"pm10":120.6,"pm2_5":113.2,"mosquito_risk":3,"arthritis_risk":10,"migraine_risk":7,"frizz_risk":0,"updated_at":"2026-03-12T00:31:11.692005+05:30"},{"city":"Aizawl","state":"Mizoram","latitude":23.7271,"longitude":92.7176,"temp":16.3,"humidity":91,"rain":0.0,"pressure":893.3,"uv_index":7.9,"wind_gusts":32.8,"aqi":189,"pm10":156.9,"pm2_5":151.3,"mosquito_risk":3,"arthritis_risk":10,"migraine_risk":7,"frizz_risk":0,"updated_at":"2026-03-12T00:31:11.692013+05:30"},{"city":"Kohima","state":"Nagaland","latitude":25.6701,"longitude":94.1077,"temp":14.7,"humidity":92,"rain":0.0,"pressure":855.4,"uv_index":7.1,"wind_gusts":46.8,"aqi":152,"pm10":76.4,"pm2_5":71.9,"mosquito_risk":3,"arthritis_risk":10,"migraine_risk":7,"frizz_risk":0,"updated_at":"2026-03-12T00:31:11.692020+05:30"},{"city":"Gangtok","state":"Sikkim","latitude":27.3314,"longitude":88.6138,"temp":14.9,"humidity":90,"rain":0.0,"pressure":838.0,"uv_index":7.4,"wind_gusts":24.8,"aqi":118,"pm10":42.8,"pm2_5":38.8,"mosquito_risk":3,"arthritis_risk":10,"migraine_risk":7,"frizz_risk":0,"updated_at":"2026-03-12T00:31:11.692028+05:30"},{"city":"Siliguri","state":"West Bengal","latitude":26.7271,"longitude":88.3953,"temp":21.0,"humidity":74,"rain":0.0,"pressure":995.7,"uv_index":7.15,"wind_gusts":23.0,"aqi":170,"pm10":118.5,"pm2_5":108.0,"mosquito_risk":3,"arthritis_risk":5,"migraine_risk":7,"frizz_risk":1,"updated_at":"2026-03-12T00:31:15.009119+05:30"},{"city":"Durgapur","state":"West Bengal","latitude":23.5204,"longitude":87.3119,"temp":23.4,"humidity":86,"rain":0.0,"pressure":996.9,"uv_index":7.65,"wind_gusts":24.1,"aqi":165,"pm10":118.5,"pm2_5":111.3,"mosquito_risk":3,"arthritis_risk":5,"migraine_risk":7,"frizz_risk":1,"updated_at":"2026-03-12T00:31:15.009156+05:30"},{"city":"Asansol","state":"West Bengal","latitude":23.6739,"longitude":86.9524,"temp":23.6,"humidity":87,"rain":0.0,"pressure":995.5,"uv_index":7.65,"wind_gusts":28.8,"aqi":174,"pm10":125.3,"pm2_5":117.3,"mosquito_risk":3,"arthritis_risk":5,"migraine_risk":7,"frizz_risk":1,"updated_at":"2026-03-12T00:31:15.009166+05:30"},{"city":"Pondicherry","state":"Puducherry","latitude":11.9139,"longitude":79.8145,"temp":24.5,"humidity":95,"rain":0.0,"pressure":1011.0,"uv_index":9.0,"wind_gusts":28.4,"aqi":59,"pm10":21.8,"pm2_5":17.5,"mosquito_risk":3,"arthritis_risk":0,"migraine_risk":4,"frizz_risk":1,"updated_at":"2026-03-12T00:31:15.009176+05:30"},{"city":"Port Blair","state":"Andaman and Nicobar Islands","latitude":11.6234,"longitude":92.7265,"temp":27.6,"humidity":81,"rain":0.0,"pressure":1008.2,"uv_index":8.95,"wind_gusts":21.2,"aqi":55,"pm10":13.0,"pm2_5":10.5,"mosquito_risk":7,"arthritis_risk":0,"migraine_risk":4,"frizz_risk":1,"updated_at":"2026-03-12T00:31:15.009185+05:30"},{"city":"Haridwar","state":"Uttarakhand","latitude":29.9457,"longitude":78.1642,"temp":19.3,"humidity":83,"rain":0.0,"pressure":975.6,"uv_index":5.45,"wind_gusts":27.4,"aqi":141,"pm10":60.8,"pm2_5":50.8,"mosquito_risk":3,"arthritis_risk":10,"migraine_risk":3,"frizz_risk":1,"updated_at":"2026-03-12T00:31:15.009194+05:30"},{"city":"Rishikesh","state":"Uttarakhand","latitude":30.0869,"longitude":78.2676,"temp":19.9,"humidity":74,"rain":0.0,"pressure":968.4,"uv_index":5.1,"wind_gusts":22.0,"aqi":121,"pm10":45.6,"pm2_5":35.9,"mosquito_risk":3,"arthritis_risk":5,"migraine_risk":3,"frizz_risk":0,"updated_at":"2026-03-12T00:31:15.009203+05:30"},{"city":"Nainital","state":"Uttarakhand","latitude":29.3919,"longitude":79.4542,"temp":18.9,"humidity":48,"rain":0.0,"pressure":807.2,"uv_index":5.95,"wind_gusts":58.7,"aqi":153,"pm10":36.1,"pm2_5":27.2,"mosquito_risk":0,"arthritis_risk":5,"migraine_risk":3,"frizz_risk":0,"updated_at":"2026-03-12T00:31:15.009212+05:30"},{"city":"Mussoorie","state":"Uttarakhand","latitude":30.4599,"longitude":78.0664,"temp":17.3,"humidity":55,"rain":0.0,"pressure":804.1,"uv_index":5.0,"wind_gusts":35.3,"aqi":109,"pm10":53.0,"pm2_5":45.2,"mosquito_risk":0,"arthritis_risk":5,"migraine_risk":3,"frizz_risk":0,"updated_at":"2026-03-12T00:31:15.009220+05:30"},{"city":"Dharamshala","state":"Himachal Pradesh","latitude":32.219,"longitude":76.3234,"temp":21.1,"humidity":28,"rain":0.0,"pressure":871.4,"uv_index":5.95,"wind_gusts":31.3,"aqi":52,"pm10":10.6,"pm2_5":4.5,"mosquito_risk":0,"arthritis_risk":5,"migraine_risk":3,"frizz_risk":0,"updated_at":"2026-03-12T00:31:15.009229+05:30"},{"city":"Dalhousie","state":"Himachal Pradesh","latitude":32.5387,"longitude":75.971,"temp":17.3,"humidity":28,"rain":0.0,"pressure":805.5,"uv_index":6.05,"wind_gusts":26.6,"aqi":79,"pm10":19.8,"pm2_5":14.5,"mosquito_risk":0,"arthritis_risk":5,"migraine_risk":7,"frizz_risk":1,"updated_at":"2026-03-12T00:31:15.009238+05:30"},{"city":"Patiala","state":"Punjab","latitude":30.3398,"longitude":76.3869,"temp":21.6,"humidity":65,"rain":0.0,"pressure":979.9,"uv_index":5.75,"wind_gusts":33.5,"aqi":165,"pm10":137.4,"pm2_5":105.0,"mosquito_risk":3,"arthritis_risk":5,"migraine_risk":3,"frizz_risk":0,"updated_at":"2026-03-12T00:31:15.009247+05:30"},{"city":"Bhatinda","state":"Punjab","latitude":30.211,"longitude":74.9455,"temp":22.2,"humidity":72,"rain":0.0,"pressure":985.7,"uv_index":6.6,"wind_gusts":40.7,"aqi":151,"pm10":113.4,"pm2_5":89.9,"mosquito_risk":3,"arthritis_risk":5,"migraine_risk":7,"frizz_risk":1,"updated_at":"2026-03-12T00:31:15.009255+05:30"},{"city":"Rohtak","state":"Haryana","latitude":28.8955,"longitude":76.6066,"temp":20.8,"humidity":61,"rain":0.0,"pressure":983.6,"uv_index":5.75,"wind_gusts":23.4,"aqi":217,"pm10":383.7,"pm2_5":108.7,"mosquito_risk":3,"arthritis_risk":5,"migraine_risk":3,"frizz_risk":0,"updated_at":"2026-03-12T00:31:15.009264+05:30"},{"city":"Panipat","state":"Haryana","latitude":29.3909,"longitude":76.9635,"temp":19.5,"humidity":74,"rain":0.0,"pressure":981.9,"uv_index":5.85,"wind_gusts":28.4,"aqi":357,"pm10":333.4,"pm2_5":92.4,"mosquito_risk":3,"arthritis_risk":5,"migraine_risk":3,"frizz_risk":0,"updated_at":"2026-03-12T00:31:15.009272+05:30"},{"city":"Mathura","state":"Uttar Pradesh","latitude":27.4924,"longitude":77.6737,"temp":19.5,"humidity":68,"rain":0.0,"pressure":988.9,"uv_index":5.7,"wind_gusts":25.6,"aqi":356,"pm10":421.9,"pm2_5":85.7,"mosquito_risk":3,"arthritis_risk":5,"migraine_risk":3,"frizz_risk":0,"updated_at":"2026-03-12T00:31:15.009281+05:30"},{"city":"Vrindavan","state":"Uttar Pradesh","latitude":27.5823,"longitude":77.7027,"temp":20.5,"humidity":61,"rain":0.0,"pressure":989.1,"uv_index":5.45,"wind_gusts":28.1,"aqi":356,"pm10":421.9,"pm2_5":85.7,"mosquito_risk":3,"arthritis_risk":5,"migraine_risk":3,"frizz_risk":0,"updated_at":"2026-03-12T00:31:15.009289+05:30"},{"city":"Ayodhya","state":"Uttar Pradesh","latitude":26.7922,"longitude":82.1998,"temp":22.6,"humidity":78,"rain":0.0,"pressure":996.4,"uv_index":6.65,"wind_gusts":27.4,"aqi":178,"pm10":130.4,"pm2_5":61.7,"mosquito_risk":3,"arthritis_risk":5,"migraine_risk":7,"frizz_risk":1,"updated_at":"2026-03-12T00:31:15.009297+05:30"},{"city":"Ratlam","state":"Madhya Pradesh","latitude":23.3315,"longitude":75.0367,"temp":23.9,"humidity":42,"rain":0.0,"pressure":956.6,"uv_index":7.6,"wind_gusts":31.3,"aqi":72,"pm10":53.6,"pm2_5":46.4,"mosquito_risk":0,"arthritis_risk":5,"migraine_risk":7,"frizz_risk":0,"updated_at":"2026-03-12T00:31:15.009305+05:30"},{"city":"Sagar","state":"Madhya Pradesh","latitude":23.8388,"longitude":78.7378,"temp":24.3,"humidity":36,"rain":0.0,"pressure":952.3,"uv_index":7.6,"wind_gusts":27.0,"aqi":77,"pm10":53.2,"pm2_5":26.3,"mosquito_risk":0,"arthritis_risk":5,"migraine_risk":7,"frizz_risk":0,"updated_at":"2026-03-12T00:31:15.009314+05:30"},{"city":"Satna","state":"Madhya Pradesh","latitude":24.6005,"longitude":80.8322,"temp":23.8,"humidity":44,"rain":0.0,"pressure":973.1,"uv_index":7.55,"wind_gusts":33.5,"aqi":134,"pm10":52.7,"pm2_5":27.1,"mosquito_risk":0,"arthritis_risk":5,"migraine_risk":7,"frizz_risk":0,"updated_at":"2026-03-12T00:31:15.009322+05:30"},{"city":"Akola","state":"Maharashtra","latitude":20.7002,"longitude":77.0082,"temp":26.7,"humidity":40,"rain":0.0,"pressure":976.6,"uv_index":8.05,"wind_gusts":24.1,"aqi":85,"pm10":49.2,"pm2_5":41.0,"mosquito_risk":4,"arthritis_risk":5,"migraine_risk":7,"frizz_risk":0,"updated_at":"2026-03-12T00:31:15.009331+05:30"},{"city":"Amravati","state":"Maharashtra","latitude":20.9374,"longitude":77.7796,"temp":25.0,"humidity":54,"rain":0.0,"pressure":968.6,"uv_index":8.0,"wind_gusts":16.6,"aqi":86,"pm10":52.5,"pm2_5":40.0,"mosquito_risk":4,"arthritis_risk":5,"migraine_risk":7,"frizz_risk":0,"updated_at":"2026-03-12T00:31:15.009339+05:30"},{"city":"Latur","state":"Maharashtra","latitude":18.4088,"longitude":76.5604,"temp":25.7,"humidity":46,"rain":0.0,"pressure":941.7,"uv_index":8.45,"wind_gusts":19.4,"aqi":104,"pm10":41.9,"pm2_5":37.4,"mosquito_risk":4,"arthritis_risk":5,"migraine_risk":7,"frizz_risk":0,"updated_at":"2026-03-12T00:31:15.009347+05:30"},{"city":"Nanded","state":"Maharashtra","latitude":19.1383,"longitude":77.3091,"temp":26.7,"humidity":51,"rain":0.0,"pressure":970.1,"uv_index":8.25,"wind_gusts":17.6,"aqi":117,"pm10":46.6,"pm2_5":42.1,"mosquito_risk":4,"arthritis_risk":5,"migraine_risk":7,"frizz_risk":0,"updated_at":"2026-03-12T00:31:15.009355+05:30"},{"city":"Gulbarga","state":"Karnataka","latitude":17.3297,"longitude":76.8343,"temp":28.1,"humidity":46,"rain":0.0,"pressure":960.9,"uv_index":8.55,"wind_gusts":17.3,"aqi":84,"pm10":43.7,"pm2_5":36.7,"mosquito_risk":4,"arthritis_risk":5,"migraine_risk":7,"frizz_risk":0,"updated_at":"2026-03-12T00:31:15.009362+05:30"},{"city":"Bidar","state":"Karnataka","latitude":17.9104,"longitude":77.5199,"temp":26.4,"humidity":46,"rain":0.0,"pressure":937.6,"uv_index":8.5,"wind_gusts":23.0,"aqi":98,"pm10":60.8,"pm2_5":53.1,"mosquito_risk":4,"arthritis_risk":5,"migraine_risk":7,"frizz_risk":0,"updated_at":"2026-03-12T00:31:15.009370+05:30"},{"city":"Hospet","state":"Karnataka","latitude":15.2689,"longitude":76.3909,"temp":27.0,"humidity":49,"rain":0.0,"pressure":957.8,"uv_index":8.85,"wind_gusts":27.7,"aqi":62,"pm10":34.1,"pm2_5":29.8,"mosquito_risk":4,"arthritis_risk":5,"migraine_risk":7,"frizz_risk":0,"updated_at":"2026-03-12T00:31:15.009378+05:30"},{"city":"Tirupur","state":"Tamil Nadu","latitude":11.1085,"longitude":77.3411,"temp":25.7,"humidity":76,"rain":0.0,"pressure":977.8,"uv_index":9.3,"wind_gusts":32.8,"aqi":79,"pm10":22.1,"pm2_5":21.4,"mosquito_risk":7,"arthritis_risk":5,"migraine_risk":7,"frizz_risk":1,"updated_at":"2026-03-12T00:31:15.009386+05:30"},{"city":"Alappuzha","state":"Kerala","latitude":9.4981,"longitude":76.3388,"temp":27.1,"humidity":84,"rain":0.0,"pressure":1010.8,"uv_index":9.0,"wind_gusts":30.6,"aqi":106,"pm10":53.6,"pm2_5":49.5,"mosquito_risk":7,"arthritis_risk":0,"migraine_risk":4,"frizz_risk":1,"updated_at":"2026-03-12T00:31:15.009394+05:30"},{"city":"Munnar","state":"Kerala","latitude":10.0889,"longitude":77.0595,"temp":19.3,"humidity":85,"rain":0.0,"pressure":857.3,"uv_index":9.55,"wind_gusts":27.0,"aqi":62,"pm10":25.4,"pm2_5":24.4,"mosquito_risk":3,"arthritis_risk":10,"migraine_risk":7,"frizz_risk":1,"updated_at":"2026-03-12T00:31:15.009402+05:30"},{"city":"Silchar","state":"Assam","latitude":24.8333,"longitude":92.7789,"temp":22.4,"humidity":88,"rain":0.0,"pressure":1007.6,"uv_index":7.7,"wind_gusts":20.9,"aqi":175,"pm10":131.8,"pm2_5":122.0,"mosquito_risk":3,"arthritis_risk":5,"migraine_risk":4,"frizz_risk":1,"updated_at":"2026-03-12T00:31:15.009410+05:30"},{"city":"Dibrugarh","state":"Assam","latitude":27.4728,"longitude":94.912,"temp":22.1,"humidity":91,"rain":0.0,"pressure":997.7,"uv_index":7.45,"wind_gusts":22.7,"aqi":157,"pm10":71.2,"pm2_5":68.0,"mosquito_risk":3,"arthritis_risk":5,"migraine_risk":7,"frizz_risk":1,"updated_at":"2026-03-12T00:31:15.009417+05:30"}]