[{"city":"Delhi","state":"Delhi","latitude":28.6139,"longitude":77.209,"temp":35.4,"humidity":30,"rain":0.0,"pressure":978.9,"uv_index":7.75,"wind_gusts":44.3,"aqi":749,"pm10":560.7,"pm2_5":149.0,"no2":20.5,"co":679.0,"o3":93.0,"so2":21.4,"mosquito_risk":0,"arthritis_risk":5,"migraine_risk":10,"frizz_risk":0,"updated_at":"2026-05-18T09:27:28.235259+05:30"},{"city":"Mumbai","state":"Maharashtra","latitude":19.076,"longitude":72.8777,"temp":32.0,"humidity":65,"rain":0.0,"pressure":1006.3,"uv_index":7.6,"wind_gusts":43.6,"aqi":67,"pm10":42.8,"pm2_5":20.8,"no2":11.4,"co":299.0,"o3":70.0,"so2":12.5,"mosquito_risk":3,"arthritis_risk":5,"migraine_risk":4,"frizz_risk":1,"updated_at":"2026-05-18T09:27:28.235303+05:30"},{"city":"Bangalore","state":"Karnataka","latitude":12.9716,"longitude":77.5946,"temp":27.5,"humidity":64,"rain":0.0,"pressure":911.4,"uv_index":6.7,"wind_gusts":33.8,"aqi":86,"pm10":26.3,"pm2_5":20.0,"no2":12.7,"co":584.0,"o3":86.0,"so2":9.0,"mosquito_risk":7,"arthritis_risk":5,"migraine_risk":7,"frizz_risk":1,"updated_at":"2026-05-18T09:27:28.235319+05:30"},{"city":"Hyderabad","state":"Telangana","latitude":17.385,"longitude":78.4867,"temp":32.2,"humidity":48,"rain":0.0,"pressure":952.2,"uv_index":9.25,"wind_gusts":29.2,"aqi":59,"pm10":17.6,"pm2_5":14.1,"no2":6.6,"co":399.0,"o3":85.0,"so2":5.7,"mosquito_risk":0,"arthritis_risk":5,"migraine_risk":7,"frizz_risk":1,"updated_at":"2026-05-18T09:27:28.235329+05:30"},{"city":"Chennai","state":"Tamil Nadu","latitude":13.0827,"longitude":80.2707,"temp":32.5,"humidity":57,"rain":0.0,"pressure":1005.0,"uv_index":9.1,"wind_gusts":45.4,"aqi":64,"pm10":17.2,"pm2_5":13.2,"no2":10.6,"co":377.0,"o3":85.0,"so2":17.5,"mosquito_risk":0,"arthritis_risk":5,"migraine_risk":4,"frizz_risk":1,"updated_at":"2026-05-18T09:27:28.235336+05:30"},{"city":"Kolkata","state":"West Bengal","latitude":22.5726,"longitude":88.3639,"temp":33.5,"humidity":70,"rain":0.0,"pressure":1002.5,"uv_index":8.95,"wind_gusts":36.0,"aqi":61,"pm10":22.5,"pm2_5":18.3,"no2":4.4,"co":459.0,"o3":99.0,"so2":9.3,"mosquito_risk":3,"arthritis_risk":5,"migraine_risk":4,"frizz_risk":1,"updated_at":"2026-05-18T09:27:28.235343+05:30"},{"city":"Pune","state":"Maharashtra","latitude":18.5204,"longitude":73.8567,"temp":31.4,"humidity":39,"rain":0.0,"pressure":947.2,"uv_index":8.15,"wind_gusts":45.4,"aqi":72,"pm10":51.5,"pm2_5":28.3,"no2":12.3,"co":228.0,"o3":96.0,"so2":24.6,"mosquito_risk":0,"arthritis_risk":5,"migraine_risk":7,"frizz_risk":0,"updated_at":"2026-05-18T09:27:28.235350+05:30"},{"city":"Ahmedabad","state":"Gujarat","latitude":23.0225,"longitude":72.5714,"temp":35.0,"humidity":29,"rain":0.0,"pressure":999.7,"uv_index":8.15,"wind_gusts":34.9,"aqi":60,"pm10":63.6,"pm2_5":21.2,"no2":5.1,"co":217.0,"o3":62.0,"so2":5.6,"mosquito_risk":0,"arthritis_risk":5,"migraine_risk":7,"frizz_risk":0,"updated_at":"2026-05-18T09:27:28.235356+05:30"},{"city":"Jaipur","state":"Rajasthan","latitude":26.9124,"longitude":75.7873,"temp":36.9,"humidity":21,"rain":0.0,"pressure":957.5,"uv_index":8.25,"wind_gusts":43.9,"aqi":122,"pm10":395.8,"pm2_5":72.6,"no2":5.1,"co":229.0,"o3":77.0,"so2":5.1,"mosquito_risk":0,"arthritis_risk":5,"migraine_risk":10,"frizz_risk":0,"updated_at":"2026-05-18T09:27:28.235368+05:30"},{"city":"Lucknow","state":"Uttar Pradesh","latitude":26.8467,"longitude":80.9462,"temp":37.7,"humidity":26,"rain":0.0,"pressure":988.5,"uv_index":8.2,"wind_gusts":35.3,"aqi":158,"pm10":314.8,"pm2_5":88.2,"no2":16.1,"co":367.0,"o3":109.0,"so2":13.6,"mosquito_risk":0,"arthritis_risk":5,"migraine_risk":10,"frizz_risk":0,"updated_at":"2026-05-18T09:27:28.235374+05:30"},{"city":"Kanpur","state":"Uttar Pradesh","latitude":26.4499,"longitude":80.3319,"temp":37.8,"humidity":25,"rain":0.0,"pressure":986.9,"uv_index":8.25,"wind_gusts":41.4,"aqi":250,"pm10":218.9,"pm2_5":57.4,"no2":10.2,"co":283.0,"o3":100.0,"so2":9.7,"mosquito_risk":0,"arthritis_risk":5,"migraine_risk":10,"frizz_risk":0,"updated_at":"2026-05-18T09:27:28.235380+05:30"},{"city":"Chandigarh","state":"Chandigarh","latitude":30.7333,"longitude":76.7794,"temp":33.9,"humidity":30,"rain":0.0,"pressure":964.2,"uv_index":7.75,"wind_gusts":36.0,"aqi":61,"pm10":19.8,"pm2_5":18.5,"no2":8.8,"co":673.0,"o3":144.0,"so2":12.3,"mosquito_risk":0,"arthritis_risk":5,"migraine_risk":7,"frizz_risk":0,"updated_at":"2026-05-18T09:27:28.235386+05:30"},{"city":"Srinagar","state":"Jammu and Kashmir","latitude":34.0837,"longitude":74.7973,"temp":20.5,"humidity":54,"rain":0.0,"pressure":842.8,"uv_index":8.95,"wind_gusts":19.8,"aqi":68,"pm10":27.8,"pm2_5":21.0,"no2":7.3,"co":422.0,"o3":97.0,"so2":5.0,"mosquito_risk":0,"arthritis_risk":5,"migraine_risk":7,"frizz_risk":0,"updated_at":"2026-05-18T09:27:28.235393+05:30"},{"city":"Jammu","state":"Jammu and Kashmir","latitude":32.7266,"longitude":74.857,"temp":33.0,"humidity":29,"rain":0.0,"pressure":967.1,"uv_index":8.55,"wind_gusts":30.2,"aqi":66,"pm10":22.8,"pm2_5":20.1,"no2":13.7,"co":344.0,"o3":106.0,"so2":4.5,"mosquito_risk":0,"arthritis_risk":5,"migraine_risk":7,"frizz_risk":0,"updated_at":"2026-05-18T09:27:28.235399+05:30"},{"city":"Amritsar","state":"Punjab","latitude":31.634,"longitude":74.8723,"temp":33.3,"humidity":42,"rain":0.0,"pressure":975.1,"uv_index":8.45,"wind_gusts":23.8,"aqi":79,"pm10":41.4,"pm2_5":29.8,"no2":12.9,"co":595.0,"o3":92.0,"so2":10.2,"mosquito_risk":0,"arthritis_risk":5,"migraine_risk":7,"frizz_risk":1,"updated_at":"2026-05-18T09:27:28.235407+05:30"},{"city":"Ludhiana","state":"Punjab","latitude":30.901,"longitude":75.8573,"temp":33.5,"humidity":37,"rain":0.0,"pressure":973.7,"uv_index":8.05,"wind_gusts":26.6,"aqi":93,"pm10":46.0,"pm2_5":36.4,"no2":11.7,"co":612.0,"o3":103.0,"so2":11.7,"mosquito_risk":0,"arthritis_risk":5,"migraine_risk":7,"frizz_risk":1,"updated_at":"2026-05-18T09:27:28.235413+05:30"},{"city":"Jalandhar","state":"Punjab","latitude":31.326,"longitude":75.5762,"temp":32.9,"humidity":38,"rain":0.0,"pressure":974.4,"uv_index":8.2,"wind_gusts":26.3,"aqi":101,"pm10":57.9,"pm2_5":41.7,"no2":14.3,"co":595.0,"o3":98.0,"so2":10.4,"mosquito_risk":0,"arthritis_risk":5,"migraine_risk":7,"frizz_risk":1,"updated_at":"2026-05-18T09:27:28.235419+05:30"},{"city":"Dehradun","state":"Uttarakhand","latitude":30.6284,"longitude":78.0322,"temp":24.5,"humidity":38,"rain":0.0,"pressure":830.6,"uv_index":8.2,"wind_gusts":36.0,"aqi":40,"pm10":6.0,"pm2_5":3.8,"no2":2.2,"co":190.0,"o3":129.0,"so2":0.9,"mosquito_risk":0,"arthritis_risk":5,"migraine_risk":7,"frizz_risk":0,"updated_at":"2026-05-18T09:27:28.235425+05:30"},{"city":"Shimla","state":"Himachal Pradesh","latitude":31.1048,"longitude":77.1734,"temp":22.9,"humidity":28,"rain":0.0,"pressure":785.9,"uv_index":8.3,"wind_gusts":44.6,"aqi":47,"pm10":10.4,"pm2_5":7.0,"no2":2.1,"co":192.0,"o3":146.0,"so2":1.8,"mosquito_risk":0,"arthritis_risk":5,"migraine_risk":7,"frizz_risk":0,"updated_at":"2026-05-18T09:27:28.235433+05:30"},{"city":"Manali","state":"Himachal Pradesh","latitude":32.2396,"longitude":77.1887,"temp":24.9,"humidity":20,"rain":0.0,"pressure":818.6,"uv_index":9.6,"wind_gusts":47.5,"aqi":68,"pm10":8.0,"pm2_5":4.5,"no2":8.6,"co":208.0,"o3":111.0,"so2":0.2,"mosquito_risk":0,"arthritis_risk":5,"migraine_risk":7,"frizz_risk":0,"updated_at":"2026-05-18T09:27:28.235442+05:30"},{"city":"Gurgaon","state":"Haryana","latitude":28.4595,"longitude":77.0266,"temp":34.8,"humidity":32,"rain":0.0,"pressure":977.4,"uv_index":7.85,"wind_gusts":44.3,"aqi":1143,"pm10":1255.4,"pm2_5":233.3,"no2":20.1,"co":544.0,"o3":85.0,"so2":18.3,"mosquito_risk":0,"arthritis_risk":5,"migraine_risk":7,"frizz_risk":0,"updated_at":"2026-05-18T09:27:28.235448+05:30"},{"city":"Noida","state":"Uttar Pradesh","latitude":28.5355,"longitude":77.391,"temp":35.0,"humidity":33,"rain":0.0,"pressure":980.2,"uv_index":7.75,"wind_gusts":33.8,"aqi":1143,"pm10":1255.4,"pm2_5":233.3,"no2":20.1,"co":746.0,"o3":85.0,"so2":18.3,"mosquito_risk":0,"arthritis_risk":5,"migraine_risk":7,"frizz_risk":1,"updated_at":"2026-05-18T09:27:28.235455+05:30"},{"city":"Ghaziabad","state":"Uttar Pradesh","latitude":28.6692,"longitude":77.4538,"temp":34.5,"humidity":34,"rain":0.0,"pressure":978.5,"uv_index":7.75,"wind_gusts":37.1,"aqi":601,"pm10":579.3,"pm2_5":165.8,"no2":16.8,"co":475.0,"o3":108.0,"so2":23.3,"mosquito_risk":0,"arthritis_risk":5,"migraine_risk":7,"frizz_risk":1,"updated_at":"2026-05-18T09:27:28.235460+05:30"},{"city":"Faridabad","state":"Haryana","latitude":28.4089,"longitude":77.3178,"temp":35.2,"humidity":30,"rain":0.0,"pressure":979.6,"uv_index":7.8,"wind_gusts":44.6,"aqi":1143,"pm10":1255.4,"pm2_5":233.3,"no2":20.1,"co":576.0,"o3":85.0,"so2":18.3,"mosquito_risk":0,"arthritis_risk":5,"migraine_risk":10,"frizz_risk":0,"updated_at":"2026-05-18T09:27:28.235466+05:30"},{"city":"Meerut","state":"Uttar Pradesh","latitude":28.9845,"longitude":77.7064,"temp":33.7,"humidity":37,"rain":0.0,"pressure":977.2,"uv_index":7.65,"wind_gusts":38.5,"aqi":601,"pm10":579.3,"pm2_5":165.8,"no2":16.8,"co":431.0,"o3":108.0,"so2":23.3,"mosquito_risk":0,"arthritis_risk":5,"migraine_risk":7,"frizz_risk":1,"updated_at":"2026-05-18T09:27:28.235472+05:30"},{"city":"Agra","state":"Uttar Pradesh","latitude":27.1767,"longitude":78.0081,"temp":36.8,"humidity":28,"rain":0.0,"pressure":983.5,"uv_index":8.1,"wind_gusts":42.1,"aqi":484,"pm10":789.8,"pm2_5":133.2,"no2":15.0,"co":303.0,"o3":87.0,"so2":11.2,"mosquito_risk":0,"arthritis_risk":5,"migraine_risk":10,"frizz_risk":0,"updated_at":"2026-05-18T09:27:28.235478+05:30"},{"city":"Varanasi","state":"Uttar Pradesh","latitude":25.3176,"longitude":82.9739,"temp":39.0,"humidity":23,"rain":0.0,"pressure":992.9,"uv_index":8.7,"wind_gusts":47.2,"aqi":122,"pm10":92.9,"pm2_5":36.6,"no2":13.5,"co":471.0,"o3":104.0,"so2":16.5,"mosquito_risk":0,"arthritis_risk":5,"migraine_risk":10,"frizz_risk":0,"updated_at":"2026-05-18T09:27:28.235484+05:30"},{"city":"Prayagraj","state":"Uttar Pradesh","latitude":25.4358,"longitude":81.8463,"temp":38.4,"humidity":26,"rain":0.0,"pressure":991.2,"uv_index":8.6,"wind_gusts":45.4,"aqi":136,"pm10":135.0,"pm2_5":46.7,"no2":17.0,"co":299.0,"o3":96.0,"so2":10.8,"mosquito_risk":0,"arthritis_risk":5,"migraine_risk":10,"frizz_risk":0,"updated_at":"2026-05-18T09:27:28.235490+05:30"},{"city":"Gorakhpur","state":"Uttar Pradesh","latitude":26.7606,"longitude":83.3732,"temp":32.5,"humidity":65,"rain":0.0,"pressure":993.1,"uv_index":8.6,"wind_gusts":31.7,"aqi":146,"pm10":82.2,"pm2_5":72.2,"no2":8.4,"co":514.0,"o3":134.0,"so2":15.7,"mosquito_risk":3,"arthritis_risk":5,"migraine_risk":7,"frizz_risk":1,"updated_at":"2026-05-18T09:27:28.235498+05:30"},{"city":"Bareilly","state":"Uttar Pradesh","latitude":28.367,"longitude":79.4304,"temp":32.2,"humidity":44,"rain":0.0,"pressure":982.5,"uv_index":8.05,"wind_gusts":38.2,"aqi":141,"pm10":317.6,"pm2_5":101.5,"no2":14.4,"co":438.0,"o3":107.0,"so2":13.2,"mosquito_risk":0,"arthritis_risk":5,"migraine_risk":7,"frizz_risk":1,"updated_at":"2026-05-18T09:27:28.235504+05:30"},{"city":"Aligarh","state":"Uttar Pradesh","latitude":27.8974,"longitude":78.088,"temp":34.8,"humidity":34,"rain":0.0,"pressure":981.4,"uv_index":7.9,"wind_gusts":39.6,"aqi":670,"pm10":886.6,"pm2_5":204.9,"no2":13.7,"co":409.0,"o3":83.0,"so2":14.5,"mosquito_risk":0,"arthritis_risk":5,"migraine_risk":7,"frizz_risk":1,"updated_at":"2026-05-18T09:27:28.235510+05:30"},{"city":"Moradabad","state":"Uttar Pradesh","latitude":28.8386,"longitude":78.7733,"temp":32.3,"humidity":39,"rain":0.0,"pressure":979.3,"uv_index":7.85,"wind_gusts":38.9,"aqi":158,"pm10":392.1,"pm2_5":135.5,"no2":12.3,"co":470.0,"o3":99.0,"so2":11.9,"mosquito_risk":0,"arthritis_risk":5,"migraine_risk":7,"frizz_risk":1,"updated_at":"2026-05-18T09:27:28.235516+05:30"},{"city":"Saharanpur","state":"Uttar Pradesh","latitude":29.9637,"longitude":77.546,"temp":31.1,"humidity":43,"rain":0.0,"pressure":971.2,"uv_index":7.4,"wind_gusts":37.4,"aqi":103,"pm10":169.0,"pm2_5":65.2,"no2":15.5,"co":424.0,"o3":105.0,"so2":12.4,"mosquito_risk":0,"arthritis_risk":5,"migraine_risk":7,"frizz_risk":1,"updated_at":"2026-05-18T09:27:28.235521+05:30"},{"city":"Jhansi","state":"Uttar Pradesh","latitude":25.4484,"longitude":78.5685,"temp":38.1,"humidity":23,"rain":0.0,"pressure":974.3,"uv_index":8.45,"wind_gusts":43.2,"aqi":93,"pm10":49.5,"pm2_5":18.4,"no2":3.5,"co":203.0,"o3":85.0,"so2":6.1,"mosquito_risk":0,"arthritis_risk":5,"migraine_risk":10,"frizz_risk":0,"updated_at":"2026-05-18T09:27:31.547705+05:30"},{"city":"Surat","state":"Gujarat","latitude":21.1702,"longitude":72.8311,"temp":35.4,"humidity":32,"rain":0.0,"pressure":1004.3,"uv_index":7.6,"wind_gusts":36.7,"aqi":91,"pm10":52.4,"pm2_5":35.9,"no2":37.1,"co":198.0,"o3":44.0,"so2":82.8,"mosquito_risk":0,"arthritis_risk":5,"migraine_risk":7,"frizz_risk":0,"updated_at":"2026-05-18T09:27:31.547740+05:30"},{"city":"Vadodara","state":"Gujarat","latitude":22.3072,"longitude":73.1812,"temp":35.5,"humidity":29,"rain":0.0,"pressure":1001.9,"uv_index":7.5,"wind_gusts":37.4,"aqi":68,"pm10":40.2,"pm2_5":18.3,"no2":7.8,"co":238.0,"o3":66.0,"so2":9.8,"mosquito_risk":0,"arthritis_risk":5,"migraine_risk":7,"frizz_risk":0,"updated_at":"2026-05-18T09:27:31.547750+05:30"},{"city":"Rajkot","state":"Gujarat","latitude":22.3039,"longitude":70.8022,"temp":31.5,"humidity":55,"rain":0.0,"pressure":992.8,"uv_index":7.75,"wind_gusts":40.3,"aqi":57,"pm10":46.7,"pm2_5":16.0,"no2":4.2,"co":138.0,"o3":58.0,"so2":4.7,"mosquito_risk":0,"arthritis_risk":5,"migraine_risk":7,"frizz_risk":1,"updated_at":"2026-05-18T09:27:31.547759+05:30"},{"city":"Thane","state":"Maharashtra","latitude":19.2183,"longitude":72.9781,"temp":32.5,"humidity":63,"rain":0.0,"pressure":1005.7,"uv_index":7.7,"wind_gusts":38.9,"aqi":67,"pm10":42.8,"pm2_5":20.8,"no2":11.4,"co":252.0,"o3":70.0,"so2":12.5,"mosquito_risk":3,"arthritis_risk":5,"migraine_risk":4,"frizz_risk":1,"updated_at":"2026-05-18T09:27:31.547766+05:30"},{"city":"Nagpur","state":"Maharashtra","latitude":21.1458,"longitude":79.0882,"temp":36.3,"humidity":37,"rain":0.0,"pressure":971.5,"uv_index":8.95,"wind_gusts":34.6,"aqi":86,"pm10":30.2,"pm2_5":25.0,"no2":9.3,"co":309.0,"o3":107.0,"so2":16.6,"mosquito_risk":0,"arthritis_risk":5,"migraine_risk":10,"frizz_risk":1,"updated_at":"2026-05-18T09:27:31.547774+05:30"},{"city":"Nashik","state":"Maharashtra","latitude":19.9975,"longitude":73.7898,"temp":33.0,"humidity":34,"rain":0.0,"pressure":944.4,"uv_index":5.5,"wind_gusts":43.2,"aqi":65,"pm10":45.6,"pm2_5":18.7,"no2":4.5,"co":191.0,"o3":87.0,"so2":3.6,"mosquito_risk":0,"arthritis_risk":5,"migraine_risk":3,"frizz_risk":0,"updated_at":"2026-05-18T09:27:31.547781+05:30"},{"city":"Aurangabad","state":"Maharashtra","latitude":19.8762,"longitude":75.3433,"temp":34.8,"humidity":25,"rain":0.0,"pressure":943.2,"uv_index":8.7,"wind_gusts":32.8,"aqi":54,"pm10":45.9,"pm2_5":22.5,"no2":5.1,"co":183.0,"o3":108.0,"so2":9.4,"mosquito_risk":0,"arthritis_risk":5,"migraine_risk":7,"frizz_risk":0,"updated_at":"2026-05-18T09:27:31.547787+05:30"},{"city":"Solapur","state":"Maharashtra","latitude":17.6599,"longitude":75.9064,"temp":34.6,"humidity":38,"rain":0.0,"pressure":955.3,"uv_index":8.75,"wind_gusts":41.8,"aqi":73,"pm10":29.9,"pm2_5":22.9,"no2":6.4,"co":235.0,"o3":100.0,"so2":8.8,"mosquito_risk":0,"arthritis_risk":5,"migraine_risk":7,"frizz_risk":1,"updated_at":"2026-05-18T09:27:31.547794+05:30"},{"city":"Kolhapur","state":"Maharashtra","latitude":16.705,"longitude":74.2433,"temp":30.5,"humidity":56,"rain":0.0,"pressure":946.3,"uv_index":8.9,"wind_gusts":45.4,"aqi":58,"pm10":28.6,"pm2_5":17.2,"no2":4.8,"co":196.0,"o3":78.0,"so2":4.3,"mosquito_risk":0,"arthritis_risk":5,"migraine_risk":7,"frizz_risk":1,"updated_at":"2026-05-18T09:27:31.547800+05:30"},{"city":"Goa","state":"Goa","latitude":15.2993,"longitude":74.124,"temp":30.5,"humidity":73,"rain":0.0,"pressure":996.1,"uv_index":6.6,"wind_gusts":34.2,"aqi":65,"pm10":42.3,"pm2_5":18.7,"no2":2.2,"co":162.0,"o3":72.0,"so2":2.6,"mosquito_risk":3,"arthritis_risk":5,"migraine_risk":7,"frizz_risk":1,"updated_at":"2026-05-18T09:27:31.547807+05:30"},{"city":"Jodhpur","state":"Rajasthan","latitude":26.2389,"longitude":73.0243,"temp":34.8,"humidity":20,"rain":0.0,"pressure":980.8,"uv_index":8.4,"wind_gusts":42.1,"aqi":103,"pm10":290.6,"pm2_5":82.9,"no2":3.0,"co":181.0,"o3":80.0,"so2":4.4,"mosquito_risk":0,"arthritis_risk":5,"migraine_risk":7,"frizz_risk":0,"updated_at":"2026-05-18T09:27:31.547814+05:30"},{"city":"Udaipur","state":"Rajasthan","latitude":24.5854,"longitude":73.7125,"temp":35.8,"humidity":18,"rain":0.0,"pressure":945.1,"uv_index":8.85,"wind_gusts":45.4,"aqi":56,"pm10":42.7,"pm2_5":16.8,"no2":1.9,"co":170.0,"o3":102.0,"so2":6.1,"mosquito_risk":0,"arthritis_risk":5,"migraine_risk":10,"frizz_risk":0,"updated_at":"2026-05-18T09:27:31.547820+05:30"},{"city":"Kota","state":"Rajasthan","latitude":25.2138,"longitude":75.8648,"temp":38.6,"humidity":19,"rain":0.0,"pressure":976.0,"uv_index":8.4,"wind_gusts":39.6,"aqi":96,"pm10":84.5,"pm2_5":25.5,"no2":3.8,"co":183.0,"o3":87.0,"so2":6.0,"mosquito_risk":0,"arthritis_risk":5,"migraine_risk":10,"frizz_risk":0,"updated_at":"2026-05-18T09:27:31.547827+05:30"},{"city":"Bikaner","state":"Rajasthan","latitude":28.0229,"longitude":73.3119,"temp":36.2,"humidity":17,"rain":0.0,"pressure":978.6,"uv_index":8.4,"wind_gusts":42.1,"aqi":79,"pm10":91.7,"pm2_5":35.2,"no2":1.2,"co":149.0,"o3":83.0,"so2":3.0,"mosquito_risk":0,"arthritis_risk":5,"migraine_risk":10,"frizz_risk":0,"updated_at":"2026-05-18T09:27:31.547833+05:30"},{"city":"Ajmer","state":"Rajasthan","latitude":26.4499,"longitude":74.6399,"temp":34.2,"humidity":23,"rain":0.0,"pressure":953.2,"uv_index":8.4,"wind_gusts":41.0,"aqi":78,"pm10":223.5,"pm2_5":51.5,"no2":3.1,"co":186.0,"o3":83.0,"so2":5.1,"mosquito_risk":0,"arthritis_risk":5,"migraine_risk":7,"frizz_risk":0,"updated_at":"2026-05-18T09:27:31.547840+05:30"},{"city":"Gwalior","state":"Madhya Pradesh","latitude":26.2183,"longitude":78.1828,"temp":38.2,"humidity":23,"rain":0.0,"pressure":979.1,"uv_index":8.25,"wind_gusts":46.4,"aqi":112,"pm10":78.7,"pm2_5":25.3,"no2":5.2,"co":195.0,"o3":78.0,"so2":5.1,"mosquito_risk":0,"arthritis_risk":5,"migraine_risk":10,"frizz_risk":0,"updated_at":"2026-05-18T09:27:31.547847+05:30"},{"city":"Indore","state":"Madhya Pradesh","latitude":22.7196,"longitude":75.8577,"temp":36.3,"humidity":22,"rain":0.0,"pressure":946.7,"uv_index":8.65,"wind_gusts":40.7,"aqi":66,"pm10":26.8,"pm2_5":16.0,"no2":3.6,"co":296.0,"o3":85.0,"so2":4.9,"mosquito_risk":0,"arthritis_risk":5,"migraine_risk":10,"frizz_risk":0,"updated_at":"2026-05-18T09:27:31.547853+05:30"},{"city":"Bhopal","state":"Madhya Pradesh","latitude":23.2599,"longitude":77.4126,"temp":38.3,"humidity":19,"rain":0.0,"pressure":951.6,"uv_index":8.7,"wind_gusts":46.4,"aqi":57,"pm10":26.8,"pm2_5":18.3,"no2":4.6,"co":339.0,"o3":107.0,"so2":5.6,"mosquito_risk":0,"arthritis_risk":5,"migraine_risk":10,"frizz_risk":0,"updated_at":"2026-05-18T09:27:31.547860+05:30"},{"city":"Jabalpur","state":"Madhya Pradesh","latitude":23.1815,"longitude":79.9864,"temp":36.7,"humidity":30,"rain":0.0,"pressure":959.6,"uv_index":8.85,"wind_gusts":32.4,"aqi":81,"pm10":32.1,"pm2_5":26.5,"no2":10.2,"co":288.0,"o3":118.0,"so2":7.9,"mosquito_risk":0,"arthritis_risk":5,"migraine_risk":10,"frizz_risk":1,"updated_at":"2026-05-18T09:27:31.547867+05:30"},{"city":"Ujjain","state":"Madhya Pradesh","latitude":23.1765,"longitude":75.7885,"temp":36.6,"humidity":23,"rain":0.0,"pressure":952.2,"uv_index":8.35,"wind_gusts":38.2,"aqi":65,"pm10":29.5,"pm2_5":16.6,"no2":2.6,"co":236.0,"o3":82.0,"so2":5.0,"mosquito_risk":0,"arthritis_risk":5,"migraine_risk":10,"frizz_risk":0,"updated_at":"2026-05-18T09:27:31.547874+05:30"},{"city":"Visakhapatnam","state":"Andhra Pradesh","latitude":17.6868,"longitude":83.2185,"temp":33.5,"humidity":59,"rain":0.0,"pressure":1001.8,"uv_index":9.05,"wind_gusts":49.3,"aqi":60,"pm10":27.5,"pm2_5":20.0,"no2":12.3,"co":360.0,"o3":75.0,"so2":32.4,"mosquito_risk":0,"arthritis_risk":5,"migraine_risk":4,"frizz_risk":1,"updated_at":"2026-05-18T09:27:31.547882+05:30"},{"city":"Vijayawada","state":"Andhra Pradesh","latitude":16.5062,"longitude":80.648,"temp":34.2,"humidity":56,"rain":0.0,"pressure":1000.3,"uv_index":8.5,"wind_gusts":31.7,"aqi":56,"pm10":24.5,"pm2_5":17.9,"no2":3.3,"co":232.0,"o3":116.0,"so2":9.6,"mosquito_risk":0,"arthritis_risk":5,"migraine_risk":4,"frizz_risk":1,"updated_at":"2026-05-18T09:27:31.547888+05:30"},{"city":"Guntur","state":"Andhra Pradesh","latitude":16.3067,"longitude":80.4365,"temp":34.2,"humidity":57,"rain":0.0,"pressure":1001.5,"uv_index":8.8,"wind_gusts":37.1,"aqi":55,"pm10":26.0,"pm2_5":19.7,"no2":3.1,"co":239.0,"o3":122.0,"so2":9.7,"mosquito_risk":0,"arthritis_risk":5,"migraine_risk":4,"frizz_risk":1,"updated_at":"2026-05-18T09:27:31.547896+05:30"},{"city":"Nellore","state":"Andhra Pradesh","latitude":14.4426,"longitude":79.9865,"temp":34.2,"humidity":54,"rain":0.0,"pressure":1003.2,"uv_index":8.8,"wind_gusts":38.9,"aqi":65,"pm10":20.5,"pm2_5":16.9,"no2":8.6,"co":265.0,"o3":93.0,"so2":19.0,"mosquito_risk":0,"arthritis_risk":5,"migraine_risk":4,"frizz_risk":1,"updated_at":"2026-05-18T09:27:31.547904+05:30"},{"city":"Kurnool","state":"Andhra Pradesh","latitude":15.8281,"longitude":78.0373,"temp":33.3,"humidity":54,"rain":0.0,"pressure":975.1,"uv_index":9.1,"wind_gusts":56.5,"aqi":58,"pm10":21.9,"pm2_5":19.1,"no2":2.9,"co":258.0,"o3":105.0,"so2":8.1,"mosquito_risk":0,"arthritis_risk":5,"migraine_risk":7,"frizz_risk":1,"updated_at":"2026-05-18T09:27:31.547912+05:30"},{"city":"Kakinada","state":"Andhra Pradesh","latitude":16.9891,"longitude":82.2475,"temp":34.4,"humidity":55,"rain":0.0,"pressure":1005.6,"uv_index":8.45,"wind_gusts":41.0,"aqi":53,"pm10":23.9,"pm2_5":15.4,"no2":1.5,"co":216.0,"o3":96.0,"so2":2.2,"mosquito_risk":0,"arthritis_risk":5,"migraine_risk":4,"frizz_risk":1,"updated_at":"2026-05-18T09:27:31.547919+05:30"},{"city":"Tirupati","state":"Andhra Pradesh","latitude":13.6288,"longitude":79.4192,"temp":32.3,"humidity":56,"rain":0.0,"pressure":989.1,"uv_index":8.1,"wind_gusts":29.2,"aqi":70,"pm10":27.7,"pm2_5":22.0,"no2":5.9,"co":300.0,"o3":106.0,"so2":10.2,"mosquito_risk":0,"arthritis_risk":5,"migraine_risk":7,"frizz_risk":1,"updated_at":"2026-05-18T09:27:31.547925+05:30"},{"city":"Warangal","state":"Telangana","latitude":17.9689,"longitude":79.5941,"temp":31.8,"humidity":60,"rain":0.0,"pressure":977.9,"uv_index":9.2,"wind_gusts":36.4,"aqi":67,"pm10":21.9,"pm2_5":16.8,"no2":4.7,"co":239.0,"o3":75.0,"so2":6.1,"mosquito_risk":0,"arthritis_risk":5,"migraine_risk":7,"frizz_risk":1,"updated_at":"2026-05-18T09:27:31.547932+05:30"},{"city":"Nizamabad","state":"Telangana","latitude":18.6725,"longitude":78.0941,"temp":35.5,"humidity":39,"rain":0.0,"pressure":963.2,"uv_index":9.15,"wind_gusts":30.2,"aqi":74,"pm10":21.6,"pm2_5":18.2,"no2":5.6,"co":272.0,"o3":106.0,"so2":6.6,"mosquito_risk":0,"arthritis_risk":5,"migraine_risk":10,"frizz_risk":1,"updated_at":"2026-05-18T09:27:31.547938+05:30"},{"city":"Mysore","state":"Karnataka","latitude":12.2958,"longitude":76.6396,"temp":25.1,"humidity":80,"rain":0.0,"pressure":927.6,"uv_index":5.9,"wind_gusts":47.9,"aqi":65,"pm10":14.5,"pm2_5":10.3,"no2":6.8,"co":212.0,"o3":75.0,"so2":3.2,"mosquito_risk":7,"arthritis_risk":5,"migraine_risk":3,"frizz_risk":1,"updated_at":"2026-05-18T09:27:31.547945+05:30"},{"city":"Mangalore","state":"Karnataka","latitude":12.9141,"longitude":74.856,"temp":26.0,"humidity":93,"rain":0.0,"pressure":1006.2,"uv_index":5.1,"wind_gusts":29.9,"aqi":60,"pm10":23.1,"pm2_5":14.5,"no2":4.9,"co":205.0,"o3":74.0,"so2":3.0,"mosquito_risk":7,"arthritis_risk":5,"migraine_risk":0,"frizz_risk":1,"updated_at":"2026-05-18T09:27:31.547952+05:30"},{"city":"Hubli-Dharwad","state":"Karnataka","latitude":15.3647,"longitude":75.124,"temp":31.6,"humidity":53,"rain":0.0,"pressure":939.6,"uv_index":8.2,"wind_gusts":43.9,"aqi":54,"pm10":26.4,"pm2_5":15.8,"no2":4.5,"co":189.0,"o3":74.0,"so2":3.0,"mosquito_risk":0,"arthritis_risk":5,"migraine_risk":7,"frizz_risk":1,"updated_at":"2026-05-18T09:27:31.547958+05:30"},{"city":"Belgaum","state":"Karnataka","latitude":15.8497,"longitude":74.4977,"temp":30.1,"humidity":55,"rain":0.0,"pressure":924.9,"uv_index":9.15,"wind_gusts":43.9,"aqi":58,"pm10":32.2,"pm2_5":17.9,"no2":4.1,"co":165.0,"o3":89.0,"so2":4.8,"mosquito_risk":0,"arthritis_risk":5,"migraine_risk":7,"frizz_risk":1,"updated_at":"2026-05-18T09:27:34.865601+05:30"},{"city":"Coimbatore","state":"Tamil Nadu","latitude":11.0168,"longitude":76.9558,"temp":28.2,"humidity":70,"rain":0.0,"pressure":960.7,"uv_index":7.5,"wind_gusts":51.5,"aqi":39,"pm10":7.0,"pm2_5":5.6,"no2":5.6,"co":206.0,"o3":74.0,"so2":3.4,"mosquito_risk":7,"arthritis_risk":5,"migraine_risk":7,"frizz_risk":1,"updated_at":"2026-05-18T09:27:34.865636+05:30"},{"city":"Madurai","state":"Tamil Nadu","latitude":9.9252,"longitude":78.1198,"temp":30.9,"humidity":67,"rain":0.0,"pressure":991.9,"uv_index":9.0,"wind_gusts":36.0,"aqi":80,"pm10":16.1,"pm2_5":13.7,"no2":8.9,"co":287.0,"o3":86.0,"so2":6.3,"mosquito_risk":3,"arthritis_risk":5,"migraine_risk":7,"frizz_risk":1,"updated_at":"2026-05-18T09:27:34.865647+05:30"},{"city":"Trichy","state":"Tamil Nadu","latitude":10.7905,"longitude":78.7047,"temp":30.5,"humidity":71,"rain":0.0,"pressure":998.3,"uv_index":8.75,"wind_gusts":28.8,"aqi":71,"pm10":19.2,"pm2_5":16.4,"no2":8.4,"co":284.0,"o3":84.0,"so2":6.5,"mosquito_risk":3,"arthritis_risk":5,"migraine_risk":7,"frizz_risk":1,"updated_at":"2026-05-18T09:27:34.865655+05:30"},{"city":"Salem","state":"Tamil Nadu","latitude":11.6643,"longitude":78.146,"temp":30.0,"humidity":66,"rain":0.0,"pressure":976.4,"uv_index":8.45,"wind_gusts":40.3,"aqi":69,"pm10":15.6,"pm2_5":11.6,"no2":9.0,"co":267.0,"o3":80.0,"so2":10.5,"mosquito_risk":7,"arthritis_risk":5,"migraine_risk":7,"frizz_risk":1,"updated_at":"2026-05-18T09:27:34.865663+05:30"},{"city":"Tirunelveli","state":"Tamil Nadu","latitude":8.7139,"longitude":77.7567,"temp":31.5,"humidity":60,"rain":0.0,"pressure":1002.6,"uv_index":8.9,"wind_gusts":23.0,"aqi":28,"pm10":7.2,"pm2_5":5.7,"no2":3.3,"co":199.0,"o3":69.0,"so2":1.7,"mosquito_risk":0,"arthritis_risk":5,"migraine_risk":4,"frizz_risk":1,"updated_at":"2026-05-18T09:27:34.865670+05:30"},{"city":"Vellore","state":"Tamil Nadu","latitude":12.9165,"longitude":79.1325,"temp":31.5,"humidity":59,"rain":0.0,"pressure":982.8,"uv_index":8.6,"wind_gusts":31.0,"aqi":77,"pm10":33.4,"pm2_5":25.0,"no2":5.6,"co":293.0,"o3":105.0,"so2":8.8,"mosquito_risk":0,"arthritis_risk":5,"migraine_risk":7,"frizz_risk":1,"updated_at":"2026-05-18T09:27:34.865677+05:30"},{"city":"Erode","state":"Tamil Nadu","latitude":11.341,"longitude":77.7172,"temp":30.1,"humidity":66,"rain":0.0,"pressure":988.0,"uv_index":6.95,"wind_gusts":47.9,"aqi":59,"pm10":12.6,"pm2_5":10.2,"no2":10.3,"co":243.0,"o3":65.0,"so2":4.5,"mosquito_risk":3,"arthritis_risk":5,"migraine_risk":7,"frizz_risk":1,"updated_at":"2026-05-18T09:27:34.865684+05:30"},{"city":"Kochi","state":"Kerala","latitude":9.9312,"longitude":76.2673,"temp":28.1,"humidity":83,"rain":0.1,"pressure":1007.9,"uv_index":8.1,"wind_gusts":39.6,"aqi":46,"pm10":11.6,"pm2_5":10.1,"no2":9.7,"co":271.0,"o3":61.0,"so2":4.9,"mosquito_risk":10,"arthritis_risk":5,"migraine_risk":4,"frizz_risk":1,"updated_at":"2026-05-18T09:27:34.865692+05:30"},{"city":"Thiruvananthapuram","state":"Kerala","latitude":8.5241,"longitude":76.9366,"temp":27.2,"humidity":87,"rain":0.1,"pressure":1008.0,"uv_index":7.5,"wind_gusts":35.6,"aqi":32,"pm10":10.7,"pm2_5":6.7,"no2":2.0,"co":173.0,"o3":73.0,"so2":0.7,"mosquito_risk":10,"arthritis_risk":0,"migraine_risk":4,"frizz_risk":1,"updated_at":"2026-05-18T09:27:34.865699+05:30"},{"city":"Kozhikode","state":"Kerala","latitude":11.2588,"longitude":75.7804,"temp":25.8,"humidity":96,"rain":0.1,"pressure":1007.4,"uv_index":3.15,"wind_gusts":28.8,"aqi":45,"pm10":8.1,"pm2_5":5.0,"no2":1.4,"co":280.0,"o3":81.0,"so2":0.9,"mosquito_risk":10,"arthritis_risk":5,"migraine_risk":0,"frizz_risk":1,"updated_at":"2026-05-18T09:27:34.865706+05:30"},{"city":"Thrissur","state":"Kerala","latitude":10.5276,"longitude":76.2144,"temp":27.2,"humidity":87,"rain":0.1,"pressure":1006.4,"uv_index":7.65,"wind_gusts":32.0,"aqi":42,"pm10":9.4,"pm2_5":8.6,"no2":9.1,"co":323.0,"o3":55.0,"so2":3.8,"mosquito_risk":10,"arthritis_risk":5,"migraine_risk":4,"frizz_risk":1,"updated_at":"2026-05-18T09:27:34.865714+05:30"},{"city":"Kannur","state":"Kerala","latitude":11.8745,"longitude":75.3704,"temp":24.9,"humidity":98,"rain":0.3,"pressure":1006.7,"uv_index":4.3,"wind_gusts":32.8,"aqi":60,"pm10":14.4,"pm2_5":9.7,"no2":4.8,"co":191.0,"o3":70.0,"so2":2.0,"mosquito_risk":6,"arthritis_risk":5,"migraine_risk":0,"frizz_risk":1,"updated_at":"2026-05-18T09:27:34.865721+05:30"},{"city":"Patna","state":"Bihar","latitude":25.5941,"longitude":85.1376,"temp":32.7,"humidity":67,"rain":0.0,"pressure":996.3,"uv_index":8.8,"wind_gusts":26.6,"aqi":154,"pm10":70.8,"pm2_5":58.6,"no2":9.1,"co":526.0,"o3":119.0,"so2":15.2,"mosquito_risk":3,"arthritis_risk":5,"migraine_risk":7,"frizz_risk":1,"updated_at":"2026-05-18T09:27:34.865727+05:30"},{"city":"Gaya","state":"Bihar","latitude":24.7914,"longitude":85.0002,"temp":37.0,"humidity":33,"rain":0.0,"pressure":989.5,"uv_index":8.85,"wind_gusts":45.7,"aqi":120,"pm10":64.0,"pm2_5":34.7,"no2":9.6,"co":283.0,"o3":119.0,"so2":23.4,"mosquito_risk":0,"arthritis_risk":5,"migraine_risk":10,"frizz_risk":1,"updated_at":"2026-05-18T09:27:34.865734+05:30"},{"city":"Muzaffarpur","state":"Bihar","latitude":26.1209,"longitude":85.3647,"temp":31.2,"humidity":69,"rain":0.0,"pressure":996.6,"uv_index":8.8,"wind_gusts":36.0,"aqi":155,"pm10":68.5,"pm2_5":56.9,"no2":7.8,"co":461.0,"o3":124.0,"so2":13.4,"mosquito_risk":3,"arthritis_risk":5,"migraine_risk":7,"frizz_risk":1,"updated_at":"2026-05-18T09:27:34.865741+05:30"},{"city":"Bhagalpur","state":"Bihar","latitude":25.2425,"longitude":87.0117,"temp":30.1,"humidity":73,"rain":0.0,"pressure":997.6,"uv_index":8.8,"wind_gusts":33.8,"aqi":153,"pm10":54.2,"pm2_5":48.2,"no2":11.7,"co":596.0,"o3":104.0,"so2":20.5,"mosquito_risk":3,"arthritis_risk":5,"migraine_risk":7,"frizz_risk":1,"updated_at":"2026-05-18T09:27:34.865747+05:30"},{"city":"Ranchi","state":"Jharkhand","latitude":23.3441,"longitude":85.3096,"temp":32.2,"humidity":48,"rain":0.0,"pressure":936.4,"uv_index":9.25,"wind_gusts":41.0,"aqi":149,"pm10":53.7,"pm2_5":45.8,"no2":4.8,"co":298.0,"o3":150.0,"so2":18.0,"mosquito_risk":0,"arthritis_risk":5,"migraine_risk":7,"frizz_risk":1,"updated_at":"2026-05-18T09:27:34.865753+05:30"},{"city":"Jamshedpur","state":"Jharkhand","latitude":22.8046,"longitude":86.2029,"temp":34.5,"humidity":52,"rain":0.0,"pressure":988.0,"uv_index":9.05,"wind_gusts":44.6,"aqi":136,"pm10":42.5,"pm2_5":36.7,"no2":10.8,"co":379.0,"o3":139.0,"so2":39.2,"mosquito_risk":0,"arthritis_risk":5,"migraine_risk":7,"frizz_risk":1,"updated_at":"2026-05-18T09:27:34.865759+05:30"},{"city":"Dhanbad","state":"Jharkhand","latitude":23.7957,"longitude":86.4304,"temp":34.6,"humidity":47,"rain":0.0,"pressure":976.6,"uv_index":9.0,"wind_gusts":41.0,"aqi":156,"pm10":75.4,"pm2_5":67.1,"no2":28.2,"co":351.0,"o3":128.0,"so2":84.8,"mosquito_risk":0,"arthritis_risk":5,"migraine_risk":7,"frizz_risk":1,"updated_at":"2026-05-18T09:27:34.865765+05:30"},{"city":"Bokaro","state":"Jharkhand","latitude":23.6693,"longitude":86.1511,"temp":35.4,"humidity":45,"rain":0.0,"pressure":980.2,"uv_index":9.05,"wind_gusts":37.1,"aqi":153,"pm10":69.6,"pm2_5":61.0,"no2":16.0,"co":362.0,"o3":143.0,"so2":50.4,"mosquito_risk":0,"arthritis_risk":5,"migraine_risk":10,"frizz_risk":1,"updated_at":"2026-05-18T09:27:34.865772+05:30"},{"city":"Bhubaneswar","state":"Odisha","latitude":20.2961,"longitude":85.8245,"temp":34.8,"humidity":58,"rain":0.0,"pressure":999.7,"uv_index":4.8,"wind_gusts":38.5,"aqi":56,"pm10":20.4,"pm2_5":15.9,"no2":3.8,"co":249.0,"o3":87.0,"so2":9.3,"mosquito_risk":0,"arthritis_risk":5,"migraine_risk":3,"frizz_risk":1,"updated_at":"2026-05-18T09:27:34.865779+05:30"},{"city":"Cuttack","state":"Odisha","latitude":20.4625,"longitude":85.8828,"temp":34.5,"humidity":61,"rain":0.0,"pressure":1001.5,"uv_index":6.4,"wind_gusts":37.8,"aqi":56,"pm10":20.4,"pm2_5":15.9,"no2":3.8,"co":275.0,"o3":87.0,"so2":9.3,"mosquito_risk":3,"arthritis_risk":5,"migraine_risk":4,"frizz_risk":1,"updated_at":"2026-05-18T09:27:34.865785+05:30"},{"city":"Rourkela","state":"Odisha","latitude":22.2604,"longitude":84.8536,"temp":33.9,"humidity":51,"rain":0.0,"pressure":983.1,"uv_index":8.95,"wind_gusts":38.9,"aqi":154,"pm10":40.6,"pm2_5":34.6,"no2":5.5,"co":392.0,"o3":140.0,"so2":13.1,"mosquito_risk":0,"arthritis_risk":5,"migraine_risk":7,"frizz_risk":1,"updated_at":"2026-05-18T09:27:34.865792+05:30"},{"city":"Raipur","state":"Chhattisgarh","latitude":21.2514,"longitude":81.6296,"temp":35.2,"humidity":46,"rain":0.0,"pressure":973.1,"uv_index":8.95,"wind_gusts":40.7,"aqi":115,"pm10":36.1,"pm2_5":31.5,"no2":21.0,"co":602.0,"o3":100.0,"so2":51.2,"mosquito_risk":0,"arthritis_risk":5,"migraine_risk":10,"frizz_risk":1,"updated_at":"2026-05-18T09:27:34.865798+05:30"},{"city":"Bhilai","state":"Chhattisgarh","latitude":21.1938,"longitude":81.3509,"temp":34.0,"humidity":50,"rain":0.0,"pressure":973.6,"uv_index":8.95,"wind_gusts":40.0,"aqi":99,"pm10":30.0,"pm2_5":26.7,"no2":16.4,"co":889.0,"o3":100.0,"so2":42.1,"mosquito_risk":0,"arthritis_risk":5,"migraine_risk":7,"frizz_risk":1,"updated_at":"2026-05-18T09:27:34.865804+05:30"},{"city":"Guwahati","state":"Assam","latitude":26.1158,"longitude":91.7086,"temp":24.2,"humidity":96,"rain":0.4,"pressure":1000.4,"uv_index":8.55,"wind_gusts":24.5,"aqi":80,"pm10":19.2,"pm2_5":13.5,"no2":3.8,"co":338.0,"o3":101.0,"so2":3.6,"mosquito_risk":6,"arthritis_risk":5,"migraine_risk":4,"frizz_risk":1,"updated_at":"2026-05-18T09:27:34.865810+05:30"},{"city":"Agartala","state":"Tripura","latitude":23.8315,"longitude":91.2868,"temp":29.3,"humidity":83,"rain":0.0,"pressure":1004.2,"uv_index":8.9,"wind_gusts":47.5,"aqi":76,"pm10":29.5,"pm2_5":18.7,"no2":4.4,"co":185.0,"o3":78.0,"so2":2.3,"mosquito_risk":7,"arthritis_risk":5,"migraine_risk":4,"frizz_risk":1,"updated_at":"2026-05-18T09:27:34.865817+05:30"},{"city":"Shillong","state":"Meghalaya","latitude":25.5788,"longitude":91.8933,"temp":23.5,"humidity":62,"rain":0.0,"pressure":856.8,"uv_index":8.1,"wind_gusts":37.4,"aqi":58,"pm10":9.9,"pm2_5":5.8,"no2":3.8,"co":229.0,"o3":99.0,"so2":3.7,"mosquito_risk":3,"arthritis_risk":5,"migraine_risk":7,"frizz_risk":0,"updated_at":"2026-05-18T09:27:34.865823+05:30"},{"city":"Imphal","state":"Manipur","latitude":24.817,"longitude":93.9368,"temp":24.4,"humidity":78,"rain":0.0,"pressure":922.7,"uv_index":7.95,"wind_gusts":33.5,"aqi":81,"pm10":24.1,"pm2_5":13.2,"no2":1.4,"co":269.0,"o3":113.0,"so2":4.0,"mosquito_risk":3,"arthritis_risk":5,"migraine_risk":7,"frizz_risk":1,"updated_at":"2026-05-18T09:27:34.865829+05:30"},{"city":"Aizawl","state":"Mizoram","latitude":23.7271,"longitude":92.7176,"temp":25.6,"humidity":61,"rain":0.0,"pressure":892.7,"uv_index":9.05,"wind_gusts":38.5,"aqi":68,"pm10":28.9,"pm2_5":15.1,"no2":1.3,"co":160.0,"o3":78.0,"so2":2.7,"mosquito_risk":7,"arthritis_risk":5,"migraine_risk":7,"frizz_risk":1,"updated_at":"2026-05-18T09:27:34.865835+05:30"},{"city":"Kohima","state":"Nagaland","latitude":25.6701,"longitude":94.1077,"temp":24.6,"humidity":65,"rain":0.0,"pressure":855.7,"uv_index":3.9,"wind_gusts":34.2,"aqi":55,"pm10":27.6,"pm2_5":13.6,"no2":1.3,"co":226.0,"o3":111.0,"so2":3.1,"mosquito_risk":3,"arthritis_risk":5,"migraine_risk":3,"frizz_risk":1,"updated_at":"2026-05-18T09:27:34.865841+05:30"},{"city":"Gangtok","state":"Sikkim","latitude":27.3314,"longitude":88.6138,"temp":20.6,"humidity":72,"rain":0.0,"pressure":836.6,"uv_index":9.1,"wind_gusts":36.0,"aqi":78,"pm10":33.6,"pm2_5":24.2,"no2":1.9,"co":353.0,"o3":130.0,"so2":2.5,"mosquito_risk":3,"arthritis_risk":5,"migraine_risk":7,"frizz_risk":0,"updated_at":"2026-05-18T09:27:34.865848+05:30"},{"city":"Siliguri","state":"West Bengal","latitude":26.7271,"longitude":88.3953,"temp":27.0,"humidity":74,"rain":0.0,"pressure":990.8,"uv_index":8.75,"wind_gusts":29.2,"aqi":117,"pm10":66.1,"pm2_5":49.2,"no2":4.5,"co":395.0,"o3":140.0,"so2":5.4,"mosquito_risk":7,"arthritis_risk":5,"migraine_risk":7,"frizz_risk":1,"updated_at":"2026-05-18T09:27:38.188051+05:30"},{"city":"Durgapur","state":"West Bengal","latitude":23.5204,"longitude":87.3119,"temp":34.9,"humidity":56,"rain":0.0,"pressure":991.1,"uv_index":8.95,"wind_gusts":44.6,"aqi":144,"pm10":70.5,"pm2_5":63.8,"no2":31.7,"co":453.0,"o3":119.0,"so2":82.0,"mosquito_risk":0,"arthritis_risk":5,"migraine_risk":7,"frizz_risk":1,"updated_at":"2026-05-18T09:27:38.188086+05:30"},{"city":"Asansol","state":"West Bengal","latitude":23.6739,"longitude":86.9524,"temp":35.5,"humidity":50,"rain":0.0,"pressure":989.7,"uv_index":9.0,"wind_gusts":42.1,"aqi":150,"pm10":72.6,"pm2_5":65.2,"no2":30.1,"co":1077.0,"o3":120.0,"so2":81.8,"mosquito_risk":0,"arthritis_risk":5,"migraine_risk":10,"frizz_risk":1,"updated_at":"2026-05-18T09:27:38.188098+05:30"},{"city":"Pondicherry","state":"Puducherry","latitude":11.9139,"longitude":79.8145,"temp":30.4,"humidity":75,"rain":0.0,"pressure":1006.5,"uv_index":7.1,"wind_gusts":42.1,"aqi":62,"pm10":12.8,"pm2_5":10.6,"no2":8.7,"co":286.0,"o3":78.0,"so2":11.6,"mosquito_risk":3,"arthritis_risk":5,"migraine_risk":4,"frizz_risk":1,"updated_at":"2026-05-18T09:27:38.188106+05:30"},{"city":"Port Blair","state":"Andaman and Nicobar Islands","latitude":11.6234,"longitude":92.7265,"temp":29.2,"humidity":77,"rain":0.0,"pressure":1007.1,"uv_index":4.3,"wind_gusts":42.8,"aqi":21,"pm10":10.4,"pm2_5":6.1,"no2":0.4,"co":115.0,"o3":47.0,"so2":0.3,"mosquito_risk":7,"arthritis_risk":5,"migraine_risk":0,"frizz_risk":1,"updated_at":"2026-05-18T09:27:38.188114+05:30"},{"city":"Haridwar","state":"Uttarakhand","latitude":29.9457,"longitude":78.1642,"temp":30.5,"humidity":47,"rain":0.0,"pressure":969.6,"uv_index":7.55,"wind_gusts":25.9,"aqi":75,"pm10":36.4,"pm2_5":24.6,"no2":5.9,"co":358.0,"o3":148.0,"so2":9.8,"mosquito_risk":0,"arthritis_risk":5,"migraine_risk":7,"frizz_risk":1,"updated_at":"2026-05-18T09:27:38.188122+05:30"},{"city":"Rishikesh","state":"Uttarakhand","latitude":30.0869,"longitude":78.2676,"temp":31.8,"humidity":41,"rain":0.0,"pressure":962.3,"uv_index":7.65,"wind_gusts":27.7,"aqi":62,"pm10":17.0,"pm2_5":13.0,"no2":2.1,"co":254.0,"o3":159.0,"so2":6.7,"mosquito_risk":0,"arthritis_risk":5,"migraine_risk":7,"frizz_risk":1,"updated_at":"2026-05-18T09:27:38.188129+05:30"},{"city":"Nainital","state":"Uttarakhand","latitude":29.3919,"longitude":79.4542,"temp":23.2,"humidity":39,"rain":0.0,"pressure":806.6,"uv_index":8.5,"wind_gusts":29.9,"aqi":66,"pm10":25.1,"pm2_5":13.0,"no2":1.9,"co":217.0,"o3":151.0,"so2":4.7,"mosquito_risk":0,"arthritis_risk":5,"migraine_risk":7,"frizz_risk":0,"updated_at":"2026-05-18T09:27:38.188137+05:30"},{"city":"Mussoorie","state":"Uttarakhand","latitude":30.4599,"longitude":78.0664,"temp":23.4,"humidity":39,"rain":0.0,"pressure":803.8,"uv_index":8.05,"wind_gusts":44.3,"aqi":62,"pm10":13.5,"pm2_5":12.2,"no2":3.5,"co":224.0,"o3":158.0,"so2":8.1,"mosquito_risk":0,"arthritis_risk":5,"migraine_risk":7,"frizz_risk":0,"updated_at":"2026-05-18T09:27:38.188144+05:30"},{"city":"Dharamshala","state":"Himachal Pradesh","latitude":32.219,"longitude":76.3234,"temp":27.0,"humidity":35,"rain":0.0,"pressure":867.5,"uv_index":8.45,"wind_gusts":42.1,"aqi":36,"pm10":6.1,"pm2_5":3.4,"no2":2.2,"co":220.0,"o3":103.0,"so2":0.6,"mosquito_risk":4,"arthritis_risk":5,"migraine_risk":7,"frizz_risk":0,"updated_at":"2026-05-18T09:27:38.188152+05:30"},{"city":"Dalhousie","state":"Himachal Pradesh","latitude":32.5387,"longitude":75.971,"temp":25.5,"humidity":22,"rain":0.0,"pressure":805.4,"uv_index":8.7,"wind_gusts":41.0,"aqi":55,"pm10":11.0,"pm2_5":8.1,"no2":6.4,"co":228.0,"o3":109.0,"so2":1.1,"mosquito_risk":4,"arthritis_risk":5,"migraine_risk":7,"frizz_risk":0,"updated_at":"2026-05-18T09:27:38.188159+05:30"},{"city":"Patiala","state":"Punjab","latitude":30.3398,"longitude":76.3869,"temp":34.8,"humidity":33,"rain":0.0,"pressure":973.4,"uv_index":7.65,"wind_gusts":33.5,"aqi":649,"pm10":360.4,"pm2_5":75.2,"no2":7.8,"co":500.0,"o3":102.0,"so2":10.6,"mosquito_risk":0,"arthritis_risk":5,"migraine_risk":7,"frizz_risk":1,"updated_at":"2026-05-18T09:27:38.188182+05:30"},{"city":"Bhatinda","state":"Punjab","latitude":30.211,"longitude":74.9455,"temp":36.5,"humidity":33,"rain":0.0,"pressure":978.9,"uv_index":8.3,"wind_gusts":41.0,"aqi":84,"pm10":47.7,"pm2_5":29.6,"no2":7.1,"co":417.0,"o3":108.0,"so2":6.8,"mosquito_risk":0,"arthritis_risk":5,"migraine_risk":10,"frizz_risk":1,"updated_at":"2026-05-18T09:27:38.188189+05:30"},{"city":"Rohtak","state":"Haryana","latitude":28.8955,"longitude":76.6066,"temp":34.5,"humidity":38,"rain":0.0,"pressure":977.6,"uv_index":7.75,"wind_gusts":43.6,"aqi":953,"pm10":599.8,"pm2_5":133.6,"no2":14.0,"co":473.0,"o3":85.0,"so2":10.9,"mosquito_risk":0,"arthritis_risk":5,"migraine_risk":7,"frizz_risk":1,"updated_at":"2026-05-18T09:27:38.188196+05:30"},{"city":"Panipat","state":"Haryana","latitude":29.3909,"longitude":76.9635,"temp":35.0,"humidity":34,"rain":0.0,"pressure":975.8,"uv_index":7.6,"wind_gusts":35.6,"aqi":2053,"pm10":1352.3,"pm2_5":223.1,"no2":9.6,"co":436.0,"o3":98.0,"so2":13.4,"mosquito_risk":0,"arthritis_risk":5,"migraine_risk":7,"frizz_risk":1,"updated_at":"2026-05-18T09:27:38.188203+05:30"},{"city":"Mathura","state":"Uttar Pradesh","latitude":27.4924,"longitude":77.6737,"temp":36.7,"humidity":29,"rain":0.0,"pressure":982.6,"uv_index":8.0,"wind_gusts":40.7,"aqi":508,"pm10":773.0,"pm2_5":140.2,"no2":11.6,"co":300.0,"o3":76.0,"so2":8.2,"mosquito_risk":0,"arthritis_risk":5,"migraine_risk":10,"frizz_risk":0,"updated_at":"2026-05-18T09:27:38.188210+05:30"},{"city":"Vrindavan","state":"Uttar Pradesh","latitude":27.5823,"longitude":77.7027,"temp":36.1,"humidity":32,"rain":0.0,"pressure":983.1,"uv_index":8.0,"wind_gusts":38.9,"aqi":508,"pm10":773.0,"pm2_5":140.2,"no2":11.6,"co":300.0,"o3":76.0,"so2":8.2,"mosquito_risk":0,"arthritis_risk":5,"migraine_risk":10,"frizz_risk":1,"updated_at":"2026-05-18T09:27:38.188217+05:30"},{"city":"Ayodhya","state":"Uttar Pradesh","latitude":26.7922,"longitude":82.1998,"temp":33.8,"humidity":48,"rain":0.0,"pressure":990.9,"uv_index":8.35,"wind_gusts":26.3,"aqi":143,"pm10":90.8,"pm2_5":63.1,"no2":16.5,"co":490.0,"o3":111.0,"so2":14.3,"mosquito_risk":0,"arthritis_risk":5,"migraine_risk":7,"frizz_risk":1,"updated_at":"2026-05-18T09:27:38.188223+05:30"},{"city":"Ratlam","state":"Madhya Pradesh","latitude":23.3315,"longitude":75.0367,"temp":36.0,"humidity":22,"rain":0.0,"pressure":953.3,"uv_index":8.15,"wind_gusts":44.6,"aqi":61,"pm10":28.2,"pm2_5":15.2,"no2":2.1,"co":195.0,"o3":80.0,"so2":4.1,"mosquito_risk":0,"arthritis_risk":5,"migraine_risk":10,"frizz_risk":0,"updated_at":"2026-05-18T09:27:38.188230+05:30"},{"city":"Sagar","state":"Madhya Pradesh","latitude":23.8388,"longitude":78.7378,"temp":39.8,"humidity":15,"rain":0.0,"pressure":948.2,"uv_index":8.75,"wind_gusts":40.3,"aqi":77,"pm10":26.0,"pm2_5":12.5,"no2":3.4,"co":177.0,"o3":113.0,"so2":3.4,"mosquito_risk":0,"arthritis_risk":5,"migraine_risk":10,"frizz_risk":0,"updated_at":"2026-05-18T09:27:38.188237+05:30"},{"city":"Satna","state":"Madhya Pradesh","latitude":24.6005,"longitude":80.8322,"temp":38.5,"humidity":24,"rain":0.0,"pressure":968.1,"uv_index":8.75,"wind_gusts":56.2,"aqi":94,"pm10":88.2,"pm2_5":29.7,"no2":8.1,"co":236.0,"o3":111.0,"so2":11.3,"mosquito_risk":0,"arthritis_risk":5,"migraine_risk":10,"frizz_risk":0,"updated_at":"2026-05-18T09:27:38.188244+05:30"},{"city":"Akola","state":"Maharashtra","latitude":20.7002,"longitude":77.0082,"temp":37.5,"humidity":24,"rain":0.0,"pressure":972.9,"uv_index":8.9,"wind_gusts":31.7,"aqi":50,"pm10":30.7,"pm2_5":17.4,"no2":7.0,"co":225.0,"o3":103.0,"so2":15.2,"mosquito_risk":0,"arthritis_risk":5,"migraine_risk":10,"frizz_risk":0,"updated_at":"2026-05-18T09:27:38.188252+05:30"},{"city":"Amravati","state":"Maharashtra","latitude":20.9374,"longitude":77.7796,"temp":37.4,"humidity":23,"rain":0.0,"pressure":965.4,"uv_index":8.9,"wind_gusts":27.7,"aqi":54,"pm10":25.0,"pm2_5":15.5,"no2":6.8,"co":201.0,"o3":104.0,"so2":12.9,"mosquito_risk":0,"arthritis_risk":5,"migraine_risk":10,"frizz_risk":0,"updated_at":"2026-05-18T09:27:38.188261+05:30"},{"city":"Latur","state":"Maharashtra","latitude":18.4088,"longitude":76.5604,"temp":35.1,"humidity":32,"rain":0.0,"pressure":938.7,"uv_index":9.05,"wind_gusts":34.2,"aqi":70,"pm10":36.3,"pm2_5":29.7,"no2":5.4,"co":242.0,"o3":121.0,"so2":7.3,"mosquito_risk":0,"arthritis_risk":5,"migraine_risk":10,"frizz_risk":0,"updated_at":"2026-05-18T09:27:38.188267+05:30"},{"city":"Nanded","state":"Maharashtra","latitude":19.1383,"longitude":77.3091,"temp":37.0,"humidity":30,"rain":0.0,"pressure":966.6,"uv_index":9.0,"wind_gusts":30.2,"aqi":73,"pm10":32.0,"pm2_5":26.8,"no2":6.8,"co":294.0,"o3":118.0,"so2":8.9,"mosquito_risk":0,"arthritis_risk":5,"migraine_risk":10,"frizz_risk":1,"updated_at":"2026-05-18T09:27:38.188274+05:30"},{"city":"Gulbarga","state":"Karnataka","latitude":17.3297,"longitude":76.8343,"temp":34.8,"humidity":39,"rain":0.0,"pressure":956.8,"uv_index":9.1,"wind_gusts":30.2,"aqi":80,"pm10":30.3,"pm2_5":23.3,"no2":7.0,"co":240.0,"o3":105.0,"so2":8.8,"mosquito_risk":0,"arthritis_risk":5,"migraine_risk":7,"frizz_risk":1,"updated_at":"2026-05-18T09:27:38.188281+05:30"},{"city":"Bidar","state":"Karnataka","latitude":17.9104,"longitude":77.5199,"temp":33.7,"humidity":42,"rain":0.0,"pressure":934.4,"uv_index":9.0,"wind_gusts":32.8,"aqi":76,"pm10":24.9,"pm2_5":19.9,"no2":5.9,"co":246.0,"o3":107.0,"so2":8.6,"mosquito_risk":0,"arthritis_risk":5,"migraine_risk":7,"frizz_risk":1,"updated_at":"2026-05-18T09:27:38.188287+05:30"},{"city":"Hospet","state":"Karnataka","latitude":15.2689,"longitude":76.3909,"temp":30.1,"humidity":64,"rain":0.0,"pressure":954.6,"uv_index":8.45,"wind_gusts":44.3,"aqi":77,"pm10":20.0,"pm2_5":14.5,"no2":6.6,"co":216.0,"o3":80.0,"so2":4.8,"mosquito_risk":3,"arthritis_risk":5,"migraine_risk":7,"frizz_risk":1,"updated_at":"2026-05-18T09:27:38.188293+05:30"},{"city":"Tirupur","state":"Tamil Nadu","latitude":11.1085,"longitude":77.3411,"temp":29.7,"humidity":63,"rain":0.0,"pressure":974.1,"uv_index":4.6,"wind_gusts":52.9,"aqi":60,"pm10":13.8,"pm2_5":11.1,"no2":9.9,"co":190.0,"o3":70.0,"so2":5.5,"mosquito_risk":7,"arthritis_risk":5,"migraine_risk":3,"frizz_risk":1,"updated_at":"2026-05-18T09:27:38.188300+05:30"},{"city":"Alappuzha","state":"Kerala","latitude":9.4981,"longitude":76.3388,"temp":27.9,"humidity":86,"rain":0.1,"pressure":1008.2,"uv_index":7.1,"wind_gusts":36.7,"aqi":41,"pm10":10.8,"pm2_5":8.2,"no2":5.2,"co":188.0,"o3":77.0,"so2":2.6,"mosquito_risk":10,"arthritis_risk":0,"migraine_risk":4,"frizz_risk":1,"updated_at":"2026-05-18T09:27:38.188306+05:30"},{"city":"Munnar","state":"Kerala","latitude":10.0889,"longitude":77.0595,"temp":20.0,"humidity":87,"rain":0.0,"pressure":857.1,"uv_index":5.0,"wind_gusts":29.5,"aqi":24,"pm10":4.7,"pm2_5":4.2,"no2":3.4,"co":183.0,"o3":67.0,"so2":1.9,"mosquito_risk":3,"arthritis_risk":5,"migraine_risk":3,"frizz_risk":1,"updated_at":"2026-05-18T09:27:38.188313+05:30"},{"city":"Silchar","state":"Assam","latitude":24.8333,"longitude":92.7789,"temp":26.3,"humidity":83,"rain":0.1,"pressure":1004.2,"uv_index":8.75,"wind_gusts":23.8,"aqi":78,"pm10":21.4,"pm2_5":14.3,"no2":3.1,"co":224.0,"o3":88.0,"so2":4.2,"mosquito_risk":10,"arthritis_risk":5,"migraine_risk":4,"frizz_risk":1,"updated_at":"2026-05-18T09:27:38.188321+05:30"},{"city":"Dibrugarh","state":"Assam","latitude":27.4728,"longitude":94.912,"temp":22.8,"humidity":95,"rain":0.4,"pressure":995.2,"uv_index":7.5,"wind_gusts":25.6,"aqi":81,"pm10":27.5,"pm2_5":18.9,"no2":2.3,"co":288.0,"o3":111.0,"so2":1.6,"mosquito_risk":6,"arthritis_risk":5,"migraine_risk":7,"frizz_risk":1,"updated_at":"2026-05-18T09:27:38.188328+05:30"}]