[{"city":"Delhi","state":"Delhi","latitude":28.6139,"longitude":77.209,"temp":30.1,"humidity":36,"rain":0.0,"pressure":984.8,"uv_index":6.15,"wind_gusts":25.6,"aqi":182,"pm10":410.7,"pm2_5":67.5,"mosquito_risk":0,"arthritis_risk":5,"migraine_risk":7,"frizz_risk":0,"updated_at":"2026-03-11T18:38:02.374600+05:30"},{"city":"Mumbai","state":"Maharashtra","latitude":19.076,"longitude":72.8777,"temp":27.5,"humidity":92,"rain":0.0,"pressure":1009.6,"uv_index":7.6,"wind_gusts":23.4,"aqi":222,"pm10":54.5,"pm2_5":48.0,"mosquito_risk":7,"arthritis_risk":0,"migraine_risk":4,"frizz_risk":1,"updated_at":"2026-03-11T18:38:02.374647+05:30"},{"city":"Bangalore","state":"Karnataka","latitude":12.9716,"longitude":77.5946,"temp":28.9,"humidity":32,"rain":0.0,"pressure":912.9,"uv_index":9.25,"wind_gusts":27.7,"aqi":63,"pm10":13.0,"pm2_5":12.3,"mosquito_risk":4,"arthritis_risk":5,"migraine_risk":7,"frizz_risk":0,"updated_at":"2026-03-11T18:38:02.374664+05:30"},{"city":"Hyderabad","state":"Telangana","latitude":17.385,"longitude":78.4867,"temp":31.1,"humidity":27,"rain":0.0,"pressure":955.2,"uv_index":8.6,"wind_gusts":24.8,"aqi":103,"pm10":36.3,"pm2_5":29.0,"mosquito_risk":0,"arthritis_risk":5,"migraine_risk":7,"frizz_risk":0,"updated_at":"2026-03-11T18:38:02.374675+05:30"},{"city":"Chennai","state":"Tamil Nadu","latitude":13.0827,"longitude":80.2707,"temp":27.8,"humidity":70,"rain":0.0,"pressure":1009.4,"uv_index":9.0,"wind_gusts":31.7,"aqi":67,"pm10":20.8,"pm2_5":17.1,"mosquito_risk":7,"arthritis_risk":0,"migraine_risk":4,"frizz_risk":1,"updated_at":"2026-03-11T18:38:02.374685+05:30"},{"city":"Kolkata","state":"West Bengal","latitude":22.5726,"longitude":88.3639,"temp":26.8,"humidity":77,"rain":0.0,"pressure":1008.0,"uv_index":7.5,"wind_gusts":22.0,"aqi":147,"pm10":43.1,"pm2_5":39.3,"mosquito_risk":7,"arthritis_risk":0,"migraine_risk":4,"frizz_risk":1,"updated_at":"2026-03-11T18:38:02.374694+05:30"},{"city":"Pune","state":"Maharashtra","latitude":18.5204,"longitude":73.8567,"temp":34.3,"humidity":24,"rain":0.0,"pressure":949.7,"uv_index":8.15,"wind_gusts":31.3,"aqi":145,"pm10":28.5,"pm2_5":24.8,"mosquito_risk":0,"arthritis_risk":5,"migraine_risk":7,"frizz_risk":0,"updated_at":"2026-03-11T18:38:02.374706+05:30"},{"city":"Ahmedabad","state":"Gujarat","latitude":23.0225,"longitude":72.5714,"temp":36.7,"humidity":15,"rain":0.0,"pressure":1003.3,"uv_index":7.4,"wind_gusts":25.9,"aqi":159,"pm10":21.2,"pm2_5":19.2,"mosquito_risk":0,"arthritis_risk":5,"migraine_risk":7,"frizz_risk":0,"updated_at":"2026-03-11T18:38:02.374715+05:30"},{"city":"Jaipur","state":"Rajasthan","latitude":26.9124,"longitude":75.7873,"temp":32.5,"humidity":15,"rain":0.0,"pressure":962.0,"uv_index":6.85,"wind_gusts":33.1,"aqi":137,"pm10":116.9,"pm2_5":27.8,"mosquito_risk":0,"arthritis_risk":5,"migraine_risk":7,"frizz_risk":0,"updated_at":"2026-03-11T18:38:02.374723+05:30"},{"city":"Lucknow","state":"Uttar Pradesh","latitude":26.8467,"longitude":80.9462,"temp":30.0,"humidity":49,"rain":0.0,"pressure":995.1,"uv_index":6.6,"wind_gusts":28.8,"aqi":183,"pm10":180.2,"pm2_5":53.9,"mosquito_risk":4,"arthritis_risk":5,"migraine_risk":7,"frizz_risk":1,"updated_at":"2026-03-11T18:38:02.374732+05:30"},{"city":"Kanpur","state":"Uttar Pradesh","latitude":26.4499,"longitude":80.3319,"temp":30.6,"humidity":50,"rain":0.0,"pressure":993.4,"uv_index":6.6,"wind_gusts":23.8,"aqi":174,"pm10":339.0,"pm2_5":62.9,"mosquito_risk":0,"arthritis_risk":5,"migraine_risk":7,"frizz_risk":1,"updated_at":"2026-03-11T18:38:02.374739+05:30"},{"city":"Chandigarh","state":"Chandigarh","latitude":30.7333,"longitude":76.7794,"temp":26.1,"humidity":57,"rain":0.0,"pressure":971.0,"uv_index":5.35,"wind_gusts":24.5,"aqi":142,"pm10":57.5,"pm2_5":39.2,"mosquito_risk":4,"arthritis_risk":5,"migraine_risk":3,"frizz_risk":1,"updated_at":"2026-03-11T18:38:02.374746+05:30"},{"city":"Srinagar","state":"Jammu and Kashmir","latitude":34.0837,"longitude":74.7973,"temp":10.3,"humidity":94,"rain":0.0,"pressure":845.3,"uv_index":4.55,"wind_gusts":28.1,"aqi":115,"pm10":40.7,"pm2_5":34.3,"mosquito_risk":3,"arthritis_risk":10,"migraine_risk":3,"frizz_risk":0,"updated_at":"2026-03-11T18:38:02.374754+05:30"},{"city":"Jammu","state":"Jammu and Kashmir","latitude":32.7266,"longitude":74.857,"temp":26.0,"humidity":38,"rain":0.0,"pressure":975.4,"uv_index":5.4,"wind_gusts":27.0,"aqi":97,"pm10":49.4,"pm2_5":24.7,"mosquito_risk":4,"arthritis_risk":5,"migraine_risk":3,"frizz_risk":0,"updated_at":"2026-03-11T18:38:02.374761+05:30"},{"city":"Amritsar","state":"Punjab","latitude":31.634,"longitude":74.8723,"temp":25.2,"humidity":77,"rain":0.0,"pressure":983.4,"uv_index":6.45,"wind_gusts":23.8,"aqi":157,"pm10":67.3,"pm2_5":46.4,"mosquito_risk":7,"arthritis_risk":5,"migraine_risk":7,"frizz_risk":1,"updated_at":"2026-03-11T18:38:02.374768+05:30"},{"city":"Ludhiana","state":"Punjab","latitude":30.901,"longitude":75.8573,"temp":28.7,"humidity":53,"rain":0.0,"pressure":981.1,"uv_index":6.25,"wind_gusts":14.8,"aqi":175,"pm10":99.7,"pm2_5":64.0,"mosquito_risk":4,"arthritis_risk":5,"migraine_risk":7,"frizz_risk":1,"updated_at":"2026-03-11T18:38:02.374775+05:30"},{"city":"Jalandhar","state":"Punjab","latitude":31.326,"longitude":75.5762,"temp":27.7,"humidity":58,"rain":0.0,"pressure":982.2,"uv_index":6.5,"wind_gusts":17.6,"aqi":168,"pm10":83.4,"pm2_5":51.0,"mosquito_risk":4,"arthritis_risk":5,"migraine_risk":7,"frizz_risk":1,"updated_at":"2026-03-11T18:38:02.374784+05:30"},{"city":"Dehradun","state":"Uttarakhand","latitude":30.6284,"longitude":78.0322,"temp":19.2,"humidity":64,"rain":0.0,"pressure":832.9,"uv_index":6.0,"wind_gusts":28.8,"aqi":106,"pm10":25.7,"pm2_5":17.1,"mosquito_risk":3,"arthritis_risk":5,"migraine_risk":3,"frizz_risk":0,"updated_at":"2026-03-11T18:38:02.374791+05:30"},{"city":"Shimla","state":"Himachal Pradesh","latitude":31.1048,"longitude":77.1734,"temp":16.5,"humidity":62,"rain":0.0,"pressure":787.8,"uv_index":5.95,"wind_gusts":46.8,"aqi":112,"pm10":29.8,"pm2_5":21.2,"mosquito_risk":3,"arthritis_risk":5,"migraine_risk":3,"frizz_risk":0,"updated_at":"2026-03-11T18:38:02.374798+05:30"},{"city":"Manali","state":"Himachal Pradesh","latitude":32.2396,"longitude":77.1887,"temp":16.8,"humidity":38,"rain":0.0,"pressure":824.0,"uv_index":6.55,"wind_gusts":42.5,"aqi":82,"pm10":18.9,"pm2_5":7.9,"mosquito_risk":0,"arthritis_risk":5,"migraine_risk":7,"frizz_risk":0,"updated_at":"2026-03-11T18:38:02.374805+05:30"},{"city":"Gurgaon","state":"Haryana","latitude":28.4595,"longitude":77.0266,"temp":28.4,"humidity":41,"rain":0.0,"pressure":983.2,"uv_index":6.25,"wind_gusts":24.5,"aqi":586,"pm10":1099.0,"pm2_5":137.8,"mosquito_risk":4,"arthritis_risk":5,"migraine_risk":7,"frizz_risk":0,"updated_at":"2026-03-11T18:38:02.374812+05:30"},{"city":"Noida","state":"Uttar Pradesh","latitude":28.5355,"longitude":77.391,"temp":30.2,"humidity":36,"rain":0.0,"pressure":986.3,"uv_index":6.15,"wind_gusts":25.9,"aqi":586,"pm10":1099.0,"pm2_5":137.8,"mosquito_risk":0,"arthritis_risk":5,"migraine_risk":7,"frizz_risk":0,"updated_at":"2026-03-11T18:38:02.374818+05:30"},{"city":"Ghaziabad","state":"Uttar Pradesh","latitude":28.6692,"longitude":77.4538,"temp":28.8,"humidity":44,"rain":0.0,"pressure":984.4,"uv_index":6.1,"wind_gusts":24.5,"aqi":167,"pm10":333.4,"pm2_5":59.5,"mosquito_risk":4,"arthritis_risk":5,"migraine_risk":7,"frizz_risk":0,"updated_at":"2026-03-11T18:38:02.374825+05:30"},{"city":"Faridabad","state":"Haryana","latitude":28.4089,"longitude":77.3178,"temp":29.1,"humidity":37,"rain":0.0,"pressure":985.5,"uv_index":6.15,"wind_gusts":23.0,"aqi":586,"pm10":1099.0,"pm2_5":137.8,"mosquito_risk":4,"arthritis_risk":5,"migraine_risk":7,"frizz_risk":0,"updated_at":"2026-03-11T18:38:02.374832+05:30"},{"city":"Meerut","state":"Uttar Pradesh","latitude":28.9845,"longitude":77.7064,"temp":27.3,"humidity":51,"rain":0.0,"pressure":983.2,"uv_index":5.75,"wind_gusts":29.2,"aqi":167,"pm10":333.4,"pm2_5":59.5,"mosquito_risk":4,"arthritis_risk":5,"migraine_risk":3,"frizz_risk":1,"updated_at":"2026-03-11T18:38:02.374837+05:30"},{"city":"Agra","state":"Uttar Pradesh","latitude":27.1767,"longitude":78.0081,"temp":31.1,"humidity":38,"rain":0.0,"pressure":989.1,"uv_index":6.5,"wind_gusts":18.4,"aqi":311,"pm10":508.5,"pm2_5":75.4,"mosquito_risk":0,"arthritis_risk":5,"migraine_risk":7,"frizz_risk":0,"updated_at":"2026-03-11T18:38:02.374844+05:30"},{"city":"Varanasi","state":"Uttar Pradesh","latitude":25.3176,"longitude":82.9739,"temp":27.3,"humidity":67,"rain":0.0,"pressure":999.4,"uv_index":7.3,"wind_gusts":23.0,"aqi":188,"pm10":93.1,"pm2_5":74.3,"mosquito_risk":7,"arthritis_risk":5,"migraine_risk":7,"frizz_risk":1,"updated_at":"2026-03-11T18:38:02.374853+05:30"},{"city":"Prayagraj","state":"Uttar Pradesh","latitude":25.4358,"longitude":81.8463,"temp":28.4,"humidity":54,"rain":0.0,"pressure":997.9,"uv_index":7.15,"wind_gusts":23.8,"aqi":186,"pm10":81.7,"pm2_5":53.0,"mosquito_risk":4,"arthritis_risk":5,"migraine_risk":7,"frizz_risk":1,"updated_at":"2026-03-11T18:38:02.374860+05:30"},{"city":"Gorakhpur","state":"Uttar Pradesh","latitude":26.7606,"longitude":83.3732,"temp":28.0,"humidity":71,"rain":0.0,"pressure":998.7,"uv_index":7.0,"wind_gusts":22.0,"aqi":217,"pm10":159.3,"pm2_5":128.5,"mosquito_risk":7,"arthritis_risk":5,"migraine_risk":7,"frizz_risk":1,"updated_at":"2026-03-11T18:38:02.374866+05:30"},{"city":"Bareilly","state":"Uttar Pradesh","latitude":28.367,"longitude":79.4304,"temp":26.8,"humidity":55,"rain":0.0,"pressure":988.0,"uv_index":6.35,"wind_gusts":30.6,"aqi":199,"pm10":122.9,"pm2_5":53.6,"mosquito_risk":4,"arthritis_risk":5,"migraine_risk":7,"frizz_risk":1,"updated_at":"2026-03-11T18:38:02.374876+05:30"},{"city":"Aligarh","state":"Uttar Pradesh","latitude":27.8974,"longitude":78.088,"temp":29.0,"humidity":37,"rain":0.0,"pressure":987.0,"uv_index":6.25,"wind_gusts":25.6,"aqi":268,"pm10":942.5,"pm2_5":126.7,"mosquito_risk":4,"arthritis_risk":5,"migraine_risk":7,"frizz_risk":0,"updated_at":"2026-03-11T18:38:02.374883+05:30"},{"city":"Moradabad","state":"Uttar Pradesh","latitude":28.8386,"longitude":78.7733,"temp":26.9,"humidity":49,"rain":0.0,"pressure":985.0,"uv_index":6.15,"wind_gusts":34.6,"aqi":192,"pm10":80.1,"pm2_5":37.7,"mosquito_risk":4,"arthritis_risk":5,"migraine_risk":7,"frizz_risk":0,"updated_at":"2026-03-11T18:38:02.374889+05:30"},{"city":"Saharanpur","state":"Uttar Pradesh","latitude":29.9637,"longitude":77.546,"temp":26.4,"humidity":53,"rain":0.0,"pressure":977.4,"uv_index":5.45,"wind_gusts":36.0,"aqi":166,"pm10":111.3,"pm2_5":39.5,"mosquito_risk":4,"arthritis_risk":5,"migraine_risk":3,"frizz_risk":0,"updated_at":"2026-03-11T18:38:02.374895+05:30"},{"city":"Jhansi","state":"Uttar Pradesh","latitude":25.4484,"longitude":78.5685,"temp":31.6,"humidity":26,"rain":0.0,"pressure":979.5,"uv_index":7.1,"wind_gusts":27.7,"aqi":118,"pm10":31.0,"pm2_5":15.5,"mosquito_risk":0,"arthritis_risk":5,"migraine_risk":7,"frizz_risk":0,"updated_at":"2026-03-11T18:38:05.591105+05:30"},{"city":"Surat","state":"Gujarat","latitude":21.1702,"longitude":72.8311,"temp":35.0,"humidity":28,"rain":0.0,"pressure":1006.7,"uv_index":7.3,"wind_gusts":27.4,"aqi":130,"pm10":88.0,"pm2_5":86.6,"mosquito_risk":0,"arthritis_risk":5,"migraine_risk":4,"frizz_risk":0,"updated_at":"2026-03-11T18:38:05.591140+05:30"},{"city":"Vadodara","state":"Gujarat","latitude":22.3072,"longitude":73.1812,"temp":37.9,"humidity":17,"rain":0.0,"pressure":1004.7,"uv_index":7.45,"wind_gusts":20.2,"aqi":143,"pm10":21.7,"pm2_5":19.8,"mosquito_risk":0,"arthritis_risk":5,"migraine_risk":7,"frizz_risk":0,"updated_at":"2026-03-11T18:38:05.591151+05:30"},{"city":"Rajkot","state":"Gujarat","latitude":22.3039,"longitude":70.8022,"temp":35.6,"humidity":13,"rain":0.0,"pressure":996.4,"uv_index":7.25,"wind_gusts":32.4,"aqi":118,"pm10":19.1,"pm2_5":18.0,"mosquito_risk":0,"arthritis_risk":5,"migraine_risk":10,"frizz_risk":0,"updated_at":"2026-03-11T18:38:05.591160+05:30"},{"city":"Thane","state":"Maharashtra","latitude":19.2183,"longitude":72.9781,"temp":28.8,"humidity":76,"rain":0.0,"pressure":1009.0,"uv_index":7.6,"wind_gusts":40.7,"aqi":222,"pm10":54.5,"pm2_5":48.0,"mosquito_risk":7,"arthritis_risk":0,"migraine_risk":4,"frizz_risk":1,"updated_at":"2026-03-11T18:38:05.591167+05:30"},{"city":"Nagpur","state":"Maharashtra","latitude":21.1458,"longitude":79.0882,"temp":32.1,"humidity":31,"rain":0.0,"pressure":974.3,"uv_index":8.0,"wind_gusts":12.6,"aqi":147,"pm10":44.0,"pm2_5":26.8,"mosquito_risk":0,"arthritis_risk":5,"migraine_risk":7,"frizz_risk":0,"updated_at":"2026-03-11T18:38:05.591175+05:30"},{"city":"Nashik","state":"Maharashtra","latitude":19.9975,"longitude":73.7898,"temp":33.2,"humidity":25,"rain":0.0,"pressure":947.3,"uv_index":7.75,"wind_gusts":25.6,"aqi":160,"pm10":30.3,"pm2_5":27.6,"mosquito_risk":0,"arthritis_risk":5,"migraine_risk":7,"frizz_risk":0,"updated_at":"2026-03-11T18:38:05.591183+05:30"},{"city":"Aurangabad","state":"Maharashtra","latitude":19.8762,"longitude":75.3433,"temp":33.6,"humidity":27,"rain":0.0,"pressure":945.7,"uv_index":8.3,"wind_gusts":18.4,"aqi":154,"pm10":31.3,"pm2_5":26.7,"mosquito_risk":0,"arthritis_risk":5,"migraine_risk":7,"frizz_risk":0,"updated_at":"2026-03-11T18:38:05.591189+05:30"},{"city":"Solapur","state":"Maharashtra","latitude":17.6599,"longitude":75.9064,"temp":32.3,"humidity":44,"rain":0.0,"pressure":958.5,"uv_index":8.5,"wind_gusts":20.5,"aqi":140,"pm10":34.8,"pm2_5":28.6,"mosquito_risk":0,"arthritis_risk":5,"migraine_risk":7,"frizz_risk":1,"updated_at":"2026-03-11T18:38:05.591197+05:30"},{"city":"Kolhapur","state":"Maharashtra","latitude":16.705,"longitude":74.2433,"temp":31.5,"humidity":29,"rain":0.0,"pressure":949.2,"uv_index":8.65,"wind_gusts":32.4,"aqi":149,"pm10":52.3,"pm2_5":46.7,"mosquito_risk":0,"arthritis_risk":5,"migraine_risk":7,"frizz_risk":0,"updated_at":"2026-03-11T18:38:05.591204+05:30"},{"city":"Goa","state":"Goa","latitude":15.2993,"longitude":74.124,"temp":28.7,"humidity":76,"rain":0.0,"pressure":999.1,"uv_index":8.65,"wind_gusts":39.6,"aqi":151,"pm10":51.1,"pm2_5":44.5,"mosquito_risk":7,"arthritis_risk":5,"migraine_risk":7,"frizz_risk":1,"updated_at":"2026-03-11T18:38:05.591211+05:30"},{"city":"Jodhpur","state":"Rajasthan","latitude":26.2389,"longitude":73.0243,"temp":32.8,"humidity":18,"rain":0.0,"pressure":985.1,"uv_index":7.15,"wind_gusts":31.7,"aqi":126,"pm10":97.1,"pm2_5":20.3,"mosquito_risk":0,"arthritis_risk":5,"migraine_risk":7,"frizz_risk":0,"updated_at":"2026-03-11T18:38:05.591219+05:30"},{"city":"Udaipur","state":"Rajasthan","latitude":24.5854,"longitude":73.7125,"temp":31.9,"humidity":20,"rain":0.0,"pressure":949.3,"uv_index":7.8,"wind_gusts":26.3,"aqi":124,"pm10":10.5,"pm2_5":9.3,"mosquito_risk":0,"arthritis_risk":5,"migraine_risk":7,"frizz_risk":0,"updated_at":"2026-03-11T18:38:05.591226+05:30"},{"city":"Kota","state":"Rajasthan","latitude":25.2138,"longitude":75.8648,"temp":33.0,"humidity":23,"rain":0.0,"pressure":980.4,"uv_index":7.2,"wind_gusts":18.7,"aqi":125,"pm10":44.1,"pm2_5":20.2,"mosquito_risk":0,"arthritis_risk":5,"migraine_risk":7,"frizz_risk":0,"updated_at":"2026-03-11T18:38:05.591234+05:30"},{"city":"Bikaner","state":"Rajasthan","latitude":28.0229,"longitude":73.3119,"temp":33.2,"humidity":17,"rain":0.0,"pressure":983.7,"uv_index":6.15,"wind_gusts":27.7,"aqi":111,"pm10":28.9,"pm2_5":11.0,"mosquito_risk":0,"arthritis_risk":5,"migraine_risk":7,"frizz_risk":0,"updated_at":"2026-03-11T18:38:05.591241+05:30"},{"city":"Ajmer","state":"Rajasthan","latitude":26.4499,"longitude":74.6399,"temp":30.4,"humidity":23,"rain":0.0,"pressure":957.0,"uv_index":7.2,"wind_gusts":27.7,"aqi":129,"pm10":23.8,"pm2_5":14.4,"mosquito_risk":0,"arthritis_risk":5,"migraine_risk":7,"frizz_risk":0,"updated_at":"2026-03-11T18:38:05.591248+05:30"},{"city":"Gwalior","state":"Madhya Pradesh","latitude":26.2183,"longitude":78.1828,"temp":31.0,"humidity":35,"rain":0.0,"pressure":984.8,"uv_index":6.8,"wind_gusts":29.9,"aqi":113,"pm10":71.2,"pm2_5":22.5,"mosquito_risk":0,"arthritis_risk":5,"migraine_risk":7,"frizz_risk":0,"updated_at":"2026-03-11T18:38:05.591255+05:30"},{"city":"Indore","state":"Madhya Pradesh","latitude":22.7196,"longitude":75.8577,"temp":29.2,"humidity":28,"rain":0.0,"pressure":950.1,"uv_index":7.7,"wind_gusts":20.9,"aqi":120,"pm10":20.8,"pm2_5":15.3,"mosquito_risk":4,"arthritis_risk":5,"migraine_risk":7,"frizz_risk":0,"updated_at":"2026-03-11T18:38:05.591261+05:30"},{"city":"Bhopal","state":"Madhya Pradesh","latitude":23.2599,"longitude":77.4126,"temp":28.7,"humidity":27,"rain":0.0,"pressure":955.8,"uv_index":7.55,"wind_gusts":24.8,"aqi":119,"pm10":26.6,"pm2_5":15.0,"mosquito_risk":4,"arthritis_risk":5,"migraine_risk":7,"frizz_risk":0,"updated_at":"2026-03-11T18:38:05.591268+05:30"},{"city":"Jabalpur","state":"Madhya Pradesh","latitude":23.1815,"longitude":79.9864,"temp":31.7,"humidity":30,"rain":0.0,"pressure":963.4,"uv_index":7.7,"wind_gusts":24.5,"aqi":110,"pm10":71.5,"pm2_5":26.1,"mosquito_risk":0,"arthritis_risk":5,"migraine_risk":7,"frizz_risk":0,"updated_at":"2026-03-11T18:38:05.591275+05:30"},{"city":"Ujjain","state":"Madhya Pradesh","latitude":23.1765,"longitude":75.7885,"temp":29.9,"humidity":37,"rain":0.0,"pressure":955.7,"uv_index":7.65,"wind_gusts":14.8,"aqi":106,"pm10":26.7,"pm2_5":20.3,"mosquito_risk":4,"arthritis_risk":5,"migraine_risk":7,"frizz_risk":0,"updated_at":"2026-03-11T18:38:05.591282+05:30"},{"city":"Visakhapatnam","state":"Andhra Pradesh","latitude":17.6868,"longitude":83.2185,"temp":27.3,"humidity":67,"rain":0.0,"pressure":1005.1,"uv_index":8.6,"wind_gusts":39.2,"aqi":96,"pm10":27.4,"pm2_5":24.1,"mosquito_risk":7,"arthritis_risk":5,"migraine_risk":4,"frizz_risk":1,"updated_at":"2026-03-11T18:38:05.591289+05:30"},{"city":"Vijayawada","state":"Andhra Pradesh","latitude":16.5062,"longitude":80.648,"temp":31.7,"humidity":44,"rain":0.0,"pressure":1004.0,"uv_index":8.7,"wind_gusts":19.1,"aqi":90,"pm10":32.1,"pm2_5":30.2,"mosquito_risk":0,"arthritis_risk":5,"migraine_risk":4,"frizz_risk":1,"updated_at":"2026-03-11T18:38:05.591295+05:30"},{"city":"Guntur","state":"Andhra Pradesh","latitude":16.3067,"longitude":80.4365,"temp":30.7,"humidity":45,"rain":0.0,"pressure":1005.4,"uv_index":8.7,"wind_gusts":20.2,"aqi":75,"pm10":30.9,"pm2_5":27.3,"mosquito_risk":0,"arthritis_risk":5,"migraine_risk":4,"frizz_risk":1,"updated_at":"2026-03-11T18:38:05.591302+05:30"},{"city":"Nellore","state":"Andhra Pradesh","latitude":14.4426,"longitude":79.9865,"temp":28.1,"humidity":61,"rain":0.0,"pressure":1008.1,"uv_index":8.85,"wind_gusts":28.4,"aqi":66,"pm10":16.2,"pm2_5":13.9,"mosquito_risk":7,"arthritis_risk":0,"migraine_risk":4,"frizz_risk":1,"updated_at":"2026-03-11T18:38:05.591310+05:30"},{"city":"Kurnool","state":"Andhra Pradesh","latitude":15.8281,"longitude":78.0373,"temp":33.3,"humidity":26,"rain":0.0,"pressure":978.1,"uv_index":8.7,"wind_gusts":25.2,"aqi":59,"pm10":29.1,"pm2_5":22.8,"mosquito_risk":0,"arthritis_risk":5,"migraine_risk":7,"frizz_risk":0,"updated_at":"2026-03-11T18:38:05.591317+05:30"},{"city":"Kakinada","state":"Andhra Pradesh","latitude":16.9891,"longitude":82.2475,"temp":29.2,"humidity":51,"rain":0.0,"pressure":1008.9,"uv_index":8.65,"wind_gusts":26.3,"aqi":86,"pm10":17.9,"pm2_5":15.5,"mosquito_risk":4,"arthritis_risk":0,"migraine_risk":4,"frizz_risk":1,"updated_at":"2026-03-11T18:38:05.591324+05:30"},{"city":"Tirupati","state":"Andhra Pradesh","latitude":13.6288,"longitude":79.4192,"temp":29.6,"humidity":49,"rain":0.0,"pressure":993.3,"uv_index":9.0,"wind_gusts":32.4,"aqi":79,"pm10":14.3,"pm2_5":13.2,"mosquito_risk":4,"arthritis_risk":5,"migraine_risk":7,"frizz_risk":1,"updated_at":"2026-03-11T18:38:05.591331+05:30"},{"city":"Warangal","state":"Telangana","latitude":17.9689,"longitude":79.5941,"temp":31.3,"humidity":43,"rain":0.0,"pressure":980.4,"uv_index":8.45,"wind_gusts":23.4,"aqi":83,"pm10":44.4,"pm2_5":37.1,"mosquito_risk":0,"arthritis_risk":5,"migraine_risk":7,"frizz_risk":1,"updated_at":"2026-03-11T18:38:05.591337+05:30"},{"city":"Nizamabad","state":"Telangana","latitude":18.6725,"longitude":78.0941,"temp":31.7,"humidity":33,"rain":0.0,"pressure":966.6,"uv_index":8.35,"wind_gusts":26.6,"aqi":136,"pm10":44.7,"pm2_5":37.8,"mosquito_risk":0,"arthritis_risk":5,"migraine_risk":7,"frizz_risk":0,"updated_at":"2026-03-11T18:38:05.591344+05:30"},{"city":"Mysore","state":"Karnataka","latitude":12.2958,"longitude":76.6396,"temp":29.0,"humidity":35,"rain":0.0,"pressure":929.2,"uv_index":9.25,"wind_gusts":28.8,"aqi":67,"pm10":15.2,"pm2_5":14.0,"mosquito_risk":4,"arthritis_risk":5,"migraine_risk":7,"frizz_risk":0,"updated_at":"2026-03-11T18:38:05.591350+05:30"},{"city":"Mangalore","state":"Karnataka","latitude":12.9141,"longitude":74.856,"temp":29.0,"humidity":79,"rain":0.0,"pressure":1007.1,"uv_index":8.9,"wind_gusts":29.5,"aqi":119,"pm10":40.0,"pm2_5":34.5,"mosquito_risk":7,"arthritis_risk":5,"migraine_risk":4,"frizz_risk":1,"updated_at":"2026-03-11T18:38:05.591357+05:30"},{"city":"Hubli-Dharwad","state":"Karnataka","latitude":15.3647,"longitude":75.124,"temp":31.8,"humidity":25,"rain":0.0,"pressure":941.9,"uv_index":8.85,"wind_gusts":37.1,"aqi":112,"pm10":17.2,"pm2_5":15.4,"mosquito_risk":0,"arthritis_risk":5,"migraine_risk":7,"frizz_risk":0,"updated_at":"2026-03-11T18:38:05.591364+05:30"},{"city":"Belgaum","state":"Karnataka","latitude":15.8497,"longitude":74.4977,"temp":31.5,"humidity":27,"rain":0.0,"pressure":927.1,"uv_index":8.9,"wind_gusts":41.0,"aqi":146,"pm10":36.7,"pm2_5":30.7,"mosquito_risk":0,"arthritis_risk":5,"migraine_risk":7,"frizz_risk":0,"updated_at":"2026-03-11T18:38:08.805364+05:30"},{"city":"Coimbatore","state":"Tamil Nadu","latitude":11.0168,"longitude":76.9558,"temp":30.4,"humidity":35,"rain":0.0,"pressure":962.0,"uv_index":9.25,"wind_gusts":35.6,"aqi":79,"pm10":21.0,"pm2_5":18.8,"mosquito_risk":0,"arthritis_risk":5,"migraine_risk":7,"frizz_risk":0,"updated_at":"2026-03-11T18:38:08.805398+05:30"},{"city":"Madurai","state":"Tamil Nadu","latitude":9.9252,"longitude":78.1198,"temp":30.2,"humidity":55,"rain":0.0,"pressure":993.3,"uv_index":8.4,"wind_gusts":32.8,"aqi":63,"pm10":16.6,"pm2_5":15.3,"mosquito_risk":0,"arthritis_risk":5,"migraine_risk":7,"frizz_risk":1,"updated_at":"2026-03-11T18:38:08.805408+05:30"},{"city":"Trichy","state":"Tamil Nadu","latitude":10.7905,"longitude":78.7047,"temp":29.8,"humidity":60,"rain":0.0,"pressure":1000.6,"uv_index":9.15,"wind_gusts":29.9,"aqi":66,"pm10":17.9,"pm2_5":16.5,"mosquito_risk":4,"arthritis_risk":5,"migraine_risk":4,"frizz_risk":1,"updated_at":"2026-03-11T18:38:08.805417+05:30"},{"city":"Salem","state":"Tamil Nadu","latitude":11.6643,"longitude":78.146,"temp":31.0,"humidity":45,"rain":0.0,"pressure":977.7,"uv_index":9.15,"wind_gusts":20.2,"aqi":70,"pm10":14.4,"pm2_5":13.1,"mosquito_risk":0,"arthritis_risk":5,"migraine_risk":7,"frizz_risk":1,"updated_at":"2026-03-11T18:38:08.805425+05:30"},{"city":"Tirunelveli","state":"Tamil Nadu","latitude":8.7139,"longitude":77.7567,"temp":30.9,"humidity":55,"rain":0.0,"pressure":1003.5,"uv_index":6.2,"wind_gusts":25.9,"aqi":53,"pm10":15.7,"pm2_5":13.8,"mosquito_risk":0,"arthritis_risk":5,"migraine_risk":4,"frizz_risk":1,"updated_at":"2026-03-11T18:38:08.805433+05:30"},{"city":"Vellore","state":"Tamil Nadu","latitude":12.9165,"longitude":79.1325,"temp":29.4,"humidity":47,"rain":0.0,"pressure":986.0,"uv_index":9.1,"wind_gusts":34.6,"aqi":88,"pm10":22.4,"pm2_5":21.3,"mosquito_risk":4,"arthritis_risk":5,"migraine_risk":7,"frizz_risk":1,"updated_at":"2026-03-11T18:38:08.805441+05:30"},{"city":"Erode","state":"Tamil Nadu","latitude":11.341,"longitude":77.7172,"temp":32.4,"humidity":41,"rain":0.0,"pressure":989.2,"uv_index":9.15,"wind_gusts":18.7,"aqi":74,"pm10":20.6,"pm2_5":19.0,"mosquito_risk":0,"arthritis_risk":5,"migraine_risk":7,"frizz_risk":1,"updated_at":"2026-03-11T18:38:08.805449+05:30"},{"city":"Kochi","state":"Kerala","latitude":9.9312,"longitude":76.2673,"temp":28.4,"humidity":83,"rain":0.0,"pressure":1008.1,"uv_index":8.25,"wind_gusts":38.9,"aqi":133,"pm10":36.6,"pm2_5":32.1,"mosquito_risk":7,"arthritis_risk":0,"migraine_risk":4,"frizz_risk":1,"updated_at":"2026-03-11T18:38:08.805457+05:30"},{"city":"Thiruvananthapuram","state":"Kerala","latitude":8.5241,"longitude":76.9366,"temp":28.6,"humidity":74,"rain":0.0,"pressure":1008.2,"uv_index":7.3,"wind_gusts":25.6,"aqi":76,"pm10":19.3,"pm2_5":16.1,"mosquito_risk":7,"arthritis_risk":0,"migraine_risk":4,"frizz_risk":1,"updated_at":"2026-03-11T18:38:08.805464+05:30"},{"city":"Kozhikode","state":"Kerala","latitude":11.2588,"longitude":75.7804,"temp":28.7,"humidity":80,"rain":0.0,"pressure":1008.0,"uv_index":8.95,"wind_gusts":31.3,"aqi":119,"pm10":37.6,"pm2_5":31.3,"mosquito_risk":7,"arthritis_risk":0,"migraine_risk":4,"frizz_risk":1,"updated_at":"2026-03-11T18:38:08.805471+05:30"},{"city":"Thrissur","state":"Kerala","latitude":10.5276,"longitude":76.2144,"temp":29.0,"humidity":70,"rain":0.0,"pressure":1006.7,"uv_index":9.05,"wind_gusts":39.2,"aqi":92,"pm10":27.0,"pm2_5":24.9,"mosquito_risk":7,"arthritis_risk":5,"migraine_risk":4,"frizz_risk":1,"updated_at":"2026-03-11T18:38:08.805479+05:30"},{"city":"Kannur","state":"Kerala","latitude":11.8745,"longitude":75.3704,"temp":28.5,"humidity":80,"rain":0.0,"pressure":1007.7,"uv_index":8.95,"wind_gusts":38.9,"aqi":132,"pm10":39.6,"pm2_5":33.8,"mosquito_risk":7,"arthritis_risk":5,"migraine_risk":4,"frizz_risk":1,"updated_at":"2026-03-11T18:38:08.805486+05:30"},{"city":"Patna","state":"Bihar","latitude":25.5941,"longitude":85.1376,"temp":28.5,"humidity":67,"rain":0.0,"pressure":1002.2,"uv_index":6.85,"wind_gusts":24.8,"aqi":199,"pm10":157.9,"pm2_5":144.4,"mosquito_risk":7,"arthritis_risk":5,"migraine_risk":4,"frizz_risk":1,"updated_at":"2026-03-11T18:38:08.805494+05:30"},{"city":"Gaya","state":"Bihar","latitude":24.7914,"longitude":85.0002,"temp":27.4,"humidity":73,"rain":0.0,"pressure":995.5,"uv_index":7.5,"wind_gusts":21.6,"aqi":174,"pm10":134.6,"pm2_5":121.5,"mosquito_risk":7,"arthritis_risk":5,"migraine_risk":7,"frizz_risk":1,"updated_at":"2026-03-11T18:38:08.805501+05:30"},{"city":"Muzaffarpur","state":"Bihar","latitude":26.1209,"longitude":85.3647,"temp":27.3,"humidity":71,"rain":0.0,"pressure":1002.1,"uv_index":7.35,"wind_gusts":22.0,"aqi":217,"pm10":157.4,"pm2_5":144.4,"mosquito_risk":7,"arthritis_risk":5,"migraine_risk":4,"frizz_risk":1,"updated_at":"2026-03-11T18:38:08.805507+05:30"},{"city":"Bhagalpur","state":"Bihar","latitude":25.2425,"longitude":87.0117,"temp":27.1,"humidity":76,"rain":0.0,"pressure":1003.0,"uv_index":7.15,"wind_gusts":18.4,"aqi":175,"pm10":113.4,"pm2_5":105.9,"mosquito_risk":7,"arthritis_risk":5,"migraine_risk":4,"frizz_risk":1,"updated_at":"2026-03-11T18:38:08.805514+05:30"},{"city":"Ranchi","state":"Jharkhand","latitude":23.3441,"longitude":85.3096,"temp":26.6,"humidity":46,"rain":0.0,"pressure":939.4,"uv_index":8.15,"wind_gusts":28.1,"aqi":171,"pm10":83.1,"pm2_5":72.6,"mosquito_risk":4,"arthritis_risk":5,"migraine_risk":7,"frizz_risk":0,"updated_at":"2026-03-11T18:38:08.805521+05:30"},{"city":"Jamshedpur","state":"Jharkhand","latitude":22.8046,"longitude":86.2029,"temp":28.2,"humidity":70,"rain":0.0,"pressure":992.3,"uv_index":8.05,"wind_gusts":24.1,"aqi":162,"pm10":99.0,"pm2_5":86.8,"mosquito_risk":7,"arthritis_risk":5,"migraine_risk":7,"frizz_risk":1,"updated_at":"2026-03-11T18:38:08.805527+05:30"},{"city":"Dhanbad","state":"Jharkhand","latitude":23.7957,"longitude":86.4304,"temp":26.3,"humidity":71,"rain":0.0,"pressure":981.8,"uv_index":7.6,"wind_gusts":23.8,"aqi":194,"pm10":170.9,"pm2_5":154.1,"mosquito_risk":7,"arthritis_risk":5,"migraine_risk":7,"frizz_risk":1,"updated_at":"2026-03-11T18:38:08.805534+05:30"},{"city":"Bokaro","state":"Jharkhand","latitude":23.6693,"longitude":86.1511,"temp":26.7,"humidity":70,"rain":0.0,"pressure":985.8,"uv_index":7.7,"wind_gusts":37.8,"aqi":193,"pm10":151.8,"pm2_5":136.0,"mosquito_risk":7,"arthritis_risk":5,"migraine_risk":7,"frizz_risk":1,"updated_at":"2026-03-11T18:38:08.805541+05:30"},{"city":"Bhubaneswar","state":"Odisha","latitude":20.2961,"longitude":85.8245,"temp":27.6,"humidity":75,"rain":0.0,"pressure":1004.2,"uv_index":8.35,"wind_gusts":28.4,"aqi":112,"pm10":28.3,"pm2_5":25.6,"mosquito_risk":7,"arthritis_risk":5,"migraine_risk":4,"frizz_risk":1,"updated_at":"2026-03-11T18:38:08.805548+05:30"},{"city":"Cuttack","state":"Odisha","latitude":20.4625,"longitude":85.8828,"temp":29.6,"humidity":66,"rain":0.0,"pressure":1005.7,"uv_index":8.4,"wind_gusts":27.4,"aqi":112,"pm10":28.3,"pm2_5":25.6,"mosquito_risk":7,"arthritis_risk":5,"migraine_risk":4,"frizz_risk":1,"updated_at":"2026-03-11T18:38:08.805555+05:30"},{"city":"Rourkela","state":"Odisha","latitude":22.2604,"longitude":84.8536,"temp":31.5,"humidity":43,"rain":0.0,"pressure":984.9,"uv_index":7.95,"wind_gusts":27.4,"aqi":163,"pm10":84.5,"pm2_5":64.3,"mosquito_risk":0,"arthritis_risk":5,"migraine_risk":7,"frizz_risk":1,"updated_at":"2026-03-11T18:38:08.805561+05:30"},{"city":"Raipur","state":"Chhattisgarh","latitude":21.2514,"longitude":81.6296,"temp":33.1,"humidity":30,"rain":0.0,"pressure":975.6,"uv_index":8.05,"wind_gusts":24.1,"aqi":172,"pm10":86.1,"pm2_5":62.4,"mosquito_risk":0,"arthritis_risk":5,"migraine_risk":7,"frizz_risk":0,"updated_at":"2026-03-11T18:38:08.805568+05:30"},{"city":"Bhilai","state":"Chhattisgarh","latitude":21.1938,"longitude":81.3509,"temp":32.7,"humidity":33,"rain":0.0,"pressure":975.8,"uv_index":8.05,"wind_gusts":19.1,"aqi":152,"pm10":86.4,"pm2_5":60.3,"mosquito_risk":0,"arthritis_risk":5,"migraine_risk":7,"frizz_risk":0,"updated_at":"2026-03-11T18:38:08.805574+05:30"},{"city":"Guwahati","state":"Assam","latitude":26.1158,"longitude":91.7086,"temp":28.1,"humidity":68,"rain":0.0,"pressure":1003.1,"uv_index":7.35,"wind_gusts":23.0,"aqi":153,"pm10":74.7,"pm2_5":68.5,"mosquito_risk":7,"arthritis_risk":5,"migraine_risk":4,"frizz_risk":1,"updated_at":"2026-03-11T18:38:08.805581+05:30"},{"city":"Agartala","state":"Tripura","latitude":23.8315,"longitude":91.2868,"temp":25.7,"humidity":78,"rain":0.0,"pressure":1008.2,"uv_index":7.7,"wind_gusts":15.8,"aqi":176,"pm10":96.2,"pm2_5":88.9,"mosquito_risk":7,"arthritis_risk":0,"migraine_risk":4,"frizz_risk":1,"updated_at":"2026-03-11T18:38:08.805587+05:30"},{"city":"Shillong","state":"Meghalaya","latitude":25.5788,"longitude":91.8933,"temp":15.1,"humidity":82,"rain":0.0,"pressure":858.0,"uv_index":6.65,"wind_gusts":19.1,"aqi":125,"pm10":48.9,"pm2_5":45.2,"mosquito_risk":3,"arthritis_risk":10,"migraine_risk":7,"frizz_risk":0,"updated_at":"2026-03-11T18:38:08.805594+05:30"},{"city":"Imphal","state":"Manipur","latitude":24.817,"longitude":93.9368,"temp":19.2,"humidity":74,"rain":0.0,"pressure":924.7,"uv_index":7.95,"wind_gusts":40.3,"aqi":157,"pm10":92.2,"pm2_5":84.8,"mosquito_risk":3,"arthritis_risk":5,"migraine_risk":7,"frizz_risk":0,"updated_at":"2026-03-11T18:38:08.805601+05:30"},{"city":"Aizawl","state":"Mizoram","latitude":23.7271,"longitude":92.7176,"temp":19.7,"humidity":75,"rain":0.0,"pressure":894.3,"uv_index":7.9,"wind_gusts":27.4,"aqi":187,"pm10":134.1,"pm2_5":128.5,"mosquito_risk":3,"arthritis_risk":5,"migraine_risk":7,"frizz_risk":0,"updated_at":"2026-03-11T18:38:08.805608+05:30"},{"city":"Kohima","state":"Nagaland","latitude":25.6701,"longitude":94.1077,"temp":15.6,"humidity":96,"rain":0.0,"pressure":856.2,"uv_index":7.05,"wind_gusts":32.8,"aqi":150,"pm10":74.7,"pm2_5":68.0,"mosquito_risk":3,"arthritis_risk":10,"migraine_risk":7,"frizz_risk":0,"updated_at":"2026-03-11T18:38:08.805615+05:30"},{"city":"Gangtok","state":"Sikkim","latitude":27.3314,"longitude":88.6138,"temp":16.7,"humidity":86,"rain":0.0,"pressure":839.3,"uv_index":6.3,"wind_gusts":19.8,"aqi":124,"pm10":61.7,"pm2_5":55.6,"mosquito_risk":3,"arthritis_risk":10,"migraine_risk":7,"frizz_risk":0,"updated_at":"2026-03-11T18:38:08.805621+05:30"},{"city":"Siliguri","state":"West Bengal","latitude":26.7271,"longitude":88.3953,"temp":22.0,"humidity":83,"rain":0.0,"pressure":996.2,"uv_index":7.35,"wind_gusts":21.2,"aqi":169,"pm10":106.4,"pm2_5":94.8,"mosquito_risk":3,"arthritis_risk":5,"migraine_risk":7,"frizz_risk":1,"updated_at":"2026-03-11T18:38:12.026196+05:30"},{"city":"Durgapur","state":"West Bengal","latitude":23.5204,"longitude":87.3119,"temp":25.3,"humidity":78,"rain":0.0,"pressure":997.5,"uv_index":7.6,"wind_gusts":20.5,"aqi":165,"pm10":89.2,"pm2_5":82.7,"mosquito_risk":7,"arthritis_risk":5,"migraine_risk":7,"frizz_risk":1,"updated_at":"2026-03-11T18:38:12.026234+05:30"},{"city":"Asansol","state":"West Bengal","latitude":23.6739,"longitude":86.9524,"temp":25.6,"humidity":76,"rain":0.0,"pressure":995.8,"uv_index":7.85,"wind_gusts":20.2,"aqi":173,"pm10":124.8,"pm2_5":113.2,"mosquito_risk":7,"arthritis_risk":5,"migraine_risk":7,"frizz_risk":1,"updated_at":"2026-03-11T18:38:12.026245+05:30"},{"city":"Pondicherry","state":"Puducherry","latitude":11.9139,"longitude":79.8145,"temp":27.6,"humidity":75,"rain":0.0,"pressure":1010.3,"uv_index":9.0,"wind_gusts":31.3,"aqi":59,"pm10":20.5,"pm2_5":16.0,"mosquito_risk":7,"arthritis_risk":0,"migraine_risk":4,"frizz_risk":1,"updated_at":"2026-03-11T18:38:12.026254+05:30"},{"city":"Port Blair","state":"Andaman and Nicobar Islands","latitude":11.6234,"longitude":92.7265,"temp":28.0,"humidity":79,"rain":0.0,"pressure":1008.3,"uv_index":8.95,"wind_gusts":20.2,"aqi":58,"pm10":15.2,"pm2_5":12.7,"mosquito_risk":7,"arthritis_risk":0,"migraine_risk":4,"frizz_risk":1,"updated_at":"2026-03-11T18:38:12.026264+05:30"},{"city":"Haridwar","state":"Uttarakhand","latitude":29.9457,"longitude":78.1642,"temp":27.2,"humidity":45,"rain":0.0,"pressure":975.9,"uv_index":5.85,"wind_gusts":38.5,"aqi":154,"pm10":60.3,"pm2_5":31.8,"mosquito_risk":4,"arthritis_risk":5,"migraine_risk":3,"frizz_risk":0,"updated_at":"2026-03-11T18:38:12.026273+05:30"},{"city":"Rishikesh","state":"Uttarakhand","latitude":30.0869,"longitude":78.2676,"temp":25.8,"humidity":51,"rain":0.0,"pressure":968.8,"uv_index":5.95,"wind_gusts":36.4,"aqi":145,"pm10":43.8,"pm2_5":25.6,"mosquito_risk":4,"arthritis_risk":5,"migraine_risk":3,"frizz_risk":0,"updated_at":"2026-03-11T18:38:12.026282+05:30"},{"city":"Nainital","state":"Uttarakhand","latitude":29.3919,"longitude":79.4542,"temp":21.1,"humidity":45,"rain":0.0,"pressure":808.5,"uv_index":6.8,"wind_gusts":64.4,"aqi":166,"pm10":31.7,"pm2_5":25.5,"mosquito_risk":0,"arthritis_risk":5,"migraine_risk":7,"frizz_risk":0,"updated_at":"2026-03-11T18:38:12.026291+05:30"},{"city":"Mussoorie","state":"Uttarakhand","latitude":30.4599,"longitude":78.0664,"temp":19.6,"humidity":59,"rain":0.0,"pressure":805.5,"uv_index":6.0,"wind_gusts":38.9,"aqi":138,"pm10":44.9,"pm2_5":28.6,"mosquito_risk":0,"arthritis_risk":5,"migraine_risk":3,"frizz_risk":0,"updated_at":"2026-03-11T18:38:12.026299+05:30"},{"city":"Dharamshala","state":"Himachal Pradesh","latitude":32.219,"longitude":76.3234,"temp":21.9,"humidity":48,"rain":0.0,"pressure":872.4,"uv_index":5.4,"wind_gusts":25.9,"aqi":70,"pm10":24.6,"pm2_5":10.9,"mosquito_risk":0,"arthritis_risk":5,"migraine_risk":3,"frizz_risk":0,"updated_at":"2026-03-11T18:38:12.026307+05:30"},{"city":"Dalhousie","state":"Himachal Pradesh","latitude":32.5387,"longitude":75.971,"temp":20.2,"humidity":28,"rain":0.0,"pressure":807.6,"uv_index":4.75,"wind_gusts":23.0,"aqi":91,"pm10":36.9,"pm2_5":20.9,"mosquito_risk":0,"arthritis_risk":5,"migraine_risk":3,"frizz_risk":0,"updated_at":"2026-03-11T18:38:12.026317+05:30"},{"city":"Patiala","state":"Punjab","latitude":30.3398,"longitude":76.3869,"temp":27.0,"humidity":58,"rain":0.0,"pressure":980.4,"uv_index":5.4,"wind_gusts":19.1,"aqi":168,"pm10":96.9,"pm2_5":57.2,"mosquito_risk":4,"arthritis_risk":5,"migraine_risk":3,"frizz_risk":1,"updated_at":"2026-03-11T18:38:12.026325+05:30"},{"city":"Bhatinda","state":"Punjab","latitude":30.211,"longitude":74.9455,"temp":29.1,"humidity":52,"rain":0.0,"pressure":985.6,"uv_index":6.6,"wind_gusts":25.2,"aqi":150,"pm10":66.4,"pm2_5":42.3,"mosquito_risk":4,"arthritis_risk":5,"migraine_risk":7,"frizz_risk":1,"updated_at":"2026-03-11T18:38:12.026332+05:30"},{"city":"Rohtak","state":"Haryana","latitude":28.8955,"longitude":76.6066,"temp":27.5,"humidity":42,"rain":0.0,"pressure":983.7,"uv_index":6.1,"wind_gusts":27.4,"aqi":192,"pm10":400.5,"pm2_5":71.5,"mosquito_risk":4,"arthritis_risk":5,"migraine_risk":7,"frizz_risk":0,"updated_at":"2026-03-11T18:38:12.026340+05:30"},{"city":"Panipat","state":"Haryana","latitude":29.3909,"longitude":76.9635,"temp":26.1,"humidity":52,"rain":0.0,"pressure":982.3,"uv_index":5.45,"wind_gusts":24.8,"aqi":284,"pm10":726.4,"pm2_5":91.7,"mosquito_risk":4,"arthritis_risk":5,"migraine_risk":3,"frizz_risk":0,"updated_at":"2026-03-11T18:38:12.026348+05:30"},{"city":"Mathura","state":"Uttar Pradesh","latitude":27.4924,"longitude":77.6737,"temp":30.5,"humidity":38,"rain":0.0,"pressure":988.1,"uv_index":6.4,"wind_gusts":21.2,"aqi":280,"pm10":586.7,"pm2_5":85.0,"mosquito_risk":0,"arthritis_risk":5,"migraine_risk":7,"frizz_risk":0,"updated_at":"2026-03-11T18:38:12.026356+05:30"},{"city":"Vrindavan","state":"Uttar Pradesh","latitude":27.5823,"longitude":77.7027,"temp":30.5,"humidity":40,"rain":0.0,"pressure":988.7,"uv_index":6.35,"wind_gusts":23.0,"aqi":280,"pm10":586.7,"pm2_5":85.0,"mosquito_risk":0,"arthritis_risk":5,"migraine_risk":7,"frizz_risk":0,"updated_at":"2026-03-11T18:38:12.026364+05:30"},{"city":"Ayodhya","state":"Uttar Pradesh","latitude":26.7922,"longitude":82.1998,"temp":27.7,"humidity":63,"rain":0.0,"pressure":996.7,"uv_index":6.8,"wind_gusts":25.2,"aqi":192,"pm10":67.3,"pm2_5":51.2,"mosquito_risk":7,"arthritis_risk":5,"migraine_risk":7,"frizz_risk":1,"updated_at":"2026-03-11T18:38:12.026372+05:30"},{"city":"Ratlam","state":"Madhya Pradesh","latitude":23.3315,"longitude":75.0367,"temp":32.1,"humidity":24,"rain":0.0,"pressure":956.7,"uv_index":7.55,"wind_gusts":19.8,"aqi":120,"pm10":21.0,"pm2_5":15.5,"mosquito_risk":0,"arthritis_risk":5,"migraine_risk":7,"frizz_risk":0,"updated_at":"2026-03-11T18:38:12.026380+05:30"},{"city":"Sagar","state":"Madhya Pradesh","latitude":23.8388,"longitude":78.7378,"temp":30.2,"humidity":26,"rain":0.0,"pressure":952.2,"uv_index":7.55,"wind_gusts":24.8,"aqi":116,"pm10":44.5,"pm2_5":16.6,"mosquito_risk":0,"arthritis_risk":5,"migraine_risk":7,"frizz_risk":0,"updated_at":"2026-03-11T18:38:12.026387+05:30"},{"city":"Satna","state":"Madhya Pradesh","latitude":24.6005,"longitude":80.8322,"temp":30.9,"humidity":29,"rain":0.0,"pressure":973.4,"uv_index":7.55,"wind_gusts":34.2,"aqi":150,"pm10":49.8,"pm2_5":22.4,"mosquito_risk":0,"arthritis_risk":5,"migraine_risk":7,"frizz_risk":0,"updated_at":"2026-03-11T18:38:12.026395+05:30"},{"city":"Akola","state":"Maharashtra","latitude":20.7002,"longitude":77.0082,"temp":34.5,"humidity":22,"rain":0.0,"pressure":976.2,"uv_index":8.0,"wind_gusts":18.4,"aqi":171,"pm10":28.9,"pm2_5":22.4,"mosquito_risk":0,"arthritis_risk":5,"migraine_risk":7,"frizz_risk":0,"updated_at":"2026-03-11T18:38:12.026403+05:30"},{"city":"Amravati","state":"Maharashtra","latitude":20.9374,"longitude":77.7796,"temp":33.5,"humidity":30,"rain":0.0,"pressure":968.2,"uv_index":8.0,"wind_gusts":11.9,"aqi":166,"pm10":29.3,"pm2_5":18.0,"mosquito_risk":0,"arthritis_risk":5,"migraine_risk":7,"frizz_risk":0,"updated_at":"2026-03-11T18:38:12.026412+05:30"},{"city":"Latur","state":"Maharashtra","latitude":18.4088,"longitude":76.5604,"temp":30.4,"humidity":38,"rain":0.0,"pressure":941.7,"uv_index":8.45,"wind_gusts":24.5,"aqi":151,"pm10":28.8,"pm2_5":25.7,"mosquito_risk":0,"arthritis_risk":5,"migraine_risk":7,"frizz_risk":0,"updated_at":"2026-03-11T18:38:12.026421+05:30"},{"city":"Nanded","state":"Maharashtra","latitude":19.1383,"longitude":77.3091,"temp":33.5,"humidity":34,"rain":0.0,"pressure":970.0,"uv_index":8.2,"wind_gusts":18.0,"aqi":153,"pm10":35.3,"pm2_5":29.7,"mosquito_risk":0,"arthritis_risk":5,"migraine_risk":7,"frizz_risk":0,"updated_at":"2026-03-11T18:38:12.026429+05:30"},{"city":"Gulbarga","state":"Karnataka","latitude":17.3297,"longitude":76.8343,"temp":34.0,"humidity":27,"rain":0.0,"pressure":960.0,"uv_index":8.5,"wind_gusts":21.6,"aqi":118,"pm10":30.5,"pm2_5":23.8,"mosquito_risk":0,"arthritis_risk":5,"migraine_risk":7,"frizz_risk":0,"updated_at":"2026-03-11T18:38:12.026436+05:30"},{"city":"Bidar","state":"Karnataka","latitude":17.9104,"longitude":77.5199,"temp":31.2,"humidity":28,"rain":0.0,"pressure":937.5,"uv_index":8.5,"wind_gusts":24.8,"aqi":123,"pm10":35.0,"pm2_5":28.9,"mosquito_risk":0,"arthritis_risk":5,"migraine_risk":7,"frizz_risk":0,"updated_at":"2026-03-11T18:38:12.026444+05:30"},{"city":"Hospet","state":"Karnataka","latitude":15.2689,"longitude":76.3909,"temp":32.8,"humidity":25,"rain":0.0,"pressure":957.0,"uv_index":8.8,"wind_gusts":28.4,"aqi":96,"pm10":14.3,"pm2_5":13.3,"mosquito_risk":0,"arthritis_risk":5,"migraine_risk":7,"frizz_risk":0,"updated_at":"2026-03-11T18:38:12.026451+05:30"},{"city":"Tirupur","state":"Tamil Nadu","latitude":11.1085,"longitude":77.3411,"temp":32.1,"humidity":31,"rain":0.0,"pressure":975.5,"uv_index":9.25,"wind_gusts":29.5,"aqi":83,"pm10":23.8,"pm2_5":21.4,"mosquito_risk":0,"arthritis_risk":5,"migraine_risk":7,"frizz_risk":0,"updated_at":"2026-03-11T18:38:12.026459+05:30"},{"city":"Alappuzha","state":"Kerala","latitude":9.4981,"longitude":76.3388,"temp":28.5,"humidity":80,"rain":0.0,"pressure":1008.3,"uv_index":8.25,"wind_gusts":37.8,"aqi":117,"pm10":34.3,"pm2_5":28.9,"mosquito_risk":7,"arthritis_risk":0,"migraine_risk":4,"frizz_risk":1,"updated_at":"2026-03-11T18:38:12.026467+05:30"},{"city":"Munnar","state":"Kerala","latitude":10.0889,"longitude":77.0595,"temp":25.4,"humidity":56,"rain":0.0,"pressure":858.2,"uv_index":8.0,"wind_gusts":27.4,"aqi":60,"pm10":20.1,"pm2_5":18.5,"mosquito_risk":4,"arthritis_risk":5,"migraine_risk":7,"frizz_risk":0,"updated_at":"2026-03-11T18:38:12.026475+05:30"},{"city":"Silchar","state":"Assam","latitude":24.8333,"longitude":92.7789,"temp":27.6,"humidity":72,"rain":0.0,"pressure":1006.7,"uv_index":7.65,"wind_gusts":13.7,"aqi":173,"pm10":115.7,"pm2_5":104.3,"mosquito_risk":7,"arthritis_risk":5,"migraine_risk":4,"frizz_risk":1,"updated_at":"2026-03-11T18:38:12.026483+05:30"},{"city":"Dibrugarh","state":"Assam","latitude":27.4728,"longitude":94.912,"temp":25.8,"humidity":76,"rain":0.0,"pressure":997.4,"uv_index":7.45,"wind_gusts":21.6,"aqi":159,"pm10":86.8,"pm2_5":79.9,"mosquito_risk":7,"arthritis_risk":5,"migraine_risk":7,"frizz_risk":1,"updated_at":"2026-03-11T18:38:12.026491+05:30"}]