[{"city":"Delhi","state":"Delhi","latitude":28.6139,"longitude":77.209,"temp":22.8,"humidity":49,"rain":0.0,"pressure":983.3,"uv_index":7.25,"wind_gusts":23.0,"aqi":307,"pm10":326.0,"pm2_5":70.1,"mosquito_risk":0,"arthritis_risk":5,"migraine_risk":7,"frizz_risk":0,"updated_at":"2026-04-14T04:18:26.828561+05:30"},{"city":"Mumbai","state":"Maharashtra","latitude":19.076,"longitude":72.8777,"temp":28.3,"humidity":83,"rain":0.0,"pressure":1008.7,"uv_index":8.0,"wind_gusts":23.4,"aqi":119,"pm10":88.0,"pm2_5":46.8,"mosquito_risk":7,"arthritis_risk":0,"migraine_risk":4,"frizz_risk":1,"updated_at":"2026-04-14T04:18:26.828597+05:30"},{"city":"Bangalore","state":"Karnataka","latitude":12.9716,"longitude":77.5946,"temp":23.2,"humidity":72,"rain":0.0,"pressure":911.6,"uv_index":9.65,"wind_gusts":31.7,"aqi":84,"pm10":36.9,"pm2_5":31.1,"mosquito_risk":3,"arthritis_risk":5,"migraine_risk":7,"frizz_risk":1,"updated_at":"2026-04-14T04:18:26.828612+05:30"},{"city":"Hyderabad","state":"Telangana","latitude":17.385,"longitude":78.4867,"temp":27.6,"humidity":62,"rain":0.0,"pressure":953.0,"uv_index":9.25,"wind_gusts":25.2,"aqi":101,"pm10":30.3,"pm2_5":22.8,"mosquito_risk":7,"arthritis_risk":5,"migraine_risk":7,"frizz_risk":1,"updated_at":"2026-04-14T04:18:26.828622+05:30"},{"city":"Chennai","state":"Tamil Nadu","latitude":13.0827,"longitude":80.2707,"temp":26.7,"humidity":88,"rain":0.0,"pressure":1007.5,"uv_index":9.35,"wind_gusts":32.4,"aqi":43,"pm10":15.5,"pm2_5":10.1,"mosquito_risk":7,"arthritis_risk":5,"migraine_risk":4,"frizz_risk":1,"updated_at":"2026-04-14T04:18:26.828630+05:30"},{"city":"Kolkata","state":"West Bengal","latitude":22.5726,"longitude":88.3639,"temp":27.2,"humidity":90,"rain":0.0,"pressure":1006.1,"uv_index":8.85,"wind_gusts":29.9,"aqi":81,"pm10":29.2,"pm2_5":21.9,"mosquito_risk":7,"arthritis_risk":5,"migraine_risk":4,"frizz_risk":1,"updated_at":"2026-04-14T04:18:26.828639+05:30"},{"city":"Pune","state":"Maharashtra","latitude":18.5204,"longitude":73.8567,"temp":20.9,"humidity":93,"rain":0.0,"pressure":948.2,"uv_index":8.6,"wind_gusts":40.0,"aqi":78,"pm10":44.4,"pm2_5":28.3,"mosquito_risk":3,"arthritis_risk":5,"migraine_risk":7,"frizz_risk":1,"updated_at":"2026-04-14T04:18:26.828650+05:30"},{"city":"Ahmedabad","state":"Gujarat","latitude":23.0225,"longitude":72.5714,"temp":26.2,"humidity":55,"rain":0.0,"pressure":1002.0,"uv_index":8.15,"wind_gusts":30.6,"aqi":81,"pm10":43.3,"pm2_5":15.3,"mosquito_risk":4,"arthritis_risk":5,"migraine_risk":4,"frizz_risk":1,"updated_at":"2026-04-14T04:18:26.828658+05:30"},{"city":"Jaipur","state":"Rajasthan","latitude":26.9124,"longitude":75.7873,"temp":25.4,"humidity":44,"rain":0.0,"pressure":959.8,"uv_index":7.9,"wind_gusts":33.1,"aqi":150,"pm10":73.1,"pm2_5":22.9,"mosquito_risk":4,"arthritis_risk":5,"migraine_risk":7,"frizz_risk":0,"updated_at":"2026-04-14T04:18:26.828666+05:30"},{"city":"Lucknow","state":"Uttar Pradesh","latitude":26.8467,"longitude":80.9462,"temp":22.5,"humidity":66,"rain":0.0,"pressure":993.4,"uv_index":7.75,"wind_gusts":32.8,"aqi":120,"pm10":348.3,"pm2_5":62.6,"mosquito_risk":3,"arthritis_risk":5,"migraine_risk":7,"frizz_risk":0,"updated_at":"2026-04-14T04:18:26.828674+05:30"},{"city":"Kanpur","state":"Uttar Pradesh","latitude":26.4499,"longitude":80.3319,"temp":21.6,"humidity":72,"rain":0.0,"pressure":991.8,"uv_index":7.8,"wind_gusts":28.1,"aqi":243,"pm10":341.8,"pm2_5":58.7,"mosquito_risk":3,"arthritis_risk":5,"migraine_risk":7,"frizz_risk":1,"updated_at":"2026-04-14T04:18:26.828681+05:30"},{"city":"Chandigarh","state":"Chandigarh","latitude":30.7333,"longitude":76.7794,"temp":19.3,"humidity":68,"rain":0.0,"pressure":968.6,"uv_index":7.2,"wind_gusts":29.5,"aqi":52,"pm10":20.1,"pm2_5":16.8,"mosquito_risk":3,"arthritis_risk":5,"migraine_risk":7,"frizz_risk":0,"updated_at":"2026-04-14T04:18:26.828688+05:30"},{"city":"Srinagar","state":"Jammu and Kashmir","latitude":34.0837,"longitude":74.7973,"temp":8.1,"humidity":78,"rain":0.0,"pressure":840.2,"uv_index":8.2,"wind_gusts":18.4,"aqi":91,"pm10":47.5,"pm2_5":40.7,"mosquito_risk":3,"arthritis_risk":5,"migraine_risk":7,"frizz_risk":0,"updated_at":"2026-04-14T04:18:26.828695+05:30"},{"city":"Jammu","state":"Jammu and Kashmir","latitude":32.7266,"longitude":74.857,"temp":18.0,"humidity":78,"rain":0.0,"pressure":973.4,"uv_index":7.85,"wind_gusts":29.2,"aqi":67,"pm10":26.2,"pm2_5":22.9,"mosquito_risk":3,"arthritis_risk":5,"migraine_risk":7,"frizz_risk":0,"updated_at":"2026-04-14T04:18:26.828701+05:30"},{"city":"Amritsar","state":"Punjab","latitude":31.634,"longitude":74.8723,"temp":18.6,"humidity":77,"rain":0.0,"pressure":981.4,"uv_index":7.8,"wind_gusts":24.5,"aqi":68,"pm10":31.7,"pm2_5":30.3,"mosquito_risk":3,"arthritis_risk":5,"migraine_risk":7,"frizz_risk":0,"updated_at":"2026-04-14T04:18:26.828708+05:30"},{"city":"Ludhiana","state":"Punjab","latitude":30.901,"longitude":75.8573,"temp":20.5,"humidity":63,"rain":0.0,"pressure":979.1,"uv_index":7.4,"wind_gusts":28.8,"aqi":66,"pm10":27.6,"pm2_5":25.4,"mosquito_risk":3,"arthritis_risk":5,"migraine_risk":7,"frizz_risk":0,"updated_at":"2026-04-14T04:18:26.828714+05:30"},{"city":"Jalandhar","state":"Punjab","latitude":31.326,"longitude":75.5762,"temp":19.2,"humidity":66,"rain":0.0,"pressure":980.4,"uv_index":7.6,"wind_gusts":25.2,"aqi":72,"pm10":38.0,"pm2_5":30.4,"mosquito_risk":3,"arthritis_risk":5,"migraine_risk":7,"frizz_risk":0,"updated_at":"2026-04-14T04:18:26.828722+05:30"},{"city":"Dehradun","state":"Uttarakhand","latitude":30.6284,"longitude":78.0322,"temp":13.6,"humidity":73,"rain":0.0,"pressure":829.0,"uv_index":7.65,"wind_gusts":40.0,"aqi":47,"pm10":17.3,"pm2_5":12.2,"mosquito_risk":3,"arthritis_risk":5,"migraine_risk":7,"frizz_risk":0,"updated_at":"2026-04-14T04:18:26.828729+05:30"},{"city":"Shimla","state":"Himachal Pradesh","latitude":31.1048,"longitude":77.1734,"temp":10.5,"humidity":79,"rain":0.0,"pressure":782.4,"uv_index":7.7,"wind_gusts":44.3,"aqi":48,"pm10":25.8,"pm2_5":15.9,"mosquito_risk":3,"arthritis_risk":5,"migraine_risk":7,"frizz_risk":0,"updated_at":"2026-04-14T04:18:26.828735+05:30"},{"city":"Manali","state":"Himachal Pradesh","latitude":32.2396,"longitude":77.1887,"temp":13.6,"humidity":49,"rain":0.0,"pressure":819.1,"uv_index":9.15,"wind_gusts":31.3,"aqi":95,"pm10":21.8,"pm2_5":14.7,"mosquito_risk":0,"arthritis_risk":5,"migraine_risk":7,"frizz_risk":0,"updated_at":"2026-04-14T04:18:26.828741+05:30"},{"city":"Gurgaon","state":"Haryana","latitude":28.4595,"longitude":77.0266,"temp":20.4,"humidity":59,"rain":0.0,"pressure":981.8,"uv_index":7.4,"wind_gusts":17.3,"aqi":903,"pm10":717.1,"pm2_5":107.3,"mosquito_risk":0,"arthritis_risk":5,"migraine_risk":7,"frizz_risk":0,"updated_at":"2026-04-14T04:18:26.828748+05:30"},{"city":"Noida","state":"Uttar Pradesh","latitude":28.5355,"longitude":77.391,"temp":22.4,"humidity":51,"rain":0.0,"pressure":984.8,"uv_index":7.3,"wind_gusts":23.4,"aqi":903,"pm10":717.1,"pm2_5":107.3,"mosquito_risk":0,"arthritis_risk":5,"migraine_risk":7,"frizz_risk":0,"updated_at":"2026-04-14T04:18:26.828754+05:30"},{"city":"Ghaziabad","state":"Uttar Pradesh","latitude":28.6692,"longitude":77.4538,"temp":20.7,"humidity":60,"rain":0.0,"pressure":982.7,"uv_index":7.25,"wind_gusts":24.1,"aqi":187,"pm10":244.9,"pm2_5":59.0,"mosquito_risk":0,"arthritis_risk":5,"migraine_risk":7,"frizz_risk":0,"updated_at":"2026-04-14T04:18:26.828760+05:30"},{"city":"Faridabad","state":"Haryana","latitude":28.4089,"longitude":77.3178,"temp":21.3,"humidity":54,"rain":0.0,"pressure":984.2,"uv_index":7.35,"wind_gusts":18.4,"aqi":903,"pm10":717.1,"pm2_5":107.3,"mosquito_risk":0,"arthritis_risk":5,"migraine_risk":7,"frizz_risk":0,"updated_at":"2026-04-14T04:18:26.828767+05:30"},{"city":"Meerut","state":"Uttar Pradesh","latitude":28.9845,"longitude":77.7064,"temp":19.5,"humidity":65,"rain":0.0,"pressure":981.2,"uv_index":7.15,"wind_gusts":30.6,"aqi":187,"pm10":244.9,"pm2_5":59.0,"mosquito_risk":3,"arthritis_risk":5,"migraine_risk":7,"frizz_risk":0,"updated_at":"2026-04-14T04:18:26.828773+05:30"},{"city":"Agra","state":"Uttar Pradesh","latitude":27.1767,"longitude":78.0081,"temp":22.9,"humidity":49,"rain":0.0,"pressure":988.1,"uv_index":7.65,"wind_gusts":16.2,"aqi":586,"pm10":646.3,"pm2_5":95.2,"mosquito_risk":0,"arthritis_risk":5,"migraine_risk":7,"frizz_risk":0,"updated_at":"2026-04-14T04:18:26.828779+05:30"},{"city":"Varanasi","state":"Uttar Pradesh","latitude":25.3176,"longitude":82.9739,"temp":21.0,"humidity":60,"rain":0.0,"pressure":997.8,"uv_index":8.4,"wind_gusts":34.2,"aqi":95,"pm10":92.0,"pm2_5":35.2,"mosquito_risk":0,"arthritis_risk":5,"migraine_risk":7,"frizz_risk":0,"updated_at":"2026-04-14T04:18:26.828789+05:30"},{"city":"Prayagraj","state":"Uttar Pradesh","latitude":25.4358,"longitude":81.8463,"temp":24.1,"humidity":49,"rain":0.0,"pressure":996.4,"uv_index":8.3,"wind_gusts":31.3,"aqi":92,"pm10":175.1,"pm2_5":40.6,"mosquito_risk":0,"arthritis_risk":5,"migraine_risk":7,"frizz_risk":0,"updated_at":"2026-04-14T04:18:26.828797+05:30"},{"city":"Gorakhpur","state":"Uttar Pradesh","latitude":26.7606,"longitude":83.3732,"temp":20.1,"humidity":47,"rain":0.0,"pressure":996.8,"uv_index":8.2,"wind_gusts":22.7,"aqi":74,"pm10":142.5,"pm2_5":33.5,"mosquito_risk":0,"arthritis_risk":5,"migraine_risk":7,"frizz_risk":0,"updated_at":"2026-04-14T04:18:26.828804+05:30"},{"city":"Bareilly","state":"Uttar Pradesh","latitude":28.367,"longitude":79.4304,"temp":19.3,"humidity":69,"rain":0.0,"pressure":986.3,"uv_index":7.55,"wind_gusts":33.1,"aqi":63,"pm10":99.4,"pm2_5":35.2,"mosquito_risk":3,"arthritis_risk":5,"migraine_risk":7,"frizz_risk":0,"updated_at":"2026-04-14T04:18:26.828813+05:30"},{"city":"Aligarh","state":"Uttar Pradesh","latitude":27.8974,"longitude":78.088,"temp":19.8,"humidity":58,"rain":0.0,"pressure":985.8,"uv_index":7.45,"wind_gusts":24.8,"aqi":587,"pm10":590.5,"pm2_5":94.3,"mosquito_risk":0,"arthritis_risk":5,"migraine_risk":7,"frizz_risk":0,"updated_at":"2026-04-14T04:18:26.828819+05:30"},{"city":"Moradabad","state":"Uttar Pradesh","latitude":28.8386,"longitude":78.7733,"temp":19.0,"humidity":68,"rain":0.0,"pressure":983.3,"uv_index":7.35,"wind_gusts":34.2,"aqi":78,"pm10":103.8,"pm2_5":41.4,"mosquito_risk":3,"arthritis_risk":5,"migraine_risk":7,"frizz_risk":0,"updated_at":"2026-04-14T04:18:26.828825+05:30"},{"city":"Saharanpur","state":"Uttar Pradesh","latitude":29.9637,"longitude":77.546,"temp":19.5,"humidity":72,"rain":0.0,"pressure":975.3,"uv_index":6.95,"wind_gusts":32.0,"aqi":68,"pm10":40.6,"pm2_5":37.1,"mosquito_risk":3,"arthritis_risk":5,"migraine_risk":7,"frizz_risk":0,"updated_at":"2026-04-14T04:18:26.828831+05:30"},{"city":"Jhansi","state":"Uttar Pradesh","latitude":25.4484,"longitude":78.5685,"temp":23.7,"humidity":46,"rain":0.0,"pressure":978.0,"uv_index":8.2,"wind_gusts":28.8,"aqi":165,"pm10":62.9,"pm2_5":22.4,"mosquito_risk":0,"arthritis_risk":5,"migraine_risk":7,"frizz_risk":0,"updated_at":"2026-04-14T04:18:30.049265+05:30"},{"city":"Surat","state":"Gujarat","latitude":21.1702,"longitude":72.8311,"temp":27.5,"humidity":88,"rain":0.0,"pressure":1006.8,"uv_index":7.8,"wind_gusts":24.5,"aqi":128,"pm10":53.8,"pm2_5":37.0,"mosquito_risk":7,"arthritis_risk":5,"migraine_risk":4,"frizz_risk":1,"updated_at":"2026-04-14T04:18:30.049295+05:30"},{"city":"Vadodara","state":"Gujarat","latitude":22.3072,"longitude":73.1812,"temp":26.2,"humidity":75,"rain":0.0,"pressure":1004.3,"uv_index":8.1,"wind_gusts":25.9,"aqi":111,"pm10":44.4,"pm2_5":35.2,"mosquito_risk":7,"arthritis_risk":5,"migraine_risk":4,"frizz_risk":1,"updated_at":"2026-04-14T04:18:30.049306+05:30"},{"city":"Rajkot","state":"Gujarat","latitude":22.3039,"longitude":70.8022,"temp":25.2,"humidity":68,"rain":0.0,"pressure":994.6,"uv_index":7.85,"wind_gusts":32.8,"aqi":64,"pm10":49.0,"pm2_5":15.1,"mosquito_risk":7,"arthritis_risk":5,"migraine_risk":7,"frizz_risk":1,"updated_at":"2026-04-14T04:18:30.049315+05:30"},{"city":"Thane","state":"Maharashtra","latitude":19.2183,"longitude":72.9781,"temp":26.1,"humidity":95,"rain":0.0,"pressure":1008.3,"uv_index":8.0,"wind_gusts":36.7,"aqi":119,"pm10":88.0,"pm2_5":46.8,"mosquito_risk":7,"arthritis_risk":0,"migraine_risk":4,"frizz_risk":1,"updated_at":"2026-04-14T04:18:30.049323+05:30"},{"city":"Nagpur","state":"Maharashtra","latitude":21.1458,"longitude":79.0882,"temp":25.8,"humidity":51,"rain":0.0,"pressure":972.3,"uv_index":8.85,"wind_gusts":15.8,"aqi":113,"pm10":69.6,"pm2_5":33.3,"mosquito_risk":4,"arthritis_risk":5,"migraine_risk":7,"frizz_risk":0,"updated_at":"2026-04-14T04:18:30.049332+05:30"},{"city":"Nashik","state":"Maharashtra","latitude":19.9975,"longitude":73.7898,"temp":22.4,"humidity":87,"rain":0.0,"pressure":946.0,"uv_index":8.3,"wind_gusts":31.7,"aqi":83,"pm10":62.9,"pm2_5":41.3,"mosquito_risk":3,"arthritis_risk":5,"migraine_risk":7,"frizz_risk":1,"updated_at":"2026-04-14T04:18:30.049339+05:30"},{"city":"Aurangabad","state":"Maharashtra","latitude":19.8762,"longitude":75.3433,"temp":27.1,"humidity":41,"rain":0.0,"pressure":944.0,"uv_index":8.95,"wind_gusts":31.7,"aqi":71,"pm10":39.7,"pm2_5":27.9,"mosquito_risk":4,"arthritis_risk":5,"migraine_risk":7,"frizz_risk":0,"updated_at":"2026-04-14T04:18:30.049347+05:30"},{"city":"Solapur","state":"Maharashtra","latitude":17.6599,"longitude":75.9064,"temp":28.3,"humidity":55,"rain":0.0,"pressure":956.8,"uv_index":9.05,"wind_gusts":28.4,"aqi":83,"pm10":22.5,"pm2_5":19.7,"mosquito_risk":4,"arthritis_risk":5,"migraine_risk":7,"frizz_risk":1,"updated_at":"2026-04-14T04:18:30.049356+05:30"},{"city":"Kolhapur","state":"Maharashtra","latitude":16.705,"longitude":74.2433,"temp":20.1,"humidity":99,"rain":0.0,"pressure":947.4,"uv_index":9.05,"wind_gusts":45.0,"aqi":79,"pm10":37.5,"pm2_5":28.0,"mosquito_risk":3,"arthritis_risk":5,"migraine_risk":7,"frizz_risk":1,"updated_at":"2026-04-14T04:18:30.049364+05:30"},{"city":"Goa","state":"Goa","latitude":15.2993,"longitude":74.124,"temp":26.9,"humidity":84,"rain":0.0,"pressure":997.7,"uv_index":9.05,"wind_gusts":32.8,"aqi":83,"pm10":54.9,"pm2_5":29.7,"mosquito_risk":7,"arthritis_risk":5,"migraine_risk":7,"frizz_risk":1,"updated_at":"2026-04-14T04:18:30.049371+05:30"},{"city":"Jodhpur","state":"Rajasthan","latitude":26.2389,"longitude":73.0243,"temp":25.6,"humidity":48,"rain":0.0,"pressure":982.1,"uv_index":8.15,"wind_gusts":25.6,"aqi":61,"pm10":68.0,"pm2_5":15.8,"mosquito_risk":4,"arthritis_risk":5,"migraine_risk":7,"frizz_risk":0,"updated_at":"2026-04-14T04:18:30.049379+05:30"},{"city":"Udaipur","state":"Rajasthan","latitude":24.5854,"longitude":73.7125,"temp":23.7,"humidity":37,"rain":0.0,"pressure":946.8,"uv_index":8.7,"wind_gusts":38.2,"aqi":44,"pm10":28.2,"pm2_5":11.7,"mosquito_risk":0,"arthritis_risk":5,"migraine_risk":7,"frizz_risk":0,"updated_at":"2026-04-14T04:18:30.049386+05:30"},{"city":"Kota","state":"Rajasthan","latitude":25.2138,"longitude":75.8648,"temp":20.5,"humidity":71,"rain":0.0,"pressure":978.3,"uv_index":8.2,"wind_gusts":20.2,"aqi":75,"pm10":95.5,"pm2_5":29.7,"mosquito_risk":3,"arthritis_risk":5,"migraine_risk":7,"frizz_risk":0,"updated_at":"2026-04-14T04:18:30.049393+05:30"},{"city":"Bikaner","state":"Rajasthan","latitude":28.0229,"longitude":73.3119,"temp":26.6,"humidity":33,"rain":0.0,"pressure":980.8,"uv_index":7.95,"wind_gusts":18.4,"aqi":45,"pm10":21.0,"pm2_5":8.6,"mosquito_risk":4,"arthritis_risk":5,"migraine_risk":7,"frizz_risk":0,"updated_at":"2026-04-14T04:18:30.049401+05:30"},{"city":"Ajmer","state":"Rajasthan","latitude":26.4499,"longitude":74.6399,"temp":26.6,"humidity":31,"rain":0.0,"pressure":954.0,"uv_index":8.1,"wind_gusts":33.5,"aqi":57,"pm10":48.2,"pm2_5":21.2,"mosquito_risk":4,"arthritis_risk":5,"migraine_risk":7,"frizz_risk":0,"updated_at":"2026-04-14T04:18:30.049408+05:30"},{"city":"Gwalior","state":"Madhya Pradesh","latitude":26.2183,"longitude":78.1828,"temp":23.3,"humidity":58,"rain":0.0,"pressure":983.4,"uv_index":7.9,"wind_gusts":37.1,"aqi":194,"pm10":149.0,"pm2_5":37.3,"mosquito_risk":0,"arthritis_risk":5,"migraine_risk":7,"frizz_risk":0,"updated_at":"2026-04-14T04:18:30.049415+05:30"},{"city":"Indore","state":"Madhya Pradesh","latitude":22.7196,"longitude":75.8577,"temp":24.5,"humidity":43,"rain":0.0,"pressure":947.9,"uv_index":8.55,"wind_gusts":28.8,"aqi":84,"pm10":49.6,"pm2_5":39.3,"mosquito_risk":0,"arthritis_risk":5,"migraine_risk":7,"frizz_risk":0,"updated_at":"2026-04-14T04:18:30.049422+05:30"},{"city":"Bhopal","state":"Madhya Pradesh","latitude":23.2599,"longitude":77.4126,"temp":23.3,"humidity":51,"rain":0.0,"pressure":953.6,"uv_index":8.55,"wind_gusts":27.4,"aqi":77,"pm10":84.8,"pm2_5":25.9,"mosquito_risk":0,"arthritis_risk":5,"migraine_risk":7,"frizz_risk":0,"updated_at":"2026-04-14T04:18:30.049429+05:30"},{"city":"Jabalpur","state":"Madhya Pradesh","latitude":23.1815,"longitude":79.9864,"temp":23.7,"humidity":61,"rain":0.0,"pressure":961.2,"uv_index":8.65,"wind_gusts":15.8,"aqi":87,"pm10":101.3,"pm2_5":26.1,"mosquito_risk":3,"arthritis_risk":5,"migraine_risk":7,"frizz_risk":0,"updated_at":"2026-04-14T04:18:30.049436+05:30"},{"city":"Ujjain","state":"Madhya Pradesh","latitude":23.1765,"longitude":75.7885,"temp":24.6,"humidity":44,"rain":0.0,"pressure":953.6,"uv_index":8.45,"wind_gusts":30.2,"aqi":105,"pm10":53.7,"pm2_5":47.0,"mosquito_risk":0,"arthritis_risk":5,"migraine_risk":7,"frizz_risk":0,"updated_at":"2026-04-14T04:18:30.049444+05:30"},{"city":"Visakhapatnam","state":"Andhra Pradesh","latitude":17.6868,"longitude":83.2185,"temp":26.9,"humidity":88,"rain":0.0,"pressure":1003.6,"uv_index":9.15,"wind_gusts":40.7,"aqi":69,"pm10":26.7,"pm2_5":17.6,"mosquito_risk":7,"arthritis_risk":5,"migraine_risk":4,"frizz_risk":1,"updated_at":"2026-04-14T04:18:30.049452+05:30"},{"city":"Vijayawada","state":"Andhra Pradesh","latitude":16.5062,"longitude":80.648,"temp":26.6,"humidity":91,"rain":0.0,"pressure":1002.8,"uv_index":9.2,"wind_gusts":28.1,"aqi":60,"pm10":18.2,"pm2_5":11.9,"mosquito_risk":7,"arthritis_risk":5,"migraine_risk":4,"frizz_risk":1,"updated_at":"2026-04-14T04:18:30.049458+05:30"},{"city":"Guntur","state":"Andhra Pradesh","latitude":16.3067,"longitude":80.4365,"temp":27.1,"humidity":90,"rain":0.0,"pressure":1003.8,"uv_index":9.25,"wind_gusts":31.7,"aqi":62,"pm10":18.2,"pm2_5":11.9,"mosquito_risk":7,"arthritis_risk":5,"migraine_risk":4,"frizz_risk":1,"updated_at":"2026-04-14T04:18:30.049466+05:30"},{"city":"Nellore","state":"Andhra Pradesh","latitude":14.4426,"longitude":79.9865,"temp":25.5,"humidity":93,"rain":0.0,"pressure":1005.6,"uv_index":9.3,"wind_gusts":33.1,"aqi":53,"pm10":15.8,"pm2_5":11.2,"mosquito_risk":7,"arthritis_risk":5,"migraine_risk":4,"frizz_risk":1,"updated_at":"2026-04-14T04:18:30.049474+05:30"},{"city":"Kurnool","state":"Andhra Pradesh","latitude":15.8281,"longitude":78.0373,"temp":30.3,"humidity":57,"rain":0.0,"pressure":977.1,"uv_index":9.2,"wind_gusts":20.9,"aqi":94,"pm10":24.7,"pm2_5":20.0,"mosquito_risk":0,"arthritis_risk":5,"migraine_risk":7,"frizz_risk":1,"updated_at":"2026-04-14T04:18:30.049521+05:30"},{"city":"Kakinada","state":"Andhra Pradesh","latitude":16.9891,"longitude":82.2475,"temp":25.9,"humidity":92,"rain":0.0,"pressure":1007.7,"uv_index":9.2,"wind_gusts":31.3,"aqi":55,"pm10":25.4,"pm2_5":14.1,"mosquito_risk":7,"arthritis_risk":5,"migraine_risk":4,"frizz_risk":1,"updated_at":"2026-04-14T04:18:30.049534+05:30"},{"city":"Tirupati","state":"Andhra Pradesh","latitude":13.6288,"longitude":79.4192,"temp":23.7,"humidity":84,"rain":0.0,"pressure":992.1,"uv_index":9.4,"wind_gusts":33.5,"aqi":65,"pm10":24.3,"pm2_5":20.0,"mosquito_risk":3,"arthritis_risk":5,"migraine_risk":7,"frizz_risk":1,"updated_at":"2026-04-14T04:18:30.049543+05:30"},{"city":"Warangal","state":"Telangana","latitude":17.9689,"longitude":79.5941,"temp":27.0,"humidity":71,"rain":0.0,"pressure":978.0,"uv_index":9.1,"wind_gusts":23.8,"aqi":84,"pm10":27.4,"pm2_5":21.9,"mosquito_risk":7,"arthritis_risk":5,"migraine_risk":7,"frizz_risk":1,"updated_at":"2026-04-14T04:18:30.049551+05:30"},{"city":"Nizamabad","state":"Telangana","latitude":18.6725,"longitude":78.0941,"temp":28.1,"humidity":55,"rain":0.0,"pressure":964.1,"uv_index":9.05,"wind_gusts":28.8,"aqi":105,"pm10":57.9,"pm2_5":50.9,"mosquito_risk":4,"arthritis_risk":5,"migraine_risk":7,"frizz_risk":1,"updated_at":"2026-04-14T04:18:30.049558+05:30"},{"city":"Mysore","state":"Karnataka","latitude":12.2958,"longitude":76.6396,"temp":23.1,"humidity":93,"rain":0.0,"pressure":928.2,"uv_index":9.55,"wind_gusts":39.6,"aqi":88,"pm10":47.5,"pm2_5":39.9,"mosquito_risk":3,"arthritis_risk":5,"migraine_risk":7,"frizz_risk":1,"updated_at":"2026-04-14T04:18:30.049565+05:30"},{"city":"Mangalore","state":"Karnataka","latitude":12.9141,"longitude":74.856,"temp":29.2,"humidity":85,"rain":0.0,"pressure":1006.3,"uv_index":9.15,"wind_gusts":25.2,"aqi":96,"pm10":41.4,"pm2_5":31.9,"mosquito_risk":7,"arthritis_risk":5,"migraine_risk":4,"frizz_risk":1,"updated_at":"2026-04-14T04:18:30.049572+05:30"},{"city":"Hubli-Dharwad","state":"Karnataka","latitude":15.3647,"longitude":75.124,"temp":23.3,"humidity":92,"rain":0.0,"pressure":940.6,"uv_index":9.25,"wind_gusts":41.4,"aqi":86,"pm10":26.5,"pm2_5":18.5,"mosquito_risk":3,"arthritis_risk":5,"migraine_risk":7,"frizz_risk":1,"updated_at":"2026-04-14T04:18:30.049580+05:30"},{"city":"Belgaum","state":"Karnataka","latitude":15.8497,"longitude":74.4977,"temp":20.7,"humidity":99,"rain":0.0,"pressure":925.2,"uv_index":9.3,"wind_gusts":43.2,"aqi":78,"pm10":45.5,"pm2_5":27.0,"mosquito_risk":3,"arthritis_risk":5,"migraine_risk":7,"frizz_risk":1,"updated_at":"2026-04-14T04:18:33.264641+05:30"},{"city":"Coimbatore","state":"Tamil Nadu","latitude":11.0168,"longitude":76.9558,"temp":24.1,"humidity":95,"rain":0.0,"pressure":961.7,"uv_index":9.25,"wind_gusts":34.2,"aqi":91,"pm10":53.0,"pm2_5":43.5,"mosquito_risk":3,"arthritis_risk":5,"migraine_risk":7,"frizz_risk":1,"updated_at":"2026-04-14T04:18:33.264670+05:30"},{"city":"Madurai","state":"Tamil Nadu","latitude":9.9252,"longitude":78.1198,"temp":27.0,"humidity":88,"rain":0.0,"pressure":993.1,"uv_index":8.95,"wind_gusts":38.9,"aqi":73,"pm10":28.6,"pm2_5":26.1,"mosquito_risk":7,"arthritis_risk":5,"migraine_risk":7,"frizz_risk":1,"updated_at":"2026-04-14T04:18:33.264682+05:30"},{"city":"Trichy","state":"Tamil Nadu","latitude":10.7905,"longitude":78.7047,"temp":27.2,"humidity":90,"rain":0.0,"pressure":1000.0,"uv_index":8.9,"wind_gusts":23.4,"aqi":60,"pm10":28.0,"pm2_5":24.0,"mosquito_risk":7,"arthritis_risk":5,"migraine_risk":4,"frizz_risk":1,"updated_at":"2026-04-14T04:18:33.264691+05:30"},{"city":"Salem","state":"Tamil Nadu","latitude":11.6643,"longitude":78.146,"temp":26.1,"humidity":88,"rain":0.0,"pressure":977.6,"uv_index":9.45,"wind_gusts":20.5,"aqi":72,"pm10":30.3,"pm2_5":26.8,"mosquito_risk":7,"arthritis_risk":5,"migraine_risk":7,"frizz_risk":1,"updated_at":"2026-04-14T04:18:33.264699+05:30"},{"city":"Tirunelveli","state":"Tamil Nadu","latitude":8.7139,"longitude":77.7567,"temp":26.9,"humidity":86,"rain":0.0,"pressure":1003.0,"uv_index":9.1,"wind_gusts":41.0,"aqi":79,"pm10":36.9,"pm2_5":28.6,"mosquito_risk":7,"arthritis_risk":5,"migraine_risk":4,"frizz_risk":1,"updated_at":"2026-04-14T04:18:33.264708+05:30"},{"city":"Vellore","state":"Tamil Nadu","latitude":12.9165,"longitude":79.1325,"temp":23.6,"humidity":81,"rain":0.0,"pressure":985.1,"uv_index":9.45,"wind_gusts":32.4,"aqi":81,"pm10":41.8,"pm2_5":36.8,"mosquito_risk":3,"arthritis_risk":5,"migraine_risk":7,"frizz_risk":1,"updated_at":"2026-04-14T04:18:33.264714+05:30"},{"city":"Erode","state":"Tamil Nadu","latitude":11.341,"longitude":77.7172,"temp":27.2,"humidity":83,"rain":0.0,"pressure":989.2,"uv_index":9.1,"wind_gusts":26.6,"aqi":61,"pm10":18.2,"pm2_5":16.2,"mosquito_risk":7,"arthritis_risk":5,"migraine_risk":7,"frizz_risk":1,"updated_at":"2026-04-14T04:18:33.264721+05:30"},{"city":"Kochi","state":"Kerala","latitude":9.9312,"longitude":76.2673,"temp":28.7,"humidity":84,"rain":0.0,"pressure":1008.0,"uv_index":9.2,"wind_gusts":31.3,"aqi":93,"pm10":43.8,"pm2_5":36.2,"mosquito_risk":7,"arthritis_risk":0,"migraine_risk":4,"frizz_risk":1,"updated_at":"2026-04-14T04:18:33.264728+05:30"},{"city":"Thiruvananthapuram","state":"Kerala","latitude":8.5241,"longitude":76.9366,"temp":28.4,"humidity":83,"rain":0.0,"pressure":1007.1,"uv_index":9.15,"wind_gusts":27.0,"aqi":82,"pm10":40.5,"pm2_5":22.9,"mosquito_risk":7,"arthritis_risk":5,"migraine_risk":4,"frizz_risk":1,"updated_at":"2026-04-14T04:18:33.264734+05:30"},{"city":"Kozhikode","state":"Kerala","latitude":11.2588,"longitude":75.7804,"temp":29.3,"humidity":82,"rain":0.0,"pressure":1007.1,"uv_index":9.15,"wind_gusts":28.8,"aqi":91,"pm10":52.2,"pm2_5":30.0,"mosquito_risk":7,"arthritis_risk":5,"migraine_risk":4,"frizz_risk":1,"updated_at":"2026-04-14T04:18:33.264740+05:30"},{"city":"Thrissur","state":"Kerala","latitude":10.5276,"longitude":76.2144,"temp":28.0,"humidity":88,"rain":0.0,"pressure":1006.3,"uv_index":9.2,"wind_gusts":40.0,"aqi":88,"pm10":51.0,"pm2_5":38.5,"mosquito_risk":7,"arthritis_risk":5,"migraine_risk":4,"frizz_risk":1,"updated_at":"2026-04-14T04:18:33.264746+05:30"},{"city":"Kannur","state":"Kerala","latitude":11.8745,"longitude":75.3704,"temp":28.8,"humidity":83,"rain":0.0,"pressure":1006.5,"uv_index":9.15,"wind_gusts":32.8,"aqi":100,"pm10":43.5,"pm2_5":33.3,"mosquito_risk":7,"arthritis_risk":5,"migraine_risk":4,"frizz_risk":1,"updated_at":"2026-04-14T04:18:33.264752+05:30"},{"city":"Patna","state":"Bihar","latitude":25.5941,"longitude":85.1376,"temp":23.3,"humidity":57,"rain":0.0,"pressure":1000.0,"uv_index":8.55,"wind_gusts":27.0,"aqi":93,"pm10":33.1,"pm2_5":25.6,"mosquito_risk":0,"arthritis_risk":5,"migraine_risk":4,"frizz_risk":0,"updated_at":"2026-04-14T04:18:33.264758+05:30"},{"city":"Gaya","state":"Bihar","latitude":24.7914,"longitude":85.0002,"temp":23.1,"humidity":54,"rain":0.0,"pressure":993.7,"uv_index":8.6,"wind_gusts":21.6,"aqi":99,"pm10":51.2,"pm2_5":27.6,"mosquito_risk":0,"arthritis_risk":5,"migraine_risk":7,"frizz_risk":0,"updated_at":"2026-04-14T04:18:33.264764+05:30"},{"city":"Muzaffarpur","state":"Bihar","latitude":26.1209,"longitude":85.3647,"temp":22.1,"humidity":78,"rain":0.0,"pressure":1000.1,"uv_index":8.5,"wind_gusts":17.3,"aqi":119,"pm10":83.4,"pm2_5":61.2,"mosquito_risk":3,"arthritis_risk":5,"migraine_risk":4,"frizz_risk":1,"updated_at":"2026-04-14T04:18:33.264769+05:30"},{"city":"Bhagalpur","state":"Bihar","latitude":25.2425,"longitude":87.0117,"temp":24.0,"humidity":81,"rain":0.0,"pressure":1001.0,"uv_index":8.55,"wind_gusts":16.6,"aqi":137,"pm10":88.5,"pm2_5":69.6,"mosquito_risk":3,"arthritis_risk":5,"migraine_risk":4,"frizz_risk":1,"updated_at":"2026-04-14T04:18:33.264775+05:30"},{"city":"Ranchi","state":"Jharkhand","latitude":23.3441,"longitude":85.3096,"temp":21.0,"humidity":50,"rain":0.0,"pressure":937.6,"uv_index":9.15,"wind_gusts":30.6,"aqi":83,"pm10":73.3,"pm2_5":23.8,"mosquito_risk":0,"arthritis_risk":5,"migraine_risk":7,"frizz_risk":0,"updated_at":"2026-04-14T04:18:33.264781+05:30"},{"city":"Jamshedpur","state":"Jharkhand","latitude":22.8046,"longitude":86.2029,"temp":25.3,"humidity":86,"rain":0.0,"pressure":990.8,"uv_index":8.95,"wind_gusts":13.7,"aqi":136,"pm10":112.0,"pm2_5":75.4,"mosquito_risk":7,"arthritis_risk":5,"migraine_risk":7,"frizz_risk":1,"updated_at":"2026-04-14T04:18:33.264786+05:30"},{"city":"Dhanbad","state":"Jharkhand","latitude":23.7957,"longitude":86.4304,"temp":21.8,"humidity":74,"rain":0.0,"pressure":979.7,"uv_index":8.9,"wind_gusts":19.8,"aqi":151,"pm10":95.0,"pm2_5":49.2,"mosquito_risk":3,"arthritis_risk":5,"migraine_risk":7,"frizz_risk":1,"updated_at":"2026-04-14T04:18:33.264792+05:30"},{"city":"Bokaro","state":"Jharkhand","latitude":23.6693,"longitude":86.1511,"temp":22.2,"humidity":69,"rain":0.0,"pressure":984.2,"uv_index":8.9,"wind_gusts":27.0,"aqi":148,"pm10":97.3,"pm2_5":50.5,"mosquito_risk":3,"arthritis_risk":5,"migraine_risk":7,"frizz_risk":1,"updated_at":"2026-04-14T04:18:33.264798+05:30"},{"city":"Bhubaneswar","state":"Odisha","latitude":20.2961,"longitude":85.8245,"temp":26.6,"humidity":90,"rain":0.0,"pressure":1002.4,"uv_index":9.05,"wind_gusts":29.9,"aqi":69,"pm10":24.6,"pm2_5":17.0,"mosquito_risk":7,"arthritis_risk":5,"migraine_risk":4,"frizz_risk":1,"updated_at":"2026-04-14T04:18:33.264803+05:30"},{"city":"Cuttack","state":"Odisha","latitude":20.4625,"longitude":85.8828,"temp":26.7,"humidity":91,"rain":0.0,"pressure":1004.2,"uv_index":9.1,"wind_gusts":24.8,"aqi":69,"pm10":24.6,"pm2_5":17.0,"mosquito_risk":7,"arthritis_risk":5,"migraine_risk":4,"frizz_risk":1,"updated_at":"2026-04-14T04:18:33.264809+05:30"},{"city":"Rourkela","state":"Odisha","latitude":22.2604,"longitude":84.8536,"temp":25.6,"humidity":93,"rain":0.0,"pressure":985.0,"uv_index":8.85,"wind_gusts":22.7,"aqi":116,"pm10":73.3,"pm2_5":36.6,"mosquito_risk":7,"arthritis_risk":5,"migraine_risk":7,"frizz_risk":1,"updated_at":"2026-04-14T04:18:33.264814+05:30"},{"city":"Raipur","state":"Chhattisgarh","latitude":21.2514,"longitude":81.6296,"temp":26.6,"humidity":45,"rain":0.0,"pressure":974.1,"uv_index":8.95,"wind_gusts":18.7,"aqi":133,"pm10":92.7,"pm2_5":50.2,"mosquito_risk":4,"arthritis_risk":5,"migraine_risk":7,"frizz_risk":0,"updated_at":"2026-04-14T04:18:33.264820+05:30"},{"city":"Bhilai","state":"Chhattisgarh","latitude":21.1938,"longitude":81.3509,"temp":26.4,"humidity":49,"rain":0.0,"pressure":974.4,"uv_index":8.9,"wind_gusts":13.7,"aqi":105,"pm10":85.4,"pm2_5":45.1,"mosquito_risk":4,"arthritis_risk":5,"migraine_risk":7,"frizz_risk":0,"updated_at":"2026-04-14T04:18:33.264825+05:30"},{"city":"Guwahati","state":"Assam","latitude":26.1158,"longitude":91.7086,"temp":22.2,"humidity":91,"rain":0.0,"pressure":1003.0,"uv_index":8.45,"wind_gusts":30.6,"aqi":143,"pm10":44.7,"pm2_5":37.6,"mosquito_risk":3,"arthritis_risk":5,"migraine_risk":4,"frizz_risk":1,"updated_at":"2026-04-14T04:18:33.264831+05:30"},{"city":"Agartala","state":"Tripura","latitude":23.8315,"longitude":91.2868,"temp":23.4,"humidity":92,"rain":0.0,"pressure":1007.4,"uv_index":8.7,"wind_gusts":27.7,"aqi":94,"pm10":37.0,"pm2_5":33.1,"mosquito_risk":3,"arthritis_risk":5,"migraine_risk":4,"frizz_risk":1,"updated_at":"2026-04-14T04:18:33.264837+05:30"},{"city":"Shillong","state":"Meghalaya","latitude":25.5788,"longitude":91.8933,"temp":13.4,"humidity":86,"rain":0.0,"pressure":855.5,"uv_index":8.9,"wind_gusts":47.5,"aqi":99,"pm10":36.1,"pm2_5":25.7,"mosquito_risk":3,"arthritis_risk":10,"migraine_risk":7,"frizz_risk":0,"updated_at":"2026-04-14T04:18:33.264843+05:30"},{"city":"Imphal","state":"Manipur","latitude":24.817,"longitude":93.9368,"temp":17.9,"humidity":87,"rain":0.0,"pressure":924.3,"uv_index":8.85,"wind_gusts":63.7,"aqi":121,"pm10":88.2,"pm2_5":56.7,"mosquito_risk":3,"arthritis_risk":10,"migraine_risk":7,"frizz_risk":0,"updated_at":"2026-04-14T04:18:33.264849+05:30"},{"city":"Aizawl","state":"Mizoram","latitude":23.7271,"longitude":92.7176,"temp":17.2,"humidity":75,"rain":0.0,"pressure":892.8,"uv_index":8.95,"wind_gusts":44.3,"aqi":100,"pm10":68.2,"pm2_5":36.6,"mosquito_risk":3,"arthritis_risk":5,"migraine_risk":7,"frizz_risk":0,"updated_at":"2026-04-14T04:18:33.264855+05:30"},{"city":"Kohima","state":"Nagaland","latitude":25.6701,"longitude":94.1077,"temp":15.3,"humidity":88,"rain":0.0,"pressure":855.4,"uv_index":8.3,"wind_gusts":71.3,"aqi":100,"pm10":84.5,"pm2_5":45.4,"mosquito_risk":3,"arthritis_risk":10,"migraine_risk":7,"frizz_risk":0,"updated_at":"2026-04-14T04:18:33.264860+05:30"},{"city":"Gangtok","state":"Sikkim","latitude":27.3314,"longitude":88.6138,"temp":13.4,"humidity":84,"rain":0.0,"pressure":836.2,"uv_index":8.8,"wind_gusts":19.4,"aqi":107,"pm10":67.3,"pm2_5":36.7,"mosquito_risk":3,"arthritis_risk":10,"migraine_risk":7,"frizz_risk":0,"updated_at":"2026-04-14T04:18:33.264866+05:30"},{"city":"Siliguri","state":"West Bengal","latitude":26.7271,"longitude":88.3953,"temp":19.7,"humidity":70,"rain":0.0,"pressure":994.6,"uv_index":8.45,"wind_gusts":39.6,"aqi":152,"pm10":139.7,"pm2_5":81.3,"mosquito_risk":3,"arthritis_risk":5,"migraine_risk":7,"frizz_risk":0,"updated_at":"2026-04-14T04:18:36.508602+05:30"},{"city":"Durgapur","state":"West Bengal","latitude":23.5204,"longitude":87.3119,"temp":26.3,"humidity":94,"rain":0.0,"pressure":994.9,"uv_index":8.8,"wind_gusts":18.4,"aqi":158,"pm10":119.7,"pm2_5":88.7,"mosquito_risk":7,"arthritis_risk":5,"migraine_risk":7,"frizz_risk":1,"updated_at":"2026-04-14T04:18:36.508629+05:30"},{"city":"Asansol","state":"West Bengal","latitude":23.6739,"longitude":86.9524,"temp":26.4,"humidity":64,"rain":0.0,"pressure":993.5,"uv_index":8.85,"wind_gusts":18.7,"aqi":143,"pm10":79.9,"pm2_5":42.3,"mosquito_risk":7,"arthritis_risk":5,"migraine_risk":7,"frizz_risk":1,"updated_at":"2026-04-14T04:18:36.508638+05:30"},{"city":"Pondicherry","state":"Puducherry","latitude":11.9139,"longitude":79.8145,"temp":25.5,"humidity":97,"rain":0.0,"pressure":1008.8,"uv_index":9.3,"wind_gusts":26.6,"aqi":37,"pm10":13.6,"pm2_5":8.6,"mosquito_risk":7,"arthritis_risk":0,"migraine_risk":4,"frizz_risk":1,"updated_at":"2026-04-14T04:18:36.508645+05:30"},{"city":"Port Blair","state":"Andaman and Nicobar Islands","latitude":11.6234,"longitude":92.7265,"temp":28.4,"humidity":81,"rain":0.0,"pressure":1007.3,"uv_index":9.2,"wind_gusts":21.2,"aqi":63,"pm10":23.1,"pm2_5":14.4,"mosquito_risk":7,"arthritis_risk":5,"migraine_risk":4,"frizz_risk":1,"updated_at":"2026-04-14T04:18:36.508652+05:30"},{"city":"Haridwar","state":"Uttarakhand","latitude":29.9457,"longitude":78.1642,"temp":18.7,"humidity":72,"rain":0.0,"pressure":973.9,"uv_index":7.0,"wind_gusts":35.3,"aqi":62,"pm10":29.1,"pm2_5":27.1,"mosquito_risk":3,"arthritis_risk":5,"migraine_risk":7,"frizz_risk":0,"updated_at":"2026-04-14T04:18:36.508660+05:30"},{"city":"Rishikesh","state":"Uttarakhand","latitude":30.0869,"longitude":78.2676,"temp":18.9,"humidity":72,"rain":0.0,"pressure":966.8,"uv_index":7.1,"wind_gusts":36.7,"aqi":68,"pm10":21.8,"pm2_5":16.4,"mosquito_risk":3,"arthritis_risk":5,"migraine_risk":7,"frizz_risk":0,"updated_at":"2026-04-14T04:18:36.508667+05:30"},{"city":"Nainital","state":"Uttarakhand","latitude":29.3919,"longitude":79.4542,"temp":18.1,"humidity":27,"rain":0.0,"pressure":805.4,"uv_index":8.0,"wind_gusts":55.1,"aqi":69,"pm10":17.1,"pm2_5":11.5,"mosquito_risk":0,"arthritis_risk":5,"migraine_risk":7,"frizz_risk":1,"updated_at":"2026-04-14T04:18:36.508674+05:30"},{"city":"Mussoorie","state":"Uttarakhand","latitude":30.4599,"longitude":78.0664,"temp":15.2,"humidity":66,"rain":0.0,"pressure":801.6,"uv_index":7.5,"wind_gusts":47.5,"aqi":57,"pm10":23.4,"pm2_5":20.4,"mosquito_risk":3,"arthritis_risk":5,"migraine_risk":7,"frizz_risk":0,"updated_at":"2026-04-14T04:18:36.508681+05:30"},{"city":"Dharamshala","state":"Himachal Pradesh","latitude":32.219,"longitude":76.3234,"temp":18.6,"humidity":32,"rain":0.0,"pressure":868.9,"uv_index":7.75,"wind_gusts":25.2,"aqi":49,"pm10":17.9,"pm2_5":10.0,"mosquito_risk":0,"arthritis_risk":5,"migraine_risk":7,"frizz_risk":0,"updated_at":"2026-04-14T04:18:36.508687+05:30"},{"city":"Dalhousie","state":"Himachal Pradesh","latitude":32.5387,"longitude":75.971,"temp":14.9,"humidity":42,"rain":0.0,"pressure":803.0,"uv_index":8.0,"wind_gusts":22.7,"aqi":60,"pm10":24.2,"pm2_5":19.6,"mosquito_risk":0,"arthritis_risk":5,"migraine_risk":7,"frizz_risk":0,"updated_at":"2026-04-14T04:18:36.508693+05:30"},{"city":"Patiala","state":"Punjab","latitude":30.3398,"longitude":76.3869,"temp":19.1,"humidity":67,"rain":0.0,"pressure":978.1,"uv_index":7.1,"wind_gusts":31.7,"aqi":288,"pm10":289.6,"pm2_5":43.9,"mosquito_risk":3,"arthritis_risk":5,"migraine_risk":7,"frizz_risk":0,"updated_at":"2026-04-14T04:18:36.508700+05:30"},{"city":"Bhatinda","state":"Punjab","latitude":30.211,"longitude":74.9455,"temp":20.9,"humidity":58,"rain":0.0,"pressure":984.2,"uv_index":7.6,"wind_gusts":29.5,"aqi":52,"pm10":49.2,"pm2_5":23.6,"mosquito_risk":0,"arthritis_risk":5,"migraine_risk":7,"frizz_risk":0,"updated_at":"2026-04-14T04:18:36.508706+05:30"},{"city":"Rohtak","state":"Haryana","latitude":28.8955,"longitude":76.6066,"temp":19.2,"humidity":66,"rain":0.0,"pressure":981.9,"uv_index":7.3,"wind_gusts":23.4,"aqi":445,"pm10":421.0,"pm2_5":79.6,"mosquito_risk":3,"arthritis_risk":5,"migraine_risk":7,"frizz_risk":0,"updated_at":"2026-04-14T04:18:36.508712+05:30"},{"city":"Panipat","state":"Haryana","latitude":29.3909,"longitude":76.9635,"temp":19.4,"humidity":64,"rain":0.0,"pressure":980.2,"uv_index":7.1,"wind_gusts":30.6,"aqi":888,"pm10":504.8,"pm2_5":78.5,"mosquito_risk":3,"arthritis_risk":5,"migraine_risk":7,"frizz_risk":0,"updated_at":"2026-04-14T04:18:36.508719+05:30"},{"city":"Mathura","state":"Uttar Pradesh","latitude":27.4924,"longitude":77.6737,"temp":19.6,"humidity":60,"rain":0.0,"pressure":987.0,"uv_index":7.6,"wind_gusts":16.6,"aqi":621,"pm10":651.9,"pm2_5":95.7,"mosquito_risk":0,"arthritis_risk":5,"migraine_risk":7,"frizz_risk":0,"updated_at":"2026-04-14T04:18:36.508725+05:30"},{"city":"Vrindavan","state":"Uttar Pradesh","latitude":27.5823,"longitude":77.7027,"temp":19.6,"humidity":58,"rain":0.0,"pressure":987.5,"uv_index":7.55,"wind_gusts":18.7,"aqi":621,"pm10":651.9,"pm2_5":95.7,"mosquito_risk":0,"arthritis_risk":5,"migraine_risk":7,"frizz_risk":0,"updated_at":"2026-04-14T04:18:36.508732+05:30"},{"city":"Ayodhya","state":"Uttar Pradesh","latitude":26.7922,"longitude":82.1998,"temp":21.6,"humidity":60,"rain":0.0,"pressure":995.0,"uv_index":7.95,"wind_gusts":36.0,"aqi":73,"pm10":194.6,"pm2_5":39.6,"mosquito_risk":0,"arthritis_risk":5,"migraine_risk":7,"frizz_risk":0,"updated_at":"2026-04-14T04:18:36.508738+05:30"},{"city":"Ratlam","state":"Madhya Pradesh","latitude":23.3315,"longitude":75.0367,"temp":24.7,"humidity":46,"rain":0.0,"pressure":954.2,"uv_index":8.4,"wind_gusts":28.4,"aqi":85,"pm10":27.8,"pm2_5":22.7,"mosquito_risk":0,"arthritis_risk":5,"migraine_risk":7,"frizz_risk":0,"updated_at":"2026-04-14T04:18:36.508744+05:30"},{"city":"Sagar","state":"Madhya Pradesh","latitude":23.8388,"longitude":78.7378,"temp":24.3,"humidity":47,"rain":0.0,"pressure":950.2,"uv_index":8.55,"wind_gusts":25.6,"aqi":109,"pm10":175.1,"pm2_5":32.5,"mosquito_risk":0,"arthritis_risk":5,"migraine_risk":7,"frizz_risk":0,"updated_at":"2026-04-14T04:18:36.508751+05:30"},{"city":"Satna","state":"Madhya Pradesh","latitude":24.6005,"longitude":80.8322,"temp":23.8,"humidity":47,"rain":0.0,"pressure":971.7,"uv_index":8.6,"wind_gusts":25.6,"aqi":123,"pm10":84.8,"pm2_5":20.8,"mosquito_risk":0,"arthritis_risk":5,"migraine_risk":7,"frizz_risk":0,"updated_at":"2026-04-14T04:18:36.508756+05:30"},{"city":"Akola","state":"Maharashtra","latitude":20.7002,"longitude":77.0082,"temp":25.5,"humidity":69,"rain":0.0,"pressure":974.6,"uv_index":8.8,"wind_gusts":28.4,"aqi":68,"pm10":22.2,"pm2_5":17.2,"mosquito_risk":7,"arthritis_risk":5,"migraine_risk":7,"frizz_risk":1,"updated_at":"2026-04-14T04:18:36.508763+05:30"},{"city":"Amravati","state":"Maharashtra","latitude":20.9374,"longitude":77.7796,"temp":26.0,"humidity":51,"rain":0.0,"pressure":966.6,"uv_index":8.8,"wind_gusts":23.8,"aqi":71,"pm10":24.4,"pm2_5":18.6,"mosquito_risk":4,"arthritis_risk":5,"migraine_risk":7,"frizz_risk":0,"updated_at":"2026-04-14T04:18:36.508770+05:30"},{"city":"Latur","state":"Maharashtra","latitude":18.4088,"longitude":76.5604,"temp":25.2,"humidity":53,"rain":0.0,"pressure":939.2,"uv_index":9.05,"wind_gusts":28.8,"aqi":81,"pm10":32.2,"pm2_5":26.2,"mosquito_risk":4,"arthritis_risk":5,"migraine_risk":7,"frizz_risk":0,"updated_at":"2026-04-14T04:18:36.508776+05:30"},{"city":"Nanded","state":"Maharashtra","latitude":19.1383,"longitude":77.3091,"temp":26.4,"humidity":60,"rain":0.0,"pressure":968.1,"uv_index":8.95,"wind_gusts":20.2,"aqi":83,"pm10":24.4,"pm2_5":20.0,"mosquito_risk":4,"arthritis_risk":5,"migraine_risk":7,"frizz_risk":1,"updated_at":"2026-04-14T04:18:36.508782+05:30"},{"city":"Gulbarga","state":"Karnataka","latitude":17.3297,"longitude":76.8343,"temp":29.9,"humidity":55,"rain":0.0,"pressure":958.4,"uv_index":9.1,"wind_gusts":27.0,"aqi":102,"pm10":33.3,"pm2_5":29.3,"mosquito_risk":4,"arthritis_risk":5,"migraine_risk":7,"frizz_risk":1,"updated_at":"2026-04-14T04:18:36.508788+05:30"},{"city":"Bidar","state":"Karnataka","latitude":17.9104,"longitude":77.5199,"temp":27.7,"humidity":61,"rain":0.0,"pressure":935.3,"uv_index":9.1,"wind_gusts":28.1,"aqi":118,"pm10":51.5,"pm2_5":43.1,"mosquito_risk":7,"arthritis_risk":5,"migraine_risk":7,"frizz_risk":1,"updated_at":"2026-04-14T04:18:36.508794+05:30"},{"city":"Hospet","state":"Karnataka","latitude":15.2689,"longitude":76.3909,"temp":27.5,"humidity":75,"rain":0.0,"pressure":956.1,"uv_index":9.25,"wind_gusts":24.5,"aqi":103,"pm10":27.0,"pm2_5":24.4,"mosquito_risk":7,"arthritis_risk":5,"migraine_risk":7,"frizz_risk":1,"updated_at":"2026-04-14T04:18:36.508799+05:30"},{"city":"Tirupur","state":"Tamil Nadu","latitude":11.1085,"longitude":77.3411,"temp":27.1,"humidity":75,"rain":0.0,"pressure":975.4,"uv_index":9.1,"wind_gusts":31.0,"aqi":81,"pm10":35.7,"pm2_5":29.5,"mosquito_risk":7,"arthritis_risk":5,"migraine_risk":7,"frizz_risk":1,"updated_at":"2026-04-14T04:18:36.508806+05:30"},{"city":"Alappuzha","state":"Kerala","latitude":9.4981,"longitude":76.3388,"temp":28.5,"humidity":84,"rain":0.0,"pressure":1008.1,"uv_index":8.95,"wind_gusts":28.1,"aqi":93,"pm10":50.4,"pm2_5":36.2,"mosquito_risk":7,"arthritis_risk":0,"migraine_risk":4,"frizz_risk":1,"updated_at":"2026-04-14T04:18:36.508811+05:30"},{"city":"Munnar","state":"Kerala","latitude":10.0889,"longitude":77.0595,"temp":21.0,"humidity":81,"rain":0.0,"pressure":856.2,"uv_index":9.7,"wind_gusts":25.2,"aqi":85,"pm10":32.6,"pm2_5":29.3,"mosquito_risk":3,"arthritis_risk":5,"migraine_risk":7,"frizz_risk":1,"updated_at":"2026-04-14T04:18:36.508818+05:30"},{"city":"Silchar","state":"Assam","latitude":24.8333,"longitude":92.7789,"temp":22.9,"humidity":95,"rain":0.0,"pressure":1007.0,"uv_index":8.7,"wind_gusts":33.1,"aqi":148,"pm10":65.7,"pm2_5":50.1,"mosquito_risk":3,"arthritis_risk":5,"migraine_risk":4,"frizz_risk":1,"updated_at":"2026-04-14T04:18:36.508824+05:30"},{"city":"Dibrugarh","state":"Assam","latitude":27.4728,"longitude":94.912,"temp":20.4,"humidity":92,"rain":0.0,"pressure":998.6,"uv_index":8.55,"wind_gusts":20.5,"aqi":114,"pm10":50.5,"pm2_5":31.4,"mosquito_risk":3,"arthritis_risk":5,"migraine_risk":7,"frizz_risk":1,"updated_at":"2026-04-14T04:18:36.508830+05:30"}]