[{"city":"Delhi","state":"Delhi","latitude":28.6139,"longitude":77.209,"temp":36.1,"humidity":20,"rain":0.0,"pressure":982.9,"uv_index":7.25,"wind_gusts":22.0,"aqi":223,"pm10":215.6,"pm2_5":32.8,"mosquito_risk":0,"arthritis_risk":5,"migraine_risk":10,"frizz_risk":0,"updated_at":"2026-04-14T14:52:30.182638+05:30"},{"city":"Mumbai","state":"Maharashtra","latitude":19.076,"longitude":72.8777,"temp":30.5,"humidity":73,"rain":0.0,"pressure":1007.2,"uv_index":8.0,"wind_gusts":23.8,"aqi":136,"pm10":81.3,"pm2_5":46.9,"mosquito_risk":3,"arthritis_risk":5,"migraine_risk":4,"frizz_risk":1,"updated_at":"2026-04-14T14:52:30.182681+05:30"},{"city":"Bangalore","state":"Karnataka","latitude":12.9716,"longitude":77.5946,"temp":36.7,"humidity":21,"rain":0.0,"pressure":912.0,"uv_index":9.65,"wind_gusts":31.3,"aqi":92,"pm10":23.6,"pm2_5":16.6,"mosquito_risk":0,"arthritis_risk":5,"migraine_risk":10,"frizz_risk":0,"updated_at":"2026-04-14T14:52:30.182697+05:30"},{"city":"Hyderabad","state":"Telangana","latitude":17.385,"longitude":78.4867,"temp":39.7,"humidity":23,"rain":0.0,"pressure":951.7,"uv_index":9.25,"wind_gusts":24.8,"aqi":95,"pm10":40.2,"pm2_5":29.4,"mosquito_risk":0,"arthritis_risk":5,"migraine_risk":10,"frizz_risk":0,"updated_at":"2026-04-14T14:52:30.182707+05:30"},{"city":"Chennai","state":"Tamil Nadu","latitude":13.0827,"longitude":80.2707,"temp":35.5,"humidity":48,"rain":0.0,"pressure":1006.2,"uv_index":9.35,"wind_gusts":32.4,"aqi":44,"pm10":16.1,"pm2_5":11.1,"mosquito_risk":0,"arthritis_risk":5,"migraine_risk":7,"frizz_risk":1,"updated_at":"2026-04-14T14:52:30.182715+05:30"},{"city":"Kolkata","state":"West Bengal","latitude":22.5726,"longitude":88.3639,"temp":35.0,"humidity":55,"rain":0.0,"pressure":1003.8,"uv_index":8.85,"wind_gusts":31.0,"aqi":87,"pm10":81.5,"pm2_5":40.4,"mosquito_risk":0,"arthritis_risk":5,"migraine_risk":4,"frizz_risk":1,"updated_at":"2026-04-14T14:52:30.182724+05:30"},{"city":"Pune","state":"Maharashtra","latitude":18.5204,"longitude":73.8567,"temp":41.2,"humidity":16,"rain":0.0,"pressure":947.8,"uv_index":8.6,"wind_gusts":41.0,"aqi":87,"pm10":26.3,"pm2_5":16.0,"mosquito_risk":0,"arthritis_risk":5,"migraine_risk":10,"frizz_risk":0,"updated_at":"2026-04-14T14:52:30.182736+05:30"},{"city":"Ahmedabad","state":"Gujarat","latitude":23.0225,"longitude":72.5714,"temp":41.4,"humidity":16,"rain":0.0,"pressure":1000.5,"uv_index":8.15,"wind_gusts":31.7,"aqi":74,"pm10":109.0,"pm2_5":25.2,"mosquito_risk":0,"arthritis_risk":5,"migraine_risk":7,"frizz_risk":0,"updated_at":"2026-04-14T14:52:30.182744+05:30"},{"city":"Jaipur","state":"Rajasthan","latitude":26.9124,"longitude":75.7873,"temp":38.2,"humidity":14,"rain":0.0,"pressure":959.3,"uv_index":7.9,"wind_gusts":31.7,"aqi":96,"pm10":144.8,"pm2_5":22.8,"mosquito_risk":0,"arthritis_risk":5,"migraine_risk":10,"frizz_risk":0,"updated_at":"2026-04-14T14:52:30.182750+05:30"},{"city":"Lucknow","state":"Uttar Pradesh","latitude":26.8467,"longitude":80.9462,"temp":38.0,"humidity":15,"rain":0.0,"pressure":992.3,"uv_index":7.75,"wind_gusts":36.4,"aqi":157,"pm10":75.4,"pm2_5":14.9,"mosquito_risk":0,"arthritis_risk":5,"migraine_risk":10,"frizz_risk":0,"updated_at":"2026-04-14T14:52:30.182758+05:30"},{"city":"Kanpur","state":"Uttar Pradesh","latitude":26.4499,"longitude":80.3319,"temp":36.6,"humidity":21,"rain":0.0,"pressure":991.4,"uv_index":7.75,"wind_gusts":28.1,"aqi":240,"pm10":329.7,"pm2_5":35.5,"mosquito_risk":0,"arthritis_risk":5,"migraine_risk":10,"frizz_risk":0,"updated_at":"2026-04-14T14:52:30.182765+05:30"},{"city":"Chandigarh","state":"Chandigarh","latitude":30.7333,"longitude":76.7794,"temp":34.6,"humidity":20,"rain":0.0,"pressure":969.2,"uv_index":7.2,"wind_gusts":30.2,"aqi":105,"pm10":15.3,"pm2_5":11.7,"mosquito_risk":0,"arthritis_risk":5,"migraine_risk":7,"frizz_risk":0,"updated_at":"2026-04-14T14:52:30.182772+05:30"},{"city":"Srinagar","state":"Jammu and Kashmir","latitude":34.0837,"longitude":74.7973,"temp":22.8,"humidity":25,"rain":0.0,"pressure":844.2,"uv_index":8.2,"wind_gusts":18.4,"aqi":87,"pm10":21.7,"pm2_5":8.9,"mosquito_risk":0,"arthritis_risk":5,"migraine_risk":7,"frizz_risk":0,"updated_at":"2026-04-14T14:52:30.182779+05:30"},{"city":"Jammu","state":"Jammu and Kashmir","latitude":32.7266,"longitude":74.857,"temp":34.0,"humidity":26,"rain":0.0,"pressure":973.3,"uv_index":7.85,"wind_gusts":28.1,"aqi":70,"pm10":17.1,"pm2_5":9.7,"mosquito_risk":0,"arthritis_risk":5,"migraine_risk":7,"frizz_risk":0,"updated_at":"2026-04-14T14:52:30.182786+05:30"},{"city":"Amritsar","state":"Punjab","latitude":31.634,"longitude":74.8723,"temp":34.1,"humidity":27,"rain":0.0,"pressure":981.6,"uv_index":7.8,"wind_gusts":24.5,"aqi":97,"pm10":14.6,"pm2_5":9.5,"mosquito_risk":0,"arthritis_risk":5,"migraine_risk":7,"frizz_risk":0,"updated_at":"2026-04-14T14:52:30.182795+05:30"},{"city":"Ludhiana","state":"Punjab","latitude":30.901,"longitude":75.8573,"temp":35.1,"humidity":23,"rain":0.0,"pressure":979.2,"uv_index":7.4,"wind_gusts":29.2,"aqi":94,"pm10":19.0,"pm2_5":8.1,"mosquito_risk":0,"arthritis_risk":5,"migraine_risk":10,"frizz_risk":0,"updated_at":"2026-04-14T14:52:30.182801+05:30"},{"city":"Jalandhar","state":"Punjab","latitude":31.326,"longitude":75.5762,"temp":34.2,"humidity":27,"rain":0.0,"pressure":980.4,"uv_index":7.55,"wind_gusts":24.5,"aqi":105,"pm10":28.9,"pm2_5":9.3,"mosquito_risk":0,"arthritis_risk":5,"migraine_risk":7,"frizz_risk":0,"updated_at":"2026-04-14T14:52:30.182810+05:30"},{"city":"Dehradun","state":"Uttarakhand","latitude":30.6284,"longitude":78.0322,"temp":23.0,"humidity":37,"rain":0.0,"pressure":832.6,"uv_index":7.6,"wind_gusts":41.8,"aqi":89,"pm10":15.6,"pm2_5":7.0,"mosquito_risk":0,"arthritis_risk":5,"migraine_risk":7,"frizz_risk":0,"updated_at":"2026-04-14T14:52:30.182816+05:30"},{"city":"Shimla","state":"Himachal Pradesh","latitude":31.1048,"longitude":77.1734,"temp":21.0,"humidity":33,"rain":0.0,"pressure":788.2,"uv_index":7.7,"wind_gusts":43.2,"aqi":90,"pm10":16.6,"pm2_5":8.5,"mosquito_risk":0,"arthritis_risk":5,"migraine_risk":7,"frizz_risk":0,"updated_at":"2026-04-14T14:52:30.182823+05:30"},{"city":"Manali","state":"Himachal Pradesh","latitude":32.2396,"longitude":77.1887,"temp":23.0,"humidity":34,"rain":0.0,"pressure":822.8,"uv_index":9.5,"wind_gusts":29.5,"aqi":123,"pm10":16.4,"pm2_5":5.8,"mosquito_risk":0,"arthritis_risk":5,"migraine_risk":7,"frizz_risk":0,"updated_at":"2026-04-14T14:52:30.182830+05:30"},{"city":"Gurgaon","state":"Haryana","latitude":28.4595,"longitude":77.0266,"temp":36.2,"humidity":21,"rain":0.0,"pressure":981.4,"uv_index":7.4,"wind_gusts":14.4,"aqi":732,"pm10":579.3,"pm2_5":64.7,"mosquito_risk":0,"arthritis_risk":5,"migraine_risk":10,"frizz_risk":0,"updated_at":"2026-04-14T14:52:30.182837+05:30"},{"city":"Noida","state":"Uttar Pradesh","latitude":28.5355,"longitude":77.391,"temp":36.5,"humidity":20,"rain":0.0,"pressure":984.5,"uv_index":7.3,"wind_gusts":22.0,"aqi":732,"pm10":579.3,"pm2_5":64.7,"mosquito_risk":0,"arthritis_risk":5,"migraine_risk":10,"frizz_risk":0,"updated_at":"2026-04-14T14:52:30.182844+05:30"},{"city":"Ghaziabad","state":"Uttar Pradesh","latitude":28.6692,"longitude":77.4538,"temp":36.2,"humidity":22,"rain":0.0,"pressure":982.6,"uv_index":7.25,"wind_gusts":24.5,"aqi":176,"pm10":183.5,"pm2_5":32.6,"mosquito_risk":0,"arthritis_risk":5,"migraine_risk":10,"frizz_risk":0,"updated_at":"2026-04-14T14:52:30.182851+05:30"},{"city":"Faridabad","state":"Haryana","latitude":28.4089,"longitude":77.3178,"temp":36.5,"humidity":20,"rain":0.0,"pressure":983.7,"uv_index":7.35,"wind_gusts":17.3,"aqi":732,"pm10":579.3,"pm2_5":64.7,"mosquito_risk":0,"arthritis_risk":5,"migraine_risk":10,"frizz_risk":0,"updated_at":"2026-04-14T14:52:30.182858+05:30"},{"city":"Meerut","state":"Uttar Pradesh","latitude":28.9845,"longitude":77.7064,"temp":36.5,"humidity":20,"rain":0.0,"pressure":981.3,"uv_index":7.15,"wind_gusts":32.8,"aqi":176,"pm10":183.5,"pm2_5":32.6,"mosquito_risk":0,"arthritis_risk":5,"migraine_risk":10,"frizz_risk":0,"updated_at":"2026-04-14T14:52:30.182865+05:30"},{"city":"Agra","state":"Uttar Pradesh","latitude":27.1767,"longitude":78.0081,"temp":37.9,"humidity":23,"rain":0.0,"pressure":987.4,"uv_index":7.7,"wind_gusts":23.4,"aqi":488,"pm10":402.3,"pm2_5":48.9,"mosquito_risk":0,"arthritis_risk":5,"migraine_risk":10,"frizz_risk":0,"updated_at":"2026-04-14T14:52:30.182871+05:30"},{"city":"Varanasi","state":"Uttar Pradesh","latitude":25.3176,"longitude":82.9739,"temp":39.7,"humidity":11,"rain":0.0,"pressure":995.9,"uv_index":8.4,"wind_gusts":37.4,"aqi":104,"pm10":185.3,"pm2_5":30.3,"mosquito_risk":0,"arthritis_risk":5,"migraine_risk":10,"frizz_risk":0,"updated_at":"2026-04-14T14:52:30.182880+05:30"},{"city":"Prayagraj","state":"Uttar Pradesh","latitude":25.4358,"longitude":81.8463,"temp":38.8,"humidity":14,"rain":0.0,"pressure":995.1,"uv_index":8.3,"wind_gusts":33.5,"aqi":109,"pm10":152.3,"pm2_5":25.7,"mosquito_risk":0,"arthritis_risk":5,"migraine_risk":10,"frizz_risk":0,"updated_at":"2026-04-14T14:52:30.182887+05:30"},{"city":"Gorakhpur","state":"Uttar Pradesh","latitude":26.7606,"longitude":83.3732,"temp":37.7,"humidity":15,"rain":0.0,"pressure":995.4,"uv_index":8.2,"wind_gusts":24.5,"aqi":119,"pm10":105.7,"pm2_5":25.3,"mosquito_risk":0,"arthritis_risk":5,"migraine_risk":10,"frizz_risk":0,"updated_at":"2026-04-14T14:52:30.182894+05:30"},{"city":"Bareilly","state":"Uttar Pradesh","latitude":28.367,"longitude":79.4304,"temp":37.1,"humidity":17,"rain":0.0,"pressure":986.0,"uv_index":7.55,"wind_gusts":37.1,"aqi":99,"pm10":17.6,"pm2_5":10.5,"mosquito_risk":0,"arthritis_risk":5,"migraine_risk":10,"frizz_risk":0,"updated_at":"2026-04-14T14:52:30.182900+05:30"},{"city":"Aligarh","state":"Uttar Pradesh","latitude":27.8974,"longitude":78.088,"temp":37.4,"humidity":19,"rain":0.0,"pressure":985.3,"uv_index":7.45,"wind_gusts":26.6,"aqi":529,"pm10":387.4,"pm2_5":47.7,"mosquito_risk":0,"arthritis_risk":5,"migraine_risk":10,"frizz_risk":0,"updated_at":"2026-04-14T14:52:30.182909+05:30"},{"city":"Moradabad","state":"Uttar Pradesh","latitude":28.8386,"longitude":78.7733,"temp":36.4,"humidity":19,"rain":0.0,"pressure":983.0,"uv_index":7.35,"wind_gusts":37.4,"aqi":91,"pm10":23.5,"pm2_5":10.4,"mosquito_risk":0,"arthritis_risk":5,"migraine_risk":10,"frizz_risk":0,"updated_at":"2026-04-14T14:52:30.182916+05:30"},{"city":"Saharanpur","state":"Uttar Pradesh","latitude":29.9637,"longitude":77.546,"temp":35.2,"humidity":19,"rain":0.0,"pressure":975.6,"uv_index":6.9,"wind_gusts":34.2,"aqi":109,"pm10":83.1,"pm2_5":17.0,"mosquito_risk":0,"arthritis_risk":5,"migraine_risk":10,"frizz_risk":0,"updated_at":"2026-04-14T14:52:30.182922+05:30"},{"city":"Jhansi","state":"Uttar Pradesh","latitude":25.4484,"longitude":78.5685,"temp":40.9,"humidity":12,"rain":0.0,"pressure":977.1,"uv_index":8.2,"wind_gusts":26.3,"aqi":90,"pm10":63.1,"pm2_5":14.9,"mosquito_risk":0,"arthritis_risk":5,"migraine_risk":10,"frizz_risk":0,"updated_at":"2026-04-14T14:52:33.414750+05:30"},{"city":"Surat","state":"Gujarat","latitude":21.1702,"longitude":72.8311,"temp":35.7,"humidity":35,"rain":0.0,"pressure":1006.2,"uv_index":7.8,"wind_gusts":22.3,"aqi":122,"pm10":81.5,"pm2_5":38.0,"mosquito_risk":0,"arthritis_risk":5,"migraine_risk":7,"frizz_risk":1,"updated_at":"2026-04-14T14:52:33.414782+05:30"},{"city":"Vadodara","state":"Gujarat","latitude":22.3072,"longitude":73.1812,"temp":40.2,"humidity":19,"rain":0.0,"pressure":1003.4,"uv_index":8.1,"wind_gusts":27.7,"aqi":89,"pm10":54.4,"pm2_5":19.1,"mosquito_risk":0,"arthritis_risk":5,"migraine_risk":7,"frizz_risk":0,"updated_at":"2026-04-14T14:52:33.414792+05:30"},{"city":"Rajkot","state":"Gujarat","latitude":22.3039,"longitude":70.8022,"temp":38.4,"humidity":20,"rain":0.0,"pressure":993.9,"uv_index":7.85,"wind_gusts":34.6,"aqi":58,"pm10":127.1,"pm2_5":25.1,"mosquito_risk":0,"arthritis_risk":5,"migraine_risk":10,"frizz_risk":0,"updated_at":"2026-04-14T14:52:33.414799+05:30"},{"city":"Thane","state":"Maharashtra","latitude":19.2183,"longitude":72.9781,"temp":34.6,"humidity":49,"rain":0.0,"pressure":1006.9,"uv_index":8.0,"wind_gusts":36.7,"aqi":136,"pm10":81.3,"pm2_5":46.9,"mosquito_risk":0,"arthritis_risk":5,"migraine_risk":4,"frizz_risk":1,"updated_at":"2026-04-14T14:52:33.414806+05:30"},{"city":"Nagpur","state":"Maharashtra","latitude":21.1458,"longitude":79.0882,"temp":39.1,"humidity":22,"rain":0.0,"pressure":971.6,"uv_index":8.85,"wind_gusts":15.1,"aqi":152,"pm10":59.3,"pm2_5":33.9,"mosquito_risk":0,"arthritis_risk":5,"migraine_risk":10,"frizz_risk":0,"updated_at":"2026-04-14T14:52:33.414813+05:30"},{"city":"Nashik","state":"Maharashtra","latitude":19.9975,"longitude":73.7898,"temp":37.8,"humidity":21,"rain":0.0,"pressure":946.0,"uv_index":8.25,"wind_gusts":32.4,"aqi":83,"pm10":38.0,"pm2_5":14.9,"mosquito_risk":0,"arthritis_risk":5,"migraine_risk":10,"frizz_risk":0,"updated_at":"2026-04-14T14:52:33.414820+05:30"},{"city":"Aurangabad","state":"Maharashtra","latitude":19.8762,"longitude":75.3433,"temp":40.1,"humidity":12,"rain":0.0,"pressure":943.9,"uv_index":8.95,"wind_gusts":32.4,"aqi":123,"pm10":21.6,"pm2_5":12.4,"mosquito_risk":0,"arthritis_risk":5,"migraine_risk":10,"frizz_risk":0,"updated_at":"2026-04-14T14:52:33.414827+05:30"},{"city":"Solapur","state":"Maharashtra","latitude":17.6599,"longitude":75.9064,"temp":41.2,"humidity":18,"rain":0.0,"pressure":955.9,"uv_index":9.05,"wind_gusts":28.4,"aqi":113,"pm10":30.4,"pm2_5":22.3,"mosquito_risk":0,"arthritis_risk":5,"migraine_risk":10,"frizz_risk":0,"updated_at":"2026-04-14T14:52:33.414834+05:30"},{"city":"Kolhapur","state":"Maharashtra","latitude":16.705,"longitude":74.2433,"temp":39.0,"humidity":18,"rain":0.0,"pressure":947.2,"uv_index":9.05,"wind_gusts":46.8,"aqi":80,"pm10":34.3,"pm2_5":23.5,"mosquito_risk":0,"arthritis_risk":5,"migraine_risk":10,"frizz_risk":0,"updated_at":"2026-04-14T14:52:33.414841+05:30"},{"city":"Goa","state":"Goa","latitude":15.2993,"longitude":74.124,"temp":31.9,"humidity":63,"rain":0.0,"pressure":996.7,"uv_index":9.05,"wind_gusts":31.7,"aqi":79,"pm10":44.7,"pm2_5":24.0,"mosquito_risk":3,"arthritis_risk":5,"migraine_risk":7,"frizz_risk":1,"updated_at":"2026-04-14T14:52:33.414847+05:30"},{"city":"Jodhpur","state":"Rajasthan","latitude":26.2389,"longitude":73.0243,"temp":38.4,"humidity":17,"rain":0.0,"pressure":982.1,"uv_index":8.15,"wind_gusts":28.4,"aqi":76,"pm10":97.6,"pm2_5":18.8,"mosquito_risk":0,"arthritis_risk":5,"migraine_risk":10,"frizz_risk":0,"updated_at":"2026-04-14T14:52:33.414854+05:30"},{"city":"Udaipur","state":"Rajasthan","latitude":24.5854,"longitude":73.7125,"temp":36.8,"humidity":18,"rain":0.0,"pressure":947.0,"uv_index":8.7,"wind_gusts":39.2,"aqi":47,"pm10":34.8,"pm2_5":8.7,"mosquito_risk":0,"arthritis_risk":5,"migraine_risk":10,"frizz_risk":0,"updated_at":"2026-04-14T14:52:33.414861+05:30"},{"city":"Kota","state":"Rajasthan","latitude":25.2138,"longitude":75.8648,"temp":40.6,"humidity":14,"rain":0.0,"pressure":977.6,"uv_index":8.2,"wind_gusts":24.5,"aqi":91,"pm10":29.3,"pm2_5":10.4,"mosquito_risk":0,"arthritis_risk":5,"migraine_risk":10,"frizz_risk":0,"updated_at":"2026-04-14T14:52:33.414868+05:30"},{"city":"Bikaner","state":"Rajasthan","latitude":28.0229,"longitude":73.3119,"temp":40.1,"humidity":13,"rain":0.0,"pressure":980.3,"uv_index":8.0,"wind_gusts":21.6,"aqi":54,"pm10":98.7,"pm2_5":20.4,"mosquito_risk":0,"arthritis_risk":5,"migraine_risk":10,"frizz_risk":0,"updated_at":"2026-04-14T14:52:33.414874+05:30"},{"city":"Ajmer","state":"Rajasthan","latitude":26.4499,"longitude":74.6399,"temp":37.7,"humidity":19,"rain":0.0,"pressure":954.5,"uv_index":8.1,"wind_gusts":34.9,"aqi":60,"pm10":32.0,"pm2_5":10.5,"mosquito_risk":0,"arthritis_risk":5,"migraine_risk":10,"frizz_risk":0,"updated_at":"2026-04-14T14:52:33.414880+05:30"},{"city":"Gwalior","state":"Madhya Pradesh","latitude":26.2183,"longitude":78.1828,"temp":39.1,"humidity":18,"rain":0.0,"pressure":982.7,"uv_index":7.95,"wind_gusts":39.6,"aqi":101,"pm10":100.4,"pm2_5":17.3,"mosquito_risk":0,"arthritis_risk":5,"migraine_risk":10,"frizz_risk":0,"updated_at":"2026-04-14T14:52:33.414887+05:30"},{"city":"Indore","state":"Madhya Pradesh","latitude":22.7196,"longitude":75.8577,"temp":37.5,"humidity":20,"rain":0.0,"pressure":948.6,"uv_index":8.55,"wind_gusts":30.2,"aqi":110,"pm10":31.5,"pm2_5":15.7,"mosquito_risk":0,"arthritis_risk":5,"migraine_risk":10,"frizz_risk":0,"updated_at":"2026-04-14T14:52:33.414893+05:30"},{"city":"Bhopal","state":"Madhya Pradesh","latitude":23.2599,"longitude":77.4126,"temp":39.9,"humidity":13,"rain":0.0,"pressure":953.5,"uv_index":8.55,"wind_gusts":29.9,"aqi":102,"pm10":49.4,"pm2_5":15.4,"mosquito_risk":0,"arthritis_risk":5,"migraine_risk":10,"frizz_risk":0,"updated_at":"2026-04-14T14:52:33.414900+05:30"},{"city":"Jabalpur","state":"Madhya Pradesh","latitude":23.1815,"longitude":79.9864,"temp":38.2,"humidity":19,"rain":0.0,"pressure":961.1,"uv_index":8.65,"wind_gusts":16.6,"aqi":101,"pm10":62.4,"pm2_5":15.6,"mosquito_risk":0,"arthritis_risk":5,"migraine_risk":10,"frizz_risk":0,"updated_at":"2026-04-14T14:52:33.414906+05:30"},{"city":"Ujjain","state":"Madhya Pradesh","latitude":23.1765,"longitude":75.7885,"temp":37.7,"humidity":20,"rain":0.0,"pressure":954.3,"uv_index":8.45,"wind_gusts":31.3,"aqi":99,"pm10":28.9,"pm2_5":17.0,"mosquito_risk":0,"arthritis_risk":5,"migraine_risk":10,"frizz_risk":0,"updated_at":"2026-04-14T14:52:33.414913+05:30"},{"city":"Visakhapatnam","state":"Andhra Pradesh","latitude":17.6868,"longitude":83.2185,"temp":33.1,"humidity":58,"rain":0.0,"pressure":1002.4,"uv_index":9.15,"wind_gusts":41.8,"aqi":66,"pm10":31.5,"pm2_5":21.7,"mosquito_risk":0,"arthritis_risk":5,"migraine_risk":4,"frizz_risk":1,"updated_at":"2026-04-14T14:52:33.414920+05:30"},{"city":"Vijayawada","state":"Andhra Pradesh","latitude":16.5062,"longitude":80.648,"temp":37.8,"humidity":38,"rain":0.0,"pressure":1000.6,"uv_index":9.2,"wind_gusts":29.9,"aqi":57,"pm10":25.6,"pm2_5":16.1,"mosquito_risk":0,"arthritis_risk":5,"migraine_risk":7,"frizz_risk":1,"updated_at":"2026-04-14T14:52:33.414926+05:30"},{"city":"Guntur","state":"Andhra Pradesh","latitude":16.3067,"longitude":80.4365,"temp":37.8,"humidity":36,"rain":0.0,"pressure":1002.0,"uv_index":9.25,"wind_gusts":32.8,"aqi":60,"pm10":28.9,"pm2_5":19.3,"mosquito_risk":0,"arthritis_risk":5,"migraine_risk":7,"frizz_risk":1,"updated_at":"2026-04-14T14:52:33.414933+05:30"},{"city":"Nellore","state":"Andhra Pradesh","latitude":14.4426,"longitude":79.9865,"temp":38.1,"humidity":39,"rain":0.0,"pressure":1004.2,"uv_index":9.3,"wind_gusts":32.8,"aqi":53,"pm10":25.9,"pm2_5":18.7,"mosquito_risk":0,"arthritis_risk":5,"migraine_risk":7,"frizz_risk":1,"updated_at":"2026-04-14T14:52:33.414940+05:30"},{"city":"Kurnool","state":"Andhra Pradesh","latitude":15.8281,"longitude":78.0373,"temp":41.6,"humidity":21,"rain":0.0,"pressure":974.5,"uv_index":9.25,"wind_gusts":19.8,"aqi":89,"pm10":41.7,"pm2_5":29.8,"mosquito_risk":0,"arthritis_risk":5,"migraine_risk":10,"frizz_risk":0,"updated_at":"2026-04-14T14:52:33.414947+05:30"},{"city":"Kakinada","state":"Andhra Pradesh","latitude":16.9891,"longitude":82.2475,"temp":36.7,"humidity":46,"rain":0.0,"pressure":1005.7,"uv_index":9.2,"wind_gusts":31.7,"aqi":55,"pm10":26.0,"pm2_5":14.7,"mosquito_risk":0,"arthritis_risk":5,"migraine_risk":7,"frizz_risk":1,"updated_at":"2026-04-14T14:52:33.414954+05:30"},{"city":"Tirupati","state":"Andhra Pradesh","latitude":13.6288,"longitude":79.4192,"temp":38.7,"humidity":21,"rain":0.0,"pressure":990.3,"uv_index":9.4,"wind_gusts":33.5,"aqi":65,"pm10":25.3,"pm2_5":17.7,"mosquito_risk":0,"arthritis_risk":5,"migraine_risk":10,"frizz_risk":0,"updated_at":"2026-04-14T14:52:33.414960+05:30"},{"city":"Warangal","state":"Telangana","latitude":17.9689,"longitude":79.5941,"temp":39.8,"humidity":33,"rain":0.0,"pressure":976.3,"uv_index":9.15,"wind_gusts":24.5,"aqi":82,"pm10":40.0,"pm2_5":28.7,"mosquito_risk":0,"arthritis_risk":5,"migraine_risk":10,"frizz_risk":1,"updated_at":"2026-04-14T14:52:33.414967+05:30"},{"city":"Nizamabad","state":"Telangana","latitude":18.6725,"longitude":78.0941,"temp":40.7,"humidity":19,"rain":0.0,"pressure":963.4,"uv_index":9.1,"wind_gusts":27.0,"aqi":115,"pm10":25.9,"pm2_5":18.0,"mosquito_risk":0,"arthritis_risk":5,"migraine_risk":10,"frizz_risk":0,"updated_at":"2026-04-14T14:52:33.414973+05:30"},{"city":"Mysore","state":"Karnataka","latitude":12.2958,"longitude":76.6396,"temp":37.4,"humidity":21,"rain":0.0,"pressure":928.0,"uv_index":9.5,"wind_gusts":40.0,"aqi":101,"pm10":27.8,"pm2_5":19.9,"mosquito_risk":0,"arthritis_risk":5,"migraine_risk":10,"frizz_risk":0,"updated_at":"2026-04-14T14:52:33.414980+05:30"},{"city":"Mangalore","state":"Karnataka","latitude":12.9141,"longitude":74.856,"temp":29.4,"humidity":83,"rain":0.0,"pressure":1005.0,"uv_index":9.15,"wind_gusts":24.1,"aqi":90,"pm10":40.5,"pm2_5":24.8,"mosquito_risk":7,"arthritis_risk":5,"migraine_risk":4,"frizz_risk":1,"updated_at":"2026-04-14T14:52:33.414987+05:30"},{"city":"Hubli-Dharwad","state":"Karnataka","latitude":15.3647,"longitude":75.124,"temp":38.5,"humidity":24,"rain":0.0,"pressure":939.7,"uv_index":9.25,"wind_gusts":46.1,"aqi":75,"pm10":37.8,"pm2_5":26.4,"mosquito_risk":0,"arthritis_risk":5,"migraine_risk":10,"frizz_risk":0,"updated_at":"2026-04-14T14:52:33.414993+05:30"},{"city":"Belgaum","state":"Karnataka","latitude":15.8497,"longitude":74.4977,"temp":36.8,"humidity":26,"rain":0.0,"pressure":925.5,"uv_index":9.3,"wind_gusts":41.8,"aqi":68,"pm10":25.6,"pm2_5":16.5,"mosquito_risk":0,"arthritis_risk":5,"migraine_risk":10,"frizz_risk":0,"updated_at":"2026-04-14T14:52:36.642538+05:30"},{"city":"Coimbatore","state":"Tamil Nadu","latitude":11.0168,"longitude":76.9558,"temp":38.3,"humidity":24,"rain":0.0,"pressure":960.7,"uv_index":8.95,"wind_gusts":40.0,"aqi":93,"pm10":22.9,"pm2_5":15.1,"mosquito_risk":0,"arthritis_risk":5,"migraine_risk":10,"frizz_risk":0,"updated_at":"2026-04-14T14:52:36.642581+05:30"},{"city":"Madurai","state":"Tamil Nadu","latitude":9.9252,"longitude":78.1198,"temp":38.6,"humidity":28,"rain":0.0,"pressure":991.3,"uv_index":9.35,"wind_gusts":40.7,"aqi":69,"pm10":20.0,"pm2_5":13.2,"mosquito_risk":0,"arthritis_risk":5,"migraine_risk":10,"frizz_risk":1,"updated_at":"2026-04-14T14:52:36.642599+05:30"},{"city":"Trichy","state":"Tamil Nadu","latitude":10.7905,"longitude":78.7047,"temp":38.4,"humidity":29,"rain":0.0,"pressure":998.0,"uv_index":9.4,"wind_gusts":23.4,"aqi":61,"pm10":14.6,"pm2_5":10.9,"mosquito_risk":0,"arthritis_risk":5,"migraine_risk":10,"frizz_risk":1,"updated_at":"2026-04-14T14:52:36.642614+05:30"},{"city":"Salem","state":"Tamil Nadu","latitude":11.6643,"longitude":78.146,"temp":38.2,"humidity":36,"rain":0.0,"pressure":975.8,"uv_index":9.45,"wind_gusts":18.4,"aqi":74,"pm10":28.7,"pm2_5":17.5,"mosquito_risk":0,"arthritis_risk":5,"migraine_risk":10,"frizz_risk":1,"updated_at":"2026-04-14T14:52:36.642628+05:30"},{"city":"Tirunelveli","state":"Tamil Nadu","latitude":8.7139,"longitude":77.7567,"temp":36.5,"humidity":40,"rain":0.0,"pressure":1001.7,"uv_index":9.3,"wind_gusts":41.8,"aqi":77,"pm10":25.6,"pm2_5":18.3,"mosquito_risk":0,"arthritis_risk":5,"migraine_risk":7,"frizz_risk":1,"updated_at":"2026-04-14T14:52:36.642645+05:30"},{"city":"Vellore","state":"Tamil Nadu","latitude":12.9165,"longitude":79.1325,"temp":37.9,"humidity":24,"rain":0.0,"pressure":983.5,"uv_index":9.45,"wind_gusts":31.0,"aqi":82,"pm10":27.0,"pm2_5":19.8,"mosquito_risk":0,"arthritis_risk":5,"migraine_risk":10,"frizz_risk":0,"updated_at":"2026-04-14T14:52:36.642660+05:30"},{"city":"Erode","state":"Tamil Nadu","latitude":11.341,"longitude":77.7172,"temp":39.7,"humidity":28,"rain":0.0,"pressure":987.1,"uv_index":9.3,"wind_gusts":26.6,"aqi":60,"pm10":23.1,"pm2_5":12.9,"mosquito_risk":0,"arthritis_risk":5,"migraine_risk":10,"frizz_risk":1,"updated_at":"2026-04-14T14:52:36.642669+05:30"},{"city":"Kochi","state":"Kerala","latitude":9.9312,"longitude":76.2673,"temp":29.6,"humidity":82,"rain":0.0,"pressure":1007.1,"uv_index":8.8,"wind_gusts":28.8,"aqi":94,"pm10":34.3,"pm2_5":23.8,"mosquito_risk":7,"arthritis_risk":5,"migraine_risk":4,"frizz_risk":1,"updated_at":"2026-04-14T14:52:36.642679+05:30"},{"city":"Thiruvananthapuram","state":"Kerala","latitude":8.5241,"longitude":76.9366,"temp":29.6,"humidity":80,"rain":0.0,"pressure":1006.6,"uv_index":9.1,"wind_gusts":25.2,"aqi":78,"pm10":33.1,"pm2_5":19.7,"mosquito_risk":7,"arthritis_risk":5,"migraine_risk":4,"frizz_risk":1,"updated_at":"2026-04-14T14:52:36.642691+05:30"},{"city":"Kozhikode","state":"Kerala","latitude":11.2588,"longitude":75.7804,"temp":31.4,"humidity":75,"rain":0.0,"pressure":1006.2,"uv_index":9.15,"wind_gusts":27.7,"aqi":89,"pm10":50.1,"pm2_5":33.2,"mosquito_risk":3,"arthritis_risk":5,"migraine_risk":4,"frizz_risk":1,"updated_at":"2026-04-14T14:52:36.642703+05:30"},{"city":"Thrissur","state":"Kerala","latitude":10.5276,"longitude":76.2144,"temp":34.3,"humidity":59,"rain":0.0,"pressure":1005.5,"uv_index":8.7,"wind_gusts":38.5,"aqi":92,"pm10":36.2,"pm2_5":24.2,"mosquito_risk":0,"arthritis_risk":5,"migraine_risk":4,"frizz_risk":1,"updated_at":"2026-04-14T14:52:36.642712+05:30"},{"city":"Kannur","state":"Kerala","latitude":11.8745,"longitude":75.3704,"temp":32.3,"humidity":69,"rain":0.0,"pressure":1005.6,"uv_index":9.15,"wind_gusts":30.6,"aqi":95,"pm10":45.8,"pm2_5":32.5,"mosquito_risk":3,"arthritis_risk":5,"migraine_risk":4,"frizz_risk":1,"updated_at":"2026-04-14T14:52:36.642720+05:30"},{"city":"Patna","state":"Bihar","latitude":25.5941,"longitude":85.1376,"temp":36.6,"humidity":19,"rain":0.0,"pressure":998.6,"uv_index":8.55,"wind_gusts":29.2,"aqi":145,"pm10":186.3,"pm2_5":32.8,"mosquito_risk":0,"arthritis_risk":5,"migraine_risk":10,"frizz_risk":0,"updated_at":"2026-04-14T14:52:36.642728+05:30"},{"city":"Gaya","state":"Bihar","latitude":24.7914,"longitude":85.0002,"temp":36.3,"humidity":24,"rain":0.0,"pressure":992.3,"uv_index":8.6,"wind_gusts":23.4,"aqi":116,"pm10":208.6,"pm2_5":32.0,"mosquito_risk":0,"arthritis_risk":5,"migraine_risk":10,"frizz_risk":0,"updated_at":"2026-04-14T14:52:36.642736+05:30"},{"city":"Muzaffarpur","state":"Bihar","latitude":26.1209,"longitude":85.3647,"temp":35.4,"humidity":29,"rain":0.0,"pressure":998.6,"uv_index":8.5,"wind_gusts":18.7,"aqi":157,"pm10":142.0,"pm2_5":31.2,"mosquito_risk":0,"arthritis_risk":5,"migraine_risk":10,"frizz_risk":0,"updated_at":"2026-04-14T14:52:36.642743+05:30"},{"city":"Bhagalpur","state":"Bihar","latitude":25.2425,"longitude":87.0117,"temp":34.3,"humidity":31,"rain":0.0,"pressure":999.4,"uv_index":8.55,"wind_gusts":20.5,"aqi":148,"pm10":59.5,"pm2_5":22.4,"mosquito_risk":0,"arthritis_risk":5,"migraine_risk":7,"frizz_risk":0,"updated_at":"2026-04-14T14:52:36.642751+05:30"},{"city":"Ranchi","state":"Jharkhand","latitude":23.3441,"longitude":85.3096,"temp":35.0,"humidity":16,"rain":0.0,"pressure":937.8,"uv_index":9.1,"wind_gusts":36.0,"aqi":132,"pm10":93.6,"pm2_5":18.1,"mosquito_risk":0,"arthritis_risk":5,"migraine_risk":7,"frizz_risk":0,"updated_at":"2026-04-14T14:52:36.642759+05:30"},{"city":"Jamshedpur","state":"Jharkhand","latitude":22.8046,"longitude":86.2029,"temp":36.8,"humidity":26,"rain":0.0,"pressure":989.3,"uv_index":8.95,"wind_gusts":15.8,"aqi":150,"pm10":70.8,"pm2_5":21.2,"mosquito_risk":0,"arthritis_risk":5,"migraine_risk":10,"frizz_risk":0,"updated_at":"2026-04-14T14:52:36.642766+05:30"},{"city":"Dhanbad","state":"Jharkhand","latitude":23.7957,"longitude":86.4304,"temp":37.6,"humidity":18,"rain":0.0,"pressure":978.4,"uv_index":8.9,"wind_gusts":25.6,"aqi":126,"pm10":122.5,"pm2_5":28.1,"mosquito_risk":0,"arthritis_risk":5,"migraine_risk":10,"frizz_risk":0,"updated_at":"2026-04-14T14:52:36.642774+05:30"},{"city":"Bokaro","state":"Jharkhand","latitude":23.6693,"longitude":86.1511,"temp":38.1,"humidity":15,"rain":0.0,"pressure":982.2,"uv_index":8.9,"wind_gusts":32.8,"aqi":125,"pm10":136.0,"pm2_5":30.4,"mosquito_risk":0,"arthritis_risk":5,"migraine_risk":10,"frizz_risk":0,"updated_at":"2026-04-14T14:52:36.642782+05:30"},{"city":"Bhubaneswar","state":"Odisha","latitude":20.2961,"longitude":85.8245,"temp":33.8,"humidity":64,"rain":0.0,"pressure":1000.7,"uv_index":9.05,"wind_gusts":25.9,"aqi":72,"pm10":48.9,"pm2_5":35.5,"mosquito_risk":3,"arthritis_risk":5,"migraine_risk":4,"frizz_risk":1,"updated_at":"2026-04-14T14:52:36.642790+05:30"},{"city":"Cuttack","state":"Odisha","latitude":20.4625,"longitude":85.8828,"temp":34.7,"humidity":60,"rain":0.0,"pressure":1002.5,"uv_index":9.1,"wind_gusts":28.1,"aqi":72,"pm10":48.9,"pm2_5":35.5,"mosquito_risk":0,"arthritis_risk":5,"migraine_risk":4,"frizz_risk":1,"updated_at":"2026-04-14T14:52:36.642798+05:30"},{"city":"Rourkela","state":"Odisha","latitude":22.2604,"longitude":84.8536,"temp":39.2,"humidity":16,"rain":0.0,"pressure":983.3,"uv_index":8.85,"wind_gusts":21.2,"aqi":127,"pm10":84.5,"pm2_5":20.2,"mosquito_risk":0,"arthritis_risk":5,"migraine_risk":10,"frizz_risk":0,"updated_at":"2026-04-14T14:52:36.642806+05:30"},{"city":"Raipur","state":"Chhattisgarh","latitude":21.2514,"longitude":81.6296,"temp":40.7,"humidity":19,"rain":0.0,"pressure":972.7,"uv_index":8.9,"wind_gusts":17.6,"aqi":147,"pm10":96.9,"pm2_5":41.4,"mosquito_risk":0,"arthritis_risk":5,"migraine_risk":10,"frizz_risk":0,"updated_at":"2026-04-14T14:52:36.642814+05:30"},{"city":"Bhilai","state":"Chhattisgarh","latitude":21.1938,"longitude":81.3509,"temp":40.4,"humidity":21,"rain":0.0,"pressure":973.0,"uv_index":8.9,"wind_gusts":14.0,"aqi":122,"pm10":65.9,"pm2_5":39.6,"mosquito_risk":0,"arthritis_risk":5,"migraine_risk":10,"frizz_risk":0,"updated_at":"2026-04-14T14:52:36.642821+05:30"},{"city":"Guwahati","state":"Assam","latitude":26.1158,"longitude":91.7086,"temp":30.3,"humidity":59,"rain":0.0,"pressure":999.8,"uv_index":8.5,"wind_gusts":30.6,"aqi":126,"pm10":65.0,"pm2_5":39.3,"mosquito_risk":0,"arthritis_risk":5,"migraine_risk":7,"frizz_risk":1,"updated_at":"2026-04-14T14:52:36.642829+05:30"},{"city":"Agartala","state":"Tripura","latitude":23.8315,"longitude":91.2868,"temp":32.1,"humidity":60,"rain":0.0,"pressure":1004.6,"uv_index":8.65,"wind_gusts":27.7,"aqi":97,"pm10":61.0,"pm2_5":46.8,"mosquito_risk":0,"arthritis_risk":5,"migraine_risk":4,"frizz_risk":1,"updated_at":"2026-04-14T14:52:36.642837+05:30"},{"city":"Shillong","state":"Meghalaya","latitude":25.5788,"longitude":91.8933,"temp":20.2,"humidity":57,"rain":0.0,"pressure":856.8,"uv_index":8.9,"wind_gusts":53.3,"aqi":102,"pm10":48.2,"pm2_5":27.2,"mosquito_risk":0,"arthritis_risk":5,"migraine_risk":7,"frizz_risk":0,"updated_at":"2026-04-14T14:52:36.642845+05:30"},{"city":"Imphal","state":"Manipur","latitude":24.817,"longitude":93.9368,"temp":23.6,"humidity":68,"rain":0.0,"pressure":923.0,"uv_index":8.8,"wind_gusts":68.4,"aqi":127,"pm10":59.5,"pm2_5":34.0,"mosquito_risk":3,"arthritis_risk":5,"migraine_risk":7,"frizz_risk":1,"updated_at":"2026-04-14T14:52:36.642853+05:30"},{"city":"Aizawl","state":"Mizoram","latitude":23.7271,"longitude":92.7176,"temp":26.4,"humidity":55,"rain":0.0,"pressure":893.7,"uv_index":8.95,"wind_gusts":47.9,"aqi":101,"pm10":64.0,"pm2_5":39.6,"mosquito_risk":4,"arthritis_risk":5,"migraine_risk":7,"frizz_risk":1,"updated_at":"2026-04-14T14:52:36.642861+05:30"},{"city":"Kohima","state":"Nagaland","latitude":25.6701,"longitude":94.1077,"temp":20.7,"humidity":61,"rain":0.0,"pressure":855.3,"uv_index":8.2,"wind_gusts":70.6,"aqi":118,"pm10":65.9,"pm2_5":38.1,"mosquito_risk":3,"arthritis_risk":5,"migraine_risk":7,"frizz_risk":0,"updated_at":"2026-04-14T14:52:36.642869+05:30"},{"city":"Gangtok","state":"Sikkim","latitude":27.3314,"longitude":88.6138,"temp":15.6,"humidity":93,"rain":0.1,"pressure":836.5,"uv_index":8.65,"wind_gusts":16.2,"aqi":125,"pm10":63.1,"pm2_5":34.1,"mosquito_risk":6,"arthritis_risk":10,"migraine_risk":7,"frizz_risk":0,"updated_at":"2026-04-14T14:52:36.642877+05:30"},{"city":"Siliguri","state":"West Bengal","latitude":26.7271,"longitude":88.3953,"temp":25.8,"humidity":64,"rain":0.0,"pressure":993.0,"uv_index":8.45,"wind_gusts":36.7,"aqi":154,"pm10":82.2,"pm2_5":44.9,"mosquito_risk":7,"arthritis_risk":5,"migraine_risk":7,"frizz_risk":1,"updated_at":"2026-04-14T14:52:39.869690+05:30"},{"city":"Durgapur","state":"West Bengal","latitude":23.5204,"longitude":87.3119,"temp":37.5,"humidity":21,"rain":0.0,"pressure":993.2,"uv_index":8.8,"wind_gusts":20.2,"aqi":158,"pm10":76.6,"pm2_5":21.7,"mosquito_risk":0,"arthritis_risk":5,"migraine_risk":10,"frizz_risk":0,"updated_at":"2026-04-14T14:52:39.869724+05:30"},{"city":"Asansol","state":"West Bengal","latitude":23.6739,"longitude":86.9524,"temp":37.3,"humidity":20,"rain":0.0,"pressure":991.8,"uv_index":8.85,"wind_gusts":21.6,"aqi":120,"pm10":98.7,"pm2_5":22.7,"mosquito_risk":0,"arthritis_risk":5,"migraine_risk":10,"frizz_risk":0,"updated_at":"2026-04-14T14:52:39.869737+05:30"},{"city":"Pondicherry","state":"Puducherry","latitude":11.9139,"longitude":79.8145,"temp":36.6,"humidity":46,"rain":0.0,"pressure":1006.9,"uv_index":9.3,"wind_gusts":27.0,"aqi":40,"pm10":14.8,"pm2_5":10.7,"mosquito_risk":0,"arthritis_risk":5,"migraine_risk":7,"frizz_risk":1,"updated_at":"2026-04-14T14:52:39.869746+05:30"},{"city":"Port Blair","state":"Andaman and Nicobar Islands","latitude":11.6234,"longitude":92.7265,"temp":29.5,"humidity":72,"rain":0.0,"pressure":1006.3,"uv_index":8.5,"wind_gusts":25.2,"aqi":61,"pm10":27.6,"pm2_5":18.1,"mosquito_risk":7,"arthritis_risk":5,"migraine_risk":4,"frizz_risk":1,"updated_at":"2026-04-14T14:52:39.869755+05:30"},{"city":"Haridwar","state":"Uttarakhand","latitude":29.9457,"longitude":78.1642,"temp":34.9,"humidity":19,"rain":0.0,"pressure":974.0,"uv_index":7.0,"wind_gusts":35.6,"aqi":92,"pm10":19.3,"pm2_5":9.6,"mosquito_risk":0,"arthritis_risk":5,"migraine_risk":7,"frizz_risk":0,"updated_at":"2026-04-14T14:52:39.869764+05:30"},{"city":"Rishikesh","state":"Uttarakhand","latitude":30.0869,"longitude":78.2676,"temp":33.7,"humidity":20,"rain":0.0,"pressure":967.0,"uv_index":7.1,"wind_gusts":37.4,"aqi":87,"pm10":14.7,"pm2_5":6.9,"mosquito_risk":0,"arthritis_risk":5,"migraine_risk":7,"frizz_risk":0,"updated_at":"2026-04-14T14:52:39.869772+05:30"},{"city":"Nainital","state":"Uttarakhand","latitude":29.3919,"longitude":79.4542,"temp":26.7,"humidity":22,"rain":0.0,"pressure":809.6,"uv_index":7.95,"wind_gusts":59.4,"aqi":124,"pm10":19.3,"pm2_5":10.3,"mosquito_risk":4,"arthritis_risk":5,"migraine_risk":7,"frizz_risk":0,"updated_at":"2026-04-14T14:52:39.869780+05:30"},{"city":"Mussoorie","state":"Uttarakhand","latitude":30.4599,"longitude":78.0664,"temp":24.1,"humidity":30,"rain":0.0,"pressure":806.0,"uv_index":7.5,"wind_gusts":43.6,"aqi":89,"pm10":16.6,"pm2_5":10.3,"mosquito_risk":0,"arthritis_risk":5,"migraine_risk":7,"frizz_risk":0,"updated_at":"2026-04-14T14:52:39.869789+05:30"},{"city":"Dharamshala","state":"Himachal Pradesh","latitude":32.219,"longitude":76.3234,"temp":26.1,"humidity":36,"rain":0.0,"pressure":871.5,"uv_index":7.75,"wind_gusts":25.6,"aqi":105,"pm10":16.1,"pm2_5":6.1,"mosquito_risk":4,"arthritis_risk":5,"migraine_risk":7,"frizz_risk":0,"updated_at":"2026-04-14T14:52:39.869797+05:30"},{"city":"Dalhousie","state":"Himachal Pradesh","latitude":32.5387,"longitude":75.971,"temp":24.7,"humidity":31,"rain":0.0,"pressure":807.4,"uv_index":8.0,"wind_gusts":22.3,"aqi":86,"pm10":16.8,"pm2_5":9.1,"mosquito_risk":0,"arthritis_risk":5,"migraine_risk":7,"frizz_risk":0,"updated_at":"2026-04-14T14:52:39.869806+05:30"},{"city":"Patiala","state":"Punjab","latitude":30.3398,"longitude":76.3869,"temp":36.0,"humidity":18,"rain":0.0,"pressure":978.4,"uv_index":7.1,"wind_gusts":33.5,"aqi":265,"pm10":508.5,"pm2_5":46.0,"mosquito_risk":0,"arthritis_risk":5,"migraine_risk":10,"frizz_risk":0,"updated_at":"2026-04-14T14:52:39.869814+05:30"},{"city":"Bhatinda","state":"Punjab","latitude":30.211,"longitude":74.9455,"temp":37.0,"humidity":19,"rain":0.0,"pressure":983.7,"uv_index":7.75,"wind_gusts":28.8,"aqi":103,"pm10":27.0,"pm2_5":8.6,"mosquito_risk":0,"arthritis_risk":5,"migraine_risk":10,"frizz_risk":0,"updated_at":"2026-04-14T14:52:39.869822+05:30"},{"city":"Rohtak","state":"Haryana","latitude":28.8955,"longitude":76.6066,"temp":37.7,"humidity":16,"rain":0.0,"pressure":981.6,"uv_index":7.3,"wind_gusts":25.9,"aqi":309,"pm10":242.1,"pm2_5":31.2,"mosquito_risk":0,"arthritis_risk":5,"migraine_risk":10,"frizz_risk":0,"updated_at":"2026-04-14T14:52:39.869830+05:30"},{"city":"Panipat","state":"Haryana","latitude":29.3909,"longitude":76.9635,"temp":37.0,"humidity":18,"rain":0.0,"pressure":980.3,"uv_index":7.1,"wind_gusts":32.0,"aqi":640,"pm10":702.2,"pm2_5":63.8,"mosquito_risk":0,"arthritis_risk":5,"migraine_risk":10,"frizz_risk":0,"updated_at":"2026-04-14T14:52:39.869838+05:30"},{"city":"Mathura","state":"Uttar Pradesh","latitude":27.4924,"longitude":77.6737,"temp":37.8,"humidity":21,"rain":0.0,"pressure":986.5,"uv_index":7.6,"wind_gusts":22.7,"aqi":551,"pm10":350.2,"pm2_5":45.5,"mosquito_risk":0,"arthritis_risk":5,"migraine_risk":10,"frizz_risk":0,"updated_at":"2026-04-14T14:52:39.869845+05:30"},{"city":"Vrindavan","state":"Uttar Pradesh","latitude":27.5823,"longitude":77.7027,"temp":36.9,"humidity":21,"rain":0.0,"pressure":987.0,"uv_index":7.55,"wind_gusts":20.5,"aqi":551,"pm10":350.2,"pm2_5":45.5,"mosquito_risk":0,"arthritis_risk":5,"migraine_risk":10,"frizz_risk":0,"updated_at":"2026-04-14T14:52:39.869853+05:30"},{"city":"Ayodhya","state":"Uttar Pradesh","latitude":26.7922,"longitude":82.1998,"temp":39.3,"humidity":11,"rain":0.0,"pressure":993.6,"uv_index":7.95,"wind_gusts":38.9,"aqi":104,"pm10":54.1,"pm2_5":14.8,"mosquito_risk":0,"arthritis_risk":5,"migraine_risk":10,"frizz_risk":0,"updated_at":"2026-04-14T14:52:39.869860+05:30"},{"city":"Ratlam","state":"Madhya Pradesh","latitude":23.3315,"longitude":75.0367,"temp":35.9,"humidity":28,"rain":0.0,"pressure":955.2,"uv_index":8.4,"wind_gusts":30.6,"aqi":87,"pm10":36.7,"pm2_5":14.9,"mosquito_risk":0,"arthritis_risk":5,"migraine_risk":10,"frizz_risk":0,"updated_at":"2026-04-14T14:52:39.869869+05:30"},{"city":"Sagar","state":"Madhya Pradesh","latitude":23.8388,"longitude":78.7378,"temp":39.4,"humidity":14,"rain":0.0,"pressure":950.2,"uv_index":8.55,"wind_gusts":27.7,"aqi":116,"pm10":66.1,"pm2_5":13.1,"mosquito_risk":0,"arthritis_risk":5,"migraine_risk":10,"frizz_risk":0,"updated_at":"2026-04-14T14:52:39.869876+05:30"},{"city":"Satna","state":"Madhya Pradesh","latitude":24.6005,"longitude":80.8322,"temp":39.3,"humidity":14,"rain":0.0,"pressure":970.9,"uv_index":8.6,"wind_gusts":27.7,"aqi":116,"pm10":72.2,"pm2_5":12.9,"mosquito_risk":0,"arthritis_risk":5,"migraine_risk":10,"frizz_risk":0,"updated_at":"2026-04-14T14:52:39.869884+05:30"},{"city":"Akola","state":"Maharashtra","latitude":20.7002,"longitude":77.0082,"temp":41.6,"humidity":14,"rain":0.0,"pressure":973.8,"uv_index":8.8,"wind_gusts":27.0,"aqi":112,"pm10":51.6,"pm2_5":19.7,"mosquito_risk":0,"arthritis_risk":5,"migraine_risk":10,"frizz_risk":0,"updated_at":"2026-04-14T14:52:39.869893+05:30"},{"city":"Amravati","state":"Maharashtra","latitude":20.9374,"longitude":77.7796,"temp":40.7,"humidity":17,"rain":0.0,"pressure":966.1,"uv_index":8.8,"wind_gusts":22.0,"aqi":106,"pm10":60.1,"pm2_5":20.8,"mosquito_risk":0,"arthritis_risk":5,"migraine_risk":10,"frizz_risk":0,"updated_at":"2026-04-14T14:52:39.869901+05:30"},{"city":"Latur","state":"Maharashtra","latitude":18.4088,"longitude":76.5604,"temp":37.9,"humidity":22,"rain":0.0,"pressure":939.6,"uv_index":9.05,"wind_gusts":30.2,"aqi":108,"pm10":20.3,"pm2_5":14.3,"mosquito_risk":0,"arthritis_risk":5,"migraine_risk":10,"frizz_risk":0,"updated_at":"2026-04-14T14:52:39.869910+05:30"},{"city":"Nanded","state":"Maharashtra","latitude":19.1383,"longitude":77.3091,"temp":40.1,"humidity":21,"rain":0.0,"pressure":967.4,"uv_index":8.95,"wind_gusts":19.8,"aqi":97,"pm10":22.3,"pm2_5":12.6,"mosquito_risk":0,"arthritis_risk":5,"migraine_risk":10,"frizz_risk":0,"updated_at":"2026-04-14T14:52:39.869917+05:30"},{"city":"Gulbarga","state":"Karnataka","latitude":17.3297,"longitude":76.8343,"temp":41.9,"humidity":17,"rain":0.0,"pressure":957.0,"uv_index":9.1,"wind_gusts":21.6,"aqi":103,"pm10":41.3,"pm2_5":30.9,"mosquito_risk":0,"arthritis_risk":5,"migraine_risk":10,"frizz_risk":0,"updated_at":"2026-04-14T14:52:39.869924+05:30"},{"city":"Bidar","state":"Karnataka","latitude":17.9104,"longitude":77.5199,"temp":39.8,"humidity":18,"rain":0.0,"pressure":934.9,"uv_index":9.1,"wind_gusts":24.1,"aqi":123,"pm10":39.5,"pm2_5":29.6,"mosquito_risk":0,"arthritis_risk":5,"migraine_risk":10,"frizz_risk":0,"updated_at":"2026-04-14T14:52:39.869932+05:30"},{"city":"Hospet","state":"Karnataka","latitude":15.2689,"longitude":76.3909,"temp":37.3,"humidity":33,"rain":0.0,"pressure":954.8,"uv_index":9.25,"wind_gusts":29.9,"aqi":94,"pm10":47.4,"pm2_5":34.9,"mosquito_risk":0,"arthritis_risk":5,"migraine_risk":10,"frizz_risk":1,"updated_at":"2026-04-14T14:52:39.869940+05:30"},{"city":"Tirupur","state":"Tamil Nadu","latitude":11.1085,"longitude":77.3411,"temp":39.2,"humidity":26,"rain":0.0,"pressure":973.7,"uv_index":9.35,"wind_gusts":29.2,"aqi":73,"pm10":22.1,"pm2_5":13.3,"mosquito_risk":0,"arthritis_risk":5,"migraine_risk":10,"frizz_risk":1,"updated_at":"2026-04-14T14:52:39.869947+05:30"},{"city":"Alappuzha","state":"Kerala","latitude":9.4981,"longitude":76.3388,"temp":29.6,"humidity":82,"rain":0.0,"pressure":1007.2,"uv_index":8.9,"wind_gusts":25.9,"aqi":93,"pm10":35.4,"pm2_5":22.9,"mosquito_risk":7,"arthritis_risk":5,"migraine_risk":4,"frizz_risk":1,"updated_at":"2026-04-14T14:52:39.869956+05:30"},{"city":"Munnar","state":"Kerala","latitude":10.0889,"longitude":77.0595,"temp":32.0,"humidity":39,"rain":0.0,"pressure":859.3,"uv_index":9.75,"wind_gusts":29.5,"aqi":80,"pm10":23.9,"pm2_5":14.7,"mosquito_risk":0,"arthritis_risk":5,"migraine_risk":7,"frizz_risk":1,"updated_at":"2026-04-14T14:52:39.869964+05:30"},{"city":"Silchar","state":"Assam","latitude":24.8333,"longitude":92.7789,"temp":29.8,"humidity":67,"rain":0.0,"pressure":1004.1,"uv_index":8.7,"wind_gusts":32.4,"aqi":146,"pm10":63.3,"pm2_5":41.6,"mosquito_risk":7,"arthritis_risk":5,"migraine_risk":4,"frizz_risk":1,"updated_at":"2026-04-14T14:52:39.869972+05:30"},{"city":"Dibrugarh","state":"Assam","latitude":27.4728,"longitude":94.912,"temp":26.8,"humidity":66,"rain":0.0,"pressure":994.8,"uv_index":8.55,"wind_gusts":20.5,"aqi":95,"pm10":61.0,"pm2_5":27.2,"mosquito_risk":7,"arthritis_risk":5,"migraine_risk":7,"frizz_risk":1,"updated_at":"2026-04-14T14:52:39.869980+05:30"}]