[{"city":"Delhi","state":"Delhi","latitude":28.6139,"longitude":77.209,"temp":26.4,"humidity":71,"rain":0.0,"pressure":979.8,"uv_index":7.7,"wind_gusts":52.9,"aqi":645,"pm10":378.1,"pm2_5":116.9,"no2":25.1,"co":379.0,"o3":92.0,"so2":25.8,"mosquito_risk":7,"arthritis_risk":5,"migraine_risk":7,"frizz_risk":1,"updated_at":"2026-05-29T03:27:13.121691+05:30"},{"city":"Mumbai","state":"Maharashtra","latitude":19.076,"longitude":72.8777,"temp":29.9,"humidity":74,"rain":0.0,"pressure":1008.4,"uv_index":7.8,"wind_gusts":41.8,"aqi":61,"pm10":48.9,"pm2_5":20.4,"no2":4.3,"co":127.0,"o3":51.0,"so2":4.2,"mosquito_risk":7,"arthritis_risk":0,"migraine_risk":4,"frizz_risk":1,"updated_at":"2026-05-29T03:27:13.121741+05:30"},{"city":"Bangalore","state":"Karnataka","latitude":12.9716,"longitude":77.5946,"temp":21.5,"humidity":98,"rain":0.0,"pressure":911.5,"uv_index":7.8,"wind_gusts":39.6,"aqi":60,"pm10":11.1,"pm2_5":10.3,"no2":12.5,"co":267.0,"o3":56.0,"so2":5.3,"mosquito_risk":3,"arthritis_risk":5,"migraine_risk":7,"frizz_risk":1,"updated_at":"2026-05-29T03:27:13.121757+05:30"},{"city":"Hyderabad","state":"Telangana","latitude":17.385,"longitude":78.4867,"temp":28.5,"humidity":60,"rain":0.0,"pressure":951.2,"uv_index":9.15,"wind_gusts":41.8,"aqi":84,"pm10":35.6,"pm2_5":27.9,"no2":20.5,"co":417.0,"o3":67.0,"so2":9.0,"mosquito_risk":4,"arthritis_risk":5,"migraine_risk":7,"frizz_risk":1,"updated_at":"2026-05-29T03:27:13.121767+05:30"},{"city":"Chennai","state":"Tamil Nadu","latitude":13.0827,"longitude":80.2707,"temp":30.0,"humidity":74,"rain":0.0,"pressure":1004.5,"uv_index":9.0,"wind_gusts":36.7,"aqi":77,"pm10":31.2,"pm2_5":25.5,"no2":13.3,"co":329.0,"o3":94.0,"so2":9.4,"mosquito_risk":7,"arthritis_risk":5,"migraine_risk":4,"frizz_risk":1,"updated_at":"2026-05-29T03:27:13.121776+05:30"},{"city":"Kolkata","state":"West Bengal","latitude":22.5726,"longitude":88.3639,"temp":27.6,"humidity":92,"rain":0.0,"pressure":1004.4,"uv_index":8.95,"wind_gusts":27.4,"aqi":117,"pm10":54.0,"pm2_5":39.8,"no2":8.7,"co":387.0,"o3":75.0,"so2":5.9,"mosquito_risk":7,"arthritis_risk":5,"migraine_risk":4,"frizz_risk":1,"updated_at":"2026-05-29T03:27:13.121784+05:30"},{"city":"Pune","state":"Maharashtra","latitude":18.5204,"longitude":73.8567,"temp":24.4,"humidity":86,"rain":0.0,"pressure":948.1,"uv_index":8.4,"wind_gusts":47.2,"aqi":45,"pm10":13.3,"pm2_5":9.4,"no2":9.9,"co":135.0,"o3":37.0,"so2":7.7,"mosquito_risk":3,"arthritis_risk":5,"migraine_risk":7,"frizz_risk":1,"updated_at":"2026-05-29T03:27:13.121792+05:30"},{"city":"Ahmedabad","state":"Gujarat","latitude":23.0225,"longitude":72.5714,"temp":30.7,"humidity":64,"rain":0.0,"pressure":999.3,"uv_index":8.15,"wind_gusts":48.6,"aqi":73,"pm10":38.5,"pm2_5":21.4,"no2":4.8,"co":135.0,"o3":45.0,"so2":4.8,"mosquito_risk":3,"arthritis_risk":5,"migraine_risk":7,"frizz_risk":1,"updated_at":"2026-05-29T03:27:13.121799+05:30"},{"city":"Jaipur","state":"Rajasthan","latitude":26.9124,"longitude":75.7873,"temp":31.8,"humidity":41,"rain":0.0,"pressure":954.5,"uv_index":8.2,"wind_gusts":70.9,"aqi":161,"pm10":415.4,"pm2_5":97.6,"no2":5.6,"co":249.0,"o3":100.0,"so2":7.2,"mosquito_risk":0,"arthritis_risk":5,"migraine_risk":7,"frizz_risk":1,"updated_at":"2026-05-29T03:27:13.121810+05:30"},{"city":"Lucknow","state":"Uttar Pradesh","latitude":26.8467,"longitude":80.9462,"temp":30.4,"humidity":58,"rain":0.0,"pressure":991.2,"uv_index":7.1,"wind_gusts":49.7,"aqi":108,"pm10":48.7,"pm2_5":41.9,"no2":8.5,"co":328.0,"o3":125.0,"so2":13.5,"mosquito_risk":0,"arthritis_risk":5,"migraine_risk":7,"frizz_risk":1,"updated_at":"2026-05-29T03:27:13.121817+05:30"},{"city":"Kanpur","state":"Uttar Pradesh","latitude":26.4499,"longitude":80.3319,"temp":31.8,"humidity":53,"rain":0.0,"pressure":987.8,"uv_index":5.7,"wind_gusts":46.8,"aqi":196,"pm10":83.8,"pm2_5":47.5,"no2":9.8,"co":326.0,"o3":113.0,"so2":10.4,"mosquito_risk":0,"arthritis_risk":5,"migraine_risk":3,"frizz_risk":1,"updated_at":"2026-05-29T03:27:13.121824+05:30"},{"city":"Chandigarh","state":"Chandigarh","latitude":30.7333,"longitude":76.7794,"temp":27.6,"humidity":50,"rain":0.0,"pressure":964.4,"uv_index":7.7,"wind_gusts":65.5,"aqi":151,"pm10":96.6,"pm2_5":77.1,"no2":35.4,"co":500.0,"o3":61.0,"so2":11.8,"mosquito_risk":4,"arthritis_risk":5,"migraine_risk":7,"frizz_risk":1,"updated_at":"2026-05-29T03:27:13.121832+05:30"},{"city":"Srinagar","state":"Jammu and Kashmir","latitude":34.0837,"longitude":74.7973,"temp":12.2,"humidity":78,"rain":0.0,"pressure":838.5,"uv_index":8.9,"wind_gusts":31.0,"aqi":74,"pm10":43.3,"pm2_5":38.5,"no2":23.5,"co":358.0,"o3":11.0,"so2":0.7,"mosquito_risk":3,"arthritis_risk":5,"migraine_risk":7,"frizz_risk":0,"updated_at":"2026-05-29T03:27:13.121839+05:30"},{"city":"Jammu","state":"Jammu and Kashmir","latitude":32.7266,"longitude":74.857,"temp":25.5,"humidity":33,"rain":0.0,"pressure":966.6,"uv_index":8.55,"wind_gusts":47.2,"aqi":84,"pm10":33.1,"pm2_5":29.6,"no2":26.4,"co":311.0,"o3":29.0,"so2":2.6,"mosquito_risk":4,"arthritis_risk":5,"migraine_risk":7,"frizz_risk":0,"updated_at":"2026-05-29T03:27:13.121847+05:30"},{"city":"Amritsar","state":"Punjab","latitude":31.634,"longitude":74.8723,"temp":28.9,"humidity":34,"rain":0.0,"pressure":974.5,"uv_index":8.4,"wind_gusts":43.2,"aqi":147,"pm10":506.6,"pm2_5":149.0,"no2":13.1,"co":434.0,"o3":90.0,"so2":9.5,"mosquito_risk":4,"arthritis_risk":5,"migraine_risk":7,"frizz_risk":0,"updated_at":"2026-05-29T03:27:13.121854+05:30"},{"city":"Ludhiana","state":"Punjab","latitude":30.901,"longitude":75.8573,"temp":27.3,"humidity":57,"rain":0.0,"pressure":973.8,"uv_index":7.95,"wind_gusts":56.2,"aqi":350,"pm10":408.9,"pm2_5":111.3,"no2":9.1,"co":407.0,"o3":109.0,"so2":13.7,"mosquito_risk":4,"arthritis_risk":5,"migraine_risk":7,"frizz_risk":1,"updated_at":"2026-05-29T03:27:13.121860+05:30"},{"city":"Jalandhar","state":"Punjab","latitude":31.326,"longitude":75.5762,"temp":28.1,"humidity":40,"rain":0.0,"pressure":974.3,"uv_index":8.15,"wind_gusts":53.3,"aqi":162,"pm10":480.6,"pm2_5":133.6,"no2":14.6,"co":379.0,"o3":86.0,"so2":11.7,"mosquito_risk":4,"arthritis_risk":5,"migraine_risk":7,"frizz_risk":0,"updated_at":"2026-05-29T03:27:13.121867+05:30"},{"city":"Dehradun","state":"Uttarakhand","latitude":30.6284,"longitude":78.0322,"temp":13.0,"humidity":90,"rain":0.0,"pressure":826.8,"uv_index":8.15,"wind_gusts":28.8,"aqi":100,"pm10":64.0,"pm2_5":43.7,"no2":18.9,"co":417.0,"o3":76.0,"so2":2.5,"mosquito_risk":3,"arthritis_risk":10,"migraine_risk":7,"frizz_risk":0,"updated_at":"2026-05-29T03:27:13.121874+05:30"},{"city":"Shimla","state":"Himachal Pradesh","latitude":31.1048,"longitude":77.1734,"temp":12.5,"humidity":67,"rain":0.0,"pressure":780.3,"uv_index":8.05,"wind_gusts":29.9,"aqi":81,"pm10":61.0,"pm2_5":43.0,"no2":24.5,"co":364.0,"o3":76.0,"so2":6.1,"mosquito_risk":3,"arthritis_risk":5,"migraine_risk":7,"frizz_risk":0,"updated_at":"2026-05-29T03:27:13.121883+05:30"},{"city":"Manali","state":"Himachal Pradesh","latitude":32.2396,"longitude":77.1887,"temp":12.2,"humidity":60,"rain":0.0,"pressure":815.0,"uv_index":9.65,"wind_gusts":47.5,"aqi":56,"pm10":5.9,"pm2_5":4.5,"no2":16.7,"co":242.0,"o3":122.0,"so2":0.0,"mosquito_risk":0,"arthritis_risk":5,"migraine_risk":7,"frizz_risk":0,"updated_at":"2026-05-29T03:27:13.121894+05:30"},{"city":"Gurgaon","state":"Haryana","latitude":28.4595,"longitude":77.0266,"temp":25.8,"humidity":73,"rain":0.0,"pressure":977.9,"uv_index":7.8,"wind_gusts":56.5,"aqi":1271,"pm10":258.9,"pm2_5":87.1,"no2":10.9,"co":356.0,"o3":115.0,"so2":12.5,"mosquito_risk":7,"arthritis_risk":5,"migraine_risk":7,"frizz_risk":1,"updated_at":"2026-05-29T03:27:13.121915+05:30"},{"city":"Noida","state":"Uttar Pradesh","latitude":28.5355,"longitude":77.391,"temp":27.0,"humidity":67,"rain":0.0,"pressure":981.6,"uv_index":7.7,"wind_gusts":58.3,"aqi":1271,"pm10":258.9,"pm2_5":87.1,"no2":10.9,"co":362.0,"o3":115.0,"so2":12.5,"mosquito_risk":7,"arthritis_risk":5,"migraine_risk":7,"frizz_risk":1,"updated_at":"2026-05-29T03:27:13.121923+05:30"},{"city":"Ghaziabad","state":"Uttar Pradesh","latitude":28.6692,"longitude":77.4538,"temp":27.9,"humidity":63,"rain":0.0,"pressure":979.5,"uv_index":7.7,"wind_gusts":63.4,"aqi":510,"pm10":285.0,"pm2_5":94.5,"no2":13.1,"co":371.0,"o3":103.0,"so2":13.5,"mosquito_risk":7,"arthritis_risk":5,"migraine_risk":7,"frizz_risk":1,"updated_at":"2026-05-29T03:27:13.121930+05:30"},{"city":"Faridabad","state":"Haryana","latitude":28.4089,"longitude":77.3178,"temp":26.2,"humidity":72,"rain":0.0,"pressure":980.8,"uv_index":7.75,"wind_gusts":63.7,"aqi":1271,"pm10":258.9,"pm2_5":87.1,"no2":10.9,"co":339.0,"o3":115.0,"so2":12.5,"mosquito_risk":7,"arthritis_risk":5,"migraine_risk":7,"frizz_risk":1,"updated_at":"2026-05-29T03:27:13.121937+05:30"},{"city":"Meerut","state":"Uttar Pradesh","latitude":28.9845,"longitude":77.7064,"temp":26.1,"humidity":71,"rain":0.0,"pressure":977.7,"uv_index":7.6,"wind_gusts":67.3,"aqi":510,"pm10":285.0,"pm2_5":94.5,"no2":13.1,"co":412.0,"o3":103.0,"so2":13.5,"mosquito_risk":7,"arthritis_risk":5,"migraine_risk":7,"frizz_risk":1,"updated_at":"2026-05-29T03:27:13.121945+05:30"},{"city":"Agra","state":"Uttar Pradesh","latitude":27.1767,"longitude":78.0081,"temp":31.8,"humidity":55,"rain":0.0,"pressure":983.0,"uv_index":8.05,"wind_gusts":75.2,"aqi":462,"pm10":1873.8,"pm2_5":248.7,"no2":5.2,"co":313.0,"o3":135.0,"so2":8.5,"mosquito_risk":0,"arthritis_risk":5,"migraine_risk":7,"frizz_risk":1,"updated_at":"2026-05-29T03:27:13.121952+05:30"},{"city":"Varanasi","state":"Uttar Pradesh","latitude":25.3176,"longitude":82.9739,"temp":29.6,"humidity":61,"rain":0.0,"pressure":994.3,"uv_index":8.7,"wind_gusts":48.6,"aqi":144,"pm10":62.9,"pm2_5":54.8,"no2":9.8,"co":348.0,"o3":128.0,"so2":19.8,"mosquito_risk":7,"arthritis_risk":5,"migraine_risk":7,"frizz_risk":1,"updated_at":"2026-05-29T03:27:13.121959+05:30"},{"city":"Prayagraj","state":"Uttar Pradesh","latitude":25.4358,"longitude":81.8463,"temp":31.0,"humidity":57,"rain":0.0,"pressure":992.6,"uv_index":8.2,"wind_gusts":59.8,"aqi":139,"pm10":62.9,"pm2_5":53.8,"no2":9.0,"co":356.0,"o3":138.0,"so2":17.7,"mosquito_risk":0,"arthritis_risk":5,"migraine_risk":7,"frizz_risk":1,"updated_at":"2026-05-29T03:27:13.121966+05:30"},{"city":"Gorakhpur","state":"Uttar Pradesh","latitude":26.7606,"longitude":83.3732,"temp":26.4,"humidity":74,"rain":0.0,"pressure":996.2,"uv_index":8.1,"wind_gusts":43.9,"aqi":104,"pm10":45.8,"pm2_5":38.8,"no2":10.6,"co":382.0,"o3":104.0,"so2":10.9,"mosquito_risk":7,"arthritis_risk":5,"migraine_risk":7,"frizz_risk":1,"updated_at":"2026-05-29T03:27:13.121974+05:30"},{"city":"Bareilly","state":"Uttar Pradesh","latitude":28.367,"longitude":79.4304,"temp":25.8,"humidity":74,"rain":0.0,"pressure":984.9,"uv_index":7.65,"wind_gusts":46.1,"aqi":145,"pm10":131.8,"pm2_5":49.6,"no2":10.8,"co":301.0,"o3":99.0,"so2":10.6,"mosquito_risk":7,"arthritis_risk":5,"migraine_risk":7,"frizz_risk":1,"updated_at":"2026-05-29T03:27:13.121981+05:30"},{"city":"Aligarh","state":"Uttar Pradesh","latitude":27.8974,"longitude":78.088,"temp":26.9,"humidity":70,"rain":0.1,"pressure":982.4,"uv_index":7.85,"wind_gusts":74.5,"aqi":1023,"pm10":139.7,"pm2_5":61.9,"no2":9.8,"co":341.0,"o3":109.0,"so2":8.8,"mosquito_risk":10,"arthritis_risk":5,"migraine_risk":7,"frizz_risk":1,"updated_at":"2026-05-29T03:27:13.121988+05:30"},{"city":"Moradabad","state":"Uttar Pradesh","latitude":28.8386,"longitude":78.7733,"temp":26.0,"humidity":71,"rain":0.0,"pressure":980.7,"uv_index":7.8,"wind_gusts":49.0,"aqi":116,"pm10":67.8,"pm2_5":38.3,"no2":10.8,"co":298.0,"o3":101.0,"so2":10.5,"mosquito_risk":7,"arthritis_risk":5,"migraine_risk":7,"frizz_risk":1,"updated_at":"2026-05-29T03:27:13.121994+05:30"},{"city":"Saharanpur","state":"Uttar Pradesh","latitude":29.9637,"longitude":77.546,"temp":26.5,"humidity":60,"rain":0.0,"pressure":972.2,"uv_index":7.45,"wind_gusts":59.0,"aqi":123,"pm10":76.4,"pm2_5":36.2,"no2":5.2,"co":349.0,"o3":146.0,"so2":11.6,"mosquito_risk":4,"arthritis_risk":5,"migraine_risk":7,"frizz_risk":1,"updated_at":"2026-05-29T03:27:13.122000+05:30"},{"city":"Jhansi","state":"Uttar Pradesh","latitude":25.4484,"longitude":78.5685,"temp":31.7,"humidity":49,"rain":0.0,"pressure":972.7,"uv_index":8.45,"wind_gusts":78.8,"aqi":82,"pm10":115.5,"pm2_5":54.5,"no2":4.9,"co":168.0,"o3":127.0,"so2":9.0,"mosquito_risk":0,"arthritis_risk":5,"migraine_risk":7,"frizz_risk":1,"updated_at":"2026-05-29T03:27:16.382161+05:30"},{"city":"Surat","state":"Gujarat","latitude":21.1702,"longitude":72.8311,"temp":29.5,"humidity":77,"rain":0.0,"pressure":1005.4,"uv_index":7.7,"wind_gusts":59.8,"aqi":82,"pm10":46.7,"pm2_5":23.9,"no2":11.5,"co":218.0,"o3":40.0,"so2":20.4,"mosquito_risk":7,"arthritis_risk":5,"migraine_risk":4,"frizz_risk":1,"updated_at":"2026-05-29T03:27:16.382198+05:30"},{"city":"Vadodara","state":"Gujarat","latitude":22.3072,"longitude":73.1812,"temp":29.0,"humidity":76,"rain":0.0,"pressure":1002.1,"uv_index":8.05,"wind_gusts":55.4,"aqi":77,"pm10":34.5,"pm2_5":21.7,"no2":9.8,"co":119.0,"o3":39.0,"so2":10.6,"mosquito_risk":7,"arthritis_risk":5,"migraine_risk":4,"frizz_risk":1,"updated_at":"2026-05-29T03:27:16.382208+05:30"},{"city":"Rajkot","state":"Gujarat","latitude":22.3039,"longitude":70.8022,"temp":27.6,"humidity":80,"rain":0.0,"pressure":992.0,"uv_index":7.7,"wind_gusts":56.9,"aqi":74,"pm10":38.1,"pm2_5":18.9,"no2":2.8,"co":106.0,"o3":45.0,"so2":2.9,"mosquito_risk":7,"arthritis_risk":5,"migraine_risk":7,"frizz_risk":1,"updated_at":"2026-05-29T03:27:16.382216+05:30"},{"city":"Thane","state":"Maharashtra","latitude":19.2183,"longitude":72.9781,"temp":29.6,"humidity":73,"rain":0.0,"pressure":1007.8,"uv_index":7.8,"wind_gusts":40.3,"aqi":61,"pm10":48.9,"pm2_5":20.4,"no2":4.3,"co":140.0,"o3":51.0,"so2":4.2,"mosquito_risk":7,"arthritis_risk":5,"migraine_risk":4,"frizz_risk":1,"updated_at":"2026-05-29T03:27:16.382225+05:30"},{"city":"Nagpur","state":"Maharashtra","latitude":21.1458,"longitude":79.0882,"temp":35.1,"humidity":29,"rain":0.0,"pressure":969.3,"uv_index":8.85,"wind_gusts":46.4,"aqi":74,"pm10":35.2,"pm2_5":22.0,"no2":9.3,"co":263.0,"o3":74.0,"so2":6.8,"mosquito_risk":0,"arthritis_risk":5,"migraine_risk":10,"frizz_risk":0,"updated_at":"2026-05-29T03:27:16.382233+05:30"},{"city":"Nashik","state":"Maharashtra","latitude":19.9975,"longitude":73.7898,"temp":24.1,"humidity":88,"rain":0.0,"pressure":944.9,"uv_index":8.1,"wind_gusts":50.0,"aqi":55,"pm10":34.1,"pm2_5":16.6,"no2":10.4,"co":147.0,"o3":38.0,"so2":10.6,"mosquito_risk":3,"arthritis_risk":5,"migraine_risk":7,"frizz_risk":1,"updated_at":"2026-05-29T03:27:16.382242+05:30"},{"city":"Aurangabad","state":"Maharashtra","latitude":19.8762,"longitude":75.3433,"temp":26.4,"humidity":69,"rain":0.0,"pressure":943.0,"uv_index":8.95,"wind_gusts":49.7,"aqi":54,"pm10":25.3,"pm2_5":15.9,"no2":11.0,"co":151.0,"o3":46.0,"so2":10.5,"mosquito_risk":7,"arthritis_risk":5,"migraine_risk":7,"frizz_risk":1,"updated_at":"2026-05-29T03:27:16.382250+05:30"},{"city":"Solapur","state":"Maharashtra","latitude":17.6599,"longitude":75.9064,"temp":27.7,"humidity":60,"rain":0.0,"pressure":956.7,"uv_index":8.95,"wind_gusts":37.1,"aqi":49,"pm10":10.3,"pm2_5":8.3,"no2":7.3,"co":163.0,"o3":51.0,"so2":2.7,"mosquito_risk":4,"arthritis_risk":5,"migraine_risk":7,"frizz_risk":1,"updated_at":"2026-05-29T03:27:16.382258+05:30"},{"city":"Kolhapur","state":"Maharashtra","latitude":16.705,"longitude":74.2433,"temp":24.0,"humidity":89,"rain":0.0,"pressure":948.4,"uv_index":8.8,"wind_gusts":46.8,"aqi":27,"pm10":6.4,"pm2_5":5.2,"no2":4.7,"co":139.0,"o3":45.0,"so2":2.1,"mosquito_risk":3,"arthritis_risk":5,"migraine_risk":7,"frizz_risk":1,"updated_at":"2026-05-29T03:27:16.382266+05:30"},{"city":"Goa","state":"Goa","latitude":15.2993,"longitude":74.124,"temp":26.5,"humidity":95,"rain":0.1,"pressure":998.7,"uv_index":5.45,"wind_gusts":31.0,"aqi":38,"pm10":13.5,"pm2_5":10.3,"no2":4.0,"co":419.0,"o3":51.0,"so2":1.1,"mosquito_risk":10,"arthritis_risk":5,"migraine_risk":3,"frizz_risk":1,"updated_at":"2026-05-29T03:27:16.382273+05:30"},{"city":"Jodhpur","state":"Rajasthan","latitude":26.2389,"longitude":73.0243,"temp":31.7,"humidity":53,"rain":0.0,"pressure":977.3,"uv_index":8.4,"wind_gusts":51.8,"aqi":260,"pm10":436.8,"pm2_5":91.7,"no2":2.0,"co":115.0,"o3":68.0,"so2":2.6,"mosquito_risk":0,"arthritis_risk":5,"migraine_risk":7,"frizz_risk":1,"updated_at":"2026-05-29T03:27:16.382282+05:30"},{"city":"Udaipur","state":"Rajasthan","latitude":24.5854,"longitude":73.7125,"temp":27.9,"humidity":48,"rain":0.0,"pressure":942.8,"uv_index":8.8,"wind_gusts":52.2,"aqi":67,"pm10":32.9,"pm2_5":18.5,"no2":2.3,"co":133.0,"o3":67.0,"so2":2.4,"mosquito_risk":4,"arthritis_risk":5,"migraine_risk":7,"frizz_risk":0,"updated_at":"2026-05-29T03:27:16.382289+05:30"},{"city":"Kota","state":"Rajasthan","latitude":25.2138,"longitude":75.8648,"temp":34.1,"humidity":32,"rain":0.0,"pressure":973.8,"uv_index":8.4,"wind_gusts":77.0,"aqi":67,"pm10":68.9,"pm2_5":30.9,"no2":4.3,"co":159.0,"o3":87.0,"so2":5.3,"mosquito_risk":0,"arthritis_risk":5,"migraine_risk":7,"frizz_risk":0,"updated_at":"2026-05-29T03:27:16.382297+05:30"},{"city":"Bikaner","state":"Rajasthan","latitude":28.0229,"longitude":73.3119,"temp":35.0,"humidity":37,"rain":0.0,"pressure":974.0,"uv_index":8.35,"wind_gusts":65.9,"aqi":161,"pm10":141.6,"pm2_5":68.7,"no2":3.9,"co":340.0,"o3":70.0,"so2":5.0,"mosquito_risk":0,"arthritis_risk":5,"migraine_risk":7,"frizz_risk":1,"updated_at":"2026-05-29T03:27:16.382304+05:30"},{"city":"Ajmer","state":"Rajasthan","latitude":26.4499,"longitude":74.6399,"temp":31.9,"humidity":44,"rain":0.0,"pressure":949.7,"uv_index":8.35,"wind_gusts":68.4,"aqi":82,"pm10":114.6,"pm2_5":43.0,"no2":4.1,"co":128.0,"o3":75.0,"so2":3.5,"mosquito_risk":0,"arthritis_risk":5,"migraine_risk":7,"frizz_risk":1,"updated_at":"2026-05-29T03:27:16.382312+05:30"},{"city":"Gwalior","state":"Madhya Pradesh","latitude":26.2183,"longitude":78.1828,"temp":32.3,"humidity":50,"rain":0.0,"pressure":977.2,"uv_index":8.25,"wind_gusts":82.1,"aqi":99,"pm10":138.3,"pm2_5":69.6,"no2":4.7,"co":384.0,"o3":123.0,"so2":7.9,"mosquito_risk":0,"arthritis_risk":5,"migraine_risk":7,"frizz_risk":1,"updated_at":"2026-05-29T03:27:16.382319+05:30"},{"city":"Indore","state":"Madhya Pradesh","latitude":22.7196,"longitude":75.8577,"temp":28.5,"humidity":58,"rain":0.0,"pressure":946.0,"uv_index":8.6,"wind_gusts":50.4,"aqi":73,"pm10":43.0,"pm2_5":25.9,"no2":5.1,"co":163.0,"o3":87.0,"so2":12.4,"mosquito_risk":4,"arthritis_risk":5,"migraine_risk":7,"frizz_risk":1,"updated_at":"2026-05-29T03:27:16.382326+05:30"},{"city":"Bhopal","state":"Madhya Pradesh","latitude":23.2599,"longitude":77.4126,"temp":32.3,"humidity":37,"rain":0.0,"pressure":950.5,"uv_index":8.65,"wind_gusts":60.8,"aqi":70,"pm10":31.1,"pm2_5":21.3,"no2":3.9,"co":193.0,"o3":87.0,"so2":5.0,"mosquito_risk":0,"arthritis_risk":5,"migraine_risk":7,"frizz_risk":0,"updated_at":"2026-05-29T03:27:16.382333+05:30"},{"city":"Jabalpur","state":"Madhya Pradesh","latitude":23.1815,"longitude":79.9864,"temp":33.2,"humidity":30,"rain":0.0,"pressure":957.3,"uv_index":8.8,"wind_gusts":50.4,"aqi":67,"pm10":40.2,"pm2_5":23.2,"no2":9.7,"co":212.0,"o3":74.0,"so2":5.0,"mosquito_risk":0,"arthritis_risk":5,"migraine_risk":7,"frizz_risk":0,"updated_at":"2026-05-29T03:27:16.382341+05:30"},{"city":"Ujjain","state":"Madhya Pradesh","latitude":23.1765,"longitude":75.7885,"temp":28.8,"humidity":60,"rain":0.0,"pressure":951.5,"uv_index":8.55,"wind_gusts":52.2,"aqi":73,"pm10":41.3,"pm2_5":24.9,"no2":4.8,"co":171.0,"o3":74.0,"so2":11.6,"mosquito_risk":4,"arthritis_risk":5,"migraine_risk":7,"frizz_risk":1,"updated_at":"2026-05-29T03:27:16.382348+05:30"},{"city":"Visakhapatnam","state":"Andhra Pradesh","latitude":17.6868,"longitude":83.2185,"temp":29.2,"humidity":81,"rain":0.0,"pressure":999.7,"uv_index":9.05,"wind_gusts":37.1,"aqi":108,"pm10":35.3,"pm2_5":29.8,"no2":19.4,"co":528.0,"o3":94.0,"so2":29.4,"mosquito_risk":7,"arthritis_risk":5,"migraine_risk":7,"frizz_risk":1,"updated_at":"2026-05-29T03:27:16.382355+05:30"},{"city":"Vijayawada","state":"Andhra Pradesh","latitude":16.5062,"longitude":80.648,"temp":31.5,"humidity":62,"rain":0.0,"pressure":998.7,"uv_index":9.0,"wind_gusts":46.4,"aqi":93,"pm10":32.1,"pm2_5":28.1,"no2":9.7,"co":281.0,"o3":95.0,"so2":5.7,"mosquito_risk":3,"arthritis_risk":5,"migraine_risk":7,"frizz_risk":1,"updated_at":"2026-05-29T03:27:16.382363+05:30"},{"city":"Guntur","state":"Andhra Pradesh","latitude":16.3067,"longitude":80.4365,"temp":30.6,"humidity":61,"rain":0.0,"pressure":999.9,"uv_index":8.95,"wind_gusts":46.1,"aqi":88,"pm10":32.7,"pm2_5":29.0,"no2":16.0,"co":285.0,"o3":61.0,"so2":5.3,"mosquito_risk":3,"arthritis_risk":5,"migraine_risk":7,"frizz_risk":1,"updated_at":"2026-05-29T03:27:16.382369+05:30"},{"city":"Nellore","state":"Andhra Pradesh","latitude":14.4426,"longitude":79.9865,"temp":29.5,"humidity":74,"rain":0.0,"pressure":1002.6,"uv_index":9.0,"wind_gusts":42.5,"aqi":74,"pm10":31.0,"pm2_5":23.1,"no2":8.9,"co":219.0,"o3":81.0,"so2":4.7,"mosquito_risk":7,"arthritis_risk":5,"migraine_risk":4,"frizz_risk":1,"updated_at":"2026-05-29T03:27:16.382377+05:30"},{"city":"Kurnool","state":"Andhra Pradesh","latitude":15.8281,"longitude":78.0373,"temp":28.8,"humidity":69,"rain":0.0,"pressure":975.7,"uv_index":8.75,"wind_gusts":42.1,"aqi":64,"pm10":9.3,"pm2_5":8.5,"no2":9.9,"co":164.0,"o3":49.0,"so2":5.4,"mosquito_risk":7,"arthritis_risk":5,"migraine_risk":7,"frizz_risk":1,"updated_at":"2026-05-29T03:27:16.382385+05:30"},{"city":"Kakinada","state":"Andhra Pradesh","latitude":16.9891,"longitude":82.2475,"temp":29.7,"humidity":79,"rain":0.0,"pressure":1003.6,"uv_index":9.0,"wind_gusts":38.5,"aqi":105,"pm10":30.0,"pm2_5":23.8,"no2":3.0,"co":316.0,"o3":150.0,"so2":5.1,"mosquito_risk":7,"arthritis_risk":5,"migraine_risk":4,"frizz_risk":1,"updated_at":"2026-05-29T03:27:16.382392+05:30"},{"city":"Tirupati","state":"Andhra Pradesh","latitude":13.6288,"longitude":79.4192,"temp":27.0,"humidity":71,"rain":0.0,"pressure":988.8,"uv_index":9.0,"wind_gusts":32.0,"aqi":80,"pm10":26.3,"pm2_5":20.8,"no2":10.4,"co":202.0,"o3":78.0,"so2":2.7,"mosquito_risk":7,"arthritis_risk":5,"migraine_risk":7,"frizz_risk":1,"updated_at":"2026-05-29T03:27:16.382398+05:30"},{"city":"Warangal","state":"Telangana","latitude":17.9689,"longitude":79.5941,"temp":30.4,"humidity":56,"rain":0.0,"pressure":975.0,"uv_index":9.05,"wind_gusts":41.0,"aqi":79,"pm10":32.4,"pm2_5":26.3,"no2":16.8,"co":299.0,"o3":62.0,"so2":5.7,"mosquito_risk":0,"arthritis_risk":5,"migraine_risk":7,"frizz_risk":1,"updated_at":"2026-05-29T03:27:16.382404+05:30"},{"city":"Nizamabad","state":"Telangana","latitude":18.6725,"longitude":78.0941,"temp":29.5,"humidity":47,"rain":0.0,"pressure":962.1,"uv_index":9.0,"wind_gusts":37.8,"aqi":69,"pm10":35.9,"pm2_5":28.8,"no2":19.6,"co":303.0,"o3":60.0,"so2":5.6,"mosquito_risk":4,"arthritis_risk":5,"migraine_risk":7,"frizz_risk":1,"updated_at":"2026-05-29T03:27:16.382411+05:30"},{"city":"Mysore","state":"Karnataka","latitude":12.2958,"longitude":76.6396,"temp":21.7,"humidity":93,"rain":0.0,"pressure":928.4,"uv_index":6.55,"wind_gusts":40.0,"aqi":36,"pm10":7.5,"pm2_5":6.3,"no2":7.3,"co":167.0,"o3":49.0,"so2":2.0,"mosquito_risk":3,"arthritis_risk":5,"migraine_risk":7,"frizz_risk":1,"updated_at":"2026-05-29T03:27:16.382418+05:30"},{"city":"Mangalore","state":"Karnataka","latitude":12.9141,"longitude":74.856,"temp":26.0,"humidity":93,"rain":0.0,"pressure":1007.5,"uv_index":7.35,"wind_gusts":31.7,"aqi":35,"pm10":11.6,"pm2_5":9.5,"no2":9.1,"co":344.0,"o3":45.0,"so2":2.8,"mosquito_risk":7,"arthritis_risk":5,"migraine_risk":4,"frizz_risk":1,"updated_at":"2026-05-29T03:27:16.382425+05:30"},{"city":"Hubli-Dharwad","state":"Karnataka","latitude":15.3647,"longitude":75.124,"temp":23.3,"humidity":95,"rain":0.0,"pressure":941.1,"uv_index":6.6,"wind_gusts":42.1,"aqi":24,"pm10":4.4,"pm2_5":3.7,"no2":4.9,"co":121.0,"o3":43.0,"so2":1.2,"mosquito_risk":3,"arthritis_risk":5,"migraine_risk":7,"frizz_risk":1,"updated_at":"2026-05-29T03:27:16.382432+05:30"},{"city":"Belgaum","state":"Karnataka","latitude":15.8497,"longitude":74.4977,"temp":22.5,"humidity":94,"rain":0.0,"pressure":926.0,"uv_index":8.95,"wind_gusts":43.2,"aqi":22,"pm10":6.3,"pm2_5":5.1,"no2":3.7,"co":112.0,"o3":41.0,"so2":1.2,"mosquito_risk":3,"arthritis_risk":5,"migraine_risk":7,"frizz_risk":1,"updated_at":"2026-05-29T03:27:19.633423+05:30"},{"city":"Coimbatore","state":"Tamil Nadu","latitude":11.0168,"longitude":76.9558,"temp":24.8,"humidity":84,"rain":0.0,"pressure":961.7,"uv_index":8.85,"wind_gusts":52.2,"aqi":26,"pm10":4.2,"pm2_5":3.5,"no2":5.3,"co":134.0,"o3":46.0,"so2":2.6,"mosquito_risk":3,"arthritis_risk":5,"migraine_risk":7,"frizz_risk":1,"updated_at":"2026-05-29T03:27:19.633459+05:30"},{"city":"Madurai","state":"Tamil Nadu","latitude":9.9252,"longitude":78.1198,"temp":27.3,"humidity":70,"rain":0.0,"pressure":992.3,"uv_index":8.8,"wind_gusts":40.7,"aqi":77,"pm10":26.8,"pm2_5":26.0,"no2":42.1,"co":173.0,"o3":3.0,"so2":6.2,"mosquito_risk":7,"arthritis_risk":5,"migraine_risk":7,"frizz_risk":1,"updated_at":"2026-05-29T03:27:19.633470+05:30"},{"city":"Trichy","state":"Tamil Nadu","latitude":10.7905,"longitude":78.7047,"temp":28.6,"humidity":66,"rain":0.0,"pressure":998.6,"uv_index":8.8,"wind_gusts":38.9,"aqi":59,"pm10":7.4,"pm2_5":6.4,"no2":7.9,"co":141.0,"o3":48.0,"so2":4.0,"mosquito_risk":7,"arthritis_risk":5,"migraine_risk":7,"frizz_risk":1,"updated_at":"2026-05-29T03:27:19.633479+05:30"},{"city":"Salem","state":"Tamil Nadu","latitude":11.6643,"longitude":78.146,"temp":27.4,"humidity":71,"rain":0.0,"pressure":976.8,"uv_index":8.95,"wind_gusts":40.0,"aqi":64,"pm10":21.7,"pm2_5":17.5,"no2":18.1,"co":209.0,"o3":52.0,"so2":6.9,"mosquito_risk":7,"arthritis_risk":5,"migraine_risk":7,"frizz_risk":1,"updated_at":"2026-05-29T03:27:19.633486+05:30"},{"city":"Tirunelveli","state":"Tamil Nadu","latitude":8.7139,"longitude":77.7567,"temp":27.9,"humidity":73,"rain":0.0,"pressure":1003.6,"uv_index":7.95,"wind_gusts":36.0,"aqi":27,"pm10":8.2,"pm2_5":6.7,"no2":7.2,"co":150.0,"o3":31.0,"so2":2.1,"mosquito_risk":7,"arthritis_risk":5,"migraine_risk":4,"frizz_risk":1,"updated_at":"2026-05-29T03:27:19.633494+05:30"},{"city":"Vellore","state":"Tamil Nadu","latitude":12.9165,"longitude":79.1325,"temp":28.0,"humidity":64,"rain":0.0,"pressure":982.7,"uv_index":8.7,"wind_gusts":40.0,"aqi":86,"pm10":22.6,"pm2_5":19.0,"no2":10.0,"co":272.0,"o3":84.0,"so2":4.3,"mosquito_risk":7,"arthritis_risk":5,"migraine_risk":7,"frizz_risk":1,"updated_at":"2026-05-29T03:27:19.633501+05:30"},{"city":"Erode","state":"Tamil Nadu","latitude":11.341,"longitude":77.7172,"temp":27.0,"humidity":75,"rain":0.0,"pressure":988.5,"uv_index":8.8,"wind_gusts":49.7,"aqi":42,"pm10":11.3,"pm2_5":9.8,"no2":13.1,"co":189.0,"o3":37.0,"so2":3.7,"mosquito_risk":7,"arthritis_risk":5,"migraine_risk":7,"frizz_risk":1,"updated_at":"2026-05-29T03:27:19.633509+05:30"},{"city":"Kochi","state":"Kerala","latitude":9.9312,"longitude":76.2673,"temp":26.0,"humidity":92,"rain":0.0,"pressure":1010.5,"uv_index":8.05,"wind_gusts":40.3,"aqi":51,"pm10":20.5,"pm2_5":18.8,"no2":20.7,"co":234.0,"o3":13.0,"so2":5.1,"mosquito_risk":7,"arthritis_risk":0,"migraine_risk":4,"frizz_risk":1,"updated_at":"2026-05-29T03:27:19.633517+05:30"},{"city":"Thiruvananthapuram","state":"Kerala","latitude":8.5241,"longitude":76.9366,"temp":24.1,"humidity":98,"rain":0.0,"pressure":1010.5,"uv_index":7.15,"wind_gusts":48.6,"aqi":28,"pm10":9.0,"pm2_5":4.6,"no2":1.6,"co":235.0,"o3":44.0,"so2":0.7,"mosquito_risk":3,"arthritis_risk":0,"migraine_risk":4,"frizz_risk":1,"updated_at":"2026-05-29T03:27:19.633524+05:30"},{"city":"Kozhikode","state":"Kerala","latitude":11.2588,"longitude":75.7804,"temp":24.6,"humidity":99,"rain":0.0,"pressure":1009.0,"uv_index":7.7,"wind_gusts":40.7,"aqi":30,"pm10":7.7,"pm2_5":4.9,"no2":2.2,"co":388.0,"o3":61.0,"so2":1.2,"mosquito_risk":3,"arthritis_risk":0,"migraine_risk":4,"frizz_risk":1,"updated_at":"2026-05-29T03:27:19.633531+05:30"},{"city":"Thrissur","state":"Kerala","latitude":10.5276,"longitude":76.2144,"temp":23.7,"humidity":98,"rain":0.1,"pressure":1009.2,"uv_index":7.4,"wind_gusts":36.4,"aqi":49,"pm10":16.4,"pm2_5":14.6,"no2":14.6,"co":296.0,"o3":25.0,"so2":4.5,"mosquito_risk":6,"arthritis_risk":0,"migraine_risk":4,"frizz_risk":1,"updated_at":"2026-05-29T03:27:19.633538+05:30"},{"city":"Kannur","state":"Kerala","latitude":11.8745,"longitude":75.3704,"temp":25.8,"humidity":92,"rain":0.0,"pressure":1008.0,"uv_index":8.25,"wind_gusts":37.1,"aqi":30,"pm10":8.9,"pm2_5":7.0,"no2":7.5,"co":271.0,"o3":38.0,"so2":2.0,"mosquito_risk":7,"arthritis_risk":0,"migraine_risk":4,"frizz_risk":1,"updated_at":"2026-05-29T03:27:19.633545+05:30"},{"city":"Patna","state":"Bihar","latitude":25.5941,"longitude":85.1376,"temp":27.5,"humidity":75,"rain":0.0,"pressure":999.5,"uv_index":8.75,"wind_gusts":43.6,"aqi":123,"pm10":47.0,"pm2_5":36.4,"no2":8.9,"co":311.0,"o3":112.0,"so2":15.0,"mosquito_risk":7,"arthritis_risk":5,"migraine_risk":7,"frizz_risk":1,"updated_at":"2026-05-29T03:27:19.633553+05:30"},{"city":"Gaya","state":"Bihar","latitude":24.7914,"longitude":85.0002,"temp":28.1,"humidity":73,"rain":0.0,"pressure":991.7,"uv_index":8.8,"wind_gusts":51.1,"aqi":135,"pm10":65.7,"pm2_5":58.1,"no2":15.3,"co":396.0,"o3":88.0,"so2":33.6,"mosquito_risk":7,"arthritis_risk":5,"migraine_risk":7,"frizz_risk":1,"updated_at":"2026-05-29T03:27:19.633560+05:30"},{"city":"Muzaffarpur","state":"Bihar","latitude":26.1209,"longitude":85.3647,"temp":26.3,"humidity":80,"rain":0.0,"pressure":1000.2,"uv_index":8.75,"wind_gusts":43.9,"aqi":113,"pm10":41.3,"pm2_5":32.1,"no2":8.3,"co":314.0,"o3":110.0,"so2":10.0,"mosquito_risk":7,"arthritis_risk":5,"migraine_risk":4,"frizz_risk":1,"updated_at":"2026-05-29T03:27:19.633567+05:30"},{"city":"Bhagalpur","state":"Bihar","latitude":25.2425,"longitude":87.0117,"temp":23.9,"humidity":97,"rain":0.0,"pressure":1001.8,"uv_index":8.7,"wind_gusts":40.3,"aqi":113,"pm10":47.5,"pm2_5":32.5,"no2":6.7,"co":248.0,"o3":122.0,"so2":6.4,"mosquito_risk":3,"arthritis_risk":5,"migraine_risk":4,"frizz_risk":1,"updated_at":"2026-05-29T03:27:19.633573+05:30"},{"city":"Ranchi","state":"Jharkhand","latitude":23.3441,"longitude":85.3096,"temp":23.5,"humidity":99,"rain":0.0,"pressure":935.6,"uv_index":9.25,"wind_gusts":35.3,"aqi":151,"pm10":65.7,"pm2_5":53.9,"no2":12.2,"co":362.0,"o3":90.0,"so2":14.5,"mosquito_risk":3,"arthritis_risk":5,"migraine_risk":7,"frizz_risk":1,"updated_at":"2026-05-29T03:27:19.633580+05:30"},{"city":"Jamshedpur","state":"Jharkhand","latitude":22.8046,"longitude":86.2029,"temp":26.2,"humidity":92,"rain":0.0,"pressure":988.5,"uv_index":9.05,"wind_gusts":35.6,"aqi":136,"pm10":45.9,"pm2_5":35.5,"no2":12.5,"co":262.0,"o3":66.0,"so2":13.7,"mosquito_risk":7,"arthritis_risk":5,"migraine_risk":7,"frizz_risk":1,"updated_at":"2026-05-29T03:27:19.633587+05:30"},{"city":"Dhanbad","state":"Jharkhand","latitude":23.7957,"longitude":86.4304,"temp":26.2,"humidity":85,"rain":0.0,"pressure":978.6,"uv_index":9.0,"wind_gusts":46.1,"aqi":154,"pm10":61.7,"pm2_5":50.6,"no2":35.9,"co":307.0,"o3":47.0,"so2":88.3,"mosquito_risk":7,"arthritis_risk":5,"migraine_risk":7,"frizz_risk":1,"updated_at":"2026-05-29T03:27:19.633594+05:30"},{"city":"Bokaro","state":"Jharkhand","latitude":23.6693,"longitude":86.1511,"temp":26.5,"humidity":85,"rain":0.0,"pressure":982.2,"uv_index":9.05,"wind_gusts":45.0,"aqi":159,"pm10":67.8,"pm2_5":58.2,"no2":41.7,"co":1001.0,"o3":38.0,"so2":102.6,"mosquito_risk":7,"arthritis_risk":5,"migraine_risk":7,"frizz_risk":1,"updated_at":"2026-05-29T03:27:19.633601+05:30"},{"city":"Bhubaneswar","state":"Odisha","latitude":20.2961,"longitude":85.8245,"temp":28.4,"humidity":92,"rain":0.0,"pressure":999.0,"uv_index":9.05,"wind_gusts":45.7,"aqi":101,"pm10":29.7,"pm2_5":23.8,"no2":5.0,"co":244.0,"o3":98.0,"so2":4.2,"mosquito_risk":7,"arthritis_risk":5,"migraine_risk":7,"frizz_risk":1,"updated_at":"2026-05-29T03:27:19.633608+05:30"},{"city":"Cuttack","state":"Odisha","latitude":20.4625,"longitude":85.8828,"temp":28.2,"humidity":93,"rain":0.0,"pressure":1000.9,"uv_index":9.1,"wind_gusts":42.5,"aqi":101,"pm10":29.7,"pm2_5":23.8,"no2":5.0,"co":253.0,"o3":98.0,"so2":4.2,"mosquito_risk":7,"arthritis_risk":5,"migraine_risk":4,"frizz_risk":1,"updated_at":"2026-05-29T03:27:19.633614+05:30"},{"city":"Rourkela","state":"Odisha","latitude":22.2604,"longitude":84.8536,"temp":27.8,"humidity":78,"rain":0.0,"pressure":982.4,"uv_index":8.95,"wind_gusts":44.3,"aqi":151,"pm10":60.5,"pm2_5":47.7,"no2":16.7,"co":387.0,"o3":98.0,"so2":21.5,"mosquito_risk":7,"arthritis_risk":5,"migraine_risk":7,"frizz_risk":1,"updated_at":"2026-05-29T03:27:19.633621+05:30"},{"city":"Raipur","state":"Chhattisgarh","latitude":21.2514,"longitude":81.6296,"temp":32.8,"humidity":37,"rain":0.0,"pressure":970.0,"uv_index":8.9,"wind_gusts":50.0,"aqi":96,"pm10":51.6,"pm2_5":37.4,"no2":29.4,"co":393.0,"o3":57.0,"so2":45.1,"mosquito_risk":0,"arthritis_risk":5,"migraine_risk":7,"frizz_risk":1,"updated_at":"2026-05-29T03:27:19.633628+05:30"},{"city":"Bhilai","state":"Chhattisgarh","latitude":21.1938,"longitude":81.3509,"temp":31.9,"humidity":41,"rain":0.0,"pressure":970.3,"uv_index":8.9,"wind_gusts":54.7,"aqi":89,"pm10":51.2,"pm2_5":35.7,"no2":27.1,"co":494.0,"o3":53.0,"so2":37.9,"mosquito_risk":0,"arthritis_risk":5,"migraine_risk":7,"frizz_risk":1,"updated_at":"2026-05-29T03:27:19.633634+05:30"},{"city":"Guwahati","state":"Assam","latitude":26.1158,"longitude":91.7086,"temp":22.1,"humidity":94,"rain":0.0,"pressure":1001.9,"uv_index":8.7,"wind_gusts":24.5,"aqi":91,"pm10":72.6,"pm2_5":66.8,"no2":26.2,"co":368.0,"o3":18.0,"so2":1.4,"mosquito_risk":3,"arthritis_risk":5,"migraine_risk":4,"frizz_risk":1,"updated_at":"2026-05-29T03:27:19.633640+05:30"},{"city":"Agartala","state":"Tripura","latitude":23.8315,"longitude":91.2868,"temp":24.6,"humidity":92,"rain":0.0,"pressure":1005.3,"uv_index":8.65,"wind_gusts":37.1,"aqi":110,"pm10":55.5,"pm2_5":46.3,"no2":24.6,"co":330.0,"o3":33.0,"so2":3.7,"mosquito_risk":3,"arthritis_risk":5,"migraine_risk":4,"frizz_risk":1,"updated_at":"2026-05-29T03:27:19.633647+05:30"},{"city":"Shillong","state":"Meghalaya","latitude":25.5788,"longitude":91.8933,"temp":15.6,"humidity":84,"rain":0.0,"pressure":855.6,"uv_index":9.1,"wind_gusts":21.2,"aqi":60,"pm10":14.8,"pm2_5":9.1,"no2":7.7,"co":229.0,"o3":46.0,"so2":0.9,"mosquito_risk":3,"arthritis_risk":10,"migraine_risk":7,"frizz_risk":0,"updated_at":"2026-05-29T03:27:19.633654+05:30"},{"city":"Imphal","state":"Manipur","latitude":24.817,"longitude":93.9368,"temp":20.5,"humidity":81,"rain":0.0,"pressure":922.8,"uv_index":9.25,"wind_gusts":17.6,"aqi":101,"pm10":70.5,"pm2_5":61.7,"no2":29.9,"co":425.0,"o3":18.0,"so2":2.1,"mosquito_risk":3,"arthritis_risk":5,"migraine_risk":7,"frizz_risk":1,"updated_at":"2026-05-29T03:27:19.633661+05:30"},{"city":"Aizawl","state":"Mizoram","latitude":23.7271,"longitude":92.7176,"temp":15.9,"humidity":99,"rain":0.0,"pressure":890.2,"uv_index":9.05,"wind_gusts":35.6,"aqi":68,"pm10":31.2,"pm2_5":21.2,"no2":9.9,"co":321.0,"o3":31.0,"so2":1.4,"mosquito_risk":3,"arthritis_risk":10,"migraine_risk":7,"frizz_risk":0,"updated_at":"2026-05-29T03:27:19.633668+05:30"},{"city":"Kohima","state":"Nagaland","latitude":25.6701,"longitude":94.1077,"temp":16.5,"humidity":87,"rain":0.0,"pressure":854.5,"uv_index":8.65,"wind_gusts":27.4,"aqi":75,"pm10":51.6,"pm2_5":41.3,"no2":21.6,"co":228.0,"o3":36.0,"so2":0.6,"mosquito_risk":3,"arthritis_risk":10,"migraine_risk":7,"frizz_risk":0,"updated_at":"2026-05-29T03:27:19.633675+05:30"},{"city":"Gangtok","state":"Sikkim","latitude":27.3314,"longitude":88.6138,"temp":13.8,"humidity":89,"rain":0.0,"pressure":837.0,"uv_index":9.1,"wind_gusts":35.6,"aqi":61,"pm10":20.1,"pm2_5":13.5,"no2":6.2,"co":533.0,"o3":76.0,"so2":1.0,"mosquito_risk":3,"arthritis_risk":10,"migraine_risk":7,"frizz_risk":0,"updated_at":"2026-05-29T03:27:19.633682+05:30"},{"city":"Siliguri","state":"West Bengal","latitude":26.7271,"longitude":88.3953,"temp":24.2,"humidity":76,"rain":0.0,"pressure":993.6,"uv_index":8.7,"wind_gusts":24.8,"aqi":117,"pm10":66.1,"pm2_5":51.9,"no2":17.9,"co":384.0,"o3":83.0,"so2":5.6,"mosquito_risk":3,"arthritis_risk":5,"migraine_risk":7,"frizz_risk":1,"updated_at":"2026-05-29T03:27:22.905549+05:30"},{"city":"Durgapur","state":"West Bengal","latitude":23.5204,"longitude":87.3119,"temp":24.5,"humidity":92,"rain":0.0,"pressure":994.0,"uv_index":8.95,"wind_gusts":38.2,"aqi":150,"pm10":61.5,"pm2_5":48.5,"no2":21.4,"co":430.0,"o3":57.0,"so2":27.1,"mosquito_risk":3,"arthritis_risk":5,"migraine_risk":7,"frizz_risk":1,"updated_at":"2026-05-29T03:27:22.905588+05:30"},{"city":"Asansol","state":"West Bengal","latitude":23.6739,"longitude":86.9524,"temp":25.3,"humidity":88,"rain":0.0,"pressure":992.7,"uv_index":8.95,"wind_gusts":41.4,"aqi":144,"pm10":54.4,"pm2_5":42.4,"no2":20.4,"co":663.0,"o3":62.0,"so2":29.5,"mosquito_risk":7,"arthritis_risk":5,"migraine_risk":7,"frizz_risk":1,"updated_at":"2026-05-29T03:27:22.905599+05:30"},{"city":"Pondicherry","state":"Puducherry","latitude":11.9139,"longitude":79.8145,"temp":29.1,"humidity":69,"rain":0.0,"pressure":1006.1,"uv_index":8.9,"wind_gusts":43.2,"aqi":72,"pm10":25.9,"pm2_5":21.7,"no2":15.6,"co":285.0,"o3":64.0,"so2":8.3,"mosquito_risk":7,"arthritis_risk":5,"migraine_risk":4,"frizz_risk":1,"updated_at":"2026-05-29T03:27:22.905609+05:30"},{"city":"Port Blair","state":"Andaman and Nicobar Islands","latitude":11.6234,"longitude":92.7265,"temp":25.8,"humidity":95,"rain":0.0,"pressure":1006.3,"uv_index":8.85,"wind_gusts":41.4,"aqi":39,"pm10":18.2,"pm2_5":7.2,"no2":0.2,"co":121.0,"o3":91.0,"so2":0.5,"mosquito_risk":7,"arthritis_risk":5,"migraine_risk":4,"frizz_risk":1,"updated_at":"2026-05-29T03:27:22.905619+05:30"},{"city":"Haridwar","state":"Uttarakhand","latitude":29.9457,"longitude":78.1642,"temp":22.9,"humidity":74,"rain":0.0,"pressure":970.7,"uv_index":7.5,"wind_gusts":43.2,"aqi":104,"pm10":66.6,"pm2_5":36.6,"no2":6.0,"co":349.0,"o3":134.0,"so2":9.1,"mosquito_risk":3,"arthritis_risk":5,"migraine_risk":7,"frizz_risk":1,"updated_at":"2026-05-29T03:27:22.905627+05:30"},{"city":"Rishikesh","state":"Uttarakhand","latitude":30.0869,"longitude":78.2676,"temp":21.2,"humidity":79,"rain":0.0,"pressure":963.3,"uv_index":7.6,"wind_gusts":35.6,"aqi":125,"pm10":107.6,"pm2_5":48.7,"no2":6.4,"co":429.0,"o3":149.0,"so2":8.7,"mosquito_risk":3,"arthritis_risk":5,"migraine_risk":7,"frizz_risk":1,"updated_at":"2026-05-29T03:27:22.905635+05:30"},{"city":"Nainital","state":"Uttarakhand","latitude":29.3919,"longitude":79.4542,"temp":11.7,"humidity":100,"rain":0.0,"pressure":802.3,"uv_index":7.75,"wind_gusts":29.5,"aqi":87,"pm10":70.8,"pm2_5":30.3,"no2":4.7,"co":325.0,"o3":125.0,"so2":4.5,"mosquito_risk":3,"arthritis_risk":10,"migraine_risk":7,"frizz_risk":0,"updated_at":"2026-05-29T03:27:22.905644+05:30"},{"city":"Mussoorie","state":"Uttarakhand","latitude":30.4599,"longitude":78.0664,"temp":11.8,"humidity":93,"rain":0.0,"pressure":798.7,"uv_index":8.0,"wind_gusts":32.8,"aqi":124,"pm10":78.7,"pm2_5":41.1,"no2":8.0,"co":305.0,"o3":141.0,"so2":7.2,"mosquito_risk":3,"arthritis_risk":10,"migraine_risk":7,"frizz_risk":0,"updated_at":"2026-05-29T03:27:22.905652+05:30"},{"city":"Dharamshala","state":"Himachal Pradesh","latitude":32.219,"longitude":76.3234,"temp":21.5,"humidity":29,"rain":0.0,"pressure":866.5,"uv_index":8.4,"wind_gusts":29.9,"aqi":44,"pm10":11.7,"pm2_5":8.6,"no2":13.7,"co":178.0,"o3":31.0,"so2":0.1,"mosquito_risk":0,"arthritis_risk":5,"migraine_risk":7,"frizz_risk":0,"updated_at":"2026-05-29T03:27:22.905660+05:30"},{"city":"Dalhousie","state":"Himachal Pradesh","latitude":32.5387,"longitude":75.971,"temp":14.5,"humidity":41,"rain":0.0,"pressure":800.3,"uv_index":8.65,"wind_gusts":29.5,"aqi":63,"pm10":23.6,"pm2_5":19.2,"no2":40.6,"co":287.0,"o3":7.0,"so2":1.0,"mosquito_risk":0,"arthritis_risk":5,"migraine_risk":7,"frizz_risk":0,"updated_at":"2026-05-29T03:27:22.905668+05:30"},{"city":"Patiala","state":"Punjab","latitude":30.3398,"longitude":76.3869,"temp":26.4,"humidity":58,"rain":0.0,"pressure":974.0,"uv_index":7.6,"wind_gusts":56.9,"aqi":943,"pm10":789.8,"pm2_5":140.2,"no2":7.1,"co":389.0,"o3":113.0,"so2":13.0,"mosquito_risk":4,"arthritis_risk":5,"migraine_risk":7,"frizz_risk":1,"updated_at":"2026-05-29T03:27:22.905676+05:30"},{"city":"Bhatinda","state":"Punjab","latitude":30.211,"longitude":74.9455,"temp":29.1,"humidity":41,"rain":0.0,"pressure":978.2,"uv_index":8.25,"wind_gusts":53.3,"aqi":200,"pm10":838.2,"pm2_5":228.6,"no2":8.3,"co":329.0,"o3":131.0,"so2":14.6,"mosquito_risk":4,"arthritis_risk":5,"migraine_risk":7,"frizz_risk":0,"updated_at":"2026-05-29T03:27:22.905684+05:30"},{"city":"Rohtak","state":"Haryana","latitude":28.8955,"longitude":76.6066,"temp":26.9,"humidity":68,"rain":0.0,"pressure":977.7,"uv_index":7.7,"wind_gusts":46.8,"aqi":735,"pm10":415.4,"pm2_5":110.1,"no2":14.1,"co":399.0,"o3":108.0,"so2":13.8,"mosquito_risk":7,"arthritis_risk":5,"migraine_risk":7,"frizz_risk":1,"updated_at":"2026-05-29T03:27:22.905692+05:30"},{"city":"Panipat","state":"Haryana","latitude":29.3909,"longitude":76.9635,"temp":26.8,"humidity":66,"rain":0.0,"pressure":976.3,"uv_index":7.55,"wind_gusts":62.3,"aqi":1252,"pm10":486.2,"pm2_5":127.1,"no2":19.7,"co":415.0,"o3":79.0,"so2":15.1,"mosquito_risk":7,"arthritis_risk":5,"migraine_risk":7,"frizz_risk":1,"updated_at":"2026-05-29T03:27:22.905699+05:30"},{"city":"Mathura","state":"Uttar Pradesh","latitude":27.4924,"longitude":77.6737,"temp":30.0,"humidity":62,"rain":0.0,"pressure":982.6,"uv_index":8.0,"wind_gusts":71.3,"aqi":480,"pm10":607.2,"pm2_5":125.3,"no2":6.1,"co":305.0,"o3":130.0,"so2":8.4,"mosquito_risk":7,"arthritis_risk":5,"migraine_risk":7,"frizz_risk":1,"updated_at":"2026-05-29T03:27:22.905706+05:30"},{"city":"Vrindavan","state":"Uttar Pradesh","latitude":27.5823,"longitude":77.7027,"temp":29.2,"humidity":65,"rain":0.0,"pressure":983.1,"uv_index":7.95,"wind_gusts":72.7,"aqi":480,"pm10":607.2,"pm2_5":125.3,"no2":6.1,"co":309.0,"o3":130.0,"so2":8.4,"mosquito_risk":7,"arthritis_risk":5,"migraine_risk":7,"frizz_risk":1,"updated_at":"2026-05-29T03:27:22.905713+05:30"},{"city":"Ayodhya","state":"Uttar Pradesh","latitude":26.7922,"longitude":82.1998,"temp":28.4,"humidity":66,"rain":0.0,"pressure":994.2,"uv_index":8.3,"wind_gusts":45.7,"aqi":109,"pm10":48.2,"pm2_5":40.0,"no2":7.9,"co":381.0,"o3":127.0,"so2":12.6,"mosquito_risk":7,"arthritis_risk":5,"migraine_risk":7,"frizz_risk":1,"updated_at":"2026-05-29T03:27:22.905720+05:30"},{"city":"Ratlam","state":"Madhya Pradesh","latitude":23.3315,"longitude":75.0367,"temp":27.2,"humidity":71,"rain":0.0,"pressure":952.3,"uv_index":8.5,"wind_gusts":55.1,"aqi":73,"pm10":39.6,"pm2_5":23.5,"no2":5.7,"co":136.0,"o3":59.0,"so2":11.6,"mosquito_risk":7,"arthritis_risk":5,"migraine_risk":7,"frizz_risk":1,"updated_at":"2026-05-29T03:27:22.905727+05:30"},{"city":"Sagar","state":"Madhya Pradesh","latitude":23.8388,"longitude":78.7378,"temp":32.4,"humidity":33,"rain":0.0,"pressure":947.0,"uv_index":8.7,"wind_gusts":76.7,"aqi":62,"pm10":25.1,"pm2_5":16.8,"no2":3.8,"co":213.0,"o3":84.0,"so2":5.2,"mosquito_risk":0,"arthritis_risk":5,"migraine_risk":7,"frizz_risk":0,"updated_at":"2026-05-29T03:27:22.905735+05:30"},{"city":"Satna","state":"Madhya Pradesh","latitude":24.6005,"longitude":80.8322,"temp":30.5,"humidity":51,"rain":0.0,"pressure":967.4,"uv_index":8.4,"wind_gusts":67.3,"aqi":87,"pm10":63.8,"pm2_5":48.3,"no2":6.0,"co":393.0,"o3":149.0,"so2":16.0,"mosquito_risk":0,"arthritis_risk":5,"migraine_risk":7,"frizz_risk":1,"updated_at":"2026-05-29T03:27:22.905742+05:30"},{"city":"Akola","state":"Maharashtra","latitude":20.7002,"longitude":77.0082,"temp":31.2,"humidity":41,"rain":0.0,"pressure":972.5,"uv_index":8.8,"wind_gusts":48.6,"aqi":68,"pm10":33.3,"pm2_5":22.7,"no2":8.1,"co":148.0,"o3":83.0,"so2":12.6,"mosquito_risk":0,"arthritis_risk":5,"migraine_risk":7,"frizz_risk":1,"updated_at":"2026-05-29T03:27:22.905749+05:30"},{"city":"Amravati","state":"Maharashtra","latitude":20.9374,"longitude":77.7796,"temp":32.5,"humidity":39,"rain":0.0,"pressure":964.4,"uv_index":8.8,"wind_gusts":50.0,"aqi":70,"pm10":31.9,"pm2_5":22.8,"no2":8.3,"co":207.0,"o3":87.0,"so2":11.8,"mosquito_risk":0,"arthritis_risk":5,"migraine_risk":7,"frizz_risk":1,"updated_at":"2026-05-29T03:27:22.905758+05:30"},{"city":"Latur","state":"Maharashtra","latitude":18.4088,"longitude":76.5604,"temp":27.6,"humidity":57,"rain":0.0,"pressure":938.7,"uv_index":9.0,"wind_gusts":40.0,"aqi":61,"pm10":22.1,"pm2_5":18.7,"no2":6.5,"co":201.0,"o3":110.0,"so2":11.5,"mosquito_risk":4,"arthritis_risk":5,"migraine_risk":7,"frizz_risk":1,"updated_at":"2026-05-29T03:27:22.905766+05:30"},{"city":"Nanded","state":"Maharashtra","latitude":19.1383,"longitude":77.3091,"temp":31.6,"humidity":38,"rain":0.0,"pressure":966.1,"uv_index":8.9,"wind_gusts":40.3,"aqi":62,"pm10":27.4,"pm2_5":21.5,"no2":16.4,"co":238.0,"o3":56.0,"so2":6.8,"mosquito_risk":0,"arthritis_risk":5,"migraine_risk":7,"frizz_risk":0,"updated_at":"2026-05-29T03:27:22.905773+05:30"},{"city":"Gulbarga","state":"Karnataka","latitude":17.3297,"longitude":76.8343,"temp":28.2,"humidity":58,"rain":0.0,"pressure":957.8,"uv_index":9.0,"wind_gusts":40.7,"aqi":51,"pm10":8.9,"pm2_5":7.3,"no2":7.9,"co":147.0,"o3":51.0,"so2":2.9,"mosquito_risk":4,"arthritis_risk":5,"migraine_risk":7,"frizz_risk":1,"updated_at":"2026-05-29T03:27:22.905781+05:30"},{"city":"Bidar","state":"Karnataka","latitude":17.9104,"longitude":77.5199,"temp":28.5,"humidity":53,"rain":0.0,"pressure":934.0,"uv_index":9.0,"wind_gusts":40.7,"aqi":74,"pm10":28.4,"pm2_5":22.9,"no2":23.5,"co":248.0,"o3":52.0,"so2":5.5,"mosquito_risk":4,"arthritis_risk":5,"migraine_risk":7,"frizz_risk":1,"updated_at":"2026-05-29T03:27:22.905788+05:30"},{"city":"Hospet","state":"Karnataka","latitude":15.2689,"longitude":76.3909,"temp":24.9,"humidity":85,"rain":0.0,"pressure":956.3,"uv_index":8.15,"wind_gusts":41.4,"aqi":34,"pm10":4.6,"pm2_5":4.1,"no2":5.0,"co":143.0,"o3":45.0,"so2":1.4,"mosquito_risk":3,"arthritis_risk":5,"migraine_risk":7,"frizz_risk":1,"updated_at":"2026-05-29T03:27:22.905796+05:30"},{"city":"Tirupur","state":"Tamil Nadu","latitude":11.1085,"longitude":77.3411,"temp":25.7,"humidity":82,"rain":0.0,"pressure":974.9,"uv_index":9.0,"wind_gusts":58.0,"aqi":42,"pm10":11.6,"pm2_5":10.0,"no2":13.3,"co":141.0,"o3":37.0,"so2":4.0,"mosquito_risk":7,"arthritis_risk":5,"migraine_risk":7,"frizz_risk":1,"updated_at":"2026-05-29T03:27:22.905803+05:30"},{"city":"Alappuzha","state":"Kerala","latitude":9.4981,"longitude":76.3388,"temp":25.8,"humidity":94,"rain":0.2,"pressure":1010.6,"uv_index":7.75,"wind_gusts":46.1,"aqi":38,"pm10":11.4,"pm2_5":8.6,"no2":9.1,"co":106.0,"o3":41.0,"so2":2.1,"mosquito_risk":10,"arthritis_risk":0,"migraine_risk":4,"frizz_risk":1,"updated_at":"2026-05-29T03:27:22.905811+05:30"},{"city":"Munnar","state":"Kerala","latitude":10.0889,"longitude":77.0595,"temp":17.2,"humidity":99,"rain":0.0,"pressure":857.4,"uv_index":8.4,"wind_gusts":29.5,"aqi":25,"pm10":7.9,"pm2_5":6.9,"no2":7.6,"co":117.0,"o3":30.0,"so2":1.3,"mosquito_risk":3,"arthritis_risk":10,"migraine_risk":7,"frizz_risk":1,"updated_at":"2026-05-29T03:27:22.905819+05:30"},{"city":"Silchar","state":"Assam","latitude":24.8333,"longitude":92.7789,"temp":22.7,"humidity":99,"rain":0.0,"pressure":1004.2,"uv_index":8.9,"wind_gusts":17.6,"aqi":114,"pm10":76.1,"pm2_5":62.6,"no2":28.6,"co":846.0,"o3":22.0,"so2":7.1,"mosquito_risk":3,"arthritis_risk":5,"migraine_risk":4,"frizz_risk":1,"updated_at":"2026-05-29T03:27:22.905826+05:30"},{"city":"Dibrugarh","state":"Assam","latitude":27.4728,"longitude":94.912,"temp":23.4,"humidity":89,"rain":0.0,"pressure":996.3,"uv_index":8.85,"wind_gusts":13.7,"aqi":99,"pm10":79.2,"pm2_5":56.3,"no2":34.1,"co":799.0,"o3":20.0,"so2":4.2,"mosquito_risk":3,"arthritis_risk":5,"migraine_risk":7,"frizz_risk":1,"updated_at":"2026-05-29T03:27:22.905833+05:30"}]