[{"city":"Delhi","state":"Delhi","latitude":28.6139,"longitude":77.209,"temp":33.2,"humidity":25,"rain":0.0,"pressure":979.2,"uv_index":7.75,"wind_gusts":48.2,"aqi":599,"pm10":700.4,"pm2_5":160.2,"no2":16.9,"co":328.0,"o3":72.0,"so2":11.6,"mosquito_risk":0,"arthritis_risk":5,"migraine_risk":7,"frizz_risk":0,"updated_at":"2026-05-23T02:44:04.593653+05:30"},{"city":"Mumbai","state":"Maharashtra","latitude":19.076,"longitude":72.8777,"temp":29.9,"humidity":77,"rain":0.0,"pressure":1008.7,"uv_index":7.8,"wind_gusts":38.5,"aqi":63,"pm10":15.6,"pm2_5":11.0,"no2":10.7,"co":240.0,"o3":48.0,"so2":11.3,"mosquito_risk":7,"arthritis_risk":0,"migraine_risk":4,"frizz_risk":1,"updated_at":"2026-05-23T02:44:04.593721+05:30"},{"city":"Bangalore","state":"Karnataka","latitude":12.9716,"longitude":77.5946,"temp":21.6,"humidity":90,"rain":0.0,"pressure":912.4,"uv_index":6.4,"wind_gusts":34.2,"aqi":39,"pm10":8.1,"pm2_5":7.5,"no2":13.8,"co":281.0,"o3":43.0,"so2":4.3,"mosquito_risk":3,"arthritis_risk":5,"migraine_risk":7,"frizz_risk":1,"updated_at":"2026-05-23T02:44:04.593738+05:30"},{"city":"Hyderabad","state":"Telangana","latitude":17.385,"longitude":78.4867,"temp":28.8,"humidity":61,"rain":0.0,"pressure":951.7,"uv_index":9.1,"wind_gusts":56.5,"aqi":77,"pm10":26.8,"pm2_5":22.9,"no2":6.4,"co":220.0,"o3":100.0,"so2":5.1,"mosquito_risk":7,"arthritis_risk":5,"migraine_risk":7,"frizz_risk":1,"updated_at":"2026-05-23T02:44:04.593748+05:30"},{"city":"Chennai","state":"Tamil Nadu","latitude":13.0827,"longitude":80.2707,"temp":31.2,"humidity":71,"rain":0.0,"pressure":1004.7,"uv_index":7.8,"wind_gusts":33.5,"aqi":65,"pm10":25.5,"pm2_5":20.0,"no2":14.0,"co":234.0,"o3":78.0,"so2":8.8,"mosquito_risk":3,"arthritis_risk":5,"migraine_risk":4,"frizz_risk":1,"updated_at":"2026-05-23T02:44:04.593758+05:30"},{"city":"Kolkata","state":"West Bengal","latitude":22.5726,"longitude":88.3639,"temp":29.3,"humidity":92,"rain":0.0,"pressure":1001.7,"uv_index":9.0,"wind_gusts":36.4,"aqi":99,"pm10":37.7,"pm2_5":28.6,"no2":5.5,"co":248.0,"o3":83.0,"so2":4.7,"mosquito_risk":7,"arthritis_risk":5,"migraine_risk":4,"frizz_risk":1,"updated_at":"2026-05-23T02:44:04.593767+05:30"},{"city":"Pune","state":"Maharashtra","latitude":18.5204,"longitude":73.8567,"temp":24.6,"humidity":89,"rain":0.0,"pressure":948.8,"uv_index":8.45,"wind_gusts":37.8,"aqi":48,"pm10":9.2,"pm2_5":8.2,"no2":12.9,"co":184.0,"o3":42.0,"so2":9.9,"mosquito_risk":3,"arthritis_risk":5,"migraine_risk":7,"frizz_risk":1,"updated_at":"2026-05-23T02:44:04.593775+05:30"},{"city":"Ahmedabad","state":"Gujarat","latitude":23.0225,"longitude":72.5714,"temp":31.7,"humidity":58,"rain":0.0,"pressure":1001.3,"uv_index":8.15,"wind_gusts":35.3,"aqi":75,"pm10":28.6,"pm2_5":19.0,"no2":4.6,"co":138.0,"o3":65.0,"so2":3.8,"mosquito_risk":0,"arthritis_risk":5,"migraine_risk":4,"frizz_risk":1,"updated_at":"2026-05-23T02:44:04.593783+05:30"},{"city":"Jaipur","state":"Rajasthan","latitude":26.9124,"longitude":75.7873,"temp":32.0,"humidity":23,"rain":0.0,"pressure":957.6,"uv_index":8.25,"wind_gusts":47.5,"aqi":168,"pm10":315.7,"pm2_5":72.2,"no2":6.0,"co":193.0,"o3":68.0,"so2":5.1,"mosquito_risk":0,"arthritis_risk":5,"migraine_risk":7,"frizz_risk":0,"updated_at":"2026-05-23T02:44:04.593797+05:30"},{"city":"Lucknow","state":"Uttar Pradesh","latitude":26.8467,"longitude":80.9462,"temp":32.3,"humidity":27,"rain":0.0,"pressure":988.3,"uv_index":8.2,"wind_gusts":51.5,"aqi":162,"pm10":347.4,"pm2_5":96.9,"no2":31.7,"co":292.0,"o3":31.0,"so2":8.5,"mosquito_risk":0,"arthritis_risk":5,"migraine_risk":7,"frizz_risk":0,"updated_at":"2026-05-23T02:44:04.593805+05:30"},{"city":"Kanpur","state":"Uttar Pradesh","latitude":26.4499,"longitude":80.3319,"temp":33.0,"humidity":27,"rain":0.0,"pressure":986.8,"uv_index":8.2,"wind_gusts":46.8,"aqi":332,"pm10":393.9,"pm2_5":95.9,"no2":23.4,"co":240.0,"o3":36.0,"so2":8.3,"mosquito_risk":0,"arthritis_risk":5,"migraine_risk":7,"frizz_risk":0,"updated_at":"2026-05-23T02:44:04.593812+05:30"},{"city":"Chandigarh","state":"Chandigarh","latitude":30.7333,"longitude":76.7794,"temp":29.5,"humidity":32,"rain":0.0,"pressure":964.7,"uv_index":7.75,"wind_gusts":44.3,"aqi":89,"pm10":42.1,"pm2_5":26.0,"no2":17.7,"co":320.0,"o3":50.0,"so2":7.5,"mosquito_risk":4,"arthritis_risk":5,"migraine_risk":7,"frizz_risk":0,"updated_at":"2026-05-23T02:44:04.593820+05:30"},{"city":"Srinagar","state":"Jammu and Kashmir","latitude":34.0837,"longitude":74.7973,"temp":11.1,"humidity":99,"rain":0.0,"pressure":842.9,"uv_index":8.75,"wind_gusts":26.6,"aqi":59,"pm10":30.0,"pm2_5":22.8,"no2":19.6,"co":630.0,"o3":18.0,"so2":0.0,"mosquito_risk":3,"arthritis_risk":10,"migraine_risk":7,"frizz_risk":0,"updated_at":"2026-05-23T02:44:04.593829+05:30"},{"city":"Jammu","state":"Jammu and Kashmir","latitude":32.7266,"longitude":74.857,"temp":25.7,"humidity":39,"rain":0.0,"pressure":969.2,"uv_index":8.5,"wind_gusts":36.0,"aqi":77,"pm10":26.4,"pm2_5":18.1,"no2":12.1,"co":220.0,"o3":53.0,"so2":1.9,"mosquito_risk":4,"arthritis_risk":5,"migraine_risk":7,"frizz_risk":0,"updated_at":"2026-05-23T02:44:04.593836+05:30"},{"city":"Amritsar","state":"Punjab","latitude":31.634,"longitude":74.8723,"temp":27.5,"humidity":53,"rain":0.0,"pressure":976.9,"uv_index":8.4,"wind_gusts":26.6,"aqi":97,"pm10":75.9,"pm2_5":45.9,"no2":22.4,"co":554.0,"o3":45.0,"so2":6.1,"mosquito_risk":4,"arthritis_risk":5,"migraine_risk":7,"frizz_risk":1,"updated_at":"2026-05-23T02:44:04.593843+05:30"},{"city":"Ludhiana","state":"Punjab","latitude":30.901,"longitude":75.8573,"temp":28.5,"humidity":45,"rain":0.0,"pressure":974.9,"uv_index":8.0,"wind_gusts":42.1,"aqi":88,"pm10":49.1,"pm2_5":31.1,"no2":14.5,"co":412.0,"o3":57.0,"so2":5.8,"mosquito_risk":4,"arthritis_risk":5,"migraine_risk":7,"frizz_risk":0,"updated_at":"2026-05-23T02:44:04.593850+05:30"},{"city":"Jalandhar","state":"Punjab","latitude":31.326,"longitude":75.5762,"temp":28.4,"humidity":45,"rain":0.0,"pressure":975.8,"uv_index":8.2,"wind_gusts":37.8,"aqi":92,"pm10":60.1,"pm2_5":33.1,"no2":17.6,"co":582.0,"o3":60.0,"so2":5.3,"mosquito_risk":4,"arthritis_risk":5,"migraine_risk":7,"frizz_risk":0,"updated_at":"2026-05-23T02:44:04.593858+05:30"},{"city":"Dehradun","state":"Uttarakhand","latitude":30.6284,"longitude":78.0322,"temp":13.4,"humidity":72,"rain":0.0,"pressure":825.8,"uv_index":8.2,"wind_gusts":46.4,"aqi":75,"pm10":39.5,"pm2_5":20.5,"no2":32.3,"co":234.0,"o3":14.0,"so2":0.5,"mosquito_risk":3,"arthritis_risk":5,"migraine_risk":7,"frizz_risk":0,"updated_at":"2026-05-23T02:44:04.593865+05:30"},{"city":"Shimla","state":"Himachal Pradesh","latitude":31.1048,"longitude":77.1734,"temp":13.5,"humidity":52,"rain":0.0,"pressure":781.8,"uv_index":7.75,"wind_gusts":52.6,"aqi":74,"pm10":31.5,"pm2_5":17.5,"no2":14.9,"co":161.0,"o3":57.0,"so2":1.4,"mosquito_risk":0,"arthritis_risk":5,"migraine_risk":7,"frizz_risk":0,"updated_at":"2026-05-23T02:44:04.593878+05:30"},{"city":"Manali","state":"Himachal Pradesh","latitude":32.2396,"longitude":77.1887,"temp":10.4,"humidity":44,"rain":0.0,"pressure":814.5,"uv_index":9.1,"wind_gusts":45.4,"aqi":40,"pm10":1.5,"pm2_5":1.2,"no2":12.5,"co":161.0,"o3":101.0,"so2":0.0,"mosquito_risk":0,"arthritis_risk":5,"migraine_risk":7,"frizz_risk":1,"updated_at":"2026-05-23T02:44:04.593885+05:30"},{"city":"Gurgaon","state":"Haryana","latitude":28.4595,"longitude":77.0266,"temp":30.1,"humidity":31,"rain":0.0,"pressure":977.6,"uv_index":7.85,"wind_gusts":45.4,"aqi":1414,"pm10":994.7,"pm2_5":190.9,"no2":24.8,"co":414.0,"o3":61.0,"so2":19.2,"mosquito_risk":0,"arthritis_risk":5,"migraine_risk":7,"frizz_risk":0,"updated_at":"2026-05-23T02:44:04.593892+05:30"},{"city":"Noida","state":"Uttar Pradesh","latitude":28.5355,"longitude":77.391,"temp":31.5,"humidity":34,"rain":0.0,"pressure":980.3,"uv_index":7.75,"wind_gusts":42.8,"aqi":1414,"pm10":994.7,"pm2_5":190.9,"no2":24.8,"co":373.0,"o3":61.0,"so2":19.2,"mosquito_risk":0,"arthritis_risk":5,"migraine_risk":7,"frizz_risk":0,"updated_at":"2026-05-23T02:44:04.593899+05:30"},{"city":"Ghaziabad","state":"Uttar Pradesh","latitude":28.6692,"longitude":77.4538,"temp":30.4,"humidity":33,"rain":0.0,"pressure":978.6,"uv_index":7.75,"wind_gusts":43.6,"aqi":419,"pm10":489.9,"pm2_5":120.6,"no2":13.1,"co":320.0,"o3":80.0,"so2":11.7,"mosquito_risk":0,"arthritis_risk":5,"migraine_risk":7,"frizz_risk":0,"updated_at":"2026-05-23T02:44:04.593906+05:30"},{"city":"Faridabad","state":"Haryana","latitude":28.4089,"longitude":77.3178,"temp":33.0,"humidity":25,"rain":0.0,"pressure":979.8,"uv_index":7.8,"wind_gusts":50.8,"aqi":1414,"pm10":994.7,"pm2_5":190.9,"no2":24.8,"co":419.0,"o3":61.0,"so2":19.2,"mosquito_risk":0,"arthritis_risk":5,"migraine_risk":7,"frizz_risk":0,"updated_at":"2026-05-23T02:44:04.593913+05:30"},{"city":"Meerut","state":"Uttar Pradesh","latitude":28.9845,"longitude":77.7064,"temp":31.6,"humidity":28,"rain":0.0,"pressure":977.1,"uv_index":7.65,"wind_gusts":51.8,"aqi":419,"pm10":489.9,"pm2_5":120.6,"no2":13.1,"co":288.0,"o3":80.0,"so2":11.7,"mosquito_risk":0,"arthritis_risk":5,"migraine_risk":7,"frizz_risk":0,"updated_at":"2026-05-23T02:44:04.593920+05:30"},{"city":"Agra","state":"Uttar Pradesh","latitude":27.1767,"longitude":78.0081,"temp":31.4,"humidity":32,"rain":0.0,"pressure":983.7,"uv_index":8.1,"wind_gusts":39.2,"aqi":860,"pm10":787.9,"pm2_5":170.4,"no2":23.3,"co":333.0,"o3":43.0,"so2":12.6,"mosquito_risk":0,"arthritis_risk":5,"migraine_risk":7,"frizz_risk":0,"updated_at":"2026-05-23T02:44:04.593927+05:30"},{"city":"Varanasi","state":"Uttar Pradesh","latitude":25.3176,"longitude":82.9739,"temp":33.2,"humidity":46,"rain":0.0,"pressure":992.4,"uv_index":8.75,"wind_gusts":51.1,"aqi":155,"pm10":105.2,"pm2_5":45.1,"no2":29.2,"co":707.0,"o3":37.0,"so2":9.6,"mosquito_risk":0,"arthritis_risk":5,"migraine_risk":7,"frizz_risk":1,"updated_at":"2026-05-23T02:44:04.593934+05:30"},{"city":"Prayagraj","state":"Uttar Pradesh","latitude":25.4358,"longitude":81.8463,"temp":31.8,"humidity":33,"rain":0.0,"pressure":991.0,"uv_index":8.65,"wind_gusts":43.6,"aqi":150,"pm10":122.5,"pm2_5":59.8,"no2":45.5,"co":274.0,"o3":19.0,"so2":11.3,"mosquito_risk":0,"arthritis_risk":5,"migraine_risk":7,"frizz_risk":0,"updated_at":"2026-05-23T02:44:04.593941+05:30"},{"city":"Gorakhpur","state":"Uttar Pradesh","latitude":26.7606,"longitude":83.3732,"temp":28.7,"humidity":79,"rain":0.0,"pressure":992.8,"uv_index":8.6,"wind_gusts":33.5,"aqi":153,"pm10":75.0,"pm2_5":59.8,"no2":13.3,"co":535.0,"o3":97.0,"so2":12.4,"mosquito_risk":7,"arthritis_risk":5,"migraine_risk":7,"frizz_risk":1,"updated_at":"2026-05-23T02:44:04.593950+05:30"},{"city":"Bareilly","state":"Uttar Pradesh","latitude":28.367,"longitude":79.4304,"temp":29.5,"humidity":38,"rain":0.0,"pressure":981.7,"uv_index":8.05,"wind_gusts":46.4,"aqi":163,"pm10":136.0,"pm2_5":73.8,"no2":22.1,"co":314.0,"o3":67.0,"so2":12.2,"mosquito_risk":4,"arthritis_risk":5,"migraine_risk":7,"frizz_risk":0,"updated_at":"2026-05-23T02:44:04.593957+05:30"},{"city":"Aligarh","state":"Uttar Pradesh","latitude":27.8974,"longitude":78.088,"temp":30.9,"humidity":32,"rain":0.0,"pressure":981.2,"uv_index":7.9,"wind_gusts":42.8,"aqi":869,"pm10":851.2,"pm2_5":165.8,"no2":24.7,"co":367.0,"o3":53.0,"so2":22.7,"mosquito_risk":0,"arthritis_risk":5,"migraine_risk":7,"frizz_risk":0,"updated_at":"2026-05-23T02:44:04.593963+05:30"},{"city":"Moradabad","state":"Uttar Pradesh","latitude":28.8386,"longitude":78.7733,"temp":30.5,"humidity":31,"rain":0.0,"pressure":978.8,"uv_index":7.85,"wind_gusts":53.3,"aqi":177,"pm10":161.1,"pm2_5":74.7,"no2":23.5,"co":270.0,"o3":59.0,"so2":10.5,"mosquito_risk":0,"arthritis_risk":5,"migraine_risk":7,"frizz_risk":0,"updated_at":"2026-05-23T02:44:04.593970+05:30"},{"city":"Saharanpur","state":"Uttar Pradesh","latitude":29.9637,"longitude":77.546,"temp":29.8,"humidity":33,"rain":0.0,"pressure":971.4,"uv_index":7.4,"wind_gusts":49.7,"aqi":163,"pm10":81.0,"pm2_5":40.4,"no2":17.0,"co":284.0,"o3":56.0,"so2":9.8,"mosquito_risk":4,"arthritis_risk":5,"migraine_risk":7,"frizz_risk":0,"updated_at":"2026-05-23T02:44:04.593977+05:30"},{"city":"Jhansi","state":"Uttar Pradesh","latitude":25.4484,"longitude":78.5685,"temp":32.7,"humidity":19,"rain":0.0,"pressure":974.3,"uv_index":8.5,"wind_gusts":45.0,"aqi":72,"pm10":35.6,"pm2_5":18.0,"no2":3.6,"co":145.0,"o3":70.0,"so2":1.6,"mosquito_risk":0,"arthritis_risk":5,"migraine_risk":7,"frizz_risk":0,"updated_at":"2026-05-23T02:44:07.852268+05:30"},{"city":"Surat","state":"Gujarat","latitude":21.1702,"longitude":72.8311,"temp":29.8,"humidity":81,"rain":0.0,"pressure":1006.9,"uv_index":7.65,"wind_gusts":38.9,"aqi":72,"pm10":19.5,"pm2_5":14.7,"no2":16.3,"co":292.0,"o3":37.0,"so2":28.6,"mosquito_risk":7,"arthritis_risk":5,"migraine_risk":4,"frizz_risk":1,"updated_at":"2026-05-23T02:44:07.852303+05:30"},{"city":"Vadodara","state":"Gujarat","latitude":22.3072,"longitude":73.1812,"temp":30.4,"humidity":71,"rain":0.0,"pressure":1003.7,"uv_index":8.1,"wind_gusts":41.0,"aqi":73,"pm10":20.4,"pm2_5":16.0,"no2":15.5,"co":117.0,"o3":31.0,"so2":17.8,"mosquito_risk":3,"arthritis_risk":5,"migraine_risk":4,"frizz_risk":1,"updated_at":"2026-05-23T02:44:07.852314+05:30"},{"city":"Rajkot","state":"Gujarat","latitude":22.3039,"longitude":70.8022,"temp":28.6,"humidity":79,"rain":0.0,"pressure":994.2,"uv_index":7.75,"wind_gusts":45.0,"aqi":73,"pm10":27.6,"pm2_5":16.1,"no2":4.5,"co":119.0,"o3":48.0,"so2":4.8,"mosquito_risk":7,"arthritis_risk":5,"migraine_risk":7,"frizz_risk":1,"updated_at":"2026-05-23T02:44:07.852322+05:30"},{"city":"Thane","state":"Maharashtra","latitude":19.2183,"longitude":72.9781,"temp":28.9,"humidity":89,"rain":0.0,"pressure":1008.1,"uv_index":7.05,"wind_gusts":31.7,"aqi":63,"pm10":15.6,"pm2_5":11.0,"no2":10.7,"co":204.0,"o3":48.0,"so2":11.3,"mosquito_risk":7,"arthritis_risk":0,"migraine_risk":4,"frizz_risk":1,"updated_at":"2026-05-23T02:44:07.852330+05:30"},{"city":"Nagpur","state":"Maharashtra","latitude":21.1458,"longitude":79.0882,"temp":35.6,"humidity":22,"rain":0.0,"pressure":970.0,"uv_index":8.3,"wind_gusts":56.5,"aqi":63,"pm10":23.7,"pm2_5":19.3,"no2":9.4,"co":187.0,"o3":82.0,"so2":9.6,"mosquito_risk":0,"arthritis_risk":5,"migraine_risk":10,"frizz_risk":0,"updated_at":"2026-05-23T02:44:07.852338+05:30"},{"city":"Nashik","state":"Maharashtra","latitude":19.9975,"longitude":73.7898,"temp":25.3,"humidity":86,"rain":0.0,"pressure":946.0,"uv_index":8.15,"wind_gusts":47.2,"aqi":52,"pm10":17.1,"pm2_5":12.7,"no2":11.9,"co":214.0,"o3":41.0,"so2":12.9,"mosquito_risk":7,"arthritis_risk":5,"migraine_risk":7,"frizz_risk":1,"updated_at":"2026-05-23T02:44:07.852346+05:30"},{"city":"Aurangabad","state":"Maharashtra","latitude":19.8762,"longitude":75.3433,"temp":27.9,"humidity":69,"rain":0.0,"pressure":944.2,"uv_index":9.05,"wind_gusts":40.0,"aqi":60,"pm10":16.1,"pm2_5":12.4,"no2":9.5,"co":169.0,"o3":53.0,"so2":8.6,"mosquito_risk":7,"arthritis_risk":5,"migraine_risk":7,"frizz_risk":1,"updated_at":"2026-05-23T02:44:07.852354+05:30"},{"city":"Solapur","state":"Maharashtra","latitude":17.6599,"longitude":75.9064,"temp":27.9,"humidity":69,"rain":0.0,"pressure":957.3,"uv_index":9.0,"wind_gusts":43.6,"aqi":62,"pm10":14.9,"pm2_5":14.0,"no2":10.7,"co":195.0,"o3":58.0,"so2":2.5,"mosquito_risk":7,"arthritis_risk":5,"migraine_risk":7,"frizz_risk":1,"updated_at":"2026-05-23T02:44:07.852361+05:30"},{"city":"Kolhapur","state":"Maharashtra","latitude":16.705,"longitude":74.2433,"temp":24.2,"humidity":92,"rain":0.0,"pressure":948.4,"uv_index":8.8,"wind_gusts":36.4,"aqi":34,"pm10":11.1,"pm2_5":9.5,"no2":8.0,"co":200.0,"o3":41.0,"so2":3.1,"mosquito_risk":3,"arthritis_risk":5,"migraine_risk":7,"frizz_risk":1,"updated_at":"2026-05-23T02:44:07.852369+05:30"},{"city":"Goa","state":"Goa","latitude":15.2993,"longitude":74.124,"temp":26.5,"humidity":91,"rain":0.0,"pressure":999.0,"uv_index":8.75,"wind_gusts":32.8,"aqi":36,"pm10":11.7,"pm2_5":9.7,"no2":5.2,"co":228.0,"o3":48.0,"so2":1.0,"mosquito_risk":7,"arthritis_risk":5,"migraine_risk":7,"frizz_risk":1,"updated_at":"2026-05-23T02:44:07.852376+05:30"},{"city":"Jodhpur","state":"Rajasthan","latitude":26.2389,"longitude":73.0243,"temp":32.0,"humidity":34,"rain":0.0,"pressure":980.5,"uv_index":8.4,"wind_gusts":42.1,"aqi":158,"pm10":206.3,"pm2_5":55.8,"no2":6.7,"co":169.0,"o3":50.0,"so2":2.8,"mosquito_risk":0,"arthritis_risk":5,"migraine_risk":7,"frizz_risk":0,"updated_at":"2026-05-23T02:44:07.852384+05:30"},{"city":"Udaipur","state":"Rajasthan","latitude":24.5854,"longitude":73.7125,"temp":30.0,"humidity":30,"rain":0.0,"pressure":945.8,"uv_index":8.85,"wind_gusts":42.8,"aqi":77,"pm10":105.7,"pm2_5":35.4,"no2":2.9,"co":144.0,"o3":72.0,"so2":2.6,"mosquito_risk":4,"arthritis_risk":5,"migraine_risk":7,"frizz_risk":0,"updated_at":"2026-05-23T02:44:07.852391+05:30"},{"city":"Kota","state":"Rajasthan","latitude":25.2138,"longitude":75.8648,"temp":32.5,"humidity":22,"rain":0.0,"pressure":976.7,"uv_index":8.4,"wind_gusts":46.1,"aqi":69,"pm10":102.4,"pm2_5":39.3,"no2":5.4,"co":150.0,"o3":63.0,"so2":2.8,"mosquito_risk":0,"arthritis_risk":5,"migraine_risk":7,"frizz_risk":0,"updated_at":"2026-05-23T02:44:07.852399+05:30"},{"city":"Bikaner","state":"Rajasthan","latitude":28.0229,"longitude":73.3119,"temp":32.7,"humidity":27,"rain":0.0,"pressure":978.6,"uv_index":8.35,"wind_gusts":42.5,"aqi":160,"pm10":248.7,"pm2_5":70.1,"no2":2.3,"co":134.0,"o3":61.0,"so2":1.9,"mosquito_risk":0,"arthritis_risk":5,"migraine_risk":7,"frizz_risk":0,"updated_at":"2026-05-23T02:44:07.852405+05:30"},{"city":"Ajmer","state":"Rajasthan","latitude":26.4499,"longitude":74.6399,"temp":30.2,"humidity":31,"rain":0.0,"pressure":952.9,"uv_index":8.4,"wind_gusts":51.5,"aqi":95,"pm10":162.1,"pm2_5":49.4,"no2":4.4,"co":160.0,"o3":71.0,"so2":4.5,"mosquito_risk":0,"arthritis_risk":5,"migraine_risk":7,"frizz_risk":0,"updated_at":"2026-05-23T02:44:07.852412+05:30"},{"city":"Gwalior","state":"Madhya Pradesh","latitude":26.2183,"longitude":78.1828,"temp":33.0,"humidity":20,"rain":0.0,"pressure":979.7,"uv_index":8.25,"wind_gusts":45.0,"aqi":96,"pm10":53.9,"pm2_5":25.5,"no2":6.2,"co":162.0,"o3":59.0,"so2":3.0,"mosquito_risk":0,"arthritis_risk":5,"migraine_risk":7,"frizz_risk":0,"updated_at":"2026-05-23T02:44:07.852419+05:30"},{"city":"Indore","state":"Madhya Pradesh","latitude":22.7196,"longitude":75.8577,"temp":30.2,"humidity":42,"rain":0.0,"pressure":947.6,"uv_index":8.7,"wind_gusts":53.3,"aqi":68,"pm10":36.1,"pm2_5":26.6,"no2":4.2,"co":191.0,"o3":101.0,"so2":9.6,"mosquito_risk":0,"arthritis_risk":5,"migraine_risk":7,"frizz_risk":0,"updated_at":"2026-05-23T02:44:07.852426+05:30"},{"city":"Bhopal","state":"Madhya Pradesh","latitude":23.2599,"longitude":77.4126,"temp":33.1,"humidity":26,"rain":0.0,"pressure":952.1,"uv_index":8.75,"wind_gusts":47.2,"aqi":58,"pm10":28.3,"pm2_5":21.9,"no2":5.7,"co":212.0,"o3":68.0,"so2":4.4,"mosquito_risk":0,"arthritis_risk":5,"migraine_risk":7,"frizz_risk":0,"updated_at":"2026-05-23T02:44:07.852433+05:30"},{"city":"Jabalpur","state":"Madhya Pradesh","latitude":23.1815,"longitude":79.9864,"temp":30.5,"humidity":27,"rain":0.0,"pressure":958.0,"uv_index":8.9,"wind_gusts":41.4,"aqi":57,"pm10":50.8,"pm2_5":27.6,"no2":27.4,"co":320.0,"o3":38.0,"so2":4.8,"mosquito_risk":0,"arthritis_risk":5,"migraine_risk":7,"frizz_risk":0,"updated_at":"2026-05-23T02:44:07.852440+05:30"},{"city":"Ujjain","state":"Madhya Pradesh","latitude":23.1765,"longitude":75.7885,"temp":30.6,"humidity":41,"rain":0.0,"pressure":953.2,"uv_index":8.65,"wind_gusts":50.8,"aqi":71,"pm10":34.0,"pm2_5":26.2,"no2":4.4,"co":194.0,"o3":94.0,"so2":11.2,"mosquito_risk":0,"arthritis_risk":5,"migraine_risk":7,"frizz_risk":0,"updated_at":"2026-05-23T02:44:07.852447+05:30"},{"city":"Visakhapatnam","state":"Andhra Pradesh","latitude":17.6868,"longitude":83.2185,"temp":31.2,"humidity":71,"rain":0.0,"pressure":998.2,"uv_index":9.05,"wind_gusts":33.8,"aqi":135,"pm10":70.1,"pm2_5":60.1,"no2":43.6,"co":430.0,"o3":55.0,"so2":37.4,"mosquito_risk":3,"arthritis_risk":5,"migraine_risk":7,"frizz_risk":1,"updated_at":"2026-05-23T02:44:07.852454+05:30"},{"city":"Vijayawada","state":"Andhra Pradesh","latitude":16.5062,"longitude":80.648,"temp":33.2,"humidity":44,"rain":0.0,"pressure":998.6,"uv_index":8.75,"wind_gusts":49.7,"aqi":85,"pm10":29.3,"pm2_5":26.5,"no2":9.4,"co":262.0,"o3":85.0,"so2":5.7,"mosquito_risk":0,"arthritis_risk":5,"migraine_risk":7,"frizz_risk":1,"updated_at":"2026-05-23T02:44:07.852462+05:30"},{"city":"Guntur","state":"Andhra Pradesh","latitude":16.3067,"longitude":80.4365,"temp":33.3,"humidity":43,"rain":0.0,"pressure":999.9,"uv_index":8.7,"wind_gusts":50.8,"aqi":82,"pm10":29.5,"pm2_5":25.8,"no2":8.1,"co":235.0,"o3":97.0,"so2":8.1,"mosquito_risk":0,"arthritis_risk":5,"migraine_risk":7,"frizz_risk":1,"updated_at":"2026-05-23T02:44:07.852469+05:30"},{"city":"Nellore","state":"Andhra Pradesh","latitude":14.4426,"longitude":79.9865,"temp":32.2,"humidity":53,"rain":0.0,"pressure":1003.0,"uv_index":9.1,"wind_gusts":60.5,"aqi":80,"pm10":28.5,"pm2_5":22.9,"no2":7.0,"co":174.0,"o3":83.0,"so2":5.9,"mosquito_risk":0,"arthritis_risk":5,"migraine_risk":4,"frizz_risk":1,"updated_at":"2026-05-23T02:44:07.852477+05:30"},{"city":"Kurnool","state":"Andhra Pradesh","latitude":15.8281,"longitude":78.0373,"temp":28.5,"humidity":65,"rain":0.0,"pressure":976.1,"uv_index":9.05,"wind_gusts":46.4,"aqi":52,"pm10":12.8,"pm2_5":11.1,"no2":7.7,"co":203.0,"o3":76.0,"so2":3.7,"mosquito_risk":7,"arthritis_risk":5,"migraine_risk":7,"frizz_risk":1,"updated_at":"2026-05-23T02:44:07.852485+05:30"},{"city":"Kakinada","state":"Andhra Pradesh","latitude":16.9891,"longitude":82.2475,"temp":31.0,"humidity":72,"rain":0.0,"pressure":1002.4,"uv_index":9.05,"wind_gusts":47.9,"aqi":94,"pm10":40.5,"pm2_5":32.6,"no2":9.4,"co":466.0,"o3":92.0,"so2":6.3,"mosquito_risk":3,"arthritis_risk":5,"migraine_risk":4,"frizz_risk":1,"updated_at":"2026-05-23T02:44:07.852492+05:30"},{"city":"Tirupati","state":"Andhra Pradesh","latitude":13.6288,"longitude":79.4192,"temp":29.2,"humidity":64,"rain":0.0,"pressure":989.3,"uv_index":8.3,"wind_gusts":37.1,"aqi":59,"pm10":30.0,"pm2_5":21.4,"no2":8.8,"co":159.0,"o3":68.0,"so2":2.1,"mosquito_risk":7,"arthritis_risk":5,"migraine_risk":7,"frizz_risk":1,"updated_at":"2026-05-23T02:44:07.852499+05:30"},{"city":"Warangal","state":"Telangana","latitude":17.9689,"longitude":79.5941,"temp":32.7,"humidity":44,"rain":0.0,"pressure":975.0,"uv_index":9.15,"wind_gusts":57.2,"aqi":94,"pm10":38.2,"pm2_5":33.3,"no2":12.5,"co":238.0,"o3":78.0,"so2":6.2,"mosquito_risk":0,"arthritis_risk":5,"migraine_risk":7,"frizz_risk":1,"updated_at":"2026-05-23T02:44:07.852505+05:30"},{"city":"Nizamabad","state":"Telangana","latitude":18.6725,"longitude":78.0941,"temp":32.6,"humidity":41,"rain":0.0,"pressure":962.9,"uv_index":9.1,"wind_gusts":49.3,"aqi":83,"pm10":30.6,"pm2_5":25.8,"no2":6.7,"co":186.0,"o3":99.0,"so2":8.0,"mosquito_risk":0,"arthritis_risk":5,"migraine_risk":7,"frizz_risk":1,"updated_at":"2026-05-23T02:44:07.852512+05:30"},{"city":"Mysore","state":"Karnataka","latitude":12.2958,"longitude":76.6396,"temp":22.1,"humidity":88,"rain":0.0,"pressure":929.2,"uv_index":8.0,"wind_gusts":36.0,"aqi":25,"pm10":5.6,"pm2_5":5.1,"no2":7.3,"co":142.0,"o3":44.0,"so2":2.1,"mosquito_risk":3,"arthritis_risk":5,"migraine_risk":7,"frizz_risk":1,"updated_at":"2026-05-23T02:44:07.852520+05:30"},{"city":"Mangalore","state":"Karnataka","latitude":12.9141,"longitude":74.856,"temp":25.0,"humidity":95,"rain":0.0,"pressure":1008.4,"uv_index":8.3,"wind_gusts":25.2,"aqi":34,"pm10":11.1,"pm2_5":9.1,"no2":8.4,"co":302.0,"o3":41.0,"so2":2.5,"mosquito_risk":7,"arthritis_risk":0,"migraine_risk":4,"frizz_risk":1,"updated_at":"2026-05-23T02:44:07.852527+05:30"},{"city":"Hubli-Dharwad","state":"Karnataka","latitude":15.3647,"longitude":75.124,"temp":23.4,"humidity":95,"rain":0.0,"pressure":941.5,"uv_index":9.05,"wind_gusts":37.8,"aqi":23,"pm10":4.8,"pm2_5":4.1,"no2":6.1,"co":125.0,"o3":42.0,"so2":1.1,"mosquito_risk":3,"arthritis_risk":5,"migraine_risk":7,"frizz_risk":1,"updated_at":"2026-05-23T02:44:07.852534+05:30"},{"city":"Belgaum","state":"Karnataka","latitude":15.8497,"longitude":74.4977,"temp":22.9,"humidity":95,"rain":0.0,"pressure":926.3,"uv_index":8.85,"wind_gusts":36.0,"aqi":28,"pm10":10.4,"pm2_5":8.7,"no2":7.7,"co":123.0,"o3":38.0,"so2":1.6,"mosquito_risk":3,"arthritis_risk":5,"migraine_risk":7,"frizz_risk":1,"updated_at":"2026-05-23T02:44:11.139402+05:30"},{"city":"Coimbatore","state":"Tamil Nadu","latitude":11.0168,"longitude":76.9558,"temp":24.0,"humidity":92,"rain":0.0,"pressure":961.9,"uv_index":8.5,"wind_gusts":50.8,"aqi":24,"pm10":6.2,"pm2_5":5.1,"no2":6.2,"co":137.0,"o3":44.0,"so2":2.5,"mosquito_risk":3,"arthritis_risk":5,"migraine_risk":7,"frizz_risk":1,"updated_at":"2026-05-23T02:44:11.139437+05:30"},{"city":"Madurai","state":"Tamil Nadu","latitude":9.9252,"longitude":78.1198,"temp":28.0,"humidity":65,"rain":0.0,"pressure":992.1,"uv_index":8.9,"wind_gusts":42.8,"aqi":53,"pm10":16.9,"pm2_5":16.4,"no2":31.8,"co":144.0,"o3":7.0,"so2":5.3,"mosquito_risk":7,"arthritis_risk":5,"migraine_risk":7,"frizz_risk":1,"updated_at":"2026-05-23T02:44:11.139449+05:30"},{"city":"Trichy","state":"Tamil Nadu","latitude":10.7905,"longitude":78.7047,"temp":28.1,"humidity":70,"rain":0.0,"pressure":998.6,"uv_index":8.25,"wind_gusts":42.5,"aqi":29,"pm10":5.8,"pm2_5":4.8,"no2":6.5,"co":162.0,"o3":45.0,"so2":2.6,"mosquito_risk":7,"arthritis_risk":5,"migraine_risk":7,"frizz_risk":1,"updated_at":"2026-05-23T02:44:11.139458+05:30"},{"city":"Salem","state":"Tamil Nadu","latitude":11.6643,"longitude":78.146,"temp":28.1,"humidity":65,"rain":0.0,"pressure":977.4,"uv_index":7.95,"wind_gusts":35.3,"aqi":53,"pm10":20.5,"pm2_5":16.6,"no2":21.4,"co":176.0,"o3":30.0,"so2":6.1,"mosquito_risk":7,"arthritis_risk":5,"migraine_risk":7,"frizz_risk":1,"updated_at":"2026-05-23T02:44:11.139466+05:30"},{"city":"Tirunelveli","state":"Tamil Nadu","latitude":8.7139,"longitude":77.7567,"temp":27.9,"humidity":73,"rain":0.0,"pressure":1002.8,"uv_index":7.3,"wind_gusts":42.1,"aqi":24,"pm10":8.6,"pm2_5":7.2,"no2":6.3,"co":166.0,"o3":41.0,"so2":1.7,"mosquito_risk":7,"arthritis_risk":5,"migraine_risk":4,"frizz_risk":1,"updated_at":"2026-05-23T02:44:11.139473+05:30"},{"city":"Vellore","state":"Tamil Nadu","latitude":12.9165,"longitude":79.1325,"temp":28.0,"humidity":67,"rain":0.0,"pressure":983.3,"uv_index":5.4,"wind_gusts":40.0,"aqi":59,"pm10":21.8,"pm2_5":18.9,"no2":13.9,"co":192.0,"o3":48.0,"so2":4.3,"mosquito_risk":7,"arthritis_risk":5,"migraine_risk":3,"frizz_risk":1,"updated_at":"2026-05-23T02:44:11.139481+05:30"},{"city":"Erode","state":"Tamil Nadu","latitude":11.341,"longitude":77.7172,"temp":27.4,"humidity":72,"rain":0.0,"pressure":989.1,"uv_index":8.25,"wind_gusts":40.3,"aqi":34,"pm10":9.7,"pm2_5":8.4,"no2":11.0,"co":155.0,"o3":39.0,"so2":3.2,"mosquito_risk":7,"arthritis_risk":5,"migraine_risk":7,"frizz_risk":1,"updated_at":"2026-05-23T02:44:11.139489+05:30"},{"city":"Kochi","state":"Kerala","latitude":9.9312,"longitude":76.2673,"temp":25.9,"humidity":99,"rain":0.0,"pressure":1010.3,"uv_index":8.2,"wind_gusts":31.7,"aqi":52,"pm10":15.1,"pm2_5":14.5,"no2":28.1,"co":324.0,"o3":7.0,"so2":6.4,"mosquito_risk":7,"arthritis_risk":0,"migraine_risk":4,"frizz_risk":1,"updated_at":"2026-05-23T02:44:11.139496+05:30"},{"city":"Thiruvananthapuram","state":"Kerala","latitude":8.5241,"longitude":76.9366,"temp":25.0,"humidity":96,"rain":0.0,"pressure":1009.5,"uv_index":7.85,"wind_gusts":43.9,"aqi":29,"pm10":12.1,"pm2_5":8.3,"no2":3.7,"co":201.0,"o3":59.0,"so2":1.6,"mosquito_risk":7,"arthritis_risk":0,"migraine_risk":4,"frizz_risk":1,"updated_at":"2026-05-23T02:44:11.139503+05:30"},{"city":"Kozhikode","state":"Kerala","latitude":11.2588,"longitude":75.7804,"temp":25.3,"humidity":98,"rain":0.0,"pressure":1009.4,"uv_index":7.55,"wind_gusts":33.5,"aqi":30,"pm10":7.9,"pm2_5":5.4,"no2":1.9,"co":507.0,"o3":66.0,"so2":0.9,"mosquito_risk":7,"arthritis_risk":0,"migraine_risk":4,"frizz_risk":1,"updated_at":"2026-05-23T02:44:11.139510+05:30"},{"city":"Thrissur","state":"Kerala","latitude":10.5276,"longitude":76.2144,"temp":25.0,"humidity":98,"rain":0.0,"pressure":1008.8,"uv_index":8.4,"wind_gusts":34.2,"aqi":52,"pm10":29.0,"pm2_5":28.0,"no2":24.1,"co":322.0,"o3":10.0,"so2":4.9,"mosquito_risk":7,"arthritis_risk":0,"migraine_risk":4,"frizz_risk":1,"updated_at":"2026-05-23T02:44:11.139518+05:30"},{"city":"Kannur","state":"Kerala","latitude":11.8745,"longitude":75.3704,"temp":25.4,"humidity":94,"rain":0.0,"pressure":1008.7,"uv_index":7.95,"wind_gusts":33.5,"aqi":30,"pm10":11.2,"pm2_5":9.3,"no2":9.0,"co":297.0,"o3":36.0,"so2":2.4,"mosquito_risk":7,"arthritis_risk":0,"migraine_risk":4,"frizz_risk":1,"updated_at":"2026-05-23T02:44:11.139524+05:30"},{"city":"Patna","state":"Bihar","latitude":25.5941,"longitude":85.1376,"temp":29.0,"humidity":82,"rain":0.0,"pressure":995.7,"uv_index":8.85,"wind_gusts":29.9,"aqi":151,"pm10":46.1,"pm2_5":42.1,"no2":12.7,"co":496.0,"o3":112.0,"so2":20.8,"mosquito_risk":7,"arthritis_risk":5,"migraine_risk":7,"frizz_risk":1,"updated_at":"2026-05-23T02:44:11.139530+05:30"},{"city":"Gaya","state":"Bihar","latitude":24.7914,"longitude":85.0002,"temp":28.2,"humidity":82,"rain":0.0,"pressure":989.1,"uv_index":8.9,"wind_gusts":34.9,"aqi":156,"pm10":79.6,"pm2_5":61.5,"no2":20.0,"co":683.0,"o3":73.0,"so2":15.1,"mosquito_risk":7,"arthritis_risk":5,"migraine_risk":7,"frizz_risk":1,"updated_at":"2026-05-23T02:44:11.139537+05:30"},{"city":"Muzaffarpur","state":"Bihar","latitude":26.1209,"longitude":85.3647,"temp":27.9,"humidity":90,"rain":0.0,"pressure":996.2,"uv_index":8.85,"wind_gusts":28.1,"aqi":150,"pm10":51.0,"pm2_5":46.4,"no2":14.0,"co":516.0,"o3":97.0,"so2":17.9,"mosquito_risk":7,"arthritis_risk":5,"migraine_risk":7,"frizz_risk":1,"updated_at":"2026-05-23T02:44:11.139543+05:30"},{"city":"Bhagalpur","state":"Bihar","latitude":25.2425,"longitude":87.0117,"temp":28.0,"humidity":92,"rain":0.0,"pressure":996.6,"uv_index":8.8,"wind_gusts":31.7,"aqi":124,"pm10":58.3,"pm2_5":51.0,"no2":13.7,"co":400.0,"o3":86.0,"so2":16.7,"mosquito_risk":7,"arthritis_risk":5,"migraine_risk":7,"frizz_risk":1,"updated_at":"2026-05-23T02:44:11.139550+05:30"},{"city":"Ranchi","state":"Jharkhand","latitude":23.3441,"longitude":85.3096,"temp":25.0,"humidity":60,"rain":0.0,"pressure":933.8,"uv_index":9.3,"wind_gusts":36.0,"aqi":145,"pm10":268.2,"pm2_5":74.0,"no2":34.9,"co":389.0,"o3":52.0,"so2":7.5,"mosquito_risk":4,"arthritis_risk":5,"migraine_risk":7,"frizz_risk":1,"updated_at":"2026-05-23T02:44:11.139557+05:30"},{"city":"Jamshedpur","state":"Jharkhand","latitude":22.8046,"longitude":86.2029,"temp":29.0,"humidity":92,"rain":0.0,"pressure":986.7,"uv_index":9.1,"wind_gusts":26.6,"aqi":152,"pm10":77.3,"pm2_5":65.2,"no2":27.7,"co":656.0,"o3":52.0,"so2":22.7,"mosquito_risk":7,"arthritis_risk":5,"migraine_risk":7,"frizz_risk":1,"updated_at":"2026-05-23T02:44:11.139563+05:30"},{"city":"Dhanbad","state":"Jharkhand","latitude":23.7957,"longitude":86.4304,"temp":28.6,"humidity":79,"rain":0.0,"pressure":975.7,"uv_index":9.05,"wind_gusts":45.7,"aqi":163,"pm10":94.1,"pm2_5":86.6,"no2":61.1,"co":719.0,"o3":34.0,"so2":146.4,"mosquito_risk":7,"arthritis_risk":5,"migraine_risk":7,"frizz_risk":1,"updated_at":"2026-05-23T02:44:11.139570+05:30"},{"city":"Bokaro","state":"Jharkhand","latitude":23.6693,"longitude":86.1511,"temp":28.4,"humidity":79,"rain":0.0,"pressure":979.5,"uv_index":9.1,"wind_gusts":40.3,"aqi":160,"pm10":140.6,"pm2_5":99.9,"no2":72.9,"co":2002.0,"o3":13.0,"so2":121.3,"mosquito_risk":7,"arthritis_risk":5,"migraine_risk":7,"frizz_risk":1,"updated_at":"2026-05-23T02:44:11.139577+05:30"},{"city":"Bhubaneswar","state":"Odisha","latitude":20.2961,"longitude":85.8245,"temp":29.4,"humidity":95,"rain":0.0,"pressure":998.2,"uv_index":8.4,"wind_gusts":34.9,"aqi":95,"pm10":29.4,"pm2_5":21.4,"no2":4.2,"co":226.0,"o3":91.0,"so2":4.6,"mosquito_risk":7,"arthritis_risk":5,"migraine_risk":7,"frizz_risk":1,"updated_at":"2026-05-23T02:44:11.139583+05:30"},{"city":"Cuttack","state":"Odisha","latitude":20.4625,"longitude":85.8828,"temp":29.5,"humidity":94,"rain":0.0,"pressure":1000.0,"uv_index":8.55,"wind_gusts":31.7,"aqi":95,"pm10":29.4,"pm2_5":21.4,"no2":4.2,"co":238.0,"o3":91.0,"so2":4.6,"mosquito_risk":7,"arthritis_risk":5,"migraine_risk":4,"frizz_risk":1,"updated_at":"2026-05-23T02:44:11.139590+05:30"},{"city":"Rourkela","state":"Odisha","latitude":22.2604,"longitude":84.8536,"temp":29.9,"humidity":75,"rain":0.0,"pressure":981.0,"uv_index":9.0,"wind_gusts":28.1,"aqi":163,"pm10":134.6,"pm2_5":99.2,"no2":37.1,"co":433.0,"o3":58.0,"so2":31.7,"mosquito_risk":7,"arthritis_risk":5,"migraine_risk":7,"frizz_risk":1,"updated_at":"2026-05-23T02:44:11.139597+05:30"},{"city":"Raipur","state":"Chhattisgarh","latitude":21.2514,"longitude":81.6296,"temp":32.5,"humidity":27,"rain":0.0,"pressure":970.4,"uv_index":8.95,"wind_gusts":36.4,"aqi":131,"pm10":67.1,"pm2_5":61.0,"no2":59.9,"co":499.0,"o3":12.0,"so2":36.0,"mosquito_risk":0,"arthritis_risk":5,"migraine_risk":7,"frizz_risk":0,"updated_at":"2026-05-23T02:44:11.139604+05:30"},{"city":"Bhilai","state":"Chhattisgarh","latitude":21.1938,"longitude":81.3509,"temp":31.2,"humidity":33,"rain":0.0,"pressure":970.7,"uv_index":9.0,"wind_gusts":48.2,"aqi":84,"pm10":38.0,"pm2_5":33.5,"no2":38.6,"co":510.0,"o3":32.0,"so2":36.6,"mosquito_risk":0,"arthritis_risk":5,"migraine_risk":7,"frizz_risk":0,"updated_at":"2026-05-23T02:44:11.139610+05:30"},{"city":"Guwahati","state":"Assam","latitude":26.1158,"longitude":91.7086,"temp":23.2,"humidity":100,"rain":0.2,"pressure":999.2,"uv_index":8.75,"wind_gusts":25.6,"aqi":73,"pm10":14.2,"pm2_5":10.3,"no2":5.3,"co":288.0,"o3":89.0,"so2":2.3,"mosquito_risk":6,"arthritis_risk":5,"migraine_risk":7,"frizz_risk":1,"updated_at":"2026-05-23T02:44:11.139617+05:30"},{"city":"Agartala","state":"Tripura","latitude":23.8315,"longitude":91.2868,"temp":24.6,"humidity":99,"rain":0.0,"pressure":1003.8,"uv_index":8.65,"wind_gusts":35.6,"aqi":83,"pm10":25.7,"pm2_5":20.2,"no2":10.5,"co":246.0,"o3":49.0,"so2":3.3,"mosquito_risk":3,"arthritis_risk":5,"migraine_risk":4,"frizz_risk":1,"updated_at":"2026-05-23T02:44:11.139624+05:30"},{"city":"Shillong","state":"Meghalaya","latitude":25.5788,"longitude":91.8933,"temp":19.5,"humidity":95,"rain":0.0,"pressure":854.9,"uv_index":9.1,"wind_gusts":44.6,"aqi":54,"pm10":2.2,"pm2_5":1.4,"no2":3.6,"co":264.0,"o3":98.0,"so2":2.9,"mosquito_risk":3,"arthritis_risk":10,"migraine_risk":7,"frizz_risk":1,"updated_at":"2026-05-23T02:44:11.139631+05:30"},{"city":"Imphal","state":"Manipur","latitude":24.817,"longitude":93.9368,"temp":22.5,"humidity":94,"rain":0.1,"pressure":921.3,"uv_index":9.3,"wind_gusts":37.4,"aqi":66,"pm10":7.0,"pm2_5":5.6,"no2":4.3,"co":265.0,"o3":70.0,"so2":1.9,"mosquito_risk":6,"arthritis_risk":5,"migraine_risk":7,"frizz_risk":1,"updated_at":"2026-05-23T02:44:11.139639+05:30"},{"city":"Aizawl","state":"Mizoram","latitude":23.7271,"longitude":92.7176,"temp":18.8,"humidity":98,"rain":0.0,"pressure":890.2,"uv_index":9.1,"wind_gusts":37.4,"aqi":56,"pm10":4.9,"pm2_5":3.4,"no2":3.9,"co":196.0,"o3":50.0,"so2":1.0,"mosquito_risk":3,"arthritis_risk":10,"migraine_risk":7,"frizz_risk":1,"updated_at":"2026-05-23T02:44:11.139646+05:30"},{"city":"Kohima","state":"Nagaland","latitude":25.6701,"longitude":94.1077,"temp":17.5,"humidity":96,"rain":0.0,"pressure":852.2,"uv_index":9.25,"wind_gusts":26.3,"aqi":67,"pm10":9.9,"pm2_5":6.8,"no2":2.9,"co":265.0,"o3":78.0,"so2":0.9,"mosquito_risk":3,"arthritis_risk":10,"migraine_risk":7,"frizz_risk":1,"updated_at":"2026-05-23T02:44:11.139653+05:30"},{"city":"Gangtok","state":"Sikkim","latitude":27.3314,"longitude":88.6138,"temp":16.1,"humidity":91,"rain":0.0,"pressure":834.2,"uv_index":9.15,"wind_gusts":37.8,"aqi":52,"pm10":14.6,"pm2_5":10.6,"no2":4.2,"co":563.0,"o3":119.0,"so2":2.3,"mosquito_risk":3,"arthritis_risk":10,"migraine_risk":7,"frizz_risk":0,"updated_at":"2026-05-23T02:44:11.139659+05:30"},{"city":"Siliguri","state":"West Bengal","latitude":26.7271,"longitude":88.3953,"temp":23.2,"humidity":96,"rain":0.0,"pressure":989.7,"uv_index":8.75,"wind_gusts":22.0,"aqi":84,"pm10":29.1,"pm2_5":19.2,"no2":7.2,"co":398.0,"o3":109.0,"so2":2.4,"mosquito_risk":3,"arthritis_risk":5,"migraine_risk":7,"frizz_risk":1,"updated_at":"2026-05-23T02:44:14.407661+05:30"},{"city":"Durgapur","state":"West Bengal","latitude":23.5204,"longitude":87.3119,"temp":28.3,"humidity":97,"rain":0.0,"pressure":990.7,"uv_index":9.0,"wind_gusts":32.0,"aqi":153,"pm10":42.4,"pm2_5":38.2,"no2":23.9,"co":452.0,"o3":45.0,"so2":31.8,"mosquito_risk":7,"arthritis_risk":5,"migraine_risk":7,"frizz_risk":1,"updated_at":"2026-05-23T02:44:14.407713+05:30"},{"city":"Asansol","state":"West Bengal","latitude":23.6739,"longitude":86.9524,"temp":28.2,"humidity":95,"rain":0.0,"pressure":989.2,"uv_index":9.05,"wind_gusts":37.1,"aqi":153,"pm10":46.0,"pm2_5":41.8,"no2":26.3,"co":538.0,"o3":46.0,"so2":36.0,"mosquito_risk":7,"arthritis_risk":5,"migraine_risk":7,"frizz_risk":1,"updated_at":"2026-05-23T02:44:14.407725+05:30"},{"city":"Pondicherry","state":"Puducherry","latitude":11.9139,"longitude":79.8145,"temp":29.6,"humidity":72,"rain":0.0,"pressure":1006.2,"uv_index":8.3,"wind_gusts":31.7,"aqi":65,"pm10":36.6,"pm2_5":27.1,"no2":17.6,"co":202.0,"o3":64.0,"so2":5.5,"mosquito_risk":7,"arthritis_risk":5,"migraine_risk":4,"frizz_risk":1,"updated_at":"2026-05-23T02:44:14.407733+05:30"},{"city":"Port Blair","state":"Andaman and Nicobar Islands","latitude":11.6234,"longitude":92.7265,"temp":24.9,"humidity":97,"rain":0.4,"pressure":1005.9,"uv_index":8.2,"wind_gusts":38.5,"aqi":31,"pm10":5.2,"pm2_5":3.3,"no2":0.2,"co":106.0,"o3":72.0,"so2":0.3,"mosquito_risk":6,"arthritis_risk":5,"migraine_risk":4,"frizz_risk":1,"updated_at":"2026-05-23T02:44:14.407742+05:30"},{"city":"Haridwar","state":"Uttarakhand","latitude":29.9457,"longitude":78.1642,"temp":24.5,"humidity":61,"rain":0.0,"pressure":969.1,"uv_index":7.55,"wind_gusts":47.5,"aqi":151,"pm10":66.8,"pm2_5":38.4,"no2":21.9,"co":320.0,"o3":53.0,"so2":9.4,"mosquito_risk":3,"arthritis_risk":5,"migraine_risk":7,"frizz_risk":1,"updated_at":"2026-05-23T02:44:14.407749+05:30"},{"city":"Rishikesh","state":"Uttarakhand","latitude":30.0869,"longitude":78.2676,"temp":21.3,"humidity":65,"rain":0.0,"pressure":961.7,"uv_index":7.65,"wind_gusts":36.4,"aqi":129,"pm10":124.8,"pm2_5":40.5,"no2":10.9,"co":427.0,"o3":90.0,"so2":7.4,"mosquito_risk":3,"arthritis_risk":5,"migraine_risk":7,"frizz_risk":0,"updated_at":"2026-05-23T02:44:14.407757+05:30"},{"city":"Nainital","state":"Uttarakhand","latitude":29.3919,"longitude":79.4542,"temp":14.6,"humidity":56,"rain":0.0,"pressure":802.1,"uv_index":8.5,"wind_gusts":49.7,"aqi":156,"pm10":155.1,"pm2_5":61.5,"no2":13.7,"co":277.0,"o3":100.0,"so2":6.0,"mosquito_risk":0,"arthritis_risk":5,"migraine_risk":7,"frizz_risk":0,"updated_at":"2026-05-23T02:44:14.407764+05:30"},{"city":"Mussoorie","state":"Uttarakhand","latitude":30.4599,"longitude":78.0664,"temp":17.2,"humidity":46,"rain":0.0,"pressure":801.2,"uv_index":8.05,"wind_gusts":65.2,"aqi":105,"pm10":99.4,"pm2_5":43.4,"no2":39.0,"co":166.0,"o3":30.0,"so2":5.7,"mosquito_risk":0,"arthritis_risk":5,"migraine_risk":7,"frizz_risk":0,"updated_at":"2026-05-23T02:44:14.407772+05:30"},{"city":"Dharamshala","state":"Himachal Pradesh","latitude":32.219,"longitude":76.3234,"temp":21.7,"humidity":44,"rain":0.0,"pressure":867.3,"uv_index":7.2,"wind_gusts":51.1,"aqi":48,"pm10":15.6,"pm2_5":7.6,"no2":11.9,"co":155.0,"o3":48.0,"so2":0.1,"mosquito_risk":0,"arthritis_risk":5,"migraine_risk":7,"frizz_risk":0,"updated_at":"2026-05-23T02:44:14.407779+05:30"},{"city":"Dalhousie","state":"Himachal Pradesh","latitude":32.5387,"longitude":75.971,"temp":12.4,"humidity":67,"rain":0.0,"pressure":800.5,"uv_index":7.75,"wind_gusts":42.1,"aqi":62,"pm10":30.2,"pm2_5":17.6,"no2":28.2,"co":228.0,"o3":22.0,"so2":1.0,"mosquito_risk":3,"arthritis_risk":5,"migraine_risk":7,"frizz_risk":0,"updated_at":"2026-05-23T02:44:14.407787+05:30"},{"city":"Patiala","state":"Punjab","latitude":30.3398,"longitude":76.3869,"temp":29.4,"humidity":39,"rain":0.0,"pressure":974.2,"uv_index":7.65,"wind_gusts":51.1,"aqi":710,"pm10":588.6,"pm2_5":101.0,"no2":11.7,"co":308.0,"o3":64.0,"so2":5.6,"mosquito_risk":4,"arthritis_risk":5,"migraine_risk":7,"frizz_risk":0,"updated_at":"2026-05-23T02:44:14.407795+05:30"},{"city":"Bhatinda","state":"Punjab","latitude":30.211,"longitude":74.9455,"temp":31.0,"humidity":38,"rain":0.0,"pressure":980.0,"uv_index":8.3,"wind_gusts":34.9,"aqi":93,"pm10":66.8,"pm2_5":39.3,"no2":17.8,"co":311.0,"o3":58.0,"so2":8.3,"mosquito_risk":0,"arthritis_risk":5,"migraine_risk":7,"frizz_risk":0,"updated_at":"2026-05-23T02:44:14.407802+05:30"},{"city":"Rohtak","state":"Haryana","latitude":28.8955,"longitude":76.6066,"temp":30.0,"humidity":33,"rain":0.0,"pressure":977.9,"uv_index":7.6,"wind_gusts":43.9,"aqi":794,"pm10":936.9,"pm2_5":188.6,"no2":15.8,"co":296.0,"o3":65.0,"so2":6.2,"mosquito_risk":4,"arthritis_risk":5,"migraine_risk":7,"frizz_risk":0,"updated_at":"2026-05-23T02:44:14.407808+05:30"},{"city":"Panipat","state":"Haryana","latitude":29.3909,"longitude":76.9635,"temp":30.9,"humidity":31,"rain":0.0,"pressure":976.3,"uv_index":7.45,"wind_gusts":47.5,"aqi":1697,"pm10":2242.6,"pm2_5":343.7,"no2":9.7,"co":279.0,"o3":78.0,"so2":4.6,"mosquito_risk":0,"arthritis_risk":5,"migraine_risk":7,"frizz_risk":0,"updated_at":"2026-05-23T02:44:14.407815+05:30"},{"city":"Mathura","state":"Uttar Pradesh","latitude":27.4924,"longitude":77.6737,"temp":31.2,"humidity":33,"rain":0.0,"pressure":982.9,"uv_index":8.0,"wind_gusts":42.1,"aqi":850,"pm10":953.7,"pm2_5":202.6,"no2":23.4,"co":350.0,"o3":48.0,"so2":17.0,"mosquito_risk":0,"arthritis_risk":5,"migraine_risk":7,"frizz_risk":0,"updated_at":"2026-05-23T02:44:14.407823+05:30"},{"city":"Vrindavan","state":"Uttar Pradesh","latitude":27.5823,"longitude":77.7027,"temp":30.5,"humidity":35,"rain":0.0,"pressure":983.3,"uv_index":8.0,"wind_gusts":41.0,"aqi":850,"pm10":953.7,"pm2_5":202.6,"no2":23.4,"co":413.0,"o3":48.0,"so2":17.0,"mosquito_risk":0,"arthritis_risk":5,"migraine_risk":7,"frizz_risk":0,"updated_at":"2026-05-23T02:44:14.407829+05:30"},{"city":"Ayodhya","state":"Uttar Pradesh","latitude":26.7922,"longitude":82.1998,"temp":29.4,"humidity":75,"rain":0.0,"pressure":990.2,"uv_index":8.4,"wind_gusts":45.4,"aqi":153,"pm10":225.8,"pm2_5":74.3,"no2":24.0,"co":631.0,"o3":57.0,"so2":10.5,"mosquito_risk":7,"arthritis_risk":5,"migraine_risk":7,"frizz_risk":1,"updated_at":"2026-05-23T02:44:14.407836+05:30"},{"city":"Ratlam","state":"Madhya Pradesh","latitude":23.3315,"longitude":75.0367,"temp":28.7,"humidity":54,"rain":0.0,"pressure":954.4,"uv_index":8.55,"wind_gusts":47.9,"aqi":72,"pm10":28.9,"pm2_5":23.6,"no2":6.4,"co":198.0,"o3":79.0,"so2":15.9,"mosquito_risk":4,"arthritis_risk":5,"migraine_risk":7,"frizz_risk":1,"updated_at":"2026-05-23T02:44:14.407843+05:30"},{"city":"Sagar","state":"Madhya Pradesh","latitude":23.8388,"longitude":78.7378,"temp":30.9,"humidity":26,"rain":0.0,"pressure":947.6,"uv_index":8.75,"wind_gusts":48.6,"aqi":52,"pm10":21.4,"pm2_5":14.7,"no2":8.6,"co":210.0,"o3":67.0,"so2":5.1,"mosquito_risk":0,"arthritis_risk":5,"migraine_risk":7,"frizz_risk":0,"updated_at":"2026-05-23T02:44:14.407849+05:30"},{"city":"Satna","state":"Madhya Pradesh","latitude":24.6005,"longitude":80.8322,"temp":31.4,"humidity":27,"rain":0.0,"pressure":967.5,"uv_index":8.8,"wind_gusts":48.6,"aqi":56,"pm10":63.3,"pm2_5":25.3,"no2":11.0,"co":180.0,"o3":64.0,"so2":4.6,"mosquito_risk":0,"arthritis_risk":5,"migraine_risk":7,"frizz_risk":0,"updated_at":"2026-05-23T02:44:14.407856+05:30"},{"city":"Akola","state":"Maharashtra","latitude":20.7002,"longitude":77.0082,"temp":33.2,"humidity":44,"rain":0.0,"pressure":973.4,"uv_index":8.9,"wind_gusts":50.0,"aqi":70,"pm10":30.3,"pm2_5":23.7,"no2":7.3,"co":165.0,"o3":89.0,"so2":11.7,"mosquito_risk":0,"arthritis_risk":5,"migraine_risk":7,"frizz_risk":1,"updated_at":"2026-05-23T02:44:14.407863+05:30"},{"city":"Amravati","state":"Maharashtra","latitude":20.9374,"longitude":77.7796,"temp":34.8,"humidity":30,"rain":0.0,"pressure":965.2,"uv_index":8.8,"wind_gusts":51.5,"aqi":68,"pm10":28.8,"pm2_5":22.5,"no2":8.2,"co":198.0,"o3":79.0,"so2":9.2,"mosquito_risk":0,"arthritis_risk":5,"migraine_risk":7,"frizz_risk":0,"updated_at":"2026-05-23T02:44:14.407871+05:30"},{"city":"Latur","state":"Maharashtra","latitude":18.4088,"longitude":76.5604,"temp":29.0,"humidity":61,"rain":0.0,"pressure":939.4,"uv_index":9.05,"wind_gusts":54.4,"aqi":75,"pm10":20.8,"pm2_5":18.5,"no2":6.1,"co":183.0,"o3":95.0,"so2":2.6,"mosquito_risk":7,"arthritis_risk":5,"migraine_risk":7,"frizz_risk":1,"updated_at":"2026-05-23T02:44:14.407878+05:30"},{"city":"Nanded","state":"Maharashtra","latitude":19.1383,"longitude":77.3091,"temp":32.8,"humidity":43,"rain":0.0,"pressure":966.8,"uv_index":9.0,"wind_gusts":46.8,"aqi":82,"pm10":24.3,"pm2_5":20.6,"no2":6.1,"co":168.0,"o3":94.0,"so2":3.0,"mosquito_risk":0,"arthritis_risk":5,"migraine_risk":7,"frizz_risk":1,"updated_at":"2026-05-23T02:44:14.407885+05:30"},{"city":"Gulbarga","state":"Karnataka","latitude":17.3297,"longitude":76.8343,"temp":27.5,"humidity":68,"rain":0.0,"pressure":958.0,"uv_index":9.05,"wind_gusts":52.9,"aqi":61,"pm10":14.3,"pm2_5":13.0,"no2":8.4,"co":187.0,"o3":72.0,"so2":3.0,"mosquito_risk":7,"arthritis_risk":5,"migraine_risk":7,"frizz_risk":1,"updated_at":"2026-05-23T02:44:14.407891+05:30"},{"city":"Bidar","state":"Karnataka","latitude":17.9104,"longitude":77.5199,"temp":28.0,"humidity":62,"rain":0.0,"pressure":934.8,"uv_index":9.05,"wind_gusts":45.7,"aqi":80,"pm10":27.6,"pm2_5":23.9,"no2":6.8,"co":174.0,"o3":94.0,"so2":2.7,"mosquito_risk":7,"arthritis_risk":5,"migraine_risk":7,"frizz_risk":1,"updated_at":"2026-05-23T02:44:14.407897+05:30"},{"city":"Hospet","state":"Karnataka","latitude":15.2689,"longitude":76.3909,"temp":24.8,"humidity":90,"rain":0.0,"pressure":956.2,"uv_index":8.95,"wind_gusts":49.3,"aqi":29,"pm10":4.9,"pm2_5":4.4,"no2":6.9,"co":172.0,"o3":42.0,"so2":1.4,"mosquito_risk":3,"arthritis_risk":5,"migraine_risk":7,"frizz_risk":1,"updated_at":"2026-05-23T02:44:14.407904+05:30"},{"city":"Tirupur","state":"Tamil Nadu","latitude":11.1085,"longitude":77.3411,"temp":25.3,"humidity":86,"rain":0.0,"pressure":975.4,"uv_index":8.8,"wind_gusts":50.4,"aqi":36,"pm10":11.1,"pm2_5":9.7,"no2":12.7,"co":132.0,"o3":36.0,"so2":3.8,"mosquito_risk":7,"arthritis_risk":5,"migraine_risk":7,"frizz_risk":1,"updated_at":"2026-05-23T02:44:14.407910+05:30"},{"city":"Alappuzha","state":"Kerala","latitude":9.4981,"longitude":76.3388,"temp":26.3,"humidity":96,"rain":0.2,"pressure":1010.3,"uv_index":7.9,"wind_gusts":33.1,"aqi":35,"pm10":14.3,"pm2_5":11.3,"no2":11.4,"co":181.0,"o3":47.0,"so2":3.3,"mosquito_risk":10,"arthritis_risk":0,"migraine_risk":4,"frizz_risk":1,"updated_at":"2026-05-23T02:44:14.407916+05:30"},{"city":"Munnar","state":"Kerala","latitude":10.0889,"longitude":77.0595,"temp":16.3,"humidity":98,"rain":0.0,"pressure":856.9,"uv_index":8.95,"wind_gusts":31.7,"aqi":22,"pm10":7.0,"pm2_5":6.1,"no2":7.3,"co":112.0,"o3":32.0,"so2":1.6,"mosquito_risk":3,"arthritis_risk":10,"migraine_risk":7,"frizz_risk":0,"updated_at":"2026-05-23T02:44:14.407923+05:30"},{"city":"Silchar","state":"Assam","latitude":24.8333,"longitude":92.7789,"temp":24.5,"humidity":96,"rain":0.3,"pressure":1003.4,"uv_index":8.95,"wind_gusts":28.8,"aqi":71,"pm10":22.5,"pm2_5":15.0,"no2":4.8,"co":238.0,"o3":89.0,"so2":2.6,"mosquito_risk":6,"arthritis_risk":5,"migraine_risk":4,"frizz_risk":1,"updated_at":"2026-05-23T02:44:14.407930+05:30"},{"city":"Dibrugarh","state":"Assam","latitude":27.4728,"longitude":94.912,"temp":23.5,"humidity":99,"rain":0.1,"pressure":992.8,"uv_index":8.9,"wind_gusts":28.8,"aqi":83,"pm10":23.2,"pm2_5":17.9,"no2":6.4,"co":258.0,"o3":77.0,"so2":0.6,"mosquito_risk":6,"arthritis_risk":5,"migraine_risk":7,"frizz_risk":1,"updated_at":"2026-05-23T02:44:14.407936+05:30"}]