[{"city":"Delhi","state":"Delhi","latitude":28.6139,"longitude":77.209,"temp":35.8,"humidity":28,"rain":0.0,"pressure":983.8,"uv_index":6.25,"wind_gusts":19.8,"aqi":128,"pm10":177.4,"pm2_5":35.5,"mosquito_risk":0,"arthritis_risk":5,"migraine_risk":10,"frizz_risk":0,"updated_at":"2026-04-17T14:51:46.586261+05:30"},{"city":"Mumbai","state":"Maharashtra","latitude":19.076,"longitude":72.8777,"temp":29.6,"humidity":79,"rain":0.0,"pressure":1007.3,"uv_index":7.05,"wind_gusts":22.7,"aqi":90,"pm10":86.1,"pm2_5":44.0,"mosquito_risk":7,"arthritis_risk":5,"migraine_risk":4,"frizz_risk":1,"updated_at":"2026-04-17T14:51:46.586302+05:30"},{"city":"Bangalore","state":"Karnataka","latitude":12.9716,"longitude":77.5946,"temp":36.8,"humidity":18,"rain":0.0,"pressure":911.3,"uv_index":9.45,"wind_gusts":36.7,"aqi":109,"pm10":26.4,"pm2_5":21.4,"mosquito_risk":0,"arthritis_risk":5,"migraine_risk":10,"frizz_risk":0,"updated_at":"2026-04-17T14:51:46.586316+05:30"},{"city":"Hyderabad","state":"Telangana","latitude":17.385,"longitude":78.4867,"temp":41.1,"humidity":17,"rain":0.0,"pressure":951.8,"uv_index":9.25,"wind_gusts":30.2,"aqi":108,"pm10":29.4,"pm2_5":24.4,"mosquito_risk":0,"arthritis_risk":5,"migraine_risk":10,"frizz_risk":0,"updated_at":"2026-04-17T14:51:46.586324+05:30"},{"city":"Chennai","state":"Tamil Nadu","latitude":13.0827,"longitude":80.2707,"temp":35.3,"humidity":53,"rain":0.0,"pressure":1005.6,"uv_index":9.0,"wind_gusts":32.0,"aqi":35,"pm10":12.7,"pm2_5":8.7,"mosquito_risk":0,"arthritis_risk":5,"migraine_risk":7,"frizz_risk":1,"updated_at":"2026-04-17T14:51:46.586331+05:30"},{"city":"Kolkata","state":"West Bengal","latitude":22.5726,"longitude":88.3639,"temp":34.7,"humidity":54,"rain":0.0,"pressure":1004.7,"uv_index":8.9,"wind_gusts":26.6,"aqi":66,"pm10":24.2,"pm2_5":19.4,"mosquito_risk":0,"arthritis_risk":5,"migraine_risk":4,"frizz_risk":1,"updated_at":"2026-04-17T14:51:46.586339+05:30"},{"city":"Pune","state":"Maharashtra","latitude":18.5204,"longitude":73.8567,"temp":40.5,"humidity":12,"rain":0.0,"pressure":947.8,"uv_index":7.8,"wind_gusts":45.0,"aqi":78,"pm10":14.5,"pm2_5":10.3,"mosquito_risk":0,"arthritis_risk":5,"migraine_risk":10,"frizz_risk":0,"updated_at":"2026-04-17T14:51:46.586348+05:30"},{"city":"Ahmedabad","state":"Gujarat","latitude":23.0225,"longitude":72.5714,"temp":39.8,"humidity":14,"rain":0.0,"pressure":1001.1,"uv_index":7.65,"wind_gusts":20.5,"aqi":66,"pm10":31.2,"pm2_5":11.7,"mosquito_risk":0,"arthritis_risk":5,"migraine_risk":7,"frizz_risk":0,"updated_at":"2026-04-17T14:51:46.586354+05:30"},{"city":"Jaipur","state":"Rajasthan","latitude":26.9124,"longitude":75.7873,"temp":39.2,"humidity":17,"rain":0.0,"pressure":959.5,"uv_index":7.15,"wind_gusts":28.1,"aqi":81,"pm10":141.1,"pm2_5":26.5,"mosquito_risk":0,"arthritis_risk":5,"migraine_risk":10,"frizz_risk":0,"updated_at":"2026-04-17T14:51:46.586361+05:30"},{"city":"Lucknow","state":"Uttar Pradesh","latitude":26.8467,"longitude":80.9462,"temp":38.3,"humidity":20,"rain":0.0,"pressure":993.1,"uv_index":7.25,"wind_gusts":19.4,"aqi":123,"pm10":93.8,"pm2_5":25.7,"mosquito_risk":0,"arthritis_risk":5,"migraine_risk":10,"frizz_risk":0,"updated_at":"2026-04-17T14:51:46.586368+05:30"},{"city":"Kanpur","state":"Uttar Pradesh","latitude":26.4499,"longitude":80.3319,"temp":37.8,"humidity":24,"rain":0.0,"pressure":991.4,"uv_index":7.7,"wind_gusts":16.9,"aqi":118,"pm10":166.2,"pm2_5":31.3,"mosquito_risk":0,"arthritis_risk":5,"migraine_risk":10,"frizz_risk":0,"updated_at":"2026-04-17T14:51:46.586374+05:30"},{"city":"Chandigarh","state":"Chandigarh","latitude":30.7333,"longitude":76.7794,"temp":33.3,"humidity":26,"rain":0.0,"pressure":971.5,"uv_index":7.15,"wind_gusts":40.3,"aqi":84,"pm10":43.3,"pm2_5":14.2,"mosquito_risk":0,"arthritis_risk":5,"migraine_risk":7,"frizz_risk":0,"updated_at":"2026-04-17T14:51:46.586380+05:30"},{"city":"Srinagar","state":"Jammu and Kashmir","latitude":34.0837,"longitude":74.7973,"temp":13.1,"humidity":81,"rain":0.0,"pressure":846.1,"uv_index":6.9,"wind_gusts":26.3,"aqi":75,"pm10":30.2,"pm2_5":13.2,"mosquito_risk":3,"arthritis_risk":10,"migraine_risk":7,"frizz_risk":0,"updated_at":"2026-04-17T14:51:46.586386+05:30"},{"city":"Jammu","state":"Jammu and Kashmir","latitude":32.7266,"longitude":74.857,"temp":33.5,"humidity":29,"rain":0.0,"pressure":976.0,"uv_index":5.5,"wind_gusts":31.0,"aqi":56,"pm10":86.8,"pm2_5":23.4,"mosquito_risk":0,"arthritis_risk":5,"migraine_risk":3,"frizz_risk":0,"updated_at":"2026-04-17T14:51:46.586392+05:30"},{"city":"Amritsar","state":"Punjab","latitude":31.634,"longitude":74.8723,"temp":33.9,"humidity":26,"rain":0.0,"pressure":983.4,"uv_index":7.75,"wind_gusts":31.0,"aqi":61,"pm10":49.7,"pm2_5":17.2,"mosquito_risk":0,"arthritis_risk":5,"migraine_risk":7,"frizz_risk":0,"updated_at":"2026-04-17T14:51:46.586398+05:30"},{"city":"Ludhiana","state":"Punjab","latitude":30.901,"longitude":75.8573,"temp":33.3,"humidity":26,"rain":0.0,"pressure":981.4,"uv_index":7.45,"wind_gusts":39.6,"aqi":81,"pm10":24.6,"pm2_5":10.3,"mosquito_risk":0,"arthritis_risk":5,"migraine_risk":7,"frizz_risk":0,"updated_at":"2026-04-17T14:51:46.586404+05:30"},{"city":"Jalandhar","state":"Punjab","latitude":31.326,"longitude":75.5762,"temp":32.7,"humidity":27,"rain":0.0,"pressure":982.9,"uv_index":6.85,"wind_gusts":26.6,"aqi":65,"pm10":76.8,"pm2_5":17.2,"mosquito_risk":0,"arthritis_risk":5,"migraine_risk":7,"frizz_risk":0,"updated_at":"2026-04-17T14:51:46.586411+05:30"},{"city":"Dehradun","state":"Uttarakhand","latitude":30.6284,"longitude":78.0322,"temp":18.0,"humidity":63,"rain":0.1,"pressure":834.8,"uv_index":6.6,"wind_gusts":31.0,"aqi":64,"pm10":29.8,"pm2_5":9.1,"mosquito_risk":6,"arthritis_risk":5,"migraine_risk":7,"frizz_risk":0,"updated_at":"2026-04-17T14:51:46.586429+05:30"},{"city":"Shimla","state":"Himachal Pradesh","latitude":31.1048,"longitude":77.1734,"temp":20.0,"humidity":43,"rain":0.0,"pressure":790.6,"uv_index":7.1,"wind_gusts":38.9,"aqi":58,"pm10":28.7,"pm2_5":10.5,"mosquito_risk":0,"arthritis_risk":5,"migraine_risk":7,"frizz_risk":0,"updated_at":"2026-04-17T14:51:46.586435+05:30"},{"city":"Manali","state":"Himachal Pradesh","latitude":32.2396,"longitude":77.1887,"temp":17.9,"humidity":65,"rain":0.2,"pressure":825.3,"uv_index":9.55,"wind_gusts":32.8,"aqi":79,"pm10":21.2,"pm2_5":7.5,"mosquito_risk":6,"arthritis_risk":5,"migraine_risk":7,"frizz_risk":0,"updated_at":"2026-04-17T14:51:46.586441+05:30"},{"city":"Gurgaon","state":"Haryana","latitude":28.4595,"longitude":77.0266,"temp":35.9,"humidity":27,"rain":0.0,"pressure":981.9,"uv_index":6.4,"wind_gusts":21.2,"aqi":244,"pm10":401.4,"pm2_5":51.6,"mosquito_risk":0,"arthritis_risk":5,"migraine_risk":10,"frizz_risk":0,"updated_at":"2026-04-17T14:51:46.586447+05:30"},{"city":"Noida","state":"Uttar Pradesh","latitude":28.5355,"longitude":77.391,"temp":35.7,"humidity":28,"rain":0.0,"pressure":985.4,"uv_index":6.3,"wind_gusts":20.2,"aqi":244,"pm10":401.4,"pm2_5":51.6,"mosquito_risk":0,"arthritis_risk":5,"migraine_risk":10,"frizz_risk":0,"updated_at":"2026-04-17T14:51:46.586454+05:30"},{"city":"Ghaziabad","state":"Uttar Pradesh","latitude":28.6692,"longitude":77.4538,"temp":35.1,"humidity":33,"rain":0.0,"pressure":983.8,"uv_index":6.2,"wind_gusts":13.7,"aqi":104,"pm10":159.7,"pm2_5":33.3,"mosquito_risk":0,"arthritis_risk":5,"migraine_risk":10,"frizz_risk":1,"updated_at":"2026-04-17T14:51:46.586460+05:30"},{"city":"Faridabad","state":"Haryana","latitude":28.4089,"longitude":77.3178,"temp":35.0,"humidity":26,"rain":0.0,"pressure":984.6,"uv_index":6.4,"wind_gusts":32.4,"aqi":244,"pm10":401.4,"pm2_5":51.6,"mosquito_risk":0,"arthritis_risk":5,"migraine_risk":7,"frizz_risk":0,"updated_at":"2026-04-17T14:51:46.586466+05:30"},{"city":"Meerut","state":"Uttar Pradesh","latitude":28.9845,"longitude":77.7064,"temp":35.9,"humidity":27,"rain":0.0,"pressure":982.7,"uv_index":5.95,"wind_gusts":20.5,"aqi":104,"pm10":159.7,"pm2_5":33.3,"mosquito_risk":0,"arthritis_risk":5,"migraine_risk":6,"frizz_risk":0,"updated_at":"2026-04-17T14:51:46.586470+05:30"},{"city":"Agra","state":"Uttar Pradesh","latitude":27.1767,"longitude":78.0081,"temp":39.3,"humidity":18,"rain":0.0,"pressure":987.4,"uv_index":6.55,"wind_gusts":17.6,"aqi":189,"pm10":454.5,"pm2_5":51.6,"mosquito_risk":0,"arthritis_risk":5,"migraine_risk":10,"frizz_risk":0,"updated_at":"2026-04-17T14:51:46.586476+05:30"},{"city":"Varanasi","state":"Uttar Pradesh","latitude":25.3176,"longitude":82.9739,"temp":40.8,"humidity":19,"rain":0.0,"pressure":996.0,"uv_index":8.45,"wind_gusts":23.8,"aqi":140,"pm10":59.8,"pm2_5":16.8,"mosquito_risk":0,"arthritis_risk":5,"migraine_risk":10,"frizz_risk":0,"updated_at":"2026-04-17T14:51:46.586484+05:30"},{"city":"Prayagraj","state":"Uttar Pradesh","latitude":25.4358,"longitude":81.8463,"temp":41.3,"humidity":15,"rain":0.0,"pressure":994.6,"uv_index":8.3,"wind_gusts":24.5,"aqi":143,"pm10":69.4,"pm2_5":19.2,"mosquito_risk":0,"arthritis_risk":5,"migraine_risk":10,"frizz_risk":0,"updated_at":"2026-04-17T14:51:46.586489+05:30"},{"city":"Gorakhpur","state":"Uttar Pradesh","latitude":26.7606,"longitude":83.3732,"temp":36.8,"humidity":34,"rain":0.0,"pressure":996.7,"uv_index":7.7,"wind_gusts":27.0,"aqi":151,"pm10":81.0,"pm2_5":49.7,"mosquito_risk":0,"arthritis_risk":5,"migraine_risk":10,"frizz_risk":1,"updated_at":"2026-04-17T14:51:46.586495+05:30"},{"city":"Bareilly","state":"Uttar Pradesh","latitude":28.367,"longitude":79.4304,"temp":36.5,"humidity":28,"rain":0.0,"pressure":987.3,"uv_index":6.85,"wind_gusts":23.0,"aqi":103,"pm10":66.8,"pm2_5":17.9,"mosquito_risk":0,"arthritis_risk":5,"migraine_risk":10,"frizz_risk":0,"updated_at":"2026-04-17T14:51:46.586500+05:30"},{"city":"Aligarh","state":"Uttar Pradesh","latitude":27.8974,"longitude":78.088,"temp":37.0,"humidity":21,"rain":0.0,"pressure":986.1,"uv_index":5.75,"wind_gusts":34.2,"aqi":134,"pm10":336.2,"pm2_5":46.9,"mosquito_risk":0,"arthritis_risk":5,"migraine_risk":6,"frizz_risk":0,"updated_at":"2026-04-17T14:51:46.586506+05:30"},{"city":"Moradabad","state":"Uttar Pradesh","latitude":28.8386,"longitude":78.7733,"temp":36.0,"humidity":27,"rain":0.0,"pressure":984.4,"uv_index":5.5,"wind_gusts":20.9,"aqi":98,"pm10":63.1,"pm2_5":24.4,"mosquito_risk":0,"arthritis_risk":5,"migraine_risk":6,"frizz_risk":0,"updated_at":"2026-04-17T14:51:46.586511+05:30"},{"city":"Saharanpur","state":"Uttar Pradesh","latitude":29.9637,"longitude":77.546,"temp":34.5,"humidity":23,"rain":0.0,"pressure":977.6,"uv_index":6.1,"wind_gusts":43.2,"aqi":69,"pm10":79.2,"pm2_5":19.5,"mosquito_risk":0,"arthritis_risk":5,"migraine_risk":7,"frizz_risk":0,"updated_at":"2026-04-17T14:51:46.586516+05:30"},{"city":"Jhansi","state":"Uttar Pradesh","latitude":25.4484,"longitude":78.5685,"temp":42.6,"humidity":11,"rain":0.0,"pressure":976.5,"uv_index":7.8,"wind_gusts":23.4,"aqi":95,"pm10":105.2,"pm2_5":22.5,"mosquito_risk":0,"arthritis_risk":5,"migraine_risk":10,"frizz_risk":0,"updated_at":"2026-04-17T14:51:49.888618+05:30"},{"city":"Surat","state":"Gujarat","latitude":21.1702,"longitude":72.8311,"temp":34.1,"humidity":47,"rain":0.0,"pressure":1005.9,"uv_index":7.3,"wind_gusts":22.0,"aqi":99,"pm10":92.4,"pm2_5":48.9,"mosquito_risk":0,"arthritis_risk":5,"migraine_risk":4,"frizz_risk":1,"updated_at":"2026-04-17T14:51:49.888650+05:30"},{"city":"Vadodara","state":"Gujarat","latitude":22.3072,"longitude":73.1812,"temp":39.6,"humidity":18,"rain":0.0,"pressure":1003.2,"uv_index":7.8,"wind_gusts":20.9,"aqi":76,"pm10":46.9,"pm2_5":18.3,"mosquito_risk":0,"arthritis_risk":5,"migraine_risk":7,"frizz_risk":0,"updated_at":"2026-04-17T14:51:49.888658+05:30"},{"city":"Rajkot","state":"Gujarat","latitude":22.3039,"longitude":70.8022,"temp":38.7,"humidity":22,"rain":0.0,"pressure":993.7,"uv_index":7.85,"wind_gusts":29.2,"aqi":66,"pm10":74.5,"pm2_5":20.4,"mosquito_risk":0,"arthritis_risk":5,"migraine_risk":10,"frizz_risk":0,"updated_at":"2026-04-17T14:51:49.888664+05:30"},{"city":"Thane","state":"Maharashtra","latitude":19.2183,"longitude":72.9781,"temp":33.0,"humidity":57,"rain":0.0,"pressure":1007.0,"uv_index":7.25,"wind_gusts":33.5,"aqi":90,"pm10":86.1,"pm2_5":44.0,"mosquito_risk":0,"arthritis_risk":5,"migraine_risk":4,"frizz_risk":1,"updated_at":"2026-04-17T14:51:49.888670+05:30"},{"city":"Nagpur","state":"Maharashtra","latitude":21.1458,"longitude":79.0882,"temp":40.9,"humidity":19,"rain":0.0,"pressure":971.4,"uv_index":8.35,"wind_gusts":20.9,"aqi":163,"pm10":41.9,"pm2_5":32.7,"mosquito_risk":0,"arthritis_risk":5,"migraine_risk":10,"frizz_risk":0,"updated_at":"2026-04-17T14:51:49.888677+05:30"},{"city":"Nashik","state":"Maharashtra","latitude":19.9975,"longitude":73.7898,"temp":37.5,"humidity":21,"rain":0.0,"pressure":945.6,"uv_index":7.4,"wind_gusts":32.4,"aqi":62,"pm10":28.8,"pm2_5":13.0,"mosquito_risk":0,"arthritis_risk":5,"migraine_risk":10,"frizz_risk":0,"updated_at":"2026-04-17T14:51:49.888682+05:30"},{"city":"Aurangabad","state":"Maharashtra","latitude":19.8762,"longitude":75.3433,"temp":40.5,"humidity":9,"rain":0.0,"pressure":943.5,"uv_index":7.9,"wind_gusts":29.9,"aqi":66,"pm10":9.0,"pm2_5":7.7,"mosquito_risk":0,"arthritis_risk":5,"migraine_risk":10,"frizz_risk":0,"updated_at":"2026-04-17T14:51:49.888689+05:30"},{"city":"Solapur","state":"Maharashtra","latitude":17.6599,"longitude":75.9064,"temp":40.6,"humidity":20,"rain":0.0,"pressure":955.4,"uv_index":8.55,"wind_gusts":27.7,"aqi":104,"pm10":32.4,"pm2_5":26.1,"mosquito_risk":0,"arthritis_risk":5,"migraine_risk":10,"frizz_risk":0,"updated_at":"2026-04-17T14:51:49.888695+05:30"},{"city":"Kolhapur","state":"Maharashtra","latitude":16.705,"longitude":74.2433,"temp":37.5,"humidity":26,"rain":0.0,"pressure":947.3,"uv_index":8.15,"wind_gusts":44.6,"aqi":67,"pm10":19.1,"pm2_5":15.8,"mosquito_risk":0,"arthritis_risk":5,"migraine_risk":10,"frizz_risk":0,"updated_at":"2026-04-17T14:51:49.888701+05:30"},{"city":"Goa","state":"Goa","latitude":15.2993,"longitude":74.124,"temp":31.7,"humidity":65,"rain":0.0,"pressure":996.5,"uv_index":8.45,"wind_gusts":30.2,"aqi":69,"pm10":32.2,"pm2_5":16.5,"mosquito_risk":3,"arthritis_risk":5,"migraine_risk":7,"frizz_risk":1,"updated_at":"2026-04-17T14:51:49.888707+05:30"},{"city":"Jodhpur","state":"Rajasthan","latitude":26.2389,"longitude":73.0243,"temp":39.5,"humidity":14,"rain":0.0,"pressure":982.2,"uv_index":8.15,"wind_gusts":30.2,"aqi":95,"pm10":88.9,"pm2_5":15.5,"mosquito_risk":0,"arthritis_risk":5,"migraine_risk":10,"frizz_risk":0,"updated_at":"2026-04-17T14:51:49.888713+05:30"},{"city":"Udaipur","state":"Rajasthan","latitude":24.5854,"longitude":73.7125,"temp":37.7,"humidity":17,"rain":0.0,"pressure":947.2,"uv_index":8.05,"wind_gusts":27.0,"aqi":58,"pm10":20.7,"pm2_5":7.6,"mosquito_risk":0,"arthritis_risk":5,"migraine_risk":10,"frizz_risk":0,"updated_at":"2026-04-17T14:51:49.888719+05:30"},{"city":"Kota","state":"Rajasthan","latitude":25.2138,"longitude":75.8648,"temp":41.7,"humidity":17,"rain":0.0,"pressure":977.3,"uv_index":7.1,"wind_gusts":27.0,"aqi":77,"pm10":48.3,"pm2_5":19.1,"mosquito_risk":0,"arthritis_risk":5,"migraine_risk":10,"frizz_risk":0,"updated_at":"2026-04-17T14:51:49.888724+05:30"},{"city":"Bikaner","state":"Rajasthan","latitude":28.0229,"longitude":73.3119,"temp":41.0,"humidity":16,"rain":0.0,"pressure":980.0,"uv_index":8.0,"wind_gusts":21.2,"aqi":73,"pm10":43.4,"pm2_5":13.4,"mosquito_risk":0,"arthritis_risk":5,"migraine_risk":10,"frizz_risk":0,"updated_at":"2026-04-17T14:51:49.888730+05:30"},{"city":"Ajmer","state":"Rajasthan","latitude":26.4499,"longitude":74.6399,"temp":37.8,"humidity":23,"rain":0.0,"pressure":954.7,"uv_index":7.75,"wind_gusts":30.6,"aqi":68,"pm10":51.6,"pm2_5":15.5,"mosquito_risk":0,"arthritis_risk":5,"migraine_risk":10,"frizz_risk":0,"updated_at":"2026-04-17T14:51:49.888735+05:30"},{"city":"Gwalior","state":"Madhya Pradesh","latitude":26.2183,"longitude":78.1828,"temp":40.7,"humidity":14,"rain":0.0,"pressure":982.2,"uv_index":7.1,"wind_gusts":29.5,"aqi":89,"pm10":100.6,"pm2_5":21.4,"mosquito_risk":0,"arthritis_risk":5,"migraine_risk":10,"frizz_risk":0,"updated_at":"2026-04-17T14:51:49.888739+05:30"},{"city":"Indore","state":"Madhya Pradesh","latitude":22.7196,"longitude":75.8577,"temp":38.1,"humidity":20,"rain":0.0,"pressure":948.2,"uv_index":7.8,"wind_gusts":27.0,"aqi":105,"pm10":32.7,"pm2_5":17.1,"mosquito_risk":0,"arthritis_risk":5,"migraine_risk":10,"frizz_risk":0,"updated_at":"2026-04-17T14:51:49.888743+05:30"},{"city":"Bhopal","state":"Madhya Pradesh","latitude":23.2599,"longitude":77.4126,"temp":40.5,"humidity":19,"rain":0.0,"pressure":953.2,"uv_index":7.9,"wind_gusts":29.2,"aqi":110,"pm10":39.1,"pm2_5":14.6,"mosquito_risk":0,"arthritis_risk":5,"migraine_risk":10,"frizz_risk":0,"updated_at":"2026-04-17T14:51:49.888748+05:30"},{"city":"Jabalpur","state":"Madhya Pradesh","latitude":23.1815,"longitude":79.9864,"temp":40.4,"humidity":17,"rain":0.0,"pressure":960.4,"uv_index":8.6,"wind_gusts":24.5,"aqi":139,"pm10":60.1,"pm2_5":16.6,"mosquito_risk":0,"arthritis_risk":5,"migraine_risk":10,"frizz_risk":0,"updated_at":"2026-04-17T14:51:49.888753+05:30"},{"city":"Ujjain","state":"Madhya Pradesh","latitude":23.1765,"longitude":75.7885,"temp":38.4,"humidity":21,"rain":0.0,"pressure":953.9,"uv_index":7.65,"wind_gusts":26.6,"aqi":84,"pm10":34.8,"pm2_5":18.5,"mosquito_risk":0,"arthritis_risk":5,"migraine_risk":10,"frizz_risk":0,"updated_at":"2026-04-17T14:51:49.888758+05:30"},{"city":"Visakhapatnam","state":"Andhra Pradesh","latitude":17.6868,"longitude":83.2185,"temp":33.9,"humidity":57,"rain":0.0,"pressure":1002.0,"uv_index":9.2,"wind_gusts":38.9,"aqi":48,"pm10":19.3,"pm2_5":14.3,"mosquito_risk":0,"arthritis_risk":5,"migraine_risk":4,"frizz_risk":1,"updated_at":"2026-04-17T14:51:49.888763+05:30"},{"city":"Vijayawada","state":"Andhra Pradesh","latitude":16.5062,"longitude":80.648,"temp":36.7,"humidity":48,"rain":0.0,"pressure":1000.8,"uv_index":9.2,"wind_gusts":23.8,"aqi":50,"pm10":24.0,"pm2_5":18.3,"mosquito_risk":0,"arthritis_risk":5,"migraine_risk":7,"frizz_risk":1,"updated_at":"2026-04-17T14:51:49.888768+05:30"},{"city":"Guntur","state":"Andhra Pradesh","latitude":16.3067,"longitude":80.4365,"temp":36.8,"humidity":46,"rain":0.0,"pressure":1002.1,"uv_index":9.2,"wind_gusts":27.0,"aqi":54,"pm10":26.8,"pm2_5":21.0,"mosquito_risk":0,"arthritis_risk":5,"migraine_risk":7,"frizz_risk":1,"updated_at":"2026-04-17T14:51:49.888773+05:30"},{"city":"Nellore","state":"Andhra Pradesh","latitude":14.4426,"longitude":79.9865,"temp":37.1,"humidity":51,"rain":0.0,"pressure":1003.8,"uv_index":9.3,"wind_gusts":33.1,"aqi":53,"pm10":28.7,"pm2_5":21.8,"mosquito_risk":0,"arthritis_risk":5,"migraine_risk":7,"frizz_risk":1,"updated_at":"2026-04-17T14:51:49.888779+05:30"},{"city":"Kurnool","state":"Andhra Pradesh","latitude":15.8281,"longitude":78.0373,"temp":42.1,"humidity":18,"rain":0.0,"pressure":974.2,"uv_index":9.2,"wind_gusts":25.9,"aqi":101,"pm10":31.7,"pm2_5":26.9,"mosquito_risk":0,"arthritis_risk":5,"migraine_risk":10,"frizz_risk":0,"updated_at":"2026-04-17T14:51:49.888784+05:30"},{"city":"Kakinada","state":"Andhra Pradesh","latitude":16.9891,"longitude":82.2475,"temp":37.2,"humidity":47,"rain":0.0,"pressure":1005.6,"uv_index":9.2,"wind_gusts":30.2,"aqi":33,"pm10":13.6,"pm2_5":8.6,"mosquito_risk":0,"arthritis_risk":5,"migraine_risk":7,"frizz_risk":1,"updated_at":"2026-04-17T14:51:49.888789+05:30"},{"city":"Tirupati","state":"Andhra Pradesh","latitude":13.6288,"longitude":79.4192,"temp":37.6,"humidity":36,"rain":0.0,"pressure":989.7,"uv_index":9.25,"wind_gusts":32.0,"aqi":71,"pm10":32.9,"pm2_5":26.7,"mosquito_risk":0,"arthritis_risk":5,"migraine_risk":10,"frizz_risk":1,"updated_at":"2026-04-17T14:51:49.888794+05:30"},{"city":"Warangal","state":"Telangana","latitude":17.9689,"longitude":79.5941,"temp":38.8,"humidity":39,"rain":0.0,"pressure":977.0,"uv_index":9.1,"wind_gusts":27.7,"aqi":72,"pm10":29.8,"pm2_5":25.2,"mosquito_risk":0,"arthritis_risk":5,"migraine_risk":10,"frizz_risk":1,"updated_at":"2026-04-17T14:51:49.888799+05:30"},{"city":"Nizamabad","state":"Telangana","latitude":18.6725,"longitude":78.0941,"temp":40.6,"humidity":20,"rain":0.0,"pressure":963.2,"uv_index":9.05,"wind_gusts":25.6,"aqi":103,"pm10":30.2,"pm2_5":24.2,"mosquito_risk":0,"arthritis_risk":5,"migraine_risk":10,"frizz_risk":0,"updated_at":"2026-04-17T14:51:49.888804+05:30"},{"city":"Mysore","state":"Karnataka","latitude":12.2958,"longitude":76.6396,"temp":37.4,"humidity":17,"rain":0.0,"pressure":927.5,"uv_index":9.35,"wind_gusts":39.6,"aqi":108,"pm10":32.8,"pm2_5":26.2,"mosquito_risk":0,"arthritis_risk":5,"migraine_risk":10,"frizz_risk":0,"updated_at":"2026-04-17T14:51:49.888809+05:30"},{"city":"Mangalore","state":"Karnataka","latitude":12.9141,"longitude":74.856,"temp":29.7,"humidity":84,"rain":0.0,"pressure":1004.4,"uv_index":9.15,"wind_gusts":25.9,"aqi":83,"pm10":42.5,"pm2_5":25.1,"mosquito_risk":7,"arthritis_risk":5,"migraine_risk":4,"frizz_risk":1,"updated_at":"2026-04-17T14:51:49.888814+05:30"},{"city":"Hubli-Dharwad","state":"Karnataka","latitude":15.3647,"longitude":75.124,"temp":37.4,"humidity":21,"rain":0.0,"pressure":940.0,"uv_index":9.15,"wind_gusts":35.6,"aqi":75,"pm10":29.1,"pm2_5":23.4,"mosquito_risk":0,"arthritis_risk":5,"migraine_risk":10,"frizz_risk":0,"updated_at":"2026-04-17T14:51:49.888819+05:30"},{"city":"Belgaum","state":"Karnataka","latitude":15.8497,"longitude":74.4977,"temp":36.4,"humidity":22,"rain":0.0,"pressure":925.7,"uv_index":8.9,"wind_gusts":41.4,"aqi":82,"pm10":26.6,"pm2_5":20.8,"mosquito_risk":0,"arthritis_risk":5,"migraine_risk":10,"frizz_risk":0,"updated_at":"2026-04-17T14:51:53.193295+05:30"},{"city":"Coimbatore","state":"Tamil Nadu","latitude":11.0168,"longitude":76.9558,"temp":38.2,"humidity":24,"rain":0.0,"pressure":959.7,"uv_index":9.1,"wind_gusts":35.3,"aqi":102,"pm10":32.6,"pm2_5":25.5,"mosquito_risk":0,"arthritis_risk":5,"migraine_risk":10,"frizz_risk":0,"updated_at":"2026-04-17T14:51:53.193327+05:30"},{"city":"Madurai","state":"Tamil Nadu","latitude":9.9252,"longitude":78.1198,"temp":38.6,"humidity":31,"rain":0.0,"pressure":990.2,"uv_index":9.35,"wind_gusts":34.2,"aqi":80,"pm10":25.1,"pm2_5":19.8,"mosquito_risk":0,"arthritis_risk":5,"migraine_risk":10,"frizz_risk":1,"updated_at":"2026-04-17T14:51:53.193337+05:30"},{"city":"Trichy","state":"Tamil Nadu","latitude":10.7905,"longitude":78.7047,"temp":36.2,"humidity":42,"rain":0.0,"pressure":997.5,"uv_index":9.25,"wind_gusts":17.6,"aqi":73,"pm10":21.8,"pm2_5":18.0,"mosquito_risk":0,"arthritis_risk":5,"migraine_risk":10,"frizz_risk":1,"updated_at":"2026-04-17T14:51:53.193344+05:30"},{"city":"Salem","state":"Tamil Nadu","latitude":11.6643,"longitude":78.146,"temp":37.4,"humidity":39,"rain":0.0,"pressure":975.1,"uv_index":9.1,"wind_gusts":22.3,"aqi":74,"pm10":27.2,"pm2_5":20.7,"mosquito_risk":0,"arthritis_risk":5,"migraine_risk":10,"frizz_risk":1,"updated_at":"2026-04-17T14:51:53.193350+05:30"},{"city":"Tirunelveli","state":"Tamil Nadu","latitude":8.7139,"longitude":77.7567,"temp":39.6,"humidity":29,"rain":0.0,"pressure":999.8,"uv_index":9.1,"wind_gusts":46.8,"aqi":93,"pm10":26.4,"pm2_5":21.2,"mosquito_risk":0,"arthritis_risk":5,"migraine_risk":10,"frizz_risk":1,"updated_at":"2026-04-17T14:51:53.193356+05:30"},{"city":"Vellore","state":"Tamil Nadu","latitude":12.9165,"longitude":79.1325,"temp":36.7,"humidity":39,"rain":0.0,"pressure":982.7,"uv_index":8.9,"wind_gusts":27.7,"aqi":94,"pm10":33.8,"pm2_5":28.3,"mosquito_risk":0,"arthritis_risk":5,"migraine_risk":10,"frizz_risk":1,"updated_at":"2026-04-17T14:51:53.193362+05:30"},{"city":"Erode","state":"Tamil Nadu","latitude":11.341,"longitude":77.7172,"temp":40.0,"humidity":29,"rain":0.0,"pressure":986.2,"uv_index":9.3,"wind_gusts":27.4,"aqi":62,"pm10":24.7,"pm2_5":18.2,"mosquito_risk":0,"arthritis_risk":5,"migraine_risk":10,"frizz_risk":1,"updated_at":"2026-04-17T14:51:53.193368+05:30"},{"city":"Kochi","state":"Kerala","latitude":9.9312,"longitude":76.2673,"temp":30.2,"humidity":79,"rain":0.0,"pressure":1005.9,"uv_index":8.85,"wind_gusts":31.7,"aqi":97,"pm10":40.9,"pm2_5":30.3,"mosquito_risk":3,"arthritis_risk":5,"migraine_risk":4,"frizz_risk":1,"updated_at":"2026-04-17T14:51:53.193374+05:30"},{"city":"Thiruvananthapuram","state":"Kerala","latitude":8.5241,"longitude":76.9366,"temp":29.7,"humidity":83,"rain":0.0,"pressure":1005.2,"uv_index":8.85,"wind_gusts":32.8,"aqi":98,"pm10":31.8,"pm2_5":23.9,"mosquito_risk":7,"arthritis_risk":5,"migraine_risk":4,"frizz_risk":1,"updated_at":"2026-04-17T14:51:53.193379+05:30"},{"city":"Kozhikode","state":"Kerala","latitude":11.2588,"longitude":75.7804,"temp":31.5,"humidity":71,"rain":0.0,"pressure":1005.5,"uv_index":8.6,"wind_gusts":33.5,"aqi":97,"pm10":52.7,"pm2_5":25.7,"mosquito_risk":3,"arthritis_risk":5,"migraine_risk":4,"frizz_risk":1,"updated_at":"2026-04-17T14:51:53.193384+05:30"},{"city":"Thrissur","state":"Kerala","latitude":10.5276,"longitude":76.2144,"temp":34.1,"humidity":62,"rain":0.0,"pressure":1004.4,"uv_index":8.7,"wind_gusts":39.2,"aqi":96,"pm10":41.7,"pm2_5":30.2,"mosquito_risk":3,"arthritis_risk":5,"migraine_risk":4,"frizz_risk":1,"updated_at":"2026-04-17T14:51:53.193390+05:30"},{"city":"Kannur","state":"Kerala","latitude":11.8745,"longitude":75.3704,"temp":32.6,"humidity":67,"rain":0.0,"pressure":1004.9,"uv_index":8.35,"wind_gusts":32.8,"aqi":104,"pm10":51.3,"pm2_5":28.1,"mosquito_risk":3,"arthritis_risk":5,"migraine_risk":4,"frizz_risk":1,"updated_at":"2026-04-17T14:51:53.193395+05:30"},{"city":"Patna","state":"Bihar","latitude":25.5941,"longitude":85.1376,"temp":35.9,"humidity":44,"rain":0.0,"pressure":999.6,"uv_index":8.05,"wind_gusts":24.8,"aqi":153,"pm10":89.6,"pm2_5":55.9,"mosquito_risk":0,"arthritis_risk":5,"migraine_risk":10,"frizz_risk":1,"updated_at":"2026-04-17T14:51:53.193401+05:30"},{"city":"Gaya","state":"Bihar","latitude":24.7914,"longitude":85.0002,"temp":39.0,"humidity":23,"rain":0.0,"pressure":992.3,"uv_index":8.45,"wind_gusts":15.5,"aqi":137,"pm10":74.5,"pm2_5":31.2,"mosquito_risk":0,"arthritis_risk":5,"migraine_risk":10,"frizz_risk":0,"updated_at":"2026-04-17T14:51:53.193405+05:30"},{"city":"Muzaffarpur","state":"Bihar","latitude":26.1209,"longitude":85.3647,"temp":34.9,"humidity":46,"rain":0.0,"pressure":1000.1,"uv_index":8.3,"wind_gusts":24.8,"aqi":154,"pm10":90.6,"pm2_5":59.4,"mosquito_risk":0,"arthritis_risk":5,"migraine_risk":4,"frizz_risk":1,"updated_at":"2026-04-17T14:51:53.193410+05:30"},{"city":"Bhagalpur","state":"Bihar","latitude":25.2425,"longitude":87.0117,"temp":33.5,"humidity":53,"rain":0.0,"pressure":1000.9,"uv_index":8.55,"wind_gusts":21.6,"aqi":153,"pm10":84.3,"pm2_5":60.3,"mosquito_risk":0,"arthritis_risk":5,"migraine_risk":4,"frizz_risk":1,"updated_at":"2026-04-17T14:51:53.193414+05:30"},{"city":"Ranchi","state":"Jharkhand","latitude":23.3441,"longitude":85.3096,"temp":37.5,"humidity":19,"rain":0.0,"pressure":937.9,"uv_index":9.15,"wind_gusts":38.5,"aqi":112,"pm10":76.4,"pm2_5":24.1,"mosquito_risk":0,"arthritis_risk":5,"migraine_risk":10,"frizz_risk":0,"updated_at":"2026-04-17T14:51:53.193442+05:30"},{"city":"Jamshedpur","state":"Jharkhand","latitude":22.8046,"longitude":86.2029,"temp":37.0,"humidity":43,"rain":0.0,"pressure":989.5,"uv_index":9.0,"wind_gusts":24.5,"aqi":84,"pm10":37.5,"pm2_5":28.6,"mosquito_risk":0,"arthritis_risk":5,"migraine_risk":10,"frizz_risk":1,"updated_at":"2026-04-17T14:51:53.193448+05:30"},{"city":"Dhanbad","state":"Jharkhand","latitude":23.7957,"longitude":86.4304,"temp":37.9,"humidity":26,"rain":0.0,"pressure":978.7,"uv_index":8.9,"wind_gusts":22.0,"aqi":152,"pm10":79.6,"pm2_5":56.0,"mosquito_risk":0,"arthritis_risk":5,"migraine_risk":10,"frizz_risk":0,"updated_at":"2026-04-17T14:51:53.193453+05:30"},{"city":"Bokaro","state":"Jharkhand","latitude":23.6693,"longitude":86.1511,"temp":36.6,"humidity":35,"rain":0.0,"pressure":983.0,"uv_index":8.9,"wind_gusts":25.9,"aqi":156,"pm10":86.6,"pm2_5":50.6,"mosquito_risk":0,"arthritis_risk":5,"migraine_risk":10,"frizz_risk":1,"updated_at":"2026-04-17T14:51:53.193458+05:30"},{"city":"Bhubaneswar","state":"Odisha","latitude":20.2961,"longitude":85.8245,"temp":32.6,"humidity":67,"rain":0.0,"pressure":1001.7,"uv_index":9.1,"wind_gusts":27.7,"aqi":44,"pm10":21.7,"pm2_5":17.9,"mosquito_risk":3,"arthritis_risk":5,"migraine_risk":4,"frizz_risk":1,"updated_at":"2026-04-17T14:51:53.193462+05:30"},{"city":"Cuttack","state":"Odisha","latitude":20.4625,"longitude":85.8828,"temp":34.9,"humidity":56,"rain":0.0,"pressure":1003.4,"uv_index":9.15,"wind_gusts":26.3,"aqi":44,"pm10":21.7,"pm2_5":17.9,"mosquito_risk":0,"arthritis_risk":5,"migraine_risk":4,"frizz_risk":1,"updated_at":"2026-04-17T14:51:53.193467+05:30"},{"city":"Rourkela","state":"Odisha","latitude":22.2604,"longitude":84.8536,"temp":40.8,"humidity":22,"rain":0.0,"pressure":982.9,"uv_index":8.9,"wind_gusts":46.1,"aqi":120,"pm10":61.7,"pm2_5":37.3,"mosquito_risk":0,"arthritis_risk":5,"migraine_risk":10,"frizz_risk":0,"updated_at":"2026-04-17T14:51:53.193472+05:30"},{"city":"Raipur","state":"Chhattisgarh","latitude":21.2514,"longitude":81.6296,"temp":41.1,"humidity":25,"rain":0.0,"pressure":972.9,"uv_index":8.95,"wind_gusts":42.8,"aqi":153,"pm10":63.6,"pm2_5":35.4,"mosquito_risk":0,"arthritis_risk":5,"migraine_risk":10,"frizz_risk":1,"updated_at":"2026-04-17T14:51:53.193477+05:30"},{"city":"Bhilai","state":"Chhattisgarh","latitude":21.1938,"longitude":81.3509,"temp":40.8,"humidity":26,"rain":0.0,"pressure":973.2,"uv_index":8.95,"wind_gusts":42.1,"aqi":142,"pm10":59.0,"pm2_5":32.1,"mosquito_risk":0,"arthritis_risk":5,"migraine_risk":10,"frizz_risk":1,"updated_at":"2026-04-17T14:51:53.193481+05:30"},{"city":"Guwahati","state":"Assam","latitude":26.1158,"longitude":91.7086,"temp":32.4,"humidity":53,"rain":0.0,"pressure":1000.5,"uv_index":8.55,"wind_gusts":22.3,"aqi":152,"pm10":91.7,"pm2_5":58.4,"mosquito_risk":0,"arthritis_risk":5,"migraine_risk":4,"frizz_risk":1,"updated_at":"2026-04-17T14:51:53.193486+05:30"},{"city":"Agartala","state":"Tripura","latitude":23.8315,"longitude":91.2868,"temp":31.8,"humidity":66,"rain":0.0,"pressure":1005.5,"uv_index":8.75,"wind_gusts":19.4,"aqi":131,"pm10":37.7,"pm2_5":30.0,"mosquito_risk":3,"arthritis_risk":5,"migraine_risk":4,"frizz_risk":1,"updated_at":"2026-04-17T14:51:53.193491+05:30"},{"city":"Shillong","state":"Meghalaya","latitude":25.5788,"longitude":91.8933,"temp":20.1,"humidity":64,"rain":0.0,"pressure":857.7,"uv_index":6.65,"wind_gusts":28.4,"aqi":124,"pm10":63.8,"pm2_5":45.1,"mosquito_risk":3,"arthritis_risk":5,"migraine_risk":7,"frizz_risk":0,"updated_at":"2026-04-17T14:51:53.193496+05:30"},{"city":"Imphal","state":"Manipur","latitude":24.817,"longitude":93.9368,"temp":25.3,"humidity":63,"rain":0.0,"pressure":923.8,"uv_index":9.1,"wind_gusts":37.4,"aqi":149,"pm10":86.6,"pm2_5":59.1,"mosquito_risk":7,"arthritis_risk":5,"migraine_risk":7,"frizz_risk":1,"updated_at":"2026-04-17T14:51:53.193501+05:30"},{"city":"Aizawl","state":"Mizoram","latitude":23.7271,"longitude":92.7176,"temp":27.0,"humidity":59,"rain":0.0,"pressure":894.1,"uv_index":9.0,"wind_gusts":33.1,"aqi":154,"pm10":78.2,"pm2_5":58.1,"mosquito_risk":4,"arthritis_risk":5,"migraine_risk":7,"frizz_risk":1,"updated_at":"2026-04-17T14:51:53.193505+05:30"},{"city":"Kohima","state":"Nagaland","latitude":25.6701,"longitude":94.1077,"temp":20.6,"humidity":82,"rain":0.0,"pressure":856.5,"uv_index":8.4,"wind_gusts":48.2,"aqi":124,"pm10":78.2,"pm2_5":46.9,"mosquito_risk":3,"arthritis_risk":5,"migraine_risk":7,"frizz_risk":1,"updated_at":"2026-04-17T14:51:53.193510+05:30"},{"city":"Gangtok","state":"Sikkim","latitude":27.3314,"longitude":88.6138,"temp":20.9,"humidity":68,"rain":0.0,"pressure":840.0,"uv_index":8.85,"wind_gusts":19.8,"aqi":125,"pm10":60.8,"pm2_5":37.0,"mosquito_risk":3,"arthritis_risk":5,"migraine_risk":7,"frizz_risk":0,"updated_at":"2026-04-17T14:51:53.193515+05:30"},{"city":"Siliguri","state":"West Bengal","latitude":26.7271,"longitude":88.3953,"temp":27.6,"humidity":57,"rain":0.0,"pressure":994.6,"uv_index":8.5,"wind_gusts":18.4,"aqi":159,"pm10":93.4,"pm2_5":53.2,"mosquito_risk":4,"arthritis_risk":5,"migraine_risk":7,"frizz_risk":1,"updated_at":"2026-04-17T14:51:56.503996+05:30"},{"city":"Durgapur","state":"West Bengal","latitude":23.5204,"longitude":87.3119,"temp":35.8,"humidity":47,"rain":0.0,"pressure":994.2,"uv_index":8.85,"wind_gusts":23.8,"aqi":124,"pm10":63.1,"pm2_5":49.5,"mosquito_risk":0,"arthritis_risk":5,"migraine_risk":10,"frizz_risk":1,"updated_at":"2026-04-17T14:51:56.504025+05:30"},{"city":"Asansol","state":"West Bengal","latitude":23.6739,"longitude":86.9524,"temp":36.7,"humidity":40,"rain":0.0,"pressure":992.7,"uv_index":8.9,"wind_gusts":23.4,"aqi":133,"pm10":66.6,"pm2_5":53.6,"mosquito_risk":0,"arthritis_risk":5,"migraine_risk":10,"frizz_risk":1,"updated_at":"2026-04-17T14:51:56.504033+05:30"},{"city":"Pondicherry","state":"Puducherry","latitude":11.9139,"longitude":79.8145,"temp":36.2,"humidity":53,"rain":0.0,"pressure":1006.1,"uv_index":8.7,"wind_gusts":26.3,"aqi":30,"pm10":10.1,"pm2_5":6.7,"mosquito_risk":0,"arthritis_risk":5,"migraine_risk":7,"frizz_risk":1,"updated_at":"2026-04-17T14:51:56.504040+05:30"},{"city":"Port Blair","state":"Andaman and Nicobar Islands","latitude":11.6234,"longitude":92.7265,"temp":29.3,"humidity":71,"rain":0.0,"pressure":1006.2,"uv_index":9.2,"wind_gusts":24.5,"aqi":45,"pm10":15.9,"pm2_5":11.1,"mosquito_risk":7,"arthritis_risk":5,"migraine_risk":4,"frizz_risk":1,"updated_at":"2026-04-17T14:51:56.504046+05:30"},{"city":"Haridwar","state":"Uttarakhand","latitude":29.9457,"longitude":78.1642,"temp":34.3,"humidity":26,"rain":0.0,"pressure":976.2,"uv_index":5.8,"wind_gusts":42.5,"aqi":62,"pm10":41.2,"pm2_5":13.2,"mosquito_risk":0,"arthritis_risk":5,"migraine_risk":3,"frizz_risk":0,"updated_at":"2026-04-17T14:51:56.504052+05:30"},{"city":"Rishikesh","state":"Uttarakhand","latitude":30.0869,"longitude":78.2676,"temp":33.1,"humidity":25,"rain":0.0,"pressure":969.1,"uv_index":6.05,"wind_gusts":31.7,"aqi":65,"pm10":33.4,"pm2_5":10.4,"mosquito_risk":0,"arthritis_risk":5,"migraine_risk":7,"frizz_risk":0,"updated_at":"2026-04-17T14:51:56.504058+05:30"},{"city":"Nainital","state":"Uttarakhand","latitude":29.3919,"longitude":79.4542,"temp":27.7,"humidity":31,"rain":0.0,"pressure":811.6,"uv_index":7.5,"wind_gusts":55.4,"aqi":100,"pm10":25.1,"pm2_5":11.7,"mosquito_risk":4,"arthritis_risk":5,"migraine_risk":7,"frizz_risk":0,"updated_at":"2026-04-17T14:51:56.504065+05:30"},{"city":"Mussoorie","state":"Uttarakhand","latitude":30.4599,"longitude":78.0664,"temp":20.7,"humidity":42,"rain":0.0,"pressure":807.9,"uv_index":6.55,"wind_gusts":52.6,"aqi":73,"pm10":33.2,"pm2_5":11.2,"mosquito_risk":0,"arthritis_risk":5,"migraine_risk":7,"frizz_risk":0,"updated_at":"2026-04-17T14:51:56.504072+05:30"},{"city":"Dharamshala","state":"Himachal Pradesh","latitude":32.219,"longitude":76.3234,"temp":23.9,"humidity":53,"rain":0.0,"pressure":873.6,"uv_index":6.9,"wind_gusts":36.7,"aqi":48,"pm10":21.8,"pm2_5":6.6,"mosquito_risk":0,"arthritis_risk":5,"migraine_risk":7,"frizz_risk":0,"updated_at":"2026-04-17T14:51:56.504077+05:30"},{"city":"Dalhousie","state":"Himachal Pradesh","latitude":32.5387,"longitude":75.971,"temp":21.6,"humidity":39,"rain":0.0,"pressure":809.2,"uv_index":6.05,"wind_gusts":34.2,"aqi":50,"pm10":37.4,"pm2_5":12.7,"mosquito_risk":0,"arthritis_risk":5,"migraine_risk":7,"frizz_risk":0,"updated_at":"2026-04-17T14:51:56.504084+05:30"},{"city":"Patiala","state":"Punjab","latitude":30.3398,"longitude":76.3869,"temp":35.0,"humidity":23,"rain":0.0,"pressure":980.2,"uv_index":6.95,"wind_gusts":46.1,"aqi":142,"pm10":581.1,"pm2_5":62.9,"mosquito_risk":0,"arthritis_risk":5,"migraine_risk":7,"frizz_risk":0,"updated_at":"2026-04-17T14:51:56.504090+05:30"},{"city":"Bhatinda","state":"Punjab","latitude":30.211,"longitude":74.9455,"temp":36.4,"humidity":18,"rain":0.0,"pressure":985.4,"uv_index":7.65,"wind_gusts":43.6,"aqi":80,"pm10":201.6,"pm2_5":30.6,"mosquito_risk":0,"arthritis_risk":5,"migraine_risk":10,"frizz_risk":0,"updated_at":"2026-04-17T14:51:56.504095+05:30"},{"city":"Rohtak","state":"Haryana","latitude":28.8955,"longitude":76.6066,"temp":35.9,"humidity":30,"rain":0.0,"pressure":982.3,"uv_index":6.5,"wind_gusts":25.9,"aqi":163,"pm10":179.3,"pm2_5":32.4,"mosquito_risk":0,"arthritis_risk":5,"migraine_risk":10,"frizz_risk":0,"updated_at":"2026-04-17T14:51:56.504100+05:30"},{"city":"Panipat","state":"Haryana","latitude":29.3909,"longitude":76.9635,"temp":35.3,"humidity":31,"rain":0.0,"pressure":981.9,"uv_index":6.45,"wind_gusts":29.9,"aqi":286,"pm10":287.8,"pm2_5":41.9,"mosquito_risk":0,"arthritis_risk":5,"migraine_risk":10,"frizz_risk":0,"updated_at":"2026-04-17T14:51:56.504105+05:30"},{"city":"Mathura","state":"Uttar Pradesh","latitude":27.4924,"longitude":77.6737,"temp":38.7,"humidity":20,"rain":0.0,"pressure":986.6,"uv_index":6.7,"wind_gusts":32.0,"aqi":158,"pm10":293.4,"pm2_5":37.4,"mosquito_risk":0,"arthritis_risk":5,"migraine_risk":10,"frizz_risk":0,"updated_at":"2026-04-17T14:51:56.504110+05:30"},{"city":"Vrindavan","state":"Uttar Pradesh","latitude":27.5823,"longitude":77.7027,"temp":38.0,"humidity":21,"rain":0.0,"pressure":987.3,"uv_index":6.55,"wind_gusts":32.4,"aqi":158,"pm10":293.4,"pm2_5":37.4,"mosquito_risk":0,"arthritis_risk":5,"migraine_risk":10,"frizz_risk":0,"updated_at":"2026-04-17T14:51:56.504115+05:30"},{"city":"Ayodhya","state":"Uttar Pradesh","latitude":26.7922,"longitude":82.1998,"temp":38.2,"humidity":28,"rain":0.0,"pressure":994.6,"uv_index":6.9,"wind_gusts":27.4,"aqi":146,"pm10":62.9,"pm2_5":36.9,"mosquito_risk":0,"arthritis_risk":5,"migraine_risk":10,"frizz_risk":1,"updated_at":"2026-04-17T14:51:56.504119+05:30"},{"city":"Ratlam","state":"Madhya Pradesh","latitude":23.3315,"longitude":75.0367,"temp":35.1,"humidity":32,"rain":0.0,"pressure":955.0,"uv_index":7.3,"wind_gusts":27.7,"aqi":75,"pm10":27.3,"pm2_5":14.1,"mosquito_risk":0,"arthritis_risk":5,"migraine_risk":10,"frizz_risk":0,"updated_at":"2026-04-17T14:51:56.504125+05:30"},{"city":"Sagar","state":"Madhya Pradesh","latitude":23.8388,"longitude":78.7378,"temp":39.7,"humidity":19,"rain":0.0,"pressure":949.8,"uv_index":7.8,"wind_gusts":22.7,"aqi":118,"pm10":75.7,"pm2_5":18.9,"mosquito_risk":0,"arthritis_risk":5,"migraine_risk":10,"frizz_risk":0,"updated_at":"2026-04-17T14:51:56.504130+05:30"},{"city":"Satna","state":"Madhya Pradesh","latitude":24.6005,"longitude":80.8322,"temp":41.7,"humidity":12,"rain":0.0,"pressure":970.6,"uv_index":8.6,"wind_gusts":16.6,"aqi":136,"pm10":91.5,"pm2_5":19.8,"mosquito_risk":0,"arthritis_risk":5,"migraine_risk":10,"frizz_risk":0,"updated_at":"2026-04-17T14:51:56.504135+05:30"},{"city":"Akola","state":"Maharashtra","latitude":20.7002,"longitude":77.0082,"temp":42.3,"humidity":15,"rain":0.0,"pressure":973.4,"uv_index":8.05,"wind_gusts":24.1,"aqi":94,"pm10":21.8,"pm2_5":14.1,"mosquito_risk":0,"arthritis_risk":5,"migraine_risk":10,"frizz_risk":0,"updated_at":"2026-04-17T14:51:56.504141+05:30"},{"city":"Amravati","state":"Maharashtra","latitude":20.9374,"longitude":77.7796,"temp":41.0,"humidity":20,"rain":0.0,"pressure":965.9,"uv_index":8.15,"wind_gusts":15.1,"aqi":93,"pm10":25.0,"pm2_5":14.5,"mosquito_risk":0,"arthritis_risk":5,"migraine_risk":10,"frizz_risk":0,"updated_at":"2026-04-17T14:51:56.504146+05:30"},{"city":"Latur","state":"Maharashtra","latitude":18.4088,"longitude":76.5604,"temp":38.2,"humidity":21,"rain":0.0,"pressure":939.2,"uv_index":8.6,"wind_gusts":31.7,"aqi":95,"pm10":29.0,"pm2_5":23.7,"mosquito_risk":0,"arthritis_risk":5,"migraine_risk":10,"frizz_risk":0,"updated_at":"2026-04-17T14:51:56.504151+05:30"},{"city":"Nanded","state":"Maharashtra","latitude":19.1383,"longitude":77.3091,"temp":41.0,"humidity":19,"rain":0.0,"pressure":967.0,"uv_index":8.85,"wind_gusts":18.4,"aqi":90,"pm10":25.1,"pm2_5":20.0,"mosquito_risk":0,"arthritis_risk":5,"migraine_risk":10,"frizz_risk":0,"updated_at":"2026-04-17T14:51:56.504157+05:30"},{"city":"Gulbarga","state":"Karnataka","latitude":17.3297,"longitude":76.8343,"temp":41.4,"humidity":18,"rain":0.0,"pressure":957.0,"uv_index":8.7,"wind_gusts":25.6,"aqi":104,"pm10":27.7,"pm2_5":22.6,"mosquito_risk":0,"arthritis_risk":5,"migraine_risk":10,"frizz_risk":0,"updated_at":"2026-04-17T14:51:56.504161+05:30"},{"city":"Bidar","state":"Karnataka","latitude":17.9104,"longitude":77.5199,"temp":37.4,"humidity":26,"rain":0.0,"pressure":934.7,"uv_index":8.7,"wind_gusts":46.8,"aqi":117,"pm10":27.2,"pm2_5":21.9,"mosquito_risk":0,"arthritis_risk":5,"migraine_risk":10,"frizz_risk":0,"updated_at":"2026-04-17T14:51:56.504166+05:30"},{"city":"Hospet","state":"Karnataka","latitude":15.2689,"longitude":76.3909,"temp":37.2,"humidity":24,"rain":0.0,"pressure":954.6,"uv_index":9.25,"wind_gusts":22.7,"aqi":92,"pm10":32.0,"pm2_5":26.3,"mosquito_risk":0,"arthritis_risk":5,"migraine_risk":10,"frizz_risk":0,"updated_at":"2026-04-17T14:51:56.504171+05:30"},{"city":"Tirupur","state":"Tamil Nadu","latitude":11.1085,"longitude":77.3411,"temp":39.8,"humidity":24,"rain":0.0,"pressure":972.7,"uv_index":9.0,"wind_gusts":34.2,"aqi":79,"pm10":27.6,"pm2_5":20.3,"mosquito_risk":0,"arthritis_risk":5,"migraine_risk":10,"frizz_risk":0,"updated_at":"2026-04-17T14:51:56.504175+05:30"},{"city":"Alappuzha","state":"Kerala","latitude":9.4981,"longitude":76.3388,"temp":30.0,"humidity":81,"rain":0.0,"pressure":1006.1,"uv_index":8.1,"wind_gusts":30.2,"aqi":104,"pm10":39.7,"pm2_5":29.9,"mosquito_risk":7,"arthritis_risk":5,"migraine_risk":4,"frizz_risk":1,"updated_at":"2026-04-17T14:51:56.504180+05:30"},{"city":"Munnar","state":"Kerala","latitude":10.0889,"longitude":77.0595,"temp":29.5,"humidity":52,"rain":0.0,"pressure":857.8,"uv_index":9.05,"wind_gusts":34.6,"aqi":80,"pm10":23.3,"pm2_5":16.6,"mosquito_risk":4,"arthritis_risk":5,"migraine_risk":7,"frizz_risk":1,"updated_at":"2026-04-17T14:51:56.504185+05:30"},{"city":"Silchar","state":"Assam","latitude":24.8333,"longitude":92.7789,"temp":32.3,"humidity":56,"rain":0.0,"pressure":1004.1,"uv_index":8.75,"wind_gusts":20.5,"aqi":156,"pm10":83.4,"pm2_5":56.6,"mosquito_risk":0,"arthritis_risk":5,"migraine_risk":4,"frizz_risk":1,"updated_at":"2026-04-17T14:51:56.504190+05:30"},{"city":"Dibrugarh","state":"Assam","latitude":27.4728,"longitude":94.912,"temp":30.4,"humidity":53,"rain":0.0,"pressure":994.8,"uv_index":8.65,"wind_gusts":11.5,"aqi":147,"pm10":80.6,"pm2_5":45.8,"mosquito_risk":0,"arthritis_risk":5,"migraine_risk":7,"frizz_risk":1,"updated_at":"2026-04-17T14:51:56.504195+05:30"}]