[{"city":"Delhi","state":"Delhi","latitude":28.6139,"longitude":77.209,"temp":30.0,"humidity":37,"rain":0.0,"pressure":981.7,"uv_index":6.15,"wind_gusts":22.3,"aqi":134,"pm10":94.5,"pm2_5":26.0,"mosquito_risk":4,"arthritis_risk":5,"migraine_risk":7,"frizz_risk":0,"updated_at":"2026-03-28T14:13:20.874341+05:30"},{"city":"Mumbai","state":"Maharashtra","latitude":19.076,"longitude":72.8777,"temp":28.0,"humidity":83,"rain":0.0,"pressure":1007.3,"uv_index":8.0,"wind_gusts":25.2,"aqi":80,"pm10":28.5,"pm2_5":22.2,"mosquito_risk":7,"arthritis_risk":5,"migraine_risk":4,"frizz_risk":1,"updated_at":"2026-03-28T14:13:20.874380+05:30"},{"city":"Bangalore","state":"Karnataka","latitude":12.9716,"longitude":77.5946,"temp":32.1,"humidity":35,"rain":0.0,"pressure":910.8,"uv_index":9.5,"wind_gusts":47.2,"aqi":90,"pm10":40.3,"pm2_5":32.0,"mosquito_risk":0,"arthritis_risk":5,"migraine_risk":7,"frizz_risk":0,"updated_at":"2026-03-28T14:13:20.874395+05:30"},{"city":"Hyderabad","state":"Telangana","latitude":17.385,"longitude":78.4867,"temp":38.1,"humidity":17,"rain":0.0,"pressure":950.7,"uv_index":9.0,"wind_gusts":24.8,"aqi":110,"pm10":47.3,"pm2_5":37.4,"mosquito_risk":0,"arthritis_risk":5,"migraine_risk":10,"frizz_risk":0,"updated_at":"2026-03-28T14:13:20.874405+05:30"},{"city":"Chennai","state":"Tamil Nadu","latitude":13.0827,"longitude":80.2707,"temp":35.2,"humidity":47,"rain":0.0,"pressure":1005.0,"uv_index":9.25,"wind_gusts":34.9,"aqi":68,"pm10":30.6,"pm2_5":21.4,"mosquito_risk":0,"arthritis_risk":5,"migraine_risk":7,"frizz_risk":1,"updated_at":"2026-03-28T14:13:20.874413+05:30"},{"city":"Kolkata","state":"West Bengal","latitude":22.5726,"longitude":88.3639,"temp":31.7,"humidity":57,"rain":0.0,"pressure":1002.8,"uv_index":8.4,"wind_gusts":31.7,"aqi":119,"pm10":69.2,"pm2_5":54.7,"mosquito_risk":0,"arthritis_risk":5,"migraine_risk":4,"frizz_risk":1,"updated_at":"2026-03-28T14:13:20.874421+05:30"},{"city":"Pune","state":"Maharashtra","latitude":18.5204,"longitude":73.8567,"temp":37.2,"humidity":20,"rain":0.0,"pressure":947.4,"uv_index":8.5,"wind_gusts":46.8,"aqi":80,"pm10":11.3,"pm2_5":8.8,"mosquito_risk":0,"arthritis_risk":5,"migraine_risk":10,"frizz_risk":0,"updated_at":"2026-03-28T14:13:20.874432+05:30"},{"city":"Ahmedabad","state":"Gujarat","latitude":23.0225,"longitude":72.5714,"temp":35.6,"humidity":31,"rain":0.0,"pressure":1000.3,"uv_index":7.95,"wind_gusts":35.3,"aqi":38,"pm10":48.1,"pm2_5":11.1,"mosquito_risk":0,"arthritis_risk":5,"migraine_risk":7,"frizz_risk":0,"updated_at":"2026-03-28T14:13:20.874440+05:30"},{"city":"Jaipur","state":"Rajasthan","latitude":26.9124,"longitude":75.7873,"temp":33.3,"humidity":23,"rain":0.0,"pressure":958.3,"uv_index":7.25,"wind_gusts":32.0,"aqi":112,"pm10":160.2,"pm2_5":20.0,"mosquito_risk":0,"arthritis_risk":5,"migraine_risk":7,"frizz_risk":0,"updated_at":"2026-03-28T14:13:20.874447+05:30"},{"city":"Lucknow","state":"Uttar Pradesh","latitude":26.8467,"longitude":80.9462,"temp":32.1,"humidity":34,"rain":0.0,"pressure":991.1,"uv_index":7.15,"wind_gusts":29.5,"aqi":130,"pm10":108.5,"pm2_5":26.1,"mosquito_risk":0,"arthritis_risk":5,"migraine_risk":7,"frizz_risk":0,"updated_at":"2026-03-28T14:13:20.874455+05:30"},{"city":"Kanpur","state":"Uttar Pradesh","latitude":26.4499,"longitude":80.3319,"temp":31.5,"humidity":38,"rain":0.0,"pressure":989.8,"uv_index":6.95,"wind_gusts":29.2,"aqi":187,"pm10":245.9,"pm2_5":39.1,"mosquito_risk":0,"arthritis_risk":5,"migraine_risk":7,"frizz_risk":0,"updated_at":"2026-03-28T14:13:20.874461+05:30"},{"city":"Chandigarh","state":"Chandigarh","latitude":30.7333,"longitude":76.7794,"temp":29.2,"humidity":46,"rain":0.0,"pressure":967.2,"uv_index":5.25,"wind_gusts":23.0,"aqi":73,"pm10":21.8,"pm2_5":15.3,"mosquito_risk":4,"arthritis_risk":5,"migraine_risk":3,"frizz_risk":1,"updated_at":"2026-03-28T14:13:20.874468+05:30"},{"city":"Srinagar","state":"Jammu and Kashmir","latitude":34.0837,"longitude":74.7973,"temp":19.4,"humidity":45,"rain":0.0,"pressure":839.5,"uv_index":6.0,"wind_gusts":16.2,"aqi":88,"pm10":26.7,"pm2_5":12.6,"mosquito_risk":0,"arthritis_risk":5,"migraine_risk":3,"frizz_risk":0,"updated_at":"2026-03-28T14:13:20.874475+05:30"},{"city":"Jammu","state":"Jammu and Kashmir","latitude":32.7266,"longitude":74.857,"temp":28.4,"humidity":53,"rain":0.0,"pressure":971.2,"uv_index":6.85,"wind_gusts":15.8,"aqi":73,"pm10":11.3,"pm2_5":10.9,"mosquito_risk":4,"arthritis_risk":5,"migraine_risk":7,"frizz_risk":1,"updated_at":"2026-03-28T14:13:20.874482+05:30"},{"city":"Amritsar","state":"Punjab","latitude":31.634,"longitude":74.8723,"temp":29.1,"humidity":45,"rain":0.0,"pressure":979.2,"uv_index":6.15,"wind_gusts":14.8,"aqi":136,"pm10":17.3,"pm2_5":15.3,"mosquito_risk":4,"arthritis_risk":5,"migraine_risk":7,"frizz_risk":0,"updated_at":"2026-03-28T14:13:20.874489+05:30"},{"city":"Ludhiana","state":"Punjab","latitude":30.901,"longitude":75.8573,"temp":29.6,"humidity":40,"rain":0.0,"pressure":977.3,"uv_index":6.15,"wind_gusts":14.0,"aqi":96,"pm10":22.0,"pm2_5":14.8,"mosquito_risk":4,"arthritis_risk":5,"migraine_risk":7,"frizz_risk":0,"updated_at":"2026-03-28T14:13:20.874495+05:30"},{"city":"Jalandhar","state":"Punjab","latitude":31.326,"longitude":75.5762,"temp":28.9,"humidity":45,"rain":0.0,"pressure":978.4,"uv_index":6.25,"wind_gusts":12.2,"aqi":100,"pm10":23.5,"pm2_5":14.5,"mosquito_risk":4,"arthritis_risk":5,"migraine_risk":7,"frizz_risk":0,"updated_at":"2026-03-28T14:13:20.874504+05:30"},{"city":"Dehradun","state":"Uttarakhand","latitude":30.6284,"longitude":78.0322,"temp":18.8,"humidity":62,"rain":0.0,"pressure":828.7,"uv_index":5.8,"wind_gusts":22.3,"aqi":56,"pm10":23.0,"pm2_5":12.4,"mosquito_risk":3,"arthritis_risk":5,"migraine_risk":3,"frizz_risk":0,"updated_at":"2026-03-28T14:13:20.874511+05:30"},{"city":"Shimla","state":"Himachal Pradesh","latitude":31.1048,"longitude":77.1734,"temp":17.0,"humidity":63,"rain":0.0,"pressure":783.5,"uv_index":6.0,"wind_gusts":32.0,"aqi":59,"pm10":17.6,"pm2_5":8.8,"mosquito_risk":3,"arthritis_risk":5,"migraine_risk":3,"frizz_risk":0,"updated_at":"2026-03-28T14:13:20.874518+05:30"},{"city":"Manali","state":"Himachal Pradesh","latitude":32.2396,"longitude":77.1887,"temp":21.6,"humidity":52,"rain":0.0,"pressure":818.7,"uv_index":8.55,"wind_gusts":28.1,"aqi":89,"pm10":22.5,"pm2_5":6.7,"mosquito_risk":0,"arthritis_risk":5,"migraine_risk":7,"frizz_risk":0,"updated_at":"2026-03-28T14:13:20.874525+05:30"},{"city":"Gurgaon","state":"Haryana","latitude":28.4595,"longitude":77.0266,"temp":30.3,"humidity":37,"rain":0.0,"pressure":980.2,"uv_index":6.3,"wind_gusts":17.3,"aqi":370,"pm10":379.0,"pm2_5":50.2,"mosquito_risk":0,"arthritis_risk":5,"migraine_risk":7,"frizz_risk":0,"updated_at":"2026-03-28T14:13:20.874533+05:30"},{"city":"Noida","state":"Uttar Pradesh","latitude":28.5355,"longitude":77.391,"temp":30.3,"humidity":37,"rain":0.0,"pressure":983.2,"uv_index":6.05,"wind_gusts":21.6,"aqi":370,"pm10":379.0,"pm2_5":50.2,"mosquito_risk":0,"arthritis_risk":5,"migraine_risk":7,"frizz_risk":0,"updated_at":"2026-03-28T14:13:20.874539+05:30"},{"city":"Ghaziabad","state":"Uttar Pradesh","latitude":28.6692,"longitude":77.4538,"temp":29.9,"humidity":40,"rain":0.0,"pressure":981.4,"uv_index":5.8,"wind_gusts":21.2,"aqi":125,"pm10":67.1,"pm2_5":24.7,"mosquito_risk":4,"arthritis_risk":5,"migraine_risk":3,"frizz_risk":0,"updated_at":"2026-03-28T14:13:20.874545+05:30"},{"city":"Faridabad","state":"Haryana","latitude":28.4089,"longitude":77.3178,"temp":30.4,"humidity":37,"rain":0.0,"pressure":982.4,"uv_index":6.3,"wind_gusts":19.4,"aqi":370,"pm10":379.0,"pm2_5":50.2,"mosquito_risk":0,"arthritis_risk":5,"migraine_risk":7,"frizz_risk":0,"updated_at":"2026-03-28T14:13:20.874552+05:30"},{"city":"Meerut","state":"Uttar Pradesh","latitude":28.9845,"longitude":77.7064,"temp":29.4,"humidity":43,"rain":0.0,"pressure":980.1,"uv_index":5.85,"wind_gusts":23.0,"aqi":125,"pm10":67.1,"pm2_5":24.7,"mosquito_risk":4,"arthritis_risk":5,"migraine_risk":3,"frizz_risk":0,"updated_at":"2026-03-28T14:13:20.874558+05:30"},{"city":"Agra","state":"Uttar Pradesh","latitude":27.1767,"longitude":78.0081,"temp":34.8,"humidity":27,"rain":0.0,"pressure":985.6,"uv_index":6.35,"wind_gusts":27.0,"aqi":417,"pm10":462.9,"pm2_5":49.0,"mosquito_risk":0,"arthritis_risk":5,"migraine_risk":7,"frizz_risk":0,"updated_at":"2026-03-28T14:13:20.874564+05:30"},{"city":"Varanasi","state":"Uttar Pradesh","latitude":25.3176,"longitude":82.9739,"temp":33.3,"humidity":35,"rain":0.0,"pressure":995.1,"uv_index":7.8,"wind_gusts":37.4,"aqi":80,"pm10":78.0,"pm2_5":23.1,"mosquito_risk":0,"arthritis_risk":5,"migraine_risk":7,"frizz_risk":0,"updated_at":"2026-03-28T14:13:20.874572+05:30"},{"city":"Prayagraj","state":"Uttar Pradesh","latitude":25.4358,"longitude":81.8463,"temp":33.2,"humidity":36,"rain":0.0,"pressure":993.5,"uv_index":7.7,"wind_gusts":30.2,"aqi":80,"pm10":103.4,"pm2_5":25.0,"mosquito_risk":0,"arthritis_risk":5,"migraine_risk":7,"frizz_risk":1,"updated_at":"2026-03-28T14:13:20.874579+05:30"},{"city":"Gorakhpur","state":"Uttar Pradesh","latitude":26.7606,"longitude":83.3732,"temp":30.9,"humidity":43,"rain":0.0,"pressure":994.8,"uv_index":7.0,"wind_gusts":23.8,"aqi":100,"pm10":113.6,"pm2_5":34.1,"mosquito_risk":0,"arthritis_risk":5,"migraine_risk":7,"frizz_risk":1,"updated_at":"2026-03-28T14:13:20.874585+05:30"},{"city":"Bareilly","state":"Uttar Pradesh","latitude":28.367,"longitude":79.4304,"temp":30.1,"humidity":41,"rain":0.0,"pressure":985.0,"uv_index":6.35,"wind_gusts":26.3,"aqi":83,"pm10":35.4,"pm2_5":16.8,"mosquito_risk":0,"arthritis_risk":5,"migraine_risk":7,"frizz_risk":0,"updated_at":"2026-03-28T14:13:20.874591+05:30"},{"city":"Aligarh","state":"Uttar Pradesh","latitude":27.8974,"longitude":78.088,"temp":31.2,"humidity":39,"rain":0.0,"pressure":983.9,"uv_index":6.45,"wind_gusts":24.1,"aqi":197,"pm10":302.7,"pm2_5":42.8,"mosquito_risk":0,"arthritis_risk":5,"migraine_risk":7,"frizz_risk":0,"updated_at":"2026-03-28T14:13:20.874599+05:30"},{"city":"Moradabad","state":"Uttar Pradesh","latitude":28.8386,"longitude":78.7733,"temp":29.2,"humidity":46,"rain":0.0,"pressure":981.9,"uv_index":6.1,"wind_gusts":25.2,"aqi":91,"pm10":50.2,"pm2_5":23.4,"mosquito_risk":4,"arthritis_risk":5,"migraine_risk":7,"frizz_risk":1,"updated_at":"2026-03-28T14:13:20.874606+05:30"},{"city":"Saharanpur","state":"Uttar Pradesh","latitude":29.9637,"longitude":77.546,"temp":29.1,"humidity":47,"rain":0.0,"pressure":974.1,"uv_index":5.25,"wind_gusts":24.8,"aqi":102,"pm10":24.3,"pm2_5":16.9,"mosquito_risk":4,"arthritis_risk":5,"migraine_risk":3,"frizz_risk":1,"updated_at":"2026-03-28T14:13:20.874611+05:30"},{"city":"Jhansi","state":"Uttar Pradesh","latitude":25.4484,"longitude":78.5685,"temp":35.9,"humidity":22,"rain":0.0,"pressure":975.2,"uv_index":7.1,"wind_gusts":33.8,"aqi":100,"pm10":105.0,"pm2_5":25.3,"mosquito_risk":0,"arthritis_risk":5,"migraine_risk":10,"frizz_risk":0,"updated_at":"2026-03-28T14:13:24.089345+05:30"},{"city":"Surat","state":"Gujarat","latitude":21.1702,"longitude":72.8311,"temp":31.4,"humidity":48,"rain":0.0,"pressure":1005.9,"uv_index":7.75,"wind_gusts":27.4,"aqi":85,"pm10":30.7,"pm2_5":29.8,"mosquito_risk":0,"arthritis_risk":5,"migraine_risk":4,"frizz_risk":1,"updated_at":"2026-03-28T14:13:24.089379+05:30"},{"city":"Vadodara","state":"Gujarat","latitude":22.3072,"longitude":73.1812,"temp":36.4,"humidity":30,"rain":0.0,"pressure":1002.4,"uv_index":7.95,"wind_gusts":33.1,"aqi":61,"pm10":18.6,"pm2_5":10.7,"mosquito_risk":0,"arthritis_risk":5,"migraine_risk":7,"frizz_risk":1,"updated_at":"2026-03-28T14:13:24.089391+05:30"},{"city":"Rajkot","state":"Gujarat","latitude":22.3039,"longitude":70.8022,"temp":34.1,"humidity":40,"rain":0.0,"pressure":993.2,"uv_index":7.75,"wind_gusts":44.3,"aqi":31,"pm10":40.0,"pm2_5":12.0,"mosquito_risk":0,"arthritis_risk":5,"migraine_risk":7,"frizz_risk":1,"updated_at":"2026-03-28T14:13:24.089400+05:30"},{"city":"Thane","state":"Maharashtra","latitude":19.2183,"longitude":72.9781,"temp":32.6,"humidity":56,"rain":0.0,"pressure":1006.9,"uv_index":8.0,"wind_gusts":38.5,"aqi":80,"pm10":28.5,"pm2_5":22.2,"mosquito_risk":0,"arthritis_risk":5,"migraine_risk":4,"frizz_risk":1,"updated_at":"2026-03-28T14:13:24.089408+05:30"},{"city":"Nagpur","state":"Maharashtra","latitude":21.1458,"longitude":79.0882,"temp":37.5,"humidity":20,"rain":0.0,"pressure":969.9,"uv_index":8.5,"wind_gusts":31.7,"aqi":59,"pm10":17.3,"pm2_5":11.4,"mosquito_risk":0,"arthritis_risk":5,"migraine_risk":10,"frizz_risk":0,"updated_at":"2026-03-28T14:13:24.089416+05:30"},{"city":"Nashik","state":"Maharashtra","latitude":19.9975,"longitude":73.7898,"temp":34.8,"humidity":21,"rain":0.0,"pressure":944.7,"uv_index":8.2,"wind_gusts":42.5,"aqi":59,"pm10":31.3,"pm2_5":10.6,"mosquito_risk":0,"arthritis_risk":5,"migraine_risk":7,"frizz_risk":0,"updated_at":"2026-03-28T14:13:24.089425+05:30"},{"city":"Aurangabad","state":"Maharashtra","latitude":19.8762,"longitude":75.3433,"temp":36.5,"humidity":19,"rain":0.0,"pressure":942.7,"uv_index":8.75,"wind_gusts":38.5,"aqi":55,"pm10":8.4,"pm2_5":6.0,"mosquito_risk":0,"arthritis_risk":5,"migraine_risk":10,"frizz_risk":0,"updated_at":"2026-03-28T14:13:24.089433+05:30"},{"city":"Solapur","state":"Maharashtra","latitude":17.6599,"longitude":75.9064,"temp":38.4,"humidity":18,"rain":0.0,"pressure":955.1,"uv_index":8.85,"wind_gusts":28.4,"aqi":92,"pm10":27.6,"pm2_5":21.1,"mosquito_risk":0,"arthritis_risk":5,"migraine_risk":10,"frizz_risk":0,"updated_at":"2026-03-28T14:13:24.089442+05:30"},{"city":"Kolhapur","state":"Maharashtra","latitude":16.705,"longitude":74.2433,"temp":34.3,"humidity":29,"rain":0.0,"pressure":946.7,"uv_index":8.95,"wind_gusts":46.4,"aqi":134,"pm10":32.6,"pm2_5":25.9,"mosquito_risk":0,"arthritis_risk":5,"migraine_risk":7,"frizz_risk":0,"updated_at":"2026-03-28T14:13:24.089450+05:30"},{"city":"Goa","state":"Goa","latitude":15.2993,"longitude":74.124,"temp":32.8,"humidity":64,"rain":0.0,"pressure":996.3,"uv_index":8.95,"wind_gusts":31.7,"aqi":95,"pm10":40.2,"pm2_5":32.8,"mosquito_risk":3,"arthritis_risk":5,"migraine_risk":7,"frizz_risk":1,"updated_at":"2026-03-28T14:13:24.089458+05:30"},{"city":"Jodhpur","state":"Rajasthan","latitude":26.2389,"longitude":73.0243,"temp":34.9,"humidity":29,"rain":0.0,"pressure":980.9,"uv_index":7.8,"wind_gusts":29.9,"aqi":61,"pm10":121.5,"pm2_5":18.2,"mosquito_risk":0,"arthritis_risk":5,"migraine_risk":7,"frizz_risk":0,"updated_at":"2026-03-28T14:13:24.089466+05:30"},{"city":"Udaipur","state":"Rajasthan","latitude":24.5854,"longitude":73.7125,"temp":32.9,"humidity":31,"rain":0.0,"pressure":945.2,"uv_index":8.35,"wind_gusts":33.1,"aqi":42,"pm10":11.8,"pm2_5":4.7,"mosquito_risk":0,"arthritis_risk":5,"migraine_risk":7,"frizz_risk":0,"updated_at":"2026-03-28T14:13:24.089475+05:30"},{"city":"Kota","state":"Rajasthan","latitude":25.2138,"longitude":75.8648,"temp":36.9,"humidity":22,"rain":0.0,"pressure":976.1,"uv_index":7.65,"wind_gusts":24.5,"aqi":50,"pm10":117.8,"pm2_5":19.2,"mosquito_risk":0,"arthritis_risk":5,"migraine_risk":10,"frizz_risk":0,"updated_at":"2026-03-28T14:13:24.089482+05:30"},{"city":"Bikaner","state":"Rajasthan","latitude":28.0229,"longitude":73.3119,"temp":34.5,"humidity":26,"rain":0.0,"pressure":979.5,"uv_index":7.2,"wind_gusts":25.2,"aqi":34,"pm10":29.0,"pm2_5":8.6,"mosquito_risk":0,"arthritis_risk":5,"migraine_risk":7,"frizz_risk":0,"updated_at":"2026-03-28T14:13:24.089490+05:30"},{"city":"Ajmer","state":"Rajasthan","latitude":26.4499,"longitude":74.6399,"temp":33.1,"humidity":29,"rain":0.0,"pressure":952.8,"uv_index":7.65,"wind_gusts":30.6,"aqi":36,"pm10":89.2,"pm2_5":15.2,"mosquito_risk":0,"arthritis_risk":5,"migraine_risk":7,"frizz_risk":0,"updated_at":"2026-03-28T14:13:24.089498+05:30"},{"city":"Gwalior","state":"Madhya Pradesh","latitude":26.2183,"longitude":78.1828,"temp":34.6,"humidity":28,"rain":0.0,"pressure":981.1,"uv_index":6.95,"wind_gusts":35.3,"aqi":152,"pm10":93.4,"pm2_5":22.4,"mosquito_risk":0,"arthritis_risk":5,"migraine_risk":7,"frizz_risk":0,"updated_at":"2026-03-28T14:13:24.089506+05:30"},{"city":"Indore","state":"Madhya Pradesh","latitude":22.7196,"longitude":75.8577,"temp":35.0,"humidity":25,"rain":0.0,"pressure":946.1,"uv_index":8.2,"wind_gusts":36.7,"aqi":41,"pm10":14.0,"pm2_5":7.0,"mosquito_risk":0,"arthritis_risk":5,"migraine_risk":7,"frizz_risk":0,"updated_at":"2026-03-28T14:13:24.089513+05:30"},{"city":"Bhopal","state":"Madhya Pradesh","latitude":23.2599,"longitude":77.4126,"temp":35.9,"humidity":22,"rain":0.0,"pressure":951.6,"uv_index":8.15,"wind_gusts":31.3,"aqi":40,"pm10":41.2,"pm2_5":9.5,"mosquito_risk":0,"arthritis_risk":5,"migraine_risk":10,"frizz_risk":0,"updated_at":"2026-03-28T14:13:24.089520+05:30"},{"city":"Jabalpur","state":"Madhya Pradesh","latitude":23.1815,"longitude":79.9864,"temp":34.6,"humidity":28,"rain":0.0,"pressure":958.9,"uv_index":8.25,"wind_gusts":29.9,"aqi":52,"pm10":29.3,"pm2_5":9.8,"mosquito_risk":0,"arthritis_risk":5,"migraine_risk":7,"frizz_risk":0,"updated_at":"2026-03-28T14:13:24.089527+05:30"},{"city":"Ujjain","state":"Madhya Pradesh","latitude":23.1765,"longitude":75.7885,"temp":34.5,"humidity":25,"rain":0.0,"pressure":951.9,"uv_index":8.15,"wind_gusts":34.6,"aqi":37,"pm10":12.1,"pm2_5":5.8,"mosquito_risk":0,"arthritis_risk":5,"migraine_risk":7,"frizz_risk":0,"updated_at":"2026-03-28T14:13:24.089535+05:30"},{"city":"Visakhapatnam","state":"Andhra Pradesh","latitude":17.6868,"longitude":83.2185,"temp":34.3,"humidity":49,"rain":0.0,"pressure":1000.8,"uv_index":9.0,"wind_gusts":44.6,"aqi":91,"pm10":44.6,"pm2_5":31.4,"mosquito_risk":0,"arthritis_risk":5,"migraine_risk":4,"frizz_risk":1,"updated_at":"2026-03-28T14:13:24.089542+05:30"},{"city":"Vijayawada","state":"Andhra Pradesh","latitude":16.5062,"longitude":80.648,"temp":37.1,"humidity":36,"rain":0.0,"pressure":999.3,"uv_index":9.05,"wind_gusts":32.0,"aqi":76,"pm10":43.9,"pm2_5":32.6,"mosquito_risk":0,"arthritis_risk":5,"migraine_risk":10,"frizz_risk":1,"updated_at":"2026-03-28T14:13:24.089550+05:30"},{"city":"Guntur","state":"Andhra Pradesh","latitude":16.3067,"longitude":80.4365,"temp":37.3,"humidity":36,"rain":0.0,"pressure":1000.4,"uv_index":9.05,"wind_gusts":32.8,"aqi":78,"pm10":46.2,"pm2_5":34.9,"mosquito_risk":0,"arthritis_risk":5,"migraine_risk":7,"frizz_risk":1,"updated_at":"2026-03-28T14:13:24.089557+05:30"},{"city":"Nellore","state":"Andhra Pradesh","latitude":14.4426,"longitude":79.9865,"temp":38.4,"humidity":30,"rain":0.0,"pressure":1002.5,"uv_index":9.2,"wind_gusts":38.2,"aqi":74,"pm10":46.7,"pm2_5":34.5,"mosquito_risk":0,"arthritis_risk":5,"migraine_risk":7,"frizz_risk":1,"updated_at":"2026-03-28T14:13:24.089565+05:30"},{"city":"Kurnool","state":"Andhra Pradesh","latitude":15.8281,"longitude":78.0373,"temp":38.8,"humidity":22,"rain":0.0,"pressure":973.8,"uv_index":9.0,"wind_gusts":33.5,"aqi":98,"pm10":58.8,"pm2_5":45.3,"mosquito_risk":0,"arthritis_risk":5,"migraine_risk":10,"frizz_risk":0,"updated_at":"2026-03-28T14:13:24.089574+05:30"},{"city":"Kakinada","state":"Andhra Pradesh","latitude":16.9891,"longitude":82.2475,"temp":37.7,"humidity":39,"rain":0.0,"pressure":1004.2,"uv_index":9.0,"wind_gusts":34.6,"aqi":71,"pm10":34.8,"pm2_5":21.4,"mosquito_risk":0,"arthritis_risk":5,"migraine_risk":7,"frizz_risk":1,"updated_at":"2026-03-28T14:13:24.089581+05:30"},{"city":"Tirupati","state":"Andhra Pradesh","latitude":13.6288,"longitude":79.4192,"temp":36.4,"humidity":30,"rain":0.0,"pressure":988.7,"uv_index":9.3,"wind_gusts":28.1,"aqi":99,"pm10":47.8,"pm2_5":34.7,"mosquito_risk":0,"arthritis_risk":5,"migraine_risk":10,"frizz_risk":0,"updated_at":"2026-03-28T14:13:24.089588+05:30"},{"city":"Warangal","state":"Telangana","latitude":17.9689,"longitude":79.5941,"temp":38.4,"humidity":27,"rain":0.0,"pressure":975.3,"uv_index":8.85,"wind_gusts":25.6,"aqi":95,"pm10":30.2,"pm2_5":26.2,"mosquito_risk":0,"arthritis_risk":5,"migraine_risk":10,"frizz_risk":1,"updated_at":"2026-03-28T14:13:24.089596+05:30"},{"city":"Nizamabad","state":"Telangana","latitude":18.6725,"longitude":78.0941,"temp":37.9,"humidity":18,"rain":0.0,"pressure":962.5,"uv_index":8.8,"wind_gusts":24.5,"aqi":93,"pm10":12.8,"pm2_5":9.6,"mosquito_risk":0,"arthritis_risk":5,"migraine_risk":10,"frizz_risk":0,"updated_at":"2026-03-28T14:13:24.089603+05:30"},{"city":"Mysore","state":"Karnataka","latitude":12.2958,"longitude":76.6396,"temp":34.7,"humidity":30,"rain":0.0,"pressure":927.0,"uv_index":9.45,"wind_gusts":47.2,"aqi":88,"pm10":35.6,"pm2_5":29.1,"mosquito_risk":0,"arthritis_risk":5,"migraine_risk":7,"frizz_risk":0,"updated_at":"2026-03-28T14:13:24.089609+05:30"},{"city":"Mangalore","state":"Karnataka","latitude":12.9141,"longitude":74.856,"temp":29.4,"humidity":83,"rain":0.0,"pressure":1004.5,"uv_index":9.1,"wind_gusts":25.9,"aqi":90,"pm10":34.1,"pm2_5":26.8,"mosquito_risk":7,"arthritis_risk":5,"migraine_risk":4,"frizz_risk":1,"updated_at":"2026-03-28T14:13:24.089617+05:30"},{"city":"Hubli-Dharwad","state":"Karnataka","latitude":15.3647,"longitude":75.124,"temp":34.8,"humidity":24,"rain":0.0,"pressure":939.5,"uv_index":9.1,"wind_gusts":50.0,"aqi":94,"pm10":48.3,"pm2_5":37.0,"mosquito_risk":0,"arthritis_risk":5,"migraine_risk":7,"frizz_risk":0,"updated_at":"2026-03-28T14:13:24.089625+05:30"},{"city":"Belgaum","state":"Karnataka","latitude":15.8497,"longitude":74.4977,"temp":30.9,"humidity":52,"rain":0.0,"pressure":925.1,"uv_index":9.2,"wind_gusts":39.6,"aqi":110,"pm10":41.3,"pm2_5":31.5,"mosquito_risk":0,"arthritis_risk":5,"migraine_risk":7,"frizz_risk":1,"updated_at":"2026-03-28T14:13:27.303873+05:30"},{"city":"Coimbatore","state":"Tamil Nadu","latitude":11.0168,"longitude":76.9558,"temp":35.2,"humidity":37,"rain":0.0,"pressure":959.9,"uv_index":9.45,"wind_gusts":54.7,"aqi":82,"pm10":32.5,"pm2_5":25.7,"mosquito_risk":0,"arthritis_risk":5,"migraine_risk":10,"frizz_risk":1,"updated_at":"2026-03-28T14:13:27.303902+05:30"},{"city":"Madurai","state":"Tamil Nadu","latitude":9.9252,"longitude":78.1198,"temp":36.1,"humidity":39,"rain":0.0,"pressure":990.2,"uv_index":9.4,"wind_gusts":34.2,"aqi":80,"pm10":26.7,"pm2_5":20.3,"mosquito_risk":0,"arthritis_risk":5,"migraine_risk":10,"frizz_risk":1,"updated_at":"2026-03-28T14:13:27.303912+05:30"},{"city":"Trichy","state":"Tamil Nadu","latitude":10.7905,"longitude":78.7047,"temp":36.3,"humidity":38,"rain":0.0,"pressure":996.9,"uv_index":9.35,"wind_gusts":23.4,"aqi":79,"pm10":27.2,"pm2_5":20.3,"mosquito_risk":0,"arthritis_risk":5,"migraine_risk":10,"frizz_risk":1,"updated_at":"2026-03-28T14:13:27.303953+05:30"},{"city":"Salem","state":"Tamil Nadu","latitude":11.6643,"longitude":78.146,"temp":37.6,"humidity":28,"rain":0.0,"pressure":974.6,"uv_index":9.4,"wind_gusts":23.8,"aqi":102,"pm10":41.2,"pm2_5":32.9,"mosquito_risk":0,"arthritis_risk":5,"migraine_risk":10,"frizz_risk":0,"updated_at":"2026-03-28T14:13:27.303965+05:30"},{"city":"Tirunelveli","state":"Tamil Nadu","latitude":8.7139,"longitude":77.7567,"temp":38.7,"humidity":24,"rain":0.0,"pressure":999.9,"uv_index":9.35,"wind_gusts":45.0,"aqi":66,"pm10":24.2,"pm2_5":19.4,"mosquito_risk":0,"arthritis_risk":5,"migraine_risk":10,"frizz_risk":0,"updated_at":"2026-03-28T14:13:27.303972+05:30"},{"city":"Vellore","state":"Tamil Nadu","latitude":12.9165,"longitude":79.1325,"temp":36.2,"humidity":34,"rain":0.0,"pressure":981.8,"uv_index":9.35,"wind_gusts":28.4,"aqi":116,"pm10":48.7,"pm2_5":37.0,"mosquito_risk":0,"arthritis_risk":5,"migraine_risk":10,"frizz_risk":1,"updated_at":"2026-03-28T14:13:27.303979+05:30"},{"city":"Erode","state":"Tamil Nadu","latitude":11.341,"longitude":77.7172,"temp":38.2,"humidity":28,"rain":0.0,"pressure":985.8,"uv_index":9.35,"wind_gusts":22.3,"aqi":89,"pm10":37.5,"pm2_5":29.8,"mosquito_risk":0,"arthritis_risk":5,"migraine_risk":10,"frizz_risk":1,"updated_at":"2026-03-28T14:13:27.303986+05:30"},{"city":"Kochi","state":"Kerala","latitude":9.9312,"longitude":76.2673,"temp":28.8,"humidity":81,"rain":0.0,"pressure":1006.6,"uv_index":8.8,"wind_gusts":31.3,"aqi":92,"pm10":29.9,"pm2_5":25.9,"mosquito_risk":7,"arthritis_risk":5,"migraine_risk":4,"frizz_risk":1,"updated_at":"2026-03-28T14:13:27.303994+05:30"},{"city":"Thiruvananthapuram","state":"Kerala","latitude":8.5241,"longitude":76.9366,"temp":28.9,"humidity":80,"rain":0.0,"pressure":1005.7,"uv_index":9.15,"wind_gusts":41.0,"aqi":66,"pm10":25.1,"pm2_5":20.0,"mosquito_risk":7,"arthritis_risk":5,"migraine_risk":4,"frizz_risk":1,"updated_at":"2026-03-28T14:13:27.304001+05:30"},{"city":"Kozhikode","state":"Kerala","latitude":11.2588,"longitude":75.7804,"temp":30.2,"humidity":76,"rain":0.0,"pressure":1005.9,"uv_index":9.1,"wind_gusts":28.8,"aqi":80,"pm10":27.1,"pm2_5":21.3,"mosquito_risk":3,"arthritis_risk":5,"migraine_risk":4,"frizz_risk":1,"updated_at":"2026-03-28T14:13:27.304007+05:30"},{"city":"Thrissur","state":"Kerala","latitude":10.5276,"longitude":76.2144,"temp":33.5,"humidity":60,"rain":0.0,"pressure":1004.9,"uv_index":9.15,"wind_gusts":36.7,"aqi":88,"pm10":30.4,"pm2_5":26.0,"mosquito_risk":0,"arthritis_risk":5,"migraine_risk":4,"frizz_risk":1,"updated_at":"2026-03-28T14:13:27.304015+05:30"},{"city":"Kannur","state":"Kerala","latitude":11.8745,"longitude":75.3704,"temp":31.2,"humidity":70,"rain":0.0,"pressure":1005.3,"uv_index":9.1,"wind_gusts":30.6,"aqi":88,"pm10":28.7,"pm2_5":22.8,"mosquito_risk":3,"arthritis_risk":5,"migraine_risk":4,"frizz_risk":1,"updated_at":"2026-03-28T14:13:27.304022+05:30"},{"city":"Patna","state":"Bihar","latitude":25.5941,"longitude":85.1376,"temp":30.7,"humidity":49,"rain":0.0,"pressure":998.1,"uv_index":7.9,"wind_gusts":29.5,"aqi":99,"pm10":69.6,"pm2_5":27.8,"mosquito_risk":0,"arthritis_risk":5,"migraine_risk":7,"frizz_risk":1,"updated_at":"2026-03-28T14:13:27.304028+05:30"},{"city":"Gaya","state":"Bihar","latitude":24.7914,"longitude":85.0002,"temp":30.4,"humidity":49,"rain":0.0,"pressure":991.5,"uv_index":7.7,"wind_gusts":24.1,"aqi":75,"pm10":67.8,"pm2_5":22.1,"mosquito_risk":0,"arthritis_risk":5,"migraine_risk":7,"frizz_risk":1,"updated_at":"2026-03-28T14:13:27.304035+05:30"},{"city":"Muzaffarpur","state":"Bihar","latitude":26.1209,"longitude":85.3647,"temp":30.5,"humidity":47,"rain":0.0,"pressure":998.1,"uv_index":7.85,"wind_gusts":19.8,"aqi":120,"pm10":73.6,"pm2_5":33.9,"mosquito_risk":0,"arthritis_risk":5,"migraine_risk":7,"frizz_risk":1,"updated_at":"2026-03-28T14:13:27.304045+05:30"},{"city":"Bhagalpur","state":"Bihar","latitude":25.2425,"longitude":87.0117,"temp":28.9,"humidity":56,"rain":0.0,"pressure":999.1,"uv_index":7.3,"wind_gusts":25.2,"aqi":117,"pm10":64.5,"pm2_5":36.0,"mosquito_risk":4,"arthritis_risk":5,"migraine_risk":7,"frizz_risk":1,"updated_at":"2026-03-28T14:13:27.304052+05:30"},{"city":"Ranchi","state":"Jharkhand","latitude":23.3441,"longitude":85.3096,"temp":28.8,"humidity":50,"rain":0.0,"pressure":935.6,"uv_index":8.7,"wind_gusts":33.1,"aqi":97,"pm10":52.9,"pm2_5":34.7,"mosquito_risk":4,"arthritis_risk":5,"migraine_risk":7,"frizz_risk":1,"updated_at":"2026-03-28T14:13:27.304058+05:30"},{"city":"Jamshedpur","state":"Jharkhand","latitude":22.8046,"longitude":86.2029,"temp":32.5,"humidity":48,"rain":0.0,"pressure":987.9,"uv_index":8.5,"wind_gusts":32.4,"aqi":104,"pm10":72.2,"pm2_5":55.3,"mosquito_risk":0,"arthritis_risk":5,"migraine_risk":7,"frizz_risk":1,"updated_at":"2026-03-28T14:13:27.304064+05:30"},{"city":"Dhanbad","state":"Jharkhand","latitude":23.7957,"longitude":86.4304,"temp":32.4,"humidity":41,"rain":0.0,"pressure":977.0,"uv_index":8.4,"wind_gusts":33.8,"aqi":151,"pm10":80.3,"pm2_5":62.4,"mosquito_risk":0,"arthritis_risk":5,"migraine_risk":7,"frizz_risk":1,"updated_at":"2026-03-28T14:13:27.304071+05:30"},{"city":"Bokaro","state":"Jharkhand","latitude":23.6693,"longitude":86.1511,"temp":31.1,"humidity":50,"rain":0.0,"pressure":981.0,"uv_index":8.45,"wind_gusts":31.0,"aqi":133,"pm10":75.9,"pm2_5":58.3,"mosquito_risk":0,"arthritis_risk":5,"migraine_risk":7,"frizz_risk":1,"updated_at":"2026-03-28T14:13:27.304077+05:30"},{"city":"Bhubaneswar","state":"Odisha","latitude":20.2961,"longitude":85.8245,"temp":35.0,"humidity":47,"rain":0.0,"pressure":999.4,"uv_index":8.8,"wind_gusts":36.7,"aqi":115,"pm10":55.9,"pm2_5":46.0,"mosquito_risk":0,"arthritis_risk":5,"migraine_risk":7,"frizz_risk":1,"updated_at":"2026-03-28T14:13:27.304084+05:30"},{"city":"Cuttack","state":"Odisha","latitude":20.4625,"longitude":85.8828,"temp":36.3,"humidity":43,"rain":0.0,"pressure":1000.7,"uv_index":8.85,"wind_gusts":34.6,"aqi":115,"pm10":55.9,"pm2_5":46.0,"mosquito_risk":0,"arthritis_risk":5,"migraine_risk":7,"frizz_risk":1,"updated_at":"2026-03-28T14:13:27.304090+05:30"},{"city":"Rourkela","state":"Odisha","latitude":22.2604,"longitude":84.8536,"temp":35.1,"humidity":39,"rain":0.0,"pressure":981.7,"uv_index":8.45,"wind_gusts":43.9,"aqi":120,"pm10":46.6,"pm2_5":31.2,"mosquito_risk":0,"arthritis_risk":5,"migraine_risk":10,"frizz_risk":1,"updated_at":"2026-03-28T14:13:27.304096+05:30"},{"city":"Raipur","state":"Chhattisgarh","latitude":21.2514,"longitude":81.6296,"temp":38.4,"humidity":21,"rain":0.0,"pressure":971.0,"uv_index":8.55,"wind_gusts":34.6,"aqi":100,"pm10":27.4,"pm2_5":15.9,"mosquito_risk":0,"arthritis_risk":5,"migraine_risk":10,"frizz_risk":0,"updated_at":"2026-03-28T14:13:27.304102+05:30"},{"city":"Bhilai","state":"Chhattisgarh","latitude":21.1938,"longitude":81.3509,"temp":38.4,"humidity":21,"rain":0.0,"pressure":971.3,"uv_index":8.6,"wind_gusts":33.8,"aqi":85,"pm10":23.1,"pm2_5":12.9,"mosquito_risk":0,"arthritis_risk":5,"migraine_risk":10,"frizz_risk":0,"updated_at":"2026-03-28T14:13:27.304109+05:30"},{"city":"Guwahati","state":"Assam","latitude":26.1158,"longitude":91.7086,"temp":22.1,"humidity":91,"rain":0.2,"pressure":1000.7,"uv_index":4.5,"wind_gusts":28.1,"aqi":151,"pm10":50.4,"pm2_5":35.3,"mosquito_risk":6,"arthritis_risk":5,"migraine_risk":0,"frizz_risk":1,"updated_at":"2026-03-28T14:13:27.304115+05:30"},{"city":"Agartala","state":"Tripura","latitude":23.8315,"longitude":91.2868,"temp":24.1,"humidity":87,"rain":0.0,"pressure":1005.0,"uv_index":6.4,"wind_gusts":38.5,"aqi":150,"pm10":53.0,"pm2_5":42.1,"mosquito_risk":3,"arthritis_risk":5,"migraine_risk":4,"frizz_risk":1,"updated_at":"2026-03-28T14:13:27.304122+05:30"},{"city":"Shillong","state":"Meghalaya","latitude":25.5788,"longitude":91.8933,"temp":13.4,"humidity":87,"rain":0.2,"pressure":853.0,"uv_index":4.85,"wind_gusts":43.9,"aqi":105,"pm10":34.8,"pm2_5":22.2,"mosquito_risk":6,"arthritis_risk":10,"migraine_risk":3,"frizz_risk":0,"updated_at":"2026-03-28T14:13:27.304130+05:30"},{"city":"Imphal","state":"Manipur","latitude":24.817,"longitude":93.9368,"temp":19.6,"humidity":76,"rain":0.0,"pressure":921.4,"uv_index":7.7,"wind_gusts":55.1,"aqi":143,"pm10":52.7,"pm2_5":38.0,"mosquito_risk":3,"arthritis_risk":5,"migraine_risk":7,"frizz_risk":0,"updated_at":"2026-03-28T14:13:27.304136+05:30"},{"city":"Aizawl","state":"Mizoram","latitude":23.7271,"longitude":92.7176,"temp":19.8,"humidity":78,"rain":0.0,"pressure":890.9,"uv_index":7.2,"wind_gusts":43.9,"aqi":109,"pm10":44.9,"pm2_5":31.9,"mosquito_risk":3,"arthritis_risk":5,"migraine_risk":7,"frizz_risk":0,"updated_at":"2026-03-28T14:13:27.304141+05:30"},{"city":"Kohima","state":"Nagaland","latitude":25.6701,"longitude":94.1077,"temp":14.8,"humidity":87,"rain":0.1,"pressure":852.6,"uv_index":4.95,"wind_gusts":77.0,"aqi":104,"pm10":37.0,"pm2_5":28.4,"mosquito_risk":6,"arthritis_risk":10,"migraine_risk":3,"frizz_risk":0,"updated_at":"2026-03-28T14:13:27.304147+05:30"},{"city":"Gangtok","state":"Sikkim","latitude":27.3314,"longitude":88.6138,"temp":15.8,"humidity":79,"rain":0.0,"pressure":834.0,"uv_index":7.6,"wind_gusts":20.2,"aqi":107,"pm10":26.7,"pm2_5":15.9,"mosquito_risk":3,"arthritis_risk":5,"migraine_risk":7,"frizz_risk":0,"updated_at":"2026-03-28T14:13:27.304153+05:30"},{"city":"Siliguri","state":"West Bengal","latitude":26.7271,"longitude":88.3953,"temp":22.0,"humidity":77,"rain":0.0,"pressure":992.0,"uv_index":7.35,"wind_gusts":26.3,"aqi":153,"pm10":50.1,"pm2_5":32.9,"mosquito_risk":3,"arthritis_risk":5,"migraine_risk":7,"frizz_risk":1,"updated_at":"2026-03-28T14:13:30.518833+05:30"},{"city":"Durgapur","state":"West Bengal","latitude":23.5204,"longitude":87.3119,"temp":32.5,"humidity":48,"rain":0.0,"pressure":991.9,"uv_index":8.35,"wind_gusts":35.6,"aqi":124,"pm10":75.9,"pm2_5":55.5,"mosquito_risk":0,"arthritis_risk":5,"migraine_risk":7,"frizz_risk":1,"updated_at":"2026-03-28T14:13:30.518859+05:30"},{"city":"Asansol","state":"West Bengal","latitude":23.6739,"longitude":86.9524,"temp":32.5,"humidity":47,"rain":0.0,"pressure":990.4,"uv_index":8.4,"wind_gusts":35.3,"aqi":124,"pm10":77.3,"pm2_5":58.4,"mosquito_risk":0,"arthritis_risk":5,"migraine_risk":7,"frizz_risk":1,"updated_at":"2026-03-28T14:13:30.518868+05:30"},{"city":"Pondicherry","state":"Puducherry","latitude":11.9139,"longitude":79.8145,"temp":35.0,"humidity":51,"rain":0.0,"pressure":1005.7,"uv_index":9.25,"wind_gusts":31.3,"aqi":62,"pm10":28.5,"pm2_5":21.7,"mosquito_risk":0,"arthritis_risk":5,"migraine_risk":4,"frizz_risk":1,"updated_at":"2026-03-28T14:13:30.518875+05:30"},{"city":"Port Blair","state":"Andaman and Nicobar Islands","latitude":11.6234,"longitude":92.7265,"temp":28.3,"humidity":79,"rain":0.0,"pressure":1004.6,"uv_index":9.15,"wind_gusts":25.6,"aqi":72,"pm10":38.0,"pm2_5":25.6,"mosquito_risk":7,"arthritis_risk":5,"migraine_risk":4,"frizz_risk":1,"updated_at":"2026-03-28T14:13:30.518881+05:30"},{"city":"Haridwar","state":"Uttarakhand","latitude":29.9457,"longitude":78.1642,"temp":29.6,"humidity":47,"rain":0.0,"pressure":972.5,"uv_index":5.7,"wind_gusts":27.0,"aqi":76,"pm10":20.9,"pm2_5":14.5,"mosquito_risk":4,"arthritis_risk":5,"migraine_risk":3,"frizz_risk":1,"updated_at":"2026-03-28T14:13:30.518888+05:30"},{"city":"Rishikesh","state":"Uttarakhand","latitude":30.0869,"longitude":78.2676,"temp":28.6,"humidity":48,"rain":0.0,"pressure":965.3,"uv_index":5.8,"wind_gusts":25.2,"aqi":61,"pm10":22.2,"pm2_5":12.4,"mosquito_risk":4,"arthritis_risk":5,"migraine_risk":3,"frizz_risk":1,"updated_at":"2026-03-28T14:13:30.518894+05:30"},{"city":"Nainital","state":"Uttarakhand","latitude":29.3919,"longitude":79.4542,"temp":20.9,"humidity":57,"rain":0.0,"pressure":805.2,"uv_index":4.8,"wind_gusts":27.0,"aqi":63,"pm10":33.5,"pm2_5":15.8,"mosquito_risk":0,"arthritis_risk":5,"migraine_risk":3,"frizz_risk":0,"updated_at":"2026-03-28T14:13:30.518900+05:30"},{"city":"Mussoorie","state":"Uttarakhand","latitude":30.4599,"longitude":78.0664,"temp":19.3,"humidity":59,"rain":0.0,"pressure":801.6,"uv_index":5.65,"wind_gusts":26.6,"aqi":69,"pm10":20.1,"pm2_5":14.4,"mosquito_risk":0,"arthritis_risk":5,"migraine_risk":3,"frizz_risk":0,"updated_at":"2026-03-28T14:13:30.518906+05:30"},{"city":"Dharamshala","state":"Himachal Pradesh","latitude":32.219,"longitude":76.3234,"temp":20.9,"humidity":74,"rain":0.0,"pressure":867.5,"uv_index":6.9,"wind_gusts":20.2,"aqi":60,"pm10":16.2,"pm2_5":7.3,"mosquito_risk":3,"arthritis_risk":5,"migraine_risk":7,"frizz_risk":1,"updated_at":"2026-03-28T14:13:30.518912+05:30"},{"city":"Dalhousie","state":"Himachal Pradesh","latitude":32.5387,"longitude":75.971,"temp":19.6,"humidity":60,"rain":0.0,"pressure":802.8,"uv_index":6.5,"wind_gusts":18.7,"aqi":62,"pm10":13.7,"pm2_5":10.9,"mosquito_risk":0,"arthritis_risk":5,"migraine_risk":7,"frizz_risk":0,"updated_at":"2026-03-28T14:13:30.518953+05:30"},{"city":"Patiala","state":"Punjab","latitude":30.3398,"longitude":76.3869,"temp":30.0,"humidity":40,"rain":0.0,"pressure":976.8,"uv_index":5.9,"wind_gusts":17.6,"aqi":97,"pm10":87.1,"pm2_5":20.3,"mosquito_risk":4,"arthritis_risk":5,"migraine_risk":3,"frizz_risk":0,"updated_at":"2026-03-28T14:13:30.518961+05:30"},{"city":"Bhatinda","state":"Punjab","latitude":30.211,"longitude":74.9455,"temp":31.5,"humidity":32,"rain":0.0,"pressure":981.9,"uv_index":6.9,"wind_gusts":17.3,"aqi":80,"pm10":26.3,"pm2_5":10.5,"mosquito_risk":0,"arthritis_risk":5,"migraine_risk":7,"frizz_risk":0,"updated_at":"2026-03-28T14:13:30.518968+05:30"},{"city":"Rohtak","state":"Haryana","latitude":28.8955,"longitude":76.6066,"temp":30.1,"humidity":40,"rain":0.0,"pressure":980.5,"uv_index":6.55,"wind_gusts":14.8,"aqi":148,"pm10":109.7,"pm2_5":21.7,"mosquito_risk":0,"arthritis_risk":5,"migraine_risk":7,"frizz_risk":0,"updated_at":"2026-03-28T14:13:30.518975+05:30"},{"city":"Panipat","state":"Haryana","latitude":29.3909,"longitude":76.9635,"temp":29.5,"humidity":42,"rain":0.0,"pressure":979.0,"uv_index":5.7,"wind_gusts":19.4,"aqi":224,"pm10":127.1,"pm2_5":26.4,"mosquito_risk":4,"arthritis_risk":5,"migraine_risk":3,"frizz_risk":0,"updated_at":"2026-03-28T14:13:30.518981+05:30"},{"city":"Mathura","state":"Uttar Pradesh","latitude":27.4924,"longitude":77.6737,"temp":32.9,"humidity":32,"rain":0.0,"pressure":985.1,"uv_index":6.35,"wind_gusts":21.6,"aqi":260,"pm10":301.7,"pm2_5":36.4,"mosquito_risk":0,"arthritis_risk":5,"migraine_risk":7,"frizz_risk":0,"updated_at":"2026-03-28T14:13:30.518986+05:30"},{"city":"Vrindavan","state":"Uttar Pradesh","latitude":27.5823,"longitude":77.7027,"temp":32.2,"humidity":34,"rain":0.0,"pressure":985.6,"uv_index":6.35,"wind_gusts":22.7,"aqi":260,"pm10":301.7,"pm2_5":36.4,"mosquito_risk":0,"arthritis_risk":5,"migraine_risk":7,"frizz_risk":0,"updated_at":"2026-03-28T14:13:30.518992+05:30"},{"city":"Ayodhya","state":"Uttar Pradesh","latitude":26.7922,"longitude":82.1998,"temp":32.1,"humidity":37,"rain":0.0,"pressure":992.8,"uv_index":6.85,"wind_gusts":31.0,"aqi":96,"pm10":94.1,"pm2_5":28.3,"mosquito_risk":0,"arthritis_risk":5,"migraine_risk":7,"frizz_risk":0,"updated_at":"2026-03-28T14:13:30.518998+05:30"},{"city":"Ratlam","state":"Madhya Pradesh","latitude":23.3315,"longitude":75.0367,"temp":33.4,"humidity":31,"rain":0.0,"pressure":953.0,"uv_index":8.1,"wind_gusts":37.1,"aqi":38,"pm10":13.1,"pm2_5":5.3,"mosquito_risk":0,"arthritis_risk":5,"migraine_risk":7,"frizz_risk":0,"updated_at":"2026-03-28T14:13:30.519005+05:30"},{"city":"Sagar","state":"Madhya Pradesh","latitude":23.8388,"longitude":78.7378,"temp":35.0,"humidity":23,"rain":0.0,"pressure":948.1,"uv_index":8.15,"wind_gusts":32.8,"aqi":50,"pm10":58.4,"pm2_5":11.9,"mosquito_risk":0,"arthritis_risk":5,"migraine_risk":7,"frizz_risk":0,"updated_at":"2026-03-28T14:13:30.519013+05:30"},{"city":"Satna","state":"Madhya Pradesh","latitude":24.6005,"longitude":80.8322,"temp":34.8,"humidity":26,"rain":0.0,"pressure":968.7,"uv_index":8.1,"wind_gusts":29.2,"aqi":67,"pm10":45.4,"pm2_5":17.2,"mosquito_risk":0,"arthritis_risk":5,"migraine_risk":7,"frizz_risk":0,"updated_at":"2026-03-28T14:13:30.519018+05:30"},{"city":"Akola","state":"Maharashtra","latitude":20.7002,"longitude":77.0082,"temp":37.7,"humidity":20,"rain":0.0,"pressure":972.7,"uv_index":8.5,"wind_gusts":34.2,"aqi":43,"pm10":12.7,"pm2_5":7.0,"mosquito_risk":0,"arthritis_risk":5,"migraine_risk":10,"frizz_risk":0,"updated_at":"2026-03-28T14:13:30.519025+05:30"},{"city":"Amravati","state":"Maharashtra","latitude":20.9374,"longitude":77.7796,"temp":37.6,"humidity":23,"rain":0.0,"pressure":964.6,"uv_index":8.45,"wind_gusts":32.8,"aqi":44,"pm10":12.6,"pm2_5":6.8,"mosquito_risk":0,"arthritis_risk":5,"migraine_risk":10,"frizz_risk":0,"updated_at":"2026-03-28T14:13:30.519031+05:30"},{"city":"Latur","state":"Maharashtra","latitude":18.4088,"longitude":76.5604,"temp":36.8,"humidity":18,"rain":0.0,"pressure":938.2,"uv_index":8.8,"wind_gusts":29.9,"aqi":81,"pm10":15.4,"pm2_5":11.7,"mosquito_risk":0,"arthritis_risk":5,"migraine_risk":10,"frizz_risk":0,"updated_at":"2026-03-28T14:13:30.519037+05:30"},{"city":"Nanded","state":"Maharashtra","latitude":19.1383,"longitude":77.3091,"temp":38.9,"humidity":18,"rain":0.0,"pressure":966.1,"uv_index":8.7,"wind_gusts":25.9,"aqi":76,"pm10":8.6,"pm2_5":6.3,"mosquito_risk":0,"arthritis_risk":5,"migraine_risk":10,"frizz_risk":0,"updated_at":"2026-03-28T14:13:30.519042+05:30"},{"city":"Gulbarga","state":"Karnataka","latitude":17.3297,"longitude":76.8343,"temp":39.1,"humidity":15,"rain":0.0,"pressure":956.5,"uv_index":8.9,"wind_gusts":28.8,"aqi":105,"pm10":29.7,"pm2_5":22.1,"mosquito_risk":0,"arthritis_risk":5,"migraine_risk":10,"frizz_risk":0,"updated_at":"2026-03-28T14:13:30.519048+05:30"},{"city":"Bidar","state":"Karnataka","latitude":17.9104,"longitude":77.5199,"temp":37.5,"humidity":16,"rain":0.0,"pressure":934.0,"uv_index":8.85,"wind_gusts":25.9,"aqi":103,"pm10":20.1,"pm2_5":15.4,"mosquito_risk":0,"arthritis_risk":5,"migraine_risk":10,"frizz_risk":0,"updated_at":"2026-03-28T14:13:30.519053+05:30"},{"city":"Hospet","state":"Karnataka","latitude":15.2689,"longitude":76.3909,"temp":36.2,"humidity":27,"rain":0.0,"pressure":953.7,"uv_index":9.1,"wind_gusts":36.7,"aqi":107,"pm10":54.9,"pm2_5":42.4,"mosquito_risk":0,"arthritis_risk":5,"migraine_risk":10,"frizz_risk":0,"updated_at":"2026-03-28T14:13:30.519059+05:30"},{"city":"Tirupur","state":"Tamil Nadu","latitude":11.1085,"longitude":77.3411,"temp":37.7,"humidity":27,"rain":0.0,"pressure":972.5,"uv_index":9.45,"wind_gusts":43.9,"aqi":97,"pm10":35.4,"pm2_5":28.0,"mosquito_risk":0,"arthritis_risk":5,"migraine_risk":10,"frizz_risk":0,"updated_at":"2026-03-28T14:13:30.519064+05:30"},{"city":"Alappuzha","state":"Kerala","latitude":9.4981,"longitude":76.3388,"temp":28.7,"humidity":81,"rain":0.0,"pressure":1006.7,"uv_index":9.15,"wind_gusts":30.2,"aqi":86,"pm10":29.5,"pm2_5":25.1,"mosquito_risk":7,"arthritis_risk":5,"migraine_risk":4,"frizz_risk":1,"updated_at":"2026-03-28T14:13:30.519070+05:30"},{"city":"Munnar","state":"Kerala","latitude":10.0889,"longitude":77.0595,"temp":27.6,"humidity":61,"rain":0.0,"pressure":857.3,"uv_index":9.7,"wind_gusts":38.9,"aqi":77,"pm10":25.4,"pm2_5":20.0,"mosquito_risk":7,"arthritis_risk":5,"migraine_risk":7,"frizz_risk":1,"updated_at":"2026-03-28T14:13:30.519076+05:30"},{"city":"Silchar","state":"Assam","latitude":24.8333,"longitude":92.7789,"temp":22.9,"humidity":87,"rain":0.1,"pressure":1004.2,"uv_index":3.4,"wind_gusts":30.2,"aqi":155,"pm10":64.5,"pm2_5":47.7,"mosquito_risk":6,"arthritis_risk":5,"migraine_risk":0,"frizz_risk":1,"updated_at":"2026-03-28T14:13:30.519082+05:30"},{"city":"Dibrugarh","state":"Assam","latitude":27.4728,"longitude":94.912,"temp":21.9,"humidity":86,"rain":0.1,"pressure":995.8,"uv_index":4.5,"wind_gusts":25.9,"aqi":128,"pm10":63.8,"pm2_5":43.9,"mosquito_risk":6,"arthritis_risk":5,"migraine_risk":3,"frizz_risk":1,"updated_at":"2026-03-28T14:13:30.519087+05:30"}]