[{"city":"Delhi","state":"Delhi","latitude":28.6139,"longitude":77.209,"temp":26.1,"humidity":49,"rain":0.0,"pressure":984.5,"uv_index":6.25,"wind_gusts":30.2,"aqi":287,"pm10":404.2,"pm2_5":89.9,"mosquito_risk":4,"arthritis_risk":5,"migraine_risk":7,"frizz_risk":0,"updated_at":"2026-03-30T20:36:35.220070+05:30"},{"city":"Mumbai","state":"Maharashtra","latitude":19.076,"longitude":72.8777,"temp":27.9,"humidity":84,"rain":0.0,"pressure":1009.3,"uv_index":8.05,"wind_gusts":26.6,"aqi":82,"pm10":55.6,"pm2_5":25.3,"mosquito_risk":7,"arthritis_risk":0,"migraine_risk":4,"frizz_risk":1,"updated_at":"2026-03-30T20:36:35.220107+05:30"},{"city":"Bangalore","state":"Karnataka","latitude":12.9716,"longitude":77.5946,"temp":27.6,"humidity":36,"rain":0.0,"pressure":912.4,"uv_index":8.7,"wind_gusts":29.2,"aqi":129,"pm10":29.1,"pm2_5":27.3,"mosquito_risk":4,"arthritis_risk":5,"migraine_risk":7,"frizz_risk":0,"updated_at":"2026-03-30T20:36:35.220122+05:30"},{"city":"Hyderabad","state":"Telangana","latitude":17.385,"longitude":78.4867,"temp":25.9,"humidity":82,"rain":0.0,"pressure":954.2,"uv_index":8.25,"wind_gusts":34.2,"aqi":119,"pm10":77.5,"pm2_5":67.1,"mosquito_risk":7,"arthritis_risk":5,"migraine_risk":7,"frizz_risk":1,"updated_at":"2026-03-30T20:36:35.220132+05:30"},{"city":"Chennai","state":"Tamil Nadu","latitude":13.0827,"longitude":80.2707,"temp":28.0,"humidity":77,"rain":0.0,"pressure":1008.2,"uv_index":9.3,"wind_gusts":32.0,"aqi":52,"pm10":14.1,"pm2_5":10.0,"mosquito_risk":7,"arthritis_risk":0,"migraine_risk":4,"frizz_risk":1,"updated_at":"2026-03-30T20:36:35.220141+05:30"},{"city":"Kolkata","state":"West Bengal","latitude":22.5726,"longitude":88.3639,"temp":27.2,"humidity":83,"rain":0.0,"pressure":1007.7,"uv_index":8.5,"wind_gusts":27.7,"aqi":94,"pm10":36.8,"pm2_5":32.4,"mosquito_risk":7,"arthritis_risk":5,"migraine_risk":4,"frizz_risk":1,"updated_at":"2026-03-30T20:36:35.220150+05:30"},{"city":"Pune","state":"Maharashtra","latitude":18.5204,"longitude":73.8567,"temp":27.4,"humidity":72,"rain":0.0,"pressure":949.3,"uv_index":8.55,"wind_gusts":36.4,"aqi":99,"pm10":47.6,"pm2_5":40.9,"mosquito_risk":7,"arthritis_risk":5,"migraine_risk":7,"frizz_risk":1,"updated_at":"2026-03-30T20:36:35.220161+05:30"},{"city":"Ahmedabad","state":"Gujarat","latitude":23.0225,"longitude":72.5714,"temp":30.3,"humidity":50,"rain":0.0,"pressure":1002.7,"uv_index":8.0,"wind_gusts":31.7,"aqi":55,"pm10":37.4,"pm2_5":17.9,"mosquito_risk":0,"arthritis_risk":5,"migraine_risk":4,"frizz_risk":1,"updated_at":"2026-03-30T20:36:35.220169+05:30"},{"city":"Jaipur","state":"Rajasthan","latitude":26.9124,"longitude":75.7873,"temp":24.7,"humidity":61,"rain":0.0,"pressure":962.5,"uv_index":6.5,"wind_gusts":46.1,"aqi":107,"pm10":270.1,"pm2_5":38.1,"mosquito_risk":3,"arthritis_risk":5,"migraine_risk":7,"frizz_risk":1,"updated_at":"2026-03-30T20:36:35.220176+05:30"},{"city":"Lucknow","state":"Uttar Pradesh","latitude":26.8467,"longitude":80.9462,"temp":30.3,"humidity":46,"rain":0.0,"pressure":993.5,"uv_index":7.3,"wind_gusts":18.7,"aqi":109,"pm10":205.4,"pm2_5":43.2,"mosquito_risk":0,"arthritis_risk":5,"migraine_risk":7,"frizz_risk":1,"updated_at":"2026-03-30T20:36:35.220184+05:30"},{"city":"Kanpur","state":"Uttar Pradesh","latitude":26.4499,"longitude":80.3319,"temp":28.5,"humidity":61,"rain":0.0,"pressure":992.0,"uv_index":7.3,"wind_gusts":18.4,"aqi":108,"pm10":841.9,"pm2_5":111.1,"mosquito_risk":7,"arthritis_risk":5,"migraine_risk":7,"frizz_risk":1,"updated_at":"2026-03-30T20:36:35.220191+05:30"},{"city":"Chandigarh","state":"Chandigarh","latitude":30.7333,"longitude":76.7794,"temp":20.9,"humidity":85,"rain":0.0,"pressure":971.2,"uv_index":6.0,"wind_gusts":37.8,"aqi":101,"pm10":302.7,"pm2_5":72.2,"mosquito_risk":3,"arthritis_risk":5,"migraine_risk":3,"frizz_risk":1,"updated_at":"2026-03-30T20:36:35.220198+05:30"},{"city":"Srinagar","state":"Jammu and Kashmir","latitude":34.0837,"longitude":74.7973,"temp":11.6,"humidity":90,"rain":0.2,"pressure":843.1,"uv_index":5.35,"wind_gusts":30.2,"aqi":84,"pm10":61.5,"pm2_5":35.9,"mosquito_risk":6,"arthritis_risk":10,"migraine_risk":3,"frizz_risk":0,"updated_at":"2026-03-30T20:36:35.220205+05:30"},{"city":"Jammu","state":"Jammu and Kashmir","latitude":32.7266,"longitude":74.857,"temp":20.8,"humidity":80,"rain":0.0,"pressure":974.8,"uv_index":6.15,"wind_gusts":39.2,"aqi":75,"pm10":71.9,"pm2_5":26.4,"mosquito_risk":3,"arthritis_risk":5,"migraine_risk":7,"frizz_risk":1,"updated_at":"2026-03-30T20:36:35.220212+05:30"},{"city":"Amritsar","state":"Punjab","latitude":31.634,"longitude":74.8723,"temp":20.5,"humidity":94,"rain":0.0,"pressure":982.8,"uv_index":5.3,"wind_gusts":50.8,"aqi":106,"pm10":73.3,"pm2_5":28.9,"mosquito_risk":3,"arthritis_risk":5,"migraine_risk":3,"frizz_risk":1,"updated_at":"2026-03-30T20:36:35.220219+05:30"},{"city":"Ludhiana","state":"Punjab","latitude":30.901,"longitude":75.8573,"temp":23.1,"humidity":80,"rain":0.0,"pressure":980.9,"uv_index":5.95,"wind_gusts":41.8,"aqi":152,"pm10":134.1,"pm2_5":44.1,"mosquito_risk":3,"arthritis_risk":5,"migraine_risk":3,"frizz_risk":1,"updated_at":"2026-03-30T20:36:35.220226+05:30"},{"city":"Jalandhar","state":"Punjab","latitude":31.326,"longitude":75.5762,"temp":21.8,"humidity":81,"rain":0.0,"pressure":982.5,"uv_index":4.7,"wind_gusts":38.5,"aqi":134,"pm10":91.5,"pm2_5":36.1,"mosquito_risk":3,"arthritis_risk":5,"migraine_risk":3,"frizz_risk":1,"updated_at":"2026-03-30T20:36:35.220233+05:30"},{"city":"Dehradun","state":"Uttarakhand","latitude":30.6284,"longitude":78.0322,"temp":16.1,"humidity":83,"rain":0.0,"pressure":831.1,"uv_index":6.1,"wind_gusts":26.6,"aqi":59,"pm10":48.3,"pm2_5":14.9,"mosquito_risk":3,"arthritis_risk":10,"migraine_risk":7,"frizz_risk":0,"updated_at":"2026-03-30T20:36:35.220240+05:30"},{"city":"Shimla","state":"Himachal Pradesh","latitude":31.1048,"longitude":77.1734,"temp":13.8,"humidity":80,"rain":0.0,"pressure":785.3,"uv_index":6.35,"wind_gusts":23.4,"aqi":65,"pm10":27.6,"pm2_5":15.4,"mosquito_risk":3,"arthritis_risk":5,"migraine_risk":7,"frizz_risk":0,"updated_at":"2026-03-30T20:36:35.220247+05:30"},{"city":"Manali","state":"Himachal Pradesh","latitude":32.2396,"longitude":77.1887,"temp":14.6,"humidity":67,"rain":0.0,"pressure":820.2,"uv_index":8.4,"wind_gusts":30.2,"aqi":73,"pm10":7.5,"pm2_5":4.4,"mosquito_risk":3,"arthritis_risk":5,"migraine_risk":7,"frizz_risk":0,"updated_at":"2026-03-30T20:36:35.220253+05:30"},{"city":"Gurgaon","state":"Haryana","latitude":28.4595,"longitude":77.0266,"temp":24.5,"humidity":58,"rain":0.0,"pressure":983.0,"uv_index":6.1,"wind_gusts":27.0,"aqi":1133,"pm10":501.1,"pm2_5":96.9,"mosquito_risk":0,"arthritis_risk":5,"migraine_risk":7,"frizz_risk":0,"updated_at":"2026-03-30T20:36:35.220259+05:30"},{"city":"Noida","state":"Uttar Pradesh","latitude":28.5355,"longitude":77.391,"temp":25.8,"humidity":52,"rain":0.0,"pressure":986.0,"uv_index":6.1,"wind_gusts":32.0,"aqi":1133,"pm10":501.1,"pm2_5":96.9,"mosquito_risk":4,"arthritis_risk":5,"migraine_risk":7,"frizz_risk":0,"updated_at":"2026-03-30T20:36:35.220266+05:30"},{"city":"Ghaziabad","state":"Uttar Pradesh","latitude":28.6692,"longitude":77.4538,"temp":25.2,"humidity":53,"rain":0.0,"pressure":984.0,"uv_index":6.1,"wind_gusts":31.3,"aqi":183,"pm10":423.8,"pm2_5":88.2,"mosquito_risk":4,"arthritis_risk":5,"migraine_risk":7,"frizz_risk":0,"updated_at":"2026-03-30T20:36:35.220273+05:30"},{"city":"Faridabad","state":"Haryana","latitude":28.4089,"longitude":77.3178,"temp":24.2,"humidity":57,"rain":0.0,"pressure":985.3,"uv_index":5.9,"wind_gusts":32.4,"aqi":1133,"pm10":501.1,"pm2_5":96.9,"mosquito_risk":0,"arthritis_risk":5,"migraine_risk":3,"frizz_risk":0,"updated_at":"2026-03-30T20:36:35.220279+05:30"},{"city":"Meerut","state":"Uttar Pradesh","latitude":28.9845,"longitude":77.7064,"temp":24.5,"humidity":58,"rain":0.0,"pressure":982.7,"uv_index":5.9,"wind_gusts":25.2,"aqi":183,"pm10":423.8,"pm2_5":88.2,"mosquito_risk":0,"arthritis_risk":5,"migraine_risk":3,"frizz_risk":0,"updated_at":"2026-03-30T20:36:35.220285+05:30"},{"city":"Agra","state":"Uttar Pradesh","latitude":27.1767,"longitude":78.0081,"temp":28.2,"humidity":42,"rain":0.0,"pressure":989.9,"uv_index":6.85,"wind_gusts":42.5,"aqi":573,"pm10":545.8,"pm2_5":86.1,"mosquito_risk":4,"arthritis_risk":5,"migraine_risk":7,"frizz_risk":0,"updated_at":"2026-03-30T20:36:35.220291+05:30"},{"city":"Varanasi","state":"Uttar Pradesh","latitude":25.3176,"longitude":82.9739,"temp":28.9,"humidity":53,"rain":0.0,"pressure":997.4,"uv_index":7.95,"wind_gusts":24.8,"aqi":95,"pm10":61.7,"pm2_5":44.5,"mosquito_risk":4,"arthritis_risk":5,"migraine_risk":7,"frizz_risk":1,"updated_at":"2026-03-30T20:36:35.220300+05:30"},{"city":"Prayagraj","state":"Uttar Pradesh","latitude":25.4358,"longitude":81.8463,"temp":29.7,"humidity":48,"rain":0.0,"pressure":996.6,"uv_index":7.85,"wind_gusts":24.5,"aqi":103,"pm10":61.9,"pm2_5":44.7,"mosquito_risk":4,"arthritis_risk":5,"migraine_risk":7,"frizz_risk":1,"updated_at":"2026-03-30T20:36:35.220306+05:30"},{"city":"Gorakhpur","state":"Uttar Pradesh","latitude":26.7606,"longitude":83.3732,"temp":27.0,"humidity":65,"rain":0.0,"pressure":997.1,"uv_index":7.65,"wind_gusts":25.9,"aqi":147,"pm10":95.2,"pm2_5":61.2,"mosquito_risk":7,"arthritis_risk":5,"migraine_risk":7,"frizz_risk":1,"updated_at":"2026-03-30T20:36:35.220313+05:30"},{"city":"Bareilly","state":"Uttar Pradesh","latitude":28.367,"longitude":79.4304,"temp":26.8,"humidity":55,"rain":0.0,"pressure":987.9,"uv_index":6.3,"wind_gusts":20.9,"aqi":115,"pm10":123.9,"pm2_5":46.2,"mosquito_risk":4,"arthritis_risk":5,"migraine_risk":7,"frizz_risk":1,"updated_at":"2026-03-30T20:36:35.220319+05:30"},{"city":"Aligarh","state":"Uttar Pradesh","latitude":27.8974,"longitude":78.088,"temp":25.5,"humidity":56,"rain":0.0,"pressure":987.0,"uv_index":6.35,"wind_gusts":36.4,"aqi":588,"pm10":944.4,"pm2_5":152.3,"mosquito_risk":4,"arthritis_risk":5,"migraine_risk":7,"frizz_risk":1,"updated_at":"2026-03-30T20:36:35.220327+05:30"},{"city":"Moradabad","state":"Uttar Pradesh","latitude":28.8386,"longitude":78.7733,"temp":26.2,"humidity":63,"rain":0.0,"pressure":985.0,"uv_index":6.35,"wind_gusts":20.2,"aqi":151,"pm10":254.3,"pm2_5":66.4,"mosquito_risk":7,"arthritis_risk":5,"migraine_risk":7,"frizz_risk":1,"updated_at":"2026-03-30T20:36:35.220334+05:30"},{"city":"Saharanpur","state":"Uttar Pradesh","latitude":29.9637,"longitude":77.546,"temp":24.8,"humidity":76,"rain":0.0,"pressure":976.9,"uv_index":6.1,"wind_gusts":25.6,"aqi":118,"pm10":570.0,"pm2_5":112.7,"mosquito_risk":3,"arthritis_risk":5,"migraine_risk":7,"frizz_risk":1,"updated_at":"2026-03-30T20:36:35.220341+05:30"},{"city":"Jhansi","state":"Uttar Pradesh","latitude":25.4484,"longitude":78.5685,"temp":29.5,"humidity":42,"rain":0.0,"pressure":979.5,"uv_index":7.1,"wind_gusts":36.0,"aqi":56,"pm10":26.6,"pm2_5":13.8,"mosquito_risk":4,"arthritis_risk":5,"migraine_risk":7,"frizz_risk":0,"updated_at":"2026-03-30T20:36:38.436584+05:30"},{"city":"Surat","state":"Gujarat","latitude":21.1702,"longitude":72.8311,"temp":27.6,"humidity":82,"rain":0.0,"pressure":1007.4,"uv_index":7.8,"wind_gusts":27.0,"aqi":102,"pm10":63.3,"pm2_5":45.9,"mosquito_risk":7,"arthritis_risk":5,"migraine_risk":4,"frizz_risk":1,"updated_at":"2026-03-30T20:36:38.436615+05:30"},{"city":"Vadodara","state":"Gujarat","latitude":22.3072,"longitude":73.1812,"temp":31.6,"humidity":51,"rain":0.0,"pressure":1004.7,"uv_index":8.0,"wind_gusts":29.5,"aqi":71,"pm10":49.5,"pm2_5":30.5,"mosquito_risk":0,"arthritis_risk":5,"migraine_risk":4,"frizz_risk":1,"updated_at":"2026-03-30T20:36:38.436627+05:30"},{"city":"Rajkot","state":"Gujarat","latitude":22.3039,"longitude":70.8022,"temp":28.2,"humidity":61,"rain":0.0,"pressure":995.2,"uv_index":7.8,"wind_gusts":34.9,"aqi":57,"pm10":23.1,"pm2_5":12.3,"mosquito_risk":7,"arthritis_risk":5,"migraine_risk":7,"frizz_risk":1,"updated_at":"2026-03-30T20:36:38.436636+05:30"},{"city":"Thane","state":"Maharashtra","latitude":19.2183,"longitude":72.9781,"temp":27.5,"humidity":83,"rain":0.0,"pressure":1008.7,"uv_index":8.05,"wind_gusts":39.2,"aqi":82,"pm10":55.6,"pm2_5":25.3,"mosquito_risk":7,"arthritis_risk":0,"migraine_risk":4,"frizz_risk":1,"updated_at":"2026-03-30T20:36:38.436644+05:30"},{"city":"Nagpur","state":"Maharashtra","latitude":21.1458,"longitude":79.0882,"temp":28.6,"humidity":56,"rain":0.0,"pressure":974.6,"uv_index":8.55,"wind_gusts":31.0,"aqi":84,"pm10":42.0,"pm2_5":34.2,"mosquito_risk":4,"arthritis_risk":5,"migraine_risk":7,"frizz_risk":1,"updated_at":"2026-03-30T20:36:38.436652+05:30"},{"city":"Nashik","state":"Maharashtra","latitude":19.9975,"longitude":73.7898,"temp":26.5,"humidity":69,"rain":0.0,"pressure":946.6,"uv_index":8.25,"wind_gusts":32.0,"aqi":84,"pm10":31.8,"pm2_5":24.4,"mosquito_risk":7,"arthritis_risk":5,"migraine_risk":7,"frizz_risk":1,"updated_at":"2026-03-30T20:36:38.436660+05:30"},{"city":"Aurangabad","state":"Maharashtra","latitude":19.8762,"longitude":75.3433,"temp":26.8,"humidity":64,"rain":0.0,"pressure":945.6,"uv_index":8.75,"wind_gusts":48.6,"aqi":78,"pm10":17.2,"pm2_5":13.6,"mosquito_risk":7,"arthritis_risk":5,"migraine_risk":7,"frizz_risk":1,"updated_at":"2026-03-30T20:36:38.436668+05:30"},{"city":"Solapur","state":"Maharashtra","latitude":17.6599,"longitude":75.9064,"temp":31.2,"humidity":41,"rain":0.0,"pressure":958.4,"uv_index":8.85,"wind_gusts":39.2,"aqi":121,"pm10":37.6,"pm2_5":33.9,"mosquito_risk":0,"arthritis_risk":5,"migraine_risk":7,"frizz_risk":1,"updated_at":"2026-03-30T20:36:38.436676+05:30"},{"city":"Kolhapur","state":"Maharashtra","latitude":16.705,"longitude":74.2433,"temp":25.5,"humidity":83,"rain":0.0,"pressure":948.6,"uv_index":8.55,"wind_gusts":38.9,"aqi":117,"pm10":31.7,"pm2_5":28.1,"mosquito_risk":7,"arthritis_risk":5,"migraine_risk":7,"frizz_risk":1,"updated_at":"2026-03-30T20:36:38.436684+05:30"},{"city":"Goa","state":"Goa","latitude":15.2993,"longitude":74.124,"temp":28.7,"humidity":77,"rain":0.0,"pressure":998.5,"uv_index":8.95,"wind_gusts":30.2,"aqi":57,"pm10":25.6,"pm2_5":18.6,"mosquito_risk":7,"arthritis_risk":5,"migraine_risk":7,"frizz_risk":1,"updated_at":"2026-03-30T20:36:38.436692+05:30"},{"city":"Jodhpur","state":"Rajasthan","latitude":26.2389,"longitude":73.0243,"temp":25.5,"humidity":65,"rain":0.0,"pressure":984.5,"uv_index":7.8,"wind_gusts":37.4,"aqi":111,"pm10":131.8,"pm2_5":23.6,"mosquito_risk":7,"arthritis_risk":5,"migraine_risk":7,"frizz_risk":1,"updated_at":"2026-03-30T20:36:38.436700+05:30"},{"city":"Udaipur","state":"Rajasthan","latitude":24.5854,"longitude":73.7125,"temp":24.2,"humidity":66,"rain":0.0,"pressure":948.1,"uv_index":8.15,"wind_gusts":51.5,"aqi":45,"pm10":27.6,"pm2_5":10.9,"mosquito_risk":3,"arthritis_risk":5,"migraine_risk":7,"frizz_risk":1,"updated_at":"2026-03-30T20:36:38.436707+05:30"},{"city":"Kota","state":"Rajasthan","latitude":25.2138,"longitude":75.8648,"temp":26.5,"humidity":58,"rain":0.0,"pressure":981.1,"uv_index":7.1,"wind_gusts":40.3,"aqi":46,"pm10":26.1,"pm2_5":12.3,"mosquito_risk":4,"arthritis_risk":5,"migraine_risk":7,"frizz_risk":1,"updated_at":"2026-03-30T20:36:38.436715+05:30"},{"city":"Bikaner","state":"Rajasthan","latitude":28.0229,"longitude":73.3119,"temp":28.7,"humidity":43,"rain":0.0,"pressure":982.3,"uv_index":6.85,"wind_gusts":45.4,"aqi":109,"pm10":143.0,"pm2_5":39.2,"mosquito_risk":4,"arthritis_risk":5,"migraine_risk":7,"frizz_risk":0,"updated_at":"2026-03-30T20:36:38.436722+05:30"},{"city":"Ajmer","state":"Rajasthan","latitude":26.4499,"longitude":74.6399,"temp":24.1,"humidity":61,"rain":0.0,"pressure":956.5,"uv_index":7.25,"wind_gusts":37.4,"aqi":49,"pm10":23.5,"pm2_5":12.6,"mosquito_risk":3,"arthritis_risk":5,"migraine_risk":7,"frizz_risk":1,"updated_at":"2026-03-30T20:36:38.436730+05:30"},{"city":"Gwalior","state":"Madhya Pradesh","latitude":26.2183,"longitude":78.1828,"temp":29.0,"humidity":43,"rain":0.0,"pressure":985.7,"uv_index":6.25,"wind_gusts":38.9,"aqi":67,"pm10":43.5,"pm2_5":20.9,"mosquito_risk":4,"arthritis_risk":5,"migraine_risk":7,"frizz_risk":0,"updated_at":"2026-03-30T20:36:38.436738+05:30"},{"city":"Indore","state":"Madhya Pradesh","latitude":22.7196,"longitude":75.8577,"temp":27.2,"humidity":54,"rain":0.0,"pressure":949.4,"uv_index":8.1,"wind_gusts":24.1,"aqi":52,"pm10":22.8,"pm2_5":13.0,"mosquito_risk":4,"arthritis_risk":5,"migraine_risk":7,"frizz_risk":1,"updated_at":"2026-03-30T20:36:38.436745+05:30"},{"city":"Bhopal","state":"Madhya Pradesh","latitude":23.2599,"longitude":77.4126,"temp":28.8,"humidity":41,"rain":0.0,"pressure":955.1,"uv_index":8.2,"wind_gusts":29.2,"aqi":71,"pm10":18.5,"pm2_5":10.1,"mosquito_risk":4,"arthritis_risk":5,"migraine_risk":7,"frizz_risk":0,"updated_at":"2026-03-30T20:36:38.436752+05:30"},{"city":"Jabalpur","state":"Madhya Pradesh","latitude":23.1815,"longitude":79.9864,"temp":28.6,"humidity":48,"rain":0.0,"pressure":962.3,"uv_index":8.35,"wind_gusts":29.5,"aqi":52,"pm10":25.8,"pm2_5":18.7,"mosquito_risk":4,"arthritis_risk":5,"migraine_risk":7,"frizz_risk":1,"updated_at":"2026-03-30T20:36:38.436760+05:30"},{"city":"Ujjain","state":"Madhya Pradesh","latitude":23.1765,"longitude":75.7885,"temp":27.7,"humidity":50,"rain":0.0,"pressure":955.1,"uv_index":7.7,"wind_gusts":27.0,"aqi":51,"pm10":27.6,"pm2_5":16.4,"mosquito_risk":4,"arthritis_risk":5,"migraine_risk":7,"frizz_risk":1,"updated_at":"2026-03-30T20:36:38.436767+05:30"},{"city":"Visakhapatnam","state":"Andhra Pradesh","latitude":17.6868,"longitude":83.2185,"temp":27.3,"humidity":82,"rain":0.0,"pressure":1005.2,"uv_index":8.95,"wind_gusts":43.6,"aqi":61,"pm10":20.5,"pm2_5":15.9,"mosquito_risk":7,"arthritis_risk":5,"migraine_risk":4,"frizz_risk":1,"updated_at":"2026-03-30T20:36:38.436774+05:30"},{"city":"Vijayawada","state":"Andhra Pradesh","latitude":16.5062,"longitude":80.648,"temp":27.6,"humidity":75,"rain":0.0,"pressure":1003.8,"uv_index":9.05,"wind_gusts":32.0,"aqi":65,"pm10":17.5,"pm2_5":15.1,"mosquito_risk":7,"arthritis_risk":5,"migraine_risk":4,"frizz_risk":1,"updated_at":"2026-03-30T20:36:38.436782+05:30"},{"city":"Guntur","state":"Andhra Pradesh","latitude":16.3067,"longitude":80.4365,"temp":27.1,"humidity":82,"rain":0.0,"pressure":1004.8,"uv_index":9.05,"wind_gusts":34.2,"aqi":76,"pm10":19.8,"pm2_5":17.7,"mosquito_risk":7,"arthritis_risk":5,"migraine_risk":4,"frizz_risk":1,"updated_at":"2026-03-30T20:36:38.436789+05:30"},{"city":"Nellore","state":"Andhra Pradesh","latitude":14.4426,"longitude":79.9865,"temp":27.7,"humidity":79,"rain":0.0,"pressure":1006.5,"uv_index":9.2,"wind_gusts":32.4,"aqi":80,"pm10":13.9,"pm2_5":10.4,"mosquito_risk":7,"arthritis_risk":5,"migraine_risk":4,"frizz_risk":1,"updated_at":"2026-03-30T20:36:38.436797+05:30"},{"city":"Kurnool","state":"Andhra Pradesh","latitude":15.8281,"longitude":78.0373,"temp":32.9,"humidity":38,"rain":0.0,"pressure":976.6,"uv_index":9.05,"wind_gusts":24.5,"aqi":121,"pm10":49.6,"pm2_5":42.1,"mosquito_risk":0,"arthritis_risk":5,"migraine_risk":7,"frizz_risk":1,"updated_at":"2026-03-30T20:36:38.436805+05:30"},{"city":"Kakinada","state":"Andhra Pradesh","latitude":16.9891,"longitude":82.2475,"temp":26.8,"humidity":81,"rain":0.0,"pressure":1009.3,"uv_index":9.0,"wind_gusts":34.6,"aqi":51,"pm10":15.7,"pm2_5":10.9,"mosquito_risk":7,"arthritis_risk":0,"migraine_risk":4,"frizz_risk":1,"updated_at":"2026-03-30T20:36:38.436813+05:30"},{"city":"Tirupati","state":"Andhra Pradesh","latitude":13.6288,"longitude":79.4192,"temp":29.3,"humidity":55,"rain":0.0,"pressure":992.5,"uv_index":9.3,"wind_gusts":36.4,"aqi":109,"pm10":24.2,"pm2_5":22.6,"mosquito_risk":4,"arthritis_risk":5,"migraine_risk":7,"frizz_risk":1,"updated_at":"2026-03-30T20:36:38.436820+05:30"},{"city":"Warangal","state":"Telangana","latitude":17.9689,"longitude":79.5941,"temp":29.5,"humidity":63,"rain":0.0,"pressure":979.3,"uv_index":8.9,"wind_gusts":27.0,"aqi":120,"pm10":47.1,"pm2_5":42.5,"mosquito_risk":7,"arthritis_risk":5,"migraine_risk":7,"frizz_risk":1,"updated_at":"2026-03-30T20:36:38.436827+05:30"},{"city":"Nizamabad","state":"Telangana","latitude":18.6725,"longitude":78.0941,"temp":28.8,"humidity":61,"rain":0.0,"pressure":965.5,"uv_index":8.8,"wind_gusts":46.8,"aqi":93,"pm10":36.0,"pm2_5":32.9,"mosquito_risk":7,"arthritis_risk":5,"migraine_risk":7,"frizz_risk":1,"updated_at":"2026-03-30T20:36:38.436834+05:30"},{"city":"Mysore","state":"Karnataka","latitude":12.2958,"longitude":76.6396,"temp":25.9,"humidity":74,"rain":0.0,"pressure":928.8,"uv_index":9.45,"wind_gusts":23.8,"aqi":130,"pm10":37.5,"pm2_5":34.9,"mosquito_risk":7,"arthritis_risk":5,"migraine_risk":7,"frizz_risk":1,"updated_at":"2026-03-30T20:36:38.436842+05:30"},{"city":"Mangalore","state":"Karnataka","latitude":12.9141,"longitude":74.856,"temp":29.9,"humidity":78,"rain":0.0,"pressure":1006.9,"uv_index":4.85,"wind_gusts":23.4,"aqi":62,"pm10":19.7,"pm2_5":15.2,"mosquito_risk":7,"arthritis_risk":5,"migraine_risk":0,"frizz_risk":1,"updated_at":"2026-03-30T20:36:38.436849+05:30"},{"city":"Hubli-Dharwad","state":"Karnataka","latitude":15.3647,"longitude":75.124,"temp":27.0,"humidity":70,"rain":0.0,"pressure":941.4,"uv_index":8.1,"wind_gusts":30.6,"aqi":135,"pm10":14.1,"pm2_5":13.1,"mosquito_risk":7,"arthritis_risk":5,"migraine_risk":7,"frizz_risk":1,"updated_at":"2026-03-30T20:36:38.436856+05:30"},{"city":"Belgaum","state":"Karnataka","latitude":15.8497,"longitude":74.4977,"temp":24.3,"humidity":87,"rain":0.0,"pressure":926.3,"uv_index":9.2,"wind_gusts":31.7,"aqi":132,"pm10":21.2,"pm2_5":18.8,"mosquito_risk":3,"arthritis_risk":5,"migraine_risk":7,"frizz_risk":1,"updated_at":"2026-03-30T20:36:41.661118+05:30"},{"city":"Coimbatore","state":"Tamil Nadu","latitude":11.0168,"longitude":76.9558,"temp":26.9,"humidity":76,"rain":0.0,"pressure":962.0,"uv_index":9.45,"wind_gusts":36.4,"aqi":99,"pm10":45.8,"pm2_5":42.7,"mosquito_risk":7,"arthritis_risk":5,"migraine_risk":7,"frizz_risk":1,"updated_at":"2026-03-30T20:36:41.661148+05:30"},{"city":"Madurai","state":"Tamil Nadu","latitude":9.9252,"longitude":78.1198,"temp":30.5,"humidity":62,"rain":0.0,"pressure":993.5,"uv_index":9.4,"wind_gusts":36.0,"aqi":84,"pm10":17.3,"pm2_5":16.2,"mosquito_risk":3,"arthritis_risk":5,"migraine_risk":7,"frizz_risk":1,"updated_at":"2026-03-30T20:36:41.661159+05:30"},{"city":"Trichy","state":"Tamil Nadu","latitude":10.7905,"longitude":78.7047,"temp":29.7,"humidity":67,"rain":0.0,"pressure":1000.0,"uv_index":9.35,"wind_gusts":25.6,"aqi":74,"pm10":16.7,"pm2_5":16.1,"mosquito_risk":7,"arthritis_risk":5,"migraine_risk":4,"frizz_risk":1,"updated_at":"2026-03-30T20:36:41.661166+05:30"},{"city":"Salem","state":"Tamil Nadu","latitude":11.6643,"longitude":78.146,"temp":31.4,"humidity":40,"rain":0.0,"pressure":977.4,"uv_index":9.45,"wind_gusts":27.0,"aqi":98,"pm10":20.1,"pm2_5":18.6,"mosquito_risk":0,"arthritis_risk":5,"migraine_risk":7,"frizz_risk":1,"updated_at":"2026-03-30T20:36:41.661172+05:30"},{"city":"Tirunelveli","state":"Tamil Nadu","latitude":8.7139,"longitude":77.7567,"temp":29.4,"humidity":66,"rain":0.0,"pressure":1003.4,"uv_index":9.35,"wind_gusts":52.2,"aqi":105,"pm10":24.4,"pm2_5":22.6,"mosquito_risk":7,"arthritis_risk":5,"migraine_risk":4,"frizz_risk":1,"updated_at":"2026-03-30T20:36:41.661178+05:30"},{"city":"Vellore","state":"Tamil Nadu","latitude":12.9165,"longitude":79.1325,"temp":28.9,"humidity":57,"rain":0.0,"pressure":985.4,"uv_index":9.35,"wind_gusts":33.5,"aqi":113,"pm10":32.1,"pm2_5":30.7,"mosquito_risk":4,"arthritis_risk":5,"migraine_risk":7,"frizz_risk":1,"updated_at":"2026-03-30T20:36:41.661185+05:30"},{"city":"Erode","state":"Tamil Nadu","latitude":11.341,"longitude":77.7172,"temp":32.3,"humidity":40,"rain":0.0,"pressure":988.5,"uv_index":9.4,"wind_gusts":25.2,"aqi":90,"pm10":18.2,"pm2_5":16.6,"mosquito_risk":0,"arthritis_risk":5,"migraine_risk":7,"frizz_risk":1,"updated_at":"2026-03-30T20:36:41.661190+05:30"},{"city":"Kochi","state":"Kerala","latitude":9.9312,"longitude":76.2673,"temp":29.6,"humidity":80,"rain":0.0,"pressure":1008.5,"uv_index":9.2,"wind_gusts":31.7,"aqi":135,"pm10":44.5,"pm2_5":41.7,"mosquito_risk":7,"arthritis_risk":0,"migraine_risk":4,"frizz_risk":1,"updated_at":"2026-03-30T20:36:41.661197+05:30"},{"city":"Thiruvananthapuram","state":"Kerala","latitude":8.5241,"longitude":76.9366,"temp":29.0,"humidity":80,"rain":0.0,"pressure":1008.5,"uv_index":9.2,"wind_gusts":33.1,"aqi":104,"pm10":27.9,"pm2_5":22.4,"mosquito_risk":7,"arthritis_risk":0,"migraine_risk":4,"frizz_risk":1,"updated_at":"2026-03-30T20:36:41.661203+05:30"},{"city":"Kozhikode","state":"Kerala","latitude":11.2588,"longitude":75.7804,"temp":29.7,"humidity":79,"rain":0.0,"pressure":1007.6,"uv_index":9.1,"wind_gusts":28.4,"aqi":103,"pm10":29.2,"pm2_5":20.4,"mosquito_risk":7,"arthritis_risk":5,"migraine_risk":4,"frizz_risk":1,"updated_at":"2026-03-30T20:36:41.661209+05:30"},{"city":"Thrissur","state":"Kerala","latitude":10.5276,"longitude":76.2144,"temp":29.0,"humidity":80,"rain":0.0,"pressure":1006.7,"uv_index":9.15,"wind_gusts":30.6,"aqi":117,"pm10":49.4,"pm2_5":45.8,"mosquito_risk":7,"arthritis_risk":5,"migraine_risk":4,"frizz_risk":1,"updated_at":"2026-03-30T20:36:41.661215+05:30"},{"city":"Kannur","state":"Kerala","latitude":11.8745,"longitude":75.3704,"temp":29.7,"humidity":74,"rain":0.0,"pressure":1007.1,"uv_index":8.5,"wind_gusts":24.8,"aqi":109,"pm10":40.7,"pm2_5":35.3,"mosquito_risk":7,"arthritis_risk":5,"migraine_risk":4,"frizz_risk":1,"updated_at":"2026-03-30T20:36:41.661221+05:30"},{"city":"Patna","state":"Bihar","latitude":25.5941,"longitude":85.1376,"temp":27.8,"humidity":70,"rain":0.0,"pressure":1000.9,"uv_index":8.1,"wind_gusts":30.6,"aqi":153,"pm10":85.7,"pm2_5":69.2,"mosquito_risk":7,"arthritis_risk":5,"migraine_risk":4,"frizz_risk":1,"updated_at":"2026-03-30T20:36:41.661227+05:30"},{"city":"Gaya","state":"Bihar","latitude":24.7914,"longitude":85.0002,"temp":27.1,"humidity":75,"rain":0.0,"pressure":994.3,"uv_index":8.2,"wind_gusts":23.4,"aqi":104,"pm10":56.8,"pm2_5":40.3,"mosquito_risk":7,"arthritis_risk":5,"migraine_risk":7,"frizz_risk":1,"updated_at":"2026-03-30T20:36:41.661232+05:30"},{"city":"Muzaffarpur","state":"Bihar","latitude":26.1209,"longitude":85.3647,"temp":25.6,"humidity":75,"rain":0.0,"pressure":1001.2,"uv_index":8.05,"wind_gusts":29.2,"aqi":156,"pm10":106.4,"pm2_5":86.8,"mosquito_risk":7,"arthritis_risk":5,"migraine_risk":4,"frizz_risk":1,"updated_at":"2026-03-30T20:36:41.661238+05:30"},{"city":"Bhagalpur","state":"Bihar","latitude":25.2425,"longitude":87.0117,"temp":24.7,"humidity":86,"rain":0.0,"pressure":1002.6,"uv_index":8.05,"wind_gusts":19.4,"aqi":171,"pm10":78.0,"pm2_5":70.5,"mosquito_risk":3,"arthritis_risk":5,"migraine_risk":4,"frizz_risk":1,"updated_at":"2026-03-30T20:36:41.661244+05:30"},{"city":"Ranchi","state":"Jharkhand","latitude":23.3441,"longitude":85.3096,"temp":25.1,"humidity":75,"rain":0.0,"pressure":939.1,"uv_index":8.75,"wind_gusts":27.0,"aqi":145,"pm10":36.6,"pm2_5":27.3,"mosquito_risk":7,"arthritis_risk":5,"migraine_risk":7,"frizz_risk":1,"updated_at":"2026-03-30T20:36:41.661250+05:30"},{"city":"Jamshedpur","state":"Jharkhand","latitude":22.8046,"longitude":86.2029,"temp":27.3,"humidity":78,"rain":0.0,"pressure":991.9,"uv_index":8.6,"wind_gusts":27.7,"aqi":160,"pm10":43.2,"pm2_5":36.7,"mosquito_risk":7,"arthritis_risk":5,"migraine_risk":7,"frizz_risk":1,"updated_at":"2026-03-30T20:36:41.661256+05:30"},{"city":"Dhanbad","state":"Jharkhand","latitude":23.7957,"longitude":86.4304,"temp":27.4,"humidity":74,"rain":0.0,"pressure":981.4,"uv_index":8.5,"wind_gusts":29.5,"aqi":164,"pm10":76.1,"pm2_5":69.8,"mosquito_risk":7,"arthritis_risk":5,"migraine_risk":7,"frizz_risk":1,"updated_at":"2026-03-30T20:36:41.661262+05:30"},{"city":"Bokaro","state":"Jharkhand","latitude":23.6693,"longitude":86.1511,"temp":27.3,"humidity":73,"rain":0.0,"pressure":985.5,"uv_index":8.5,"wind_gusts":30.6,"aqi":159,"pm10":64.7,"pm2_5":53.3,"mosquito_risk":7,"arthritis_risk":5,"migraine_risk":7,"frizz_risk":1,"updated_at":"2026-03-30T20:36:41.661268+05:30"},{"city":"Bhubaneswar","state":"Odisha","latitude":20.2961,"longitude":85.8245,"temp":27.4,"humidity":82,"rain":0.0,"pressure":1003.5,"uv_index":8.8,"wind_gusts":38.9,"aqi":66,"pm10":19.5,"pm2_5":16.4,"mosquito_risk":7,"arthritis_risk":5,"migraine_risk":4,"frizz_risk":1,"updated_at":"2026-03-30T20:36:41.661274+05:30"},{"city":"Cuttack","state":"Odisha","latitude":20.4625,"longitude":85.8828,"temp":27.6,"humidity":82,"rain":0.0,"pressure":1005.3,"uv_index":8.8,"wind_gusts":32.8,"aqi":66,"pm10":19.5,"pm2_5":16.4,"mosquito_risk":7,"arthritis_risk":5,"migraine_risk":4,"frizz_risk":1,"updated_at":"2026-03-30T20:36:41.661280+05:30"},{"city":"Rourkela","state":"Odisha","latitude":22.2604,"longitude":84.8536,"temp":27.0,"humidity":74,"rain":0.0,"pressure":985.7,"uv_index":8.5,"wind_gusts":52.6,"aqi":147,"pm10":48.9,"pm2_5":40.4,"mosquito_risk":7,"arthritis_risk":5,"migraine_risk":7,"frizz_risk":1,"updated_at":"2026-03-30T20:36:41.661285+05:30"},{"city":"Raipur","state":"Chhattisgarh","latitude":21.2514,"longitude":81.6296,"temp":31.0,"humidity":45,"rain":0.0,"pressure":975.2,"uv_index":8.6,"wind_gusts":32.8,"aqi":100,"pm10":67.1,"pm2_5":54.8,"mosquito_risk":0,"arthritis_risk":5,"migraine_risk":7,"frizz_risk":1,"updated_at":"2026-03-30T20:36:41.661291+05:30"},{"city":"Bhilai","state":"Chhattisgarh","latitude":21.1938,"longitude":81.3509,"temp":30.4,"humidity":47,"rain":0.0,"pressure":975.5,"uv_index":8.65,"wind_gusts":31.3,"aqi":75,"pm10":47.4,"pm2_5":36.6,"mosquito_risk":0,"arthritis_risk":5,"migraine_risk":7,"frizz_risk":1,"updated_at":"2026-03-30T20:36:41.661297+05:30"},{"city":"Guwahati","state":"Assam","latitude":26.1158,"longitude":91.7086,"temp":23.5,"humidity":88,"rain":0.0,"pressure":1004.3,"uv_index":7.35,"wind_gusts":27.7,"aqi":95,"pm10":57.9,"pm2_5":50.6,"mosquito_risk":3,"arthritis_risk":5,"migraine_risk":4,"frizz_risk":1,"updated_at":"2026-03-30T20:36:41.661303+05:30"},{"city":"Agartala","state":"Tripura","latitude":23.8315,"longitude":91.2868,"temp":23.9,"humidity":89,"rain":0.0,"pressure":1008.8,"uv_index":8.3,"wind_gusts":29.9,"aqi":121,"pm10":49.9,"pm2_5":43.3,"mosquito_risk":3,"arthritis_risk":0,"migraine_risk":4,"frizz_risk":1,"updated_at":"2026-03-30T20:36:41.661308+05:30"},{"city":"Shillong","state":"Meghalaya","latitude":25.5788,"longitude":91.8933,"temp":13.4,"humidity":93,"rain":0.0,"pressure":856.9,"uv_index":6.25,"wind_gusts":42.1,"aqi":95,"pm10":43.1,"pm2_5":38.4,"mosquito_risk":3,"arthritis_risk":10,"migraine_risk":7,"frizz_risk":0,"updated_at":"2026-03-30T20:36:41.661315+05:30"},{"city":"Imphal","state":"Manipur","latitude":24.817,"longitude":93.9368,"temp":17.7,"humidity":85,"rain":0.0,"pressure":925.1,"uv_index":7.75,"wind_gusts":58.7,"aqi":150,"pm10":49.1,"pm2_5":43.9,"mosquito_risk":3,"arthritis_risk":10,"migraine_risk":7,"frizz_risk":0,"updated_at":"2026-03-30T20:36:41.661321+05:30"},{"city":"Aizawl","state":"Mizoram","latitude":23.7271,"longitude":92.7176,"temp":18.5,"humidity":91,"rain":0.0,"pressure":894.5,"uv_index":8.45,"wind_gusts":50.8,"aqi":123,"pm10":45.3,"pm2_5":36.4,"mosquito_risk":3,"arthritis_risk":10,"migraine_risk":7,"frizz_risk":1,"updated_at":"2026-03-30T20:36:41.661327+05:30"},{"city":"Kohima","state":"Nagaland","latitude":25.6701,"longitude":94.1077,"temp":14.4,"humidity":99,"rain":0.0,"pressure":856.1,"uv_index":8.45,"wind_gusts":77.8,"aqi":124,"pm10":37.5,"pm2_5":28.3,"mosquito_risk":3,"arthritis_risk":10,"migraine_risk":7,"frizz_risk":0,"updated_at":"2026-03-30T20:36:41.661333+05:30"},{"city":"Gangtok","state":"Sikkim","latitude":27.3314,"longitude":88.6138,"temp":14.6,"humidity":90,"rain":0.0,"pressure":837.9,"uv_index":7.55,"wind_gusts":21.2,"aqi":94,"pm10":45.5,"pm2_5":37.8,"mosquito_risk":3,"arthritis_risk":10,"migraine_risk":7,"frizz_risk":0,"updated_at":"2026-03-30T20:36:41.661339+05:30"},{"city":"Siliguri","state":"West Bengal","latitude":26.7271,"longitude":88.3953,"temp":20.1,"humidity":83,"rain":0.0,"pressure":996.2,"uv_index":7.45,"wind_gusts":14.8,"aqi":155,"pm10":88.9,"pm2_5":70.3,"mosquito_risk":3,"arthritis_risk":5,"migraine_risk":7,"frizz_risk":1,"updated_at":"2026-03-30T20:36:44.877383+05:30"},{"city":"Durgapur","state":"West Bengal","latitude":23.5204,"longitude":87.3119,"temp":26.6,"humidity":83,"rain":0.0,"pressure":997.0,"uv_index":8.5,"wind_gusts":25.2,"aqi":159,"pm10":50.9,"pm2_5":46.2,"mosquito_risk":7,"arthritis_risk":5,"migraine_risk":7,"frizz_risk":1,"updated_at":"2026-03-30T20:36:44.877410+05:30"},{"city":"Asansol","state":"West Bengal","latitude":23.6739,"longitude":86.9524,"temp":25.7,"humidity":81,"rain":0.0,"pressure":995.4,"uv_index":8.5,"wind_gusts":28.4,"aqi":161,"pm10":61.5,"pm2_5":56.5,"mosquito_risk":7,"arthritis_risk":5,"migraine_risk":7,"frizz_risk":1,"updated_at":"2026-03-30T20:36:44.877419+05:30"},{"city":"Pondicherry","state":"Puducherry","latitude":11.9139,"longitude":79.8145,"temp":26.3,"humidity":85,"rain":0.0,"pressure":1009.2,"uv_index":9.25,"wind_gusts":27.7,"aqi":47,"pm10":12.7,"pm2_5":8.7,"mosquito_risk":7,"arthritis_risk":0,"migraine_risk":4,"frizz_risk":1,"updated_at":"2026-03-30T20:36:44.877426+05:30"},{"city":"Port Blair","state":"Andaman and Nicobar Islands","latitude":11.6234,"longitude":92.7265,"temp":29.3,"humidity":70,"rain":0.0,"pressure":1008.4,"uv_index":9.2,"wind_gusts":15.1,"aqi":62,"pm10":12.5,"pm2_5":9.3,"mosquito_risk":7,"arthritis_risk":0,"migraine_risk":4,"frizz_risk":1,"updated_at":"2026-03-30T20:36:44.877433+05:30"},{"city":"Haridwar","state":"Uttarakhand","latitude":29.9457,"longitude":78.1642,"temp":24.9,"humidity":73,"rain":0.0,"pressure":975.7,"uv_index":5.75,"wind_gusts":21.2,"aqi":90,"pm10":305.5,"pm2_5":72.2,"mosquito_risk":3,"arthritis_risk":5,"migraine_risk":3,"frizz_risk":1,"updated_at":"2026-03-30T20:36:44.877439+05:30"},{"city":"Rishikesh","state":"Uttarakhand","latitude":30.0869,"longitude":78.2676,"temp":23.7,"humidity":77,"rain":0.0,"pressure":968.4,"uv_index":5.8,"wind_gusts":24.8,"aqi":86,"pm10":112.7,"pm2_5":33.5,"mosquito_risk":3,"arthritis_risk":5,"migraine_risk":3,"frizz_risk":1,"updated_at":"2026-03-30T20:36:44.877446+05:30"},{"city":"Nainital","state":"Uttarakhand","latitude":29.3919,"longitude":79.4542,"temp":19.7,"humidity":60,"rain":0.0,"pressure":807.8,"uv_index":7.3,"wind_gusts":47.9,"aqi":111,"pm10":104.8,"pm2_5":35.0,"mosquito_risk":0,"arthritis_risk":5,"migraine_risk":7,"frizz_risk":0,"updated_at":"2026-03-30T20:36:44.877496+05:30"},{"city":"Mussoorie","state":"Uttarakhand","latitude":30.4599,"longitude":78.0664,"temp":17.1,"humidity":74,"rain":0.0,"pressure":803.8,"uv_index":6.2,"wind_gusts":34.2,"aqi":77,"pm10":148.1,"pm2_5":42.5,"mosquito_risk":3,"arthritis_risk":5,"migraine_risk":7,"frizz_risk":0,"updated_at":"2026-03-30T20:36:44.877505+05:30"},{"city":"Dharamshala","state":"Himachal Pradesh","latitude":32.219,"longitude":76.3234,"temp":16.2,"humidity":91,"rain":0.0,"pressure":870.8,"uv_index":6.05,"wind_gusts":30.2,"aqi":46,"pm10":25.5,"pm2_5":11.6,"mosquito_risk":3,"arthritis_risk":10,"migraine_risk":7,"frizz_risk":0,"updated_at":"2026-03-30T20:36:44.877512+05:30"},{"city":"Dalhousie","state":"Himachal Pradesh","latitude":32.5387,"longitude":75.971,"temp":12.9,"humidity":84,"rain":0.0,"pressure":804.3,"uv_index":5.75,"wind_gusts":45.0,"aqi":64,"pm10":55.5,"pm2_5":26.1,"mosquito_risk":3,"arthritis_risk":10,"migraine_risk":3,"frizz_risk":0,"updated_at":"2026-03-30T20:36:44.877520+05:30"},{"city":"Patiala","state":"Punjab","latitude":30.3398,"longitude":76.3869,"temp":24.0,"humidity":74,"rain":0.0,"pressure":980.0,"uv_index":5.4,"wind_gusts":25.6,"aqi":357,"pm10":291.5,"pm2_5":63.6,"mosquito_risk":3,"arthritis_risk":5,"migraine_risk":3,"frizz_risk":1,"updated_at":"2026-03-30T20:36:44.877526+05:30"},{"city":"Bhatinda","state":"Punjab","latitude":30.211,"longitude":74.9455,"temp":24.9,"humidity":64,"rain":0.0,"pressure":984.9,"uv_index":4.15,"wind_gusts":38.9,"aqi":177,"pm10":41.4,"pm2_5":19.3,"mosquito_risk":3,"arthritis_risk":5,"migraine_risk":3,"frizz_risk":1,"updated_at":"2026-03-30T20:36:44.877532+05:30"},{"city":"Rohtak","state":"Haryana","latitude":28.8955,"longitude":76.6066,"temp":23.9,"humidity":68,"rain":0.0,"pressure":983.3,"uv_index":6.65,"wind_gusts":34.2,"aqi":451,"pm10":307.3,"pm2_5":80.3,"mosquito_risk":3,"arthritis_risk":5,"migraine_risk":7,"frizz_risk":1,"updated_at":"2026-03-30T20:36:44.877537+05:30"},{"city":"Panipat","state":"Haryana","latitude":29.3909,"longitude":76.9635,"temp":23.2,"humidity":68,"rain":0.0,"pressure":981.7,"uv_index":6.6,"wind_gusts":25.9,"aqi":681,"pm10":692.9,"pm2_5":121.5,"mosquito_risk":3,"arthritis_risk":5,"migraine_risk":7,"frizz_risk":1,"updated_at":"2026-03-30T20:36:44.877543+05:30"},{"city":"Mathura","state":"Uttar Pradesh","latitude":27.4924,"longitude":77.6737,"temp":26.3,"humidity":53,"rain":0.0,"pressure":988.5,"uv_index":6.2,"wind_gusts":39.6,"aqi":497,"pm10":525.3,"pm2_5":93.8,"mosquito_risk":4,"arthritis_risk":5,"migraine_risk":7,"frizz_risk":0,"updated_at":"2026-03-30T20:36:44.877549+05:30"},{"city":"Vrindavan","state":"Uttar Pradesh","latitude":27.5823,"longitude":77.7027,"temp":25.8,"humidity":57,"rain":0.0,"pressure":988.9,"uv_index":6.45,"wind_gusts":40.0,"aqi":497,"pm10":525.3,"pm2_5":93.8,"mosquito_risk":4,"arthritis_risk":5,"migraine_risk":7,"frizz_risk":1,"updated_at":"2026-03-30T20:36:44.877555+05:30"},{"city":"Ayodhya","state":"Uttar Pradesh","latitude":26.7922,"longitude":82.1998,"temp":28.7,"humidity":56,"rain":0.0,"pressure":995.2,"uv_index":7.45,"wind_gusts":25.2,"aqi":144,"pm10":65.4,"pm2_5":34.9,"mosquito_risk":4,"arthritis_risk":5,"migraine_risk":7,"frizz_risk":1,"updated_at":"2026-03-30T20:36:44.877563+05:30"},{"city":"Ratlam","state":"Madhya Pradesh","latitude":23.3315,"longitude":75.0367,"temp":26.5,"humidity":62,"rain":0.0,"pressure":955.9,"uv_index":8.15,"wind_gusts":38.2,"aqi":50,"pm10":31.3,"pm2_5":18.0,"mosquito_risk":7,"arthritis_risk":5,"migraine_risk":7,"frizz_risk":1,"updated_at":"2026-03-30T20:36:44.877571+05:30"},{"city":"Sagar","state":"Madhya Pradesh","latitude":23.8388,"longitude":78.7378,"temp":28.9,"humidity":45,"rain":0.0,"pressure":952.1,"uv_index":8.15,"wind_gusts":32.8,"aqi":62,"pm10":33.9,"pm2_5":12.3,"mosquito_risk":4,"arthritis_risk":5,"migraine_risk":7,"frizz_risk":0,"updated_at":"2026-03-30T20:36:44.877577+05:30"},{"city":"Satna","state":"Madhya Pradesh","latitude":24.6005,"longitude":80.8322,"temp":27.4,"humidity":56,"rain":0.0,"pressure":972.7,"uv_index":8.15,"wind_gusts":55.8,"aqi":89,"pm10":31.2,"pm2_5":14.6,"mosquito_risk":4,"arthritis_risk":5,"migraine_risk":7,"frizz_risk":1,"updated_at":"2026-03-30T20:36:44.877583+05:30"},{"city":"Akola","state":"Maharashtra","latitude":20.7002,"longitude":77.0082,"temp":29.4,"humidity":52,"rain":0.0,"pressure":976.4,"uv_index":8.5,"wind_gusts":38.5,"aqi":71,"pm10":22.8,"pm2_5":17.9,"mosquito_risk":4,"arthritis_risk":5,"migraine_risk":7,"frizz_risk":1,"updated_at":"2026-03-30T20:36:44.877589+05:30"},{"city":"Amravati","state":"Maharashtra","latitude":20.9374,"longitude":77.7796,"temp":30.7,"humidity":43,"rain":0.0,"pressure":968.3,"uv_index":8.5,"wind_gusts":27.7,"aqi":69,"pm10":29.5,"pm2_5":23.1,"mosquito_risk":0,"arthritis_risk":5,"migraine_risk":7,"frizz_risk":1,"updated_at":"2026-03-30T20:36:44.877596+05:30"},{"city":"Latur","state":"Maharashtra","latitude":18.4088,"longitude":76.5604,"temp":26.4,"humidity":57,"rain":0.0,"pressure":942.1,"uv_index":8.6,"wind_gusts":36.7,"aqi":105,"pm10":38.0,"pm2_5":33.3,"mosquito_risk":4,"arthritis_risk":5,"migraine_risk":7,"frizz_risk":1,"updated_at":"2026-03-30T20:36:44.877609+05:30"},{"city":"Nanded","state":"Maharashtra","latitude":19.1383,"longitude":77.3091,"temp":26.4,"humidity":71,"rain":0.0,"pressure":971.9,"uv_index":8.7,"wind_gusts":49.0,"aqi":81,"pm10":37.1,"pm2_5":31.5,"mosquito_risk":7,"arthritis_risk":5,"migraine_risk":7,"frizz_risk":1,"updated_at":"2026-03-30T20:36:44.877622+05:30"},{"city":"Gulbarga","state":"Karnataka","latitude":17.3297,"longitude":76.8343,"temp":31.7,"humidity":38,"rain":0.0,"pressure":958.9,"uv_index":8.85,"wind_gusts":38.9,"aqi":144,"pm10":61.7,"pm2_5":53.6,"mosquito_risk":0,"arthritis_risk":5,"migraine_risk":7,"frizz_risk":0,"updated_at":"2026-03-30T20:36:44.877633+05:30"},{"city":"Bidar","state":"Karnataka","latitude":17.9104,"longitude":77.5199,"temp":27.2,"humidity":61,"rain":0.0,"pressure":936.1,"uv_index":8.9,"wind_gusts":42.8,"aqi":142,"pm10":48.9,"pm2_5":44.6,"mosquito_risk":7,"arthritis_risk":5,"migraine_risk":7,"frizz_risk":1,"updated_at":"2026-03-30T20:36:44.877643+05:30"},{"city":"Hospet","state":"Karnataka","latitude":15.2689,"longitude":76.3909,"temp":29.2,"humidity":63,"rain":0.0,"pressure":956.3,"uv_index":9.1,"wind_gusts":23.8,"aqi":131,"pm10":56.9,"pm2_5":50.8,"mosquito_risk":7,"arthritis_risk":5,"migraine_risk":7,"frizz_risk":1,"updated_at":"2026-03-30T20:36:44.877652+05:30"},{"city":"Tirupur","state":"Tamil Nadu","latitude":11.1085,"longitude":77.3411,"temp":30.3,"humidity":59,"rain":0.0,"pressure":975.4,"uv_index":9.45,"wind_gusts":27.7,"aqi":102,"pm10":31.8,"pm2_5":29.4,"mosquito_risk":0,"arthritis_risk":5,"migraine_risk":7,"frizz_risk":1,"updated_at":"2026-03-30T20:36:44.877666+05:30"},{"city":"Alappuzha","state":"Kerala","latitude":9.4981,"longitude":76.3388,"temp":29.6,"humidity":81,"rain":0.0,"pressure":1008.6,"uv_index":9.2,"wind_gusts":27.4,"aqi":119,"pm10":38.1,"pm2_5":33.9,"mosquito_risk":7,"arthritis_risk":0,"migraine_risk":4,"frizz_risk":1,"updated_at":"2026-03-30T20:36:44.877677+05:30"},{"city":"Munnar","state":"Kerala","latitude":10.0889,"longitude":77.0595,"temp":22.8,"humidity":94,"rain":0.0,"pressure":857.6,"uv_index":8.7,"wind_gusts":31.7,"aqi":84,"pm10":36.4,"pm2_5":34.3,"mosquito_risk":3,"arthritis_risk":5,"migraine_risk":7,"frizz_risk":1,"updated_at":"2026-03-30T20:36:44.877688+05:30"},{"city":"Silchar","state":"Assam","latitude":24.8333,"longitude":92.7789,"temp":24.4,"humidity":87,"rain":0.0,"pressure":1007.7,"uv_index":8.3,"wind_gusts":25.9,"aqi":150,"pm10":51.3,"pm2_5":43.2,"mosquito_risk":3,"arthritis_risk":5,"migraine_risk":4,"frizz_risk":1,"updated_at":"2026-03-30T20:36:44.877699+05:30"},{"city":"Dibrugarh","state":"Assam","latitude":27.4728,"longitude":94.912,"temp":23.6,"humidity":77,"rain":0.0,"pressure":999.0,"uv_index":5.75,"wind_gusts":10.1,"aqi":95,"pm10":38.6,"pm2_5":34.2,"mosquito_risk":3,"arthritis_risk":5,"migraine_risk":3,"frizz_risk":1,"updated_at":"2026-03-30T20:36:44.877710+05:30"}]