[{"city":"Delhi","state":"Delhi","latitude":28.6139,"longitude":77.209,"temp":29.4,"humidity":51,"rain":0.0,"pressure":979.9,"uv_index":7.65,"wind_gusts":42.5,"aqi":158,"pm10":342.7,"pm2_5":83.8,"no2":22.4,"co":586.0,"o3":110.0,"so2":21.3,"mosquito_risk":4,"arthritis_risk":5,"migraine_risk":7,"frizz_risk":1,"updated_at":"2026-05-12T01:26:37.406128+05:30"},{"city":"Mumbai","state":"Maharashtra","latitude":19.076,"longitude":72.8777,"temp":29.1,"humidity":77,"rain":0.0,"pressure":1004.9,"uv_index":7.9,"wind_gusts":45.7,"aqi":86,"pm10":62.4,"pm2_5":26.2,"no2":17.8,"co":555.0,"o3":60.0,"so2":14.0,"mosquito_risk":7,"arthritis_risk":5,"migraine_risk":4,"frizz_risk":1,"updated_at":"2026-05-12T01:26:37.406181+05:30"},{"city":"Bangalore","state":"Karnataka","latitude":12.9716,"longitude":77.5946,"temp":24.4,"humidity":54,"rain":0.0,"pressure":909.7,"uv_index":8.5,"wind_gusts":41.0,"aqi":69,"pm10":30.6,"pm2_5":23.9,"no2":34.9,"co":330.0,"o3":48.0,"so2":9.9,"mosquito_risk":0,"arthritis_risk":5,"migraine_risk":7,"frizz_risk":0,"updated_at":"2026-05-12T01:26:37.406199+05:30"},{"city":"Hyderabad","state":"Telangana","latitude":17.385,"longitude":78.4867,"temp":27.9,"humidity":58,"rain":0.0,"pressure":951.0,"uv_index":9.0,"wind_gusts":34.6,"aqi":69,"pm10":28.1,"pm2_5":21.1,"no2":10.4,"co":348.0,"o3":86.0,"so2":7.3,"mosquito_risk":4,"arthritis_risk":5,"migraine_risk":7,"frizz_risk":1,"updated_at":"2026-05-12T01:26:37.406215+05:30"},{"city":"Chennai","state":"Tamil Nadu","latitude":13.0827,"longitude":80.2707,"temp":28.4,"humidity":79,"rain":0.0,"pressure":1004.6,"uv_index":9.2,"wind_gusts":38.5,"aqi":25,"pm10":8.4,"pm2_5":6.5,"no2":8.1,"co":120.0,"o3":37.0,"so2":1.8,"mosquito_risk":7,"arthritis_risk":5,"migraine_risk":4,"frizz_risk":1,"updated_at":"2026-05-12T01:26:37.406225+05:30"},{"city":"Kolkata","state":"West Bengal","latitude":22.5726,"longitude":88.3639,"temp":25.7,"humidity":88,"rain":0.0,"pressure":1006.1,"uv_index":9.0,"wind_gusts":29.5,"aqi":129,"pm10":47.1,"pm2_5":42.7,"no2":22.4,"co":350.0,"o3":28.0,"so2":8.7,"mosquito_risk":7,"arthritis_risk":5,"migraine_risk":4,"frizz_risk":1,"updated_at":"2026-05-12T01:26:37.406235+05:30"},{"city":"Pune","state":"Maharashtra","latitude":18.5204,"longitude":73.8567,"temp":28.0,"humidity":39,"rain":0.0,"pressure":944.9,"uv_index":8.5,"wind_gusts":58.0,"aqi":84,"pm10":30.5,"pm2_5":21.4,"no2":18.8,"co":298.0,"o3":89.0,"so2":18.0,"mosquito_risk":4,"arthritis_risk":5,"migraine_risk":7,"frizz_risk":0,"updated_at":"2026-05-12T01:26:37.406244+05:30"},{"city":"Ahmedabad","state":"Gujarat","latitude":23.0225,"longitude":72.5714,"temp":34.5,"humidity":19,"rain":0.0,"pressure":998.1,"uv_index":8.15,"wind_gusts":28.8,"aqi":63,"pm10":20.8,"pm2_5":13.0,"no2":7.7,"co":216.0,"o3":77.0,"so2":6.7,"mosquito_risk":0,"arthritis_risk":5,"migraine_risk":7,"frizz_risk":0,"updated_at":"2026-05-12T01:26:37.406255+05:30"},{"city":"Jaipur","state":"Rajasthan","latitude":26.9124,"longitude":75.7873,"temp":29.5,"humidity":42,"rain":0.0,"pressure":956.6,"uv_index":8.2,"wind_gusts":50.0,"aqi":148,"pm10":258.9,"pm2_5":59.8,"no2":22.5,"co":446.0,"o3":72.0,"so2":12.3,"mosquito_risk":4,"arthritis_risk":5,"migraine_risk":7,"frizz_risk":0,"updated_at":"2026-05-12T01:26:37.406263+05:30"},{"city":"Lucknow","state":"Uttar Pradesh","latitude":26.8467,"longitude":80.9462,"temp":28.4,"humidity":46,"rain":0.0,"pressure":991.9,"uv_index":8.15,"wind_gusts":31.3,"aqi":97,"pm10":39.5,"pm2_5":33.2,"no2":15.6,"co":473.0,"o3":87.0,"so2":9.8,"mosquito_risk":4,"arthritis_risk":5,"migraine_risk":7,"frizz_risk":0,"updated_at":"2026-05-12T01:26:37.406272+05:30"},{"city":"Kanpur","state":"Uttar Pradesh","latitude":26.4499,"longitude":80.3319,"temp":28.7,"humidity":47,"rain":0.0,"pressure":990.0,"uv_index":8.15,"wind_gusts":30.6,"aqi":122,"pm10":169.0,"pm2_5":40.9,"no2":10.4,"co":385.0,"o3":98.0,"so2":7.2,"mosquito_risk":4,"arthritis_risk":5,"migraine_risk":7,"frizz_risk":1,"updated_at":"2026-05-12T01:26:37.406280+05:30"},{"city":"Chandigarh","state":"Chandigarh","latitude":30.7333,"longitude":76.7794,"temp":21.8,"humidity":82,"rain":0.0,"pressure":965.2,"uv_index":7.65,"wind_gusts":39.2,"aqi":145,"pm10":71.9,"pm2_5":57.0,"no2":27.5,"co":958.0,"o3":64.0,"so2":12.3,"mosquito_risk":3,"arthritis_risk":5,"migraine_risk":7,"frizz_risk":1,"updated_at":"2026-05-12T01:26:37.406289+05:30"},{"city":"Srinagar","state":"Jammu and Kashmir","latitude":34.0837,"longitude":74.7973,"temp":12.3,"humidity":95,"rain":0.0,"pressure":839.8,"uv_index":8.6,"wind_gusts":35.6,"aqi":97,"pm10":61.5,"pm2_5":48.4,"no2":30.3,"co":741.0,"o3":26.0,"so2":2.4,"mosquito_risk":3,"arthritis_risk":10,"migraine_risk":7,"frizz_risk":0,"updated_at":"2026-05-12T01:26:37.406298+05:30"},{"city":"Jammu","state":"Jammu and Kashmir","latitude":32.7266,"longitude":74.857,"temp":24.2,"humidity":72,"rain":0.0,"pressure":970.2,"uv_index":8.45,"wind_gusts":29.9,"aqi":142,"pm10":47.6,"pm2_5":40.4,"no2":20.2,"co":742.0,"o3":49.0,"so2":3.7,"mosquito_risk":3,"arthritis_risk":5,"migraine_risk":7,"frizz_risk":1,"updated_at":"2026-05-12T01:26:37.406307+05:30"},{"city":"Amritsar","state":"Punjab","latitude":31.634,"longitude":74.8723,"temp":25.6,"humidity":70,"rain":0.0,"pressure":977.8,"uv_index":8.35,"wind_gusts":50.0,"aqi":159,"pm10":109.0,"pm2_5":65.0,"no2":10.1,"co":771.0,"o3":90.0,"so2":9.6,"mosquito_risk":7,"arthritis_risk":5,"migraine_risk":7,"frizz_risk":1,"updated_at":"2026-05-12T01:26:37.406315+05:30"},{"city":"Ludhiana","state":"Punjab","latitude":30.901,"longitude":75.8573,"temp":25.8,"humidity":67,"rain":0.0,"pressure":975.7,"uv_index":7.9,"wind_gusts":45.7,"aqi":164,"pm10":129.0,"pm2_5":80.3,"no2":18.8,"co":821.0,"o3":82.0,"so2":19.9,"mosquito_risk":7,"arthritis_risk":5,"migraine_risk":7,"frizz_risk":1,"updated_at":"2026-05-12T01:26:37.406322+05:30"},{"city":"Jalandhar","state":"Punjab","latitude":31.326,"longitude":75.5762,"temp":24.2,"humidity":78,"rain":0.0,"pressure":976.5,"uv_index":8.1,"wind_gusts":34.2,"aqi":158,"pm10":115.9,"pm2_5":70.1,"no2":14.3,"co":922.0,"o3":95.0,"so2":14.6,"mosquito_risk":3,"arthritis_risk":5,"migraine_risk":7,"frizz_risk":1,"updated_at":"2026-05-12T01:26:37.406329+05:30"},{"city":"Dehradun","state":"Uttarakhand","latitude":30.6284,"longitude":78.0322,"temp":11.7,"humidity":100,"rain":0.0,"pressure":826.3,"uv_index":8.1,"wind_gusts":32.4,"aqi":104,"pm10":58.7,"pm2_5":39.8,"no2":31.1,"co":321.0,"o3":53.0,"so2":1.6,"mosquito_risk":3,"arthritis_risk":10,"migraine_risk":7,"frizz_risk":0,"updated_at":"2026-05-12T01:26:37.406338+05:30"},{"city":"Shimla","state":"Himachal Pradesh","latitude":31.1048,"longitude":77.1734,"temp":11.0,"humidity":83,"rain":0.0,"pressure":780.4,"uv_index":8.2,"wind_gusts":31.3,"aqi":150,"pm10":68.2,"pm2_5":48.5,"no2":20.6,"co":470.0,"o3":81.0,"so2":4.7,"mosquito_risk":3,"arthritis_risk":10,"migraine_risk":7,"frizz_risk":0,"updated_at":"2026-05-12T01:26:37.406345+05:30"},{"city":"Manali","state":"Himachal Pradesh","latitude":32.2396,"longitude":77.1887,"temp":9.0,"humidity":66,"rain":0.0,"pressure":813.3,"uv_index":8.9,"wind_gusts":42.5,"aqi":85,"pm10":12.0,"pm2_5":8.4,"no2":45.6,"co":309.0,"o3":78.0,"so2":0.1,"mosquito_risk":3,"arthritis_risk":5,"migraine_risk":7,"frizz_risk":0,"updated_at":"2026-05-12T01:26:37.406352+05:30"},{"city":"Gurgaon","state":"Haryana","latitude":28.4595,"longitude":77.0266,"temp":28.1,"humidity":54,"rain":0.0,"pressure":978.0,"uv_index":7.75,"wind_gusts":38.5,"aqi":622,"pm10":1438.0,"pm2_5":188.6,"no2":16.5,"co":492.0,"o3":116.0,"so2":18.6,"mosquito_risk":4,"arthritis_risk":5,"migraine_risk":7,"frizz_risk":1,"updated_at":"2026-05-12T01:26:37.406362+05:30"},{"city":"Noida","state":"Uttar Pradesh","latitude":28.5355,"longitude":77.391,"temp":26.1,"humidity":64,"rain":0.0,"pressure":981.2,"uv_index":7.7,"wind_gusts":48.2,"aqi":622,"pm10":1438.0,"pm2_5":188.6,"no2":16.5,"co":546.0,"o3":116.0,"so2":18.6,"mosquito_risk":7,"arthritis_risk":5,"migraine_risk":7,"frizz_risk":1,"updated_at":"2026-05-12T01:26:37.406369+05:30"},{"city":"Ghaziabad","state":"Uttar Pradesh","latitude":28.6692,"longitude":77.4538,"temp":26.9,"humidity":60,"rain":0.0,"pressure":979.5,"uv_index":7.65,"wind_gusts":32.8,"aqi":152,"pm10":211.9,"pm2_5":63.1,"no2":9.5,"co":446.0,"o3":114.0,"so2":12.4,"mosquito_risk":4,"arthritis_risk":5,"migraine_risk":7,"frizz_risk":1,"updated_at":"2026-05-12T01:26:37.406377+05:30"},{"city":"Faridabad","state":"Haryana","latitude":28.4089,"longitude":77.3178,"temp":28.2,"humidity":54,"rain":0.0,"pressure":980.6,"uv_index":7.7,"wind_gusts":44.6,"aqi":622,"pm10":1438.0,"pm2_5":188.6,"no2":16.5,"co":552.0,"o3":116.0,"so2":18.6,"mosquito_risk":4,"arthritis_risk":5,"migraine_risk":7,"frizz_risk":1,"updated_at":"2026-05-12T01:26:37.406383+05:30"},{"city":"Meerut","state":"Uttar Pradesh","latitude":28.9845,"longitude":77.7064,"temp":25.3,"humidity":74,"rain":0.0,"pressure":978.3,"uv_index":7.6,"wind_gusts":34.9,"aqi":152,"pm10":211.9,"pm2_5":63.1,"no2":9.5,"co":504.0,"o3":114.0,"so2":12.4,"mosquito_risk":7,"arthritis_risk":5,"migraine_risk":7,"frizz_risk":1,"updated_at":"2026-05-12T01:26:37.406390+05:30"},{"city":"Agra","state":"Uttar Pradesh","latitude":27.1767,"longitude":78.0081,"temp":29.4,"humidity":47,"rain":0.0,"pressure":984.5,"uv_index":8.05,"wind_gusts":41.8,"aqi":403,"pm10":875.4,"pm2_5":116.4,"no2":8.6,"co":494.0,"o3":111.0,"so2":12.5,"mosquito_risk":4,"arthritis_risk":5,"migraine_risk":7,"frizz_risk":1,"updated_at":"2026-05-12T01:26:37.406396+05:30"},{"city":"Varanasi","state":"Uttar Pradesh","latitude":25.3176,"longitude":82.9739,"temp":28.2,"humidity":54,"rain":0.0,"pressure":996.1,"uv_index":8.7,"wind_gusts":29.9,"aqi":123,"pm10":49.2,"pm2_5":45.6,"no2":11.8,"co":456.0,"o3":135.0,"so2":21.3,"mosquito_risk":4,"arthritis_risk":5,"migraine_risk":7,"frizz_risk":1,"updated_at":"2026-05-12T01:26:37.406403+05:30"},{"city":"Prayagraj","state":"Uttar Pradesh","latitude":25.4358,"longitude":81.8463,"temp":28.9,"humidity":46,"rain":0.0,"pressure":994.5,"uv_index":8.55,"wind_gusts":32.4,"aqi":110,"pm10":41.4,"pm2_5":38.0,"no2":16.0,"co":386.0,"o3":98.0,"so2":13.7,"mosquito_risk":4,"arthritis_risk":5,"migraine_risk":7,"frizz_risk":0,"updated_at":"2026-05-12T01:26:37.406412+05:30"},{"city":"Gorakhpur","state":"Uttar Pradesh","latitude":26.7606,"longitude":83.3732,"temp":25.9,"humidity":63,"rain":0.0,"pressure":996.5,"uv_index":8.55,"wind_gusts":41.4,"aqi":93,"pm10":41.4,"pm2_5":39.2,"no2":12.2,"co":438.0,"o3":126.0,"so2":15.8,"mosquito_risk":7,"arthritis_risk":5,"migraine_risk":7,"frizz_risk":1,"updated_at":"2026-05-12T01:26:37.406419+05:30"},{"city":"Bareilly","state":"Uttar Pradesh","latitude":28.367,"longitude":79.4304,"temp":25.5,"humidity":68,"rain":0.0,"pressure":984.7,"uv_index":7.95,"wind_gusts":30.6,"aqi":108,"pm10":56.8,"pm2_5":43.9,"no2":12.8,"co":415.0,"o3":94.0,"so2":7.0,"mosquito_risk":7,"arthritis_risk":5,"migraine_risk":7,"frizz_risk":1,"updated_at":"2026-05-12T01:26:37.406426+05:30"},{"city":"Aligarh","state":"Uttar Pradesh","latitude":27.8974,"longitude":78.088,"temp":27.5,"humidity":58,"rain":0.0,"pressure":982.3,"uv_index":7.85,"wind_gusts":28.8,"aqi":188,"pm10":516.0,"pm2_5":87.8,"no2":9.1,"co":473.0,"o3":110.0,"so2":12.4,"mosquito_risk":4,"arthritis_risk":5,"migraine_risk":7,"frizz_risk":1,"updated_at":"2026-05-12T01:26:37.406432+05:30"},{"city":"Moradabad","state":"Uttar Pradesh","latitude":28.8386,"longitude":78.7733,"temp":25.2,"humidity":72,"rain":0.0,"pressure":981.1,"uv_index":7.8,"wind_gusts":37.4,"aqi":126,"pm10":68.0,"pm2_5":54.7,"no2":13.8,"co":504.0,"o3":121.0,"so2":11.4,"mosquito_risk":7,"arthritis_risk":5,"migraine_risk":7,"frizz_risk":1,"updated_at":"2026-05-12T01:26:37.406439+05:30"},{"city":"Saharanpur","state":"Uttar Pradesh","latitude":29.9637,"longitude":77.546,"temp":24.4,"humidity":74,"rain":0.0,"pressure":972.8,"uv_index":7.2,"wind_gusts":37.4,"aqi":143,"pm10":67.5,"pm2_5":54.5,"no2":20.7,"co":459.0,"o3":86.0,"so2":11.8,"mosquito_risk":3,"arthritis_risk":5,"migraine_risk":7,"frizz_risk":1,"updated_at":"2026-05-12T01:26:37.406445+05:30"},{"city":"Jhansi","state":"Uttar Pradesh","latitude":25.4484,"longitude":78.5685,"temp":28.6,"humidity":47,"rain":0.0,"pressure":975.2,"uv_index":8.45,"wind_gusts":26.3,"aqi":114,"pm10":88.2,"pm2_5":39.6,"no2":3.6,"co":365.0,"o3":119.0,"so2":7.8,"mosquito_risk":4,"arthritis_risk":5,"migraine_risk":7,"frizz_risk":1,"updated_at":"2026-05-12T01:26:40.654929+05:30"},{"city":"Surat","state":"Gujarat","latitude":21.1702,"longitude":72.8311,"temp":32.3,"humidity":44,"rain":0.0,"pressure":1001.6,"uv_index":7.75,"wind_gusts":33.8,"aqi":98,"pm10":30.0,"pm2_5":20.4,"no2":25.5,"co":324.0,"o3":57.0,"so2":39.4,"mosquito_risk":0,"arthritis_risk":5,"migraine_risk":4,"frizz_risk":1,"updated_at":"2026-05-12T01:26:40.654965+05:30"},{"city":"Vadodara","state":"Gujarat","latitude":22.3072,"longitude":73.1812,"temp":33.6,"humidity":35,"rain":0.0,"pressure":999.4,"uv_index":8.1,"wind_gusts":28.1,"aqi":95,"pm10":42.8,"pm2_5":28.0,"no2":19.6,"co":318.0,"o3":87.0,"so2":19.5,"mosquito_risk":0,"arthritis_risk":5,"migraine_risk":7,"frizz_risk":0,"updated_at":"2026-05-12T01:26:40.654977+05:30"},{"city":"Rajkot","state":"Gujarat","latitude":22.3039,"longitude":70.8022,"temp":27.4,"humidity":74,"rain":0.0,"pressure":991.5,"uv_index":7.75,"wind_gusts":49.0,"aqi":54,"pm10":28.3,"pm2_5":11.5,"no2":6.4,"co":174.0,"o3":59.0,"so2":6.7,"mosquito_risk":7,"arthritis_risk":5,"migraine_risk":7,"frizz_risk":1,"updated_at":"2026-05-12T01:26:40.654986+05:30"},{"city":"Thane","state":"Maharashtra","latitude":19.2183,"longitude":72.9781,"temp":29.0,"humidity":74,"rain":0.0,"pressure":1004.3,"uv_index":7.9,"wind_gusts":40.0,"aqi":86,"pm10":62.4,"pm2_5":26.2,"no2":17.8,"co":405.0,"o3":60.0,"so2":14.0,"mosquito_risk":7,"arthritis_risk":5,"migraine_risk":4,"frizz_risk":1,"updated_at":"2026-05-12T01:26:40.654995+05:30"},{"city":"Nagpur","state":"Maharashtra","latitude":21.1458,"longitude":79.0882,"temp":31.6,"humidity":36,"rain":0.0,"pressure":970.3,"uv_index":8.95,"wind_gusts":38.2,"aqi":111,"pm10":94.8,"pm2_5":58.2,"no2":42.9,"co":334.0,"o3":38.0,"so2":22.9,"mosquito_risk":0,"arthritis_risk":5,"migraine_risk":7,"frizz_risk":0,"updated_at":"2026-05-12T01:26:40.655002+05:30"},{"city":"Nashik","state":"Maharashtra","latitude":19.9975,"longitude":73.7898,"temp":28.0,"humidity":37,"rain":0.0,"pressure":942.5,"uv_index":8.2,"wind_gusts":46.1,"aqi":96,"pm10":47.4,"pm2_5":30.6,"no2":27.4,"co":235.0,"o3":80.0,"so2":18.0,"mosquito_risk":4,"arthritis_risk":5,"migraine_risk":7,"frizz_risk":0,"updated_at":"2026-05-12T01:26:40.655010+05:30"},{"city":"Aurangabad","state":"Maharashtra","latitude":19.8762,"longitude":75.3433,"temp":32.0,"humidity":23,"rain":0.0,"pressure":940.7,"uv_index":9.1,"wind_gusts":37.4,"aqi":102,"pm10":55.4,"pm2_5":33.3,"no2":28.9,"co":320.0,"o3":86.0,"so2":12.8,"mosquito_risk":0,"arthritis_risk":5,"migraine_risk":7,"frizz_risk":0,"updated_at":"2026-05-12T01:26:40.655017+05:30"},{"city":"Solapur","state":"Maharashtra","latitude":17.6599,"longitude":75.9064,"temp":31.5,"humidity":35,"rain":0.0,"pressure":954.1,"uv_index":9.1,"wind_gusts":35.3,"aqi":87,"pm10":29.2,"pm2_5":22.4,"no2":12.2,"co":351.0,"o3":85.0,"so2":8.3,"mosquito_risk":0,"arthritis_risk":5,"migraine_risk":7,"frizz_risk":0,"updated_at":"2026-05-12T01:26:40.655025+05:30"},{"city":"Kolhapur","state":"Maharashtra","latitude":16.705,"longitude":74.2433,"temp":24.9,"humidity":87,"rain":0.0,"pressure":945.5,"uv_index":8.75,"wind_gusts":57.6,"aqi":79,"pm10":31.2,"pm2_5":20.4,"no2":11.0,"co":225.0,"o3":69.0,"so2":5.7,"mosquito_risk":3,"arthritis_risk":5,"migraine_risk":7,"frizz_risk":1,"updated_at":"2026-05-12T01:26:40.655032+05:30"},{"city":"Goa","state":"Goa","latitude":15.2993,"longitude":74.124,"temp":27.5,"humidity":94,"rain":0.0,"pressure":995.1,"uv_index":8.85,"wind_gusts":33.8,"aqi":79,"pm10":58.3,"pm2_5":30.2,"no2":11.0,"co":337.0,"o3":60.0,"so2":3.1,"mosquito_risk":7,"arthritis_risk":5,"migraine_risk":7,"frizz_risk":1,"updated_at":"2026-05-12T01:26:40.655040+05:30"},{"city":"Jodhpur","state":"Rajasthan","latitude":26.2389,"longitude":73.0243,"temp":34.2,"humidity":18,"rain":0.0,"pressure":978.8,"uv_index":8.3,"wind_gusts":42.5,"aqi":124,"pm10":186.7,"pm2_5":28.5,"no2":3.5,"co":187.0,"o3":92.0,"so2":2.7,"mosquito_risk":0,"arthritis_risk":5,"migraine_risk":7,"frizz_risk":0,"updated_at":"2026-05-12T01:26:40.655047+05:30"},{"city":"Udaipur","state":"Rajasthan","latitude":24.5854,"longitude":73.7125,"temp":29.5,"humidity":25,"rain":0.0,"pressure":943.3,"uv_index":8.85,"wind_gusts":34.9,"aqi":51,"pm10":33.4,"pm2_5":13.8,"no2":5.8,"co":293.0,"o3":72.0,"so2":4.3,"mosquito_risk":4,"arthritis_risk":5,"migraine_risk":7,"frizz_risk":0,"updated_at":"2026-05-12T01:26:40.655055+05:30"},{"city":"Kota","state":"Rajasthan","latitude":25.2138,"longitude":75.8648,"temp":29.9,"humidity":32,"rain":0.0,"pressure":975.0,"uv_index":8.4,"wind_gusts":44.3,"aqi":99,"pm10":150.9,"pm2_5":48.9,"no2":15.7,"co":597.0,"o3":72.0,"so2":13.6,"mosquito_risk":4,"arthritis_risk":5,"migraine_risk":7,"frizz_risk":0,"updated_at":"2026-05-12T01:26:40.655062+05:30"},{"city":"Bikaner","state":"Rajasthan","latitude":28.0229,"longitude":73.3119,"temp":32.2,"humidity":26,"rain":0.0,"pressure":976.7,"uv_index":8.35,"wind_gusts":38.2,"aqi":85,"pm10":51.2,"pm2_5":17.8,"no2":6.1,"co":268.0,"o3":63.0,"so2":4.7,"mosquito_risk":0,"arthritis_risk":5,"migraine_risk":7,"frizz_risk":0,"updated_at":"2026-05-12T01:26:40.655069+05:30"},{"city":"Ajmer","state":"Rajasthan","latitude":26.4499,"longitude":74.6399,"temp":30.5,"humidity":22,"rain":0.0,"pressure":951.3,"uv_index":8.35,"wind_gusts":55.1,"aqi":89,"pm10":115.0,"pm2_5":37.0,"no2":17.7,"co":420.0,"o3":56.0,"so2":7.2,"mosquito_risk":0,"arthritis_risk":5,"migraine_risk":7,"frizz_risk":0,"updated_at":"2026-05-12T01:26:40.655076+05:30"},{"city":"Gwalior","state":"Madhya Pradesh","latitude":26.2183,"longitude":78.1828,"temp":29.5,"humidity":43,"rain":0.0,"pressure":980.0,"uv_index":8.25,"wind_gusts":37.8,"aqi":116,"pm10":122.0,"pm2_5":43.9,"no2":4.2,"co":383.0,"o3":119.0,"so2":8.2,"mosquito_risk":4,"arthritis_risk":5,"migraine_risk":7,"frizz_risk":0,"updated_at":"2026-05-12T01:26:40.655083+05:30"},{"city":"Indore","state":"Madhya Pradesh","latitude":22.7196,"longitude":75.8577,"temp":32.5,"humidity":22,"rain":0.0,"pressure":945.2,"uv_index":8.7,"wind_gusts":29.9,"aqi":80,"pm10":60.3,"pm2_5":36.9,"no2":16.0,"co":405.0,"o3":71.0,"so2":10.3,"mosquito_risk":0,"arthritis_risk":5,"migraine_risk":7,"frizz_risk":0,"updated_at":"2026-05-12T01:26:40.655089+05:30"},{"city":"Bhopal","state":"Madhya Pradesh","latitude":23.2599,"longitude":77.4126,"temp":30.0,"humidity":35,"rain":0.0,"pressure":951.1,"uv_index":8.7,"wind_gusts":39.2,"aqi":89,"pm10":87.3,"pm2_5":41.8,"no2":15.3,"co":327.0,"o3":69.0,"so2":7.9,"mosquito_risk":4,"arthritis_risk":5,"migraine_risk":7,"frizz_risk":0,"updated_at":"2026-05-12T01:26:40.655095+05:30"},{"city":"Jabalpur","state":"Madhya Pradesh","latitude":23.1815,"longitude":79.9864,"temp":29.1,"humidity":38,"rain":0.0,"pressure":959.3,"uv_index":8.9,"wind_gusts":36.4,"aqi":96,"pm10":54.1,"pm2_5":34.7,"no2":7.5,"co":290.0,"o3":118.0,"so2":7.5,"mosquito_risk":4,"arthritis_risk":5,"migraine_risk":7,"frizz_risk":0,"updated_at":"2026-05-12T01:26:40.655102+05:30"},{"city":"Ujjain","state":"Madhya Pradesh","latitude":23.1765,"longitude":75.7885,"temp":31.5,"humidity":23,"rain":0.0,"pressure":950.3,"uv_index":8.6,"wind_gusts":28.8,"aqi":80,"pm10":70.1,"pm2_5":39.5,"no2":14.6,"co":303.0,"o3":62.0,"so2":8.5,"mosquito_risk":0,"arthritis_risk":5,"migraine_risk":7,"frizz_risk":0,"updated_at":"2026-05-12T01:26:40.655109+05:30"},{"city":"Visakhapatnam","state":"Andhra Pradesh","latitude":17.6868,"longitude":83.2185,"temp":26.5,"humidity":91,"rain":0.0,"pressure":1002.4,"uv_index":8.1,"wind_gusts":37.1,"aqi":67,"pm10":21.1,"pm2_5":19.2,"no2":22.4,"co":1114.0,"o3":27.0,"so2":5.7,"mosquito_risk":7,"arthritis_risk":5,"migraine_risk":4,"frizz_risk":1,"updated_at":"2026-05-12T01:26:40.655115+05:30"},{"city":"Vijayawada","state":"Andhra Pradesh","latitude":16.5062,"longitude":80.648,"temp":28.0,"humidity":80,"rain":0.0,"pressure":1000.6,"uv_index":9.15,"wind_gusts":33.5,"aqi":51,"pm10":10.7,"pm2_5":9.1,"no2":8.3,"co":172.0,"o3":36.0,"so2":5.3,"mosquito_risk":7,"arthritis_risk":5,"migraine_risk":4,"frizz_risk":1,"updated_at":"2026-05-12T01:26:40.655121+05:30"},{"city":"Guntur","state":"Andhra Pradesh","latitude":16.3067,"longitude":80.4365,"temp":28.0,"humidity":82,"rain":0.0,"pressure":1001.8,"uv_index":9.2,"wind_gusts":40.3,"aqi":52,"pm10":10.2,"pm2_5":8.4,"no2":9.1,"co":156.0,"o3":38.0,"so2":7.7,"mosquito_risk":7,"arthritis_risk":5,"migraine_risk":4,"frizz_risk":1,"updated_at":"2026-05-12T01:26:40.655128+05:30"},{"city":"Nellore","state":"Andhra Pradesh","latitude":14.4426,"longitude":79.9865,"temp":26.4,"humidity":90,"rain":0.0,"pressure":1003.6,"uv_index":9.2,"wind_gusts":37.4,"aqi":26,"pm10":8.4,"pm2_5":6.3,"no2":5.0,"co":196.0,"o3":40.0,"so2":2.4,"mosquito_risk":7,"arthritis_risk":5,"migraine_risk":4,"frizz_risk":1,"updated_at":"2026-05-12T01:26:40.655136+05:30"},{"city":"Kurnool","state":"Andhra Pradesh","latitude":15.8281,"longitude":78.0373,"temp":29.1,"humidity":55,"rain":0.0,"pressure":974.1,"uv_index":7.45,"wind_gusts":40.0,"aqi":52,"pm10":18.3,"pm2_5":13.2,"no2":5.5,"co":162.0,"o3":75.0,"so2":2.3,"mosquito_risk":4,"arthritis_risk":5,"migraine_risk":7,"frizz_risk":1,"updated_at":"2026-05-12T01:26:40.655143+05:30"},{"city":"Kakinada","state":"Andhra Pradesh","latitude":16.9891,"longitude":82.2475,"temp":27.6,"humidity":85,"rain":0.0,"pressure":1005.9,"uv_index":8.65,"wind_gusts":40.3,"aqi":26,"pm10":6.0,"pm2_5":3.4,"no2":1.0,"co":161.0,"o3":54.0,"so2":0.4,"mosquito_risk":7,"arthritis_risk":5,"migraine_risk":4,"frizz_risk":1,"updated_at":"2026-05-12T01:26:40.655149+05:30"},{"city":"Tirupati","state":"Andhra Pradesh","latitude":13.6288,"longitude":79.4192,"temp":25.4,"humidity":90,"rain":0.0,"pressure":989.2,"uv_index":9.25,"wind_gusts":36.7,"aqi":50,"pm10":19.1,"pm2_5":16.8,"no2":25.5,"co":260.0,"o3":13.0,"so2":3.4,"mosquito_risk":7,"arthritis_risk":5,"migraine_risk":7,"frizz_risk":1,"updated_at":"2026-05-12T01:26:40.655156+05:30"},{"city":"Warangal","state":"Telangana","latitude":17.9689,"longitude":79.5941,"temp":27.8,"humidity":71,"rain":0.0,"pressure":976.2,"uv_index":8.95,"wind_gusts":39.2,"aqi":74,"pm10":22.2,"pm2_5":18.8,"no2":9.2,"co":233.0,"o3":87.0,"so2":10.3,"mosquito_risk":7,"arthritis_risk":5,"migraine_risk":7,"frizz_risk":1,"updated_at":"2026-05-12T01:26:40.655162+05:30"},{"city":"Nizamabad","state":"Telangana","latitude":18.6725,"longitude":78.0941,"temp":28.9,"humidity":49,"rain":0.0,"pressure":961.5,"uv_index":9.15,"wind_gusts":29.2,"aqi":79,"pm10":37.7,"pm2_5":29.2,"no2":16.9,"co":263.0,"o3":68.0,"so2":5.5,"mosquito_risk":4,"arthritis_risk":5,"migraine_risk":7,"frizz_risk":1,"updated_at":"2026-05-12T01:26:40.655168+05:30"},{"city":"Mysore","state":"Karnataka","latitude":12.2958,"longitude":76.6396,"temp":22.6,"humidity":88,"rain":0.0,"pressure":926.1,"uv_index":5.85,"wind_gusts":38.2,"aqi":76,"pm10":38.4,"pm2_5":31.0,"no2":26.8,"co":338.0,"o3":62.0,"so2":4.4,"mosquito_risk":3,"arthritis_risk":5,"migraine_risk":3,"frizz_risk":1,"updated_at":"2026-05-12T01:26:40.655174+05:30"},{"city":"Mangalore","state":"Karnataka","latitude":12.9141,"longitude":74.856,"temp":27.2,"humidity":92,"rain":0.0,"pressure":1004.3,"uv_index":8.2,"wind_gusts":36.0,"aqi":71,"pm10":39.5,"pm2_5":30.9,"no2":17.5,"co":605.0,"o3":55.0,"so2":6.3,"mosquito_risk":7,"arthritis_risk":5,"migraine_risk":4,"frizz_risk":1,"updated_at":"2026-05-12T01:26:40.655180+05:30"},{"city":"Hubli-Dharwad","state":"Karnataka","latitude":15.3647,"longitude":75.124,"temp":24.6,"humidity":92,"rain":0.0,"pressure":938.3,"uv_index":9.1,"wind_gusts":45.4,"aqi":80,"pm10":24.4,"pm2_5":13.9,"no2":3.6,"co":200.0,"o3":65.0,"so2":1.1,"mosquito_risk":3,"arthritis_risk":5,"migraine_risk":7,"frizz_risk":1,"updated_at":"2026-05-12T01:26:40.655187+05:30"},{"city":"Belgaum","state":"Karnataka","latitude":15.8497,"longitude":74.4977,"temp":24.0,"humidity":92,"rain":0.0,"pressure":923.5,"uv_index":9.15,"wind_gusts":45.0,"aqi":75,"pm10":35.3,"pm2_5":19.0,"no2":9.0,"co":177.0,"o3":56.0,"so2":2.5,"mosquito_risk":3,"arthritis_risk":5,"migraine_risk":7,"frizz_risk":1,"updated_at":"2026-05-12T01:26:43.889868+05:30"},{"city":"Coimbatore","state":"Tamil Nadu","latitude":11.0168,"longitude":76.9558,"temp":24.0,"humidity":94,"rain":0.0,"pressure":959.0,"uv_index":8.7,"wind_gusts":32.0,"aqi":72,"pm10":38.5,"pm2_5":29.3,"no2":18.4,"co":375.0,"o3":52.0,"so2":4.6,"mosquito_risk":3,"arthritis_risk":5,"migraine_risk":7,"frizz_risk":1,"updated_at":"2026-05-12T01:26:43.889905+05:30"},{"city":"Madurai","state":"Tamil Nadu","latitude":9.9252,"longitude":78.1198,"temp":26.5,"humidity":91,"rain":0.0,"pressure":990.2,"uv_index":8.6,"wind_gusts":34.6,"aqi":85,"pm10":41.7,"pm2_5":38.3,"no2":31.7,"co":342.0,"o3":46.0,"so2":11.0,"mosquito_risk":7,"arthritis_risk":5,"migraine_risk":7,"frizz_risk":1,"updated_at":"2026-05-12T01:26:43.889918+05:30"},{"city":"Trichy","state":"Tamil Nadu","latitude":10.7905,"longitude":78.7047,"temp":26.4,"humidity":90,"rain":0.0,"pressure":997.2,"uv_index":8.15,"wind_gusts":24.1,"aqi":75,"pm10":22.2,"pm2_5":21.4,"no2":28.2,"co":415.0,"o3":24.0,"so2":12.6,"mosquito_risk":7,"arthritis_risk":5,"migraine_risk":7,"frizz_risk":1,"updated_at":"2026-05-12T01:26:43.889927+05:30"},{"city":"Salem","state":"Tamil Nadu","latitude":11.6643,"longitude":78.146,"temp":25.4,"humidity":85,"rain":0.0,"pressure":974.8,"uv_index":6.9,"wind_gusts":26.3,"aqi":81,"pm10":36.1,"pm2_5":31.7,"no2":34.1,"co":381.0,"o3":32.0,"so2":11.3,"mosquito_risk":7,"arthritis_risk":5,"migraine_risk":7,"frizz_risk":1,"updated_at":"2026-05-12T01:26:43.889935+05:30"},{"city":"Tirunelveli","state":"Tamil Nadu","latitude":8.7139,"longitude":77.7567,"temp":27.3,"humidity":75,"rain":0.0,"pressure":999.8,"uv_index":9.0,"wind_gusts":38.9,"aqi":57,"pm10":21.1,"pm2_5":20.3,"no2":16.9,"co":447.0,"o3":34.0,"so2":2.2,"mosquito_risk":7,"arthritis_risk":5,"migraine_risk":7,"frizz_risk":1,"updated_at":"2026-05-12T01:26:43.889944+05:30"},{"city":"Vellore","state":"Tamil Nadu","latitude":12.9165,"longitude":79.1325,"temp":25.0,"humidity":91,"rain":0.0,"pressure":982.5,"uv_index":9.25,"wind_gusts":30.6,"aqi":60,"pm10":36.8,"pm2_5":34.1,"no2":33.9,"co":368.0,"o3":15.0,"so2":14.0,"mosquito_risk":7,"arthritis_risk":5,"migraine_risk":7,"frizz_risk":1,"updated_at":"2026-05-12T01:26:43.889952+05:30"},{"city":"Erode","state":"Tamil Nadu","latitude":11.341,"longitude":77.7172,"temp":26.5,"humidity":73,"rain":0.0,"pressure":986.5,"uv_index":5.9,"wind_gusts":20.9,"aqi":85,"pm10":43.7,"pm2_5":36.9,"no2":39.4,"co":408.0,"o3":42.0,"so2":6.5,"mosquito_risk":7,"arthritis_risk":5,"migraine_risk":3,"frizz_risk":1,"updated_at":"2026-05-12T01:26:43.889960+05:30"},{"city":"Kochi","state":"Kerala","latitude":9.9312,"longitude":76.2673,"temp":26.1,"humidity":93,"rain":0.0,"pressure":1006.2,"uv_index":7.75,"wind_gusts":36.0,"aqi":65,"pm10":27.4,"pm2_5":26.0,"no2":18.3,"co":593.0,"o3":49.0,"so2":4.3,"mosquito_risk":7,"arthritis_risk":5,"migraine_risk":4,"frizz_risk":1,"updated_at":"2026-05-12T01:26:43.889968+05:30"},{"city":"Thiruvananthapuram","state":"Kerala","latitude":8.5241,"longitude":76.9366,"temp":26.1,"humidity":90,"rain":0.0,"pressure":1005.3,"uv_index":8.6,"wind_gusts":38.2,"aqi":45,"pm10":14.4,"pm2_5":10.5,"no2":4.6,"co":337.0,"o3":92.0,"so2":2.5,"mosquito_risk":7,"arthritis_risk":5,"migraine_risk":4,"frizz_risk":1,"updated_at":"2026-05-12T01:26:43.889976+05:30"},{"city":"Kozhikode","state":"Kerala","latitude":11.2588,"longitude":75.7804,"temp":26.0,"humidity":93,"rain":0.0,"pressure":1005.2,"uv_index":8.9,"wind_gusts":39.2,"aqi":50,"pm10":16.1,"pm2_5":12.2,"no2":3.7,"co":660.0,"o3":101.0,"so2":2.2,"mosquito_risk":7,"arthritis_risk":5,"migraine_risk":4,"frizz_risk":1,"updated_at":"2026-05-12T01:26:43.889984+05:30"},{"city":"Thrissur","state":"Kerala","latitude":10.5276,"longitude":76.2144,"temp":24.9,"humidity":99,"rain":0.0,"pressure":1004.4,"uv_index":2.45,"wind_gusts":31.0,"aqi":67,"pm10":27.8,"pm2_5":25.9,"no2":15.2,"co":527.0,"o3":54.0,"so2":3.7,"mosquito_risk":3,"arthritis_risk":5,"migraine_risk":0,"frizz_risk":1,"updated_at":"2026-05-12T01:26:43.889992+05:30"},{"city":"Kannur","state":"Kerala","latitude":11.8745,"longitude":75.3704,"temp":25.6,"humidity":89,"rain":0.0,"pressure":1004.6,"uv_index":8.65,"wind_gusts":41.8,"aqi":56,"pm10":28.2,"pm2_5":25.6,"no2":26.4,"co":490.0,"o3":38.0,"so2":4.4,"mosquito_risk":7,"arthritis_risk":5,"migraine_risk":4,"frizz_risk":1,"updated_at":"2026-05-12T01:26:43.890000+05:30"},{"city":"Patna","state":"Bihar","latitude":25.5941,"longitude":85.1376,"temp":26.4,"humidity":67,"rain":0.0,"pressure":999.8,"uv_index":8.55,"wind_gusts":35.6,"aqi":153,"pm10":47.5,"pm2_5":44.8,"no2":13.3,"co":399.0,"o3":119.0,"so2":17.4,"mosquito_risk":7,"arthritis_risk":5,"migraine_risk":7,"frizz_risk":1,"updated_at":"2026-05-12T01:26:43.890007+05:30"},{"city":"Gaya","state":"Bihar","latitude":24.7914,"longitude":85.0002,"temp":27.0,"humidity":65,"rain":0.0,"pressure":992.6,"uv_index":8.6,"wind_gusts":34.9,"aqi":146,"pm10":41.7,"pm2_5":37.5,"no2":15.4,"co":278.0,"o3":110.0,"so2":35.9,"mosquito_risk":7,"arthritis_risk":5,"migraine_risk":7,"frizz_risk":1,"updated_at":"2026-05-12T01:26:43.890014+05:30"},{"city":"Muzaffarpur","state":"Bihar","latitude":26.1209,"longitude":85.3647,"temp":25.4,"humidity":67,"rain":0.0,"pressure":1000.3,"uv_index":8.75,"wind_gusts":38.5,"aqi":117,"pm10":44.7,"pm2_5":42.3,"no2":13.7,"co":452.0,"o3":116.0,"so2":15.3,"mosquito_risk":7,"arthritis_risk":5,"migraine_risk":4,"frizz_risk":1,"updated_at":"2026-05-12T01:26:43.890021+05:30"},{"city":"Bhagalpur","state":"Bihar","latitude":25.2425,"longitude":87.0117,"temp":25.6,"humidity":82,"rain":0.0,"pressure":1001.7,"uv_index":7.75,"wind_gusts":28.4,"aqi":123,"pm10":50.4,"pm2_5":47.0,"no2":13.4,"co":282.0,"o3":111.0,"so2":14.3,"mosquito_risk":7,"arthritis_risk":5,"migraine_risk":4,"frizz_risk":1,"updated_at":"2026-05-12T01:26:43.890028+05:30"},{"city":"Ranchi","state":"Jharkhand","latitude":23.3441,"longitude":85.3096,"temp":22.8,"humidity":81,"rain":0.0,"pressure":936.9,"uv_index":9.3,"wind_gusts":31.7,"aqi":102,"pm10":55.5,"pm2_5":41.2,"no2":10.2,"co":230.0,"o3":108.0,"so2":16.3,"mosquito_risk":3,"arthritis_risk":5,"migraine_risk":7,"frizz_risk":1,"updated_at":"2026-05-12T01:26:43.890036+05:30"},{"city":"Jamshedpur","state":"Jharkhand","latitude":22.8046,"longitude":86.2029,"temp":25.5,"humidity":84,"rain":0.0,"pressure":990.7,"uv_index":9.1,"wind_gusts":39.6,"aqi":89,"pm10":36.0,"pm2_5":32.6,"no2":24.7,"co":214.0,"o3":47.0,"so2":24.2,"mosquito_risk":7,"arthritis_risk":5,"migraine_risk":7,"frizz_risk":1,"updated_at":"2026-05-12T01:26:43.890044+05:30"},{"city":"Dhanbad","state":"Jharkhand","latitude":23.7957,"longitude":86.4304,"temp":25.6,"humidity":83,"rain":0.0,"pressure":979.9,"uv_index":9.05,"wind_gusts":37.8,"aqi":150,"pm10":52.3,"pm2_5":49.9,"no2":58.6,"co":235.0,"o3":31.0,"so2":64.7,"mosquito_risk":7,"arthritis_risk":5,"migraine_risk":7,"frizz_risk":1,"updated_at":"2026-05-12T01:26:43.890050+05:30"},{"city":"Bokaro","state":"Jharkhand","latitude":23.6693,"longitude":86.1511,"temp":25.5,"humidity":84,"rain":0.0,"pressure":983.6,"uv_index":9.1,"wind_gusts":36.0,"aqi":150,"pm10":56.2,"pm2_5":54.0,"no2":53.7,"co":1524.0,"o3":42.0,"so2":60.9,"mosquito_risk":7,"arthritis_risk":5,"migraine_risk":7,"frizz_risk":1,"updated_at":"2026-05-12T01:26:43.890058+05:30"},{"city":"Bhubaneswar","state":"Odisha","latitude":20.2961,"longitude":85.8245,"temp":26.3,"humidity":91,"rain":0.0,"pressure":1002.2,"uv_index":9.15,"wind_gusts":33.5,"aqi":70,"pm10":26.8,"pm2_5":24.0,"no2":23.1,"co":365.0,"o3":22.0,"so2":6.0,"mosquito_risk":7,"arthritis_risk":5,"migraine_risk":4,"frizz_risk":1,"updated_at":"2026-05-12T01:26:43.890064+05:30"},{"city":"Cuttack","state":"Odisha","latitude":20.4625,"longitude":85.8828,"temp":26.2,"humidity":92,"rain":0.0,"pressure":1004.0,"uv_index":9.2,"wind_gusts":37.4,"aqi":70,"pm10":26.8,"pm2_5":24.0,"no2":23.1,"co":307.0,"o3":22.0,"so2":6.0,"mosquito_risk":7,"arthritis_risk":5,"migraine_risk":4,"frizz_risk":1,"updated_at":"2026-05-12T01:26:43.890071+05:30"},{"city":"Rourkela","state":"Odisha","latitude":22.2604,"longitude":84.8536,"temp":26.8,"humidity":78,"rain":0.0,"pressure":984.0,"uv_index":9.0,"wind_gusts":35.6,"aqi":107,"pm10":64.7,"pm2_5":48.9,"no2":21.0,"co":274.0,"o3":88.0,"so2":48.2,"mosquito_risk":7,"arthritis_risk":5,"migraine_risk":7,"frizz_risk":1,"updated_at":"2026-05-12T01:26:43.890078+05:30"},{"city":"Raipur","state":"Chhattisgarh","latitude":21.2514,"longitude":81.6296,"temp":29.7,"humidity":43,"rain":0.0,"pressure":971.6,"uv_index":9.05,"wind_gusts":31.7,"aqi":103,"pm10":57.7,"pm2_5":39.7,"no2":22.4,"co":353.0,"o3":84.0,"so2":6.1,"mosquito_risk":4,"arthritis_risk":5,"migraine_risk":7,"frizz_risk":0,"updated_at":"2026-05-12T01:26:43.890085+05:30"},{"city":"Bhilai","state":"Chhattisgarh","latitude":21.1938,"longitude":81.3509,"temp":29.0,"humidity":45,"rain":0.0,"pressure":971.9,"uv_index":9.05,"wind_gusts":31.3,"aqi":103,"pm10":57.0,"pm2_5":39.2,"no2":29.9,"co":339.0,"o3":70.0,"so2":6.8,"mosquito_risk":4,"arthritis_risk":5,"migraine_risk":7,"frizz_risk":0,"updated_at":"2026-05-12T01:26:43.890091+05:30"},{"city":"Guwahati","state":"Assam","latitude":26.1158,"longitude":91.7086,"temp":21.2,"humidity":93,"rain":0.0,"pressure":1003.5,"uv_index":8.65,"wind_gusts":25.2,"aqi":75,"pm10":49.4,"pm2_5":46.8,"no2":21.5,"co":466.0,"o3":34.0,"so2":3.0,"mosquito_risk":3,"arthritis_risk":5,"migraine_risk":4,"frizz_risk":1,"updated_at":"2026-05-12T01:26:43.890098+05:30"},{"city":"Agartala","state":"Tripura","latitude":23.8315,"longitude":91.2868,"temp":22.1,"humidity":94,"rain":0.0,"pressure":1007.4,"uv_index":8.85,"wind_gusts":14.4,"aqi":102,"pm10":34.5,"pm2_5":31.3,"no2":13.7,"co":359.0,"o3":71.0,"so2":1.9,"mosquito_risk":3,"arthritis_risk":5,"migraine_risk":4,"frizz_risk":1,"updated_at":"2026-05-12T01:26:43.890105+05:30"},{"city":"Shillong","state":"Meghalaya","latitude":25.5788,"longitude":91.8933,"temp":13.3,"humidity":96,"rain":0.0,"pressure":855.7,"uv_index":6.75,"wind_gusts":20.9,"aqi":70,"pm10":27.5,"pm2_5":24.3,"no2":15.7,"co":473.0,"o3":45.0,"so2":0.9,"mosquito_risk":3,"arthritis_risk":10,"migraine_risk":7,"frizz_risk":0,"updated_at":"2026-05-12T01:26:43.890112+05:30"},{"city":"Imphal","state":"Manipur","latitude":24.817,"longitude":93.9368,"temp":16.5,"humidity":95,"rain":0.0,"pressure":923.4,"uv_index":9.2,"wind_gusts":21.2,"aqi":72,"pm10":40.2,"pm2_5":37.8,"no2":26.9,"co":664.0,"o3":31.0,"so2":3.2,"mosquito_risk":3,"arthritis_risk":10,"migraine_risk":7,"frizz_risk":0,"updated_at":"2026-05-12T01:26:43.890119+05:30"},{"city":"Aizawl","state":"Mizoram","latitude":23.7271,"longitude":92.7176,"temp":15.3,"humidity":100,"rain":0.0,"pressure":892.0,"uv_index":9.05,"wind_gusts":26.6,"aqi":72,"pm10":21.1,"pm2_5":19.0,"no2":14.4,"co":390.0,"o3":17.0,"so2":0.4,"mosquito_risk":3,"arthritis_risk":10,"migraine_risk":7,"frizz_risk":0,"updated_at":"2026-05-12T01:26:43.890126+05:30"},{"city":"Kohima","state":"Nagaland","latitude":25.6701,"longitude":94.1077,"temp":13.4,"humidity":92,"rain":0.0,"pressure":854.1,"uv_index":8.9,"wind_gusts":29.5,"aqi":49,"pm10":9.5,"pm2_5":8.4,"no2":9.3,"co":308.0,"o3":48.0,"so2":0.9,"mosquito_risk":3,"arthritis_risk":10,"migraine_risk":7,"frizz_risk":0,"updated_at":"2026-05-12T01:26:43.890133+05:30"},{"city":"Gangtok","state":"Sikkim","latitude":27.3314,"longitude":88.6138,"temp":12.1,"humidity":81,"rain":0.0,"pressure":836.6,"uv_index":9.0,"wind_gusts":40.7,"aqi":62,"pm10":38.8,"pm2_5":30.5,"no2":21.4,"co":501.0,"o3":53.0,"so2":1.3,"mosquito_risk":3,"arthritis_risk":10,"migraine_risk":7,"frizz_risk":0,"updated_at":"2026-05-12T01:26:43.890139+05:30"},{"city":"Siliguri","state":"West Bengal","latitude":26.7271,"longitude":88.3953,"temp":22.5,"humidity":86,"rain":0.0,"pressure":995.6,"uv_index":8.5,"wind_gusts":24.5,"aqi":92,"pm10":65.2,"pm2_5":50.2,"no2":27.5,"co":402.0,"o3":81.0,"so2":5.6,"mosquito_risk":3,"arthritis_risk":5,"migraine_risk":7,"frizz_risk":1,"updated_at":"2026-05-12T01:26:47.140472+05:30"},{"city":"Durgapur","state":"West Bengal","latitude":23.5204,"longitude":87.3119,"temp":25.3,"humidity":93,"rain":0.0,"pressure":995.2,"uv_index":9.0,"wind_gusts":27.4,"aqi":149,"pm10":51.0,"pm2_5":48.1,"no2":31.8,"co":250.0,"o3":51.0,"so2":32.8,"mosquito_risk":7,"arthritis_risk":5,"migraine_risk":7,"frizz_risk":1,"updated_at":"2026-05-12T01:26:47.140509+05:30"},{"city":"Asansol","state":"West Bengal","latitude":23.6739,"longitude":86.9524,"temp":25.0,"humidity":90,"rain":0.0,"pressure":993.7,"uv_index":9.05,"wind_gusts":31.7,"aqi":133,"pm10":39.7,"pm2_5":37.0,"no2":32.5,"co":478.0,"o3":49.0,"so2":41.5,"mosquito_risk":7,"arthritis_risk":5,"migraine_risk":7,"frizz_risk":1,"updated_at":"2026-05-12T01:26:47.140520+05:30"},{"city":"Pondicherry","state":"Puducherry","latitude":11.9139,"longitude":79.8145,"temp":27.5,"humidity":87,"rain":0.0,"pressure":1005.7,"uv_index":8.85,"wind_gusts":30.6,"aqi":32,"pm10":7.7,"pm2_5":5.6,"no2":5.3,"co":199.0,"o3":37.0,"so2":1.4,"mosquito_risk":7,"arthritis_risk":5,"migraine_risk":4,"frizz_risk":1,"updated_at":"2026-05-12T01:26:47.140530+05:30"},{"city":"Port Blair","state":"Andaman and Nicobar Islands","latitude":11.6234,"longitude":92.7265,"temp":25.8,"humidity":97,"rain":0.2,"pressure":1005.2,"uv_index":8.15,"wind_gusts":35.6,"aqi":26,"pm10":2.2,"pm2_5":1.7,"no2":0.4,"co":173.0,"o3":55.0,"so2":0.1,"mosquito_risk":10,"arthritis_risk":5,"migraine_risk":4,"frizz_risk":1,"updated_at":"2026-05-12T01:26:47.140539+05:30"},{"city":"Haridwar","state":"Uttarakhand","latitude":29.9457,"longitude":78.1642,"temp":22.6,"humidity":81,"rain":0.0,"pressure":971.1,"uv_index":7.2,"wind_gusts":32.4,"aqi":126,"pm10":63.1,"pm2_5":50.3,"no2":17.3,"co":400.0,"o3":79.0,"so2":8.2,"mosquito_risk":3,"arthritis_risk":5,"migraine_risk":7,"frizz_risk":1,"updated_at":"2026-05-12T01:26:47.140547+05:30"},{"city":"Rishikesh","state":"Uttarakhand","latitude":30.0869,"longitude":78.2676,"temp":20.3,"humidity":89,"rain":0.0,"pressure":963.9,"uv_index":7.35,"wind_gusts":20.9,"aqi":116,"pm10":65.2,"pm2_5":45.6,"no2":13.9,"co":373.0,"o3":81.0,"so2":4.5,"mosquito_risk":3,"arthritis_risk":5,"migraine_risk":7,"frizz_risk":1,"updated_at":"2026-05-12T01:26:47.140555+05:30"},{"city":"Nainital","state":"Uttarakhand","latitude":29.3919,"longitude":79.4542,"temp":12.7,"humidity":91,"rain":0.0,"pressure":803.4,"uv_index":8.25,"wind_gusts":44.3,"aqi":107,"pm10":52.7,"pm2_5":41.4,"no2":20.9,"co":350.0,"o3":72.0,"so2":6.5,"mosquito_risk":3,"arthritis_risk":10,"migraine_risk":7,"frizz_risk":0,"updated_at":"2026-05-12T01:26:47.140563+05:30"},{"city":"Mussoorie","state":"Uttarakhand","latitude":30.4599,"longitude":78.0664,"temp":11.8,"humidity":92,"rain":0.0,"pressure":799.7,"uv_index":7.95,"wind_gusts":44.3,"aqi":126,"pm10":72.2,"pm2_5":53.7,"no2":26.2,"co":413.0,"o3":84.0,"so2":11.2,"mosquito_risk":3,"arthritis_risk":10,"migraine_risk":7,"frizz_risk":0,"updated_at":"2026-05-12T01:26:47.140571+05:30"},{"city":"Dharamshala","state":"Himachal Pradesh","latitude":32.219,"longitude":76.3234,"temp":21.0,"humidity":45,"rain":0.0,"pressure":867.5,"uv_index":8.35,"wind_gusts":35.6,"aqi":89,"pm10":34.9,"pm2_5":21.1,"no2":12.5,"co":306.0,"o3":45.0,"so2":0.1,"mosquito_risk":0,"arthritis_risk":5,"migraine_risk":7,"frizz_risk":0,"updated_at":"2026-05-12T01:26:47.140578+05:30"},{"city":"Dalhousie","state":"Himachal Pradesh","latitude":32.5387,"longitude":75.971,"temp":11.1,"humidity":76,"rain":0.0,"pressure":799.7,"uv_index":8.55,"wind_gusts":43.2,"aqi":151,"pm10":68.7,"pm2_5":47.5,"no2":38.6,"co":592.0,"o3":25.0,"so2":1.9,"mosquito_risk":3,"arthritis_risk":5,"migraine_risk":7,"frizz_risk":0,"updated_at":"2026-05-12T01:26:47.140586+05:30"},{"city":"Patiala","state":"Punjab","latitude":30.3398,"longitude":76.3869,"temp":25.5,"humidity":73,"rain":0.0,"pressure":975.0,"uv_index":7.6,"wind_gusts":47.5,"aqi":428,"pm10":222.6,"pm2_5":83.8,"no2":13.4,"co":571.0,"o3":114.0,"so2":23.3,"mosquito_risk":7,"arthritis_risk":5,"migraine_risk":7,"frizz_risk":1,"updated_at":"2026-05-12T01:26:47.140594+05:30"},{"city":"Bhatinda","state":"Punjab","latitude":30.211,"longitude":74.9455,"temp":28.2,"humidity":56,"rain":0.0,"pressure":980.5,"uv_index":8.2,"wind_gusts":40.7,"aqi":415,"pm10":285.9,"pm2_5":81.5,"no2":7.2,"co":460.0,"o3":111.0,"so2":12.0,"mosquito_risk":4,"arthritis_risk":5,"migraine_risk":7,"frizz_risk":1,"updated_at":"2026-05-12T01:26:47.140602+05:30"},{"city":"Rohtak","state":"Haryana","latitude":28.8955,"longitude":76.6066,"temp":27.5,"humidity":59,"rain":0.0,"pressure":978.3,"uv_index":7.7,"wind_gusts":45.0,"aqi":249,"pm10":568.1,"pm2_5":108.3,"no2":19.8,"co":525.0,"o3":129.0,"so2":27.1,"mosquito_risk":4,"arthritis_risk":5,"migraine_risk":7,"frizz_risk":1,"updated_at":"2026-05-12T01:26:47.140609+05:30"},{"city":"Panipat","state":"Haryana","latitude":29.3909,"longitude":76.9635,"temp":25.2,"humidity":72,"rain":0.0,"pressure":977.0,"uv_index":7.55,"wind_gusts":38.2,"aqi":500,"pm10":638.9,"pm2_5":114.6,"no2":18.1,"co":541.0,"o3":118.0,"so2":18.6,"mosquito_risk":7,"arthritis_risk":5,"migraine_risk":7,"frizz_risk":1,"updated_at":"2026-05-12T01:26:47.140616+05:30"},{"city":"Mathura","state":"Uttar Pradesh","latitude":27.4924,"longitude":77.6737,"temp":27.6,"humidity":55,"rain":0.0,"pressure":983.2,"uv_index":7.95,"wind_gusts":28.4,"aqi":381,"pm10":778.6,"pm2_5":115.3,"no2":9.2,"co":482.0,"o3":108.0,"so2":11.7,"mosquito_risk":4,"arthritis_risk":5,"migraine_risk":7,"frizz_risk":1,"updated_at":"2026-05-12T01:26:47.140642+05:30"},{"city":"Vrindavan","state":"Uttar Pradesh","latitude":27.5823,"longitude":77.7027,"temp":27.9,"humidity":55,"rain":0.0,"pressure":983.7,"uv_index":7.95,"wind_gusts":29.9,"aqi":381,"pm10":778.6,"pm2_5":115.3,"no2":9.2,"co":474.0,"o3":108.0,"so2":11.7,"mosquito_risk":4,"arthritis_risk":5,"migraine_risk":7,"frizz_risk":1,"updated_at":"2026-05-12T01:26:47.140649+05:30"},{"city":"Ayodhya","state":"Uttar Pradesh","latitude":26.7922,"longitude":82.1998,"temp":24.7,"humidity":62,"rain":0.0,"pressure":994.2,"uv_index":8.3,"wind_gusts":36.4,"aqi":105,"pm10":64.0,"pm2_5":57.4,"no2":43.2,"co":433.0,"o3":58.0,"so2":13.7,"mosquito_risk":3,"arthritis_risk":5,"migraine_risk":7,"frizz_risk":1,"updated_at":"2026-05-12T01:26:47.140656+05:30"},{"city":"Ratlam","state":"Madhya Pradesh","latitude":23.3315,"longitude":75.0367,"temp":30.1,"humidity":27,"rain":0.0,"pressure":951.7,"uv_index":8.55,"wind_gusts":31.0,"aqi":72,"pm10":63.3,"pm2_5":27.2,"no2":6.7,"co":329.0,"o3":77.0,"so2":7.3,"mosquito_risk":0,"arthritis_risk":5,"migraine_risk":7,"frizz_risk":0,"updated_at":"2026-05-12T01:26:47.140663+05:30"},{"city":"Sagar","state":"Madhya Pradesh","latitude":23.8388,"longitude":78.7378,"temp":27.9,"humidity":46,"rain":0.0,"pressure":948.1,"uv_index":8.75,"wind_gusts":33.1,"aqi":99,"pm10":63.3,"pm2_5":36.7,"no2":5.8,"co":345.0,"o3":119.0,"so2":7.1,"mosquito_risk":4,"arthritis_risk":5,"migraine_risk":7,"frizz_risk":0,"updated_at":"2026-05-12T01:26:47.140669+05:30"},{"city":"Satna","state":"Madhya Pradesh","latitude":24.6005,"longitude":80.8322,"temp":27.4,"humidity":45,"rain":0.0,"pressure":969.7,"uv_index":8.75,"wind_gusts":35.3,"aqi":136,"pm10":46.1,"pm2_5":33.2,"no2":9.4,"co":304.0,"o3":121.0,"so2":10.8,"mosquito_risk":4,"arthritis_risk":5,"migraine_risk":7,"frizz_risk":0,"updated_at":"2026-05-12T01:26:47.140676+05:30"},{"city":"Akola","state":"Maharashtra","latitude":20.7002,"longitude":77.0082,"temp":32.5,"humidity":29,"rain":0.0,"pressure":970.9,"uv_index":8.95,"wind_gusts":34.6,"aqi":90,"pm10":62.2,"pm2_5":34.8,"no2":20.6,"co":316.0,"o3":63.0,"so2":7.2,"mosquito_risk":0,"arthritis_risk":5,"migraine_risk":7,"frizz_risk":0,"updated_at":"2026-05-12T01:26:47.140684+05:30"},{"city":"Amravati","state":"Maharashtra","latitude":20.9374,"longitude":77.7796,"temp":32.2,"humidity":31,"rain":0.0,"pressure":963.8,"uv_index":8.95,"wind_gusts":38.2,"aqi":92,"pm10":72.2,"pm2_5":37.4,"no2":24.9,"co":299.0,"o3":64.0,"so2":9.2,"mosquito_risk":0,"arthritis_risk":5,"migraine_risk":7,"frizz_risk":0,"updated_at":"2026-05-12T01:26:47.140692+05:30"},{"city":"Latur","state":"Maharashtra","latitude":18.4088,"longitude":76.5604,"temp":29.7,"humidity":37,"rain":0.0,"pressure":937.0,"uv_index":9.1,"wind_gusts":38.9,"aqi":86,"pm10":37.5,"pm2_5":26.0,"no2":14.3,"co":283.0,"o3":84.0,"so2":7.4,"mosquito_risk":4,"arthritis_risk":5,"migraine_risk":7,"frizz_risk":0,"updated_at":"2026-05-12T01:26:47.140700+05:30"},{"city":"Nanded","state":"Maharashtra","latitude":19.1383,"longitude":77.3091,"temp":30.5,"humidity":41,"rain":0.0,"pressure":965.5,"uv_index":9.05,"wind_gusts":29.9,"aqi":80,"pm10":56.6,"pm2_5":37.1,"no2":23.2,"co":306.0,"o3":60.0,"so2":6.8,"mosquito_risk":0,"arthritis_risk":5,"migraine_risk":7,"frizz_risk":0,"updated_at":"2026-05-12T01:26:47.140707+05:30"},{"city":"Gulbarga","state":"Karnataka","latitude":17.3297,"longitude":76.8343,"temp":29.6,"humidity":42,"rain":0.0,"pressure":955.6,"uv_index":8.8,"wind_gusts":28.4,"aqi":81,"pm10":31.3,"pm2_5":21.0,"no2":13.4,"co":305.0,"o3":81.0,"so2":9.9,"mosquito_risk":4,"arthritis_risk":5,"migraine_risk":7,"frizz_risk":0,"updated_at":"2026-05-12T01:26:47.140714+05:30"},{"city":"Bidar","state":"Karnataka","latitude":17.9104,"longitude":77.5199,"temp":27.7,"humidity":47,"rain":0.0,"pressure":932.7,"uv_index":9.15,"wind_gusts":36.0,"aqi":67,"pm10":36.9,"pm2_5":27.4,"no2":16.4,"co":294.0,"o3":75.0,"so2":7.0,"mosquito_risk":4,"arthritis_risk":5,"migraine_risk":7,"frizz_risk":0,"updated_at":"2026-05-12T01:26:47.140720+05:30"},{"city":"Hospet","state":"Karnataka","latitude":15.2689,"longitude":76.3909,"temp":26.2,"humidity":81,"rain":0.0,"pressure":953.8,"uv_index":9.2,"wind_gusts":27.7,"aqi":79,"pm10":30.7,"pm2_5":21.2,"no2":16.4,"co":271.0,"o3":72.0,"so2":8.0,"mosquito_risk":7,"arthritis_risk":5,"migraine_risk":7,"frizz_risk":1,"updated_at":"2026-05-12T01:26:47.140727+05:30"},{"city":"Tirupur","state":"Tamil Nadu","latitude":11.1085,"longitude":77.3411,"temp":25.5,"humidity":85,"rain":0.0,"pressure":972.5,"uv_index":9.0,"wind_gusts":31.7,"aqi":85,"pm10":38.4,"pm2_5":31.0,"no2":27.5,"co":304.0,"o3":50.0,"so2":6.7,"mosquito_risk":7,"arthritis_risk":5,"migraine_risk":7,"frizz_risk":1,"updated_at":"2026-05-12T01:26:47.140733+05:30"},{"city":"Alappuzha","state":"Kerala","latitude":9.4981,"longitude":76.3388,"temp":26.6,"humidity":91,"rain":0.0,"pressure":1006.3,"uv_index":8.55,"wind_gusts":34.2,"aqi":54,"pm10":20.1,"pm2_5":16.9,"no2":13.6,"co":243.0,"o3":79.0,"so2":4.5,"mosquito_risk":7,"arthritis_risk":5,"migraine_risk":4,"frizz_risk":1,"updated_at":"2026-05-12T01:26:47.140739+05:30"},{"city":"Munnar","state":"Kerala","latitude":10.0889,"longitude":77.0595,"temp":17.0,"humidity":79,"rain":0.0,"pressure":853.8,"uv_index":8.4,"wind_gusts":19.1,"aqi":63,"pm10":28.5,"pm2_5":26.3,"no2":16.2,"co":295.0,"o3":29.0,"so2":1.9,"mosquito_risk":3,"arthritis_risk":5,"migraine_risk":7,"frizz_risk":0,"updated_at":"2026-05-12T01:26:47.140747+05:30"},{"city":"Silchar","state":"Assam","latitude":24.8333,"longitude":92.7789,"temp":22.2,"humidity":98,"rain":0.0,"pressure":1006.7,"uv_index":8.85,"wind_gusts":22.3,"aqi":104,"pm10":45.5,"pm2_5":38.5,"no2":9.2,"co":543.0,"o3":103.0,"so2":5.4,"mosquito_risk":3,"arthritis_risk":5,"migraine_risk":4,"frizz_risk":1,"updated_at":"2026-05-12T01:26:47.140753+05:30"},{"city":"Dibrugarh","state":"Assam","latitude":27.4728,"longitude":94.912,"temp":20.0,"humidity":94,"rain":0.0,"pressure":997.6,"uv_index":8.75,"wind_gusts":19.4,"aqi":73,"pm10":46.1,"pm2_5":42.6,"no2":38.5,"co":510.0,"o3":9.0,"so2":3.3,"mosquito_risk":3,"arthritis_risk":5,"migraine_risk":7,"frizz_risk":1,"updated_at":"2026-05-12T01:26:47.140760+05:30"}]