[{"city":"Delhi","state":"Delhi","latitude":28.6139,"longitude":77.209,"temp":29.6,"humidity":43,"rain":0.0,"pressure":981.7,"uv_index":7.45,"wind_gusts":45.7,"aqi":247,"pm10":370.7,"pm2_5":55.1,"no2":14.9,"co":631.0,"o3":160.0,"so2":18.7,"mosquito_risk":4,"arthritis_risk":5,"migraine_risk":7,"frizz_risk":0,"updated_at":"2026-05-04T17:21:29.334901+05:30"},{"city":"Mumbai","state":"Maharashtra","latitude":19.076,"longitude":72.8777,"temp":31.2,"humidity":63,"rain":0.0,"pressure":1005.2,"uv_index":7.85,"wind_gusts":42.8,"aqi":62,"pm10":37.7,"pm2_5":17.6,"no2":5.2,"co":206.0,"o3":89.0,"so2":16.7,"mosquito_risk":3,"arthritis_risk":5,"migraine_risk":4,"frizz_risk":1,"updated_at":"2026-05-04T17:21:29.334950+05:30"},{"city":"Bangalore","state":"Karnataka","latitude":12.9716,"longitude":77.5946,"temp":33.5,"humidity":24,"rain":0.0,"pressure":909.8,"uv_index":9.5,"wind_gusts":42.8,"aqi":87,"pm10":55.6,"pm2_5":18.5,"no2":9.4,"co":312.0,"o3":121.0,"so2":3.2,"mosquito_risk":0,"arthritis_risk":5,"migraine_risk":7,"frizz_risk":0,"updated_at":"2026-05-04T17:21:29.334966+05:30"},{"city":"Hyderabad","state":"Telangana","latitude":17.385,"longitude":78.4867,"temp":38.2,"humidity":12,"rain":0.0,"pressure":948.9,"uv_index":9.25,"wind_gusts":34.2,"aqi":137,"pm10":49.2,"pm2_5":18.2,"no2":1.8,"co":259.0,"o3":176.0,"so2":6.4,"mosquito_risk":0,"arthritis_risk":5,"migraine_risk":10,"frizz_risk":0,"updated_at":"2026-05-04T17:21:29.334979+05:30"},{"city":"Chennai","state":"Tamil Nadu","latitude":13.0827,"longitude":80.2707,"temp":31.2,"humidity":72,"rain":0.0,"pressure":1003.1,"uv_index":9.15,"wind_gusts":45.0,"aqi":81,"pm10":29.4,"pm2_5":20.5,"no2":4.6,"co":237.0,"o3":125.0,"so2":7.9,"mosquito_risk":3,"arthritis_risk":5,"migraine_risk":4,"frizz_risk":1,"updated_at":"2026-05-04T17:21:29.334988+05:30"},{"city":"Kolkata","state":"West Bengal","latitude":22.5726,"longitude":88.3639,"temp":29.0,"humidity":77,"rain":0.0,"pressure":1005.4,"uv_index":8.9,"wind_gusts":32.0,"aqi":94,"pm10":38.8,"pm2_5":24.1,"no2":9.5,"co":452.0,"o3":89.0,"so2":7.4,"mosquito_risk":7,"arthritis_risk":5,"migraine_risk":4,"frizz_risk":1,"updated_at":"2026-05-04T17:21:29.334997+05:30"},{"city":"Pune","state":"Maharashtra","latitude":18.5204,"longitude":73.8567,"temp":33.3,"humidity":27,"rain":0.0,"pressure":945.4,"uv_index":8.45,"wind_gusts":53.3,"aqi":56,"pm10":62.6,"pm2_5":15.0,"no2":1.9,"co":169.0,"o3":105.0,"so2":2.5,"mosquito_risk":0,"arthritis_risk":5,"migraine_risk":7,"frizz_risk":0,"updated_at":"2026-05-04T17:21:29.335004+05:30"},{"city":"Ahmedabad","state":"Gujarat","latitude":23.0225,"longitude":72.5714,"temp":39.8,"humidity":21,"rain":0.0,"pressure":995.0,"uv_index":8.05,"wind_gusts":40.0,"aqi":60,"pm10":78.7,"pm2_5":21.5,"no2":1.4,"co":182.0,"o3":129.0,"so2":5.6,"mosquito_risk":0,"arthritis_risk":5,"migraine_risk":10,"frizz_risk":0,"updated_at":"2026-05-04T17:21:29.335013+05:30"},{"city":"Jaipur","state":"Rajasthan","latitude":26.9124,"longitude":75.7873,"temp":32.5,"humidity":29,"rain":0.0,"pressure":956.9,"uv_index":8.05,"wind_gusts":34.6,"aqi":184,"pm10":184.4,"pm2_5":30.6,"no2":2.1,"co":233.0,"o3":149.0,"so2":6.3,"mosquito_risk":0,"arthritis_risk":5,"migraine_risk":7,"frizz_risk":0,"updated_at":"2026-05-04T17:21:29.335020+05:30"},{"city":"Lucknow","state":"Uttar Pradesh","latitude":26.8467,"longitude":80.9462,"temp":28.9,"humidity":63,"rain":0.0,"pressure":991.2,"uv_index":8.05,"wind_gusts":50.0,"aqi":138,"pm10":51.6,"pm2_5":31.7,"no2":2.6,"co":336.0,"o3":179.0,"so2":7.4,"mosquito_risk":7,"arthritis_risk":5,"migraine_risk":7,"frizz_risk":1,"updated_at":"2026-05-04T17:21:29.335027+05:30"},{"city":"Kanpur","state":"Uttar Pradesh","latitude":26.4499,"longitude":80.3319,"temp":30.4,"humidity":60,"rain":0.0,"pressure":989.0,"uv_index":8.05,"wind_gusts":52.9,"aqi":224,"pm10":367.9,"pm2_5":60.8,"no2":2.5,"co":319.0,"o3":195.0,"so2":11.3,"mosquito_risk":0,"arthritis_risk":5,"migraine_risk":7,"frizz_risk":1,"updated_at":"2026-05-04T17:21:29.335033+05:30"},{"city":"Chandigarh","state":"Chandigarh","latitude":30.7333,"longitude":76.7794,"temp":26.5,"humidity":43,"rain":0.0,"pressure":969.7,"uv_index":7.5,"wind_gusts":50.4,"aqi":123,"pm10":63.1,"pm2_5":20.0,"no2":3.0,"co":609.0,"o3":151.0,"so2":2.8,"mosquito_risk":4,"arthritis_risk":5,"migraine_risk":7,"frizz_risk":0,"updated_at":"2026-05-04T17:21:29.335040+05:30"},{"city":"Srinagar","state":"Jammu and Kashmir","latitude":34.0837,"longitude":74.7973,"temp":14.5,"humidity":78,"rain":0.0,"pressure":841.6,"uv_index":6.3,"wind_gusts":26.3,"aqi":108,"pm10":21.2,"pm2_5":12.4,"no2":5.8,"co":275.0,"o3":132.0,"so2":2.3,"mosquito_risk":3,"arthritis_risk":5,"migraine_risk":7,"frizz_risk":0,"updated_at":"2026-05-04T17:21:29.335047+05:30"},{"city":"Jammu","state":"Jammu and Kashmir","latitude":32.7266,"longitude":74.857,"temp":25.5,"humidity":49,"rain":0.0,"pressure":973.7,"uv_index":8.2,"wind_gusts":51.8,"aqi":119,"pm10":146.2,"pm2_5":38.5,"no2":3.1,"co":168.0,"o3":150.0,"so2":5.6,"mosquito_risk":4,"arthritis_risk":5,"migraine_risk":7,"frizz_risk":0,"updated_at":"2026-05-04T17:21:29.335053+05:30"},{"city":"Amritsar","state":"Punjab","latitude":31.634,"longitude":74.8723,"temp":28.9,"humidity":41,"rain":0.0,"pressure":980.6,"uv_index":8.1,"wind_gusts":55.4,"aqi":129,"pm10":131.8,"pm2_5":32.4,"no2":2.0,"co":227.0,"o3":151.0,"so2":6.7,"mosquito_risk":4,"arthritis_risk":5,"migraine_risk":7,"frizz_risk":0,"updated_at":"2026-05-04T17:21:29.335060+05:30"},{"city":"Ludhiana","state":"Punjab","latitude":30.901,"longitude":75.8573,"temp":23.2,"humidity":70,"rain":0.0,"pressure":979.3,"uv_index":7.7,"wind_gusts":48.2,"aqi":163,"pm10":132.2,"pm2_5":33.2,"no2":3.3,"co":292.0,"o3":152.0,"so2":4.9,"mosquito_risk":3,"arthritis_risk":5,"migraine_risk":7,"frizz_risk":1,"updated_at":"2026-05-04T17:21:29.335078+05:30"},{"city":"Jalandhar","state":"Punjab","latitude":31.326,"longitude":75.5762,"temp":28.3,"humidity":44,"rain":0.0,"pressure":979.7,"uv_index":7.9,"wind_gusts":45.0,"aqi":131,"pm10":101.5,"pm2_5":29.3,"no2":3.1,"co":235.0,"o3":158.0,"so2":11.0,"mosquito_risk":4,"arthritis_risk":5,"migraine_risk":7,"frizz_risk":0,"updated_at":"2026-05-04T17:21:29.335084+05:30"},{"city":"Dehradun","state":"Uttarakhand","latitude":30.6284,"longitude":78.0322,"temp":15.2,"humidity":71,"rain":0.0,"pressure":830.6,"uv_index":7.05,"wind_gusts":36.4,"aqi":87,"pm10":56.0,"pm2_5":20.3,"no2":1.4,"co":177.0,"o3":138.0,"so2":1.4,"mosquito_risk":3,"arthritis_risk":5,"migraine_risk":7,"frizz_risk":0,"updated_at":"2026-05-04T17:21:29.335093+05:30"},{"city":"Shimla","state":"Himachal Pradesh","latitude":31.1048,"longitude":77.1734,"temp":13.2,"humidity":56,"rain":0.0,"pressure":784.0,"uv_index":7.2,"wind_gusts":36.4,"aqi":98,"pm10":55.5,"pm2_5":17.8,"no2":0.8,"co":240.0,"o3":142.0,"so2":1.2,"mosquito_risk":0,"arthritis_risk":5,"migraine_risk":7,"frizz_risk":0,"updated_at":"2026-05-04T17:21:29.335099+05:30"},{"city":"Manali","state":"Himachal Pradesh","latitude":32.2396,"longitude":77.1887,"temp":13.1,"humidity":68,"rain":0.1,"pressure":816.3,"uv_index":9.0,"wind_gusts":34.2,"aqi":128,"pm10":31.3,"pm2_5":9.5,"no2":2.8,"co":198.0,"o3":160.0,"so2":1.5,"mosquito_risk":6,"arthritis_risk":5,"migraine_risk":7,"frizz_risk":0,"updated_at":"2026-05-04T17:21:29.335106+05:30"},{"city":"Gurgaon","state":"Haryana","latitude":28.4595,"longitude":77.0266,"temp":30.4,"humidity":39,"rain":0.0,"pressure":979.8,"uv_index":7.6,"wind_gusts":45.7,"aqi":1533,"pm10":2324.6,"pm2_5":223.5,"no2":12.0,"co":546.0,"o3":164.0,"so2":15.8,"mosquito_risk":0,"arthritis_risk":5,"migraine_risk":7,"frizz_risk":0,"updated_at":"2026-05-04T17:21:29.335112+05:30"},{"city":"Noida","state":"Uttar Pradesh","latitude":28.5355,"longitude":77.391,"temp":30.1,"humidity":41,"rain":0.0,"pressure":983.1,"uv_index":7.5,"wind_gusts":43.2,"aqi":1533,"pm10":2324.6,"pm2_5":223.5,"no2":12.0,"co":459.0,"o3":164.0,"so2":15.8,"mosquito_risk":0,"arthritis_risk":5,"migraine_risk":7,"frizz_risk":0,"updated_at":"2026-05-04T17:21:29.335119+05:30"},{"city":"Ghaziabad","state":"Uttar Pradesh","latitude":28.6692,"longitude":77.4538,"temp":30.0,"humidity":43,"rain":0.0,"pressure":981.5,"uv_index":7.45,"wind_gusts":45.7,"aqi":147,"pm10":324.1,"pm2_5":44.9,"no2":3.6,"co":382.0,"o3":161.0,"so2":5.3,"mosquito_risk":4,"arthritis_risk":5,"migraine_risk":7,"frizz_risk":1,"updated_at":"2026-05-04T17:21:29.335125+05:30"},{"city":"Faridabad","state":"Haryana","latitude":28.4089,"longitude":77.3178,"temp":29.5,"humidity":49,"rain":0.0,"pressure":982.2,"uv_index":7.55,"wind_gusts":49.0,"aqi":1533,"pm10":2324.6,"pm2_5":223.5,"no2":12.0,"co":398.0,"o3":164.0,"so2":15.8,"mosquito_risk":4,"arthritis_risk":5,"migraine_risk":7,"frizz_risk":1,"updated_at":"2026-05-04T17:21:29.335131+05:30"},{"city":"Meerut","state":"Uttar Pradesh","latitude":28.9845,"longitude":77.7064,"temp":28.5,"humidity":55,"rain":0.0,"pressure":980.9,"uv_index":7.35,"wind_gusts":58.7,"aqi":147,"pm10":324.1,"pm2_5":44.9,"no2":3.6,"co":314.0,"o3":161.0,"so2":5.3,"mosquito_risk":4,"arthritis_risk":5,"migraine_risk":7,"frizz_risk":1,"updated_at":"2026-05-04T17:21:29.335137+05:30"},{"city":"Agra","state":"Uttar Pradesh","latitude":27.1767,"longitude":78.0081,"temp":30.9,"humidity":42,"rain":0.0,"pressure":985.4,"uv_index":7.7,"wind_gusts":56.2,"aqi":1087,"pm10":689.2,"pm2_5":97.6,"no2":3.6,"co":246.0,"o3":164.0,"so2":7.1,"mosquito_risk":0,"arthritis_risk":5,"migraine_risk":7,"frizz_risk":1,"updated_at":"2026-05-04T17:21:29.335143+05:30"},{"city":"Varanasi","state":"Uttar Pradesh","latitude":25.3176,"longitude":82.9739,"temp":26.9,"humidity":82,"rain":0.2,"pressure":996.2,"uv_index":8.65,"wind_gusts":46.8,"aqi":184,"pm10":65.7,"pm2_5":50.8,"no2":3.8,"co":345.0,"o3":216.0,"so2":20.5,"mosquito_risk":10,"arthritis_risk":5,"migraine_risk":7,"frizz_risk":1,"updated_at":"2026-05-04T17:21:29.335150+05:30"},{"city":"Prayagraj","state":"Uttar Pradesh","latitude":25.4358,"longitude":81.8463,"temp":30.9,"humidity":60,"rain":0.0,"pressure":993.3,"uv_index":8.5,"wind_gusts":56.9,"aqi":172,"pm10":75.0,"pm2_5":47.8,"no2":3.2,"co":363.0,"o3":208.0,"so2":18.7,"mosquito_risk":0,"arthritis_risk":5,"migraine_risk":7,"frizz_risk":1,"updated_at":"2026-05-04T17:21:29.335158+05:30"},{"city":"Gorakhpur","state":"Uttar Pradesh","latitude":26.7606,"longitude":83.3732,"temp":27.1,"humidity":70,"rain":0.0,"pressure":995.6,"uv_index":8.45,"wind_gusts":42.5,"aqi":144,"pm10":53.7,"pm2_5":32.2,"no2":2.1,"co":304.0,"o3":175.0,"so2":5.0,"mosquito_risk":7,"arthritis_risk":5,"migraine_risk":7,"frizz_risk":1,"updated_at":"2026-05-04T17:21:29.335164+05:30"},{"city":"Bareilly","state":"Uttar Pradesh","latitude":28.367,"longitude":79.4304,"temp":28.5,"humidity":54,"rain":0.0,"pressure":986.0,"uv_index":6.85,"wind_gusts":60.5,"aqi":116,"pm10":40.9,"pm2_5":20.4,"no2":1.6,"co":302.0,"o3":151.0,"so2":1.4,"mosquito_risk":4,"arthritis_risk":5,"migraine_risk":7,"frizz_risk":1,"updated_at":"2026-05-04T17:21:29.335171+05:30"},{"city":"Aligarh","state":"Uttar Pradesh","latitude":27.8974,"longitude":78.088,"temp":31.0,"humidity":45,"rain":0.0,"pressure":983.7,"uv_index":7.7,"wind_gusts":54.0,"aqi":537,"pm10":868.0,"pm2_5":89.6,"no2":3.4,"co":296.0,"o3":177.0,"so2":10.2,"mosquito_risk":0,"arthritis_risk":5,"migraine_risk":7,"frizz_risk":1,"updated_at":"2026-05-04T17:21:29.335177+05:30"},{"city":"Moradabad","state":"Uttar Pradesh","latitude":28.8386,"longitude":78.7733,"temp":28.1,"humidity":55,"rain":0.0,"pressure":983.2,"uv_index":7.25,"wind_gusts":59.8,"aqi":116,"pm10":44.0,"pm2_5":19.9,"no2":3.6,"co":290.0,"o3":146.0,"so2":5.6,"mosquito_risk":4,"arthritis_risk":5,"migraine_risk":7,"frizz_risk":1,"updated_at":"2026-05-04T17:21:29.335183+05:30"},{"city":"Saharanpur","state":"Uttar Pradesh","latitude":29.9637,"longitude":77.546,"temp":27.3,"humidity":45,"rain":0.0,"pressure":976.4,"uv_index":7.1,"wind_gusts":56.9,"aqi":126,"pm10":53.7,"pm2_5":20.6,"no2":2.9,"co":302.0,"o3":143.0,"so2":4.7,"mosquito_risk":4,"arthritis_risk":5,"migraine_risk":7,"frizz_risk":0,"updated_at":"2026-05-04T17:21:29.335190+05:30"},{"city":"Jhansi","state":"Uttar Pradesh","latitude":25.4484,"longitude":78.5685,"temp":33.5,"humidity":36,"rain":0.0,"pressure":974.6,"uv_index":8.3,"wind_gusts":50.8,"aqi":157,"pm10":61.2,"pm2_5":32.4,"no2":2.3,"co":209.0,"o3":180.0,"so2":14.2,"mosquito_risk":0,"arthritis_risk":5,"migraine_risk":7,"frizz_risk":1,"updated_at":"2026-05-04T17:21:32.692492+05:30"},{"city":"Surat","state":"Gujarat","latitude":21.1702,"longitude":72.8311,"temp":31.5,"humidity":64,"rain":0.0,"pressure":1001.9,"uv_index":7.7,"wind_gusts":50.8,"aqi":60,"pm10":45.6,"pm2_5":19.6,"no2":11.9,"co":225.0,"o3":69.0,"so2":29.1,"mosquito_risk":3,"arthritis_risk":5,"migraine_risk":4,"frizz_risk":1,"updated_at":"2026-05-04T17:21:32.692523+05:30"},{"city":"Vadodara","state":"Gujarat","latitude":22.3072,"longitude":73.1812,"temp":37.5,"humidity":29,"rain":0.0,"pressure":998.2,"uv_index":8.05,"wind_gusts":42.8,"aqi":55,"pm10":53.8,"pm2_5":19.4,"no2":2.0,"co":176.0,"o3":126.0,"so2":3.9,"mosquito_risk":0,"arthritis_risk":5,"migraine_risk":10,"frizz_risk":1,"updated_at":"2026-05-04T17:21:32.692531+05:30"},{"city":"Rajkot","state":"Gujarat","latitude":22.3039,"longitude":70.8022,"temp":39.3,"humidity":19,"rain":0.0,"pressure":987.5,"uv_index":7.7,"wind_gusts":44.3,"aqi":51,"pm10":51.2,"pm2_5":15.9,"no2":1.2,"co":143.0,"o3":119.0,"so2":4.4,"mosquito_risk":0,"arthritis_risk":5,"migraine_risk":10,"frizz_risk":0,"updated_at":"2026-05-04T17:21:32.692538+05:30"},{"city":"Thane","state":"Maharashtra","latitude":19.2183,"longitude":72.9781,"temp":32.4,"humidity":56,"rain":0.0,"pressure":1004.3,"uv_index":7.85,"wind_gusts":40.3,"aqi":62,"pm10":37.7,"pm2_5":17.6,"no2":5.2,"co":205.0,"o3":89.0,"so2":16.7,"mosquito_risk":0,"arthritis_risk":5,"migraine_risk":4,"frizz_risk":1,"updated_at":"2026-05-04T17:21:32.692545+05:30"},{"city":"Nagpur","state":"Maharashtra","latitude":21.1458,"longitude":79.0882,"temp":39.8,"humidity":11,"rain":0.0,"pressure":967.7,"uv_index":8.9,"wind_gusts":47.2,"aqi":108,"pm10":36.8,"pm2_5":12.5,"no2":3.8,"co":153.0,"o3":141.0,"so2":13.2,"mosquito_risk":0,"arthritis_risk":5,"migraine_risk":10,"frizz_risk":0,"updated_at":"2026-05-04T17:21:32.692552+05:30"},{"city":"Nashik","state":"Maharashtra","latitude":19.9975,"longitude":73.7898,"temp":32.3,"humidity":35,"rain":0.0,"pressure":942.4,"uv_index":8.15,"wind_gusts":50.4,"aqi":57,"pm10":48.7,"pm2_5":15.5,"no2":1.1,"co":156.0,"o3":104.0,"so2":2.7,"mosquito_risk":0,"arthritis_risk":5,"migraine_risk":7,"frizz_risk":0,"updated_at":"2026-05-04T17:21:32.692558+05:30"},{"city":"Aurangabad","state":"Maharashtra","latitude":19.8762,"longitude":75.3433,"temp":36.8,"humidity":18,"rain":0.0,"pressure":939.8,"uv_index":9.05,"wind_gusts":37.8,"aqi":66,"pm10":58.9,"pm2_5":16.6,"no2":1.0,"co":158.0,"o3":129.0,"so2":2.5,"mosquito_risk":0,"arthritis_risk":5,"migraine_risk":10,"frizz_risk":0,"updated_at":"2026-05-04T17:21:32.692565+05:30"},{"city":"Solapur","state":"Maharashtra","latitude":17.6599,"longitude":75.9064,"temp":38.5,"humidity":10,"rain":0.0,"pressure":952.6,"uv_index":9.05,"wind_gusts":40.3,"aqi":57,"pm10":53.2,"pm2_5":12.3,"no2":0.3,"co":151.0,"o3":129.0,"so2":1.3,"mosquito_risk":0,"arthritis_risk":5,"migraine_risk":10,"frizz_risk":0,"updated_at":"2026-05-04T17:21:32.692572+05:30"},{"city":"Kolhapur","state":"Maharashtra","latitude":16.705,"longitude":74.2433,"temp":32.7,"humidity":34,"rain":0.0,"pressure":945.5,"uv_index":8.9,"wind_gusts":47.2,"aqi":58,"pm10":48.8,"pm2_5":13.6,"no2":1.9,"co":160.0,"o3":96.0,"so2":1.3,"mosquito_risk":0,"arthritis_risk":5,"migraine_risk":7,"frizz_risk":0,"updated_at":"2026-05-04T17:21:32.692578+05:30"},{"city":"Goa","state":"Goa","latitude":15.2993,"longitude":74.124,"temp":32.6,"humidity":57,"rain":0.0,"pressure":995.4,"uv_index":8.9,"wind_gusts":36.4,"aqi":65,"pm10":45.2,"pm2_5":15.8,"no2":0.8,"co":146.0,"o3":75.0,"so2":0.8,"mosquito_risk":0,"arthritis_risk":5,"migraine_risk":7,"frizz_risk":1,"updated_at":"2026-05-04T17:21:32.692585+05:30"},{"city":"Jodhpur","state":"Rajasthan","latitude":26.2389,"longitude":73.0243,"temp":34.8,"humidity":27,"rain":0.0,"pressure":977.7,"uv_index":8.25,"wind_gusts":60.5,"aqi":91,"pm10":150.4,"pm2_5":23.6,"no2":0.4,"co":153.0,"o3":143.0,"so2":2.1,"mosquito_risk":0,"arthritis_risk":5,"migraine_risk":7,"frizz_risk":0,"updated_at":"2026-05-04T17:21:32.692591+05:30"},{"city":"Udaipur","state":"Rajasthan","latitude":24.5854,"longitude":73.7125,"temp":28.0,"humidity":45,"rain":0.0,"pressure":943.2,"uv_index":8.75,"wind_gusts":43.9,"aqi":63,"pm10":68.7,"pm2_5":19.8,"no2":0.6,"co":160.0,"o3":132.0,"so2":4.5,"mosquito_risk":4,"arthritis_risk":5,"migraine_risk":7,"frizz_risk":0,"updated_at":"2026-05-04T17:21:32.692597+05:30"},{"city":"Kota","state":"Rajasthan","latitude":25.2138,"longitude":75.8648,"temp":35.5,"humidity":23,"rain":0.0,"pressure":974.1,"uv_index":8.25,"wind_gusts":36.7,"aqi":124,"pm10":66.8,"pm2_5":19.7,"no2":1.4,"co":165.0,"o3":153.0,"so2":7.6,"mosquito_risk":0,"arthritis_risk":5,"migraine_risk":10,"frizz_risk":0,"updated_at":"2026-05-04T17:21:32.692603+05:30"},{"city":"Bikaner","state":"Rajasthan","latitude":28.0229,"longitude":73.3119,"temp":38.5,"humidity":11,"rain":0.0,"pressure":976.2,"uv_index":8.1,"wind_gusts":52.6,"aqi":132,"pm10":153.7,"pm2_5":30.3,"no2":0.3,"co":170.0,"o3":152.0,"so2":5.9,"mosquito_risk":0,"arthritis_risk":5,"migraine_risk":10,"frizz_risk":0,"updated_at":"2026-05-04T17:21:32.692609+05:30"},{"city":"Ajmer","state":"Rajasthan","latitude":26.4499,"longitude":74.6399,"temp":30.0,"humidity":37,"rain":0.0,"pressure":951.7,"uv_index":8.2,"wind_gusts":41.0,"aqi":106,"pm10":62.6,"pm2_5":16.0,"no2":1.0,"co":159.0,"o3":139.0,"so2":3.0,"mosquito_risk":4,"arthritis_risk":5,"migraine_risk":7,"frizz_risk":0,"updated_at":"2026-05-04T17:21:32.692616+05:30"},{"city":"Gwalior","state":"Madhya Pradesh","latitude":26.2183,"longitude":78.1828,"temp":29.4,"humidity":51,"rain":0.0,"pressure":980.3,"uv_index":8.1,"wind_gusts":52.9,"aqi":142,"pm10":100.8,"pm2_5":36.4,"no2":1.4,"co":181.0,"o3":168.0,"so2":7.4,"mosquito_risk":4,"arthritis_risk":5,"migraine_risk":7,"frizz_risk":1,"updated_at":"2026-05-04T17:21:32.692622+05:30"},{"city":"Indore","state":"Madhya Pradesh","latitude":22.7196,"longitude":75.8577,"temp":36.5,"humidity":20,"rain":0.0,"pressure":943.3,"uv_index":8.6,"wind_gusts":37.1,"aqi":54,"pm10":37.5,"pm2_5":13.2,"no2":0.5,"co":180.0,"o3":124.0,"so2":2.8,"mosquito_risk":0,"arthritis_risk":5,"migraine_risk":10,"frizz_risk":0,"updated_at":"2026-05-04T17:21:32.692628+05:30"},{"city":"Bhopal","state":"Madhya Pradesh","latitude":23.2599,"longitude":77.4126,"temp":37.4,"humidity":18,"rain":0.0,"pressure":948.7,"uv_index":8.65,"wind_gusts":34.6,"aqi":66,"pm10":28.7,"pm2_5":9.2,"no2":0.4,"co":153.0,"o3":118.0,"so2":2.3,"mosquito_risk":0,"arthritis_risk":5,"migraine_risk":10,"frizz_risk":0,"updated_at":"2026-05-04T17:21:32.692634+05:30"},{"city":"Jabalpur","state":"Madhya Pradesh","latitude":23.1815,"longitude":79.9864,"temp":37.8,"humidity":19,"rain":0.0,"pressure":956.9,"uv_index":8.85,"wind_gusts":33.1,"aqi":106,"pm10":20.9,"pm2_5":8.7,"no2":1.7,"co":184.0,"o3":133.0,"so2":3.4,"mosquito_risk":0,"arthritis_risk":5,"migraine_risk":10,"frizz_risk":0,"updated_at":"2026-05-04T17:21:32.692640+05:30"},{"city":"Ujjain","state":"Madhya Pradesh","latitude":23.1765,"longitude":75.7885,"temp":36.5,"humidity":22,"rain":0.0,"pressure":948.7,"uv_index":8.55,"wind_gusts":43.6,"aqi":49,"pm10":49.0,"pm2_5":14.8,"no2":0.2,"co":155.0,"o3":120.0,"so2":2.9,"mosquito_risk":0,"arthritis_risk":5,"migraine_risk":10,"frizz_risk":0,"updated_at":"2026-05-04T17:21:32.692646+05:30"},{"city":"Visakhapatnam","state":"Andhra Pradesh","latitude":17.6868,"longitude":83.2185,"temp":29.6,"humidity":75,"rain":0.0,"pressure":1001.1,"uv_index":8.05,"wind_gusts":36.7,"aqi":110,"pm10":41.1,"pm2_5":29.3,"no2":13.7,"co":389.0,"o3":119.0,"so2":10.9,"mosquito_risk":7,"arthritis_risk":5,"migraine_risk":4,"frizz_risk":1,"updated_at":"2026-05-04T17:21:32.692652+05:30"},{"city":"Vijayawada","state":"Andhra Pradesh","latitude":16.5062,"longitude":80.648,"temp":33.9,"humidity":55,"rain":0.0,"pressure":998.5,"uv_index":9.1,"wind_gusts":34.2,"aqi":139,"pm10":57.6,"pm2_5":32.0,"no2":3.8,"co":251.0,"o3":149.0,"so2":8.1,"mosquito_risk":0,"arthritis_risk":5,"migraine_risk":7,"frizz_risk":1,"updated_at":"2026-05-04T17:21:32.692658+05:30"},{"city":"Guntur","state":"Andhra Pradesh","latitude":16.3067,"longitude":80.4365,"temp":34.8,"humidity":49,"rain":0.0,"pressure":999.6,"uv_index":9.15,"wind_gusts":34.6,"aqi":135,"pm10":57.5,"pm2_5":29.7,"no2":3.1,"co":248.0,"o3":154.0,"so2":5.2,"mosquito_risk":0,"arthritis_risk":5,"migraine_risk":7,"frizz_risk":1,"updated_at":"2026-05-04T17:21:32.692664+05:30"},{"city":"Nellore","state":"Andhra Pradesh","latitude":14.4426,"longitude":79.9865,"temp":32.4,"humidity":67,"rain":0.0,"pressure":1001.6,"uv_index":9.15,"wind_gusts":40.0,"aqi":155,"pm10":37.6,"pm2_5":24.3,"no2":2.0,"co":246.0,"o3":152.0,"so2":5.7,"mosquito_risk":3,"arthritis_risk":5,"migraine_risk":4,"frizz_risk":1,"updated_at":"2026-05-04T17:21:32.692671+05:30"},{"city":"Kurnool","state":"Andhra Pradesh","latitude":15.8281,"longitude":78.0373,"temp":39.7,"humidity":14,"rain":0.0,"pressure":971.9,"uv_index":9.15,"wind_gusts":34.2,"aqi":102,"pm10":53.3,"pm2_5":17.6,"no2":0.4,"co":152.0,"o3":151.0,"so2":5.4,"mosquito_risk":0,"arthritis_risk":5,"migraine_risk":10,"frizz_risk":0,"updated_at":"2026-05-04T17:21:32.692678+05:30"},{"city":"Kakinada","state":"Andhra Pradesh","latitude":16.9891,"longitude":82.2475,"temp":30.8,"humidity":71,"rain":0.0,"pressure":1004.4,"uv_index":9.1,"wind_gusts":30.2,"aqi":122,"pm10":43.5,"pm2_5":29.0,"no2":1.7,"co":257.0,"o3":132.0,"so2":3.0,"mosquito_risk":3,"arthritis_risk":5,"migraine_risk":4,"frizz_risk":1,"updated_at":"2026-05-04T17:21:32.692684+05:30"},{"city":"Tirupati","state":"Andhra Pradesh","latitude":13.6288,"longitude":79.4192,"temp":34.7,"humidity":38,"rain":0.0,"pressure":987.5,"uv_index":9.3,"wind_gusts":49.7,"aqi":154,"pm10":48.1,"pm2_5":30.6,"no2":2.4,"co":200.0,"o3":171.0,"so2":5.2,"mosquito_risk":0,"arthritis_risk":5,"migraine_risk":7,"frizz_risk":1,"updated_at":"2026-05-04T17:21:32.692690+05:30"},{"city":"Warangal","state":"Telangana","latitude":17.9689,"longitude":79.5941,"temp":37.5,"humidity":24,"rain":0.0,"pressure":974.2,"uv_index":9.15,"wind_gusts":38.9,"aqi":135,"pm10":51.5,"pm2_5":21.7,"no2":2.4,"co":201.0,"o3":155.0,"so2":6.5,"mosquito_risk":0,"arthritis_risk":5,"migraine_risk":10,"frizz_risk":0,"updated_at":"2026-05-04T17:21:32.692696+05:30"},{"city":"Nizamabad","state":"Telangana","latitude":18.6725,"longitude":78.0941,"temp":39.5,"humidity":11,"rain":0.0,"pressure":959.6,"uv_index":9.1,"wind_gusts":33.5,"aqi":80,"pm10":51.6,"pm2_5":16.5,"no2":0.0,"co":160.0,"o3":136.0,"so2":2.9,"mosquito_risk":0,"arthritis_risk":5,"migraine_risk":10,"frizz_risk":0,"updated_at":"2026-05-04T17:21:32.692702+05:30"},{"city":"Mysore","state":"Karnataka","latitude":12.2958,"longitude":76.6396,"temp":33.2,"humidity":28,"rain":0.0,"pressure":926.3,"uv_index":9.4,"wind_gusts":37.4,"aqi":66,"pm10":54.0,"pm2_5":17.2,"no2":5.2,"co":210.0,"o3":117.0,"so2":1.6,"mosquito_risk":0,"arthritis_risk":5,"migraine_risk":7,"frizz_risk":0,"updated_at":"2026-05-04T17:21:32.692708+05:30"},{"city":"Mangalore","state":"Karnataka","latitude":12.9141,"longitude":74.856,"temp":31.2,"humidity":64,"rain":0.0,"pressure":1004.0,"uv_index":9.05,"wind_gusts":43.6,"aqi":70,"pm10":49.1,"pm2_5":16.1,"no2":1.3,"co":145.0,"o3":76.0,"so2":0.9,"mosquito_risk":3,"arthritis_risk":5,"migraine_risk":4,"frizz_risk":1,"updated_at":"2026-05-04T17:21:32.692714+05:30"},{"city":"Hubli-Dharwad","state":"Karnataka","latitude":15.3647,"longitude":75.124,"temp":33.2,"humidity":34,"rain":0.0,"pressure":937.9,"uv_index":9.15,"wind_gusts":53.6,"aqi":55,"pm10":44.9,"pm2_5":14.2,"no2":1.8,"co":159.0,"o3":120.0,"so2":1.2,"mosquito_risk":0,"arthritis_risk":5,"migraine_risk":7,"frizz_risk":0,"updated_at":"2026-05-04T17:21:32.692720+05:30"},{"city":"Belgaum","state":"Karnataka","latitude":15.8497,"longitude":74.4977,"temp":30.9,"humidity":38,"rain":0.0,"pressure":924.0,"uv_index":9.15,"wind_gusts":46.4,"aqi":56,"pm10":46.7,"pm2_5":13.6,"no2":1.6,"co":149.0,"o3":91.0,"so2":1.3,"mosquito_risk":0,"arthritis_risk":5,"migraine_risk":7,"frizz_risk":0,"updated_at":"2026-05-04T17:21:36.040667+05:30"},{"city":"Coimbatore","state":"Tamil Nadu","latitude":11.0168,"longitude":76.9558,"temp":30.2,"humidity":59,"rain":0.0,"pressure":959.4,"uv_index":9.35,"wind_gusts":50.4,"aqi":68,"pm10":41.4,"pm2_5":18.0,"no2":5.3,"co":222.0,"o3":107.0,"so2":2.6,"mosquito_risk":0,"arthritis_risk":5,"migraine_risk":7,"frizz_risk":1,"updated_at":"2026-05-04T17:21:36.040696+05:30"},{"city":"Madurai","state":"Tamil Nadu","latitude":9.9252,"longitude":78.1198,"temp":28.3,"humidity":71,"rain":0.0,"pressure":991.2,"uv_index":7.9,"wind_gusts":51.1,"aqi":159,"pm10":40.9,"pm2_5":24.6,"no2":3.8,"co":198.0,"o3":172.0,"so2":3.0,"mosquito_risk":7,"arthritis_risk":5,"migraine_risk":7,"frizz_risk":1,"updated_at":"2026-05-04T17:21:36.040704+05:30"},{"city":"Trichy","state":"Tamil Nadu","latitude":10.7905,"longitude":78.7047,"temp":35.6,"humidity":39,"rain":0.0,"pressure":995.7,"uv_index":9.25,"wind_gusts":41.8,"aqi":103,"pm10":44.7,"pm2_5":27.6,"no2":4.1,"co":211.0,"o3":169.0,"so2":8.5,"mosquito_risk":0,"arthritis_risk":5,"migraine_risk":10,"frizz_risk":1,"updated_at":"2026-05-04T17:21:36.040712+05:30"},{"city":"Salem","state":"Tamil Nadu","latitude":11.6643,"longitude":78.146,"temp":34.1,"humidity":40,"rain":0.0,"pressure":973.8,"uv_index":9.25,"wind_gusts":32.0,"aqi":135,"pm10":50.4,"pm2_5":20.8,"no2":4.3,"co":229.0,"o3":158.0,"so2":9.5,"mosquito_risk":0,"arthritis_risk":5,"migraine_risk":7,"frizz_risk":1,"updated_at":"2026-05-04T17:21:36.040719+05:30"},{"city":"Tirunelveli","state":"Tamil Nadu","latitude":8.7139,"longitude":77.7567,"temp":33.4,"humidity":48,"rain":0.0,"pressure":999.6,"uv_index":8.15,"wind_gusts":34.9,"aqi":74,"pm10":59.6,"pm2_5":24.1,"no2":2.3,"co":201.0,"o3":107.0,"so2":1.2,"mosquito_risk":0,"arthritis_risk":5,"migraine_risk":7,"frizz_risk":1,"updated_at":"2026-05-04T17:21:36.040726+05:30"},{"city":"Vellore","state":"Tamil Nadu","latitude":12.9165,"longitude":79.1325,"temp":32.5,"humidity":46,"rain":0.2,"pressure":980.9,"uv_index":9.0,"wind_gusts":49.0,"aqi":149,"pm10":53.2,"pm2_5":28.2,"no2":2.8,"co":216.0,"o3":177.0,"so2":6.1,"mosquito_risk":3,"arthritis_risk":5,"migraine_risk":7,"frizz_risk":1,"updated_at":"2026-05-04T17:21:36.040732+05:30"},{"city":"Erode","state":"Tamil Nadu","latitude":11.341,"longitude":77.7172,"temp":30.4,"humidity":56,"rain":0.0,"pressure":985.6,"uv_index":9.25,"wind_gusts":54.7,"aqi":89,"pm10":48.9,"pm2_5":19.8,"no2":5.3,"co":262.0,"o3":133.0,"so2":0.9,"mosquito_risk":0,"arthritis_risk":5,"migraine_risk":7,"frizz_risk":1,"updated_at":"2026-05-04T17:21:36.040739+05:30"},{"city":"Kochi","state":"Kerala","latitude":9.9312,"longitude":76.2673,"temp":27.9,"humidity":84,"rain":0.0,"pressure":1007.1,"uv_index":9.05,"wind_gusts":30.6,"aqi":105,"pm10":53.3,"pm2_5":21.1,"no2":6.1,"co":185.0,"o3":87.0,"so2":1.4,"mosquito_risk":7,"arthritis_risk":5,"migraine_risk":4,"frizz_risk":1,"updated_at":"2026-05-04T17:21:36.040745+05:30"},{"city":"Thiruvananthapuram","state":"Kerala","latitude":8.5241,"longitude":76.9366,"temp":30.5,"humidity":63,"rain":0.0,"pressure":1006.0,"uv_index":7.95,"wind_gusts":44.6,"aqi":70,"pm10":68.7,"pm2_5":21.2,"no2":1.4,"co":134.0,"o3":76.0,"so2":0.7,"mosquito_risk":3,"arthritis_risk":5,"migraine_risk":4,"frizz_risk":1,"updated_at":"2026-05-04T17:21:36.040752+05:30"},{"city":"Kozhikode","state":"Kerala","latitude":11.2588,"longitude":75.7804,"temp":29.8,"humidity":75,"rain":0.0,"pressure":1005.6,"uv_index":9.0,"wind_gusts":38.9,"aqi":69,"pm10":48.8,"pm2_5":16.6,"no2":0.6,"co":146.0,"o3":72.0,"so2":0.5,"mosquito_risk":7,"arthritis_risk":5,"migraine_risk":4,"frizz_risk":1,"updated_at":"2026-05-04T17:21:36.040758+05:30"},{"city":"Thrissur","state":"Kerala","latitude":10.5276,"longitude":76.2144,"temp":28.0,"humidity":82,"rain":0.0,"pressure":1005.3,"uv_index":8.75,"wind_gusts":30.6,"aqi":94,"pm10":45.6,"pm2_5":18.4,"no2":4.0,"co":155.0,"o3":88.0,"so2":1.2,"mosquito_risk":7,"arthritis_risk":5,"migraine_risk":4,"frizz_risk":1,"updated_at":"2026-05-04T17:21:36.040765+05:30"},{"city":"Kannur","state":"Kerala","latitude":11.8745,"longitude":75.3704,"temp":31.5,"humidity":65,"rain":0.0,"pressure":1004.7,"uv_index":9.0,"wind_gusts":47.2,"aqi":68,"pm10":49.2,"pm2_5":17.7,"no2":1.4,"co":145.0,"o3":80.0,"so2":0.9,"mosquito_risk":3,"arthritis_risk":5,"migraine_risk":4,"frizz_risk":1,"updated_at":"2026-05-04T17:21:36.040771+05:30"},{"city":"Patna","state":"Bihar","latitude":25.5941,"longitude":85.1376,"temp":25.5,"humidity":83,"rain":0.0,"pressure":1001.4,"uv_index":8.7,"wind_gusts":45.7,"aqi":175,"pm10":68.2,"pm2_5":48.4,"no2":6.6,"co":289.0,"o3":189.0,"so2":13.6,"mosquito_risk":7,"arthritis_risk":5,"migraine_risk":4,"frizz_risk":1,"updated_at":"2026-05-04T17:21:36.040777+05:30"},{"city":"Gaya","state":"Bihar","latitude":24.7914,"longitude":85.0002,"temp":28.9,"humidity":67,"rain":0.1,"pressure":992.7,"uv_index":8.8,"wind_gusts":50.4,"aqi":177,"pm10":68.9,"pm2_5":52.7,"no2":4.2,"co":287.0,"o3":189.0,"so2":9.9,"mosquito_risk":10,"arthritis_risk":5,"migraine_risk":7,"frizz_risk":1,"updated_at":"2026-05-04T17:21:36.040784+05:30"},{"city":"Muzaffarpur","state":"Bihar","latitude":26.1209,"longitude":85.3647,"temp":24.5,"humidity":88,"rain":0.0,"pressure":1001.4,"uv_index":8.7,"wind_gusts":44.3,"aqi":158,"pm10":63.8,"pm2_5":41.6,"no2":7.0,"co":316.0,"o3":169.0,"so2":10.4,"mosquito_risk":3,"arthritis_risk":5,"migraine_risk":4,"frizz_risk":1,"updated_at":"2026-05-04T17:21:36.040790+05:30"},{"city":"Bhagalpur","state":"Bihar","latitude":25.2425,"longitude":87.0117,"temp":30.9,"humidity":59,"rain":0.0,"pressure":999.9,"uv_index":8.7,"wind_gusts":36.4,"aqi":154,"pm10":63.6,"pm2_5":46.1,"no2":7.8,"co":310.0,"o3":169.0,"so2":7.5,"mosquito_risk":0,"arthritis_risk":5,"migraine_risk":7,"frizz_risk":1,"updated_at":"2026-05-04T17:21:36.040796+05:30"},{"city":"Ranchi","state":"Jharkhand","latitude":23.3441,"longitude":85.3096,"temp":23.9,"humidity":75,"rain":0.1,"pressure":936.7,"uv_index":9.25,"wind_gusts":42.1,"aqi":192,"pm10":68.5,"pm2_5":36.4,"no2":4.0,"co":324.0,"o3":177.0,"so2":17.3,"mosquito_risk":6,"arthritis_risk":5,"migraine_risk":7,"frizz_risk":1,"updated_at":"2026-05-04T17:21:36.040802+05:30"},{"city":"Jamshedpur","state":"Jharkhand","latitude":22.8046,"longitude":86.2029,"temp":25.6,"humidity":77,"rain":0.0,"pressure":990.1,"uv_index":9.05,"wind_gusts":42.5,"aqi":187,"pm10":48.7,"pm2_5":35.7,"no2":4.8,"co":263.0,"o3":163.0,"so2":14.4,"mosquito_risk":7,"arthritis_risk":5,"migraine_risk":7,"frizz_risk":1,"updated_at":"2026-05-04T17:21:36.040808+05:30"},{"city":"Dhanbad","state":"Jharkhand","latitude":23.7957,"longitude":86.4304,"temp":25.5,"humidity":80,"rain":0.0,"pressure":979.4,"uv_index":9.0,"wind_gusts":45.0,"aqi":180,"pm10":73.8,"pm2_5":59.8,"no2":15.6,"co":307.0,"o3":187.0,"so2":36.1,"mosquito_risk":7,"arthritis_risk":5,"migraine_risk":7,"frizz_risk":1,"updated_at":"2026-05-04T17:21:36.040815+05:30"},{"city":"Bokaro","state":"Jharkhand","latitude":23.6693,"longitude":86.1511,"temp":26.7,"humidity":75,"rain":0.0,"pressure":983.4,"uv_index":9.0,"wind_gusts":35.6,"aqi":204,"pm10":79.2,"pm2_5":64.3,"no2":13.7,"co":303.0,"o3":214.0,"so2":47.1,"mosquito_risk":7,"arthritis_risk":5,"migraine_risk":7,"frizz_risk":1,"updated_at":"2026-05-04T17:21:36.040821+05:30"},{"city":"Bhubaneswar","state":"Odisha","latitude":20.2961,"longitude":85.8245,"temp":30.4,"humidity":66,"rain":0.0,"pressure":1001.0,"uv_index":9.1,"wind_gusts":43.2,"aqi":75,"pm10":28.4,"pm2_5":20.7,"no2":3.6,"co":181.0,"o3":110.0,"so2":2.9,"mosquito_risk":3,"arthritis_risk":5,"migraine_risk":4,"frizz_risk":1,"updated_at":"2026-05-04T17:21:36.040827+05:30"},{"city":"Cuttack","state":"Odisha","latitude":20.4625,"longitude":85.8828,"temp":30.8,"humidity":65,"rain":0.0,"pressure":1002.7,"uv_index":9.15,"wind_gusts":40.3,"aqi":75,"pm10":28.4,"pm2_5":20.7,"no2":3.6,"co":207.0,"o3":110.0,"so2":2.9,"mosquito_risk":3,"arthritis_risk":5,"migraine_risk":4,"frizz_risk":1,"updated_at":"2026-05-04T17:21:36.040833+05:30"},{"city":"Rourkela","state":"Odisha","latitude":22.2604,"longitude":84.8536,"temp":34.6,"humidity":35,"rain":0.0,"pressure":982.4,"uv_index":8.95,"wind_gusts":38.9,"aqi":172,"pm10":58.1,"pm2_5":32.0,"no2":3.5,"co":244.0,"o3":170.0,"so2":26.7,"mosquito_risk":0,"arthritis_risk":5,"migraine_risk":7,"frizz_risk":1,"updated_at":"2026-05-04T17:21:36.040840+05:30"},{"city":"Raipur","state":"Chhattisgarh","latitude":21.2514,"longitude":81.6296,"temp":37.0,"humidity":26,"rain":0.0,"pressure":970.5,"uv_index":9.0,"wind_gusts":55.4,"aqi":160,"pm10":62.6,"pm2_5":26.0,"no2":6.6,"co":243.0,"o3":171.0,"so2":7.3,"mosquito_risk":0,"arthritis_risk":5,"migraine_risk":10,"frizz_risk":0,"updated_at":"2026-05-04T17:21:36.040846+05:30"},{"city":"Bhilai","state":"Chhattisgarh","latitude":21.1938,"longitude":81.3509,"temp":36.2,"humidity":28,"rain":0.0,"pressure":970.7,"uv_index":9.0,"wind_gusts":43.9,"aqi":147,"pm10":55.6,"pm2_5":22.5,"no2":5.5,"co":393.0,"o3":168.0,"so2":6.5,"mosquito_risk":0,"arthritis_risk":5,"migraine_risk":10,"frizz_risk":0,"updated_at":"2026-05-04T17:21:36.040853+05:30"},{"city":"Guwahati","state":"Assam","latitude":26.1158,"longitude":91.7086,"temp":24.6,"humidity":86,"rain":0.0,"pressure":1001.6,"uv_index":8.65,"wind_gusts":32.4,"aqi":87,"pm10":34.5,"pm2_5":24.3,"no2":3.8,"co":301.0,"o3":115.0,"so2":1.7,"mosquito_risk":3,"arthritis_risk":5,"migraine_risk":4,"frizz_risk":1,"updated_at":"2026-05-04T17:21:36.040859+05:30"},{"city":"Agartala","state":"Tripura","latitude":23.8315,"longitude":91.2868,"temp":28.9,"humidity":75,"rain":0.0,"pressure":1005.9,"uv_index":8.85,"wind_gusts":33.1,"aqi":61,"pm10":43.2,"pm2_5":25.8,"no2":8.1,"co":221.0,"o3":124.0,"so2":1.8,"mosquito_risk":7,"arthritis_risk":5,"migraine_risk":4,"frizz_risk":1,"updated_at":"2026-05-04T17:21:36.040865+05:30"},{"city":"Shillong","state":"Meghalaya","latitude":25.5788,"longitude":91.8933,"temp":18.5,"humidity":81,"rain":0.1,"pressure":857.1,"uv_index":9.05,"wind_gusts":30.6,"aqi":66,"pm10":17.3,"pm2_5":13.0,"no2":3.5,"co":252.0,"o3":117.0,"so2":1.4,"mosquito_risk":6,"arthritis_risk":10,"migraine_risk":7,"frizz_risk":0,"updated_at":"2026-05-04T17:21:36.040871+05:30"},{"city":"Imphal","state":"Manipur","latitude":24.817,"longitude":93.9368,"temp":23.9,"humidity":72,"rain":0.0,"pressure":923.5,"uv_index":6.85,"wind_gusts":20.9,"aqi":94,"pm10":21.6,"pm2_5":13.3,"no2":4.6,"co":330.0,"o3":102.0,"so2":1.5,"mosquito_risk":3,"arthritis_risk":5,"migraine_risk":7,"frizz_risk":1,"updated_at":"2026-05-04T17:21:36.040877+05:30"},{"city":"Aizawl","state":"Mizoram","latitude":23.7271,"longitude":92.7176,"temp":22.1,"humidity":73,"rain":0.0,"pressure":893.1,"uv_index":8.45,"wind_gusts":29.5,"aqi":47,"pm10":35.9,"pm2_5":19.7,"no2":2.6,"co":176.0,"o3":97.0,"so2":1.1,"mosquito_risk":3,"arthritis_risk":5,"migraine_risk":7,"frizz_risk":1,"updated_at":"2026-05-04T17:21:36.040883+05:30"},{"city":"Kohima","state":"Nagaland","latitude":25.6701,"longitude":94.1077,"temp":19.0,"humidity":86,"rain":0.0,"pressure":855.6,"uv_index":8.9,"wind_gusts":26.6,"aqi":73,"pm10":23.6,"pm2_5":14.0,"no2":4.1,"co":235.0,"o3":96.0,"so2":0.9,"mosquito_risk":3,"arthritis_risk":10,"migraine_risk":7,"frizz_risk":1,"updated_at":"2026-05-04T17:21:36.040889+05:30"},{"city":"Gangtok","state":"Sikkim","latitude":27.3314,"longitude":88.6138,"temp":16.0,"humidity":94,"rain":0.0,"pressure":837.1,"uv_index":7.8,"wind_gusts":37.1,"aqi":89,"pm10":17.8,"pm2_5":12.0,"no2":3.5,"co":284.0,"o3":120.0,"so2":0.5,"mosquito_risk":3,"arthritis_risk":10,"migraine_risk":7,"frizz_risk":0,"updated_at":"2026-05-04T17:21:36.040895+05:30"},{"city":"Siliguri","state":"West Bengal","latitude":26.7271,"longitude":88.3953,"temp":27.1,"humidity":71,"rain":0.0,"pressure":992.8,"uv_index":8.55,"wind_gusts":30.6,"aqi":97,"pm10":29.7,"pm2_5":20.0,"no2":6.0,"co":610.0,"o3":124.0,"so2":1.4,"mosquito_risk":7,"arthritis_risk":5,"migraine_risk":7,"frizz_risk":1,"updated_at":"2026-05-04T17:21:39.390026+05:30"},{"city":"Durgapur","state":"West Bengal","latitude":23.5204,"longitude":87.3119,"temp":26.2,"humidity":85,"rain":0.0,"pressure":994.6,"uv_index":8.95,"wind_gusts":46.4,"aqi":128,"pm10":54.0,"pm2_5":45.2,"no2":13.9,"co":276.0,"o3":153.0,"so2":26.5,"mosquito_risk":7,"arthritis_risk":5,"migraine_risk":7,"frizz_risk":1,"updated_at":"2026-05-04T17:21:39.390057+05:30"},{"city":"Asansol","state":"West Bengal","latitude":23.6739,"longitude":86.9524,"temp":27.2,"humidity":76,"rain":0.0,"pressure":993.2,"uv_index":8.95,"wind_gusts":46.1,"aqi":142,"pm10":66.6,"pm2_5":55.3,"no2":14.9,"co":299.0,"o3":161.0,"so2":29.4,"mosquito_risk":7,"arthritis_risk":5,"migraine_risk":7,"frizz_risk":1,"updated_at":"2026-05-04T17:21:39.390080+05:30"},{"city":"Pondicherry","state":"Puducherry","latitude":11.9139,"longitude":79.8145,"temp":31.0,"humidity":78,"rain":0.0,"pressure":1004.3,"uv_index":8.4,"wind_gusts":46.8,"aqi":81,"pm10":30.0,"pm2_5":23.2,"no2":3.5,"co":203.0,"o3":142.0,"so2":3.7,"mosquito_risk":3,"arthritis_risk":5,"migraine_risk":4,"frizz_risk":1,"updated_at":"2026-05-04T17:21:39.390090+05:30"},{"city":"Port Blair","state":"Andaman and Nicobar Islands","latitude":11.6234,"longitude":92.7265,"temp":30.0,"humidity":68,"rain":0.0,"pressure":1005.8,"uv_index":9.1,"wind_gusts":34.9,"aqi":25,"pm10":8.7,"pm2_5":6.5,"no2":0.5,"co":165.0,"o3":51.0,"so2":1.3,"mosquito_risk":7,"arthritis_risk":5,"migraine_risk":4,"frizz_risk":1,"updated_at":"2026-05-04T17:21:39.390099+05:30"},{"city":"Haridwar","state":"Uttarakhand","latitude":29.9457,"longitude":78.1642,"temp":26.8,"humidity":54,"rain":0.0,"pressure":974.7,"uv_index":6.25,"wind_gusts":43.9,"aqi":113,"pm10":56.5,"pm2_5":18.8,"no2":0.7,"co":259.0,"o3":148.0,"so2":2.6,"mosquito_risk":4,"arthritis_risk":5,"migraine_risk":7,"frizz_risk":1,"updated_at":"2026-05-04T17:21:39.390107+05:30"},{"city":"Rishikesh","state":"Uttarakhand","latitude":30.0869,"longitude":78.2676,"temp":25.7,"humidity":51,"rain":0.0,"pressure":967.9,"uv_index":6.2,"wind_gusts":36.4,"aqi":110,"pm10":62.4,"pm2_5":18.2,"no2":0.6,"co":242.0,"o3":143.0,"so2":1.4,"mosquito_risk":4,"arthritis_risk":5,"migraine_risk":7,"frizz_risk":0,"updated_at":"2026-05-04T17:21:39.390116+05:30"},{"city":"Nainital","state":"Uttarakhand","latitude":29.3919,"longitude":79.4542,"temp":16.2,"humidity":52,"rain":0.0,"pressure":805.8,"uv_index":7.8,"wind_gusts":43.9,"aqi":103,"pm10":45.6,"pm2_5":16.5,"no2":0.4,"co":219.0,"o3":143.0,"so2":1.2,"mosquito_risk":0,"arthritis_risk":5,"migraine_risk":7,"frizz_risk":0,"updated_at":"2026-05-04T17:21:39.390124+05:30"},{"city":"Mussoorie","state":"Uttarakhand","latitude":30.4599,"longitude":78.0664,"temp":11.5,"humidity":83,"rain":0.0,"pressure":802.1,"uv_index":6.75,"wind_gusts":43.2,"aqi":102,"pm10":73.8,"pm2_5":22.5,"no2":1.8,"co":200.0,"o3":144.0,"so2":3.4,"mosquito_risk":3,"arthritis_risk":10,"migraine_risk":7,"frizz_risk":0,"updated_at":"2026-05-04T17:21:39.390132+05:30"},{"city":"Dharamshala","state":"Himachal Pradesh","latitude":32.219,"longitude":76.3234,"temp":17.6,"humidity":62,"rain":0.0,"pressure":868.9,"uv_index":8.1,"wind_gusts":42.1,"aqi":98,"pm10":66.1,"pm2_5":15.9,"no2":0.6,"co":210.0,"o3":141.0,"so2":1.1,"mosquito_risk":3,"arthritis_risk":5,"migraine_risk":7,"frizz_risk":0,"updated_at":"2026-05-04T17:21:39.390140+05:30"},{"city":"Dalhousie","state":"Himachal Pradesh","latitude":32.5387,"longitude":75.971,"temp":12.0,"humidity":74,"rain":0.0,"pressure":803.8,"uv_index":8.25,"wind_gusts":38.2,"aqi":97,"pm10":120.6,"pm2_5":27.5,"no2":0.8,"co":206.0,"o3":152.0,"so2":2.8,"mosquito_risk":3,"arthritis_risk":5,"migraine_risk":7,"frizz_risk":0,"updated_at":"2026-05-04T17:21:39.390148+05:30"},{"city":"Patiala","state":"Punjab","latitude":30.3398,"longitude":76.3869,"temp":27.0,"humidity":52,"rain":0.0,"pressure":978.6,"uv_index":7.4,"wind_gusts":52.6,"aqi":429,"pm10":128.5,"pm2_5":33.5,"no2":3.6,"co":301.0,"o3":150.0,"so2":5.2,"mosquito_risk":4,"arthritis_risk":5,"migraine_risk":7,"frizz_risk":1,"updated_at":"2026-05-04T17:21:39.390156+05:30"},{"city":"Bhatinda","state":"Punjab","latitude":30.211,"longitude":74.9455,"temp":32.2,"humidity":27,"rain":0.0,"pressure":982.3,"uv_index":8.0,"wind_gusts":47.5,"aqi":669,"pm10":644.5,"pm2_5":95.9,"no2":5.2,"co":272.0,"o3":150.0,"so2":12.3,"mosquito_risk":0,"arthritis_risk":5,"migraine_risk":7,"frizz_risk":0,"updated_at":"2026-05-04T17:21:39.390163+05:30"},{"city":"Rohtak","state":"Haryana","latitude":28.8955,"longitude":76.6066,"temp":31.0,"humidity":33,"rain":0.0,"pressure":980.7,"uv_index":7.5,"wind_gusts":51.1,"aqi":705,"pm10":860.5,"pm2_5":94.3,"no2":12.6,"co":312.0,"o3":166.0,"so2":21.4,"mosquito_risk":0,"arthritis_risk":5,"migraine_risk":7,"frizz_risk":0,"updated_at":"2026-05-04T17:21:39.390170+05:30"},{"city":"Panipat","state":"Haryana","latitude":29.3909,"longitude":76.9635,"temp":29.5,"humidity":41,"rain":0.0,"pressure":980.3,"uv_index":7.35,"wind_gusts":46.1,"aqi":1195,"pm10":1542.3,"pm2_5":139.2,"no2":6.5,"co":279.0,"o3":167.0,"so2":14.7,"mosquito_risk":4,"arthritis_risk":5,"migraine_risk":7,"frizz_risk":0,"updated_at":"2026-05-04T17:21:39.390178+05:30"},{"city":"Mathura","state":"Uttar Pradesh","latitude":27.4924,"longitude":77.6737,"temp":31.8,"humidity":37,"rain":0.0,"pressure":984.6,"uv_index":7.8,"wind_gusts":52.2,"aqi":963,"pm10":542.0,"pm2_5":71.7,"no2":4.1,"co":264.0,"o3":165.0,"so2":7.7,"mosquito_risk":0,"arthritis_risk":5,"migraine_risk":7,"frizz_risk":0,"updated_at":"2026-05-04T17:21:39.390185+05:30"},{"city":"Vrindavan","state":"Uttar Pradesh","latitude":27.5823,"longitude":77.7027,"temp":32.2,"humidity":35,"rain":0.0,"pressure":985.1,"uv_index":7.8,"wind_gusts":51.1,"aqi":963,"pm10":542.0,"pm2_5":71.7,"no2":4.1,"co":263.0,"o3":165.0,"so2":7.7,"mosquito_risk":0,"arthritis_risk":5,"migraine_risk":7,"frizz_risk":0,"updated_at":"2026-05-04T17:21:39.390192+05:30"},{"city":"Ayodhya","state":"Uttar Pradesh","latitude":26.7922,"longitude":82.1998,"temp":29.2,"humidity":59,"rain":0.0,"pressure":993.4,"uv_index":7.55,"wind_gusts":43.2,"aqi":131,"pm10":49.6,"pm2_5":31.5,"no2":2.2,"co":290.0,"o3":176.0,"so2":5.6,"mosquito_risk":4,"arthritis_risk":5,"migraine_risk":7,"frizz_risk":1,"updated_at":"2026-05-04T17:21:39.390200+05:30"},{"city":"Ratlam","state":"Madhya Pradesh","latitude":23.3315,"longitude":75.0367,"temp":36.5,"humidity":21,"rain":0.0,"pressure":949.7,"uv_index":8.45,"wind_gusts":34.6,"aqi":48,"pm10":54.1,"pm2_5":14.9,"no2":0.6,"co":151.0,"o3":119.0,"so2":2.8,"mosquito_risk":0,"arthritis_risk":5,"migraine_risk":10,"frizz_risk":0,"updated_at":"2026-05-04T17:21:39.390207+05:30"},{"city":"Sagar","state":"Madhya Pradesh","latitude":23.8388,"longitude":78.7378,"temp":33.4,"humidity":29,"rain":0.0,"pressure":946.4,"uv_index":8.65,"wind_gusts":43.6,"aqi":116,"pm10":21.5,"pm2_5":13.3,"no2":0.5,"co":177.0,"o3":147.0,"so2":4.9,"mosquito_risk":0,"arthritis_risk":5,"migraine_risk":7,"frizz_risk":0,"updated_at":"2026-05-04T17:21:39.390215+05:30"},{"city":"Satna","state":"Madhya Pradesh","latitude":24.6005,"longitude":80.8322,"temp":32.7,"humidity":42,"rain":0.0,"pressure":968.2,"uv_index":8.2,"wind_gusts":42.8,"aqi":149,"pm10":73.1,"pm2_5":25.5,"no2":1.5,"co":227.0,"o3":175.0,"so2":9.1,"mosquito_risk":0,"arthritis_risk":5,"migraine_risk":7,"frizz_risk":1,"updated_at":"2026-05-04T17:21:39.390223+05:30"},{"city":"Akola","state":"Maharashtra","latitude":20.7002,"longitude":77.0082,"temp":39.2,"humidity":14,"rain":0.0,"pressure":969.1,"uv_index":8.85,"wind_gusts":34.6,"aqi":72,"pm10":40.4,"pm2_5":13.1,"no2":1.6,"co":158.0,"o3":136.0,"so2":9.9,"mosquito_risk":0,"arthritis_risk":5,"migraine_risk":10,"frizz_risk":0,"updated_at":"2026-05-04T17:21:39.390232+05:30"},{"city":"Amravati","state":"Maharashtra","latitude":20.9374,"longitude":77.7796,"temp":38.8,"humidity":13,"rain":0.0,"pressure":961.9,"uv_index":8.9,"wind_gusts":36.7,"aqi":77,"pm10":43.9,"pm2_5":13.9,"no2":1.3,"co":146.0,"o3":139.0,"so2":7.2,"mosquito_risk":0,"arthritis_risk":5,"migraine_risk":10,"frizz_risk":0,"updated_at":"2026-05-04T17:21:39.390241+05:30"},{"city":"Latur","state":"Maharashtra","latitude":18.4088,"longitude":76.5604,"temp":38.2,"humidity":9,"rain":0.0,"pressure":935.5,"uv_index":9.1,"wind_gusts":37.8,"aqi":56,"pm10":42.1,"pm2_5":10.4,"no2":0.0,"co":147.0,"o3":124.0,"so2":0.9,"mosquito_risk":0,"arthritis_risk":5,"migraine_risk":10,"frizz_risk":0,"updated_at":"2026-05-04T17:21:39.390248+05:30"},{"city":"Nanded","state":"Maharashtra","latitude":19.1383,"longitude":77.3091,"temp":39.7,"humidity":11,"rain":0.0,"pressure":963.1,"uv_index":9.0,"wind_gusts":29.9,"aqi":68,"pm10":49.1,"pm2_5":14.5,"no2":0.5,"co":156.0,"o3":133.0,"so2":4.6,"mosquito_risk":0,"arthritis_risk":5,"migraine_risk":10,"frizz_risk":0,"updated_at":"2026-05-04T17:21:39.390256+05:30"},{"city":"Gulbarga","state":"Karnataka","latitude":17.3297,"longitude":76.8343,"temp":39.1,"humidity":11,"rain":0.0,"pressure":954.0,"uv_index":9.1,"wind_gusts":40.0,"aqi":58,"pm10":45.4,"pm2_5":12.2,"no2":0.0,"co":159.0,"o3":130.0,"so2":1.7,"mosquito_risk":0,"arthritis_risk":5,"migraine_risk":10,"frizz_risk":0,"updated_at":"2026-05-04T17:21:39.390263+05:30"},{"city":"Bidar","state":"Karnataka","latitude":17.9104,"longitude":77.5199,"temp":38.2,"humidity":11,"rain":0.0,"pressure":931.4,"uv_index":9.1,"wind_gusts":28.4,"aqi":80,"pm10":56.2,"pm2_5":16.1,"no2":1.0,"co":150.0,"o3":133.0,"so2":2.3,"mosquito_risk":0,"arthritis_risk":5,"migraine_risk":10,"frizz_risk":0,"updated_at":"2026-05-04T17:21:39.390270+05:30"},{"city":"Hospet","state":"Karnataka","latitude":15.2689,"longitude":76.3909,"temp":36.7,"humidity":19,"rain":0.0,"pressure":951.6,"uv_index":9.15,"wind_gusts":41.8,"aqi":57,"pm10":42.7,"pm2_5":13.7,"no2":1.2,"co":177.0,"o3":125.0,"so2":1.2,"mosquito_risk":0,"arthritis_risk":5,"migraine_risk":10,"frizz_risk":0,"updated_at":"2026-05-04T17:21:39.390277+05:30"},{"city":"Tirupur","state":"Tamil Nadu","latitude":11.1085,"longitude":77.3411,"temp":32.0,"humidity":53,"rain":0.0,"pressure":972.5,"uv_index":9.35,"wind_gusts":36.7,"aqi":83,"pm10":51.2,"pm2_5":20.6,"no2":7.0,"co":222.0,"o3":123.0,"so2":2.4,"mosquito_risk":0,"arthritis_risk":5,"migraine_risk":7,"frizz_risk":1,"updated_at":"2026-05-04T17:21:39.390285+05:30"},{"city":"Alappuzha","state":"Kerala","latitude":9.4981,"longitude":76.3388,"temp":27.4,"humidity":84,"rain":0.0,"pressure":1007.1,"uv_index":8.95,"wind_gusts":38.5,"aqi":87,"pm10":62.9,"pm2_5":23.4,"no2":3.9,"co":141.0,"o3":89.0,"so2":2.1,"mosquito_risk":7,"arthritis_risk":5,"migraine_risk":4,"frizz_risk":1,"updated_at":"2026-05-04T17:21:39.390292+05:30"},{"city":"Munnar","state":"Kerala","latitude":10.0889,"longitude":77.0595,"temp":20.1,"humidity":90,"rain":0.0,"pressure":855.9,"uv_index":7.7,"wind_gusts":28.4,"aqi":77,"pm10":37.1,"pm2_5":21.0,"no2":3.4,"co":191.0,"o3":104.0,"so2":1.3,"mosquito_risk":3,"arthritis_risk":5,"migraine_risk":7,"frizz_risk":1,"updated_at":"2026-05-04T17:21:39.390300+05:30"},{"city":"Silchar","state":"Assam","latitude":24.8333,"longitude":92.7789,"temp":27.3,"humidity":80,"rain":0.0,"pressure":1005.0,"uv_index":6.1,"wind_gusts":22.7,"aqi":95,"pm10":17.3,"pm2_5":12.3,"no2":4.1,"co":249.0,"o3":105.0,"so2":4.3,"mosquito_risk":7,"arthritis_risk":5,"migraine_risk":4,"frizz_risk":1,"updated_at":"2026-05-04T17:21:39.390307+05:30"},{"city":"Dibrugarh","state":"Assam","latitude":27.4728,"longitude":94.912,"temp":25.5,"humidity":81,"rain":0.0,"pressure":996.4,"uv_index":8.7,"wind_gusts":22.3,"aqi":90,"pm10":19.4,"pm2_5":15.7,"no2":4.8,"co":295.0,"o3":98.0,"so2":1.2,"mosquito_risk":7,"arthritis_risk":5,"migraine_risk":7,"frizz_risk":1,"updated_at":"2026-05-04T17:21:39.390315+05:30"}]