[{"city":"Delhi","state":"Delhi","latitude":28.6139,"longitude":77.209,"temp":34.7,"humidity":29,"rain":0.0,"pressure":980.5,"uv_index":7.7,"wind_gusts":39.2,"aqi":180,"pm10":351.1,"pm2_5":128.1,"no2":30.2,"co":761.0,"o3":179.0,"so2":49.4,"mosquito_risk":0,"arthritis_risk":5,"migraine_risk":7,"frizz_risk":0,"updated_at":"2026-05-15T10:22:41.214795+05:30"},{"city":"Mumbai","state":"Maharashtra","latitude":19.076,"longitude":72.8777,"temp":32.7,"humidity":62,"rain":0.0,"pressure":1006.9,"uv_index":6.6,"wind_gusts":47.5,"aqi":71,"pm10":26.0,"pm2_5":19.0,"no2":7.2,"co":247.0,"o3":85.0,"so2":6.5,"mosquito_risk":3,"arthritis_risk":5,"migraine_risk":4,"frizz_risk":1,"updated_at":"2026-05-15T10:22:41.214843+05:30"},{"city":"Bangalore","state":"Karnataka","latitude":12.9716,"longitude":77.5946,"temp":31.5,"humidity":36,"rain":0.0,"pressure":910.4,"uv_index":9.45,"wind_gusts":42.8,"aqi":108,"pm10":59.3,"pm2_5":41.7,"no2":20.6,"co":454.0,"o3":96.0,"so2":11.7,"mosquito_risk":0,"arthritis_risk":5,"migraine_risk":7,"frizz_risk":0,"updated_at":"2026-05-15T10:22:41.214859+05:30"},{"city":"Hyderabad","state":"Telangana","latitude":17.385,"longitude":78.4867,"temp":33.8,"humidity":39,"rain":0.0,"pressure":951.7,"uv_index":8.85,"wind_gusts":31.3,"aqi":108,"pm10":68.2,"pm2_5":46.0,"no2":8.6,"co":476.0,"o3":126.0,"so2":11.3,"mosquito_risk":0,"arthritis_risk":5,"migraine_risk":7,"frizz_risk":1,"updated_at":"2026-05-15T10:22:41.214868+05:30"},{"city":"Chennai","state":"Tamil Nadu","latitude":13.0827,"longitude":80.2707,"temp":31.1,"humidity":70,"rain":0.1,"pressure":1003.3,"uv_index":7.1,"wind_gusts":39.2,"aqi":37,"pm10":12.6,"pm2_5":8.1,"no2":3.4,"co":365.0,"o3":49.0,"so2":6.5,"mosquito_risk":6,"arthritis_risk":5,"migraine_risk":4,"frizz_risk":1,"updated_at":"2026-05-15T10:22:41.214877+05:30"},{"city":"Kolkata","state":"West Bengal","latitude":22.5726,"longitude":88.3639,"temp":33.8,"humidity":59,"rain":0.0,"pressure":1003.0,"uv_index":8.85,"wind_gusts":37.1,"aqi":52,"pm10":24.6,"pm2_5":14.3,"no2":2.4,"co":303.0,"o3":88.0,"so2":6.4,"mosquito_risk":0,"arthritis_risk":5,"migraine_risk":4,"frizz_risk":1,"updated_at":"2026-05-15T10:22:41.214883+05:30"},{"city":"Pune","state":"Maharashtra","latitude":18.5204,"longitude":73.8567,"temp":33.6,"humidity":32,"rain":0.0,"pressure":947.4,"uv_index":8.35,"wind_gusts":44.3,"aqi":85,"pm10":35.6,"pm2_5":22.6,"no2":8.8,"co":262.0,"o3":95.0,"so2":17.5,"mosquito_risk":0,"arthritis_risk":5,"migraine_risk":7,"frizz_risk":0,"updated_at":"2026-05-15T10:22:41.214890+05:30"},{"city":"Ahmedabad","state":"Gujarat","latitude":23.0225,"longitude":72.5714,"temp":33.8,"humidity":46,"rain":0.0,"pressure":1000.4,"uv_index":8.15,"wind_gusts":33.5,"aqi":45,"pm10":19.1,"pm2_5":10.2,"no2":3.6,"co":182.0,"o3":62.0,"so2":3.6,"mosquito_risk":0,"arthritis_risk":5,"migraine_risk":4,"frizz_risk":1,"updated_at":"2026-05-15T10:22:41.214896+05:30"},{"city":"Jaipur","state":"Rajasthan","latitude":26.9124,"longitude":75.7873,"temp":34.9,"humidity":27,"rain":0.0,"pressure":958.1,"uv_index":8.2,"wind_gusts":38.2,"aqi":116,"pm10":258.0,"pm2_5":51.5,"no2":5.0,"co":314.0,"o3":96.0,"so2":6.6,"mosquito_risk":0,"arthritis_risk":5,"migraine_risk":7,"frizz_risk":0,"updated_at":"2026-05-15T10:22:41.214924+05:30"},{"city":"Lucknow","state":"Uttar Pradesh","latitude":26.8467,"longitude":80.9462,"temp":31.8,"humidity":59,"rain":0.0,"pressure":991.2,"uv_index":8.2,"wind_gusts":43.2,"aqi":143,"pm10":73.1,"pm2_5":46.2,"no2":8.4,"co":460.0,"o3":147.0,"so2":15.9,"mosquito_risk":0,"arthritis_risk":5,"migraine_risk":7,"frizz_risk":1,"updated_at":"2026-05-15T10:22:41.214931+05:30"},{"city":"Kanpur","state":"Uttar Pradesh","latitude":26.4499,"longitude":80.3319,"temp":32.2,"humidity":58,"rain":0.0,"pressure":989.2,"uv_index":8.2,"wind_gusts":52.2,"aqi":152,"pm10":147.1,"pm2_5":48.9,"no2":6.4,"co":453.0,"o3":153.0,"so2":16.2,"mosquito_risk":0,"arthritis_risk":5,"migraine_risk":7,"frizz_risk":1,"updated_at":"2026-05-15T10:22:41.214938+05:30"},{"city":"Chandigarh","state":"Chandigarh","latitude":30.7333,"longitude":76.7794,"temp":32.0,"humidity":34,"rain":0.0,"pressure":966.3,"uv_index":7.6,"wind_gusts":35.6,"aqi":80,"pm10":46.8,"pm2_5":30.0,"no2":11.0,"co":735.0,"o3":134.0,"so2":12.8,"mosquito_risk":0,"arthritis_risk":5,"migraine_risk":7,"frizz_risk":0,"updated_at":"2026-05-15T10:22:41.214945+05:30"},{"city":"Srinagar","state":"Jammu and Kashmir","latitude":34.0837,"longitude":74.7973,"temp":18.4,"humidity":61,"rain":0.0,"pressure":842.7,"uv_index":8.05,"wind_gusts":25.2,"aqi":80,"pm10":27.9,"pm2_5":19.7,"no2":6.1,"co":550.0,"o3":97.0,"so2":3.8,"mosquito_risk":3,"arthritis_risk":5,"migraine_risk":7,"frizz_risk":0,"updated_at":"2026-05-15T10:22:41.214952+05:30"},{"city":"Jammu","state":"Jammu and Kashmir","latitude":32.7266,"longitude":74.857,"temp":30.5,"humidity":39,"rain":0.0,"pressure":970.3,"uv_index":8.45,"wind_gusts":28.1,"aqi":89,"pm10":24.4,"pm2_5":15.0,"no2":9.4,"co":374.0,"o3":95.0,"so2":3.2,"mosquito_risk":0,"arthritis_risk":5,"migraine_risk":7,"frizz_risk":0,"updated_at":"2026-05-15T10:22:41.214959+05:30"},{"city":"Amritsar","state":"Punjab","latitude":31.634,"longitude":74.8723,"temp":31.5,"humidity":39,"rain":0.0,"pressure":978.4,"uv_index":8.35,"wind_gusts":42.1,"aqi":141,"pm10":63.6,"pm2_5":44.1,"no2":12.3,"co":493.0,"o3":115.0,"so2":8.8,"mosquito_risk":0,"arthritis_risk":5,"migraine_risk":7,"frizz_risk":0,"updated_at":"2026-05-15T10:22:41.214966+05:30"},{"city":"Ludhiana","state":"Punjab","latitude":30.901,"longitude":75.8573,"temp":32.3,"humidity":34,"rain":0.0,"pressure":976.3,"uv_index":7.55,"wind_gusts":49.3,"aqi":120,"pm10":79.4,"pm2_5":48.7,"no2":11.3,"co":515.0,"o3":107.0,"so2":8.7,"mosquito_risk":0,"arthritis_risk":5,"migraine_risk":7,"frizz_risk":0,"updated_at":"2026-05-15T10:22:41.214974+05:30"},{"city":"Jalandhar","state":"Punjab","latitude":31.326,"longitude":75.5762,"temp":31.2,"humidity":40,"rain":0.0,"pressure":977.4,"uv_index":8.1,"wind_gusts":45.4,"aqi":142,"pm10":95.2,"pm2_5":52.6,"no2":9.6,"co":557.0,"o3":115.0,"so2":6.5,"mosquito_risk":0,"arthritis_risk":5,"migraine_risk":7,"frizz_risk":0,"updated_at":"2026-05-15T10:22:41.214980+05:30"},{"city":"Dehradun","state":"Uttarakhand","latitude":30.6284,"longitude":78.0322,"temp":24.8,"humidity":30,"rain":0.0,"pressure":831.4,"uv_index":7.4,"wind_gusts":34.6,"aqi":58,"pm10":16.6,"pm2_5":7.0,"no2":1.4,"co":192.0,"o3":131.0,"so2":1.1,"mosquito_risk":0,"arthritis_risk":5,"migraine_risk":7,"frizz_risk":0,"updated_at":"2026-05-15T10:22:41.215001+05:30"},{"city":"Shimla","state":"Himachal Pradesh","latitude":31.1048,"longitude":77.1734,"temp":21.2,"humidity":27,"rain":0.0,"pressure":786.2,"uv_index":8.2,"wind_gusts":44.3,"aqi":55,"pm10":39.9,"pm2_5":14.2,"no2":0.8,"co":181.0,"o3":133.0,"so2":1.9,"mosquito_risk":0,"arthritis_risk":5,"migraine_risk":7,"frizz_risk":0,"updated_at":"2026-05-15T10:22:41.215010+05:30"},{"city":"Manali","state":"Himachal Pradesh","latitude":32.2396,"longitude":77.1887,"temp":19.8,"humidity":36,"rain":0.0,"pressure":817.8,"uv_index":9.35,"wind_gusts":38.9,"aqi":41,"pm10":11.9,"pm2_5":5.2,"no2":6.1,"co":145.0,"o3":128.0,"so2":0.4,"mosquito_risk":0,"arthritis_risk":5,"migraine_risk":7,"frizz_risk":0,"updated_at":"2026-05-15T10:22:41.215016+05:30"},{"city":"Gurgaon","state":"Haryana","latitude":28.4595,"longitude":77.0266,"temp":33.7,"humidity":32,"rain":0.0,"pressure":979.1,"uv_index":7.8,"wind_gusts":36.4,"aqi":579,"pm10":566.2,"pm2_5":141.1,"no2":22.8,"co":630.0,"o3":152.0,"so2":34.2,"mosquito_risk":0,"arthritis_risk":5,"migraine_risk":7,"frizz_risk":0,"updated_at":"2026-05-15T10:22:41.215023+05:30"},{"city":"Noida","state":"Uttar Pradesh","latitude":28.5355,"longitude":77.391,"temp":32.8,"humidity":38,"rain":0.0,"pressure":982.1,"uv_index":7.7,"wind_gusts":36.4,"aqi":579,"pm10":566.2,"pm2_5":141.1,"no2":22.8,"co":733.0,"o3":152.0,"so2":34.2,"mosquito_risk":0,"arthritis_risk":5,"migraine_risk":7,"frizz_risk":1,"updated_at":"2026-05-15T10:22:41.215030+05:30"},{"city":"Ghaziabad","state":"Uttar Pradesh","latitude":28.6692,"longitude":77.4538,"temp":32.2,"humidity":41,"rain":0.0,"pressure":980.4,"uv_index":7.7,"wind_gusts":40.7,"aqi":170,"pm10":289.6,"pm2_5":103.8,"no2":14.1,"co":394.0,"o3":185.0,"so2":39.4,"mosquito_risk":0,"arthritis_risk":5,"migraine_risk":7,"frizz_risk":1,"updated_at":"2026-05-15T10:22:41.215036+05:30"},{"city":"Faridabad","state":"Haryana","latitude":28.4089,"longitude":77.3178,"temp":33.8,"humidity":30,"rain":0.0,"pressure":981.3,"uv_index":7.75,"wind_gusts":44.6,"aqi":579,"pm10":566.2,"pm2_5":141.1,"no2":22.8,"co":625.0,"o3":152.0,"so2":34.2,"mosquito_risk":0,"arthritis_risk":5,"migraine_risk":7,"frizz_risk":0,"updated_at":"2026-05-15T10:22:41.215042+05:30"},{"city":"Meerut","state":"Uttar Pradesh","latitude":28.9845,"longitude":77.7064,"temp":30.9,"humidity":45,"rain":0.0,"pressure":979.3,"uv_index":7.6,"wind_gusts":58.7,"aqi":170,"pm10":289.6,"pm2_5":103.8,"no2":14.1,"co":383.0,"o3":185.0,"so2":39.4,"mosquito_risk":0,"arthritis_risk":5,"migraine_risk":7,"frizz_risk":1,"updated_at":"2026-05-15T10:22:41.215049+05:30"},{"city":"Agra","state":"Uttar Pradesh","latitude":27.1767,"longitude":78.0081,"temp":35.1,"humidity":35,"rain":0.0,"pressure":985.0,"uv_index":8.05,"wind_gusts":31.3,"aqi":353,"pm10":434.0,"pm2_5":102.2,"no2":8.1,"co":557.0,"o3":147.0,"so2":17.1,"mosquito_risk":0,"arthritis_risk":5,"migraine_risk":10,"frizz_risk":1,"updated_at":"2026-05-15T10:22:41.215056+05:30"},{"city":"Varanasi","state":"Uttar Pradesh","latitude":25.3176,"longitude":82.9739,"temp":36.3,"humidity":43,"rain":0.0,"pressure":994.6,"uv_index":8.75,"wind_gusts":30.6,"aqi":125,"pm10":54.4,"pm2_5":39.6,"no2":7.8,"co":846.0,"o3":160.0,"so2":23.0,"mosquito_risk":0,"arthritis_risk":5,"migraine_risk":10,"frizz_risk":1,"updated_at":"2026-05-15T10:22:41.215063+05:30"},{"city":"Prayagraj","state":"Uttar Pradesh","latitude":25.4358,"longitude":81.8463,"temp":34.5,"humidity":47,"rain":0.0,"pressure":993.6,"uv_index":8.6,"wind_gusts":36.4,"aqi":129,"pm10":57.4,"pm2_5":42.3,"no2":8.5,"co":604.0,"o3":154.0,"so2":21.2,"mosquito_risk":0,"arthritis_risk":5,"migraine_risk":7,"frizz_risk":1,"updated_at":"2026-05-15T10:22:41.215077+05:30"},{"city":"Gorakhpur","state":"Uttar Pradesh","latitude":26.7606,"longitude":83.3732,"temp":31.2,"humidity":60,"rain":0.0,"pressure":995.8,"uv_index":8.6,"wind_gusts":28.8,"aqi":137,"pm10":60.3,"pm2_5":45.4,"no2":5.3,"co":516.0,"o3":147.0,"so2":14.1,"mosquito_risk":0,"arthritis_risk":5,"migraine_risk":7,"frizz_risk":1,"updated_at":"2026-05-15T10:22:41.215085+05:30"},{"city":"Bareilly","state":"Uttar Pradesh","latitude":28.367,"longitude":79.4304,"temp":31.5,"humidity":57,"rain":0.0,"pressure":984.0,"uv_index":8.0,"wind_gusts":25.9,"aqi":156,"pm10":117.1,"pm2_5":56.7,"no2":7.4,"co":550.0,"o3":156.0,"so2":15.7,"mosquito_risk":0,"arthritis_risk":5,"migraine_risk":7,"frizz_risk":1,"updated_at":"2026-05-15T10:22:41.215091+05:30"},{"city":"Aligarh","state":"Uttar Pradesh","latitude":27.8974,"longitude":78.088,"temp":32.5,"humidity":45,"rain":0.0,"pressure":982.9,"uv_index":7.85,"wind_gusts":37.1,"aqi":239,"pm10":389.3,"pm2_5":92.2,"no2":6.3,"co":530.0,"o3":148.0,"so2":18.3,"mosquito_risk":0,"arthritis_risk":5,"migraine_risk":7,"frizz_risk":1,"updated_at":"2026-05-15T10:22:41.215098+05:30"},{"city":"Moradabad","state":"Uttar Pradesh","latitude":28.8386,"longitude":78.7733,"temp":32.8,"humidity":39,"rain":0.0,"pressure":981.0,"uv_index":7.8,"wind_gusts":32.0,"aqi":170,"pm10":99.0,"pm2_5":69.4,"no2":9.1,"co":628.0,"o3":167.0,"so2":21.0,"mosquito_risk":0,"arthritis_risk":5,"migraine_risk":7,"frizz_risk":1,"updated_at":"2026-05-15T10:22:41.215104+05:30"},{"city":"Saharanpur","state":"Uttar Pradesh","latitude":29.9637,"longitude":77.546,"temp":31.5,"humidity":45,"rain":0.0,"pressure":973.0,"uv_index":7.3,"wind_gusts":31.3,"aqi":152,"pm10":69.2,"pm2_5":64.3,"no2":15.6,"co":527.0,"o3":160.0,"so2":20.4,"mosquito_risk":0,"arthritis_risk":5,"migraine_risk":7,"frizz_risk":1,"updated_at":"2026-05-15T10:22:41.215110+05:30"},{"city":"Jhansi","state":"Uttar Pradesh","latitude":25.4484,"longitude":78.5685,"temp":35.8,"humidity":36,"rain":0.0,"pressure":975.1,"uv_index":8.5,"wind_gusts":33.8,"aqi":102,"pm10":100.1,"pm2_5":41.8,"no2":3.7,"co":303.0,"o3":125.0,"so2":14.1,"mosquito_risk":0,"arthritis_risk":5,"migraine_risk":10,"frizz_risk":1,"updated_at":"2026-05-15T10:22:44.458529+05:30"},{"city":"Surat","state":"Gujarat","latitude":21.1702,"longitude":72.8311,"temp":36.0,"humidity":39,"rain":0.0,"pressure":1005.0,"uv_index":7.65,"wind_gusts":40.3,"aqi":90,"pm10":37.3,"pm2_5":31.7,"no2":30.5,"co":521.0,"o3":48.0,"so2":90.5,"mosquito_risk":0,"arthritis_risk":5,"migraine_risk":7,"frizz_risk":1,"updated_at":"2026-05-15T10:22:44.458566+05:30"},{"city":"Vadodara","state":"Gujarat","latitude":22.3072,"longitude":73.1812,"temp":35.0,"humidity":41,"rain":0.0,"pressure":1002.6,"uv_index":8.15,"wind_gusts":33.8,"aqi":60,"pm10":23.3,"pm2_5":14.2,"no2":6.2,"co":207.0,"o3":69.0,"so2":9.2,"mosquito_risk":0,"arthritis_risk":5,"migraine_risk":4,"frizz_risk":1,"updated_at":"2026-05-15T10:22:44.458575+05:30"},{"city":"Rajkot","state":"Gujarat","latitude":22.3039,"longitude":70.8022,"temp":32.7,"humidity":52,"rain":0.0,"pressure":992.8,"uv_index":7.75,"wind_gusts":48.6,"aqi":42,"pm10":17.0,"pm2_5":10.6,"no2":2.9,"co":123.0,"o3":63.0,"so2":6.2,"mosquito_risk":0,"arthritis_risk":5,"migraine_risk":7,"frizz_risk":1,"updated_at":"2026-05-15T10:22:44.458584+05:30"},{"city":"Thane","state":"Maharashtra","latitude":19.2183,"longitude":72.9781,"temp":34.7,"humidity":51,"rain":0.0,"pressure":1006.0,"uv_index":6.7,"wind_gusts":42.8,"aqi":71,"pm10":26.0,"pm2_5":19.0,"no2":7.2,"co":205.0,"o3":85.0,"so2":6.5,"mosquito_risk":0,"arthritis_risk":5,"migraine_risk":4,"frizz_risk":1,"updated_at":"2026-05-15T10:22:44.458591+05:30"},{"city":"Nagpur","state":"Maharashtra","latitude":21.1458,"longitude":79.0882,"temp":39.5,"humidity":21,"rain":0.0,"pressure":969.9,"uv_index":8.95,"wind_gusts":48.6,"aqi":131,"pm10":57.4,"pm2_5":43.0,"no2":11.2,"co":310.0,"o3":121.0,"so2":26.4,"mosquito_risk":0,"arthritis_risk":5,"migraine_risk":10,"frizz_risk":0,"updated_at":"2026-05-15T10:22:44.458599+05:30"},{"city":"Nashik","state":"Maharashtra","latitude":19.9975,"longitude":73.7898,"temp":33.5,"humidity":30,"rain":0.0,"pressure":945.2,"uv_index":7.75,"wind_gusts":42.8,"aqi":62,"pm10":23.1,"pm2_5":15.5,"no2":3.4,"co":198.0,"o3":88.0,"so2":3.2,"mosquito_risk":0,"arthritis_risk":5,"migraine_risk":7,"frizz_risk":0,"updated_at":"2026-05-15T10:22:44.458605+05:30"},{"city":"Aurangabad","state":"Maharashtra","latitude":19.8762,"longitude":75.3433,"temp":35.7,"humidity":20,"rain":0.0,"pressure":943.5,"uv_index":8.7,"wind_gusts":38.2,"aqi":74,"pm10":28.8,"pm2_5":15.9,"no2":3.9,"co":175.0,"o3":100.0,"so2":6.9,"mosquito_risk":0,"arthritis_risk":5,"migraine_risk":10,"frizz_risk":0,"updated_at":"2026-05-15T10:22:44.458613+05:30"},{"city":"Solapur","state":"Maharashtra","latitude":17.6599,"longitude":75.9064,"temp":33.8,"humidity":35,"rain":0.0,"pressure":955.8,"uv_index":6.4,"wind_gusts":34.6,"aqi":111,"pm10":41.2,"pm2_5":25.4,"no2":4.5,"co":212.0,"o3":117.0,"so2":11.4,"mosquito_risk":0,"arthritis_risk":5,"migraine_risk":7,"frizz_risk":1,"updated_at":"2026-05-15T10:22:44.458620+05:30"},{"city":"Kolhapur","state":"Maharashtra","latitude":16.705,"longitude":74.2433,"temp":32.0,"humidity":36,"rain":0.0,"pressure":947.2,"uv_index":4.6,"wind_gusts":45.0,"aqi":80,"pm10":36.9,"pm2_5":21.9,"no2":6.2,"co":257.0,"o3":88.0,"so2":5.7,"mosquito_risk":0,"arthritis_risk":5,"migraine_risk":3,"frizz_risk":0,"updated_at":"2026-05-15T10:22:44.458627+05:30"},{"city":"Goa","state":"Goa","latitude":15.2993,"longitude":74.124,"temp":33.3,"humidity":53,"rain":0.0,"pressure":995.7,"uv_index":7.85,"wind_gusts":41.8,"aqi":77,"pm10":31.5,"pm2_5":19.7,"no2":1.8,"co":209.0,"o3":83.0,"so2":2.1,"mosquito_risk":0,"arthritis_risk":5,"migraine_risk":7,"frizz_risk":1,"updated_at":"2026-05-15T10:22:44.458634+05:30"},{"city":"Jodhpur","state":"Rajasthan","latitude":26.2389,"longitude":73.0243,"temp":35.3,"humidity":26,"rain":0.0,"pressure":980.3,"uv_index":8.4,"wind_gusts":37.1,"aqi":137,"pm10":277.5,"pm2_5":58.9,"no2":2.2,"co":140.0,"o3":82.0,"so2":4.1,"mosquito_risk":0,"arthritis_risk":5,"migraine_risk":10,"frizz_risk":0,"updated_at":"2026-05-15T10:22:44.458641+05:30"},{"city":"Udaipur","state":"Rajasthan","latitude":24.5854,"longitude":73.7125,"temp":35.3,"humidity":25,"rain":0.0,"pressure":945.1,"uv_index":8.85,"wind_gusts":36.0,"aqi":58,"pm10":32.8,"pm2_5":11.6,"no2":1.3,"co":137.0,"o3":92.0,"so2":3.3,"mosquito_risk":0,"arthritis_risk":5,"migraine_risk":10,"frizz_risk":0,"updated_at":"2026-05-15T10:22:44.458648+05:30"},{"city":"Kota","state":"Rajasthan","latitude":25.2138,"longitude":75.8648,"temp":37.3,"humidity":23,"rain":0.0,"pressure":976.5,"uv_index":8.45,"wind_gusts":28.1,"aqi":81,"pm10":81.7,"pm2_5":30.0,"no2":3.6,"co":208.0,"o3":105.0,"so2":6.0,"mosquito_risk":0,"arthritis_risk":5,"migraine_risk":10,"frizz_risk":0,"updated_at":"2026-05-15T10:22:44.458655+05:30"},{"city":"Bikaner","state":"Rajasthan","latitude":28.0229,"longitude":73.3119,"temp":35.2,"humidity":29,"rain":0.0,"pressure":979.3,"uv_index":8.35,"wind_gusts":69.8,"aqi":85,"pm10":134.6,"pm2_5":51.3,"no2":1.3,"co":258.0,"o3":86.0,"so2":3.9,"mosquito_risk":0,"arthritis_risk":5,"migraine_risk":10,"frizz_risk":0,"updated_at":"2026-05-15T10:22:44.458662+05:30"},{"city":"Ajmer","state":"Rajasthan","latitude":26.4499,"longitude":74.6399,"temp":35.0,"humidity":24,"rain":0.0,"pressure":952.9,"uv_index":8.35,"wind_gusts":38.5,"aqi":78,"pm10":139.2,"pm2_5":40.7,"no2":2.1,"co":153.0,"o3":89.0,"so2":5.3,"mosquito_risk":0,"arthritis_risk":5,"migraine_risk":7,"frizz_risk":0,"updated_at":"2026-05-15T10:22:44.458669+05:30"},{"city":"Gwalior","state":"Madhya Pradesh","latitude":26.2183,"longitude":78.1828,"temp":36.2,"humidity":28,"rain":0.0,"pressure":980.4,"uv_index":8.25,"wind_gusts":36.0,"aqi":146,"pm10":161.6,"pm2_5":58.8,"no2":3.5,"co":378.0,"o3":131.0,"so2":13.0,"mosquito_risk":0,"arthritis_risk":5,"migraine_risk":10,"frizz_risk":0,"updated_at":"2026-05-15T10:22:44.458675+05:30"},{"city":"Indore","state":"Madhya Pradesh","latitude":22.7196,"longitude":75.8577,"temp":37.2,"humidity":19,"rain":0.0,"pressure":946.9,"uv_index":8.7,"wind_gusts":42.8,"aqi":69,"pm10":22.8,"pm2_5":12.8,"no2":3.0,"co":238.0,"o3":95.0,"so2":4.6,"mosquito_risk":0,"arthritis_risk":5,"migraine_risk":10,"frizz_risk":0,"updated_at":"2026-05-15T10:22:44.458681+05:30"},{"city":"Bhopal","state":"Madhya Pradesh","latitude":23.2599,"longitude":77.4126,"temp":37.5,"humidity":24,"rain":0.0,"pressure":951.3,"uv_index":8.75,"wind_gusts":37.8,"aqi":89,"pm10":32.7,"pm2_5":15.1,"no2":2.3,"co":220.0,"o3":99.0,"so2":5.6,"mosquito_risk":0,"arthritis_risk":5,"migraine_risk":10,"frizz_risk":0,"updated_at":"2026-05-15T10:22:44.458688+05:30"},{"city":"Jabalpur","state":"Madhya Pradesh","latitude":23.1815,"longitude":79.9864,"temp":38.0,"humidity":30,"rain":0.0,"pressure":958.4,"uv_index":8.9,"wind_gusts":37.1,"aqi":116,"pm10":61.7,"pm2_5":44.5,"no2":4.3,"co":254.0,"o3":135.0,"so2":18.7,"mosquito_risk":0,"arthritis_risk":5,"migraine_risk":10,"frizz_risk":1,"updated_at":"2026-05-15T10:22:44.458694+05:30"},{"city":"Ujjain","state":"Madhya Pradesh","latitude":23.1765,"longitude":75.7885,"temp":37.6,"humidity":19,"rain":0.0,"pressure":952.2,"uv_index":8.65,"wind_gusts":37.4,"aqi":65,"pm10":21.3,"pm2_5":12.3,"no2":1.9,"co":190.0,"o3":93.0,"so2":4.1,"mosquito_risk":0,"arthritis_risk":5,"migraine_risk":10,"frizz_risk":0,"updated_at":"2026-05-15T10:22:44.458702+05:30"},{"city":"Visakhapatnam","state":"Andhra Pradesh","latitude":17.6868,"longitude":83.2185,"temp":33.2,"humidity":59,"rain":0.0,"pressure":1001.0,"uv_index":7.65,"wind_gusts":34.9,"aqi":72,"pm10":42.8,"pm2_5":32.6,"no2":29.1,"co":539.0,"o3":34.0,"so2":96.8,"mosquito_risk":0,"arthritis_risk":5,"migraine_risk":4,"frizz_risk":1,"updated_at":"2026-05-15T10:22:44.458708+05:30"},{"city":"Vijayawada","state":"Andhra Pradesh","latitude":16.5062,"longitude":80.648,"temp":33.8,"humidity":58,"rain":0.0,"pressure":1000.2,"uv_index":8.85,"wind_gusts":41.0,"aqi":60,"pm10":25.8,"pm2_5":16.8,"no2":3.6,"co":181.0,"o3":72.0,"so2":8.8,"mosquito_risk":0,"arthritis_risk":5,"migraine_risk":4,"frizz_risk":1,"updated_at":"2026-05-15T10:22:44.458714+05:30"},{"city":"Guntur","state":"Andhra Pradesh","latitude":16.3067,"longitude":80.4365,"temp":34.5,"humidity":53,"rain":0.0,"pressure":1001.3,"uv_index":9.2,"wind_gusts":38.5,"aqi":63,"pm10":27.1,"pm2_5":16.7,"no2":3.6,"co":183.0,"o3":72.0,"so2":8.7,"mosquito_risk":0,"arthritis_risk":5,"migraine_risk":4,"frizz_risk":1,"updated_at":"2026-05-15T10:22:44.458720+05:30"},{"city":"Nellore","state":"Andhra Pradesh","latitude":14.4426,"longitude":79.9865,"temp":35.2,"humidity":51,"rain":0.0,"pressure":1002.4,"uv_index":8.85,"wind_gusts":37.8,"aqi":40,"pm10":18.8,"pm2_5":9.8,"no2":1.6,"co":160.0,"o3":58.0,"so2":2.7,"mosquito_risk":0,"arthritis_risk":5,"migraine_risk":7,"frizz_risk":1,"updated_at":"2026-05-15T10:22:44.458728+05:30"},{"city":"Kurnool","state":"Andhra Pradesh","latitude":15.8281,"longitude":78.0373,"temp":36.3,"humidity":38,"rain":0.0,"pressure":974.6,"uv_index":8.0,"wind_gusts":37.1,"aqi":98,"pm10":65.4,"pm2_5":44.0,"no2":5.9,"co":263.0,"o3":129.0,"so2":11.2,"mosquito_risk":0,"arthritis_risk":5,"migraine_risk":10,"frizz_risk":1,"updated_at":"2026-05-15T10:22:44.458735+05:30"},{"city":"Kakinada","state":"Andhra Pradesh","latitude":16.9891,"longitude":82.2475,"temp":33.5,"humidity":60,"rain":0.0,"pressure":1004.5,"uv_index":8.45,"wind_gusts":39.2,"aqi":38,"pm10":15.5,"pm2_5":10.2,"no2":1.4,"co":252.0,"o3":58.0,"so2":1.7,"mosquito_risk":0,"arthritis_risk":5,"migraine_risk":4,"frizz_risk":1,"updated_at":"2026-05-15T10:22:44.458742+05:30"},{"city":"Tirupati","state":"Andhra Pradesh","latitude":13.6288,"longitude":79.4192,"temp":34.7,"humidity":40,"rain":0.0,"pressure":987.7,"uv_index":8.25,"wind_gusts":40.0,"aqi":65,"pm10":28.1,"pm2_5":14.8,"no2":2.7,"co":312.0,"o3":70.0,"so2":3.7,"mosquito_risk":0,"arthritis_risk":5,"migraine_risk":7,"frizz_risk":1,"updated_at":"2026-05-15T10:22:44.458748+05:30"},{"city":"Warangal","state":"Telangana","latitude":17.9689,"longitude":79.5941,"temp":34.7,"humidity":48,"rain":0.0,"pressure":976.4,"uv_index":8.9,"wind_gusts":35.3,"aqi":89,"pm10":39.3,"pm2_5":23.7,"no2":6.0,"co":261.0,"o3":66.0,"so2":9.4,"mosquito_risk":0,"arthritis_risk":5,"migraine_risk":7,"frizz_risk":1,"updated_at":"2026-05-15T10:22:44.458755+05:30"},{"city":"Nizamabad","state":"Telangana","latitude":18.6725,"longitude":78.0941,"temp":36.9,"humidity":32,"rain":0.0,"pressure":963.0,"uv_index":9.1,"wind_gusts":33.5,"aqi":132,"pm10":107.6,"pm2_5":62.2,"no2":4.3,"co":233.0,"o3":133.0,"so2":7.9,"mosquito_risk":0,"arthritis_risk":5,"migraine_risk":10,"frizz_risk":1,"updated_at":"2026-05-15T10:22:44.458761+05:30"},{"city":"Mysore","state":"Karnataka","latitude":12.2958,"longitude":76.6396,"temp":30.5,"humidity":51,"rain":0.0,"pressure":926.9,"uv_index":8.95,"wind_gusts":34.6,"aqi":95,"pm10":44.2,"pm2_5":27.8,"no2":7.2,"co":280.0,"o3":107.0,"so2":4.7,"mosquito_risk":0,"arthritis_risk":5,"migraine_risk":7,"frizz_risk":1,"updated_at":"2026-05-15T10:22:44.458768+05:30"},{"city":"Mangalore","state":"Karnataka","latitude":12.9141,"longitude":74.856,"temp":32.9,"humidity":61,"rain":0.0,"pressure":1003.9,"uv_index":8.5,"wind_gusts":53.6,"aqi":88,"pm10":31.2,"pm2_5":18.2,"no2":4.3,"co":264.0,"o3":88.0,"so2":3.4,"mosquito_risk":3,"arthritis_risk":5,"migraine_risk":4,"frizz_risk":1,"updated_at":"2026-05-15T10:22:44.458774+05:30"},{"city":"Hubli-Dharwad","state":"Karnataka","latitude":15.3647,"longitude":75.124,"temp":33.2,"humidity":43,"rain":0.0,"pressure":939.6,"uv_index":7.0,"wind_gusts":37.8,"aqi":77,"pm10":60.5,"pm2_5":29.9,"no2":4.7,"co":249.0,"o3":107.0,"so2":4.2,"mosquito_risk":0,"arthritis_risk":5,"migraine_risk":7,"frizz_risk":1,"updated_at":"2026-05-15T10:22:44.458781+05:30"},{"city":"Belgaum","state":"Karnataka","latitude":15.8497,"longitude":74.4977,"temp":32.2,"humidity":32,"rain":0.0,"pressure":925.1,"uv_index":5.9,"wind_gusts":38.2,"aqi":79,"pm10":47.4,"pm2_5":24.3,"no2":4.4,"co":219.0,"o3":99.0,"so2":4.2,"mosquito_risk":0,"arthritis_risk":5,"migraine_risk":3,"frizz_risk":0,"updated_at":"2026-05-15T10:22:47.691089+05:30"},{"city":"Coimbatore","state":"Tamil Nadu","latitude":11.0168,"longitude":76.9558,"temp":29.8,"humidity":64,"rain":0.0,"pressure":959.1,"uv_index":8.15,"wind_gusts":42.1,"aqi":68,"pm10":41.9,"pm2_5":22.1,"no2":5.4,"co":285.0,"o3":100.0,"so2":4.5,"mosquito_risk":7,"arthritis_risk":5,"migraine_risk":7,"frizz_risk":1,"updated_at":"2026-05-15T10:22:47.691126+05:30"},{"city":"Madurai","state":"Tamil Nadu","latitude":9.9252,"longitude":78.1198,"temp":31.8,"humidity":60,"rain":0.0,"pressure":989.7,"uv_index":4.55,"wind_gusts":24.8,"aqi":104,"pm10":44.9,"pm2_5":30.9,"no2":19.0,"co":349.0,"o3":69.0,"so2":10.0,"mosquito_risk":0,"arthritis_risk":5,"migraine_risk":3,"frizz_risk":1,"updated_at":"2026-05-15T10:22:47.691137+05:30"},{"city":"Trichy","state":"Tamil Nadu","latitude":10.7905,"longitude":78.7047,"temp":30.7,"humidity":68,"rain":0.0,"pressure":996.0,"uv_index":7.7,"wind_gusts":27.0,"aqi":93,"pm10":21.9,"pm2_5":17.3,"no2":12.4,"co":254.0,"o3":66.0,"so2":6.9,"mosquito_risk":3,"arthritis_risk":5,"migraine_risk":7,"frizz_risk":1,"updated_at":"2026-05-15T10:22:47.691146+05:30"},{"city":"Salem","state":"Tamil Nadu","latitude":11.6643,"longitude":78.146,"temp":32.2,"humidity":57,"rain":0.0,"pressure":973.9,"uv_index":8.9,"wind_gusts":33.5,"aqi":114,"pm10":39.5,"pm2_5":28.7,"no2":17.2,"co":229.0,"o3":72.0,"so2":16.0,"mosquito_risk":0,"arthritis_risk":5,"migraine_risk":7,"frizz_risk":1,"updated_at":"2026-05-15T10:22:47.691155+05:30"},{"city":"Tirunelveli","state":"Tamil Nadu","latitude":8.7139,"longitude":77.7567,"temp":31.8,"humidity":59,"rain":0.0,"pressure":999.8,"uv_index":6.05,"wind_gusts":22.0,"aqi":51,"pm10":24.8,"pm2_5":13.3,"no2":5.2,"co":232.0,"o3":74.0,"so2":2.3,"mosquito_risk":0,"arthritis_risk":5,"migraine_risk":7,"frizz_risk":1,"updated_at":"2026-05-15T10:22:47.691163+05:30"},{"city":"Vellore","state":"Tamil Nadu","latitude":12.9165,"longitude":79.1325,"temp":34.0,"humidity":42,"rain":0.0,"pressure":980.8,"uv_index":8.9,"wind_gusts":34.9,"aqi":90,"pm10":49.2,"pm2_5":31.3,"no2":7.0,"co":415.0,"o3":82.0,"so2":12.3,"mosquito_risk":0,"arthritis_risk":5,"migraine_risk":7,"frizz_risk":1,"updated_at":"2026-05-15T10:22:47.691170+05:30"},{"city":"Erode","state":"Tamil Nadu","latitude":11.341,"longitude":77.7172,"temp":32.1,"humidity":58,"rain":0.0,"pressure":985.6,"uv_index":9.0,"wind_gusts":27.0,"aqi":92,"pm10":33.1,"pm2_5":20.9,"no2":13.9,"co":299.0,"o3":75.0,"so2":4.3,"mosquito_risk":0,"arthritis_risk":5,"migraine_risk":7,"frizz_risk":1,"updated_at":"2026-05-15T10:22:47.691178+05:30"},{"city":"Kochi","state":"Kerala","latitude":9.9312,"longitude":76.2673,"temp":28.6,"humidity":84,"rain":0.0,"pressure":1006.7,"uv_index":8.0,"wind_gusts":38.2,"aqi":60,"pm10":24.8,"pm2_5":17.6,"no2":15.1,"co":318.0,"o3":61.0,"so2":7.8,"mosquito_risk":7,"arthritis_risk":5,"migraine_risk":4,"frizz_risk":1,"updated_at":"2026-05-15T10:22:47.691186+05:30"},{"city":"Thiruvananthapuram","state":"Kerala","latitude":8.5241,"longitude":76.9366,"temp":27.5,"humidity":83,"rain":0.0,"pressure":1006.0,"uv_index":2.35,"wind_gusts":31.3,"aqi":56,"pm10":29.2,"pm2_5":15.3,"no2":3.0,"co":238.0,"o3":86.0,"so2":1.8,"mosquito_risk":7,"arthritis_risk":5,"migraine_risk":0,"frizz_risk":1,"updated_at":"2026-05-15T10:22:47.691193+05:30"},{"city":"Kozhikode","state":"Kerala","latitude":11.2588,"longitude":75.7804,"temp":31.1,"humidity":70,"rain":0.0,"pressure":1005.1,"uv_index":8.15,"wind_gusts":40.3,"aqi":65,"pm10":29.5,"pm2_5":15.0,"no2":1.9,"co":227.0,"o3":92.0,"so2":2.2,"mosquito_risk":3,"arthritis_risk":5,"migraine_risk":4,"frizz_risk":1,"updated_at":"2026-05-15T10:22:47.691200+05:30"},{"city":"Thrissur","state":"Kerala","latitude":10.5276,"longitude":76.2144,"temp":29.8,"humidity":75,"rain":0.1,"pressure":1004.6,"uv_index":7.1,"wind_gusts":43.6,"aqi":63,"pm10":20.2,"pm2_5":14.5,"no2":7.5,"co":305.0,"o3":75.0,"so2":4.8,"mosquito_risk":10,"arthritis_risk":5,"migraine_risk":4,"frizz_risk":1,"updated_at":"2026-05-15T10:22:47.691208+05:30"},{"city":"Kannur","state":"Kerala","latitude":11.8745,"longitude":75.3704,"temp":31.7,"humidity":67,"rain":0.0,"pressure":1004.2,"uv_index":8.5,"wind_gusts":47.9,"aqi":77,"pm10":45.4,"pm2_5":25.0,"no2":6.3,"co":273.0,"o3":84.0,"so2":4.0,"mosquito_risk":3,"arthritis_risk":5,"migraine_risk":4,"frizz_risk":1,"updated_at":"2026-05-15T10:22:47.691215+05:30"},{"city":"Patna","state":"Bihar","latitude":25.5941,"longitude":85.1376,"temp":31.8,"humidity":66,"rain":0.0,"pressure":997.5,"uv_index":8.8,"wind_gusts":28.8,"aqi":106,"pm10":47.0,"pm2_5":36.2,"no2":7.5,"co":491.0,"o3":141.0,"so2":22.6,"mosquito_risk":3,"arthritis_risk":5,"migraine_risk":7,"frizz_risk":1,"updated_at":"2026-05-15T10:22:47.691222+05:30"},{"city":"Gaya","state":"Bihar","latitude":24.7914,"longitude":85.0002,"temp":34.4,"humidity":52,"rain":0.0,"pressure":990.5,"uv_index":8.9,"wind_gusts":46.4,"aqi":110,"pm10":58.7,"pm2_5":48.0,"no2":7.5,"co":459.0,"o3":158.0,"so2":29.4,"mosquito_risk":0,"arthritis_risk":5,"migraine_risk":7,"frizz_risk":1,"updated_at":"2026-05-15T10:22:47.691229+05:30"},{"city":"Muzaffarpur","state":"Bihar","latitude":26.1209,"longitude":85.3647,"temp":30.5,"humidity":67,"rain":0.0,"pressure":997.9,"uv_index":8.8,"wind_gusts":33.8,"aqi":127,"pm10":49.9,"pm2_5":36.2,"no2":5.3,"co":401.0,"o3":143.0,"so2":15.9,"mosquito_risk":3,"arthritis_risk":5,"migraine_risk":7,"frizz_risk":1,"updated_at":"2026-05-15T10:22:47.691235+05:30"},{"city":"Bhagalpur","state":"Bihar","latitude":25.2425,"longitude":87.0117,"temp":29.6,"humidity":73,"rain":0.0,"pressure":998.7,"uv_index":8.8,"wind_gusts":31.3,"aqi":97,"pm10":37.6,"pm2_5":30.9,"no2":11.6,"co":450.0,"o3":98.0,"so2":22.6,"mosquito_risk":7,"arthritis_risk":5,"migraine_risk":7,"frizz_risk":1,"updated_at":"2026-05-15T10:22:47.691241+05:30"},{"city":"Ranchi","state":"Jharkhand","latitude":23.3441,"longitude":85.3096,"temp":31.5,"humidity":57,"rain":0.0,"pressure":936.4,"uv_index":9.2,"wind_gusts":43.6,"aqi":89,"pm10":35.6,"pm2_5":22.1,"no2":3.6,"co":254.0,"o3":105.0,"so2":11.4,"mosquito_risk":0,"arthritis_risk":5,"migraine_risk":7,"frizz_risk":1,"updated_at":"2026-05-15T10:22:47.691248+05:30"},{"city":"Jamshedpur","state":"Jharkhand","latitude":22.8046,"longitude":86.2029,"temp":34.2,"humidity":55,"rain":0.0,"pressure":987.8,"uv_index":9.15,"wind_gusts":40.0,"aqi":75,"pm10":31.5,"pm2_5":20.5,"no2":6.9,"co":308.0,"o3":95.0,"so2":24.6,"mosquito_risk":0,"arthritis_risk":5,"migraine_risk":7,"frizz_risk":1,"updated_at":"2026-05-15T10:22:47.691255+05:30"},{"city":"Dhanbad","state":"Jharkhand","latitude":23.7957,"longitude":86.4304,"temp":33.9,"humidity":57,"rain":0.0,"pressure":976.6,"uv_index":8.9,"wind_gusts":38.2,"aqi":126,"pm10":39.7,"pm2_5":29.8,"no2":17.6,"co":293.0,"o3":78.0,"so2":65.5,"mosquito_risk":0,"arthritis_risk":5,"migraine_risk":7,"frizz_risk":1,"updated_at":"2026-05-15T10:22:47.691262+05:30"},{"city":"Bokaro","state":"Jharkhand","latitude":23.6693,"longitude":86.1511,"temp":35.0,"humidity":53,"rain":0.0,"pressure":980.3,"uv_index":8.9,"wind_gusts":41.4,"aqi":124,"pm10":37.5,"pm2_5":26.7,"no2":11.3,"co":297.0,"o3":98.0,"so2":42.4,"mosquito_risk":0,"arthritis_risk":5,"migraine_risk":7,"frizz_risk":1,"updated_at":"2026-05-15T10:22:47.691269+05:30"},{"city":"Bhubaneswar","state":"Odisha","latitude":20.2961,"longitude":85.8245,"temp":34.2,"humidity":56,"rain":0.0,"pressure":1000.0,"uv_index":9.2,"wind_gusts":39.2,"aqi":36,"pm10":20.5,"pm2_5":11.4,"no2":2.1,"co":165.0,"o3":77.0,"so2":3.5,"mosquito_risk":0,"arthritis_risk":5,"migraine_risk":4,"frizz_risk":1,"updated_at":"2026-05-15T10:22:47.691276+05:30"},{"city":"Cuttack","state":"Odisha","latitude":20.4625,"longitude":85.8828,"temp":33.8,"humidity":58,"rain":0.0,"pressure":1001.7,"uv_index":9.25,"wind_gusts":40.3,"aqi":36,"pm10":20.5,"pm2_5":11.4,"no2":2.1,"co":177.0,"o3":77.0,"so2":3.5,"mosquito_risk":0,"arthritis_risk":5,"migraine_risk":4,"frizz_risk":1,"updated_at":"2026-05-15T10:22:47.691283+05:30"},{"city":"Rourkela","state":"Odisha","latitude":22.2604,"longitude":84.8536,"temp":33.8,"humidity":59,"rain":0.0,"pressure":982.6,"uv_index":9.05,"wind_gusts":41.4,"aqi":82,"pm10":34.8,"pm2_5":20.0,"no2":4.2,"co":287.0,"o3":90.0,"so2":12.6,"mosquito_risk":0,"arthritis_risk":5,"migraine_risk":7,"frizz_risk":1,"updated_at":"2026-05-15T10:22:47.691290+05:30"},{"city":"Raipur","state":"Chhattisgarh","latitude":21.2514,"longitude":81.6296,"temp":36.5,"humidity":41,"rain":0.0,"pressure":971.9,"uv_index":8.35,"wind_gusts":40.7,"aqi":152,"pm10":62.2,"pm2_5":49.2,"no2":15.8,"co":559.0,"o3":131.0,"so2":44.1,"mosquito_risk":0,"arthritis_risk":5,"migraine_risk":10,"frizz_risk":1,"updated_at":"2026-05-15T10:22:47.691296+05:30"},{"city":"Bhilai","state":"Chhattisgarh","latitude":21.1938,"longitude":81.3509,"temp":36.0,"humidity":41,"rain":0.0,"pressure":972.4,"uv_index":8.7,"wind_gusts":41.0,"aqi":142,"pm10":59.3,"pm2_5":46.3,"no2":12.9,"co":791.0,"o3":128.0,"so2":37.6,"mosquito_risk":0,"arthritis_risk":5,"migraine_risk":10,"frizz_risk":1,"updated_at":"2026-05-15T10:22:47.691303+05:30"},{"city":"Guwahati","state":"Assam","latitude":26.1158,"longitude":91.7086,"temp":28.2,"humidity":68,"rain":0.0,"pressure":999.7,"uv_index":8.75,"wind_gusts":24.1,"aqi":60,"pm10":15.8,"pm2_5":10.0,"no2":1.5,"co":278.0,"o3":124.0,"so2":4.2,"mosquito_risk":7,"arthritis_risk":5,"migraine_risk":7,"frizz_risk":1,"updated_at":"2026-05-15T10:22:47.691309+05:30"},{"city":"Agartala","state":"Tripura","latitude":23.8315,"longitude":91.2868,"temp":28.8,"humidity":80,"rain":0.0,"pressure":1004.5,"uv_index":8.5,"wind_gusts":34.2,"aqi":53,"pm10":14.0,"pm2_5":10.2,"no2":8.8,"co":207.0,"o3":50.0,"so2":2.3,"mosquito_risk":7,"arthritis_risk":5,"migraine_risk":4,"frizz_risk":1,"updated_at":"2026-05-15T10:22:47.691316+05:30"},{"city":"Shillong","state":"Meghalaya","latitude":25.5788,"longitude":91.8933,"temp":23.8,"humidity":56,"rain":0.2,"pressure":857.0,"uv_index":8.45,"wind_gusts":27.0,"aqi":48,"pm10":10.0,"pm2_5":5.5,"no2":1.7,"co":246.0,"o3":110.0,"so2":5.2,"mosquito_risk":3,"arthritis_risk":5,"migraine_risk":7,"frizz_risk":0,"updated_at":"2026-05-15T10:22:47.691322+05:30"},{"city":"Imphal","state":"Manipur","latitude":24.817,"longitude":93.9368,"temp":25.4,"humidity":75,"rain":0.2,"pressure":922.3,"uv_index":9.25,"wind_gusts":38.2,"aqi":71,"pm10":19.9,"pm2_5":10.0,"no2":0.8,"co":318.0,"o3":81.0,"so2":1.9,"mosquito_risk":10,"arthritis_risk":5,"migraine_risk":7,"frizz_risk":1,"updated_at":"2026-05-15T10:22:47.691329+05:30"},{"city":"Aizawl","state":"Mizoram","latitude":23.7271,"longitude":92.7176,"temp":25.3,"humidity":62,"rain":0.0,"pressure":892.5,"uv_index":9.15,"wind_gusts":38.5,"aqi":36,"pm10":9.7,"pm2_5":4.5,"no2":0.5,"co":122.0,"o3":59.0,"so2":0.4,"mosquito_risk":7,"arthritis_risk":5,"migraine_risk":7,"frizz_risk":1,"updated_at":"2026-05-15T10:22:47.691336+05:30"},{"city":"Kohima","state":"Nagaland","latitude":25.6701,"longitude":94.1077,"temp":19.8,"humidity":96,"rain":0.0,"pressure":854.5,"uv_index":8.65,"wind_gusts":28.1,"aqi":59,"pm10":17.2,"pm2_5":8.4,"no2":0.6,"co":237.0,"o3":87.0,"so2":1.9,"mosquito_risk":3,"arthritis_risk":10,"migraine_risk":7,"frizz_risk":1,"updated_at":"2026-05-15T10:22:47.691343+05:30"},{"city":"Gangtok","state":"Sikkim","latitude":27.3314,"longitude":88.6138,"temp":22.3,"humidity":56,"rain":0.0,"pressure":837.3,"uv_index":9.05,"wind_gusts":38.9,"aqi":63,"pm10":10.7,"pm2_5":8.9,"no2":2.0,"co":305.0,"o3":127.0,"so2":2.3,"mosquito_risk":0,"arthritis_risk":5,"migraine_risk":7,"frizz_risk":0,"updated_at":"2026-05-15T10:22:47.691349+05:30"},{"city":"Siliguri","state":"West Bengal","latitude":26.7271,"longitude":88.3953,"temp":28.9,"humidity":65,"rain":0.0,"pressure":991.2,"uv_index":8.65,"wind_gusts":23.4,"aqi":103,"pm10":38.4,"pm2_5":30.3,"no2":2.8,"co":359.0,"o3":144.0,"so2":4.0,"mosquito_risk":7,"arthritis_risk":5,"migraine_risk":7,"frizz_risk":1,"updated_at":"2026-05-15T10:22:50.932837+05:30"},{"city":"Durgapur","state":"West Bengal","latitude":23.5204,"longitude":87.3119,"temp":33.1,"humidity":65,"rain":0.0,"pressure":991.8,"uv_index":8.85,"wind_gusts":38.2,"aqi":127,"pm10":37.1,"pm2_5":28.3,"no2":18.0,"co":505.0,"o3":62.0,"so2":61.7,"mosquito_risk":3,"arthritis_risk":5,"migraine_risk":7,"frizz_risk":1,"updated_at":"2026-05-15T10:22:50.932874+05:30"},{"city":"Asansol","state":"West Bengal","latitude":23.6739,"longitude":86.9524,"temp":34.0,"humidity":60,"rain":0.0,"pressure":990.1,"uv_index":9.05,"wind_gusts":47.5,"aqi":117,"pm10":36.8,"pm2_5":27.8,"no2":17.4,"co":740.0,"o3":67.0,"so2":62.3,"mosquito_risk":0,"arthritis_risk":5,"migraine_risk":7,"frizz_risk":1,"updated_at":"2026-05-15T10:22:50.932885+05:30"},{"city":"Pondicherry","state":"Puducherry","latitude":11.9139,"longitude":79.8145,"temp":27.3,"humidity":90,"rain":0.1,"pressure":1004.5,"uv_index":7.15,"wind_gusts":31.3,"aqi":69,"pm10":37.7,"pm2_5":29.7,"no2":15.1,"co":414.0,"o3":79.0,"so2":22.8,"mosquito_risk":10,"arthritis_risk":5,"migraine_risk":4,"frizz_risk":1,"updated_at":"2026-05-15T10:22:50.932894+05:30"},{"city":"Port Blair","state":"Andaman and Nicobar Islands","latitude":11.6234,"longitude":92.7265,"temp":30.2,"humidity":76,"rain":0.0,"pressure":1005.6,"uv_index":3.5,"wind_gusts":43.2,"aqi":29,"pm10":6.8,"pm2_5":4.4,"no2":0.4,"co":143.0,"o3":72.0,"so2":0.3,"mosquito_risk":3,"arthritis_risk":5,"migraine_risk":0,"frizz_risk":1,"updated_at":"2026-05-15T10:22:50.932901+05:30"},{"city":"Haridwar","state":"Uttarakhand","latitude":29.9457,"longitude":78.1642,"temp":33.8,"humidity":38,"rain":0.0,"pressure":970.9,"uv_index":7.3,"wind_gusts":23.8,"aqi":101,"pm10":39.8,"pm2_5":33.2,"no2":3.5,"co":354.0,"o3":191.0,"so2":13.9,"mosquito_risk":0,"arthritis_risk":5,"migraine_risk":7,"frizz_risk":1,"updated_at":"2026-05-15T10:22:50.932908+05:30"},{"city":"Rishikesh","state":"Uttarakhand","latitude":30.0869,"longitude":78.2676,"temp":33.2,"humidity":36,"rain":0.0,"pressure":963.8,"uv_index":7.45,"wind_gusts":29.2,"aqi":87,"pm10":32.5,"pm2_5":21.5,"no2":0.7,"co":317.0,"o3":183.0,"so2":11.4,"mosquito_risk":0,"arthritis_risk":5,"migraine_risk":7,"frizz_risk":1,"updated_at":"2026-05-15T10:22:50.932932+05:30"},{"city":"Nainital","state":"Uttarakhand","latitude":29.3919,"longitude":79.4542,"temp":22.6,"humidity":33,"rain":0.0,"pressure":806.9,"uv_index":8.45,"wind_gusts":42.8,"aqi":133,"pm10":61.5,"pm2_5":36.3,"no2":0.3,"co":261.0,"o3":178.0,"so2":9.8,"mosquito_risk":0,"arthritis_risk":5,"migraine_risk":7,"frizz_risk":0,"updated_at":"2026-05-15T10:22:50.932939+05:30"},{"city":"Mussoorie","state":"Uttarakhand","latitude":30.4599,"longitude":78.0664,"temp":21.1,"humidity":37,"rain":0.0,"pressure":804.1,"uv_index":7.95,"wind_gusts":46.1,"aqi":88,"pm10":27.2,"pm2_5":18.1,"no2":2.4,"co":203.0,"o3":172.0,"so2":7.9,"mosquito_risk":0,"arthritis_risk":5,"migraine_risk":7,"frizz_risk":0,"updated_at":"2026-05-15T10:22:50.932946+05:30"},{"city":"Dharamshala","state":"Himachal Pradesh","latitude":32.219,"longitude":76.3234,"temp":24.5,"humidity":38,"rain":0.0,"pressure":868.7,"uv_index":8.35,"wind_gusts":45.4,"aqi":43,"pm10":29.2,"pm2_5":11.0,"no2":0.3,"co":211.0,"o3":133.0,"so2":0.9,"mosquito_risk":0,"arthritis_risk":5,"migraine_risk":7,"frizz_risk":0,"updated_at":"2026-05-15T10:22:50.932953+05:30"},{"city":"Dalhousie","state":"Himachal Pradesh","latitude":32.5387,"longitude":75.971,"temp":21.1,"humidity":37,"rain":0.1,"pressure":805.4,"uv_index":8.55,"wind_gusts":36.0,"aqi":65,"pm10":45.4,"pm2_5":18.3,"no2":2.8,"co":219.0,"o3":140.0,"so2":1.6,"mosquito_risk":3,"arthritis_risk":5,"migraine_risk":7,"frizz_risk":0,"updated_at":"2026-05-15T10:22:50.932961+05:30"},{"city":"Patiala","state":"Punjab","latitude":30.3398,"longitude":76.3869,"temp":33.2,"humidity":31,"rain":0.0,"pressure":975.7,"uv_index":7.0,"wind_gusts":42.8,"aqi":156,"pm10":326.9,"pm2_5":75.7,"no2":7.9,"co":412.0,"o3":107.0,"so2":9.3,"mosquito_risk":0,"arthritis_risk":5,"migraine_risk":7,"frizz_risk":0,"updated_at":"2026-05-15T10:22:50.932968+05:30"},{"city":"Bhatinda","state":"Punjab","latitude":30.211,"longitude":74.9455,"temp":34.3,"humidity":27,"rain":0.0,"pressure":981.4,"uv_index":8.05,"wind_gusts":67.0,"aqi":153,"pm10":115.0,"pm2_5":50.3,"no2":7.7,"co":345.0,"o3":119.0,"so2":13.5,"mosquito_risk":0,"arthritis_risk":5,"migraine_risk":7,"frizz_risk":0,"updated_at":"2026-05-15T10:22:50.932975+05:30"},{"city":"Rohtak","state":"Haryana","latitude":28.8955,"longitude":76.6066,"temp":33.4,"humidity":36,"rain":0.0,"pressure":979.3,"uv_index":7.7,"wind_gusts":37.8,"aqi":302,"pm10":379.0,"pm2_5":117.6,"no2":14.1,"co":430.0,"o3":167.0,"so2":27.0,"mosquito_risk":0,"arthritis_risk":5,"migraine_risk":7,"frizz_risk":1,"updated_at":"2026-05-15T10:22:50.932981+05:30"},{"city":"Panipat","state":"Haryana","latitude":29.3909,"longitude":76.9635,"temp":33.0,"humidity":38,"rain":0.0,"pressure":977.9,"uv_index":7.45,"wind_gusts":45.4,"aqi":416,"pm10":441.4,"pm2_5":115.3,"no2":11.4,"co":359.0,"o3":142.0,"so2":25.9,"mosquito_risk":0,"arthritis_risk":5,"migraine_risk":7,"frizz_risk":1,"updated_at":"2026-05-15T10:22:50.932989+05:30"},{"city":"Mathura","state":"Uttar Pradesh","latitude":27.4924,"longitude":77.6737,"temp":33.9,"humidity":38,"rain":0.0,"pressure":984.1,"uv_index":8.0,"wind_gusts":38.5,"aqi":349,"pm10":446.1,"pm2_5":103.6,"no2":8.4,"co":583.0,"o3":136.0,"so2":15.4,"mosquito_risk":0,"arthritis_risk":5,"migraine_risk":7,"frizz_risk":1,"updated_at":"2026-05-15T10:22:50.932996+05:30"},{"city":"Vrindavan","state":"Uttar Pradesh","latitude":27.5823,"longitude":77.7027,"temp":33.6,"humidity":39,"rain":0.0,"pressure":984.5,"uv_index":7.95,"wind_gusts":38.2,"aqi":349,"pm10":446.1,"pm2_5":103.6,"no2":8.4,"co":569.0,"o3":136.0,"so2":15.4,"mosquito_risk":0,"arthritis_risk":5,"migraine_risk":7,"frizz_risk":1,"updated_at":"2026-05-15T10:22:50.933003+05:30"},{"city":"Ayodhya","state":"Uttar Pradesh","latitude":26.7922,"longitude":82.1998,"temp":31.0,"humidity":62,"rain":0.0,"pressure":993.4,"uv_index":8.35,"wind_gusts":19.8,"aqi":150,"pm10":63.1,"pm2_5":48.1,"no2":6.5,"co":512.0,"o3":153.0,"so2":16.2,"mosquito_risk":3,"arthritis_risk":5,"migraine_risk":7,"frizz_risk":1,"updated_at":"2026-05-15T10:22:50.933010+05:30"},{"city":"Ratlam","state":"Madhya Pradesh","latitude":23.3315,"longitude":75.0367,"temp":36.0,"humidity":23,"rain":0.0,"pressure":953.5,"uv_index":8.55,"wind_gusts":39.6,"aqi":65,"pm10":19.4,"pm2_5":12.2,"no2":1.7,"co":148.0,"o3":91.0,"so2":3.9,"mosquito_risk":0,"arthritis_risk":5,"migraine_risk":10,"frizz_risk":0,"updated_at":"2026-05-15T10:22:50.933016+05:30"},{"city":"Sagar","state":"Madhya Pradesh","latitude":23.8388,"longitude":78.7378,"temp":37.8,"humidity":24,"rain":0.0,"pressure":947.8,"uv_index":8.75,"wind_gusts":33.5,"aqi":86,"pm10":71.9,"pm2_5":33.1,"no2":4.0,"co":239.0,"o3":123.0,"so2":8.7,"mosquito_risk":0,"arthritis_risk":5,"migraine_risk":10,"frizz_risk":0,"updated_at":"2026-05-15T10:22:50.933023+05:30"},{"city":"Satna","state":"Madhya Pradesh","latitude":24.6005,"longitude":80.8322,"temp":38.7,"humidity":25,"rain":0.0,"pressure":968.3,"uv_index":8.8,"wind_gusts":40.0,"aqi":103,"pm10":94.8,"pm2_5":40.4,"no2":4.2,"co":367.0,"o3":148.0,"so2":18.9,"mosquito_risk":0,"arthritis_risk":5,"migraine_risk":10,"frizz_risk":0,"updated_at":"2026-05-15T10:22:50.933029+05:30"},{"city":"Akola","state":"Maharashtra","latitude":20.7002,"longitude":77.0082,"temp":37.8,"humidity":27,"rain":0.0,"pressure":972.9,"uv_index":8.9,"wind_gusts":40.3,"aqi":89,"pm10":33.8,"pm2_5":21.7,"no2":4.6,"co":186.0,"o3":122.0,"so2":15.7,"mosquito_risk":0,"arthritis_risk":5,"migraine_risk":10,"frizz_risk":0,"updated_at":"2026-05-15T10:22:50.933037+05:30"},{"city":"Amravati","state":"Maharashtra","latitude":20.9374,"longitude":77.7796,"temp":38.0,"humidity":23,"rain":0.0,"pressure":964.8,"uv_index":8.95,"wind_gusts":47.5,"aqi":98,"pm10":35.0,"pm2_5":22.5,"no2":4.9,"co":221.0,"o3":127.0,"so2":16.9,"mosquito_risk":0,"arthritis_risk":5,"migraine_risk":10,"frizz_risk":0,"updated_at":"2026-05-15T10:22:50.933046+05:30"},{"city":"Latur","state":"Maharashtra","latitude":18.4088,"longitude":76.5604,"temp":36.0,"humidity":25,"rain":0.0,"pressure":939.1,"uv_index":8.3,"wind_gusts":38.5,"aqi":118,"pm10":44.2,"pm2_5":27.4,"no2":4.8,"co":224.0,"o3":115.0,"so2":10.6,"mosquito_risk":0,"arthritis_risk":5,"migraine_risk":10,"frizz_risk":0,"updated_at":"2026-05-15T10:22:50.933052+05:30"},{"city":"Nanded","state":"Maharashtra","latitude":19.1383,"longitude":77.3091,"temp":37.5,"humidity":27,"rain":0.0,"pressure":966.7,"uv_index":9.05,"wind_gusts":36.0,"aqi":134,"pm10":54.4,"pm2_5":33.4,"no2":4.3,"co":241.0,"o3":131.0,"so2":8.2,"mosquito_risk":0,"arthritis_risk":5,"migraine_risk":10,"frizz_risk":0,"updated_at":"2026-05-15T10:22:50.933059+05:30"},{"city":"Gulbarga","state":"Karnataka","latitude":17.3297,"longitude":76.8343,"temp":36.0,"humidity":36,"rain":0.0,"pressure":956.9,"uv_index":8.6,"wind_gusts":38.5,"aqi":116,"pm10":65.0,"pm2_5":40.0,"no2":6.1,"co":250.0,"o3":117.0,"so2":7.9,"mosquito_risk":0,"arthritis_risk":5,"migraine_risk":10,"frizz_risk":1,"updated_at":"2026-05-15T10:22:50.933065+05:30"},{"city":"Bidar","state":"Karnataka","latitude":17.9104,"longitude":77.5199,"temp":35.0,"humidity":34,"rain":0.0,"pressure":934.5,"uv_index":7.8,"wind_gusts":34.9,"aqi":128,"pm10":85.4,"pm2_5":50.4,"no2":5.4,"co":246.0,"o3":126.0,"so2":6.1,"mosquito_risk":0,"arthritis_risk":5,"migraine_risk":7,"frizz_risk":1,"updated_at":"2026-05-15T10:22:50.933072+05:30"},{"city":"Hospet","state":"Karnataka","latitude":15.2689,"longitude":76.3909,"temp":31.5,"humidity":65,"rain":0.0,"pressure":954.3,"uv_index":8.35,"wind_gusts":51.1,"aqi":94,"pm10":53.2,"pm2_5":29.6,"no2":5.2,"co":243.0,"o3":115.0,"so2":5.3,"mosquito_risk":3,"arthritis_risk":5,"migraine_risk":7,"frizz_risk":1,"updated_at":"2026-05-15T10:22:50.933078+05:30"},{"city":"Tirupur","state":"Tamil Nadu","latitude":11.1085,"longitude":77.3411,"temp":32.7,"humidity":51,"rain":0.0,"pressure":972.2,"uv_index":8.75,"wind_gusts":33.1,"aqi":85,"pm10":39.5,"pm2_5":24.7,"no2":13.4,"co":261.0,"o3":85.0,"so2":5.1,"mosquito_risk":0,"arthritis_risk":5,"migraine_risk":7,"frizz_risk":1,"updated_at":"2026-05-15T10:22:50.933085+05:30"},{"city":"Alappuzha","state":"Kerala","latitude":9.4981,"longitude":76.3388,"temp":27.4,"humidity":88,"rain":0.1,"pressure":1006.9,"uv_index":6.7,"wind_gusts":35.3,"aqi":57,"pm10":25.1,"pm2_5":14.8,"no2":10.8,"co":278.0,"o3":77.0,"so2":6.1,"mosquito_risk":10,"arthritis_risk":5,"migraine_risk":4,"frizz_risk":1,"updated_at":"2026-05-15T10:22:50.933091+05:30"},{"city":"Munnar","state":"Kerala","latitude":10.0889,"longitude":77.0595,"temp":21.2,"humidity":83,"rain":0.0,"pressure":855.6,"uv_index":7.6,"wind_gusts":33.1,"aqi":55,"pm10":17.1,"pm2_5":9.2,"no2":3.7,"co":230.0,"o3":73.0,"so2":1.4,"mosquito_risk":3,"arthritis_risk":5,"migraine_risk":7,"frizz_risk":1,"updated_at":"2026-05-15T10:22:50.933098+05:30"},{"city":"Silchar","state":"Assam","latitude":24.8333,"longitude":92.7789,"temp":25.3,"humidity":88,"rain":0.1,"pressure":1005.0,"uv_index":8.95,"wind_gusts":26.3,"aqi":81,"pm10":11.0,"pm2_5":7.3,"no2":1.4,"co":229.0,"o3":73.0,"so2":2.4,"mosquito_risk":10,"arthritis_risk":5,"migraine_risk":4,"frizz_risk":1,"updated_at":"2026-05-15T10:22:50.933104+05:30"},{"city":"Dibrugarh","state":"Assam","latitude":27.4728,"longitude":94.912,"temp":24.8,"humidity":81,"rain":0.1,"pressure":995.1,"uv_index":7.2,"wind_gusts":32.8,"aqi":127,"pm10":32.1,"pm2_5":26.3,"no2":3.8,"co":230.0,"o3":108.0,"so2":1.9,"mosquito_risk":6,"arthritis_risk":5,"migraine_risk":7,"frizz_risk":1,"updated_at":"2026-05-15T10:22:50.933111+05:30"}]