[{"city":"Delhi","state":"Delhi","latitude":28.6139,"longitude":77.209,"temp":28.6,"humidity":40,"rain":0.0,"pressure":988.5,"uv_index":7.15,"wind_gusts":33.8,"aqi":767,"pm10":421.9,"pm2_5":70.1,"mosquito_risk":4,"arthritis_risk":5,"migraine_risk":7,"frizz_risk":0,"updated_at":"2026-04-11T11:35:48.071889+05:30"},{"city":"Mumbai","state":"Maharashtra","latitude":19.076,"longitude":72.8777,"temp":28.2,"humidity":85,"rain":0.0,"pressure":1011.3,"uv_index":7.95,"wind_gusts":24.1,"aqi":108,"pm10":84.5,"pm2_5":54.0,"mosquito_risk":7,"arthritis_risk":0,"migraine_risk":4,"frizz_risk":1,"updated_at":"2026-04-11T11:35:48.071933+05:30"},{"city":"Bangalore","state":"Karnataka","latitude":12.9716,"longitude":77.5946,"temp":30.9,"humidity":49,"rain":0.0,"pressure":915.8,"uv_index":9.65,"wind_gusts":27.4,"aqi":86,"pm10":38.1,"pm2_5":25.8,"mosquito_risk":0,"arthritis_risk":5,"migraine_risk":7,"frizz_risk":1,"updated_at":"2026-04-11T11:35:48.071948+05:30"},{"city":"Hyderabad","state":"Telangana","latitude":17.385,"longitude":78.4867,"temp":36.8,"humidity":29,"rain":0.0,"pressure":957.3,"uv_index":9.2,"wind_gusts":19.1,"aqi":103,"pm10":36.4,"pm2_5":25.4,"mosquito_risk":0,"arthritis_risk":5,"migraine_risk":10,"frizz_risk":0,"updated_at":"2026-04-11T11:35:48.071979+05:30"},{"city":"Chennai","state":"Tamil Nadu","latitude":13.0827,"longitude":80.2707,"temp":35.2,"humidity":50,"rain":0.0,"pressure":1010.1,"uv_index":9.15,"wind_gusts":36.4,"aqi":58,"pm10":24.0,"pm2_5":16.6,"mosquito_risk":0,"arthritis_risk":0,"migraine_risk":7,"frizz_risk":1,"updated_at":"2026-04-11T11:35:48.071990+05:30"},{"city":"Kolkata","state":"West Bengal","latitude":22.5726,"longitude":88.3639,"temp":31.9,"humidity":57,"rain":0.0,"pressure":1009.5,"uv_index":8.75,"wind_gusts":20.2,"aqi":140,"pm10":63.1,"pm2_5":45.3,"mosquito_risk":0,"arthritis_risk":0,"migraine_risk":4,"frizz_risk":1,"updated_at":"2026-04-11T11:35:48.072000+05:30"},{"city":"Pune","state":"Maharashtra","latitude":18.5204,"longitude":73.8567,"temp":36.2,"humidity":28,"rain":0.0,"pressure":952.6,"uv_index":8.55,"wind_gusts":39.6,"aqi":97,"pm10":35.6,"pm2_5":20.9,"mosquito_risk":0,"arthritis_risk":5,"migraine_risk":10,"frizz_risk":0,"updated_at":"2026-04-11T11:35:48.072012+05:30"},{"city":"Ahmedabad","state":"Gujarat","latitude":23.0225,"longitude":72.5714,"temp":36.2,"humidity":21,"rain":0.0,"pressure":1006.9,"uv_index":8.05,"wind_gusts":18.4,"aqi":73,"pm10":32.2,"pm2_5":17.7,"mosquito_risk":0,"arthritis_risk":5,"migraine_risk":7,"frizz_risk":0,"updated_at":"2026-04-11T11:35:48.072020+05:30"},{"city":"Jaipur","state":"Rajasthan","latitude":26.9124,"longitude":75.7873,"temp":32.2,"humidity":26,"rain":0.0,"pressure":965.0,"uv_index":7.85,"wind_gusts":37.4,"aqi":98,"pm10":148.1,"pm2_5":25.8,"mosquito_risk":0,"arthritis_risk":5,"migraine_risk":7,"frizz_risk":0,"updated_at":"2026-04-11T11:35:48.072028+05:30"},{"city":"Lucknow","state":"Uttar Pradesh","latitude":26.8467,"longitude":80.9462,"temp":32.3,"humidity":28,"rain":0.0,"pressure":997.2,"uv_index":7.65,"wind_gusts":46.1,"aqi":251,"pm10":202.1,"pm2_5":51.5,"mosquito_risk":0,"arthritis_risk":5,"migraine_risk":7,"frizz_risk":0,"updated_at":"2026-04-11T11:35:48.072043+05:30"},{"city":"Kanpur","state":"Uttar Pradesh","latitude":26.4499,"longitude":80.3319,"temp":30.8,"humidity":38,"rain":0.0,"pressure":996.4,"uv_index":7.65,"wind_gusts":40.7,"aqi":608,"pm10":553.2,"pm2_5":82.7,"mosquito_risk":0,"arthritis_risk":5,"migraine_risk":7,"frizz_risk":0,"updated_at":"2026-04-11T11:35:48.072050+05:30"},{"city":"Chandigarh","state":"Chandigarh","latitude":30.7333,"longitude":76.7794,"temp":29.1,"humidity":33,"rain":0.0,"pressure":973.4,"uv_index":7.15,"wind_gusts":33.8,"aqi":49,"pm10":43.8,"pm2_5":14.9,"mosquito_risk":4,"arthritis_risk":5,"migraine_risk":7,"frizz_risk":0,"updated_at":"2026-04-11T11:35:48.072057+05:30"},{"city":"Srinagar","state":"Jammu and Kashmir","latitude":34.0837,"longitude":74.7973,"temp":12.8,"humidity":73,"rain":0.1,"pressure":843.2,"uv_index":7.45,"wind_gusts":18.0,"aqi":85,"pm10":46.7,"pm2_5":14.1,"mosquito_risk":6,"arthritis_risk":5,"migraine_risk":7,"frizz_risk":0,"updated_at":"2026-04-11T11:35:48.072065+05:30"},{"city":"Jammu","state":"Jammu and Kashmir","latitude":32.7266,"longitude":74.857,"temp":24.4,"humidity":59,"rain":0.0,"pressure":977.7,"uv_index":6.65,"wind_gusts":17.6,"aqi":62,"pm10":76.4,"pm2_5":17.9,"mosquito_risk":0,"arthritis_risk":5,"migraine_risk":7,"frizz_risk":0,"updated_at":"2026-04-11T11:35:48.072072+05:30"},{"city":"Amritsar","state":"Punjab","latitude":31.634,"longitude":74.8723,"temp":26.9,"humidity":49,"rain":0.0,"pressure":985.8,"uv_index":7.7,"wind_gusts":20.9,"aqi":56,"pm10":85.9,"pm2_5":23.7,"mosquito_risk":4,"arthritis_risk":5,"migraine_risk":7,"frizz_risk":0,"updated_at":"2026-04-11T11:35:48.072078+05:30"},{"city":"Ludhiana","state":"Punjab","latitude":30.901,"longitude":75.8573,"temp":28.8,"humidity":33,"rain":0.0,"pressure":983.6,"uv_index":7.35,"wind_gusts":33.8,"aqi":57,"pm10":56.5,"pm2_5":18.3,"mosquito_risk":4,"arthritis_risk":5,"migraine_risk":7,"frizz_risk":0,"updated_at":"2026-04-11T11:35:48.072085+05:30"},{"city":"Jalandhar","state":"Punjab","latitude":31.326,"longitude":75.5762,"temp":27.6,"humidity":38,"rain":0.0,"pressure":984.8,"uv_index":7.5,"wind_gusts":27.0,"aqi":59,"pm10":79.9,"pm2_5":22.3,"mosquito_risk":4,"arthritis_risk":5,"migraine_risk":7,"frizz_risk":0,"updated_at":"2026-04-11T11:35:48.072093+05:30"},{"city":"Dehradun","state":"Uttarakhand","latitude":30.6284,"longitude":78.0322,"temp":19.9,"humidity":41,"rain":0.0,"pressure":833.7,"uv_index":7.5,"wind_gusts":48.6,"aqi":45,"pm10":41.1,"pm2_5":8.9,"mosquito_risk":0,"arthritis_risk":5,"migraine_risk":7,"frizz_risk":0,"updated_at":"2026-04-11T11:35:48.072100+05:30"},{"city":"Shimla","state":"Himachal Pradesh","latitude":31.1048,"longitude":77.1734,"temp":17.4,"humidity":46,"rain":0.0,"pressure":788.4,"uv_index":7.5,"wind_gusts":46.1,"aqi":57,"pm10":44.0,"pm2_5":11.2,"mosquito_risk":0,"arthritis_risk":5,"migraine_risk":7,"frizz_risk":0,"updated_at":"2026-04-11T11:35:48.072107+05:30"},{"city":"Manali","state":"Himachal Pradesh","latitude":32.2396,"longitude":77.1887,"temp":15.8,"humidity":54,"rain":0.0,"pressure":822.1,"uv_index":9.1,"wind_gusts":33.1,"aqi":97,"pm10":29.2,"pm2_5":8.3,"mosquito_risk":0,"arthritis_risk":5,"migraine_risk":7,"frizz_risk":0,"updated_at":"2026-04-11T11:35:48.072113+05:30"},{"city":"Gurgaon","state":"Haryana","latitude":28.4595,"longitude":77.0266,"temp":27.9,"humidity":44,"rain":0.0,"pressure":987.1,"uv_index":7.3,"wind_gusts":26.3,"aqi":1980,"pm10":1344.8,"pm2_5":146.2,"mosquito_risk":4,"arthritis_risk":5,"migraine_risk":7,"frizz_risk":0,"updated_at":"2026-04-11T11:35:48.072120+05:30"},{"city":"Noida","state":"Uttar Pradesh","latitude":28.5355,"longitude":77.391,"temp":29.2,"humidity":38,"rain":0.0,"pressure":989.9,"uv_index":7.2,"wind_gusts":33.5,"aqi":1980,"pm10":1344.8,"pm2_5":146.2,"mosquito_risk":4,"arthritis_risk":5,"migraine_risk":7,"frizz_risk":0,"updated_at":"2026-04-11T11:35:48.072126+05:30"},{"city":"Ghaziabad","state":"Uttar Pradesh","latitude":28.6692,"longitude":77.4538,"temp":28.5,"humidity":42,"rain":0.0,"pressure":988.0,"uv_index":7.15,"wind_gusts":32.4,"aqi":581,"pm10":341.8,"pm2_5":61.7,"mosquito_risk":4,"arthritis_risk":5,"migraine_risk":7,"frizz_risk":0,"updated_at":"2026-04-11T11:35:48.072133+05:30"},{"city":"Faridabad","state":"Haryana","latitude":28.4089,"longitude":77.3178,"temp":29.1,"humidity":38,"rain":0.0,"pressure":989.2,"uv_index":7.25,"wind_gusts":33.1,"aqi":1980,"pm10":1344.8,"pm2_5":146.2,"mosquito_risk":4,"arthritis_risk":5,"migraine_risk":7,"frizz_risk":0,"updated_at":"2026-04-11T11:35:48.072139+05:30"},{"city":"Meerut","state":"Uttar Pradesh","latitude":28.9845,"longitude":77.7064,"temp":28.9,"humidity":38,"rain":0.0,"pressure":986.3,"uv_index":7.05,"wind_gusts":33.5,"aqi":581,"pm10":341.8,"pm2_5":61.7,"mosquito_risk":4,"arthritis_risk":5,"migraine_risk":7,"frizz_risk":0,"updated_at":"2026-04-11T11:35:48.072146+05:30"},{"city":"Agra","state":"Uttar Pradesh","latitude":27.1767,"longitude":78.0081,"temp":31.8,"humidity":33,"rain":0.0,"pressure":993.4,"uv_index":7.55,"wind_gusts":29.9,"aqi":1270,"pm10":817.7,"pm2_5":104.8,"mosquito_risk":0,"arthritis_risk":5,"migraine_risk":7,"frizz_risk":0,"updated_at":"2026-04-11T11:35:48.072152+05:30"},{"city":"Varanasi","state":"Uttar Pradesh","latitude":25.3176,"longitude":82.9739,"temp":33.7,"humidity":25,"rain":0.0,"pressure":1001.5,"uv_index":8.3,"wind_gusts":41.4,"aqi":98,"pm10":191.9,"pm2_5":43.3,"mosquito_risk":0,"arthritis_risk":5,"migraine_risk":4,"frizz_risk":0,"updated_at":"2026-04-11T11:35:48.072161+05:30"},{"city":"Prayagraj","state":"Uttar Pradesh","latitude":25.4358,"longitude":81.8463,"temp":33.2,"humidity":27,"rain":0.0,"pressure":1000.7,"uv_index":8.15,"wind_gusts":43.9,"aqi":124,"pm10":191.4,"pm2_5":48.1,"mosquito_risk":0,"arthritis_risk":5,"migraine_risk":4,"frizz_risk":0,"updated_at":"2026-04-11T11:35:48.072168+05:30"},{"city":"Gorakhpur","state":"Uttar Pradesh","latitude":26.7606,"longitude":83.3732,"temp":31.8,"humidity":30,"rain":0.0,"pressure":1000.3,"uv_index":8.1,"wind_gusts":34.9,"aqi":101,"pm10":168.1,"pm2_5":51.1,"mosquito_risk":0,"arthritis_risk":5,"migraine_risk":4,"frizz_risk":0,"updated_at":"2026-04-11T11:35:48.072174+05:30"},{"city":"Bareilly","state":"Uttar Pradesh","latitude":28.367,"longitude":79.4304,"temp":30.2,"humidity":36,"rain":0.0,"pressure":990.9,"uv_index":7.45,"wind_gusts":50.0,"aqi":90,"pm10":33.5,"pm2_5":14.5,"mosquito_risk":0,"arthritis_risk":5,"migraine_risk":7,"frizz_risk":0,"updated_at":"2026-04-11T11:35:48.072180+05:30"},{"city":"Aligarh","state":"Uttar Pradesh","latitude":27.8974,"longitude":78.088,"temp":31.8,"humidity":31,"rain":0.0,"pressure":990.7,"uv_index":7.35,"wind_gusts":38.9,"aqi":1259,"pm10":897.8,"pm2_5":109.9,"mosquito_risk":0,"arthritis_risk":5,"migraine_risk":7,"frizz_risk":0,"updated_at":"2026-04-11T11:35:48.072186+05:30"},{"city":"Moradabad","state":"Uttar Pradesh","latitude":28.8386,"longitude":78.7733,"temp":29.7,"humidity":38,"rain":0.0,"pressure":987.9,"uv_index":7.25,"wind_gusts":42.5,"aqi":103,"pm10":48.7,"pm2_5":17.7,"mosquito_risk":4,"arthritis_risk":5,"migraine_risk":7,"frizz_risk":0,"updated_at":"2026-04-11T11:35:48.072193+05:30"},{"city":"Saharanpur","state":"Uttar Pradesh","latitude":29.9637,"longitude":77.546,"temp":30.0,"humidity":34,"rain":0.0,"pressure":979.9,"uv_index":6.85,"wind_gusts":40.7,"aqi":70,"pm10":68.9,"pm2_5":20.0,"mosquito_risk":4,"arthritis_risk":5,"migraine_risk":7,"frizz_risk":0,"updated_at":"2026-04-11T11:35:48.072199+05:30"},{"city":"Jhansi","state":"Uttar Pradesh","latitude":25.4484,"longitude":78.5685,"temp":33.3,"humidity":28,"rain":0.0,"pressure":983.4,"uv_index":8.1,"wind_gusts":28.8,"aqi":59,"pm10":163.0,"pm2_5":30.4,"mosquito_risk":0,"arthritis_risk":5,"migraine_risk":7,"frizz_risk":0,"updated_at":"2026-04-11T11:35:51.328363+05:30"},{"city":"Surat","state":"Gujarat","latitude":21.1702,"longitude":72.8311,"temp":33.8,"humidity":38,"rain":0.0,"pressure":1010.4,"uv_index":7.8,"wind_gusts":28.4,"aqi":113,"pm10":75.2,"pm2_5":68.5,"mosquito_risk":0,"arthritis_risk":0,"migraine_risk":4,"frizz_risk":1,"updated_at":"2026-04-11T11:35:51.328397+05:30"},{"city":"Vadodara","state":"Gujarat","latitude":22.3072,"longitude":73.1812,"temp":35.8,"humidity":27,"rain":0.0,"pressure":1008.6,"uv_index":8.05,"wind_gusts":16.6,"aqi":55,"pm10":24.0,"pm2_5":13.2,"mosquito_risk":0,"arthritis_risk":0,"migraine_risk":7,"frizz_risk":0,"updated_at":"2026-04-11T11:35:51.328410+05:30"},{"city":"Rajkot","state":"Gujarat","latitude":22.3039,"longitude":70.8022,"temp":34.0,"humidity":36,"rain":0.0,"pressure":999.5,"uv_index":7.75,"wind_gusts":31.7,"aqi":71,"pm10":47.4,"pm2_5":22.1,"mosquito_risk":0,"arthritis_risk":5,"migraine_risk":7,"frizz_risk":1,"updated_at":"2026-04-11T11:35:51.328422+05:30"},{"city":"Thane","state":"Maharashtra","latitude":19.2183,"longitude":72.9781,"temp":34.6,"humidity":49,"rain":0.0,"pressure":1010.7,"uv_index":7.95,"wind_gusts":37.8,"aqi":108,"pm10":84.5,"pm2_5":54.0,"mosquito_risk":0,"arthritis_risk":0,"migraine_risk":4,"frizz_risk":1,"updated_at":"2026-04-11T11:35:51.328431+05:30"},{"city":"Nagpur","state":"Maharashtra","latitude":21.1458,"longitude":79.0882,"temp":33.4,"humidity":29,"rain":0.0,"pressure":978.4,"uv_index":8.75,"wind_gusts":22.7,"aqi":63,"pm10":42.6,"pm2_5":14.0,"mosquito_risk":0,"arthritis_risk":5,"migraine_risk":7,"frizz_risk":0,"updated_at":"2026-04-11T11:35:51.328442+05:30"},{"city":"Nashik","state":"Maharashtra","latitude":19.9975,"longitude":73.7898,"temp":33.8,"humidity":26,"rain":0.0,"pressure":949.8,"uv_index":8.25,"wind_gusts":37.8,"aqi":109,"pm10":38.2,"pm2_5":26.1,"mosquito_risk":0,"arthritis_risk":5,"migraine_risk":7,"frizz_risk":0,"updated_at":"2026-04-11T11:35:51.328452+05:30"},{"city":"Aurangabad","state":"Maharashtra","latitude":19.8762,"longitude":75.3433,"temp":35.6,"humidity":20,"rain":0.0,"pressure":948.8,"uv_index":8.9,"wind_gusts":29.5,"aqi":72,"pm10":24.2,"pm2_5":14.0,"mosquito_risk":0,"arthritis_risk":5,"migraine_risk":10,"frizz_risk":0,"updated_at":"2026-04-11T11:35:51.328462+05:30"},{"city":"Solapur","state":"Maharashtra","latitude":17.6599,"longitude":75.9064,"temp":37.7,"humidity":25,"rain":0.0,"pressure":960.9,"uv_index":9.0,"wind_gusts":18.7,"aqi":66,"pm10":29.0,"pm2_5":18.1,"mosquito_risk":0,"arthritis_risk":5,"migraine_risk":10,"frizz_risk":0,"updated_at":"2026-04-11T11:35:51.328473+05:30"},{"city":"Kolhapur","state":"Maharashtra","latitude":16.705,"longitude":74.2433,"temp":34.8,"humidity":33,"rain":0.0,"pressure":951.7,"uv_index":8.5,"wind_gusts":43.9,"aqi":104,"pm10":40.2,"pm2_5":27.2,"mosquito_risk":0,"arthritis_risk":5,"migraine_risk":7,"frizz_risk":1,"updated_at":"2026-04-11T11:35:51.328483+05:30"},{"city":"Goa","state":"Goa","latitude":15.2993,"longitude":74.124,"temp":32.0,"humidity":61,"rain":0.0,"pressure":1001.7,"uv_index":9.05,"wind_gusts":33.8,"aqi":109,"pm10":93.6,"pm2_5":37.1,"mosquito_risk":3,"arthritis_risk":5,"migraine_risk":4,"frizz_risk":1,"updated_at":"2026-04-11T11:35:51.328493+05:30"},{"city":"Jodhpur","state":"Rajasthan","latitude":26.2389,"longitude":73.0243,"temp":33.3,"humidity":27,"rain":0.0,"pressure":987.9,"uv_index":8.05,"wind_gusts":28.4,"aqi":61,"pm10":75.2,"pm2_5":18.3,"mosquito_risk":0,"arthritis_risk":5,"migraine_risk":7,"frizz_risk":0,"updated_at":"2026-04-11T11:35:51.328504+05:30"},{"city":"Udaipur","state":"Rajasthan","latitude":24.5854,"longitude":73.7125,"temp":33.4,"humidity":21,"rain":0.0,"pressure":952.0,"uv_index":8.6,"wind_gusts":33.8,"aqi":74,"pm10":19.5,"pm2_5":6.6,"mosquito_risk":0,"arthritis_risk":5,"migraine_risk":7,"frizz_risk":0,"updated_at":"2026-04-11T11:35:51.328514+05:30"},{"city":"Kota","state":"Rajasthan","latitude":25.2138,"longitude":75.8648,"temp":32.9,"humidity":30,"rain":0.0,"pressure":984.2,"uv_index":8.1,"wind_gusts":17.6,"aqi":73,"pm10":31.8,"pm2_5":11.3,"mosquito_risk":0,"arthritis_risk":5,"migraine_risk":7,"frizz_risk":0,"updated_at":"2026-04-11T11:35:51.328524+05:30"},{"city":"Bikaner","state":"Rajasthan","latitude":28.0229,"longitude":73.3119,"temp":31.1,"humidity":33,"rain":0.0,"pressure":986.8,"uv_index":7.4,"wind_gusts":32.8,"aqi":51,"pm10":33.3,"pm2_5":13.4,"mosquito_risk":0,"arthritis_risk":5,"migraine_risk":7,"frizz_risk":0,"updated_at":"2026-04-11T11:35:51.328535+05:30"},{"city":"Ajmer","state":"Rajasthan","latitude":26.4499,"longitude":74.6399,"temp":32.7,"humidity":23,"rain":0.0,"pressure":959.7,"uv_index":8.0,"wind_gusts":37.8,"aqi":65,"pm10":12.0,"pm2_5":4.5,"mosquito_risk":0,"arthritis_risk":5,"migraine_risk":7,"frizz_risk":0,"updated_at":"2026-04-11T11:35:51.328545+05:30"},{"city":"Gwalior","state":"Madhya Pradesh","latitude":26.2183,"longitude":78.1828,"temp":32.3,"humidity":34,"rain":0.0,"pressure":988.7,"uv_index":7.8,"wind_gusts":28.1,"aqi":102,"pm10":141.1,"pm2_5":32.2,"mosquito_risk":0,"arthritis_risk":5,"migraine_risk":7,"frizz_risk":0,"updated_at":"2026-04-11T11:35:51.328555+05:30"},{"city":"Indore","state":"Madhya Pradesh","latitude":22.7196,"longitude":75.8577,"temp":33.3,"humidity":19,"rain":0.0,"pressure":953.5,"uv_index":8.5,"wind_gusts":21.6,"aqi":59,"pm10":40.9,"pm2_5":11.8,"mosquito_risk":0,"arthritis_risk":5,"migraine_risk":7,"frizz_risk":0,"updated_at":"2026-04-11T11:35:51.328565+05:30"},{"city":"Bhopal","state":"Madhya Pradesh","latitude":23.2599,"longitude":77.4126,"temp":34.0,"humidity":18,"rain":0.0,"pressure":959.3,"uv_index":8.45,"wind_gusts":22.3,"aqi":50,"pm10":50.5,"pm2_5":11.6,"mosquito_risk":0,"arthritis_risk":5,"migraine_risk":7,"frizz_risk":0,"updated_at":"2026-04-11T11:35:51.328576+05:30"},{"city":"Jabalpur","state":"Madhya Pradesh","latitude":23.1815,"longitude":79.9864,"temp":32.3,"humidity":24,"rain":0.0,"pressure":967.2,"uv_index":8.6,"wind_gusts":20.5,"aqi":68,"pm10":33.8,"pm2_5":13.2,"mosquito_risk":0,"arthritis_risk":5,"migraine_risk":7,"frizz_risk":0,"updated_at":"2026-04-11T11:35:51.328586+05:30"},{"city":"Ujjain","state":"Madhya Pradesh","latitude":23.1765,"longitude":75.7885,"temp":33.4,"humidity":22,"rain":0.0,"pressure":959.2,"uv_index":8.4,"wind_gusts":20.5,"aqi":63,"pm10":34.8,"pm2_5":11.7,"mosquito_risk":0,"arthritis_risk":5,"migraine_risk":7,"frizz_risk":0,"updated_at":"2026-04-11T11:35:51.328596+05:30"},{"city":"Visakhapatnam","state":"Andhra Pradesh","latitude":17.6868,"longitude":83.2185,"temp":35.0,"humidity":50,"rain":0.0,"pressure":1006.9,"uv_index":9.15,"wind_gusts":40.3,"aqi":83,"pm10":36.0,"pm2_5":29.2,"mosquito_risk":0,"arthritis_risk":5,"migraine_risk":4,"frizz_risk":1,"updated_at":"2026-04-11T11:35:51.328612+05:30"},{"city":"Vijayawada","state":"Andhra Pradesh","latitude":16.5062,"longitude":80.648,"temp":34.9,"humidity":52,"rain":0.0,"pressure":1006.1,"uv_index":9.2,"wind_gusts":26.3,"aqi":75,"pm10":31.4,"pm2_5":24.5,"mosquito_risk":0,"arthritis_risk":5,"migraine_risk":4,"frizz_risk":1,"updated_at":"2026-04-11T11:35:51.328623+05:30"},{"city":"Guntur","state":"Andhra Pradesh","latitude":16.3067,"longitude":80.4365,"temp":35.7,"humidity":49,"rain":0.0,"pressure":1007.0,"uv_index":9.25,"wind_gusts":33.8,"aqi":74,"pm10":32.5,"pm2_5":25.3,"mosquito_risk":0,"arthritis_risk":5,"migraine_risk":7,"frizz_risk":1,"updated_at":"2026-04-11T11:35:51.328633+05:30"},{"city":"Nellore","state":"Andhra Pradesh","latitude":14.4426,"longitude":79.9865,"temp":36.7,"humidity":40,"rain":0.0,"pressure":1008.5,"uv_index":9.25,"wind_gusts":41.8,"aqi":65,"pm10":32.1,"pm2_5":24.0,"mosquito_risk":0,"arthritis_risk":0,"migraine_risk":7,"frizz_risk":1,"updated_at":"2026-04-11T11:35:51.328644+05:30"},{"city":"Kurnool","state":"Andhra Pradesh","latitude":15.8281,"longitude":78.0373,"temp":37.7,"humidity":36,"rain":0.0,"pressure":979.9,"uv_index":9.2,"wind_gusts":26.6,"aqi":83,"pm10":36.9,"pm2_5":26.1,"mosquito_risk":0,"arthritis_risk":5,"migraine_risk":10,"frizz_risk":1,"updated_at":"2026-04-11T11:35:51.328654+05:30"},{"city":"Kakinada","state":"Andhra Pradesh","latitude":16.9891,"longitude":82.2475,"temp":35.3,"humidity":50,"rain":0.0,"pressure":1010.7,"uv_index":9.2,"wind_gusts":35.6,"aqi":63,"pm10":26.9,"pm2_5":18.7,"mosquito_risk":0,"arthritis_risk":0,"migraine_risk":7,"frizz_risk":1,"updated_at":"2026-04-11T11:35:51.328665+05:30"},{"city":"Tirupati","state":"Andhra Pradesh","latitude":13.6288,"longitude":79.4192,"temp":35.0,"humidity":42,"rain":0.0,"pressure":994.9,"uv_index":9.4,"wind_gusts":29.9,"aqi":76,"pm10":36.0,"pm2_5":27.1,"mosquito_risk":0,"arthritis_risk":5,"migraine_risk":7,"frizz_risk":1,"updated_at":"2026-04-11T11:35:51.328676+05:30"},{"city":"Warangal","state":"Telangana","latitude":17.9689,"longitude":79.5941,"temp":35.7,"humidity":43,"rain":0.0,"pressure":982.5,"uv_index":9.1,"wind_gusts":25.2,"aqi":104,"pm10":37.5,"pm2_5":28.1,"mosquito_risk":0,"arthritis_risk":5,"migraine_risk":10,"frizz_risk":1,"updated_at":"2026-04-11T11:35:51.328686+05:30"},{"city":"Nizamabad","state":"Telangana","latitude":18.6725,"longitude":78.0941,"temp":35.8,"humidity":32,"rain":0.0,"pressure":969.1,"uv_index":9.0,"wind_gusts":24.8,"aqi":82,"pm10":29.3,"pm2_5":17.2,"mosquito_risk":0,"arthritis_risk":5,"migraine_risk":10,"frizz_risk":1,"updated_at":"2026-04-11T11:35:51.328695+05:30"},{"city":"Mysore","state":"Karnataka","latitude":12.2958,"longitude":76.6396,"temp":30.2,"humidity":54,"rain":0.0,"pressure":932.2,"uv_index":9.4,"wind_gusts":34.2,"aqi":82,"pm10":31.1,"pm2_5":22.5,"mosquito_risk":0,"arthritis_risk":5,"migraine_risk":7,"frizz_risk":1,"updated_at":"2026-04-11T11:35:51.328705+05:30"},{"city":"Mangalore","state":"Karnataka","latitude":12.9141,"longitude":74.856,"temp":29.4,"humidity":78,"rain":0.0,"pressure":1010.3,"uv_index":8.75,"wind_gusts":24.5,"aqi":82,"pm10":74.7,"pm2_5":28.6,"mosquito_risk":7,"arthritis_risk":0,"migraine_risk":4,"frizz_risk":1,"updated_at":"2026-04-11T11:35:51.328717+05:30"},{"city":"Hubli-Dharwad","state":"Karnataka","latitude":15.3647,"longitude":75.124,"temp":33.5,"humidity":45,"rain":0.0,"pressure":944.8,"uv_index":9.25,"wind_gusts":41.4,"aqi":95,"pm10":56.6,"pm2_5":29.6,"mosquito_risk":0,"arthritis_risk":5,"migraine_risk":7,"frizz_risk":1,"updated_at":"2026-04-11T11:35:51.328728+05:30"},{"city":"Belgaum","state":"Karnataka","latitude":15.8497,"longitude":74.4977,"temp":33.8,"humidity":32,"rain":0.0,"pressure":930.0,"uv_index":9.3,"wind_gusts":41.0,"aqi":96,"pm10":49.9,"pm2_5":26.3,"mosquito_risk":0,"arthritis_risk":5,"migraine_risk":7,"frizz_risk":0,"updated_at":"2026-04-11T11:35:54.587195+05:30"},{"city":"Coimbatore","state":"Tamil Nadu","latitude":11.0168,"longitude":76.9558,"temp":33.3,"humidity":45,"rain":0.0,"pressure":965.2,"uv_index":7.35,"wind_gusts":32.0,"aqi":73,"pm10":32.9,"pm2_5":22.1,"mosquito_risk":0,"arthritis_risk":5,"migraine_risk":7,"frizz_risk":1,"updated_at":"2026-04-11T11:35:54.587224+05:30"},{"city":"Madurai","state":"Tamil Nadu","latitude":9.9252,"longitude":78.1198,"temp":34.7,"humidity":47,"rain":0.0,"pressure":995.6,"uv_index":8.45,"wind_gusts":40.3,"aqi":74,"pm10":29.7,"pm2_5":20.8,"mosquito_risk":0,"arthritis_risk":5,"migraine_risk":7,"frizz_risk":1,"updated_at":"2026-04-11T11:35:54.587233+05:30"},{"city":"Trichy","state":"Tamil Nadu","latitude":10.7905,"longitude":78.7047,"temp":34.2,"humidity":49,"rain":0.0,"pressure":1002.5,"uv_index":9.4,"wind_gusts":26.6,"aqi":70,"pm10":25.6,"pm2_5":18.8,"mosquito_risk":0,"arthritis_risk":5,"migraine_risk":4,"frizz_risk":1,"updated_at":"2026-04-11T11:35:54.587240+05:30"},{"city":"Salem","state":"Tamil Nadu","latitude":11.6643,"longitude":78.146,"temp":34.1,"humidity":44,"rain":0.0,"pressure":980.4,"uv_index":9.05,"wind_gusts":20.2,"aqi":71,"pm10":34.1,"pm2_5":22.7,"mosquito_risk":0,"arthritis_risk":5,"migraine_risk":7,"frizz_risk":1,"updated_at":"2026-04-11T11:35:54.587247+05:30"},{"city":"Tirunelveli","state":"Tamil Nadu","latitude":8.7139,"longitude":77.7567,"temp":35.0,"humidity":44,"rain":0.0,"pressure":1005.5,"uv_index":9.35,"wind_gusts":41.4,"aqi":73,"pm10":25.3,"pm2_5":17.7,"mosquito_risk":0,"arthritis_risk":5,"migraine_risk":4,"frizz_risk":1,"updated_at":"2026-04-11T11:35:54.587253+05:30"},{"city":"Vellore","state":"Tamil Nadu","latitude":12.9165,"longitude":79.1325,"temp":34.5,"humidity":40,"rain":0.0,"pressure":987.7,"uv_index":9.45,"wind_gusts":34.9,"aqi":84,"pm10":36.6,"pm2_5":26.6,"mosquito_risk":0,"arthritis_risk":5,"migraine_risk":7,"frizz_risk":1,"updated_at":"2026-04-11T11:35:54.587260+05:30"},{"city":"Erode","state":"Tamil Nadu","latitude":11.341,"longitude":77.7172,"temp":35.1,"humidity":46,"rain":0.0,"pressure":991.9,"uv_index":8.75,"wind_gusts":32.0,"aqi":62,"pm10":32.6,"pm2_5":20.8,"mosquito_risk":0,"arthritis_risk":5,"migraine_risk":10,"frizz_risk":1,"updated_at":"2026-04-11T11:35:54.587266+05:30"},{"city":"Kochi","state":"Kerala","latitude":9.9312,"longitude":76.2673,"temp":28.4,"humidity":82,"rain":0.0,"pressure":1011.5,"uv_index":8.85,"wind_gusts":28.4,"aqi":67,"pm10":21.5,"pm2_5":13.7,"mosquito_risk":7,"arthritis_risk":0,"migraine_risk":4,"frizz_risk":1,"updated_at":"2026-04-11T11:35:54.587273+05:30"},{"city":"Thiruvananthapuram","state":"Kerala","latitude":8.5241,"longitude":76.9366,"temp":28.6,"humidity":82,"rain":0.0,"pressure":1010.4,"uv_index":7.75,"wind_gusts":33.8,"aqi":63,"pm10":19.8,"pm2_5":13.0,"mosquito_risk":7,"arthritis_risk":0,"migraine_risk":4,"frizz_risk":1,"updated_at":"2026-04-11T11:35:54.587280+05:30"},{"city":"Kozhikode","state":"Kerala","latitude":11.2588,"longitude":75.7804,"temp":30.1,"humidity":75,"rain":0.0,"pressure":1011.1,"uv_index":8.7,"wind_gusts":27.4,"aqi":63,"pm10":26.7,"pm2_5":13.2,"mosquito_risk":3,"arthritis_risk":0,"migraine_risk":4,"frizz_risk":1,"updated_at":"2026-04-11T11:35:54.587286+05:30"},{"city":"Thrissur","state":"Kerala","latitude":10.5276,"longitude":76.2144,"temp":32.8,"humidity":61,"rain":0.0,"pressure":1009.8,"uv_index":9.0,"wind_gusts":31.7,"aqi":67,"pm10":23.6,"pm2_5":14.0,"mosquito_risk":3,"arthritis_risk":0,"migraine_risk":4,"frizz_risk":1,"updated_at":"2026-04-11T11:35:54.587293+05:30"},{"city":"Kannur","state":"Kerala","latitude":11.8745,"longitude":75.3704,"temp":29.5,"humidity":68,"rain":0.0,"pressure":1010.8,"uv_index":8.65,"wind_gusts":29.2,"aqi":63,"pm10":25.3,"pm2_5":11.6,"mosquito_risk":7,"arthritis_risk":0,"migraine_risk":4,"frizz_risk":1,"updated_at":"2026-04-11T11:35:54.587299+05:30"},{"city":"Patna","state":"Bihar","latitude":25.5941,"longitude":85.1376,"temp":32.1,"humidity":31,"rain":0.0,"pressure":1003.9,"uv_index":8.45,"wind_gusts":31.3,"aqi":87,"pm10":436.8,"pm2_5":72.6,"mosquito_risk":0,"arthritis_risk":5,"migraine_risk":4,"frizz_risk":0,"updated_at":"2026-04-11T11:35:54.587305+05:30"},{"city":"Gaya","state":"Bihar","latitude":24.7914,"longitude":85.0002,"temp":32.5,"humidity":27,"rain":0.0,"pressure":997.6,"uv_index":8.55,"wind_gusts":35.3,"aqi":79,"pm10":359.5,"pm2_5":55.5,"mosquito_risk":0,"arthritis_risk":5,"migraine_risk":7,"frizz_risk":0,"updated_at":"2026-04-11T11:35:54.587310+05:30"},{"city":"Muzaffarpur","state":"Bihar","latitude":26.1209,"longitude":85.3647,"temp":31.1,"humidity":34,"rain":0.0,"pressure":1003.9,"uv_index":8.4,"wind_gusts":20.2,"aqi":84,"pm10":410.7,"pm2_5":70.3,"mosquito_risk":0,"arthritis_risk":5,"migraine_risk":4,"frizz_risk":0,"updated_at":"2026-04-11T11:35:54.587316+05:30"},{"city":"Bhagalpur","state":"Bihar","latitude":25.2425,"longitude":87.0117,"temp":30.3,"humidity":40,"rain":0.0,"pressure":1005.0,"uv_index":8.45,"wind_gusts":23.0,"aqi":65,"pm10":269.2,"pm2_5":45.9,"mosquito_risk":0,"arthritis_risk":5,"migraine_risk":4,"frizz_risk":0,"updated_at":"2026-04-11T11:35:54.587322+05:30"},{"city":"Ranchi","state":"Jharkhand","latitude":23.3441,"longitude":85.3096,"temp":29.6,"humidity":23,"rain":0.0,"pressure":942.4,"uv_index":9.05,"wind_gusts":35.6,"aqi":76,"pm10":215.6,"pm2_5":34.2,"mosquito_risk":4,"arthritis_risk":5,"migraine_risk":7,"frizz_risk":0,"updated_at":"2026-04-11T11:35:54.587328+05:30"},{"city":"Jamshedpur","state":"Jharkhand","latitude":22.8046,"longitude":86.2029,"temp":31.7,"humidity":33,"rain":0.0,"pressure":995.3,"uv_index":8.85,"wind_gusts":17.6,"aqi":114,"pm10":183.9,"pm2_5":37.1,"mosquito_risk":0,"arthritis_risk":5,"migraine_risk":7,"frizz_risk":0,"updated_at":"2026-04-11T11:35:54.587333+05:30"},{"city":"Dhanbad","state":"Jharkhand","latitude":23.7957,"longitude":86.4304,"temp":31.8,"humidity":26,"rain":0.0,"pressure":984.0,"uv_index":8.8,"wind_gusts":26.3,"aqi":121,"pm10":342.7,"pm2_5":54.1,"mosquito_risk":0,"arthritis_risk":5,"migraine_risk":7,"frizz_risk":0,"updated_at":"2026-04-11T11:35:54.587339+05:30"},{"city":"Bokaro","state":"Jharkhand","latitude":23.6693,"longitude":86.1511,"temp":31.4,"humidity":26,"rain":0.0,"pressure":988.1,"uv_index":8.8,"wind_gusts":29.5,"aqi":119,"pm10":329.7,"pm2_5":54.4,"mosquito_risk":0,"arthritis_risk":5,"migraine_risk":7,"frizz_risk":0,"updated_at":"2026-04-11T11:35:54.587346+05:30"},{"city":"Bhubaneswar","state":"Odisha","latitude":20.2961,"longitude":85.8245,"temp":33.8,"humidity":57,"rain":0.0,"pressure":1006.0,"uv_index":9.0,"wind_gusts":23.0,"aqi":121,"pm10":68.2,"pm2_5":44.8,"mosquito_risk":0,"arthritis_risk":5,"migraine_risk":4,"frizz_risk":1,"updated_at":"2026-04-11T11:35:54.587352+05:30"},{"city":"Cuttack","state":"Odisha","latitude":20.4625,"longitude":85.8828,"temp":34.5,"humidity":49,"rain":0.0,"pressure":1007.8,"uv_index":9.05,"wind_gusts":18.4,"aqi":121,"pm10":68.2,"pm2_5":44.8,"mosquito_risk":0,"arthritis_risk":5,"migraine_risk":4,"frizz_risk":1,"updated_at":"2026-04-11T11:35:54.587359+05:30"},{"city":"Rourkela","state":"Odisha","latitude":22.2604,"longitude":84.8536,"temp":32.8,"humidity":28,"rain":0.0,"pressure":989.8,"uv_index":8.75,"wind_gusts":18.7,"aqi":88,"pm10":177.0,"pm2_5":30.6,"mosquito_risk":0,"arthritis_risk":5,"migraine_risk":7,"frizz_risk":0,"updated_at":"2026-04-11T11:35:54.587364+05:30"},{"city":"Raipur","state":"Chhattisgarh","latitude":21.2514,"longitude":81.6296,"temp":35.1,"humidity":21,"rain":0.0,"pressure":979.6,"uv_index":8.85,"wind_gusts":21.6,"aqi":109,"pm10":54.6,"pm2_5":18.9,"mosquito_risk":0,"arthritis_risk":5,"migraine_risk":10,"frizz_risk":0,"updated_at":"2026-04-11T11:35:54.587370+05:30"},{"city":"Bhilai","state":"Chhattisgarh","latitude":21.1938,"longitude":81.3509,"temp":35.1,"humidity":22,"rain":0.0,"pressure":980.1,"uv_index":8.85,"wind_gusts":19.8,"aqi":106,"pm10":51.3,"pm2_5":20.1,"mosquito_risk":0,"arthritis_risk":5,"migraine_risk":10,"frizz_risk":0,"updated_at":"2026-04-11T11:35:54.587376+05:30"},{"city":"Guwahati","state":"Assam","latitude":26.1158,"longitude":91.7086,"temp":27.3,"humidity":64,"rain":0.0,"pressure":1005.3,"uv_index":8.35,"wind_gusts":20.2,"aqi":109,"pm10":32.7,"pm2_5":23.7,"mosquito_risk":7,"arthritis_risk":5,"migraine_risk":4,"frizz_risk":1,"updated_at":"2026-04-11T11:35:54.587382+05:30"},{"city":"Agartala","state":"Tripura","latitude":23.8315,"longitude":91.2868,"temp":31.0,"humidity":51,"rain":0.0,"pressure":1009.3,"uv_index":8.6,"wind_gusts":23.0,"aqi":145,"pm10":70.1,"pm2_5":48.2,"mosquito_risk":0,"arthritis_risk":0,"migraine_risk":4,"frizz_risk":1,"updated_at":"2026-04-11T11:35:54.587388+05:30"},{"city":"Shillong","state":"Meghalaya","latitude":25.5788,"longitude":91.8933,"temp":18.2,"humidity":43,"rain":0.0,"pressure":859.0,"uv_index":8.75,"wind_gusts":52.2,"aqi":86,"pm10":32.9,"pm2_5":21.4,"mosquito_risk":0,"arthritis_risk":5,"migraine_risk":7,"frizz_risk":0,"updated_at":"2026-04-11T11:35:54.587395+05:30"},{"city":"Imphal","state":"Manipur","latitude":24.817,"longitude":93.9368,"temp":21.2,"humidity":49,"rain":0.0,"pressure":925.7,"uv_index":8.95,"wind_gusts":51.1,"aqi":96,"pm10":28.6,"pm2_5":18.2,"mosquito_risk":0,"arthritis_risk":5,"migraine_risk":7,"frizz_risk":0,"updated_at":"2026-04-11T11:35:54.587401+05:30"},{"city":"Aizawl","state":"Mizoram","latitude":23.7271,"longitude":92.7176,"temp":25.2,"humidity":35,"rain":0.0,"pressure":897.1,"uv_index":8.8,"wind_gusts":42.1,"aqi":89,"pm10":38.8,"pm2_5":18.9,"mosquito_risk":4,"arthritis_risk":5,"migraine_risk":7,"frizz_risk":0,"updated_at":"2026-04-11T11:35:54.587407+05:30"},{"city":"Kohima","state":"Nagaland","latitude":25.6701,"longitude":94.1077,"temp":17.6,"humidity":52,"rain":0.0,"pressure":857.5,"uv_index":7.6,"wind_gusts":66.2,"aqi":71,"pm10":17.1,"pm2_5":12.3,"mosquito_risk":0,"arthritis_risk":5,"migraine_risk":7,"frizz_risk":0,"updated_at":"2026-04-11T11:35:54.587413+05:30"},{"city":"Gangtok","state":"Sikkim","latitude":27.3314,"longitude":88.6138,"temp":17.1,"humidity":68,"rain":0.0,"pressure":839.8,"uv_index":8.55,"wind_gusts":18.4,"aqi":88,"pm10":30.3,"pm2_5":23.1,"mosquito_risk":3,"arthritis_risk":5,"migraine_risk":7,"frizz_risk":0,"updated_at":"2026-04-11T11:35:54.587419+05:30"},{"city":"Siliguri","state":"West Bengal","latitude":26.7271,"longitude":88.3953,"temp":23.0,"humidity":65,"rain":0.0,"pressure":997.7,"uv_index":8.2,"wind_gusts":18.0,"aqi":121,"pm10":34.7,"pm2_5":26.9,"mosquito_risk":3,"arthritis_risk":5,"migraine_risk":7,"frizz_risk":1,"updated_at":"2026-04-11T11:35:57.849266+05:30"},{"city":"Durgapur","state":"West Bengal","latitude":23.5204,"longitude":87.3119,"temp":31.6,"humidity":34,"rain":0.0,"pressure":999.1,"uv_index":8.75,"wind_gusts":21.2,"aqi":109,"pm10":231.0,"pm2_5":42.8,"mosquito_risk":0,"arthritis_risk":5,"migraine_risk":7,"frizz_risk":0,"updated_at":"2026-04-11T11:35:57.849293+05:30"},{"city":"Asansol","state":"West Bengal","latitude":23.6739,"longitude":86.9524,"temp":31.6,"humidity":33,"rain":0.0,"pressure":997.6,"uv_index":8.75,"wind_gusts":22.7,"aqi":91,"pm10":305.5,"pm2_5":48.8,"mosquito_risk":0,"arthritis_risk":5,"migraine_risk":7,"frizz_risk":0,"updated_at":"2026-04-11T11:35:57.849302+05:30"},{"city":"Pondicherry","state":"Puducherry","latitude":11.9139,"longitude":79.8145,"temp":34.8,"humidity":54,"rain":0.0,"pressure":1011.0,"uv_index":9.35,"wind_gusts":36.7,"aqi":56,"pm10":20.4,"pm2_5":14.8,"mosquito_risk":0,"arthritis_risk":0,"migraine_risk":4,"frizz_risk":1,"updated_at":"2026-04-11T11:35:57.849310+05:30"},{"city":"Port Blair","state":"Andaman and Nicobar Islands","latitude":11.6234,"longitude":92.7265,"temp":29.1,"humidity":70,"rain":0.0,"pressure":1009.5,"uv_index":9.25,"wind_gusts":25.2,"aqi":25,"pm10":9.0,"pm2_5":5.8,"mosquito_risk":7,"arthritis_risk":0,"migraine_risk":4,"frizz_risk":1,"updated_at":"2026-04-11T11:35:57.849317+05:30"},{"city":"Haridwar","state":"Uttarakhand","latitude":29.9457,"longitude":78.1642,"temp":28.3,"humidity":43,"rain":0.0,"pressure":978.3,"uv_index":6.95,"wind_gusts":49.0,"aqi":61,"pm10":55.1,"pm2_5":17.7,"mosquito_risk":4,"arthritis_risk":5,"migraine_risk":7,"frizz_risk":0,"updated_at":"2026-04-11T11:35:57.849324+05:30"},{"city":"Rishikesh","state":"Uttarakhand","latitude":30.0869,"longitude":78.2676,"temp":28.7,"humidity":41,"rain":0.0,"pressure":970.7,"uv_index":7.0,"wind_gusts":48.6,"aqi":50,"pm10":60.1,"pm2_5":16.0,"mosquito_risk":4,"arthritis_risk":5,"migraine_risk":7,"frizz_risk":0,"updated_at":"2026-04-11T11:35:57.849331+05:30"},{"city":"Nainital","state":"Uttarakhand","latitude":29.3919,"longitude":79.4542,"temp":22.2,"humidity":46,"rain":0.0,"pressure":810.2,"uv_index":7.7,"wind_gusts":69.8,"aqi":62,"pm10":43.9,"pm2_5":13.4,"mosquito_risk":0,"arthritis_risk":5,"migraine_risk":7,"frizz_risk":0,"updated_at":"2026-04-11T11:35:57.849338+05:30"},{"city":"Mussoorie","state":"Uttarakhand","latitude":30.4599,"longitude":78.0664,"temp":20.4,"humidity":42,"rain":0.0,"pressure":806.8,"uv_index":7.45,"wind_gusts":65.2,"aqi":53,"pm10":52.3,"pm2_5":14.6,"mosquito_risk":0,"arthritis_risk":5,"migraine_risk":7,"frizz_risk":0,"updated_at":"2026-04-11T11:35:57.849344+05:30"},{"city":"Dharamshala","state":"Himachal Pradesh","latitude":32.219,"longitude":76.3234,"temp":19.6,"humidity":68,"rain":0.0,"pressure":872.0,"uv_index":7.5,"wind_gusts":30.2,"aqi":111,"pm10":46.2,"pm2_5":10.2,"mosquito_risk":3,"arthritis_risk":5,"migraine_risk":7,"frizz_risk":0,"updated_at":"2026-04-11T11:35:57.849350+05:30"},{"city":"Dalhousie","state":"Himachal Pradesh","latitude":32.5387,"longitude":75.971,"temp":17.1,"humidity":66,"rain":0.0,"pressure":806.2,"uv_index":7.0,"wind_gusts":20.9,"aqi":50,"pm10":72.6,"pm2_5":17.6,"mosquito_risk":3,"arthritis_risk":5,"migraine_risk":7,"frizz_risk":0,"updated_at":"2026-04-11T11:35:57.849357+05:30"},{"city":"Patiala","state":"Punjab","latitude":30.3398,"longitude":76.3869,"temp":30.0,"humidity":31,"rain":0.0,"pressure":982.9,"uv_index":6.95,"wind_gusts":34.6,"aqi":731,"pm10":375.3,"pm2_5":44.8,"mosquito_risk":4,"arthritis_risk":5,"migraine_risk":7,"frizz_risk":0,"updated_at":"2026-04-11T11:35:57.849364+05:30"},{"city":"Bhatinda","state":"Punjab","latitude":30.211,"longitude":74.9455,"temp":29.7,"humidity":34,"rain":0.0,"pressure":988.7,"uv_index":7.7,"wind_gusts":28.4,"aqi":59,"pm10":71.9,"pm2_5":20.8,"mosquito_risk":4,"arthritis_risk":5,"migraine_risk":7,"frizz_risk":0,"updated_at":"2026-04-11T11:35:57.849370+05:30"},{"city":"Rohtak","state":"Haryana","latitude":28.8955,"longitude":76.6066,"temp":27.6,"humidity":42,"rain":0.0,"pressure":987.4,"uv_index":7.1,"wind_gusts":26.6,"aqi":1105,"pm10":562.5,"pm2_5":74.7,"mosquito_risk":4,"arthritis_risk":5,"migraine_risk":7,"frizz_risk":0,"updated_at":"2026-04-11T11:35:57.849376+05:30"},{"city":"Panipat","state":"Haryana","latitude":29.3909,"longitude":76.9635,"temp":29.3,"humidity":37,"rain":0.0,"pressure":985.5,"uv_index":6.95,"wind_gusts":29.9,"aqi":2031,"pm10":998.4,"pm2_5":109.0,"mosquito_risk":4,"arthritis_risk":5,"migraine_risk":7,"frizz_risk":0,"updated_at":"2026-04-11T11:35:57.849382+05:30"},{"city":"Mathura","state":"Uttar Pradesh","latitude":27.4924,"longitude":77.6737,"temp":31.2,"humidity":36,"rain":0.0,"pressure":992.5,"uv_index":7.5,"wind_gusts":27.7,"aqi":1345,"pm10":804.7,"pm2_5":99.9,"mosquito_risk":0,"arthritis_risk":5,"migraine_risk":7,"frizz_risk":0,"updated_at":"2026-04-11T11:35:57.849388+05:30"},{"city":"Vrindavan","state":"Uttar Pradesh","latitude":27.5823,"longitude":77.7027,"temp":31.2,"humidity":34,"rain":0.0,"pressure":992.7,"uv_index":7.45,"wind_gusts":32.0,"aqi":1345,"pm10":804.7,"pm2_5":99.9,"mosquito_risk":0,"arthritis_risk":5,"migraine_risk":7,"frizz_risk":0,"updated_at":"2026-04-11T11:35:57.849395+05:30"},{"city":"Ayodhya","state":"Uttar Pradesh","latitude":26.7922,"longitude":82.1998,"temp":32.9,"humidity":25,"rain":0.0,"pressure":998.5,"uv_index":7.85,"wind_gusts":46.4,"aqi":132,"pm10":105.7,"pm2_5":40.9,"mosquito_risk":0,"arthritis_risk":5,"migraine_risk":7,"frizz_risk":0,"updated_at":"2026-04-11T11:35:57.849401+05:30"},{"city":"Ratlam","state":"Madhya Pradesh","latitude":23.3315,"longitude":75.0367,"temp":32.8,"humidity":30,"rain":0.0,"pressure":960.0,"uv_index":8.35,"wind_gusts":17.3,"aqi":55,"pm10":28.9,"pm2_5":9.8,"mosquito_risk":0,"arthritis_risk":5,"migraine_risk":7,"frizz_risk":0,"updated_at":"2026-04-11T11:35:57.849408+05:30"},{"city":"Sagar","state":"Madhya Pradesh","latitude":23.8388,"longitude":78.7378,"temp":34.1,"humidity":20,"rain":0.0,"pressure":955.9,"uv_index":8.5,"wind_gusts":28.1,"aqi":55,"pm10":53.8,"pm2_5":13.2,"mosquito_risk":0,"arthritis_risk":5,"migraine_risk":7,"frizz_risk":0,"updated_at":"2026-04-11T11:35:57.849414+05:30"},{"city":"Satna","state":"Madhya Pradesh","latitude":24.6005,"longitude":80.8322,"temp":32.9,"humidity":25,"rain":0.0,"pressure":976.8,"uv_index":8.5,"wind_gusts":33.5,"aqi":64,"pm10":170.4,"pm2_5":28.7,"mosquito_risk":0,"arthritis_risk":5,"migraine_risk":7,"frizz_risk":0,"updated_at":"2026-04-11T11:35:57.849420+05:30"},{"city":"Akola","state":"Maharashtra","latitude":20.7002,"longitude":77.0082,"temp":36.3,"humidity":23,"rain":0.0,"pressure":979.8,"uv_index":8.75,"wind_gusts":25.6,"aqi":76,"pm10":17.6,"pm2_5":10.7,"mosquito_risk":0,"arthritis_risk":5,"migraine_risk":10,"frizz_risk":0,"updated_at":"2026-04-11T11:35:57.849426+05:30"},{"city":"Amravati","state":"Maharashtra","latitude":20.9374,"longitude":77.7796,"temp":36.0,"humidity":19,"rain":0.0,"pressure":972.2,"uv_index":8.75,"wind_gusts":23.4,"aqi":67,"pm10":16.1,"pm2_5":8.8,"mosquito_risk":0,"arthritis_risk":5,"migraine_risk":10,"frizz_risk":0,"updated_at":"2026-04-11T11:35:57.849433+05:30"},{"city":"Latur","state":"Maharashtra","latitude":18.4088,"longitude":76.5604,"temp":34.3,"humidity":29,"rain":0.0,"pressure":944.4,"uv_index":9.0,"wind_gusts":21.2,"aqi":75,"pm10":25.7,"pm2_5":16.1,"mosquito_risk":0,"arthritis_risk":5,"migraine_risk":7,"frizz_risk":0,"updated_at":"2026-04-11T11:35:57.849440+05:30"},{"city":"Nanded","state":"Maharashtra","latitude":19.1383,"longitude":77.3091,"temp":36.1,"humidity":34,"rain":0.0,"pressure":972.8,"uv_index":8.9,"wind_gusts":17.3,"aqi":86,"pm10":25.4,"pm2_5":13.9,"mosquito_risk":0,"arthritis_risk":5,"migraine_risk":10,"frizz_risk":1,"updated_at":"2026-04-11T11:35:57.849446+05:30"},{"city":"Gulbarga","state":"Karnataka","latitude":17.3297,"longitude":76.8343,"temp":37.5,"humidity":28,"rain":0.0,"pressure":962.5,"uv_index":9.05,"wind_gusts":19.4,"aqi":65,"pm10":39.1,"pm2_5":27.2,"mosquito_risk":0,"arthritis_risk":5,"migraine_risk":10,"frizz_risk":0,"updated_at":"2026-04-11T11:35:57.849452+05:30"},{"city":"Bidar","state":"Karnataka","latitude":17.9104,"longitude":77.5199,"temp":35.4,"humidity":30,"rain":0.0,"pressure":939.6,"uv_index":9.05,"wind_gusts":23.0,"aqi":71,"pm10":24.3,"pm2_5":15.7,"mosquito_risk":0,"arthritis_risk":5,"migraine_risk":10,"frizz_risk":0,"updated_at":"2026-04-11T11:35:57.849457+05:30"},{"city":"Hospet","state":"Karnataka","latitude":15.2689,"longitude":76.3909,"temp":33.2,"humidity":49,"rain":0.0,"pressure":959.4,"uv_index":9.3,"wind_gusts":26.3,"aqi":85,"pm10":44.8,"pm2_5":31.1,"mosquito_risk":0,"arthritis_risk":5,"migraine_risk":7,"frizz_risk":1,"updated_at":"2026-04-11T11:35:57.849463+05:30"},{"city":"Tirupur","state":"Tamil Nadu","latitude":11.1085,"longitude":77.3411,"temp":34.2,"humidity":46,"rain":0.0,"pressure":978.4,"uv_index":9.1,"wind_gusts":26.6,"aqi":74,"pm10":38.0,"pm2_5":24.2,"mosquito_risk":0,"arthritis_risk":5,"migraine_risk":7,"frizz_risk":1,"updated_at":"2026-04-11T11:35:57.849469+05:30"},{"city":"Alappuzha","state":"Kerala","latitude":9.4981,"longitude":76.3388,"temp":28.5,"humidity":81,"rain":0.0,"pressure":1011.6,"uv_index":8.65,"wind_gusts":29.2,"aqi":67,"pm10":23.6,"pm2_5":15.1,"mosquito_risk":7,"arthritis_risk":0,"migraine_risk":4,"frizz_risk":1,"updated_at":"2026-04-11T11:35:57.849475+05:30"},{"city":"Munnar","state":"Kerala","latitude":10.0889,"longitude":77.0595,"temp":28.2,"humidity":55,"rain":0.0,"pressure":861.4,"uv_index":9.6,"wind_gusts":36.7,"aqi":82,"pm10":33.3,"pm2_5":19.2,"mosquito_risk":4,"arthritis_risk":5,"migraine_risk":7,"frizz_risk":1,"updated_at":"2026-04-11T11:35:57.849481+05:30"},{"city":"Silchar","state":"Assam","latitude":24.8333,"longitude":92.7789,"temp":28.9,"humidity":57,"rain":0.0,"pressure":1008.8,"uv_index":8.6,"wind_gusts":22.3,"aqi":139,"pm10":61.0,"pm2_5":37.0,"mosquito_risk":4,"arthritis_risk":0,"migraine_risk":4,"frizz_risk":1,"updated_at":"2026-04-11T11:35:57.849487+05:30"},{"city":"Dibrugarh","state":"Assam","latitude":27.4728,"longitude":94.912,"temp":23.9,"humidity":72,"rain":0.0,"pressure":999.6,"uv_index":8.4,"wind_gusts":24.5,"aqi":89,"pm10":26.7,"pm2_5":19.6,"mosquito_risk":3,"arthritis_risk":5,"migraine_risk":7,"frizz_risk":1,"updated_at":"2026-04-11T11:35:57.849493+05:30"}]