[{"city":"Delhi","state":"Delhi","latitude":28.6139,"longitude":77.209,"temp":38.3,"humidity":31,"rain":0.0,"pressure":979.6,"uv_index":7.8,"wind_gusts":39.2,"aqi":386,"pm10":407.9,"pm2_5":83.8,"no2":3.5,"co":206.0,"o3":142.0,"so2":12.3,"mosquito_risk":0,"arthritis_risk":5,"migraine_risk":10,"frizz_risk":1,"updated_at":"2026-06-21T11:35:11.162330+05:30"},{"city":"Mumbai","state":"Maharashtra","latitude":19.076,"longitude":72.8777,"temp":33.5,"humidity":45,"rain":0.0,"pressure":1008.3,"uv_index":7.7,"wind_gusts":42.5,"aqi":50,"pm10":24.3,"pm2_5":16.5,"no2":5.9,"co":144.0,"o3":91.0,"so2":11.2,"mosquito_risk":0,"arthritis_risk":0,"migraine_risk":4,"frizz_risk":1,"updated_at":"2026-06-21T11:35:11.162381+05:30"},{"city":"Bangalore","state":"Karnataka","latitude":12.9716,"longitude":77.5946,"temp":27.8,"humidity":62,"rain":0.0,"pressure":913.2,"uv_index":7.55,"wind_gusts":33.5,"aqi":68,"pm10":12.1,"pm2_5":8.3,"no2":2.8,"co":214.0,"o3":88.0,"so2":4.2,"mosquito_risk":7,"arthritis_risk":5,"migraine_risk":7,"frizz_risk":1,"updated_at":"2026-06-21T11:35:11.162397+05:30"},{"city":"Hyderabad","state":"Telangana","latitude":17.385,"longitude":78.4867,"temp":30.0,"humidity":60,"rain":0.0,"pressure":953.7,"uv_index":9.0,"wind_gusts":31.0,"aqi":73,"pm10":26.2,"pm2_5":18.9,"no2":2.2,"co":200.0,"o3":123.0,"so2":5.3,"mosquito_risk":4,"arthritis_risk":5,"migraine_risk":7,"frizz_risk":1,"updated_at":"2026-06-21T11:35:11.162406+05:30"},{"city":"Chennai","state":"Tamil Nadu","latitude":13.0827,"longitude":80.2707,"temp":33.9,"humidity":56,"rain":0.0,"pressure":1006.9,"uv_index":6.05,"wind_gusts":45.4,"aqi":88,"pm10":31.3,"pm2_5":23.9,"no2":6.8,"co":274.0,"o3":130.0,"so2":15.6,"mosquito_risk":0,"arthritis_risk":5,"migraine_risk":4,"frizz_risk":1,"updated_at":"2026-06-21T11:35:11.162414+05:30"},{"city":"Kolkata","state":"West Bengal","latitude":22.5726,"longitude":88.3639,"temp":33.6,"humidity":64,"rain":0.0,"pressure":1002.2,"uv_index":7.0,"wind_gusts":34.2,"aqi":115,"pm10":36.7,"pm2_5":32.5,"no2":5.9,"co":375.0,"o3":113.0,"so2":7.1,"mosquito_risk":3,"arthritis_risk":5,"migraine_risk":4,"frizz_risk":1,"updated_at":"2026-06-21T11:35:11.162421+05:30"},{"city":"Pune","state":"Maharashtra","latitude":18.5204,"longitude":73.8567,"temp":32.6,"humidity":45,"rain":0.0,"pressure":948.5,"uv_index":8.25,"wind_gusts":54.7,"aqi":48,"pm10":21.7,"pm2_5":13.0,"no2":2.1,"co":114.0,"o3":81.0,"so2":6.2,"mosquito_risk":0,"arthritis_risk":5,"migraine_risk":7,"frizz_risk":1,"updated_at":"2026-06-21T11:35:11.162432+05:30"},{"city":"Ahmedabad","state":"Gujarat","latitude":23.0225,"longitude":72.5714,"temp":35.9,"humidity":38,"rain":0.0,"pressure":1000.9,"uv_index":8.05,"wind_gusts":44.3,"aqi":74,"pm10":66.1,"pm2_5":22.5,"no2":1.3,"co":120.0,"o3":78.0,"so2":3.8,"mosquito_risk":0,"arthritis_risk":5,"migraine_risk":7,"frizz_risk":1,"updated_at":"2026-06-21T11:35:11.162439+05:30"},{"city":"Jaipur","state":"Rajasthan","latitude":26.9124,"longitude":75.7873,"temp":35.0,"humidity":41,"rain":0.0,"pressure":958.0,"uv_index":7.45,"wind_gusts":35.6,"aqi":115,"pm10":172.8,"pm2_5":48.9,"no2":1.0,"co":122.0,"o3":86.0,"so2":3.5,"mosquito_risk":0,"arthritis_risk":5,"migraine_risk":7,"frizz_risk":1,"updated_at":"2026-06-21T11:35:11.162447+05:30"},{"city":"Lucknow","state":"Uttar Pradesh","latitude":26.8467,"longitude":80.9462,"temp":37.8,"humidity":37,"rain":0.0,"pressure":989.3,"uv_index":8.0,"wind_gusts":37.1,"aqi":247,"pm10":406.1,"pm2_5":98.3,"no2":1.8,"co":193.0,"o3":162.0,"so2":11.1,"mosquito_risk":0,"arthritis_risk":5,"migraine_risk":10,"frizz_risk":1,"updated_at":"2026-06-21T11:35:11.162455+05:30"},{"city":"Kanpur","state":"Uttar Pradesh","latitude":26.4499,"longitude":80.3319,"temp":35.8,"humidity":43,"rain":0.0,"pressure":988.3,"uv_index":8.15,"wind_gusts":38.2,"aqi":381,"pm10":560.7,"pm2_5":102.4,"no2":1.7,"co":144.0,"o3":138.0,"so2":8.3,"mosquito_risk":0,"arthritis_risk":5,"migraine_risk":10,"frizz_risk":1,"updated_at":"2026-06-21T11:35:11.162462+05:30"},{"city":"Chandigarh","state":"Chandigarh","latitude":30.7333,"longitude":76.7794,"temp":36.0,"humidity":31,"rain":0.0,"pressure":965.2,"uv_index":7.8,"wind_gusts":36.7,"aqi":119,"pm10":30.6,"pm2_5":23.0,"no2":2.3,"co":341.0,"o3":180.0,"so2":11.4,"mosquito_risk":0,"arthritis_risk":5,"migraine_risk":10,"frizz_risk":1,"updated_at":"2026-06-21T11:35:11.162469+05:30"},{"city":"Srinagar","state":"Jammu and Kashmir","latitude":34.0837,"longitude":74.7973,"temp":22.6,"humidity":54,"rain":0.0,"pressure":843.3,"uv_index":8.55,"wind_gusts":28.8,"aqi":79,"pm10":23.7,"pm2_5":15.2,"no2":1.1,"co":268.0,"o3":141.0,"so2":2.0,"mosquito_risk":0,"arthritis_risk":5,"migraine_risk":7,"frizz_risk":0,"updated_at":"2026-06-21T11:35:11.162476+05:30"},{"city":"Jammu","state":"Jammu and Kashmir","latitude":32.7266,"longitude":74.857,"temp":37.0,"humidity":25,"rain":0.0,"pressure":969.1,"uv_index":8.6,"wind_gusts":33.5,"aqi":77,"pm10":18.3,"pm2_5":12.0,"no2":1.5,"co":289.0,"o3":153.0,"so2":2.4,"mosquito_risk":0,"arthritis_risk":5,"migraine_risk":10,"frizz_risk":0,"updated_at":"2026-06-21T11:35:11.162482+05:30"},{"city":"Amritsar","state":"Punjab","latitude":31.634,"longitude":74.8723,"temp":34.2,"humidity":46,"rain":0.0,"pressure":977.2,"uv_index":8.45,"wind_gusts":23.4,"aqi":111,"pm10":59.3,"pm2_5":29.0,"no2":1.9,"co":362.0,"o3":155.0,"so2":6.0,"mosquito_risk":0,"arthritis_risk":5,"migraine_risk":7,"frizz_risk":1,"updated_at":"2026-06-21T11:35:11.162489+05:30"},{"city":"Ludhiana","state":"Punjab","latitude":30.901,"longitude":75.8573,"temp":37.2,"humidity":30,"rain":0.0,"pressure":975.0,"uv_index":8.05,"wind_gusts":34.9,"aqi":147,"pm10":41.7,"pm2_5":27.6,"no2":2.2,"co":355.0,"o3":171.0,"so2":7.6,"mosquito_risk":0,"arthritis_risk":5,"migraine_risk":10,"frizz_risk":1,"updated_at":"2026-06-21T11:35:11.162495+05:30"},{"city":"Jalandhar","state":"Punjab","latitude":31.326,"longitude":75.5762,"temp":36.9,"humidity":31,"rain":0.0,"pressure":976.0,"uv_index":8.2,"wind_gusts":37.1,"aqi":146,"pm10":43.9,"pm2_5":26.7,"no2":2.1,"co":352.0,"o3":173.0,"so2":5.8,"mosquito_risk":0,"arthritis_risk":5,"migraine_risk":10,"frizz_risk":1,"updated_at":"2026-06-21T11:35:11.162500+05:30"},{"city":"Dehradun","state":"Uttarakhand","latitude":30.6284,"longitude":78.0322,"temp":24.4,"humidity":59,"rain":0.0,"pressure":831.5,"uv_index":8.25,"wind_gusts":28.4,"aqi":67,"pm10":30.6,"pm2_5":20.0,"no2":0.7,"co":241.0,"o3":146.0,"so2":2.5,"mosquito_risk":0,"arthritis_risk":5,"migraine_risk":7,"frizz_risk":0,"updated_at":"2026-06-21T11:35:11.162507+05:30"},{"city":"Shimla","state":"Himachal Pradesh","latitude":31.1048,"longitude":77.1734,"temp":23.2,"humidity":39,"rain":0.0,"pressure":786.9,"uv_index":8.35,"wind_gusts":40.3,"aqi":95,"pm10":38.0,"pm2_5":23.0,"no2":0.6,"co":215.0,"o3":141.0,"so2":3.0,"mosquito_risk":0,"arthritis_risk":5,"migraine_risk":7,"frizz_risk":0,"updated_at":"2026-06-21T11:35:11.162513+05:30"},{"city":"Manali","state":"Himachal Pradesh","latitude":32.2396,"longitude":77.1887,"temp":24.5,"humidity":34,"rain":0.0,"pressure":820.2,"uv_index":9.75,"wind_gusts":35.3,"aqi":86,"pm10":10.8,"pm2_5":6.9,"no2":1.6,"co":129.0,"o3":155.0,"so2":0.3,"mosquito_risk":0,"arthritis_risk":5,"migraine_risk":7,"frizz_risk":0,"updated_at":"2026-06-21T11:35:11.162521+05:30"},{"city":"Gurgaon","state":"Haryana","latitude":28.4595,"longitude":77.0266,"temp":37.2,"humidity":34,"rain":0.0,"pressure":978.3,"uv_index":7.85,"wind_gusts":36.0,"aqi":925,"pm10":1218.2,"pm2_5":156.9,"no2":3.0,"co":183.0,"o3":118.0,"so2":8.2,"mosquito_risk":0,"arthritis_risk":5,"migraine_risk":10,"frizz_risk":1,"updated_at":"2026-06-21T11:35:11.162527+05:30"},{"city":"Noida","state":"Uttar Pradesh","latitude":28.5355,"longitude":77.391,"temp":37.3,"humidity":35,"rain":0.0,"pressure":980.8,"uv_index":7.85,"wind_gusts":29.2,"aqi":925,"pm10":1218.2,"pm2_5":156.9,"no2":3.0,"co":210.0,"o3":118.0,"so2":8.2,"mosquito_risk":0,"arthritis_risk":5,"migraine_risk":10,"frizz_risk":1,"updated_at":"2026-06-21T11:35:11.162535+05:30"},{"city":"Ghaziabad","state":"Uttar Pradesh","latitude":28.6692,"longitude":77.4538,"temp":36.5,"humidity":37,"rain":0.0,"pressure":979.2,"uv_index":7.8,"wind_gusts":36.0,"aqi":329,"pm10":296.2,"pm2_5":86.6,"no2":3.8,"co":220.0,"o3":176.0,"so2":18.2,"mosquito_risk":0,"arthritis_risk":5,"migraine_risk":10,"frizz_risk":1,"updated_at":"2026-06-21T11:35:11.162542+05:30"},{"city":"Faridabad","state":"Haryana","latitude":28.4089,"longitude":77.3178,"temp":37.3,"humidity":33,"rain":0.0,"pressure":980.3,"uv_index":7.85,"wind_gusts":36.4,"aqi":925,"pm10":1218.2,"pm2_5":156.9,"no2":3.0,"co":181.0,"o3":118.0,"so2":8.2,"mosquito_risk":0,"arthritis_risk":5,"migraine_risk":10,"frizz_risk":1,"updated_at":"2026-06-21T11:35:11.162548+05:30"},{"city":"Meerut","state":"Uttar Pradesh","latitude":28.9845,"longitude":77.7064,"temp":35.8,"humidity":42,"rain":0.0,"pressure":978.1,"uv_index":7.7,"wind_gusts":34.2,"aqi":329,"pm10":296.2,"pm2_5":86.6,"no2":3.8,"co":268.0,"o3":176.0,"so2":18.2,"mosquito_risk":0,"arthritis_risk":5,"migraine_risk":10,"frizz_risk":1,"updated_at":"2026-06-21T11:35:11.162555+05:30"},{"city":"Agra","state":"Uttar Pradesh","latitude":27.1767,"longitude":78.0081,"temp":37.7,"humidity":33,"rain":0.0,"pressure":984.6,"uv_index":8.15,"wind_gusts":35.6,"aqi":891,"pm10":331.6,"pm2_5":57.5,"no2":1.4,"co":135.0,"o3":105.0,"so2":2.5,"mosquito_risk":0,"arthritis_risk":5,"migraine_risk":10,"frizz_risk":1,"updated_at":"2026-06-21T11:35:11.162561+05:30"},{"city":"Varanasi","state":"Uttar Pradesh","latitude":25.3176,"longitude":82.9739,"temp":39.1,"humidity":33,"rain":0.0,"pressure":993.2,"uv_index":8.75,"wind_gusts":38.5,"aqi":116,"pm10":253.3,"pm2_5":67.5,"no2":1.6,"co":167.0,"o3":139.0,"so2":7.5,"mosquito_risk":0,"arthritis_risk":5,"migraine_risk":10,"frizz_risk":1,"updated_at":"2026-06-21T11:35:11.162567+05:30"},{"city":"Prayagraj","state":"Uttar Pradesh","latitude":25.4358,"longitude":81.8463,"temp":38.6,"humidity":35,"rain":0.0,"pressure":991.8,"uv_index":8.7,"wind_gusts":38.9,"aqi":119,"pm10":199.3,"pm2_5":55.4,"no2":1.5,"co":143.0,"o3":129.0,"so2":7.2,"mosquito_risk":0,"arthritis_risk":5,"migraine_risk":10,"frizz_risk":1,"updated_at":"2026-06-21T11:35:11.162574+05:30"},{"city":"Gorakhpur","state":"Uttar Pradesh","latitude":26.7606,"longitude":83.3732,"temp":36.1,"humidity":50,"rain":0.0,"pressure":992.3,"uv_index":8.7,"wind_gusts":35.6,"aqi":158,"pm10":171.4,"pm2_5":70.1,"no2":2.4,"co":279.0,"o3":191.0,"so2":10.2,"mosquito_risk":0,"arthritis_risk":5,"migraine_risk":10,"frizz_risk":1,"updated_at":"2026-06-21T11:35:11.162580+05:30"},{"city":"Bareilly","state":"Uttar Pradesh","latitude":28.367,"longitude":79.4304,"temp":36.8,"humidity":38,"rain":0.0,"pressure":982.6,"uv_index":8.15,"wind_gusts":36.0,"aqi":159,"pm10":109.4,"pm2_5":55.1,"no2":2.1,"co":259.0,"o3":185.0,"so2":10.7,"mosquito_risk":0,"arthritis_risk":5,"migraine_risk":10,"frizz_risk":1,"updated_at":"2026-06-21T11:35:11.162588+05:30"},{"city":"Aligarh","state":"Uttar Pradesh","latitude":27.8974,"longitude":78.088,"temp":37.0,"humidity":36,"rain":0.0,"pressure":982.1,"uv_index":8.0,"wind_gusts":37.8,"aqi":574,"pm10":616.5,"pm2_5":109.7,"no2":2.6,"co":142.0,"o3":142.0,"so2":11.9,"mosquito_risk":0,"arthritis_risk":5,"migraine_risk":10,"frizz_risk":1,"updated_at":"2026-06-21T11:35:11.162594+05:30"},{"city":"Moradabad","state":"Uttar Pradesh","latitude":28.8386,"longitude":78.7733,"temp":36.8,"humidity":37,"rain":0.0,"pressure":979.7,"uv_index":7.95,"wind_gusts":40.7,"aqi":169,"pm10":112.2,"pm2_5":60.5,"no2":2.5,"co":300.0,"o3":193.0,"so2":12.3,"mosquito_risk":0,"arthritis_risk":5,"migraine_risk":10,"frizz_risk":1,"updated_at":"2026-06-21T11:35:11.162601+05:30"},{"city":"Saharanpur","state":"Uttar Pradesh","latitude":29.9637,"longitude":77.546,"temp":35.1,"humidity":40,"rain":0.0,"pressure":972.2,"uv_index":7.45,"wind_gusts":33.5,"aqi":167,"pm10":77.8,"pm2_5":46.9,"no2":3.1,"co":370.0,"o3":205.0,"so2":16.4,"mosquito_risk":0,"arthritis_risk":5,"migraine_risk":10,"frizz_risk":1,"updated_at":"2026-06-21T11:35:11.162607+05:30"},{"city":"Jhansi","state":"Uttar Pradesh","latitude":25.4484,"longitude":78.5685,"temp":36.5,"humidity":40,"rain":0.0,"pressure":975.7,"uv_index":6.5,"wind_gusts":42.1,"aqi":96,"pm10":55.1,"pm2_5":24.9,"no2":1.0,"co":133.0,"o3":95.0,"so2":3.5,"mosquito_risk":0,"arthritis_risk":5,"migraine_risk":10,"frizz_risk":1,"updated_at":"2026-06-21T11:35:14.510241+05:30"},{"city":"Surat","state":"Gujarat","latitude":21.1702,"longitude":72.8311,"temp":33.3,"humidity":57,"rain":0.1,"pressure":1006.3,"uv_index":7.6,"wind_gusts":45.7,"aqi":58,"pm10":26.5,"pm2_5":17.3,"no2":10.5,"co":321.0,"o3":54.0,"so2":35.4,"mosquito_risk":3,"arthritis_risk":5,"migraine_risk":4,"frizz_risk":1,"updated_at":"2026-06-21T11:35:14.510272+05:30"},{"city":"Vadodara","state":"Gujarat","latitude":22.3072,"longitude":73.1812,"temp":36.1,"humidity":44,"rain":0.0,"pressure":1003.2,"uv_index":8.0,"wind_gusts":47.9,"aqi":58,"pm10":35.9,"pm2_5":15.9,"no2":1.6,"co":121.0,"o3":75.0,"so2":3.7,"mosquito_risk":0,"arthritis_risk":5,"migraine_risk":7,"frizz_risk":1,"updated_at":"2026-06-21T11:35:14.510302+05:30"},{"city":"Rajkot","state":"Gujarat","latitude":22.3039,"longitude":70.8022,"temp":35.4,"humidity":44,"rain":0.0,"pressure":992.8,"uv_index":7.5,"wind_gusts":40.3,"aqi":64,"pm10":81.5,"pm2_5":24.7,"no2":1.0,"co":103.0,"o3":80.0,"so2":3.7,"mosquito_risk":0,"arthritis_risk":5,"migraine_risk":10,"frizz_risk":1,"updated_at":"2026-06-21T11:35:14.510313+05:30"},{"city":"Thane","state":"Maharashtra","latitude":19.2183,"longitude":72.9781,"temp":34.2,"humidity":46,"rain":0.0,"pressure":1007.6,"uv_index":7.7,"wind_gusts":38.5,"aqi":50,"pm10":24.3,"pm2_5":16.5,"no2":5.9,"co":150.0,"o3":91.0,"so2":11.2,"mosquito_risk":0,"arthritis_risk":5,"migraine_risk":4,"frizz_risk":1,"updated_at":"2026-06-21T11:35:14.510321+05:30"},{"city":"Nagpur","state":"Maharashtra","latitude":21.1458,"longitude":79.0882,"temp":36.7,"humidity":33,"rain":0.0,"pressure":972.2,"uv_index":8.7,"wind_gusts":42.8,"aqi":65,"pm10":59.8,"pm2_5":29.5,"no2":3.1,"co":152.0,"o3":124.0,"so2":13.6,"mosquito_risk":0,"arthritis_risk":5,"migraine_risk":10,"frizz_risk":1,"updated_at":"2026-06-21T11:35:14.510329+05:30"},{"city":"Nashik","state":"Maharashtra","latitude":19.9975,"longitude":73.7898,"temp":28.7,"humidity":55,"rain":0.0,"pressure":946.2,"uv_index":8.05,"wind_gusts":34.9,"aqi":34,"pm10":13.0,"pm2_5":7.9,"no2":0.8,"co":114.0,"o3":71.0,"so2":1.4,"mosquito_risk":4,"arthritis_risk":5,"migraine_risk":7,"frizz_risk":1,"updated_at":"2026-06-21T11:35:14.510337+05:30"},{"city":"Aurangabad","state":"Maharashtra","latitude":19.8762,"longitude":75.3433,"temp":33.0,"humidity":39,"rain":0.0,"pressure":945.0,"uv_index":8.95,"wind_gusts":44.3,"aqi":42,"pm10":16.4,"pm2_5":10.2,"no2":1.0,"co":120.0,"o3":90.0,"so2":3.1,"mosquito_risk":0,"arthritis_risk":5,"migraine_risk":7,"frizz_risk":1,"updated_at":"2026-06-21T11:35:14.510344+05:30"},{"city":"Solapur","state":"Maharashtra","latitude":17.6599,"longitude":75.9064,"temp":34.4,"humidity":39,"rain":0.0,"pressure":957.8,"uv_index":8.9,"wind_gusts":39.2,"aqi":55,"pm10":22.7,"pm2_5":14.1,"no2":1.2,"co":118.0,"o3":102.0,"so2":2.7,"mosquito_risk":0,"arthritis_risk":5,"migraine_risk":7,"frizz_risk":1,"updated_at":"2026-06-21T11:35:14.510352+05:30"},{"city":"Kolhapur","state":"Maharashtra","latitude":16.705,"longitude":74.2433,"temp":32.2,"humidity":48,"rain":0.0,"pressure":948.8,"uv_index":8.6,"wind_gusts":37.4,"aqi":45,"pm10":8.0,"pm2_5":6.1,"no2":1.2,"co":110.0,"o3":75.0,"so2":1.7,"mosquito_risk":0,"arthritis_risk":5,"migraine_risk":7,"frizz_risk":1,"updated_at":"2026-06-21T11:35:14.510359+05:30"},{"city":"Goa","state":"Goa","latitude":15.2993,"longitude":74.124,"temp":31.2,"humidity":68,"rain":0.1,"pressure":998.8,"uv_index":6.3,"wind_gusts":33.8,"aqi":38,"pm10":5.2,"pm2_5":3.7,"no2":0.7,"co":120.0,"o3":58.0,"so2":0.7,"mosquito_risk":6,"arthritis_risk":5,"migraine_risk":7,"frizz_risk":1,"updated_at":"2026-06-21T11:35:14.510367+05:30"},{"city":"Jodhpur","state":"Rajasthan","latitude":26.2389,"longitude":73.0243,"temp":34.8,"humidity":45,"rain":0.0,"pressure":980.9,"uv_index":8.4,"wind_gusts":41.4,"aqi":131,"pm10":224.9,"pm2_5":50.5,"no2":0.6,"co":105.0,"o3":74.0,"so2":2.7,"mosquito_risk":0,"arthritis_risk":5,"migraine_risk":7,"frizz_risk":1,"updated_at":"2026-06-21T11:35:14.510374+05:30"},{"city":"Udaipur","state":"Rajasthan","latitude":24.5854,"longitude":73.7125,"temp":31.9,"humidity":48,"rain":0.0,"pressure":945.9,"uv_index":8.8,"wind_gusts":35.6,"aqi":76,"pm10":52.2,"pm2_5":20.0,"no2":0.6,"co":104.0,"o3":73.0,"so2":2.2,"mosquito_risk":0,"arthritis_risk":5,"migraine_risk":7,"frizz_risk":1,"updated_at":"2026-06-21T11:35:14.510382+05:30"},{"city":"Kota","state":"Rajasthan","latitude":25.2138,"longitude":75.8648,"temp":35.4,"humidity":45,"rain":0.0,"pressure":977.0,"uv_index":8.35,"wind_gusts":37.1,"aqi":101,"pm10":65.4,"pm2_5":29.0,"no2":1.1,"co":122.0,"o3":98.0,"so2":5.0,"mosquito_risk":0,"arthritis_risk":5,"migraine_risk":10,"frizz_risk":1,"updated_at":"2026-06-21T11:35:14.510389+05:30"},{"city":"Bikaner","state":"Rajasthan","latitude":28.0229,"longitude":73.3119,"temp":36.6,"humidity":38,"rain":0.0,"pressure":978.7,"uv_index":8.45,"wind_gusts":50.0,"aqi":148,"pm10":250.5,"pm2_5":78.7,"no2":0.4,"co":108.0,"o3":88.0,"so2":3.6,"mosquito_risk":0,"arthritis_risk":5,"migraine_risk":10,"frizz_risk":1,"updated_at":"2026-06-21T11:35:14.510397+05:30"},{"city":"Ajmer","state":"Rajasthan","latitude":26.4499,"longitude":74.6399,"temp":32.5,"humidity":52,"rain":0.0,"pressure":953.3,"uv_index":8.3,"wind_gusts":45.0,"aqi":84,"pm10":115.9,"pm2_5":37.3,"no2":0.7,"co":110.0,"o3":80.0,"so2":2.8,"mosquito_risk":0,"arthritis_risk":5,"migraine_risk":7,"frizz_risk":1,"updated_at":"2026-06-21T11:35:14.510404+05:30"},{"city":"Gwalior","state":"Madhya Pradesh","latitude":26.2183,"longitude":78.1828,"temp":36.9,"humidity":38,"rain":0.0,"pressure":980.7,"uv_index":4.75,"wind_gusts":42.5,"aqi":100,"pm10":90.3,"pm2_5":27.9,"no2":0.6,"co":130.0,"o3":92.0,"so2":1.9,"mosquito_risk":0,"arthritis_risk":5,"migraine_risk":6,"frizz_risk":1,"updated_at":"2026-06-21T11:35:14.510412+05:30"},{"city":"Indore","state":"Madhya Pradesh","latitude":22.7196,"longitude":75.8577,"temp":33.0,"humidity":50,"rain":0.0,"pressure":948.2,"uv_index":8.5,"wind_gusts":48.6,"aqi":75,"pm10":52.5,"pm2_5":24.9,"no2":1.5,"co":143.0,"o3":95.0,"so2":6.5,"mosquito_risk":0,"arthritis_risk":5,"migraine_risk":7,"frizz_risk":1,"updated_at":"2026-06-21T11:35:14.510419+05:30"},{"city":"Bhopal","state":"Madhya Pradesh","latitude":23.2599,"longitude":77.4126,"temp":31.5,"humidity":54,"rain":0.0,"pressure":953.5,"uv_index":8.0,"wind_gusts":32.0,"aqi":74,"pm10":55.5,"pm2_5":26.9,"no2":1.2,"co":153.0,"o3":99.0,"so2":6.8,"mosquito_risk":0,"arthritis_risk":5,"migraine_risk":7,"frizz_risk":1,"updated_at":"2026-06-21T11:35:14.510427+05:30"},{"city":"Jabalpur","state":"Madhya Pradesh","latitude":23.1815,"longitude":79.9864,"temp":35.0,"humidity":42,"rain":0.0,"pressure":960.4,"uv_index":8.4,"wind_gusts":38.9,"aqi":72,"pm10":85.0,"pm2_5":34.1,"no2":0.7,"co":129.0,"o3":104.0,"so2":3.3,"mosquito_risk":0,"arthritis_risk":5,"migraine_risk":7,"frizz_risk":1,"updated_at":"2026-06-21T11:35:14.510434+05:30"},{"city":"Ujjain","state":"Madhya Pradesh","latitude":23.1765,"longitude":75.7885,"temp":33.3,"humidity":50,"rain":0.0,"pressure":953.7,"uv_index":7.8,"wind_gusts":41.4,"aqi":77,"pm10":49.7,"pm2_5":24.2,"no2":1.1,"co":133.0,"o3":93.0,"so2":5.9,"mosquito_risk":0,"arthritis_risk":5,"migraine_risk":7,"frizz_risk":1,"updated_at":"2026-06-21T11:35:14.510441+05:30"},{"city":"Visakhapatnam","state":"Andhra Pradesh","latitude":17.6868,"longitude":83.2185,"temp":30.6,"humidity":72,"rain":0.0,"pressure":1002.0,"uv_index":5.55,"wind_gusts":36.7,"aqi":94,"pm10":39.0,"pm2_5":35.0,"no2":10.5,"co":369.0,"o3":160.0,"so2":38.8,"mosquito_risk":3,"arthritis_risk":5,"migraine_risk":0,"frizz_risk":1,"updated_at":"2026-06-21T11:35:14.510448+05:30"},{"city":"Vijayawada","state":"Andhra Pradesh","latitude":16.5062,"longitude":80.648,"temp":33.0,"humidity":55,"rain":0.0,"pressure":1002.3,"uv_index":6.05,"wind_gusts":40.3,"aqi":89,"pm10":34.0,"pm2_5":28.6,"no2":4.5,"co":180.0,"o3":128.0,"so2":10.3,"mosquito_risk":0,"arthritis_risk":5,"migraine_risk":4,"frizz_risk":1,"updated_at":"2026-06-21T11:35:14.510455+05:30"},{"city":"Guntur","state":"Andhra Pradesh","latitude":16.3067,"longitude":80.4365,"temp":34.1,"humidity":50,"rain":0.0,"pressure":1003.3,"uv_index":5.55,"wind_gusts":27.4,"aqi":93,"pm10":32.9,"pm2_5":26.3,"no2":4.7,"co":186.0,"o3":116.0,"so2":10.6,"mosquito_risk":0,"arthritis_risk":5,"migraine_risk":0,"frizz_risk":1,"updated_at":"2026-06-21T11:35:14.510462+05:30"},{"city":"Nellore","state":"Andhra Pradesh","latitude":14.4426,"longitude":79.9865,"temp":34.7,"humidity":49,"rain":0.0,"pressure":1005.3,"uv_index":4.55,"wind_gusts":30.2,"aqi":75,"pm10":30.3,"pm2_5":21.5,"no2":2.5,"co":149.0,"o3":138.0,"so2":5.2,"mosquito_risk":0,"arthritis_risk":5,"migraine_risk":0,"frizz_risk":1,"updated_at":"2026-06-21T11:35:14.510470+05:30"},{"city":"Kurnool","state":"Andhra Pradesh","latitude":15.8281,"longitude":78.0373,"temp":33.6,"humidity":46,"rain":0.0,"pressure":977.5,"uv_index":8.15,"wind_gusts":51.8,"aqi":60,"pm10":21.8,"pm2_5":13.3,"no2":1.7,"co":124.0,"o3":106.0,"so2":6.3,"mosquito_risk":0,"arthritis_risk":5,"migraine_risk":7,"frizz_risk":1,"updated_at":"2026-06-21T11:35:14.510478+05:30"},{"city":"Kakinada","state":"Andhra Pradesh","latitude":16.9891,"longitude":82.2475,"temp":33.1,"humidity":60,"rain":0.0,"pressure":1006.1,"uv_index":2.85,"wind_gusts":31.7,"aqi":75,"pm10":29.0,"pm2_5":26.1,"no2":4.9,"co":255.0,"o3":130.0,"so2":7.2,"mosquito_risk":0,"arthritis_risk":5,"migraine_risk":0,"frizz_risk":1,"updated_at":"2026-06-21T11:35:14.510485+05:30"},{"city":"Tirupati","state":"Andhra Pradesh","latitude":13.6288,"longitude":79.4192,"temp":35.5,"humidity":41,"rain":0.0,"pressure":990.7,"uv_index":7.65,"wind_gusts":43.2,"aqi":74,"pm10":33.3,"pm2_5":20.6,"no2":2.1,"co":143.0,"o3":139.0,"so2":3.0,"mosquito_risk":0,"arthritis_risk":5,"migraine_risk":10,"frizz_risk":1,"updated_at":"2026-06-21T11:35:14.510492+05:30"},{"city":"Warangal","state":"Telangana","latitude":17.9689,"longitude":79.5941,"temp":31.0,"humidity":57,"rain":0.0,"pressure":978.7,"uv_index":8.7,"wind_gusts":34.2,"aqi":79,"pm10":33.2,"pm2_5":24.0,"no2":2.2,"co":152.0,"o3":132.0,"so2":6.8,"mosquito_risk":0,"arthritis_risk":5,"migraine_risk":7,"frizz_risk":1,"updated_at":"2026-06-21T11:35:14.510499+05:30"},{"city":"Nizamabad","state":"Telangana","latitude":18.6725,"longitude":78.0941,"temp":34.8,"humidity":42,"rain":0.0,"pressure":965.3,"uv_index":8.95,"wind_gusts":36.0,"aqi":64,"pm10":28.3,"pm2_5":19.3,"no2":1.2,"co":137.0,"o3":126.0,"so2":7.4,"mosquito_risk":0,"arthritis_risk":5,"migraine_risk":7,"frizz_risk":1,"updated_at":"2026-06-21T11:35:14.510506+05:30"},{"city":"Mysore","state":"Karnataka","latitude":12.2958,"longitude":76.6396,"temp":28.2,"humidity":62,"rain":0.0,"pressure":930.0,"uv_index":8.35,"wind_gusts":47.9,"aqi":49,"pm10":4.1,"pm2_5":3.3,"no2":1.3,"co":113.0,"o3":70.0,"so2":1.4,"mosquito_risk":7,"arthritis_risk":5,"migraine_risk":7,"frizz_risk":1,"updated_at":"2026-06-21T11:35:14.510513+05:30"},{"city":"Mangalore","state":"Karnataka","latitude":12.9141,"longitude":74.856,"temp":29.0,"humidity":75,"rain":0.0,"pressure":1008.0,"uv_index":7.4,"wind_gusts":36.7,"aqi":33,"pm10":4.9,"pm2_5":3.2,"no2":1.1,"co":118.0,"o3":53.0,"so2":1.0,"mosquito_risk":7,"arthritis_risk":0,"migraine_risk":4,"frizz_risk":1,"updated_at":"2026-06-21T11:35:14.510520+05:30"},{"city":"Hubli-Dharwad","state":"Karnataka","latitude":15.3647,"longitude":75.124,"temp":30.3,"humidity":57,"rain":0.1,"pressure":942.1,"uv_index":8.65,"wind_gusts":39.6,"aqi":33,"pm10":3.6,"pm2_5":2.6,"no2":1.0,"co":101.0,"o3":61.0,"so2":0.9,"mosquito_risk":3,"arthritis_risk":5,"migraine_risk":7,"frizz_risk":1,"updated_at":"2026-06-21T11:35:14.510527+05:30"},{"city":"Belgaum","state":"Karnataka","latitude":15.8497,"longitude":74.4977,"temp":28.1,"humidity":66,"rain":0.0,"pressure":926.9,"uv_index":8.85,"wind_gusts":36.0,"aqi":45,"pm10":3.8,"pm2_5":2.8,"no2":1.3,"co":103.0,"o3":58.0,"so2":1.1,"mosquito_risk":7,"arthritis_risk":5,"migraine_risk":7,"frizz_risk":1,"updated_at":"2026-06-21T11:35:17.851947+05:30"},{"city":"Coimbatore","state":"Tamil Nadu","latitude":11.0168,"longitude":76.9558,"temp":31.2,"humidity":53,"rain":0.1,"pressure":963.0,"uv_index":8.15,"wind_gusts":53.3,"aqi":47,"pm10":4.4,"pm2_5":3.6,"no2":1.0,"co":114.0,"o3":66.0,"so2":1.7,"mosquito_risk":3,"arthritis_risk":5,"migraine_risk":7,"frizz_risk":1,"updated_at":"2026-06-21T11:35:17.851979+05:30"},{"city":"Madurai","state":"Tamil Nadu","latitude":9.9252,"longitude":78.1198,"temp":35.3,"humidity":42,"rain":0.0,"pressure":993.9,"uv_index":8.2,"wind_gusts":35.6,"aqi":68,"pm10":36.2,"pm2_5":22.2,"no2":2.6,"co":191.0,"o3":132.0,"so2":5.1,"mosquito_risk":0,"arthritis_risk":5,"migraine_risk":10,"frizz_risk":1,"updated_at":"2026-06-21T11:35:17.851990+05:30"},{"city":"Trichy","state":"Tamil Nadu","latitude":10.7905,"longitude":78.7047,"temp":33.6,"humidity":53,"rain":0.0,"pressure":1000.3,"uv_index":8.5,"wind_gusts":36.0,"aqi":64,"pm10":26.2,"pm2_5":16.6,"no2":2.2,"co":155.0,"o3":112.0,"so2":4.0,"mosquito_risk":0,"arthritis_risk":5,"migraine_risk":4,"frizz_risk":1,"updated_at":"2026-06-21T11:35:17.851999+05:30"},{"city":"Salem","state":"Tamil Nadu","latitude":11.6643,"longitude":78.146,"temp":31.7,"humidity":59,"rain":0.0,"pressure":978.3,"uv_index":7.8,"wind_gusts":40.7,"aqi":69,"pm10":16.6,"pm2_5":11.8,"no2":2.9,"co":218.0,"o3":108.0,"so2":8.4,"mosquito_risk":0,"arthritis_risk":5,"migraine_risk":7,"frizz_risk":1,"updated_at":"2026-06-21T11:35:17.852007+05:30"},{"city":"Tirunelveli","state":"Tamil Nadu","latitude":8.7139,"longitude":77.7567,"temp":35.4,"humidity":44,"rain":0.0,"pressure":1003.8,"uv_index":8.65,"wind_gusts":34.6,"aqi":45,"pm10":3.6,"pm2_5":2.8,"no2":0.8,"co":128.0,"o3":66.0,"so2":0.8,"mosquito_risk":0,"arthritis_risk":5,"migraine_risk":7,"frizz_risk":1,"updated_at":"2026-06-21T11:35:17.852015+05:30"},{"city":"Vellore","state":"Tamil Nadu","latitude":12.9165,"longitude":79.1325,"temp":34.0,"humidity":46,"rain":0.0,"pressure":984.6,"uv_index":6.25,"wind_gusts":32.4,"aqi":90,"pm10":35.5,"pm2_5":23.3,"no2":2.7,"co":183.0,"o3":141.0,"so2":5.8,"mosquito_risk":0,"arthritis_risk":5,"migraine_risk":7,"frizz_risk":1,"updated_at":"2026-06-21T11:35:17.852022+05:30"},{"city":"Erode","state":"Tamil Nadu","latitude":11.341,"longitude":77.7172,"temp":33.1,"humidity":52,"rain":0.0,"pressure":989.8,"uv_index":8.3,"wind_gusts":48.6,"aqi":58,"pm10":7.3,"pm2_5":5.7,"no2":1.5,"co":126.0,"o3":79.0,"so2":1.9,"mosquito_risk":0,"arthritis_risk":5,"migraine_risk":7,"frizz_risk":1,"updated_at":"2026-06-21T11:35:17.852030+05:30"},{"city":"Kochi","state":"Kerala","latitude":9.9312,"longitude":76.2673,"temp":29.3,"humidity":75,"rain":0.0,"pressure":1010.5,"uv_index":8.35,"wind_gusts":43.2,"aqi":57,"pm10":6.6,"pm2_5":5.0,"no2":2.4,"co":97.0,"o3":63.0,"so2":2.7,"mosquito_risk":7,"arthritis_risk":0,"migraine_risk":4,"frizz_risk":1,"updated_at":"2026-06-21T11:35:17.852037+05:30"},{"city":"Thiruvananthapuram","state":"Kerala","latitude":8.5241,"longitude":76.9366,"temp":28.0,"humidity":80,"rain":0.1,"pressure":1010.4,"uv_index":7.6,"wind_gusts":38.2,"aqi":30,"pm10":7.5,"pm2_5":4.7,"no2":0.9,"co":90.0,"o3":68.0,"so2":0.8,"mosquito_risk":10,"arthritis_risk":0,"migraine_risk":4,"frizz_risk":1,"updated_at":"2026-06-21T11:35:17.852045+05:30"},{"city":"Kozhikode","state":"Kerala","latitude":11.2588,"longitude":75.7804,"temp":29.7,"humidity":71,"rain":0.0,"pressure":1009.3,"uv_index":7.65,"wind_gusts":42.1,"aqi":24,"pm10":5.2,"pm2_5":3.0,"no2":0.4,"co":115.0,"o3":59.0,"so2":0.6,"mosquito_risk":7,"arthritis_risk":0,"migraine_risk":4,"frizz_risk":1,"updated_at":"2026-06-21T11:35:17.852053+05:30"},{"city":"Thrissur","state":"Kerala","latitude":10.5276,"longitude":76.2144,"temp":29.7,"humidity":73,"rain":0.0,"pressure":1008.6,"uv_index":7.85,"wind_gusts":38.2,"aqi":55,"pm10":6.0,"pm2_5":4.7,"no2":2.0,"co":131.0,"o3":60.0,"so2":2.3,"mosquito_risk":7,"arthritis_risk":0,"migraine_risk":4,"frizz_risk":1,"updated_at":"2026-06-21T11:35:17.852060+05:30"},{"city":"Kannur","state":"Kerala","latitude":11.8745,"longitude":75.3704,"temp":29.0,"humidity":74,"rain":0.0,"pressure":1008.7,"uv_index":8.35,"wind_gusts":43.2,"aqi":31,"pm10":4.5,"pm2_5":2.9,"no2":0.9,"co":123.0,"o3":54.0,"so2":0.7,"mosquito_risk":7,"arthritis_risk":0,"migraine_risk":4,"frizz_risk":1,"updated_at":"2026-06-21T11:35:17.852067+05:30"},{"city":"Patna","state":"Bihar","latitude":25.5941,"longitude":85.1376,"temp":36.9,"humidity":50,"rain":0.0,"pressure":995.4,"uv_index":8.6,"wind_gusts":32.4,"aqi":156,"pm10":89.6,"pm2_5":51.1,"no2":2.7,"co":247.0,"o3":200.0,"so2":10.2,"mosquito_risk":0,"arthritis_risk":5,"migraine_risk":10,"frizz_risk":1,"updated_at":"2026-06-21T11:35:17.852073+05:30"},{"city":"Gaya","state":"Bihar","latitude":24.7914,"longitude":85.0002,"temp":37.6,"humidity":42,"rain":0.0,"pressure":989.2,"uv_index":8.6,"wind_gusts":36.0,"aqi":123,"pm10":87.8,"pm2_5":35.4,"no2":1.5,"co":194.0,"o3":149.0,"so2":5.2,"mosquito_risk":0,"arthritis_risk":5,"migraine_risk":10,"frizz_risk":1,"updated_at":"2026-06-21T11:35:17.852080+05:30"},{"city":"Muzaffarpur","state":"Bihar","latitude":26.1209,"longitude":85.3647,"temp":34.0,"humidity":66,"rain":0.0,"pressure":995.6,"uv_index":8.45,"wind_gusts":39.6,"aqi":166,"pm10":105.2,"pm2_5":61.7,"no2":2.7,"co":351.0,"o3":200.0,"so2":13.0,"mosquito_risk":3,"arthritis_risk":5,"migraine_risk":7,"frizz_risk":1,"updated_at":"2026-06-21T11:35:17.852087+05:30"},{"city":"Bhagalpur","state":"Bihar","latitude":25.2425,"longitude":87.0117,"temp":35.5,"humidity":59,"rain":0.0,"pressure":996.5,"uv_index":8.4,"wind_gusts":31.0,"aqi":150,"pm10":79.2,"pm2_5":45.4,"no2":4.7,"co":203.0,"o3":186.0,"so2":24.7,"mosquito_risk":0,"arthritis_risk":5,"migraine_risk":10,"frizz_risk":1,"updated_at":"2026-06-21T11:35:17.852094+05:30"},{"city":"Ranchi","state":"Jharkhand","latitude":23.3441,"longitude":85.3096,"temp":32.9,"humidity":52,"rain":0.0,"pressure":935.9,"uv_index":6.9,"wind_gusts":31.3,"aqi":86,"pm10":36.3,"pm2_5":27.1,"no2":1.6,"co":147.0,"o3":158.0,"so2":12.7,"mosquito_risk":0,"arthritis_risk":5,"migraine_risk":7,"frizz_risk":1,"updated_at":"2026-06-21T11:35:17.852100+05:30"},{"city":"Jamshedpur","state":"Jharkhand","latitude":22.8046,"longitude":86.2029,"temp":32.6,"humidity":63,"rain":0.0,"pressure":987.7,"uv_index":8.6,"wind_gusts":27.7,"aqi":129,"pm10":46.1,"pm2_5":41.9,"no2":5.8,"co":274.0,"o3":170.0,"so2":31.1,"mosquito_risk":3,"arthritis_risk":5,"migraine_risk":7,"frizz_risk":1,"updated_at":"2026-06-21T11:35:17.852108+05:30"},{"city":"Dhanbad","state":"Jharkhand","latitude":23.7957,"longitude":86.4304,"temp":34.5,"humidity":55,"rain":0.0,"pressure":976.4,"uv_index":5.9,"wind_gusts":33.5,"aqi":151,"pm10":69.6,"pm2_5":52.7,"no2":15.9,"co":180.0,"o3":178.0,"so2":65.3,"mosquito_risk":0,"arthritis_risk":5,"migraine_risk":3,"frizz_risk":1,"updated_at":"2026-06-21T11:35:17.852115+05:30"},{"city":"Bokaro","state":"Jharkhand","latitude":23.6693,"longitude":86.1511,"temp":34.9,"humidity":57,"rain":0.0,"pressure":980.0,"uv_index":5.0,"wind_gusts":31.3,"aqi":123,"pm10":58.9,"pm2_5":42.7,"no2":12.4,"co":168.0,"o3":176.0,"so2":49.6,"mosquito_risk":0,"arthritis_risk":5,"migraine_risk":3,"frizz_risk":1,"updated_at":"2026-06-21T11:35:17.852122+05:30"},{"city":"Bhubaneswar","state":"Odisha","latitude":20.2961,"longitude":85.8245,"temp":33.9,"humidity":59,"rain":0.0,"pressure":999.4,"uv_index":8.55,"wind_gusts":31.7,"aqi":96,"pm10":35.6,"pm2_5":30.7,"no2":4.6,"co":249.0,"o3":125.0,"so2":10.5,"mosquito_risk":0,"arthritis_risk":5,"migraine_risk":7,"frizz_risk":1,"updated_at":"2026-06-21T11:35:17.852129+05:30"},{"city":"Cuttack","state":"Odisha","latitude":20.4625,"longitude":85.8828,"temp":33.4,"humidity":61,"rain":0.0,"pressure":1001.2,"uv_index":8.5,"wind_gusts":28.1,"aqi":96,"pm10":35.6,"pm2_5":30.7,"no2":4.6,"co":338.0,"o3":125.0,"so2":10.5,"mosquito_risk":3,"arthritis_risk":5,"migraine_risk":4,"frizz_risk":1,"updated_at":"2026-06-21T11:35:17.852136+05:30"},{"city":"Rourkela","state":"Odisha","latitude":22.2604,"longitude":84.8536,"temp":34.5,"humidity":52,"rain":0.0,"pressure":982.1,"uv_index":8.7,"wind_gusts":29.9,"aqi":114,"pm10":50.4,"pm2_5":44.6,"no2":2.7,"co":262.0,"o3":185.0,"so2":17.3,"mosquito_risk":0,"arthritis_risk":5,"migraine_risk":7,"frizz_risk":1,"updated_at":"2026-06-21T11:35:17.852143+05:30"},{"city":"Raipur","state":"Chhattisgarh","latitude":21.2514,"longitude":81.6296,"temp":37.6,"humidity":35,"rain":0.0,"pressure":972.7,"uv_index":8.85,"wind_gusts":41.8,"aqi":85,"pm10":34.3,"pm2_5":24.9,"no2":5.7,"co":136.0,"o3":131.0,"so2":27.0,"mosquito_risk":0,"arthritis_risk":5,"migraine_risk":10,"frizz_risk":1,"updated_at":"2026-06-21T11:35:17.852150+05:30"},{"city":"Bhilai","state":"Chhattisgarh","latitude":21.1938,"longitude":81.3509,"temp":36.8,"humidity":36,"rain":0.0,"pressure":973.4,"uv_index":8.5,"wind_gusts":43.6,"aqi":78,"pm10":33.3,"pm2_5":22.1,"no2":4.6,"co":245.0,"o3":122.0,"so2":19.7,"mosquito_risk":0,"arthritis_risk":5,"migraine_risk":10,"frizz_risk":1,"updated_at":"2026-06-21T11:35:17.852157+05:30"},{"city":"Guwahati","state":"Assam","latitude":26.1158,"longitude":91.7086,"temp":25.4,"humidity":96,"rain":1.4,"pressure":998.9,"uv_index":7.95,"wind_gusts":32.8,"aqi":127,"pm10":23.9,"pm2_5":20.9,"no2":2.6,"co":307.0,"o3":105.0,"so2":3.1,"mosquito_risk":10,"arthritis_risk":5,"migraine_risk":7,"frizz_risk":1,"updated_at":"2026-06-21T11:35:17.852163+05:30"},{"city":"Agartala","state":"Tripura","latitude":23.8315,"longitude":91.2868,"temp":30.6,"humidity":76,"rain":0.1,"pressure":1004.0,"uv_index":8.7,"wind_gusts":41.0,"aqi":68,"pm10":16.0,"pm2_5":13.6,"no2":2.8,"co":187.0,"o3":106.0,"so2":1.3,"mosquito_risk":6,"arthritis_risk":5,"migraine_risk":4,"frizz_risk":1,"updated_at":"2026-06-21T11:35:17.852170+05:30"},{"city":"Shillong","state":"Meghalaya","latitude":25.5788,"longitude":91.8933,"temp":24.0,"humidity":76,"rain":0.0,"pressure":857.2,"uv_index":6.8,"wind_gusts":38.9,"aqi":57,"pm10":10.1,"pm2_5":8.7,"no2":2.9,"co":212.0,"o3":84.0,"so2":2.3,"mosquito_risk":3,"arthritis_risk":5,"migraine_risk":7,"frizz_risk":1,"updated_at":"2026-06-21T11:35:17.852176+05:30"},{"city":"Imphal","state":"Manipur","latitude":24.817,"longitude":93.9368,"temp":28.7,"humidity":67,"rain":0.0,"pressure":921.9,"uv_index":8.75,"wind_gusts":26.3,"aqi":79,"pm10":18.3,"pm2_5":13.0,"no2":1.0,"co":179.0,"o3":93.0,"so2":1.0,"mosquito_risk":7,"arthritis_risk":5,"migraine_risk":7,"frizz_risk":1,"updated_at":"2026-06-21T11:35:17.852183+05:30"},{"city":"Aizawl","state":"Mizoram","latitude":23.7271,"longitude":92.7176,"temp":24.5,"humidity":74,"rain":0.1,"pressure":892.0,"uv_index":9.0,"wind_gusts":36.4,"aqi":41,"pm10":11.9,"pm2_5":8.4,"no2":0.4,"co":151.0,"o3":83.0,"so2":0.5,"mosquito_risk":6,"arthritis_risk":5,"migraine_risk":7,"frizz_risk":1,"updated_at":"2026-06-21T11:35:17.852189+05:30"},{"city":"Kohima","state":"Nagaland","latitude":25.6701,"longitude":94.1077,"temp":21.7,"humidity":96,"rain":0.2,"pressure":854.5,"uv_index":8.6,"wind_gusts":24.5,"aqi":53,"pm10":10.3,"pm2_5":7.9,"no2":0.8,"co":201.0,"o3":88.0,"so2":0.9,"mosquito_risk":6,"arthritis_risk":5,"migraine_risk":7,"frizz_risk":1,"updated_at":"2026-06-21T11:35:17.852196+05:30"},{"city":"Gangtok","state":"Sikkim","latitude":27.3314,"longitude":88.6138,"temp":20.7,"humidity":99,"rain":0.1,"pressure":836.5,"uv_index":8.25,"wind_gusts":29.5,"aqi":90,"pm10":15.4,"pm2_5":12.2,"no2":1.2,"co":320.0,"o3":145.0,"so2":5.6,"mosquito_risk":6,"arthritis_risk":5,"migraine_risk":7,"frizz_risk":1,"updated_at":"2026-06-21T11:35:17.852202+05:30"},{"city":"Siliguri","state":"West Bengal","latitude":26.7271,"longitude":88.3953,"temp":26.9,"humidity":88,"rain":0.2,"pressure":989.5,"uv_index":7.35,"wind_gusts":27.4,"aqi":126,"pm10":20.7,"pm2_5":17.2,"no2":2.8,"co":409.0,"o3":141.0,"so2":7.0,"mosquito_risk":10,"arthritis_risk":5,"migraine_risk":7,"frizz_risk":1,"updated_at":"2026-06-21T11:35:21.226543+05:30"},{"city":"Durgapur","state":"West Bengal","latitude":23.5204,"longitude":87.3119,"temp":34.8,"humidity":59,"rain":0.0,"pressure":991.2,"uv_index":8.65,"wind_gusts":39.2,"aqi":157,"pm10":63.8,"pm2_5":50.2,"no2":20.6,"co":318.0,"o3":142.0,"so2":64.1,"mosquito_risk":0,"arthritis_risk":5,"migraine_risk":7,"frizz_risk":1,"updated_at":"2026-06-21T11:35:21.226575+05:30"},{"city":"Asansol","state":"West Bengal","latitude":23.6739,"longitude":86.9524,"temp":35.1,"humidity":54,"rain":0.0,"pressure":989.8,"uv_index":8.05,"wind_gusts":36.4,"aqi":152,"pm10":65.7,"pm2_5":48.8,"no2":16.0,"co":593.0,"o3":159.0,"so2":56.0,"mosquito_risk":0,"arthritis_risk":5,"migraine_risk":10,"frizz_risk":1,"updated_at":"2026-06-21T11:35:21.226586+05:30"},{"city":"Pondicherry","state":"Puducherry","latitude":11.9139,"longitude":79.8145,"temp":32.3,"humidity":65,"rain":0.0,"pressure":1008.8,"uv_index":7.9,"wind_gusts":52.6,"aqi":73,"pm10":29.8,"pm2_5":20.7,"no2":4.8,"co":174.0,"o3":108.0,"so2":14.6,"mosquito_risk":3,"arthritis_risk":0,"migraine_risk":4,"frizz_risk":1,"updated_at":"2026-06-21T11:35:21.226595+05:30"},{"city":"Port Blair","state":"Andaman and Nicobar Islands","latitude":11.6234,"longitude":92.7265,"temp":30.7,"humidity":70,"rain":0.0,"pressure":1009.5,"uv_index":7.8,"wind_gusts":34.9,"aqi":57,"pm10":31.1,"pm2_5":12.5,"no2":0.2,"co":89.0,"o3":49.0,"so2":0.6,"mosquito_risk":3,"arthritis_risk":0,"migraine_risk":4,"frizz_risk":1,"updated_at":"2026-06-21T11:35:21.226603+05:30"},{"city":"Haridwar","state":"Uttarakhand","latitude":29.9457,"longitude":78.1642,"temp":35.0,"humidity":45,"rain":0.0,"pressure":970.3,"uv_index":7.6,"wind_gusts":30.6,"aqi":145,"pm10":46.9,"pm2_5":34.7,"no2":1.8,"co":368.0,"o3":190.0,"so2":10.5,"mosquito_risk":0,"arthritis_risk":5,"migraine_risk":7,"frizz_risk":1,"updated_at":"2026-06-21T11:35:21.226611+05:30"},{"city":"Rishikesh","state":"Uttarakhand","latitude":30.0869,"longitude":78.2676,"temp":33.9,"humidity":47,"rain":0.0,"pressure":963.2,"uv_index":7.7,"wind_gusts":25.2,"aqi":103,"pm10":41.2,"pm2_5":28.1,"no2":0.9,"co":307.0,"o3":163.0,"so2":6.0,"mosquito_risk":0,"arthritis_risk":5,"migraine_risk":7,"frizz_risk":1,"updated_at":"2026-06-21T11:35:21.226618+05:30"},{"city":"Nainital","state":"Uttarakhand","latitude":29.3919,"longitude":79.4542,"temp":24.7,"humidity":42,"rain":0.0,"pressure":807.5,"uv_index":8.6,"wind_gusts":33.5,"aqi":113,"pm10":73.8,"pm2_5":32.8,"no2":1.1,"co":218.0,"o3":157.0,"so2":6.0,"mosquito_risk":0,"arthritis_risk":5,"migraine_risk":7,"frizz_risk":0,"updated_at":"2026-06-21T11:35:21.226626+05:30"},{"city":"Mussoorie","state":"Uttarakhand","latitude":30.4599,"longitude":78.0664,"temp":22.8,"humidity":57,"rain":0.0,"pressure":804.7,"uv_index":8.15,"wind_gusts":40.7,"aqi":95,"pm10":38.0,"pm2_5":26.9,"no2":1.2,"co":242.0,"o3":167.0,"so2":6.6,"mosquito_risk":0,"arthritis_risk":5,"migraine_risk":7,"frizz_risk":0,"updated_at":"2026-06-21T11:35:21.226633+05:30"},{"city":"Dharamshala","state":"Himachal Pradesh","latitude":32.219,"longitude":76.3234,"temp":26.5,"humidity":47,"rain":0.0,"pressure":869.1,"uv_index":8.5,"wind_gusts":43.6,"aqi":57,"pm10":24.3,"pm2_5":13.5,"no2":0.4,"co":209.0,"o3":138.0,"so2":0.9,"mosquito_risk":4,"arthritis_risk":5,"migraine_risk":7,"frizz_risk":0,"updated_at":"2026-06-21T11:35:21.226640+05:30"},{"city":"Dalhousie","state":"Himachal Pradesh","latitude":32.5387,"longitude":75.971,"temp":23.1,"humidity":52,"rain":0.0,"pressure":806.3,"uv_index":8.75,"wind_gusts":42.1,"aqi":74,"pm10":18.7,"pm2_5":10.6,"no2":0.9,"co":204.0,"o3":138.0,"so2":1.3,"mosquito_risk":0,"arthritis_risk":5,"migraine_risk":7,"frizz_risk":0,"updated_at":"2026-06-21T11:35:21.226648+05:30"},{"city":"Patiala","state":"Punjab","latitude":30.3398,"longitude":76.3869,"temp":36.7,"humidity":34,"rain":0.0,"pressure":974.7,"uv_index":7.7,"wind_gusts":36.7,"aqi":397,"pm10":154.1,"pm2_5":49.0,"no2":2.1,"co":301.0,"o3":177.0,"so2":10.9,"mosquito_risk":0,"arthritis_risk":5,"migraine_risk":10,"frizz_risk":1,"updated_at":"2026-06-21T11:35:21.226655+05:30"},{"city":"Bhatinda","state":"Punjab","latitude":30.211,"longitude":74.9455,"temp":37.2,"humidity":31,"rain":0.0,"pressure":980.3,"uv_index":8.3,"wind_gusts":35.6,"aqi":151,"pm10":130.4,"pm2_5":55.1,"no2":2.8,"co":183.0,"o3":166.0,"so2":13.8,"mosquito_risk":0,"arthritis_risk":5,"migraine_risk":10,"frizz_risk":1,"updated_at":"2026-06-21T11:35:21.226662+05:30"},{"city":"Rohtak","state":"Haryana","latitude":28.8955,"longitude":76.6066,"temp":36.3,"humidity":37,"rain":0.0,"pressure":978.5,"uv_index":7.75,"wind_gusts":29.5,"aqi":390,"pm10":648.2,"pm2_5":92.0,"no2":1.6,"co":189.0,"o3":111.0,"so2":4.2,"mosquito_risk":0,"arthritis_risk":5,"migraine_risk":10,"frizz_risk":1,"updated_at":"2026-06-21T11:35:21.226669+05:30"},{"city":"Panipat","state":"Haryana","latitude":29.3909,"longitude":76.9635,"temp":36.3,"humidity":36,"rain":0.0,"pressure":977.0,"uv_index":7.65,"wind_gusts":31.3,"aqi":1296,"pm10":1289.0,"pm2_5":165.8,"no2":3.2,"co":276.0,"o3":143.0,"so2":14.4,"mosquito_risk":0,"arthritis_risk":5,"migraine_risk":10,"frizz_risk":1,"updated_at":"2026-06-21T11:35:21.226675+05:30"},{"city":"Mathura","state":"Uttar Pradesh","latitude":27.4924,"longitude":77.6737,"temp":36.6,"humidity":37,"rain":0.0,"pressure":983.5,"uv_index":8.1,"wind_gusts":31.3,"aqi":641,"pm10":987.2,"pm2_5":119.2,"no2":1.3,"co":129.0,"o3":97.0,"so2":2.1,"mosquito_risk":0,"arthritis_risk":5,"migraine_risk":10,"frizz_risk":1,"updated_at":"2026-06-21T11:35:21.226683+05:30"},{"city":"Vrindavan","state":"Uttar Pradesh","latitude":27.5823,"longitude":77.7027,"temp":36.6,"humidity":38,"rain":0.0,"pressure":983.9,"uv_index":8.05,"wind_gusts":32.4,"aqi":641,"pm10":987.2,"pm2_5":119.2,"no2":1.3,"co":130.0,"o3":97.0,"so2":2.1,"mosquito_risk":0,"arthritis_risk":5,"migraine_risk":10,"frizz_risk":1,"updated_at":"2026-06-21T11:35:21.226689+05:30"},{"city":"Ayodhya","state":"Uttar Pradesh","latitude":26.7922,"longitude":82.1998,"temp":36.9,"humidity":41,"rain":0.0,"pressure":990.6,"uv_index":8.45,"wind_gusts":36.4,"aqi":163,"pm10":365.1,"pm2_5":97.6,"no2":2.2,"co":214.0,"o3":175.0,"so2":10.8,"mosquito_risk":0,"arthritis_risk":5,"migraine_risk":10,"frizz_risk":1,"updated_at":"2026-06-21T11:35:21.226696+05:30"},{"city":"Ratlam","state":"Madhya Pradesh","latitude":23.3315,"longitude":75.0367,"temp":33.1,"humidity":50,"rain":0.0,"pressure":954.6,"uv_index":8.45,"wind_gusts":41.4,"aqi":73,"pm10":46.9,"pm2_5":22.9,"no2":1.0,"co":112.0,"o3":91.0,"so2":5.3,"mosquito_risk":0,"arthritis_risk":5,"migraine_risk":7,"frizz_risk":1,"updated_at":"2026-06-21T11:35:21.226703+05:30"},{"city":"Sagar","state":"Madhya Pradesh","latitude":23.8388,"longitude":78.7378,"temp":33.8,"humidity":45,"rain":0.0,"pressure":949.4,"uv_index":6.75,"wind_gusts":45.7,"aqi":79,"pm10":75.9,"pm2_5":31.5,"no2":0.9,"co":164.0,"o3":104.0,"so2":4.6,"mosquito_risk":0,"arthritis_risk":5,"migraine_risk":7,"frizz_risk":1,"updated_at":"2026-06-21T11:35:21.226709+05:30"},{"city":"Satna","state":"Madhya Pradesh","latitude":24.6005,"longitude":80.8322,"temp":33.1,"humidity":51,"rain":0.1,"pressure":969.2,"uv_index":8.3,"wind_gusts":40.0,"aqi":75,"pm10":120.1,"pm2_5":44.5,"no2":0.9,"co":134.0,"o3":109.0,"so2":5.7,"mosquito_risk":3,"arthritis_risk":5,"migraine_risk":7,"frizz_risk":1,"updated_at":"2026-06-21T11:35:21.226716+05:30"},{"city":"Akola","state":"Maharashtra","latitude":20.7002,"longitude":77.0082,"temp":33.5,"humidity":43,"rain":0.0,"pressure":975.5,"uv_index":8.8,"wind_gusts":42.8,"aqi":58,"pm10":27.3,"pm2_5":16.0,"no2":1.5,"co":104.0,"o3":108.0,"so2":8.9,"mosquito_risk":0,"arthritis_risk":5,"migraine_risk":7,"frizz_risk":1,"updated_at":"2026-06-21T11:35:21.226724+05:30"},{"city":"Amravati","state":"Maharashtra","latitude":20.9374,"longitude":77.7796,"temp":34.5,"humidity":43,"rain":0.0,"pressure":967.4,"uv_index":8.4,"wind_gusts":42.5,"aqi":60,"pm10":27.8,"pm2_5":17.4,"no2":1.7,"co":109.0,"o3":117.0,"so2":9.9,"mosquito_risk":0,"arthritis_risk":5,"migraine_risk":7,"frizz_risk":1,"updated_at":"2026-06-21T11:35:21.226732+05:30"},{"city":"Latur","state":"Maharashtra","latitude":18.4088,"longitude":76.5604,"temp":33.1,"humidity":46,"rain":0.0,"pressure":940.8,"uv_index":6.85,"wind_gusts":27.7,"aqi":67,"pm10":21.7,"pm2_5":15.1,"no2":1.1,"co":116.0,"o3":112.0,"so2":5.5,"mosquito_risk":0,"arthritis_risk":5,"migraine_risk":7,"frizz_risk":1,"updated_at":"2026-06-21T11:35:21.226739+05:30"},{"city":"Nanded","state":"Maharashtra","latitude":19.1383,"longitude":77.3091,"temp":36.2,"humidity":38,"rain":0.0,"pressure":968.9,"uv_index":8.0,"wind_gusts":37.8,"aqi":60,"pm10":21.8,"pm2_5":14.5,"no2":1.1,"co":122.0,"o3":108.0,"so2":5.6,"mosquito_risk":0,"arthritis_risk":5,"migraine_risk":10,"frizz_risk":1,"updated_at":"2026-06-21T11:35:21.226745+05:30"},{"city":"Gulbarga","state":"Karnataka","latitude":17.3297,"longitude":76.8343,"temp":34.7,"humidity":39,"rain":0.0,"pressure":959.3,"uv_index":8.55,"wind_gusts":35.3,"aqi":57,"pm10":21.9,"pm2_5":14.4,"no2":1.5,"co":124.0,"o3":109.0,"so2":3.5,"mosquito_risk":0,"arthritis_risk":5,"migraine_risk":7,"frizz_risk":1,"updated_at":"2026-06-21T11:35:21.226752+05:30"},{"city":"Bidar","state":"Karnataka","latitude":17.9104,"longitude":77.5199,"temp":33.4,"humidity":46,"rain":0.0,"pressure":936.5,"uv_index":8.85,"wind_gusts":31.3,"aqi":68,"pm10":25.7,"pm2_5":18.7,"no2":1.6,"co":135.0,"o3":126.0,"so2":7.3,"mosquito_risk":0,"arthritis_risk":5,"migraine_risk":7,"frizz_risk":1,"updated_at":"2026-06-21T11:35:21.226759+05:30"},{"city":"Hospet","state":"Karnataka","latitude":15.2689,"longitude":76.3909,"temp":31.1,"humidity":55,"rain":0.0,"pressure":957.0,"uv_index":8.6,"wind_gusts":33.5,"aqi":44,"pm10":6.4,"pm2_5":4.6,"no2":1.2,"co":113.0,"o3":71.0,"so2":2.1,"mosquito_risk":0,"arthritis_risk":5,"migraine_risk":7,"frizz_risk":1,"updated_at":"2026-06-21T11:35:21.226765+05:30"},{"city":"Tirupur","state":"Tamil Nadu","latitude":11.1085,"longitude":77.3411,"temp":32.8,"humidity":50,"rain":0.0,"pressure":976.2,"uv_index":8.1,"wind_gusts":53.6,"aqi":59,"pm10":7.8,"pm2_5":6.3,"no2":1.6,"co":110.0,"o3":82.0,"so2":2.5,"mosquito_risk":0,"arthritis_risk":5,"migraine_risk":7,"frizz_risk":1,"updated_at":"2026-06-21T11:35:21.226771+05:30"},{"city":"Alappuzha","state":"Kerala","latitude":9.4981,"longitude":76.3388,"temp":29.1,"humidity":75,"rain":0.0,"pressure":1010.8,"uv_index":8.15,"wind_gusts":40.7,"aqi":47,"pm10":7.1,"pm2_5":5.0,"no2":1.5,"co":89.0,"o3":67.0,"so2":1.5,"mosquito_risk":7,"arthritis_risk":0,"migraine_risk":4,"frizz_risk":1,"updated_at":"2026-06-21T11:35:21.226777+05:30"},{"city":"Munnar","state":"Kerala","latitude":10.0889,"longitude":77.0595,"temp":22.3,"humidity":77,"rain":0.0,"pressure":859.6,"uv_index":8.4,"wind_gusts":33.8,"aqi":57,"pm10":3.7,"pm2_5":2.8,"no2":0.6,"co":85.0,"o3":57.0,"so2":0.9,"mosquito_risk":3,"arthritis_risk":5,"migraine_risk":7,"frizz_risk":1,"updated_at":"2026-06-21T11:35:21.226784+05:30"},{"city":"Silchar","state":"Assam","latitude":24.8333,"longitude":92.7789,"temp":30.0,"humidity":78,"rain":0.0,"pressure":1002.8,"uv_index":8.85,"wind_gusts":33.1,"aqi":87,"pm10":13.1,"pm2_5":10.3,"no2":1.6,"co":196.0,"o3":84.0,"so2":2.0,"mosquito_risk":7,"arthritis_risk":5,"migraine_risk":4,"frizz_risk":1,"updated_at":"2026-06-21T11:35:21.226791+05:30"},{"city":"Dibrugarh","state":"Assam","latitude":27.4728,"longitude":94.912,"temp":28.5,"humidity":84,"rain":0.1,"pressure":992.1,"uv_index":4.65,"wind_gusts":29.5,"aqi":85,"pm10":30.9,"pm2_5":22.9,"no2":1.4,"co":229.0,"o3":122.0,"so2":2.3,"mosquito_risk":10,"arthritis_risk":5,"migraine_risk":3,"frizz_risk":1,"updated_at":"2026-06-21T11:35:21.226797+05:30"}]