[{"city":"Delhi","state":"Delhi","latitude":28.6139,"longitude":77.209,"temp":34.3,"humidity":27,"rain":0.0,"pressure":977.0,"uv_index":7.7,"wind_gusts":49.0,"aqi":638,"pm10":914.6,"pm2_5":188.6,"no2":24.4,"co":352.0,"o3":66.0,"so2":16.0,"mosquito_risk":0,"arthritis_risk":5,"migraine_risk":7,"frizz_risk":0,"updated_at":"2026-05-17T23:29:46.181857+05:30"},{"city":"Mumbai","state":"Maharashtra","latitude":19.076,"longitude":72.8777,"temp":29.4,"humidity":84,"rain":0.0,"pressure":1005.7,"uv_index":7.55,"wind_gusts":46.1,"aqi":63,"pm10":42.3,"pm2_5":17.7,"no2":6.8,"co":199.0,"o3":65.0,"so2":4.6,"mosquito_risk":7,"arthritis_risk":5,"migraine_risk":4,"frizz_risk":1,"updated_at":"2026-05-17T23:29:46.181905+05:30"},{"city":"Bangalore","state":"Karnataka","latitude":12.9716,"longitude":77.5946,"temp":25.0,"humidity":72,"rain":0.0,"pressure":910.7,"uv_index":9.45,"wind_gusts":30.2,"aqi":94,"pm10":31.7,"pm2_5":26.3,"no2":22.6,"co":372.0,"o3":95.0,"so2":10.3,"mosquito_risk":7,"arthritis_risk":5,"migraine_risk":7,"frizz_risk":1,"updated_at":"2026-05-17T23:29:46.181937+05:30"},{"city":"Hyderabad","state":"Telangana","latitude":17.385,"longitude":78.4867,"temp":30.9,"humidity":53,"rain":0.0,"pressure":951.6,"uv_index":9.3,"wind_gusts":29.9,"aqi":76,"pm10":30.5,"pm2_5":23.2,"no2":12.9,"co":331.0,"o3":82.0,"so2":6.9,"mosquito_risk":0,"arthritis_risk":5,"migraine_risk":7,"frizz_risk":1,"updated_at":"2026-05-17T23:29:46.181947+05:30"},{"city":"Chennai","state":"Tamil Nadu","latitude":13.0827,"longitude":80.2707,"temp":29.8,"humidity":82,"rain":0.0,"pressure":1005.3,"uv_index":9.15,"wind_gusts":41.8,"aqi":97,"pm10":29.4,"pm2_5":19.2,"no2":4.3,"co":169.0,"o3":99.0,"so2":4.9,"mosquito_risk":7,"arthritis_risk":5,"migraine_risk":4,"frizz_risk":1,"updated_at":"2026-05-17T23:29:46.181955+05:30"},{"city":"Kolkata","state":"West Bengal","latitude":22.5726,"longitude":88.3639,"temp":28.8,"humidity":90,"rain":0.0,"pressure":1002.1,"uv_index":8.95,"wind_gusts":35.3,"aqi":62,"pm10":22.8,"pm2_5":17.1,"no2":8.0,"co":255.0,"o3":56.0,"so2":6.4,"mosquito_risk":7,"arthritis_risk":5,"migraine_risk":4,"frizz_risk":1,"updated_at":"2026-05-17T23:29:46.181963+05:30"},{"city":"Pune","state":"Maharashtra","latitude":18.5204,"longitude":73.8567,"temp":28.2,"humidity":72,"rain":0.0,"pressure":945.7,"uv_index":8.45,"wind_gusts":39.6,"aqi":105,"pm10":34.3,"pm2_5":24.2,"no2":12.6,"co":247.0,"o3":107.0,"so2":20.7,"mosquito_risk":7,"arthritis_risk":5,"migraine_risk":7,"frizz_risk":1,"updated_at":"2026-05-17T23:29:46.181969+05:30"},{"city":"Ahmedabad","state":"Gujarat","latitude":23.0225,"longitude":72.5714,"temp":37.0,"humidity":23,"rain":0.0,"pressure":997.9,"uv_index":8.15,"wind_gusts":29.9,"aqi":63,"pm10":34.8,"pm2_5":19.0,"no2":7.6,"co":275.0,"o3":68.0,"so2":4.5,"mosquito_risk":0,"arthritis_risk":5,"migraine_risk":10,"frizz_risk":0,"updated_at":"2026-05-17T23:29:46.181976+05:30"},{"city":"Jaipur","state":"Rajasthan","latitude":26.9124,"longitude":75.7873,"temp":35.0,"humidity":20,"rain":0.0,"pressure":955.9,"uv_index":8.25,"wind_gusts":41.8,"aqi":127,"pm10":146.2,"pm2_5":41.4,"no2":13.9,"co":275.0,"o3":53.0,"so2":7.1,"mosquito_risk":0,"arthritis_risk":5,"migraine_risk":7,"frizz_risk":0,"updated_at":"2026-05-17T23:29:46.181985+05:30"},{"city":"Lucknow","state":"Uttar Pradesh","latitude":26.8467,"longitude":80.9462,"temp":32.9,"humidity":38,"rain":0.0,"pressure":987.1,"uv_index":8.2,"wind_gusts":47.5,"aqi":157,"pm10":428.4,"pm2_5":112.5,"no2":14.4,"co":298.0,"o3":78.0,"so2":11.2,"mosquito_risk":0,"arthritis_risk":5,"migraine_risk":7,"frizz_risk":1,"updated_at":"2026-05-17T23:29:46.181991+05:30"},{"city":"Kanpur","state":"Uttar Pradesh","latitude":26.4499,"longitude":80.3319,"temp":34.2,"humidity":29,"rain":0.0,"pressure":985.8,"uv_index":8.2,"wind_gusts":46.1,"aqi":302,"pm10":506.6,"pm2_5":112.2,"no2":11.5,"co":282.0,"o3":76.0,"so2":9.9,"mosquito_risk":0,"arthritis_risk":5,"migraine_risk":7,"frizz_risk":0,"updated_at":"2026-05-17T23:29:46.181998+05:30"},{"city":"Chandigarh","state":"Chandigarh","latitude":30.7333,"longitude":76.7794,"temp":28.7,"humidity":38,"rain":0.0,"pressure":962.3,"uv_index":7.7,"wind_gusts":43.2,"aqi":107,"pm10":27.7,"pm2_5":24.7,"no2":14.9,"co":477.0,"o3":92.0,"so2":10.2,"mosquito_risk":4,"arthritis_risk":5,"migraine_risk":7,"frizz_risk":0,"updated_at":"2026-05-17T23:29:46.182004+05:30"},{"city":"Srinagar","state":"Jammu and Kashmir","latitude":34.0837,"longitude":74.7973,"temp":14.8,"humidity":86,"rain":0.0,"pressure":838.6,"uv_index":8.9,"wind_gusts":18.0,"aqi":81,"pm10":45.4,"pm2_5":40.6,"no2":29.5,"co":752.0,"o3":59.0,"so2":4.1,"mosquito_risk":3,"arthritis_risk":10,"migraine_risk":7,"frizz_risk":0,"updated_at":"2026-05-17T23:29:46.182011+05:30"},{"city":"Jammu","state":"Jammu and Kashmir","latitude":32.7266,"longitude":74.857,"temp":29.6,"humidity":43,"rain":0.0,"pressure":966.7,"uv_index":8.5,"wind_gusts":40.0,"aqi":68,"pm10":37.0,"pm2_5":34.0,"no2":32.3,"co":443.0,"o3":35.0,"so2":5.7,"mosquito_risk":4,"arthritis_risk":5,"migraine_risk":7,"frizz_risk":0,"updated_at":"2026-05-17T23:29:46.182017+05:30"},{"city":"Amritsar","state":"Punjab","latitude":31.634,"longitude":74.8723,"temp":29.4,"humidity":45,"rain":0.0,"pressure":974.8,"uv_index":8.4,"wind_gusts":33.1,"aqi":98,"pm10":44.4,"pm2_5":34.5,"no2":24.7,"co":488.0,"o3":67.0,"so2":9.6,"mosquito_risk":4,"arthritis_risk":5,"migraine_risk":7,"frizz_risk":1,"updated_at":"2026-05-17T23:29:46.182023+05:30"},{"city":"Ludhiana","state":"Punjab","latitude":30.901,"longitude":75.8573,"temp":30.1,"humidity":43,"rain":0.0,"pressure":972.6,"uv_index":7.95,"wind_gusts":42.8,"aqi":86,"pm10":86.6,"pm2_5":41.2,"no2":11.9,"co":498.0,"o3":87.0,"so2":8.1,"mosquito_risk":0,"arthritis_risk":5,"migraine_risk":7,"frizz_risk":0,"updated_at":"2026-05-17T23:29:46.182029+05:30"},{"city":"Jalandhar","state":"Punjab","latitude":31.326,"longitude":75.5762,"temp":29.6,"humidity":42,"rain":0.0,"pressure":973.6,"uv_index":8.15,"wind_gusts":36.7,"aqi":100,"pm10":92.4,"pm2_5":45.5,"no2":17.8,"co":587.0,"o3":75.0,"so2":9.2,"mosquito_risk":4,"arthritis_risk":5,"migraine_risk":7,"frizz_risk":0,"updated_at":"2026-05-17T23:29:46.182036+05:30"},{"city":"Dehradun","state":"Uttarakhand","latitude":30.6284,"longitude":78.0322,"temp":16.2,"humidity":68,"rain":0.0,"pressure":824.9,"uv_index":8.15,"wind_gusts":43.9,"aqi":100,"pm10":20.0,"pm2_5":16.9,"no2":23.9,"co":243.0,"o3":80.0,"so2":3.4,"mosquito_risk":3,"arthritis_risk":5,"migraine_risk":7,"frizz_risk":0,"updated_at":"2026-05-17T23:29:46.182042+05:30"},{"city":"Shimla","state":"Himachal Pradesh","latitude":31.1048,"longitude":77.1734,"temp":15.7,"humidity":52,"rain":0.0,"pressure":781.3,"uv_index":8.25,"wind_gusts":49.0,"aqi":106,"pm10":26.2,"pm2_5":17.5,"no2":12.7,"co":221.0,"o3":111.0,"so2":3.9,"mosquito_risk":0,"arthritis_risk":5,"migraine_risk":7,"frizz_risk":0,"updated_at":"2026-05-17T23:29:46.182054+05:30"},{"city":"Manali","state":"Himachal Pradesh","latitude":32.2396,"longitude":77.1887,"temp":10.0,"humidity":58,"rain":0.0,"pressure":811.5,"uv_index":9.85,"wind_gusts":40.0,"aqi":96,"pm10":6.3,"pm2_5":5.2,"no2":16.6,"co":276.0,"o3":117.0,"so2":0.1,"mosquito_risk":0,"arthritis_risk":5,"migraine_risk":7,"frizz_risk":0,"updated_at":"2026-05-17T23:29:46.182061+05:30"},{"city":"Gurgaon","state":"Haryana","latitude":28.4595,"longitude":77.0266,"temp":31.8,"humidity":34,"rain":0.0,"pressure":975.4,"uv_index":7.8,"wind_gusts":47.2,"aqi":1040,"pm10":972.3,"pm2_5":176.5,"no2":25.9,"co":478.0,"o3":63.0,"so2":17.1,"mosquito_risk":0,"arthritis_risk":5,"migraine_risk":7,"frizz_risk":0,"updated_at":"2026-05-17T23:29:46.182067+05:30"},{"city":"Noida","state":"Uttar Pradesh","latitude":28.5355,"longitude":77.391,"temp":32.0,"humidity":36,"rain":0.0,"pressure":978.1,"uv_index":7.75,"wind_gusts":43.2,"aqi":1040,"pm10":972.3,"pm2_5":176.5,"no2":25.9,"co":378.0,"o3":63.0,"so2":17.1,"mosquito_risk":0,"arthritis_risk":5,"migraine_risk":7,"frizz_risk":0,"updated_at":"2026-05-17T23:29:46.182073+05:30"},{"city":"Ghaziabad","state":"Uttar Pradesh","latitude":28.6692,"longitude":77.4538,"temp":30.8,"humidity":36,"rain":0.0,"pressure":976.3,"uv_index":7.7,"wind_gusts":50.4,"aqi":500,"pm10":845.6,"pm2_5":183.9,"no2":20.4,"co":317.0,"o3":69.0,"so2":17.3,"mosquito_risk":0,"arthritis_risk":5,"migraine_risk":7,"frizz_risk":0,"updated_at":"2026-05-17T23:29:46.182079+05:30"},{"city":"Faridabad","state":"Haryana","latitude":28.4089,"longitude":77.3178,"temp":34.6,"humidity":27,"rain":0.0,"pressure":977.6,"uv_index":7.75,"wind_gusts":50.0,"aqi":1040,"pm10":972.3,"pm2_5":176.5,"no2":25.9,"co":423.0,"o3":63.0,"so2":17.1,"mosquito_risk":0,"arthritis_risk":5,"migraine_risk":7,"frizz_risk":0,"updated_at":"2026-05-17T23:29:46.182085+05:30"},{"city":"Meerut","state":"Uttar Pradesh","latitude":28.9845,"longitude":77.7064,"temp":31.6,"humidity":31,"rain":0.0,"pressure":974.9,"uv_index":7.65,"wind_gusts":50.8,"aqi":500,"pm10":845.6,"pm2_5":183.9,"no2":20.4,"co":362.0,"o3":69.0,"so2":17.3,"mosquito_risk":0,"arthritis_risk":5,"migraine_risk":7,"frizz_risk":0,"updated_at":"2026-05-17T23:29:46.182092+05:30"},{"city":"Agra","state":"Uttar Pradesh","latitude":27.1767,"longitude":78.0081,"temp":33.5,"humidity":30,"rain":0.0,"pressure":981.8,"uv_index":8.05,"wind_gusts":38.9,"aqi":650,"pm10":542.0,"pm2_5":108.7,"no2":21.3,"co":318.0,"o3":48.0,"so2":11.3,"mosquito_risk":0,"arthritis_risk":5,"migraine_risk":7,"frizz_risk":0,"updated_at":"2026-05-17T23:29:46.182098+05:30"},{"city":"Varanasi","state":"Uttar Pradesh","latitude":25.3176,"longitude":82.9739,"temp":33.2,"humidity":31,"rain":0.0,"pressure":991.7,"uv_index":8.7,"wind_gusts":45.7,"aqi":148,"pm10":115.0,"pm2_5":53.3,"no2":25.7,"co":542.0,"o3":60.0,"so2":13.5,"mosquito_risk":0,"arthritis_risk":5,"migraine_risk":7,"frizz_risk":0,"updated_at":"2026-05-17T23:29:46.182104+05:30"},{"city":"Prayagraj","state":"Uttar Pradesh","latitude":25.4358,"longitude":81.8463,"temp":32.5,"humidity":33,"rain":0.0,"pressure":990.3,"uv_index":8.6,"wind_gusts":39.6,"aqi":146,"pm10":164.8,"pm2_5":59.5,"no2":23.5,"co":340.0,"o3":56.0,"so2":12.2,"mosquito_risk":0,"arthritis_risk":5,"migraine_risk":7,"frizz_risk":0,"updated_at":"2026-05-17T23:29:46.182110+05:30"},{"city":"Gorakhpur","state":"Uttar Pradesh","latitude":26.7606,"longitude":83.3732,"temp":29.6,"humidity":56,"rain":0.0,"pressure":990.8,"uv_index":8.6,"wind_gusts":35.6,"aqi":145,"pm10":75.0,"pm2_5":45.3,"no2":15.8,"co":467.0,"o3":86.0,"so2":11.5,"mosquito_risk":4,"arthritis_risk":5,"migraine_risk":7,"frizz_risk":1,"updated_at":"2026-05-17T23:29:46.182119+05:30"},{"city":"Bareilly","state":"Uttar Pradesh","latitude":28.367,"longitude":79.4304,"temp":29.1,"humidity":53,"rain":0.0,"pressure":979.7,"uv_index":8.0,"wind_gusts":37.1,"aqi":121,"pm10":160.7,"pm2_5":57.3,"no2":17.4,"co":381.0,"o3":79.0,"so2":11.5,"mosquito_risk":4,"arthritis_risk":5,"migraine_risk":7,"frizz_risk":1,"updated_at":"2026-05-17T23:29:46.182126+05:30"},{"city":"Aligarh","state":"Uttar Pradesh","latitude":27.8974,"longitude":78.088,"temp":31.5,"humidity":38,"rain":0.0,"pressure":979.4,"uv_index":7.85,"wind_gusts":49.7,"aqi":650,"pm10":972.3,"pm2_5":183.9,"no2":16.6,"co":344.0,"o3":70.0,"so2":12.9,"mosquito_risk":0,"arthritis_risk":5,"migraine_risk":7,"frizz_risk":0,"updated_at":"2026-05-17T23:29:46.182133+05:30"},{"city":"Moradabad","state":"Uttar Pradesh","latitude":28.8386,"longitude":78.7733,"temp":30.5,"humidity":46,"rain":0.0,"pressure":976.7,"uv_index":7.85,"wind_gusts":45.7,"aqi":153,"pm10":271.9,"pm2_5":89.4,"no2":23.1,"co":415.0,"o3":57.0,"so2":10.4,"mosquito_risk":0,"arthritis_risk":5,"migraine_risk":7,"frizz_risk":1,"updated_at":"2026-05-17T23:29:46.182141+05:30"},{"city":"Saharanpur","state":"Uttar Pradesh","latitude":29.9637,"longitude":77.546,"temp":30.0,"humidity":36,"rain":0.0,"pressure":968.8,"uv_index":7.35,"wind_gusts":42.8,"aqi":96,"pm10":64.3,"pm2_5":29.5,"no2":10.0,"co":308.0,"o3":103.0,"so2":9.7,"mosquito_risk":4,"arthritis_risk":5,"migraine_risk":7,"frizz_risk":0,"updated_at":"2026-05-17T23:29:46.182149+05:30"},{"city":"Jhansi","state":"Uttar Pradesh","latitude":25.4484,"longitude":78.5685,"temp":33.0,"humidity":26,"rain":0.0,"pressure":972.8,"uv_index":8.45,"wind_gusts":34.6,"aqi":122,"pm10":100.8,"pm2_5":36.7,"no2":7.4,"co":281.0,"o3":66.0,"so2":5.0,"mosquito_risk":0,"arthritis_risk":5,"migraine_risk":7,"frizz_risk":0,"updated_at":"2026-05-17T23:29:49.504741+05:30"},{"city":"Surat","state":"Gujarat","latitude":21.1702,"longitude":72.8311,"temp":31.4,"humidity":70,"rain":0.0,"pressure":1002.6,"uv_index":7.75,"wind_gusts":41.4,"aqi":87,"pm10":35.0,"pm2_5":22.9,"no2":24.3,"co":361.0,"o3":46.0,"so2":38.5,"mosquito_risk":3,"arthritis_risk":5,"migraine_risk":4,"frizz_risk":1,"updated_at":"2026-05-17T23:29:49.504776+05:30"},{"city":"Vadodara","state":"Gujarat","latitude":22.3072,"longitude":73.1812,"temp":35.0,"humidity":36,"rain":0.0,"pressure":1000.0,"uv_index":8.1,"wind_gusts":31.0,"aqi":74,"pm10":47.8,"pm2_5":30.4,"no2":17.9,"co":268.0,"o3":68.0,"so2":13.2,"mosquito_risk":0,"arthritis_risk":5,"migraine_risk":4,"frizz_risk":1,"updated_at":"2026-05-17T23:29:49.504787+05:30"},{"city":"Rajkot","state":"Gujarat","latitude":22.3039,"longitude":70.8022,"temp":28.5,"humidity":66,"rain":0.0,"pressure":992.1,"uv_index":7.2,"wind_gusts":38.5,"aqi":58,"pm10":32.9,"pm2_5":15.8,"no2":6.6,"co":147.0,"o3":59.0,"so2":5.6,"mosquito_risk":7,"arthritis_risk":5,"migraine_risk":7,"frizz_risk":1,"updated_at":"2026-05-17T23:29:49.504796+05:30"},{"city":"Thane","state":"Maharashtra","latitude":19.2183,"longitude":72.9781,"temp":29.2,"humidity":84,"rain":0.0,"pressure":1005.3,"uv_index":7.6,"wind_gusts":39.2,"aqi":63,"pm10":42.3,"pm2_5":17.7,"no2":6.8,"co":191.0,"o3":65.0,"so2":4.6,"mosquito_risk":7,"arthritis_risk":5,"migraine_risk":4,"frizz_risk":1,"updated_at":"2026-05-17T23:29:49.504805+05:30"},{"city":"Nagpur","state":"Maharashtra","latitude":21.1458,"longitude":79.0882,"temp":35.0,"humidity":27,"rain":0.0,"pressure":970.0,"uv_index":8.95,"wind_gusts":31.7,"aqi":91,"pm10":28.2,"pm2_5":23.8,"no2":23.0,"co":370.0,"o3":61.0,"so2":12.3,"mosquito_risk":0,"arthritis_risk":5,"migraine_risk":7,"frizz_risk":0,"updated_at":"2026-05-17T23:29:49.504813+05:30"},{"city":"Nashik","state":"Maharashtra","latitude":19.9975,"longitude":73.7898,"temp":28.8,"humidity":39,"rain":0.0,"pressure":943.5,"uv_index":8.2,"wind_gusts":42.5,"aqi":86,"pm10":38.0,"pm2_5":22.6,"no2":13.0,"co":208.0,"o3":78.0,"so2":6.5,"mosquito_risk":4,"arthritis_risk":5,"migraine_risk":7,"frizz_risk":0,"updated_at":"2026-05-17T23:29:49.504819+05:30"},{"city":"Aurangabad","state":"Maharashtra","latitude":19.8762,"longitude":75.3433,"temp":32.7,"humidity":29,"rain":0.0,"pressure":941.7,"uv_index":9.05,"wind_gusts":40.7,"aqi":73,"pm10":19.6,"pm2_5":13.4,"no2":7.0,"co":194.0,"o3":96.0,"so2":4.7,"mosquito_risk":0,"arthritis_risk":5,"migraine_risk":7,"frizz_risk":0,"updated_at":"2026-05-17T23:29:49.504826+05:30"},{"city":"Solapur","state":"Maharashtra","latitude":17.6599,"longitude":75.9064,"temp":33.8,"humidity":35,"rain":0.0,"pressure":954.4,"uv_index":9.1,"wind_gusts":33.5,"aqi":84,"pm10":27.1,"pm2_5":24.1,"no2":18.3,"co":281.0,"o3":72.0,"so2":7.1,"mosquito_risk":0,"arthritis_risk":5,"migraine_risk":7,"frizz_risk":0,"updated_at":"2026-05-17T23:29:49.504835+05:30"},{"city":"Kolhapur","state":"Maharashtra","latitude":16.705,"longitude":74.2433,"temp":26.2,"humidity":85,"rain":0.0,"pressure":946.3,"uv_index":8.8,"wind_gusts":45.0,"aqi":69,"pm10":21.8,"pm2_5":14.8,"no2":6.6,"co":194.0,"o3":68.0,"so2":5.1,"mosquito_risk":7,"arthritis_risk":5,"migraine_risk":7,"frizz_risk":1,"updated_at":"2026-05-17T23:29:49.504842+05:30"},{"city":"Goa","state":"Goa","latitude":15.2993,"longitude":74.124,"temp":28.6,"humidity":88,"rain":0.0,"pressure":996.1,"uv_index":8.9,"wind_gusts":34.9,"aqi":57,"pm10":39.5,"pm2_5":17.8,"no2":3.3,"co":335.0,"o3":55.0,"so2":1.6,"mosquito_risk":7,"arthritis_risk":5,"migraine_risk":7,"frizz_risk":1,"updated_at":"2026-05-17T23:29:49.504849+05:30"},{"city":"Jodhpur","state":"Rajasthan","latitude":26.2389,"longitude":73.0243,"temp":35.4,"humidity":22,"rain":0.0,"pressure":978.9,"uv_index":8.45,"wind_gusts":33.5,"aqi":78,"pm10":130.4,"pm2_5":31.5,"no2":7.3,"co":195.0,"o3":70.0,"so2":4.4,"mosquito_risk":0,"arthritis_risk":5,"migraine_risk":10,"frizz_risk":0,"updated_at":"2026-05-17T23:29:49.504856+05:30"},{"city":"Udaipur","state":"Rajasthan","latitude":24.5854,"longitude":73.7125,"temp":32.6,"humidity":27,"rain":0.0,"pressure":943.8,"uv_index":8.85,"wind_gusts":33.5,"aqi":54,"pm10":51.2,"pm2_5":22.4,"no2":7.5,"co":179.0,"o3":62.0,"so2":4.8,"mosquito_risk":0,"arthritis_risk":5,"migraine_risk":7,"frizz_risk":0,"updated_at":"2026-05-17T23:29:49.504864+05:30"},{"city":"Kota","state":"Rajasthan","latitude":25.2138,"longitude":75.8648,"temp":35.3,"humidity":20,"rain":0.0,"pressure":974.2,"uv_index":8.4,"wind_gusts":31.0,"aqi":102,"pm10":161.1,"pm2_5":47.1,"no2":13.4,"co":225.0,"o3":82.0,"so2":6.6,"mosquito_risk":0,"arthritis_risk":5,"migraine_risk":10,"frizz_risk":0,"updated_at":"2026-05-17T23:29:49.504871+05:30"},{"city":"Bikaner","state":"Rajasthan","latitude":28.0229,"longitude":73.3119,"temp":35.2,"humidity":23,"rain":0.0,"pressure":977.1,"uv_index":8.4,"wind_gusts":37.8,"aqi":76,"pm10":77.3,"pm2_5":25.6,"no2":2.2,"co":194.0,"o3":77.0,"so2":2.3,"mosquito_risk":0,"arthritis_risk":5,"migraine_risk":10,"frizz_risk":0,"updated_at":"2026-05-17T23:29:49.504877+05:30"},{"city":"Ajmer","state":"Rajasthan","latitude":26.4499,"longitude":74.6399,"temp":32.6,"humidity":28,"rain":0.0,"pressure":951.4,"uv_index":8.4,"wind_gusts":46.8,"aqi":83,"pm10":72.4,"pm2_5":26.3,"no2":6.0,"co":206.0,"o3":69.0,"so2":4.1,"mosquito_risk":0,"arthritis_risk":5,"migraine_risk":7,"frizz_risk":0,"updated_at":"2026-05-17T23:29:49.504884+05:30"},{"city":"Gwalior","state":"Madhya Pradesh","latitude":26.2183,"longitude":78.1828,"temp":34.4,"humidity":24,"rain":0.0,"pressure":977.8,"uv_index":8.25,"wind_gusts":40.7,"aqi":262,"pm10":68.9,"pm2_5":28.9,"no2":6.5,"co":242.0,"o3":72.0,"so2":4.9,"mosquito_risk":0,"arthritis_risk":5,"migraine_risk":7,"frizz_risk":0,"updated_at":"2026-05-17T23:29:49.504891+05:30"},{"city":"Indore","state":"Madhya Pradesh","latitude":22.7196,"longitude":75.8577,"temp":34.3,"humidity":21,"rain":0.0,"pressure":944.9,"uv_index":8.7,"wind_gusts":43.6,"aqi":63,"pm10":59.3,"pm2_5":36.0,"no2":16.2,"co":414.0,"o3":78.0,"so2":11.0,"mosquito_risk":0,"arthritis_risk":5,"migraine_risk":7,"frizz_risk":0,"updated_at":"2026-05-17T23:29:49.504898+05:30"},{"city":"Bhopal","state":"Madhya Pradesh","latitude":23.2599,"longitude":77.4126,"temp":34.0,"humidity":24,"rain":0.0,"pressure":949.8,"uv_index":8.7,"wind_gusts":38.9,"aqi":54,"pm10":37.6,"pm2_5":27.6,"no2":16.0,"co":550.0,"o3":67.0,"so2":8.4,"mosquito_risk":0,"arthritis_risk":5,"migraine_risk":7,"frizz_risk":0,"updated_at":"2026-05-17T23:29:49.504905+05:30"},{"city":"Jabalpur","state":"Madhya Pradesh","latitude":23.1815,"longitude":79.9864,"temp":31.7,"humidity":34,"rain":0.0,"pressure":957.6,"uv_index":8.9,"wind_gusts":39.2,"aqi":87,"pm10":59.3,"pm2_5":30.6,"no2":16.9,"co":334.0,"o3":71.0,"so2":6.2,"mosquito_risk":0,"arthritis_risk":5,"migraine_risk":7,"frizz_risk":0,"updated_at":"2026-05-17T23:29:49.504912+05:30"},{"city":"Ujjain","state":"Madhya Pradesh","latitude":23.1765,"longitude":75.7885,"temp":34.0,"humidity":19,"rain":0.0,"pressure":950.1,"uv_index":8.65,"wind_gusts":39.6,"aqi":69,"pm10":58.8,"pm2_5":30.2,"no2":5.4,"co":337.0,"o3":87.0,"so2":6.2,"mosquito_risk":0,"arthritis_risk":5,"migraine_risk":7,"frizz_risk":0,"updated_at":"2026-05-17T23:29:49.504920+05:30"},{"city":"Visakhapatnam","state":"Andhra Pradesh","latitude":17.6868,"longitude":83.2185,"temp":29.6,"humidity":82,"rain":0.0,"pressure":1001.8,"uv_index":8.75,"wind_gusts":43.2,"aqi":60,"pm10":24.8,"pm2_5":17.8,"no2":15.0,"co":265.0,"o3":64.0,"so2":27.2,"mosquito_risk":7,"arthritis_risk":5,"migraine_risk":4,"frizz_risk":1,"updated_at":"2026-05-17T23:29:49.504943+05:30"},{"city":"Vijayawada","state":"Andhra Pradesh","latitude":16.5062,"longitude":80.648,"temp":30.0,"humidity":78,"rain":0.0,"pressure":1000.6,"uv_index":9.2,"wind_gusts":32.8,"aqi":52,"pm10":22.9,"pm2_5":17.1,"no2":6.2,"co":213.0,"o3":66.0,"so2":6.1,"mosquito_risk":7,"arthritis_risk":5,"migraine_risk":4,"frizz_risk":1,"updated_at":"2026-05-17T23:29:49.504950+05:30"},{"city":"Guntur","state":"Andhra Pradesh","latitude":16.3067,"longitude":80.4365,"temp":29.9,"humidity":80,"rain":0.0,"pressure":1001.9,"uv_index":9.2,"wind_gusts":33.5,"aqi":49,"pm10":21.4,"pm2_5":16.5,"no2":5.5,"co":195.0,"o3":70.0,"so2":4.4,"mosquito_risk":7,"arthritis_risk":5,"migraine_risk":4,"frizz_risk":1,"updated_at":"2026-05-17T23:29:49.504957+05:30"},{"city":"Nellore","state":"Andhra Pradesh","latitude":14.4426,"longitude":79.9865,"temp":29.4,"humidity":82,"rain":0.0,"pressure":1003.9,"uv_index":9.15,"wind_gusts":37.1,"aqi":93,"pm10":33.1,"pm2_5":25.0,"no2":4.7,"co":194.0,"o3":120.0,"so2":10.2,"mosquito_risk":7,"arthritis_risk":5,"migraine_risk":4,"frizz_risk":1,"updated_at":"2026-05-17T23:29:49.504965+05:30"},{"city":"Kurnool","state":"Andhra Pradesh","latitude":15.8281,"longitude":78.0373,"temp":34.0,"humidity":41,"rain":0.0,"pressure":974.6,"uv_index":9.15,"wind_gusts":32.4,"aqi":58,"pm10":35.4,"pm2_5":23.3,"no2":8.7,"co":220.0,"o3":73.0,"so2":3.2,"mosquito_risk":0,"arthritis_risk":5,"migraine_risk":7,"frizz_risk":1,"updated_at":"2026-05-17T23:29:49.504974+05:30"},{"city":"Kakinada","state":"Andhra Pradesh","latitude":16.9891,"longitude":82.2475,"temp":30.0,"humidity":79,"rain":0.0,"pressure":1005.4,"uv_index":8.7,"wind_gusts":36.0,"aqi":46,"pm10":27.0,"pm2_5":16.9,"no2":1.8,"co":212.0,"o3":78.0,"so2":1.6,"mosquito_risk":7,"arthritis_risk":5,"migraine_risk":4,"frizz_risk":1,"updated_at":"2026-05-17T23:29:49.504981+05:30"},{"city":"Tirupati","state":"Andhra Pradesh","latitude":13.6288,"longitude":79.4192,"temp":27.8,"humidity":86,"rain":0.0,"pressure":989.7,"uv_index":9.25,"wind_gusts":29.5,"aqi":96,"pm10":31.3,"pm2_5":26.7,"no2":9.7,"co":302.0,"o3":107.0,"so2":12.2,"mosquito_risk":7,"arthritis_risk":5,"migraine_risk":7,"frizz_risk":1,"updated_at":"2026-05-17T23:29:49.504988+05:30"},{"city":"Warangal","state":"Telangana","latitude":17.9689,"longitude":79.5941,"temp":31.2,"humidity":58,"rain":0.0,"pressure":976.4,"uv_index":8.8,"wind_gusts":31.0,"aqi":64,"pm10":36.3,"pm2_5":31.3,"no2":12.6,"co":359.0,"o3":93.0,"so2":9.4,"mosquito_risk":0,"arthritis_risk":5,"migraine_risk":7,"frizz_risk":1,"updated_at":"2026-05-17T23:29:49.504995+05:30"},{"city":"Nizamabad","state":"Telangana","latitude":18.6725,"longitude":78.0941,"temp":31.4,"humidity":53,"rain":0.0,"pressure":961.8,"uv_index":9.15,"wind_gusts":31.7,"aqi":89,"pm10":40.9,"pm2_5":33.9,"no2":12.3,"co":277.0,"o3":86.0,"so2":5.8,"mosquito_risk":0,"arthritis_risk":5,"migraine_risk":7,"frizz_risk":1,"updated_at":"2026-05-17T23:29:49.505001+05:30"},{"city":"Mysore","state":"Karnataka","latitude":12.2958,"longitude":76.6396,"temp":23.8,"humidity":94,"rain":0.0,"pressure":927.1,"uv_index":9.1,"wind_gusts":36.4,"aqi":70,"pm10":20.8,"pm2_5":17.4,"no2":11.6,"co":276.0,"o3":67.0,"so2":3.7,"mosquito_risk":3,"arthritis_risk":5,"migraine_risk":7,"frizz_risk":1,"updated_at":"2026-05-17T23:29:49.505008+05:30"},{"city":"Mangalore","state":"Karnataka","latitude":12.9141,"longitude":74.856,"temp":26.5,"humidity":93,"rain":0.0,"pressure":1005.0,"uv_index":8.75,"wind_gusts":36.7,"aqi":61,"pm10":22.1,"pm2_5":15.6,"no2":10.1,"co":336.0,"o3":41.0,"so2":3.4,"mosquito_risk":7,"arthritis_risk":5,"migraine_risk":4,"frizz_risk":1,"updated_at":"2026-05-17T23:29:49.505015+05:30"},{"city":"Hubli-Dharwad","state":"Karnataka","latitude":15.3647,"longitude":75.124,"temp":24.4,"humidity":99,"rain":0.0,"pressure":939.5,"uv_index":9.15,"wind_gusts":52.9,"aqi":55,"pm10":17.7,"pm2_5":11.2,"no2":6.4,"co":171.0,"o3":48.0,"so2":1.9,"mosquito_risk":3,"arthritis_risk":5,"migraine_risk":7,"frizz_risk":1,"updated_at":"2026-05-17T23:29:49.505021+05:30"},{"city":"Belgaum","state":"Karnataka","latitude":15.8497,"longitude":74.4977,"temp":24.4,"humidity":93,"rain":0.0,"pressure":924.7,"uv_index":9.15,"wind_gusts":44.6,"aqi":53,"pm10":23.2,"pm2_5":14.2,"no2":6.7,"co":148.0,"o3":53.0,"so2":2.7,"mosquito_risk":3,"arthritis_risk":5,"migraine_risk":7,"frizz_risk":1,"updated_at":"2026-05-17T23:29:52.818269+05:30"},{"city":"Coimbatore","state":"Tamil Nadu","latitude":11.0168,"longitude":76.9558,"temp":24.3,"humidity":94,"rain":0.1,"pressure":960.7,"uv_index":8.7,"wind_gusts":48.2,"aqi":52,"pm10":4.7,"pm2_5":4.3,"no2":6.8,"co":188.0,"o3":61.0,"so2":3.2,"mosquito_risk":6,"arthritis_risk":5,"migraine_risk":7,"frizz_risk":1,"updated_at":"2026-05-17T23:29:52.818304+05:30"},{"city":"Madurai","state":"Tamil Nadu","latitude":9.9252,"longitude":78.1198,"temp":27.2,"humidity":93,"rain":0.0,"pressure":991.7,"uv_index":8.5,"wind_gusts":32.4,"aqi":89,"pm10":33.2,"pm2_5":28.1,"no2":38.0,"co":249.0,"o3":26.0,"so2":9.0,"mosquito_risk":7,"arthritis_risk":5,"migraine_risk":7,"frizz_risk":1,"updated_at":"2026-05-17T23:29:52.818316+05:30"},{"city":"Trichy","state":"Tamil Nadu","latitude":10.7905,"longitude":78.7047,"temp":27.8,"humidity":93,"rain":0.0,"pressure":998.3,"uv_index":8.45,"wind_gusts":40.0,"aqi":80,"pm10":24.8,"pm2_5":22.2,"no2":15.2,"co":283.0,"o3":69.0,"so2":5.0,"mosquito_risk":7,"arthritis_risk":5,"migraine_risk":7,"frizz_risk":1,"updated_at":"2026-05-17T23:29:52.818325+05:30"},{"city":"Salem","state":"Tamil Nadu","latitude":11.6643,"longitude":78.146,"temp":27.0,"humidity":79,"rain":0.0,"pressure":976.2,"uv_index":8.5,"wind_gusts":43.2,"aqi":107,"pm10":31.9,"pm2_5":25.6,"no2":12.7,"co":333.0,"o3":92.0,"so2":5.7,"mosquito_risk":7,"arthritis_risk":5,"migraine_risk":7,"frizz_risk":1,"updated_at":"2026-05-17T23:29:52.818333+05:30"},{"city":"Tirunelveli","state":"Tamil Nadu","latitude":8.7139,"longitude":77.7567,"temp":28.5,"humidity":73,"rain":0.0,"pressure":1002.0,"uv_index":8.95,"wind_gusts":28.8,"aqi":36,"pm10":7.6,"pm2_5":6.6,"no2":5.4,"co":232.0,"o3":61.0,"so2":1.6,"mosquito_risk":7,"arthritis_risk":5,"migraine_risk":4,"frizz_risk":1,"updated_at":"2026-05-17T23:29:52.818341+05:30"},{"city":"Vellore","state":"Tamil Nadu","latitude":12.9165,"longitude":79.1325,"temp":26.7,"humidity":98,"rain":0.0,"pressure":983.0,"uv_index":9.2,"wind_gusts":23.4,"aqi":97,"pm10":33.2,"pm2_5":27.4,"no2":10.2,"co":309.0,"o3":89.0,"so2":10.8,"mosquito_risk":7,"arthritis_risk":5,"migraine_risk":7,"frizz_risk":1,"updated_at":"2026-05-17T23:29:52.818348+05:30"},{"city":"Erode","state":"Tamil Nadu","latitude":11.341,"longitude":77.7172,"temp":26.6,"humidity":83,"rain":0.0,"pressure":987.9,"uv_index":8.55,"wind_gusts":34.6,"aqi":67,"pm10":17.2,"pm2_5":14.2,"no2":13.9,"co":213.0,"o3":56.0,"so2":3.4,"mosquito_risk":7,"arthritis_risk":5,"migraine_risk":7,"frizz_risk":1,"updated_at":"2026-05-17T23:29:52.818356+05:30"},{"city":"Kochi","state":"Kerala","latitude":9.9312,"longitude":76.2673,"temp":25.5,"humidity":93,"rain":0.3,"pressure":1008.5,"uv_index":8.7,"wind_gusts":28.4,"aqi":52,"pm10":18.1,"pm2_5":15.6,"no2":16.0,"co":231.0,"o3":40.0,"so2":5.4,"mosquito_risk":10,"arthritis_risk":0,"migraine_risk":4,"frizz_risk":1,"updated_at":"2026-05-17T23:29:52.818363+05:30"},{"city":"Thiruvananthapuram","state":"Kerala","latitude":8.5241,"longitude":76.9366,"temp":25.0,"humidity":99,"rain":0.0,"pressure":1008.0,"uv_index":8.3,"wind_gusts":33.5,"aqi":39,"pm10":11.8,"pm2_5":7.5,"no2":1.9,"co":260.0,"o3":75.0,"so2":0.8,"mosquito_risk":7,"arthritis_risk":0,"migraine_risk":4,"frizz_risk":1,"updated_at":"2026-05-17T23:29:52.818370+05:30"},{"city":"Kozhikode","state":"Kerala","latitude":11.2588,"longitude":75.7804,"temp":25.5,"humidity":100,"rain":0.1,"pressure":1006.9,"uv_index":8.65,"wind_gusts":40.7,"aqi":50,"pm10":16.1,"pm2_5":9.6,"no2":1.7,"co":360.0,"o3":77.0,"so2":1.1,"mosquito_risk":10,"arthritis_risk":5,"migraine_risk":4,"frizz_risk":1,"updated_at":"2026-05-17T23:29:52.818377+05:30"},{"city":"Thrissur","state":"Kerala","latitude":10.5276,"longitude":76.2144,"temp":24.3,"humidity":99,"rain":0.1,"pressure":1006.7,"uv_index":8.75,"wind_gusts":30.2,"aqi":53,"pm10":19.6,"pm2_5":17.5,"no2":12.6,"co":265.0,"o3":44.0,"so2":4.1,"mosquito_risk":6,"arthritis_risk":5,"migraine_risk":4,"frizz_risk":1,"updated_at":"2026-05-17T23:29:52.818385+05:30"},{"city":"Kannur","state":"Kerala","latitude":11.8745,"longitude":75.3704,"temp":26.5,"humidity":98,"rain":0.0,"pressure":1005.4,"uv_index":8.9,"wind_gusts":37.1,"aqi":58,"pm10":15.8,"pm2_5":11.6,"no2":11.4,"co":344.0,"o3":48.0,"so2":2.9,"mosquito_risk":7,"arthritis_risk":5,"migraine_risk":4,"frizz_risk":1,"updated_at":"2026-05-17T23:29:52.818392+05:30"},{"city":"Patna","state":"Bihar","latitude":25.5941,"longitude":85.1376,"temp":29.3,"humidity":79,"rain":0.0,"pressure":994.8,"uv_index":8.8,"wind_gusts":39.2,"aqi":149,"pm10":109.9,"pm2_5":68.2,"no2":54.0,"co":472.0,"o3":33.0,"so2":21.7,"mosquito_risk":7,"arthritis_risk":5,"migraine_risk":7,"frizz_risk":1,"updated_at":"2026-05-17T23:29:52.818398+05:30"},{"city":"Gaya","state":"Bihar","latitude":24.7914,"longitude":85.0002,"temp":29.5,"humidity":40,"rain":0.0,"pressure":988.1,"uv_index":8.85,"wind_gusts":40.0,"aqi":151,"pm10":109.4,"pm2_5":48.9,"no2":19.4,"co":427.0,"o3":70.0,"so2":9.4,"mosquito_risk":4,"arthritis_risk":5,"migraine_risk":7,"frizz_risk":0,"updated_at":"2026-05-17T23:29:52.818405+05:30"},{"city":"Muzaffarpur","state":"Bihar","latitude":26.1209,"longitude":85.3647,"temp":28.4,"humidity":76,"rain":0.0,"pressure":995.1,"uv_index":8.8,"wind_gusts":24.8,"aqi":151,"pm10":138.3,"pm2_5":97.1,"no2":59.6,"co":479.0,"o3":36.0,"so2":25.4,"mosquito_risk":7,"arthritis_risk":5,"migraine_risk":7,"frizz_risk":1,"updated_at":"2026-05-17T23:29:52.818412+05:30"},{"city":"Bhagalpur","state":"Bihar","latitude":25.2425,"longitude":87.0117,"temp":28.5,"humidity":87,"rain":0.0,"pressure":995.9,"uv_index":8.8,"wind_gusts":25.6,"aqi":150,"pm10":53.0,"pm2_5":48.0,"no2":11.8,"co":457.0,"o3":109.0,"so2":12.2,"mosquito_risk":7,"arthritis_risk":5,"migraine_risk":7,"frizz_risk":1,"updated_at":"2026-05-17T23:29:52.818418+05:30"},{"city":"Ranchi","state":"Jharkhand","latitude":23.3441,"longitude":85.3096,"temp":25.2,"humidity":66,"rain":0.0,"pressure":934.4,"uv_index":9.3,"wind_gusts":41.8,"aqi":129,"pm10":73.3,"pm2_5":56.2,"no2":14.2,"co":309.0,"o3":90.0,"so2":9.8,"mosquito_risk":7,"arthritis_risk":5,"migraine_risk":7,"frizz_risk":1,"updated_at":"2026-05-17T23:29:52.818425+05:30"},{"city":"Jamshedpur","state":"Jharkhand","latitude":22.8046,"longitude":86.2029,"temp":29.2,"humidity":64,"rain":0.0,"pressure":987.0,"uv_index":9.1,"wind_gusts":34.6,"aqi":117,"pm10":79.4,"pm2_5":63.8,"no2":20.1,"co":662.0,"o3":101.0,"so2":27.2,"mosquito_risk":7,"arthritis_risk":5,"migraine_risk":7,"frizz_risk":1,"updated_at":"2026-05-17T23:29:52.818432+05:30"},{"city":"Dhanbad","state":"Jharkhand","latitude":23.7957,"longitude":86.4304,"temp":28.9,"humidity":60,"rain":0.0,"pressure":975.4,"uv_index":9.05,"wind_gusts":38.9,"aqi":145,"pm10":88.9,"pm2_5":75.2,"no2":47.9,"co":1048.0,"o3":64.0,"so2":111.6,"mosquito_risk":4,"arthritis_risk":5,"migraine_risk":7,"frizz_risk":1,"updated_at":"2026-05-17T23:29:52.818439+05:30"},{"city":"Bokaro","state":"Jharkhand","latitude":23.6693,"longitude":86.1511,"temp":29.5,"humidity":56,"rain":0.0,"pressure":979.1,"uv_index":9.05,"wind_gusts":48.6,"aqi":150,"pm10":81.0,"pm2_5":62.2,"no2":34.8,"co":408.0,"o3":66.0,"so2":72.8,"mosquito_risk":4,"arthritis_risk":5,"migraine_risk":7,"frizz_risk":1,"updated_at":"2026-05-17T23:29:52.818446+05:30"},{"city":"Bhubaneswar","state":"Odisha","latitude":20.2961,"longitude":85.8245,"temp":29.3,"humidity":84,"rain":0.0,"pressure":999.9,"uv_index":8.8,"wind_gusts":45.4,"aqi":55,"pm10":13.9,"pm2_5":11.1,"no2":4.6,"co":204.0,"o3":69.0,"so2":4.1,"mosquito_risk":7,"arthritis_risk":5,"migraine_risk":7,"frizz_risk":1,"updated_at":"2026-05-17T23:29:52.818454+05:30"},{"city":"Cuttack","state":"Odisha","latitude":20.4625,"longitude":85.8828,"temp":29.5,"humidity":82,"rain":0.0,"pressure":1001.6,"uv_index":8.95,"wind_gusts":45.4,"aqi":55,"pm10":13.9,"pm2_5":11.1,"no2":4.6,"co":222.0,"o3":69.0,"so2":4.1,"mosquito_risk":7,"arthritis_risk":5,"migraine_risk":4,"frizz_risk":1,"updated_at":"2026-05-17T23:29:52.818461+05:30"},{"city":"Rourkela","state":"Odisha","latitude":22.2604,"longitude":84.8536,"temp":29.6,"humidity":68,"rain":0.0,"pressure":981.5,"uv_index":9.0,"wind_gusts":33.5,"aqi":140,"pm10":108.5,"pm2_5":85.2,"no2":23.7,"co":346.0,"o3":106.0,"so2":17.3,"mosquito_risk":7,"arthritis_risk":5,"migraine_risk":7,"frizz_risk":1,"updated_at":"2026-05-17T23:29:52.818468+05:30"},{"city":"Raipur","state":"Chhattisgarh","latitude":21.2514,"longitude":81.6296,"temp":31.5,"humidity":48,"rain":0.0,"pressure":971.1,"uv_index":9.0,"wind_gusts":32.4,"aqi":113,"pm10":52.4,"pm2_5":45.9,"no2":30.0,"co":417.0,"o3":73.0,"so2":33.1,"mosquito_risk":0,"arthritis_risk":5,"migraine_risk":7,"frizz_risk":1,"updated_at":"2026-05-17T23:29:52.818475+05:30"},{"city":"Bhilai","state":"Chhattisgarh","latitude":21.1938,"longitude":81.3509,"temp":31.2,"humidity":54,"rain":0.0,"pressure":971.3,"uv_index":9.0,"wind_gusts":31.7,"aqi":100,"pm10":47.6,"pm2_5":43.1,"no2":37.0,"co":373.0,"o3":58.0,"so2":41.5,"mosquito_risk":0,"arthritis_risk":5,"migraine_risk":7,"frizz_risk":1,"updated_at":"2026-05-17T23:29:52.818481+05:30"},{"city":"Guwahati","state":"Assam","latitude":26.1158,"longitude":91.7086,"temp":22.1,"humidity":99,"rain":0.3,"pressure":999.8,"uv_index":8.75,"wind_gusts":25.2,"aqi":76,"pm10":22.2,"pm2_5":18.3,"no2":6.9,"co":337.0,"o3":74.0,"so2":3.1,"mosquito_risk":6,"arthritis_risk":5,"migraine_risk":7,"frizz_risk":1,"updated_at":"2026-05-17T23:29:52.818489+05:30"},{"city":"Agartala","state":"Tripura","latitude":23.8315,"longitude":91.2868,"temp":27.1,"humidity":87,"rain":0.0,"pressure":1002.9,"uv_index":8.9,"wind_gusts":28.8,"aqi":69,"pm10":28.3,"pm2_5":24.4,"no2":17.9,"co":247.0,"o3":27.0,"so2":2.9,"mosquito_risk":7,"arthritis_risk":5,"migraine_risk":4,"frizz_risk":1,"updated_at":"2026-05-17T23:29:52.818497+05:30"},{"city":"Shillong","state":"Meghalaya","latitude":25.5788,"longitude":91.8933,"temp":17.8,"humidity":97,"rain":0.0,"pressure":854.2,"uv_index":9.15,"wind_gusts":45.4,"aqi":58,"pm10":15.5,"pm2_5":12.1,"no2":5.6,"co":238.0,"o3":87.0,"so2":4.2,"mosquito_risk":3,"arthritis_risk":10,"migraine_risk":7,"frizz_risk":1,"updated_at":"2026-05-17T23:29:52.818506+05:30"},{"city":"Imphal","state":"Manipur","latitude":24.817,"longitude":93.9368,"temp":20.8,"humidity":97,"rain":0.0,"pressure":920.7,"uv_index":9.0,"wind_gusts":31.0,"aqi":71,"pm10":34.6,"pm2_5":29.5,"no2":15.9,"co":445.0,"o3":47.0,"so2":5.2,"mosquito_risk":3,"arthritis_risk":5,"migraine_risk":7,"frizz_risk":1,"updated_at":"2026-05-17T23:29:52.818513+05:30"},{"city":"Aizawl","state":"Mizoram","latitude":23.7271,"longitude":92.7176,"temp":19.3,"humidity":93,"rain":0.0,"pressure":889.9,"uv_index":9.05,"wind_gusts":28.8,"aqi":53,"pm10":29.0,"pm2_5":18.7,"no2":6.0,"co":199.0,"o3":65.0,"so2":2.9,"mosquito_risk":3,"arthritis_risk":10,"migraine_risk":7,"frizz_risk":1,"updated_at":"2026-05-17T23:29:52.818519+05:30"},{"city":"Kohima","state":"Nagaland","latitude":25.6701,"longitude":94.1077,"temp":15.8,"humidity":94,"rain":0.0,"pressure":851.3,"uv_index":8.7,"wind_gusts":29.9,"aqi":61,"pm10":26.5,"pm2_5":17.0,"no2":9.8,"co":304.0,"o3":49.0,"so2":2.5,"mosquito_risk":3,"arthritis_risk":10,"migraine_risk":7,"frizz_risk":0,"updated_at":"2026-05-17T23:29:52.818526+05:30"},{"city":"Gangtok","state":"Sikkim","latitude":27.3314,"longitude":88.6138,"temp":14.9,"humidity":97,"rain":0.1,"pressure":833.7,"uv_index":9.1,"wind_gusts":38.2,"aqi":60,"pm10":27.6,"pm2_5":23.7,"no2":17.1,"co":420.0,"o3":70.0,"so2":2.3,"mosquito_risk":6,"arthritis_risk":10,"migraine_risk":7,"frizz_risk":0,"updated_at":"2026-05-17T23:29:52.818532+05:30"},{"city":"Siliguri","state":"West Bengal","latitude":26.7271,"longitude":88.3953,"temp":23.0,"humidity":98,"rain":0.1,"pressure":989.9,"uv_index":8.7,"wind_gusts":31.0,"aqi":92,"pm10":37.4,"pm2_5":31.8,"no2":15.8,"co":415.0,"o3":95.0,"so2":5.5,"mosquito_risk":6,"arthritis_risk":5,"migraine_risk":7,"frizz_risk":1,"updated_at":"2026-05-17T23:29:56.138381+05:30"},{"city":"Durgapur","state":"West Bengal","latitude":23.5204,"longitude":87.3119,"temp":28.8,"humidity":84,"rain":0.0,"pressure":990.4,"uv_index":8.95,"wind_gusts":35.6,"aqi":127,"pm10":67.3,"pm2_5":59.0,"no2":21.7,"co":476.0,"o3":112.0,"so2":42.2,"mosquito_risk":7,"arthritis_risk":5,"migraine_risk":7,"frizz_risk":1,"updated_at":"2026-05-17T23:29:56.138417+05:30"},{"city":"Asansol","state":"West Bengal","latitude":23.6739,"longitude":86.9524,"temp":29.0,"humidity":79,"rain":0.0,"pressure":989.0,"uv_index":9.0,"wind_gusts":38.2,"aqi":126,"pm10":67.5,"pm2_5":58.9,"no2":28.9,"co":362.0,"o3":87.0,"so2":51.5,"mosquito_risk":7,"arthritis_risk":5,"migraine_risk":7,"frizz_risk":1,"updated_at":"2026-05-17T23:29:56.138429+05:30"},{"city":"Pondicherry","state":"Puducherry","latitude":11.9139,"longitude":79.8145,"temp":28.8,"humidity":84,"rain":0.0,"pressure":1006.8,"uv_index":9.05,"wind_gusts":43.2,"aqi":77,"pm10":18.8,"pm2_5":14.0,"no2":8.4,"co":267.0,"o3":90.0,"so2":9.4,"mosquito_risk":7,"arthritis_risk":5,"migraine_risk":4,"frizz_risk":1,"updated_at":"2026-05-17T23:29:56.138438+05:30"},{"city":"Port Blair","state":"Andaman and Nicobar Islands","latitude":11.6234,"longitude":92.7265,"temp":26.9,"humidity":91,"rain":0.0,"pressure":1005.9,"uv_index":2.0,"wind_gusts":41.0,"aqi":25,"pm10":4.5,"pm2_5":2.6,"no2":0.3,"co":100.0,"o3":46.0,"so2":0.2,"mosquito_risk":7,"arthritis_risk":5,"migraine_risk":0,"frizz_risk":1,"updated_at":"2026-05-17T23:29:56.138446+05:30"},{"city":"Haridwar","state":"Uttarakhand","latitude":29.9457,"longitude":78.1642,"temp":26.6,"humidity":55,"rain":0.0,"pressure":966.7,"uv_index":7.5,"wind_gusts":34.6,"aqi":108,"pm10":21.5,"pm2_5":21.1,"no2":12.0,"co":384.0,"o3":97.0,"so2":9.6,"mosquito_risk":4,"arthritis_risk":5,"migraine_risk":7,"frizz_risk":1,"updated_at":"2026-05-17T23:29:56.138454+05:30"},{"city":"Rishikesh","state":"Uttarakhand","latitude":30.0869,"longitude":78.2676,"temp":24.1,"humidity":59,"rain":0.0,"pressure":959.3,"uv_index":7.65,"wind_gusts":32.4,"aqi":129,"pm10":33.3,"pm2_5":20.6,"no2":11.9,"co":343.0,"o3":116.0,"so2":8.2,"mosquito_risk":0,"arthritis_risk":5,"migraine_risk":7,"frizz_risk":0,"updated_at":"2026-05-17T23:29:56.138462+05:30"},{"city":"Nainital","state":"Uttarakhand","latitude":29.3919,"longitude":79.4542,"temp":14.9,"humidity":70,"rain":0.0,"pressure":800.6,"uv_index":8.5,"wind_gusts":38.9,"aqi":127,"pm10":62.2,"pm2_5":21.8,"no2":7.2,"co":284.0,"o3":127.0,"so2":6.1,"mosquito_risk":3,"arthritis_risk":5,"migraine_risk":7,"frizz_risk":0,"updated_at":"2026-05-17T23:29:56.138469+05:30"},{"city":"Mussoorie","state":"Uttarakhand","latitude":30.4599,"longitude":78.0664,"temp":16.7,"humidity":58,"rain":0.0,"pressure":798.8,"uv_index":8.05,"wind_gusts":55.1,"aqi":117,"pm10":26.5,"pm2_5":23.1,"no2":22.2,"co":317.0,"o3":95.0,"so2":9.5,"mosquito_risk":0,"arthritis_risk":5,"migraine_risk":7,"frizz_risk":0,"updated_at":"2026-05-17T23:29:56.138478+05:30"},{"city":"Dharamshala","state":"Himachal Pradesh","latitude":32.219,"longitude":76.3234,"temp":22.2,"humidity":48,"rain":0.0,"pressure":865.6,"uv_index":8.4,"wind_gusts":44.3,"aqi":64,"pm10":16.8,"pm2_5":14.5,"no2":11.6,"co":257.0,"o3":57.0,"so2":1.0,"mosquito_risk":0,"arthritis_risk":5,"migraine_risk":7,"frizz_risk":0,"updated_at":"2026-05-17T23:29:56.138485+05:30"},{"city":"Dalhousie","state":"Himachal Pradesh","latitude":32.5387,"longitude":75.971,"temp":14.4,"humidity":69,"rain":0.0,"pressure":800.0,"uv_index":8.65,"wind_gusts":38.5,"aqi":103,"pm10":34.6,"pm2_5":28.5,"no2":29.7,"co":410.0,"o3":61.0,"so2":3.2,"mosquito_risk":3,"arthritis_risk":5,"migraine_risk":7,"frizz_risk":0,"updated_at":"2026-05-17T23:29:56.138493+05:30"},{"city":"Patiala","state":"Punjab","latitude":30.3398,"longitude":76.3869,"temp":30.9,"humidity":38,"rain":0.0,"pressure":971.9,"uv_index":7.6,"wind_gusts":45.7,"aqi":590,"pm10":784.2,"pm2_5":131.3,"no2":8.6,"co":402.0,"o3":90.0,"so2":7.4,"mosquito_risk":0,"arthritis_risk":5,"migraine_risk":7,"frizz_risk":0,"updated_at":"2026-05-17T23:29:56.138500+05:30"},{"city":"Bhatinda","state":"Punjab","latitude":30.211,"longitude":74.9455,"temp":30.8,"humidity":48,"rain":0.0,"pressure":977.9,"uv_index":8.25,"wind_gusts":38.2,"aqi":85,"pm10":53.3,"pm2_5":33.6,"no2":11.2,"co":390.0,"o3":81.0,"so2":7.7,"mosquito_risk":0,"arthritis_risk":5,"migraine_risk":7,"frizz_risk":1,"updated_at":"2026-05-17T23:29:56.138507+05:30"},{"city":"Rohtak","state":"Haryana","latitude":28.8955,"longitude":76.6066,"temp":30.4,"humidity":37,"rain":0.0,"pressure":975.8,"uv_index":7.75,"wind_gusts":46.8,"aqi":802,"pm10":845.6,"pm2_5":164.8,"no2":19.4,"co":392.0,"o3":67.0,"so2":8.3,"mosquito_risk":0,"arthritis_risk":5,"migraine_risk":7,"frizz_risk":0,"updated_at":"2026-05-17T23:29:56.138513+05:30"},{"city":"Panipat","state":"Haryana","latitude":29.3909,"longitude":76.9635,"temp":30.5,"humidity":36,"rain":0.0,"pressure":973.9,"uv_index":7.6,"wind_gusts":50.0,"aqi":1745,"pm10":1762.1,"pm2_5":291.5,"no2":12.0,"co":344.0,"o3":79.0,"so2":8.3,"mosquito_risk":0,"arthritis_risk":5,"migraine_risk":7,"frizz_risk":0,"updated_at":"2026-05-17T23:29:56.138520+05:30"},{"city":"Mathura","state":"Uttar Pradesh","latitude":27.4924,"longitude":77.6737,"temp":32.0,"humidity":35,"rain":0.0,"pressure":980.9,"uv_index":8.0,"wind_gusts":43.6,"aqi":639,"pm10":659.4,"pm2_5":126.7,"no2":13.8,"co":324.0,"o3":65.0,"so2":6.8,"mosquito_risk":0,"arthritis_risk":5,"migraine_risk":7,"frizz_risk":0,"updated_at":"2026-05-17T23:29:56.138526+05:30"},{"city":"Vrindavan","state":"Uttar Pradesh","latitude":27.5823,"longitude":77.7027,"temp":31.3,"humidity":38,"rain":0.0,"pressure":981.2,"uv_index":7.95,"wind_gusts":41.4,"aqi":639,"pm10":659.4,"pm2_5":126.7,"no2":13.8,"co":338.0,"o3":65.0,"so2":6.8,"mosquito_risk":0,"arthritis_risk":5,"migraine_risk":7,"frizz_risk":0,"updated_at":"2026-05-17T23:29:56.138534+05:30"},{"city":"Ayodhya","state":"Uttar Pradesh","latitude":26.7922,"longitude":82.1998,"temp":29.8,"humidity":56,"rain":0.0,"pressure":988.9,"uv_index":8.35,"wind_gusts":39.2,"aqi":145,"pm10":186.7,"pm2_5":64.5,"no2":13.8,"co":398.0,"o3":83.0,"so2":10.5,"mosquito_risk":4,"arthritis_risk":5,"migraine_risk":7,"frizz_risk":1,"updated_at":"2026-05-17T23:29:56.138541+05:30"},{"city":"Ratlam","state":"Madhya Pradesh","latitude":23.3315,"longitude":75.0367,"temp":33.2,"humidity":22,"rain":0.0,"pressure":951.1,"uv_index":8.55,"wind_gusts":36.4,"aqi":60,"pm10":43.3,"pm2_5":23.2,"no2":3.9,"co":208.0,"o3":77.0,"so2":4.3,"mosquito_risk":0,"arthritis_risk":5,"migraine_risk":7,"frizz_risk":0,"updated_at":"2026-05-17T23:29:56.138549+05:30"},{"city":"Sagar","state":"Madhya Pradesh","latitude":23.8388,"longitude":78.7378,"temp":32.4,"humidity":27,"rain":0.0,"pressure":946.3,"uv_index":8.75,"wind_gusts":44.6,"aqi":81,"pm10":114.8,"pm2_5":31.5,"no2":9.5,"co":263.0,"o3":88.0,"so2":4.3,"mosquito_risk":0,"arthritis_risk":5,"migraine_risk":7,"frizz_risk":0,"updated_at":"2026-05-17T23:29:56.138556+05:30"},{"city":"Satna","state":"Madhya Pradesh","latitude":24.6005,"longitude":80.8322,"temp":31.9,"humidity":29,"rain":0.0,"pressure":966.6,"uv_index":8.75,"wind_gusts":47.9,"aqi":103,"pm10":122.5,"pm2_5":35.3,"no2":16.0,"co":298.0,"o3":72.0,"so2":3.8,"mosquito_risk":0,"arthritis_risk":5,"migraine_risk":7,"frizz_risk":0,"updated_at":"2026-05-17T23:29:56.138563+05:30"},{"city":"Akola","state":"Maharashtra","latitude":20.7002,"longitude":77.0082,"temp":35.2,"humidity":20,"rain":0.0,"pressure":971.1,"uv_index":8.9,"wind_gusts":33.8,"aqi":71,"pm10":19.0,"pm2_5":15.1,"no2":11.0,"co":228.0,"o3":85.0,"so2":6.7,"mosquito_risk":0,"arthritis_risk":5,"migraine_risk":10,"frizz_risk":0,"updated_at":"2026-05-17T23:29:56.138572+05:30"},{"city":"Amravati","state":"Maharashtra","latitude":20.9374,"longitude":77.7796,"temp":35.3,"humidity":21,"rain":0.0,"pressure":963.5,"uv_index":8.95,"wind_gusts":28.1,"aqi":68,"pm10":31.3,"pm2_5":26.3,"no2":27.0,"co":312.0,"o3":58.0,"so2":7.6,"mosquito_risk":0,"arthritis_risk":5,"migraine_risk":10,"frizz_risk":0,"updated_at":"2026-05-17T23:29:56.138580+05:30"},{"city":"Latur","state":"Maharashtra","latitude":18.4088,"longitude":76.5604,"temp":32.8,"humidity":30,"rain":0.0,"pressure":937.3,"uv_index":9.1,"wind_gusts":37.8,"aqi":83,"pm10":31.3,"pm2_5":25.8,"no2":18.5,"co":332.0,"o3":75.0,"so2":9.3,"mosquito_risk":0,"arthritis_risk":5,"migraine_risk":7,"frizz_risk":0,"updated_at":"2026-05-17T23:29:56.138588+05:30"},{"city":"Nanded","state":"Maharashtra","latitude":19.1383,"longitude":77.3091,"temp":33.2,"humidity":37,"rain":0.0,"pressure":965.4,"uv_index":8.95,"wind_gusts":32.8,"aqi":74,"pm10":32.7,"pm2_5":29.8,"no2":21.0,"co":295.0,"o3":73.0,"so2":7.1,"mosquito_risk":0,"arthritis_risk":5,"migraine_risk":7,"frizz_risk":1,"updated_at":"2026-05-17T23:29:56.138595+05:30"},{"city":"Gulbarga","state":"Karnataka","latitude":17.3297,"longitude":76.8343,"temp":31.8,"humidity":49,"rain":0.0,"pressure":956.6,"uv_index":9.1,"wind_gusts":42.5,"aqi":103,"pm10":40.0,"pm2_5":31.8,"no2":11.6,"co":259.0,"o3":104.0,"so2":10.8,"mosquito_risk":0,"arthritis_risk":5,"migraine_risk":7,"frizz_risk":1,"updated_at":"2026-05-17T23:29:56.138603+05:30"},{"city":"Bidar","state":"Karnataka","latitude":17.9104,"longitude":77.5199,"temp":30.4,"humidity":51,"rain":0.0,"pressure":933.4,"uv_index":9.15,"wind_gusts":33.1,"aqi":92,"pm10":45.5,"pm2_5":37.0,"no2":13.7,"co":310.0,"o3":92.0,"so2":7.1,"mosquito_risk":0,"arthritis_risk":5,"migraine_risk":7,"frizz_risk":1,"updated_at":"2026-05-17T23:29:56.138609+05:30"},{"city":"Hospet","state":"Karnataka","latitude":15.2689,"longitude":76.3909,"temp":25.0,"humidity":95,"rain":0.2,"pressure":954.5,"uv_index":9.2,"wind_gusts":62.6,"aqi":88,"pm10":17.6,"pm2_5":15.1,"no2":11.9,"co":246.0,"o3":77.0,"so2":5.8,"mosquito_risk":10,"arthritis_risk":5,"migraine_risk":7,"frizz_risk":1,"updated_at":"2026-05-17T23:29:56.138616+05:30"},{"city":"Tirupur","state":"Tamil Nadu","latitude":11.1085,"longitude":77.3411,"temp":24.7,"humidity":95,"rain":0.0,"pressure":973.9,"uv_index":8.6,"wind_gusts":52.9,"aqi":71,"pm10":17.5,"pm2_5":14.5,"no2":12.9,"co":186.0,"o3":59.0,"so2":4.8,"mosquito_risk":3,"arthritis_risk":5,"migraine_risk":7,"frizz_risk":1,"updated_at":"2026-05-17T23:29:56.138623+05:30"},{"city":"Alappuzha","state":"Kerala","latitude":9.4981,"longitude":76.3388,"temp":25.5,"humidity":99,"rain":0.0,"pressure":1008.5,"uv_index":8.5,"wind_gusts":24.5,"aqi":50,"pm10":13.4,"pm2_5":10.2,"no2":8.8,"co":124.0,"o3":61.0,"so2":2.5,"mosquito_risk":7,"arthritis_risk":0,"migraine_risk":4,"frizz_risk":1,"updated_at":"2026-05-17T23:29:56.138629+05:30"},{"city":"Munnar","state":"Kerala","latitude":10.0889,"longitude":77.0595,"temp":18.0,"humidity":100,"rain":0.0,"pressure":856.2,"uv_index":7.8,"wind_gusts":25.6,"aqi":36,"pm10":6.5,"pm2_5":6.4,"no2":7.5,"co":162.0,"o3":50.0,"so2":1.9,"mosquito_risk":3,"arthritis_risk":10,"migraine_risk":7,"frizz_risk":1,"updated_at":"2026-05-17T23:29:56.138637+05:30"},{"city":"Silchar","state":"Assam","latitude":24.8333,"longitude":92.7789,"temp":24.7,"humidity":99,"rain":0.1,"pressure":1002.7,"uv_index":8.9,"wind_gusts":27.7,"aqi":62,"pm10":12.3,"pm2_5":9.1,"no2":5.6,"co":334.0,"o3":80.0,"so2":3.6,"mosquito_risk":6,"arthritis_risk":5,"migraine_risk":4,"frizz_risk":1,"updated_at":"2026-05-17T23:29:56.138643+05:30"},{"city":"Dibrugarh","state":"Assam","latitude":27.4728,"longitude":94.912,"temp":22.2,"humidity":96,"rain":0.0,"pressure":993.5,"uv_index":5.7,"wind_gusts":30.2,"aqi":72,"pm10":24.2,"pm2_5":22.1,"no2":16.8,"co":250.0,"o3":34.0,"so2":1.8,"mosquito_risk":3,"arthritis_risk":5,"migraine_risk":3,"frizz_risk":1,"updated_at":"2026-05-17T23:29:56.138649+05:30"}]