[{"city":"Delhi","state":"Delhi","latitude":28.6139,"longitude":77.209,"temp":28.3,"humidity":41,"rain":0.0,"pressure":986.8,"uv_index":6.45,"wind_gusts":29.2,"aqi":154,"pm10":360.4,"pm2_5":56.9,"mosquito_risk":4,"arthritis_risk":5,"migraine_risk":7,"frizz_risk":0,"updated_at":"2026-03-22T15:06:49.265375+05:30"},{"city":"Mumbai","state":"Maharashtra","latitude":19.076,"longitude":72.8777,"temp":28.5,"humidity":68,"rain":0.0,"pressure":1008.7,"uv_index":7.9,"wind_gusts":30.2,"aqi":86,"pm10":48.8,"pm2_5":38.0,"mosquito_risk":7,"arthritis_risk":0,"migraine_risk":4,"frizz_risk":1,"updated_at":"2026-03-22T15:06:49.265419+05:30"},{"city":"Bangalore","state":"Karnataka","latitude":12.9716,"longitude":77.5946,"temp":30.6,"humidity":39,"rain":0.0,"pressure":912.4,"uv_index":9.45,"wind_gusts":25.2,"aqi":105,"pm10":44.0,"pm2_5":31.3,"mosquito_risk":0,"arthritis_risk":5,"migraine_risk":7,"frizz_risk":0,"updated_at":"2026-03-22T15:06:49.265435+05:30"},{"city":"Hyderabad","state":"Telangana","latitude":17.385,"longitude":78.4867,"temp":31.9,"humidity":38,"rain":0.0,"pressure":954.6,"uv_index":8.9,"wind_gusts":29.5,"aqi":97,"pm10":49.1,"pm2_5":30.6,"mosquito_risk":0,"arthritis_risk":5,"migraine_risk":7,"frizz_risk":0,"updated_at":"2026-03-22T15:06:49.265445+05:30"},{"city":"Chennai","state":"Tamil Nadu","latitude":13.0827,"longitude":80.2707,"temp":32.3,"humidity":53,"rain":0.0,"pressure":1008.3,"uv_index":9.2,"wind_gusts":32.4,"aqi":41,"pm10":13.8,"pm2_5":8.7,"mosquito_risk":0,"arthritis_risk":0,"migraine_risk":4,"frizz_risk":1,"updated_at":"2026-03-22T15:06:49.265453+05:30"},{"city":"Kolkata","state":"West Bengal","latitude":22.5726,"longitude":88.3639,"temp":27.6,"humidity":51,"rain":0.0,"pressure":1008.5,"uv_index":8.25,"wind_gusts":20.5,"aqi":115,"pm10":39.7,"pm2_5":34.6,"mosquito_risk":4,"arthritis_risk":0,"migraine_risk":4,"frizz_risk":1,"updated_at":"2026-03-22T15:06:49.265462+05:30"},{"city":"Pune","state":"Maharashtra","latitude":18.5204,"longitude":73.8567,"temp":35.8,"humidity":18,"rain":0.0,"pressure":949.1,"uv_index":8.45,"wind_gusts":27.4,"aqi":75,"pm10":19.1,"pm2_5":10.4,"mosquito_risk":0,"arthritis_risk":5,"migraine_risk":10,"frizz_risk":0,"updated_at":"2026-03-22T15:06:49.265474+05:30"},{"city":"Ahmedabad","state":"Gujarat","latitude":23.0225,"longitude":72.5714,"temp":35.3,"humidity":27,"rain":0.0,"pressure":1004.4,"uv_index":7.55,"wind_gusts":22.0,"aqi":75,"pm10":41.3,"pm2_5":15.0,"mosquito_risk":0,"arthritis_risk":5,"migraine_risk":7,"frizz_risk":0,"updated_at":"2026-03-22T15:06:49.265481+05:30"},{"city":"Jaipur","state":"Rajasthan","latitude":26.9124,"longitude":75.7873,"temp":29.9,"humidity":28,"rain":0.0,"pressure":963.1,"uv_index":7.2,"wind_gusts":27.4,"aqi":88,"pm10":139.2,"pm2_5":25.0,"mosquito_risk":4,"arthritis_risk":5,"migraine_risk":7,"frizz_risk":0,"updated_at":"2026-03-22T15:06:49.265489+05:30"},{"city":"Lucknow","state":"Uttar Pradesh","latitude":26.8467,"longitude":80.9462,"temp":28.5,"humidity":40,"rain":0.0,"pressure":996.9,"uv_index":6.95,"wind_gusts":26.6,"aqi":110,"pm10":65.9,"pm2_5":25.7,"mosquito_risk":4,"arthritis_risk":5,"migraine_risk":7,"frizz_risk":0,"updated_at":"2026-03-22T15:06:49.265498+05:30"},{"city":"Kanpur","state":"Uttar Pradesh","latitude":26.4499,"longitude":80.3319,"temp":27.7,"humidity":45,"rain":0.0,"pressure":995.8,"uv_index":7.0,"wind_gusts":27.0,"aqi":125,"pm10":297.1,"pm2_5":46.0,"mosquito_risk":4,"arthritis_risk":5,"migraine_risk":7,"frizz_risk":0,"updated_at":"2026-03-22T15:06:49.265506+05:30"},{"city":"Chandigarh","state":"Chandigarh","latitude":30.7333,"longitude":76.7794,"temp":25.2,"humidity":45,"rain":0.0,"pressure":972.0,"uv_index":6.35,"wind_gusts":34.2,"aqi":87,"pm10":30.3,"pm2_5":24.7,"mosquito_risk":4,"arthritis_risk":5,"migraine_risk":7,"frizz_risk":0,"updated_at":"2026-03-22T15:06:49.265514+05:30"},{"city":"Srinagar","state":"Jammu and Kashmir","latitude":34.0837,"longitude":74.7973,"temp":17.5,"humidity":31,"rain":0.0,"pressure":842.9,"uv_index":7.5,"wind_gusts":14.0,"aqi":112,"pm10":18.8,"pm2_5":11.1,"mosquito_risk":0,"arthritis_risk":5,"migraine_risk":7,"frizz_risk":0,"updated_at":"2026-03-22T15:06:49.265522+05:30"},{"city":"Jammu","state":"Jammu and Kashmir","latitude":32.7266,"longitude":74.857,"temp":26.9,"humidity":40,"rain":0.0,"pressure":975.8,"uv_index":6.85,"wind_gusts":22.7,"aqi":99,"pm10":26.5,"pm2_5":21.1,"mosquito_risk":4,"arthritis_risk":5,"migraine_risk":7,"frizz_risk":0,"updated_at":"2026-03-22T15:06:49.265529+05:30"},{"city":"Amritsar","state":"Punjab","latitude":31.634,"longitude":74.8723,"temp":26.0,"humidity":46,"rain":0.0,"pressure":984.7,"uv_index":7.0,"wind_gusts":19.8,"aqi":157,"pm10":47.5,"pm2_5":29.1,"mosquito_risk":4,"arthritis_risk":5,"migraine_risk":7,"frizz_risk":0,"updated_at":"2026-03-22T15:06:49.265537+05:30"},{"city":"Ludhiana","state":"Punjab","latitude":30.901,"longitude":75.8573,"temp":25.1,"humidity":46,"rain":0.0,"pressure":982.7,"uv_index":6.6,"wind_gusts":27.0,"aqi":132,"pm10":51.2,"pm2_5":34.1,"mosquito_risk":4,"arthritis_risk":5,"migraine_risk":7,"frizz_risk":0,"updated_at":"2026-03-22T15:06:49.265544+05:30"},{"city":"Jalandhar","state":"Punjab","latitude":31.326,"longitude":75.5762,"temp":25.4,"humidity":48,"rain":0.0,"pressure":983.7,"uv_index":6.75,"wind_gusts":22.3,"aqi":151,"pm10":68.9,"pm2_5":34.1,"mosquito_risk":4,"arthritis_risk":5,"migraine_risk":7,"frizz_risk":0,"updated_at":"2026-03-22T15:06:49.265553+05:30"},{"city":"Dehradun","state":"Uttarakhand","latitude":30.6284,"longitude":78.0322,"temp":15.8,"humidity":70,"rain":0.0,"pressure":830.8,"uv_index":6.8,"wind_gusts":22.3,"aqi":65,"pm10":17.5,"pm2_5":10.5,"mosquito_risk":3,"arthritis_risk":5,"migraine_risk":7,"frizz_risk":0,"updated_at":"2026-03-22T15:06:49.265561+05:30"},{"city":"Shimla","state":"Himachal Pradesh","latitude":31.1048,"longitude":77.1734,"temp":14.1,"humidity":67,"rain":0.0,"pressure":785.2,"uv_index":6.85,"wind_gusts":37.1,"aqi":67,"pm10":18.1,"pm2_5":11.4,"mosquito_risk":3,"arthritis_risk":5,"migraine_risk":7,"frizz_risk":0,"updated_at":"2026-03-22T15:06:49.265568+05:30"},{"city":"Manali","state":"Himachal Pradesh","latitude":32.2396,"longitude":77.1887,"temp":19.1,"humidity":32,"rain":0.0,"pressure":819.9,"uv_index":8.85,"wind_gusts":33.8,"aqi":112,"pm10":14.4,"pm2_5":6.7,"mosquito_risk":0,"arthritis_risk":5,"migraine_risk":7,"frizz_risk":0,"updated_at":"2026-03-22T15:06:49.265575+05:30"},{"city":"Gurgaon","state":"Haryana","latitude":28.4595,"longitude":77.0266,"temp":28.3,"humidity":42,"rain":0.0,"pressure":985.3,"uv_index":6.55,"wind_gusts":24.1,"aqi":364,"pm10":1464.0,"pm2_5":147.1,"mosquito_risk":4,"arthritis_risk":5,"migraine_risk":7,"frizz_risk":0,"updated_at":"2026-03-22T15:06:49.265582+05:30"},{"city":"Noida","state":"Uttar Pradesh","latitude":28.5355,"longitude":77.391,"temp":28.5,"humidity":41,"rain":0.0,"pressure":988.3,"uv_index":6.45,"wind_gusts":28.4,"aqi":364,"pm10":1464.0,"pm2_5":147.1,"mosquito_risk":4,"arthritis_risk":5,"migraine_risk":7,"frizz_risk":0,"updated_at":"2026-03-22T15:06:49.265589+05:30"},{"city":"Ghaziabad","state":"Uttar Pradesh","latitude":28.6692,"longitude":77.4538,"temp":28.1,"humidity":43,"rain":0.0,"pressure":986.4,"uv_index":6.45,"wind_gusts":29.5,"aqi":147,"pm10":258.9,"pm2_5":49.5,"mosquito_risk":4,"arthritis_risk":5,"migraine_risk":7,"frizz_risk":0,"updated_at":"2026-03-22T15:06:49.265596+05:30"},{"city":"Faridabad","state":"Haryana","latitude":28.4089,"longitude":77.3178,"temp":28.4,"humidity":41,"rain":0.0,"pressure":987.5,"uv_index":6.5,"wind_gusts":25.6,"aqi":364,"pm10":1464.0,"pm2_5":147.1,"mosquito_risk":4,"arthritis_risk":5,"migraine_risk":7,"frizz_risk":0,"updated_at":"2026-03-22T15:06:49.265602+05:30"},{"city":"Meerut","state":"Uttar Pradesh","latitude":28.9845,"longitude":77.7064,"temp":28.0,"humidity":41,"rain":0.0,"pressure":984.9,"uv_index":6.3,"wind_gusts":33.1,"aqi":147,"pm10":258.9,"pm2_5":49.5,"mosquito_risk":4,"arthritis_risk":5,"migraine_risk":7,"frizz_risk":0,"updated_at":"2026-03-22T15:06:49.265609+05:30"},{"city":"Agra","state":"Uttar Pradesh","latitude":27.1767,"longitude":78.0081,"temp":30.9,"humidity":29,"rain":0.0,"pressure":991.2,"uv_index":6.65,"wind_gusts":28.1,"aqi":552,"pm10":741.3,"pm2_5":76.6,"mosquito_risk":0,"arthritis_risk":5,"migraine_risk":7,"frizz_risk":0,"updated_at":"2026-03-22T15:06:49.265616+05:30"},{"city":"Varanasi","state":"Uttar Pradesh","latitude":25.3176,"longitude":82.9739,"temp":28.0,"humidity":43,"rain":0.0,"pressure":1000.9,"uv_index":7.1,"wind_gusts":28.4,"aqi":102,"pm10":23.7,"pm2_5":18.7,"mosquito_risk":4,"arthritis_risk":5,"migraine_risk":4,"frizz_risk":0,"updated_at":"2026-03-22T15:06:49.265625+05:30"},{"city":"Prayagraj","state":"Uttar Pradesh","latitude":25.4358,"longitude":81.8463,"temp":28.0,"humidity":43,"rain":0.0,"pressure":999.8,"uv_index":7.5,"wind_gusts":26.6,"aqi":119,"pm10":20.7,"pm2_5":17.1,"mosquito_risk":4,"arthritis_risk":5,"migraine_risk":7,"frizz_risk":0,"updated_at":"2026-03-22T15:06:49.265632+05:30"},{"city":"Gorakhpur","state":"Uttar Pradesh","latitude":26.7606,"longitude":83.3732,"temp":26.4,"humidity":49,"rain":0.0,"pressure":1000.6,"uv_index":7.25,"wind_gusts":11.2,"aqi":160,"pm10":32.7,"pm2_5":27.8,"mosquito_risk":4,"arthritis_risk":5,"migraine_risk":4,"frizz_risk":0,"updated_at":"2026-03-22T15:06:49.265639+05:30"},{"city":"Bareilly","state":"Uttar Pradesh","latitude":28.367,"longitude":79.4304,"temp":27.8,"humidity":41,"rain":0.0,"pressure":990.1,"uv_index":6.65,"wind_gusts":31.0,"aqi":110,"pm10":37.7,"pm2_5":27.4,"mosquito_risk":4,"arthritis_risk":5,"migraine_risk":7,"frizz_risk":0,"updated_at":"2026-03-22T15:06:49.265646+05:30"},{"city":"Aligarh","state":"Uttar Pradesh","latitude":27.8974,"longitude":78.088,"temp":29.1,"humidity":39,"rain":0.0,"pressure":989.4,"uv_index":6.6,"wind_gusts":27.7,"aqi":221,"pm10":836.3,"pm2_5":98.0,"mosquito_risk":4,"arthritis_risk":5,"migraine_risk":7,"frizz_risk":0,"updated_at":"2026-03-22T15:06:49.265652+05:30"},{"city":"Moradabad","state":"Uttar Pradesh","latitude":28.8386,"longitude":78.7733,"temp":27.6,"humidity":39,"rain":0.0,"pressure":986.9,"uv_index":6.5,"wind_gusts":31.3,"aqi":146,"pm10":48.8,"pm2_5":33.3,"mosquito_risk":4,"arthritis_risk":5,"migraine_risk":7,"frizz_risk":0,"updated_at":"2026-03-22T15:06:49.265661+05:30"},{"city":"Saharanpur","state":"Uttar Pradesh","latitude":29.9637,"longitude":77.546,"temp":27.5,"humidity":35,"rain":0.0,"pressure":978.6,"uv_index":6.15,"wind_gusts":36.0,"aqi":150,"pm10":82.2,"pm2_5":31.7,"mosquito_risk":4,"arthritis_risk":5,"migraine_risk":7,"frizz_risk":0,"updated_at":"2026-03-22T15:06:49.265667+05:30"},{"city":"Jhansi","state":"Uttar Pradesh","latitude":25.4484,"longitude":78.5685,"temp":30.5,"humidity":32,"rain":0.0,"pressure":981.7,"uv_index":7.45,"wind_gusts":28.4,"aqi":78,"pm10":75.0,"pm2_5":19.8,"mosquito_risk":0,"arthritis_risk":5,"migraine_risk":7,"frizz_risk":0,"updated_at":"2026-03-22T15:06:52.613305+05:30"},{"city":"Surat","state":"Gujarat","latitude":21.1702,"longitude":72.8311,"temp":34.5,"humidity":30,"rain":0.0,"pressure":1008.2,"uv_index":7.65,"wind_gusts":25.2,"aqi":100,"pm10":50.3,"pm2_5":28.9,"mosquito_risk":0,"arthritis_risk":0,"migraine_risk":4,"frizz_risk":0,"updated_at":"2026-03-22T15:06:52.613335+05:30"},{"city":"Vadodara","state":"Gujarat","latitude":22.3072,"longitude":73.1812,"temp":37.1,"humidity":21,"rain":0.0,"pressure":1006.0,"uv_index":7.8,"wind_gusts":18.7,"aqi":72,"pm10":38.2,"pm2_5":14.7,"mosquito_risk":0,"arthritis_risk":5,"migraine_risk":7,"frizz_risk":0,"updated_at":"2026-03-22T15:06:52.613345+05:30"},{"city":"Rajkot","state":"Gujarat","latitude":22.3039,"longitude":70.8022,"temp":34.4,"humidity":34,"rain":0.0,"pressure":996.8,"uv_index":7.6,"wind_gusts":26.3,"aqi":64,"pm10":57.5,"pm2_5":18.9,"mosquito_risk":0,"arthritis_risk":5,"migraine_risk":7,"frizz_risk":1,"updated_at":"2026-03-22T15:06:52.613352+05:30"},{"city":"Thane","state":"Maharashtra","latitude":19.2183,"longitude":72.9781,"temp":33.4,"humidity":44,"rain":0.0,"pressure":1008.4,"uv_index":7.85,"wind_gusts":42.5,"aqi":86,"pm10":48.8,"pm2_5":38.0,"mosquito_risk":0,"arthritis_risk":0,"migraine_risk":4,"frizz_risk":1,"updated_at":"2026-03-22T15:06:52.613359+05:30"},{"city":"Nagpur","state":"Maharashtra","latitude":21.1458,"longitude":79.0882,"temp":32.7,"humidity":21,"rain":0.0,"pressure":975.6,"uv_index":8.35,"wind_gusts":19.4,"aqi":72,"pm10":26.7,"pm2_5":15.1,"mosquito_risk":0,"arthritis_risk":5,"migraine_risk":7,"frizz_risk":0,"updated_at":"2026-03-22T15:06:52.613367+05:30"},{"city":"Nashik","state":"Maharashtra","latitude":19.9975,"longitude":73.7898,"temp":32.9,"humidity":25,"rain":0.0,"pressure":946.9,"uv_index":8.05,"wind_gusts":29.2,"aqi":53,"pm10":27.7,"pm2_5":10.5,"mosquito_risk":0,"arthritis_risk":5,"migraine_risk":7,"frizz_risk":0,"updated_at":"2026-03-22T15:06:52.613375+05:30"},{"city":"Aurangabad","state":"Maharashtra","latitude":19.8762,"longitude":75.3433,"temp":33.0,"humidity":22,"rain":0.0,"pressure":945.7,"uv_index":8.6,"wind_gusts":27.0,"aqi":76,"pm10":17.6,"pm2_5":11.8,"mosquito_risk":0,"arthritis_risk":5,"migraine_risk":7,"frizz_risk":0,"updated_at":"2026-03-22T15:06:52.613382+05:30"},{"city":"Solapur","state":"Maharashtra","latitude":17.6599,"longitude":75.9064,"temp":36.0,"humidity":21,"rain":0.0,"pressure":957.7,"uv_index":8.75,"wind_gusts":24.5,"aqi":72,"pm10":37.7,"pm2_5":23.5,"mosquito_risk":0,"arthritis_risk":5,"migraine_risk":10,"frizz_risk":0,"updated_at":"2026-03-22T15:06:52.613390+05:30"},{"city":"Kolhapur","state":"Maharashtra","latitude":16.705,"longitude":74.2433,"temp":33.3,"humidity":27,"rain":0.0,"pressure":948.5,"uv_index":8.85,"wind_gusts":32.0,"aqi":90,"pm10":28.3,"pm2_5":16.2,"mosquito_risk":0,"arthritis_risk":5,"migraine_risk":7,"frizz_risk":0,"updated_at":"2026-03-22T15:06:52.613396+05:30"},{"city":"Goa","state":"Goa","latitude":15.2993,"longitude":74.124,"temp":31.6,"humidity":63,"rain":0.0,"pressure":997.7,"uv_index":8.85,"wind_gusts":36.7,"aqi":91,"pm10":34.7,"pm2_5":22.6,"mosquito_risk":3,"arthritis_risk":5,"migraine_risk":7,"frizz_risk":1,"updated_at":"2026-03-22T15:06:52.613403+05:30"},{"city":"Jodhpur","state":"Rajasthan","latitude":26.2389,"longitude":73.0243,"temp":30.8,"humidity":40,"rain":0.0,"pressure":986.6,"uv_index":7.55,"wind_gusts":25.6,"aqi":68,"pm10":91.5,"pm2_5":20.8,"mosquito_risk":0,"arthritis_risk":5,"migraine_risk":7,"frizz_risk":0,"updated_at":"2026-03-22T15:06:52.613410+05:30"},{"city":"Udaipur","state":"Rajasthan","latitude":24.5854,"longitude":73.7125,"temp":30.5,"humidity":27,"rain":0.0,"pressure":949.5,"uv_index":8.15,"wind_gusts":29.2,"aqi":59,"pm10":37.4,"pm2_5":11.5,"mosquito_risk":0,"arthritis_risk":5,"migraine_risk":7,"frizz_risk":0,"updated_at":"2026-03-22T15:06:52.613416+05:30"},{"city":"Kota","state":"Rajasthan","latitude":25.2138,"longitude":75.8648,"temp":33.6,"humidity":21,"rain":0.0,"pressure":981.7,"uv_index":7.45,"wind_gusts":11.9,"aqi":83,"pm10":46.4,"pm2_5":27.7,"mosquito_risk":0,"arthritis_risk":5,"migraine_risk":7,"frizz_risk":0,"updated_at":"2026-03-22T15:06:52.613423+05:30"},{"city":"Bikaner","state":"Rajasthan","latitude":28.0229,"longitude":73.3119,"temp":29.7,"humidity":36,"rain":0.0,"pressure":985.2,"uv_index":7.2,"wind_gusts":16.9,"aqi":65,"pm10":94.1,"pm2_5":22.4,"mosquito_risk":4,"arthritis_risk":5,"migraine_risk":7,"frizz_risk":0,"updated_at":"2026-03-22T15:06:52.613429+05:30"},{"city":"Ajmer","state":"Rajasthan","latitude":26.4499,"longitude":74.6399,"temp":30.1,"humidity":29,"rain":0.0,"pressure":957.4,"uv_index":7.5,"wind_gusts":27.0,"aqi":70,"pm10":39.5,"pm2_5":13.5,"mosquito_risk":0,"arthritis_risk":5,"migraine_risk":7,"frizz_risk":0,"updated_at":"2026-03-22T15:06:52.613436+05:30"},{"city":"Gwalior","state":"Madhya Pradesh","latitude":26.2183,"longitude":78.1828,"temp":30.0,"humidity":35,"rain":0.0,"pressure":987.1,"uv_index":7.15,"wind_gusts":26.6,"aqi":140,"pm10":66.6,"pm2_5":19.0,"mosquito_risk":4,"arthritis_risk":5,"migraine_risk":7,"frizz_risk":0,"updated_at":"2026-03-22T15:06:52.613443+05:30"},{"city":"Indore","state":"Madhya Pradesh","latitude":22.7196,"longitude":75.8577,"temp":31.4,"humidity":25,"rain":0.0,"pressure":950.7,"uv_index":8.05,"wind_gusts":17.6,"aqi":59,"pm10":27.9,"pm2_5":13.2,"mosquito_risk":0,"arthritis_risk":5,"migraine_risk":7,"frizz_risk":0,"updated_at":"2026-03-22T15:06:52.613449+05:30"},{"city":"Bhopal","state":"Madhya Pradesh","latitude":23.2599,"longitude":77.4126,"temp":31.6,"humidity":22,"rain":0.0,"pressure":956.5,"uv_index":7.95,"wind_gusts":25.2,"aqi":61,"pm10":27.1,"pm2_5":11.1,"mosquito_risk":0,"arthritis_risk":5,"migraine_risk":7,"frizz_risk":0,"updated_at":"2026-03-22T15:06:52.613456+05:30"},{"city":"Jabalpur","state":"Madhya Pradesh","latitude":23.1815,"longitude":79.9864,"temp":30.3,"humidity":26,"rain":0.0,"pressure":964.6,"uv_index":8.05,"wind_gusts":29.9,"aqi":61,"pm10":56.1,"pm2_5":15.7,"mosquito_risk":0,"arthritis_risk":5,"migraine_risk":7,"frizz_risk":0,"updated_at":"2026-03-22T15:06:52.613463+05:30"},{"city":"Ujjain","state":"Madhya Pradesh","latitude":23.1765,"longitude":75.7885,"temp":31.0,"humidity":28,"rain":0.0,"pressure":956.4,"uv_index":8.0,"wind_gusts":13.3,"aqi":65,"pm10":29.5,"pm2_5":13.5,"mosquito_risk":0,"arthritis_risk":5,"migraine_risk":7,"frizz_risk":0,"updated_at":"2026-03-22T15:06:52.613470+05:30"},{"city":"Visakhapatnam","state":"Andhra Pradesh","latitude":17.6868,"longitude":83.2185,"temp":29.6,"humidity":64,"rain":0.0,"pressure":1005.5,"uv_index":8.85,"wind_gusts":34.2,"aqi":80,"pm10":28.5,"pm2_5":21.7,"mosquito_risk":7,"arthritis_risk":5,"migraine_risk":4,"frizz_risk":1,"updated_at":"2026-03-22T15:06:52.613476+05:30"},{"city":"Vijayawada","state":"Andhra Pradesh","latitude":16.5062,"longitude":80.648,"temp":32.3,"humidity":53,"rain":0.0,"pressure":1003.8,"uv_index":8.9,"wind_gusts":22.3,"aqi":64,"pm10":31.3,"pm2_5":20.2,"mosquito_risk":0,"arthritis_risk":5,"migraine_risk":4,"frizz_risk":1,"updated_at":"2026-03-22T15:06:52.613483+05:30"},{"city":"Guntur","state":"Andhra Pradesh","latitude":16.3067,"longitude":80.4365,"temp":32.4,"humidity":52,"rain":0.0,"pressure":1004.9,"uv_index":8.9,"wind_gusts":19.4,"aqi":68,"pm10":29.2,"pm2_5":18.0,"mosquito_risk":0,"arthritis_risk":5,"migraine_risk":4,"frizz_risk":1,"updated_at":"2026-03-22T15:06:52.613489+05:30"},{"city":"Nellore","state":"Andhra Pradesh","latitude":14.4426,"longitude":79.9865,"temp":33.0,"humidity":51,"rain":0.0,"pressure":1006.7,"uv_index":9.05,"wind_gusts":30.2,"aqi":51,"pm10":23.9,"pm2_5":15.3,"mosquito_risk":0,"arthritis_risk":5,"migraine_risk":4,"frizz_risk":1,"updated_at":"2026-03-22T15:06:52.613497+05:30"},{"city":"Kurnool","state":"Andhra Pradesh","latitude":15.8281,"longitude":78.0373,"temp":35.8,"humidity":36,"rain":0.0,"pressure":976.7,"uv_index":8.95,"wind_gusts":20.2,"aqi":75,"pm10":33.1,"pm2_5":22.8,"mosquito_risk":0,"arthritis_risk":5,"migraine_risk":10,"frizz_risk":1,"updated_at":"2026-03-22T15:06:52.613504+05:30"},{"city":"Kakinada","state":"Andhra Pradesh","latitude":16.9891,"longitude":82.2475,"temp":29.6,"humidity":67,"rain":0.0,"pressure":1009.5,"uv_index":8.3,"wind_gusts":27.0,"aqi":38,"pm10":20.0,"pm2_5":12.5,"mosquito_risk":7,"arthritis_risk":0,"migraine_risk":4,"frizz_risk":1,"updated_at":"2026-03-22T15:06:52.613511+05:30"},{"city":"Tirupati","state":"Andhra Pradesh","latitude":13.6288,"longitude":79.4192,"temp":33.8,"humidity":39,"rain":0.0,"pressure":991.9,"uv_index":9.2,"wind_gusts":29.2,"aqi":73,"pm10":30.0,"pm2_5":19.4,"mosquito_risk":0,"arthritis_risk":5,"migraine_risk":7,"frizz_risk":1,"updated_at":"2026-03-22T15:06:52.613517+05:30"},{"city":"Warangal","state":"Telangana","latitude":17.9689,"longitude":79.5941,"temp":32.4,"humidity":45,"rain":0.0,"pressure":980.1,"uv_index":8.75,"wind_gusts":19.8,"aqi":113,"pm10":48.1,"pm2_5":32.2,"mosquito_risk":0,"arthritis_risk":5,"migraine_risk":7,"frizz_risk":1,"updated_at":"2026-03-22T15:06:52.613523+05:30"},{"city":"Nizamabad","state":"Telangana","latitude":18.6725,"longitude":78.0941,"temp":33.8,"humidity":28,"rain":0.0,"pressure":966.1,"uv_index":8.65,"wind_gusts":27.4,"aqi":89,"pm10":34.5,"pm2_5":23.9,"mosquito_risk":0,"arthritis_risk":5,"migraine_risk":7,"frizz_risk":0,"updated_at":"2026-03-22T15:06:52.613529+05:30"},{"city":"Mysore","state":"Karnataka","latitude":12.2958,"longitude":76.6396,"temp":33.6,"humidity":31,"rain":0.0,"pressure":928.3,"uv_index":9.4,"wind_gusts":33.1,"aqi":98,"pm10":38.4,"pm2_5":27.4,"mosquito_risk":0,"arthritis_risk":5,"migraine_risk":7,"frizz_risk":0,"updated_at":"2026-03-22T15:06:52.613536+05:30"},{"city":"Mangalore","state":"Karnataka","latitude":12.9141,"longitude":74.856,"temp":29.3,"humidity":76,"rain":0.0,"pressure":1006.3,"uv_index":9.05,"wind_gusts":28.1,"aqi":72,"pm10":36.7,"pm2_5":20.5,"mosquito_risk":7,"arthritis_risk":5,"migraine_risk":4,"frizz_risk":1,"updated_at":"2026-03-22T15:06:52.613542+05:30"},{"city":"Hubli-Dharwad","state":"Karnataka","latitude":15.3647,"longitude":75.124,"temp":34.0,"humidity":25,"rain":0.0,"pressure":940.9,"uv_index":9.05,"wind_gusts":27.4,"aqi":78,"pm10":23.9,"pm2_5":13.8,"mosquito_risk":0,"arthritis_risk":5,"migraine_risk":7,"frizz_risk":0,"updated_at":"2026-03-22T15:06:52.613549+05:30"},{"city":"Belgaum","state":"Karnataka","latitude":15.8497,"longitude":74.4977,"temp":33.3,"humidity":26,"rain":0.0,"pressure":926.3,"uv_index":9.1,"wind_gusts":36.7,"aqi":82,"pm10":25.3,"pm2_5":15.8,"mosquito_risk":0,"arthritis_risk":5,"migraine_risk":7,"frizz_risk":0,"updated_at":"2026-03-22T15:06:55.965980+05:30"},{"city":"Coimbatore","state":"Tamil Nadu","latitude":11.0168,"longitude":76.9558,"temp":34.4,"humidity":32,"rain":0.0,"pressure":961.5,"uv_index":9.4,"wind_gusts":30.6,"aqi":76,"pm10":43.7,"pm2_5":29.6,"mosquito_risk":0,"arthritis_risk":5,"migraine_risk":7,"frizz_risk":0,"updated_at":"2026-03-22T15:06:55.966010+05:30"},{"city":"Madurai","state":"Tamil Nadu","latitude":9.9252,"longitude":78.1198,"temp":35.8,"humidity":36,"rain":0.0,"pressure":992.3,"uv_index":9.35,"wind_gusts":29.5,"aqi":64,"pm10":22.6,"pm2_5":14.1,"mosquito_risk":0,"arthritis_risk":5,"migraine_risk":10,"frizz_risk":1,"updated_at":"2026-03-22T15:06:55.966020+05:30"},{"city":"Trichy","state":"Tamil Nadu","latitude":10.7905,"longitude":78.7047,"temp":35.2,"humidity":39,"rain":0.0,"pressure":999.4,"uv_index":9.25,"wind_gusts":24.1,"aqi":69,"pm10":29.0,"pm2_5":18.3,"mosquito_risk":0,"arthritis_risk":5,"migraine_risk":10,"frizz_risk":1,"updated_at":"2026-03-22T15:06:55.966028+05:30"},{"city":"Salem","state":"Tamil Nadu","latitude":11.6643,"longitude":78.146,"temp":34.6,"humidity":38,"rain":0.0,"pressure":977.3,"uv_index":9.3,"wind_gusts":20.9,"aqi":81,"pm10":36.7,"pm2_5":25.8,"mosquito_risk":0,"arthritis_risk":5,"migraine_risk":7,"frizz_risk":1,"updated_at":"2026-03-22T15:06:55.966035+05:30"},{"city":"Tirunelveli","state":"Tamil Nadu","latitude":8.7139,"longitude":77.7567,"temp":35.4,"humidity":41,"rain":0.0,"pressure":1002.7,"uv_index":9.3,"wind_gusts":29.5,"aqi":67,"pm10":17.9,"pm2_5":11.9,"mosquito_risk":0,"arthritis_risk":5,"migraine_risk":7,"frizz_risk":1,"updated_at":"2026-03-22T15:06:55.966043+05:30"},{"city":"Vellore","state":"Tamil Nadu","latitude":12.9165,"longitude":79.1325,"temp":34.4,"humidity":36,"rain":0.0,"pressure":984.8,"uv_index":9.25,"wind_gusts":35.3,"aqi":96,"pm10":29.3,"pm2_5":20.1,"mosquito_risk":0,"arthritis_risk":5,"migraine_risk":7,"frizz_risk":1,"updated_at":"2026-03-22T15:06:55.966050+05:30"},{"city":"Erode","state":"Tamil Nadu","latitude":11.341,"longitude":77.7172,"temp":35.5,"humidity":35,"rain":0.0,"pressure":988.7,"uv_index":9.3,"wind_gusts":32.8,"aqi":59,"pm10":26.1,"pm2_5":17.5,"mosquito_risk":0,"arthritis_risk":5,"migraine_risk":10,"frizz_risk":1,"updated_at":"2026-03-22T15:06:55.966057+05:30"},{"city":"Kochi","state":"Kerala","latitude":9.9312,"longitude":76.2673,"temp":29.4,"humidity":74,"rain":0.0,"pressure":1007.9,"uv_index":9.15,"wind_gusts":31.7,"aqi":72,"pm10":23.2,"pm2_5":18.4,"mosquito_risk":7,"arthritis_risk":5,"migraine_risk":4,"frizz_risk":1,"updated_at":"2026-03-22T15:06:55.966064+05:30"},{"city":"Thiruvananthapuram","state":"Kerala","latitude":8.5241,"longitude":76.9366,"temp":28.9,"humidity":77,"rain":0.0,"pressure":1007.3,"uv_index":9.15,"wind_gusts":25.9,"aqi":95,"pm10":18.1,"pm2_5":15.5,"mosquito_risk":7,"arthritis_risk":5,"migraine_risk":4,"frizz_risk":1,"updated_at":"2026-03-22T15:06:55.966071+05:30"},{"city":"Kozhikode","state":"Kerala","latitude":11.2588,"longitude":75.7804,"temp":30.3,"humidity":73,"rain":0.0,"pressure":1007.4,"uv_index":9.05,"wind_gusts":28.4,"aqi":61,"pm10":30.6,"pm2_5":19.8,"mosquito_risk":3,"arthritis_risk":5,"migraine_risk":4,"frizz_risk":1,"updated_at":"2026-03-22T15:06:55.966078+05:30"},{"city":"Thrissur","state":"Kerala","latitude":10.5276,"longitude":76.2144,"temp":33.6,"humidity":54,"rain":0.0,"pressure":1006.4,"uv_index":9.15,"wind_gusts":33.5,"aqi":64,"pm10":27.6,"pm2_5":19.9,"mosquito_risk":0,"arthritis_risk":5,"migraine_risk":4,"frizz_risk":1,"updated_at":"2026-03-22T15:06:55.966085+05:30"},{"city":"Kannur","state":"Kerala","latitude":11.8745,"longitude":75.3704,"temp":31.4,"humidity":65,"rain":0.0,"pressure":1006.8,"uv_index":9.1,"wind_gusts":31.7,"aqi":66,"pm10":35.2,"pm2_5":20.4,"mosquito_risk":3,"arthritis_risk":5,"migraine_risk":4,"frizz_risk":1,"updated_at":"2026-03-22T15:06:55.966092+05:30"},{"city":"Patna","state":"Bihar","latitude":25.5941,"longitude":85.1376,"temp":26.4,"humidity":46,"rain":0.0,"pressure":1004.1,"uv_index":7.7,"wind_gusts":20.9,"aqi":161,"pm10":41.3,"pm2_5":35.4,"mosquito_risk":4,"arthritis_risk":5,"migraine_risk":4,"frizz_risk":0,"updated_at":"2026-03-22T15:06:55.966098+05:30"},{"city":"Gaya","state":"Bihar","latitude":24.7914,"longitude":85.0002,"temp":26.2,"humidity":52,"rain":0.0,"pressure":997.1,"uv_index":7.8,"wind_gusts":22.7,"aqi":145,"pm10":40.9,"pm2_5":23.8,"mosquito_risk":4,"arthritis_risk":5,"migraine_risk":7,"frizz_risk":0,"updated_at":"2026-03-22T15:06:55.966105+05:30"},{"city":"Muzaffarpur","state":"Bihar","latitude":26.1209,"longitude":85.3647,"temp":25.8,"humidity":51,"rain":0.0,"pressure":1004.0,"uv_index":7.0,"wind_gusts":13.3,"aqi":164,"pm10":44.0,"pm2_5":36.8,"mosquito_risk":4,"arthritis_risk":5,"migraine_risk":4,"frizz_risk":0,"updated_at":"2026-03-22T15:06:55.966112+05:30"},{"city":"Bhagalpur","state":"Bihar","latitude":25.2425,"longitude":87.0117,"temp":25.0,"humidity":55,"rain":0.0,"pressure":1004.6,"uv_index":7.05,"wind_gusts":17.3,"aqi":155,"pm10":47.1,"pm2_5":38.5,"mosquito_risk":4,"arthritis_risk":5,"migraine_risk":4,"frizz_risk":0,"updated_at":"2026-03-22T15:06:55.966118+05:30"},{"city":"Ranchi","state":"Jharkhand","latitude":23.3441,"longitude":85.3096,"temp":24.8,"humidity":37,"rain":0.0,"pressure":939.5,"uv_index":8.45,"wind_gusts":29.9,"aqi":85,"pm10":53.9,"pm2_5":14.5,"mosquito_risk":0,"arthritis_risk":5,"migraine_risk":7,"frizz_risk":0,"updated_at":"2026-03-22T15:06:55.966124+05:30"},{"city":"Jamshedpur","state":"Jharkhand","latitude":22.8046,"longitude":86.2029,"temp":29.1,"humidity":33,"rain":0.0,"pressure":993.0,"uv_index":8.35,"wind_gusts":19.8,"aqi":119,"pm10":44.5,"pm2_5":17.8,"mosquito_risk":4,"arthritis_risk":5,"migraine_risk":7,"frizz_risk":0,"updated_at":"2026-03-22T15:06:55.966130+05:30"},{"city":"Dhanbad","state":"Jharkhand","latitude":23.7957,"longitude":86.4304,"temp":27.0,"humidity":38,"rain":0.0,"pressure":982.1,"uv_index":8.2,"wind_gusts":23.8,"aqi":140,"pm10":41.2,"pm2_5":21.8,"mosquito_risk":4,"arthritis_risk":5,"migraine_risk":7,"frizz_risk":0,"updated_at":"2026-03-22T15:06:55.966136+05:30"},{"city":"Bokaro","state":"Jharkhand","latitude":23.6693,"longitude":86.1511,"temp":27.0,"humidity":38,"rain":0.0,"pressure":986.1,"uv_index":8.25,"wind_gusts":24.5,"aqi":142,"pm10":50.6,"pm2_5":20.8,"mosquito_risk":4,"arthritis_risk":5,"migraine_risk":7,"frizz_risk":0,"updated_at":"2026-03-22T15:06:55.966143+05:30"},{"city":"Bhubaneswar","state":"Odisha","latitude":20.2961,"longitude":85.8245,"temp":32.6,"humidity":37,"rain":0.0,"pressure":1003.9,"uv_index":8.65,"wind_gusts":28.8,"aqi":93,"pm10":45.4,"pm2_5":37.6,"mosquito_risk":0,"arthritis_risk":5,"migraine_risk":4,"frizz_risk":0,"updated_at":"2026-03-22T15:06:55.966149+05:30"},{"city":"Cuttack","state":"Odisha","latitude":20.4625,"longitude":85.8828,"temp":32.0,"humidity":39,"rain":0.0,"pressure":1005.9,"uv_index":8.65,"wind_gusts":20.9,"aqi":93,"pm10":45.4,"pm2_5":37.6,"mosquito_risk":0,"arthritis_risk":5,"migraine_risk":4,"frizz_risk":1,"updated_at":"2026-03-22T15:06:55.966156+05:30"},{"city":"Rourkela","state":"Odisha","latitude":22.2604,"longitude":84.8536,"temp":29.4,"humidity":36,"rain":0.0,"pressure":987.3,"uv_index":8.25,"wind_gusts":19.4,"aqi":86,"pm10":33.8,"pm2_5":17.2,"mosquito_risk":4,"arthritis_risk":5,"migraine_risk":7,"frizz_risk":0,"updated_at":"2026-03-22T15:06:55.966162+05:30"},{"city":"Raipur","state":"Chhattisgarh","latitude":21.2514,"longitude":81.6296,"temp":32.0,"humidity":23,"rain":0.0,"pressure":976.9,"uv_index":8.4,"wind_gusts":18.4,"aqi":83,"pm10":29.7,"pm2_5":18.0,"mosquito_risk":0,"arthritis_risk":5,"migraine_risk":7,"frizz_risk":0,"updated_at":"2026-03-22T15:06:55.966168+05:30"},{"city":"Bhilai","state":"Chhattisgarh","latitude":21.1938,"longitude":81.3509,"temp":32.2,"humidity":24,"rain":0.0,"pressure":977.2,"uv_index":8.4,"wind_gusts":15.1,"aqi":69,"pm10":28.5,"pm2_5":17.1,"mosquito_risk":0,"arthritis_risk":5,"migraine_risk":7,"frizz_risk":0,"updated_at":"2026-03-22T15:06:55.966174+05:30"},{"city":"Guwahati","state":"Assam","latitude":26.1158,"longitude":91.7086,"temp":26.2,"humidity":58,"rain":0.0,"pressure":1003.0,"uv_index":7.6,"wind_gusts":18.0,"aqi":89,"pm10":24.7,"pm2_5":20.7,"mosquito_risk":4,"arthritis_risk":5,"migraine_risk":4,"frizz_risk":1,"updated_at":"2026-03-22T15:06:55.966180+05:30"},{"city":"Agartala","state":"Tripura","latitude":23.8315,"longitude":91.2868,"temp":27.9,"humidity":45,"rain":0.0,"pressure":1007.8,"uv_index":7.85,"wind_gusts":21.6,"aqi":138,"pm10":45.8,"pm2_5":37.4,"mosquito_risk":4,"arthritis_risk":5,"migraine_risk":4,"frizz_risk":0,"updated_at":"2026-03-22T15:06:55.966186+05:30"},{"city":"Shillong","state":"Meghalaya","latitude":25.5788,"longitude":91.8933,"temp":14.4,"humidity":69,"rain":0.0,"pressure":855.5,"uv_index":6.7,"wind_gusts":21.2,"aqi":67,"pm10":14.8,"pm2_5":12.8,"mosquito_risk":3,"arthritis_risk":5,"migraine_risk":7,"frizz_risk":0,"updated_at":"2026-03-22T15:06:55.966192+05:30"},{"city":"Imphal","state":"Manipur","latitude":24.817,"longitude":93.9368,"temp":18.1,"humidity":74,"rain":0.0,"pressure":923.1,"uv_index":8.15,"wind_gusts":51.8,"aqi":72,"pm10":5.4,"pm2_5":4.9,"mosquito_risk":3,"arthritis_risk":5,"migraine_risk":7,"frizz_risk":0,"updated_at":"2026-03-22T15:06:55.966198+05:30"},{"city":"Aizawl","state":"Mizoram","latitude":23.7271,"longitude":92.7176,"temp":20.0,"humidity":61,"rain":0.0,"pressure":893.5,"uv_index":8.2,"wind_gusts":44.6,"aqi":66,"pm10":10.0,"pm2_5":9.0,"mosquito_risk":3,"arthritis_risk":5,"migraine_risk":7,"frizz_risk":0,"updated_at":"2026-03-22T15:06:55.966204+05:30"},{"city":"Kohima","state":"Nagaland","latitude":25.6701,"longitude":94.1077,"temp":14.1,"humidity":91,"rain":0.0,"pressure":853.9,"uv_index":7.8,"wind_gusts":56.9,"aqi":64,"pm10":5.6,"pm2_5":5.1,"mosquito_risk":3,"arthritis_risk":10,"migraine_risk":7,"frizz_risk":0,"updated_at":"2026-03-22T15:06:55.966210+05:30"},{"city":"Gangtok","state":"Sikkim","latitude":27.3314,"longitude":88.6138,"temp":15.5,"humidity":65,"rain":0.0,"pressure":836.7,"uv_index":7.85,"wind_gusts":23.0,"aqi":92,"pm10":13.5,"pm2_5":11.9,"mosquito_risk":3,"arthritis_risk":5,"migraine_risk":7,"frizz_risk":0,"updated_at":"2026-03-22T15:06:55.966217+05:30"},{"city":"Siliguri","state":"West Bengal","latitude":26.7271,"longitude":88.3953,"temp":21.6,"humidity":58,"rain":0.0,"pressure":995.7,"uv_index":7.25,"wind_gusts":17.3,"aqi":117,"pm10":16.1,"pm2_5":14.6,"mosquito_risk":0,"arthritis_risk":5,"migraine_risk":7,"frizz_risk":0,"updated_at":"2026-03-22T15:06:59.319216+05:30"},{"city":"Durgapur","state":"West Bengal","latitude":23.5204,"longitude":87.3119,"temp":27.7,"humidity":40,"rain":0.0,"pressure":997.5,"uv_index":7.95,"wind_gusts":19.8,"aqi":117,"pm10":37.3,"pm2_5":30.3,"mosquito_risk":4,"arthritis_risk":5,"migraine_risk":7,"frizz_risk":0,"updated_at":"2026-03-22T15:06:59.319245+05:30"},{"city":"Asansol","state":"West Bengal","latitude":23.6739,"longitude":86.9524,"temp":27.4,"humidity":42,"rain":0.0,"pressure":996.1,"uv_index":8.2,"wind_gusts":21.6,"aqi":116,"pm10":36.1,"pm2_5":25.7,"mosquito_risk":4,"arthritis_risk":5,"migraine_risk":7,"frizz_risk":0,"updated_at":"2026-03-22T15:06:59.319255+05:30"},{"city":"Pondicherry","state":"Puducherry","latitude":11.9139,"longitude":79.8145,"temp":33.8,"humidity":53,"rain":0.0,"pressure":1008.7,"uv_index":9.15,"wind_gusts":29.5,"aqi":39,"pm10":11.9,"pm2_5":6.7,"mosquito_risk":0,"arthritis_risk":0,"migraine_risk":4,"frizz_risk":1,"updated_at":"2026-03-22T15:06:59.319263+05:30"},{"city":"Port Blair","state":"Andaman and Nicobar Islands","latitude":11.6234,"longitude":92.7265,"temp":28.3,"humidity":80,"rain":0.0,"pressure":1007.3,"uv_index":9.1,"wind_gusts":20.9,"aqi":45,"pm10":14.3,"pm2_5":11.1,"mosquito_risk":7,"arthritis_risk":5,"migraine_risk":4,"frizz_risk":1,"updated_at":"2026-03-22T15:06:59.319270+05:30"},{"city":"Haridwar","state":"Uttarakhand","latitude":29.9457,"longitude":78.1642,"temp":27.0,"humidity":46,"rain":0.0,"pressure":977.2,"uv_index":6.25,"wind_gusts":24.5,"aqi":96,"pm10":33.2,"pm2_5":27.5,"mosquito_risk":4,"arthritis_risk":5,"migraine_risk":7,"frizz_risk":0,"updated_at":"2026-03-22T15:06:59.319277+05:30"},{"city":"Rishikesh","state":"Uttarakhand","latitude":30.0869,"longitude":78.2676,"temp":25.1,"humidity":54,"rain":0.0,"pressure":969.7,"uv_index":6.35,"wind_gusts":23.0,"aqi":70,"pm10":25.6,"pm2_5":20.1,"mosquito_risk":4,"arthritis_risk":5,"migraine_risk":7,"frizz_risk":0,"updated_at":"2026-03-22T15:06:59.319284+05:30"},{"city":"Nainital","state":"Uttarakhand","latitude":29.3919,"longitude":79.4542,"temp":17.6,"humidity":61,"rain":0.0,"pressure":807.1,"uv_index":7.1,"wind_gusts":40.3,"aqi":80,"pm10":30.4,"pm2_5":23.0,"mosquito_risk":3,"arthritis_risk":5,"migraine_risk":7,"frizz_risk":0,"updated_at":"2026-03-22T15:06:59.319292+05:30"},{"city":"Mussoorie","state":"Uttarakhand","latitude":30.4599,"longitude":78.0664,"temp":16.4,"humidity":64,"rain":0.0,"pressure":803.7,"uv_index":6.65,"wind_gusts":24.5,"aqi":77,"pm10":32.6,"pm2_5":26.8,"mosquito_risk":3,"arthritis_risk":5,"migraine_risk":7,"frizz_risk":0,"updated_at":"2026-03-22T15:06:59.319299+05:30"},{"city":"Dharamshala","state":"Himachal Pradesh","latitude":32.219,"longitude":76.3234,"temp":19.1,"humidity":69,"rain":0.0,"pressure":870.5,"uv_index":6.55,"wind_gusts":20.9,"aqi":107,"pm10":21.5,"pm2_5":12.7,"mosquito_risk":3,"arthritis_risk":5,"migraine_risk":7,"frizz_risk":0,"updated_at":"2026-03-22T15:06:59.319306+05:30"},{"city":"Dalhousie","state":"Himachal Pradesh","latitude":32.5387,"longitude":75.971,"temp":17.2,"humidity":59,"rain":0.0,"pressure":805.1,"uv_index":6.85,"wind_gusts":19.1,"aqi":86,"pm10":28.2,"pm2_5":22.9,"mosquito_risk":0,"arthritis_risk":5,"migraine_risk":7,"frizz_risk":0,"updated_at":"2026-03-22T15:06:59.319314+05:30"},{"city":"Patiala","state":"Punjab","latitude":30.3398,"longitude":76.3869,"temp":26.7,"humidity":42,"rain":0.0,"pressure":981.8,"uv_index":6.25,"wind_gusts":31.7,"aqi":144,"pm10":590.5,"pm2_5":76.1,"mosquito_risk":4,"arthritis_risk":5,"migraine_risk":7,"frizz_risk":0,"updated_at":"2026-03-22T15:06:59.319321+05:30"},{"city":"Bhatinda","state":"Punjab","latitude":30.211,"longitude":74.9455,"temp":27.6,"humidity":42,"rain":0.0,"pressure":987.6,"uv_index":6.8,"wind_gusts":21.6,"aqi":154,"pm10":78.2,"pm2_5":37.8,"mosquito_risk":4,"arthritis_risk":5,"migraine_risk":7,"frizz_risk":0,"updated_at":"2026-03-22T15:06:59.319327+05:30"},{"city":"Rohtak","state":"Haryana","latitude":28.8955,"longitude":76.6066,"temp":28.0,"humidity":43,"rain":0.0,"pressure":985.6,"uv_index":6.45,"wind_gusts":25.6,"aqi":157,"pm10":502.9,"pm2_5":63.1,"mosquito_risk":4,"arthritis_risk":5,"migraine_risk":7,"frizz_risk":0,"updated_at":"2026-03-22T15:06:59.319334+05:30"},{"city":"Panipat","state":"Haryana","latitude":29.3909,"longitude":76.9635,"temp":27.9,"humidity":41,"rain":0.0,"pressure":984.0,"uv_index":6.25,"wind_gusts":32.0,"aqi":206,"pm10":1136.2,"pm2_5":114.8,"mosquito_risk":4,"arthritis_risk":5,"migraine_risk":7,"frizz_risk":0,"updated_at":"2026-03-22T15:06:59.319340+05:30"},{"city":"Mathura","state":"Uttar Pradesh","latitude":27.4924,"longitude":77.6737,"temp":29.9,"humidity":35,"rain":0.0,"pressure":990.5,"uv_index":6.15,"wind_gusts":25.6,"aqi":462,"pm10":720.8,"pm2_5":74.5,"mosquito_risk":4,"arthritis_risk":5,"migraine_risk":7,"frizz_risk":0,"updated_at":"2026-03-22T15:06:59.319347+05:30"},{"city":"Vrindavan","state":"Uttar Pradesh","latitude":27.5823,"longitude":77.7027,"temp":29.8,"humidity":35,"rain":0.0,"pressure":991.0,"uv_index":6.65,"wind_gusts":25.2,"aqi":462,"pm10":720.8,"pm2_5":74.5,"mosquito_risk":4,"arthritis_risk":5,"migraine_risk":7,"frizz_risk":0,"updated_at":"2026-03-22T15:06:59.319354+05:30"},{"city":"Ayodhya","state":"Uttar Pradesh","latitude":26.7922,"longitude":82.1998,"temp":27.6,"humidity":45,"rain":0.0,"pressure":998.7,"uv_index":7.05,"wind_gusts":20.2,"aqi":105,"pm10":19.2,"pm2_5":15.7,"mosquito_risk":4,"arthritis_risk":5,"migraine_risk":7,"frizz_risk":0,"updated_at":"2026-03-22T15:06:59.319360+05:30"},{"city":"Ratlam","state":"Madhya Pradesh","latitude":23.3315,"longitude":75.0367,"temp":31.6,"humidity":28,"rain":0.0,"pressure":957.4,"uv_index":7.95,"wind_gusts":19.1,"aqi":62,"pm10":29.2,"pm2_5":12.7,"mosquito_risk":0,"arthritis_risk":5,"migraine_risk":7,"frizz_risk":0,"updated_at":"2026-03-22T15:06:59.319366+05:30"},{"city":"Sagar","state":"Madhya Pradesh","latitude":23.8388,"longitude":78.7378,"temp":30.4,"humidity":26,"rain":0.0,"pressure":953.4,"uv_index":7.95,"wind_gusts":30.2,"aqi":72,"pm10":50.2,"pm2_5":14.9,"mosquito_risk":0,"arthritis_risk":5,"migraine_risk":7,"frizz_risk":0,"updated_at":"2026-03-22T15:06:59.319373+05:30"},{"city":"Satna","state":"Madhya Pradesh","latitude":24.6005,"longitude":80.8322,"temp":28.4,"humidity":34,"rain":0.0,"pressure":975.0,"uv_index":7.9,"wind_gusts":33.5,"aqi":72,"pm10":80.6,"pm2_5":20.8,"mosquito_risk":4,"arthritis_risk":5,"migraine_risk":7,"frizz_risk":0,"updated_at":"2026-03-22T15:06:59.319379+05:30"},{"city":"Akola","state":"Maharashtra","latitude":20.7002,"longitude":77.0082,"temp":34.2,"humidity":21,"rain":0.0,"pressure":977.1,"uv_index":8.3,"wind_gusts":21.2,"aqi":57,"pm10":16.1,"pm2_5":10.9,"mosquito_risk":0,"arthritis_risk":5,"migraine_risk":7,"frizz_risk":0,"updated_at":"2026-03-22T15:06:59.319386+05:30"},{"city":"Amravati","state":"Maharashtra","latitude":20.9374,"longitude":77.7796,"temp":34.2,"humidity":20,"rain":0.0,"pressure":969.3,"uv_index":8.3,"wind_gusts":22.3,"aqi":61,"pm10":15.1,"pm2_5":9.6,"mosquito_risk":0,"arthritis_risk":5,"migraine_risk":7,"frizz_risk":0,"updated_at":"2026-03-22T15:06:59.319394+05:30"},{"city":"Latur","state":"Maharashtra","latitude":18.4088,"longitude":76.5604,"temp":33.6,"humidity":23,"rain":0.0,"pressure":940.9,"uv_index":8.7,"wind_gusts":28.8,"aqi":66,"pm10":31.0,"pm2_5":18.3,"mosquito_risk":0,"arthritis_risk":5,"migraine_risk":7,"frizz_risk":0,"updated_at":"2026-03-22T15:06:59.319401+05:30"},{"city":"Nanded","state":"Maharashtra","latitude":19.1383,"longitude":77.3091,"temp":35.7,"humidity":21,"rain":0.0,"pressure":969.7,"uv_index":8.5,"wind_gusts":28.4,"aqi":67,"pm10":14.1,"pm2_5":9.5,"mosquito_risk":0,"arthritis_risk":5,"migraine_risk":10,"frizz_risk":0,"updated_at":"2026-03-22T15:06:59.319407+05:30"},{"city":"Gulbarga","state":"Karnataka","latitude":17.3297,"longitude":76.8343,"temp":35.6,"humidity":25,"rain":0.0,"pressure":959.0,"uv_index":8.75,"wind_gusts":18.4,"aqi":80,"pm10":35.5,"pm2_5":24.8,"mosquito_risk":0,"arthritis_risk":5,"migraine_risk":10,"frizz_risk":0,"updated_at":"2026-03-22T15:06:59.319413+05:30"},{"city":"Bidar","state":"Karnataka","latitude":17.9104,"longitude":77.5199,"temp":33.9,"humidity":28,"rain":0.0,"pressure":936.4,"uv_index":8.75,"wind_gusts":22.7,"aqi":91,"pm10":49.6,"pm2_5":31.8,"mosquito_risk":0,"arthritis_risk":5,"migraine_risk":7,"frizz_risk":0,"updated_at":"2026-03-22T15:06:59.319420+05:30"},{"city":"Hospet","state":"Karnataka","latitude":15.2689,"longitude":76.3909,"temp":35.3,"humidity":25,"rain":0.0,"pressure":955.8,"uv_index":9.0,"wind_gusts":15.1,"aqi":78,"pm10":28.3,"pm2_5":16.4,"mosquito_risk":0,"arthritis_risk":5,"migraine_risk":10,"frizz_risk":0,"updated_at":"2026-03-22T15:06:59.319427+05:30"},{"city":"Tirupur","state":"Tamil Nadu","latitude":11.1085,"longitude":77.3411,"temp":35.3,"humidity":33,"rain":0.0,"pressure":974.8,"uv_index":9.4,"wind_gusts":29.9,"aqi":66,"pm10":28.5,"pm2_5":19.4,"mosquito_risk":0,"arthritis_risk":5,"migraine_risk":10,"frizz_risk":1,"updated_at":"2026-03-22T15:06:59.319433+05:30"},{"city":"Alappuzha","state":"Kerala","latitude":9.4981,"longitude":76.3388,"temp":29.1,"humidity":77,"rain":0.0,"pressure":1007.9,"uv_index":9.1,"wind_gusts":31.7,"aqi":79,"pm10":22.6,"pm2_5":17.9,"mosquito_risk":7,"arthritis_risk":5,"migraine_risk":4,"frizz_risk":1,"updated_at":"2026-03-22T15:06:59.319439+05:30"},{"city":"Munnar","state":"Kerala","latitude":10.0889,"longitude":77.0595,"temp":29.4,"humidity":43,"rain":0.0,"pressure":859.0,"uv_index":8.65,"wind_gusts":28.4,"aqi":69,"pm10":27.4,"pm2_5":16.9,"mosquito_risk":4,"arthritis_risk":5,"migraine_risk":7,"frizz_risk":0,"updated_at":"2026-03-22T15:06:59.319447+05:30"},{"city":"Silchar","state":"Assam","latitude":24.8333,"longitude":92.7789,"temp":24.9,"humidity":68,"rain":0.0,"pressure":1007.0,"uv_index":7.95,"wind_gusts":23.4,"aqi":90,"pm10":20.1,"pm2_5":17.2,"mosquito_risk":3,"arthritis_risk":5,"migraine_risk":4,"frizz_risk":1,"updated_at":"2026-03-22T15:06:59.319453+05:30"},{"city":"Dibrugarh","state":"Assam","latitude":27.4728,"longitude":94.912,"temp":21.7,"humidity":80,"rain":0.0,"pressure":997.7,"uv_index":3.55,"wind_gusts":28.4,"aqi":122,"pm10":31.7,"pm2_5":26.1,"mosquito_risk":3,"arthritis_risk":5,"migraine_risk":3,"frizz_risk":1,"updated_at":"2026-03-22T15:06:59.319459+05:30"}]