[{"city":"Delhi","state":"Delhi","latitude":28.6139,"longitude":77.209,"temp":35.2,"humidity":21,"rain":0.0,"pressure":983.0,"uv_index":7.1,"wind_gusts":45.7,"aqi":516,"pm10":1043.1,"pm2_5":150.4,"mosquito_risk":0,"arthritis_risk":5,"migraine_risk":10,"frizz_risk":0,"updated_at":"2026-04-25T21:11:42.751870+05:30"},{"city":"Mumbai","state":"Maharashtra","latitude":19.076,"longitude":72.8777,"temp":30.6,"humidity":64,"rain":0.0,"pressure":1007.7,"uv_index":8.0,"wind_gusts":42.8,"aqi":132,"pm10":42.0,"pm2_5":25.7,"mosquito_risk":3,"arthritis_risk":5,"migraine_risk":4,"frizz_risk":1,"updated_at":"2026-04-25T21:11:42.751916+05:30"},{"city":"Bangalore","state":"Karnataka","latitude":12.9716,"longitude":77.5946,"temp":28.9,"humidity":39,"rain":0.0,"pressure":913.5,"uv_index":9.3,"wind_gusts":36.4,"aqi":114,"pm10":31.0,"pm2_5":27.2,"mosquito_risk":4,"arthritis_risk":5,"migraine_risk":7,"frizz_risk":0,"updated_at":"2026-04-25T21:11:42.751932+05:30"},{"city":"Hyderabad","state":"Telangana","latitude":17.385,"longitude":78.4867,"temp":33.3,"humidity":30,"rain":0.0,"pressure":955.0,"uv_index":9.3,"wind_gusts":29.2,"aqi":166,"pm10":50.9,"pm2_5":46.1,"mosquito_risk":0,"arthritis_risk":5,"migraine_risk":7,"frizz_risk":0,"updated_at":"2026-04-25T21:11:42.751942+05:30"},{"city":"Chennai","state":"Tamil Nadu","latitude":13.0827,"longitude":80.2707,"temp":29.5,"humidity":78,"rain":0.0,"pressure":1008.3,"uv_index":9.3,"wind_gusts":50.0,"aqi":32,"pm10":11.6,"pm2_5":7.9,"mosquito_risk":7,"arthritis_risk":0,"migraine_risk":4,"frizz_risk":1,"updated_at":"2026-04-25T21:11:42.751952+05:30"},{"city":"Kolkata","state":"West Bengal","latitude":22.5726,"longitude":88.3639,"temp":28.5,"humidity":81,"rain":0.0,"pressure":1005.7,"uv_index":8.55,"wind_gusts":38.9,"aqi":76,"pm10":24.5,"pm2_5":19.8,"mosquito_risk":7,"arthritis_risk":5,"migraine_risk":4,"frizz_risk":1,"updated_at":"2026-04-25T21:11:42.751964+05:30"},{"city":"Pune","state":"Maharashtra","latitude":18.5204,"longitude":73.8567,"temp":32.0,"humidity":31,"rain":0.0,"pressure":949.3,"uv_index":8.35,"wind_gusts":36.4,"aqi":152,"pm10":50.9,"pm2_5":44.4,"mosquito_risk":0,"arthritis_risk":5,"migraine_risk":7,"frizz_risk":0,"updated_at":"2026-04-25T21:11:42.751972+05:30"},{"city":"Ahmedabad","state":"Gujarat","latitude":23.0225,"longitude":72.5714,"temp":39.7,"humidity":12,"rain":0.0,"pressure":1001.3,"uv_index":8.2,"wind_gusts":24.1,"aqi":81,"pm10":49.4,"pm2_5":30.7,"mosquito_risk":0,"arthritis_risk":5,"migraine_risk":7,"frizz_risk":0,"updated_at":"2026-04-25T21:11:42.751980+05:30"},{"city":"Jaipur","state":"Rajasthan","latitude":26.9124,"longitude":75.7873,"temp":34.3,"humidity":20,"rain":0.0,"pressure":961.3,"uv_index":8.05,"wind_gusts":38.2,"aqi":127,"pm10":197.9,"pm2_5":41.7,"mosquito_risk":0,"arthritis_risk":5,"migraine_risk":7,"frizz_risk":0,"updated_at":"2026-04-25T21:11:42.751988+05:30"},{"city":"Lucknow","state":"Uttar Pradesh","latitude":26.8467,"longitude":80.9462,"temp":36.8,"humidity":17,"rain":0.0,"pressure":991.8,"uv_index":7.9,"wind_gusts":42.1,"aqi":130,"pm10":130.9,"pm2_5":40.6,"mosquito_risk":0,"arthritis_risk":5,"migraine_risk":10,"frizz_risk":0,"updated_at":"2026-04-25T21:11:42.751996+05:30"},{"city":"Kanpur","state":"Uttar Pradesh","latitude":26.4499,"longitude":80.3319,"temp":36.8,"humidity":17,"rain":0.0,"pressure":990.4,"uv_index":7.9,"wind_gusts":39.6,"aqi":172,"pm10":465.7,"pm2_5":71.2,"mosquito_risk":0,"arthritis_risk":5,"migraine_risk":10,"frizz_risk":0,"updated_at":"2026-04-25T21:11:42.752004+05:30"},{"city":"Chandigarh","state":"Chandigarh","latitude":30.7333,"longitude":76.7794,"temp":29.0,"humidity":38,"rain":0.0,"pressure":969.0,"uv_index":7.25,"wind_gusts":59.4,"aqi":64,"pm10":43.7,"pm2_5":21.3,"mosquito_risk":4,"arthritis_risk":5,"migraine_risk":7,"frizz_risk":0,"updated_at":"2026-04-25T21:11:42.752012+05:30"},{"city":"Srinagar","state":"Jammu and Kashmir","latitude":34.0837,"longitude":74.7973,"temp":14.2,"humidity":83,"rain":0.0,"pressure":844.6,"uv_index":8.6,"wind_gusts":31.3,"aqi":73,"pm10":46.4,"pm2_5":28.9,"mosquito_risk":3,"arthritis_risk":10,"migraine_risk":7,"frizz_risk":0,"updated_at":"2026-04-25T21:11:42.752020+05:30"},{"city":"Jammu","state":"Jammu and Kashmir","latitude":32.7266,"longitude":74.857,"temp":29.5,"humidity":41,"rain":0.0,"pressure":973.4,"uv_index":8.2,"wind_gusts":43.6,"aqi":80,"pm10":86.1,"pm2_5":33.5,"mosquito_risk":4,"arthritis_risk":5,"migraine_risk":7,"frizz_risk":0,"updated_at":"2026-04-25T21:11:42.752027+05:30"},{"city":"Amritsar","state":"Punjab","latitude":31.634,"longitude":74.8723,"temp":31.8,"humidity":29,"rain":0.0,"pressure":981.0,"uv_index":8.1,"wind_gusts":38.2,"aqi":89,"pm10":127.1,"pm2_5":48.8,"mosquito_risk":0,"arthritis_risk":5,"migraine_risk":7,"frizz_risk":0,"updated_at":"2026-04-25T21:11:42.752035+05:30"},{"city":"Ludhiana","state":"Punjab","latitude":30.901,"longitude":75.8573,"temp":30.8,"humidity":34,"rain":0.0,"pressure":978.9,"uv_index":7.7,"wind_gusts":54.4,"aqi":83,"pm10":87.3,"pm2_5":31.0,"mosquito_risk":0,"arthritis_risk":5,"migraine_risk":7,"frizz_risk":0,"updated_at":"2026-04-25T21:11:42.752043+05:30"},{"city":"Jalandhar","state":"Punjab","latitude":31.326,"longitude":75.5762,"temp":29.4,"humidity":40,"rain":0.0,"pressure":979.8,"uv_index":7.9,"wind_gusts":37.4,"aqi":92,"pm10":111.3,"pm2_5":37.5,"mosquito_risk":4,"arthritis_risk":5,"migraine_risk":7,"frizz_risk":0,"updated_at":"2026-04-25T21:11:42.752051+05:30"},{"city":"Dehradun","state":"Uttarakhand","latitude":30.6284,"longitude":78.0322,"temp":16.0,"humidity":63,"rain":0.0,"pressure":829.3,"uv_index":7.85,"wind_gusts":50.0,"aqi":64,"pm10":43.3,"pm2_5":17.2,"mosquito_risk":3,"arthritis_risk":5,"migraine_risk":7,"frizz_risk":0,"updated_at":"2026-04-25T21:11:42.752058+05:30"},{"city":"Shimla","state":"Himachal Pradesh","latitude":31.1048,"longitude":77.1734,"temp":14.7,"humidity":54,"rain":0.0,"pressure":785.9,"uv_index":7.6,"wind_gusts":55.1,"aqi":57,"pm10":68.9,"pm2_5":19.6,"mosquito_risk":0,"arthritis_risk":5,"migraine_risk":7,"frizz_risk":0,"updated_at":"2026-04-25T21:11:42.752065+05:30"},{"city":"Manali","state":"Himachal Pradesh","latitude":32.2396,"longitude":77.1887,"temp":8.8,"humidity":91,"rain":0.0,"pressure":818.8,"uv_index":9.85,"wind_gusts":43.9,"aqi":94,"pm10":19.7,"pm2_5":7.6,"mosquito_risk":3,"arthritis_risk":10,"migraine_risk":7,"frizz_risk":0,"updated_at":"2026-04-25T21:11:42.752072+05:30"},{"city":"Gurgaon","state":"Haryana","latitude":28.4595,"longitude":77.0266,"temp":32.7,"humidity":25,"rain":0.0,"pressure":981.3,"uv_index":7.5,"wind_gusts":47.2,"aqi":1303,"pm10":2138.3,"pm2_5":251.5,"mosquito_risk":0,"arthritis_risk":5,"migraine_risk":7,"frizz_risk":0,"updated_at":"2026-04-25T21:11:42.752080+05:30"},{"city":"Noida","state":"Uttar Pradesh","latitude":28.5355,"longitude":77.391,"temp":34.2,"humidity":22,"rain":0.0,"pressure":984.1,"uv_index":7.4,"wind_gusts":33.8,"aqi":1303,"pm10":2138.3,"pm2_5":251.5,"mosquito_risk":0,"arthritis_risk":5,"migraine_risk":7,"frizz_risk":0,"updated_at":"2026-04-25T21:11:42.752086+05:30"},{"city":"Ghaziabad","state":"Uttar Pradesh","latitude":28.6692,"longitude":77.4538,"temp":34.2,"humidity":21,"rain":0.0,"pressure":982.5,"uv_index":7.4,"wind_gusts":46.8,"aqi":317,"pm10":828.9,"pm2_5":124.3,"mosquito_risk":0,"arthritis_risk":5,"migraine_risk":7,"frizz_risk":0,"updated_at":"2026-04-25T21:11:42.752093+05:30"},{"city":"Faridabad","state":"Haryana","latitude":28.4089,"longitude":77.3178,"temp":35.3,"humidity":21,"rain":0.0,"pressure":983.5,"uv_index":7.5,"wind_gusts":48.6,"aqi":1303,"pm10":2138.3,"pm2_5":251.5,"mosquito_risk":0,"arthritis_risk":5,"migraine_risk":10,"frizz_risk":0,"updated_at":"2026-04-25T21:11:42.752099+05:30"},{"city":"Meerut","state":"Uttar Pradesh","latitude":28.9845,"longitude":77.7064,"temp":31.7,"humidity":28,"rain":0.0,"pressure":981.2,"uv_index":7.35,"wind_gusts":47.2,"aqi":317,"pm10":828.9,"pm2_5":124.3,"mosquito_risk":0,"arthritis_risk":5,"migraine_risk":7,"frizz_risk":0,"updated_at":"2026-04-25T21:11:42.752106+05:30"},{"city":"Agra","state":"Uttar Pradesh","latitude":27.1767,"longitude":78.0081,"temp":35.4,"humidity":21,"rain":0.0,"pressure":987.5,"uv_index":7.8,"wind_gusts":45.0,"aqi":451,"pm10":1575.8,"pm2_5":181.6,"mosquito_risk":0,"arthritis_risk":5,"migraine_risk":10,"frizz_risk":0,"updated_at":"2026-04-25T21:11:42.752115+05:30"},{"city":"Varanasi","state":"Uttar Pradesh","latitude":25.3176,"longitude":82.9739,"temp":35.5,"humidity":21,"rain":0.0,"pressure":995.6,"uv_index":8.5,"wind_gusts":38.9,"aqi":131,"pm10":181.1,"pm2_5":70.3,"mosquito_risk":0,"arthritis_risk":5,"migraine_risk":10,"frizz_risk":0,"updated_at":"2026-04-25T21:11:42.752122+05:30"},{"city":"Prayagraj","state":"Uttar Pradesh","latitude":25.4358,"longitude":81.8463,"temp":33.8,"humidity":24,"rain":0.0,"pressure":993.8,"uv_index":8.4,"wind_gusts":31.7,"aqi":115,"pm10":190.9,"pm2_5":55.5,"mosquito_risk":0,"arthritis_risk":5,"migraine_risk":7,"frizz_risk":0,"updated_at":"2026-04-25T21:11:42.752130+05:30"},{"city":"Gorakhpur","state":"Uttar Pradesh","latitude":26.7606,"longitude":83.3732,"temp":30.0,"humidity":59,"rain":0.0,"pressure":996.7,"uv_index":8.3,"wind_gusts":43.2,"aqi":176,"pm10":100.4,"pm2_5":55.4,"mosquito_risk":4,"arthritis_risk":5,"migraine_risk":7,"frizz_risk":1,"updated_at":"2026-04-25T21:11:42.752139+05:30"},{"city":"Bareilly","state":"Uttar Pradesh","latitude":28.367,"longitude":79.4304,"temp":32.2,"humidity":29,"rain":0.0,"pressure":985.1,"uv_index":7.7,"wind_gusts":48.6,"aqi":145,"pm10":53.4,"pm2_5":32.6,"mosquito_risk":0,"arthritis_risk":5,"migraine_risk":7,"frizz_risk":0,"updated_at":"2026-04-25T21:11:42.752146+05:30"},{"city":"Aligarh","state":"Uttar Pradesh","latitude":27.8974,"longitude":78.088,"temp":34.6,"humidity":21,"rain":0.0,"pressure":984.9,"uv_index":7.6,"wind_gusts":40.3,"aqi":499,"pm10":1389.5,"pm2_5":182.1,"mosquito_risk":0,"arthritis_risk":5,"migraine_risk":7,"frizz_risk":0,"updated_at":"2026-04-25T21:11:42.752153+05:30"},{"city":"Moradabad","state":"Uttar Pradesh","latitude":28.8386,"longitude":78.7733,"temp":32.8,"humidity":32,"rain":0.0,"pressure":982.6,"uv_index":7.55,"wind_gusts":57.2,"aqi":155,"pm10":212.3,"pm2_5":50.3,"mosquito_risk":0,"arthritis_risk":5,"migraine_risk":7,"frizz_risk":0,"updated_at":"2026-04-25T21:11:42.752159+05:30"},{"city":"Saharanpur","state":"Uttar Pradesh","latitude":29.9637,"longitude":77.546,"temp":31.4,"humidity":31,"rain":0.0,"pressure":975.2,"uv_index":7.15,"wind_gusts":54.0,"aqi":102,"pm10":147.6,"pm2_5":39.6,"mosquito_risk":0,"arthritis_risk":5,"migraine_risk":7,"frizz_risk":0,"updated_at":"2026-04-25T21:11:42.752165+05:30"},{"city":"Jhansi","state":"Uttar Pradesh","latitude":25.4484,"longitude":78.5685,"temp":35.0,"humidity":17,"rain":0.0,"pressure":977.6,"uv_index":8.3,"wind_gusts":32.0,"aqi":94,"pm10":107.1,"pm2_5":33.5,"mosquito_risk":0,"arthritis_risk":5,"migraine_risk":7,"frizz_risk":0,"updated_at":"2026-04-25T21:11:46.020235+05:30"},{"city":"Surat","state":"Gujarat","latitude":21.1702,"longitude":72.8311,"temp":30.6,"humidity":62,"rain":0.0,"pressure":1006.2,"uv_index":7.85,"wind_gusts":36.0,"aqi":105,"pm10":56.9,"pm2_5":43.9,"mosquito_risk":3,"arthritis_risk":5,"migraine_risk":4,"frizz_risk":1,"updated_at":"2026-04-25T21:11:46.020264+05:30"},{"city":"Vadodara","state":"Gujarat","latitude":22.3072,"longitude":73.1812,"temp":37.3,"humidity":16,"rain":0.0,"pressure":1003.3,"uv_index":8.15,"wind_gusts":30.6,"aqi":118,"pm10":50.4,"pm2_5":32.9,"mosquito_risk":0,"arthritis_risk":5,"migraine_risk":7,"frizz_risk":0,"updated_at":"2026-04-25T21:11:46.020274+05:30"},{"city":"Rajkot","state":"Gujarat","latitude":22.3039,"longitude":70.8022,"temp":31.1,"humidity":35,"rain":0.0,"pressure":994.8,"uv_index":7.9,"wind_gusts":36.0,"aqi":79,"pm10":59.4,"pm2_5":22.1,"mosquito_risk":0,"arthritis_risk":5,"migraine_risk":7,"frizz_risk":0,"updated_at":"2026-04-25T21:11:46.020282+05:30"},{"city":"Thane","state":"Maharashtra","latitude":19.2183,"longitude":72.9781,"temp":31.7,"humidity":48,"rain":0.0,"pressure":1006.9,"uv_index":8.0,"wind_gusts":41.0,"aqi":132,"pm10":42.0,"pm2_5":25.7,"mosquito_risk":0,"arthritis_risk":5,"migraine_risk":4,"frizz_risk":1,"updated_at":"2026-04-25T21:11:46.020289+05:30"},{"city":"Nagpur","state":"Maharashtra","latitude":21.1458,"longitude":79.0882,"temp":36.4,"humidity":16,"rain":0.0,"pressure":972.7,"uv_index":8.9,"wind_gusts":37.1,"aqi":172,"pm10":48.1,"pm2_5":39.8,"mosquito_risk":0,"arthritis_risk":5,"migraine_risk":10,"frizz_risk":0,"updated_at":"2026-04-25T21:11:46.020296+05:30"},{"city":"Nashik","state":"Maharashtra","latitude":19.9975,"longitude":73.7898,"temp":31.7,"humidity":24,"rain":0.0,"pressure":946.7,"uv_index":8.3,"wind_gusts":31.0,"aqi":134,"pm10":33.6,"pm2_5":25.1,"mosquito_risk":0,"arthritis_risk":5,"migraine_risk":7,"frizz_risk":0,"updated_at":"2026-04-25T21:11:46.020303+05:30"},{"city":"Aurangabad","state":"Maharashtra","latitude":19.8762,"longitude":75.3433,"temp":34.7,"humidity":18,"rain":0.0,"pressure":944.9,"uv_index":8.75,"wind_gusts":29.5,"aqi":133,"pm10":41.8,"pm2_5":33.3,"mosquito_risk":0,"arthritis_risk":5,"migraine_risk":7,"frizz_risk":0,"updated_at":"2026-04-25T21:11:46.020309+05:30"},{"city":"Solapur","state":"Maharashtra","latitude":17.6599,"longitude":75.9064,"temp":34.2,"humidity":24,"rain":0.0,"pressure":957.3,"uv_index":8.6,"wind_gusts":25.6,"aqi":171,"pm10":48.0,"pm2_5":43.5,"mosquito_risk":0,"arthritis_risk":5,"migraine_risk":7,"frizz_risk":0,"updated_at":"2026-04-25T21:11:46.020317+05:30"},{"city":"Kolhapur","state":"Maharashtra","latitude":16.705,"longitude":74.2433,"temp":29.7,"humidity":47,"rain":0.0,"pressure":948.4,"uv_index":9.05,"wind_gusts":37.8,"aqi":151,"pm10":65.7,"pm2_5":60.8,"mosquito_risk":4,"arthritis_risk":5,"migraine_risk":7,"frizz_risk":1,"updated_at":"2026-04-25T21:11:46.020325+05:30"},{"city":"Goa","state":"Goa","latitude":15.2993,"longitude":74.124,"temp":30.2,"humidity":79,"rain":0.0,"pressure":997.8,"uv_index":8.9,"wind_gusts":29.5,"aqi":72,"pm10":31.4,"pm2_5":23.2,"mosquito_risk":3,"arthritis_risk":5,"migraine_risk":7,"frizz_risk":1,"updated_at":"2026-04-25T21:11:46.020332+05:30"},{"city":"Jodhpur","state":"Rajasthan","latitude":26.2389,"longitude":73.0243,"temp":36.5,"humidity":18,"rain":0.0,"pressure":983.1,"uv_index":8.3,"wind_gusts":32.8,"aqi":86,"pm10":119.7,"pm2_5":26.5,"mosquito_risk":0,"arthritis_risk":5,"migraine_risk":10,"frizz_risk":0,"updated_at":"2026-04-25T21:11:46.020339+05:30"},{"city":"Udaipur","state":"Rajasthan","latitude":24.5854,"longitude":73.7125,"temp":32.8,"humidity":23,"rain":0.0,"pressure":947.7,"uv_index":8.8,"wind_gusts":41.0,"aqi":76,"pm10":60.3,"pm2_5":20.9,"mosquito_risk":0,"arthritis_risk":5,"migraine_risk":7,"frizz_risk":0,"updated_at":"2026-04-25T21:11:46.020346+05:30"},{"city":"Kota","state":"Rajasthan","latitude":25.2138,"longitude":75.8648,"temp":35.1,"humidity":20,"rain":0.0,"pressure":979.1,"uv_index":8.3,"wind_gusts":31.3,"aqi":99,"pm10":90.3,"pm2_5":37.7,"mosquito_risk":0,"arthritis_risk":5,"migraine_risk":10,"frizz_risk":0,"updated_at":"2026-04-25T21:11:46.020353+05:30"},{"city":"Bikaner","state":"Rajasthan","latitude":28.0229,"longitude":73.3119,"temp":36.0,"humidity":21,"rain":0.0,"pressure":981.8,"uv_index":8.15,"wind_gusts":38.5,"aqi":74,"pm10":92.2,"pm2_5":25.3,"mosquito_risk":0,"arthritis_risk":5,"migraine_risk":10,"frizz_risk":0,"updated_at":"2026-04-25T21:11:46.020359+05:30"},{"city":"Ajmer","state":"Rajasthan","latitude":26.4499,"longitude":74.6399,"temp":33.5,"humidity":23,"rain":0.0,"pressure":956.5,"uv_index":8.25,"wind_gusts":35.6,"aqi":80,"pm10":100.1,"pm2_5":30.9,"mosquito_risk":0,"arthritis_risk":5,"migraine_risk":7,"frizz_risk":0,"updated_at":"2026-04-25T21:11:46.020366+05:30"},{"city":"Gwalior","state":"Madhya Pradesh","latitude":26.2183,"longitude":78.1828,"temp":35.4,"humidity":20,"rain":0.0,"pressure":983.2,"uv_index":8.0,"wind_gusts":41.0,"aqi":91,"pm10":120.6,"pm2_5":33.1,"mosquito_risk":0,"arthritis_risk":5,"migraine_risk":10,"frizz_risk":0,"updated_at":"2026-04-25T21:11:46.020372+05:30"},{"city":"Indore","state":"Madhya Pradesh","latitude":22.7196,"longitude":75.8577,"temp":35.5,"humidity":16,"rain":0.0,"pressure":948.7,"uv_index":8.65,"wind_gusts":32.0,"aqi":81,"pm10":46.0,"pm2_5":25.0,"mosquito_risk":0,"arthritis_risk":5,"migraine_risk":10,"frizz_risk":0,"updated_at":"2026-04-25T21:11:46.020379+05:30"},{"city":"Bhopal","state":"Madhya Pradesh","latitude":23.2599,"longitude":77.4126,"temp":35.8,"humidity":14,"rain":0.0,"pressure":953.6,"uv_index":8.65,"wind_gusts":30.6,"aqi":103,"pm10":36.0,"pm2_5":21.7,"mosquito_risk":0,"arthritis_risk":5,"migraine_risk":10,"frizz_risk":0,"updated_at":"2026-04-25T21:11:46.020385+05:30"},{"city":"Jabalpur","state":"Madhya Pradesh","latitude":23.1815,"longitude":79.9864,"temp":34.5,"humidity":16,"rain":0.0,"pressure":960.8,"uv_index":8.75,"wind_gusts":34.9,"aqi":112,"pm10":30.6,"pm2_5":20.8,"mosquito_risk":0,"arthritis_risk":5,"migraine_risk":7,"frizz_risk":0,"updated_at":"2026-04-25T21:11:46.020392+05:30"},{"city":"Ujjain","state":"Madhya Pradesh","latitude":23.1765,"longitude":75.7885,"temp":34.5,"humidity":19,"rain":0.0,"pressure":954.1,"uv_index":8.55,"wind_gusts":29.2,"aqi":72,"pm10":55.9,"pm2_5":30.7,"mosquito_risk":0,"arthritis_risk":5,"migraine_risk":7,"frizz_risk":0,"updated_at":"2026-04-25T21:11:46.020399+05:30"},{"city":"Visakhapatnam","state":"Andhra Pradesh","latitude":17.6868,"longitude":83.2185,"temp":28.6,"humidity":86,"rain":0.0,"pressure":1004.9,"uv_index":8.7,"wind_gusts":42.8,"aqi":59,"pm10":17.7,"pm2_5":13.0,"mosquito_risk":7,"arthritis_risk":5,"migraine_risk":4,"frizz_risk":1,"updated_at":"2026-04-25T21:11:46.020406+05:30"},{"city":"Vijayawada","state":"Andhra Pradesh","latitude":16.5062,"longitude":80.648,"temp":30.2,"humidity":72,"rain":0.0,"pressure":1003.8,"uv_index":8.85,"wind_gusts":31.0,"aqi":52,"pm10":14.7,"pm2_5":11.6,"mosquito_risk":3,"arthritis_risk":5,"migraine_risk":4,"frizz_risk":1,"updated_at":"2026-04-25T21:11:46.020412+05:30"},{"city":"Guntur","state":"Andhra Pradesh","latitude":16.3067,"longitude":80.4365,"temp":29.0,"humidity":81,"rain":0.0,"pressure":1005.2,"uv_index":8.6,"wind_gusts":36.7,"aqi":63,"pm10":15.8,"pm2_5":12.7,"mosquito_risk":7,"arthritis_risk":5,"migraine_risk":4,"frizz_risk":1,"updated_at":"2026-04-25T21:11:46.020418+05:30"},{"city":"Nellore","state":"Andhra Pradesh","latitude":14.4426,"longitude":79.9865,"temp":28.9,"humidity":83,"rain":0.0,"pressure":1006.8,"uv_index":9.25,"wind_gusts":42.1,"aqi":47,"pm10":11.8,"pm2_5":8.5,"mosquito_risk":7,"arthritis_risk":5,"migraine_risk":4,"frizz_risk":1,"updated_at":"2026-04-25T21:11:46.020425+05:30"},{"city":"Kurnool","state":"Andhra Pradesh","latitude":15.8281,"longitude":78.0373,"temp":35.2,"humidity":25,"rain":0.0,"pressure":977.1,"uv_index":8.9,"wind_gusts":34.2,"aqi":126,"pm10":52.6,"pm2_5":44.4,"mosquito_risk":0,"arthritis_risk":5,"migraine_risk":10,"frizz_risk":0,"updated_at":"2026-04-25T21:11:46.020433+05:30"},{"city":"Kakinada","state":"Andhra Pradesh","latitude":16.9891,"longitude":82.2475,"temp":29.1,"humidity":78,"rain":0.0,"pressure":1008.5,"uv_index":8.45,"wind_gusts":37.1,"aqi":40,"pm10":14.3,"pm2_5":9.2,"mosquito_risk":7,"arthritis_risk":0,"migraine_risk":4,"frizz_risk":1,"updated_at":"2026-04-25T21:11:46.020439+05:30"},{"city":"Tirupati","state":"Andhra Pradesh","latitude":13.6288,"longitude":79.4192,"temp":31.1,"humidity":52,"rain":0.0,"pressure":992.4,"uv_index":9.35,"wind_gusts":34.9,"aqi":79,"pm10":20.0,"pm2_5":17.2,"mosquito_risk":0,"arthritis_risk":5,"migraine_risk":7,"frizz_risk":1,"updated_at":"2026-04-25T21:11:46.020446+05:30"},{"city":"Warangal","state":"Telangana","latitude":17.9689,"longitude":79.5941,"temp":32.8,"humidity":38,"rain":0.0,"pressure":979.5,"uv_index":9.0,"wind_gusts":29.5,"aqi":131,"pm10":42.8,"pm2_5":39.2,"mosquito_risk":0,"arthritis_risk":5,"migraine_risk":7,"frizz_risk":1,"updated_at":"2026-04-25T21:11:46.020452+05:30"},{"city":"Nizamabad","state":"Telangana","latitude":18.6725,"longitude":78.0941,"temp":33.0,"humidity":28,"rain":0.0,"pressure":965.1,"uv_index":8.75,"wind_gusts":27.7,"aqi":158,"pm10":66.6,"pm2_5":59.6,"mosquito_risk":0,"arthritis_risk":5,"migraine_risk":7,"frizz_risk":0,"updated_at":"2026-04-25T21:11:46.020458+05:30"},{"city":"Mysore","state":"Karnataka","latitude":12.2958,"longitude":76.6396,"temp":29.2,"humidity":37,"rain":0.0,"pressure":929.2,"uv_index":8.9,"wind_gusts":45.0,"aqi":107,"pm10":29.7,"pm2_5":26.6,"mosquito_risk":4,"arthritis_risk":5,"migraine_risk":7,"frizz_risk":0,"updated_at":"2026-04-25T21:11:46.020465+05:30"},{"city":"Mangalore","state":"Karnataka","latitude":12.9141,"longitude":74.856,"temp":30.0,"humidity":79,"rain":0.0,"pressure":1006.6,"uv_index":9.1,"wind_gusts":40.7,"aqi":83,"pm10":22.9,"pm2_5":16.9,"mosquito_risk":7,"arthritis_risk":5,"migraine_risk":4,"frizz_risk":1,"updated_at":"2026-04-25T21:11:46.020471+05:30"},{"city":"Hubli-Dharwad","state":"Karnataka","latitude":15.3647,"longitude":75.124,"temp":27.8,"humidity":54,"rain":0.0,"pressure":941.2,"uv_index":9.0,"wind_gusts":47.5,"aqi":156,"pm10":53.4,"pm2_5":48.5,"mosquito_risk":4,"arthritis_risk":5,"migraine_risk":7,"frizz_risk":1,"updated_at":"2026-04-25T21:11:46.020478+05:30"},{"city":"Belgaum","state":"Karnataka","latitude":15.8497,"longitude":74.4977,"temp":26.5,"humidity":68,"rain":0.0,"pressure":926.7,"uv_index":9.2,"wind_gusts":34.9,"aqi":141,"pm10":49.6,"pm2_5":45.5,"mosquito_risk":7,"arthritis_risk":5,"migraine_risk":7,"frizz_risk":1,"updated_at":"2026-04-25T21:11:49.284891+05:30"},{"city":"Coimbatore","state":"Tamil Nadu","latitude":11.0168,"longitude":76.9558,"temp":32.4,"humidity":35,"rain":0.0,"pressure":962.5,"uv_index":8.95,"wind_gusts":46.1,"aqi":92,"pm10":32.6,"pm2_5":29.5,"mosquito_risk":0,"arthritis_risk":5,"migraine_risk":7,"frizz_risk":0,"updated_at":"2026-04-25T21:11:49.284921+05:30"},{"city":"Madurai","state":"Tamil Nadu","latitude":9.9252,"longitude":78.1198,"temp":31.9,"humidity":42,"rain":0.0,"pressure":993.9,"uv_index":9.25,"wind_gusts":39.2,"aqi":60,"pm10":16.8,"pm2_5":15.4,"mosquito_risk":0,"arthritis_risk":5,"migraine_risk":7,"frizz_risk":1,"updated_at":"2026-04-25T21:11:49.284931+05:30"},{"city":"Trichy","state":"Tamil Nadu","latitude":10.7905,"longitude":78.7047,"temp":30.5,"humidity":60,"rain":0.0,"pressure":1000.7,"uv_index":9.3,"wind_gusts":33.8,"aqi":64,"pm10":19.0,"pm2_5":17.6,"mosquito_risk":0,"arthritis_risk":5,"migraine_risk":4,"frizz_risk":1,"updated_at":"2026-04-25T21:11:49.284939+05:30"},{"city":"Salem","state":"Tamil Nadu","latitude":11.6643,"longitude":78.146,"temp":32.4,"humidity":40,"rain":0.0,"pressure":978.2,"uv_index":9.0,"wind_gusts":38.9,"aqi":97,"pm10":28.9,"pm2_5":25.5,"mosquito_risk":0,"arthritis_risk":5,"migraine_risk":7,"frizz_risk":1,"updated_at":"2026-04-25T21:11:49.284947+05:30"},{"city":"Tirunelveli","state":"Tamil Nadu","latitude":8.7139,"longitude":77.7567,"temp":29.4,"humidity":69,"rain":0.0,"pressure":1004.1,"uv_index":9.2,"wind_gusts":40.0,"aqi":62,"pm10":12.3,"pm2_5":11.5,"mosquito_risk":7,"arthritis_risk":5,"migraine_risk":4,"frizz_risk":1,"updated_at":"2026-04-25T21:11:49.284954+05:30"},{"city":"Vellore","state":"Tamil Nadu","latitude":12.9165,"longitude":79.1325,"temp":30.6,"humidity":54,"rain":0.0,"pressure":985.8,"uv_index":9.35,"wind_gusts":35.6,"aqi":90,"pm10":27.8,"pm2_5":25.1,"mosquito_risk":0,"arthritis_risk":5,"migraine_risk":7,"frizz_risk":1,"updated_at":"2026-04-25T21:11:49.284962+05:30"},{"city":"Erode","state":"Tamil Nadu","latitude":11.341,"longitude":77.7172,"temp":33.5,"humidity":36,"rain":0.0,"pressure":989.4,"uv_index":9.3,"wind_gusts":41.8,"aqi":77,"pm10":25.4,"pm2_5":22.8,"mosquito_risk":0,"arthritis_risk":5,"migraine_risk":7,"frizz_risk":1,"updated_at":"2026-04-25T21:11:49.284969+05:30"},{"city":"Kochi","state":"Kerala","latitude":9.9312,"longitude":76.2673,"temp":29.5,"humidity":76,"rain":0.0,"pressure":1009.3,"uv_index":8.4,"wind_gusts":42.1,"aqi":123,"pm10":25.4,"pm2_5":22.8,"mosquito_risk":7,"arthritis_risk":0,"migraine_risk":4,"frizz_risk":1,"updated_at":"2026-04-25T21:11:49.284976+05:30"},{"city":"Thiruvananthapuram","state":"Kerala","latitude":8.5241,"longitude":76.9366,"temp":27.4,"humidity":87,"rain":0.0,"pressure":1008.8,"uv_index":8.6,"wind_gusts":33.8,"aqi":71,"pm10":15.9,"pm2_5":12.2,"mosquito_risk":7,"arthritis_risk":0,"migraine_risk":4,"frizz_risk":1,"updated_at":"2026-04-25T21:11:49.284983+05:30"},{"city":"Kozhikode","state":"Kerala","latitude":11.2588,"longitude":75.7804,"temp":29.3,"humidity":81,"rain":0.0,"pressure":1008.0,"uv_index":8.7,"wind_gusts":36.7,"aqi":76,"pm10":18.0,"pm2_5":12.6,"mosquito_risk":7,"arthritis_risk":0,"migraine_risk":4,"frizz_risk":1,"updated_at":"2026-04-25T21:11:49.284990+05:30"},{"city":"Thrissur","state":"Kerala","latitude":10.5276,"longitude":76.2144,"temp":29.0,"humidity":83,"rain":0.0,"pressure":1007.6,"uv_index":8.1,"wind_gusts":44.6,"aqi":99,"pm10":19.7,"pm2_5":17.9,"mosquito_risk":7,"arthritis_risk":5,"migraine_risk":4,"frizz_risk":1,"updated_at":"2026-04-25T21:11:49.284997+05:30"},{"city":"Kannur","state":"Kerala","latitude":11.8745,"longitude":75.3704,"temp":30.0,"humidity":80,"rain":0.0,"pressure":1007.4,"uv_index":8.6,"wind_gusts":40.0,"aqi":74,"pm10":22.6,"pm2_5":16.4,"mosquito_risk":7,"arthritis_risk":5,"migraine_risk":4,"frizz_risk":1,"updated_at":"2026-04-25T21:11:49.285004+05:30"},{"city":"Patna","state":"Bihar","latitude":25.5941,"longitude":85.1376,"temp":28.4,"humidity":74,"rain":0.0,"pressure":999.9,"uv_index":8.65,"wind_gusts":60.1,"aqi":177,"pm10":86.4,"pm2_5":58.1,"mosquito_risk":7,"arthritis_risk":5,"migraine_risk":7,"frizz_risk":1,"updated_at":"2026-04-25T21:11:49.285010+05:30"},{"city":"Gaya","state":"Bihar","latitude":24.7914,"longitude":85.0002,"temp":29.8,"humidity":64,"rain":0.0,"pressure":993.2,"uv_index":8.7,"wind_gusts":50.8,"aqi":159,"pm10":82.7,"pm2_5":48.9,"mosquito_risk":7,"arthritis_risk":5,"migraine_risk":7,"frizz_risk":1,"updated_at":"2026-04-25T21:11:49.285016+05:30"},{"city":"Muzaffarpur","state":"Bihar","latitude":26.1209,"longitude":85.3647,"temp":27.0,"humidity":76,"rain":0.0,"pressure":1000.2,"uv_index":8.6,"wind_gusts":50.4,"aqi":182,"pm10":85.9,"pm2_5":58.6,"mosquito_risk":7,"arthritis_risk":5,"migraine_risk":4,"frizz_risk":1,"updated_at":"2026-04-25T21:11:49.285022+05:30"},{"city":"Bhagalpur","state":"Bihar","latitude":25.2425,"longitude":87.0117,"temp":27.9,"humidity":79,"rain":0.0,"pressure":1001.4,"uv_index":8.6,"wind_gusts":55.1,"aqi":203,"pm10":69.6,"pm2_5":55.8,"mosquito_risk":7,"arthritis_risk":5,"migraine_risk":4,"frizz_risk":1,"updated_at":"2026-04-25T21:11:49.285028+05:30"},{"city":"Ranchi","state":"Jharkhand","latitude":23.3441,"longitude":85.3096,"temp":28.9,"humidity":31,"rain":0.0,"pressure":937.3,"uv_index":9.2,"wind_gusts":28.8,"aqi":170,"pm10":46.3,"pm2_5":36.3,"mosquito_risk":4,"arthritis_risk":5,"migraine_risk":7,"frizz_risk":0,"updated_at":"2026-04-25T21:11:49.285034+05:30"},{"city":"Jamshedpur","state":"Jharkhand","latitude":22.8046,"longitude":86.2029,"temp":31.1,"humidity":71,"rain":0.0,"pressure":990.1,"uv_index":8.9,"wind_gusts":33.5,"aqi":178,"pm10":37.3,"pm2_5":32.1,"mosquito_risk":3,"arthritis_risk":5,"migraine_risk":7,"frizz_risk":1,"updated_at":"2026-04-25T21:11:49.285041+05:30"},{"city":"Dhanbad","state":"Jharkhand","latitude":23.7957,"longitude":86.4304,"temp":32.0,"humidity":62,"rain":0.0,"pressure":979.6,"uv_index":8.95,"wind_gusts":48.6,"aqi":187,"pm10":44.1,"pm2_5":40.5,"mosquito_risk":3,"arthritis_risk":5,"migraine_risk":7,"frizz_risk":1,"updated_at":"2026-04-25T21:11:49.285047+05:30"},{"city":"Bokaro","state":"Jharkhand","latitude":23.6693,"longitude":86.1511,"temp":31.5,"humidity":59,"rain":0.0,"pressure":983.0,"uv_index":8.95,"wind_gusts":33.1,"aqi":177,"pm10":56.9,"pm2_5":46.6,"mosquito_risk":0,"arthritis_risk":5,"migraine_risk":7,"frizz_risk":1,"updated_at":"2026-04-25T21:11:49.285053+05:30"},{"city":"Bhubaneswar","state":"Odisha","latitude":20.2961,"longitude":85.8245,"temp":27.0,"humidity":92,"rain":0.0,"pressure":1003.3,"uv_index":9.1,"wind_gusts":41.0,"aqi":62,"pm10":17.5,"pm2_5":14.0,"mosquito_risk":7,"arthritis_risk":5,"migraine_risk":4,"frizz_risk":1,"updated_at":"2026-04-25T21:11:49.285059+05:30"},{"city":"Cuttack","state":"Odisha","latitude":20.4625,"longitude":85.8828,"temp":27.4,"humidity":90,"rain":0.0,"pressure":1005.0,"uv_index":9.15,"wind_gusts":38.2,"aqi":62,"pm10":17.5,"pm2_5":14.0,"mosquito_risk":7,"arthritis_risk":5,"migraine_risk":4,"frizz_risk":1,"updated_at":"2026-04-25T21:11:49.285066+05:30"},{"city":"Rourkela","state":"Odisha","latitude":22.2604,"longitude":84.8536,"temp":32.6,"humidity":36,"rain":0.0,"pressure":983.7,"uv_index":8.6,"wind_gusts":45.0,"aqi":202,"pm10":49.8,"pm2_5":44.2,"mosquito_risk":0,"arthritis_risk":5,"migraine_risk":7,"frizz_risk":0,"updated_at":"2026-04-25T21:11:49.285072+05:30"},{"city":"Raipur","state":"Chhattisgarh","latitude":21.2514,"longitude":81.6296,"temp":35.7,"humidity":17,"rain":0.0,"pressure":973.5,"uv_index":8.95,"wind_gusts":31.0,"aqi":180,"pm10":39.5,"pm2_5":33.6,"mosquito_risk":0,"arthritis_risk":5,"migraine_risk":10,"frizz_risk":0,"updated_at":"2026-04-25T21:11:49.285079+05:30"},{"city":"Bhilai","state":"Chhattisgarh","latitude":21.1938,"longitude":81.3509,"temp":35.0,"humidity":20,"rain":0.0,"pressure":974.0,"uv_index":9.0,"wind_gusts":35.6,"aqi":146,"pm10":42.7,"pm2_5":36.7,"mosquito_risk":0,"arthritis_risk":5,"migraine_risk":7,"frizz_risk":0,"updated_at":"2026-04-25T21:11:49.285085+05:30"},{"city":"Guwahati","state":"Assam","latitude":26.1158,"longitude":91.7086,"temp":24.8,"humidity":86,"rain":0.0,"pressure":1003.7,"uv_index":8.55,"wind_gusts":42.1,"aqi":160,"pm10":86.8,"pm2_5":68.2,"mosquito_risk":3,"arthritis_risk":5,"migraine_risk":4,"frizz_risk":1,"updated_at":"2026-04-25T21:11:49.285091+05:30"},{"city":"Agartala","state":"Tripura","latitude":23.8315,"longitude":91.2868,"temp":29.5,"humidity":62,"rain":0.0,"pressure":1007.3,"uv_index":8.75,"wind_gusts":35.6,"aqi":152,"pm10":98.0,"pm2_5":77.8,"mosquito_risk":7,"arthritis_risk":5,"migraine_risk":4,"frizz_risk":1,"updated_at":"2026-04-25T21:11:49.285098+05:30"},{"city":"Shillong","state":"Meghalaya","latitude":25.5788,"longitude":91.8933,"temp":18.2,"humidity":79,"rain":0.0,"pressure":859.3,"uv_index":8.2,"wind_gusts":29.5,"aqi":147,"pm10":68.7,"pm2_5":51.2,"mosquito_risk":3,"arthritis_risk":5,"migraine_risk":7,"frizz_risk":0,"updated_at":"2026-04-25T21:11:49.285105+05:30"},{"city":"Imphal","state":"Manipur","latitude":24.817,"longitude":93.9368,"temp":21.0,"humidity":78,"rain":0.0,"pressure":924.1,"uv_index":9.1,"wind_gusts":38.5,"aqi":154,"pm10":104.8,"pm2_5":68.7,"mosquito_risk":3,"arthritis_risk":5,"migraine_risk":7,"frizz_risk":1,"updated_at":"2026-04-25T21:11:49.285111+05:30"},{"city":"Aizawl","state":"Mizoram","latitude":23.7271,"longitude":92.7176,"temp":22.5,"humidity":56,"rain":0.0,"pressure":894.2,"uv_index":8.95,"wind_gusts":39.6,"aqi":118,"pm10":99.0,"pm2_5":44.4,"mosquito_risk":0,"arthritis_risk":5,"migraine_risk":7,"frizz_risk":0,"updated_at":"2026-04-25T21:11:49.285117+05:30"},{"city":"Kohima","state":"Nagaland","latitude":25.6701,"longitude":94.1077,"temp":17.1,"humidity":91,"rain":0.0,"pressure":857.1,"uv_index":8.8,"wind_gusts":38.2,"aqi":156,"pm10":118.5,"pm2_5":80.3,"mosquito_risk":3,"arthritis_risk":10,"migraine_risk":7,"frizz_risk":0,"updated_at":"2026-04-25T21:11:49.285123+05:30"},{"city":"Gangtok","state":"Sikkim","latitude":27.3314,"longitude":88.6138,"temp":14.2,"humidity":85,"rain":0.0,"pressure":838.0,"uv_index":8.8,"wind_gusts":41.4,"aqi":109,"pm10":50.4,"pm2_5":34.8,"mosquito_risk":3,"arthritis_risk":10,"migraine_risk":7,"frizz_risk":0,"updated_at":"2026-04-25T21:11:49.285130+05:30"},{"city":"Siliguri","state":"West Bengal","latitude":26.7271,"longitude":88.3953,"temp":24.4,"humidity":84,"rain":0.0,"pressure":994.0,"uv_index":8.45,"wind_gusts":33.8,"aqi":149,"pm10":92.2,"pm2_5":65.9,"mosquito_risk":3,"arthritis_risk":5,"migraine_risk":7,"frizz_risk":1,"updated_at":"2026-04-25T21:11:52.549315+05:30"},{"city":"Durgapur","state":"West Bengal","latitude":23.5204,"longitude":87.3119,"temp":29.2,"humidity":79,"rain":0.0,"pressure":994.5,"uv_index":8.9,"wind_gusts":38.5,"aqi":149,"pm10":37.4,"pm2_5":34.3,"mosquito_risk":7,"arthritis_risk":5,"migraine_risk":7,"frizz_risk":1,"updated_at":"2026-04-25T21:11:52.549345+05:30"},{"city":"Asansol","state":"West Bengal","latitude":23.6739,"longitude":86.9524,"temp":30.2,"humidity":76,"rain":0.0,"pressure":993.3,"uv_index":8.95,"wind_gusts":41.0,"aqi":163,"pm10":37.4,"pm2_5":34.0,"mosquito_risk":3,"arthritis_risk":5,"migraine_risk":7,"frizz_risk":1,"updated_at":"2026-04-25T21:11:52.549355+05:30"},{"city":"Pondicherry","state":"Puducherry","latitude":11.9139,"longitude":79.8145,"temp":29.3,"humidity":78,"rain":0.0,"pressure":1009.6,"uv_index":9.2,"wind_gusts":43.6,"aqi":27,"pm10":11.1,"pm2_5":7.1,"mosquito_risk":7,"arthritis_risk":0,"migraine_risk":4,"frizz_risk":1,"updated_at":"2026-04-25T21:11:52.549364+05:30"},{"city":"Port Blair","state":"Andaman and Nicobar Islands","latitude":11.6234,"longitude":92.7265,"temp":28.1,"humidity":81,"rain":0.0,"pressure":1008.9,"uv_index":9.15,"wind_gusts":33.1,"aqi":40,"pm10":23.2,"pm2_5":15.7,"mosquito_risk":7,"arthritis_risk":0,"migraine_risk":4,"frizz_risk":1,"updated_at":"2026-04-25T21:11:52.549372+05:30"},{"city":"Haridwar","state":"Uttarakhand","latitude":29.9457,"longitude":78.1642,"temp":27.3,"humidity":44,"rain":0.0,"pressure":972.9,"uv_index":7.25,"wind_gusts":35.6,"aqi":97,"pm10":92.7,"pm2_5":32.9,"mosquito_risk":4,"arthritis_risk":5,"migraine_risk":7,"frizz_risk":0,"updated_at":"2026-04-25T21:11:52.549379+05:30"},{"city":"Rishikesh","state":"Uttarakhand","latitude":30.0869,"longitude":78.2676,"temp":27.0,"humidity":42,"rain":0.0,"pressure":965.6,"uv_index":7.35,"wind_gusts":28.4,"aqi":98,"pm10":129.9,"pm2_5":33.5,"mosquito_risk":4,"arthritis_risk":5,"migraine_risk":7,"frizz_risk":0,"updated_at":"2026-04-25T21:11:52.549387+05:30"},{"city":"Nainital","state":"Uttarakhand","latitude":29.3919,"longitude":79.4542,"temp":16.8,"humidity":54,"rain":0.0,"pressure":806.3,"uv_index":8.2,"wind_gusts":40.3,"aqi":148,"pm10":52.6,"pm2_5":22.4,"mosquito_risk":0,"arthritis_risk":5,"migraine_risk":7,"frizz_risk":0,"updated_at":"2026-04-25T21:11:52.549395+05:30"},{"city":"Mussoorie","state":"Uttarakhand","latitude":30.4599,"longitude":78.0664,"temp":16.3,"humidity":56,"rain":0.0,"pressure":803.0,"uv_index":7.75,"wind_gusts":59.4,"aqi":96,"pm10":71.7,"pm2_5":28.4,"mosquito_risk":0,"arthritis_risk":5,"migraine_risk":7,"frizz_risk":0,"updated_at":"2026-04-25T21:11:52.549402+05:30"},{"city":"Dharamshala","state":"Himachal Pradesh","latitude":32.219,"longitude":76.3234,"temp":21.3,"humidity":41,"rain":0.0,"pressure":870.8,"uv_index":7.65,"wind_gusts":59.8,"aqi":56,"pm10":59.8,"pm2_5":17.9,"mosquito_risk":0,"arthritis_risk":5,"migraine_risk":7,"frizz_risk":0,"updated_at":"2026-04-25T21:11:52.549409+05:30"},{"city":"Dalhousie","state":"Himachal Pradesh","latitude":32.5387,"longitude":75.971,"temp":12.2,"humidity":73,"rain":0.0,"pressure":803.8,"uv_index":8.1,"wind_gusts":45.7,"aqi":60,"pm10":94.1,"pm2_5":31.9,"mosquito_risk":3,"arthritis_risk":5,"migraine_risk":7,"frizz_risk":0,"updated_at":"2026-04-25T21:11:52.549417+05:30"},{"city":"Patiala","state":"Punjab","latitude":30.3398,"longitude":76.3869,"temp":31.4,"humidity":32,"rain":0.0,"pressure":978.4,"uv_index":7.35,"wind_gusts":56.2,"aqi":619,"pm10":743.2,"pm2_5":92.4,"mosquito_risk":0,"arthritis_risk":5,"migraine_risk":7,"frizz_risk":0,"updated_at":"2026-04-25T21:11:52.549424+05:30"},{"city":"Bhatinda","state":"Punjab","latitude":30.211,"longitude":74.9455,"temp":33.2,"humidity":25,"rain":0.0,"pressure":983.9,"uv_index":8.05,"wind_gusts":52.9,"aqi":90,"pm10":102.4,"pm2_5":36.3,"mosquito_risk":0,"arthritis_risk":5,"migraine_risk":7,"frizz_risk":0,"updated_at":"2026-04-25T21:11:52.549431+05:30"},{"city":"Rohtak","state":"Haryana","latitude":28.8955,"longitude":76.6066,"temp":32.2,"humidity":26,"rain":0.0,"pressure":981.9,"uv_index":7.35,"wind_gusts":51.1,"aqi":810,"pm10":1221.9,"pm2_5":166.2,"mosquito_risk":0,"arthritis_risk":5,"migraine_risk":7,"frizz_risk":0,"updated_at":"2026-04-25T21:11:52.549437+05:30"},{"city":"Panipat","state":"Haryana","latitude":29.3909,"longitude":76.9635,"temp":33.3,"humidity":24,"rain":0.0,"pressure":980.5,"uv_index":7.15,"wind_gusts":54.0,"aqi":1484,"pm10":1903.6,"pm2_5":226.8,"mosquito_risk":0,"arthritis_risk":5,"migraine_risk":7,"frizz_risk":0,"updated_at":"2026-04-25T21:11:52.549443+05:30"},{"city":"Mathura","state":"Uttar Pradesh","latitude":27.4924,"longitude":77.6737,"temp":34.5,"humidity":22,"rain":0.0,"pressure":986.4,"uv_index":7.75,"wind_gusts":45.0,"aqi":553,"pm10":1810.5,"pm2_5":220.3,"mosquito_risk":0,"arthritis_risk":5,"migraine_risk":7,"frizz_risk":0,"updated_at":"2026-04-25T21:11:52.549449+05:30"},{"city":"Vrindavan","state":"Uttar Pradesh","latitude":27.5823,"longitude":77.7027,"temp":34.2,"humidity":23,"rain":0.0,"pressure":986.8,"uv_index":7.65,"wind_gusts":44.6,"aqi":553,"pm10":1810.5,"pm2_5":220.3,"mosquito_risk":0,"arthritis_risk":5,"migraine_risk":7,"frizz_risk":0,"updated_at":"2026-04-25T21:11:52.549456+05:30"},{"city":"Ayodhya","state":"Uttar Pradesh","latitude":26.7922,"longitude":82.1998,"temp":31.3,"humidity":53,"rain":0.0,"pressure":994.2,"uv_index":8.05,"wind_gusts":35.3,"aqi":146,"pm10":170.0,"pm2_5":63.3,"mosquito_risk":0,"arthritis_risk":5,"migraine_risk":7,"frizz_risk":1,"updated_at":"2026-04-25T21:11:52.549461+05:30"},{"city":"Ratlam","state":"Madhya Pradesh","latitude":23.3315,"longitude":75.0367,"temp":34.8,"humidity":18,"rain":0.0,"pressure":955.0,"uv_index":8.45,"wind_gusts":29.9,"aqi":73,"pm10":61.0,"pm2_5":31.3,"mosquito_risk":0,"arthritis_risk":5,"migraine_risk":7,"frizz_risk":0,"updated_at":"2026-04-25T21:11:52.549468+05:30"},{"city":"Sagar","state":"Madhya Pradesh","latitude":23.8388,"longitude":78.7378,"temp":33.2,"humidity":21,"rain":0.0,"pressure":950.3,"uv_index":8.65,"wind_gusts":29.9,"aqi":99,"pm10":44.0,"pm2_5":18.0,"mosquito_risk":0,"arthritis_risk":5,"migraine_risk":7,"frizz_risk":0,"updated_at":"2026-04-25T21:11:52.549475+05:30"},{"city":"Satna","state":"Madhya Pradesh","latitude":24.6005,"longitude":80.8322,"temp":33.5,"humidity":21,"rain":0.0,"pressure":970.6,"uv_index":8.65,"wind_gusts":41.0,"aqi":117,"pm10":129.5,"pm2_5":33.4,"mosquito_risk":0,"arthritis_risk":5,"migraine_risk":7,"frizz_risk":0,"updated_at":"2026-04-25T21:11:52.549481+05:30"},{"city":"Akola","state":"Maharashtra","latitude":20.7002,"longitude":77.0082,"temp":35.0,"humidity":19,"rain":0.0,"pressure":974.5,"uv_index":8.7,"wind_gusts":23.4,"aqi":126,"pm10":31.7,"pm2_5":22.9,"mosquito_risk":0,"arthritis_risk":5,"migraine_risk":7,"frizz_risk":0,"updated_at":"2026-04-25T21:11:52.549488+05:30"},{"city":"Amravati","state":"Maharashtra","latitude":20.9374,"longitude":77.7796,"temp":36.1,"humidity":18,"rain":0.0,"pressure":967.0,"uv_index":8.35,"wind_gusts":27.7,"aqi":132,"pm10":40.6,"pm2_5":30.0,"mosquito_risk":0,"arthritis_risk":5,"migraine_risk":10,"frizz_risk":0,"updated_at":"2026-04-25T21:11:52.549496+05:30"},{"city":"Latur","state":"Maharashtra","latitude":18.4088,"longitude":76.5604,"temp":32.3,"humidity":23,"rain":0.0,"pressure":940.3,"uv_index":8.6,"wind_gusts":32.0,"aqi":160,"pm10":43.8,"pm2_5":38.2,"mosquito_risk":0,"arthritis_risk":5,"migraine_risk":7,"frizz_risk":0,"updated_at":"2026-04-25T21:11:52.549503+05:30"},{"city":"Nanded","state":"Maharashtra","latitude":19.1383,"longitude":77.3091,"temp":33.3,"humidity":23,"rain":0.0,"pressure":968.2,"uv_index":8.6,"wind_gusts":28.8,"aqi":135,"pm10":48.9,"pm2_5":41.8,"mosquito_risk":0,"arthritis_risk":5,"migraine_risk":7,"frizz_risk":0,"updated_at":"2026-04-25T21:11:52.549510+05:30"},{"city":"Gulbarga","state":"Karnataka","latitude":17.3297,"longitude":76.8343,"temp":34.0,"humidity":25,"rain":0.0,"pressure":959.2,"uv_index":9.05,"wind_gusts":27.7,"aqi":178,"pm10":48.1,"pm2_5":43.3,"mosquito_risk":0,"arthritis_risk":5,"migraine_risk":7,"frizz_risk":0,"updated_at":"2026-04-25T21:11:52.549517+05:30"},{"city":"Bidar","state":"Karnataka","latitude":17.9104,"longitude":77.5199,"temp":29.8,"humidity":36,"rain":0.0,"pressure":936.2,"uv_index":8.85,"wind_gusts":27.7,"aqi":162,"pm10":58.7,"pm2_5":52.2,"mosquito_risk":4,"arthritis_risk":5,"migraine_risk":7,"frizz_risk":0,"updated_at":"2026-04-25T21:11:52.549524+05:30"},{"city":"Hospet","state":"Karnataka","latitude":15.2689,"longitude":76.3909,"temp":33.3,"humidity":24,"rain":0.0,"pressure":955.8,"uv_index":9.3,"wind_gusts":27.4,"aqi":181,"pm10":41.7,"pm2_5":37.1,"mosquito_risk":0,"arthritis_risk":5,"migraine_risk":7,"frizz_risk":0,"updated_at":"2026-04-25T21:11:52.549530+05:30"},{"city":"Tirupur","state":"Tamil Nadu","latitude":11.1085,"longitude":77.3411,"temp":33.8,"humidity":33,"rain":0.0,"pressure":975.6,"uv_index":9.4,"wind_gusts":41.8,"aqi":83,"pm10":28.9,"pm2_5":25.8,"mosquito_risk":0,"arthritis_risk":5,"migraine_risk":7,"frizz_risk":0,"updated_at":"2026-04-25T21:11:52.549536+05:30"},{"city":"Alappuzha","state":"Kerala","latitude":9.4981,"longitude":76.3388,"temp":27.8,"humidity":90,"rain":0.0,"pressure":1009.3,"uv_index":8.55,"wind_gusts":39.2,"aqi":101,"pm10":19.6,"pm2_5":15.9,"mosquito_risk":7,"arthritis_risk":0,"migraine_risk":4,"frizz_risk":1,"updated_at":"2026-04-25T21:11:52.549543+05:30"},{"city":"Munnar","state":"Kerala","latitude":10.0889,"longitude":77.0595,"temp":19.1,"humidity":66,"rain":0.0,"pressure":857.6,"uv_index":9.15,"wind_gusts":31.3,"aqi":61,"pm10":26.3,"pm2_5":25.2,"mosquito_risk":3,"arthritis_risk":5,"migraine_risk":7,"frizz_risk":0,"updated_at":"2026-04-25T21:11:52.549550+05:30"},{"city":"Silchar","state":"Assam","latitude":24.8333,"longitude":92.7789,"temp":26.3,"humidity":78,"rain":0.0,"pressure":1005.8,"uv_index":8.75,"wind_gusts":28.8,"aqi":161,"pm10":144.4,"pm2_5":93.4,"mosquito_risk":7,"arthritis_risk":5,"migraine_risk":4,"frizz_risk":1,"updated_at":"2026-04-25T21:11:52.549557+05:30"},{"city":"Dibrugarh","state":"Assam","latitude":27.4728,"longitude":94.912,"temp":24.1,"humidity":89,"rain":0.0,"pressure":997.9,"uv_index":8.6,"wind_gusts":31.7,"aqi":102,"pm10":45.1,"pm2_5":35.0,"mosquito_risk":3,"arthritis_risk":5,"migraine_risk":7,"frizz_risk":1,"updated_at":"2026-04-25T21:11:52.549563+05:30"}]