[{"city":"Delhi","state":"Delhi","latitude":28.6139,"longitude":77.209,"temp":37.7,"humidity":30,"rain":0.0,"pressure":976.2,"uv_index":7.8,"wind_gusts":44.6,"aqi":157,"pm10":300.8,"pm2_5":78.5,"no2":4.6,"co":367.0,"o3":240.0,"so2":24.3,"mosquito_risk":0,"arthritis_risk":5,"migraine_risk":10,"frizz_risk":1,"updated_at":"2026-06-04T14:21:07.666357+05:30"},{"city":"Mumbai","state":"Maharashtra","latitude":19.076,"longitude":72.8777,"temp":33.5,"humidity":58,"rain":0.1,"pressure":1004.1,"uv_index":7.65,"wind_gusts":42.8,"aqi":64,"pm10":34.1,"pm2_5":18.6,"no2":4.4,"co":159.0,"o3":97.0,"so2":9.1,"mosquito_risk":3,"arthritis_risk":5,"migraine_risk":4,"frizz_risk":1,"updated_at":"2026-06-04T14:21:07.666403+05:30"},{"city":"Bangalore","state":"Karnataka","latitude":12.9716,"longitude":77.5946,"temp":28.5,"humidity":56,"rain":0.1,"pressure":909.7,"uv_index":9.15,"wind_gusts":45.4,"aqi":30,"pm10":3.2,"pm2_5":3.0,"no2":2.0,"co":204.0,"o3":89.0,"so2":2.3,"mosquito_risk":7,"arthritis_risk":5,"migraine_risk":7,"frizz_risk":1,"updated_at":"2026-06-04T14:21:07.666419+05:30"},{"city":"Hyderabad","state":"Telangana","latitude":17.385,"longitude":78.4867,"temp":35.7,"humidity":35,"rain":0.0,"pressure":949.4,"uv_index":9.1,"wind_gusts":37.1,"aqi":67,"pm10":29.0,"pm2_5":16.9,"no2":1.2,"co":229.0,"o3":131.0,"so2":3.0,"mosquito_risk":0,"arthritis_risk":5,"migraine_risk":10,"frizz_risk":1,"updated_at":"2026-06-04T14:21:07.666429+05:30"},{"city":"Chennai","state":"Tamil Nadu","latitude":13.0827,"longitude":80.2707,"temp":38.0,"humidity":34,"rain":0.1,"pressure":1001.7,"uv_index":8.7,"wind_gusts":41.8,"aqi":65,"pm10":25.3,"pm2_5":19.3,"no2":3.0,"co":237.0,"o3":145.0,"so2":6.1,"mosquito_risk":3,"arthritis_risk":5,"migraine_risk":7,"frizz_risk":1,"updated_at":"2026-06-04T14:21:07.666437+05:30"},{"city":"Kolkata","state":"West Bengal","latitude":22.5726,"longitude":88.3639,"temp":30.7,"humidity":79,"rain":0.4,"pressure":998.7,"uv_index":8.95,"wind_gusts":38.2,"aqi":143,"pm10":48.5,"pm2_5":41.4,"no2":3.0,"co":367.0,"o3":166.0,"so2":10.8,"mosquito_risk":6,"arthritis_risk":5,"migraine_risk":7,"frizz_risk":1,"updated_at":"2026-06-04T14:21:07.666445+05:30"},{"city":"Pune","state":"Maharashtra","latitude":18.5204,"longitude":73.8567,"temp":36.8,"humidity":32,"rain":0.0,"pressure":944.4,"uv_index":8.35,"wind_gusts":48.2,"aqi":59,"pm10":39.5,"pm2_5":17.8,"no2":1.5,"co":144.0,"o3":116.0,"so2":3.9,"mosquito_risk":0,"arthritis_risk":5,"migraine_risk":10,"frizz_risk":1,"updated_at":"2026-06-04T14:21:07.666452+05:30"},{"city":"Ahmedabad","state":"Gujarat","latitude":23.0225,"longitude":72.5714,"temp":39.6,"humidity":33,"rain":0.0,"pressure":995.6,"uv_index":8.05,"wind_gusts":40.7,"aqi":86,"pm10":52.6,"pm2_5":26.5,"no2":1.5,"co":148.0,"o3":102.0,"so2":4.9,"mosquito_risk":0,"arthritis_risk":5,"migraine_risk":10,"frizz_risk":1,"updated_at":"2026-06-04T14:21:07.666458+05:30"},{"city":"Jaipur","state":"Rajasthan","latitude":26.9124,"longitude":75.7873,"temp":29.5,"humidity":65,"rain":0.3,"pressure":954.9,"uv_index":8.25,"wind_gusts":54.4,"aqi":123,"pm10":129.9,"pm2_5":35.5,"no2":0.8,"co":149.0,"o3":108.0,"so2":3.8,"mosquito_risk":10,"arthritis_risk":5,"migraine_risk":7,"frizz_risk":1,"updated_at":"2026-06-04T14:21:07.666469+05:30"},{"city":"Lucknow","state":"Uttar Pradesh","latitude":26.8467,"longitude":80.9462,"temp":38.3,"humidity":31,"rain":0.0,"pressure":986.4,"uv_index":8.0,"wind_gusts":25.2,"aqi":155,"pm10":86.8,"pm2_5":37.1,"no2":0.7,"co":232.0,"o3":172.0,"so2":7.2,"mosquito_risk":0,"arthritis_risk":5,"migraine_risk":10,"frizz_risk":1,"updated_at":"2026-06-04T14:21:07.666476+05:30"},{"city":"Kanpur","state":"Uttar Pradesh","latitude":26.4499,"longitude":80.3319,"temp":39.0,"humidity":28,"rain":0.0,"pressure":984.5,"uv_index":8.3,"wind_gusts":30.6,"aqi":151,"pm10":98.0,"pm2_5":34.3,"no2":0.8,"co":202.0,"o3":166.0,"so2":8.4,"mosquito_risk":0,"arthritis_risk":5,"migraine_risk":10,"frizz_risk":1,"updated_at":"2026-06-04T14:21:07.666482+05:30"},{"city":"Chandigarh","state":"Chandigarh","latitude":30.7333,"longitude":76.7794,"temp":35.2,"humidity":37,"rain":0.0,"pressure":962.9,"uv_index":7.8,"wind_gusts":51.5,"aqi":117,"pm10":90.1,"pm2_5":39.8,"no2":1.8,"co":373.0,"o3":196.0,"so2":11.8,"mosquito_risk":0,"arthritis_risk":5,"migraine_risk":10,"frizz_risk":1,"updated_at":"2026-06-04T14:21:07.666489+05:30"},{"city":"Srinagar","state":"Jammu and Kashmir","latitude":34.0837,"longitude":74.7973,"temp":24.1,"humidity":49,"rain":0.1,"pressure":840.1,"uv_index":9.05,"wind_gusts":34.9,"aqi":83,"pm10":24.4,"pm2_5":12.1,"no2":1.0,"co":280.0,"o3":149.0,"so2":2.2,"mosquito_risk":3,"arthritis_risk":5,"migraine_risk":7,"frizz_risk":0,"updated_at":"2026-06-04T14:21:07.666495+05:30"},{"city":"Jammu","state":"Jammu and Kashmir","latitude":32.7266,"longitude":74.857,"temp":31.9,"humidity":45,"rain":0.0,"pressure":967.5,"uv_index":8.3,"wind_gusts":55.1,"aqi":88,"pm10":33.5,"pm2_5":17.9,"no2":1.7,"co":366.0,"o3":164.0,"so2":2.9,"mosquito_risk":0,"arthritis_risk":5,"migraine_risk":7,"frizz_risk":1,"updated_at":"2026-06-04T14:21:07.666501+05:30"},{"city":"Amritsar","state":"Punjab","latitude":31.634,"longitude":74.8723,"temp":30.4,"humidity":62,"rain":0.0,"pressure":975.0,"uv_index":8.4,"wind_gusts":55.1,"aqi":151,"pm10":62.9,"pm2_5":34.6,"no2":2.6,"co":353.0,"o3":161.0,"so2":6.3,"mosquito_risk":3,"arthritis_risk":5,"migraine_risk":7,"frizz_risk":1,"updated_at":"2026-06-04T14:21:07.666507+05:30"},{"city":"Ludhiana","state":"Punjab","latitude":30.901,"longitude":75.8573,"temp":31.4,"humidity":48,"rain":0.1,"pressure":973.2,"uv_index":8.05,"wind_gusts":62.3,"aqi":153,"pm10":73.8,"pm2_5":42.8,"no2":2.3,"co":346.0,"o3":194.0,"so2":11.4,"mosquito_risk":3,"arthritis_risk":5,"migraine_risk":7,"frizz_risk":1,"updated_at":"2026-06-04T14:21:07.666517+05:30"},{"city":"Jalandhar","state":"Punjab","latitude":31.326,"longitude":75.5762,"temp":32.3,"humidity":47,"rain":0.0,"pressure":974.2,"uv_index":8.25,"wind_gusts":67.7,"aqi":154,"pm10":74.0,"pm2_5":37.8,"no2":1.7,"co":337.0,"o3":179.0,"so2":5.9,"mosquito_risk":0,"arthritis_risk":5,"migraine_risk":7,"frizz_risk":1,"updated_at":"2026-06-04T14:21:07.666525+05:30"},{"city":"Dehradun","state":"Uttarakhand","latitude":30.6284,"longitude":78.0322,"temp":25.7,"humidity":44,"rain":0.0,"pressure":829.6,"uv_index":7.7,"wind_gusts":26.3,"aqi":82,"pm10":78.2,"pm2_5":27.5,"no2":0.7,"co":260.0,"o3":158.0,"so2":5.7,"mosquito_risk":4,"arthritis_risk":5,"migraine_risk":7,"frizz_risk":0,"updated_at":"2026-06-04T14:21:07.666532+05:30"},{"city":"Shimla","state":"Himachal Pradesh","latitude":31.1048,"longitude":77.1734,"temp":17.7,"humidity":73,"rain":0.0,"pressure":782.6,"uv_index":6.65,"wind_gusts":39.2,"aqi":90,"pm10":53.8,"pm2_5":35.2,"no2":1.6,"co":250.0,"o3":175.0,"so2":7.1,"mosquito_risk":3,"arthritis_risk":5,"migraine_risk":7,"frizz_risk":0,"updated_at":"2026-06-04T14:21:07.666540+05:30"},{"city":"Manali","state":"Himachal Pradesh","latitude":32.2396,"longitude":77.1887,"temp":21.8,"humidity":57,"rain":0.1,"pressure":817.6,"uv_index":9.35,"wind_gusts":34.2,"aqi":76,"pm10":7.9,"pm2_5":6.8,"no2":1.8,"co":156.0,"o3":154.0,"so2":0.3,"mosquito_risk":3,"arthritis_risk":5,"migraine_risk":7,"frizz_risk":0,"updated_at":"2026-06-04T14:21:07.666546+05:30"},{"city":"Gurgaon","state":"Haryana","latitude":28.4595,"longitude":77.0266,"temp":37.7,"humidity":28,"rain":0.0,"pressure":974.7,"uv_index":7.9,"wind_gusts":41.0,"aqi":161,"pm10":441.4,"pm2_5":85.0,"no2":3.0,"co":298.0,"o3":202.0,"so2":14.8,"mosquito_risk":0,"arthritis_risk":5,"migraine_risk":10,"frizz_risk":1,"updated_at":"2026-06-04T14:21:07.666552+05:30"},{"city":"Noida","state":"Uttar Pradesh","latitude":28.5355,"longitude":77.391,"temp":36.0,"humidity":35,"rain":0.1,"pressure":977.7,"uv_index":7.85,"wind_gusts":37.4,"aqi":161,"pm10":441.4,"pm2_5":85.0,"no2":3.0,"co":366.0,"o3":202.0,"so2":14.8,"mosquito_risk":3,"arthritis_risk":5,"migraine_risk":10,"frizz_risk":1,"updated_at":"2026-06-04T14:21:07.666558+05:30"},{"city":"Ghaziabad","state":"Uttar Pradesh","latitude":28.6692,"longitude":77.4538,"temp":35.7,"humidity":38,"rain":0.1,"pressure":976.0,"uv_index":7.8,"wind_gusts":37.4,"aqi":156,"pm10":265.4,"pm2_5":72.9,"no2":3.2,"co":373.0,"o3":243.0,"so2":25.7,"mosquito_risk":3,"arthritis_risk":5,"migraine_risk":10,"frizz_risk":1,"updated_at":"2026-06-04T14:21:07.666564+05:30"},{"city":"Faridabad","state":"Haryana","latitude":28.4089,"longitude":77.3178,"temp":36.7,"humidity":32,"rain":0.0,"pressure":977.0,"uv_index":7.85,"wind_gusts":45.0,"aqi":161,"pm10":441.4,"pm2_5":85.0,"no2":3.0,"co":318.0,"o3":202.0,"so2":14.8,"mosquito_risk":0,"arthritis_risk":5,"migraine_risk":10,"frizz_risk":1,"updated_at":"2026-06-04T14:21:07.666570+05:30"},{"city":"Meerut","state":"Uttar Pradesh","latitude":28.9845,"longitude":77.7064,"temp":36.0,"humidity":39,"rain":0.0,"pressure":975.1,"uv_index":7.7,"wind_gusts":37.4,"aqi":156,"pm10":265.4,"pm2_5":72.9,"no2":3.2,"co":352.0,"o3":243.0,"so2":25.7,"mosquito_risk":0,"arthritis_risk":5,"migraine_risk":10,"frizz_risk":1,"updated_at":"2026-06-04T14:21:07.666577+05:30"},{"city":"Agra","state":"Uttar Pradesh","latitude":27.1767,"longitude":78.0081,"temp":39.5,"humidity":26,"rain":0.0,"pressure":980.4,"uv_index":8.15,"wind_gusts":32.0,"aqi":196,"pm10":364.1,"pm2_5":62.6,"no2":1.1,"co":294.0,"o3":177.0,"so2":7.0,"mosquito_risk":0,"arthritis_risk":5,"migraine_risk":10,"frizz_risk":1,"updated_at":"2026-06-04T14:21:07.666583+05:30"},{"city":"Varanasi","state":"Uttar Pradesh","latitude":25.3176,"longitude":82.9739,"temp":39.3,"humidity":29,"rain":0.0,"pressure":989.9,"uv_index":8.45,"wind_gusts":36.0,"aqi":142,"pm10":71.7,"pm2_5":37.4,"no2":1.8,"co":199.0,"o3":167.0,"so2":12.5,"mosquito_risk":0,"arthritis_risk":5,"migraine_risk":10,"frizz_risk":1,"updated_at":"2026-06-04T14:21:07.666589+05:30"},{"city":"Prayagraj","state":"Uttar Pradesh","latitude":25.4358,"longitude":81.8463,"temp":39.2,"humidity":29,"rain":0.0,"pressure":988.5,"uv_index":8.45,"wind_gusts":26.6,"aqi":142,"pm10":73.6,"pm2_5":31.0,"no2":0.9,"co":204.0,"o3":153.0,"so2":5.2,"mosquito_risk":0,"arthritis_risk":5,"migraine_risk":10,"frizz_risk":1,"updated_at":"2026-06-04T14:21:07.666596+05:30"},{"city":"Gorakhpur","state":"Uttar Pradesh","latitude":26.7606,"longitude":83.3732,"temp":37.8,"humidity":32,"rain":0.0,"pressure":989.4,"uv_index":8.35,"wind_gusts":26.6,"aqi":152,"pm10":70.3,"pm2_5":39.2,"no2":1.1,"co":260.0,"o3":170.0,"so2":6.9,"mosquito_risk":0,"arthritis_risk":5,"migraine_risk":10,"frizz_risk":1,"updated_at":"2026-06-04T14:21:07.666604+05:30"},{"city":"Bareilly","state":"Uttar Pradesh","latitude":28.367,"longitude":79.4304,"temp":35.2,"humidity":43,"rain":0.0,"pressure":980.0,"uv_index":8.15,"wind_gusts":47.2,"aqi":151,"pm10":86.6,"pm2_5":41.6,"no2":1.0,"co":272.0,"o3":177.0,"so2":8.6,"mosquito_risk":0,"arthritis_risk":5,"migraine_risk":10,"frizz_risk":1,"updated_at":"2026-06-04T14:21:07.666610+05:30"},{"city":"Aligarh","state":"Uttar Pradesh","latitude":27.8974,"longitude":78.088,"temp":36.7,"humidity":36,"rain":0.0,"pressure":978.8,"uv_index":8.0,"wind_gusts":33.5,"aqi":151,"pm10":212.3,"pm2_5":54.6,"no2":1.5,"co":282.0,"o3":191.0,"so2":11.9,"mosquito_risk":0,"arthritis_risk":5,"migraine_risk":10,"frizz_risk":1,"updated_at":"2026-06-04T14:21:07.666615+05:30"},{"city":"Moradabad","state":"Uttar Pradesh","latitude":28.8386,"longitude":78.7733,"temp":35.2,"humidity":41,"rain":0.0,"pressure":977.1,"uv_index":7.95,"wind_gusts":50.8,"aqi":152,"pm10":78.5,"pm2_5":39.1,"no2":1.6,"co":294.0,"o3":200.0,"so2":14.7,"mosquito_risk":0,"arthritis_risk":5,"migraine_risk":10,"frizz_risk":1,"updated_at":"2026-06-04T14:21:07.666621+05:30"},{"city":"Saharanpur","state":"Uttar Pradesh","latitude":29.9637,"longitude":77.546,"temp":34.5,"humidity":44,"rain":0.0,"pressure":969.5,"uv_index":7.5,"wind_gusts":39.6,"aqi":125,"pm10":190.0,"pm2_5":56.3,"no2":1.7,"co":303.0,"o3":209.0,"so2":18.3,"mosquito_risk":0,"arthritis_risk":5,"migraine_risk":7,"frizz_risk":1,"updated_at":"2026-06-04T14:21:07.666627+05:30"},{"city":"Jhansi","state":"Uttar Pradesh","latitude":25.4484,"longitude":78.5685,"temp":38.5,"humidity":27,"rain":0.0,"pressure":971.3,"uv_index":8.5,"wind_gusts":49.3,"aqi":84,"pm10":89.2,"pm2_5":29.5,"no2":0.8,"co":218.0,"o3":139.0,"so2":5.8,"mosquito_risk":0,"arthritis_risk":5,"migraine_risk":10,"frizz_risk":1,"updated_at":"2026-06-04T14:21:10.928157+05:30"},{"city":"Surat","state":"Gujarat","latitude":21.1702,"longitude":72.8311,"temp":34.3,"humidity":57,"rain":0.1,"pressure":1001.9,"uv_index":7.6,"wind_gusts":50.0,"aqi":81,"pm10":55.8,"pm2_5":25.6,"no2":8.4,"co":229.0,"o3":64.0,"so2":30.1,"mosquito_risk":3,"arthritis_risk":5,"migraine_risk":4,"frizz_risk":1,"updated_at":"2026-06-04T14:21:10.928192+05:30"},{"city":"Vadodara","state":"Gujarat","latitude":22.3072,"longitude":73.1812,"temp":38.8,"humidity":35,"rain":0.0,"pressure":998.3,"uv_index":8.0,"wind_gusts":45.7,"aqi":85,"pm10":62.2,"pm2_5":30.7,"no2":1.6,"co":138.0,"o3":112.0,"so2":6.4,"mosquito_risk":0,"arthritis_risk":5,"migraine_risk":10,"frizz_risk":1,"updated_at":"2026-06-04T14:21:10.928202+05:30"},{"city":"Rajkot","state":"Gujarat","latitude":22.3039,"longitude":70.8022,"temp":39.7,"humidity":33,"rain":0.0,"pressure":988.1,"uv_index":7.55,"wind_gusts":49.7,"aqi":73,"pm10":41.2,"pm2_5":19.4,"no2":0.7,"co":116.0,"o3":85.0,"so2":1.9,"mosquito_risk":0,"arthritis_risk":5,"migraine_risk":10,"frizz_risk":1,"updated_at":"2026-06-04T14:21:10.928211+05:30"},{"city":"Thane","state":"Maharashtra","latitude":19.2183,"longitude":72.9781,"temp":35.2,"humidity":48,"rain":0.1,"pressure":1003.1,"uv_index":7.7,"wind_gusts":37.4,"aqi":64,"pm10":34.1,"pm2_5":18.6,"no2":4.4,"co":161.0,"o3":97.0,"so2":9.1,"mosquito_risk":3,"arthritis_risk":5,"migraine_risk":7,"frizz_risk":1,"updated_at":"2026-06-04T14:21:10.928218+05:30"},{"city":"Nagpur","state":"Maharashtra","latitude":21.1458,"longitude":79.0882,"temp":40.8,"humidity":23,"rain":0.0,"pressure":966.7,"uv_index":8.6,"wind_gusts":38.2,"aqi":70,"pm10":54.1,"pm2_5":28.8,"no2":3.8,"co":175.0,"o3":160.0,"so2":20.8,"mosquito_risk":0,"arthritis_risk":5,"migraine_risk":10,"frizz_risk":0,"updated_at":"2026-06-04T14:21:10.928243+05:30"},{"city":"Nashik","state":"Maharashtra","latitude":19.9975,"longitude":73.7898,"temp":35.5,"humidity":37,"rain":0.0,"pressure":941.9,"uv_index":8.1,"wind_gusts":43.9,"aqi":68,"pm10":50.3,"pm2_5":24.1,"no2":1.5,"co":145.0,"o3":124.0,"so2":8.0,"mosquito_risk":0,"arthritis_risk":5,"migraine_risk":10,"frizz_risk":1,"updated_at":"2026-06-04T14:21:10.928252+05:30"},{"city":"Aurangabad","state":"Maharashtra","latitude":19.8762,"longitude":75.3433,"temp":38.0,"humidity":27,"rain":0.0,"pressure":940.2,"uv_index":9.0,"wind_gusts":45.0,"aqi":72,"pm10":61.7,"pm2_5":25.8,"no2":0.9,"co":146.0,"o3":128.0,"so2":5.4,"mosquito_risk":0,"arthritis_risk":5,"migraine_risk":10,"frizz_risk":0,"updated_at":"2026-06-04T14:21:10.928260+05:30"},{"city":"Solapur","state":"Maharashtra","latitude":17.6599,"longitude":75.9064,"temp":35.9,"humidity":36,"rain":0.0,"pressure":953.4,"uv_index":9.0,"wind_gusts":51.8,"aqi":61,"pm10":36.4,"pm2_5":17.8,"no2":1.1,"co":129.0,"o3":119.0,"so2":2.3,"mosquito_risk":0,"arthritis_risk":5,"migraine_risk":10,"frizz_risk":1,"updated_at":"2026-06-04T14:21:10.928267+05:30"},{"city":"Kolhapur","state":"Maharashtra","latitude":16.705,"longitude":74.2433,"temp":27.9,"humidity":69,"rain":0.0,"pressure":944.1,"uv_index":8.8,"wind_gusts":47.5,"aqi":53,"pm10":23.1,"pm2_5":11.1,"no2":1.1,"co":130.0,"o3":93.0,"so2":1.6,"mosquito_risk":7,"arthritis_risk":5,"migraine_risk":7,"frizz_risk":1,"updated_at":"2026-06-04T14:21:10.928274+05:30"},{"city":"Goa","state":"Goa","latitude":15.2993,"longitude":74.124,"temp":27.6,"humidity":84,"rain":0.1,"pressure":995.6,"uv_index":8.25,"wind_gusts":36.7,"aqi":38,"pm10":9.8,"pm2_5":4.8,"no2":0.5,"co":110.0,"o3":60.0,"so2":0.6,"mosquito_risk":10,"arthritis_risk":5,"migraine_risk":7,"frizz_risk":1,"updated_at":"2026-06-04T14:21:10.928281+05:30"},{"city":"Jodhpur","state":"Rajasthan","latitude":26.2389,"longitude":73.0243,"temp":39.8,"humidity":27,"rain":0.0,"pressure":974.9,"uv_index":8.45,"wind_gusts":55.1,"aqi":119,"pm10":219.3,"pm2_5":43.7,"no2":0.5,"co":126.0,"o3":96.0,"so2":2.0,"mosquito_risk":0,"arthritis_risk":5,"migraine_risk":10,"frizz_risk":1,"updated_at":"2026-06-04T14:21:10.928288+05:30"},{"city":"Udaipur","state":"Rajasthan","latitude":24.5854,"longitude":73.7125,"temp":35.5,"humidity":38,"rain":0.0,"pressure":941.7,"uv_index":8.8,"wind_gusts":53.3,"aqi":84,"pm10":50.5,"pm2_5":23.4,"no2":0.5,"co":123.0,"o3":99.0,"so2":3.6,"mosquito_risk":0,"arthritis_risk":5,"migraine_risk":10,"frizz_risk":1,"updated_at":"2026-06-04T14:21:10.928296+05:30"},{"city":"Kota","state":"Rajasthan","latitude":25.2138,"longitude":75.8648,"temp":40.2,"humidity":29,"rain":0.0,"pressure":971.9,"uv_index":8.4,"wind_gusts":48.2,"aqi":90,"pm10":61.0,"pm2_5":24.2,"no2":0.7,"co":149.0,"o3":112.0,"so2":4.7,"mosquito_risk":0,"arthritis_risk":5,"migraine_risk":10,"frizz_risk":1,"updated_at":"2026-06-04T14:21:10.928302+05:30"},{"city":"Bikaner","state":"Rajasthan","latitude":28.0229,"longitude":73.3119,"temp":39.1,"humidity":26,"rain":0.0,"pressure":974.0,"uv_index":8.45,"wind_gusts":63.7,"aqi":126,"pm10":92.4,"pm2_5":35.9,"no2":0.4,"co":131.0,"o3":99.0,"so2":2.6,"mosquito_risk":0,"arthritis_risk":5,"migraine_risk":10,"frizz_risk":1,"updated_at":"2026-06-04T14:21:10.928309+05:30"},{"city":"Ajmer","state":"Rajasthan","latitude":26.4499,"longitude":74.6399,"temp":29.2,"humidity":59,"rain":0.0,"pressure":949.9,"uv_index":8.35,"wind_gusts":61.6,"aqi":88,"pm10":99.9,"pm2_5":30.6,"no2":0.5,"co":129.0,"o3":96.0,"so2":3.3,"mosquito_risk":4,"arthritis_risk":5,"migraine_risk":7,"frizz_risk":1,"updated_at":"2026-06-04T14:21:10.928315+05:30"},{"city":"Gwalior","state":"Madhya Pradesh","latitude":26.2183,"longitude":78.1828,"temp":39.1,"humidity":26,"rain":0.0,"pressure":976.3,"uv_index":8.3,"wind_gusts":55.8,"aqi":102,"pm10":126.7,"pm2_5":36.2,"no2":0.4,"co":250.0,"o3":155.0,"so2":5.2,"mosquito_risk":0,"arthritis_risk":5,"migraine_risk":10,"frizz_risk":1,"updated_at":"2026-06-04T14:21:10.928322+05:30"},{"city":"Indore","state":"Madhya Pradesh","latitude":22.7196,"longitude":75.8577,"temp":37.8,"humidity":33,"rain":0.0,"pressure":943.6,"uv_index":8.65,"wind_gusts":58.3,"aqi":87,"pm10":58.7,"pm2_5":27.8,"no2":0.9,"co":251.0,"o3":112.0,"so2":5.3,"mosquito_risk":0,"arthritis_risk":5,"migraine_risk":10,"frizz_risk":1,"updated_at":"2026-06-04T14:21:10.928328+05:30"},{"city":"Bhopal","state":"Madhya Pradesh","latitude":23.2599,"longitude":77.4126,"temp":38.2,"humidity":24,"rain":0.0,"pressure":948.4,"uv_index":8.7,"wind_gusts":56.2,"aqi":84,"pm10":69.4,"pm2_5":28.5,"no2":0.6,"co":181.0,"o3":114.0,"so2":5.5,"mosquito_risk":0,"arthritis_risk":5,"migraine_risk":10,"frizz_risk":0,"updated_at":"2026-06-04T14:21:10.928335+05:30"},{"city":"Jabalpur","state":"Madhya Pradesh","latitude":23.1815,"longitude":79.9864,"temp":37.5,"humidity":30,"rain":0.0,"pressure":955.7,"uv_index":8.65,"wind_gusts":28.1,"aqi":74,"pm10":77.8,"pm2_5":29.0,"no2":0.6,"co":189.0,"o3":128.0,"so2":4.1,"mosquito_risk":0,"arthritis_risk":5,"migraine_risk":10,"frizz_risk":1,"updated_at":"2026-06-04T14:21:10.928341+05:30"},{"city":"Ujjain","state":"Madhya Pradesh","latitude":23.1765,"longitude":75.7885,"temp":37.4,"humidity":34,"rain":0.0,"pressure":949.0,"uv_index":8.6,"wind_gusts":68.4,"aqi":85,"pm10":55.2,"pm2_5":27.0,"no2":0.6,"co":187.0,"o3":108.0,"so2":5.5,"mosquito_risk":0,"arthritis_risk":5,"migraine_risk":10,"frizz_risk":1,"updated_at":"2026-06-04T14:21:10.928348+05:30"},{"city":"Visakhapatnam","state":"Andhra Pradesh","latitude":17.6868,"longitude":83.2185,"temp":38.0,"humidity":40,"rain":0.0,"pressure":996.7,"uv_index":9.05,"wind_gusts":45.7,"aqi":94,"pm10":37.1,"pm2_5":31.8,"no2":5.2,"co":367.0,"o3":182.0,"so2":27.6,"mosquito_risk":0,"arthritis_risk":5,"migraine_risk":10,"frizz_risk":1,"updated_at":"2026-06-04T14:21:10.928354+05:30"},{"city":"Vijayawada","state":"Andhra Pradesh","latitude":16.5062,"longitude":80.648,"temp":38.7,"humidity":36,"rain":0.0,"pressure":996.6,"uv_index":9.05,"wind_gusts":46.1,"aqi":84,"pm10":31.5,"pm2_5":22.4,"no2":1.1,"co":186.0,"o3":150.0,"so2":7.6,"mosquito_risk":0,"arthritis_risk":5,"migraine_risk":10,"frizz_risk":1,"updated_at":"2026-06-04T14:21:10.928361+05:30"},{"city":"Guntur","state":"Andhra Pradesh","latitude":16.3067,"longitude":80.4365,"temp":38.5,"humidity":37,"rain":0.0,"pressure":997.7,"uv_index":9.05,"wind_gusts":39.2,"aqi":80,"pm10":30.7,"pm2_5":21.0,"no2":0.9,"co":188.0,"o3":145.0,"so2":6.2,"mosquito_risk":0,"arthritis_risk":5,"migraine_risk":10,"frizz_risk":1,"updated_at":"2026-06-04T14:21:10.928367+05:30"},{"city":"Nellore","state":"Andhra Pradesh","latitude":14.4426,"longitude":79.9865,"temp":37.2,"humidity":40,"rain":0.0,"pressure":1000.3,"uv_index":8.95,"wind_gusts":40.0,"aqi":57,"pm10":17.2,"pm2_5":15.0,"no2":2.9,"co":149.0,"o3":138.0,"so2":5.2,"mosquito_risk":0,"arthritis_risk":5,"migraine_risk":7,"frizz_risk":1,"updated_at":"2026-06-04T14:21:10.928375+05:30"},{"city":"Kurnool","state":"Andhra Pradesh","latitude":15.8281,"longitude":78.0373,"temp":36.0,"humidity":39,"rain":0.0,"pressure":972.7,"uv_index":8.9,"wind_gusts":45.7,"aqi":55,"pm10":25.7,"pm2_5":15.3,"no2":1.0,"co":143.0,"o3":126.0,"so2":5.5,"mosquito_risk":0,"arthritis_risk":5,"migraine_risk":10,"frizz_risk":1,"updated_at":"2026-06-04T14:21:10.928383+05:30"},{"city":"Kakinada","state":"Andhra Pradesh","latitude":16.9891,"longitude":82.2475,"temp":35.8,"humidity":50,"rain":0.0,"pressure":1000.8,"uv_index":9.05,"wind_gusts":52.2,"aqi":109,"pm10":26.9,"pm2_5":22.2,"no2":2.2,"co":241.0,"o3":166.0,"so2":4.5,"mosquito_risk":0,"arthritis_risk":5,"migraine_risk":7,"frizz_risk":1,"updated_at":"2026-06-04T14:21:10.928390+05:30"},{"city":"Tirupati","state":"Andhra Pradesh","latitude":13.6288,"longitude":79.4192,"temp":37.2,"humidity":35,"rain":0.0,"pressure":985.9,"uv_index":8.45,"wind_gusts":31.7,"aqi":52,"pm10":7.3,"pm2_5":4.9,"no2":0.8,"co":128.0,"o3":94.0,"so2":0.9,"mosquito_risk":0,"arthritis_risk":5,"migraine_risk":10,"frizz_risk":1,"updated_at":"2026-06-04T14:21:10.928396+05:30"},{"city":"Warangal","state":"Telangana","latitude":17.9689,"longitude":79.5941,"temp":36.5,"humidity":39,"rain":0.0,"pressure":973.5,"uv_index":9.0,"wind_gusts":36.4,"aqi":74,"pm10":40.4,"pm2_5":23.1,"no2":1.0,"co":172.0,"o3":134.0,"so2":3.8,"mosquito_risk":0,"arthritis_risk":5,"migraine_risk":10,"frizz_risk":1,"updated_at":"2026-06-04T14:21:10.928403+05:30"},{"city":"Nizamabad","state":"Telangana","latitude":18.6725,"longitude":78.0941,"temp":36.0,"humidity":38,"rain":0.0,"pressure":960.4,"uv_index":8.25,"wind_gusts":38.9,"aqi":72,"pm10":46.3,"pm2_5":26.4,"no2":1.1,"co":155.0,"o3":134.0,"so2":7.1,"mosquito_risk":0,"arthritis_risk":5,"migraine_risk":10,"frizz_risk":1,"updated_at":"2026-06-04T14:21:10.928409+05:30"},{"city":"Mysore","state":"Karnataka","latitude":12.2958,"longitude":76.6396,"temp":30.9,"humidity":46,"rain":0.0,"pressure":926.2,"uv_index":8.1,"wind_gusts":54.7,"aqi":27,"pm10":4.6,"pm2_5":2.8,"no2":1.3,"co":121.0,"o3":78.0,"so2":1.0,"mosquito_risk":0,"arthritis_risk":5,"migraine_risk":7,"frizz_risk":1,"updated_at":"2026-06-04T14:21:10.928415+05:30"},{"city":"Mangalore","state":"Karnataka","latitude":12.9141,"longitude":74.856,"temp":27.1,"humidity":86,"rain":0.0,"pressure":1005.4,"uv_index":8.65,"wind_gusts":37.1,"aqi":31,"pm10":12.1,"pm2_5":5.7,"no2":1.2,"co":108.0,"o3":61.0,"so2":1.1,"mosquito_risk":7,"arthritis_risk":5,"migraine_risk":4,"frizz_risk":1,"updated_at":"2026-06-04T14:21:10.928421+05:30"},{"city":"Hubli-Dharwad","state":"Karnataka","latitude":15.3647,"longitude":75.124,"temp":28.1,"humidity":65,"rain":0.1,"pressure":938.5,"uv_index":8.85,"wind_gusts":45.4,"aqi":25,"pm10":8.6,"pm2_5":3.8,"no2":1.2,"co":112.0,"o3":68.0,"so2":0.6,"mosquito_risk":10,"arthritis_risk":5,"migraine_risk":7,"frizz_risk":1,"updated_at":"2026-06-04T14:21:10.928429+05:30"},{"city":"Belgaum","state":"Karnataka","latitude":15.8497,"longitude":74.4977,"temp":25.6,"humidity":79,"rain":0.1,"pressure":923.1,"uv_index":8.95,"wind_gusts":38.2,"aqi":38,"pm10":12.2,"pm2_5":5.7,"no2":1.1,"co":113.0,"o3":72.0,"so2":1.3,"mosquito_risk":10,"arthritis_risk":5,"migraine_risk":7,"frizz_risk":1,"updated_at":"2026-06-04T14:21:14.171065+05:30"},{"city":"Coimbatore","state":"Tamil Nadu","latitude":11.0168,"longitude":76.9558,"temp":30.5,"humidity":58,"rain":0.0,"pressure":959.2,"uv_index":8.35,"wind_gusts":63.0,"aqi":25,"pm10":2.9,"pm2_5":2.3,"no2":2.0,"co":142.0,"o3":68.0,"so2":1.3,"mosquito_risk":0,"arthritis_risk":5,"migraine_risk":7,"frizz_risk":1,"updated_at":"2026-06-04T14:21:14.171101+05:30"},{"city":"Madurai","state":"Tamil Nadu","latitude":9.9252,"longitude":78.1198,"temp":35.0,"humidity":43,"rain":0.1,"pressure":989.2,"uv_index":8.0,"wind_gusts":52.2,"aqi":43,"pm10":5.0,"pm2_5":4.0,"no2":1.4,"co":114.0,"o3":91.0,"so2":1.7,"mosquito_risk":3,"arthritis_risk":5,"migraine_risk":7,"frizz_risk":1,"updated_at":"2026-06-04T14:21:14.171112+05:30"},{"city":"Trichy","state":"Tamil Nadu","latitude":10.7905,"longitude":78.7047,"temp":36.7,"humidity":40,"rain":0.0,"pressure":995.3,"uv_index":8.15,"wind_gusts":49.7,"aqi":40,"pm10":4.7,"pm2_5":3.8,"no2":1.0,"co":114.0,"o3":94.0,"so2":1.7,"mosquito_risk":0,"arthritis_risk":5,"migraine_risk":10,"frizz_risk":1,"updated_at":"2026-06-04T14:21:14.171121+05:30"},{"city":"Salem","state":"Tamil Nadu","latitude":11.6643,"longitude":78.146,"temp":35.2,"humidity":43,"rain":0.0,"pressure":973.8,"uv_index":8.2,"wind_gusts":33.1,"aqi":42,"pm10":7.4,"pm2_5":6.5,"no2":1.9,"co":158.0,"o3":115.0,"so2":5.5,"mosquito_risk":0,"arthritis_risk":5,"migraine_risk":10,"frizz_risk":1,"updated_at":"2026-06-04T14:21:14.171129+05:30"},{"city":"Tirunelveli","state":"Tamil Nadu","latitude":8.7139,"longitude":77.7567,"temp":36.1,"humidity":41,"rain":0.0,"pressure":1000.3,"uv_index":8.15,"wind_gusts":42.5,"aqi":19,"pm10":3.2,"pm2_5":2.5,"no2":1.3,"co":107.0,"o3":53.0,"so2":0.7,"mosquito_risk":0,"arthritis_risk":5,"migraine_risk":7,"frizz_risk":1,"updated_at":"2026-06-04T14:21:14.171136+05:30"},{"city":"Vellore","state":"Tamil Nadu","latitude":12.9165,"longitude":79.1325,"temp":37.2,"humidity":35,"rain":0.0,"pressure":979.7,"uv_index":8.3,"wind_gusts":47.2,"aqi":52,"pm10":10.6,"pm2_5":6.2,"no2":1.0,"co":152.0,"o3":100.0,"so2":1.9,"mosquito_risk":0,"arthritis_risk":5,"migraine_risk":10,"frizz_risk":1,"updated_at":"2026-06-04T14:21:14.171143+05:30"},{"city":"Erode","state":"Tamil Nadu","latitude":11.341,"longitude":77.7172,"temp":36.5,"humidity":40,"rain":0.0,"pressure":984.9,"uv_index":8.8,"wind_gusts":49.3,"aqi":30,"pm10":3.6,"pm2_5":2.9,"no2":1.8,"co":139.0,"o3":88.0,"so2":1.5,"mosquito_risk":0,"arthritis_risk":5,"migraine_risk":10,"frizz_risk":1,"updated_at":"2026-06-04T14:21:14.171150+05:30"},{"city":"Kochi","state":"Kerala","latitude":9.9312,"longitude":76.2673,"temp":26.8,"humidity":86,"rain":0.0,"pressure":1008.4,"uv_index":7.65,"wind_gusts":39.6,"aqi":43,"pm10":10.7,"pm2_5":6.7,"no2":3.3,"co":110.0,"o3":62.0,"so2":2.4,"mosquito_risk":7,"arthritis_risk":0,"migraine_risk":4,"frizz_risk":1,"updated_at":"2026-06-04T14:21:14.171158+05:30"},{"city":"Thiruvananthapuram","state":"Kerala","latitude":8.5241,"longitude":76.9366,"temp":26.0,"humidity":91,"rain":0.1,"pressure":1007.8,"uv_index":7.35,"wind_gusts":46.8,"aqi":27,"pm10":9.9,"pm2_5":5.4,"no2":1.1,"co":97.0,"o3":55.0,"so2":0.4,"mosquito_risk":10,"arthritis_risk":5,"migraine_risk":4,"frizz_risk":1,"updated_at":"2026-06-04T14:21:14.171165+05:30"},{"city":"Kozhikode","state":"Kerala","latitude":11.2588,"longitude":75.7804,"temp":27.8,"humidity":82,"rain":0.1,"pressure":1007.0,"uv_index":8.5,"wind_gusts":39.6,"aqi":29,"pm10":12.8,"pm2_5":5.5,"no2":0.6,"co":122.0,"o3":62.0,"so2":0.4,"mosquito_risk":10,"arthritis_risk":5,"migraine_risk":4,"frizz_risk":1,"updated_at":"2026-06-04T14:21:14.171172+05:30"},{"city":"Thrissur","state":"Kerala","latitude":10.5276,"longitude":76.2144,"temp":27.2,"humidity":87,"rain":0.1,"pressure":1006.5,"uv_index":8.55,"wind_gusts":35.6,"aqi":43,"pm10":8.1,"pm2_5":5.0,"no2":2.9,"co":104.0,"o3":55.0,"so2":1.4,"mosquito_risk":10,"arthritis_risk":5,"migraine_risk":4,"frizz_risk":1,"updated_at":"2026-06-04T14:21:14.171180+05:30"},{"city":"Kannur","state":"Kerala","latitude":11.8745,"longitude":75.3704,"temp":28.4,"humidity":78,"rain":0.0,"pressure":1005.9,"uv_index":8.65,"wind_gusts":34.9,"aqi":27,"pm10":12.4,"pm2_5":6.2,"no2":1.3,"co":108.0,"o3":59.0,"so2":0.7,"mosquito_risk":7,"arthritis_risk":5,"migraine_risk":4,"frizz_risk":1,"updated_at":"2026-06-04T14:21:14.171187+05:30"},{"city":"Patna","state":"Bihar","latitude":25.5941,"longitude":85.1376,"temp":37.0,"humidity":40,"rain":0.0,"pressure":992.6,"uv_index":8.9,"wind_gusts":19.8,"aqi":164,"pm10":78.0,"pm2_5":51.9,"no2":0.6,"co":283.0,"o3":193.0,"so2":7.7,"mosquito_risk":0,"arthritis_risk":5,"migraine_risk":10,"frizz_risk":1,"updated_at":"2026-06-04T14:21:14.171194+05:30"},{"city":"Gaya","state":"Bihar","latitude":24.7914,"longitude":85.0002,"temp":37.9,"humidity":34,"rain":0.0,"pressure":986.2,"uv_index":8.8,"wind_gusts":28.4,"aqi":151,"pm10":73.3,"pm2_5":47.7,"no2":0.7,"co":232.0,"o3":167.0,"so2":8.8,"mosquito_risk":0,"arthritis_risk":5,"migraine_risk":10,"frizz_risk":1,"updated_at":"2026-06-04T14:21:14.171201+05:30"},{"city":"Muzaffarpur","state":"Bihar","latitude":26.1209,"longitude":85.3647,"temp":36.2,"humidity":43,"rain":0.0,"pressure":992.6,"uv_index":8.85,"wind_gusts":22.0,"aqi":168,"pm10":86.8,"pm2_5":60.1,"no2":1.0,"co":278.0,"o3":215.0,"so2":11.2,"mosquito_risk":0,"arthritis_risk":5,"migraine_risk":10,"frizz_risk":1,"updated_at":"2026-06-04T14:21:14.171207+05:30"},{"city":"Bhagalpur","state":"Bihar","latitude":25.2425,"longitude":87.0117,"temp":38.3,"humidity":33,"rain":0.0,"pressure":992.6,"uv_index":8.75,"wind_gusts":41.0,"aqi":156,"pm10":81.0,"pm2_5":60.1,"no2":2.5,"co":264.0,"o3":213.0,"so2":18.8,"mosquito_risk":0,"arthritis_risk":5,"migraine_risk":10,"frizz_risk":1,"updated_at":"2026-06-04T14:21:14.171213+05:30"},{"city":"Ranchi","state":"Jharkhand","latitude":23.3441,"longitude":85.3096,"temp":33.9,"humidity":41,"rain":0.0,"pressure":932.4,"uv_index":9.05,"wind_gusts":29.2,"aqi":123,"pm10":56.6,"pm2_5":38.9,"no2":0.8,"co":181.0,"o3":172.0,"so2":12.7,"mosquito_risk":0,"arthritis_risk":5,"migraine_risk":7,"frizz_risk":1,"updated_at":"2026-06-04T14:21:14.171220+05:30"},{"city":"Jamshedpur","state":"Jharkhand","latitude":22.8046,"longitude":86.2029,"temp":38.0,"humidity":34,"rain":0.0,"pressure":983.0,"uv_index":8.9,"wind_gusts":29.2,"aqi":157,"pm10":83.6,"pm2_5":61.7,"no2":1.9,"co":239.0,"o3":228.0,"so2":25.3,"mosquito_risk":0,"arthritis_risk":5,"migraine_risk":10,"frizz_risk":1,"updated_at":"2026-06-04T14:21:14.171240+05:30"},{"city":"Dhanbad","state":"Jharkhand","latitude":23.7957,"longitude":86.4304,"temp":37.5,"humidity":31,"rain":0.0,"pressure":972.8,"uv_index":8.9,"wind_gusts":37.4,"aqi":162,"pm10":78.0,"pm2_5":60.3,"no2":6.3,"co":192.0,"o3":235.0,"so2":46.4,"mosquito_risk":0,"arthritis_risk":5,"migraine_risk":10,"frizz_risk":1,"updated_at":"2026-06-04T14:21:14.171247+05:30"},{"city":"Bokaro","state":"Jharkhand","latitude":23.6693,"longitude":86.1511,"temp":34.3,"humidity":47,"rain":0.1,"pressure":976.8,"uv_index":8.9,"wind_gusts":33.5,"aqi":155,"pm10":71.9,"pm2_5":53.1,"no2":7.2,"co":186.0,"o3":215.0,"so2":43.0,"mosquito_risk":3,"arthritis_risk":5,"migraine_risk":7,"frizz_risk":1,"updated_at":"2026-06-04T14:21:14.171253+05:30"},{"city":"Bhubaneswar","state":"Odisha","latitude":20.2961,"longitude":85.8245,"temp":34.0,"humidity":60,"rain":0.2,"pressure":995.4,"uv_index":8.4,"wind_gusts":38.2,"aqi":103,"pm10":43.9,"pm2_5":34.1,"no2":1.7,"co":248.0,"o3":173.0,"so2":10.6,"mosquito_risk":3,"arthritis_risk":5,"migraine_risk":7,"frizz_risk":1,"updated_at":"2026-06-04T14:21:14.171261+05:30"},{"city":"Cuttack","state":"Odisha","latitude":20.4625,"longitude":85.8828,"temp":35.2,"humidity":58,"rain":0.1,"pressure":997.0,"uv_index":9.1,"wind_gusts":38.5,"aqi":103,"pm10":43.9,"pm2_5":34.1,"no2":1.7,"co":258.0,"o3":173.0,"so2":10.6,"mosquito_risk":3,"arthritis_risk":5,"migraine_risk":10,"frizz_risk":1,"updated_at":"2026-06-04T14:21:14.171267+05:30"},{"city":"Rourkela","state":"Odisha","latitude":22.2604,"longitude":84.8536,"temp":39.0,"humidity":30,"rain":0.0,"pressure":977.7,"uv_index":9.05,"wind_gusts":35.3,"aqi":156,"pm10":45.8,"pm2_5":32.1,"no2":1.1,"co":238.0,"o3":189.0,"so2":12.0,"mosquito_risk":0,"arthritis_risk":5,"migraine_risk":10,"frizz_risk":1,"updated_at":"2026-06-04T14:21:14.171274+05:30"},{"city":"Raipur","state":"Chhattisgarh","latitude":21.2514,"longitude":81.6296,"temp":40.4,"humidity":26,"rain":0.0,"pressure":967.8,"uv_index":8.55,"wind_gusts":37.8,"aqi":110,"pm10":42.6,"pm2_5":31.8,"no2":4.5,"co":257.0,"o3":163.0,"so2":27.0,"mosquito_risk":0,"arthritis_risk":5,"migraine_risk":10,"frizz_risk":1,"updated_at":"2026-06-04T14:21:14.171281+05:30"},{"city":"Bhilai","state":"Chhattisgarh","latitude":21.1938,"longitude":81.3509,"temp":39.0,"humidity":28,"rain":0.0,"pressure":968.3,"uv_index":8.4,"wind_gusts":38.2,"aqi":103,"pm10":39.0,"pm2_5":26.7,"no2":4.5,"co":378.0,"o3":149.0,"so2":21.8,"mosquito_risk":0,"arthritis_risk":5,"migraine_risk":10,"frizz_risk":1,"updated_at":"2026-06-04T14:21:14.171288+05:30"},{"city":"Guwahati","state":"Assam","latitude":26.1158,"longitude":91.7086,"temp":31.7,"humidity":70,"rain":0.0,"pressure":993.4,"uv_index":8.85,"wind_gusts":33.1,"aqi":120,"pm10":43.9,"pm2_5":37.4,"no2":1.1,"co":344.0,"o3":151.0,"so2":4.9,"mosquito_risk":3,"arthritis_risk":5,"migraine_risk":7,"frizz_risk":1,"updated_at":"2026-06-04T14:21:14.171295+05:30"},{"city":"Agartala","state":"Tripura","latitude":23.8315,"longitude":91.2868,"temp":34.2,"humidity":60,"rain":0.1,"pressure":998.5,"uv_index":8.85,"wind_gusts":29.5,"aqi":97,"pm10":39.1,"pm2_5":31.9,"no2":3.7,"co":250.0,"o3":160.0,"so2":3.6,"mosquito_risk":3,"arthritis_risk":5,"migraine_risk":7,"frizz_risk":1,"updated_at":"2026-06-04T14:21:14.171302+05:30"},{"city":"Shillong","state":"Meghalaya","latitude":25.5788,"longitude":91.8933,"temp":25.1,"humidity":65,"rain":0.1,"pressure":854.1,"uv_index":7.15,"wind_gusts":28.8,"aqi":91,"pm10":27.8,"pm2_5":23.9,"no2":1.1,"co":293.0,"o3":143.0,"so2":3.9,"mosquito_risk":10,"arthritis_risk":5,"migraine_risk":7,"frizz_risk":1,"updated_at":"2026-06-04T14:21:14.171308+05:30"},{"city":"Imphal","state":"Manipur","latitude":24.817,"longitude":93.9368,"temp":29.9,"humidity":58,"rain":0.0,"pressure":917.9,"uv_index":9.25,"wind_gusts":32.4,"aqi":97,"pm10":24.4,"pm2_5":19.0,"no2":0.7,"co":238.0,"o3":117.0,"so2":2.1,"mosquito_risk":4,"arthritis_risk":5,"migraine_risk":7,"frizz_risk":1,"updated_at":"2026-06-04T14:21:14.171315+05:30"},{"city":"Aizawl","state":"Mizoram","latitude":23.7271,"longitude":92.7176,"temp":28.0,"humidity":58,"rain":0.0,"pressure":888.6,"uv_index":9.1,"wind_gusts":26.3,"aqi":80,"pm10":35.3,"pm2_5":24.0,"no2":0.3,"co":217.0,"o3":109.0,"so2":2.3,"mosquito_risk":4,"arthritis_risk":5,"migraine_risk":7,"frizz_risk":1,"updated_at":"2026-06-04T14:21:14.171321+05:30"},{"city":"Kohima","state":"Nagaland","latitude":25.6701,"longitude":94.1077,"temp":22.6,"humidity":90,"rain":0.0,"pressure":851.5,"uv_index":8.65,"wind_gusts":30.6,"aqi":82,"pm10":39.3,"pm2_5":29.9,"no2":0.5,"co":270.0,"o3":126.0,"so2":2.4,"mosquito_risk":3,"arthritis_risk":5,"migraine_risk":7,"frizz_risk":1,"updated_at":"2026-06-04T14:21:14.171328+05:30"},{"city":"Gangtok","state":"Sikkim","latitude":27.3314,"longitude":88.6138,"temp":22.9,"humidity":69,"rain":0.1,"pressure":834.2,"uv_index":9.25,"wind_gusts":38.9,"aqi":99,"pm10":32.8,"pm2_5":25.8,"no2":1.5,"co":273.0,"o3":145.0,"so2":2.7,"mosquito_risk":6,"arthritis_risk":5,"migraine_risk":7,"frizz_risk":1,"updated_at":"2026-06-04T14:21:14.171335+05:30"},{"city":"Siliguri","state":"West Bengal","latitude":26.7271,"longitude":88.3953,"temp":30.8,"humidity":74,"rain":0.0,"pressure":985.1,"uv_index":8.8,"wind_gusts":28.4,"aqi":156,"pm10":64.0,"pm2_5":53.4,"no2":2.6,"co":367.0,"o3":168.0,"so2":8.6,"mosquito_risk":3,"arthritis_risk":5,"migraine_risk":7,"frizz_risk":1,"updated_at":"2026-06-04T14:21:17.394305+05:30"},{"city":"Durgapur","state":"West Bengal","latitude":23.5204,"longitude":87.3119,"temp":36.8,"humidity":49,"rain":0.0,"pressure":986.9,"uv_index":9.0,"wind_gusts":31.0,"aqi":172,"pm10":92.4,"pm2_5":79.4,"no2":8.2,"co":424.0,"o3":283.0,"so2":61.3,"mosquito_risk":0,"arthritis_risk":5,"migraine_risk":10,"frizz_risk":1,"updated_at":"2026-06-04T14:21:17.394341+05:30"},{"city":"Asansol","state":"West Bengal","latitude":23.6739,"longitude":86.9524,"temp":36.8,"humidity":45,"rain":0.0,"pressure":985.7,"uv_index":8.85,"wind_gusts":31.7,"aqi":163,"pm10":80.8,"pm2_5":65.4,"no2":6.1,"co":377.0,"o3":255.0,"so2":48.2,"mosquito_risk":0,"arthritis_risk":5,"migraine_risk":10,"frizz_risk":1,"updated_at":"2026-06-04T14:21:17.394353+05:30"},{"city":"Pondicherry","state":"Puducherry","latitude":11.9139,"longitude":79.8145,"temp":33.9,"humidity":63,"rain":0.1,"pressure":1003.5,"uv_index":7.95,"wind_gusts":52.2,"aqi":61,"pm10":27.0,"pm2_5":21.5,"no2":4.0,"co":174.0,"o3":149.0,"so2":11.8,"mosquito_risk":6,"arthritis_risk":5,"migraine_risk":4,"frizz_risk":1,"updated_at":"2026-06-04T14:21:17.394362+05:30"},{"city":"Port Blair","state":"Andaman and Nicobar Islands","latitude":11.6234,"longitude":92.7265,"temp":25.4,"humidity":93,"rain":0.1,"pressure":1003.8,"uv_index":1.45,"wind_gusts":45.4,"aqi":31,"pm10":8.0,"pm2_5":5.0,"no2":0.4,"co":109.0,"o3":61.0,"so2":0.6,"mosquito_risk":10,"arthritis_risk":5,"migraine_risk":0,"frizz_risk":1,"updated_at":"2026-06-04T14:21:17.394371+05:30"},{"city":"Haridwar","state":"Uttarakhand","latitude":29.9457,"longitude":78.1642,"temp":34.5,"humidity":47,"rain":0.0,"pressure":967.9,"uv_index":7.65,"wind_gusts":40.0,"aqi":101,"pm10":124.8,"pm2_5":40.3,"no2":1.0,"co":273.0,"o3":184.0,"so2":12.4,"mosquito_risk":0,"arthritis_risk":5,"migraine_risk":7,"frizz_risk":1,"updated_at":"2026-06-04T14:21:17.394378+05:30"},{"city":"Rishikesh","state":"Uttarakhand","latitude":30.0869,"longitude":78.2676,"temp":34.4,"humidity":38,"rain":0.0,"pressure":960.9,"uv_index":7.75,"wind_gusts":35.6,"aqi":106,"pm10":99.0,"pm2_5":32.5,"no2":0.6,"co":263.0,"o3":173.0,"so2":9.2,"mosquito_risk":0,"arthritis_risk":5,"migraine_risk":7,"frizz_risk":1,"updated_at":"2026-06-04T14:21:17.394386+05:30"},{"city":"Nainital","state":"Uttarakhand","latitude":29.3919,"longitude":79.4542,"temp":22.0,"humidity":60,"rain":0.1,"pressure":804.6,"uv_index":7.2,"wind_gusts":28.4,"aqi":85,"pm10":41.4,"pm2_5":24.2,"no2":1.2,"co":230.0,"o3":162.0,"so2":5.0,"mosquito_risk":3,"arthritis_risk":5,"migraine_risk":7,"frizz_risk":0,"updated_at":"2026-06-04T14:21:17.394393+05:30"},{"city":"Mussoorie","state":"Uttarakhand","latitude":30.4599,"longitude":78.0664,"temp":23.4,"humidity":54,"rain":0.0,"pressure":802.7,"uv_index":7.6,"wind_gusts":31.7,"aqi":93,"pm10":112.0,"pm2_5":35.0,"no2":0.9,"co":264.0,"o3":166.0,"so2":8.3,"mosquito_risk":0,"arthritis_risk":5,"migraine_risk":7,"frizz_risk":0,"updated_at":"2026-06-04T14:21:17.394401+05:30"},{"city":"Dharamshala","state":"Himachal Pradesh","latitude":32.219,"longitude":76.3234,"temp":24.6,"humidity":56,"rain":0.1,"pressure":866.8,"uv_index":8.45,"wind_gusts":47.5,"aqi":83,"pm10":35.6,"pm2_5":20.4,"no2":0.8,"co":252.0,"o3":148.0,"so2":1.9,"mosquito_risk":3,"arthritis_risk":5,"migraine_risk":7,"frizz_risk":0,"updated_at":"2026-06-04T14:21:17.394408+05:30"},{"city":"Dalhousie","state":"Himachal Pradesh","latitude":32.5387,"longitude":75.971,"temp":16.9,"humidity":92,"rain":0.2,"pressure":802.5,"uv_index":6.7,"wind_gusts":34.9,"aqi":82,"pm10":47.3,"pm2_5":24.2,"no2":1.6,"co":295.0,"o3":166.0,"so2":3.1,"mosquito_risk":6,"arthritis_risk":10,"migraine_risk":7,"frizz_risk":0,"updated_at":"2026-06-04T14:21:17.394416+05:30"},{"city":"Patiala","state":"Punjab","latitude":30.3398,"longitude":76.3869,"temp":33.8,"humidity":41,"rain":0.1,"pressure":972.0,"uv_index":7.7,"wind_gusts":36.4,"aqi":156,"pm10":201.2,"pm2_5":57.7,"no2":1.4,"co":300.0,"o3":202.0,"so2":12.1,"mosquito_risk":3,"arthritis_risk":5,"migraine_risk":7,"frizz_risk":1,"updated_at":"2026-06-04T14:21:17.394423+05:30"},{"city":"Bhatinda","state":"Punjab","latitude":30.211,"longitude":74.9455,"temp":33.6,"humidity":42,"rain":0.0,"pressure":977.3,"uv_index":8.3,"wind_gusts":55.8,"aqi":138,"pm10":141.1,"pm2_5":54.7,"no2":3.6,"co":241.0,"o3":197.0,"so2":18.3,"mosquito_risk":0,"arthritis_risk":5,"migraine_risk":7,"frizz_risk":1,"updated_at":"2026-06-04T14:21:17.394430+05:30"},{"city":"Rohtak","state":"Haryana","latitude":28.8955,"longitude":76.6066,"temp":37.8,"humidity":31,"rain":0.0,"pressure":974.9,"uv_index":7.8,"wind_gusts":37.4,"aqi":157,"pm10":355.8,"pm2_5":68.7,"no2":1.0,"co":267.0,"o3":176.0,"so2":6.4,"mosquito_risk":0,"arthritis_risk":5,"migraine_risk":10,"frizz_risk":1,"updated_at":"2026-06-04T14:21:17.394436+05:30"},{"city":"Panipat","state":"Haryana","latitude":29.3909,"longitude":76.9635,"temp":36.2,"humidity":37,"rain":0.1,"pressure":973.6,"uv_index":7.65,"wind_gusts":40.0,"aqi":188,"pm10":514.1,"pm2_5":90.6,"no2":2.0,"co":299.0,"o3":210.0,"so2":18.5,"mosquito_risk":3,"arthritis_risk":5,"migraine_risk":10,"frizz_risk":1,"updated_at":"2026-06-04T14:21:17.394443+05:30"},{"city":"Mathura","state":"Uttar Pradesh","latitude":27.4924,"longitude":77.6737,"temp":36.2,"humidity":41,"rain":0.1,"pressure":979.8,"uv_index":8.1,"wind_gusts":34.6,"aqi":154,"pm10":285.9,"pm2_5":59.0,"no2":1.1,"co":317.0,"o3":181.0,"so2":7.6,"mosquito_risk":3,"arthritis_risk":5,"migraine_risk":10,"frizz_risk":1,"updated_at":"2026-06-04T14:21:17.394449+05:30"},{"city":"Vrindavan","state":"Uttar Pradesh","latitude":27.5823,"longitude":77.7027,"temp":35.1,"humidity":42,"rain":0.1,"pressure":980.5,"uv_index":8.05,"wind_gusts":36.7,"aqi":154,"pm10":285.9,"pm2_5":59.0,"no2":1.1,"co":310.0,"o3":181.0,"so2":7.6,"mosquito_risk":3,"arthritis_risk":5,"migraine_risk":10,"frizz_risk":1,"updated_at":"2026-06-04T14:21:17.394456+05:30"},{"city":"Ayodhya","state":"Uttar Pradesh","latitude":26.7922,"longitude":82.1998,"temp":36.8,"humidity":36,"rain":0.0,"pressure":988.1,"uv_index":8.05,"wind_gusts":21.6,"aqi":154,"pm10":90.6,"pm2_5":37.1,"no2":0.3,"co":243.0,"o3":156.0,"so2":6.8,"mosquito_risk":0,"arthritis_risk":5,"migraine_risk":10,"frizz_risk":1,"updated_at":"2026-06-04T14:21:17.394463+05:30"},{"city":"Ratlam","state":"Madhya Pradesh","latitude":23.3315,"longitude":75.0367,"temp":36.2,"humidity":43,"rain":0.0,"pressure":950.3,"uv_index":8.5,"wind_gusts":47.9,"aqi":84,"pm10":52.3,"pm2_5":26.9,"no2":0.5,"co":135.0,"o3":106.0,"so2":5.3,"mosquito_risk":0,"arthritis_risk":5,"migraine_risk":10,"frizz_risk":1,"updated_at":"2026-06-04T14:21:17.394471+05:30"},{"city":"Sagar","state":"Madhya Pradesh","latitude":23.8388,"longitude":78.7378,"temp":37.2,"humidity":27,"rain":0.0,"pressure":945.0,"uv_index":8.75,"wind_gusts":32.4,"aqi":79,"pm10":67.3,"pm2_5":26.0,"no2":0.5,"co":188.0,"o3":123.0,"so2":4.7,"mosquito_risk":0,"arthritis_risk":5,"migraine_risk":10,"frizz_risk":0,"updated_at":"2026-06-04T14:21:17.394478+05:30"},{"city":"Satna","state":"Madhya Pradesh","latitude":24.6005,"longitude":80.8322,"temp":37.0,"humidity":30,"rain":0.0,"pressure":965.2,"uv_index":8.35,"wind_gusts":24.8,"aqi":82,"pm10":71.5,"pm2_5":26.4,"no2":0.4,"co":186.0,"o3":131.0,"so2":3.5,"mosquito_risk":0,"arthritis_risk":5,"migraine_risk":10,"frizz_risk":1,"updated_at":"2026-06-04T14:21:17.394485+05:30"},{"city":"Akola","state":"Maharashtra","latitude":20.7002,"longitude":77.0082,"temp":39.3,"humidity":31,"rain":0.0,"pressure":969.3,"uv_index":8.85,"wind_gusts":38.9,"aqi":70,"pm10":51.8,"pm2_5":26.5,"no2":1.1,"co":161.0,"o3":132.0,"so2":7.4,"mosquito_risk":0,"arthritis_risk":5,"migraine_risk":10,"frizz_risk":1,"updated_at":"2026-06-04T14:21:17.394493+05:30"},{"city":"Amravati","state":"Maharashtra","latitude":20.9374,"longitude":77.7796,"temp":39.4,"humidity":26,"rain":0.0,"pressure":961.9,"uv_index":8.85,"wind_gusts":48.2,"aqi":72,"pm10":49.9,"pm2_5":26.7,"no2":1.3,"co":173.0,"o3":136.0,"so2":8.7,"mosquito_risk":0,"arthritis_risk":5,"migraine_risk":10,"frizz_risk":1,"updated_at":"2026-06-04T14:21:17.394501+05:30"},{"city":"Latur","state":"Maharashtra","latitude":18.4088,"longitude":76.5604,"temp":34.7,"humidity":38,"rain":0.0,"pressure":936.4,"uv_index":8.9,"wind_gusts":42.1,"aqi":62,"pm10":50.3,"pm2_5":22.7,"no2":1.1,"co":139.0,"o3":107.0,"so2":3.2,"mosquito_risk":0,"arthritis_risk":5,"migraine_risk":7,"frizz_risk":1,"updated_at":"2026-06-04T14:21:17.394508+05:30"},{"city":"Nanded","state":"Maharashtra","latitude":19.1383,"longitude":77.3091,"temp":37.5,"humidity":35,"rain":0.0,"pressure":963.7,"uv_index":8.35,"wind_gusts":36.7,"aqi":76,"pm10":47.3,"pm2_5":25.0,"no2":1.2,"co":154.0,"o3":130.0,"so2":6.4,"mosquito_risk":0,"arthritis_risk":5,"migraine_risk":10,"frizz_risk":1,"updated_at":"2026-06-04T14:21:17.394514+05:30"},{"city":"Gulbarga","state":"Karnataka","latitude":17.3297,"longitude":76.8343,"temp":35.7,"humidity":35,"rain":0.0,"pressure":954.9,"uv_index":9.0,"wind_gusts":37.1,"aqi":63,"pm10":31.8,"pm2_5":16.4,"no2":1.1,"co":142.0,"o3":118.0,"so2":2.3,"mosquito_risk":0,"arthritis_risk":5,"migraine_risk":10,"frizz_risk":1,"updated_at":"2026-06-04T14:21:17.394522+05:30"},{"city":"Bidar","state":"Karnataka","latitude":17.9104,"longitude":77.5199,"temp":34.7,"humidity":39,"rain":0.0,"pressure":932.1,"uv_index":8.65,"wind_gusts":36.0,"aqi":68,"pm10":41.3,"pm2_5":21.5,"no2":1.4,"co":151.0,"o3":118.0,"so2":4.2,"mosquito_risk":0,"arthritis_risk":5,"migraine_risk":7,"frizz_risk":1,"updated_at":"2026-06-04T14:21:17.394528+05:30"},{"city":"Hospet","state":"Karnataka","latitude":15.2689,"longitude":76.3909,"temp":32.6,"humidity":47,"rain":0.0,"pressure":952.7,"uv_index":9.0,"wind_gusts":50.0,"aqi":31,"pm10":15.5,"pm2_5":7.7,"no2":1.0,"co":125.0,"o3":86.0,"so2":1.6,"mosquito_risk":0,"arthritis_risk":5,"migraine_risk":7,"frizz_risk":1,"updated_at":"2026-06-04T14:21:17.394535+05:30"},{"city":"Tirupur","state":"Tamil Nadu","latitude":11.1085,"longitude":77.3411,"temp":32.5,"humidity":52,"rain":0.1,"pressure":971.8,"uv_index":8.2,"wind_gusts":61.9,"aqi":32,"pm10":3.7,"pm2_5":3.2,"no2":2.0,"co":133.0,"o3":86.0,"so2":1.9,"mosquito_risk":3,"arthritis_risk":5,"migraine_risk":7,"frizz_risk":1,"updated_at":"2026-06-04T14:21:17.394542+05:30"},{"city":"Alappuzha","state":"Kerala","latitude":9.4981,"longitude":76.3388,"temp":26.9,"humidity":90,"rain":0.2,"pressure":1008.5,"uv_index":5.7,"wind_gusts":40.3,"aqi":32,"pm10":10.1,"pm2_5":5.6,"no2":2.8,"co":93.0,"o3":55.0,"so2":1.3,"mosquito_risk":10,"arthritis_risk":0,"migraine_risk":0,"frizz_risk":1,"updated_at":"2026-06-04T14:21:17.394549+05:30"},{"city":"Munnar","state":"Kerala","latitude":10.0889,"longitude":77.0595,"temp":19.5,"humidity":96,"rain":0.2,"pressure":856.3,"uv_index":7.35,"wind_gusts":41.0,"aqi":21,"pm10":2.7,"pm2_5":2.0,"no2":1.3,"co":108.0,"o3":60.0,"so2":0.8,"mosquito_risk":6,"arthritis_risk":10,"migraine_risk":7,"frizz_risk":1,"updated_at":"2026-06-04T14:21:17.394556+05:30"},{"city":"Silchar","state":"Assam","latitude":24.8333,"longitude":92.7789,"temp":32.8,"humidity":63,"rain":0.0,"pressure":997.7,"uv_index":8.95,"wind_gusts":32.4,"aqi":117,"pm10":30.7,"pm2_5":22.2,"no2":1.1,"co":248.0,"o3":123.0,"so2":3.9,"mosquito_risk":3,"arthritis_risk":5,"migraine_risk":7,"frizz_risk":1,"updated_at":"2026-06-04T14:21:17.394562+05:30"},{"city":"Dibrugarh","state":"Assam","latitude":27.4728,"longitude":94.912,"temp":30.1,"humidity":72,"rain":0.0,"pressure":989.0,"uv_index":7.35,"wind_gusts":33.5,"aqi":91,"pm10":32.5,"pm2_5":26.9,"no2":0.8,"co":290.0,"o3":149.0,"so2":3.0,"mosquito_risk":3,"arthritis_risk":5,"migraine_risk":7,"frizz_risk":1,"updated_at":"2026-06-04T14:21:17.394569+05:30"}]