[{"city":"Delhi","state":"Delhi","latitude":28.6139,"longitude":77.209,"temp":38.9,"humidity":33,"rain":0.0,"pressure":976.7,"uv_index":7.75,"wind_gusts":26.3,"aqi":164,"pm10":195.1,"pm2_5":52.2,"no2":6.9,"co":284.0,"o3":163.0,"so2":11.7,"mosquito_risk":0,"arthritis_risk":5,"migraine_risk":10,"frizz_risk":1,"updated_at":"2026-06-26T16:41:06.018497+05:30"},{"city":"Mumbai","state":"Maharashtra","latitude":19.076,"longitude":72.8777,"temp":29.4,"humidity":77,"rain":0.0,"pressure":1004.9,"uv_index":7.25,"wind_gusts":34.2,"aqi":63,"pm10":33.6,"pm2_5":19.4,"no2":7.3,"co":166.0,"o3":87.0,"so2":9.2,"mosquito_risk":7,"arthritis_risk":5,"migraine_risk":4,"frizz_risk":1,"updated_at":"2026-06-26T16:41:06.018530+05:30"},{"city":"Bangalore","state":"Karnataka","latitude":12.9716,"longitude":77.5946,"temp":26.2,"humidity":69,"rain":0.0,"pressure":909.3,"uv_index":8.75,"wind_gusts":42.1,"aqi":30,"pm10":8.9,"pm2_5":6.6,"no2":11.4,"co":358.0,"o3":55.0,"so2":3.2,"mosquito_risk":7,"arthritis_risk":5,"migraine_risk":7,"frizz_risk":1,"updated_at":"2026-06-26T16:41:06.018540+05:30"},{"city":"Hyderabad","state":"Telangana","latitude":17.385,"longitude":78.4867,"temp":29.7,"humidity":59,"rain":0.0,"pressure":948.8,"uv_index":7.2,"wind_gusts":37.1,"aqi":59,"pm10":40.3,"pm2_5":20.9,"no2":4.4,"co":514.0,"o3":105.0,"so2":5.0,"mosquito_risk":4,"arthritis_risk":5,"migraine_risk":7,"frizz_risk":1,"updated_at":"2026-06-26T16:41:06.018546+05:30"},{"city":"Chennai","state":"Tamil Nadu","latitude":13.0827,"longitude":80.2707,"temp":32.1,"humidity":61,"rain":0.0,"pressure":1001.7,"uv_index":8.7,"wind_gusts":54.0,"aqi":59,"pm10":30.2,"pm2_5":19.6,"no2":9.1,"co":283.0,"o3":88.0,"so2":5.9,"mosquito_risk":3,"arthritis_risk":5,"migraine_risk":4,"frizz_risk":1,"updated_at":"2026-06-26T16:41:06.018552+05:30"},{"city":"Kolkata","state":"West Bengal","latitude":22.5726,"longitude":88.3639,"temp":32.3,"humidity":69,"rain":0.0,"pressure":1000.2,"uv_index":8.9,"wind_gusts":33.1,"aqi":102,"pm10":26.6,"pm2_5":20.0,"no2":6.0,"co":454.0,"o3":101.0,"so2":7.6,"mosquito_risk":3,"arthritis_risk":5,"migraine_risk":4,"frizz_risk":1,"updated_at":"2026-06-26T16:41:06.018557+05:30"},{"city":"Pune","state":"Maharashtra","latitude":18.5204,"longitude":73.8567,"temp":28.3,"humidity":65,"rain":0.0,"pressure":944.6,"uv_index":7.45,"wind_gusts":38.2,"aqi":41,"pm10":29.7,"pm2_5":13.9,"no2":4.1,"co":147.0,"o3":89.0,"so2":6.2,"mosquito_risk":7,"arthritis_risk":5,"migraine_risk":7,"frizz_risk":1,"updated_at":"2026-06-26T16:41:06.018561+05:30"},{"city":"Ahmedabad","state":"Gujarat","latitude":23.0225,"longitude":72.5714,"temp":39.5,"humidity":25,"rain":0.1,"pressure":995.4,"uv_index":8.05,"wind_gusts":35.6,"aqi":70,"pm10":66.6,"pm2_5":22.4,"no2":1.3,"co":140.0,"o3":94.0,"so2":2.2,"mosquito_risk":3,"arthritis_risk":5,"migraine_risk":10,"frizz_risk":1,"updated_at":"2026-06-26T16:41:06.018566+05:30"},{"city":"Jaipur","state":"Rajasthan","latitude":26.9124,"longitude":75.7873,"temp":36.8,"humidity":36,"rain":0.1,"pressure":955.0,"uv_index":8.2,"wind_gusts":28.1,"aqi":100,"pm10":87.8,"pm2_5":25.7,"no2":0.2,"co":135.0,"o3":110.0,"so2":2.0,"mosquito_risk":3,"arthritis_risk":5,"migraine_risk":10,"frizz_risk":1,"updated_at":"2026-06-26T16:41:06.018574+05:30"},{"city":"Lucknow","state":"Uttar Pradesh","latitude":26.8467,"longitude":80.9462,"temp":39.9,"humidity":32,"rain":0.0,"pressure":986.0,"uv_index":8.3,"wind_gusts":29.9,"aqi":123,"pm10":100.1,"pm2_5":39.0,"no2":1.6,"co":196.0,"o3":155.0,"so2":6.2,"mosquito_risk":0,"arthritis_risk":5,"migraine_risk":10,"frizz_risk":1,"updated_at":"2026-06-26T16:41:06.018580+05:30"},{"city":"Kanpur","state":"Uttar Pradesh","latitude":26.4499,"longitude":80.3319,"temp":36.4,"humidity":45,"rain":0.1,"pressure":985.0,"uv_index":8.3,"wind_gusts":27.0,"aqi":120,"pm10":150.4,"pm2_5":45.8,"no2":1.7,"co":179.0,"o3":156.0,"so2":5.7,"mosquito_risk":3,"arthritis_risk":5,"migraine_risk":10,"frizz_risk":1,"updated_at":"2026-06-26T16:41:06.018584+05:30"},{"city":"Chandigarh","state":"Chandigarh","latitude":30.7333,"longitude":76.7794,"temp":36.6,"humidity":40,"rain":0.0,"pressure":963.6,"uv_index":7.8,"wind_gusts":24.8,"aqi":163,"pm10":154.6,"pm2_5":49.4,"no2":0.2,"co":281.0,"o3":166.0,"so2":7.5,"mosquito_risk":0,"arthritis_risk":5,"migraine_risk":10,"frizz_risk":1,"updated_at":"2026-06-26T16:41:06.018588+05:30"},{"city":"Srinagar","state":"Jammu and Kashmir","latitude":34.0837,"longitude":74.7973,"temp":29.0,"humidity":39,"rain":0.0,"pressure":842.2,"uv_index":9.05,"wind_gusts":20.5,"aqi":116,"pm10":16.8,"pm2_5":14.0,"no2":2.6,"co":222.0,"o3":147.0,"so2":2.5,"mosquito_risk":4,"arthritis_risk":5,"migraine_risk":7,"frizz_risk":0,"updated_at":"2026-06-26T16:41:06.018592+05:30"},{"city":"Jammu","state":"Jammu and Kashmir","latitude":32.7266,"longitude":74.857,"temp":37.6,"humidity":35,"rain":0.0,"pressure":967.4,"uv_index":8.65,"wind_gusts":25.6,"aqi":147,"pm10":95.7,"pm2_5":41.1,"no2":0.1,"co":234.0,"o3":167.0,"so2":4.1,"mosquito_risk":0,"arthritis_risk":5,"migraine_risk":10,"frizz_risk":1,"updated_at":"2026-06-26T16:41:06.018596+05:30"},{"city":"Amritsar","state":"Punjab","latitude":31.634,"longitude":74.8723,"temp":34.1,"humidity":55,"rain":0.0,"pressure":975.3,"uv_index":8.45,"wind_gusts":22.0,"aqi":153,"pm10":89.4,"pm2_5":47.3,"no2":0.7,"co":244.0,"o3":192.0,"so2":8.4,"mosquito_risk":0,"arthritis_risk":5,"migraine_risk":7,"frizz_risk":1,"updated_at":"2026-06-26T16:41:06.018600+05:30"},{"city":"Ludhiana","state":"Punjab","latitude":30.901,"longitude":75.8573,"temp":37.6,"humidity":36,"rain":0.0,"pressure":973.0,"uv_index":7.6,"wind_gusts":26.3,"aqi":158,"pm10":156.5,"pm2_5":49.2,"no2":0.7,"co":286.0,"o3":150.0,"so2":5.2,"mosquito_risk":0,"arthritis_risk":5,"migraine_risk":10,"frizz_risk":1,"updated_at":"2026-06-26T16:41:06.018603+05:30"},{"city":"Jalandhar","state":"Punjab","latitude":31.326,"longitude":75.5762,"temp":36.2,"humidity":41,"rain":0.1,"pressure":974.3,"uv_index":8.25,"wind_gusts":27.4,"aqi":150,"pm10":95.0,"pm2_5":39.6,"no2":0.0,"co":308.0,"o3":153.0,"so2":4.1,"mosquito_risk":3,"arthritis_risk":5,"migraine_risk":10,"frizz_risk":1,"updated_at":"2026-06-26T16:41:06.018607+05:30"},{"city":"Dehradun","state":"Uttarakhand","latitude":30.6284,"longitude":78.0322,"temp":21.1,"humidity":81,"rain":0.1,"pressure":830.5,"uv_index":7.65,"wind_gusts":32.4,"aqi":111,"pm10":67.5,"pm2_5":25.3,"no2":1.8,"co":243.0,"o3":140.0,"so2":2.2,"mosquito_risk":6,"arthritis_risk":5,"migraine_risk":7,"frizz_risk":1,"updated_at":"2026-06-26T16:41:06.018612+05:30"},{"city":"Shimla","state":"Himachal Pradesh","latitude":31.1048,"longitude":77.1734,"temp":18.6,"humidity":86,"rain":0.1,"pressure":785.3,"uv_index":7.7,"wind_gusts":31.0,"aqi":128,"pm10":87.5,"pm2_5":32.6,"no2":3.5,"co":267.0,"o3":153.0,"so2":6.4,"mosquito_risk":6,"arthritis_risk":10,"migraine_risk":7,"frizz_risk":1,"updated_at":"2026-06-26T16:41:06.018616+05:30"},{"city":"Manali","state":"Himachal Pradesh","latitude":32.2396,"longitude":77.1887,"temp":23.9,"humidity":66,"rain":0.0,"pressure":820.1,"uv_index":7.35,"wind_gusts":35.3,"aqi":66,"pm10":35.6,"pm2_5":29.2,"no2":37.6,"co":187.0,"o3":102.0,"so2":0.5,"mosquito_risk":3,"arthritis_risk":5,"migraine_risk":7,"frizz_risk":1,"updated_at":"2026-06-26T16:41:06.018621+05:30"},{"city":"Gurgaon","state":"Haryana","latitude":28.4595,"longitude":77.0266,"temp":38.8,"humidity":33,"rain":0.0,"pressure":975.2,"uv_index":7.85,"wind_gusts":26.3,"aqi":152,"pm10":438.7,"pm2_5":72.2,"no2":5.1,"co":165.0,"o3":152.0,"so2":8.1,"mosquito_risk":0,"arthritis_risk":5,"migraine_risk":10,"frizz_risk":1,"updated_at":"2026-06-26T16:41:06.018625+05:30"},{"city":"Noida","state":"Uttar Pradesh","latitude":28.5355,"longitude":77.391,"temp":34.1,"humidity":64,"rain":0.2,"pressure":978.2,"uv_index":7.8,"wind_gusts":22.7,"aqi":152,"pm10":438.7,"pm2_5":72.2,"no2":5.1,"co":347.0,"o3":152.0,"so2":8.1,"mosquito_risk":6,"arthritis_risk":5,"migraine_risk":7,"frizz_risk":1,"updated_at":"2026-06-26T16:41:06.018628+05:30"},{"city":"Ghaziabad","state":"Uttar Pradesh","latitude":28.6692,"longitude":77.4538,"temp":35.1,"humidity":50,"rain":0.1,"pressure":976.7,"uv_index":7.8,"wind_gusts":24.5,"aqi":196,"pm10":139.7,"pm2_5":49.7,"no2":5.6,"co":309.0,"o3":223.0,"so2":20.6,"mosquito_risk":3,"arthritis_risk":5,"migraine_risk":10,"frizz_risk":1,"updated_at":"2026-06-26T16:41:06.018632+05:30"},{"city":"Faridabad","state":"Haryana","latitude":28.4089,"longitude":77.3178,"temp":36.9,"humidity":41,"rain":0.1,"pressure":977.5,"uv_index":7.8,"wind_gusts":28.8,"aqi":152,"pm10":438.7,"pm2_5":72.2,"no2":5.1,"co":201.0,"o3":152.0,"so2":8.1,"mosquito_risk":3,"arthritis_risk":5,"migraine_risk":10,"frizz_risk":1,"updated_at":"2026-06-26T16:41:06.018636+05:30"},{"city":"Meerut","state":"Uttar Pradesh","latitude":28.9845,"longitude":77.7064,"temp":37.7,"humidity":38,"rain":0.0,"pressure":975.4,"uv_index":7.6,"wind_gusts":25.2,"aqi":196,"pm10":139.7,"pm2_5":49.7,"no2":5.6,"co":223.0,"o3":223.0,"so2":20.6,"mosquito_risk":0,"arthritis_risk":5,"migraine_risk":10,"frizz_risk":1,"updated_at":"2026-06-26T16:41:06.018640+05:30"},{"city":"Agra","state":"Uttar Pradesh","latitude":27.1767,"longitude":78.0081,"temp":38.9,"humidity":34,"rain":0.0,"pressure":981.4,"uv_index":8.1,"wind_gusts":30.6,"aqi":159,"pm10":156.5,"pm2_5":36.2,"no2":0.2,"co":163.0,"o3":135.0,"so2":2.4,"mosquito_risk":0,"arthritis_risk":5,"migraine_risk":10,"frizz_risk":1,"updated_at":"2026-06-26T16:41:06.018643+05:30"},{"city":"Varanasi","state":"Uttar Pradesh","latitude":25.3176,"longitude":82.9739,"temp":38.0,"humidity":40,"rain":0.0,"pressure":990.6,"uv_index":8.45,"wind_gusts":36.7,"aqi":154,"pm10":40.7,"pm2_5":28.3,"no2":1.0,"co":346.0,"o3":177.0,"so2":7.6,"mosquito_risk":0,"arthritis_risk":5,"migraine_risk":10,"frizz_risk":1,"updated_at":"2026-06-26T16:41:06.018647+05:30"},{"city":"Prayagraj","state":"Uttar Pradesh","latitude":25.4358,"longitude":81.8463,"temp":38.4,"humidity":38,"rain":0.0,"pressure":989.0,"uv_index":8.65,"wind_gusts":31.3,"aqi":147,"pm10":61.0,"pm2_5":33.3,"no2":0.9,"co":185.0,"o3":168.0,"so2":7.3,"mosquito_risk":0,"arthritis_risk":5,"migraine_risk":10,"frizz_risk":1,"updated_at":"2026-06-26T16:41:06.018651+05:30"},{"city":"Gorakhpur","state":"Uttar Pradesh","latitude":26.7606,"longitude":83.3732,"temp":36.8,"humidity":44,"rain":0.0,"pressure":990.5,"uv_index":8.7,"wind_gusts":25.2,"aqi":161,"pm10":87.8,"pm2_5":43.9,"no2":0.8,"co":267.0,"o3":173.0,"so2":7.1,"mosquito_risk":0,"arthritis_risk":5,"migraine_risk":10,"frizz_risk":1,"updated_at":"2026-06-26T16:41:06.018655+05:30"},{"city":"Bareilly","state":"Uttar Pradesh","latitude":28.367,"longitude":79.4304,"temp":38.8,"humidity":35,"rain":0.0,"pressure":980.1,"uv_index":8.1,"wind_gusts":18.7,"aqi":177,"pm10":103.8,"pm2_5":44.4,"no2":1.9,"co":205.0,"o3":189.0,"so2":11.1,"mosquito_risk":0,"arthritis_risk":5,"migraine_risk":10,"frizz_risk":1,"updated_at":"2026-06-26T16:41:06.018661+05:30"},{"city":"Aligarh","state":"Uttar Pradesh","latitude":27.8974,"longitude":78.088,"temp":38.0,"humidity":39,"rain":0.0,"pressure":979.2,"uv_index":7.95,"wind_gusts":22.7,"aqi":155,"pm10":181.6,"pm2_5":42.6,"no2":1.6,"co":184.0,"o3":144.0,"so2":6.5,"mosquito_risk":0,"arthritis_risk":5,"migraine_risk":10,"frizz_risk":1,"updated_at":"2026-06-26T16:41:06.018664+05:30"},{"city":"Moradabad","state":"Uttar Pradesh","latitude":28.8386,"longitude":78.7733,"temp":38.2,"humidity":36,"rain":0.0,"pressure":977.3,"uv_index":7.95,"wind_gusts":27.4,"aqi":172,"pm10":132.7,"pm2_5":47.5,"no2":1.2,"co":205.0,"o3":181.0,"so2":11.1,"mosquito_risk":0,"arthritis_risk":5,"migraine_risk":10,"frizz_risk":1,"updated_at":"2026-06-26T16:41:06.018668+05:30"},{"city":"Saharanpur","state":"Uttar Pradesh","latitude":29.9637,"longitude":77.546,"temp":36.6,"humidity":39,"rain":0.0,"pressure":970.3,"uv_index":7.55,"wind_gusts":23.0,"aqi":153,"pm10":252.4,"pm2_5":66.4,"no2":1.4,"co":235.0,"o3":168.0,"so2":13.3,"mosquito_risk":0,"arthritis_risk":5,"migraine_risk":10,"frizz_risk":1,"updated_at":"2026-06-26T16:41:06.018671+05:30"},{"city":"Jhansi","state":"Uttar Pradesh","latitude":25.4484,"longitude":78.5685,"temp":37.6,"humidity":37,"rain":0.0,"pressure":972.2,"uv_index":8.35,"wind_gusts":31.3,"aqi":75,"pm10":122.5,"pm2_5":41.6,"no2":1.3,"co":153.0,"o3":130.0,"so2":7.4,"mosquito_risk":0,"arthritis_risk":5,"migraine_risk":10,"frizz_risk":1,"updated_at":"2026-06-26T16:41:09.308774+05:30"},{"city":"Surat","state":"Gujarat","latitude":21.1702,"longitude":72.8311,"temp":32.6,"humidity":63,"rain":0.0,"pressure":1001.8,"uv_index":7.25,"wind_gusts":43.6,"aqi":88,"pm10":59.1,"pm2_5":29.8,"no2":13.9,"co":242.0,"o3":53.0,"so2":37.8,"mosquito_risk":3,"arthritis_risk":5,"migraine_risk":4,"frizz_risk":1,"updated_at":"2026-06-26T16:41:09.308798+05:30"},{"city":"Vadodara","state":"Gujarat","latitude":22.3072,"longitude":73.1812,"temp":39.0,"humidity":24,"rain":0.0,"pressure":997.8,"uv_index":8.0,"wind_gusts":42.8,"aqi":80,"pm10":82.4,"pm2_5":27.3,"no2":1.7,"co":150.0,"o3":102.0,"so2":2.6,"mosquito_risk":0,"arthritis_risk":5,"migraine_risk":10,"frizz_risk":0,"updated_at":"2026-06-26T16:41:09.308804+05:30"},{"city":"Rajkot","state":"Gujarat","latitude":22.3039,"longitude":70.8022,"temp":35.8,"humidity":40,"rain":0.1,"pressure":988.2,"uv_index":7.55,"wind_gusts":42.1,"aqi":64,"pm10":57.7,"pm2_5":20.7,"no2":1.3,"co":109.0,"o3":96.0,"so2":4.2,"mosquito_risk":3,"arthritis_risk":5,"migraine_risk":10,"frizz_risk":1,"updated_at":"2026-06-26T16:41:09.308809+05:30"},{"city":"Thane","state":"Maharashtra","latitude":19.2183,"longitude":72.9781,"temp":30.2,"humidity":73,"rain":0.0,"pressure":1004.1,"uv_index":6.5,"wind_gusts":33.5,"aqi":63,"pm10":33.6,"pm2_5":19.4,"no2":7.3,"co":166.0,"o3":87.0,"so2":9.2,"mosquito_risk":3,"arthritis_risk":5,"migraine_risk":4,"frizz_risk":1,"updated_at":"2026-06-26T16:41:09.308814+05:30"},{"city":"Nagpur","state":"Maharashtra","latitude":21.1458,"longitude":79.0882,"temp":27.7,"humidity":86,"rain":0.4,"pressure":968.4,"uv_index":8.85,"wind_gusts":29.2,"aqi":78,"pm10":39.3,"pm2_5":31.1,"no2":12.9,"co":265.0,"o3":129.0,"so2":38.5,"mosquito_risk":10,"arthritis_risk":5,"migraine_risk":7,"frizz_risk":1,"updated_at":"2026-06-26T16:41:09.308818+05:30"},{"city":"Nashik","state":"Maharashtra","latitude":19.9975,"longitude":73.7898,"temp":28.7,"humidity":69,"rain":0.1,"pressure":941.9,"uv_index":7.9,"wind_gusts":38.9,"aqi":56,"pm10":33.8,"pm2_5":14.5,"no2":1.3,"co":130.0,"o3":78.0,"so2":1.0,"mosquito_risk":10,"arthritis_risk":5,"migraine_risk":7,"frizz_risk":1,"updated_at":"2026-06-26T16:41:09.308823+05:30"},{"city":"Aurangabad","state":"Maharashtra","latitude":19.8762,"longitude":75.3433,"temp":29.0,"humidity":63,"rain":0.0,"pressure":940.0,"uv_index":8.7,"wind_gusts":36.0,"aqi":61,"pm10":60.8,"pm2_5":24.0,"no2":1.4,"co":125.0,"o3":90.0,"so2":2.0,"mosquito_risk":7,"arthritis_risk":5,"migraine_risk":7,"frizz_risk":1,"updated_at":"2026-06-26T16:41:09.308827+05:30"},{"city":"Solapur","state":"Maharashtra","latitude":17.6599,"longitude":75.9064,"temp":33.7,"humidity":42,"rain":0.0,"pressure":952.8,"uv_index":5.65,"wind_gusts":35.3,"aqi":50,"pm10":60.3,"pm2_5":22.2,"no2":1.3,"co":118.0,"o3":98.0,"so2":2.7,"mosquito_risk":0,"arthritis_risk":5,"migraine_risk":3,"frizz_risk":1,"updated_at":"2026-06-26T16:41:09.308832+05:30"},{"city":"Kolhapur","state":"Maharashtra","latitude":16.705,"longitude":74.2433,"temp":27.0,"humidity":68,"rain":0.0,"pressure":945.1,"uv_index":8.2,"wind_gusts":42.8,"aqi":32,"pm10":14.8,"pm2_5":8.7,"no2":3.2,"co":120.0,"o3":69.0,"so2":1.8,"mosquito_risk":7,"arthritis_risk":5,"migraine_risk":7,"frizz_risk":1,"updated_at":"2026-06-26T16:41:09.308835+05:30"},{"city":"Goa","state":"Goa","latitude":15.2993,"longitude":74.124,"temp":28.1,"humidity":82,"rain":0.0,"pressure":995.7,"uv_index":6.55,"wind_gusts":31.0,"aqi":52,"pm10":14.6,"pm2_5":7.7,"no2":1.1,"co":116.0,"o3":60.0,"so2":1.2,"mosquito_risk":7,"arthritis_risk":5,"migraine_risk":7,"frizz_risk":1,"updated_at":"2026-06-26T16:41:09.308840+05:30"},{"city":"Jodhpur","state":"Rajasthan","latitude":26.2389,"longitude":73.0243,"temp":38.6,"humidity":36,"rain":0.0,"pressure":977.0,"uv_index":8.4,"wind_gusts":33.5,"aqi":98,"pm10":113.6,"pm2_5":29.7,"no2":0.8,"co":115.0,"o3":93.0,"so2":1.8,"mosquito_risk":0,"arthritis_risk":5,"migraine_risk":10,"frizz_risk":1,"updated_at":"2026-06-26T16:41:09.308844+05:30"},{"city":"Udaipur","state":"Rajasthan","latitude":24.5854,"longitude":73.7125,"temp":30.1,"humidity":63,"rain":0.1,"pressure":942.4,"uv_index":7.85,"wind_gusts":31.3,"aqi":77,"pm10":51.1,"pm2_5":19.2,"no2":0.3,"co":113.0,"o3":89.0,"so2":1.7,"mosquito_risk":6,"arthritis_risk":5,"migraine_risk":7,"frizz_risk":1,"updated_at":"2026-06-26T16:41:09.308847+05:30"},{"city":"Kota","state":"Rajasthan","latitude":25.2138,"longitude":75.8648,"temp":37.2,"humidity":39,"rain":0.0,"pressure":973.3,"uv_index":7.6,"wind_gusts":28.8,"aqi":83,"pm10":72.2,"pm2_5":30.5,"no2":1.2,"co":149.0,"o3":114.0,"so2":5.1,"mosquito_risk":0,"arthritis_risk":5,"migraine_risk":10,"frizz_risk":1,"updated_at":"2026-06-26T16:41:09.308851+05:30"},{"city":"Bikaner","state":"Rajasthan","latitude":28.0229,"longitude":73.3119,"temp":40.0,"humidity":29,"rain":0.0,"pressure":975.6,"uv_index":8.45,"wind_gusts":31.0,"aqi":108,"pm10":180.7,"pm2_5":47.0,"no2":0.1,"co":147.0,"o3":96.0,"so2":3.0,"mosquito_risk":0,"arthritis_risk":5,"migraine_risk":10,"frizz_risk":1,"updated_at":"2026-06-26T16:41:09.308855+05:30"},{"city":"Ajmer","state":"Rajasthan","latitude":26.4499,"longitude":74.6399,"temp":35.3,"humidity":40,"rain":0.0,"pressure":949.9,"uv_index":8.25,"wind_gusts":31.7,"aqi":85,"pm10":72.4,"pm2_5":25.7,"no2":0.4,"co":130.0,"o3":99.0,"so2":1.6,"mosquito_risk":0,"arthritis_risk":5,"migraine_risk":10,"frizz_risk":1,"updated_at":"2026-06-26T16:41:09.308859+05:30"},{"city":"Gwalior","state":"Madhya Pradesh","latitude":26.2183,"longitude":78.1828,"temp":37.8,"humidity":38,"rain":0.0,"pressure":977.3,"uv_index":8.25,"wind_gusts":41.4,"aqi":74,"pm10":62.4,"pm2_5":23.8,"no2":0.0,"co":143.0,"o3":112.0,"so2":2.0,"mosquito_risk":0,"arthritis_risk":5,"migraine_risk":10,"frizz_risk":1,"updated_at":"2026-06-26T16:41:09.308863+05:30"},{"city":"Indore","state":"Madhya Pradesh","latitude":22.7196,"longitude":75.8577,"temp":27.1,"humidity":81,"rain":0.1,"pressure":944.4,"uv_index":7.55,"wind_gusts":48.6,"aqi":107,"pm10":57.4,"pm2_5":27.8,"no2":3.9,"co":371.0,"o3":92.0,"so2":2.5,"mosquito_risk":10,"arthritis_risk":5,"migraine_risk":7,"frizz_risk":1,"updated_at":"2026-06-26T16:41:09.308867+05:30"},{"city":"Bhopal","state":"Madhya Pradesh","latitude":23.2599,"longitude":77.4126,"temp":31.1,"humidity":60,"rain":0.0,"pressure":949.2,"uv_index":8.6,"wind_gusts":28.1,"aqi":86,"pm10":48.1,"pm2_5":25.7,"no2":2.0,"co":243.0,"o3":113.0,"so2":2.4,"mosquito_risk":0,"arthritis_risk":5,"migraine_risk":7,"frizz_risk":1,"updated_at":"2026-06-26T16:41:09.308871+05:30"},{"city":"Jabalpur","state":"Madhya Pradesh","latitude":23.1815,"longitude":79.9864,"temp":30.5,"humidity":73,"rain":0.0,"pressure":956.9,"uv_index":8.85,"wind_gusts":38.5,"aqi":64,"pm10":29.5,"pm2_5":20.3,"no2":2.0,"co":188.0,"o3":119.0,"so2":2.4,"mosquito_risk":3,"arthritis_risk":5,"migraine_risk":7,"frizz_risk":1,"updated_at":"2026-06-26T16:41:09.308875+05:30"},{"city":"Ujjain","state":"Madhya Pradesh","latitude":23.1765,"longitude":75.7885,"temp":26.7,"humidity":87,"rain":0.5,"pressure":949.7,"uv_index":6.75,"wind_gusts":38.5,"aqi":97,"pm10":52.3,"pm2_5":25.0,"no2":2.2,"co":227.0,"o3":89.0,"so2":2.3,"mosquito_risk":10,"arthritis_risk":5,"migraine_risk":7,"frizz_risk":1,"updated_at":"2026-06-26T16:41:09.308880+05:30"},{"city":"Visakhapatnam","state":"Andhra Pradesh","latitude":17.6868,"longitude":83.2185,"temp":31.6,"humidity":74,"rain":0.1,"pressure":997.6,"uv_index":8.65,"wind_gusts":34.2,"aqi":89,"pm10":36.3,"pm2_5":27.5,"no2":16.9,"co":404.0,"o3":111.0,"so2":44.4,"mosquito_risk":6,"arthritis_risk":5,"migraine_risk":7,"frizz_risk":1,"updated_at":"2026-06-26T16:41:09.308883+05:30"},{"city":"Vijayawada","state":"Andhra Pradesh","latitude":16.5062,"longitude":80.648,"temp":30.7,"humidity":73,"rain":0.1,"pressure":997.4,"uv_index":8.6,"wind_gusts":41.0,"aqi":80,"pm10":19.4,"pm2_5":15.9,"no2":2.9,"co":197.0,"o3":106.0,"so2":3.5,"mosquito_risk":6,"arthritis_risk":5,"migraine_risk":7,"frizz_risk":1,"updated_at":"2026-06-26T16:41:09.308887+05:30"},{"city":"Guntur","state":"Andhra Pradesh","latitude":16.3067,"longitude":80.4365,"temp":31.7,"humidity":67,"rain":0.1,"pressure":998.6,"uv_index":8.0,"wind_gusts":40.3,"aqi":81,"pm10":21.1,"pm2_5":16.2,"no2":3.3,"co":172.0,"o3":104.0,"so2":4.0,"mosquito_risk":6,"arthritis_risk":5,"migraine_risk":7,"frizz_risk":1,"updated_at":"2026-06-26T16:41:09.308890+05:30"},{"city":"Nellore","state":"Andhra Pradesh","latitude":14.4426,"longitude":79.9865,"temp":36.3,"humidity":41,"rain":0.0,"pressure":999.9,"uv_index":7.95,"wind_gusts":38.2,"aqi":51,"pm10":28.1,"pm2_5":18.6,"no2":4.4,"co":150.0,"o3":105.0,"so2":3.9,"mosquito_risk":0,"arthritis_risk":5,"migraine_risk":10,"frizz_risk":1,"updated_at":"2026-06-26T16:41:09.308895+05:30"},{"city":"Kurnool","state":"Andhra Pradesh","latitude":15.8281,"longitude":78.0373,"temp":34.0,"humidity":46,"rain":0.0,"pressure":971.9,"uv_index":6.5,"wind_gusts":37.1,"aqi":44,"pm10":31.1,"pm2_5":16.0,"no2":1.7,"co":138.0,"o3":114.0,"so2":7.6,"mosquito_risk":0,"arthritis_risk":5,"migraine_risk":7,"frizz_risk":1,"updated_at":"2026-06-26T16:41:09.308899+05:30"},{"city":"Kakinada","state":"Andhra Pradesh","latitude":16.9891,"longitude":82.2475,"temp":31.6,"humidity":66,"rain":0.0,"pressure":1001.4,"uv_index":8.3,"wind_gusts":32.0,"aqi":76,"pm10":36.7,"pm2_5":25.6,"no2":2.0,"co":238.0,"o3":131.0,"so2":2.9,"mosquito_risk":3,"arthritis_risk":5,"migraine_risk":4,"frizz_risk":1,"updated_at":"2026-06-26T16:41:09.308903+05:30"},{"city":"Tirupati","state":"Andhra Pradesh","latitude":13.6288,"longitude":79.4192,"temp":34.8,"humidity":43,"rain":0.1,"pressure":985.5,"uv_index":8.4,"wind_gusts":37.4,"aqi":47,"pm10":17.7,"pm2_5":9.4,"no2":8.9,"co":161.0,"o3":66.0,"so2":1.7,"mosquito_risk":3,"arthritis_risk":5,"migraine_risk":7,"frizz_risk":1,"updated_at":"2026-06-26T16:41:09.308907+05:30"},{"city":"Warangal","state":"Telangana","latitude":17.9689,"longitude":79.5941,"temp":31.0,"humidity":64,"rain":0.0,"pressure":973.5,"uv_index":7.6,"wind_gusts":35.3,"aqi":70,"pm10":32.9,"pm2_5":22.1,"no2":3.8,"co":204.0,"o3":101.0,"so2":3.7,"mosquito_risk":3,"arthritis_risk":5,"migraine_risk":7,"frizz_risk":1,"updated_at":"2026-06-26T16:41:09.308910+05:30"},{"city":"Nizamabad","state":"Telangana","latitude":18.6725,"longitude":78.0941,"temp":27.6,"humidity":85,"rain":0.2,"pressure":960.3,"uv_index":6.15,"wind_gusts":36.4,"aqi":71,"pm10":39.5,"pm2_5":22.3,"no2":2.4,"co":177.0,"o3":98.0,"so2":2.8,"mosquito_risk":10,"arthritis_risk":5,"migraine_risk":7,"frizz_risk":1,"updated_at":"2026-06-26T16:41:09.308914+05:30"},{"city":"Mysore","state":"Karnataka","latitude":12.2958,"longitude":76.6396,"temp":27.0,"humidity":70,"rain":0.0,"pressure":926.4,"uv_index":9.05,"wind_gusts":48.2,"aqi":30,"pm10":8.9,"pm2_5":5.3,"no2":3.1,"co":135.0,"o3":74.0,"so2":1.4,"mosquito_risk":7,"arthritis_risk":5,"migraine_risk":7,"frizz_risk":1,"updated_at":"2026-06-26T16:41:09.308918+05:30"},{"city":"Mangalore","state":"Karnataka","latitude":12.9141,"longitude":74.856,"temp":28.0,"humidity":78,"rain":0.0,"pressure":1005.3,"uv_index":8.45,"wind_gusts":35.3,"aqi":46,"pm10":15.3,"pm2_5":7.9,"no2":1.8,"co":98.0,"o3":64.0,"so2":1.8,"mosquito_risk":7,"arthritis_risk":5,"migraine_risk":4,"frizz_risk":1,"updated_at":"2026-06-26T16:41:09.308921+05:30"},{"city":"Hubli-Dharwad","state":"Karnataka","latitude":15.3647,"longitude":75.124,"temp":27.4,"humidity":68,"rain":0.1,"pressure":938.1,"uv_index":8.05,"wind_gusts":49.0,"aqi":28,"pm10":12.8,"pm2_5":6.2,"no2":2.4,"co":118.0,"o3":62.0,"so2":1.0,"mosquito_risk":10,"arthritis_risk":5,"migraine_risk":7,"frizz_risk":1,"updated_at":"2026-06-26T16:41:09.308925+05:30"},{"city":"Belgaum","state":"Karnataka","latitude":15.8497,"longitude":74.4977,"temp":26.1,"humidity":70,"rain":0.0,"pressure":923.2,"uv_index":7.95,"wind_gusts":48.2,"aqi":26,"pm10":12.8,"pm2_5":6.7,"no2":2.2,"co":110.0,"o3":59.0,"so2":1.1,"mosquito_risk":7,"arthritis_risk":5,"migraine_risk":7,"frizz_risk":1,"updated_at":"2026-06-26T16:41:12.718509+05:30"},{"city":"Coimbatore","state":"Tamil Nadu","latitude":11.0168,"longitude":76.9558,"temp":29.6,"humidity":63,"rain":0.0,"pressure":959.0,"uv_index":8.35,"wind_gusts":49.3,"aqi":34,"pm10":7.3,"pm2_5":5.1,"no2":2.9,"co":159.0,"o3":65.0,"so2":1.8,"mosquito_risk":7,"arthritis_risk":5,"migraine_risk":7,"frizz_risk":1,"updated_at":"2026-06-26T16:41:12.718529+05:30"},{"city":"Madurai","state":"Tamil Nadu","latitude":9.9252,"longitude":78.1198,"temp":34.4,"humidity":44,"rain":0.1,"pressure":989.4,"uv_index":8.15,"wind_gusts":32.8,"aqi":71,"pm10":16.9,"pm2_5":8.9,"no2":1.4,"co":217.0,"o3":87.0,"so2":1.7,"mosquito_risk":3,"arthritis_risk":5,"migraine_risk":7,"frizz_risk":1,"updated_at":"2026-06-26T16:41:12.718535+05:30"},{"city":"Trichy","state":"Tamil Nadu","latitude":10.7905,"longitude":78.7047,"temp":36.5,"humidity":35,"rain":0.0,"pressure":994.8,"uv_index":7.95,"wind_gusts":37.8,"aqi":46,"pm10":17.4,"pm2_5":8.7,"no2":2.4,"co":129.0,"o3":81.0,"so2":1.8,"mosquito_risk":0,"arthritis_risk":5,"migraine_risk":10,"frizz_risk":1,"updated_at":"2026-06-26T16:41:12.718540+05:30"},{"city":"Salem","state":"Tamil Nadu","latitude":11.6643,"longitude":78.146,"temp":33.5,"humidity":46,"rain":0.1,"pressure":973.5,"uv_index":8.1,"wind_gusts":31.7,"aqi":65,"pm10":18.4,"pm2_5":10.1,"no2":3.9,"co":140.0,"o3":89.0,"so2":4.1,"mosquito_risk":3,"arthritis_risk":5,"migraine_risk":7,"frizz_risk":1,"updated_at":"2026-06-26T16:41:12.718544+05:30"},{"city":"Tirunelveli","state":"Tamil Nadu","latitude":8.7139,"longitude":77.7567,"temp":34.0,"humidity":45,"rain":0.0,"pressure":1000.0,"uv_index":8.7,"wind_gusts":51.8,"aqi":31,"pm10":10.7,"pm2_5":7.2,"no2":2.0,"co":111.0,"o3":71.0,"so2":1.3,"mosquito_risk":0,"arthritis_risk":5,"migraine_risk":4,"frizz_risk":1,"updated_at":"2026-06-26T16:41:12.718548+05:30"},{"city":"Vellore","state":"Tamil Nadu","latitude":12.9165,"longitude":79.1325,"temp":34.5,"humidity":43,"rain":0.0,"pressure":979.1,"uv_index":8.5,"wind_gusts":41.0,"aqi":50,"pm10":21.1,"pm2_5":11.8,"no2":7.5,"co":146.0,"o3":76.0,"so2":2.4,"mosquito_risk":0,"arthritis_risk":5,"migraine_risk":7,"frizz_risk":1,"updated_at":"2026-06-26T16:41:12.718552+05:30"},{"city":"Erode","state":"Tamil Nadu","latitude":11.341,"longitude":77.7172,"temp":32.8,"humidity":51,"rain":0.1,"pressure":985.2,"uv_index":8.15,"wind_gusts":47.2,"aqi":54,"pm10":12.3,"pm2_5":7.7,"no2":3.7,"co":163.0,"o3":86.0,"so2":1.9,"mosquito_risk":3,"arthritis_risk":5,"migraine_risk":7,"frizz_risk":1,"updated_at":"2026-06-26T16:41:12.718555+05:30"},{"city":"Kochi","state":"Kerala","latitude":9.9312,"longitude":76.2673,"temp":28.0,"humidity":79,"rain":0.0,"pressure":1007.9,"uv_index":7.9,"wind_gusts":39.6,"aqi":51,"pm10":10.5,"pm2_5":6.9,"no2":2.4,"co":120.0,"o3":65.0,"so2":2.3,"mosquito_risk":7,"arthritis_risk":5,"migraine_risk":4,"frizz_risk":1,"updated_at":"2026-06-26T16:41:12.718559+05:30"},{"city":"Thiruvananthapuram","state":"Kerala","latitude":8.5241,"longitude":76.9366,"temp":27.6,"humidity":82,"rain":0.0,"pressure":1006.8,"uv_index":8.45,"wind_gusts":50.0,"aqi":31,"pm10":14.0,"pm2_5":8.4,"no2":1.8,"co":107.0,"o3":65.0,"so2":1.0,"mosquito_risk":7,"arthritis_risk":5,"migraine_risk":4,"frizz_risk":1,"updated_at":"2026-06-26T16:41:12.718563+05:30"},{"city":"Kozhikode","state":"Kerala","latitude":11.2588,"longitude":75.7804,"temp":27.8,"humidity":80,"rain":0.0,"pressure":1006.8,"uv_index":8.05,"wind_gusts":31.3,"aqi":30,"pm10":11.3,"pm2_5":6.2,"no2":0.6,"co":96.0,"o3":61.0,"so2":0.9,"mosquito_risk":7,"arthritis_risk":5,"migraine_risk":4,"frizz_risk":1,"updated_at":"2026-06-26T16:41:12.718566+05:30"},{"city":"Thrissur","state":"Kerala","latitude":10.5276,"longitude":76.2144,"temp":28.0,"humidity":79,"rain":0.1,"pressure":1006.1,"uv_index":8.45,"wind_gusts":37.4,"aqi":50,"pm10":9.5,"pm2_5":6.4,"no2":2.7,"co":95.0,"o3":57.0,"so2":1.5,"mosquito_risk":10,"arthritis_risk":5,"migraine_risk":4,"frizz_risk":1,"updated_at":"2026-06-26T16:41:12.718571+05:30"},{"city":"Kannur","state":"Kerala","latitude":11.8745,"longitude":75.3704,"temp":28.5,"humidity":75,"rain":0.0,"pressure":1006.1,"uv_index":8.3,"wind_gusts":33.5,"aqi":37,"pm10":13.0,"pm2_5":7.1,"no2":1.1,"co":92.0,"o3":60.0,"so2":1.0,"mosquito_risk":7,"arthritis_risk":5,"migraine_risk":4,"frizz_risk":1,"updated_at":"2026-06-26T16:41:12.718574+05:30"},{"city":"Patna","state":"Bihar","latitude":25.5941,"longitude":85.1376,"temp":36.7,"humidity":48,"rain":0.0,"pressure":993.7,"uv_index":8.9,"wind_gusts":23.0,"aqi":173,"pm10":39.7,"pm2_5":28.6,"no2":3.2,"co":327.0,"o3":174.0,"so2":7.7,"mosquito_risk":0,"arthritis_risk":5,"migraine_risk":10,"frizz_risk":1,"updated_at":"2026-06-26T16:41:12.718578+05:30"},{"city":"Gaya","state":"Bihar","latitude":24.7914,"longitude":85.0002,"temp":36.5,"humidity":46,"rain":0.0,"pressure":987.4,"uv_index":8.5,"wind_gusts":20.2,"aqi":127,"pm10":27.2,"pm2_5":21.2,"no2":1.0,"co":246.0,"o3":161.0,"so2":6.6,"mosquito_risk":0,"arthritis_risk":5,"migraine_risk":10,"frizz_risk":1,"updated_at":"2026-06-26T16:41:12.718583+05:30"},{"city":"Muzaffarpur","state":"Bihar","latitude":26.1209,"longitude":85.3647,"temp":35.1,"humidity":56,"rain":0.0,"pressure":993.6,"uv_index":8.85,"wind_gusts":25.2,"aqi":199,"pm10":62.4,"pm2_5":45.3,"no2":8.0,"co":400.0,"o3":188.0,"so2":12.0,"mosquito_risk":0,"arthritis_risk":5,"migraine_risk":10,"frizz_risk":1,"updated_at":"2026-06-26T16:41:12.718586+05:30"},{"city":"Bhagalpur","state":"Bihar","latitude":25.2425,"longitude":87.0117,"temp":36.1,"humidity":52,"rain":0.0,"pressure":994.1,"uv_index":7.75,"wind_gusts":32.0,"aqi":148,"pm10":45.2,"pm2_5":32.9,"no2":6.2,"co":301.0,"o3":161.0,"so2":13.2,"mosquito_risk":0,"arthritis_risk":5,"migraine_risk":10,"frizz_risk":1,"updated_at":"2026-06-26T16:41:12.718589+05:30"},{"city":"Ranchi","state":"Jharkhand","latitude":23.3441,"longitude":85.3096,"temp":29.2,"humidity":70,"rain":0.0,"pressure":933.9,"uv_index":8.8,"wind_gusts":27.4,"aqi":151,"pm10":24.9,"pm2_5":23.7,"no2":3.1,"co":211.0,"o3":162.0,"so2":10.4,"mosquito_risk":7,"arthritis_risk":5,"migraine_risk":7,"frizz_risk":1,"updated_at":"2026-06-26T16:41:12.718593+05:30"},{"city":"Jamshedpur","state":"Jharkhand","latitude":22.8046,"longitude":86.2029,"temp":31.9,"humidity":69,"rain":0.0,"pressure":985.4,"uv_index":9.1,"wind_gusts":22.3,"aqi":156,"pm10":27.8,"pm2_5":25.9,"no2":5.6,"co":373.0,"o3":160.0,"so2":15.9,"mosquito_risk":3,"arthritis_risk":5,"migraine_risk":7,"frizz_risk":1,"updated_at":"2026-06-26T16:41:12.718597+05:30"},{"city":"Dhanbad","state":"Jharkhand","latitude":23.7957,"longitude":86.4304,"temp":34.0,"humidity":54,"rain":0.0,"pressure":974.3,"uv_index":8.85,"wind_gusts":31.0,"aqi":165,"pm10":54.6,"pm2_5":52.9,"no2":18.5,"co":790.0,"o3":207.0,"so2":69.9,"mosquito_risk":0,"arthritis_risk":5,"migraine_risk":7,"frizz_risk":1,"updated_at":"2026-06-26T16:41:12.718601+05:30"},{"city":"Bokaro","state":"Jharkhand","latitude":23.6693,"longitude":86.1511,"temp":33.8,"humidity":57,"rain":0.0,"pressure":978.1,"uv_index":8.85,"wind_gusts":30.6,"aqi":159,"pm10":43.1,"pm2_5":41.4,"no2":17.2,"co":1051.0,"o3":178.0,"so2":60.9,"mosquito_risk":0,"arthritis_risk":5,"migraine_risk":7,"frizz_risk":1,"updated_at":"2026-06-26T16:41:12.718604+05:30"},{"city":"Bhubaneswar","state":"Odisha","latitude":20.2961,"longitude":85.8245,"temp":31.4,"humidity":73,"rain":0.1,"pressure":997.0,"uv_index":9.05,"wind_gusts":27.4,"aqi":87,"pm10":20.3,"pm2_5":16.8,"no2":3.6,"co":291.0,"o3":125.0,"so2":6.4,"mosquito_risk":6,"arthritis_risk":5,"migraine_risk":7,"frizz_risk":1,"updated_at":"2026-06-26T16:41:12.718608+05:30"},{"city":"Cuttack","state":"Odisha","latitude":20.4625,"longitude":85.8828,"temp":32.0,"humidity":73,"rain":0.1,"pressure":998.7,"uv_index":9.1,"wind_gusts":38.2,"aqi":87,"pm10":20.3,"pm2_5":16.8,"no2":3.6,"co":288.0,"o3":125.0,"so2":6.4,"mosquito_risk":6,"arthritis_risk":5,"migraine_risk":7,"frizz_risk":1,"updated_at":"2026-06-26T16:41:12.718611+05:30"},{"city":"Rourkela","state":"Odisha","latitude":22.2604,"longitude":84.8536,"temp":30.7,"humidity":68,"rain":0.1,"pressure":980.2,"uv_index":8.45,"wind_gusts":38.2,"aqi":154,"pm10":24.0,"pm2_5":22.9,"no2":3.4,"co":508.0,"o3":197.0,"so2":15.6,"mosquito_risk":6,"arthritis_risk":5,"migraine_risk":7,"frizz_risk":1,"updated_at":"2026-06-26T16:41:12.718615+05:30"},{"city":"Raipur","state":"Chhattisgarh","latitude":21.2514,"longitude":81.6296,"temp":36.2,"humidity":41,"rain":0.1,"pressure":969.0,"uv_index":8.95,"wind_gusts":45.7,"aqi":91,"pm10":30.2,"pm2_5":28.8,"no2":7.0,"co":400.0,"o3":143.0,"so2":23.1,"mosquito_risk":3,"arthritis_risk":5,"migraine_risk":10,"frizz_risk":1,"updated_at":"2026-06-26T16:41:12.718618+05:30"},{"city":"Bhilai","state":"Chhattisgarh","latitude":21.1938,"longitude":81.3509,"temp":29.0,"humidity":81,"rain":0.0,"pressure":970.1,"uv_index":8.95,"wind_gusts":40.7,"aqi":93,"pm10":40.9,"pm2_5":39.6,"no2":12.0,"co":784.0,"o3":148.0,"so2":42.9,"mosquito_risk":7,"arthritis_risk":5,"migraine_risk":7,"frizz_risk":1,"updated_at":"2026-06-26T16:41:12.718622+05:30"},{"city":"Guwahati","state":"Assam","latitude":26.1158,"longitude":91.7086,"temp":31.5,"humidity":74,"rain":0.0,"pressure":994.7,"uv_index":8.75,"wind_gusts":30.6,"aqi":101,"pm10":20.9,"pm2_5":18.2,"no2":4.2,"co":314.0,"o3":96.0,"so2":2.5,"mosquito_risk":3,"arthritis_risk":5,"migraine_risk":7,"frizz_risk":1,"updated_at":"2026-06-26T16:41:12.718626+05:30"},{"city":"Agartala","state":"Tripura","latitude":23.8315,"longitude":91.2868,"temp":30.6,"humidity":76,"rain":0.0,"pressure":1000.5,"uv_index":8.45,"wind_gusts":28.4,"aqi":83,"pm10":28.0,"pm2_5":20.7,"no2":7.2,"co":180.0,"o3":109.0,"so2":3.8,"mosquito_risk":3,"arthritis_risk":5,"migraine_risk":4,"frizz_risk":1,"updated_at":"2026-06-26T16:41:12.718629+05:30"},{"city":"Shillong","state":"Meghalaya","latitude":25.5788,"longitude":91.8933,"temp":23.9,"humidity":76,"rain":0.0,"pressure":854.9,"uv_index":6.0,"wind_gusts":23.4,"aqi":72,"pm10":10.4,"pm2_5":9.0,"no2":4.8,"co":284.0,"o3":99.0,"so2":2.0,"mosquito_risk":3,"arthritis_risk":5,"migraine_risk":3,"frizz_risk":1,"updated_at":"2026-06-26T16:41:12.718633+05:30"},{"city":"Imphal","state":"Manipur","latitude":24.817,"longitude":93.9368,"temp":27.8,"humidity":73,"rain":0.0,"pressure":918.6,"uv_index":9.05,"wind_gusts":29.5,"aqi":57,"pm10":6.7,"pm2_5":5.5,"no2":3.7,"co":260.0,"o3":93.0,"so2":2.3,"mosquito_risk":7,"arthritis_risk":5,"migraine_risk":7,"frizz_risk":1,"updated_at":"2026-06-26T16:41:12.718636+05:30"},{"city":"Aizawl","state":"Mizoram","latitude":23.7271,"longitude":92.7176,"temp":23.5,"humidity":82,"rain":0.0,"pressure":889.2,"uv_index":8.55,"wind_gusts":23.0,"aqi":62,"pm10":20.3,"pm2_5":14.1,"no2":3.4,"co":168.0,"o3":79.0,"so2":1.3,"mosquito_risk":3,"arthritis_risk":5,"migraine_risk":7,"frizz_risk":1,"updated_at":"2026-06-26T16:41:12.718640+05:30"},{"city":"Kohima","state":"Nagaland","latitude":25.6701,"longitude":94.1077,"temp":24.1,"humidity":80,"rain":0.0,"pressure":852.8,"uv_index":8.35,"wind_gusts":27.4,"aqi":55,"pm10":9.7,"pm2_5":7.6,"no2":2.7,"co":221.0,"o3":101.0,"so2":1.7,"mosquito_risk":3,"arthritis_risk":5,"migraine_risk":7,"frizz_risk":1,"updated_at":"2026-06-26T16:41:12.718644+05:30"},{"city":"Gangtok","state":"Sikkim","latitude":27.3314,"longitude":88.6138,"temp":22.2,"humidity":82,"rain":0.0,"pressure":835.9,"uv_index":8.8,"wind_gusts":34.9,"aqi":99,"pm10":8.5,"pm2_5":7.7,"no2":3.8,"co":340.0,"o3":138.0,"so2":2.4,"mosquito_risk":3,"arthritis_risk":5,"migraine_risk":7,"frizz_risk":1,"updated_at":"2026-06-26T16:41:12.718647+05:30"},{"city":"Siliguri","state":"West Bengal","latitude":26.7271,"longitude":88.3953,"temp":29.7,"humidity":81,"rain":0.2,"pressure":986.7,"uv_index":8.55,"wind_gusts":20.9,"aqi":138,"pm10":38.4,"pm2_5":33.4,"no2":6.3,"co":532.0,"o3":148.0,"so2":7.0,"mosquito_risk":10,"arthritis_risk":5,"migraine_risk":7,"frizz_risk":1,"updated_at":"2026-06-26T16:41:16.007600+05:30"},{"city":"Durgapur","state":"West Bengal","latitude":23.5204,"longitude":87.3119,"temp":32.4,"humidity":68,"rain":0.0,"pressure":989.1,"uv_index":9.0,"wind_gusts":30.6,"aqi":143,"pm10":43.7,"pm2_5":41.9,"no2":17.7,"co":273.0,"o3":160.0,"so2":44.9,"mosquito_risk":3,"arthritis_risk":5,"migraine_risk":7,"frizz_risk":1,"updated_at":"2026-06-26T16:41:16.007620+05:30"},{"city":"Asansol","state":"West Bengal","latitude":23.6739,"longitude":86.9524,"temp":33.9,"humidity":58,"rain":0.0,"pressure":987.5,"uv_index":9.05,"wind_gusts":24.8,"aqi":151,"pm10":42.6,"pm2_5":41.4,"no2":16.0,"co":519.0,"o3":177.0,"so2":41.4,"mosquito_risk":0,"arthritis_risk":5,"migraine_risk":7,"frizz_risk":1,"updated_at":"2026-06-26T16:41:16.007625+05:30"},{"city":"Pondicherry","state":"Puducherry","latitude":11.9139,"longitude":79.8145,"temp":32.3,"humidity":68,"rain":0.1,"pressure":1003.0,"uv_index":7.35,"wind_gusts":38.5,"aqi":69,"pm10":43.9,"pm2_5":31.1,"no2":16.9,"co":235.0,"o3":125.0,"so2":7.4,"mosquito_risk":6,"arthritis_risk":5,"migraine_risk":4,"frizz_risk":1,"updated_at":"2026-06-26T16:41:16.007630+05:30"},{"city":"Port Blair","state":"Andaman and Nicobar Islands","latitude":11.6234,"longitude":92.7265,"temp":26.9,"humidity":90,"rain":0.1,"pressure":1005.7,"uv_index":8.7,"wind_gusts":35.6,"aqi":24,"pm10":3.9,"pm2_5":2.5,"no2":0.5,"co":108.0,"o3":49.0,"so2":0.3,"mosquito_risk":10,"arthritis_risk":5,"migraine_risk":4,"frizz_risk":1,"updated_at":"2026-06-26T16:41:16.007634+05:30"},{"city":"Haridwar","state":"Uttarakhand","latitude":29.9457,"longitude":78.1642,"temp":36.9,"humidity":39,"rain":0.0,"pressure":968.4,"uv_index":7.6,"wind_gusts":20.9,"aqi":136,"pm10":204.4,"pm2_5":57.3,"no2":1.4,"co":239.0,"o3":158.0,"so2":8.2,"mosquito_risk":0,"arthritis_risk":5,"migraine_risk":10,"frizz_risk":1,"updated_at":"2026-06-26T16:41:16.007638+05:30"},{"city":"Rishikesh","state":"Uttarakhand","latitude":30.0869,"longitude":78.2676,"temp":35.7,"humidity":40,"rain":0.0,"pressure":961.6,"uv_index":7.7,"wind_gusts":22.7,"aqi":113,"pm10":149.9,"pm2_5":43.8,"no2":0.9,"co":244.0,"o3":141.0,"so2":4.0,"mosquito_risk":0,"arthritis_risk":5,"migraine_risk":10,"frizz_risk":1,"updated_at":"2026-06-26T16:41:16.007642+05:30"},{"city":"Nainital","state":"Uttarakhand","latitude":29.3919,"longitude":79.4542,"temp":23.6,"humidity":59,"rain":0.0,"pressure":806.5,"uv_index":7.95,"wind_gusts":32.0,"aqi":132,"pm10":96.4,"pm2_5":35.5,"no2":1.5,"co":225.0,"o3":161.0,"so2":7.5,"mosquito_risk":0,"arthritis_risk":5,"migraine_risk":7,"frizz_risk":0,"updated_at":"2026-06-26T16:41:16.007646+05:30"},{"city":"Mussoorie","state":"Uttarakhand","latitude":30.4599,"longitude":78.0664,"temp":19.9,"humidity":86,"rain":0.0,"pressure":803.1,"uv_index":7.25,"wind_gusts":31.7,"aqi":129,"pm10":139.2,"pm2_5":43.5,"no2":1.0,"co":261.0,"o3":154.0,"so2":5.4,"mosquito_risk":3,"arthritis_risk":10,"migraine_risk":7,"frizz_risk":1,"updated_at":"2026-06-26T16:41:16.007650+05:30"},{"city":"Dharamshala","state":"Himachal Pradesh","latitude":32.219,"longitude":76.3234,"temp":26.6,"humidity":60,"rain":0.0,"pressure":868.3,"uv_index":7.85,"wind_gusts":40.3,"aqi":100,"pm10":41.6,"pm2_5":19.0,"no2":0.5,"co":212.0,"o3":143.0,"so2":1.6,"mosquito_risk":4,"arthritis_risk":5,"migraine_risk":7,"frizz_risk":1,"updated_at":"2026-06-26T16:41:16.007654+05:30"},{"city":"Dalhousie","state":"Himachal Pradesh","latitude":32.5387,"longitude":75.971,"temp":20.7,"humidity":85,"rain":0.2,"pressure":805.1,"uv_index":8.05,"wind_gusts":30.2,"aqi":149,"pm10":105.2,"pm2_5":41.9,"no2":1.4,"co":237.0,"o3":175.0,"so2":4.6,"mosquito_risk":6,"arthritis_risk":5,"migraine_risk":7,"frizz_risk":1,"updated_at":"2026-06-26T16:41:16.007658+05:30"},{"city":"Patiala","state":"Punjab","latitude":30.3398,"longitude":76.3869,"temp":37.3,"humidity":40,"rain":0.0,"pressure":972.5,"uv_index":7.7,"wind_gusts":25.2,"aqi":158,"pm10":254.3,"pm2_5":63.6,"no2":1.4,"co":222.0,"o3":143.0,"so2":6.4,"mosquito_risk":0,"arthritis_risk":5,"migraine_risk":10,"frizz_risk":1,"updated_at":"2026-06-26T16:41:16.007662+05:30"},{"city":"Bhatinda","state":"Punjab","latitude":30.211,"longitude":74.9455,"temp":37.4,"humidity":41,"rain":0.0,"pressure":977.8,"uv_index":7.55,"wind_gusts":20.9,"aqi":157,"pm10":119.7,"pm2_5":51.2,"no2":1.6,"co":222.0,"o3":172.0,"so2":13.8,"mosquito_risk":0,"arthritis_risk":5,"migraine_risk":10,"frizz_risk":1,"updated_at":"2026-06-26T16:41:16.007665+05:30"},{"city":"Rohtak","state":"Haryana","latitude":28.8955,"longitude":76.6066,"temp":37.7,"humidity":40,"rain":0.0,"pressure":975.5,"uv_index":7.5,"wind_gusts":21.2,"aqi":155,"pm10":260.8,"pm2_5":52.5,"no2":0.0,"co":185.0,"o3":126.0,"so2":1.5,"mosquito_risk":0,"arthritis_risk":5,"migraine_risk":10,"frizz_risk":1,"updated_at":"2026-06-26T16:41:16.007669+05:30"},{"city":"Panipat","state":"Haryana","latitude":29.3909,"longitude":76.9635,"temp":37.5,"humidity":39,"rain":0.0,"pressure":974.1,"uv_index":7.0,"wind_gusts":25.6,"aqi":166,"pm10":282.2,"pm2_5":63.8,"no2":1.6,"co":185.0,"o3":157.0,"so2":12.3,"mosquito_risk":0,"arthritis_risk":5,"migraine_risk":10,"frizz_risk":1,"updated_at":"2026-06-26T16:41:16.007673+05:30"},{"city":"Mathura","state":"Uttar Pradesh","latitude":27.4924,"longitude":77.6737,"temp":38.0,"humidity":39,"rain":0.0,"pressure":980.5,"uv_index":8.05,"wind_gusts":22.0,"aqi":130,"pm10":228.6,"pm2_5":43.5,"no2":0.0,"co":127.0,"o3":129.0,"so2":1.7,"mosquito_risk":0,"arthritis_risk":5,"migraine_risk":10,"frizz_risk":1,"updated_at":"2026-06-26T16:41:16.007676+05:30"},{"city":"Vrindavan","state":"Uttar Pradesh","latitude":27.5823,"longitude":77.7027,"temp":37.6,"humidity":40,"rain":0.0,"pressure":980.9,"uv_index":8.0,"wind_gusts":22.3,"aqi":130,"pm10":228.6,"pm2_5":43.5,"no2":0.0,"co":127.0,"o3":129.0,"so2":1.7,"mosquito_risk":0,"arthritis_risk":5,"migraine_risk":10,"frizz_risk":1,"updated_at":"2026-06-26T16:41:16.007680+05:30"},{"city":"Ayodhya","state":"Uttar Pradesh","latitude":26.7922,"longitude":82.1998,"temp":37.2,"humidity":44,"rain":0.0,"pressure":988.4,"uv_index":8.45,"wind_gusts":37.8,"aqi":151,"pm10":84.1,"pm2_5":38.3,"no2":0.4,"co":206.0,"o3":161.0,"so2":6.0,"mosquito_risk":0,"arthritis_risk":5,"migraine_risk":10,"frizz_risk":1,"updated_at":"2026-06-26T16:41:16.007683+05:30"},{"city":"Ratlam","state":"Madhya Pradesh","latitude":23.3315,"longitude":75.0367,"temp":27.3,"humidity":77,"rain":0.0,"pressure":951.2,"uv_index":7.7,"wind_gusts":32.8,"aqi":94,"pm10":49.2,"pm2_5":22.4,"no2":0.6,"co":104.0,"o3":90.0,"so2":2.1,"mosquito_risk":7,"arthritis_risk":5,"migraine_risk":7,"frizz_risk":1,"updated_at":"2026-06-26T16:41:16.007687+05:30"},{"city":"Sagar","state":"Madhya Pradesh","latitude":23.8388,"longitude":78.7378,"temp":33.2,"humidity":52,"rain":0.0,"pressure":945.8,"uv_index":5.9,"wind_gusts":31.3,"aqi":65,"pm10":33.9,"pm2_5":18.9,"no2":0.5,"co":179.0,"o3":117.0,"so2":1.6,"mosquito_risk":0,"arthritis_risk":5,"migraine_risk":3,"frizz_risk":1,"updated_at":"2026-06-26T16:41:16.007691+05:30"},{"city":"Satna","state":"Madhya Pradesh","latitude":24.6005,"longitude":80.8322,"temp":36.8,"humidity":41,"rain":0.0,"pressure":965.7,"uv_index":8.75,"wind_gusts":32.0,"aqi":67,"pm10":36.8,"pm2_5":19.7,"no2":0.8,"co":161.0,"o3":124.0,"so2":3.1,"mosquito_risk":0,"arthritis_risk":5,"migraine_risk":10,"frizz_risk":1,"updated_at":"2026-06-26T16:41:16.007694+05:30"},{"city":"Akola","state":"Maharashtra","latitude":20.7002,"longitude":77.0082,"temp":28.3,"humidity":78,"rain":0.0,"pressure":971.2,"uv_index":8.65,"wind_gusts":38.5,"aqi":79,"pm10":45.3,"pm2_5":23.4,"no2":3.9,"co":163.0,"o3":99.0,"so2":6.0,"mosquito_risk":7,"arthritis_risk":5,"migraine_risk":7,"frizz_risk":1,"updated_at":"2026-06-26T16:41:16.007699+05:30"},{"city":"Amravati","state":"Maharashtra","latitude":20.9374,"longitude":77.7796,"temp":27.6,"humidity":82,"rain":0.0,"pressure":963.0,"uv_index":8.1,"wind_gusts":36.7,"aqi":81,"pm10":46.2,"pm2_5":24.4,"no2":4.7,"co":178.0,"o3":99.0,"so2":6.2,"mosquito_risk":7,"arthritis_risk":5,"migraine_risk":7,"frizz_risk":1,"updated_at":"2026-06-26T16:41:16.007703+05:30"},{"city":"Latur","state":"Maharashtra","latitude":18.4088,"longitude":76.5604,"temp":32.0,"humidity":47,"rain":0.0,"pressure":935.8,"uv_index":3.2,"wind_gusts":29.9,"aqi":62,"pm10":51.5,"pm2_5":22.2,"no2":0.8,"co":139.0,"o3":101.0,"so2":3.7,"mosquito_risk":0,"arthritis_risk":5,"migraine_risk":3,"frizz_risk":1,"updated_at":"2026-06-26T16:41:16.007706+05:30"},{"city":"Nanded","state":"Maharashtra","latitude":19.1383,"longitude":77.3091,"temp":28.6,"humidity":72,"rain":0.0,"pressure":964.4,"uv_index":5.8,"wind_gusts":34.9,"aqi":73,"pm10":38.1,"pm2_5":20.2,"no2":2.1,"co":199.0,"o3":99.0,"so2":2.5,"mosquito_risk":7,"arthritis_risk":5,"migraine_risk":3,"frizz_risk":1,"updated_at":"2026-06-26T16:41:16.007710+05:30"},{"city":"Gulbarga","state":"Karnataka","latitude":17.3297,"longitude":76.8343,"temp":33.1,"humidity":42,"rain":0.0,"pressure":953.9,"uv_index":6.9,"wind_gusts":34.6,"aqi":48,"pm10":56.3,"pm2_5":22.3,"no2":1.4,"co":162.0,"o3":102.0,"so2":3.0,"mosquito_risk":0,"arthritis_risk":5,"migraine_risk":7,"frizz_risk":1,"updated_at":"2026-06-26T16:41:16.007713+05:30"},{"city":"Bidar","state":"Karnataka","latitude":17.9104,"longitude":77.5199,"temp":31.5,"humidity":49,"rain":0.0,"pressure":931.4,"uv_index":6.2,"wind_gusts":33.1,"aqi":67,"pm10":48.5,"pm2_5":24.2,"no2":2.4,"co":137.0,"o3":106.0,"so2":6.0,"mosquito_risk":0,"arthritis_risk":5,"migraine_risk":7,"frizz_risk":1,"updated_at":"2026-06-26T16:41:16.007717+05:30"},{"city":"Hospet","state":"Karnataka","latitude":15.2689,"longitude":76.3909,"temp":27.7,"humidity":75,"rain":0.2,"pressure":952.3,"uv_index":8.7,"wind_gusts":40.0,"aqi":30,"pm10":10.4,"pm2_5":5.8,"no2":4.2,"co":150.0,"o3":67.0,"so2":1.5,"mosquito_risk":10,"arthritis_risk":5,"migraine_risk":7,"frizz_risk":1,"updated_at":"2026-06-26T16:41:16.007720+05:30"},{"city":"Tirupur","state":"Tamil Nadu","latitude":11.1085,"longitude":77.3411,"temp":32.1,"humidity":52,"rain":0.0,"pressure":971.9,"uv_index":8.1,"wind_gusts":51.5,"aqi":57,"pm10":11.6,"pm2_5":7.5,"no2":3.6,"co":149.0,"o3":82.0,"so2":2.4,"mosquito_risk":0,"arthritis_risk":5,"migraine_risk":7,"frizz_risk":1,"updated_at":"2026-06-26T16:41:16.007724+05:30"},{"city":"Alappuzha","state":"Kerala","latitude":9.4981,"longitude":76.3388,"temp":28.4,"humidity":77,"rain":0.0,"pressure":1008.0,"uv_index":7.8,"wind_gusts":41.0,"aqi":44,"pm10":12.0,"pm2_5":7.8,"no2":3.2,"co":90.0,"o3":68.0,"so2":2.3,"mosquito_risk":7,"arthritis_risk":0,"migraine_risk":4,"frizz_risk":1,"updated_at":"2026-06-26T16:41:16.007727+05:30"},{"city":"Munnar","state":"Kerala","latitude":10.0889,"longitude":77.0595,"temp":18.3,"humidity":94,"rain":0.1,"pressure":855.9,"uv_index":8.65,"wind_gusts":39.2,"aqi":27,"pm10":7.2,"pm2_5":4.8,"no2":2.8,"co":102.0,"o3":56.0,"so2":1.0,"mosquito_risk":6,"arthritis_risk":10,"migraine_risk":7,"frizz_risk":1,"updated_at":"2026-06-26T16:41:16.007731+05:30"},{"city":"Silchar","state":"Assam","latitude":24.8333,"longitude":92.7789,"temp":31.7,"humidity":73,"rain":0.1,"pressure":998.7,"uv_index":8.8,"wind_gusts":21.6,"aqi":88,"pm10":28.2,"pm2_5":20.0,"no2":3.3,"co":281.0,"o3":112.0,"so2":3.9,"mosquito_risk":6,"arthritis_risk":5,"migraine_risk":7,"frizz_risk":1,"updated_at":"2026-06-26T16:41:16.007735+05:30"},{"city":"Dibrugarh","state":"Assam","latitude":27.4728,"longitude":94.912,"temp":29.0,"humidity":89,"rain":0.2,"pressure":988.5,"uv_index":8.9,"wind_gusts":27.0,"aqi":86,"pm10":29.7,"pm2_5":23.6,"no2":4.2,"co":338.0,"o3":122.0,"so2":2.5,"mosquito_risk":10,"arthritis_risk":5,"migraine_risk":7,"frizz_risk":1,"updated_at":"2026-06-26T16:41:16.007739+05:30"}]