[{"city":"Delhi","state":"Delhi","latitude":28.6139,"longitude":77.209,"temp":33.3,"humidity":51,"rain":0.0,"pressure":976.8,"uv_index":7.5,"wind_gusts":33.5,"aqi":167,"pm10":314.8,"pm2_5":118.3,"no2":73.2,"co":923.0,"o3":10.0,"so2":23.9,"mosquito_risk":0,"arthritis_risk":5,"migraine_risk":7,"frizz_risk":1,"updated_at":"2026-06-28T00:54:39.113114+05:30"},{"city":"Mumbai","state":"Maharashtra","latitude":19.076,"longitude":72.8777,"temp":28.0,"humidity":87,"rain":0.0,"pressure":1005.2,"uv_index":7.7,"wind_gusts":39.2,"aqi":60,"pm10":32.1,"pm2_5":16.9,"no2":12.2,"co":618.0,"o3":40.0,"so2":7.4,"mosquito_risk":7,"arthritis_risk":5,"migraine_risk":4,"frizz_risk":1,"updated_at":"2026-06-28T00:54:39.113154+05:30"},{"city":"Bangalore","state":"Karnataka","latitude":12.9716,"longitude":77.5946,"temp":21.3,"humidity":96,"rain":0.0,"pressure":910.5,"uv_index":8.3,"wind_gusts":46.8,"aqi":39,"pm10":9.9,"pm2_5":8.6,"no2":19.4,"co":289.0,"o3":35.0,"so2":5.5,"mosquito_risk":3,"arthritis_risk":5,"migraine_risk":7,"frizz_risk":1,"updated_at":"2026-06-28T00:54:39.113168+05:30"},{"city":"Hyderabad","state":"Telangana","latitude":17.385,"longitude":78.4867,"temp":24.3,"humidity":94,"rain":0.1,"pressure":950.4,"uv_index":8.5,"wind_gusts":36.7,"aqi":79,"pm10":25.8,"pm2_5":21.1,"no2":23.7,"co":325.0,"o3":53.0,"so2":6.3,"mosquito_risk":6,"arthritis_risk":5,"migraine_risk":7,"frizz_risk":1,"updated_at":"2026-06-28T00:54:39.113177+05:30"},{"city":"Chennai","state":"Tamil Nadu","latitude":13.0827,"longitude":80.2707,"temp":25.0,"humidity":96,"rain":0.4,"pressure":1005.9,"uv_index":8.6,"wind_gusts":44.6,"aqi":73,"pm10":25.6,"pm2_5":18.4,"no2":9.9,"co":222.0,"o3":82.0,"so2":5.7,"mosquito_risk":10,"arthritis_risk":5,"migraine_risk":4,"frizz_risk":1,"updated_at":"2026-06-28T00:54:39.113187+05:30"},{"city":"Kolkata","state":"West Bengal","latitude":22.5726,"longitude":88.3639,"temp":27.7,"humidity":90,"rain":0.0,"pressure":1001.7,"uv_index":9.0,"wind_gusts":38.2,"aqi":72,"pm10":26.7,"pm2_5":23.6,"no2":9.7,"co":332.0,"o3":72.0,"so2":6.3,"mosquito_risk":7,"arthritis_risk":5,"migraine_risk":4,"frizz_risk":1,"updated_at":"2026-06-28T00:54:39.113195+05:30"},{"city":"Pune","state":"Maharashtra","latitude":18.5204,"longitude":73.8567,"temp":24.0,"humidity":90,"rain":0.0,"pressure":944.9,"uv_index":7.1,"wind_gusts":41.8,"aqi":45,"pm10":16.2,"pm2_5":12.4,"no2":16.2,"co":206.0,"o3":35.0,"so2":10.9,"mosquito_risk":3,"arthritis_risk":5,"migraine_risk":7,"frizz_risk":1,"updated_at":"2026-06-28T00:54:39.113202+05:30"},{"city":"Ahmedabad","state":"Gujarat","latitude":23.0225,"longitude":72.5714,"temp":32.0,"humidity":58,"rain":0.0,"pressure":997.6,"uv_index":8.05,"wind_gusts":39.6,"aqi":72,"pm10":36.2,"pm2_5":19.8,"no2":9.7,"co":172.0,"o3":59.0,"so2":4.6,"mosquito_risk":0,"arthritis_risk":5,"migraine_risk":7,"frizz_risk":1,"updated_at":"2026-06-28T00:54:39.113209+05:30"},{"city":"Jaipur","state":"Rajasthan","latitude":26.9124,"longitude":75.7873,"temp":31.0,"humidity":55,"rain":0.0,"pressure":954.9,"uv_index":8.2,"wind_gusts":38.5,"aqi":129,"pm10":195.6,"pm2_5":55.5,"no2":12.9,"co":457.0,"o3":51.0,"so2":5.5,"mosquito_risk":0,"arthritis_risk":5,"migraine_risk":7,"frizz_risk":1,"updated_at":"2026-06-28T00:54:39.113215+05:30"},{"city":"Lucknow","state":"Uttar Pradesh","latitude":26.8467,"longitude":80.9462,"temp":31.7,"humidity":64,"rain":0.0,"pressure":987.5,"uv_index":8.3,"wind_gusts":29.2,"aqi":131,"pm10":120.6,"pm2_5":62.4,"no2":30.3,"co":316.0,"o3":64.0,"so2":12.1,"mosquito_risk":3,"arthritis_risk":5,"migraine_risk":7,"frizz_risk":1,"updated_at":"2026-06-28T00:54:39.113222+05:30"},{"city":"Kanpur","state":"Uttar Pradesh","latitude":26.4499,"longitude":80.3319,"temp":34.4,"humidity":50,"rain":0.0,"pressure":985.7,"uv_index":8.3,"wind_gusts":43.6,"aqi":127,"pm10":98.3,"pm2_5":47.7,"no2":25.4,"co":387.0,"o3":55.0,"so2":8.1,"mosquito_risk":0,"arthritis_risk":5,"migraine_risk":7,"frizz_risk":1,"updated_at":"2026-06-28T00:54:39.113240+05:30"},{"city":"Chandigarh","state":"Chandigarh","latitude":30.7333,"longitude":76.7794,"temp":29.0,"humidity":73,"rain":0.0,"pressure":962.9,"uv_index":7.8,"wind_gusts":28.8,"aqi":154,"pm10":123.4,"pm2_5":99.2,"no2":53.8,"co":1255.0,"o3":46.0,"so2":14.2,"mosquito_risk":7,"arthritis_risk":5,"migraine_risk":7,"frizz_risk":1,"updated_at":"2026-06-28T00:54:39.113247+05:30"},{"city":"Srinagar","state":"Jammu and Kashmir","latitude":34.0837,"longitude":74.7973,"temp":19.7,"humidity":71,"rain":0.0,"pressure":837.3,"uv_index":9.1,"wind_gusts":33.8,"aqi":78,"pm10":35.4,"pm2_5":33.2,"no2":28.7,"co":788.0,"o3":22.0,"so2":0.3,"mosquito_risk":3,"arthritis_risk":5,"migraine_risk":7,"frizz_risk":0,"updated_at":"2026-06-28T00:54:39.113253+05:30"},{"city":"Jammu","state":"Jammu and Kashmir","latitude":32.7266,"longitude":74.857,"temp":30.2,"humidity":63,"rain":0.0,"pressure":966.3,"uv_index":8.65,"wind_gusts":31.0,"aqi":135,"pm10":73.3,"pm2_5":63.3,"no2":65.5,"co":674.0,"o3":3.0,"so2":5.6,"mosquito_risk":3,"arthritis_risk":5,"migraine_risk":7,"frizz_risk":1,"updated_at":"2026-06-28T00:54:39.113260+05:30"},{"city":"Amritsar","state":"Punjab","latitude":31.634,"longitude":74.8723,"temp":30.4,"humidity":73,"rain":0.0,"pressure":974.0,"uv_index":8.5,"wind_gusts":48.2,"aqi":165,"pm10":108.7,"pm2_5":92.9,"no2":55.2,"co":810.0,"o3":35.0,"so2":9.7,"mosquito_risk":3,"arthritis_risk":5,"migraine_risk":7,"frizz_risk":1,"updated_at":"2026-06-28T00:54:39.113266+05:30"},{"city":"Ludhiana","state":"Punjab","latitude":30.901,"longitude":75.8573,"temp":32.7,"humidity":58,"rain":0.0,"pressure":972.3,"uv_index":8.0,"wind_gusts":43.6,"aqi":158,"pm10":121.5,"pm2_5":78.5,"no2":33.2,"co":1481.0,"o3":63.0,"so2":11.5,"mosquito_risk":0,"arthritis_risk":5,"migraine_risk":7,"frizz_risk":1,"updated_at":"2026-06-28T00:54:39.113272+05:30"},{"city":"Jalandhar","state":"Punjab","latitude":31.326,"longitude":75.5762,"temp":31.7,"humidity":64,"rain":0.0,"pressure":973.2,"uv_index":8.25,"wind_gusts":43.6,"aqi":162,"pm10":111.1,"pm2_5":82.7,"no2":45.7,"co":954.0,"o3":46.0,"so2":8.8,"mosquito_risk":3,"arthritis_risk":5,"migraine_risk":7,"frizz_risk":1,"updated_at":"2026-06-28T00:54:39.113277+05:30"},{"city":"Dehradun","state":"Uttarakhand","latitude":30.6284,"longitude":78.0322,"temp":17.3,"humidity":99,"rain":0.0,"pressure":827.6,"uv_index":6.45,"wind_gusts":31.7,"aqi":72,"pm10":45.8,"pm2_5":31.5,"no2":32.4,"co":211.0,"o3":36.0,"so2":1.2,"mosquito_risk":3,"arthritis_risk":10,"migraine_risk":7,"frizz_risk":1,"updated_at":"2026-06-28T00:54:39.113283+05:30"},{"city":"Shimla","state":"Himachal Pradesh","latitude":31.1048,"longitude":77.1734,"temp":14.3,"humidity":95,"rain":0.0,"pressure":781.1,"uv_index":7.6,"wind_gusts":35.6,"aqi":103,"pm10":72.9,"pm2_5":60.1,"no2":29.0,"co":425.0,"o3":41.0,"so2":0.2,"mosquito_risk":3,"arthritis_risk":10,"migraine_risk":7,"frizz_risk":0,"updated_at":"2026-06-28T00:54:39.113289+05:30"},{"city":"Manali","state":"Himachal Pradesh","latitude":32.2396,"longitude":77.1887,"temp":17.9,"humidity":68,"rain":0.0,"pressure":817.1,"uv_index":9.15,"wind_gusts":34.9,"aqi":45,"pm10":6.0,"pm2_5":5.6,"no2":85.4,"co":274.0,"o3":7.0,"so2":0.0,"mosquito_risk":3,"arthritis_risk":5,"migraine_risk":7,"frizz_risk":0,"updated_at":"2026-06-28T00:54:39.113298+05:30"},{"city":"Gurgaon","state":"Haryana","latitude":28.4595,"longitude":77.0266,"temp":32.2,"humidity":56,"rain":0.0,"pressure":975.2,"uv_index":7.5,"wind_gusts":36.7,"aqi":198,"pm10":158.3,"pm2_5":74.7,"no2":57.9,"co":1269.0,"o3":14.0,"so2":15.4,"mosquito_risk":0,"arthritis_risk":5,"migraine_risk":7,"frizz_risk":1,"updated_at":"2026-06-28T00:54:39.113304+05:30"},{"city":"Noida","state":"Uttar Pradesh","latitude":28.5355,"longitude":77.391,"temp":30.7,"humidity":75,"rain":0.0,"pressure":978.0,"uv_index":7.2,"wind_gusts":24.1,"aqi":198,"pm10":158.3,"pm2_5":74.7,"no2":57.9,"co":1625.0,"o3":14.0,"so2":15.4,"mosquito_risk":3,"arthritis_risk":5,"migraine_risk":7,"frizz_risk":1,"updated_at":"2026-06-28T00:54:39.113309+05:30"},{"city":"Ghaziabad","state":"Uttar Pradesh","latitude":28.6692,"longitude":77.4538,"temp":30.2,"humidity":70,"rain":0.0,"pressure":976.3,"uv_index":7.75,"wind_gusts":29.9,"aqi":168,"pm10":312.0,"pm2_5":118.3,"no2":57.9,"co":681.0,"o3":41.0,"so2":25.8,"mosquito_risk":3,"arthritis_risk":5,"migraine_risk":7,"frizz_risk":1,"updated_at":"2026-06-28T00:54:39.113315+05:30"},{"city":"Faridabad","state":"Haryana","latitude":28.4089,"longitude":77.3178,"temp":32.2,"humidity":57,"rain":0.0,"pressure":977.4,"uv_index":7.2,"wind_gusts":29.9,"aqi":198,"pm10":158.3,"pm2_5":74.7,"no2":57.9,"co":1318.0,"o3":14.0,"so2":15.4,"mosquito_risk":0,"arthritis_risk":5,"migraine_risk":7,"frizz_risk":1,"updated_at":"2026-06-28T00:54:39.113322+05:30"},{"city":"Meerut","state":"Uttar Pradesh","latitude":28.9845,"longitude":77.7064,"temp":32.4,"humidity":61,"rain":0.0,"pressure":975.4,"uv_index":5.95,"wind_gusts":25.9,"aqi":168,"pm10":312.0,"pm2_5":118.3,"no2":57.9,"co":615.0,"o3":41.0,"so2":25.8,"mosquito_risk":3,"arthritis_risk":5,"migraine_risk":3,"frizz_risk":1,"updated_at":"2026-06-28T00:54:39.113329+05:30"},{"city":"Agra","state":"Uttar Pradesh","latitude":27.1767,"longitude":78.0081,"temp":33.2,"humidity":51,"rain":0.0,"pressure":981.8,"uv_index":7.25,"wind_gusts":37.8,"aqi":140,"pm10":134.1,"pm2_5":57.3,"no2":39.7,"co":280.0,"o3":34.0,"so2":9.3,"mosquito_risk":0,"arthritis_risk":5,"migraine_risk":7,"frizz_risk":1,"updated_at":"2026-06-28T00:54:39.113335+05:30"},{"city":"Varanasi","state":"Uttar Pradesh","latitude":25.3176,"longitude":82.9739,"temp":31.4,"humidity":66,"rain":0.1,"pressure":992.2,"uv_index":8.4,"wind_gusts":33.5,"aqi":124,"pm10":46.1,"pm2_5":41.4,"no2":20.0,"co":741.0,"o3":78.0,"so2":10.4,"mosquito_risk":6,"arthritis_risk":5,"migraine_risk":7,"frizz_risk":1,"updated_at":"2026-06-28T00:54:39.113342+05:30"},{"city":"Prayagraj","state":"Uttar Pradesh","latitude":25.4358,"longitude":81.8463,"temp":33.6,"humidity":56,"rain":0.0,"pressure":990.0,"uv_index":8.7,"wind_gusts":36.0,"aqi":107,"pm10":62.9,"pm2_5":44.9,"no2":21.0,"co":194.0,"o3":68.0,"so2":8.1,"mosquito_risk":0,"arthritis_risk":5,"migraine_risk":7,"frizz_risk":1,"updated_at":"2026-06-28T00:54:39.113348+05:30"},{"city":"Gorakhpur","state":"Uttar Pradesh","latitude":26.7606,"longitude":83.3732,"temp":27.9,"humidity":82,"rain":0.0,"pressure":991.8,"uv_index":7.75,"wind_gusts":34.2,"aqi":158,"pm10":88.7,"pm2_5":81.5,"no2":43.6,"co":828.0,"o3":40.0,"so2":13.5,"mosquito_risk":7,"arthritis_risk":5,"migraine_risk":7,"frizz_risk":1,"updated_at":"2026-06-28T00:54:39.113354+05:30"},{"city":"Bareilly","state":"Uttar Pradesh","latitude":28.367,"longitude":79.4304,"temp":32.4,"humidity":53,"rain":0.0,"pressure":980.7,"uv_index":8.1,"wind_gusts":23.4,"aqi":158,"pm10":139.7,"pm2_5":74.7,"no2":30.4,"co":597.0,"o3":79.0,"so2":15.5,"mosquito_risk":0,"arthritis_risk":5,"migraine_risk":7,"frizz_risk":1,"updated_at":"2026-06-28T00:54:39.113360+05:30"},{"city":"Aligarh","state":"Uttar Pradesh","latitude":27.8974,"longitude":78.088,"temp":32.1,"humidity":64,"rain":0.0,"pressure":979.4,"uv_index":5.5,"wind_gusts":29.9,"aqi":165,"pm10":238.0,"pm2_5":78.0,"no2":32.3,"co":706.0,"o3":45.0,"so2":6.8,"mosquito_risk":3,"arthritis_risk":5,"migraine_risk":3,"frizz_risk":1,"updated_at":"2026-06-28T00:54:39.113366+05:30"},{"city":"Moradabad","state":"Uttar Pradesh","latitude":28.8386,"longitude":78.7733,"temp":32.8,"humidity":55,"rain":0.0,"pressure":977.7,"uv_index":7.75,"wind_gusts":29.2,"aqi":163,"pm10":182.5,"pm2_5":106.9,"no2":51.6,"co":784.0,"o3":47.0,"so2":18.7,"mosquito_risk":0,"arthritis_risk":5,"migraine_risk":7,"frizz_risk":1,"updated_at":"2026-06-28T00:54:39.113370+05:30"},{"city":"Saharanpur","state":"Uttar Pradesh","latitude":29.9637,"longitude":77.546,"temp":31.2,"humidity":63,"rain":0.0,"pressure":969.9,"uv_index":6.9,"wind_gusts":22.3,"aqi":165,"pm10":262.6,"pm2_5":112.2,"no2":50.0,"co":531.0,"o3":38.0,"so2":15.2,"mosquito_risk":3,"arthritis_risk":5,"migraine_risk":7,"frizz_risk":1,"updated_at":"2026-06-28T00:54:39.113376+05:30"},{"city":"Jhansi","state":"Uttar Pradesh","latitude":25.4484,"longitude":78.5685,"temp":31.4,"humidity":56,"rain":0.0,"pressure":972.9,"uv_index":7.3,"wind_gusts":38.9,"aqi":88,"pm10":35.3,"pm2_5":21.7,"no2":5.4,"co":157.0,"o3":76.0,"so2":2.4,"mosquito_risk":0,"arthritis_risk":5,"migraine_risk":7,"frizz_risk":1,"updated_at":"2026-06-28T00:54:42.454623+05:30"},{"city":"Surat","state":"Gujarat","latitude":21.1702,"longitude":72.8311,"temp":29.7,"humidity":78,"rain":0.0,"pressure":1003.0,"uv_index":7.6,"wind_gusts":41.8,"aqi":83,"pm10":42.3,"pm2_5":23.1,"no2":17.5,"co":212.0,"o3":35.0,"so2":28.8,"mosquito_risk":7,"arthritis_risk":5,"migraine_risk":4,"frizz_risk":1,"updated_at":"2026-06-28T00:54:42.454654+05:30"},{"city":"Vadodara","state":"Gujarat","latitude":22.3072,"longitude":73.1812,"temp":30.6,"humidity":69,"rain":0.0,"pressure":1000.1,"uv_index":8.0,"wind_gusts":45.0,"aqi":77,"pm10":32.7,"pm2_5":20.8,"no2":18.0,"co":166.0,"o3":32.0,"so2":18.6,"mosquito_risk":3,"arthritis_risk":5,"migraine_risk":4,"frizz_risk":1,"updated_at":"2026-06-28T00:54:42.454662+05:30"},{"city":"Rajkot","state":"Gujarat","latitude":22.3039,"longitude":70.8022,"temp":29.1,"humidity":69,"rain":0.0,"pressure":990.6,"uv_index":7.55,"wind_gusts":40.0,"aqi":66,"pm10":28.4,"pm2_5":13.8,"no2":7.1,"co":109.0,"o3":44.0,"so2":7.1,"mosquito_risk":7,"arthritis_risk":5,"migraine_risk":7,"frizz_risk":1,"updated_at":"2026-06-28T00:54:42.454669+05:30"},{"city":"Thane","state":"Maharashtra","latitude":19.2183,"longitude":72.9781,"temp":27.4,"humidity":89,"rain":0.0,"pressure":1004.6,"uv_index":7.7,"wind_gusts":33.1,"aqi":60,"pm10":32.1,"pm2_5":16.9,"no2":12.2,"co":534.0,"o3":40.0,"so2":7.4,"mosquito_risk":7,"arthritis_risk":5,"migraine_risk":4,"frizz_risk":1,"updated_at":"2026-06-28T00:54:42.454675+05:30"},{"city":"Nagpur","state":"Maharashtra","latitude":21.1458,"longitude":79.0882,"temp":26.7,"humidity":93,"rain":0.0,"pressure":969.5,"uv_index":8.85,"wind_gusts":35.6,"aqi":93,"pm10":29.9,"pm2_5":26.7,"no2":16.9,"co":406.0,"o3":62.0,"so2":10.7,"mosquito_risk":7,"arthritis_risk":5,"migraine_risk":7,"frizz_risk":1,"updated_at":"2026-06-28T00:54:42.454681+05:30"},{"city":"Nashik","state":"Maharashtra","latitude":19.9975,"longitude":73.7898,"temp":24.3,"humidity":92,"rain":0.0,"pressure":942.4,"uv_index":7.55,"wind_gusts":36.4,"aqi":55,"pm10":21.8,"pm2_5":13.9,"no2":8.9,"co":151.0,"o3":45.0,"so2":5.3,"mosquito_risk":3,"arthritis_risk":5,"migraine_risk":7,"frizz_risk":1,"updated_at":"2026-06-28T00:54:42.454687+05:30"},{"city":"Aurangabad","state":"Maharashtra","latitude":19.8762,"longitude":75.3433,"temp":25.7,"humidity":84,"rain":0.0,"pressure":940.9,"uv_index":7.65,"wind_gusts":33.5,"aqi":68,"pm10":20.0,"pm2_5":14.2,"no2":10.6,"co":213.0,"o3":50.0,"so2":4.1,"mosquito_risk":7,"arthritis_risk":5,"migraine_risk":7,"frizz_risk":1,"updated_at":"2026-06-28T00:54:42.454692+05:30"},{"city":"Solapur","state":"Maharashtra","latitude":17.6599,"longitude":75.9064,"temp":25.5,"humidity":91,"rain":0.0,"pressure":954.7,"uv_index":7.65,"wind_gusts":31.3,"aqi":50,"pm10":12.9,"pm2_5":10.1,"no2":11.2,"co":190.0,"o3":39.0,"so2":2.4,"mosquito_risk":7,"arthritis_risk":5,"migraine_risk":7,"frizz_risk":1,"updated_at":"2026-06-28T00:54:42.454698+05:30"},{"city":"Kolhapur","state":"Maharashtra","latitude":16.705,"longitude":74.2433,"temp":23.3,"humidity":93,"rain":0.0,"pressure":945.2,"uv_index":6.75,"wind_gusts":40.3,"aqi":33,"pm10":8.9,"pm2_5":7.5,"no2":8.8,"co":154.0,"o3":35.0,"so2":2.8,"mosquito_risk":3,"arthritis_risk":5,"migraine_risk":7,"frizz_risk":1,"updated_at":"2026-06-28T00:54:42.454704+05:30"},{"city":"Goa","state":"Goa","latitude":15.2993,"longitude":74.124,"temp":25.0,"humidity":99,"rain":0.0,"pressure":996.3,"uv_index":3.3,"wind_gusts":32.4,"aqi":45,"pm10":16.4,"pm2_5":12.6,"no2":5.3,"co":276.0,"o3":45.0,"so2":1.3,"mosquito_risk":7,"arthritis_risk":5,"migraine_risk":3,"frizz_risk":1,"updated_at":"2026-06-28T00:54:42.454710+05:30"},{"city":"Jodhpur","state":"Rajasthan","latitude":26.2389,"longitude":73.0243,"temp":31.6,"humidity":58,"rain":0.0,"pressure":977.6,"uv_index":8.45,"wind_gusts":38.5,"aqi":106,"pm10":116.9,"pm2_5":33.2,"no2":8.2,"co":153.0,"o3":53.0,"so2":2.5,"mosquito_risk":0,"arthritis_risk":5,"migraine_risk":7,"frizz_risk":1,"updated_at":"2026-06-28T00:54:42.454716+05:30"},{"city":"Udaipur","state":"Rajasthan","latitude":24.5854,"longitude":73.7125,"temp":26.2,"humidity":86,"rain":0.0,"pressure":942.2,"uv_index":8.7,"wind_gusts":32.4,"aqi":70,"pm10":48.5,"pm2_5":26.0,"no2":16.1,"co":228.0,"o3":28.0,"so2":2.0,"mosquito_risk":7,"arthritis_risk":5,"migraine_risk":7,"frizz_risk":1,"updated_at":"2026-06-28T00:54:42.454721+05:30"},{"city":"Kota","state":"Rajasthan","latitude":25.2138,"longitude":75.8648,"temp":28.6,"humidity":77,"rain":0.0,"pressure":974.0,"uv_index":6.25,"wind_gusts":30.2,"aqi":81,"pm10":32.6,"pm2_5":22.6,"no2":8.6,"co":214.0,"o3":62.0,"so2":4.4,"mosquito_risk":7,"arthritis_risk":5,"migraine_risk":7,"frizz_risk":1,"updated_at":"2026-06-28T00:54:42.454726+05:30"},{"city":"Bikaner","state":"Rajasthan","latitude":28.0229,"longitude":73.3119,"temp":34.5,"humidity":42,"rain":0.0,"pressure":975.2,"uv_index":8.45,"wind_gusts":32.4,"aqi":93,"pm10":152.3,"pm2_5":51.2,"no2":2.3,"co":138.0,"o3":64.0,"so2":2.6,"mosquito_risk":0,"arthritis_risk":5,"migraine_risk":7,"frizz_risk":1,"updated_at":"2026-06-28T00:54:42.454732+05:30"},{"city":"Ajmer","state":"Rajasthan","latitude":26.4499,"longitude":74.6399,"temp":28.6,"humidity":66,"rain":0.0,"pressure":950.1,"uv_index":8.35,"wind_gusts":42.1,"aqi":86,"pm10":85.7,"pm2_5":35.6,"no2":9.3,"co":149.0,"o3":57.0,"so2":4.6,"mosquito_risk":7,"arthritis_risk":5,"migraine_risk":7,"frizz_risk":1,"updated_at":"2026-06-28T00:54:42.454737+05:30"},{"city":"Gwalior","state":"Madhya Pradesh","latitude":26.2183,"longitude":78.1828,"temp":30.7,"humidity":63,"rain":0.0,"pressure":977.9,"uv_index":7.5,"wind_gusts":40.3,"aqi":89,"pm10":46.3,"pm2_5":27.8,"no2":16.2,"co":151.0,"o3":43.0,"so2":3.5,"mosquito_risk":3,"arthritis_risk":5,"migraine_risk":7,"frizz_risk":1,"updated_at":"2026-06-28T00:54:42.454743+05:30"},{"city":"Indore","state":"Madhya Pradesh","latitude":22.7196,"longitude":75.8577,"temp":25.4,"humidity":93,"rain":0.0,"pressure":944.0,"uv_index":3.25,"wind_gusts":40.0,"aqi":85,"pm10":34.5,"pm2_5":25.3,"no2":12.9,"co":457.0,"o3":56.0,"so2":4.9,"mosquito_risk":7,"arthritis_risk":5,"migraine_risk":3,"frizz_risk":1,"updated_at":"2026-06-28T00:54:42.454749+05:30"},{"city":"Bhopal","state":"Madhya Pradesh","latitude":23.2599,"longitude":77.4126,"temp":26.0,"humidity":90,"rain":0.0,"pressure":949.7,"uv_index":3.3,"wind_gusts":23.0,"aqi":88,"pm10":33.3,"pm2_5":26.4,"no2":9.0,"co":330.0,"o3":64.0,"so2":3.7,"mosquito_risk":7,"arthritis_risk":5,"migraine_risk":3,"frizz_risk":1,"updated_at":"2026-06-28T00:54:42.454754+05:30"},{"city":"Jabalpur","state":"Madhya Pradesh","latitude":23.1815,"longitude":79.9864,"temp":27.2,"humidity":90,"rain":0.0,"pressure":957.6,"uv_index":8.8,"wind_gusts":30.6,"aqi":64,"pm10":19.8,"pm2_5":18.6,"no2":10.4,"co":258.0,"o3":71.0,"so2":3.0,"mosquito_risk":7,"arthritis_risk":5,"migraine_risk":7,"frizz_risk":1,"updated_at":"2026-06-28T00:54:42.454758+05:30"},{"city":"Ujjain","state":"Madhya Pradesh","latitude":23.1765,"longitude":75.7885,"temp":25.6,"humidity":91,"rain":0.0,"pressure":949.7,"uv_index":7.0,"wind_gusts":33.8,"aqi":84,"pm10":37.1,"pm2_5":26.7,"no2":8.3,"co":336.0,"o3":59.0,"so2":3.4,"mosquito_risk":7,"arthritis_risk":5,"migraine_risk":7,"frizz_risk":1,"updated_at":"2026-06-28T00:54:42.454764+05:30"},{"city":"Visakhapatnam","state":"Andhra Pradesh","latitude":17.6868,"longitude":83.2185,"temp":27.4,"humidity":93,"rain":0.0,"pressure":999.2,"uv_index":8.4,"wind_gusts":36.7,"aqi":86,"pm10":35.2,"pm2_5":27.1,"no2":23.4,"co":378.0,"o3":77.0,"so2":35.0,"mosquito_risk":7,"arthritis_risk":5,"migraine_risk":7,"frizz_risk":1,"updated_at":"2026-06-28T00:54:42.454769+05:30"},{"city":"Vijayawada","state":"Andhra Pradesh","latitude":16.5062,"longitude":80.648,"temp":28.9,"humidity":77,"rain":0.0,"pressure":998.8,"uv_index":7.95,"wind_gusts":45.0,"aqi":85,"pm10":31.9,"pm2_5":25.1,"no2":9.7,"co":323.0,"o3":75.0,"so2":4.0,"mosquito_risk":7,"arthritis_risk":5,"migraine_risk":7,"frizz_risk":1,"updated_at":"2026-06-28T00:54:42.454774+05:30"},{"city":"Guntur","state":"Andhra Pradesh","latitude":16.3067,"longitude":80.4365,"temp":28.3,"humidity":79,"rain":0.0,"pressure":1000.5,"uv_index":7.75,"wind_gusts":40.3,"aqi":86,"pm10":31.3,"pm2_5":24.7,"no2":13.3,"co":461.0,"o3":67.0,"so2":4.6,"mosquito_risk":7,"arthritis_risk":5,"migraine_risk":4,"frizz_risk":1,"updated_at":"2026-06-28T00:54:42.454780+05:30"},{"city":"Nellore","state":"Andhra Pradesh","latitude":14.4426,"longitude":79.9865,"temp":26.0,"humidity":93,"rain":0.1,"pressure":1004.2,"uv_index":8.1,"wind_gusts":36.4,"aqi":63,"pm10":22.7,"pm2_5":17.2,"no2":7.9,"co":130.0,"o3":84.0,"so2":6.1,"mosquito_risk":10,"arthritis_risk":5,"migraine_risk":4,"frizz_risk":1,"updated_at":"2026-06-28T00:54:42.454785+05:30"},{"city":"Kurnool","state":"Andhra Pradesh","latitude":15.8281,"longitude":78.0373,"temp":25.2,"humidity":95,"rain":0.1,"pressure":974.8,"uv_index":7.6,"wind_gusts":37.1,"aqi":60,"pm10":12.0,"pm2_5":8.8,"no2":7.4,"co":173.0,"o3":64.0,"so2":1.2,"mosquito_risk":10,"arthritis_risk":5,"migraine_risk":7,"frizz_risk":1,"updated_at":"2026-06-28T00:54:42.454791+05:30"},{"city":"Kakinada","state":"Andhra Pradesh","latitude":16.9891,"longitude":82.2475,"temp":27.0,"humidity":98,"rain":0.0,"pressure":1003.3,"uv_index":5.85,"wind_gusts":33.8,"aqi":71,"pm10":34.5,"pm2_5":24.0,"no2":4.6,"co":536.0,"o3":105.0,"so2":4.1,"mosquito_risk":7,"arthritis_risk":5,"migraine_risk":0,"frizz_risk":1,"updated_at":"2026-06-28T00:54:42.454797+05:30"},{"city":"Tirupati","state":"Andhra Pradesh","latitude":13.6288,"longitude":79.4192,"temp":25.0,"humidity":96,"rain":0.3,"pressure":989.7,"uv_index":7.6,"wind_gusts":42.5,"aqi":58,"pm10":24.7,"pm2_5":18.2,"no2":16.0,"co":135.0,"o3":51.0,"so2":3.7,"mosquito_risk":10,"arthritis_risk":5,"migraine_risk":7,"frizz_risk":1,"updated_at":"2026-06-28T00:54:42.454802+05:30"},{"city":"Warangal","state":"Telangana","latitude":17.9689,"longitude":79.5941,"temp":27.0,"humidity":88,"rain":0.0,"pressure":975.0,"uv_index":6.6,"wind_gusts":33.8,"aqi":90,"pm10":37.6,"pm2_5":29.5,"no2":14.1,"co":349.0,"o3":50.0,"so2":3.5,"mosquito_risk":7,"arthritis_risk":5,"migraine_risk":7,"frizz_risk":1,"updated_at":"2026-06-28T00:54:42.454808+05:30"},{"city":"Nizamabad","state":"Telangana","latitude":18.6725,"longitude":78.0941,"temp":26.1,"humidity":87,"rain":0.0,"pressure":961.7,"uv_index":4.3,"wind_gusts":33.5,"aqi":101,"pm10":43.7,"pm2_5":34.0,"no2":17.0,"co":256.0,"o3":48.0,"so2":4.2,"mosquito_risk":7,"arthritis_risk":5,"migraine_risk":3,"frizz_risk":1,"updated_at":"2026-06-28T00:54:42.454813+05:30"},{"city":"Mysore","state":"Karnataka","latitude":12.2958,"longitude":76.6396,"temp":21.5,"humidity":95,"rain":0.0,"pressure":927.6,"uv_index":7.45,"wind_gusts":48.6,"aqi":30,"pm10":4.9,"pm2_5":4.5,"no2":9.8,"co":157.0,"o3":37.0,"so2":2.2,"mosquito_risk":3,"arthritis_risk":5,"migraine_risk":7,"frizz_risk":1,"updated_at":"2026-06-28T00:54:42.454818+05:30"},{"city":"Mangalore","state":"Karnataka","latitude":12.9141,"longitude":74.856,"temp":25.3,"humidity":96,"rain":0.2,"pressure":1006.7,"uv_index":1.2,"wind_gusts":42.8,"aqi":40,"pm10":14.1,"pm2_5":9.5,"no2":6.2,"co":202.0,"o3":38.0,"so2":1.9,"mosquito_risk":10,"arthritis_risk":5,"migraine_risk":0,"frizz_risk":1,"updated_at":"2026-06-28T00:54:42.454823+05:30"},{"city":"Hubli-Dharwad","state":"Karnataka","latitude":15.3647,"longitude":75.124,"temp":22.6,"humidity":96,"rain":0.0,"pressure":938.9,"uv_index":6.3,"wind_gusts":44.3,"aqi":21,"pm10":2.8,"pm2_5":2.3,"no2":5.3,"co":120.0,"o3":41.0,"so2":1.2,"mosquito_risk":3,"arthritis_risk":5,"migraine_risk":7,"frizz_risk":1,"updated_at":"2026-06-28T00:54:42.454828+05:30"},{"city":"Belgaum","state":"Karnataka","latitude":15.8497,"longitude":74.4977,"temp":22.2,"humidity":94,"rain":0.0,"pressure":923.4,"uv_index":7.45,"wind_gusts":40.3,"aqi":21,"pm10":3.9,"pm2_5":3.0,"no2":4.9,"co":117.0,"o3":43.0,"so2":1.6,"mosquito_risk":3,"arthritis_risk":5,"migraine_risk":7,"frizz_risk":1,"updated_at":"2026-06-28T00:54:45.788945+05:30"},{"city":"Coimbatore","state":"Tamil Nadu","latitude":11.0168,"longitude":76.9558,"temp":23.3,"humidity":95,"rain":0.0,"pressure":961.1,"uv_index":8.7,"wind_gusts":50.0,"aqi":33,"pm10":5.2,"pm2_5":4.1,"no2":7.3,"co":161.0,"o3":36.0,"so2":2.6,"mosquito_risk":3,"arthritis_risk":5,"migraine_risk":7,"frizz_risk":1,"updated_at":"2026-06-28T00:54:45.788975+05:30"},{"city":"Madurai","state":"Tamil Nadu","latitude":9.9252,"longitude":78.1198,"temp":29.4,"humidity":61,"rain":0.0,"pressure":991.7,"uv_index":8.25,"wind_gusts":50.8,"aqi":67,"pm10":22.8,"pm2_5":18.0,"no2":28.5,"co":140.0,"o3":23.0,"so2":5.7,"mosquito_risk":7,"arthritis_risk":5,"migraine_risk":7,"frizz_risk":1,"updated_at":"2026-06-28T00:54:45.788984+05:30"},{"city":"Trichy","state":"Tamil Nadu","latitude":10.7905,"longitude":78.7047,"temp":28.3,"humidity":70,"rain":0.0,"pressure":998.6,"uv_index":8.25,"wind_gusts":51.5,"aqi":52,"pm10":19.9,"pm2_5":15.6,"no2":14.2,"co":252.0,"o3":46.0,"so2":4.4,"mosquito_risk":7,"arthritis_risk":5,"migraine_risk":7,"frizz_risk":1,"updated_at":"2026-06-28T00:54:45.788991+05:30"},{"city":"Salem","state":"Tamil Nadu","latitude":11.6643,"longitude":78.146,"temp":24.6,"humidity":95,"rain":0.0,"pressure":976.6,"uv_index":8.8,"wind_gusts":31.7,"aqi":59,"pm10":17.1,"pm2_5":13.3,"no2":18.0,"co":373.0,"o3":42.0,"so2":5.4,"mosquito_risk":3,"arthritis_risk":5,"migraine_risk":7,"frizz_risk":1,"updated_at":"2026-06-28T00:54:45.788998+05:30"},{"city":"Tirunelveli","state":"Tamil Nadu","latitude":8.7139,"longitude":77.7567,"temp":28.7,"humidity":66,"rain":0.0,"pressure":1002.2,"uv_index":8.55,"wind_gusts":46.8,"aqi":38,"pm10":7.8,"pm2_5":6.2,"no2":7.7,"co":155.0,"o3":38.0,"so2":2.1,"mosquito_risk":7,"arthritis_risk":5,"migraine_risk":4,"frizz_risk":1,"updated_at":"2026-06-28T00:54:45.789004+05:30"},{"city":"Vellore","state":"Tamil Nadu","latitude":12.9165,"longitude":79.1325,"temp":24.3,"humidity":96,"rain":0.0,"pressure":983.1,"uv_index":8.8,"wind_gusts":37.4,"aqi":61,"pm10":15.1,"pm2_5":10.2,"no2":9.1,"co":172.0,"o3":59.0,"so2":3.5,"mosquito_risk":3,"arthritis_risk":5,"migraine_risk":7,"frizz_risk":1,"updated_at":"2026-06-28T00:54:45.789011+05:30"},{"city":"Erode","state":"Tamil Nadu","latitude":11.341,"longitude":77.7172,"temp":26.2,"humidity":87,"rain":0.0,"pressure":988.6,"uv_index":8.6,"wind_gusts":41.8,"aqi":52,"pm10":8.7,"pm2_5":7.2,"no2":12.3,"co":158.0,"o3":35.0,"so2":2.9,"mosquito_risk":7,"arthritis_risk":5,"migraine_risk":7,"frizz_risk":1,"updated_at":"2026-06-28T00:54:45.789017+05:30"},{"city":"Kochi","state":"Kerala","latitude":9.9312,"longitude":76.2673,"temp":24.6,"humidity":98,"rain":0.1,"pressure":1009.4,"uv_index":8.55,"wind_gusts":43.2,"aqi":54,"pm10":13.6,"pm2_5":10.0,"no2":11.7,"co":174.0,"o3":29.0,"so2":3.1,"mosquito_risk":6,"arthritis_risk":0,"migraine_risk":4,"frizz_risk":1,"updated_at":"2026-06-28T00:54:45.789023+05:30"},{"city":"Thiruvananthapuram","state":"Kerala","latitude":8.5241,"longitude":76.9366,"temp":24.0,"humidity":98,"rain":0.0,"pressure":1008.7,"uv_index":7.5,"wind_gusts":52.9,"aqi":38,"pm10":11.3,"pm2_5":5.9,"no2":2.7,"co":175.0,"o3":49.0,"so2":1.0,"mosquito_risk":3,"arthritis_risk":0,"migraine_risk":4,"frizz_risk":1,"updated_at":"2026-06-28T00:54:45.789028+05:30"},{"city":"Kozhikode","state":"Kerala","latitude":11.2588,"longitude":75.7804,"temp":24.4,"humidity":99,"rain":0.1,"pressure":1008.4,"uv_index":8.55,"wind_gusts":41.4,"aqi":27,"pm10":10.1,"pm2_5":5.0,"no2":1.4,"co":175.0,"o3":52.0,"so2":0.8,"mosquito_risk":6,"arthritis_risk":0,"migraine_risk":4,"frizz_risk":1,"updated_at":"2026-06-28T00:54:45.789033+05:30"},{"city":"Thrissur","state":"Kerala","latitude":10.5276,"longitude":76.2144,"temp":23.6,"humidity":99,"rain":0.0,"pressure":1007.7,"uv_index":8.55,"wind_gusts":41.4,"aqi":55,"pm10":18.7,"pm2_5":16.4,"no2":14.7,"co":199.0,"o3":23.0,"so2":3.6,"mosquito_risk":3,"arthritis_risk":5,"migraine_risk":4,"frizz_risk":1,"updated_at":"2026-06-28T00:54:45.789038+05:30"},{"city":"Kannur","state":"Kerala","latitude":11.8745,"longitude":75.3704,"temp":24.5,"humidity":99,"rain":0.0,"pressure":1007.4,"uv_index":8.6,"wind_gusts":40.3,"aqi":35,"pm10":12.6,"pm2_5":7.9,"no2":9.0,"co":142.0,"o3":32.0,"so2":1.8,"mosquito_risk":3,"arthritis_risk":5,"migraine_risk":4,"frizz_risk":1,"updated_at":"2026-06-28T00:54:45.789043+05:30"},{"city":"Patna","state":"Bihar","latitude":25.5941,"longitude":85.1376,"temp":28.8,"humidity":91,"rain":0.0,"pressure":995.2,"uv_index":8.45,"wind_gusts":28.4,"aqi":153,"pm10":74.0,"pm2_5":67.8,"no2":23.5,"co":391.0,"o3":79.0,"so2":14.4,"mosquito_risk":7,"arthritis_risk":5,"migraine_risk":7,"frizz_risk":1,"updated_at":"2026-06-28T00:54:45.789049+05:30"},{"city":"Gaya","state":"Bihar","latitude":24.7914,"longitude":85.0002,"temp":29.2,"humidity":86,"rain":0.0,"pressure":989.0,"uv_index":8.65,"wind_gusts":27.7,"aqi":133,"pm10":55.6,"pm2_5":53.4,"no2":17.5,"co":382.0,"o3":88.0,"so2":13.0,"mosquito_risk":7,"arthritis_risk":5,"migraine_risk":7,"frizz_risk":1,"updated_at":"2026-06-28T00:54:45.789054+05:30"},{"city":"Muzaffarpur","state":"Bihar","latitude":26.1209,"longitude":85.3647,"temp":28.0,"humidity":89,"rain":0.1,"pressure":995.7,"uv_index":8.85,"wind_gusts":27.4,"aqi":154,"pm10":78.0,"pm2_5":70.8,"no2":22.1,"co":474.0,"o3":85.0,"so2":12.2,"mosquito_risk":10,"arthritis_risk":5,"migraine_risk":7,"frizz_risk":1,"updated_at":"2026-06-28T00:54:45.789059+05:30"},{"city":"Bhagalpur","state":"Bihar","latitude":25.2425,"longitude":87.0117,"temp":29.3,"humidity":82,"rain":0.2,"pressure":996.6,"uv_index":7.75,"wind_gusts":32.8,"aqi":128,"pm10":53.1,"pm2_5":51.1,"no2":14.2,"co":357.0,"o3":98.0,"so2":21.6,"mosquito_risk":10,"arthritis_risk":5,"migraine_risk":7,"frizz_risk":1,"updated_at":"2026-06-28T00:54:45.789065+05:30"},{"city":"Ranchi","state":"Jharkhand","latitude":23.3441,"longitude":85.3096,"temp":25.0,"humidity":85,"rain":0.0,"pressure":933.9,"uv_index":9.0,"wind_gusts":28.8,"aqi":128,"pm10":48.8,"pm2_5":47.3,"no2":15.7,"co":305.0,"o3":81.0,"so2":12.9,"mosquito_risk":7,"arthritis_risk":5,"migraine_risk":7,"frizz_risk":1,"updated_at":"2026-06-28T00:54:45.789070+05:30"},{"city":"Jamshedpur","state":"Jharkhand","latitude":22.8046,"longitude":86.2029,"temp":28.1,"humidity":88,"rain":0.0,"pressure":986.7,"uv_index":5.55,"wind_gusts":27.7,"aqi":132,"pm10":48.5,"pm2_5":46.3,"no2":22.7,"co":602.0,"o3":57.0,"so2":25.0,"mosquito_risk":7,"arthritis_risk":5,"migraine_risk":3,"frizz_risk":1,"updated_at":"2026-06-28T00:54:45.789076+05:30"},{"city":"Dhanbad","state":"Jharkhand","latitude":23.7957,"longitude":86.4304,"temp":28.7,"humidity":83,"rain":0.0,"pressure":975.7,"uv_index":9.1,"wind_gusts":35.3,"aqi":159,"pm10":70.8,"pm2_5":68.7,"no2":45.7,"co":1701.0,"o3":51.0,"so2":117.3,"mosquito_risk":7,"arthritis_risk":5,"migraine_risk":7,"frizz_risk":1,"updated_at":"2026-06-28T00:54:45.789081+05:30"},{"city":"Bokaro","state":"Jharkhand","latitude":23.6693,"longitude":86.1511,"temp":29.2,"humidity":77,"rain":0.0,"pressure":979.3,"uv_index":9.1,"wind_gusts":36.7,"aqi":161,"pm10":79.6,"pm2_5":77.1,"no2":38.1,"co":1255.0,"o3":69.0,"so2":103.8,"mosquito_risk":7,"arthritis_risk":5,"migraine_risk":7,"frizz_risk":1,"updated_at":"2026-06-28T00:54:45.789089+05:30"},{"city":"Bhubaneswar","state":"Odisha","latitude":20.2961,"longitude":85.8245,"temp":27.8,"humidity":94,"rain":0.0,"pressure":998.4,"uv_index":8.75,"wind_gusts":39.2,"aqi":78,"pm10":28.5,"pm2_5":25.8,"no2":7.5,"co":236.0,"o3":109.0,"so2":8.2,"mosquito_risk":7,"arthritis_risk":5,"migraine_risk":7,"frizz_risk":1,"updated_at":"2026-06-28T00:54:45.789094+05:30"},{"city":"Cuttack","state":"Odisha","latitude":20.4625,"longitude":85.8828,"temp":28.1,"humidity":93,"rain":0.0,"pressure":1000.2,"uv_index":8.65,"wind_gusts":33.5,"aqi":78,"pm10":28.5,"pm2_5":25.8,"no2":7.5,"co":240.0,"o3":109.0,"so2":8.2,"mosquito_risk":7,"arthritis_risk":5,"migraine_risk":4,"frizz_risk":1,"updated_at":"2026-06-28T00:54:45.789099+05:30"},{"city":"Rourkela","state":"Odisha","latitude":22.2604,"longitude":84.8536,"temp":28.9,"humidity":76,"rain":0.0,"pressure":980.9,"uv_index":9.0,"wind_gusts":44.3,"aqi":102,"pm10":33.8,"pm2_5":31.4,"no2":12.4,"co":301.0,"o3":95.0,"so2":27.4,"mosquito_risk":7,"arthritis_risk":5,"migraine_risk":7,"frizz_risk":1,"updated_at":"2026-06-28T00:54:45.789104+05:30"},{"city":"Raipur","state":"Chhattisgarh","latitude":21.2514,"longitude":81.6296,"temp":28.6,"humidity":81,"rain":0.0,"pressure":970.4,"uv_index":8.95,"wind_gusts":26.3,"aqi":111,"pm10":38.8,"pm2_5":37.1,"no2":31.6,"co":422.0,"o3":56.0,"so2":54.2,"mosquito_risk":7,"arthritis_risk":5,"migraine_risk":7,"frizz_risk":1,"updated_at":"2026-06-28T00:54:45.789110+05:30"},{"city":"Bhilai","state":"Chhattisgarh","latitude":21.1938,"longitude":81.3509,"temp":28.7,"humidity":80,"rain":0.0,"pressure":971.0,"uv_index":8.95,"wind_gusts":35.6,"aqi":105,"pm10":36.8,"pm2_5":35.5,"no2":24.3,"co":550.0,"o3":72.0,"so2":43.2,"mosquito_risk":7,"arthritis_risk":5,"migraine_risk":7,"frizz_risk":1,"updated_at":"2026-06-28T00:54:45.789115+05:30"},{"city":"Guwahati","state":"Assam","latitude":26.1158,"longitude":91.7086,"temp":26.7,"humidity":87,"rain":0.0,"pressure":997.1,"uv_index":7.8,"wind_gusts":34.9,"aqi":77,"pm10":25.1,"pm2_5":23.5,"no2":7.7,"co":373.0,"o3":74.0,"so2":3.1,"mosquito_risk":7,"arthritis_risk":5,"migraine_risk":7,"frizz_risk":1,"updated_at":"2026-06-28T00:54:45.789121+05:30"},{"city":"Agartala","state":"Tripura","latitude":23.8315,"longitude":91.2868,"temp":27.3,"humidity":87,"rain":0.0,"pressure":1003.3,"uv_index":8.05,"wind_gusts":38.2,"aqi":57,"pm10":13.0,"pm2_5":11.7,"no2":8.8,"co":170.0,"o3":42.0,"so2":2.0,"mosquito_risk":7,"arthritis_risk":5,"migraine_risk":4,"frizz_risk":1,"updated_at":"2026-06-28T00:54:45.789127+05:30"},{"city":"Shillong","state":"Meghalaya","latitude":25.5788,"longitude":91.8933,"temp":20.6,"humidity":91,"rain":0.1,"pressure":854.8,"uv_index":8.0,"wind_gusts":37.8,"aqi":49,"pm10":5.5,"pm2_5":5.1,"no2":5.7,"co":166.0,"o3":69.0,"so2":1.7,"mosquito_risk":6,"arthritis_risk":5,"migraine_risk":7,"frizz_risk":1,"updated_at":"2026-06-28T00:54:45.789132+05:30"},{"city":"Imphal","state":"Manipur","latitude":24.817,"longitude":93.9368,"temp":23.5,"humidity":95,"rain":0.0,"pressure":920.2,"uv_index":9.25,"wind_gusts":32.0,"aqi":58,"pm10":21.1,"pm2_5":20.1,"no2":16.4,"co":336.0,"o3":26.0,"so2":2.4,"mosquito_risk":3,"arthritis_risk":5,"migraine_risk":7,"frizz_risk":1,"updated_at":"2026-06-28T00:54:45.789137+05:30"},{"city":"Aizawl","state":"Mizoram","latitude":23.7271,"longitude":92.7176,"temp":20.4,"humidity":93,"rain":0.0,"pressure":890.3,"uv_index":8.2,"wind_gusts":35.6,"aqi":35,"pm10":4.1,"pm2_5":3.7,"no2":3.0,"co":130.0,"o3":45.0,"so2":0.8,"mosquito_risk":3,"arthritis_risk":5,"migraine_risk":7,"frizz_risk":1,"updated_at":"2026-06-28T00:54:45.789141+05:30"},{"city":"Kohima","state":"Nagaland","latitude":25.6701,"longitude":94.1077,"temp":19.1,"humidity":97,"rain":0.0,"pressure":851.7,"uv_index":7.4,"wind_gusts":25.6,"aqi":46,"pm10":13.8,"pm2_5":12.3,"no2":8.3,"co":307.0,"o3":39.0,"so2":1.1,"mosquito_risk":3,"arthritis_risk":10,"migraine_risk":7,"frizz_risk":1,"updated_at":"2026-06-28T00:54:45.789148+05:30"},{"city":"Gangtok","state":"Sikkim","latitude":27.3314,"longitude":88.6138,"temp":18.9,"humidity":95,"rain":1.6,"pressure":835.4,"uv_index":6.7,"wind_gusts":31.0,"aqi":62,"pm10":12.1,"pm2_5":11.7,"no2":15.0,"co":394.0,"o3":88.0,"so2":2.5,"mosquito_risk":6,"arthritis_risk":10,"migraine_risk":7,"frizz_risk":1,"updated_at":"2026-06-28T00:54:45.789155+05:30"},{"city":"Siliguri","state":"West Bengal","latitude":26.7271,"longitude":88.3953,"temp":25.4,"humidity":98,"rain":0.1,"pressure":989.6,"uv_index":8.8,"wind_gusts":19.8,"aqi":86,"pm10":20.1,"pm2_5":17.7,"no2":8.4,"co":445.0,"o3":114.0,"so2":3.9,"mosquito_risk":10,"arthritis_risk":5,"migraine_risk":7,"frizz_risk":1,"updated_at":"2026-06-28T00:54:49.137648+05:30"},{"city":"Durgapur","state":"West Bengal","latitude":23.5204,"longitude":87.3119,"temp":27.9,"humidity":89,"rain":0.0,"pressure":990.7,"uv_index":9.05,"wind_gusts":28.8,"aqi":136,"pm10":38.2,"pm2_5":36.6,"no2":23.0,"co":519.0,"o3":60.0,"so2":30.4,"mosquito_risk":7,"arthritis_risk":5,"migraine_risk":7,"frizz_risk":1,"updated_at":"2026-06-28T00:54:49.137678+05:30"},{"city":"Asansol","state":"West Bengal","latitude":23.6739,"longitude":86.9524,"temp":28.5,"humidity":85,"rain":0.0,"pressure":989.2,"uv_index":8.85,"wind_gusts":37.4,"aqi":137,"pm10":41.4,"pm2_5":39.3,"no2":23.3,"co":420.0,"o3":58.0,"so2":31.3,"mosquito_risk":7,"arthritis_risk":5,"migraine_risk":7,"frizz_risk":1,"updated_at":"2026-06-28T00:54:49.137688+05:30"},{"city":"Pondicherry","state":"Puducherry","latitude":11.9139,"longitude":79.8145,"temp":26.4,"humidity":85,"rain":0.0,"pressure":1007.0,"uv_index":8.4,"wind_gusts":41.4,"aqi":68,"pm10":18.2,"pm2_5":13.5,"no2":10.5,"co":264.0,"o3":67.0,"so2":8.2,"mosquito_risk":7,"arthritis_risk":5,"migraine_risk":4,"frizz_risk":1,"updated_at":"2026-06-28T00:54:49.137695+05:30"},{"city":"Port Blair","state":"Andaman and Nicobar Islands","latitude":11.6234,"longitude":92.7265,"temp":25.7,"humidity":96,"rain":0.0,"pressure":1006.5,"uv_index":2.25,"wind_gusts":41.8,"aqi":19,"pm10":5.4,"pm2_5":3.2,"no2":0.3,"co":87.0,"o3":43.0,"so2":0.2,"mosquito_risk":7,"arthritis_risk":5,"migraine_risk":0,"frizz_risk":1,"updated_at":"2026-06-28T00:54:49.137701+05:30"},{"city":"Haridwar","state":"Uttarakhand","latitude":29.9457,"longitude":78.1642,"temp":29.9,"humidity":69,"rain":0.0,"pressure":968.3,"uv_index":7.05,"wind_gusts":27.7,"aqi":148,"pm10":115.9,"pm2_5":82.0,"no2":39.6,"co":433.0,"o3":55.0,"so2":15.2,"mosquito_risk":7,"arthritis_risk":5,"migraine_risk":7,"frizz_risk":1,"updated_at":"2026-06-28T00:54:49.137707+05:30"},{"city":"Rishikesh","state":"Uttarakhand","latitude":30.0869,"longitude":78.2676,"temp":27.3,"humidity":77,"rain":0.0,"pressure":961.2,"uv_index":6.55,"wind_gusts":31.3,"aqi":100,"pm10":81.0,"pm2_5":48.7,"no2":19.9,"co":371.0,"o3":83.0,"so2":7.6,"mosquito_risk":7,"arthritis_risk":5,"migraine_risk":7,"frizz_risk":1,"updated_at":"2026-06-28T00:54:49.137713+05:30"},{"city":"Nainital","state":"Uttarakhand","latitude":29.3919,"longitude":79.4542,"temp":16.4,"humidity":90,"rain":0.0,"pressure":803.4,"uv_index":6.75,"wind_gusts":28.4,"aqi":104,"pm10":84.1,"pm2_5":44.6,"no2":18.8,"co":354.0,"o3":83.0,"so2":7.1,"mosquito_risk":3,"arthritis_risk":10,"migraine_risk":7,"frizz_risk":0,"updated_at":"2026-06-28T00:54:49.137719+05:30"},{"city":"Mussoorie","state":"Uttarakhand","latitude":30.4599,"longitude":78.0664,"temp":17.5,"humidity":85,"rain":0.0,"pressure":801.3,"uv_index":5.7,"wind_gusts":40.7,"aqi":114,"pm10":88.5,"pm2_5":60.1,"no2":39.9,"co":348.0,"o3":62.0,"so2":11.2,"mosquito_risk":3,"arthritis_risk":10,"migraine_risk":3,"frizz_risk":0,"updated_at":"2026-06-28T00:54:49.137726+05:30"},{"city":"Dharamshala","state":"Himachal Pradesh","latitude":32.219,"longitude":76.3234,"temp":22.7,"humidity":73,"rain":0.1,"pressure":866.6,"uv_index":7.9,"wind_gusts":31.0,"aqi":56,"pm10":10.6,"pm2_5":9.9,"no2":14.6,"co":277.0,"o3":64.0,"so2":0.1,"mosquito_risk":6,"arthritis_risk":5,"migraine_risk":7,"frizz_risk":1,"updated_at":"2026-06-28T00:54:49.137731+05:30"},{"city":"Dalhousie","state":"Himachal Pradesh","latitude":32.5387,"longitude":75.971,"temp":15.7,"humidity":97,"rain":0.1,"pressure":801.7,"uv_index":7.1,"wind_gusts":33.1,"aqi":108,"pm10":50.9,"pm2_5":38.2,"no2":25.4,"co":476.0,"o3":61.0,"so2":1.6,"mosquito_risk":6,"arthritis_risk":10,"migraine_risk":7,"frizz_risk":0,"updated_at":"2026-06-28T00:54:49.137738+05:30"},{"city":"Patiala","state":"Punjab","latitude":30.3398,"longitude":76.3869,"temp":32.3,"humidity":59,"rain":0.0,"pressure":971.9,"uv_index":7.65,"wind_gusts":33.5,"aqi":165,"pm10":293.4,"pm2_5":119.7,"no2":45.9,"co":767.0,"o3":40.0,"so2":10.6,"mosquito_risk":0,"arthritis_risk":5,"migraine_risk":7,"frizz_risk":1,"updated_at":"2026-06-28T00:54:49.137743+05:30"},{"city":"Bhatinda","state":"Punjab","latitude":30.211,"longitude":74.9455,"temp":32.4,"humidity":64,"rain":0.0,"pressure":976.9,"uv_index":8.05,"wind_gusts":27.0,"aqi":154,"pm10":99.9,"pm2_5":78.2,"no2":61.9,"co":576.0,"o3":29.0,"so2":11.6,"mosquito_risk":3,"arthritis_risk":5,"migraine_risk":7,"frizz_risk":1,"updated_at":"2026-06-28T00:54:49.137749+05:30"},{"city":"Rohtak","state":"Haryana","latitude":28.8955,"longitude":76.6066,"temp":31.6,"humidity":64,"rain":0.0,"pressure":975.2,"uv_index":7.1,"wind_gusts":28.8,"aqi":183,"pm10":306.4,"pm2_5":111.3,"no2":82.6,"co":857.0,"o3":0.0,"so2":15.0,"mosquito_risk":3,"arthritis_risk":5,"migraine_risk":7,"frizz_risk":1,"updated_at":"2026-06-28T00:54:49.137755+05:30"},{"city":"Panipat","state":"Haryana","latitude":29.3909,"longitude":76.9635,"temp":30.8,"humidity":67,"rain":0.0,"pressure":974.0,"uv_index":6.8,"wind_gusts":28.8,"aqi":503,"pm10":540.2,"pm2_5":143.9,"no2":67.1,"co":775.0,"o3":17.0,"so2":12.4,"mosquito_risk":3,"arthritis_risk":5,"migraine_risk":7,"frizz_risk":1,"updated_at":"2026-06-28T00:54:49.137761+05:30"},{"city":"Mathura","state":"Uttar Pradesh","latitude":27.4924,"longitude":77.6737,"temp":32.2,"humidity":57,"rain":0.0,"pressure":980.6,"uv_index":7.4,"wind_gusts":31.0,"aqi":152,"pm10":342.7,"pm2_5":73.8,"no2":39.1,"co":450.0,"o3":33.0,"so2":5.2,"mosquito_risk":0,"arthritis_risk":5,"migraine_risk":7,"frizz_risk":1,"updated_at":"2026-06-28T00:54:49.137767+05:30"},{"city":"Vrindavan","state":"Uttar Pradesh","latitude":27.5823,"longitude":77.7027,"temp":31.5,"humidity":62,"rain":0.0,"pressure":980.9,"uv_index":7.4,"wind_gusts":28.4,"aqi":152,"pm10":342.7,"pm2_5":73.8,"no2":39.1,"co":521.0,"o3":33.0,"so2":5.2,"mosquito_risk":3,"arthritis_risk":5,"migraine_risk":7,"frizz_risk":1,"updated_at":"2026-06-28T00:54:49.137773+05:30"},{"city":"Ayodhya","state":"Uttar Pradesh","latitude":26.7922,"longitude":82.1998,"temp":29.6,"humidity":79,"rain":0.1,"pressure":989.7,"uv_index":8.0,"wind_gusts":23.4,"aqi":146,"pm10":118.7,"pm2_5":85.4,"no2":47.7,"co":1013.0,"o3":41.0,"so2":13.1,"mosquito_risk":10,"arthritis_risk":5,"migraine_risk":7,"frizz_risk":1,"updated_at":"2026-06-28T00:54:49.137779+05:30"},{"city":"Ratlam","state":"Madhya Pradesh","latitude":23.3315,"longitude":75.0367,"temp":25.6,"humidity":88,"rain":0.0,"pressure":950.5,"uv_index":8.1,"wind_gusts":32.0,"aqi":81,"pm10":38.4,"pm2_5":26.4,"no2":7.3,"co":292.0,"o3":61.0,"so2":3.2,"mosquito_risk":7,"arthritis_risk":5,"migraine_risk":7,"frizz_risk":1,"updated_at":"2026-06-28T00:54:49.137784+05:30"},{"city":"Sagar","state":"Madhya Pradesh","latitude":23.8388,"longitude":78.7378,"temp":27.2,"humidity":80,"rain":0.0,"pressure":946.2,"uv_index":8.1,"wind_gusts":24.1,"aqi":65,"pm10":30.6,"pm2_5":23.6,"no2":9.5,"co":230.0,"o3":69.0,"so2":3.1,"mosquito_risk":7,"arthritis_risk":5,"migraine_risk":7,"frizz_risk":1,"updated_at":"2026-06-28T00:54:49.137789+05:30"},{"city":"Satna","state":"Madhya Pradesh","latitude":24.6005,"longitude":80.8322,"temp":29.5,"humidity":72,"rain":0.0,"pressure":966.7,"uv_index":6.35,"wind_gusts":25.9,"aqi":76,"pm10":29.3,"pm2_5":20.8,"no2":7.4,"co":194.0,"o3":86.0,"so2":3.3,"mosquito_risk":7,"arthritis_risk":5,"migraine_risk":7,"frizz_risk":1,"updated_at":"2026-06-28T00:54:49.137795+05:30"},{"city":"Akola","state":"Maharashtra","latitude":20.7002,"longitude":77.0082,"temp":27.1,"humidity":90,"rain":0.0,"pressure":971.4,"uv_index":5.8,"wind_gusts":34.2,"aqi":81,"pm10":23.8,"pm2_5":17.9,"no2":8.8,"co":192.0,"o3":72.0,"so2":4.1,"mosquito_risk":7,"arthritis_risk":5,"migraine_risk":3,"frizz_risk":1,"updated_at":"2026-06-28T00:54:49.137801+05:30"},{"city":"Amravati","state":"Maharashtra","latitude":20.9374,"longitude":77.7796,"temp":26.7,"humidity":88,"rain":0.0,"pressure":963.6,"uv_index":8.45,"wind_gusts":36.0,"aqi":79,"pm10":21.6,"pm2_5":16.9,"no2":9.9,"co":242.0,"o3":68.0,"so2":4.4,"mosquito_risk":7,"arthritis_risk":5,"migraine_risk":7,"frizz_risk":1,"updated_at":"2026-06-28T00:54:49.137807+05:30"},{"city":"Latur","state":"Maharashtra","latitude":18.4088,"longitude":76.5604,"temp":24.5,"humidity":91,"rain":0.0,"pressure":936.9,"uv_index":6.9,"wind_gusts":28.8,"aqi":82,"pm10":31.4,"pm2_5":20.8,"no2":11.6,"co":183.0,"o3":52.0,"so2":2.3,"mosquito_risk":3,"arthritis_risk":5,"migraine_risk":7,"frizz_risk":1,"updated_at":"2026-06-28T00:54:49.137814+05:30"},{"city":"Nanded","state":"Maharashtra","latitude":19.1383,"longitude":77.3091,"temp":25.8,"humidity":88,"rain":0.0,"pressure":965.5,"uv_index":8.2,"wind_gusts":29.2,"aqi":94,"pm10":27.0,"pm2_5":19.3,"no2":7.8,"co":195.0,"o3":66.0,"so2":2.0,"mosquito_risk":7,"arthritis_risk":5,"migraine_risk":7,"frizz_risk":1,"updated_at":"2026-06-28T00:54:49.137819+05:30"},{"city":"Gulbarga","state":"Karnataka","latitude":17.3297,"longitude":76.8343,"temp":24.8,"humidity":94,"rain":0.0,"pressure":956.3,"uv_index":8.6,"wind_gusts":40.0,"aqi":52,"pm10":13.6,"pm2_5":10.5,"no2":12.5,"co":177.0,"o3":47.0,"so2":3.0,"mosquito_risk":3,"arthritis_risk":5,"migraine_risk":7,"frizz_risk":1,"updated_at":"2026-06-28T00:54:49.137824+05:30"},{"city":"Bidar","state":"Karnataka","latitude":17.9104,"longitude":77.5199,"temp":23.6,"humidity":97,"rain":0.1,"pressure":932.6,"uv_index":8.35,"wind_gusts":37.1,"aqi":86,"pm10":31.5,"pm2_5":23.9,"no2":17.5,"co":171.0,"o3":53.0,"so2":3.7,"mosquito_risk":6,"arthritis_risk":5,"migraine_risk":7,"frizz_risk":1,"updated_at":"2026-06-28T00:54:49.137829+05:30"},{"city":"Hospet","state":"Karnataka","latitude":15.2689,"longitude":76.3909,"temp":24.2,"humidity":87,"rain":0.0,"pressure":954.0,"uv_index":7.85,"wind_gusts":46.4,"aqi":28,"pm10":4.8,"pm2_5":4.1,"no2":7.9,"co":159.0,"o3":36.0,"so2":1.5,"mosquito_risk":3,"arthritis_risk":5,"migraine_risk":7,"frizz_risk":1,"updated_at":"2026-06-28T00:54:49.137834+05:30"},{"city":"Tirupur","state":"Tamil Nadu","latitude":11.1085,"longitude":77.3411,"temp":24.7,"humidity":90,"rain":0.0,"pressure":974.6,"uv_index":8.9,"wind_gusts":55.1,"aqi":54,"pm10":9.7,"pm2_5":8.2,"no2":14.9,"co":142.0,"o3":31.0,"so2":3.8,"mosquito_risk":3,"arthritis_risk":5,"migraine_risk":7,"frizz_risk":1,"updated_at":"2026-06-28T00:54:49.137839+05:30"},{"city":"Alappuzha","state":"Kerala","latitude":9.4981,"longitude":76.3388,"temp":24.6,"humidity":97,"rain":0.1,"pressure":1009.6,"uv_index":8.5,"wind_gusts":44.6,"aqi":49,"pm10":11.3,"pm2_5":6.2,"no2":7.1,"co":88.0,"o3":40.0,"so2":1.9,"mosquito_risk":6,"arthritis_risk":0,"migraine_risk":4,"frizz_risk":1,"updated_at":"2026-06-28T00:54:49.137844+05:30"},{"city":"Munnar","state":"Kerala","latitude":10.0889,"longitude":77.0595,"temp":16.6,"humidity":99,"rain":0.0,"pressure":856.2,"uv_index":7.95,"wind_gusts":41.0,"aqi":27,"pm10":3.5,"pm2_5":3.1,"no2":7.9,"co":104.0,"o3":32.0,"so2":1.6,"mosquito_risk":3,"arthritis_risk":10,"migraine_risk":7,"frizz_risk":1,"updated_at":"2026-06-28T00:54:49.137850+05:30"},{"city":"Silchar","state":"Assam","latitude":24.8333,"longitude":92.7789,"temp":25.9,"humidity":97,"rain":0.1,"pressure":1002.4,"uv_index":8.5,"wind_gusts":32.4,"aqi":72,"pm10":18.6,"pm2_5":16.5,"no2":7.2,"co":204.0,"o3":64.0,"so2":3.3,"mosquito_risk":10,"arthritis_risk":5,"migraine_risk":4,"frizz_risk":1,"updated_at":"2026-06-28T00:54:49.137855+05:30"},{"city":"Dibrugarh","state":"Assam","latitude":27.4728,"longitude":94.912,"temp":25.0,"humidity":99,"rain":0.1,"pressure":990.9,"uv_index":7.45,"wind_gusts":41.0,"aqi":63,"pm10":14.6,"pm2_5":13.2,"no2":5.7,"co":256.0,"o3":88.0,"so2":1.5,"mosquito_risk":10,"arthritis_risk":5,"migraine_risk":7,"frizz_risk":1,"updated_at":"2026-06-28T00:54:49.137860+05:30"}]