[{"city":"Delhi","state":"Delhi","latitude":28.6139,"longitude":77.209,"temp":38.8,"humidity":20,"rain":0.0,"pressure":980.9,"uv_index":7.7,"wind_gusts":41.4,"aqi":301,"pm10":157.9,"pm2_5":57.4,"no2":7.9,"co":386.0,"o3":184.0,"so2":22.2,"mosquito_risk":0,"arthritis_risk":5,"migraine_risk":10,"frizz_risk":0,"updated_at":"2026-05-16T11:53:41.205612+05:30"},{"city":"Mumbai","state":"Maharashtra","latitude":19.076,"longitude":72.8777,"temp":33.0,"humidity":61,"rain":0.0,"pressure":1005.9,"uv_index":7.9,"wind_gusts":49.0,"aqi":61,"pm10":32.8,"pm2_5":17.1,"no2":4.0,"co":174.0,"o3":89.0,"so2":6.0,"mosquito_risk":3,"arthritis_risk":5,"migraine_risk":4,"frizz_risk":1,"updated_at":"2026-05-16T11:53:41.205652+05:30"},{"city":"Bangalore","state":"Karnataka","latitude":12.9716,"longitude":77.5946,"temp":30.1,"humidity":43,"rain":0.0,"pressure":910.7,"uv_index":8.1,"wind_gusts":37.1,"aqi":137,"pm10":82.7,"pm2_5":48.5,"no2":9.3,"co":408.0,"o3":157.0,"so2":11.7,"mosquito_risk":0,"arthritis_risk":5,"migraine_risk":7,"frizz_risk":1,"updated_at":"2026-05-16T11:53:41.205667+05:30"},{"city":"Hyderabad","state":"Telangana","latitude":17.385,"longitude":78.4867,"temp":36.7,"humidity":35,"rain":0.0,"pressure":951.6,"uv_index":9.3,"wind_gusts":29.5,"aqi":151,"pm10":71.2,"pm2_5":41.8,"no2":2.8,"co":373.0,"o3":141.0,"so2":7.0,"mosquito_risk":0,"arthritis_risk":5,"migraine_risk":10,"frizz_risk":1,"updated_at":"2026-05-16T11:53:41.205677+05:30"},{"city":"Chennai","state":"Tamil Nadu","latitude":13.0827,"longitude":80.2707,"temp":30.5,"humidity":73,"rain":0.0,"pressure":1004.1,"uv_index":7.6,"wind_gusts":28.1,"aqi":34,"pm10":14.0,"pm2_5":10.4,"no2":7.3,"co":201.0,"o3":94.0,"so2":14.8,"mosquito_risk":3,"arthritis_risk":5,"migraine_risk":4,"frizz_risk":1,"updated_at":"2026-05-16T11:53:41.205686+05:30"},{"city":"Kolkata","state":"West Bengal","latitude":22.5726,"longitude":88.3639,"temp":34.5,"humidity":61,"rain":0.0,"pressure":1002.8,"uv_index":9.0,"wind_gusts":37.4,"aqi":59,"pm10":33.4,"pm2_5":19.2,"no2":1.9,"co":271.0,"o3":102.0,"so2":6.1,"mosquito_risk":3,"arthritis_risk":5,"migraine_risk":4,"frizz_risk":1,"updated_at":"2026-05-16T11:53:41.205694+05:30"},{"city":"Pune","state":"Maharashtra","latitude":18.5204,"longitude":73.8567,"temp":36.2,"humidity":29,"rain":0.0,"pressure":946.8,"uv_index":8.5,"wind_gusts":38.2,"aqi":67,"pm10":30.7,"pm2_5":19.2,"no2":3.0,"co":192.0,"o3":128.0,"so2":10.7,"mosquito_risk":0,"arthritis_risk":5,"migraine_risk":10,"frizz_risk":0,"updated_at":"2026-05-16T11:53:41.205701+05:30"},{"city":"Ahmedabad","state":"Gujarat","latitude":23.0225,"longitude":72.5714,"temp":37.2,"humidity":35,"rain":0.0,"pressure":1000.1,"uv_index":8.15,"wind_gusts":31.0,"aqi":51,"pm10":47.0,"pm2_5":16.5,"no2":1.6,"co":182.0,"o3":94.0,"so2":3.9,"mosquito_risk":0,"arthritis_risk":5,"migraine_risk":7,"frizz_risk":1,"updated_at":"2026-05-16T11:53:41.205708+05:30"},{"city":"Jaipur","state":"Rajasthan","latitude":26.9124,"longitude":75.7873,"temp":38.0,"humidity":21,"rain":0.0,"pressure":958.6,"uv_index":8.25,"wind_gusts":24.5,"aqi":153,"pm10":368.8,"pm2_5":70.3,"no2":1.8,"co":228.0,"o3":164.0,"so2":10.6,"mosquito_risk":0,"arthritis_risk":5,"migraine_risk":10,"frizz_risk":0,"updated_at":"2026-05-16T11:53:41.205719+05:30"},{"city":"Lucknow","state":"Uttar Pradesh","latitude":26.8467,"longitude":80.9462,"temp":38.3,"humidity":28,"rain":0.0,"pressure":990.8,"uv_index":8.2,"wind_gusts":32.0,"aqi":154,"pm10":197.9,"pm2_5":60.3,"no2":2.3,"co":312.0,"o3":203.0,"so2":21.5,"mosquito_risk":0,"arthritis_risk":5,"migraine_risk":10,"frizz_risk":1,"updated_at":"2026-05-16T11:53:41.205726+05:30"},{"city":"Kanpur","state":"Uttar Pradesh","latitude":26.4499,"longitude":80.3319,"temp":39.0,"humidity":25,"rain":0.0,"pressure":989.2,"uv_index":8.25,"wind_gusts":32.8,"aqi":152,"pm10":244.9,"pm2_5":60.5,"no2":1.9,"co":286.0,"o3":193.0,"so2":17.9,"mosquito_risk":0,"arthritis_risk":5,"migraine_risk":10,"frizz_risk":0,"updated_at":"2026-05-16T11:53:41.205732+05:30"},{"city":"Chandigarh","state":"Chandigarh","latitude":30.7333,"longitude":76.7794,"temp":34.8,"humidity":29,"rain":0.0,"pressure":967.3,"uv_index":7.7,"wind_gusts":38.5,"aqi":86,"pm10":44.6,"pm2_5":25.0,"no2":2.5,"co":240.0,"o3":163.0,"so2":10.9,"mosquito_risk":0,"arthritis_risk":5,"migraine_risk":7,"frizz_risk":0,"updated_at":"2026-05-16T11:53:41.205739+05:30"},{"city":"Srinagar","state":"Jammu and Kashmir","latitude":34.0837,"longitude":74.7973,"temp":22.6,"humidity":48,"rain":0.0,"pressure":843.4,"uv_index":8.9,"wind_gusts":37.4,"aqi":100,"pm10":30.3,"pm2_5":19.3,"no2":1.8,"co":393.0,"o3":141.0,"so2":2.9,"mosquito_risk":0,"arthritis_risk":5,"migraine_risk":7,"frizz_risk":0,"updated_at":"2026-05-16T11:53:41.205746+05:30"},{"city":"Jammu","state":"Jammu and Kashmir","latitude":32.7266,"longitude":74.857,"temp":33.1,"humidity":32,"rain":0.0,"pressure":971.2,"uv_index":8.5,"wind_gusts":25.9,"aqi":97,"pm10":24.9,"pm2_5":13.9,"no2":1.7,"co":245.0,"o3":148.0,"so2":2.1,"mosquito_risk":0,"arthritis_risk":5,"migraine_risk":7,"frizz_risk":0,"updated_at":"2026-05-16T11:53:41.205753+05:30"},{"city":"Amritsar","state":"Punjab","latitude":31.634,"longitude":74.8723,"temp":35.2,"humidity":30,"rain":0.0,"pressure":979.1,"uv_index":8.35,"wind_gusts":23.4,"aqi":135,"pm10":22.7,"pm2_5":17.3,"no2":2.7,"co":327.0,"o3":177.0,"so2":9.6,"mosquito_risk":0,"arthritis_risk":5,"migraine_risk":10,"frizz_risk":0,"updated_at":"2026-05-16T11:53:41.205759+05:30"},{"city":"Ludhiana","state":"Punjab","latitude":30.901,"longitude":75.8573,"temp":35.7,"humidity":29,"rain":0.0,"pressure":977.1,"uv_index":7.95,"wind_gusts":38.2,"aqi":116,"pm10":46.2,"pm2_5":27.8,"no2":1.6,"co":348.0,"o3":156.0,"so2":4.7,"mosquito_risk":0,"arthritis_risk":5,"migraine_risk":10,"frizz_risk":0,"updated_at":"2026-05-16T11:53:41.205766+05:30"},{"city":"Jalandhar","state":"Punjab","latitude":31.326,"longitude":75.5762,"temp":34.5,"humidity":35,"rain":0.0,"pressure":978.2,"uv_index":8.15,"wind_gusts":30.2,"aqi":136,"pm10":49.8,"pm2_5":26.5,"no2":1.7,"co":376.0,"o3":163.0,"so2":5.6,"mosquito_risk":0,"arthritis_risk":5,"migraine_risk":7,"frizz_risk":1,"updated_at":"2026-05-16T11:53:41.205772+05:30"},{"city":"Dehradun","state":"Uttarakhand","latitude":30.6284,"longitude":78.0322,"temp":24.3,"humidity":38,"rain":0.0,"pressure":832.3,"uv_index":8.1,"wind_gusts":41.4,"aqi":55,"pm10":27.7,"pm2_5":10.7,"no2":0.7,"co":164.0,"o3":133.0,"so2":1.1,"mosquito_risk":0,"arthritis_risk":5,"migraine_risk":7,"frizz_risk":0,"updated_at":"2026-05-16T11:53:41.205779+05:30"},{"city":"Shimla","state":"Himachal Pradesh","latitude":31.1048,"longitude":77.1734,"temp":22.3,"humidity":29,"rain":0.0,"pressure":787.7,"uv_index":8.2,"wind_gusts":45.7,"aqi":66,"pm10":39.1,"pm2_5":14.6,"no2":0.7,"co":155.0,"o3":134.0,"so2":2.3,"mosquito_risk":0,"arthritis_risk":5,"migraine_risk":7,"frizz_risk":0,"updated_at":"2026-05-16T11:53:41.205788+05:30"},{"city":"Manali","state":"Himachal Pradesh","latitude":32.2396,"longitude":77.1887,"temp":21.5,"humidity":35,"rain":0.0,"pressure":819.1,"uv_index":9.75,"wind_gusts":38.9,"aqi":60,"pm10":13.7,"pm2_5":6.9,"no2":1.9,"co":152.0,"o3":145.0,"so2":0.4,"mosquito_risk":0,"arthritis_risk":5,"migraine_risk":7,"frizz_risk":0,"updated_at":"2026-05-16T11:53:41.205795+05:30"},{"city":"Gurgaon","state":"Haryana","latitude":28.4595,"longitude":77.0266,"temp":37.7,"humidity":22,"rain":0.0,"pressure":979.6,"uv_index":7.8,"wind_gusts":37.1,"aqi":523,"pm10":441.4,"pm2_5":88.7,"no2":9.5,"co":311.0,"o3":196.0,"so2":28.0,"mosquito_risk":0,"arthritis_risk":5,"migraine_risk":10,"frizz_risk":0,"updated_at":"2026-05-16T11:53:41.205802+05:30"},{"city":"Noida","state":"Uttar Pradesh","latitude":28.5355,"longitude":77.391,"temp":37.4,"humidity":26,"rain":0.0,"pressure":982.3,"uv_index":7.7,"wind_gusts":29.2,"aqi":523,"pm10":441.4,"pm2_5":88.7,"no2":9.5,"co":494.0,"o3":196.0,"so2":28.0,"mosquito_risk":0,"arthritis_risk":5,"migraine_risk":10,"frizz_risk":0,"updated_at":"2026-05-16T11:53:41.205808+05:30"},{"city":"Ghaziabad","state":"Uttar Pradesh","latitude":28.6692,"longitude":77.4538,"temp":36.0,"humidity":31,"rain":0.0,"pressure":980.7,"uv_index":7.7,"wind_gusts":34.9,"aqi":169,"pm10":123.4,"pm2_5":52.2,"no2":7.0,"co":320.0,"o3":190.0,"so2":26.0,"mosquito_risk":0,"arthritis_risk":5,"migraine_risk":10,"frizz_risk":0,"updated_at":"2026-05-16T11:53:41.205817+05:30"},{"city":"Faridabad","state":"Haryana","latitude":28.4089,"longitude":77.3178,"temp":38.3,"humidity":21,"rain":0.0,"pressure":981.6,"uv_index":7.75,"wind_gusts":41.0,"aqi":523,"pm10":441.4,"pm2_5":88.7,"no2":9.5,"co":390.0,"o3":196.0,"so2":28.0,"mosquito_risk":0,"arthritis_risk":5,"migraine_risk":10,"frizz_risk":0,"updated_at":"2026-05-16T11:53:41.205823+05:30"},{"city":"Meerut","state":"Uttar Pradesh","latitude":28.9845,"longitude":77.7064,"temp":35.9,"humidity":28,"rain":0.0,"pressure":979.6,"uv_index":7.6,"wind_gusts":39.6,"aqi":169,"pm10":123.4,"pm2_5":52.2,"no2":7.0,"co":291.0,"o3":190.0,"so2":26.0,"mosquito_risk":0,"arthritis_risk":5,"migraine_risk":10,"frizz_risk":0,"updated_at":"2026-05-16T11:53:41.205829+05:30"},{"city":"Agra","state":"Uttar Pradesh","latitude":27.1767,"longitude":78.0081,"temp":38.3,"humidity":24,"rain":0.0,"pressure":985.6,"uv_index":8.05,"wind_gusts":29.5,"aqi":348,"pm10":415.4,"pm2_5":75.7,"no2":2.1,"co":326.0,"o3":186.0,"so2":11.9,"mosquito_risk":0,"arthritis_risk":5,"migraine_risk":10,"frizz_risk":0,"updated_at":"2026-05-16T11:53:41.205835+05:30"},{"city":"Varanasi","state":"Uttar Pradesh","latitude":25.3176,"longitude":82.9739,"temp":39.5,"humidity":26,"rain":0.0,"pressure":994.3,"uv_index":8.7,"wind_gusts":36.0,"aqi":156,"pm10":160.2,"pm2_5":46.9,"no2":1.5,"co":366.0,"o3":167.0,"so2":10.1,"mosquito_risk":0,"arthritis_risk":5,"migraine_risk":10,"frizz_risk":1,"updated_at":"2026-05-16T11:53:41.205842+05:30"},{"city":"Prayagraj","state":"Uttar Pradesh","latitude":25.4358,"longitude":81.8463,"temp":39.8,"humidity":26,"rain":0.0,"pressure":992.9,"uv_index":8.55,"wind_gusts":33.8,"aqi":155,"pm10":169.5,"pm2_5":52.3,"no2":1.9,"co":329.0,"o3":188.0,"so2":12.3,"mosquito_risk":0,"arthritis_risk":5,"migraine_risk":10,"frizz_risk":1,"updated_at":"2026-05-16T11:53:41.205849+05:30"},{"city":"Gorakhpur","state":"Uttar Pradesh","latitude":26.7606,"longitude":83.3732,"temp":35.2,"humidity":44,"rain":0.0,"pressure":994.2,"uv_index":8.55,"wind_gusts":30.2,"aqi":156,"pm10":84.8,"pm2_5":59.6,"no2":2.4,"co":365.0,"o3":204.0,"so2":15.0,"mosquito_risk":0,"arthritis_risk":5,"migraine_risk":10,"frizz_risk":1,"updated_at":"2026-05-16T11:53:41.205857+05:30"},{"city":"Bareilly","state":"Uttar Pradesh","latitude":28.367,"longitude":79.4304,"temp":34.5,"humidity":39,"rain":0.0,"pressure":984.5,"uv_index":8.0,"wind_gusts":31.0,"aqi":153,"pm10":82.4,"pm2_5":39.0,"no2":2.1,"co":352.0,"o3":193.0,"so2":15.0,"mosquito_risk":0,"arthritis_risk":5,"migraine_risk":7,"frizz_risk":1,"updated_at":"2026-05-16T11:53:41.205863+05:30"},{"city":"Aligarh","state":"Uttar Pradesh","latitude":27.8974,"longitude":78.088,"temp":36.7,"humidity":30,"rain":0.0,"pressure":983.4,"uv_index":7.85,"wind_gusts":33.5,"aqi":204,"pm10":419.1,"pm2_5":88.0,"no2":4.3,"co":316.0,"o3":197.0,"so2":27.8,"mosquito_risk":0,"arthritis_risk":5,"migraine_risk":10,"frizz_risk":1,"updated_at":"2026-05-16T11:53:41.205869+05:30"},{"city":"Moradabad","state":"Uttar Pradesh","latitude":28.8386,"longitude":78.7733,"temp":34.5,"humidity":36,"rain":0.0,"pressure":981.5,"uv_index":7.8,"wind_gusts":37.8,"aqi":159,"pm10":49.0,"pm2_5":38.9,"no2":3.5,"co":340.0,"o3":208.0,"so2":20.1,"mosquito_risk":0,"arthritis_risk":5,"migraine_risk":7,"frizz_risk":1,"updated_at":"2026-05-16T11:53:41.205875+05:30"},{"city":"Saharanpur","state":"Uttar Pradesh","latitude":29.9637,"longitude":77.546,"temp":33.3,"humidity":39,"rain":0.0,"pressure":974.0,"uv_index":7.35,"wind_gusts":36.7,"aqi":132,"pm10":53.1,"pm2_5":30.9,"no2":3.1,"co":324.0,"o3":187.0,"so2":13.6,"mosquito_risk":0,"arthritis_risk":5,"migraine_risk":7,"frizz_risk":1,"updated_at":"2026-05-16T11:53:41.205881+05:30"},{"city":"Jhansi","state":"Uttar Pradesh","latitude":25.4484,"longitude":78.5685,"temp":39.9,"humidity":22,"rain":0.0,"pressure":975.7,"uv_index":8.5,"wind_gusts":25.6,"aqi":95,"pm10":81.5,"pm2_5":28.8,"no2":1.5,"co":220.0,"o3":150.0,"so2":12.0,"mosquito_risk":0,"arthritis_risk":5,"migraine_risk":10,"frizz_risk":0,"updated_at":"2026-05-16T11:53:44.438063+05:30"},{"city":"Surat","state":"Gujarat","latitude":21.1702,"longitude":72.8311,"temp":36.7,"humidity":44,"rain":0.0,"pressure":1004.4,"uv_index":7.75,"wind_gusts":36.7,"aqi":71,"pm10":68.9,"pm2_5":35.9,"no2":18.7,"co":180.0,"o3":91.0,"so2":60.0,"mosquito_risk":0,"arthritis_risk":5,"migraine_risk":7,"frizz_risk":1,"updated_at":"2026-05-16T11:53:44.438104+05:30"},{"city":"Vadodara","state":"Gujarat","latitude":22.3072,"longitude":73.1812,"temp":37.6,"humidity":34,"rain":0.0,"pressure":1002.1,"uv_index":8.1,"wind_gusts":36.0,"aqi":55,"pm10":58.8,"pm2_5":24.9,"no2":3.0,"co":195.0,"o3":115.0,"so2":10.7,"mosquito_risk":0,"arthritis_risk":5,"migraine_risk":7,"frizz_risk":1,"updated_at":"2026-05-16T11:53:44.438117+05:30"},{"city":"Rajkot","state":"Gujarat","latitude":22.3039,"longitude":70.8022,"temp":36.5,"humidity":38,"rain":0.0,"pressure":992.7,"uv_index":7.75,"wind_gusts":42.1,"aqi":51,"pm10":39.2,"pm2_5":15.0,"no2":1.4,"co":128.0,"o3":92.0,"so2":5.3,"mosquito_risk":0,"arthritis_risk":5,"migraine_risk":10,"frizz_risk":1,"updated_at":"2026-05-16T11:53:44.438128+05:30"},{"city":"Thane","state":"Maharashtra","latitude":19.2183,"longitude":72.9781,"temp":37.0,"humidity":43,"rain":0.0,"pressure":1004.8,"uv_index":7.9,"wind_gusts":42.8,"aqi":61,"pm10":32.8,"pm2_5":17.1,"no2":4.0,"co":141.0,"o3":89.0,"so2":6.0,"mosquito_risk":0,"arthritis_risk":5,"migraine_risk":7,"frizz_risk":1,"updated_at":"2026-05-16T11:53:44.438138+05:30"},{"city":"Nagpur","state":"Maharashtra","latitude":21.1458,"longitude":79.0882,"temp":40.7,"humidity":23,"rain":0.0,"pressure":970.0,"uv_index":8.7,"wind_gusts":37.4,"aqi":88,"pm10":68.9,"pm2_5":38.1,"no2":7.3,"co":246.0,"o3":176.0,"so2":27.8,"mosquito_risk":0,"arthritis_risk":5,"migraine_risk":10,"frizz_risk":0,"updated_at":"2026-05-16T11:53:44.438146+05:30"},{"city":"Nashik","state":"Maharashtra","latitude":19.9975,"longitude":73.7898,"temp":35.5,"humidity":37,"rain":0.0,"pressure":944.5,"uv_index":8.2,"wind_gusts":36.7,"aqi":44,"pm10":22.8,"pm2_5":12.4,"no2":1.1,"co":137.0,"o3":88.0,"so2":1.6,"mosquito_risk":0,"arthritis_risk":5,"migraine_risk":10,"frizz_risk":1,"updated_at":"2026-05-16T11:53:44.438158+05:30"},{"city":"Aurangabad","state":"Maharashtra","latitude":19.8762,"longitude":75.3433,"temp":37.1,"humidity":25,"rain":0.0,"pressure":943.0,"uv_index":9.1,"wind_gusts":37.8,"aqi":53,"pm10":19.7,"pm2_5":12.2,"no2":1.2,"co":149.0,"o3":108.0,"so2":3.6,"mosquito_risk":0,"arthritis_risk":5,"migraine_risk":10,"frizz_risk":0,"updated_at":"2026-05-16T11:53:44.438167+05:30"},{"city":"Solapur","state":"Maharashtra","latitude":17.6599,"longitude":75.9064,"temp":38.4,"humidity":22,"rain":0.0,"pressure":955.3,"uv_index":8.5,"wind_gusts":29.2,"aqi":82,"pm10":21.7,"pm2_5":16.1,"no2":1.9,"co":181.0,"o3":154.0,"so2":7.2,"mosquito_risk":0,"arthritis_risk":5,"migraine_risk":10,"frizz_risk":0,"updated_at":"2026-05-16T11:53:44.438176+05:30"},{"city":"Kolhapur","state":"Maharashtra","latitude":16.705,"longitude":74.2433,"temp":35.1,"humidity":31,"rain":0.0,"pressure":946.5,"uv_index":8.95,"wind_gusts":46.1,"aqi":65,"pm10":33.1,"pm2_5":20.8,"no2":2.4,"co":201.0,"o3":141.0,"so2":6.2,"mosquito_risk":0,"arthritis_risk":5,"migraine_risk":10,"frizz_risk":0,"updated_at":"2026-05-16T11:53:44.438184+05:30"},{"city":"Goa","state":"Goa","latitude":15.2993,"longitude":74.124,"temp":34.4,"humidity":52,"rain":0.0,"pressure":995.7,"uv_index":8.9,"wind_gusts":36.0,"aqi":67,"pm10":24.0,"pm2_5":15.8,"no2":0.8,"co":161.0,"o3":77.0,"so2":1.4,"mosquito_risk":0,"arthritis_risk":5,"migraine_risk":7,"frizz_risk":1,"updated_at":"2026-05-16T11:53:44.438192+05:30"},{"city":"Jodhpur","state":"Rajasthan","latitude":26.2389,"longitude":73.0243,"temp":38.9,"humidity":22,"rain":0.0,"pressure":981.0,"uv_index":8.45,"wind_gusts":33.8,"aqi":117,"pm10":228.2,"pm2_5":42.1,"no2":0.8,"co":145.0,"o3":103.0,"so2":2.8,"mosquito_risk":0,"arthritis_risk":5,"migraine_risk":10,"frizz_risk":0,"updated_at":"2026-05-16T11:53:44.438201+05:30"},{"city":"Udaipur","state":"Rajasthan","latitude":24.5854,"longitude":73.7125,"temp":36.0,"humidity":22,"rain":0.0,"pressure":945.7,"uv_index":8.85,"wind_gusts":33.1,"aqi":47,"pm10":52.5,"pm2_5":16.2,"no2":0.5,"co":128.0,"o3":96.0,"so2":2.7,"mosquito_risk":0,"arthritis_risk":5,"migraine_risk":10,"frizz_risk":0,"updated_at":"2026-05-16T11:53:44.438210+05:30"},{"city":"Kota","state":"Rajasthan","latitude":25.2138,"longitude":75.8648,"temp":39.9,"humidity":20,"rain":0.0,"pressure":976.2,"uv_index":8.45,"wind_gusts":36.4,"aqi":63,"pm10":103.8,"pm2_5":23.1,"no2":0.9,"co":139.0,"o3":107.0,"so2":3.7,"mosquito_risk":0,"arthritis_risk":5,"migraine_risk":10,"frizz_risk":0,"updated_at":"2026-05-16T11:53:44.438218+05:30"},{"city":"Bikaner","state":"Rajasthan","latitude":28.0229,"longitude":73.3119,"temp":39.3,"humidity":18,"rain":0.0,"pressure":980.1,"uv_index":8.4,"wind_gusts":27.4,"aqi":95,"pm10":365.1,"pm2_5":64.3,"no2":0.6,"co":167.0,"o3":115.0,"so2":5.1,"mosquito_risk":0,"arthritis_risk":5,"migraine_risk":10,"frizz_risk":0,"updated_at":"2026-05-16T11:53:44.438227+05:30"},{"city":"Ajmer","state":"Rajasthan","latitude":26.4499,"longitude":74.6399,"temp":37.0,"humidity":22,"rain":0.0,"pressure":953.7,"uv_index":8.4,"wind_gusts":24.8,"aqi":73,"pm10":153.2,"pm2_5":37.0,"no2":0.8,"co":139.0,"o3":105.0,"so2":2.9,"mosquito_risk":0,"arthritis_risk":5,"migraine_risk":10,"frizz_risk":0,"updated_at":"2026-05-16T11:53:44.438236+05:30"},{"city":"Gwalior","state":"Madhya Pradesh","latitude":26.2183,"longitude":78.1828,"temp":40.0,"humidity":20,"rain":0.0,"pressure":980.9,"uv_index":8.25,"wind_gusts":34.6,"aqi":116,"pm10":137.4,"pm2_5":37.7,"no2":0.9,"co":203.0,"o3":145.0,"so2":8.5,"mosquito_risk":0,"arthritis_risk":5,"migraine_risk":10,"frizz_risk":0,"updated_at":"2026-05-16T11:53:44.438244+05:30"},{"city":"Indore","state":"Madhya Pradesh","latitude":22.7196,"longitude":75.8577,"temp":37.3,"humidity":21,"rain":0.0,"pressure":947.2,"uv_index":8.7,"wind_gusts":36.0,"aqi":50,"pm10":27.3,"pm2_5":12.9,"no2":1.2,"co":179.0,"o3":120.0,"so2":3.7,"mosquito_risk":0,"arthritis_risk":5,"migraine_risk":10,"frizz_risk":0,"updated_at":"2026-05-16T11:53:44.438253+05:30"},{"city":"Bhopal","state":"Madhya Pradesh","latitude":23.2599,"longitude":77.4126,"temp":39.0,"humidity":18,"rain":0.0,"pressure":952.0,"uv_index":8.7,"wind_gusts":40.7,"aqi":59,"pm10":39.2,"pm2_5":14.9,"no2":1.0,"co":155.0,"o3":127.0,"so2":5.6,"mosquito_risk":0,"arthritis_risk":5,"migraine_risk":10,"frizz_risk":0,"updated_at":"2026-05-16T11:53:44.438261+05:30"},{"city":"Jabalpur","state":"Madhya Pradesh","latitude":23.1815,"longitude":79.9864,"temp":39.7,"humidity":22,"rain":0.0,"pressure":959.3,"uv_index":8.9,"wind_gusts":33.5,"aqi":107,"pm10":66.4,"pm2_5":29.5,"no2":1.0,"co":213.0,"o3":141.0,"so2":7.3,"mosquito_risk":0,"arthritis_risk":5,"migraine_risk":10,"frizz_risk":0,"updated_at":"2026-05-16T11:53:44.438269+05:30"},{"city":"Ujjain","state":"Madhya Pradesh","latitude":23.1765,"longitude":75.7885,"temp":37.8,"humidity":19,"rain":0.0,"pressure":952.6,"uv_index":8.65,"wind_gusts":39.2,"aqi":50,"pm10":29.6,"pm2_5":13.5,"no2":0.9,"co":147.0,"o3":113.0,"so2":3.4,"mosquito_risk":0,"arthritis_risk":5,"migraine_risk":10,"frizz_risk":0,"updated_at":"2026-05-16T11:53:44.438279+05:30"},{"city":"Visakhapatnam","state":"Andhra Pradesh","latitude":17.6868,"longitude":83.2185,"temp":34.2,"humidity":54,"rain":0.0,"pressure":1001.5,"uv_index":9.15,"wind_gusts":40.7,"aqi":65,"pm10":25.7,"pm2_5":16.2,"no2":10.9,"co":250.0,"o3":77.0,"so2":33.6,"mosquito_risk":0,"arthritis_risk":5,"migraine_risk":4,"frizz_risk":1,"updated_at":"2026-05-16T11:53:44.438287+05:30"},{"city":"Vijayawada","state":"Andhra Pradesh","latitude":16.5062,"longitude":80.648,"temp":37.0,"humidity":47,"rain":0.1,"pressure":999.8,"uv_index":9.2,"wind_gusts":36.0,"aqi":68,"pm10":25.7,"pm2_5":14.3,"no2":1.9,"co":168.0,"o3":98.0,"so2":6.1,"mosquito_risk":3,"arthritis_risk":5,"migraine_risk":10,"frizz_risk":1,"updated_at":"2026-05-16T11:53:44.438296+05:30"},{"city":"Guntur","state":"Andhra Pradesh","latitude":16.3067,"longitude":80.4365,"temp":36.6,"humidity":48,"rain":0.0,"pressure":1001.0,"uv_index":9.25,"wind_gusts":34.9,"aqi":72,"pm10":27.8,"pm2_5":14.8,"no2":1.6,"co":184.0,"o3":94.0,"so2":4.1,"mosquito_risk":0,"arthritis_risk":5,"migraine_risk":7,"frizz_risk":1,"updated_at":"2026-05-16T11:53:44.438304+05:30"},{"city":"Nellore","state":"Andhra Pradesh","latitude":14.4426,"longitude":79.9865,"temp":34.8,"humidity":51,"rain":0.0,"pressure":1002.9,"uv_index":9.2,"wind_gusts":36.4,"aqi":37,"pm10":18.7,"pm2_5":12.0,"no2":1.8,"co":151.0,"o3":114.0,"so2":6.7,"mosquito_risk":0,"arthritis_risk":5,"migraine_risk":4,"frizz_risk":1,"updated_at":"2026-05-16T11:53:44.438311+05:30"},{"city":"Kurnool","state":"Andhra Pradesh","latitude":15.8281,"longitude":78.0373,"temp":38.5,"humidity":34,"rain":0.0,"pressure":974.3,"uv_index":7.7,"wind_gusts":31.3,"aqi":125,"pm10":66.4,"pm2_5":34.5,"no2":1.4,"co":214.0,"o3":132.0,"so2":8.5,"mosquito_risk":0,"arthritis_risk":5,"migraine_risk":10,"frizz_risk":1,"updated_at":"2026-05-16T11:53:44.438319+05:30"},{"city":"Kakinada","state":"Andhra Pradesh","latitude":16.9891,"longitude":82.2475,"temp":34.7,"humidity":55,"rain":0.0,"pressure":1005.1,"uv_index":9.15,"wind_gusts":37.4,"aqi":37,"pm10":14.4,"pm2_5":9.2,"no2":0.6,"co":145.0,"o3":84.0,"so2":1.0,"mosquito_risk":0,"arthritis_risk":5,"migraine_risk":4,"frizz_risk":1,"updated_at":"2026-05-16T11:53:44.438326+05:30"},{"city":"Tirupati","state":"Andhra Pradesh","latitude":13.6288,"longitude":79.4192,"temp":33.5,"humidity":50,"rain":0.0,"pressure":988.5,"uv_index":9.25,"wind_gusts":32.8,"aqi":52,"pm10":22.6,"pm2_5":13.5,"no2":2.9,"co":194.0,"o3":114.0,"so2":10.1,"mosquito_risk":0,"arthritis_risk":5,"migraine_risk":7,"frizz_risk":1,"updated_at":"2026-05-16T11:53:44.438333+05:30"},{"city":"Warangal","state":"Telangana","latitude":17.9689,"longitude":79.5941,"temp":36.0,"humidity":46,"rain":0.0,"pressure":976.7,"uv_index":9.2,"wind_gusts":35.6,"aqi":129,"pm10":43.1,"pm2_5":26.5,"no2":2.1,"co":209.0,"o3":101.0,"so2":6.9,"mosquito_risk":0,"arthritis_risk":5,"migraine_risk":10,"frizz_risk":1,"updated_at":"2026-05-16T11:53:44.438340+05:30"},{"city":"Nizamabad","state":"Telangana","latitude":18.6725,"longitude":78.0941,"temp":38.0,"humidity":22,"rain":0.0,"pressure":962.8,"uv_index":9.05,"wind_gusts":30.2,"aqi":129,"pm10":18.2,"pm2_5":15.0,"no2":1.6,"co":178.0,"o3":157.0,"so2":7.3,"mosquito_risk":0,"arthritis_risk":5,"migraine_risk":10,"frizz_risk":0,"updated_at":"2026-05-16T11:53:44.438347+05:30"},{"city":"Mysore","state":"Karnataka","latitude":12.2958,"longitude":76.6396,"temp":28.3,"humidity":63,"rain":0.0,"pressure":927.3,"uv_index":6.45,"wind_gusts":37.1,"aqi":98,"pm10":56.5,"pm2_5":34.0,"no2":5.2,"co":257.0,"o3":143.0,"so2":5.1,"mosquito_risk":7,"arthritis_risk":5,"migraine_risk":7,"frizz_risk":1,"updated_at":"2026-05-16T11:53:44.438354+05:30"},{"city":"Mangalore","state":"Karnataka","latitude":12.9141,"longitude":74.856,"temp":28.0,"humidity":84,"rain":0.0,"pressure":1005.3,"uv_index":8.5,"wind_gusts":38.2,"aqi":63,"pm10":29.5,"pm2_5":19.7,"no2":1.7,"co":224.0,"o3":81.0,"so2":1.7,"mosquito_risk":7,"arthritis_risk":5,"migraine_risk":4,"frizz_risk":1,"updated_at":"2026-05-16T11:53:44.438362+05:30"},{"city":"Hubli-Dharwad","state":"Karnataka","latitude":15.3647,"longitude":75.124,"temp":34.2,"humidity":38,"rain":0.0,"pressure":939.6,"uv_index":8.5,"wind_gusts":43.9,"aqi":76,"pm10":28.3,"pm2_5":18.4,"no2":1.9,"co":206.0,"o3":131.0,"so2":3.4,"mosquito_risk":0,"arthritis_risk":5,"migraine_risk":7,"frizz_risk":1,"updated_at":"2026-05-16T11:53:44.438368+05:30"},{"city":"Belgaum","state":"Karnataka","latitude":15.8497,"longitude":74.4977,"temp":33.7,"humidity":31,"rain":0.0,"pressure":925.3,"uv_index":9.2,"wind_gusts":42.8,"aqi":68,"pm10":27.6,"pm2_5":16.8,"no2":2.0,"co":183.0,"o3":124.0,"so2":4.4,"mosquito_risk":0,"arthritis_risk":5,"migraine_risk":7,"frizz_risk":0,"updated_at":"2026-05-16T11:53:47.669345+05:30"},{"city":"Coimbatore","state":"Tamil Nadu","latitude":11.0168,"longitude":76.9558,"temp":30.9,"humidity":57,"rain":0.0,"pressure":959.5,"uv_index":9.0,"wind_gusts":34.6,"aqi":81,"pm10":51.8,"pm2_5":28.6,"no2":2.9,"co":244.0,"o3":128.0,"so2":5.8,"mosquito_risk":0,"arthritis_risk":5,"migraine_risk":7,"frizz_risk":1,"updated_at":"2026-05-16T11:53:47.669375+05:30"},{"city":"Madurai","state":"Tamil Nadu","latitude":9.9252,"longitude":78.1198,"temp":32.6,"humidity":54,"rain":0.0,"pressure":990.3,"uv_index":9.05,"wind_gusts":24.5,"aqi":82,"pm10":51.5,"pm2_5":28.9,"no2":3.5,"co":241.0,"o3":165.0,"so2":5.9,"mosquito_risk":0,"arthritis_risk":5,"migraine_risk":7,"frizz_risk":1,"updated_at":"2026-05-16T11:53:47.669385+05:30"},{"city":"Trichy","state":"Tamil Nadu","latitude":10.7905,"longitude":78.7047,"temp":33.0,"humidity":58,"rain":0.0,"pressure":996.6,"uv_index":5.25,"wind_gusts":34.9,"aqi":83,"pm10":44.7,"pm2_5":26.8,"no2":4.1,"co":228.0,"o3":135.0,"so2":8.3,"mosquito_risk":0,"arthritis_risk":5,"migraine_risk":3,"frizz_risk":1,"updated_at":"2026-05-16T11:53:47.669393+05:30"},{"city":"Salem","state":"Tamil Nadu","latitude":11.6643,"longitude":78.146,"temp":32.4,"humidity":50,"rain":0.0,"pressure":975.0,"uv_index":8.95,"wind_gusts":28.4,"aqi":129,"pm10":65.7,"pm2_5":39.3,"no2":9.8,"co":330.0,"o3":155.0,"so2":23.0,"mosquito_risk":0,"arthritis_risk":5,"migraine_risk":7,"frizz_risk":1,"updated_at":"2026-05-16T11:53:47.669401+05:30"},{"city":"Tirunelveli","state":"Tamil Nadu","latitude":8.7139,"longitude":77.7567,"temp":36.5,"humidity":33,"rain":0.0,"pressure":1000.0,"uv_index":8.5,"wind_gusts":31.7,"aqi":51,"pm10":29.0,"pm2_5":15.4,"no2":1.3,"co":203.0,"o3":118.0,"so2":2.1,"mosquito_risk":0,"arthritis_risk":5,"migraine_risk":7,"frizz_risk":1,"updated_at":"2026-05-16T11:53:47.669408+05:30"},{"city":"Vellore","state":"Tamil Nadu","latitude":12.9165,"longitude":79.1325,"temp":33.2,"humidity":48,"rain":0.0,"pressure":981.7,"uv_index":9.25,"wind_gusts":24.5,"aqi":91,"pm10":44.1,"pm2_5":21.3,"no2":1.8,"co":320.0,"o3":107.0,"so2":6.6,"mosquito_risk":0,"arthritis_risk":5,"migraine_risk":7,"frizz_risk":1,"updated_at":"2026-05-16T11:53:47.669416+05:30"},{"city":"Erode","state":"Tamil Nadu","latitude":11.341,"longitude":77.7172,"temp":32.4,"humidity":53,"rain":0.0,"pressure":986.5,"uv_index":8.75,"wind_gusts":23.8,"aqi":91,"pm10":51.3,"pm2_5":30.2,"no2":5.6,"co":305.0,"o3":149.0,"so2":6.1,"mosquito_risk":0,"arthritis_risk":5,"migraine_risk":7,"frizz_risk":1,"updated_at":"2026-05-16T11:53:47.669423+05:30"},{"city":"Kochi","state":"Kerala","latitude":9.9312,"longitude":76.2673,"temp":28.9,"humidity":75,"rain":0.0,"pressure":1007.1,"uv_index":7.7,"wind_gusts":32.0,"aqi":65,"pm10":23.8,"pm2_5":15.4,"no2":4.1,"co":278.0,"o3":113.0,"so2":5.0,"mosquito_risk":7,"arthritis_risk":5,"migraine_risk":4,"frizz_risk":1,"updated_at":"2026-05-16T11:53:47.669429+05:30"},{"city":"Thiruvananthapuram","state":"Kerala","latitude":8.5241,"longitude":76.9366,"temp":30.0,"humidity":75,"rain":0.0,"pressure":1006.4,"uv_index":8.15,"wind_gusts":36.0,"aqi":51,"pm10":26.4,"pm2_5":15.3,"no2":1.1,"co":215.0,"o3":110.0,"so2":1.5,"mosquito_risk":7,"arthritis_risk":5,"migraine_risk":4,"frizz_risk":1,"updated_at":"2026-05-16T11:53:47.669436+05:30"},{"city":"Kozhikode","state":"Kerala","latitude":11.2588,"longitude":75.7804,"temp":28.7,"humidity":76,"rain":0.0,"pressure":1006.1,"uv_index":7.15,"wind_gusts":42.1,"aqi":66,"pm10":20.3,"pm2_5":11.0,"no2":0.9,"co":248.0,"o3":101.0,"so2":1.1,"mosquito_risk":7,"arthritis_risk":5,"migraine_risk":4,"frizz_risk":1,"updated_at":"2026-05-16T11:53:47.669443+05:30"},{"city":"Thrissur","state":"Kerala","latitude":10.5276,"longitude":76.2144,"temp":29.2,"humidity":74,"rain":0.0,"pressure":1005.3,"uv_index":8.0,"wind_gusts":33.8,"aqi":68,"pm10":19.2,"pm2_5":13.4,"no2":3.1,"co":235.0,"o3":111.0,"so2":4.2,"mosquito_risk":7,"arthritis_risk":5,"migraine_risk":4,"frizz_risk":1,"updated_at":"2026-05-16T11:53:47.669451+05:30"},{"city":"Kannur","state":"Kerala","latitude":11.8745,"longitude":75.3704,"temp":29.9,"humidity":71,"rain":0.0,"pressure":1005.2,"uv_index":7.85,"wind_gusts":39.6,"aqi":67,"pm10":19.5,"pm2_5":13.5,"no2":2.2,"co":230.0,"o3":93.0,"so2":2.1,"mosquito_risk":7,"arthritis_risk":5,"migraine_risk":4,"frizz_risk":1,"updated_at":"2026-05-16T11:53:47.669459+05:30"},{"city":"Patna","state":"Bihar","latitude":25.5941,"longitude":85.1376,"temp":34.6,"humidity":53,"rain":0.0,"pressure":997.3,"uv_index":8.8,"wind_gusts":24.8,"aqi":145,"pm10":75.4,"pm2_5":55.9,"no2":2.7,"co":408.0,"o3":196.0,"so2":16.8,"mosquito_risk":0,"arthritis_risk":5,"migraine_risk":7,"frizz_risk":1,"updated_at":"2026-05-16T11:53:47.669466+05:30"},{"city":"Gaya","state":"Bihar","latitude":24.7914,"longitude":85.0002,"temp":37.2,"humidity":37,"rain":0.0,"pressure":990.6,"uv_index":8.85,"wind_gusts":33.5,"aqi":153,"pm10":101.0,"pm2_5":50.2,"no2":1.5,"co":348.0,"o3":178.0,"so2":11.9,"mosquito_risk":0,"arthritis_risk":5,"migraine_risk":10,"frizz_risk":1,"updated_at":"2026-05-16T11:53:47.669473+05:30"},{"city":"Muzaffarpur","state":"Bihar","latitude":26.1209,"longitude":85.3647,"temp":33.1,"humidity":62,"rain":0.0,"pressure":997.5,"uv_index":8.8,"wind_gusts":30.6,"aqi":150,"pm10":65.7,"pm2_5":51.6,"no2":2.8,"co":366.0,"o3":190.0,"so2":15.1,"mosquito_risk":3,"arthritis_risk":5,"migraine_risk":7,"frizz_risk":1,"updated_at":"2026-05-16T11:53:47.669480+05:30"},{"city":"Bhagalpur","state":"Bihar","latitude":25.2425,"longitude":87.0117,"temp":33.0,"humidity":59,"rain":0.0,"pressure":998.1,"uv_index":8.8,"wind_gusts":29.9,"aqi":131,"pm10":67.8,"pm2_5":52.7,"no2":5.0,"co":361.0,"o3":185.0,"so2":27.2,"mosquito_risk":0,"arthritis_risk":5,"migraine_risk":7,"frizz_risk":1,"updated_at":"2026-05-16T11:53:47.669486+05:30"},{"city":"Ranchi","state":"Jharkhand","latitude":23.3441,"longitude":85.3096,"temp":34.2,"humidity":30,"rain":0.0,"pressure":936.4,"uv_index":9.3,"wind_gusts":38.5,"aqi":150,"pm10":89.2,"pm2_5":52.9,"no2":1.4,"co":237.0,"o3":173.0,"so2":20.2,"mosquito_risk":0,"arthritis_risk":5,"migraine_risk":7,"frizz_risk":0,"updated_at":"2026-05-16T11:53:47.669493+05:30"},{"city":"Jamshedpur","state":"Jharkhand","latitude":22.8046,"longitude":86.2029,"temp":36.9,"humidity":42,"rain":0.0,"pressure":987.4,"uv_index":9.1,"wind_gusts":35.3,"aqi":130,"pm10":66.4,"pm2_5":48.4,"no2":3.2,"co":294.0,"o3":193.0,"so2":26.9,"mosquito_risk":0,"arthritis_risk":5,"migraine_risk":10,"frizz_risk":1,"updated_at":"2026-05-16T11:53:47.669500+05:30"},{"city":"Dhanbad","state":"Jharkhand","latitude":23.7957,"longitude":86.4304,"temp":36.3,"humidity":38,"rain":0.0,"pressure":976.8,"uv_index":9.05,"wind_gusts":24.5,"aqi":161,"pm10":109.4,"pm2_5":80.6,"no2":11.2,"co":433.0,"o3":233.0,"so2":56.8,"mosquito_risk":0,"arthritis_risk":5,"migraine_risk":10,"frizz_risk":1,"updated_at":"2026-05-16T11:53:47.669506+05:30"},{"city":"Bokaro","state":"Jharkhand","latitude":23.6693,"longitude":86.1511,"temp":36.0,"humidity":41,"rain":0.0,"pressure":980.6,"uv_index":9.05,"wind_gusts":26.3,"aqi":158,"pm10":109.7,"pm2_5":66.6,"no2":9.9,"co":369.0,"o3":201.0,"so2":46.7,"mosquito_risk":0,"arthritis_risk":5,"migraine_risk":10,"frizz_risk":1,"updated_at":"2026-05-16T11:53:47.669513+05:30"},{"city":"Bhubaneswar","state":"Odisha","latitude":20.2961,"longitude":85.8245,"temp":36.2,"humidity":49,"rain":0.0,"pressure":999.7,"uv_index":9.2,"wind_gusts":44.6,"aqi":47,"pm10":27.6,"pm2_5":13.8,"no2":1.4,"co":177.0,"o3":84.0,"so2":3.5,"mosquito_risk":0,"arthritis_risk":5,"migraine_risk":10,"frizz_risk":1,"updated_at":"2026-05-16T11:53:47.669520+05:30"},{"city":"Cuttack","state":"Odisha","latitude":20.4625,"longitude":85.8828,"temp":36.4,"humidity":50,"rain":0.0,"pressure":1001.3,"uv_index":9.25,"wind_gusts":43.6,"aqi":47,"pm10":27.6,"pm2_5":13.8,"no2":1.4,"co":190.0,"o3":84.0,"so2":3.5,"mosquito_risk":0,"arthritis_risk":5,"migraine_risk":7,"frizz_risk":1,"updated_at":"2026-05-16T11:53:47.669527+05:30"},{"city":"Rourkela","state":"Odisha","latitude":22.2604,"longitude":84.8536,"temp":36.2,"humidity":51,"rain":0.0,"pressure":982.2,"uv_index":8.7,"wind_gusts":30.6,"aqi":152,"pm10":58.6,"pm2_5":40.3,"no2":2.3,"co":299.0,"o3":180.0,"so2":16.2,"mosquito_risk":0,"arthritis_risk":5,"migraine_risk":10,"frizz_risk":1,"updated_at":"2026-05-16T11:53:47.669534+05:30"},{"city":"Raipur","state":"Chhattisgarh","latitude":21.2514,"longitude":81.6296,"temp":39.3,"humidity":31,"rain":0.0,"pressure":971.9,"uv_index":9.05,"wind_gusts":50.4,"aqi":156,"pm10":84.5,"pm2_5":59.6,"no2":8.9,"co":416.0,"o3":194.0,"so2":37.5,"mosquito_risk":0,"arthritis_risk":5,"migraine_risk":10,"frizz_risk":1,"updated_at":"2026-05-16T11:53:47.669541+05:30"},{"city":"Bhilai","state":"Chhattisgarh","latitude":21.1938,"longitude":81.3509,"temp":38.8,"humidity":32,"rain":0.0,"pressure":972.2,"uv_index":9.05,"wind_gusts":52.9,"aqi":155,"pm10":73.8,"pm2_5":52.4,"no2":8.2,"co":522.0,"o3":171.0,"so2":34.1,"mosquito_risk":0,"arthritis_risk":5,"migraine_risk":10,"frizz_risk":1,"updated_at":"2026-05-16T11:53:47.669548+05:30"},{"city":"Guwahati","state":"Assam","latitude":26.1158,"longitude":91.7086,"temp":26.8,"humidity":84,"rain":0.0,"pressure":999.2,"uv_index":7.75,"wind_gusts":31.7,"aqi":85,"pm10":20.1,"pm2_5":15.9,"no2":1.5,"co":265.0,"o3":118.0,"so2":2.2,"mosquito_risk":7,"arthritis_risk":5,"migraine_risk":7,"frizz_risk":1,"updated_at":"2026-05-16T11:53:47.669555+05:30"},{"city":"Agartala","state":"Tripura","latitude":23.8315,"longitude":91.2868,"temp":28.6,"humidity":78,"rain":0.5,"pressure":1003.7,"uv_index":5.9,"wind_gusts":34.2,"aqi":69,"pm10":32.2,"pm2_5":17.2,"no2":4.7,"co":205.0,"o3":99.0,"so2":2.7,"mosquito_risk":10,"arthritis_risk":5,"migraine_risk":0,"frizz_risk":1,"updated_at":"2026-05-16T11:53:47.669563+05:30"},{"city":"Shillong","state":"Meghalaya","latitude":25.5788,"longitude":91.8933,"temp":21.2,"humidity":93,"rain":0.2,"pressure":855.5,"uv_index":6.5,"wind_gusts":43.9,"aqi":50,"pm10":6.8,"pm2_5":4.8,"no2":2.0,"co":246.0,"o3":96.0,"so2":2.8,"mosquito_risk":6,"arthritis_risk":5,"migraine_risk":7,"frizz_risk":1,"updated_at":"2026-05-16T11:53:47.669570+05:30"},{"city":"Imphal","state":"Manipur","latitude":24.817,"longitude":93.9368,"temp":27.0,"humidity":65,"rain":0.0,"pressure":922.0,"uv_index":8.75,"wind_gusts":28.8,"aqi":80,"pm10":39.3,"pm2_5":18.7,"no2":0.9,"co":189.0,"o3":110.0,"so2":3.2,"mosquito_risk":7,"arthritis_risk":5,"migraine_risk":7,"frizz_risk":1,"updated_at":"2026-05-16T11:53:47.669577+05:30"},{"city":"Aizawl","state":"Mizoram","latitude":23.7271,"longitude":92.7176,"temp":26.9,"humidity":59,"rain":0.0,"pressure":892.5,"uv_index":9.1,"wind_gusts":43.6,"aqi":55,"pm10":34.6,"pm2_5":14.3,"no2":0.6,"co":153.0,"o3":91.0,"so2":2.0,"mosquito_risk":4,"arthritis_risk":5,"migraine_risk":7,"frizz_risk":1,"updated_at":"2026-05-16T11:53:47.669585+05:30"},{"city":"Kohima","state":"Nagaland","latitude":25.6701,"longitude":94.1077,"temp":20.6,"humidity":93,"rain":0.0,"pressure":854.5,"uv_index":9.0,"wind_gusts":29.2,"aqi":56,"pm10":29.4,"pm2_5":16.5,"no2":0.9,"co":228.0,"o3":107.0,"so2":2.2,"mosquito_risk":3,"arthritis_risk":5,"migraine_risk":7,"frizz_risk":1,"updated_at":"2026-05-16T11:53:47.669592+05:30"},{"city":"Gangtok","state":"Sikkim","latitude":27.3314,"longitude":88.6138,"temp":23.0,"humidity":59,"rain":0.1,"pressure":837.2,"uv_index":9.1,"wind_gusts":37.4,"aqi":71,"pm10":26.5,"pm2_5":20.1,"no2":1.0,"co":297.0,"o3":141.0,"so2":3.8,"mosquito_risk":3,"arthritis_risk":5,"migraine_risk":7,"frizz_risk":0,"updated_at":"2026-05-16T11:53:47.669598+05:30"},{"city":"Siliguri","state":"West Bengal","latitude":26.7271,"longitude":88.3953,"temp":27.5,"humidity":72,"rain":0.0,"pressure":990.9,"uv_index":8.6,"wind_gusts":24.1,"aqi":95,"pm10":40.9,"pm2_5":29.5,"no2":1.4,"co":326.0,"o3":153.0,"so2":5.7,"mosquito_risk":7,"arthritis_risk":5,"migraine_risk":7,"frizz_risk":1,"updated_at":"2026-05-16T11:53:50.933431+05:30"},{"city":"Durgapur","state":"West Bengal","latitude":23.5204,"longitude":87.3119,"temp":35.5,"humidity":53,"rain":0.0,"pressure":991.8,"uv_index":9.0,"wind_gusts":32.8,"aqi":140,"pm10":83.8,"pm2_5":69.8,"no2":19.4,"co":538.0,"o3":194.0,"so2":77.3,"mosquito_risk":0,"arthritis_risk":5,"migraine_risk":10,"frizz_risk":1,"updated_at":"2026-05-16T11:53:50.933466+05:30"},{"city":"Asansol","state":"West Bengal","latitude":23.6739,"longitude":86.9524,"temp":35.7,"humidity":48,"rain":0.0,"pressure":990.4,"uv_index":9.05,"wind_gusts":27.4,"aqi":152,"pm10":99.4,"pm2_5":79.9,"no2":16.7,"co":583.0,"o3":222.0,"so2":68.9,"mosquito_risk":0,"arthritis_risk":5,"migraine_risk":10,"frizz_risk":1,"updated_at":"2026-05-16T11:53:50.933477+05:30"},{"city":"Pondicherry","state":"Puducherry","latitude":11.9139,"longitude":79.8145,"temp":30.1,"humidity":76,"rain":0.0,"pressure":1005.2,"uv_index":9.05,"wind_gusts":30.2,"aqi":79,"pm10":27.8,"pm2_5":20.4,"no2":4.0,"co":253.0,"o3":110.0,"so2":10.2,"mosquito_risk":3,"arthritis_risk":5,"migraine_risk":4,"frizz_risk":1,"updated_at":"2026-05-16T11:53:50.933486+05:30"},{"city":"Port Blair","state":"Andaman and Nicobar Islands","latitude":11.6234,"longitude":92.7265,"temp":28.8,"humidity":83,"rain":0.0,"pressure":1006.3,"uv_index":6.2,"wind_gusts":41.4,"aqi":29,"pm10":8.4,"pm2_5":5.2,"no2":0.3,"co":121.0,"o3":58.0,"so2":0.3,"mosquito_risk":7,"arthritis_risk":5,"migraine_risk":4,"frizz_risk":1,"updated_at":"2026-05-16T11:53:50.933495+05:30"},{"city":"Haridwar","state":"Uttarakhand","latitude":29.9457,"longitude":78.1642,"temp":33.7,"humidity":39,"rain":0.0,"pressure":972.1,"uv_index":7.5,"wind_gusts":34.2,"aqi":92,"pm10":42.5,"pm2_5":24.0,"no2":1.6,"co":265.0,"o3":167.0,"so2":7.6,"mosquito_risk":0,"arthritis_risk":5,"migraine_risk":7,"frizz_risk":1,"updated_at":"2026-05-16T11:53:50.933503+05:30"},{"city":"Rishikesh","state":"Uttarakhand","latitude":30.0869,"longitude":78.2676,"temp":33.8,"humidity":32,"rain":0.0,"pressure":965.0,"uv_index":7.6,"wind_gusts":29.9,"aqi":82,"pm10":36.1,"pm2_5":18.3,"no2":0.9,"co":201.0,"o3":148.0,"so2":3.7,"mosquito_risk":0,"arthritis_risk":5,"migraine_risk":7,"frizz_risk":0,"updated_at":"2026-05-16T11:53:50.933511+05:30"},{"city":"Nainital","state":"Uttarakhand","latitude":29.3919,"longitude":79.4542,"temp":23.6,"humidity":37,"rain":0.0,"pressure":808.2,"uv_index":8.45,"wind_gusts":38.2,"aqi":91,"pm10":32.2,"pm2_5":19.8,"no2":1.3,"co":193.0,"o3":158.0,"so2":6.4,"mosquito_risk":0,"arthritis_risk":5,"migraine_risk":7,"frizz_risk":0,"updated_at":"2026-05-16T11:53:50.933519+05:30"},{"city":"Mussoorie","state":"Uttarakhand","latitude":30.4599,"longitude":78.0664,"temp":22.4,"humidity":36,"rain":0.0,"pressure":805.3,"uv_index":8.0,"wind_gusts":47.5,"aqi":75,"pm10":35.5,"pm2_5":17.8,"no2":1.2,"co":173.0,"o3":152.0,"so2":4.7,"mosquito_risk":0,"arthritis_risk":5,"migraine_risk":7,"frizz_risk":0,"updated_at":"2026-05-16T11:53:50.933527+05:30"},{"city":"Dharamshala","state":"Himachal Pradesh","latitude":32.219,"longitude":76.3234,"temp":24.8,"humidity":44,"rain":0.1,"pressure":870.2,"uv_index":8.35,"wind_gusts":40.3,"aqi":55,"pm10":30.2,"pm2_5":11.9,"no2":0.5,"co":182.0,"o3":132.0,"so2":0.7,"mosquito_risk":3,"arthritis_risk":5,"migraine_risk":7,"frizz_risk":0,"updated_at":"2026-05-16T11:53:50.933535+05:30"},{"city":"Dalhousie","state":"Himachal Pradesh","latitude":32.5387,"longitude":75.971,"temp":22.4,"humidity":36,"rain":0.0,"pressure":807.0,"uv_index":8.6,"wind_gusts":40.7,"aqi":73,"pm10":31.1,"pm2_5":15.4,"no2":1.2,"co":173.0,"o3":143.0,"so2":1.3,"mosquito_risk":0,"arthritis_risk":5,"migraine_risk":7,"frizz_risk":0,"updated_at":"2026-05-16T11:53:50.933543+05:30"},{"city":"Patiala","state":"Punjab","latitude":30.3398,"longitude":76.3869,"temp":36.3,"humidity":27,"rain":0.0,"pressure":976.6,"uv_index":7.6,"wind_gusts":38.2,"aqi":210,"pm10":389.3,"pm2_5":66.1,"no2":1.6,"co":272.0,"o3":162.0,"so2":8.0,"mosquito_risk":0,"arthritis_risk":5,"migraine_risk":10,"frizz_risk":0,"updated_at":"2026-05-16T11:53:50.933550+05:30"},{"city":"Bhatinda","state":"Punjab","latitude":30.211,"longitude":74.9455,"temp":36.7,"humidity":24,"rain":0.0,"pressure":982.4,"uv_index":8.3,"wind_gusts":32.4,"aqi":116,"pm10":51.2,"pm2_5":27.5,"no2":3.4,"co":316.0,"o3":171.0,"so2":17.5,"mosquito_risk":0,"arthritis_risk":5,"migraine_risk":10,"frizz_risk":0,"updated_at":"2026-05-16T11:53:50.933558+05:30"},{"city":"Rohtak","state":"Haryana","latitude":28.8955,"longitude":76.6066,"temp":37.2,"humidity":26,"rain":0.0,"pressure":980.0,"uv_index":7.75,"wind_gusts":40.7,"aqi":429,"pm10":237.0,"pm2_5":60.8,"no2":2.3,"co":287.0,"o3":170.0,"so2":8.3,"mosquito_risk":0,"arthritis_risk":5,"migraine_risk":10,"frizz_risk":0,"updated_at":"2026-05-16T11:53:50.933565+05:30"},{"city":"Panipat","state":"Haryana","latitude":29.3909,"longitude":76.9635,"temp":36.7,"humidity":27,"rain":0.0,"pressure":978.6,"uv_index":7.55,"wind_gusts":40.0,"aqi":744,"pm10":555.1,"pm2_5":92.9,"no2":3.9,"co":271.0,"o3":164.0,"so2":16.4,"mosquito_risk":0,"arthritis_risk":5,"migraine_risk":10,"frizz_risk":0,"updated_at":"2026-05-16T11:53:50.933573+05:30"},{"city":"Mathura","state":"Uttar Pradesh","latitude":27.4924,"longitude":77.6737,"temp":37.8,"humidity":25,"rain":0.0,"pressure":984.6,"uv_index":8.0,"wind_gusts":29.5,"aqi":382,"pm10":434.9,"pm2_5":82.0,"no2":1.9,"co":315.0,"o3":178.0,"so2":13.2,"mosquito_risk":0,"arthritis_risk":5,"migraine_risk":10,"frizz_risk":0,"updated_at":"2026-05-16T11:53:50.933580+05:30"},{"city":"Vrindavan","state":"Uttar Pradesh","latitude":27.5823,"longitude":77.7027,"temp":37.5,"humidity":27,"rain":0.0,"pressure":985.0,"uv_index":7.95,"wind_gusts":28.4,"aqi":382,"pm10":434.9,"pm2_5":82.0,"no2":1.9,"co":310.0,"o3":178.0,"so2":13.2,"mosquito_risk":0,"arthritis_risk":5,"migraine_risk":10,"frizz_risk":0,"updated_at":"2026-05-16T11:53:50.933587+05:30"},{"city":"Ayodhya","state":"Uttar Pradesh","latitude":26.7922,"longitude":82.1998,"temp":36.0,"humidity":40,"rain":0.0,"pressure":992.5,"uv_index":8.35,"wind_gusts":29.9,"aqi":159,"pm10":119.7,"pm2_5":56.3,"no2":2.0,"co":345.0,"o3":193.0,"so2":12.7,"mosquito_risk":0,"arthritis_risk":5,"migraine_risk":10,"frizz_risk":1,"updated_at":"2026-05-16T11:53:50.933594+05:30"},{"city":"Ratlam","state":"Madhya Pradesh","latitude":23.3315,"longitude":75.0367,"temp":37.0,"humidity":21,"rain":0.0,"pressure":953.8,"uv_index":8.55,"wind_gusts":34.9,"aqi":49,"pm10":34.5,"pm2_5":15.0,"no2":0.7,"co":133.0,"o3":110.0,"so2":3.2,"mosquito_risk":0,"arthritis_risk":5,"migraine_risk":10,"frizz_risk":0,"updated_at":"2026-05-16T11:53:50.933602+05:30"},{"city":"Sagar","state":"Madhya Pradesh","latitude":23.8388,"longitude":78.7378,"temp":39.8,"humidity":18,"rain":0.0,"pressure":948.5,"uv_index":8.75,"wind_gusts":36.0,"aqi":85,"pm10":69.4,"pm2_5":25.6,"no2":0.7,"co":232.0,"o3":138.0,"so2":6.0,"mosquito_risk":0,"arthritis_risk":5,"migraine_risk":10,"frizz_risk":0,"updated_at":"2026-05-16T11:53:50.933608+05:30"},{"city":"Satna","state":"Madhya Pradesh","latitude":24.6005,"longitude":80.8322,"temp":39.6,"humidity":18,"rain":0.0,"pressure":969.1,"uv_index":8.75,"wind_gusts":32.8,"aqi":117,"pm10":73.3,"pm2_5":24.0,"no2":0.7,"co":218.0,"o3":132.0,"so2":4.8,"mosquito_risk":0,"arthritis_risk":5,"migraine_risk":10,"frizz_risk":0,"updated_at":"2026-05-16T11:53:50.933616+05:30"},{"city":"Akola","state":"Maharashtra","latitude":20.7002,"longitude":77.0082,"temp":40.6,"humidity":18,"rain":0.0,"pressure":972.3,"uv_index":8.45,"wind_gusts":43.2,"aqi":55,"pm10":21.1,"pm2_5":12.0,"no2":1.8,"co":169.0,"o3":133.0,"so2":8.4,"mosquito_risk":0,"arthritis_risk":5,"migraine_risk":10,"frizz_risk":0,"updated_at":"2026-05-16T11:53:50.933624+05:30"},{"city":"Amravati","state":"Maharashtra","latitude":20.9374,"longitude":77.7796,"temp":41.2,"humidity":14,"rain":0.0,"pressure":964.5,"uv_index":8.9,"wind_gusts":38.9,"aqi":56,"pm10":19.2,"pm2_5":10.9,"no2":2.1,"co":175.0,"o3":137.0,"so2":8.8,"mosquito_risk":0,"arthritis_risk":5,"migraine_risk":10,"frizz_risk":0,"updated_at":"2026-05-16T11:53:50.933631+05:30"},{"city":"Latur","state":"Maharashtra","latitude":18.4088,"longitude":76.5604,"temp":37.3,"humidity":21,"rain":0.0,"pressure":938.8,"uv_index":8.0,"wind_gusts":36.4,"aqi":78,"pm10":20.4,"pm2_5":15.4,"no2":1.8,"co":163.0,"o3":151.0,"so2":8.5,"mosquito_risk":0,"arthritis_risk":5,"migraine_risk":10,"frizz_risk":0,"updated_at":"2026-05-16T11:53:50.933639+05:30"},{"city":"Nanded","state":"Maharashtra","latitude":19.1383,"longitude":77.3091,"temp":39.2,"humidity":21,"rain":0.0,"pressure":966.4,"uv_index":8.05,"wind_gusts":28.1,"aqi":82,"pm10":20.7,"pm2_5":17.2,"no2":1.8,"co":174.0,"o3":160.0,"so2":10.3,"mosquito_risk":0,"arthritis_risk":5,"migraine_risk":10,"frizz_risk":0,"updated_at":"2026-05-16T11:53:50.933646+05:30"},{"city":"Gulbarga","state":"Karnataka","latitude":17.3297,"longitude":76.8343,"temp":38.5,"humidity":22,"rain":0.0,"pressure":956.5,"uv_index":8.75,"wind_gusts":35.6,"aqi":121,"pm10":53.1,"pm2_5":35.4,"no2":4.5,"co":194.0,"o3":156.0,"so2":13.3,"mosquito_risk":0,"arthritis_risk":5,"migraine_risk":10,"frizz_risk":0,"updated_at":"2026-05-16T11:53:50.933652+05:30"},{"city":"Bidar","state":"Karnataka","latitude":17.9104,"longitude":77.5199,"temp":37.0,"humidity":23,"rain":0.0,"pressure":934.7,"uv_index":9.1,"wind_gusts":30.2,"aqi":134,"pm10":29.9,"pm2_5":21.3,"no2":2.3,"co":192.0,"o3":154.0,"so2":6.9,"mosquito_risk":0,"arthritis_risk":5,"migraine_risk":10,"frizz_risk":0,"updated_at":"2026-05-16T11:53:50.933659+05:30"},{"city":"Hospet","state":"Karnataka","latitude":15.2689,"longitude":76.3909,"temp":34.2,"humidity":42,"rain":0.0,"pressure":954.1,"uv_index":8.4,"wind_gusts":36.7,"aqi":91,"pm10":26.3,"pm2_5":19.9,"no2":3.4,"co":279.0,"o3":138.0,"so2":6.7,"mosquito_risk":0,"arthritis_risk":5,"migraine_risk":7,"frizz_risk":1,"updated_at":"2026-05-16T11:53:50.933666+05:30"},{"city":"Tirupur","state":"Tamil Nadu","latitude":11.1085,"longitude":77.3411,"temp":33.6,"humidity":44,"rain":0.0,"pressure":972.7,"uv_index":9.05,"wind_gusts":33.1,"aqi":94,"pm10":55.1,"pm2_5":32.2,"no2":5.3,"co":253.0,"o3":144.0,"so2":6.7,"mosquito_risk":0,"arthritis_risk":5,"migraine_risk":7,"frizz_risk":1,"updated_at":"2026-05-16T11:53:50.933673+05:30"},{"city":"Alappuzha","state":"Kerala","latitude":9.4981,"longitude":76.3388,"temp":29.0,"humidity":78,"rain":0.1,"pressure":1007.0,"uv_index":2.45,"wind_gusts":32.8,"aqi":61,"pm10":24.3,"pm2_5":14.6,"no2":3.0,"co":155.0,"o3":119.0,"so2":3.6,"mosquito_risk":10,"arthritis_risk":5,"migraine_risk":0,"frizz_risk":1,"updated_at":"2026-05-16T11:53:50.933680+05:30"},{"city":"Munnar","state":"Kerala","latitude":10.0889,"longitude":77.0595,"temp":23.0,"humidity":66,"rain":0.0,"pressure":856.6,"uv_index":9.4,"wind_gusts":23.8,"aqi":59,"pm10":36.3,"pm2_5":17.2,"no2":1.2,"co":197.0,"o3":111.0,"so2":2.7,"mosquito_risk":3,"arthritis_risk":5,"migraine_risk":7,"frizz_risk":1,"updated_at":"2026-05-16T11:53:50.933687+05:30"},{"city":"Silchar","state":"Assam","latitude":24.8333,"longitude":92.7789,"temp":30.9,"humidity":65,"rain":0.1,"pressure":1002.4,"uv_index":8.75,"wind_gusts":25.6,"aqi":74,"pm10":26.3,"pm2_5":13.1,"no2":1.2,"co":184.0,"o3":95.0,"so2":3.6,"mosquito_risk":6,"arthritis_risk":5,"migraine_risk":4,"frizz_risk":1,"updated_at":"2026-05-16T11:53:50.933694+05:30"},{"city":"Dibrugarh","state":"Assam","latitude":27.4728,"longitude":94.912,"temp":29.7,"humidity":61,"rain":0.0,"pressure":993.5,"uv_index":8.85,"wind_gusts":26.3,"aqi":97,"pm10":34.8,"pm2_5":21.7,"no2":1.1,"co":221.0,"o3":126.0,"so2":1.5,"mosquito_risk":7,"arthritis_risk":5,"migraine_risk":7,"frizz_risk":1,"updated_at":"2026-05-16T11:53:50.933701+05:30"}]