[{"city":"Delhi","state":"Delhi","latitude":28.6139,"longitude":77.209,"temp":35.5,"humidity":29,"rain":0.0,"pressure":982.7,"uv_index":7.25,"wind_gusts":32.8,"aqi":225,"pm10":236.1,"pm2_5":59.8,"mosquito_risk":0,"arthritis_risk":5,"migraine_risk":10,"frizz_risk":0,"updated_at":"2026-04-20T11:17:23.203466+05:30"},{"city":"Mumbai","state":"Maharashtra","latitude":19.076,"longitude":72.8777,"temp":28.3,"humidity":77,"rain":0.0,"pressure":1009.3,"uv_index":8.05,"wind_gusts":21.6,"aqi":75,"pm10":45.3,"pm2_5":28.2,"mosquito_risk":7,"arthritis_risk":0,"migraine_risk":4,"frizz_risk":1,"updated_at":"2026-04-20T11:17:23.203515+05:30"},{"city":"Bangalore","state":"Karnataka","latitude":12.9716,"longitude":77.5946,"temp":30.9,"humidity":50,"rain":0.0,"pressure":913.5,"uv_index":9.55,"wind_gusts":29.5,"aqi":74,"pm10":29.5,"pm2_5":25.6,"mosquito_risk":0,"arthritis_risk":5,"migraine_risk":7,"frizz_risk":1,"updated_at":"2026-04-20T11:17:23.203531+05:30"},{"city":"Hyderabad","state":"Telangana","latitude":17.385,"longitude":78.4867,"temp":36.4,"humidity":29,"rain":0.0,"pressure":954.9,"uv_index":9.3,"wind_gusts":47.2,"aqi":110,"pm10":44.5,"pm2_5":35.0,"mosquito_risk":0,"arthritis_risk":5,"migraine_risk":10,"frizz_risk":0,"updated_at":"2026-04-20T11:17:23.203542+05:30"},{"city":"Chennai","state":"Tamil Nadu","latitude":13.0827,"longitude":80.2707,"temp":34.9,"humidity":51,"rain":0.0,"pressure":1007.9,"uv_index":9.25,"wind_gusts":35.3,"aqi":34,"pm10":14.8,"pm2_5":10.2,"mosquito_risk":0,"arthritis_risk":5,"migraine_risk":4,"frizz_risk":1,"updated_at":"2026-04-20T11:17:23.203551+05:30"},{"city":"Kolkata","state":"West Bengal","latitude":22.5726,"longitude":88.3639,"temp":33.7,"humidity":71,"rain":0.0,"pressure":1004.2,"uv_index":8.9,"wind_gusts":33.1,"aqi":82,"pm10":40.4,"pm2_5":31.9,"mosquito_risk":3,"arthritis_risk":5,"migraine_risk":4,"frizz_risk":1,"updated_at":"2026-04-20T11:17:23.203564+05:30"},{"city":"Pune","state":"Maharashtra","latitude":18.5204,"longitude":73.8567,"temp":36.3,"humidity":23,"rain":0.0,"pressure":950.2,"uv_index":8.55,"wind_gusts":44.3,"aqi":107,"pm10":43.9,"pm2_5":35.6,"mosquito_risk":0,"arthritis_risk":5,"migraine_risk":10,"frizz_risk":0,"updated_at":"2026-04-20T11:17:23.203572+05:30"},{"city":"Ahmedabad","state":"Gujarat","latitude":23.0225,"longitude":72.5714,"temp":34.9,"humidity":40,"rain":0.0,"pressure":1003.1,"uv_index":8.15,"wind_gusts":25.6,"aqi":50,"pm10":33.3,"pm2_5":13.6,"mosquito_risk":0,"arthritis_risk":5,"migraine_risk":4,"frizz_risk":1,"updated_at":"2026-04-20T11:17:23.203580+05:30"},{"city":"Jaipur","state":"Rajasthan","latitude":26.9124,"longitude":75.7873,"temp":36.7,"humidity":21,"rain":0.0,"pressure":960.4,"uv_index":7.95,"wind_gusts":26.6,"aqi":111,"pm10":199.3,"pm2_5":30.6,"mosquito_risk":0,"arthritis_risk":5,"migraine_risk":10,"frizz_risk":0,"updated_at":"2026-04-20T11:17:23.203588+05:30"},{"city":"Lucknow","state":"Uttar Pradesh","latitude":26.8467,"longitude":80.9462,"temp":38.2,"humidity":25,"rain":0.0,"pressure":991.7,"uv_index":7.9,"wind_gusts":39.6,"aqi":122,"pm10":207.2,"pm2_5":49.5,"mosquito_risk":0,"arthritis_risk":5,"migraine_risk":10,"frizz_risk":0,"updated_at":"2026-04-20T11:17:23.203596+05:30"},{"city":"Kanpur","state":"Uttar Pradesh","latitude":26.4499,"longitude":80.3319,"temp":36.1,"humidity":38,"rain":0.0,"pressure":990.5,"uv_index":7.9,"wind_gusts":30.2,"aqi":189,"pm10":292.4,"pm2_5":56.3,"mosquito_risk":0,"arthritis_risk":5,"migraine_risk":10,"frizz_risk":1,"updated_at":"2026-04-20T11:17:23.203604+05:30"},{"city":"Chandigarh","state":"Chandigarh","latitude":30.7333,"longitude":76.7794,"temp":35.8,"humidity":18,"rain":0.0,"pressure":968.6,"uv_index":7.25,"wind_gusts":34.2,"aqi":65,"pm10":37.7,"pm2_5":16.4,"mosquito_risk":0,"arthritis_risk":5,"migraine_risk":10,"frizz_risk":0,"updated_at":"2026-04-20T11:17:23.203612+05:30"},{"city":"Srinagar","state":"Jammu and Kashmir","latitude":34.0837,"longitude":74.7973,"temp":17.5,"humidity":68,"rain":0.0,"pressure":845.3,"uv_index":8.25,"wind_gusts":15.5,"aqi":96,"pm10":38.4,"pm2_5":20.3,"mosquito_risk":3,"arthritis_risk":5,"migraine_risk":7,"frizz_risk":0,"updated_at":"2026-04-20T11:17:23.203619+05:30"},{"city":"Jammu","state":"Jammu and Kashmir","latitude":32.7266,"longitude":74.857,"temp":34.1,"humidity":26,"rain":0.0,"pressure":972.8,"uv_index":7.9,"wind_gusts":28.1,"aqi":61,"pm10":33.4,"pm2_5":13.5,"mosquito_risk":0,"arthritis_risk":5,"migraine_risk":7,"frizz_risk":0,"updated_at":"2026-04-20T11:17:23.203626+05:30"},{"city":"Amritsar","state":"Punjab","latitude":31.634,"longitude":74.8723,"temp":34.1,"humidity":31,"rain":0.0,"pressure":981.2,"uv_index":7.9,"wind_gusts":32.4,"aqi":79,"pm10":46.2,"pm2_5":17.1,"mosquito_risk":0,"arthritis_risk":5,"migraine_risk":7,"frizz_risk":0,"updated_at":"2026-04-20T11:17:23.203633+05:30"},{"city":"Ludhiana","state":"Punjab","latitude":30.901,"longitude":75.8573,"temp":36.3,"humidity":20,"rain":0.0,"pressure":978.6,"uv_index":7.5,"wind_gusts":32.4,"aqi":68,"pm10":41.2,"pm2_5":19.0,"mosquito_risk":0,"arthritis_risk":5,"migraine_risk":10,"frizz_risk":0,"updated_at":"2026-04-20T11:17:23.203642+05:30"},{"city":"Jalandhar","state":"Punjab","latitude":31.326,"longitude":75.5762,"temp":35.5,"humidity":24,"rain":0.0,"pressure":979.9,"uv_index":7.65,"wind_gusts":31.3,"aqi":76,"pm10":60.3,"pm2_5":24.0,"mosquito_risk":0,"arthritis_risk":5,"migraine_risk":10,"frizz_risk":0,"updated_at":"2026-04-20T11:17:23.203648+05:30"},{"city":"Dehradun","state":"Uttarakhand","latitude":30.6284,"longitude":78.0322,"temp":26.1,"humidity":24,"rain":0.0,"pressure":833.6,"uv_index":7.7,"wind_gusts":41.0,"aqi":44,"pm10":34.9,"pm2_5":8.9,"mosquito_risk":4,"arthritis_risk":5,"migraine_risk":7,"frizz_risk":0,"updated_at":"2026-04-20T11:17:23.203658+05:30"},{"city":"Shimla","state":"Himachal Pradesh","latitude":31.1048,"longitude":77.1734,"temp":25.0,"humidity":19,"rain":0.0,"pressure":789.5,"uv_index":7.75,"wind_gusts":47.9,"aqi":54,"pm10":33.6,"pm2_5":8.4,"mosquito_risk":4,"arthritis_risk":5,"migraine_risk":7,"frizz_risk":1,"updated_at":"2026-04-20T11:17:23.203665+05:30"},{"city":"Manali","state":"Himachal Pradesh","latitude":32.2396,"longitude":77.1887,"temp":24.6,"humidity":23,"rain":0.0,"pressure":824.5,"uv_index":9.85,"wind_gusts":28.4,"aqi":62,"pm10":8.2,"pm2_5":2.7,"mosquito_risk":0,"arthritis_risk":5,"migraine_risk":7,"frizz_risk":0,"updated_at":"2026-04-20T11:17:23.203672+05:30"},{"city":"Gurgaon","state":"Haryana","latitude":28.4595,"longitude":77.0266,"temp":35.9,"humidity":29,"rain":0.0,"pressure":981.3,"uv_index":7.4,"wind_gusts":32.8,"aqi":822,"pm10":659.4,"pm2_5":102.7,"mosquito_risk":0,"arthritis_risk":5,"migraine_risk":10,"frizz_risk":0,"updated_at":"2026-04-20T11:17:23.203678+05:30"},{"city":"Noida","state":"Uttar Pradesh","latitude":28.5355,"longitude":77.391,"temp":36.2,"humidity":29,"rain":0.0,"pressure":984.1,"uv_index":7.3,"wind_gusts":32.8,"aqi":822,"pm10":659.4,"pm2_5":102.7,"mosquito_risk":0,"arthritis_risk":5,"migraine_risk":10,"frizz_risk":0,"updated_at":"2026-04-20T11:17:23.203684+05:30"},{"city":"Ghaziabad","state":"Uttar Pradesh","latitude":28.6692,"longitude":77.4538,"temp":35.6,"humidity":32,"rain":0.0,"pressure":982.2,"uv_index":7.3,"wind_gusts":32.4,"aqi":133,"pm10":138.3,"pm2_5":39.6,"mosquito_risk":0,"arthritis_risk":5,"migraine_risk":10,"frizz_risk":1,"updated_at":"2026-04-20T11:17:23.203691+05:30"},{"city":"Faridabad","state":"Haryana","latitude":28.4089,"longitude":77.3178,"temp":36.8,"humidity":26,"rain":0.0,"pressure":983.5,"uv_index":7.35,"wind_gusts":32.0,"aqi":822,"pm10":659.4,"pm2_5":102.7,"mosquito_risk":0,"arthritis_risk":5,"migraine_risk":10,"frizz_risk":0,"updated_at":"2026-04-20T11:17:23.203697+05:30"},{"city":"Meerut","state":"Uttar Pradesh","latitude":28.9845,"longitude":77.7064,"temp":36.9,"humidity":26,"rain":0.0,"pressure":980.8,"uv_index":7.2,"wind_gusts":35.3,"aqi":133,"pm10":138.3,"pm2_5":39.6,"mosquito_risk":0,"arthritis_risk":5,"migraine_risk":10,"frizz_risk":0,"updated_at":"2026-04-20T11:17:23.203703+05:30"},{"city":"Agra","state":"Uttar Pradesh","latitude":27.1767,"longitude":78.0081,"temp":37.0,"humidity":28,"rain":0.0,"pressure":987.4,"uv_index":7.7,"wind_gusts":23.8,"aqi":544,"pm10":553.2,"pm2_5":83.4,"mosquito_risk":0,"arthritis_risk":5,"migraine_risk":10,"frizz_risk":0,"updated_at":"2026-04-20T11:17:23.203714+05:30"},{"city":"Varanasi","state":"Uttar Pradesh","latitude":25.3176,"longitude":82.9739,"temp":40.4,"humidity":22,"rain":0.0,"pressure":995.1,"uv_index":8.4,"wind_gusts":34.2,"aqi":110,"pm10":140.6,"pm2_5":37.0,"mosquito_risk":0,"arthritis_risk":5,"migraine_risk":10,"frizz_risk":0,"updated_at":"2026-04-20T11:17:23.203721+05:30"},{"city":"Prayagraj","state":"Uttar Pradesh","latitude":25.4358,"longitude":81.8463,"temp":39.7,"humidity":25,"rain":0.0,"pressure":993.9,"uv_index":7.8,"wind_gusts":34.9,"aqi":94,"pm10":159.7,"pm2_5":42.4,"mosquito_risk":0,"arthritis_risk":5,"migraine_risk":10,"frizz_risk":0,"updated_at":"2026-04-20T11:17:23.203728+05:30"},{"city":"Gorakhpur","state":"Uttar Pradesh","latitude":26.7606,"longitude":83.3732,"temp":36.2,"humidity":47,"rain":0.0,"pressure":995.1,"uv_index":8.35,"wind_gusts":37.1,"aqi":134,"pm10":71.0,"pm2_5":52.9,"mosquito_risk":0,"arthritis_risk":5,"migraine_risk":10,"frizz_risk":1,"updated_at":"2026-04-20T11:17:23.203734+05:30"},{"city":"Bareilly","state":"Uttar Pradesh","latitude":28.367,"longitude":79.4304,"temp":36.9,"humidity":28,"rain":0.0,"pressure":985.6,"uv_index":7.55,"wind_gusts":35.6,"aqi":80,"pm10":142.0,"pm2_5":28.5,"mosquito_risk":0,"arthritis_risk":5,"migraine_risk":10,"frizz_risk":0,"updated_at":"2026-04-20T11:17:23.203741+05:30"},{"city":"Aligarh","state":"Uttar Pradesh","latitude":27.8974,"longitude":78.088,"temp":38.8,"humidity":21,"rain":0.0,"pressure":984.7,"uv_index":7.45,"wind_gusts":32.4,"aqi":396,"pm10":348.3,"pm2_5":55.1,"mosquito_risk":0,"arthritis_risk":5,"migraine_risk":10,"frizz_risk":0,"updated_at":"2026-04-20T11:17:23.203747+05:30"},{"city":"Moradabad","state":"Uttar Pradesh","latitude":28.8386,"longitude":78.7733,"temp":37.0,"humidity":26,"rain":0.0,"pressure":982.7,"uv_index":7.4,"wind_gusts":38.5,"aqi":88,"pm10":71.7,"pm2_5":24.1,"mosquito_risk":0,"arthritis_risk":5,"migraine_risk":10,"frizz_risk":0,"updated_at":"2026-04-20T11:17:23.203753+05:30"},{"city":"Saharanpur","state":"Uttar Pradesh","latitude":29.9637,"longitude":77.546,"temp":33.9,"humidity":31,"rain":0.0,"pressure":975.2,"uv_index":6.95,"wind_gusts":30.2,"aqi":71,"pm10":48.2,"pm2_5":23.7,"mosquito_risk":0,"arthritis_risk":5,"migraine_risk":7,"frizz_risk":0,"updated_at":"2026-04-20T11:17:23.203759+05:30"},{"city":"Jhansi","state":"Uttar Pradesh","latitude":25.4484,"longitude":78.5685,"temp":39.4,"humidity":20,"rain":0.0,"pressure":977.2,"uv_index":8.05,"wind_gusts":29.9,"aqi":54,"pm10":140.6,"pm2_5":30.5,"mosquito_risk":0,"arthritis_risk":5,"migraine_risk":10,"frizz_risk":0,"updated_at":"2026-04-20T11:17:26.424120+05:30"},{"city":"Surat","state":"Gujarat","latitude":21.1702,"longitude":72.8311,"temp":32.1,"humidity":59,"rain":0.0,"pressure":1007.8,"uv_index":7.85,"wind_gusts":23.8,"aqi":107,"pm10":49.1,"pm2_5":42.3,"mosquito_risk":0,"arthritis_risk":5,"migraine_risk":4,"frizz_risk":1,"updated_at":"2026-04-20T11:17:26.424153+05:30"},{"city":"Vadodara","state":"Gujarat","latitude":22.3072,"longitude":73.1812,"temp":35.7,"humidity":35,"rain":0.0,"pressure":1005.2,"uv_index":8.1,"wind_gusts":25.6,"aqi":81,"pm10":30.4,"pm2_5":18.8,"mosquito_risk":0,"arthritis_risk":5,"migraine_risk":7,"frizz_risk":1,"updated_at":"2026-04-20T11:17:26.424164+05:30"},{"city":"Rajkot","state":"Gujarat","latitude":22.3039,"longitude":70.8022,"temp":33.1,"humidity":42,"rain":0.0,"pressure":995.8,"uv_index":7.85,"wind_gusts":27.7,"aqi":44,"pm10":51.5,"pm2_5":14.8,"mosquito_risk":0,"arthritis_risk":5,"migraine_risk":7,"frizz_risk":1,"updated_at":"2026-04-20T11:17:26.424171+05:30"},{"city":"Thane","state":"Maharashtra","latitude":19.2183,"longitude":72.9781,"temp":32.8,"humidity":51,"rain":0.0,"pressure":1008.8,"uv_index":8.05,"wind_gusts":31.7,"aqi":75,"pm10":45.3,"pm2_5":28.2,"mosquito_risk":0,"arthritis_risk":0,"migraine_risk":4,"frizz_risk":1,"updated_at":"2026-04-20T11:17:26.424178+05:30"},{"city":"Nagpur","state":"Maharashtra","latitude":21.1458,"longitude":79.0882,"temp":37.3,"humidity":25,"rain":0.0,"pressure":973.6,"uv_index":8.6,"wind_gusts":37.4,"aqi":84,"pm10":27.6,"pm2_5":22.8,"mosquito_risk":0,"arthritis_risk":5,"migraine_risk":10,"frizz_risk":0,"updated_at":"2026-04-20T11:17:26.424186+05:30"},{"city":"Nashik","state":"Maharashtra","latitude":19.9975,"longitude":73.7898,"temp":33.0,"humidity":23,"rain":0.0,"pressure":947.7,"uv_index":8.3,"wind_gusts":34.6,"aqi":87,"pm10":27.5,"pm2_5":14.7,"mosquito_risk":0,"arthritis_risk":5,"migraine_risk":7,"frizz_risk":0,"updated_at":"2026-04-20T11:17:26.424193+05:30"},{"city":"Aurangabad","state":"Maharashtra","latitude":19.8762,"longitude":75.3433,"temp":36.2,"humidity":23,"rain":0.0,"pressure":946.1,"uv_index":8.85,"wind_gusts":21.2,"aqi":83,"pm10":35.3,"pm2_5":29.5,"mosquito_risk":0,"arthritis_risk":5,"migraine_risk":10,"frizz_risk":0,"updated_at":"2026-04-20T11:17:26.424199+05:30"},{"city":"Solapur","state":"Maharashtra","latitude":17.6599,"longitude":75.9064,"temp":36.4,"humidity":31,"rain":0.0,"pressure":958.3,"uv_index":8.75,"wind_gusts":24.8,"aqi":127,"pm10":43.9,"pm2_5":36.9,"mosquito_risk":0,"arthritis_risk":5,"migraine_risk":10,"frizz_risk":1,"updated_at":"2026-04-20T11:17:26.424207+05:30"},{"city":"Kolhapur","state":"Maharashtra","latitude":16.705,"longitude":74.2433,"temp":33.0,"humidity":48,"rain":0.0,"pressure":949.7,"uv_index":9.05,"wind_gusts":29.5,"aqi":110,"pm10":46.6,"pm2_5":38.9,"mosquito_risk":0,"arthritis_risk":5,"migraine_risk":7,"frizz_risk":1,"updated_at":"2026-04-20T11:17:26.424214+05:30"},{"city":"Goa","state":"Goa","latitude":15.2993,"longitude":74.124,"temp":32.6,"humidity":63,"rain":0.0,"pressure":998.7,"uv_index":9.0,"wind_gusts":28.8,"aqi":84,"pm10":42.5,"pm2_5":29.3,"mosquito_risk":3,"arthritis_risk":5,"migraine_risk":7,"frizz_risk":1,"updated_at":"2026-04-20T11:17:26.424220+05:30"},{"city":"Jodhpur","state":"Rajasthan","latitude":26.2389,"longitude":73.0243,"temp":36.0,"humidity":22,"rain":0.0,"pressure":983.7,"uv_index":8.15,"wind_gusts":25.2,"aqi":88,"pm10":170.4,"pm2_5":30.4,"mosquito_risk":0,"arthritis_risk":5,"migraine_risk":10,"frizz_risk":0,"updated_at":"2026-04-20T11:17:26.424228+05:30"},{"city":"Udaipur","state":"Rajasthan","latitude":24.5854,"longitude":73.7125,"temp":34.6,"humidity":20,"rain":0.0,"pressure":948.3,"uv_index":8.7,"wind_gusts":30.6,"aqi":42,"pm10":17.2,"pm2_5":6.6,"mosquito_risk":0,"arthritis_risk":5,"migraine_risk":7,"frizz_risk":0,"updated_at":"2026-04-20T11:17:26.424234+05:30"},{"city":"Kota","state":"Rajasthan","latitude":25.2138,"longitude":75.8648,"temp":38.7,"humidity":16,"rain":0.0,"pressure":978.8,"uv_index":8.25,"wind_gusts":26.6,"aqi":52,"pm10":17.6,"pm2_5":7.2,"mosquito_risk":0,"arthritis_risk":5,"migraine_risk":10,"frizz_risk":0,"updated_at":"2026-04-20T11:17:26.424241+05:30"},{"city":"Bikaner","state":"Rajasthan","latitude":28.0229,"longitude":73.3119,"temp":36.6,"humidity":23,"rain":0.0,"pressure":982.6,"uv_index":8.0,"wind_gusts":31.0,"aqi":57,"pm10":85.2,"pm2_5":23.9,"mosquito_risk":0,"arthritis_risk":5,"migraine_risk":10,"frizz_risk":0,"updated_at":"2026-04-20T11:17:26.424247+05:30"},{"city":"Ajmer","state":"Rajasthan","latitude":26.4499,"longitude":74.6399,"temp":34.4,"humidity":26,"rain":0.0,"pressure":955.7,"uv_index":8.1,"wind_gusts":25.2,"aqi":54,"pm10":113.2,"pm2_5":20.3,"mosquito_risk":0,"arthritis_risk":5,"migraine_risk":7,"frizz_risk":0,"updated_at":"2026-04-20T11:17:26.424253+05:30"},{"city":"Gwalior","state":"Madhya Pradesh","latitude":26.2183,"longitude":78.1828,"temp":38.2,"humidity":23,"rain":0.0,"pressure":982.9,"uv_index":8.0,"wind_gusts":37.1,"aqi":77,"pm10":273.8,"pm2_5":54.2,"mosquito_risk":0,"arthritis_risk":5,"migraine_risk":10,"frizz_risk":0,"updated_at":"2026-04-20T11:17:26.424259+05:30"},{"city":"Indore","state":"Madhya Pradesh","latitude":22.7196,"longitude":75.8577,"temp":35.5,"humidity":19,"rain":0.0,"pressure":949.9,"uv_index":8.6,"wind_gusts":35.6,"aqi":59,"pm10":13.7,"pm2_5":9.9,"mosquito_risk":0,"arthritis_risk":5,"migraine_risk":10,"frizz_risk":0,"updated_at":"2026-04-20T11:17:26.424266+05:30"},{"city":"Bhopal","state":"Madhya Pradesh","latitude":23.2599,"longitude":77.4126,"temp":38.3,"humidity":16,"rain":0.0,"pressure":954.9,"uv_index":7.1,"wind_gusts":35.6,"aqi":62,"pm10":10.6,"pm2_5":7.7,"mosquito_risk":0,"arthritis_risk":5,"migraine_risk":10,"frizz_risk":0,"updated_at":"2026-04-20T11:17:26.424272+05:30"},{"city":"Jabalpur","state":"Madhya Pradesh","latitude":23.1815,"longitude":79.9864,"temp":36.9,"humidity":27,"rain":0.0,"pressure":961.6,"uv_index":8.45,"wind_gusts":37.1,"aqi":61,"pm10":17.8,"pm2_5":13.8,"mosquito_risk":0,"arthritis_risk":5,"migraine_risk":10,"frizz_risk":0,"updated_at":"2026-04-20T11:17:26.424279+05:30"},{"city":"Ujjain","state":"Madhya Pradesh","latitude":23.1765,"longitude":75.7885,"temp":36.0,"humidity":19,"rain":0.0,"pressure":955.5,"uv_index":8.55,"wind_gusts":34.9,"aqi":54,"pm10":9.8,"pm2_5":7.3,"mosquito_risk":0,"arthritis_risk":5,"migraine_risk":10,"frizz_risk":0,"updated_at":"2026-04-20T11:17:26.424285+05:30"},{"city":"Visakhapatnam","state":"Andhra Pradesh","latitude":17.6868,"longitude":83.2185,"temp":33.9,"humidity":56,"rain":0.0,"pressure":1004.0,"uv_index":9.2,"wind_gusts":45.4,"aqi":56,"pm10":19.9,"pm2_5":15.4,"mosquito_risk":0,"arthritis_risk":5,"migraine_risk":4,"frizz_risk":1,"updated_at":"2026-04-20T11:17:26.424292+05:30"},{"city":"Vijayawada","state":"Andhra Pradesh","latitude":16.5062,"longitude":80.648,"temp":34.3,"humidity":56,"rain":0.0,"pressure":1003.3,"uv_index":9.2,"wind_gusts":27.7,"aqi":53,"pm10":19.2,"pm2_5":13.7,"mosquito_risk":0,"arthritis_risk":5,"migraine_risk":4,"frizz_risk":1,"updated_at":"2026-04-20T11:17:26.424298+05:30"},{"city":"Guntur","state":"Andhra Pradesh","latitude":16.3067,"longitude":80.4365,"temp":34.9,"humidity":54,"rain":0.0,"pressure":1004.4,"uv_index":9.25,"wind_gusts":31.0,"aqi":55,"pm10":18.4,"pm2_5":15.1,"mosquito_risk":0,"arthritis_risk":5,"migraine_risk":4,"frizz_risk":1,"updated_at":"2026-04-20T11:17:26.424304+05:30"},{"city":"Nellore","state":"Andhra Pradesh","latitude":14.4426,"longitude":79.9865,"temp":36.0,"humidity":52,"rain":0.0,"pressure":1006.0,"uv_index":9.25,"wind_gusts":38.5,"aqi":46,"pm10":15.8,"pm2_5":14.1,"mosquito_risk":0,"arthritis_risk":5,"migraine_risk":7,"frizz_risk":1,"updated_at":"2026-04-20T11:17:26.424311+05:30"},{"city":"Kurnool","state":"Andhra Pradesh","latitude":15.8281,"longitude":78.0373,"temp":37.6,"humidity":32,"rain":0.0,"pressure":977.6,"uv_index":9.2,"wind_gusts":43.2,"aqi":94,"pm10":30.2,"pm2_5":24.2,"mosquito_risk":0,"arthritis_risk":5,"migraine_risk":10,"frizz_risk":1,"updated_at":"2026-04-20T11:17:26.424340+05:30"},{"city":"Kakinada","state":"Andhra Pradesh","latitude":16.9891,"longitude":82.2475,"temp":35.2,"humidity":50,"rain":0.0,"pressure":1008.0,"uv_index":9.2,"wind_gusts":34.9,"aqi":39,"pm10":16.4,"pm2_5":10.4,"mosquito_risk":0,"arthritis_risk":0,"migraine_risk":7,"frizz_risk":1,"updated_at":"2026-04-20T11:17:26.424347+05:30"},{"city":"Tirupati","state":"Andhra Pradesh","latitude":13.6288,"longitude":79.4192,"temp":35.2,"humidity":52,"rain":0.0,"pressure":992.3,"uv_index":9.3,"wind_gusts":29.9,"aqi":63,"pm10":19.1,"pm2_5":17.5,"mosquito_risk":0,"arthritis_risk":5,"migraine_risk":10,"frizz_risk":1,"updated_at":"2026-04-20T11:17:26.424353+05:30"},{"city":"Warangal","state":"Telangana","latitude":17.9689,"longitude":79.5941,"temp":35.9,"humidity":43,"rain":0.0,"pressure":979.5,"uv_index":9.15,"wind_gusts":27.7,"aqi":89,"pm10":32.2,"pm2_5":28.2,"mosquito_risk":0,"arthritis_risk":5,"migraine_risk":10,"frizz_risk":1,"updated_at":"2026-04-20T11:17:26.424360+05:30"},{"city":"Nizamabad","state":"Telangana","latitude":18.6725,"longitude":78.0941,"temp":38.0,"humidity":27,"rain":0.0,"pressure":965.7,"uv_index":9.15,"wind_gusts":33.8,"aqi":116,"pm10":41.3,"pm2_5":37.1,"mosquito_risk":0,"arthritis_risk":5,"migraine_risk":10,"frizz_risk":0,"updated_at":"2026-04-20T11:17:26.424366+05:30"},{"city":"Mysore","state":"Karnataka","latitude":12.2958,"longitude":76.6396,"temp":32.0,"humidity":46,"rain":0.0,"pressure":929.7,"uv_index":9.45,"wind_gusts":38.2,"aqi":81,"pm10":31.4,"pm2_5":26.0,"mosquito_risk":0,"arthritis_risk":5,"migraine_risk":7,"frizz_risk":1,"updated_at":"2026-04-20T11:17:26.424372+05:30"},{"city":"Mangalore","state":"Karnataka","latitude":12.9141,"longitude":74.856,"temp":30.2,"humidity":70,"rain":0.0,"pressure":1006.9,"uv_index":9.1,"wind_gusts":23.0,"aqi":77,"pm10":36.3,"pm2_5":22.4,"mosquito_risk":3,"arthritis_risk":5,"migraine_risk":4,"frizz_risk":1,"updated_at":"2026-04-20T11:17:26.424378+05:30"},{"city":"Hubli-Dharwad","state":"Karnataka","latitude":15.3647,"longitude":75.124,"temp":32.8,"humidity":49,"rain":0.0,"pressure":942.4,"uv_index":9.25,"wind_gusts":33.5,"aqi":91,"pm10":50.6,"pm2_5":42.7,"mosquito_risk":0,"arthritis_risk":5,"migraine_risk":7,"frizz_risk":1,"updated_at":"2026-04-20T11:17:26.424385+05:30"},{"city":"Belgaum","state":"Karnataka","latitude":15.8497,"longitude":74.4977,"temp":30.7,"humidity":53,"rain":0.0,"pressure":927.4,"uv_index":9.25,"wind_gusts":26.6,"aqi":95,"pm10":48.3,"pm2_5":41.4,"mosquito_risk":0,"arthritis_risk":5,"migraine_risk":7,"frizz_risk":1,"updated_at":"2026-04-20T11:17:29.643378+05:30"},{"city":"Coimbatore","state":"Tamil Nadu","latitude":11.0168,"longitude":76.9558,"temp":32.6,"humidity":52,"rain":0.0,"pressure":962.8,"uv_index":9.4,"wind_gusts":49.3,"aqi":103,"pm10":28.8,"pm2_5":24.9,"mosquito_risk":0,"arthritis_risk":5,"migraine_risk":7,"frizz_risk":1,"updated_at":"2026-04-20T11:17:29.643412+05:30"},{"city":"Madurai","state":"Tamil Nadu","latitude":9.9252,"longitude":78.1198,"temp":34.9,"humidity":44,"rain":0.0,"pressure":993.7,"uv_index":9.3,"wind_gusts":39.6,"aqi":63,"pm10":16.1,"pm2_5":13.8,"mosquito_risk":0,"arthritis_risk":5,"migraine_risk":7,"frizz_risk":1,"updated_at":"2026-04-20T11:17:29.643422+05:30"},{"city":"Trichy","state":"Tamil Nadu","latitude":10.7905,"longitude":78.7047,"temp":35.0,"humidity":43,"rain":0.0,"pressure":1000.4,"uv_index":9.3,"wind_gusts":25.2,"aqi":61,"pm10":16.4,"pm2_5":14.2,"mosquito_risk":0,"arthritis_risk":5,"migraine_risk":4,"frizz_risk":1,"updated_at":"2026-04-20T11:17:29.643431+05:30"},{"city":"Salem","state":"Tamil Nadu","latitude":11.6643,"longitude":78.146,"temp":34.5,"humidity":48,"rain":0.0,"pressure":978.2,"uv_index":9.35,"wind_gusts":19.8,"aqi":59,"pm10":15.4,"pm2_5":12.2,"mosquito_risk":0,"arthritis_risk":5,"migraine_risk":7,"frizz_risk":1,"updated_at":"2026-04-20T11:17:29.643439+05:30"},{"city":"Tirunelveli","state":"Tamil Nadu","latitude":8.7139,"longitude":77.7567,"temp":37.3,"humidity":31,"rain":0.0,"pressure":1003.4,"uv_index":9.2,"wind_gusts":50.4,"aqi":65,"pm10":20.7,"pm2_5":16.0,"mosquito_risk":0,"arthritis_risk":5,"migraine_risk":7,"frizz_risk":1,"updated_at":"2026-04-20T11:17:29.643445+05:30"},{"city":"Vellore","state":"Tamil Nadu","latitude":12.9165,"longitude":79.1325,"temp":34.4,"humidity":48,"rain":0.0,"pressure":985.4,"uv_index":9.35,"wind_gusts":30.6,"aqi":74,"pm10":18.5,"pm2_5":16.4,"mosquito_risk":0,"arthritis_risk":5,"migraine_risk":7,"frizz_risk":1,"updated_at":"2026-04-20T11:17:29.643452+05:30"},{"city":"Erode","state":"Tamil Nadu","latitude":11.341,"longitude":77.7172,"temp":35.5,"humidity":48,"rain":0.0,"pressure":989.5,"uv_index":9.35,"wind_gusts":27.4,"aqi":58,"pm10":20.1,"pm2_5":17.4,"mosquito_risk":0,"arthritis_risk":5,"migraine_risk":10,"frizz_risk":1,"updated_at":"2026-04-20T11:17:29.643460+05:30"},{"city":"Kochi","state":"Kerala","latitude":9.9312,"longitude":76.2673,"temp":28.8,"humidity":82,"rain":0.0,"pressure":1009.0,"uv_index":9.05,"wind_gusts":29.9,"aqi":60,"pm10":13.8,"pm2_5":11.5,"mosquito_risk":7,"arthritis_risk":0,"migraine_risk":4,"frizz_risk":1,"updated_at":"2026-04-20T11:17:29.643468+05:30"},{"city":"Thiruvananthapuram","state":"Kerala","latitude":8.5241,"longitude":76.9366,"temp":28.9,"humidity":82,"rain":0.0,"pressure":1008.3,"uv_index":8.9,"wind_gusts":32.0,"aqi":66,"pm10":24.8,"pm2_5":19.6,"mosquito_risk":7,"arthritis_risk":0,"migraine_risk":4,"frizz_risk":1,"updated_at":"2026-04-20T11:17:29.643475+05:30"},{"city":"Kozhikode","state":"Kerala","latitude":11.2588,"longitude":75.7804,"temp":30.7,"humidity":74,"rain":0.0,"pressure":1008.0,"uv_index":9.1,"wind_gusts":28.8,"aqi":61,"pm10":25.8,"pm2_5":18.3,"mosquito_risk":3,"arthritis_risk":0,"migraine_risk":4,"frizz_risk":1,"updated_at":"2026-04-20T11:17:29.643482+05:30"},{"city":"Thrissur","state":"Kerala","latitude":10.5276,"longitude":76.2144,"temp":33.8,"humidity":59,"rain":0.0,"pressure":1007.3,"uv_index":9.05,"wind_gusts":36.7,"aqi":65,"pm10":18.4,"pm2_5":14.9,"mosquito_risk":0,"arthritis_risk":5,"migraine_risk":4,"frizz_risk":1,"updated_at":"2026-04-20T11:17:29.643489+05:30"},{"city":"Kannur","state":"Kerala","latitude":11.8745,"longitude":75.3704,"temp":32.0,"humidity":66,"rain":0.0,"pressure":1007.3,"uv_index":9.1,"wind_gusts":30.6,"aqi":73,"pm10":33.2,"pm2_5":21.3,"mosquito_risk":3,"arthritis_risk":5,"migraine_risk":4,"frizz_risk":1,"updated_at":"2026-04-20T11:17:29.643496+05:30"},{"city":"Patna","state":"Bihar","latitude":25.5941,"longitude":85.1376,"temp":35.6,"humidity":53,"rain":0.0,"pressure":997.9,"uv_index":8.15,"wind_gusts":37.1,"aqi":137,"pm10":74.0,"pm2_5":56.9,"mosquito_risk":0,"arthritis_risk":5,"migraine_risk":10,"frizz_risk":1,"updated_at":"2026-04-20T11:17:29.643503+05:30"},{"city":"Gaya","state":"Bihar","latitude":24.7914,"longitude":85.0002,"temp":39.4,"humidity":27,"rain":0.0,"pressure":991.4,"uv_index":8.6,"wind_gusts":34.6,"aqi":101,"pm10":96.4,"pm2_5":36.1,"mosquito_risk":0,"arthritis_risk":5,"migraine_risk":10,"frizz_risk":1,"updated_at":"2026-04-20T11:17:29.643509+05:30"},{"city":"Muzaffarpur","state":"Bihar","latitude":26.1209,"longitude":85.3647,"temp":34.6,"humidity":59,"rain":0.0,"pressure":998.2,"uv_index":8.3,"wind_gusts":23.0,"aqi":141,"pm10":71.9,"pm2_5":57.9,"mosquito_risk":0,"arthritis_risk":5,"migraine_risk":7,"frizz_risk":1,"updated_at":"2026-04-20T11:17:29.643516+05:30"},{"city":"Bhagalpur","state":"Bihar","latitude":25.2425,"longitude":87.0117,"temp":34.5,"humidity":63,"rain":0.0,"pressure":998.7,"uv_index":8.65,"wind_gusts":19.1,"aqi":150,"pm10":80.3,"pm2_5":66.6,"mosquito_risk":3,"arthritis_risk":5,"migraine_risk":7,"frizz_risk":1,"updated_at":"2026-04-20T11:17:29.643522+05:30"},{"city":"Ranchi","state":"Jharkhand","latitude":23.3441,"longitude":85.3096,"temp":36.1,"humidity":36,"rain":0.0,"pressure":938.0,"uv_index":9.25,"wind_gusts":38.2,"aqi":90,"pm10":100.1,"pm2_5":28.5,"mosquito_risk":0,"arthritis_risk":5,"migraine_risk":10,"frizz_risk":1,"updated_at":"2026-04-20T11:17:29.643529+05:30"},{"city":"Jamshedpur","state":"Jharkhand","latitude":22.8046,"longitude":86.2029,"temp":36.9,"humidity":49,"rain":0.0,"pressure":988.7,"uv_index":9.05,"wind_gusts":32.8,"aqi":151,"pm10":66.1,"pm2_5":57.0,"mosquito_risk":0,"arthritis_risk":5,"migraine_risk":10,"frizz_risk":1,"updated_at":"2026-04-20T11:17:29.643535+05:30"},{"city":"Dhanbad","state":"Jharkhand","latitude":23.7957,"longitude":86.4304,"temp":39.2,"humidity":32,"rain":0.0,"pressure":977.7,"uv_index":9.0,"wind_gusts":25.6,"aqi":156,"pm10":114.1,"pm2_5":49.7,"mosquito_risk":0,"arthritis_risk":5,"migraine_risk":10,"frizz_risk":1,"updated_at":"2026-04-20T11:17:29.643542+05:30"},{"city":"Bokaro","state":"Jharkhand","latitude":23.6693,"longitude":86.1511,"temp":38.2,"humidity":37,"rain":0.0,"pressure":981.9,"uv_index":9.0,"wind_gusts":37.8,"aqi":135,"pm10":116.4,"pm2_5":37.4,"mosquito_risk":0,"arthritis_risk":5,"migraine_risk":10,"frizz_risk":1,"updated_at":"2026-04-20T11:17:29.643548+05:30"},{"city":"Bhubaneswar","state":"Odisha","latitude":20.2961,"longitude":85.8245,"temp":33.0,"humidity":71,"rain":0.0,"pressure":1001.9,"uv_index":9.1,"wind_gusts":36.7,"aqi":71,"pm10":38.0,"pm2_5":29.6,"mosquito_risk":3,"arthritis_risk":5,"migraine_risk":4,"frizz_risk":1,"updated_at":"2026-04-20T11:17:29.643554+05:30"},{"city":"Cuttack","state":"Odisha","latitude":20.4625,"longitude":85.8828,"temp":35.4,"humidity":60,"rain":0.0,"pressure":1003.5,"uv_index":9.15,"wind_gusts":36.4,"aqi":71,"pm10":38.0,"pm2_5":29.6,"mosquito_risk":0,"arthritis_risk":5,"migraine_risk":7,"frizz_risk":1,"updated_at":"2026-04-20T11:17:29.643560+05:30"},{"city":"Rourkela","state":"Odisha","latitude":22.2604,"longitude":84.8536,"temp":37.5,"humidity":40,"rain":0.0,"pressure":983.6,"uv_index":8.95,"wind_gusts":41.0,"aqi":151,"pm10":54.1,"pm2_5":46.1,"mosquito_risk":0,"arthritis_risk":5,"migraine_risk":10,"frizz_risk":1,"updated_at":"2026-04-20T11:17:29.643567+05:30"},{"city":"Raipur","state":"Chhattisgarh","latitude":21.2514,"longitude":81.6296,"temp":38.6,"humidity":27,"rain":0.0,"pressure":974.1,"uv_index":8.65,"wind_gusts":40.3,"aqi":111,"pm10":44.1,"pm2_5":37.7,"mosquito_risk":0,"arthritis_risk":5,"migraine_risk":10,"frizz_risk":1,"updated_at":"2026-04-20T11:17:29.643573+05:30"},{"city":"Bhilai","state":"Chhattisgarh","latitude":21.1938,"longitude":81.3509,"temp":38.7,"humidity":26,"rain":0.0,"pressure":974.5,"uv_index":8.25,"wind_gusts":38.2,"aqi":102,"pm10":41.0,"pm2_5":36.3,"mosquito_risk":0,"arthritis_risk":5,"migraine_risk":10,"frizz_risk":0,"updated_at":"2026-04-20T11:17:29.643579+05:30"},{"city":"Guwahati","state":"Assam","latitude":26.1158,"longitude":91.7086,"temp":27.3,"humidity":80,"rain":0.0,"pressure":1001.2,"uv_index":8.5,"wind_gusts":43.9,"aqi":118,"pm10":21.5,"pm2_5":18.6,"mosquito_risk":7,"arthritis_risk":5,"migraine_risk":4,"frizz_risk":1,"updated_at":"2026-04-20T11:17:29.643585+05:30"},{"city":"Agartala","state":"Tripura","latitude":23.8315,"longitude":91.2868,"temp":33.5,"humidity":58,"rain":0.0,"pressure":1005.3,"uv_index":8.6,"wind_gusts":33.1,"aqi":101,"pm10":47.7,"pm2_5":37.3,"mosquito_risk":0,"arthritis_risk":5,"migraine_risk":4,"frizz_risk":1,"updated_at":"2026-04-20T11:17:29.643591+05:30"},{"city":"Shillong","state":"Meghalaya","latitude":25.5788,"longitude":91.8933,"temp":22.1,"humidity":59,"rain":0.0,"pressure":858.1,"uv_index":7.2,"wind_gusts":73.8,"aqi":75,"pm10":11.1,"pm2_5":8.7,"mosquito_risk":0,"arthritis_risk":5,"migraine_risk":7,"frizz_risk":0,"updated_at":"2026-04-20T11:17:29.643597+05:30"},{"city":"Imphal","state":"Manipur","latitude":24.817,"longitude":93.9368,"temp":22.7,"humidity":79,"rain":0.0,"pressure":923.9,"uv_index":9.15,"wind_gusts":79.2,"aqi":120,"pm10":57.4,"pm2_5":35.4,"mosquito_risk":3,"arthritis_risk":5,"migraine_risk":7,"frizz_risk":1,"updated_at":"2026-04-20T11:17:29.643603+05:30"},{"city":"Aizawl","state":"Mizoram","latitude":23.7271,"longitude":92.7176,"temp":27.6,"humidity":55,"rain":0.0,"pressure":894.8,"uv_index":8.95,"wind_gusts":58.7,"aqi":137,"pm10":52.7,"pm2_5":34.7,"mosquito_risk":4,"arthritis_risk":5,"migraine_risk":7,"frizz_risk":1,"updated_at":"2026-04-20T11:17:29.643610+05:30"},{"city":"Kohima","state":"Nagaland","latitude":25.6701,"longitude":94.1077,"temp":20.4,"humidity":81,"rain":0.0,"pressure":856.2,"uv_index":7.75,"wind_gusts":98.6,"aqi":94,"pm10":28.3,"pm2_5":19.5,"mosquito_risk":3,"arthritis_risk":5,"migraine_risk":7,"frizz_risk":1,"updated_at":"2026-04-20T11:17:29.643616+05:30"},{"city":"Gangtok","state":"Sikkim","latitude":27.3314,"longitude":88.6138,"temp":21.3,"humidity":75,"rain":0.0,"pressure":838.9,"uv_index":8.8,"wind_gusts":17.6,"aqi":67,"pm10":13.0,"pm2_5":10.4,"mosquito_risk":3,"arthritis_risk":5,"migraine_risk":7,"frizz_risk":1,"updated_at":"2026-04-20T11:17:29.643623+05:30"},{"city":"Siliguri","state":"West Bengal","latitude":26.7271,"longitude":88.3953,"temp":26.9,"humidity":71,"rain":0.0,"pressure":993.0,"uv_index":8.45,"wind_gusts":23.8,"aqi":91,"pm10":37.8,"pm2_5":30.0,"mosquito_risk":7,"arthritis_risk":5,"migraine_risk":7,"frizz_risk":1,"updated_at":"2026-04-20T11:17:32.858296+05:30"},{"city":"Durgapur","state":"West Bengal","latitude":23.5204,"longitude":87.3119,"temp":37.3,"humidity":50,"rain":0.0,"pressure":992.6,"uv_index":8.9,"wind_gusts":26.3,"aqi":146,"pm10":102.9,"pm2_5":80.3,"mosquito_risk":0,"arthritis_risk":5,"migraine_risk":10,"frizz_risk":1,"updated_at":"2026-04-20T11:17:32.858350+05:30"},{"city":"Asansol","state":"West Bengal","latitude":23.6739,"longitude":86.9524,"temp":37.6,"humidity":47,"rain":0.0,"pressure":991.1,"uv_index":8.95,"wind_gusts":51.1,"aqi":143,"pm10":108.0,"pm2_5":69.6,"mosquito_risk":0,"arthritis_risk":5,"migraine_risk":10,"frizz_risk":1,"updated_at":"2026-04-20T11:17:32.858361+05:30"},{"city":"Pondicherry","state":"Puducherry","latitude":11.9139,"longitude":79.8145,"temp":34.9,"humidity":53,"rain":0.0,"pressure":1009.0,"uv_index":9.25,"wind_gusts":32.8,"aqi":33,"pm10":13.5,"pm2_5":9.4,"mosquito_risk":0,"arthritis_risk":0,"migraine_risk":4,"frizz_risk":1,"updated_at":"2026-04-20T11:17:32.858370+05:30"},{"city":"Port Blair","state":"Andaman and Nicobar Islands","latitude":11.6234,"longitude":92.7265,"temp":29.8,"humidity":72,"rain":0.0,"pressure":1008.0,"uv_index":9.05,"wind_gusts":19.8,"aqi":60,"pm10":19.4,"pm2_5":16.2,"mosquito_risk":7,"arthritis_risk":0,"migraine_risk":4,"frizz_risk":1,"updated_at":"2026-04-20T11:17:32.858377+05:30"},{"city":"Haridwar","state":"Uttarakhand","latitude":29.9457,"longitude":78.1642,"temp":35.5,"humidity":26,"rain":0.0,"pressure":973.7,"uv_index":7.05,"wind_gusts":33.5,"aqi":60,"pm10":35.4,"pm2_5":13.2,"mosquito_risk":0,"arthritis_risk":5,"migraine_risk":10,"frizz_risk":0,"updated_at":"2026-04-20T11:17:32.858385+05:30"},{"city":"Rishikesh","state":"Uttarakhand","latitude":30.0869,"longitude":78.2676,"temp":34.7,"humidity":26,"rain":0.0,"pressure":966.6,"uv_index":7.2,"wind_gusts":35.6,"aqi":54,"pm10":55.9,"pm2_5":11.6,"mosquito_risk":0,"arthritis_risk":5,"migraine_risk":7,"frizz_risk":0,"updated_at":"2026-04-20T11:17:32.858393+05:30"},{"city":"Nainital","state":"Uttarakhand","latitude":29.3919,"longitude":79.4542,"temp":29.6,"humidity":25,"rain":0.0,"pressure":810.9,"uv_index":8.05,"wind_gusts":62.6,"aqi":54,"pm10":82.2,"pm2_5":16.0,"mosquito_risk":4,"arthritis_risk":5,"migraine_risk":7,"frizz_risk":0,"updated_at":"2026-04-20T11:17:32.858401+05:30"},{"city":"Mussoorie","state":"Uttarakhand","latitude":30.4599,"longitude":78.0664,"temp":26.9,"humidity":27,"rain":0.0,"pressure":807.1,"uv_index":7.55,"wind_gusts":44.3,"aqi":56,"pm10":36.2,"pm2_5":9.3,"mosquito_risk":4,"arthritis_risk":5,"migraine_risk":7,"frizz_risk":0,"updated_at":"2026-04-20T11:17:32.858410+05:30"},{"city":"Dharamshala","state":"Himachal Pradesh","latitude":32.219,"longitude":76.3234,"temp":29.0,"humidity":25,"rain":0.0,"pressure":871.6,"uv_index":7.8,"wind_gusts":33.8,"aqi":40,"pm10":18.2,"pm2_5":4.2,"mosquito_risk":4,"arthritis_risk":5,"migraine_risk":7,"frizz_risk":0,"updated_at":"2026-04-20T11:17:32.858420+05:30"},{"city":"Dalhousie","state":"Himachal Pradesh","latitude":32.5387,"longitude":75.971,"temp":27.7,"humidity":16,"rain":0.0,"pressure":808.1,"uv_index":8.05,"wind_gusts":29.5,"aqi":52,"pm10":41.8,"pm2_5":11.1,"mosquito_risk":4,"arthritis_risk":5,"migraine_risk":7,"frizz_risk":1,"updated_at":"2026-04-20T11:17:32.858429+05:30"},{"city":"Patiala","state":"Punjab","latitude":30.3398,"longitude":76.3869,"temp":36.1,"humidity":20,"rain":0.0,"pressure":978.0,"uv_index":7.15,"wind_gusts":29.5,"aqi":325,"pm10":476.8,"pm2_5":57.3,"mosquito_risk":0,"arthritis_risk":5,"migraine_risk":10,"frizz_risk":0,"updated_at":"2026-04-20T11:17:32.858436+05:30"},{"city":"Bhatinda","state":"Punjab","latitude":30.211,"longitude":74.9455,"temp":37.1,"humidity":19,"rain":0.0,"pressure":984.0,"uv_index":7.8,"wind_gusts":32.8,"aqi":72,"pm10":68.9,"pm2_5":21.8,"mosquito_risk":0,"arthritis_risk":5,"migraine_risk":10,"frizz_risk":0,"updated_at":"2026-04-20T11:17:32.858444+05:30"},{"city":"Rohtak","state":"Haryana","latitude":28.8955,"longitude":76.6066,"temp":36.4,"humidity":24,"rain":0.0,"pressure":981.7,"uv_index":7.3,"wind_gusts":31.3,"aqi":563,"pm10":352.0,"pm2_5":69.2,"mosquito_risk":0,"arthritis_risk":5,"migraine_risk":10,"frizz_risk":0,"updated_at":"2026-04-20T11:17:32.858452+05:30"},{"city":"Panipat","state":"Haryana","latitude":29.3909,"longitude":76.9635,"temp":36.9,"humidity":21,"rain":0.0,"pressure":980.0,"uv_index":7.1,"wind_gusts":28.1,"aqi":946,"pm10":581.1,"pm2_5":81.0,"mosquito_risk":0,"arthritis_risk":5,"migraine_risk":10,"frizz_risk":0,"updated_at":"2026-04-20T11:17:32.858459+05:30"},{"city":"Mathura","state":"Uttar Pradesh","latitude":27.4924,"longitude":77.6737,"temp":37.3,"humidity":26,"rain":0.0,"pressure":986.5,"uv_index":7.6,"wind_gusts":24.1,"aqi":544,"pm10":547.6,"pm2_5":88.5,"mosquito_risk":0,"arthritis_risk":5,"migraine_risk":10,"frizz_risk":0,"updated_at":"2026-04-20T11:17:32.858465+05:30"},{"city":"Vrindavan","state":"Uttar Pradesh","latitude":27.5823,"longitude":77.7027,"temp":38.0,"humidity":24,"rain":0.0,"pressure":986.8,"uv_index":7.55,"wind_gusts":29.2,"aqi":544,"pm10":547.6,"pm2_5":88.5,"mosquito_risk":0,"arthritis_risk":5,"migraine_risk":10,"frizz_risk":0,"updated_at":"2026-04-20T11:17:32.858472+05:30"},{"city":"Ayodhya","state":"Uttar Pradesh","latitude":26.7922,"longitude":82.1998,"temp":37.5,"humidity":39,"rain":0.0,"pressure":993.4,"uv_index":8.1,"wind_gusts":34.9,"aqi":105,"pm10":85.9,"pm2_5":45.5,"mosquito_risk":0,"arthritis_risk":5,"migraine_risk":10,"frizz_risk":1,"updated_at":"2026-04-20T11:17:32.858478+05:30"},{"city":"Ratlam","state":"Madhya Pradesh","latitude":23.3315,"longitude":75.0367,"temp":32.8,"humidity":33,"rain":0.0,"pressure":956.3,"uv_index":8.45,"wind_gusts":30.2,"aqi":53,"pm10":9.8,"pm2_5":7.0,"mosquito_risk":0,"arthritis_risk":5,"migraine_risk":7,"frizz_risk":0,"updated_at":"2026-04-20T11:17:32.858485+05:30"},{"city":"Sagar","state":"Madhya Pradesh","latitude":23.8388,"longitude":78.7378,"temp":38.7,"humidity":19,"rain":0.0,"pressure":950.8,"uv_index":8.35,"wind_gusts":36.7,"aqi":52,"pm10":14.1,"pm2_5":7.0,"mosquito_risk":0,"arthritis_risk":5,"migraine_risk":10,"frizz_risk":0,"updated_at":"2026-04-20T11:17:32.858492+05:30"},{"city":"Satna","state":"Madhya Pradesh","latitude":24.6005,"longitude":80.8322,"temp":40.7,"humidity":17,"rain":0.0,"pressure":970.2,"uv_index":7.75,"wind_gusts":36.0,"aqi":62,"pm10":29.3,"pm2_5":11.6,"mosquito_risk":0,"arthritis_risk":5,"migraine_risk":10,"frizz_risk":0,"updated_at":"2026-04-20T11:17:32.858498+05:30"},{"city":"Akola","state":"Maharashtra","latitude":20.7002,"longitude":77.0082,"temp":38.1,"humidity":24,"rain":0.0,"pressure":976.2,"uv_index":8.9,"wind_gusts":29.5,"aqi":74,"pm10":26.0,"pm2_5":21.8,"mosquito_risk":0,"arthritis_risk":5,"migraine_risk":10,"frizz_risk":0,"updated_at":"2026-04-20T11:17:32.858506+05:30"},{"city":"Amravati","state":"Maharashtra","latitude":20.9374,"longitude":77.7796,"temp":38.0,"humidity":26,"rain":0.0,"pressure":968.2,"uv_index":8.85,"wind_gusts":25.9,"aqi":75,"pm10":24.9,"pm2_5":20.7,"mosquito_risk":0,"arthritis_risk":5,"migraine_risk":10,"frizz_risk":0,"updated_at":"2026-04-20T11:17:32.858514+05:30"},{"city":"Latur","state":"Maharashtra","latitude":18.4088,"longitude":76.5604,"temp":36.1,"humidity":25,"rain":0.0,"pressure":941.5,"uv_index":8.9,"wind_gusts":27.7,"aqi":120,"pm10":34.0,"pm2_5":28.1,"mosquito_risk":0,"arthritis_risk":5,"migraine_risk":10,"frizz_risk":0,"updated_at":"2026-04-20T11:17:32.858520+05:30"},{"city":"Nanded","state":"Maharashtra","latitude":19.1383,"longitude":77.3091,"temp":38.4,"humidity":27,"rain":0.0,"pressure":969.5,"uv_index":8.85,"wind_gusts":25.2,"aqi":111,"pm10":35.0,"pm2_5":30.2,"mosquito_risk":0,"arthritis_risk":5,"migraine_risk":10,"frizz_risk":1,"updated_at":"2026-04-20T11:17:32.858526+05:30"},{"city":"Gulbarga","state":"Karnataka","latitude":17.3297,"longitude":76.8343,"temp":36.9,"humidity":28,"rain":0.0,"pressure":959.9,"uv_index":9.1,"wind_gusts":26.3,"aqi":131,"pm10":50.1,"pm2_5":43.3,"mosquito_risk":0,"arthritis_risk":5,"migraine_risk":10,"frizz_risk":0,"updated_at":"2026-04-20T11:17:32.858532+05:30"},{"city":"Bidar","state":"Karnataka","latitude":17.9104,"longitude":77.5199,"temp":36.8,"humidity":26,"rain":0.0,"pressure":937.3,"uv_index":8.65,"wind_gusts":33.5,"aqi":127,"pm10":48.2,"pm2_5":42.1,"mosquito_risk":0,"arthritis_risk":5,"migraine_risk":10,"frizz_risk":0,"updated_at":"2026-04-20T11:17:32.858538+05:30"},{"city":"Hospet","state":"Karnataka","latitude":15.2689,"longitude":76.3909,"temp":32.2,"humidity":53,"rain":0.0,"pressure":957.1,"uv_index":9.25,"wind_gusts":28.4,"aqi":113,"pm10":49.6,"pm2_5":41.9,"mosquito_risk":0,"arthritis_risk":5,"migraine_risk":7,"frizz_risk":1,"updated_at":"2026-04-20T11:17:32.858545+05:30"},{"city":"Tirupur","state":"Tamil Nadu","latitude":11.1085,"longitude":77.3411,"temp":34.6,"humidity":45,"rain":0.0,"pressure":976.0,"uv_index":9.4,"wind_gusts":29.5,"aqi":69,"pm10":21.4,"pm2_5":18.4,"mosquito_risk":0,"arthritis_risk":5,"migraine_risk":7,"frizz_risk":1,"updated_at":"2026-04-20T11:17:32.858551+05:30"},{"city":"Alappuzha","state":"Kerala","latitude":9.4981,"longitude":76.3388,"temp":29.2,"humidity":78,"rain":0.0,"pressure":1009.2,"uv_index":8.6,"wind_gusts":27.4,"aqi":67,"pm10":17.5,"pm2_5":14.6,"mosquito_risk":7,"arthritis_risk":0,"migraine_risk":4,"frizz_risk":1,"updated_at":"2026-04-20T11:17:32.858557+05:30"},{"city":"Munnar","state":"Kerala","latitude":10.0889,"longitude":77.0595,"temp":29.6,"humidity":48,"rain":0.0,"pressure":860.0,"uv_index":9.65,"wind_gusts":31.3,"aqi":74,"pm10":18.3,"pm2_5":15.0,"mosquito_risk":4,"arthritis_risk":5,"migraine_risk":7,"frizz_risk":1,"updated_at":"2026-04-20T11:17:32.858564+05:30"},{"city":"Silchar","state":"Assam","latitude":24.8333,"longitude":92.7789,"temp":26.0,"humidity":89,"rain":0.0,"pressure":1005.7,"uv_index":8.1,"wind_gusts":42.8,"aqi":123,"pm10":54.1,"pm2_5":39.9,"mosquito_risk":7,"arthritis_risk":5,"migraine_risk":4,"frizz_risk":1,"updated_at":"2026-04-20T11:17:32.858571+05:30"},{"city":"Dibrugarh","state":"Assam","latitude":27.4728,"longitude":94.912,"temp":26.0,"humidity":79,"rain":0.0,"pressure":994.9,"uv_index":8.75,"wind_gusts":16.6,"aqi":131,"pm10":36.4,"pm2_5":28.3,"mosquito_risk":7,"arthritis_risk":5,"migraine_risk":7,"frizz_risk":1,"updated_at":"2026-04-20T11:17:32.858577+05:30"}]