[{"city":"Delhi","state":"Delhi","latitude":28.6139,"longitude":77.209,"temp":31.9,"humidity":69,"rain":0.0,"pressure":973.0,"uv_index":7.25,"wind_gusts":40.0,"aqi":81,"pm10":76.6,"pm2_5":26.8,"no2":5.9,"co":393.0,"o3":161.0,"so2":14.9,"mosquito_risk":3,"arthritis_risk":5,"migraine_risk":7,"frizz_risk":1,"updated_at":"2026-07-23T14:55:07.766127+05:30"},{"city":"Mumbai","state":"Maharashtra","latitude":19.076,"longitude":72.8777,"temp":27.4,"humidity":85,"rain":0.1,"pressure":1001.8,"uv_index":1.4,"wind_gusts":69.8,"aqi":56,"pm10":47.0,"pm2_5":18.7,"no2":6.5,"co":185.0,"o3":42.0,"so2":4.2,"mosquito_risk":10,"arthritis_risk":5,"migraine_risk":0,"frizz_risk":1,"updated_at":"2026-07-23T14:55:07.766180+05:30"},{"city":"Bangalore","state":"Karnataka","latitude":12.9716,"longitude":77.5946,"temp":29.2,"humidity":50,"rain":0.0,"pressure":910.5,"uv_index":9.1,"wind_gusts":49.0,"aqi":38,"pm10":10.0,"pm2_5":5.3,"no2":3.4,"co":222.0,"o3":71.0,"so2":2.2,"mosquito_risk":4,"arthritis_risk":5,"migraine_risk":7,"frizz_risk":1,"updated_at":"2026-07-23T14:55:07.766196+05:30"},{"city":"Hyderabad","state":"Telangana","latitude":17.385,"longitude":78.4867,"temp":30.0,"humidity":53,"rain":0.0,"pressure":949.1,"uv_index":8.85,"wind_gusts":57.6,"aqi":46,"pm10":44.6,"pm2_5":17.9,"no2":1.6,"co":185.0,"o3":82.0,"so2":2.6,"mosquito_risk":4,"arthritis_risk":5,"migraine_risk":7,"frizz_risk":1,"updated_at":"2026-07-23T14:55:07.766205+05:30"},{"city":"Chennai","state":"Tamil Nadu","latitude":13.0827,"longitude":80.2707,"temp":31.7,"humidity":73,"rain":0.0,"pressure":1003.7,"uv_index":8.85,"wind_gusts":37.4,"aqi":77,"pm10":32.9,"pm2_5":21.1,"no2":5.2,"co":204.0,"o3":111.0,"so2":7.0,"mosquito_risk":3,"arthritis_risk":5,"migraine_risk":4,"frizz_risk":1,"updated_at":"2026-07-23T14:55:07.766215+05:30"},{"city":"Kolkata","state":"West Bengal","latitude":22.5726,"longitude":88.3639,"temp":27.9,"humidity":89,"rain":0.2,"pressure":999.5,"uv_index":3.8,"wind_gusts":40.3,"aqi":62,"pm10":18.0,"pm2_5":15.0,"no2":5.0,"co":277.0,"o3":82.0,"so2":6.0,"mosquito_risk":10,"arthritis_risk":5,"migraine_risk":3,"frizz_risk":1,"updated_at":"2026-07-23T14:55:07.766224+05:30"},{"city":"Pune","state":"Maharashtra","latitude":18.5204,"longitude":73.8567,"temp":24.2,"humidity":89,"rain":0.2,"pressure":941.3,"uv_index":1.45,"wind_gusts":60.5,"aqi":24,"pm10":4.8,"pm2_5":3.1,"no2":4.3,"co":152.0,"o3":39.0,"so2":2.5,"mosquito_risk":6,"arthritis_risk":5,"migraine_risk":3,"frizz_risk":1,"updated_at":"2026-07-23T14:55:07.766231+05:30"},{"city":"Ahmedabad","state":"Gujarat","latitude":23.0225,"longitude":72.5714,"temp":27.6,"humidity":93,"rain":0.0,"pressure":990.4,"uv_index":3.85,"wind_gusts":42.8,"aqi":58,"pm10":21.3,"pm2_5":10.7,"no2":8.0,"co":187.0,"o3":42.0,"so2":3.1,"mosquito_risk":7,"arthritis_risk":5,"migraine_risk":3,"frizz_risk":1,"updated_at":"2026-07-23T14:55:07.766238+05:30"},{"city":"Jaipur","state":"Rajasthan","latitude":26.9124,"longitude":75.7873,"temp":31.2,"humidity":66,"rain":0.1,"pressure":948.9,"uv_index":7.7,"wind_gusts":32.4,"aqi":67,"pm10":16.9,"pm2_5":16.2,"no2":3.7,"co":328.0,"o3":136.0,"so2":5.5,"mosquito_risk":6,"arthritis_risk":5,"migraine_risk":7,"frizz_risk":1,"updated_at":"2026-07-23T14:55:07.766245+05:30"},{"city":"Lucknow","state":"Uttar Pradesh","latitude":26.8467,"longitude":80.9462,"temp":32.1,"humidity":67,"rain":0.1,"pressure":983.6,"uv_index":6.85,"wind_gusts":43.9,"aqi":72,"pm10":14.6,"pm2_5":14.6,"no2":3.1,"co":217.0,"o3":123.0,"so2":10.0,"mosquito_risk":6,"arthritis_risk":5,"migraine_risk":7,"frizz_risk":1,"updated_at":"2026-07-23T14:55:07.766256+05:30"},{"city":"Kanpur","state":"Uttar Pradesh","latitude":26.4499,"longitude":80.3319,"temp":31.1,"humidity":72,"rain":0.0,"pressure":981.6,"uv_index":5.1,"wind_gusts":45.7,"aqi":69,"pm10":18.4,"pm2_5":18.4,"no2":2.5,"co":196.0,"o3":137.0,"so2":12.6,"mosquito_risk":3,"arthritis_risk":5,"migraine_risk":3,"frizz_risk":1,"updated_at":"2026-07-23T14:55:07.766263+05:30"},{"city":"Chandigarh","state":"Chandigarh","latitude":30.7333,"longitude":76.7794,"temp":32.2,"humidity":62,"rain":0.0,"pressure":961.3,"uv_index":6.55,"wind_gusts":37.4,"aqi":77,"pm10":16.3,"pm2_5":15.6,"no2":3.3,"co":272.0,"o3":152.0,"so2":6.9,"mosquito_risk":3,"arthritis_risk":5,"migraine_risk":7,"frizz_risk":1,"updated_at":"2026-07-23T14:55:07.766269+05:30"},{"city":"Srinagar","state":"Jammu and Kashmir","latitude":34.0837,"longitude":74.7973,"temp":22.5,"humidity":74,"rain":0.0,"pressure":839.1,"uv_index":8.8,"wind_gusts":31.0,"aqi":69,"pm10":11.7,"pm2_5":11.5,"no2":9.8,"co":340.0,"o3":65.0,"so2":2.4,"mosquito_risk":3,"arthritis_risk":5,"migraine_risk":7,"frizz_risk":1,"updated_at":"2026-07-23T14:55:07.766276+05:30"},{"city":"Jammu","state":"Jammu and Kashmir","latitude":32.7266,"longitude":74.857,"temp":28.5,"humidity":81,"rain":0.0,"pressure":966.3,"uv_index":7.75,"wind_gusts":38.5,"aqi":80,"pm10":11.7,"pm2_5":11.3,"no2":3.5,"co":193.0,"o3":102.0,"so2":2.2,"mosquito_risk":7,"arthritis_risk":5,"migraine_risk":7,"frizz_risk":1,"updated_at":"2026-07-23T14:55:07.766282+05:30"},{"city":"Amritsar","state":"Punjab","latitude":31.634,"longitude":74.8723,"temp":27.5,"humidity":85,"rain":0.0,"pressure":973.6,"uv_index":6.25,"wind_gusts":28.1,"aqi":93,"pm10":24.2,"pm2_5":23.1,"no2":4.9,"co":317.0,"o3":121.0,"so2":9.7,"mosquito_risk":7,"arthritis_risk":5,"migraine_risk":7,"frizz_risk":1,"updated_at":"2026-07-23T14:55:07.766288+05:30"},{"city":"Ludhiana","state":"Punjab","latitude":30.901,"longitude":75.8573,"temp":31.6,"humidity":72,"rain":0.0,"pressure":970.6,"uv_index":7.0,"wind_gusts":36.0,"aqi":125,"pm10":29.8,"pm2_5":24.0,"no2":5.4,"co":326.0,"o3":151.0,"so2":10.7,"mosquito_risk":3,"arthritis_risk":5,"migraine_risk":7,"frizz_risk":1,"updated_at":"2026-07-23T14:55:07.766295+05:30"},{"city":"Jalandhar","state":"Punjab","latitude":31.326,"longitude":75.5762,"temp":30.7,"humidity":74,"rain":0.0,"pressure":972.2,"uv_index":7.3,"wind_gusts":32.0,"aqi":118,"pm10":24.7,"pm2_5":23.9,"no2":8.2,"co":345.0,"o3":115.0,"so2":11.4,"mosquito_risk":3,"arthritis_risk":5,"migraine_risk":7,"frizz_risk":1,"updated_at":"2026-07-23T14:55:07.766300+05:30"},{"city":"Dehradun","state":"Uttarakhand","latitude":30.6284,"longitude":78.0322,"temp":21.3,"humidity":91,"rain":0.1,"pressure":827.2,"uv_index":7.05,"wind_gusts":25.6,"aqi":43,"pm10":5.6,"pm2_5":5.4,"no2":1.3,"co":173.0,"o3":101.0,"so2":1.2,"mosquito_risk":6,"arthritis_risk":5,"migraine_risk":7,"frizz_risk":1,"updated_at":"2026-07-23T14:55:07.766306+05:30"},{"city":"Shimla","state":"Himachal Pradesh","latitude":31.1048,"longitude":77.1734,"temp":19.2,"humidity":85,"rain":0.1,"pressure":782.1,"uv_index":5.9,"wind_gusts":24.1,"aqi":51,"pm10":9.8,"pm2_5":9.5,"no2":3.0,"co":186.0,"o3":108.0,"so2":3.6,"mosquito_risk":6,"arthritis_risk":10,"migraine_risk":3,"frizz_risk":1,"updated_at":"2026-07-23T14:55:07.766312+05:30"},{"city":"Manali","state":"Himachal Pradesh","latitude":32.2396,"longitude":77.1887,"temp":25.7,"humidity":66,"rain":0.0,"pressure":817.1,"uv_index":5.55,"wind_gusts":25.2,"aqi":33,"pm10":1.3,"pm2_5":1.2,"no2":1.3,"co":169.0,"o3":85.0,"so2":0.8,"mosquito_risk":7,"arthritis_risk":5,"migraine_risk":3,"frizz_risk":1,"updated_at":"2026-07-23T14:55:07.766320+05:30"},{"city":"Gurgaon","state":"Haryana","latitude":28.4595,"longitude":77.0266,"temp":30.7,"humidity":73,"rain":0.0,"pressure":971.2,"uv_index":7.3,"wind_gusts":41.4,"aqi":83,"pm10":566.2,"pm2_5":74.7,"no2":5.3,"co":362.0,"o3":148.0,"so2":11.6,"mosquito_risk":3,"arthritis_risk":5,"migraine_risk":7,"frizz_risk":1,"updated_at":"2026-07-23T14:55:07.766334+05:30"},{"city":"Noida","state":"Uttar Pradesh","latitude":28.5355,"longitude":77.391,"temp":32.5,"humidity":67,"rain":0.0,"pressure":974.4,"uv_index":7.15,"wind_gusts":38.5,"aqi":83,"pm10":566.2,"pm2_5":74.7,"no2":5.3,"co":322.0,"o3":148.0,"so2":11.6,"mosquito_risk":3,"arthritis_risk":5,"migraine_risk":7,"frizz_risk":1,"updated_at":"2026-07-23T14:55:07.766344+05:30"},{"city":"Ghaziabad","state":"Uttar Pradesh","latitude":28.6692,"longitude":77.4538,"temp":32.4,"humidity":68,"rain":0.0,"pressure":972.9,"uv_index":6.95,"wind_gusts":39.6,"aqi":65,"pm10":21.0,"pm2_5":18.6,"no2":2.6,"co":273.0,"o3":146.0,"so2":8.1,"mosquito_risk":3,"arthritis_risk":5,"migraine_risk":7,"frizz_risk":1,"updated_at":"2026-07-23T14:55:07.766356+05:30"},{"city":"Faridabad","state":"Haryana","latitude":28.4089,"longitude":77.3178,"temp":32.0,"humidity":68,"rain":0.0,"pressure":973.6,"uv_index":6.8,"wind_gusts":42.5,"aqi":83,"pm10":566.2,"pm2_5":74.7,"no2":5.3,"co":337.0,"o3":148.0,"so2":11.6,"mosquito_risk":3,"arthritis_risk":5,"migraine_risk":7,"frizz_risk":1,"updated_at":"2026-07-23T14:55:07.766365+05:30"},{"city":"Meerut","state":"Uttar Pradesh","latitude":28.9845,"longitude":77.7064,"temp":32.5,"humidity":61,"rain":0.0,"pressure":972.2,"uv_index":7.05,"wind_gusts":44.6,"aqi":65,"pm10":21.0,"pm2_5":18.6,"no2":2.6,"co":261.0,"o3":146.0,"so2":8.1,"mosquito_risk":3,"arthritis_risk":5,"migraine_risk":7,"frizz_risk":1,"updated_at":"2026-07-23T14:55:07.766376+05:30"},{"city":"Agra","state":"Uttar Pradesh","latitude":27.1767,"longitude":78.0081,"temp":32.3,"humidity":64,"rain":0.0,"pressure":976.7,"uv_index":5.75,"wind_gusts":42.5,"aqi":65,"pm10":15.1,"pm2_5":15.1,"no2":3.5,"co":255.0,"o3":125.0,"so2":6.1,"mosquito_risk":3,"arthritis_risk":5,"migraine_risk":3,"frizz_risk":1,"updated_at":"2026-07-23T14:55:07.766395+05:30"},{"city":"Varanasi","state":"Uttar Pradesh","latitude":25.3176,"longitude":82.9739,"temp":29.2,"humidity":83,"rain":0.0,"pressure":988.1,"uv_index":6.45,"wind_gusts":37.1,"aqi":69,"pm10":10.6,"pm2_5":10.6,"no2":12.0,"co":349.0,"o3":79.0,"so2":21.4,"mosquito_risk":7,"arthritis_risk":5,"migraine_risk":7,"frizz_risk":1,"updated_at":"2026-07-23T14:55:07.766403+05:30"},{"city":"Prayagraj","state":"Uttar Pradesh","latitude":25.4358,"longitude":81.8463,"temp":28.3,"humidity":88,"rain":0.1,"pressure":986.3,"uv_index":7.35,"wind_gusts":33.1,"aqi":68,"pm10":15.2,"pm2_5":15.2,"no2":3.6,"co":174.0,"o3":118.0,"so2":12.9,"mosquito_risk":10,"arthritis_risk":5,"migraine_risk":7,"frizz_risk":1,"updated_at":"2026-07-23T14:55:07.766410+05:30"},{"city":"Gorakhpur","state":"Uttar Pradesh","latitude":26.7606,"longitude":83.3732,"temp":32.4,"humidity":67,"rain":0.0,"pressure":988.4,"uv_index":7.05,"wind_gusts":47.2,"aqi":67,"pm10":19.2,"pm2_5":19.2,"no2":2.4,"co":276.0,"o3":140.0,"so2":10.4,"mosquito_risk":3,"arthritis_risk":5,"migraine_risk":7,"frizz_risk":1,"updated_at":"2026-07-23T14:55:07.766416+05:30"},{"city":"Bareilly","state":"Uttar Pradesh","latitude":28.367,"longitude":79.4304,"temp":32.1,"humidity":67,"rain":0.0,"pressure":977.4,"uv_index":6.5,"wind_gusts":46.1,"aqi":63,"pm10":16.2,"pm2_5":16.0,"no2":2.1,"co":220.0,"o3":132.0,"so2":5.7,"mosquito_risk":3,"arthritis_risk":5,"migraine_risk":7,"frizz_risk":1,"updated_at":"2026-07-23T14:55:07.766428+05:30"},{"city":"Aligarh","state":"Uttar Pradesh","latitude":27.8974,"longitude":78.088,"temp":32.3,"humidity":65,"rain":0.1,"pressure":975.0,"uv_index":6.55,"wind_gusts":43.9,"aqi":65,"pm10":17.1,"pm2_5":17.1,"no2":2.6,"co":277.0,"o3":131.0,"so2":7.7,"mosquito_risk":6,"arthritis_risk":5,"migraine_risk":7,"frizz_risk":1,"updated_at":"2026-07-23T14:55:07.766444+05:30"},{"city":"Moradabad","state":"Uttar Pradesh","latitude":28.8386,"longitude":78.7733,"temp":32.5,"humidity":64,"rain":0.0,"pressure":974.5,"uv_index":6.3,"wind_gusts":47.5,"aqi":63,"pm10":16.9,"pm2_5":16.6,"no2":2.4,"co":235.0,"o3":138.0,"so2":7.3,"mosquito_risk":3,"arthritis_risk":5,"migraine_risk":7,"frizz_risk":1,"updated_at":"2026-07-23T14:55:07.766450+05:30"},{"city":"Saharanpur","state":"Uttar Pradesh","latitude":29.9637,"longitude":77.546,"temp":31.4,"humidity":74,"rain":0.0,"pressure":967.4,"uv_index":7.1,"wind_gusts":41.0,"aqi":69,"pm10":15.3,"pm2_5":15.1,"no2":1.6,"co":231.0,"o3":132.0,"so2":3.2,"mosquito_risk":3,"arthritis_risk":5,"migraine_risk":7,"frizz_risk":1,"updated_at":"2026-07-23T14:55:07.766458+05:30"},{"city":"Jhansi","state":"Uttar Pradesh","latitude":25.4484,"longitude":78.5685,"temp":28.8,"humidity":82,"rain":0.1,"pressure":967.2,"uv_index":7.25,"wind_gusts":28.4,"aqi":62,"pm10":13.7,"pm2_5":13.6,"no2":3.1,"co":231.0,"o3":123.0,"so2":9.0,"mosquito_risk":10,"arthritis_risk":5,"migraine_risk":7,"frizz_risk":1,"updated_at":"2026-07-23T14:55:11.134710+05:30"},{"city":"Surat","state":"Gujarat","latitude":21.1702,"longitude":72.8311,"temp":26.7,"humidity":93,"rain":1.3,"pressure":996.3,"uv_index":0.35,"wind_gusts":63.7,"aqi":68,"pm10":32.2,"pm2_5":21.9,"no2":23.0,"co":368.0,"o3":25.0,"so2":44.4,"mosquito_risk":10,"arthritis_risk":5,"migraine_risk":3,"frizz_risk":1,"updated_at":"2026-07-23T14:55:11.134743+05:30"},{"city":"Vadodara","state":"Gujarat","latitude":22.3072,"longitude":73.1812,"temp":27.5,"humidity":88,"rain":0.1,"pressure":992.8,"uv_index":0.6,"wind_gusts":36.7,"aqi":59,"pm10":23.7,"pm2_5":12.4,"no2":8.7,"co":190.0,"o3":46.0,"so2":5.8,"mosquito_risk":10,"arthritis_risk":5,"migraine_risk":3,"frizz_risk":1,"updated_at":"2026-07-23T14:55:11.134753+05:30"},{"city":"Rajkot","state":"Gujarat","latitude":22.3039,"longitude":70.8022,"temp":29.7,"humidity":75,"rain":0.0,"pressure":984.0,"uv_index":0.75,"wind_gusts":44.3,"aqi":58,"pm10":52.3,"pm2_5":21.6,"no2":3.4,"co":99.0,"o3":57.0,"so2":6.5,"mosquito_risk":7,"arthritis_risk":5,"migraine_risk":3,"frizz_risk":1,"updated_at":"2026-07-23T14:55:11.134761+05:30"},{"city":"Thane","state":"Maharashtra","latitude":19.2183,"longitude":72.9781,"temp":25.9,"humidity":95,"rain":0.3,"pressure":1000.8,"uv_index":1.15,"wind_gusts":52.2,"aqi":56,"pm10":47.0,"pm2_5":18.7,"no2":6.5,"co":187.0,"o3":42.0,"so2":4.2,"mosquito_risk":10,"arthritis_risk":5,"migraine_risk":0,"frizz_risk":1,"updated_at":"2026-07-23T14:55:11.134769+05:30"},{"city":"Nagpur","state":"Maharashtra","latitude":21.1458,"longitude":79.0882,"temp":28.6,"humidity":70,"rain":0.0,"pressure":965.7,"uv_index":4.3,"wind_gusts":59.4,"aqi":43,"pm10":10.7,"pm2_5":8.7,"no2":7.2,"co":158.0,"o3":55.0,"so2":10.8,"mosquito_risk":7,"arthritis_risk":5,"migraine_risk":3,"frizz_risk":1,"updated_at":"2026-07-23T14:55:11.134776+05:30"},{"city":"Nashik","state":"Maharashtra","latitude":19.9975,"longitude":73.7898,"temp":23.6,"humidity":94,"rain":1.4,"pressure":936.0,"uv_index":2.25,"wind_gusts":74.2,"aqi":15,"pm10":3.3,"pm2_5":2.2,"no2":6.1,"co":122.0,"o3":36.0,"so2":1.8,"mosquito_risk":6,"arthritis_risk":5,"migraine_risk":3,"frizz_risk":1,"updated_at":"2026-07-23T14:55:11.134784+05:30"},{"city":"Aurangabad","state":"Maharashtra","latitude":19.8762,"longitude":75.3433,"temp":26.8,"humidity":76,"rain":0.2,"pressure":936.1,"uv_index":5.15,"wind_gusts":73.8,"aqi":18,"pm10":2.6,"pm2_5":2.5,"no2":3.9,"co":118.0,"o3":53.0,"so2":4.6,"mosquito_risk":10,"arthritis_risk":5,"migraine_risk":3,"frizz_risk":1,"updated_at":"2026-07-23T14:55:11.134791+05:30"},{"city":"Solapur","state":"Maharashtra","latitude":17.6599,"longitude":75.9064,"temp":28.8,"humidity":58,"rain":0.0,"pressure":952.8,"uv_index":4.9,"wind_gusts":69.5,"aqi":58,"pm10":72.4,"pm2_5":34.2,"no2":2.4,"co":102.0,"o3":62.0,"so2":1.7,"mosquito_risk":4,"arthritis_risk":5,"migraine_risk":3,"frizz_risk":1,"updated_at":"2026-07-23T14:55:11.134799+05:30"},{"city":"Kolhapur","state":"Maharashtra","latitude":16.705,"longitude":74.2433,"temp":23.5,"humidity":88,"rain":0.1,"pressure":944.4,"uv_index":4.0,"wind_gusts":65.9,"aqi":62,"pm10":78.9,"pm2_5":33.9,"no2":3.1,"co":130.0,"o3":53.0,"so2":1.5,"mosquito_risk":6,"arthritis_risk":5,"migraine_risk":3,"frizz_risk":1,"updated_at":"2026-07-23T14:55:11.134806+05:30"},{"city":"Goa","state":"Goa","latitude":15.2993,"longitude":74.124,"temp":28.3,"humidity":81,"rain":0.1,"pressure":996.6,"uv_index":4.15,"wind_gusts":43.2,"aqi":65,"pm10":111.3,"pm2_5":37.1,"no2":0.9,"co":132.0,"o3":52.0,"so2":1.0,"mosquito_risk":10,"arthritis_risk":5,"migraine_risk":3,"frizz_risk":1,"updated_at":"2026-07-23T14:55:11.134813+05:30"},{"city":"Jodhpur","state":"Rajasthan","latitude":26.2389,"longitude":73.0243,"temp":31.4,"humidity":67,"rain":0.3,"pressure":971.7,"uv_index":8.15,"wind_gusts":27.7,"aqi":73,"pm10":7.1,"pm2_5":6.5,"no2":3.2,"co":216.0,"o3":118.0,"so2":1.6,"mosquito_risk":6,"arthritis_risk":5,"migraine_risk":7,"frizz_risk":1,"updated_at":"2026-07-23T14:55:11.134821+05:30"},{"city":"Udaipur","state":"Rajasthan","latitude":24.5854,"longitude":73.7125,"temp":25.7,"humidity":91,"rain":0.2,"pressure":935.7,"uv_index":8.5,"wind_gusts":24.8,"aqi":32,"pm10":3.1,"pm2_5":2.7,"no2":5.3,"co":203.0,"o3":47.0,"so2":1.7,"mosquito_risk":10,"arthritis_risk":5,"migraine_risk":7,"frizz_risk":1,"updated_at":"2026-07-23T14:55:11.134827+05:30"},{"city":"Kota","state":"Rajasthan","latitude":25.2138,"longitude":75.8648,"temp":27.0,"humidity":94,"rain":0.6,"pressure":967.4,"uv_index":7.5,"wind_gusts":35.3,"aqi":69,"pm10":21.0,"pm2_5":20.4,"no2":3.1,"co":259.0,"o3":156.0,"so2":16.3,"mosquito_risk":10,"arthritis_risk":5,"migraine_risk":7,"frizz_risk":1,"updated_at":"2026-07-23T14:55:11.134834+05:30"},{"city":"Bikaner","state":"Rajasthan","latitude":28.0229,"longitude":73.3119,"temp":34.4,"humidity":55,"rain":0.0,"pressure":971.3,"uv_index":7.65,"wind_gusts":29.9,"aqi":65,"pm10":9.4,"pm2_5":9.1,"no2":1.3,"co":246.0,"o3":137.0,"so2":4.5,"mosquito_risk":0,"arthritis_risk":5,"migraine_risk":7,"frizz_risk":1,"updated_at":"2026-07-23T14:55:11.134842+05:30"},{"city":"Ajmer","state":"Rajasthan","latitude":26.4499,"longitude":74.6399,"temp":31.7,"humidity":62,"rain":0.0,"pressure":944.2,"uv_index":7.55,"wind_gusts":27.7,"aqi":60,"pm10":12.5,"pm2_5":12.4,"no2":1.6,"co":239.0,"o3":129.0,"so2":3.2,"mosquito_risk":3,"arthritis_risk":5,"migraine_risk":7,"frizz_risk":1,"updated_at":"2026-07-23T14:55:11.134849+05:30"},{"city":"Gwalior","state":"Madhya Pradesh","latitude":26.2183,"longitude":78.1828,"temp":30.2,"humidity":76,"rain":0.4,"pressure":971.8,"uv_index":6.45,"wind_gusts":28.4,"aqi":64,"pm10":17.5,"pm2_5":17.3,"no2":2.3,"co":257.0,"o3":134.0,"so2":7.2,"mosquito_risk":6,"arthritis_risk":5,"migraine_risk":7,"frizz_risk":1,"updated_at":"2026-07-23T14:55:11.134856+05:30"},{"city":"Indore","state":"Madhya Pradesh","latitude":22.7196,"longitude":75.8577,"temp":29.5,"humidity":67,"rain":0.2,"pressure":936.8,"uv_index":6.8,"wind_gusts":36.4,"aqi":46,"pm10":7.2,"pm2_5":6.3,"no2":7.7,"co":160.0,"o3":52.0,"so2":3.3,"mosquito_risk":10,"arthritis_risk":5,"migraine_risk":7,"frizz_risk":1,"updated_at":"2026-07-23T14:55:11.134863+05:30"},{"city":"Bhopal","state":"Madhya Pradesh","latitude":23.2599,"longitude":77.4126,"temp":28.8,"humidity":73,"rain":0.1,"pressure":943.4,"uv_index":8.05,"wind_gusts":40.3,"aqi":41,"pm10":4.8,"pm2_5":4.7,"no2":2.5,"co":199.0,"o3":81.0,"so2":3.5,"mosquito_risk":10,"arthritis_risk":5,"migraine_risk":7,"frizz_risk":1,"updated_at":"2026-07-23T14:55:11.134870+05:30"},{"city":"Jabalpur","state":"Madhya Pradesh","latitude":23.1815,"longitude":79.9864,"temp":26.0,"humidity":94,"rain":0.3,"pressure":952.4,"uv_index":2.4,"wind_gusts":32.8,"aqi":34,"pm10":3.6,"pm2_5":3.6,"no2":6.9,"co":151.0,"o3":37.0,"so2":3.0,"mosquito_risk":10,"arthritis_risk":5,"migraine_risk":3,"frizz_risk":1,"updated_at":"2026-07-23T14:55:11.134877+05:30"},{"city":"Ujjain","state":"Madhya Pradesh","latitude":23.1765,"longitude":75.7885,"temp":27.7,"humidity":81,"rain":0.2,"pressure":942.4,"uv_index":5.9,"wind_gusts":33.8,"aqi":42,"pm10":4.8,"pm2_5":4.3,"no2":2.9,"co":146.0,"o3":68.0,"so2":2.7,"mosquito_risk":10,"arthritis_risk":5,"migraine_risk":3,"frizz_risk":1,"updated_at":"2026-07-23T14:55:11.134884+05:30"},{"city":"Visakhapatnam","state":"Andhra Pradesh","latitude":17.6868,"longitude":83.2185,"temp":31.3,"humidity":69,"rain":0.1,"pressure":998.4,"uv_index":7.85,"wind_gusts":48.2,"aqi":71,"pm10":31.5,"pm2_5":20.4,"no2":8.1,"co":269.0,"o3":98.0,"so2":23.5,"mosquito_risk":6,"arthritis_risk":5,"migraine_risk":7,"frizz_risk":1,"updated_at":"2026-07-23T14:55:11.134891+05:30"},{"city":"Vijayawada","state":"Andhra Pradesh","latitude":16.5062,"longitude":80.648,"temp":34.8,"humidity":48,"rain":0.0,"pressure":997.8,"uv_index":7.0,"wind_gusts":46.1,"aqi":58,"pm10":28.1,"pm2_5":13.2,"no2":1.2,"co":118.0,"o3":88.0,"so2":3.4,"mosquito_risk":0,"arthritis_risk":5,"migraine_risk":7,"frizz_risk":1,"updated_at":"2026-07-23T14:55:11.134898+05:30"},{"city":"Guntur","state":"Andhra Pradesh","latitude":16.3067,"longitude":80.4365,"temp":36.2,"humidity":42,"rain":0.1,"pressure":998.8,"uv_index":8.2,"wind_gusts":42.5,"aqi":55,"pm10":23.4,"pm2_5":11.0,"no2":1.0,"co":116.0,"o3":83.0,"so2":2.7,"mosquito_risk":3,"arthritis_risk":5,"migraine_risk":10,"frizz_risk":1,"updated_at":"2026-07-23T14:55:11.134906+05:30"},{"city":"Nellore","state":"Andhra Pradesh","latitude":14.4426,"longitude":79.9865,"temp":37.4,"humidity":37,"rain":0.0,"pressure":1001.2,"uv_index":8.95,"wind_gusts":40.7,"aqi":59,"pm10":22.0,"pm2_5":12.1,"no2":2.8,"co":102.0,"o3":90.0,"so2":3.5,"mosquito_risk":0,"arthritis_risk":5,"migraine_risk":7,"frizz_risk":1,"updated_at":"2026-07-23T14:55:11.134914+05:30"},{"city":"Kurnool","state":"Andhra Pradesh","latitude":15.8281,"longitude":78.0373,"temp":34.1,"humidity":45,"rain":0.0,"pressure":973.2,"uv_index":8.35,"wind_gusts":51.5,"aqi":36,"pm10":25.7,"pm2_5":10.0,"no2":0.9,"co":114.0,"o3":77.0,"so2":1.6,"mosquito_risk":0,"arthritis_risk":5,"migraine_risk":7,"frizz_risk":1,"updated_at":"2026-07-23T14:55:11.134921+05:30"},{"city":"Kakinada","state":"Andhra Pradesh","latitude":16.9891,"longitude":82.2475,"temp":34.2,"humidity":49,"rain":0.0,"pressure":1002.2,"uv_index":8.1,"wind_gusts":44.3,"aqi":65,"pm10":28.9,"pm2_5":16.9,"no2":1.5,"co":142.0,"o3":93.0,"so2":3.4,"mosquito_risk":0,"arthritis_risk":5,"migraine_risk":4,"frizz_risk":1,"updated_at":"2026-07-23T14:55:11.134927+05:30"},{"city":"Tirupati","state":"Andhra Pradesh","latitude":13.6288,"longitude":79.4192,"temp":35.5,"humidity":41,"rain":0.0,"pressure":987.4,"uv_index":8.85,"wind_gusts":37.1,"aqi":62,"pm10":21.3,"pm2_5":10.4,"no2":2.1,"co":108.0,"o3":77.0,"so2":1.9,"mosquito_risk":0,"arthritis_risk":5,"migraine_risk":10,"frizz_risk":1,"updated_at":"2026-07-23T14:55:11.134932+05:30"},{"city":"Warangal","state":"Telangana","latitude":17.9689,"longitude":79.5941,"temp":31.9,"humidity":52,"rain":0.1,"pressure":973.7,"uv_index":8.5,"wind_gusts":49.7,"aqi":54,"pm10":42.4,"pm2_5":18.2,"no2":1.0,"co":120.0,"o3":87.0,"so2":2.2,"mosquito_risk":3,"arthritis_risk":5,"migraine_risk":7,"frizz_risk":1,"updated_at":"2026-07-23T14:55:11.134938+05:30"},{"city":"Nizamabad","state":"Telangana","latitude":18.6725,"longitude":78.0941,"temp":29.7,"humidity":57,"rain":0.0,"pressure":959.6,"uv_index":6.45,"wind_gusts":56.9,"aqi":53,"pm10":46.8,"pm2_5":23.3,"no2":1.3,"co":126.0,"o3":77.0,"so2":1.6,"mosquito_risk":4,"arthritis_risk":5,"migraine_risk":7,"frizz_risk":1,"updated_at":"2026-07-23T14:55:11.134944+05:30"},{"city":"Mysore","state":"Karnataka","latitude":12.2958,"longitude":76.6396,"temp":29.9,"humidity":46,"rain":0.0,"pressure":927.6,"uv_index":8.5,"wind_gusts":50.0,"aqi":29,"pm10":7.0,"pm2_5":3.8,"no2":1.6,"co":116.0,"o3":64.0,"so2":1.3,"mosquito_risk":4,"arthritis_risk":5,"migraine_risk":7,"frizz_risk":1,"updated_at":"2026-07-23T14:55:11.134949+05:30"},{"city":"Mangalore","state":"Karnataka","latitude":12.9141,"longitude":74.856,"temp":26.8,"humidity":87,"rain":0.0,"pressure":1007.0,"uv_index":8.8,"wind_gusts":49.3,"aqi":53,"pm10":12.3,"pm2_5":7.2,"no2":1.2,"co":109.0,"o3":58.0,"so2":1.9,"mosquito_risk":7,"arthritis_risk":5,"migraine_risk":4,"frizz_risk":1,"updated_at":"2026-07-23T14:55:11.134955+05:30"},{"city":"Hubli-Dharwad","state":"Karnataka","latitude":15.3647,"longitude":75.124,"temp":26.3,"humidity":70,"rain":0.0,"pressure":938.8,"uv_index":5.8,"wind_gusts":60.8,"aqi":20,"pm10":27.0,"pm2_5":11.2,"no2":1.9,"co":105.0,"o3":52.0,"so2":1.0,"mosquito_risk":7,"arthritis_risk":5,"migraine_risk":3,"frizz_risk":1,"updated_at":"2026-07-23T14:55:11.134961+05:30"},{"city":"Belgaum","state":"Karnataka","latitude":15.8497,"longitude":74.4977,"temp":23.4,"humidity":83,"rain":0.1,"pressure":923.1,"uv_index":2.95,"wind_gusts":58.3,"aqi":52,"pm10":114.1,"pm2_5":43.1,"no2":2.4,"co":111.0,"o3":60.0,"so2":1.6,"mosquito_risk":6,"arthritis_risk":5,"migraine_risk":3,"frizz_risk":1,"updated_at":"2026-07-23T14:55:14.532628+05:30"},{"city":"Coimbatore","state":"Tamil Nadu","latitude":11.0168,"longitude":76.9558,"temp":33.2,"humidity":43,"rain":0.0,"pressure":960.0,"uv_index":8.95,"wind_gusts":55.4,"aqi":40,"pm10":18.0,"pm2_5":7.2,"no2":1.4,"co":131.0,"o3":64.0,"so2":1.7,"mosquito_risk":0,"arthritis_risk":5,"migraine_risk":7,"frizz_risk":1,"updated_at":"2026-07-23T14:55:14.532661+05:30"},{"city":"Madurai","state":"Tamil Nadu","latitude":9.9252,"longitude":78.1198,"temp":37.5,"humidity":32,"rain":0.0,"pressure":990.1,"uv_index":8.75,"wind_gusts":29.5,"aqi":64,"pm10":31.0,"pm2_5":13.7,"no2":1.8,"co":151.0,"o3":99.0,"so2":2.2,"mosquito_risk":0,"arthritis_risk":5,"migraine_risk":10,"frizz_risk":1,"updated_at":"2026-07-23T14:55:14.532670+05:30"},{"city":"Trichy","state":"Tamil Nadu","latitude":10.7905,"longitude":78.7047,"temp":37.2,"humidity":34,"rain":0.0,"pressure":996.3,"uv_index":6.15,"wind_gusts":42.1,"aqi":57,"pm10":25.4,"pm2_5":12.1,"no2":1.5,"co":114.0,"o3":86.0,"so2":2.0,"mosquito_risk":0,"arthritis_risk":5,"migraine_risk":10,"frizz_risk":1,"updated_at":"2026-07-23T14:55:14.532679+05:30"},{"city":"Salem","state":"Tamil Nadu","latitude":11.6643,"longitude":78.146,"temp":34.7,"humidity":45,"rain":0.0,"pressure":974.6,"uv_index":8.8,"wind_gusts":28.8,"aqi":69,"pm10":34.8,"pm2_5":16.8,"no2":3.1,"co":140.0,"o3":103.0,"so2":7.6,"mosquito_risk":0,"arthritis_risk":5,"migraine_risk":7,"frizz_risk":1,"updated_at":"2026-07-23T14:55:14.532686+05:30"},{"city":"Tirunelveli","state":"Tamil Nadu","latitude":8.7139,"longitude":77.7567,"temp":38.0,"humidity":34,"rain":0.0,"pressure":1000.4,"uv_index":8.15,"wind_gusts":48.6,"aqi":43,"pm10":12.4,"pm2_5":6.7,"no2":1.2,"co":109.0,"o3":75.0,"so2":1.4,"mosquito_risk":0,"arthritis_risk":5,"migraine_risk":7,"frizz_risk":1,"updated_at":"2026-07-23T14:55:14.532694+05:30"},{"city":"Vellore","state":"Tamil Nadu","latitude":12.9165,"longitude":79.1325,"temp":36.4,"humidity":37,"rain":0.0,"pressure":980.8,"uv_index":9.0,"wind_gusts":36.7,"aqi":64,"pm10":31.3,"pm2_5":13.5,"no2":2.1,"co":116.0,"o3":79.0,"so2":2.3,"mosquito_risk":0,"arthritis_risk":5,"migraine_risk":10,"frizz_risk":1,"updated_at":"2026-07-23T14:55:14.532701+05:30"},{"city":"Erode","state":"Tamil Nadu","latitude":11.341,"longitude":77.7172,"temp":37.4,"humidity":34,"rain":0.0,"pressure":985.8,"uv_index":8.6,"wind_gusts":39.2,"aqi":57,"pm10":22.1,"pm2_5":10.6,"no2":2.3,"co":147.0,"o3":90.0,"so2":2.3,"mosquito_risk":0,"arthritis_risk":5,"migraine_risk":10,"frizz_risk":1,"updated_at":"2026-07-23T14:55:14.532708+05:30"},{"city":"Kochi","state":"Kerala","latitude":9.9312,"longitude":76.2673,"temp":28.9,"humidity":78,"rain":0.0,"pressure":1008.4,"uv_index":8.55,"wind_gusts":30.2,"aqi":54,"pm10":16.2,"pm2_5":10.2,"no2":2.4,"co":137.0,"o3":86.0,"so2":4.1,"mosquito_risk":7,"arthritis_risk":0,"migraine_risk":4,"frizz_risk":1,"updated_at":"2026-07-23T14:55:14.532715+05:30"},{"city":"Thiruvananthapuram","state":"Kerala","latitude":8.5241,"longitude":76.9366,"temp":29.7,"humidity":72,"rain":0.0,"pressure":1007.6,"uv_index":7.75,"wind_gusts":40.7,"aqi":52,"pm10":18.5,"pm2_5":11.8,"no2":1.6,"co":121.0,"o3":86.0,"so2":2.1,"mosquito_risk":7,"arthritis_risk":5,"migraine_risk":4,"frizz_risk":1,"updated_at":"2026-07-23T14:55:14.532722+05:30"},{"city":"Kozhikode","state":"Kerala","latitude":11.2588,"longitude":75.7804,"temp":29.5,"humidity":76,"rain":0.0,"pressure":1007.3,"uv_index":8.4,"wind_gusts":39.2,"aqi":37,"pm10":12.7,"pm2_5":6.7,"no2":0.7,"co":123.0,"o3":63.0,"so2":1.4,"mosquito_risk":7,"arthritis_risk":5,"migraine_risk":4,"frizz_risk":1,"updated_at":"2026-07-23T14:55:14.532729+05:30"},{"city":"Thrissur","state":"Kerala","latitude":10.5276,"longitude":76.2144,"temp":30.2,"humidity":71,"rain":0.0,"pressure":1006.6,"uv_index":8.7,"wind_gusts":35.3,"aqi":54,"pm10":11.7,"pm2_5":6.9,"no2":1.5,"co":111.0,"o3":65.0,"so2":2.1,"mosquito_risk":3,"arthritis_risk":5,"migraine_risk":4,"frizz_risk":1,"updated_at":"2026-07-23T14:55:14.532737+05:30"},{"city":"Kannur","state":"Kerala","latitude":11.8745,"longitude":75.3704,"temp":29.1,"humidity":78,"rain":0.0,"pressure":1006.9,"uv_index":8.75,"wind_gusts":41.8,"aqi":47,"pm10":10.2,"pm2_5":5.8,"no2":0.9,"co":98.0,"o3":60.0,"so2":1.5,"mosquito_risk":7,"arthritis_risk":5,"migraine_risk":4,"frizz_risk":1,"updated_at":"2026-07-23T14:55:14.532744+05:30"},{"city":"Patna","state":"Bihar","latitude":25.5941,"longitude":85.1376,"temp":32.7,"humidity":66,"rain":0.0,"pressure":991.4,"uv_index":6.1,"wind_gusts":37.4,"aqi":68,"pm10":16.3,"pm2_5":16.2,"no2":4.5,"co":277.0,"o3":113.0,"so2":16.7,"mosquito_risk":3,"arthritis_risk":5,"migraine_risk":7,"frizz_risk":1,"updated_at":"2026-07-23T14:55:14.532751+05:30"},{"city":"Gaya","state":"Bihar","latitude":24.7914,"longitude":85.0002,"temp":31.6,"humidity":70,"rain":0.0,"pressure":984.9,"uv_index":8.3,"wind_gusts":27.0,"aqi":58,"pm10":12.6,"pm2_5":12.5,"no2":2.7,"co":186.0,"o3":116.0,"so2":14.4,"mosquito_risk":3,"arthritis_risk":5,"migraine_risk":7,"frizz_risk":1,"updated_at":"2026-07-23T14:55:14.532758+05:30"},{"city":"Muzaffarpur","state":"Bihar","latitude":26.1209,"longitude":85.3647,"temp":31.4,"humidity":69,"rain":0.1,"pressure":992.0,"uv_index":7.55,"wind_gusts":44.6,"aqi":66,"pm10":15.9,"pm2_5":15.9,"no2":4.0,"co":273.0,"o3":121.0,"so2":15.7,"mosquito_risk":6,"arthritis_risk":5,"migraine_risk":7,"frizz_risk":1,"updated_at":"2026-07-23T14:55:14.532765+05:30"},{"city":"Bhagalpur","state":"Bihar","latitude":25.2425,"longitude":87.0117,"temp":31.8,"humidity":67,"rain":0.0,"pressure":992.8,"uv_index":7.05,"wind_gusts":33.1,"aqi":62,"pm10":14.9,"pm2_5":14.7,"no2":4.7,"co":266.0,"o3":115.0,"so2":14.8,"mosquito_risk":3,"arthritis_risk":5,"migraine_risk":7,"frizz_risk":1,"updated_at":"2026-07-23T14:55:14.532772+05:30"},{"city":"Ranchi","state":"Jharkhand","latitude":23.3441,"longitude":85.3096,"temp":25.9,"humidity":84,"rain":0.1,"pressure":930.5,"uv_index":8.45,"wind_gusts":40.7,"aqi":27,"pm10":7.2,"pm2_5":6.7,"no2":3.6,"co":153.0,"o3":79.0,"so2":12.2,"mosquito_risk":10,"arthritis_risk":5,"migraine_risk":7,"frizz_risk":1,"updated_at":"2026-07-23T14:55:14.532779+05:30"},{"city":"Jamshedpur","state":"Jharkhand","latitude":22.8046,"longitude":86.2029,"temp":26.3,"humidity":91,"rain":0.0,"pressure":983.7,"uv_index":2.3,"wind_gusts":34.2,"aqi":60,"pm10":16.9,"pm2_5":15.9,"no2":12.2,"co":195.0,"o3":69.0,"so2":21.4,"mosquito_risk":7,"arthritis_risk":5,"migraine_risk":3,"frizz_risk":1,"updated_at":"2026-07-23T14:55:14.532786+05:30"},{"city":"Dhanbad","state":"Jharkhand","latitude":23.7957,"longitude":86.4304,"temp":27.4,"humidity":88,"rain":0.3,"pressure":972.2,"uv_index":7.15,"wind_gusts":30.2,"aqi":88,"pm10":24.0,"pm2_5":23.5,"no2":23.9,"co":444.0,"o3":58.0,"so2":69.2,"mosquito_risk":10,"arthritis_risk":5,"migraine_risk":7,"frizz_risk":1,"updated_at":"2026-07-23T14:55:14.532793+05:30"},{"city":"Bokaro","state":"Jharkhand","latitude":23.6693,"longitude":86.1511,"temp":29.1,"humidity":84,"rain":0.2,"pressure":975.7,"uv_index":6.95,"wind_gusts":29.9,"aqi":75,"pm10":18.7,"pm2_5":18.2,"no2":16.8,"co":423.0,"o3":75.0,"so2":55.3,"mosquito_risk":10,"arthritis_risk":5,"migraine_risk":7,"frizz_risk":1,"updated_at":"2026-07-23T14:55:14.532800+05:30"},{"city":"Bhubaneswar","state":"Odisha","latitude":20.2961,"longitude":85.8245,"temp":29.2,"humidity":77,"rain":0.0,"pressure":996.9,"uv_index":8.45,"wind_gusts":45.7,"aqi":73,"pm10":24.8,"pm2_5":15.7,"no2":2.4,"co":199.0,"o3":102.0,"so2":6.6,"mosquito_risk":7,"arthritis_risk":5,"migraine_risk":7,"frizz_risk":1,"updated_at":"2026-07-23T14:55:14.532807+05:30"},{"city":"Cuttack","state":"Odisha","latitude":20.4625,"longitude":85.8828,"temp":29.2,"humidity":78,"rain":0.0,"pressure":998.5,"uv_index":8.7,"wind_gusts":40.3,"aqi":73,"pm10":24.8,"pm2_5":15.7,"no2":2.4,"co":174.0,"o3":102.0,"so2":6.6,"mosquito_risk":7,"arthritis_risk":5,"migraine_risk":7,"frizz_risk":1,"updated_at":"2026-07-23T14:55:14.532814+05:30"},{"city":"Rourkela","state":"Odisha","latitude":22.2604,"longitude":84.8536,"temp":29.7,"humidity":70,"rain":0.1,"pressure":977.9,"uv_index":6.75,"wind_gusts":42.1,"aqi":38,"pm10":11.2,"pm2_5":8.4,"no2":3.5,"co":213.0,"o3":76.0,"so2":10.4,"mosquito_risk":10,"arthritis_risk":5,"migraine_risk":7,"frizz_risk":1,"updated_at":"2026-07-23T14:55:14.532821+05:30"},{"city":"Raipur","state":"Chhattisgarh","latitude":21.2514,"longitude":81.6296,"temp":27.9,"humidity":67,"rain":0.0,"pressure":968.1,"uv_index":4.3,"wind_gusts":55.8,"aqi":57,"pm10":22.8,"pm2_5":16.0,"no2":9.3,"co":236.0,"o3":70.0,"so2":25.1,"mosquito_risk":7,"arthritis_risk":5,"migraine_risk":3,"frizz_risk":1,"updated_at":"2026-07-23T14:55:14.532828+05:30"},{"city":"Bhilai","state":"Chhattisgarh","latitude":21.1938,"longitude":81.3509,"temp":27.8,"humidity":69,"rain":0.0,"pressure":968.6,"uv_index":4.45,"wind_gusts":57.2,"aqi":55,"pm10":23.4,"pm2_5":16.2,"no2":10.3,"co":339.0,"o3":64.0,"so2":24.9,"mosquito_risk":7,"arthritis_risk":5,"migraine_risk":3,"frizz_risk":1,"updated_at":"2026-07-23T14:55:14.532835+05:30"},{"city":"Guwahati","state":"Assam","latitude":26.1158,"longitude":91.7086,"temp":31.9,"humidity":68,"rain":0.0,"pressure":994.0,"uv_index":5.55,"wind_gusts":24.1,"aqi":47,"pm10":7.1,"pm2_5":6.8,"no2":1.7,"co":241.0,"o3":92.0,"so2":1.2,"mosquito_risk":3,"arthritis_risk":5,"migraine_risk":3,"frizz_risk":1,"updated_at":"2026-07-23T14:55:14.532842+05:30"},{"city":"Agartala","state":"Tripura","latitude":23.8315,"longitude":91.2868,"temp":27.9,"humidity":91,"rain":0.0,"pressure":1000.3,"uv_index":4.4,"wind_gusts":37.1,"aqi":42,"pm10":10.3,"pm2_5":7.9,"no2":2.9,"co":158.0,"o3":96.0,"so2":1.2,"mosquito_risk":7,"arthritis_risk":5,"migraine_risk":0,"frizz_risk":1,"updated_at":"2026-07-23T14:55:14.532849+05:30"},{"city":"Shillong","state":"Meghalaya","latitude":25.5788,"longitude":91.8933,"temp":24.0,"humidity":74,"rain":0.0,"pressure":853.7,"uv_index":4.4,"wind_gusts":28.8,"aqi":32,"pm10":3.0,"pm2_5":2.9,"no2":1.6,"co":148.0,"o3":80.0,"so2":1.6,"mosquito_risk":3,"arthritis_risk":5,"migraine_risk":3,"frizz_risk":1,"updated_at":"2026-07-23T14:55:14.532855+05:30"},{"city":"Imphal","state":"Manipur","latitude":24.817,"longitude":93.9368,"temp":25.8,"humidity":88,"rain":0.1,"pressure":918.1,"uv_index":7.45,"wind_gusts":25.9,"aqi":38,"pm10":3.5,"pm2_5":3.1,"no2":1.6,"co":148.0,"o3":78.0,"so2":1.1,"mosquito_risk":10,"arthritis_risk":5,"migraine_risk":7,"frizz_risk":1,"updated_at":"2026-07-23T14:55:14.532862+05:30"},{"city":"Aizawl","state":"Mizoram","latitude":23.7271,"longitude":92.7176,"temp":21.9,"humidity":85,"rain":0.1,"pressure":888.6,"uv_index":8.75,"wind_gusts":38.9,"aqi":29,"pm10":6.6,"pm2_5":4.0,"no2":0.8,"co":120.0,"o3":62.0,"so2":0.4,"mosquito_risk":6,"arthritis_risk":5,"migraine_risk":7,"frizz_risk":1,"updated_at":"2026-07-23T14:55:14.532869+05:30"},{"city":"Kohima","state":"Nagaland","latitude":25.6701,"longitude":94.1077,"temp":22.9,"humidity":87,"rain":0.0,"pressure":851.3,"uv_index":5.25,"wind_gusts":22.3,"aqi":31,"pm10":3.3,"pm2_5":3.1,"no2":1.9,"co":142.0,"o3":68.0,"so2":0.6,"mosquito_risk":3,"arthritis_risk":5,"migraine_risk":3,"frizz_risk":1,"updated_at":"2026-07-23T14:55:14.532876+05:30"},{"city":"Gangtok","state":"Sikkim","latitude":27.3314,"longitude":88.6138,"temp":21.8,"humidity":78,"rain":0.0,"pressure":834.9,"uv_index":6.3,"wind_gusts":34.2,"aqi":44,"pm10":3.3,"pm2_5":3.2,"no2":2.7,"co":157.0,"o3":85.0,"so2":0.7,"mosquito_risk":3,"arthritis_risk":5,"migraine_risk":7,"frizz_risk":1,"updated_at":"2026-07-23T14:55:14.532883+05:30"},{"city":"Siliguri","state":"West Bengal","latitude":26.7271,"longitude":88.3953,"temp":29.9,"humidity":78,"rain":0.1,"pressure":985.9,"uv_index":8.15,"wind_gusts":31.7,"aqi":62,"pm10":9.1,"pm2_5":8.7,"no2":2.1,"co":270.0,"o3":98.0,"so2":1.2,"mosquito_risk":10,"arthritis_risk":5,"migraine_risk":7,"frizz_risk":1,"updated_at":"2026-07-23T14:55:17.945290+05:30"},{"city":"Durgapur","state":"West Bengal","latitude":23.5204,"longitude":87.3119,"temp":27.8,"humidity":88,"rain":0.2,"pressure":987.4,"uv_index":8.0,"wind_gusts":37.1,"aqi":69,"pm10":14.5,"pm2_5":14.1,"no2":13.7,"co":529.0,"o3":82.0,"so2":35.0,"mosquito_risk":10,"arthritis_risk":5,"migraine_risk":7,"frizz_risk":1,"updated_at":"2026-07-23T14:55:17.945319+05:30"},{"city":"Asansol","state":"West Bengal","latitude":23.6739,"longitude":86.9524,"temp":30.4,"humidity":73,"rain":0.1,"pressure":985.5,"uv_index":6.45,"wind_gusts":35.3,"aqi":65,"pm10":14.2,"pm2_5":13.9,"no2":15.5,"co":208.0,"o3":67.0,"so2":35.9,"mosquito_risk":6,"arthritis_risk":5,"migraine_risk":7,"frizz_risk":1,"updated_at":"2026-07-23T14:55:17.945328+05:30"},{"city":"Pondicherry","state":"Puducherry","latitude":11.9139,"longitude":79.8145,"temp":32.0,"humidity":64,"rain":0.0,"pressure":1005.3,"uv_index":8.2,"wind_gusts":42.5,"aqi":71,"pm10":31.8,"pm2_5":23.3,"no2":4.6,"co":179.0,"o3":123.0,"so2":10.5,"mosquito_risk":3,"arthritis_risk":5,"migraine_risk":4,"frizz_risk":1,"updated_at":"2026-07-23T14:55:17.945336+05:30"},{"city":"Port Blair","state":"Andaman and Nicobar Islands","latitude":11.6234,"longitude":92.7265,"temp":28.6,"humidity":78,"rain":0.0,"pressure":1005.7,"uv_index":8.45,"wind_gusts":36.0,"aqi":38,"pm10":7.0,"pm2_5":4.2,"no2":0.3,"co":95.0,"o3":48.0,"so2":0.5,"mosquito_risk":7,"arthritis_risk":5,"migraine_risk":4,"frizz_risk":1,"updated_at":"2026-07-23T14:55:17.945343+05:30"},{"city":"Haridwar","state":"Uttarakhand","latitude":29.9457,"longitude":78.1642,"temp":30.1,"humidity":77,"rain":0.1,"pressure":966.1,"uv_index":7.35,"wind_gusts":34.9,"aqi":65,"pm10":13.6,"pm2_5":13.4,"no2":1.4,"co":190.0,"o3":128.0,"so2":3.4,"mosquito_risk":6,"arthritis_risk":5,"migraine_risk":7,"frizz_risk":1,"updated_at":"2026-07-23T14:55:17.945349+05:30"},{"city":"Rishikesh","state":"Uttarakhand","latitude":30.0869,"longitude":78.2676,"temp":28.1,"humidity":89,"rain":0.1,"pressure":959.3,"uv_index":7.35,"wind_gusts":28.4,"aqi":50,"pm10":9.8,"pm2_5":9.7,"no2":1.1,"co":205.0,"o3":114.0,"so2":2.4,"mosquito_risk":10,"arthritis_risk":5,"migraine_risk":7,"frizz_risk":1,"updated_at":"2026-07-23T14:55:17.945356+05:30"},{"city":"Nainital","state":"Uttarakhand","latitude":29.3919,"longitude":79.4542,"temp":23.0,"humidity":63,"rain":0.0,"pressure":803.4,"uv_index":6.0,"wind_gusts":45.4,"aqi":44,"pm10":8.3,"pm2_5":8.1,"no2":1.2,"co":144.0,"o3":105.0,"so2":1.0,"mosquito_risk":3,"arthritis_risk":5,"migraine_risk":3,"frizz_risk":0,"updated_at":"2026-07-23T14:55:17.945362+05:30"},{"city":"Mussoorie","state":"Uttarakhand","latitude":30.4599,"longitude":78.0664,"temp":20.8,"humidity":83,"rain":0.1,"pressure":800.3,"uv_index":6.45,"wind_gusts":33.5,"aqi":54,"pm10":9.8,"pm2_5":9.6,"no2":1.6,"co":179.0,"o3":123.0,"so2":2.9,"mosquito_risk":6,"arthritis_risk":5,"migraine_risk":7,"frizz_risk":1,"updated_at":"2026-07-23T14:55:17.945368+05:30"},{"city":"Dharamshala","state":"Himachal Pradesh","latitude":32.219,"longitude":76.3234,"temp":24.2,"humidity":83,"rain":0.0,"pressure":865.2,"uv_index":3.0,"wind_gusts":27.0,"aqi":51,"pm10":4.7,"pm2_5":4.5,"no2":1.7,"co":165.0,"o3":87.0,"so2":0.5,"mosquito_risk":3,"arthritis_risk":5,"migraine_risk":3,"frizz_risk":1,"updated_at":"2026-07-23T14:55:17.945373+05:30"},{"city":"Dalhousie","state":"Himachal Pradesh","latitude":32.5387,"longitude":75.971,"temp":19.1,"humidity":93,"rain":0.0,"pressure":802.1,"uv_index":1.2,"wind_gusts":27.7,"aqi":63,"pm10":13.4,"pm2_5":12.7,"no2":5.3,"co":219.0,"o3":106.0,"so2":1.6,"mosquito_risk":3,"arthritis_risk":10,"migraine_risk":3,"frizz_risk":1,"updated_at":"2026-07-23T14:55:17.945380+05:30"},{"city":"Patiala","state":"Punjab","latitude":30.3398,"longitude":76.3869,"temp":32.7,"humidity":64,"rain":0.0,"pressure":969.8,"uv_index":7.05,"wind_gusts":40.7,"aqi":79,"pm10":27.7,"pm2_5":20.8,"no2":2.6,"co":248.0,"o3":152.0,"so2":7.2,"mosquito_risk":3,"arthritis_risk":5,"migraine_risk":7,"frizz_risk":1,"updated_at":"2026-07-23T14:55:17.945386+05:30"},{"city":"Bhatinda","state":"Punjab","latitude":30.211,"longitude":74.9455,"temp":30.8,"humidity":79,"rain":0.0,"pressure":974.9,"uv_index":6.95,"wind_gusts":32.4,"aqi":104,"pm10":55.3,"pm2_5":33.9,"no2":5.4,"co":304.0,"o3":160.0,"so2":15.0,"mosquito_risk":3,"arthritis_risk":5,"migraine_risk":7,"frizz_risk":1,"updated_at":"2026-07-23T14:55:17.945391+05:30"},{"city":"Rohtak","state":"Haryana","latitude":28.8955,"longitude":76.6066,"temp":32.7,"humidity":65,"rain":0.0,"pressure":971.9,"uv_index":6.25,"wind_gusts":36.4,"aqi":95,"pm10":431.2,"pm2_5":60.5,"no2":4.5,"co":300.0,"o3":170.0,"so2":13.3,"mosquito_risk":3,"arthritis_risk":5,"migraine_risk":7,"frizz_risk":1,"updated_at":"2026-07-23T14:55:17.945397+05:30"},{"city":"Panipat","state":"Haryana","latitude":29.3909,"longitude":76.9635,"temp":32.3,"humidity":71,"rain":0.0,"pressure":971.3,"uv_index":7.1,"wind_gusts":38.5,"aqi":98,"pm10":670.6,"pm2_5":86.1,"no2":3.3,"co":285.0,"o3":166.0,"so2":12.4,"mosquito_risk":3,"arthritis_risk":5,"migraine_risk":7,"frizz_risk":1,"updated_at":"2026-07-23T14:55:17.945403+05:30"},{"city":"Mathura","state":"Uttar Pradesh","latitude":27.4924,"longitude":77.6737,"temp":32.4,"humidity":63,"rain":0.0,"pressure":975.9,"uv_index":6.2,"wind_gusts":39.2,"aqi":81,"pm10":353.0,"pm2_5":44.6,"no2":2.7,"co":278.0,"o3":127.0,"so2":4.2,"mosquito_risk":3,"arthritis_risk":5,"migraine_risk":7,"frizz_risk":1,"updated_at":"2026-07-23T14:55:17.945408+05:30"},{"city":"Vrindavan","state":"Uttar Pradesh","latitude":27.5823,"longitude":77.7027,"temp":32.5,"humidity":62,"rain":0.0,"pressure":976.4,"uv_index":6.15,"wind_gusts":39.2,"aqi":81,"pm10":353.0,"pm2_5":44.6,"no2":2.7,"co":277.0,"o3":127.0,"so2":4.2,"mosquito_risk":3,"arthritis_risk":5,"migraine_risk":7,"frizz_risk":1,"updated_at":"2026-07-23T14:55:17.945413+05:30"},{"city":"Ayodhya","state":"Uttar Pradesh","latitude":26.7922,"longitude":82.1998,"temp":31.4,"humidity":71,"rain":0.0,"pressure":986.2,"uv_index":6.2,"wind_gusts":44.3,"aqi":71,"pm10":18.8,"pm2_5":18.7,"no2":2.6,"co":275.0,"o3":133.0,"so2":9.5,"mosquito_risk":3,"arthritis_risk":5,"migraine_risk":7,"frizz_risk":1,"updated_at":"2026-07-23T14:55:17.945419+05:30"},{"city":"Ratlam","state":"Madhya Pradesh","latitude":23.3315,"longitude":75.0367,"temp":29.9,"humidity":70,"rain":0.1,"pressure":943.1,"uv_index":4.35,"wind_gusts":32.0,"aqi":39,"pm10":5.8,"pm2_5":4.5,"no2":2.8,"co":136.0,"o3":68.0,"so2":3.2,"mosquito_risk":10,"arthritis_risk":5,"migraine_risk":3,"frizz_risk":1,"updated_at":"2026-07-23T14:55:17.945424+05:30"},{"city":"Sagar","state":"Madhya Pradesh","latitude":23.8388,"longitude":78.7378,"temp":29.1,"humidity":72,"rain":0.0,"pressure":940.1,"uv_index":5.0,"wind_gusts":34.2,"aqi":40,"pm10":3.0,"pm2_5":2.9,"no2":2.4,"co":146.0,"o3":79.0,"so2":2.0,"mosquito_risk":7,"arthritis_risk":5,"migraine_risk":3,"frizz_risk":1,"updated_at":"2026-07-23T14:55:17.945447+05:30"},{"city":"Satna","state":"Madhya Pradesh","latitude":24.6005,"longitude":80.8322,"temp":27.1,"humidity":89,"rain":0.0,"pressure":961.7,"uv_index":7.7,"wind_gusts":33.8,"aqi":60,"pm10":4.2,"pm2_5":4.2,"no2":2.1,"co":161.0,"o3":91.0,"so2":4.5,"mosquito_risk":7,"arthritis_risk":5,"migraine_risk":7,"frizz_risk":1,"updated_at":"2026-07-23T14:55:17.945453+05:30"},{"city":"Akola","state":"Maharashtra","latitude":20.7002,"longitude":77.0082,"temp":30.8,"humidity":59,"rain":0.1,"pressure":966.2,"uv_index":3.0,"wind_gusts":63.0,"aqi":22,"pm10":5.7,"pm2_5":3.6,"no2":5.4,"co":131.0,"o3":40.0,"so2":4.4,"mosquito_risk":3,"arthritis_risk":5,"migraine_risk":3,"frizz_risk":1,"updated_at":"2026-07-23T14:55:17.945460+05:30"},{"city":"Amravati","state":"Maharashtra","latitude":20.9374,"longitude":77.7796,"temp":29.6,"humidity":62,"rain":0.2,"pressure":959.3,"uv_index":1.35,"wind_gusts":59.0,"aqi":25,"pm10":4.5,"pm2_5":3.3,"no2":5.0,"co":144.0,"o3":40.0,"so2":3.9,"mosquito_risk":10,"arthritis_risk":5,"migraine_risk":3,"frizz_risk":1,"updated_at":"2026-07-23T14:55:17.945467+05:30"},{"city":"Latur","state":"Maharashtra","latitude":18.4088,"longitude":76.5604,"temp":28.2,"humidity":60,"rain":0.0,"pressure":934.6,"uv_index":5.55,"wind_gusts":68.4,"aqi":56,"pm10":35.4,"pm2_5":19.3,"no2":2.2,"co":114.0,"o3":55.0,"so2":1.3,"mosquito_risk":4,"arthritis_risk":5,"migraine_risk":3,"frizz_risk":1,"updated_at":"2026-07-23T14:55:17.945474+05:30"},{"city":"Nanded","state":"Maharashtra","latitude":19.1383,"longitude":77.3091,"temp":28.1,"humidity":75,"rain":0.0,"pressure":962.3,"uv_index":4.8,"wind_gusts":50.8,"aqi":54,"pm10":18.2,"pm2_5":12.4,"no2":5.0,"co":142.0,"o3":50.0,"so2":2.6,"mosquito_risk":7,"arthritis_risk":5,"migraine_risk":3,"frizz_risk":1,"updated_at":"2026-07-23T14:55:17.945480+05:30"},{"city":"Gulbarga","state":"Karnataka","latitude":17.3297,"longitude":76.8343,"temp":28.6,"humidity":56,"rain":0.0,"pressure":954.8,"uv_index":6.9,"wind_gusts":67.7,"aqi":49,"pm10":103.4,"pm2_5":41.4,"no2":2.0,"co":123.0,"o3":82.0,"so2":1.9,"mosquito_risk":4,"arthritis_risk":5,"migraine_risk":7,"frizz_risk":1,"updated_at":"2026-07-23T14:55:17.945485+05:30"},{"city":"Bidar","state":"Karnataka","latitude":17.9104,"longitude":77.5199,"temp":28.6,"humidity":53,"rain":0.0,"pressure":931.2,"uv_index":7.25,"wind_gusts":71.3,"aqi":52,"pm10":69.6,"pm2_5":30.2,"no2":1.2,"co":120.0,"o3":78.0,"so2":1.4,"mosquito_risk":4,"arthritis_risk":5,"migraine_risk":7,"frizz_risk":1,"updated_at":"2026-07-23T14:55:17.945491+05:30"},{"city":"Hospet","state":"Karnataka","latitude":15.2689,"longitude":76.3909,"temp":29.8,"humidity":56,"rain":0.1,"pressure":953.1,"uv_index":6.2,"wind_gusts":58.3,"aqi":22,"pm10":22.4,"pm2_5":9.2,"no2":1.3,"co":103.0,"o3":66.0,"so2":1.4,"mosquito_risk":7,"arthritis_risk":5,"migraine_risk":7,"frizz_risk":1,"updated_at":"2026-07-23T14:55:17.945497+05:30"},{"city":"Tirupur","state":"Tamil Nadu","latitude":11.1085,"longitude":77.3411,"temp":35.2,"humidity":40,"rain":0.0,"pressure":972.8,"uv_index":8.95,"wind_gusts":60.1,"aqi":60,"pm10":22.4,"pm2_5":10.4,"no2":2.2,"co":138.0,"o3":83.0,"so2":2.5,"mosquito_risk":0,"arthritis_risk":5,"migraine_risk":10,"frizz_risk":1,"updated_at":"2026-07-23T14:55:17.945503+05:30"},{"city":"Alappuzha","state":"Kerala","latitude":9.4981,"longitude":76.3388,"temp":28.9,"humidity":76,"rain":0.0,"pressure":1008.5,"uv_index":7.8,"wind_gusts":29.5,"aqi":56,"pm10":23.5,"pm2_5":16.5,"no2":3.2,"co":109.0,"o3":104.0,"so2":5.3,"mosquito_risk":7,"arthritis_risk":0,"migraine_risk":4,"frizz_risk":1,"updated_at":"2026-07-23T14:55:17.945509+05:30"},{"city":"Munnar","state":"Kerala","latitude":10.0889,"longitude":77.0595,"temp":21.1,"humidity":77,"rain":0.1,"pressure":857.5,"uv_index":7.85,"wind_gusts":32.4,"aqi":33,"pm10":16.9,"pm2_5":7.0,"no2":0.9,"co":95.0,"o3":63.0,"so2":1.2,"mosquito_risk":6,"arthritis_risk":5,"migraine_risk":7,"frizz_risk":1,"updated_at":"2026-07-23T14:55:17.945515+05:30"},{"city":"Silchar","state":"Assam","latitude":24.8333,"longitude":92.7789,"temp":28.8,"humidity":83,"rain":0.2,"pressure":999.1,"uv_index":1.8,"wind_gusts":31.0,"aqi":54,"pm10":5.1,"pm2_5":5.0,"no2":1.2,"co":149.0,"o3":90.0,"so2":2.6,"mosquito_risk":10,"arthritis_risk":5,"migraine_risk":3,"frizz_risk":1,"updated_at":"2026-07-23T14:55:17.945520+05:30"},{"city":"Dibrugarh","state":"Assam","latitude":27.4728,"longitude":94.912,"temp":32.1,"humidity":68,"rain":0.0,"pressure":987.1,"uv_index":7.75,"wind_gusts":29.2,"aqi":53,"pm10":4.5,"pm2_5":4.4,"no2":1.3,"co":155.0,"o3":102.0,"so2":1.1,"mosquito_risk":3,"arthritis_risk":5,"migraine_risk":7,"frizz_risk":1,"updated_at":"2026-07-23T14:55:17.945526+05:30"}]