[{"city":"Delhi","state":"Delhi","latitude":28.6139,"longitude":77.209,"temp":40.0,"humidity":31,"rain":0.0,"pressure":978.2,"uv_index":7.75,"wind_gusts":33.5,"aqi":727,"pm10":735.7,"pm2_5":156.9,"no2":8.9,"co":460.0,"o3":291.0,"so2":36.9,"mosquito_risk":0,"arthritis_risk":5,"migraine_risk":10,"frizz_risk":1,"updated_at":"2026-05-28T13:33:24.205120+05:30"},{"city":"Mumbai","state":"Maharashtra","latitude":19.076,"longitude":72.8777,"temp":33.9,"humidity":55,"rain":0.0,"pressure":1009.0,"uv_index":7.8,"wind_gusts":40.7,"aqi":50,"pm10":49.8,"pm2_5":21.5,"no2":4.0,"co":162.0,"o3":103.0,"so2":5.4,"mosquito_risk":0,"arthritis_risk":0,"migraine_risk":4,"frizz_risk":1,"updated_at":"2026-05-28T13:33:24.205159+05:30"},{"city":"Bangalore","state":"Karnataka","latitude":12.9716,"longitude":77.5946,"temp":30.8,"humidity":53,"rain":0.0,"pressure":913.2,"uv_index":8.6,"wind_gusts":29.5,"aqi":67,"pm10":23.4,"pm2_5":14.9,"no2":3.1,"co":282.0,"o3":151.0,"so2":4.0,"mosquito_risk":0,"arthritis_risk":5,"migraine_risk":7,"frizz_risk":1,"updated_at":"2026-05-28T13:33:24.205175+05:30"},{"city":"Hyderabad","state":"Telangana","latitude":17.385,"longitude":78.4867,"temp":36.0,"humidity":38,"rain":0.0,"pressure":952.8,"uv_index":7.8,"wind_gusts":33.1,"aqi":68,"pm10":23.5,"pm2_5":16.8,"no2":1.6,"co":232.0,"o3":157.0,"so2":6.8,"mosquito_risk":0,"arthritis_risk":5,"migraine_risk":10,"frizz_risk":1,"updated_at":"2026-05-28T13:33:24.205185+05:30"},{"city":"Chennai","state":"Tamil Nadu","latitude":13.0827,"longitude":80.2707,"temp":39.3,"humidity":32,"rain":0.0,"pressure":1005.4,"uv_index":8.5,"wind_gusts":38.9,"aqi":77,"pm10":36.7,"pm2_5":28.9,"no2":3.5,"co":277.0,"o3":192.0,"so2":8.1,"mosquito_risk":0,"arthritis_risk":5,"migraine_risk":7,"frizz_risk":1,"updated_at":"2026-05-28T13:33:24.205212+05:30"},{"city":"Kolkata","state":"West Bengal","latitude":22.5726,"longitude":88.3639,"temp":34.2,"humidity":54,"rain":0.0,"pressure":1003.2,"uv_index":8.9,"wind_gusts":23.8,"aqi":104,"pm10":64.5,"pm2_5":39.6,"no2":1.5,"co":277.0,"o3":132.0,"so2":6.7,"mosquito_risk":0,"arthritis_risk":5,"migraine_risk":4,"frizz_risk":1,"updated_at":"2026-05-28T13:33:24.205223+05:30"},{"city":"Pune","state":"Maharashtra","latitude":18.5204,"longitude":73.8567,"temp":36.8,"humidity":29,"rain":0.0,"pressure":949.0,"uv_index":8.4,"wind_gusts":41.0,"aqi":33,"pm10":18.8,"pm2_5":11.7,"no2":1.6,"co":157.0,"o3":123.0,"so2":6.2,"mosquito_risk":0,"arthritis_risk":5,"migraine_risk":10,"frizz_risk":0,"updated_at":"2026-05-28T13:33:24.205230+05:30"},{"city":"Ahmedabad","state":"Gujarat","latitude":23.0225,"longitude":72.5714,"temp":40.5,"humidity":28,"rain":0.0,"pressure":999.9,"uv_index":8.1,"wind_gusts":40.7,"aqi":71,"pm10":62.2,"pm2_5":25.2,"no2":1.6,"co":147.0,"o3":104.0,"so2":4.5,"mosquito_risk":0,"arthritis_risk":5,"migraine_risk":10,"frizz_risk":1,"updated_at":"2026-05-28T13:33:24.205237+05:30"},{"city":"Jaipur","state":"Rajasthan","latitude":26.9124,"longitude":75.7873,"temp":42.5,"humidity":16,"rain":0.0,"pressure":956.1,"uv_index":8.25,"wind_gusts":42.8,"aqi":195,"pm10":250.5,"pm2_5":45.2,"no2":1.0,"co":149.0,"o3":119.0,"so2":3.4,"mosquito_risk":0,"arthritis_risk":5,"migraine_risk":10,"frizz_risk":0,"updated_at":"2026-05-28T13:33:24.205249+05:30"},{"city":"Lucknow","state":"Uttar Pradesh","latitude":26.8467,"longitude":80.9462,"temp":37.8,"humidity":37,"rain":0.0,"pressure":990.2,"uv_index":8.2,"wind_gusts":46.4,"aqi":104,"pm10":84.1,"pm2_5":44.1,"no2":1.7,"co":367.0,"o3":191.0,"so2":12.8,"mosquito_risk":0,"arthritis_risk":5,"migraine_risk":10,"frizz_risk":1,"updated_at":"2026-05-28T13:33:24.205256+05:30"},{"city":"Kanpur","state":"Uttar Pradesh","latitude":26.4499,"longitude":80.3319,"temp":39.3,"humidity":34,"rain":0.0,"pressure":987.8,"uv_index":8.2,"wind_gusts":40.3,"aqi":231,"pm10":234.7,"pm2_5":61.0,"no2":1.7,"co":353.0,"o3":203.0,"so2":14.6,"mosquito_risk":0,"arthritis_risk":5,"migraine_risk":10,"frizz_risk":1,"updated_at":"2026-05-28T13:33:24.205262+05:30"},{"city":"Chandigarh","state":"Chandigarh","latitude":30.7333,"longitude":76.7794,"temp":37.6,"humidity":30,"rain":0.0,"pressure":965.0,"uv_index":7.75,"wind_gusts":53.3,"aqi":109,"pm10":95.2,"pm2_5":40.5,"no2":5.0,"co":326.0,"o3":202.0,"so2":13.8,"mosquito_risk":0,"arthritis_risk":5,"migraine_risk":10,"frizz_risk":1,"updated_at":"2026-05-28T13:33:24.205269+05:30"},{"city":"Srinagar","state":"Jammu and Kashmir","latitude":34.0837,"longitude":74.7973,"temp":26.5,"humidity":26,"rain":0.0,"pressure":844.3,"uv_index":8.9,"wind_gusts":43.6,"aqi":68,"pm10":30.0,"pm2_5":11.1,"no2":0.9,"co":191.0,"o3":144.0,"so2":2.0,"mosquito_risk":4,"arthritis_risk":5,"migraine_risk":7,"frizz_risk":0,"updated_at":"2026-05-28T13:33:24.205276+05:30"},{"city":"Jammu","state":"Jammu and Kashmir","latitude":32.7266,"longitude":74.857,"temp":37.7,"humidity":20,"rain":0.0,"pressure":969.1,"uv_index":7.65,"wind_gusts":39.2,"aqi":87,"pm10":40.4,"pm2_5":17.2,"no2":1.0,"co":202.0,"o3":161.0,"so2":2.3,"mosquito_risk":0,"arthritis_risk":5,"migraine_risk":10,"frizz_risk":0,"updated_at":"2026-05-28T13:33:24.205283+05:30"},{"city":"Amritsar","state":"Punjab","latitude":31.634,"longitude":74.8723,"temp":39.2,"humidity":20,"rain":0.0,"pressure":976.3,"uv_index":8.4,"wind_gusts":38.5,"aqi":112,"pm10":42.6,"pm2_5":17.5,"no2":0.6,"co":284.0,"o3":162.0,"so2":3.9,"mosquito_risk":0,"arthritis_risk":5,"migraine_risk":10,"frizz_risk":0,"updated_at":"2026-05-28T13:33:24.205290+05:30"},{"city":"Ludhiana","state":"Punjab","latitude":30.901,"longitude":75.8573,"temp":40.2,"humidity":24,"rain":0.0,"pressure":973.5,"uv_index":8.0,"wind_gusts":41.8,"aqi":139,"pm10":674.3,"pm2_5":122.5,"no2":2.2,"co":336.0,"o3":202.0,"so2":13.8,"mosquito_risk":0,"arthritis_risk":5,"migraine_risk":10,"frizz_risk":0,"updated_at":"2026-05-28T13:33:24.205302+05:30"},{"city":"Jalandhar","state":"Punjab","latitude":31.326,"longitude":75.5762,"temp":40.0,"humidity":20,"rain":0.0,"pressure":975.1,"uv_index":8.2,"wind_gusts":40.3,"aqi":124,"pm10":278.5,"pm2_5":65.7,"no2":1.7,"co":332.0,"o3":203.0,"so2":9.6,"mosquito_risk":0,"arthritis_risk":5,"migraine_risk":10,"frizz_risk":0,"updated_at":"2026-05-28T13:33:24.205308+05:30"},{"city":"Dehradun","state":"Uttarakhand","latitude":30.6284,"longitude":78.0322,"temp":24.6,"humidity":53,"rain":0.0,"pressure":832.6,"uv_index":8.2,"wind_gusts":30.6,"aqi":77,"pm10":51.3,"pm2_5":24.9,"no2":1.3,"co":287.0,"o3":178.0,"so2":7.1,"mosquito_risk":0,"arthritis_risk":5,"migraine_risk":7,"frizz_risk":0,"updated_at":"2026-05-28T13:33:24.205315+05:30"},{"city":"Shimla","state":"Himachal Pradesh","latitude":31.1048,"longitude":77.1734,"temp":25.0,"humidity":22,"rain":0.0,"pressure":788.2,"uv_index":8.25,"wind_gusts":41.4,"aqi":89,"pm10":33.4,"pm2_5":16.2,"no2":1.6,"co":164.0,"o3":155.0,"so2":3.7,"mosquito_risk":4,"arthritis_risk":5,"migraine_risk":7,"frizz_risk":0,"updated_at":"2026-05-28T13:33:24.205324+05:30"},{"city":"Manali","state":"Himachal Pradesh","latitude":32.2396,"longitude":77.1887,"temp":24.9,"humidity":32,"rain":0.0,"pressure":821.5,"uv_index":10.0,"wind_gusts":42.5,"aqi":97,"pm10":20.8,"pm2_5":8.5,"no2":1.9,"co":128.0,"o3":159.0,"so2":0.7,"mosquito_risk":0,"arthritis_risk":5,"migraine_risk":7,"frizz_risk":0,"updated_at":"2026-05-28T13:33:24.205331+05:30"},{"city":"Gurgaon","state":"Haryana","latitude":28.4595,"longitude":77.0266,"temp":40.5,"humidity":27,"rain":0.0,"pressure":976.6,"uv_index":7.8,"wind_gusts":42.5,"aqi":986,"pm10":1069.2,"pm2_5":186.7,"no2":6.5,"co":488.0,"o3":269.0,"so2":26.8,"mosquito_risk":0,"arthritis_risk":5,"migraine_risk":10,"frizz_risk":1,"updated_at":"2026-05-28T13:33:24.205337+05:30"},{"city":"Noida","state":"Uttar Pradesh","latitude":28.5355,"longitude":77.391,"temp":38.9,"humidity":37,"rain":0.0,"pressure":980.0,"uv_index":7.75,"wind_gusts":33.5,"aqi":986,"pm10":1069.2,"pm2_5":186.7,"no2":6.5,"co":418.0,"o3":269.0,"so2":26.8,"mosquito_risk":0,"arthritis_risk":5,"migraine_risk":10,"frizz_risk":1,"updated_at":"2026-05-28T13:33:24.205344+05:30"},{"city":"Ghaziabad","state":"Uttar Pradesh","latitude":28.6692,"longitude":77.4538,"temp":38.2,"humidity":39,"rain":0.0,"pressure":978.4,"uv_index":7.75,"wind_gusts":38.5,"aqi":594,"pm10":763.7,"pm2_5":136.0,"no2":2.4,"co":377.0,"o3":213.0,"so2":17.3,"mosquito_risk":0,"arthritis_risk":5,"migraine_risk":10,"frizz_risk":1,"updated_at":"2026-05-28T13:33:24.205350+05:30"},{"city":"Faridabad","state":"Haryana","latitude":28.4089,"longitude":77.3178,"temp":39.0,"humidity":35,"rain":0.0,"pressure":979.1,"uv_index":7.8,"wind_gusts":38.2,"aqi":986,"pm10":1069.2,"pm2_5":186.7,"no2":6.5,"co":383.0,"o3":269.0,"so2":26.8,"mosquito_risk":0,"arthritis_risk":5,"migraine_risk":10,"frizz_risk":1,"updated_at":"2026-05-28T13:33:24.205357+05:30"},{"city":"Meerut","state":"Uttar Pradesh","latitude":28.9845,"longitude":77.7064,"temp":36.7,"humidity":41,"rain":0.0,"pressure":978.0,"uv_index":7.65,"wind_gusts":51.8,"aqi":594,"pm10":763.7,"pm2_5":136.0,"no2":2.4,"co":376.0,"o3":213.0,"so2":17.3,"mosquito_risk":0,"arthritis_risk":5,"migraine_risk":10,"frizz_risk":1,"updated_at":"2026-05-28T13:33:24.205363+05:30"},{"city":"Agra","state":"Uttar Pradesh","latitude":27.1767,"longitude":78.0081,"temp":42.0,"humidity":21,"rain":0.0,"pressure":982.9,"uv_index":8.05,"wind_gusts":45.7,"aqi":637,"pm10":543.9,"pm2_5":87.1,"no2":0.7,"co":178.0,"o3":163.0,"so2":5.6,"mosquito_risk":0,"arthritis_risk":5,"migraine_risk":10,"frizz_risk":0,"updated_at":"2026-05-28T13:33:24.205369+05:30"},{"city":"Varanasi","state":"Uttar Pradesh","latitude":25.3176,"longitude":82.9739,"temp":37.8,"humidity":36,"rain":0.0,"pressure":993.7,"uv_index":8.7,"wind_gusts":37.8,"aqi":109,"pm10":82.2,"pm2_5":52.7,"no2":2.1,"co":359.0,"o3":210.0,"so2":18.4,"mosquito_risk":0,"arthritis_risk":5,"migraine_risk":10,"frizz_risk":1,"updated_at":"2026-05-28T13:33:24.205376+05:30"},{"city":"Prayagraj","state":"Uttar Pradesh","latitude":25.4358,"longitude":81.8463,"temp":39.2,"humidity":33,"rain":0.0,"pressure":991.7,"uv_index":8.6,"wind_gusts":36.4,"aqi":109,"pm10":84.5,"pm2_5":51.2,"no2":2.1,"co":366.0,"o3":212.0,"so2":16.9,"mosquito_risk":0,"arthritis_risk":5,"migraine_risk":10,"frizz_risk":1,"updated_at":"2026-05-28T13:33:24.205384+05:30"},{"city":"Gorakhpur","state":"Uttar Pradesh","latitude":26.7606,"longitude":83.3732,"temp":34.8,"humidity":43,"rain":0.0,"pressure":995.1,"uv_index":8.6,"wind_gusts":45.0,"aqi":93,"pm10":63.3,"pm2_5":38.6,"no2":1.5,"co":301.0,"o3":178.0,"so2":11.4,"mosquito_risk":0,"arthritis_risk":5,"migraine_risk":7,"frizz_risk":1,"updated_at":"2026-05-28T13:33:24.205392+05:30"},{"city":"Bareilly","state":"Uttar Pradesh","latitude":28.367,"longitude":79.4304,"temp":36.1,"humidity":43,"rain":0.0,"pressure":984.0,"uv_index":8.0,"wind_gusts":44.6,"aqi":114,"pm10":321.3,"pm2_5":64.5,"no2":1.7,"co":333.0,"o3":191.0,"so2":13.9,"mosquito_risk":0,"arthritis_risk":5,"migraine_risk":10,"frizz_risk":1,"updated_at":"2026-05-28T13:33:24.205399+05:30"},{"city":"Aligarh","state":"Uttar Pradesh","latitude":27.8974,"longitude":78.088,"temp":39.3,"humidity":34,"rain":0.0,"pressure":981.2,"uv_index":7.9,"wind_gusts":34.6,"aqi":895,"pm10":1110.1,"pm2_5":177.4,"no2":2.2,"co":358.0,"o3":224.0,"so2":17.8,"mosquito_risk":0,"arthritis_risk":5,"migraine_risk":10,"frizz_risk":1,"updated_at":"2026-05-28T13:33:24.205405+05:30"},{"city":"Moradabad","state":"Uttar Pradesh","latitude":28.8386,"longitude":78.7733,"temp":36.5,"humidity":41,"rain":0.0,"pressure":980.8,"uv_index":7.85,"wind_gusts":51.8,"aqi":122,"pm10":166.2,"pm2_5":50.8,"no2":1.9,"co":335.0,"o3":199.0,"so2":14.7,"mosquito_risk":0,"arthritis_risk":5,"migraine_risk":10,"frizz_risk":1,"updated_at":"2026-05-28T13:33:24.205412+05:30"},{"city":"Saharanpur","state":"Uttar Pradesh","latitude":29.9637,"longitude":77.546,"temp":36.5,"humidity":40,"rain":0.0,"pressure":972.6,"uv_index":7.5,"wind_gusts":47.5,"aqi":132,"pm10":118.5,"pm2_5":41.2,"no2":1.1,"co":356.0,"o3":192.0,"so2":11.7,"mosquito_risk":0,"arthritis_risk":5,"migraine_risk":10,"frizz_risk":1,"updated_at":"2026-05-28T13:33:24.205418+05:30"},{"city":"Jhansi","state":"Uttar Pradesh","latitude":25.4484,"longitude":78.5685,"temp":43.3,"humidity":17,"rain":0.0,"pressure":973.9,"uv_index":8.45,"wind_gusts":43.9,"aqi":65,"pm10":104.1,"pm2_5":26.3,"no2":0.8,"co":135.0,"o3":110.0,"so2":3.9,"mosquito_risk":0,"arthritis_risk":5,"migraine_risk":10,"frizz_risk":0,"updated_at":"2026-05-28T13:33:27.508106+05:30"},{"city":"Surat","state":"Gujarat","latitude":21.1702,"longitude":72.8311,"temp":35.1,"humidity":49,"rain":0.0,"pressure":1006.5,"uv_index":7.7,"wind_gusts":47.9,"aqi":80,"pm10":67.8,"pm2_5":32.1,"no2":10.9,"co":258.0,"o3":65.0,"so2":36.8,"mosquito_risk":0,"arthritis_risk":5,"migraine_risk":7,"frizz_risk":1,"updated_at":"2026-05-28T13:33:27.508135+05:30"},{"city":"Vadodara","state":"Gujarat","latitude":22.3072,"longitude":73.1812,"temp":39.3,"humidity":33,"rain":0.0,"pressure":1002.7,"uv_index":8.05,"wind_gusts":47.2,"aqi":77,"pm10":60.1,"pm2_5":26.5,"no2":1.6,"co":149.0,"o3":104.0,"so2":3.5,"mosquito_risk":0,"arthritis_risk":5,"migraine_risk":7,"frizz_risk":1,"updated_at":"2026-05-28T13:33:27.508144+05:30"},{"city":"Rajkot","state":"Gujarat","latitude":22.3039,"longitude":70.8022,"temp":40.8,"humidity":27,"rain":0.0,"pressure":992.8,"uv_index":7.7,"wind_gusts":49.3,"aqi":72,"pm10":66.1,"pm2_5":26.9,"no2":1.0,"co":120.0,"o3":103.0,"so2":4.2,"mosquito_risk":0,"arthritis_risk":5,"migraine_risk":10,"frizz_risk":1,"updated_at":"2026-05-28T13:33:27.508152+05:30"},{"city":"Thane","state":"Maharashtra","latitude":19.2183,"longitude":72.9781,"temp":35.8,"humidity":47,"rain":0.0,"pressure":1007.9,"uv_index":7.8,"wind_gusts":39.2,"aqi":50,"pm10":49.8,"pm2_5":21.5,"no2":4.0,"co":159.0,"o3":103.0,"so2":5.4,"mosquito_risk":0,"arthritis_risk":5,"migraine_risk":7,"frizz_risk":1,"updated_at":"2026-05-28T13:33:27.508159+05:30"},{"city":"Nagpur","state":"Maharashtra","latitude":21.1458,"longitude":79.0882,"temp":44.1,"humidity":17,"rain":0.0,"pressure":970.1,"uv_index":8.85,"wind_gusts":38.5,"aqi":75,"pm10":56.0,"pm2_5":24.6,"no2":3.6,"co":162.0,"o3":154.0,"so2":16.6,"mosquito_risk":0,"arthritis_risk":5,"migraine_risk":10,"frizz_risk":0,"updated_at":"2026-05-28T13:33:27.508167+05:30"},{"city":"Nashik","state":"Maharashtra","latitude":19.9975,"longitude":73.7898,"temp":35.5,"humidity":39,"rain":0.0,"pressure":946.6,"uv_index":8.1,"wind_gusts":42.8,"aqi":41,"pm10":40.4,"pm2_5":17.3,"no2":0.8,"co":130.0,"o3":91.0,"so2":1.2,"mosquito_risk":0,"arthritis_risk":5,"migraine_risk":10,"frizz_risk":1,"updated_at":"2026-05-28T13:33:27.508173+05:30"},{"city":"Aurangabad","state":"Maharashtra","latitude":19.8762,"longitude":75.3433,"temp":39.0,"humidity":21,"rain":0.0,"pressure":944.5,"uv_index":8.95,"wind_gusts":43.2,"aqi":44,"pm10":37.8,"pm2_5":15.9,"no2":0.8,"co":138.0,"o3":118.0,"so2":2.8,"mosquito_risk":0,"arthritis_risk":5,"migraine_risk":10,"frizz_risk":0,"updated_at":"2026-05-28T13:33:27.508180+05:30"},{"city":"Solapur","state":"Maharashtra","latitude":17.6599,"longitude":75.9064,"temp":37.1,"humidity":30,"rain":0.0,"pressure":957.5,"uv_index":8.95,"wind_gusts":34.9,"aqi":55,"pm10":9.6,"pm2_5":7.5,"no2":1.2,"co":139.0,"o3":126.0,"so2":3.8,"mosquito_risk":0,"arthritis_risk":5,"migraine_risk":10,"frizz_risk":1,"updated_at":"2026-05-28T13:33:27.508188+05:30"},{"city":"Kolhapur","state":"Maharashtra","latitude":16.705,"longitude":74.2433,"temp":34.7,"humidity":42,"rain":0.0,"pressure":948.9,"uv_index":8.8,"wind_gusts":43.2,"aqi":31,"pm10":13.7,"pm2_5":8.4,"no2":1.2,"co":135.0,"o3":104.0,"so2":1.7,"mosquito_risk":0,"arthritis_risk":5,"migraine_risk":7,"frizz_risk":1,"updated_at":"2026-05-28T13:33:27.508233+05:30"},{"city":"Goa","state":"Goa","latitude":15.2993,"longitude":74.124,"temp":32.7,"humidity":64,"rain":0.1,"pressure":998.6,"uv_index":8.0,"wind_gusts":31.7,"aqi":41,"pm10":8.1,"pm2_5":5.7,"no2":0.6,"co":129.0,"o3":71.0,"so2":1.0,"mosquito_risk":6,"arthritis_risk":5,"migraine_risk":7,"frizz_risk":1,"updated_at":"2026-05-28T13:33:27.508247+05:30"},{"city":"Jodhpur","state":"Rajasthan","latitude":26.2389,"longitude":73.0243,"temp":39.2,"humidity":33,"rain":0.0,"pressure":979.0,"uv_index":8.4,"wind_gusts":53.3,"aqi":176,"pm10":459.1,"pm2_5":80.1,"no2":0.6,"co":122.0,"o3":90.0,"so2":2.4,"mosquito_risk":0,"arthritis_risk":5,"migraine_risk":10,"frizz_risk":1,"updated_at":"2026-05-28T13:33:27.508256+05:30"},{"city":"Udaipur","state":"Rajasthan","latitude":24.5854,"longitude":73.7125,"temp":38.5,"humidity":23,"rain":0.0,"pressure":945.4,"uv_index":8.8,"wind_gusts":51.8,"aqi":65,"pm10":53.6,"pm2_5":21.8,"no2":0.6,"co":126.0,"o3":103.0,"so2":2.9,"mosquito_risk":0,"arthritis_risk":5,"migraine_risk":10,"frizz_risk":0,"updated_at":"2026-05-28T13:33:27.508263+05:30"},{"city":"Kota","state":"Rajasthan","latitude":25.2138,"longitude":75.8648,"temp":44.5,"humidity":17,"rain":0.0,"pressure":974.8,"uv_index":8.35,"wind_gusts":46.1,"aqi":65,"pm10":40.3,"pm2_5":17.9,"no2":1.0,"co":138.0,"o3":124.0,"so2":5.4,"mosquito_risk":0,"arthritis_risk":5,"migraine_risk":10,"frizz_risk":0,"updated_at":"2026-05-28T13:33:27.508270+05:30"},{"city":"Bikaner","state":"Rajasthan","latitude":28.0229,"longitude":73.3119,"temp":42.8,"humidity":23,"rain":0.0,"pressure":976.0,"uv_index":8.45,"wind_gusts":46.4,"aqi":154,"pm10":163.4,"pm2_5":70.1,"no2":0.4,"co":131.0,"o3":94.0,"so2":3.1,"mosquito_risk":0,"arthritis_risk":5,"migraine_risk":10,"frizz_risk":1,"updated_at":"2026-05-28T13:33:27.508277+05:30"},{"city":"Ajmer","state":"Rajasthan","latitude":26.4499,"longitude":74.6399,"temp":39.0,"humidity":26,"rain":0.0,"pressure":951.5,"uv_index":8.35,"wind_gusts":57.2,"aqi":66,"pm10":49.9,"pm2_5":21.8,"no2":0.8,"co":135.0,"o3":111.0,"so2":3.4,"mosquito_risk":0,"arthritis_risk":5,"migraine_risk":10,"frizz_risk":0,"updated_at":"2026-05-28T13:33:27.508284+05:30"},{"city":"Gwalior","state":"Madhya Pradesh","latitude":26.2183,"longitude":78.1828,"temp":43.0,"humidity":19,"rain":0.0,"pressure":978.7,"uv_index":8.25,"wind_gusts":48.2,"aqi":83,"pm10":98.3,"pm2_5":29.6,"no2":0.6,"co":140.0,"o3":112.0,"so2":3.2,"mosquito_risk":0,"arthritis_risk":5,"migraine_risk":10,"frizz_risk":0,"updated_at":"2026-05-28T13:33:27.508291+05:30"},{"city":"Indore","state":"Madhya Pradesh","latitude":22.7196,"longitude":75.8577,"temp":39.9,"humidity":26,"rain":0.0,"pressure":947.6,"uv_index":8.65,"wind_gusts":47.2,"aqi":70,"pm10":44.9,"pm2_5":22.1,"no2":1.0,"co":168.0,"o3":116.0,"so2":5.8,"mosquito_risk":0,"arthritis_risk":5,"migraine_risk":10,"frizz_risk":1,"updated_at":"2026-05-28T13:33:27.508298+05:30"},{"city":"Bhopal","state":"Madhya Pradesh","latitude":23.2599,"longitude":77.4126,"temp":42.3,"humidity":17,"rain":0.0,"pressure":952.1,"uv_index":8.65,"wind_gusts":39.6,"aqi":65,"pm10":48.2,"pm2_5":20.8,"no2":0.8,"co":158.0,"o3":122.0,"so2":5.7,"mosquito_risk":0,"arthritis_risk":5,"migraine_risk":10,"frizz_risk":0,"updated_at":"2026-05-28T13:33:27.508305+05:30"},{"city":"Jabalpur","state":"Madhya Pradesh","latitude":23.1815,"longitude":79.9864,"temp":43.8,"humidity":15,"rain":0.0,"pressure":958.6,"uv_index":8.85,"wind_gusts":38.9,"aqi":59,"pm10":53.4,"pm2_5":18.5,"no2":0.7,"co":150.0,"o3":126.0,"so2":3.4,"mosquito_risk":0,"arthritis_risk":5,"migraine_risk":10,"frizz_risk":0,"updated_at":"2026-05-28T13:33:27.508311+05:30"},{"city":"Ujjain","state":"Madhya Pradesh","latitude":23.1765,"longitude":75.7885,"temp":40.3,"humidity":24,"rain":0.0,"pressure":952.9,"uv_index":8.55,"wind_gusts":48.6,"aqi":71,"pm10":45.6,"pm2_5":22.6,"no2":0.7,"co":148.0,"o3":110.0,"so2":5.3,"mosquito_risk":0,"arthritis_risk":5,"migraine_risk":10,"frizz_risk":1,"updated_at":"2026-05-28T13:33:27.508319+05:30"},{"city":"Visakhapatnam","state":"Andhra Pradesh","latitude":17.6868,"longitude":83.2185,"temp":37.7,"humidity":52,"rain":0.0,"pressure":999.4,"uv_index":9.0,"wind_gusts":43.6,"aqi":109,"pm10":42.4,"pm2_5":35.2,"no2":7.9,"co":440.0,"o3":201.0,"so2":35.1,"mosquito_risk":0,"arthritis_risk":5,"migraine_risk":10,"frizz_risk":1,"updated_at":"2026-05-28T13:33:27.508326+05:30"},{"city":"Vijayawada","state":"Andhra Pradesh","latitude":16.5062,"longitude":80.648,"temp":40.8,"humidity":32,"rain":0.0,"pressure":999.4,"uv_index":8.5,"wind_gusts":36.0,"aqi":98,"pm10":31.8,"pm2_5":24.0,"no2":1.3,"co":196.0,"o3":163.0,"so2":8.7,"mosquito_risk":0,"arthritis_risk":5,"migraine_risk":10,"frizz_risk":1,"updated_at":"2026-05-28T13:33:27.508333+05:30"},{"city":"Guntur","state":"Andhra Pradesh","latitude":16.3067,"longitude":80.4365,"temp":40.5,"humidity":32,"rain":0.0,"pressure":1000.6,"uv_index":7.6,"wind_gusts":33.5,"aqi":84,"pm10":29.1,"pm2_5":20.8,"no2":1.1,"co":187.0,"o3":155.0,"so2":6.6,"mosquito_risk":0,"arthritis_risk":5,"migraine_risk":7,"frizz_risk":1,"updated_at":"2026-05-28T13:33:27.508340+05:30"},{"city":"Nellore","state":"Andhra Pradesh","latitude":14.4426,"longitude":79.9865,"temp":38.0,"humidity":42,"rain":0.0,"pressure":1003.8,"uv_index":9.0,"wind_gusts":35.6,"aqi":69,"pm10":28.1,"pm2_5":20.4,"no2":2.5,"co":161.0,"o3":169.0,"so2":8.4,"mosquito_risk":0,"arthritis_risk":5,"migraine_risk":7,"frizz_risk":1,"updated_at":"2026-05-28T13:33:27.508348+05:30"},{"city":"Kurnool","state":"Andhra Pradesh","latitude":15.8281,"longitude":78.0373,"temp":37.3,"humidity":38,"rain":0.0,"pressure":976.2,"uv_index":9.0,"wind_gusts":45.7,"aqi":59,"pm10":17.2,"pm2_5":14.2,"no2":1.4,"co":159.0,"o3":141.0,"so2":9.0,"mosquito_risk":0,"arthritis_risk":5,"migraine_risk":10,"frizz_risk":1,"updated_at":"2026-05-28T13:33:27.508356+05:30"},{"city":"Kakinada","state":"Andhra Pradesh","latitude":16.9891,"longitude":82.2475,"temp":40.2,"humidity":38,"rain":0.0,"pressure":1003.5,"uv_index":8.95,"wind_gusts":35.6,"aqi":111,"pm10":33.6,"pm2_5":26.5,"no2":2.3,"co":274.0,"o3":164.0,"so2":4.8,"mosquito_risk":0,"arthritis_risk":5,"migraine_risk":7,"frizz_risk":1,"updated_at":"2026-05-28T13:33:27.508363+05:30"},{"city":"Tirupati","state":"Andhra Pradesh","latitude":13.6288,"longitude":79.4192,"temp":38.2,"humidity":38,"rain":0.0,"pressure":989.5,"uv_index":9.0,"wind_gusts":28.4,"aqi":85,"pm10":26.6,"pm2_5":16.8,"no2":0.6,"co":165.0,"o3":149.0,"so2":3.0,"mosquito_risk":0,"arthritis_risk":5,"migraine_risk":10,"frizz_risk":1,"updated_at":"2026-05-28T13:33:27.508370+05:30"},{"city":"Warangal","state":"Telangana","latitude":17.9689,"longitude":79.5941,"temp":39.1,"humidity":31,"rain":0.0,"pressure":976.7,"uv_index":9.05,"wind_gusts":36.0,"aqi":76,"pm10":32.6,"pm2_5":22.8,"no2":1.3,"co":197.0,"o3":162.0,"so2":7.0,"mosquito_risk":0,"arthritis_risk":5,"migraine_risk":10,"frizz_risk":1,"updated_at":"2026-05-28T13:33:27.508377+05:30"},{"city":"Nizamabad","state":"Telangana","latitude":18.6725,"longitude":78.0941,"temp":38.8,"humidity":29,"rain":0.0,"pressure":963.9,"uv_index":9.0,"wind_gusts":35.3,"aqi":69,"pm10":26.0,"pm2_5":13.9,"no2":0.9,"co":155.0,"o3":128.0,"so2":3.0,"mosquito_risk":0,"arthritis_risk":5,"migraine_risk":10,"frizz_risk":1,"updated_at":"2026-05-28T13:33:27.508383+05:30"},{"city":"Mysore","state":"Karnataka","latitude":12.2958,"longitude":76.6396,"temp":32.5,"humidity":46,"rain":0.0,"pressure":929.6,"uv_index":9.1,"wind_gusts":45.4,"aqi":52,"pm10":14.6,"pm2_5":10.1,"no2":1.5,"co":157.0,"o3":129.0,"so2":1.9,"mosquito_risk":0,"arthritis_risk":5,"migraine_risk":7,"frizz_risk":1,"updated_at":"2026-05-28T13:33:27.508389+05:30"},{"city":"Mangalore","state":"Karnataka","latitude":12.9141,"longitude":74.856,"temp":30.0,"humidity":78,"rain":0.0,"pressure":1008.3,"uv_index":7.45,"wind_gusts":29.9,"aqi":45,"pm10":11.5,"pm2_5":7.4,"no2":1.1,"co":131.0,"o3":86.0,"so2":1.5,"mosquito_risk":7,"arthritis_risk":0,"migraine_risk":4,"frizz_risk":1,"updated_at":"2026-05-28T13:33:27.508397+05:30"},{"city":"Hubli-Dharwad","state":"Karnataka","latitude":15.3647,"longitude":75.124,"temp":33.5,"humidity":47,"rain":0.0,"pressure":942.2,"uv_index":8.95,"wind_gusts":43.6,"aqi":31,"pm10":13.9,"pm2_5":9.2,"no2":1.3,"co":133.0,"o3":104.0,"so2":1.2,"mosquito_risk":0,"arthritis_risk":5,"migraine_risk":7,"frizz_risk":1,"updated_at":"2026-05-28T13:33:27.508403+05:30"},{"city":"Belgaum","state":"Karnataka","latitude":15.8497,"longitude":74.4977,"temp":32.8,"humidity":46,"rain":0.0,"pressure":927.5,"uv_index":8.7,"wind_gusts":41.8,"aqi":29,"pm10":13.4,"pm2_5":8.3,"no2":1.2,"co":142.0,"o3":92.0,"so2":1.4,"mosquito_risk":0,"arthritis_risk":5,"migraine_risk":7,"frizz_risk":1,"updated_at":"2026-05-28T13:33:30.807085+05:30"},{"city":"Coimbatore","state":"Tamil Nadu","latitude":11.0168,"longitude":76.9558,"temp":31.8,"humidity":52,"rain":0.2,"pressure":963.1,"uv_index":8.8,"wind_gusts":50.8,"aqi":40,"pm10":13.2,"pm2_5":9.1,"no2":1.3,"co":173.0,"o3":102.0,"so2":2.1,"mosquito_risk":3,"arthritis_risk":5,"migraine_risk":7,"frizz_risk":1,"updated_at":"2026-05-28T13:33:30.807122+05:30"},{"city":"Madurai","state":"Tamil Nadu","latitude":9.9252,"longitude":78.1198,"temp":35.7,"humidity":46,"rain":0.0,"pressure":992.6,"uv_index":7.1,"wind_gusts":40.3,"aqi":85,"pm10":26.9,"pm2_5":19.8,"no2":1.7,"co":169.0,"o3":160.0,"so2":3.2,"mosquito_risk":0,"arthritis_risk":5,"migraine_risk":10,"frizz_risk":1,"updated_at":"2026-05-28T13:33:30.807133+05:30"},{"city":"Trichy","state":"Tamil Nadu","latitude":10.7905,"longitude":78.7047,"temp":37.3,"humidity":41,"rain":0.0,"pressure":998.7,"uv_index":7.8,"wind_gusts":52.2,"aqi":61,"pm10":19.8,"pm2_5":14.9,"no2":1.0,"co":150.0,"o3":129.0,"so2":2.7,"mosquito_risk":0,"arthritis_risk":5,"migraine_risk":10,"frizz_risk":1,"updated_at":"2026-05-28T13:33:30.807143+05:30"},{"city":"Salem","state":"Tamil Nadu","latitude":11.6643,"longitude":78.146,"temp":37.3,"humidity":35,"rain":0.0,"pressure":977.1,"uv_index":8.5,"wind_gusts":39.6,"aqi":67,"pm10":26.0,"pm2_5":20.0,"no2":2.1,"co":206.0,"o3":170.0,"so2":9.0,"mosquito_risk":0,"arthritis_risk":5,"migraine_risk":10,"frizz_risk":1,"updated_at":"2026-05-28T13:33:30.807152+05:30"},{"city":"Tirunelveli","state":"Tamil Nadu","latitude":8.7139,"longitude":77.7567,"temp":39.2,"humidity":33,"rain":0.0,"pressure":1002.5,"uv_index":7.85,"wind_gusts":30.2,"aqi":29,"pm10":9.3,"pm2_5":6.3,"no2":1.6,"co":125.0,"o3":81.0,"so2":1.0,"mosquito_risk":0,"arthritis_risk":5,"migraine_risk":7,"frizz_risk":1,"updated_at":"2026-05-28T13:33:30.807160+05:30"},{"city":"Vellore","state":"Tamil Nadu","latitude":12.9165,"longitude":79.1325,"temp":36.5,"humidity":41,"rain":0.0,"pressure":983.4,"uv_index":8.65,"wind_gusts":40.3,"aqi":83,"pm10":22.0,"pm2_5":15.3,"no2":0.6,"co":178.0,"o3":156.0,"so2":2.8,"mosquito_risk":0,"arthritis_risk":5,"migraine_risk":10,"frizz_risk":1,"updated_at":"2026-05-28T13:33:30.807168+05:30"},{"city":"Erode","state":"Tamil Nadu","latitude":11.341,"longitude":77.7172,"temp":36.6,"humidity":38,"rain":0.0,"pressure":988.5,"uv_index":8.25,"wind_gusts":48.6,"aqi":53,"pm10":17.6,"pm2_5":13.2,"no2":1.5,"co":175.0,"o3":135.0,"so2":2.1,"mosquito_risk":0,"arthritis_risk":5,"migraine_risk":10,"frizz_risk":1,"updated_at":"2026-05-28T13:33:30.807177+05:30"},{"city":"Kochi","state":"Kerala","latitude":9.9312,"longitude":76.2673,"temp":29.5,"humidity":76,"rain":0.0,"pressure":1011.0,"uv_index":8.2,"wind_gusts":29.2,"aqi":52,"pm10":11.2,"pm2_5":7.9,"no2":2.6,"co":112.0,"o3":82.0,"so2":2.7,"mosquito_risk":7,"arthritis_risk":0,"migraine_risk":4,"frizz_risk":1,"updated_at":"2026-05-28T13:33:30.807185+05:30"},{"city":"Thiruvananthapuram","state":"Kerala","latitude":8.5241,"longitude":76.9366,"temp":27.9,"humidity":82,"rain":0.0,"pressure":1010.5,"uv_index":7.4,"wind_gusts":27.4,"aqi":32,"pm10":10.0,"pm2_5":5.5,"no2":0.9,"co":106.0,"o3":58.0,"so2":0.6,"mosquito_risk":7,"arthritis_risk":0,"migraine_risk":4,"frizz_risk":1,"updated_at":"2026-05-28T13:33:30.807192+05:30"},{"city":"Kozhikode","state":"Kerala","latitude":11.2588,"longitude":75.7804,"temp":29.0,"humidity":76,"rain":0.0,"pressure":1009.9,"uv_index":7.65,"wind_gusts":36.0,"aqi":33,"pm10":6.9,"pm2_5":4.3,"no2":0.5,"co":128.0,"o3":71.0,"so2":0.7,"mosquito_risk":7,"arthritis_risk":0,"migraine_risk":4,"frizz_risk":1,"updated_at":"2026-05-28T13:33:30.807222+05:30"},{"city":"Thrissur","state":"Kerala","latitude":10.5276,"longitude":76.2144,"temp":30.0,"humidity":74,"rain":0.1,"pressure":1009.1,"uv_index":8.45,"wind_gusts":32.8,"aqi":53,"pm10":10.5,"pm2_5":8.1,"no2":2.0,"co":121.0,"o3":81.0,"so2":2.3,"mosquito_risk":10,"arthritis_risk":0,"migraine_risk":4,"frizz_risk":1,"updated_at":"2026-05-28T13:33:30.807232+05:30"},{"city":"Kannur","state":"Kerala","latitude":11.8745,"longitude":75.3704,"temp":29.5,"humidity":74,"rain":0.0,"pressure":1009.2,"uv_index":8.35,"wind_gusts":37.4,"aqi":37,"pm10":9.3,"pm2_5":5.9,"no2":1.0,"co":118.0,"o3":77.0,"so2":1.0,"mosquito_risk":7,"arthritis_risk":0,"migraine_risk":4,"frizz_risk":1,"updated_at":"2026-05-28T13:33:30.807240+05:30"},{"city":"Patna","state":"Bihar","latitude":25.5941,"longitude":85.1376,"temp":35.0,"humidity":46,"rain":0.0,"pressure":997.9,"uv_index":8.75,"wind_gusts":45.0,"aqi":103,"pm10":43.1,"pm2_5":33.2,"no2":3.0,"co":273.0,"o3":175.0,"so2":16.4,"mosquito_risk":0,"arthritis_risk":5,"migraine_risk":7,"frizz_risk":1,"updated_at":"2026-05-28T13:33:30.807248+05:30"},{"city":"Gaya","state":"Bihar","latitude":24.7914,"longitude":85.0002,"temp":36.6,"humidity":40,"rain":0.0,"pressure":990.7,"uv_index":8.85,"wind_gusts":34.6,"aqi":127,"pm10":36.9,"pm2_5":32.5,"no2":2.8,"co":341.0,"o3":182.0,"so2":15.0,"mosquito_risk":0,"arthritis_risk":5,"migraine_risk":10,"frizz_risk":1,"updated_at":"2026-05-28T13:33:30.807256+05:30"},{"city":"Muzaffarpur","state":"Bihar","latitude":26.1209,"longitude":85.3647,"temp":33.1,"humidity":52,"rain":0.0,"pressure":998.5,"uv_index":8.75,"wind_gusts":47.5,"aqi":99,"pm10":51.8,"pm2_5":35.3,"no2":2.3,"co":291.0,"o3":177.0,"so2":13.8,"mosquito_risk":0,"arthritis_risk":5,"migraine_risk":7,"frizz_risk":1,"updated_at":"2026-05-28T13:33:30.807263+05:30"},{"city":"Bhagalpur","state":"Bihar","latitude":25.2425,"longitude":87.0117,"temp":33.2,"humidity":53,"rain":0.0,"pressure":999.2,"uv_index":8.7,"wind_gusts":38.2,"aqi":89,"pm10":30.0,"pm2_5":20.3,"no2":4.7,"co":237.0,"o3":144.0,"so2":15.3,"mosquito_risk":0,"arthritis_risk":5,"migraine_risk":7,"frizz_risk":1,"updated_at":"2026-05-28T13:33:30.807270+05:30"},{"city":"Ranchi","state":"Jharkhand","latitude":23.3441,"longitude":85.3096,"temp":32.1,"humidity":46,"rain":0.0,"pressure":936.4,"uv_index":9.2,"wind_gusts":39.2,"aqi":150,"pm10":177.9,"pm2_5":51.1,"no2":0.8,"co":224.0,"o3":176.0,"so2":9.4,"mosquito_risk":0,"arthritis_risk":5,"migraine_risk":7,"frizz_risk":1,"updated_at":"2026-05-28T13:33:30.807278+05:30"},{"city":"Jamshedpur","state":"Jharkhand","latitude":22.8046,"longitude":86.2029,"temp":35.8,"humidity":47,"rain":0.0,"pressure":987.2,"uv_index":9.05,"wind_gusts":31.7,"aqi":155,"pm10":97.6,"pm2_5":71.0,"no2":2.5,"co":319.0,"o3":257.0,"so2":28.4,"mosquito_risk":0,"arthritis_risk":5,"migraine_risk":10,"frizz_risk":1,"updated_at":"2026-05-28T13:33:30.807285+05:30"},{"city":"Dhanbad","state":"Jharkhand","latitude":23.7957,"longitude":86.4304,"temp":35.5,"humidity":45,"rain":0.0,"pressure":977.5,"uv_index":9.0,"wind_gusts":34.2,"aqi":160,"pm10":100.8,"pm2_5":72.2,"no2":12.3,"co":405.0,"o3":190.0,"so2":44.3,"mosquito_risk":0,"arthritis_risk":5,"migraine_risk":10,"frizz_risk":1,"updated_at":"2026-05-28T13:33:30.807293+05:30"},{"city":"Bokaro","state":"Jharkhand","latitude":23.6693,"longitude":86.1511,"temp":36.2,"humidity":43,"rain":0.0,"pressure":980.9,"uv_index":9.0,"wind_gusts":35.6,"aqi":166,"pm10":118.5,"pm2_5":89.6,"no2":14.1,"co":483.0,"o3":226.0,"so2":59.2,"mosquito_risk":0,"arthritis_risk":5,"migraine_risk":10,"frizz_risk":1,"updated_at":"2026-05-28T13:33:30.807300+05:30"},{"city":"Bhubaneswar","state":"Odisha","latitude":20.2961,"longitude":85.8245,"temp":36.3,"humidity":49,"rain":0.0,"pressure":998.2,"uv_index":9.05,"wind_gusts":46.8,"aqi":109,"pm10":46.7,"pm2_5":34.3,"no2":2.0,"co":233.0,"o3":165.0,"so2":8.5,"mosquito_risk":0,"arthritis_risk":5,"migraine_risk":10,"frizz_risk":1,"updated_at":"2026-05-28T13:33:30.807308+05:30"},{"city":"Cuttack","state":"Odisha","latitude":20.4625,"longitude":85.8828,"temp":36.5,"humidity":49,"rain":0.0,"pressure":999.8,"uv_index":9.1,"wind_gusts":43.6,"aqi":109,"pm10":46.7,"pm2_5":34.3,"no2":2.0,"co":249.0,"o3":165.0,"so2":8.5,"mosquito_risk":0,"arthritis_risk":5,"migraine_risk":10,"frizz_risk":1,"updated_at":"2026-05-28T13:33:30.807315+05:30"},{"city":"Rourkela","state":"Odisha","latitude":22.2604,"longitude":84.8536,"temp":38.2,"humidity":41,"rain":0.0,"pressure":981.1,"uv_index":8.9,"wind_gusts":32.8,"aqi":154,"pm10":99.9,"pm2_5":46.9,"no2":0.7,"co":269.0,"o3":214.0,"so2":13.3,"mosquito_risk":0,"arthritis_risk":5,"migraine_risk":10,"frizz_risk":1,"updated_at":"2026-05-28T13:33:30.807323+05:30"},{"city":"Raipur","state":"Chhattisgarh","latitude":21.2514,"longitude":81.6296,"temp":43.4,"humidity":15,"rain":0.0,"pressure":971.0,"uv_index":8.9,"wind_gusts":32.4,"aqi":93,"pm10":52.9,"pm2_5":24.0,"no2":5.9,"co":144.0,"o3":158.0,"so2":25.2,"mosquito_risk":0,"arthritis_risk":5,"migraine_risk":10,"frizz_risk":0,"updated_at":"2026-05-28T13:33:30.807330+05:30"},{"city":"Bhilai","state":"Chhattisgarh","latitude":21.1938,"longitude":81.3509,"temp":41.8,"humidity":19,"rain":0.0,"pressure":971.6,"uv_index":8.95,"wind_gusts":39.2,"aqi":86,"pm10":52.5,"pm2_5":22.7,"no2":5.9,"co":153.0,"o3":147.0,"so2":22.2,"mosquito_risk":0,"arthritis_risk":5,"migraine_risk":10,"frizz_risk":0,"updated_at":"2026-05-28T13:33:30.807337+05:30"},{"city":"Guwahati","state":"Assam","latitude":26.1158,"longitude":91.7086,"temp":29.8,"humidity":70,"rain":0.0,"pressure":1001.2,"uv_index":8.75,"wind_gusts":37.4,"aqi":85,"pm10":29.0,"pm2_5":19.2,"no2":0.9,"co":304.0,"o3":138.0,"so2":2.5,"mosquito_risk":7,"arthritis_risk":5,"migraine_risk":4,"frizz_risk":1,"updated_at":"2026-05-28T13:33:30.807344+05:30"},{"city":"Agartala","state":"Tripura","latitude":23.8315,"longitude":91.2868,"temp":31.8,"humidity":63,"rain":0.0,"pressure":1005.0,"uv_index":8.85,"wind_gusts":21.2,"aqi":88,"pm10":41.8,"pm2_5":24.1,"no2":2.6,"co":184.0,"o3":142.0,"so2":2.8,"mosquito_risk":3,"arthritis_risk":5,"migraine_risk":4,"frizz_risk":1,"updated_at":"2026-05-28T13:33:30.807351+05:30"},{"city":"Shillong","state":"Meghalaya","latitude":25.5788,"longitude":91.8933,"temp":23.2,"humidity":56,"rain":0.0,"pressure":858.9,"uv_index":8.0,"wind_gusts":19.8,"aqi":67,"pm10":39.9,"pm2_5":19.5,"no2":0.8,"co":216.0,"o3":141.0,"so2":3.4,"mosquito_risk":0,"arthritis_risk":5,"migraine_risk":7,"frizz_risk":0,"updated_at":"2026-05-28T13:33:30.807358+05:30"},{"city":"Imphal","state":"Manipur","latitude":24.817,"longitude":93.9368,"temp":30.1,"humidity":44,"rain":0.0,"pressure":923.0,"uv_index":9.25,"wind_gusts":31.7,"aqi":102,"pm10":50.5,"pm2_5":18.6,"no2":0.6,"co":169.0,"o3":119.0,"so2":2.3,"mosquito_risk":0,"arthritis_risk":5,"migraine_risk":7,"frizz_risk":1,"updated_at":"2026-05-28T13:33:30.807365+05:30"},{"city":"Aizawl","state":"Mizoram","latitude":23.7271,"longitude":92.7176,"temp":27.8,"humidity":54,"rain":0.0,"pressure":893.3,"uv_index":9.05,"wind_gusts":21.2,"aqi":69,"pm10":40.4,"pm2_5":15.1,"no2":0.4,"co":161.0,"o3":111.0,"so2":2.2,"mosquito_risk":4,"arthritis_risk":5,"migraine_risk":7,"frizz_risk":1,"updated_at":"2026-05-28T13:33:30.807373+05:30"},{"city":"Kohima","state":"Nagaland","latitude":25.6701,"longitude":94.1077,"temp":22.7,"humidity":82,"rain":0.1,"pressure":856.8,"uv_index":9.25,"wind_gusts":28.4,"aqi":65,"pm10":32.7,"pm2_5":16.7,"no2":0.6,"co":194.0,"o3":115.0,"so2":1.8,"mosquito_risk":6,"arthritis_risk":5,"migraine_risk":7,"frizz_risk":1,"updated_at":"2026-05-28T13:33:30.807381+05:30"},{"city":"Gangtok","state":"Sikkim","latitude":27.3314,"longitude":88.6138,"temp":21.4,"humidity":54,"rain":0.1,"pressure":839.5,"uv_index":8.95,"wind_gusts":38.5,"aqi":66,"pm10":22.3,"pm2_5":14.8,"no2":1.0,"co":249.0,"o3":130.0,"so2":1.7,"mosquito_risk":3,"arthritis_risk":5,"migraine_risk":7,"frizz_risk":0,"updated_at":"2026-05-28T13:33:30.807388+05:30"},{"city":"Siliguri","state":"West Bengal","latitude":26.7271,"longitude":88.3953,"temp":30.3,"humidity":59,"rain":0.1,"pressure":992.1,"uv_index":7.45,"wind_gusts":26.3,"aqi":114,"pm10":38.6,"pm2_5":23.7,"no2":1.3,"co":259.0,"o3":145.0,"so2":2.9,"mosquito_risk":3,"arthritis_risk":5,"migraine_risk":7,"frizz_risk":1,"updated_at":"2026-05-28T13:33:34.137532+05:30"},{"city":"Durgapur","state":"West Bengal","latitude":23.5204,"longitude":87.3119,"temp":33.6,"humidity":58,"rain":0.0,"pressure":992.5,"uv_index":8.95,"wind_gusts":29.2,"aqi":151,"pm10":68.0,"pm2_5":48.7,"no2":9.8,"co":288.0,"o3":159.0,"so2":27.7,"mosquito_risk":0,"arthritis_risk":5,"migraine_risk":7,"frizz_risk":1,"updated_at":"2026-05-28T13:33:34.137562+05:30"},{"city":"Asansol","state":"West Bengal","latitude":23.6739,"longitude":86.9524,"temp":34.2,"humidity":50,"rain":0.0,"pressure":991.0,"uv_index":8.95,"wind_gusts":31.3,"aqi":152,"pm10":79.2,"pm2_5":53.6,"no2":8.6,"co":354.0,"o3":163.0,"so2":27.4,"mosquito_risk":0,"arthritis_risk":5,"migraine_risk":7,"frizz_risk":1,"updated_at":"2026-05-28T13:33:34.137573+05:30"},{"city":"Pondicherry","state":"Puducherry","latitude":11.9139,"longitude":79.8145,"temp":35.9,"humidity":49,"rain":0.0,"pressure":1006.9,"uv_index":7.95,"wind_gusts":38.5,"aqi":74,"pm10":37.3,"pm2_5":31.8,"no2":5.5,"co":227.0,"o3":202.0,"so2":13.1,"mosquito_risk":0,"arthritis_risk":5,"migraine_risk":7,"frizz_risk":1,"updated_at":"2026-05-28T13:33:34.137581+05:30"},{"city":"Port Blair","state":"Andaman and Nicobar Islands","latitude":11.6234,"longitude":92.7265,"temp":27.8,"humidity":79,"rain":0.1,"pressure":1006.3,"uv_index":6.0,"wind_gusts":40.3,"aqi":39,"pm10":12.2,"pm2_5":6.4,"no2":0.5,"co":124.0,"o3":80.0,"so2":0.5,"mosquito_risk":10,"arthritis_risk":5,"migraine_risk":0,"frizz_risk":1,"updated_at":"2026-05-28T13:33:34.137590+05:30"},{"city":"Haridwar","state":"Uttarakhand","latitude":29.9457,"longitude":78.1642,"temp":36.3,"humidity":37,"rain":0.0,"pressure":971.4,"uv_index":7.55,"wind_gusts":41.0,"aqi":152,"pm10":104.8,"pm2_5":36.2,"no2":1.2,"co":342.0,"o3":196.0,"so2":13.0,"mosquito_risk":0,"arthritis_risk":5,"migraine_risk":10,"frizz_risk":1,"updated_at":"2026-05-28T13:33:34.137597+05:30"},{"city":"Rishikesh","state":"Uttarakhand","latitude":30.0869,"longitude":78.2676,"temp":35.5,"humidity":32,"rain":0.1,"pressure":964.4,"uv_index":7.7,"wind_gusts":33.8,"aqi":141,"pm10":96.2,"pm2_5":32.7,"no2":0.9,"co":314.0,"o3":186.0,"so2":12.1,"mosquito_risk":3,"arthritis_risk":5,"migraine_risk":10,"frizz_risk":1,"updated_at":"2026-05-28T13:33:34.137605+05:30"},{"city":"Nainital","state":"Uttarakhand","latitude":29.3919,"longitude":79.4542,"temp":22.8,"humidity":53,"rain":0.1,"pressure":808.8,"uv_index":8.5,"wind_gusts":33.5,"aqi":135,"pm10":78.7,"pm2_5":27.6,"no2":0.9,"co":367.0,"o3":168.0,"so2":7.4,"mosquito_risk":3,"arthritis_risk":5,"migraine_risk":7,"frizz_risk":0,"updated_at":"2026-05-28T13:33:34.137612+05:30"},{"city":"Mussoorie","state":"Uttarakhand","latitude":30.4599,"longitude":78.0664,"temp":21.1,"humidity":49,"rain":0.1,"pressure":805.7,"uv_index":8.1,"wind_gusts":45.0,"aqi":115,"pm10":94.1,"pm2_5":36.0,"no2":1.5,"co":272.0,"o3":196.0,"so2":12.6,"mosquito_risk":3,"arthritis_risk":5,"migraine_risk":7,"frizz_risk":0,"updated_at":"2026-05-28T13:33:34.137619+05:30"},{"city":"Dharamshala","state":"Himachal Pradesh","latitude":32.219,"longitude":76.3234,"temp":27.3,"humidity":32,"rain":0.1,"pressure":869.9,"uv_index":6.85,"wind_gusts":40.3,"aqi":57,"pm10":27.0,"pm2_5":9.7,"no2":0.5,"co":153.0,"o3":138.0,"so2":1.1,"mosquito_risk":7,"arthritis_risk":5,"migraine_risk":7,"frizz_risk":0,"updated_at":"2026-05-28T13:33:34.137626+05:30"},{"city":"Dalhousie","state":"Himachal Pradesh","latitude":32.5387,"longitude":75.971,"temp":22.8,"humidity":32,"rain":0.1,"pressure":807.8,"uv_index":6.5,"wind_gusts":37.4,"aqi":68,"pm10":37.1,"pm2_5":15.4,"no2":1.7,"co":182.0,"o3":155.0,"so2":1.8,"mosquito_risk":3,"arthritis_risk":5,"migraine_risk":7,"frizz_risk":0,"updated_at":"2026-05-28T13:33:34.137634+05:30"},{"city":"Patiala","state":"Punjab","latitude":30.3398,"longitude":76.3869,"temp":38.7,"humidity":32,"rain":0.0,"pressure":973.7,"uv_index":7.65,"wind_gusts":46.4,"aqi":815,"pm10":1214.4,"pm2_5":169.0,"no2":2.1,"co":346.0,"o3":205.0,"so2":15.3,"mosquito_risk":0,"arthritis_risk":5,"migraine_risk":10,"frizz_risk":1,"updated_at":"2026-05-28T13:33:34.137641+05:30"},{"city":"Bhatinda","state":"Punjab","latitude":30.211,"longitude":74.9455,"temp":41.8,"humidity":18,"rain":0.0,"pressure":978.0,"uv_index":8.3,"wind_gusts":47.5,"aqi":101,"pm10":104.8,"pm2_5":35.7,"no2":2.9,"co":239.0,"o3":210.0,"so2":20.7,"mosquito_risk":0,"arthritis_risk":5,"migraine_risk":10,"frizz_risk":0,"updated_at":"2026-05-28T13:33:34.137650+05:30"},{"city":"Rohtak","state":"Haryana","latitude":28.8955,"longitude":76.6066,"temp":40.5,"humidity":26,"rain":0.0,"pressure":976.7,"uv_index":7.75,"wind_gusts":44.6,"aqi":695,"pm10":529.0,"pm2_5":110.1,"no2":3.6,"co":464.0,"o3":252.0,"so2":17.6,"mosquito_risk":0,"arthritis_risk":5,"migraine_risk":10,"frizz_risk":1,"updated_at":"2026-05-28T13:33:34.137657+05:30"},{"city":"Panipat","state":"Haryana","latitude":29.3909,"longitude":76.9635,"temp":38.2,"humidity":37,"rain":0.0,"pressure":976.3,"uv_index":7.65,"wind_gusts":44.3,"aqi":1511,"pm10":1344.8,"pm2_5":193.2,"no2":4.4,"co":381.0,"o3":269.0,"so2":27.4,"mosquito_risk":0,"arthritis_risk":5,"migraine_risk":10,"frizz_risk":1,"updated_at":"2026-05-28T13:33:34.137665+05:30"},{"city":"Mathura","state":"Uttar Pradesh","latitude":27.4924,"longitude":77.6737,"temp":41.6,"humidity":21,"rain":0.0,"pressure":982.0,"uv_index":8.0,"wind_gusts":55.8,"aqi":541,"pm10":504.8,"pm2_5":87.1,"no2":1.2,"co":177.0,"o3":146.0,"so2":5.2,"mosquito_risk":0,"arthritis_risk":5,"migraine_risk":10,"frizz_risk":0,"updated_at":"2026-05-28T13:33:34.137672+05:30"},{"city":"Vrindavan","state":"Uttar Pradesh","latitude":27.5823,"longitude":77.7027,"temp":40.8,"humidity":23,"rain":0.0,"pressure":982.4,"uv_index":8.0,"wind_gusts":48.6,"aqi":541,"pm10":504.8,"pm2_5":87.1,"no2":1.2,"co":187.0,"o3":146.0,"so2":5.2,"mosquito_risk":0,"arthritis_risk":5,"migraine_risk":10,"frizz_risk":0,"updated_at":"2026-05-28T13:33:34.137678+05:30"},{"city":"Ayodhya","state":"Uttar Pradesh","latitude":26.7922,"longitude":82.1998,"temp":35.8,"humidity":42,"rain":0.0,"pressure":992.7,"uv_index":8.3,"wind_gusts":45.0,"aqi":95,"pm10":81.3,"pm2_5":41.8,"no2":1.4,"co":319.0,"o3":183.0,"so2":11.7,"mosquito_risk":0,"arthritis_risk":5,"migraine_risk":10,"frizz_risk":1,"updated_at":"2026-05-28T13:33:34.137685+05:30"},{"city":"Ratlam","state":"Madhya Pradesh","latitude":23.3315,"longitude":75.0367,"temp":39.0,"humidity":30,"rain":0.0,"pressure":954.2,"uv_index":8.5,"wind_gusts":52.2,"aqi":73,"pm10":48.0,"pm2_5":23.7,"no2":0.6,"co":134.0,"o3":107.0,"so2":5.3,"mosquito_risk":0,"arthritis_risk":5,"migraine_risk":10,"frizz_risk":1,"updated_at":"2026-05-28T13:33:34.137692+05:30"},{"city":"Sagar","state":"Madhya Pradesh","latitude":23.8388,"longitude":78.7378,"temp":42.7,"humidity":14,"rain":0.0,"pressure":948.1,"uv_index":8.7,"wind_gusts":47.2,"aqi":61,"pm10":48.0,"pm2_5":18.6,"no2":0.6,"co":147.0,"o3":127.0,"so2":4.0,"mosquito_risk":0,"arthritis_risk":5,"migraine_risk":10,"frizz_risk":0,"updated_at":"2026-05-28T13:33:34.137699+05:30"},{"city":"Satna","state":"Madhya Pradesh","latitude":24.6005,"longitude":80.8322,"temp":42.0,"humidity":19,"rain":0.0,"pressure":967.4,"uv_index":8.75,"wind_gusts":44.3,"aqi":74,"pm10":123.9,"pm2_5":30.2,"no2":0.8,"co":139.0,"o3":136.0,"so2":4.5,"mosquito_risk":0,"arthritis_risk":5,"migraine_risk":10,"frizz_risk":0,"updated_at":"2026-05-28T13:33:34.137706+05:30"},{"city":"Akola","state":"Maharashtra","latitude":20.7002,"longitude":77.0082,"temp":42.1,"humidity":21,"rain":0.0,"pressure":973.4,"uv_index":8.8,"wind_gusts":42.1,"aqi":60,"pm10":43.8,"pm2_5":20.7,"no2":1.3,"co":143.0,"o3":124.0,"so2":6.6,"mosquito_risk":0,"arthritis_risk":5,"migraine_risk":10,"frizz_risk":0,"updated_at":"2026-05-28T13:33:34.137714+05:30"},{"city":"Amravati","state":"Maharashtra","latitude":20.9374,"longitude":77.7796,"temp":42.0,"humidity":18,"rain":0.0,"pressure":965.5,"uv_index":8.85,"wind_gusts":42.1,"aqi":61,"pm10":44.2,"pm2_5":20.8,"no2":1.4,"co":147.0,"o3":128.0,"so2":7.4,"mosquito_risk":0,"arthritis_risk":5,"migraine_risk":10,"frizz_risk":0,"updated_at":"2026-05-28T13:33:34.137721+05:30"},{"city":"Latur","state":"Maharashtra","latitude":18.4088,"longitude":76.5604,"temp":37.1,"humidity":30,"rain":0.0,"pressure":940.4,"uv_index":8.95,"wind_gusts":33.5,"aqi":58,"pm10":24.7,"pm2_5":12.7,"no2":0.9,"co":147.0,"o3":122.0,"so2":4.0,"mosquito_risk":0,"arthritis_risk":5,"migraine_risk":10,"frizz_risk":1,"updated_at":"2026-05-28T13:33:34.137729+05:30"},{"city":"Nanded","state":"Maharashtra","latitude":19.1383,"longitude":77.3091,"temp":40.5,"humidity":23,"rain":0.0,"pressure":967.6,"uv_index":8.9,"wind_gusts":38.2,"aqi":64,"pm10":26.6,"pm2_5":13.6,"no2":0.9,"co":154.0,"o3":124.0,"so2":2.4,"mosquito_risk":0,"arthritis_risk":5,"migraine_risk":10,"frizz_risk":0,"updated_at":"2026-05-28T13:33:34.137736+05:30"},{"city":"Gulbarga","state":"Karnataka","latitude":17.3297,"longitude":76.8343,"temp":37.1,"humidity":34,"rain":0.0,"pressure":958.7,"uv_index":8.95,"wind_gusts":38.9,"aqi":56,"pm10":11.8,"pm2_5":8.7,"no2":1.4,"co":149.0,"o3":131.0,"so2":4.2,"mosquito_risk":0,"arthritis_risk":5,"migraine_risk":10,"frizz_risk":1,"updated_at":"2026-05-28T13:33:34.137743+05:30"},{"city":"Bidar","state":"Karnataka","latitude":17.9104,"longitude":77.5199,"temp":36.5,"humidity":33,"rain":0.0,"pressure":936.0,"uv_index":9.0,"wind_gusts":33.8,"aqi":66,"pm10":22.9,"pm2_5":13.1,"no2":1.1,"co":155.0,"o3":138.0,"so2":5.4,"mosquito_risk":0,"arthritis_risk":5,"migraine_risk":10,"frizz_risk":1,"updated_at":"2026-05-28T13:33:34.137749+05:30"},{"city":"Hospet","state":"Karnataka","latitude":15.2689,"longitude":76.3909,"temp":33.8,"humidity":50,"rain":0.0,"pressure":956.5,"uv_index":8.95,"wind_gusts":57.6,"aqi":41,"pm10":17.9,"pm2_5":11.6,"no2":1.4,"co":147.0,"o3":111.0,"so2":3.4,"mosquito_risk":0,"arthritis_risk":5,"migraine_risk":7,"frizz_risk":1,"updated_at":"2026-05-28T13:33:34.137756+05:30"},{"city":"Tirupur","state":"Tamil Nadu","latitude":11.1085,"longitude":77.3411,"temp":36.5,"humidity":38,"rain":0.0,"pressure":975.4,"uv_index":7.9,"wind_gusts":54.4,"aqi":53,"pm10":15.7,"pm2_5":11.6,"no2":1.6,"co":162.0,"o3":125.0,"so2":2.6,"mosquito_risk":0,"arthritis_risk":5,"migraine_risk":10,"frizz_risk":1,"updated_at":"2026-05-28T13:33:34.137762+05:30"},{"city":"Alappuzha","state":"Kerala","latitude":9.4981,"longitude":76.3388,"temp":28.7,"humidity":79,"rain":0.0,"pressure":1011.0,"uv_index":8.1,"wind_gusts":29.5,"aqi":41,"pm10":9.6,"pm2_5":6.4,"no2":1.8,"co":102.0,"o3":76.0,"so2":1.5,"mosquito_risk":7,"arthritis_risk":0,"migraine_risk":4,"frizz_risk":1,"updated_at":"2026-05-28T13:33:34.137769+05:30"},{"city":"Munnar","state":"Kerala","latitude":10.0889,"longitude":77.0595,"temp":18.9,"humidity":94,"rain":0.1,"pressure":858.8,"uv_index":8.0,"wind_gusts":24.1,"aqi":28,"pm10":10.5,"pm2_5":7.7,"no2":1.2,"co":125.0,"o3":86.0,"so2":0.9,"mosquito_risk":6,"arthritis_risk":10,"migraine_risk":7,"frizz_risk":1,"updated_at":"2026-05-28T13:33:34.137777+05:30"},{"city":"Silchar","state":"Assam","latitude":24.8333,"longitude":92.7789,"temp":32.1,"humidity":58,"rain":0.0,"pressure":1003.4,"uv_index":8.9,"wind_gusts":23.4,"aqi":113,"pm10":27.5,"pm2_5":18.2,"no2":1.1,"co":199.0,"o3":133.0,"so2":3.6,"mosquito_risk":0,"arthritis_risk":5,"migraine_risk":4,"frizz_risk":1,"updated_at":"2026-05-28T13:33:34.137785+05:30"},{"city":"Dibrugarh","state":"Assam","latitude":27.4728,"longitude":94.912,"temp":27.8,"humidity":81,"rain":0.0,"pressure":995.5,"uv_index":3.85,"wind_gusts":26.3,"aqi":93,"pm10":48.2,"pm2_5":19.0,"no2":0.7,"co":198.0,"o3":127.0,"so2":1.6,"mosquito_risk":7,"arthritis_risk":5,"migraine_risk":3,"frizz_risk":1,"updated_at":"2026-05-28T13:33:34.137791+05:30"}]