[{"city":"Delhi","state":"Delhi","latitude":28.6139,"longitude":77.209,"temp":29.7,"humidity":48,"rain":0.0,"pressure":982.6,"uv_index":6.9,"wind_gusts":20.9,"aqi":146,"pm10":234.2,"pm2_5":50.5,"mosquito_risk":4,"arthritis_risk":5,"migraine_risk":7,"frizz_risk":1,"updated_at":"2026-04-02T18:51:19.109312+05:30"},{"city":"Mumbai","state":"Maharashtra","latitude":19.076,"longitude":72.8777,"temp":27.9,"humidity":74,"rain":0.0,"pressure":1009.2,"uv_index":7.25,"wind_gusts":19.4,"aqi":117,"pm10":30.7,"pm2_5":23.0,"mosquito_risk":7,"arthritis_risk":0,"migraine_risk":4,"frizz_risk":1,"updated_at":"2026-04-02T18:51:19.109357+05:30"},{"city":"Bangalore","state":"Karnataka","latitude":12.9716,"longitude":77.5946,"temp":30.6,"humidity":26,"rain":0.0,"pressure":911.8,"uv_index":9.6,"wind_gusts":20.9,"aqi":130,"pm10":20.5,"pm2_5":17.4,"mosquito_risk":0,"arthritis_risk":5,"migraine_risk":7,"frizz_risk":0,"updated_at":"2026-04-02T18:51:19.109373+05:30"},{"city":"Hyderabad","state":"Telangana","latitude":17.385,"longitude":78.4867,"temp":32.4,"humidity":34,"rain":0.0,"pressure":953.2,"uv_index":9.1,"wind_gusts":25.9,"aqi":108,"pm10":23.7,"pm2_5":19.5,"mosquito_risk":0,"arthritis_risk":5,"migraine_risk":7,"frizz_risk":0,"updated_at":"2026-04-02T18:51:19.109383+05:30"},{"city":"Chennai","state":"Tamil Nadu","latitude":13.0827,"longitude":80.2707,"temp":29.1,"humidity":72,"rain":0.0,"pressure":1008.1,"uv_index":9.3,"wind_gusts":29.9,"aqi":40,"pm10":13.6,"pm2_5":10.3,"mosquito_risk":7,"arthritis_risk":0,"migraine_risk":4,"frizz_risk":1,"updated_at":"2026-04-02T18:51:19.109392+05:30"},{"city":"Kolkata","state":"West Bengal","latitude":22.5726,"longitude":88.3639,"temp":29.6,"humidity":72,"rain":0.0,"pressure":1006.0,"uv_index":8.6,"wind_gusts":24.1,"aqi":106,"pm10":35.3,"pm2_5":31.5,"mosquito_risk":7,"arthritis_risk":5,"migraine_risk":4,"frizz_risk":1,"updated_at":"2026-04-02T18:51:19.109400+05:30"},{"city":"Pune","state":"Maharashtra","latitude":18.5204,"longitude":73.8567,"temp":29.1,"humidity":63,"rain":0.0,"pressure":949.4,"uv_index":8.45,"wind_gusts":29.9,"aqi":134,"pm10":57.4,"pm2_5":48.9,"mosquito_risk":7,"arthritis_risk":5,"migraine_risk":7,"frizz_risk":1,"updated_at":"2026-04-02T18:51:19.109412+05:30"},{"city":"Ahmedabad","state":"Gujarat","latitude":23.0225,"longitude":72.5714,"temp":33.8,"humidity":32,"rain":0.0,"pressure":1001.2,"uv_index":7.9,"wind_gusts":29.5,"aqi":106,"pm10":18.8,"pm2_5":11.2,"mosquito_risk":0,"arthritis_risk":5,"migraine_risk":4,"frizz_risk":0,"updated_at":"2026-04-02T18:51:19.109420+05:30"},{"city":"Jaipur","state":"Rajasthan","latitude":26.9124,"longitude":75.7873,"temp":31.8,"humidity":33,"rain":0.0,"pressure":959.3,"uv_index":7.55,"wind_gusts":40.7,"aqi":115,"pm10":107.1,"pm2_5":19.8,"mosquito_risk":0,"arthritis_risk":5,"migraine_risk":7,"frizz_risk":0,"updated_at":"2026-04-02T18:51:19.109427+05:30"},{"city":"Lucknow","state":"Uttar Pradesh","latitude":26.8467,"longitude":80.9462,"temp":32.9,"humidity":32,"rain":0.0,"pressure":992.6,"uv_index":7.05,"wind_gusts":31.7,"aqi":119,"pm10":64.7,"pm2_5":25.4,"mosquito_risk":0,"arthritis_risk":5,"migraine_risk":7,"frizz_risk":0,"updated_at":"2026-04-02T18:51:19.109435+05:30"},{"city":"Kanpur","state":"Uttar Pradesh","latitude":26.4499,"longitude":80.3319,"temp":31.8,"humidity":45,"rain":0.0,"pressure":991.0,"uv_index":7.05,"wind_gusts":23.8,"aqi":125,"pm10":172.8,"pm2_5":36.3,"mosquito_risk":0,"arthritis_risk":5,"migraine_risk":7,"frizz_risk":1,"updated_at":"2026-04-02T18:51:19.109442+05:30"},{"city":"Chandigarh","state":"Chandigarh","latitude":30.7333,"longitude":76.7794,"temp":27.7,"humidity":51,"rain":0.0,"pressure":969.1,"uv_index":6.8,"wind_gusts":21.6,"aqi":69,"pm10":40.5,"pm2_5":17.6,"mosquito_risk":4,"arthritis_risk":5,"migraine_risk":7,"frizz_risk":1,"updated_at":"2026-04-02T18:51:19.109449+05:30"},{"city":"Srinagar","state":"Jammu and Kashmir","latitude":34.0837,"longitude":74.7973,"temp":15.8,"humidity":63,"rain":0.0,"pressure":843.2,"uv_index":7.5,"wind_gusts":14.8,"aqi":111,"pm10":27.1,"pm2_5":17.5,"mosquito_risk":3,"arthritis_risk":5,"migraine_risk":7,"frizz_risk":0,"updated_at":"2026-04-02T18:51:19.109456+05:30"},{"city":"Jammu","state":"Jammu and Kashmir","latitude":32.7266,"longitude":74.857,"temp":28.5,"humidity":45,"rain":0.0,"pressure":973.1,"uv_index":7.4,"wind_gusts":19.8,"aqi":78,"pm10":52.3,"pm2_5":23.6,"mosquito_risk":4,"arthritis_risk":5,"migraine_risk":7,"frizz_risk":0,"updated_at":"2026-04-02T18:51:19.109464+05:30"},{"city":"Amritsar","state":"Punjab","latitude":31.634,"longitude":74.8723,"temp":28.6,"humidity":44,"rain":0.0,"pressure":981.0,"uv_index":7.4,"wind_gusts":19.4,"aqi":90,"pm10":55.4,"pm2_5":23.8,"mosquito_risk":4,"arthritis_risk":5,"migraine_risk":7,"frizz_risk":0,"updated_at":"2026-04-02T18:51:19.109471+05:30"},{"city":"Ludhiana","state":"Punjab","latitude":30.901,"longitude":75.8573,"temp":29.4,"humidity":41,"rain":0.0,"pressure":978.9,"uv_index":7.0,"wind_gusts":16.2,"aqi":119,"pm10":99.9,"pm2_5":38.5,"mosquito_risk":4,"arthritis_risk":5,"migraine_risk":7,"frizz_risk":0,"updated_at":"2026-04-02T18:51:19.109480+05:30"},{"city":"Jalandhar","state":"Punjab","latitude":31.326,"longitude":75.5762,"temp":28.5,"humidity":44,"rain":0.0,"pressure":980.0,"uv_index":7.2,"wind_gusts":14.0,"aqi":90,"pm10":87.5,"pm2_5":33.1,"mosquito_risk":4,"arthritis_risk":5,"migraine_risk":7,"frizz_risk":0,"updated_at":"2026-04-02T18:51:19.109489+05:30"},{"city":"Dehradun","state":"Uttarakhand","latitude":30.6284,"longitude":78.0322,"temp":19.3,"humidity":41,"rain":0.0,"pressure":832.1,"uv_index":7.15,"wind_gusts":34.9,"aqi":51,"pm10":30.2,"pm2_5":10.9,"mosquito_risk":0,"arthritis_risk":5,"migraine_risk":7,"frizz_risk":0,"updated_at":"2026-04-02T18:51:19.109497+05:30"},{"city":"Shimla","state":"Himachal Pradesh","latitude":31.1048,"longitude":77.1734,"temp":16.6,"humidity":52,"rain":0.0,"pressure":786.4,"uv_index":7.25,"wind_gusts":33.8,"aqi":55,"pm10":34.9,"pm2_5":13.5,"mosquito_risk":0,"arthritis_risk":5,"migraine_risk":7,"frizz_risk":0,"updated_at":"2026-04-02T18:51:19.109503+05:30"},{"city":"Manali","state":"Himachal Pradesh","latitude":32.2396,"longitude":77.1887,"temp":18.7,"humidity":61,"rain":0.0,"pressure":822.6,"uv_index":9.1,"wind_gusts":26.6,"aqi":102,"pm10":21.0,"pm2_5":8.9,"mosquito_risk":3,"arthritis_risk":5,"migraine_risk":7,"frizz_risk":0,"updated_at":"2026-04-02T18:51:19.109511+05:30"},{"city":"Gurgaon","state":"Haryana","latitude":28.4595,"longitude":77.0266,"temp":28.9,"humidity":51,"rain":0.0,"pressure":981.2,"uv_index":7.0,"wind_gusts":19.4,"aqi":180,"pm10":441.4,"pm2_5":71.5,"mosquito_risk":4,"arthritis_risk":5,"migraine_risk":7,"frizz_risk":1,"updated_at":"2026-04-02T18:51:19.109519+05:30"},{"city":"Noida","state":"Uttar Pradesh","latitude":28.5355,"longitude":77.391,"temp":29.6,"humidity":48,"rain":0.0,"pressure":984.2,"uv_index":6.95,"wind_gusts":16.9,"aqi":180,"pm10":441.4,"pm2_5":71.5,"mosquito_risk":4,"arthritis_risk":5,"migraine_risk":7,"frizz_risk":1,"updated_at":"2026-04-02T18:51:19.109526+05:30"},{"city":"Ghaziabad","state":"Uttar Pradesh","latitude":28.6692,"longitude":77.4538,"temp":28.8,"humidity":53,"rain":0.0,"pressure":982.3,"uv_index":6.9,"wind_gusts":15.8,"aqi":120,"pm10":189.5,"pm2_5":45.5,"mosquito_risk":4,"arthritis_risk":5,"migraine_risk":7,"frizz_risk":1,"updated_at":"2026-04-02T18:51:19.109533+05:30"},{"city":"Faridabad","state":"Haryana","latitude":28.4089,"longitude":77.3178,"temp":29.3,"humidity":44,"rain":0.0,"pressure":983.4,"uv_index":6.95,"wind_gusts":18.7,"aqi":180,"pm10":441.4,"pm2_5":71.5,"mosquito_risk":4,"arthritis_risk":5,"migraine_risk":7,"frizz_risk":0,"updated_at":"2026-04-02T18:51:19.109540+05:30"},{"city":"Meerut","state":"Uttar Pradesh","latitude":28.9845,"longitude":77.7064,"temp":28.5,"humidity":52,"rain":0.0,"pressure":981.0,"uv_index":6.8,"wind_gusts":18.7,"aqi":120,"pm10":189.5,"pm2_5":45.5,"mosquito_risk":4,"arthritis_risk":5,"migraine_risk":7,"frizz_risk":1,"updated_at":"2026-04-02T18:51:19.109546+05:30"},{"city":"Agra","state":"Uttar Pradesh","latitude":27.1767,"longitude":78.0081,"temp":33.6,"humidity":32,"rain":0.0,"pressure":986.8,"uv_index":7.0,"wind_gusts":17.3,"aqi":194,"pm10":407.0,"pm2_5":57.7,"mosquito_risk":0,"arthritis_risk":5,"migraine_risk":7,"frizz_risk":0,"updated_at":"2026-04-02T18:51:19.109553+05:30"},{"city":"Varanasi","state":"Uttar Pradesh","latitude":25.3176,"longitude":82.9739,"temp":32.3,"humidity":40,"rain":0.0,"pressure":996.3,"uv_index":7.6,"wind_gusts":29.9,"aqi":123,"pm10":35.4,"pm2_5":27.4,"mosquito_risk":0,"arthritis_risk":5,"migraine_risk":7,"frizz_risk":1,"updated_at":"2026-04-02T18:51:19.109562+05:30"},{"city":"Prayagraj","state":"Uttar Pradesh","latitude":25.4358,"longitude":81.8463,"temp":33.3,"humidity":37,"rain":0.0,"pressure":995.1,"uv_index":7.5,"wind_gusts":21.6,"aqi":109,"pm10":30.0,"pm2_5":21.6,"mosquito_risk":0,"arthritis_risk":5,"migraine_risk":7,"frizz_risk":1,"updated_at":"2026-04-02T18:51:19.109569+05:30"},{"city":"Gorakhpur","state":"Uttar Pradesh","latitude":26.7606,"longitude":83.3732,"temp":32.0,"humidity":25,"rain":0.0,"pressure":995.3,"uv_index":7.8,"wind_gusts":39.6,"aqi":106,"pm10":27.5,"pm2_5":17.2,"mosquito_risk":0,"arthritis_risk":5,"migraine_risk":7,"frizz_risk":0,"updated_at":"2026-04-02T18:51:19.109575+05:30"},{"city":"Bareilly","state":"Uttar Pradesh","latitude":28.367,"longitude":79.4304,"temp":30.0,"humidity":38,"rain":0.0,"pressure":985.9,"uv_index":7.2,"wind_gusts":31.0,"aqi":93,"pm10":29.4,"pm2_5":16.9,"mosquito_risk":4,"arthritis_risk":5,"migraine_risk":7,"frizz_risk":0,"updated_at":"2026-04-02T18:51:19.109581+05:30"},{"city":"Aligarh","state":"Uttar Pradesh","latitude":27.8974,"longitude":78.088,"temp":31.0,"humidity":35,"rain":0.0,"pressure":984.5,"uv_index":7.05,"wind_gusts":17.3,"aqi":147,"pm10":233.8,"pm2_5":46.0,"mosquito_risk":0,"arthritis_risk":5,"migraine_risk":7,"frizz_risk":0,"updated_at":"2026-04-02T18:51:19.109588+05:30"},{"city":"Moradabad","state":"Uttar Pradesh","latitude":28.8386,"longitude":78.7733,"temp":28.9,"humidity":43,"rain":0.0,"pressure":982.9,"uv_index":7.0,"wind_gusts":26.6,"aqi":88,"pm10":42.8,"pm2_5":23.3,"mosquito_risk":4,"arthritis_risk":5,"migraine_risk":7,"frizz_risk":0,"updated_at":"2026-04-02T18:51:19.109594+05:30"},{"city":"Saharanpur","state":"Uttar Pradesh","latitude":29.9637,"longitude":77.546,"temp":27.1,"humidity":50,"rain":0.0,"pressure":975.5,"uv_index":6.5,"wind_gusts":24.8,"aqi":87,"pm10":35.2,"pm2_5":19.3,"mosquito_risk":4,"arthritis_risk":5,"migraine_risk":7,"frizz_risk":0,"updated_at":"2026-04-02T18:51:19.109602+05:30"},{"city":"Jhansi","state":"Uttar Pradesh","latitude":25.4484,"longitude":78.5685,"temp":35.4,"humidity":27,"rain":0.0,"pressure":976.6,"uv_index":6.45,"wind_gusts":22.0,"aqi":100,"pm10":20.9,"pm2_5":17.4,"mosquito_risk":0,"arthritis_risk":5,"migraine_risk":10,"frizz_risk":0,"updated_at":"2026-04-02T18:51:22.328946+05:30"},{"city":"Surat","state":"Gujarat","latitude":21.1702,"longitude":72.8311,"temp":27.7,"humidity":68,"rain":0.0,"pressure":1007.3,"uv_index":7.65,"wind_gusts":30.6,"aqi":92,"pm10":35.6,"pm2_5":30.9,"mosquito_risk":7,"arthritis_risk":5,"migraine_risk":4,"frizz_risk":1,"updated_at":"2026-04-02T18:51:22.328981+05:30"},{"city":"Vadodara","state":"Gujarat","latitude":22.3072,"longitude":73.1812,"temp":32.9,"humidity":30,"rain":0.0,"pressure":1003.9,"uv_index":7.9,"wind_gusts":34.9,"aqi":143,"pm10":26.5,"pm2_5":21.2,"mosquito_risk":0,"arthritis_risk":5,"migraine_risk":4,"frizz_risk":0,"updated_at":"2026-04-02T18:51:22.328994+05:30"},{"city":"Rajkot","state":"Gujarat","latitude":22.3039,"longitude":70.8022,"temp":29.8,"humidity":50,"rain":0.0,"pressure":994.3,"uv_index":7.05,"wind_gusts":36.7,"aqi":78,"pm10":35.3,"pm2_5":16.4,"mosquito_risk":4,"arthritis_risk":5,"migraine_risk":7,"frizz_risk":1,"updated_at":"2026-04-02T18:51:22.329004+05:30"},{"city":"Thane","state":"Maharashtra","latitude":19.2183,"longitude":72.9781,"temp":27.9,"humidity":67,"rain":0.0,"pressure":1008.7,"uv_index":7.25,"wind_gusts":33.1,"aqi":117,"pm10":30.7,"pm2_5":23.0,"mosquito_risk":7,"arthritis_risk":0,"migraine_risk":4,"frizz_risk":1,"updated_at":"2026-04-02T18:51:22.329013+05:30"},{"city":"Nagpur","state":"Maharashtra","latitude":21.1458,"longitude":79.0882,"temp":28.9,"humidity":62,"rain":0.0,"pressure":975.0,"uv_index":8.4,"wind_gusts":32.8,"aqi":148,"pm10":39.9,"pm2_5":33.2,"mosquito_risk":7,"arthritis_risk":5,"migraine_risk":7,"frizz_risk":1,"updated_at":"2026-04-02T18:51:22.329021+05:30"},{"city":"Nashik","state":"Maharashtra","latitude":19.9975,"longitude":73.7898,"temp":27.7,"humidity":58,"rain":0.0,"pressure":946.5,"uv_index":8.15,"wind_gusts":29.9,"aqi":146,"pm10":30.5,"pm2_5":25.3,"mosquito_risk":4,"arthritis_risk":5,"migraine_risk":7,"frizz_risk":1,"updated_at":"2026-04-02T18:51:22.329028+05:30"},{"city":"Aurangabad","state":"Maharashtra","latitude":19.8762,"longitude":75.3433,"temp":26.9,"humidity":63,"rain":0.0,"pressure":945.6,"uv_index":8.85,"wind_gusts":47.9,"aqi":108,"pm10":34.3,"pm2_5":27.5,"mosquito_risk":7,"arthritis_risk":5,"migraine_risk":7,"frizz_risk":1,"updated_at":"2026-04-02T18:51:22.329035+05:30"},{"city":"Solapur","state":"Maharashtra","latitude":17.6599,"longitude":75.9064,"temp":27.3,"humidity":66,"rain":0.0,"pressure":958.2,"uv_index":8.9,"wind_gusts":31.0,"aqi":143,"pm10":26.8,"pm2_5":21.0,"mosquito_risk":7,"arthritis_risk":5,"migraine_risk":7,"frizz_risk":1,"updated_at":"2026-04-02T18:51:22.329042+05:30"},{"city":"Kolhapur","state":"Maharashtra","latitude":16.705,"longitude":74.2433,"temp":26.3,"humidity":74,"rain":0.0,"pressure":948.8,"uv_index":8.95,"wind_gusts":34.6,"aqi":149,"pm10":59.1,"pm2_5":54.4,"mosquito_risk":7,"arthritis_risk":5,"migraine_risk":7,"frizz_risk":1,"updated_at":"2026-04-02T18:51:22.329049+05:30"},{"city":"Goa","state":"Goa","latitude":15.2993,"longitude":74.124,"temp":29.6,"humidity":72,"rain":0.0,"pressure":998.7,"uv_index":8.85,"wind_gusts":29.5,"aqi":74,"pm10":27.1,"pm2_5":20.7,"mosquito_risk":7,"arthritis_risk":5,"migraine_risk":7,"frizz_risk":1,"updated_at":"2026-04-02T18:51:22.329056+05:30"},{"city":"Jodhpur","state":"Rajasthan","latitude":26.2389,"longitude":73.0243,"temp":31.5,"humidity":31,"rain":0.0,"pressure":982.3,"uv_index":7.8,"wind_gusts":36.7,"aqi":75,"pm10":179.7,"pm2_5":24.4,"mosquito_risk":0,"arthritis_risk":5,"migraine_risk":7,"frizz_risk":0,"updated_at":"2026-04-02T18:51:22.329064+05:30"},{"city":"Udaipur","state":"Rajasthan","latitude":24.5854,"longitude":73.7125,"temp":28.8,"humidity":34,"rain":0.0,"pressure":946.4,"uv_index":8.4,"wind_gusts":38.9,"aqi":72,"pm10":12.6,"pm2_5":7.8,"mosquito_risk":4,"arthritis_risk":5,"migraine_risk":7,"frizz_risk":0,"updated_at":"2026-04-02T18:51:22.329072+05:30"},{"city":"Kota","state":"Rajasthan","latitude":25.2138,"longitude":75.8648,"temp":35.3,"humidity":15,"rain":0.0,"pressure":977.2,"uv_index":7.85,"wind_gusts":27.7,"aqi":88,"pm10":24.2,"pm2_5":18.7,"mosquito_risk":0,"arthritis_risk":5,"migraine_risk":10,"frizz_risk":0,"updated_at":"2026-04-02T18:51:22.329079+05:30"},{"city":"Bikaner","state":"Rajasthan","latitude":28.0229,"longitude":73.3119,"temp":33.3,"humidity":23,"rain":0.0,"pressure":980.3,"uv_index":7.45,"wind_gusts":35.6,"aqi":76,"pm10":19.0,"pm2_5":7.0,"mosquito_risk":0,"arthritis_risk":5,"migraine_risk":7,"frizz_risk":0,"updated_at":"2026-04-02T18:51:22.329085+05:30"},{"city":"Ajmer","state":"Rajasthan","latitude":26.4499,"longitude":74.6399,"temp":31.7,"humidity":29,"rain":0.0,"pressure":953.7,"uv_index":7.5,"wind_gusts":33.1,"aqi":78,"pm10":11.2,"pm2_5":8.1,"mosquito_risk":0,"arthritis_risk":5,"migraine_risk":7,"frizz_risk":0,"updated_at":"2026-04-02T18:51:22.329092+05:30"},{"city":"Gwalior","state":"Madhya Pradesh","latitude":26.2183,"longitude":78.1828,"temp":34.2,"humidity":34,"rain":0.0,"pressure":981.9,"uv_index":6.45,"wind_gusts":22.0,"aqi":97,"pm10":26.0,"pm2_5":19.8,"mosquito_risk":0,"arthritis_risk":5,"migraine_risk":7,"frizz_risk":1,"updated_at":"2026-04-02T18:51:22.329099+05:30"},{"city":"Indore","state":"Madhya Pradesh","latitude":22.7196,"longitude":75.8577,"temp":31.2,"humidity":30,"rain":0.0,"pressure":948.1,"uv_index":8.3,"wind_gusts":40.7,"aqi":130,"pm10":33.9,"pm2_5":27.9,"mosquito_risk":0,"arthritis_risk":5,"migraine_risk":7,"frizz_risk":0,"updated_at":"2026-04-02T18:51:22.329106+05:30"},{"city":"Bhopal","state":"Madhya Pradesh","latitude":23.2599,"longitude":77.4126,"temp":30.4,"humidity":45,"rain":0.0,"pressure":954.1,"uv_index":7.85,"wind_gusts":33.1,"aqi":107,"pm10":35.9,"pm2_5":29.6,"mosquito_risk":0,"arthritis_risk":5,"migraine_risk":7,"frizz_risk":1,"updated_at":"2026-04-02T18:51:22.329113+05:30"},{"city":"Jabalpur","state":"Madhya Pradesh","latitude":23.1815,"longitude":79.9864,"temp":29.4,"humidity":52,"rain":0.0,"pressure":963.0,"uv_index":7.9,"wind_gusts":31.7,"aqi":110,"pm10":33.1,"pm2_5":26.8,"mosquito_risk":4,"arthritis_risk":5,"migraine_risk":7,"frizz_risk":1,"updated_at":"2026-04-02T18:51:22.329120+05:30"},{"city":"Ujjain","state":"Madhya Pradesh","latitude":23.1765,"longitude":75.7885,"temp":32.0,"humidity":30,"rain":0.0,"pressure":953.4,"uv_index":8.2,"wind_gusts":27.7,"aqi":113,"pm10":29.8,"pm2_5":25.3,"mosquito_risk":0,"arthritis_risk":5,"migraine_risk":7,"frizz_risk":0,"updated_at":"2026-04-02T18:51:22.329127+05:30"},{"city":"Visakhapatnam","state":"Andhra Pradesh","latitude":17.6868,"longitude":83.2185,"temp":27.8,"humidity":72,"rain":0.0,"pressure":1004.4,"uv_index":9.05,"wind_gusts":36.4,"aqi":52,"pm10":15.5,"pm2_5":13.2,"mosquito_risk":7,"arthritis_risk":5,"migraine_risk":4,"frizz_risk":1,"updated_at":"2026-04-02T18:51:22.329135+05:30"},{"city":"Vijayawada","state":"Andhra Pradesh","latitude":16.5062,"longitude":80.648,"temp":32.0,"humidity":49,"rain":0.0,"pressure":1002.7,"uv_index":9.15,"wind_gusts":24.1,"aqi":44,"pm10":18.6,"pm2_5":16.5,"mosquito_risk":0,"arthritis_risk":5,"migraine_risk":4,"frizz_risk":1,"updated_at":"2026-04-02T18:51:22.329141+05:30"},{"city":"Guntur","state":"Andhra Pradesh","latitude":16.3067,"longitude":80.4365,"temp":30.4,"humidity":55,"rain":0.0,"pressure":1004.3,"uv_index":9.15,"wind_gusts":27.4,"aqi":41,"pm10":16.6,"pm2_5":14.1,"mosquito_risk":0,"arthritis_risk":5,"migraine_risk":4,"frizz_risk":1,"updated_at":"2026-04-02T18:51:22.329149+05:30"},{"city":"Nellore","state":"Andhra Pradesh","latitude":14.4426,"longitude":79.9865,"temp":29.0,"humidity":71,"rain":0.0,"pressure":1006.4,"uv_index":9.25,"wind_gusts":28.1,"aqi":45,"pm10":12.2,"pm2_5":9.5,"mosquito_risk":7,"arthritis_risk":5,"migraine_risk":4,"frizz_risk":1,"updated_at":"2026-04-02T18:51:22.329156+05:30"},{"city":"Kurnool","state":"Andhra Pradesh","latitude":15.8281,"longitude":78.0373,"temp":35.1,"humidity":25,"rain":0.0,"pressure":976.3,"uv_index":9.15,"wind_gusts":24.1,"aqi":82,"pm10":22.5,"pm2_5":16.8,"mosquito_risk":0,"arthritis_risk":5,"migraine_risk":10,"frizz_risk":0,"updated_at":"2026-04-02T18:51:22.329164+05:30"},{"city":"Kakinada","state":"Andhra Pradesh","latitude":16.9891,"longitude":82.2475,"temp":30.1,"humidity":57,"rain":0.0,"pressure":1007.9,"uv_index":9.0,"wind_gusts":33.1,"aqi":35,"pm10":12.1,"pm2_5":9.2,"mosquito_risk":0,"arthritis_risk":5,"migraine_risk":4,"frizz_risk":1,"updated_at":"2026-04-02T18:51:22.329171+05:30"},{"city":"Tirupati","state":"Andhra Pradesh","latitude":13.6288,"longitude":79.4192,"temp":30.8,"humidity":47,"rain":0.0,"pressure":992.0,"uv_index":9.35,"wind_gusts":31.3,"aqi":69,"pm10":14.0,"pm2_5":13.2,"mosquito_risk":0,"arthritis_risk":5,"migraine_risk":7,"frizz_risk":1,"updated_at":"2026-04-02T18:51:22.329178+05:30"},{"city":"Warangal","state":"Telangana","latitude":17.9689,"longitude":79.5941,"temp":32.6,"humidity":45,"rain":0.0,"pressure":978.6,"uv_index":9.0,"wind_gusts":25.9,"aqi":62,"pm10":31.2,"pm2_5":26.1,"mosquito_risk":0,"arthritis_risk":5,"migraine_risk":7,"frizz_risk":1,"updated_at":"2026-04-02T18:51:22.329185+05:30"},{"city":"Nizamabad","state":"Telangana","latitude":18.6725,"longitude":78.0941,"temp":29.6,"humidity":63,"rain":0.0,"pressure":965.3,"uv_index":8.9,"wind_gusts":34.2,"aqi":122,"pm10":46.8,"pm2_5":38.6,"mosquito_risk":7,"arthritis_risk":5,"migraine_risk":7,"frizz_risk":1,"updated_at":"2026-04-02T18:51:22.329192+05:30"},{"city":"Mysore","state":"Karnataka","latitude":12.2958,"longitude":76.6396,"temp":30.2,"humidity":35,"rain":0.0,"pressure":928.4,"uv_index":9.5,"wind_gusts":34.9,"aqi":145,"pm10":29.3,"pm2_5":24.1,"mosquito_risk":0,"arthritis_risk":5,"migraine_risk":7,"frizz_risk":0,"updated_at":"2026-04-02T18:51:22.329198+05:30"},{"city":"Mangalore","state":"Karnataka","latitude":12.9141,"longitude":74.856,"temp":29.4,"humidity":79,"rain":0.0,"pressure":1007.2,"uv_index":9.05,"wind_gusts":22.7,"aqi":93,"pm10":23.5,"pm2_5":18.6,"mosquito_risk":7,"arthritis_risk":5,"migraine_risk":4,"frizz_risk":1,"updated_at":"2026-04-02T18:51:22.329205+05:30"},{"city":"Hubli-Dharwad","state":"Karnataka","latitude":15.3647,"longitude":75.124,"temp":26.5,"humidity":68,"rain":0.0,"pressure":941.9,"uv_index":9.2,"wind_gusts":37.8,"aqi":150,"pm10":34.8,"pm2_5":30.5,"mosquito_risk":7,"arthritis_risk":5,"migraine_risk":7,"frizz_risk":1,"updated_at":"2026-04-02T18:51:22.329213+05:30"},{"city":"Belgaum","state":"Karnataka","latitude":15.8497,"longitude":74.4977,"temp":25.4,"humidity":77,"rain":0.0,"pressure":926.8,"uv_index":9.1,"wind_gusts":32.4,"aqi":149,"pm10":38.2,"pm2_5":33.6,"mosquito_risk":7,"arthritis_risk":5,"migraine_risk":7,"frizz_risk":1,"updated_at":"2026-04-02T18:51:25.550210+05:30"},{"city":"Coimbatore","state":"Tamil Nadu","latitude":11.0168,"longitude":76.9558,"temp":28.1,"humidity":69,"rain":0.0,"pressure":961.7,"uv_index":9.45,"wind_gusts":44.3,"aqi":121,"pm10":19.1,"pm2_5":16.0,"mosquito_risk":7,"arthritis_risk":5,"migraine_risk":7,"frizz_risk":1,"updated_at":"2026-04-02T18:51:25.550240+05:30"},{"city":"Madurai","state":"Tamil Nadu","latitude":9.9252,"longitude":78.1198,"temp":32.7,"humidity":39,"rain":0.0,"pressure":992.4,"uv_index":9.4,"wind_gusts":33.5,"aqi":95,"pm10":11.2,"pm2_5":10.6,"mosquito_risk":0,"arthritis_risk":5,"migraine_risk":7,"frizz_risk":1,"updated_at":"2026-04-02T18:51:25.550251+05:30"},{"city":"Trichy","state":"Tamil Nadu","latitude":10.7905,"longitude":78.7047,"temp":30.8,"humidity":46,"rain":0.0,"pressure":999.5,"uv_index":9.4,"wind_gusts":20.9,"aqi":70,"pm10":12.8,"pm2_5":12.1,"mosquito_risk":0,"arthritis_risk":5,"migraine_risk":7,"frizz_risk":1,"updated_at":"2026-04-02T18:51:25.550259+05:30"},{"city":"Salem","state":"Tamil Nadu","latitude":11.6643,"longitude":78.146,"temp":33.2,"humidity":31,"rain":0.0,"pressure":976.7,"uv_index":9.4,"wind_gusts":17.3,"aqi":121,"pm10":14.2,"pm2_5":13.6,"mosquito_risk":0,"arthritis_risk":5,"migraine_risk":7,"frizz_risk":0,"updated_at":"2026-04-02T18:51:25.550267+05:30"},{"city":"Tirunelveli","state":"Tamil Nadu","latitude":8.7139,"longitude":77.7567,"temp":30.9,"humidity":58,"rain":0.0,"pressure":1003.2,"uv_index":9.35,"wind_gusts":45.7,"aqi":74,"pm10":11.8,"pm2_5":10.7,"mosquito_risk":0,"arthritis_risk":5,"migraine_risk":4,"frizz_risk":1,"updated_at":"2026-04-02T18:51:25.550275+05:30"},{"city":"Vellore","state":"Tamil Nadu","latitude":12.9165,"longitude":79.1325,"temp":29.7,"humidity":41,"rain":0.0,"pressure":985.0,"uv_index":9.4,"wind_gusts":27.4,"aqi":58,"pm10":14.2,"pm2_5":13.3,"mosquito_risk":4,"arthritis_risk":5,"migraine_risk":7,"frizz_risk":0,"updated_at":"2026-04-02T18:51:25.550282+05:30"},{"city":"Erode","state":"Tamil Nadu","latitude":11.341,"longitude":77.7172,"temp":34.3,"humidity":29,"rain":0.0,"pressure":987.9,"uv_index":9.25,"wind_gusts":26.3,"aqi":88,"pm10":10.7,"pm2_5":9.6,"mosquito_risk":0,"arthritis_risk":5,"migraine_risk":7,"frizz_risk":0,"updated_at":"2026-04-02T18:51:25.550289+05:30"},{"city":"Kochi","state":"Kerala","latitude":9.9312,"longitude":76.2673,"temp":29.1,"humidity":81,"rain":0.0,"pressure":1008.8,"uv_index":9.2,"wind_gusts":31.0,"aqi":115,"pm10":22.5,"pm2_5":19.0,"mosquito_risk":7,"arthritis_risk":0,"migraine_risk":4,"frizz_risk":1,"updated_at":"2026-04-02T18:51:25.550297+05:30"},{"city":"Thiruvananthapuram","state":"Kerala","latitude":8.5241,"longitude":76.9366,"temp":29.8,"humidity":70,"rain":0.0,"pressure":1008.2,"uv_index":9.2,"wind_gusts":25.2,"aqi":88,"pm10":15.0,"pm2_5":10.5,"mosquito_risk":7,"arthritis_risk":0,"migraine_risk":4,"frizz_risk":1,"updated_at":"2026-04-02T18:51:25.550303+05:30"},{"city":"Kozhikode","state":"Kerala","latitude":11.2588,"longitude":75.7804,"temp":29.4,"humidity":77,"rain":0.0,"pressure":1008.0,"uv_index":8.75,"wind_gusts":25.2,"aqi":60,"pm10":18.0,"pm2_5":12.8,"mosquito_risk":7,"arthritis_risk":0,"migraine_risk":4,"frizz_risk":1,"updated_at":"2026-04-02T18:51:25.550310+05:30"},{"city":"Thrissur","state":"Kerala","latitude":10.5276,"longitude":76.2144,"temp":29.1,"humidity":79,"rain":0.0,"pressure":1007.2,"uv_index":9.15,"wind_gusts":32.0,"aqi":90,"pm10":18.6,"pm2_5":15.9,"mosquito_risk":7,"arthritis_risk":5,"migraine_risk":4,"frizz_risk":1,"updated_at":"2026-04-02T18:51:25.550318+05:30"},{"city":"Kannur","state":"Kerala","latitude":11.8745,"longitude":75.3704,"temp":29.4,"humidity":74,"rain":0.0,"pressure":1007.6,"uv_index":9.15,"wind_gusts":25.6,"aqi":73,"pm10":19.8,"pm2_5":15.7,"mosquito_risk":7,"arthritis_risk":5,"migraine_risk":4,"frizz_risk":1,"updated_at":"2026-04-02T18:51:25.550324+05:30"},{"city":"Patna","state":"Bihar","latitude":25.5941,"longitude":85.1376,"temp":31.9,"humidity":45,"rain":0.0,"pressure":998.7,"uv_index":8.0,"wind_gusts":33.5,"aqi":109,"pm10":29.7,"pm2_5":21.4,"mosquito_risk":0,"arthritis_risk":5,"migraine_risk":7,"frizz_risk":1,"updated_at":"2026-04-02T18:51:25.550332+05:30"},{"city":"Gaya","state":"Bihar","latitude":24.7914,"longitude":85.0002,"temp":31.7,"humidity":41,"rain":0.0,"pressure":993.0,"uv_index":8.25,"wind_gusts":29.2,"aqi":111,"pm10":29.5,"pm2_5":21.5,"mosquito_risk":0,"arthritis_risk":5,"migraine_risk":7,"frizz_risk":1,"updated_at":"2026-04-02T18:51:25.550338+05:30"},{"city":"Muzaffarpur","state":"Bihar","latitude":26.1209,"longitude":85.3647,"temp":30.9,"humidity":39,"rain":0.0,"pressure":998.4,"uv_index":8.25,"wind_gusts":31.3,"aqi":106,"pm10":28.7,"pm2_5":20.3,"mosquito_risk":0,"arthritis_risk":5,"migraine_risk":7,"frizz_risk":0,"updated_at":"2026-04-02T18:51:25.550345+05:30"},{"city":"Bhagalpur","state":"Bihar","latitude":25.2425,"longitude":87.0117,"temp":31.0,"humidity":53,"rain":0.0,"pressure":999.9,"uv_index":7.85,"wind_gusts":26.6,"aqi":115,"pm10":31.1,"pm2_5":19.8,"mosquito_risk":0,"arthritis_risk":5,"migraine_risk":7,"frizz_risk":1,"updated_at":"2026-04-02T18:51:25.550352+05:30"},{"city":"Ranchi","state":"Jharkhand","latitude":23.3441,"longitude":85.3096,"temp":28.1,"humidity":48,"rain":0.0,"pressure":939.1,"uv_index":8.9,"wind_gusts":32.0,"aqi":130,"pm10":32.0,"pm2_5":24.9,"mosquito_risk":4,"arthritis_risk":5,"migraine_risk":7,"frizz_risk":1,"updated_at":"2026-04-02T18:51:25.550358+05:30"},{"city":"Jamshedpur","state":"Jharkhand","latitude":22.8046,"longitude":86.2029,"temp":32.1,"humidity":49,"rain":0.0,"pressure":991.0,"uv_index":8.7,"wind_gusts":31.7,"aqi":163,"pm10":44.5,"pm2_5":33.1,"mosquito_risk":0,"arthritis_risk":5,"migraine_risk":7,"frizz_risk":1,"updated_at":"2026-04-02T18:51:25.550364+05:30"},{"city":"Dhanbad","state":"Jharkhand","latitude":23.7957,"longitude":86.4304,"temp":33.8,"humidity":36,"rain":0.0,"pressure":979.4,"uv_index":8.65,"wind_gusts":27.0,"aqi":160,"pm10":52.4,"pm2_5":46.1,"mosquito_risk":0,"arthritis_risk":5,"migraine_risk":7,"frizz_risk":1,"updated_at":"2026-04-02T18:51:25.550371+05:30"},{"city":"Bokaro","state":"Jharkhand","latitude":23.6693,"longitude":86.1511,"temp":33.6,"humidity":34,"rain":0.0,"pressure":983.6,"uv_index":8.65,"wind_gusts":28.1,"aqi":157,"pm10":49.0,"pm2_5":42.8,"mosquito_risk":0,"arthritis_risk":5,"migraine_risk":7,"frizz_risk":0,"updated_at":"2026-04-02T18:51:25.550378+05:30"},{"city":"Bhubaneswar","state":"Odisha","latitude":20.2961,"longitude":85.8245,"temp":29.6,"humidity":59,"rain":0.0,"pressure":1003.2,"uv_index":8.9,"wind_gusts":30.6,"aqi":67,"pm10":18.6,"pm2_5":16.5,"mosquito_risk":4,"arthritis_risk":5,"migraine_risk":4,"frizz_risk":1,"updated_at":"2026-04-02T18:51:25.550384+05:30"},{"city":"Cuttack","state":"Odisha","latitude":20.4625,"longitude":85.8828,"temp":32.3,"humidity":46,"rain":0.0,"pressure":1004.7,"uv_index":8.95,"wind_gusts":23.0,"aqi":67,"pm10":18.6,"pm2_5":16.5,"mosquito_risk":0,"arthritis_risk":5,"migraine_risk":4,"frizz_risk":1,"updated_at":"2026-04-02T18:51:25.550390+05:30"},{"city":"Rourkela","state":"Odisha","latitude":22.2604,"longitude":84.8536,"temp":33.3,"humidity":43,"rain":0.0,"pressure":985.3,"uv_index":8.65,"wind_gusts":26.6,"aqi":187,"pm10":55.9,"pm2_5":43.9,"mosquito_risk":0,"arthritis_risk":5,"migraine_risk":7,"frizz_risk":1,"updated_at":"2026-04-02T18:51:25.550396+05:30"},{"city":"Raipur","state":"Chhattisgarh","latitude":21.2514,"longitude":81.6296,"temp":33.1,"humidity":39,"rain":0.0,"pressure":975.5,"uv_index":8.7,"wind_gusts":25.6,"aqi":178,"pm10":54.6,"pm2_5":48.2,"mosquito_risk":0,"arthritis_risk":5,"migraine_risk":7,"frizz_risk":1,"updated_at":"2026-04-02T18:51:25.550402+05:30"},{"city":"Bhilai","state":"Chhattisgarh","latitude":21.1938,"longitude":81.3509,"temp":32.3,"humidity":43,"rain":0.0,"pressure":975.7,"uv_index":8.7,"wind_gusts":24.8,"aqi":156,"pm10":51.8,"pm2_5":44.5,"mosquito_risk":0,"arthritis_risk":5,"migraine_risk":7,"frizz_risk":1,"updated_at":"2026-04-02T18:51:25.550408+05:30"},{"city":"Guwahati","state":"Assam","latitude":26.1158,"longitude":91.7086,"temp":28.4,"humidity":78,"rain":0.0,"pressure":1000.8,"uv_index":8.15,"wind_gusts":33.5,"aqi":108,"pm10":39.0,"pm2_5":34.8,"mosquito_risk":7,"arthritis_risk":5,"migraine_risk":4,"frizz_risk":1,"updated_at":"2026-04-02T18:51:25.550415+05:30"},{"city":"Agartala","state":"Tripura","latitude":23.8315,"longitude":91.2868,"temp":27.2,"humidity":77,"rain":0.0,"pressure":1006.6,"uv_index":8.4,"wind_gusts":43.2,"aqi":112,"pm10":43.4,"pm2_5":37.1,"mosquito_risk":7,"arthritis_risk":5,"migraine_risk":4,"frizz_risk":1,"updated_at":"2026-04-02T18:51:25.550421+05:30"},{"city":"Shillong","state":"Meghalaya","latitude":25.5788,"longitude":91.8933,"temp":16.0,"humidity":93,"rain":0.0,"pressure":856.9,"uv_index":8.55,"wind_gusts":70.9,"aqi":103,"pm10":39.3,"pm2_5":34.7,"mosquito_risk":3,"arthritis_risk":10,"migraine_risk":7,"frizz_risk":0,"updated_at":"2026-04-02T18:51:25.550428+05:30"},{"city":"Imphal","state":"Manipur","latitude":24.817,"longitude":93.9368,"temp":20.0,"humidity":79,"rain":0.0,"pressure":924.2,"uv_index":8.7,"wind_gusts":87.1,"aqi":115,"pm10":53.9,"pm2_5":46.0,"mosquito_risk":3,"arthritis_risk":5,"migraine_risk":7,"frizz_risk":1,"updated_at":"2026-04-02T18:51:25.550435+05:30"},{"city":"Aizawl","state":"Mizoram","latitude":23.7271,"longitude":92.7176,"temp":22.3,"humidity":72,"rain":0.0,"pressure":894.1,"uv_index":8.65,"wind_gusts":55.1,"aqi":100,"pm10":52.6,"pm2_5":39.7,"mosquito_risk":3,"arthritis_risk":5,"migraine_risk":7,"frizz_risk":1,"updated_at":"2026-04-02T18:51:25.550441+05:30"},{"city":"Kohima","state":"Nagaland","latitude":25.6701,"longitude":94.1077,"temp":16.7,"humidity":88,"rain":0.0,"pressure":855.6,"uv_index":8.65,"wind_gusts":105.5,"aqi":96,"pm10":50.6,"pm2_5":42.0,"mosquito_risk":3,"arthritis_risk":10,"migraine_risk":7,"frizz_risk":0,"updated_at":"2026-04-02T18:51:25.550447+05:30"},{"city":"Gangtok","state":"Sikkim","latitude":27.3314,"longitude":88.6138,"temp":17.5,"humidity":85,"rain":0.0,"pressure":837.9,"uv_index":8.5,"wind_gusts":20.5,"aqi":110,"pm10":52.9,"pm2_5":43.7,"mosquito_risk":3,"arthritis_risk":10,"migraine_risk":7,"frizz_risk":0,"updated_at":"2026-04-02T18:51:25.550454+05:30"},{"city":"Siliguri","state":"West Bengal","latitude":26.7271,"longitude":88.3953,"temp":24.4,"humidity":66,"rain":0.0,"pressure":993.0,"uv_index":8.05,"wind_gusts":21.6,"aqi":146,"pm10":52.3,"pm2_5":41.3,"mosquito_risk":3,"arthritis_risk":5,"migraine_risk":7,"frizz_risk":1,"updated_at":"2026-04-02T18:51:28.821247+05:30"},{"city":"Durgapur","state":"West Bengal","latitude":23.5204,"longitude":87.3119,"temp":34.2,"humidity":36,"rain":0.0,"pressure":994.1,"uv_index":8.6,"wind_gusts":21.6,"aqi":183,"pm10":60.3,"pm2_5":52.4,"mosquito_risk":0,"arthritis_risk":5,"migraine_risk":7,"frizz_risk":1,"updated_at":"2026-04-02T18:51:28.821281+05:30"},{"city":"Asansol","state":"West Bengal","latitude":23.6739,"longitude":86.9524,"temp":34.2,"humidity":37,"rain":0.0,"pressure":992.8,"uv_index":8.65,"wind_gusts":22.3,"aqi":175,"pm10":49.9,"pm2_5":42.5,"mosquito_risk":0,"arthritis_risk":5,"migraine_risk":7,"frizz_risk":1,"updated_at":"2026-04-02T18:51:28.821293+05:30"},{"city":"Pondicherry","state":"Puducherry","latitude":11.9139,"longitude":79.8145,"temp":27.6,"humidity":69,"rain":0.0,"pressure":1009.1,"uv_index":9.25,"wind_gusts":27.0,"aqi":39,"pm10":10.5,"pm2_5":7.6,"mosquito_risk":7,"arthritis_risk":0,"migraine_risk":4,"frizz_risk":1,"updated_at":"2026-04-02T18:51:28.821303+05:30"},{"city":"Port Blair","state":"Andaman and Nicobar Islands","latitude":11.6234,"longitude":92.7265,"temp":29.0,"humidity":76,"rain":0.0,"pressure":1008.4,"uv_index":9.1,"wind_gusts":32.0,"aqi":42,"pm10":9.6,"pm2_5":6.0,"mosquito_risk":7,"arthritis_risk":0,"migraine_risk":4,"frizz_risk":1,"updated_at":"2026-04-02T18:51:28.821313+05:30"},{"city":"Haridwar","state":"Uttarakhand","latitude":29.9457,"longitude":78.1642,"temp":27.6,"humidity":42,"rain":0.0,"pressure":974.4,"uv_index":6.65,"wind_gusts":29.2,"aqi":61,"pm10":28.5,"pm2_5":13.9,"mosquito_risk":4,"arthritis_risk":5,"migraine_risk":7,"frizz_risk":0,"updated_at":"2026-04-02T18:51:28.821323+05:30"},{"city":"Rishikesh","state":"Uttarakhand","latitude":30.0869,"longitude":78.2676,"temp":27.4,"humidity":39,"rain":0.0,"pressure":967.6,"uv_index":6.7,"wind_gusts":31.0,"aqi":48,"pm10":27.6,"pm2_5":10.2,"mosquito_risk":4,"arthritis_risk":5,"migraine_risk":7,"frizz_risk":0,"updated_at":"2026-04-02T18:51:28.821332+05:30"},{"city":"Nainital","state":"Uttarakhand","latitude":29.3919,"longitude":79.4542,"temp":22.5,"humidity":28,"rain":0.0,"pressure":808.3,"uv_index":7.55,"wind_gusts":42.1,"aqi":74,"pm10":25.0,"pm2_5":11.2,"mosquito_risk":0,"arthritis_risk":5,"migraine_risk":7,"frizz_risk":0,"updated_at":"2026-04-02T18:51:28.821340+05:30"},{"city":"Mussoorie","state":"Uttarakhand","latitude":30.4599,"longitude":78.0664,"temp":20.2,"humidity":36,"rain":0.0,"pressure":805.1,"uv_index":7.0,"wind_gusts":37.4,"aqi":57,"pm10":32.7,"pm2_5":14.5,"mosquito_risk":0,"arthritis_risk":5,"migraine_risk":7,"frizz_risk":0,"updated_at":"2026-04-02T18:51:28.821349+05:30"},{"city":"Dharamshala","state":"Himachal Pradesh","latitude":32.219,"longitude":76.3234,"temp":23.0,"humidity":50,"rain":0.0,"pressure":870.6,"uv_index":7.3,"wind_gusts":28.4,"aqi":57,"pm10":24.9,"pm2_5":9.5,"mosquito_risk":0,"arthritis_risk":5,"migraine_risk":7,"frizz_risk":0,"updated_at":"2026-04-02T18:51:28.821357+05:30"},{"city":"Dalhousie","state":"Himachal Pradesh","latitude":32.5387,"longitude":75.971,"temp":20.7,"humidity":38,"rain":0.0,"pressure":805.5,"uv_index":7.55,"wind_gusts":24.8,"aqi":66,"pm10":35.9,"pm2_5":16.1,"mosquito_risk":0,"arthritis_risk":5,"migraine_risk":7,"frizz_risk":0,"updated_at":"2026-04-02T18:51:28.821366+05:30"},{"city":"Patiala","state":"Punjab","latitude":30.3398,"longitude":76.3869,"temp":28.3,"humidity":47,"rain":0.0,"pressure":978.2,"uv_index":6.7,"wind_gusts":20.9,"aqi":108,"pm10":113.2,"pm2_5":37.5,"mosquito_risk":4,"arthritis_risk":5,"migraine_risk":7,"frizz_risk":0,"updated_at":"2026-04-02T18:51:28.821374+05:30"},{"city":"Bhatinda","state":"Punjab","latitude":30.211,"longitude":74.9455,"temp":28.3,"humidity":54,"rain":0.0,"pressure":983.7,"uv_index":7.15,"wind_gusts":50.4,"aqi":98,"pm10":136.0,"pm2_5":33.1,"mosquito_risk":4,"arthritis_risk":5,"migraine_risk":7,"frizz_risk":1,"updated_at":"2026-04-02T18:51:28.821383+05:30"},{"city":"Rohtak","state":"Haryana","latitude":28.8955,"longitude":76.6066,"temp":27.5,"humidity":57,"rain":0.0,"pressure":981.7,"uv_index":6.9,"wind_gusts":49.0,"aqi":148,"pm10":283.1,"pm2_5":61.5,"mosquito_risk":4,"arthritis_risk":5,"migraine_risk":7,"frizz_risk":1,"updated_at":"2026-04-02T18:51:28.821390+05:30"},{"city":"Panipat","state":"Haryana","latitude":29.3909,"longitude":76.9635,"temp":28.2,"humidity":52,"rain":0.0,"pressure":980.2,"uv_index":6.7,"wind_gusts":22.7,"aqi":163,"pm10":98.5,"pm2_5":40.0,"mosquito_risk":4,"arthritis_risk":5,"migraine_risk":7,"frizz_risk":1,"updated_at":"2026-04-02T18:51:28.821399+05:30"},{"city":"Mathura","state":"Uttar Pradesh","latitude":27.4924,"longitude":77.6737,"temp":32.5,"humidity":33,"rain":0.0,"pressure":986.0,"uv_index":7.2,"wind_gusts":18.0,"aqi":142,"pm10":504.8,"pm2_5":66.1,"mosquito_risk":0,"arthritis_risk":5,"migraine_risk":7,"frizz_risk":0,"updated_at":"2026-04-02T18:51:28.821407+05:30"},{"city":"Vrindavan","state":"Uttar Pradesh","latitude":27.5823,"longitude":77.7027,"temp":32.0,"humidity":34,"rain":0.0,"pressure":986.4,"uv_index":7.2,"wind_gusts":15.8,"aqi":142,"pm10":504.8,"pm2_5":66.1,"mosquito_risk":0,"arthritis_risk":5,"migraine_risk":7,"frizz_risk":0,"updated_at":"2026-04-02T18:51:28.821414+05:30"},{"city":"Ayodhya","state":"Uttar Pradesh","latitude":26.7922,"longitude":82.1998,"temp":31.9,"humidity":30,"rain":0.0,"pressure":993.8,"uv_index":7.65,"wind_gusts":36.4,"aqi":109,"pm10":30.5,"pm2_5":19.4,"mosquito_risk":0,"arthritis_risk":5,"migraine_risk":7,"frizz_risk":0,"updated_at":"2026-04-02T18:51:28.821422+05:30"},{"city":"Ratlam","state":"Madhya Pradesh","latitude":23.3315,"longitude":75.0367,"temp":31.9,"humidity":29,"rain":0.0,"pressure":954.4,"uv_index":8.15,"wind_gusts":33.1,"aqi":103,"pm10":24.6,"pm2_5":19.9,"mosquito_risk":0,"arthritis_risk":5,"migraine_risk":7,"frizz_risk":0,"updated_at":"2026-04-02T18:51:28.821429+05:30"},{"city":"Sagar","state":"Madhya Pradesh","latitude":23.8388,"longitude":78.7378,"temp":30.9,"humidity":40,"rain":0.0,"pressure":951.1,"uv_index":8.25,"wind_gusts":34.2,"aqi":98,"pm10":27.1,"pm2_5":21.4,"mosquito_risk":0,"arthritis_risk":5,"migraine_risk":7,"frizz_risk":0,"updated_at":"2026-04-02T18:51:28.821437+05:30"},{"city":"Satna","state":"Madhya Pradesh","latitude":24.6005,"longitude":80.8322,"temp":34.4,"humidity":30,"rain":0.0,"pressure":971.4,"uv_index":7.75,"wind_gusts":22.3,"aqi":90,"pm10":31.1,"pm2_5":21.8,"mosquito_risk":0,"arthritis_risk":5,"migraine_risk":7,"frizz_risk":0,"updated_at":"2026-04-02T18:51:28.821444+05:30"},{"city":"Akola","state":"Maharashtra","latitude":20.7002,"longitude":77.0082,"temp":28.3,"humidity":66,"rain":0.0,"pressure":976.2,"uv_index":8.6,"wind_gusts":23.4,"aqi":122,"pm10":36.9,"pm2_5":31.4,"mosquito_risk":7,"arthritis_risk":5,"migraine_risk":7,"frizz_risk":1,"updated_at":"2026-04-02T18:51:28.821453+05:30"},{"city":"Amravati","state":"Maharashtra","latitude":20.9374,"longitude":77.7796,"temp":30.9,"humidity":53,"rain":0.0,"pressure":968.5,"uv_index":8.55,"wind_gusts":38.9,"aqi":119,"pm10":36.3,"pm2_5":29.9,"mosquito_risk":0,"arthritis_risk":5,"migraine_risk":7,"frizz_risk":1,"updated_at":"2026-04-02T18:51:28.821462+05:30"},{"city":"Latur","state":"Maharashtra","latitude":18.4088,"longitude":76.5604,"temp":24.7,"humidity":73,"rain":0.0,"pressure":940.8,"uv_index":8.9,"wind_gusts":36.4,"aqi":123,"pm10":36.0,"pm2_5":29.6,"mosquito_risk":3,"arthritis_risk":5,"migraine_risk":7,"frizz_risk":1,"updated_at":"2026-04-02T18:51:28.821470+05:30"},{"city":"Nanded","state":"Maharashtra","latitude":19.1383,"longitude":77.3091,"temp":30.7,"humidity":55,"rain":0.0,"pressure":969.4,"uv_index":8.75,"wind_gusts":29.5,"aqi":135,"pm10":45.4,"pm2_5":36.9,"mosquito_risk":0,"arthritis_risk":5,"migraine_risk":7,"frizz_risk":1,"updated_at":"2026-04-02T18:51:28.821477+05:30"},{"city":"Gulbarga","state":"Karnataka","latitude":17.3297,"longitude":76.8343,"temp":34.1,"humidity":32,"rain":0.0,"pressure":958.4,"uv_index":8.95,"wind_gusts":45.4,"aqi":134,"pm10":18.3,"pm2_5":14.6,"mosquito_risk":0,"arthritis_risk":5,"migraine_risk":7,"frizz_risk":0,"updated_at":"2026-04-02T18:51:28.821485+05:30"},{"city":"Bidar","state":"Karnataka","latitude":17.9104,"longitude":77.5199,"temp":30.1,"humidity":48,"rain":0.0,"pressure":936.3,"uv_index":8.95,"wind_gusts":30.2,"aqi":113,"pm10":28.4,"pm2_5":23.3,"mosquito_risk":0,"arthritis_risk":5,"migraine_risk":7,"frizz_risk":1,"updated_at":"2026-04-02T18:51:28.821492+05:30"},{"city":"Hospet","state":"Karnataka","latitude":15.2689,"longitude":76.3909,"temp":33.0,"humidity":38,"rain":0.0,"pressure":955.6,"uv_index":9.15,"wind_gusts":33.8,"aqi":160,"pm10":22.1,"pm2_5":18.5,"mosquito_risk":0,"arthritis_risk":5,"migraine_risk":7,"frizz_risk":1,"updated_at":"2026-04-02T18:51:28.821500+05:30"},{"city":"Tirupur","state":"Tamil Nadu","latitude":11.1085,"longitude":77.3411,"temp":33.9,"humidity":28,"rain":0.0,"pressure":974.4,"uv_index":9.2,"wind_gusts":30.2,"aqi":101,"pm10":16.2,"pm2_5":13.4,"mosquito_risk":0,"arthritis_risk":5,"migraine_risk":7,"frizz_risk":0,"updated_at":"2026-04-02T18:51:28.821507+05:30"},{"city":"Alappuzha","state":"Kerala","latitude":9.4981,"longitude":76.3388,"temp":29.4,"humidity":78,"rain":0.0,"pressure":1008.8,"uv_index":9.2,"wind_gusts":27.4,"aqi":129,"pm10":21.5,"pm2_5":16.8,"mosquito_risk":7,"arthritis_risk":0,"migraine_risk":4,"frizz_risk":1,"updated_at":"2026-04-02T18:51:28.821515+05:30"},{"city":"Munnar","state":"Kerala","latitude":10.0889,"longitude":77.0595,"temp":23.3,"humidity":79,"rain":0.0,"pressure":858.0,"uv_index":9.75,"wind_gusts":34.9,"aqi":89,"pm10":17.2,"pm2_5":15.5,"mosquito_risk":3,"arthritis_risk":5,"migraine_risk":7,"frizz_risk":1,"updated_at":"2026-04-02T18:51:28.821523+05:30"},{"city":"Silchar","state":"Assam","latitude":24.8333,"longitude":92.7789,"temp":26.8,"humidity":80,"rain":0.0,"pressure":1005.5,"uv_index":8.4,"wind_gusts":34.2,"aqi":145,"pm10":67.1,"pm2_5":57.9,"mosquito_risk":7,"arthritis_risk":5,"migraine_risk":4,"frizz_risk":1,"updated_at":"2026-04-02T18:51:28.821531+05:30"},{"city":"Dibrugarh","state":"Assam","latitude":27.4728,"longitude":94.912,"temp":22.7,"humidity":89,"rain":0.0,"pressure":997.2,"uv_index":6.05,"wind_gusts":26.3,"aqi":89,"pm10":24.6,"pm2_5":22.9,"mosquito_risk":3,"arthritis_risk":5,"migraine_risk":7,"frizz_risk":1,"updated_at":"2026-04-02T18:51:28.821539+05:30"}]