[{"city":"Delhi","state":"Delhi","latitude":28.6139,"longitude":77.209,"temp":26.5,"humidity":96,"rain":0.1,"pressure":975.3,"uv_index":7.0,"wind_gusts":36.7,"aqi":98,"pm10":25.7,"pm2_5":25.6,"no2":34.9,"co":1064.0,"o3":74.0,"so2":18.9,"mosquito_risk":10,"arthritis_risk":5,"migraine_risk":7,"frizz_risk":1,"updated_at":"2026-07-24T20:27:25.045017+05:30"},{"city":"Mumbai","state":"Maharashtra","latitude":19.076,"longitude":72.8777,"temp":28.0,"humidity":81,"rain":0.0,"pressure":1002.7,"uv_index":7.55,"wind_gusts":64.8,"aqi":61,"pm10":23.6,"pm2_5":12.2,"no2":8.3,"co":174.0,"o3":42.0,"so2":5.1,"mosquito_risk":7,"arthritis_risk":5,"migraine_risk":4,"frizz_risk":1,"updated_at":"2026-07-24T20:27:25.045061+05:30"},{"city":"Bangalore","state":"Karnataka","latitude":12.9716,"longitude":77.5946,"temp":23.4,"humidity":76,"rain":0.0,"pressure":911.0,"uv_index":8.9,"wind_gusts":51.8,"aqi":54,"pm10":30.3,"pm2_5":18.7,"no2":19.7,"co":415.0,"o3":43.0,"so2":4.5,"mosquito_risk":3,"arthritis_risk":5,"migraine_risk":7,"frizz_risk":1,"updated_at":"2026-07-24T20:27:25.045076+05:30"},{"city":"Hyderabad","state":"Telangana","latitude":17.385,"longitude":78.4867,"temp":26.8,"humidity":68,"rain":0.0,"pressure":949.5,"uv_index":8.65,"wind_gusts":65.5,"aqi":64,"pm10":24.8,"pm2_5":14.8,"no2":7.8,"co":340.0,"o3":66.0,"so2":3.8,"mosquito_risk":7,"arthritis_risk":5,"migraine_risk":7,"frizz_risk":1,"updated_at":"2026-07-24T20:27:25.045085+05:30"},{"city":"Chennai","state":"Tamil Nadu","latitude":13.0827,"longitude":80.2707,"temp":29.6,"humidity":80,"rain":0.0,"pressure":1005.1,"uv_index":7.95,"wind_gusts":35.3,"aqi":90,"pm10":30.4,"pm2_5":20.2,"no2":15.1,"co":348.0,"o3":88.0,"so2":8.0,"mosquito_risk":7,"arthritis_risk":5,"migraine_risk":4,"frizz_risk":1,"updated_at":"2026-07-24T20:27:25.045094+05:30"},{"city":"Kolkata","state":"West Bengal","latitude":22.5726,"longitude":88.3639,"temp":25.5,"humidity":97,"rain":0.1,"pressure":1000.3,"uv_index":6.3,"wind_gusts":28.4,"aqi":71,"pm10":26.9,"pm2_5":24.6,"no2":12.0,"co":716.0,"o3":80.0,"so2":8.6,"mosquito_risk":10,"arthritis_risk":5,"migraine_risk":4,"frizz_risk":1,"updated_at":"2026-07-24T20:27:25.045102+05:30"},{"city":"Pune","state":"Maharashtra","latitude":18.5204,"longitude":73.8567,"temp":23.5,"humidity":89,"rain":0.1,"pressure":942.9,"uv_index":5.0,"wind_gusts":62.6,"aqi":22,"pm10":7.6,"pm2_5":4.9,"no2":6.4,"co":151.0,"o3":36.0,"so2":3.5,"mosquito_risk":6,"arthritis_risk":5,"migraine_risk":3,"frizz_risk":1,"updated_at":"2026-07-24T20:27:25.045109+05:30"},{"city":"Ahmedabad","state":"Gujarat","latitude":23.0225,"longitude":72.5714,"temp":25.7,"humidity":94,"rain":0.2,"pressure":991.3,"uv_index":1.45,"wind_gusts":45.0,"aqi":41,"pm10":15.1,"pm2_5":8.6,"no2":13.7,"co":194.0,"o3":37.0,"so2":4.1,"mosquito_risk":10,"arthritis_risk":5,"migraine_risk":3,"frizz_risk":1,"updated_at":"2026-07-24T20:27:25.045116+05:30"},{"city":"Jaipur","state":"Rajasthan","latitude":26.9124,"longitude":75.7873,"temp":28.5,"humidity":73,"rain":0.0,"pressure":951.0,"uv_index":7.2,"wind_gusts":33.5,"aqi":68,"pm10":12.6,"pm2_5":12.5,"no2":12.9,"co":301.0,"o3":83.0,"so2":6.9,"mosquito_risk":7,"arthritis_risk":5,"migraine_risk":7,"frizz_risk":1,"updated_at":"2026-07-24T20:27:25.045122+05:30"},{"city":"Lucknow","state":"Uttar Pradesh","latitude":26.8467,"longitude":80.9462,"temp":27.1,"humidity":96,"rain":0.0,"pressure":987.7,"uv_index":8.0,"wind_gusts":25.9,"aqi":68,"pm10":25.7,"pm2_5":25.4,"no2":17.4,"co":283.0,"o3":66.0,"so2":9.3,"mosquito_risk":7,"arthritis_risk":5,"migraine_risk":7,"frizz_risk":1,"updated_at":"2026-07-24T20:27:25.045133+05:30"},{"city":"Kanpur","state":"Uttar Pradesh","latitude":26.4499,"longitude":80.3319,"temp":30.0,"humidity":77,"rain":0.0,"pressure":985.2,"uv_index":7.55,"wind_gusts":28.1,"aqi":58,"pm10":18.4,"pm2_5":18.0,"no2":11.0,"co":242.0,"o3":80.0,"so2":6.3,"mosquito_risk":7,"arthritis_risk":5,"migraine_risk":7,"frizz_risk":1,"updated_at":"2026-07-24T20:27:25.045140+05:30"},{"city":"Chandigarh","state":"Chandigarh","latitude":30.7333,"longitude":76.7794,"temp":28.3,"humidity":83,"rain":0.0,"pressure":962.3,"uv_index":7.4,"wind_gusts":31.7,"aqi":141,"pm10":31.3,"pm2_5":31.2,"no2":21.9,"co":476.0,"o3":104.0,"so2":8.4,"mosquito_risk":7,"arthritis_risk":5,"migraine_risk":7,"frizz_risk":1,"updated_at":"2026-07-24T20:27:25.045147+05:30"},{"city":"Srinagar","state":"Jammu and Kashmir","latitude":34.0837,"longitude":74.7973,"temp":19.9,"humidity":85,"rain":0.0,"pressure":837.5,"uv_index":6.1,"wind_gusts":14.8,"aqi":77,"pm10":16.6,"pm2_5":16.5,"no2":22.2,"co":1019.0,"o3":62.0,"so2":4.8,"mosquito_risk":3,"arthritis_risk":10,"migraine_risk":7,"frizz_risk":1,"updated_at":"2026-07-24T20:27:25.045154+05:30"},{"city":"Jammu","state":"Jammu and Kashmir","latitude":32.7266,"longitude":74.857,"temp":28.3,"humidity":76,"rain":0.0,"pressure":964.5,"uv_index":8.35,"wind_gusts":31.7,"aqi":95,"pm10":30.2,"pm2_5":29.7,"no2":32.5,"co":705.0,"o3":73.0,"so2":5.2,"mosquito_risk":7,"arthritis_risk":5,"migraine_risk":7,"frizz_risk":1,"updated_at":"2026-07-24T20:27:25.045160+05:30"},{"city":"Amritsar","state":"Punjab","latitude":31.634,"longitude":74.8723,"temp":28.8,"humidity":87,"rain":0.0,"pressure":973.0,"uv_index":8.35,"wind_gusts":29.5,"aqi":113,"pm10":41.1,"pm2_5":41.0,"no2":27.7,"co":810.0,"o3":87.0,"so2":7.2,"mosquito_risk":7,"arthritis_risk":5,"migraine_risk":7,"frizz_risk":1,"updated_at":"2026-07-24T20:27:25.045169+05:30"},{"city":"Ludhiana","state":"Punjab","latitude":30.901,"longitude":75.8573,"temp":29.5,"humidity":82,"rain":0.0,"pressure":971.3,"uv_index":7.85,"wind_gusts":32.4,"aqi":129,"pm10":39.9,"pm2_5":39.8,"no2":17.4,"co":480.0,"o3":108.0,"so2":9.2,"mosquito_risk":7,"arthritis_risk":5,"migraine_risk":7,"frizz_risk":1,"updated_at":"2026-07-24T20:27:25.045176+05:30"},{"city":"Jalandhar","state":"Punjab","latitude":31.326,"longitude":75.5762,"temp":28.9,"humidity":84,"rain":0.0,"pressure":972.3,"uv_index":8.05,"wind_gusts":22.7,"aqi":143,"pm10":44.6,"pm2_5":44.5,"no2":26.1,"co":557.0,"o3":95.0,"so2":8.1,"mosquito_risk":7,"arthritis_risk":5,"migraine_risk":7,"frizz_risk":1,"updated_at":"2026-07-24T20:27:25.045182+05:30"},{"city":"Dehradun","state":"Uttarakhand","latitude":30.6284,"longitude":78.0322,"temp":19.1,"humidity":98,"rain":0.0,"pressure":827.0,"uv_index":7.55,"wind_gusts":27.0,"aqi":54,"pm10":4.6,"pm2_5":4.6,"no2":11.2,"co":188.0,"o3":90.0,"so2":1.3,"mosquito_risk":3,"arthritis_risk":10,"migraine_risk":7,"frizz_risk":1,"updated_at":"2026-07-24T20:27:25.045189+05:30"},{"city":"Shimla","state":"Himachal Pradesh","latitude":31.1048,"longitude":77.1734,"temp":16.2,"humidity":98,"rain":0.0,"pressure":781.0,"uv_index":6.15,"wind_gusts":24.1,"aqi":59,"pm10":7.2,"pm2_5":7.2,"no2":19.0,"co":387.0,"o3":86.0,"so2":2.5,"mosquito_risk":3,"arthritis_risk":10,"migraine_risk":7,"frizz_risk":0,"updated_at":"2026-07-24T20:27:25.045195+05:30"},{"city":"Manali","state":"Himachal Pradesh","latitude":32.2396,"longitude":77.1887,"temp":20.4,"humidity":96,"rain":0.1,"pressure":816.2,"uv_index":9.4,"wind_gusts":29.2,"aqi":44,"pm10":5.0,"pm2_5":4.9,"no2":24.8,"co":176.0,"o3":58.0,"so2":0.3,"mosquito_risk":6,"arthritis_risk":5,"migraine_risk":7,"frizz_risk":1,"updated_at":"2026-07-24T20:27:25.045204+05:30"},{"city":"Gurgaon","state":"Haryana","latitude":28.4595,"longitude":77.0266,"temp":26.6,"humidity":96,"rain":0.1,"pressure":973.5,"uv_index":6.75,"wind_gusts":40.0,"aqi":87,"pm10":24.0,"pm2_5":23.8,"no2":30.8,"co":927.0,"o3":81.0,"so2":13.9,"mosquito_risk":10,"arthritis_risk":5,"migraine_risk":7,"frizz_risk":1,"updated_at":"2026-07-24T20:27:25.045213+05:30"},{"city":"Noida","state":"Uttar Pradesh","latitude":28.5355,"longitude":77.391,"temp":27.6,"humidity":94,"rain":0.0,"pressure":976.7,"uv_index":6.1,"wind_gusts":37.8,"aqi":87,"pm10":24.0,"pm2_5":23.8,"no2":30.8,"co":540.0,"o3":81.0,"so2":13.9,"mosquito_risk":7,"arthritis_risk":5,"migraine_risk":7,"frizz_risk":1,"updated_at":"2026-07-24T20:27:25.045220+05:30"},{"city":"Ghaziabad","state":"Uttar Pradesh","latitude":28.6692,"longitude":77.4538,"temp":28.2,"humidity":92,"rain":0.0,"pressure":975.2,"uv_index":5.3,"wind_gusts":40.7,"aqi":78,"pm10":19.2,"pm2_5":19.1,"no2":12.1,"co":285.0,"o3":87.0,"so2":6.9,"mosquito_risk":7,"arthritis_risk":5,"migraine_risk":3,"frizz_risk":1,"updated_at":"2026-07-24T20:27:25.045226+05:30"},{"city":"Faridabad","state":"Haryana","latitude":28.4089,"longitude":77.3178,"temp":27.0,"humidity":94,"rain":0.0,"pressure":976.0,"uv_index":5.55,"wind_gusts":38.9,"aqi":87,"pm10":24.0,"pm2_5":23.8,"no2":30.8,"co":710.0,"o3":81.0,"so2":13.9,"mosquito_risk":7,"arthritis_risk":5,"migraine_risk":3,"frizz_risk":1,"updated_at":"2026-07-24T20:27:25.045232+05:30"},{"city":"Meerut","state":"Uttar Pradesh","latitude":28.9845,"longitude":77.7064,"temp":27.8,"humidity":91,"rain":0.0,"pressure":974.5,"uv_index":6.25,"wind_gusts":46.8,"aqi":78,"pm10":19.2,"pm2_5":19.1,"no2":12.1,"co":346.0,"o3":87.0,"so2":6.9,"mosquito_risk":7,"arthritis_risk":5,"migraine_risk":7,"frizz_risk":1,"updated_at":"2026-07-24T20:27:25.045239+05:30"},{"city":"Agra","state":"Uttar Pradesh","latitude":27.1767,"longitude":78.0081,"temp":30.1,"humidity":74,"rain":0.0,"pressure":979.7,"uv_index":6.7,"wind_gusts":32.0,"aqi":78,"pm10":21.5,"pm2_5":20.5,"no2":21.8,"co":277.0,"o3":66.0,"so2":8.1,"mosquito_risk":3,"arthritis_risk":5,"migraine_risk":7,"frizz_risk":1,"updated_at":"2026-07-24T20:27:25.045245+05:30"},{"city":"Varanasi","state":"Uttar Pradesh","latitude":25.3176,"longitude":82.9739,"temp":28.5,"humidity":91,"rain":0.0,"pressure":991.9,"uv_index":7.5,"wind_gusts":21.2,"aqi":81,"pm10":36.3,"pm2_5":35.6,"no2":14.1,"co":1009.0,"o3":91.0,"so2":10.8,"mosquito_risk":7,"arthritis_risk":5,"migraine_risk":7,"frizz_risk":1,"updated_at":"2026-07-24T20:27:25.045251+05:30"},{"city":"Prayagraj","state":"Uttar Pradesh","latitude":25.4358,"longitude":81.8463,"temp":29.9,"humidity":79,"rain":0.0,"pressure":990.1,"uv_index":8.45,"wind_gusts":19.4,"aqi":72,"pm10":34.2,"pm2_5":33.5,"no2":22.3,"co":348.0,"o3":79.0,"so2":12.5,"mosquito_risk":7,"arthritis_risk":5,"migraine_risk":7,"frizz_risk":1,"updated_at":"2026-07-24T20:27:25.045258+05:30"},{"city":"Gorakhpur","state":"Uttar Pradesh","latitude":26.7606,"longitude":83.3732,"temp":26.7,"humidity":95,"rain":0.0,"pressure":992.1,"uv_index":6.9,"wind_gusts":27.4,"aqi":97,"pm10":42.3,"pm2_5":42.3,"no2":23.2,"co":393.0,"o3":59.0,"so2":7.4,"mosquito_risk":7,"arthritis_risk":5,"migraine_risk":7,"frizz_risk":1,"updated_at":"2026-07-24T20:27:25.045264+05:30"},{"city":"Bareilly","state":"Uttar Pradesh","latitude":28.367,"longitude":79.4304,"temp":26.4,"humidity":95,"rain":0.0,"pressure":980.8,"uv_index":6.8,"wind_gusts":40.7,"aqi":79,"pm10":22.4,"pm2_5":22.4,"no2":10.7,"co":341.0,"o3":81.0,"so2":5.4,"mosquito_risk":7,"arthritis_risk":5,"migraine_risk":7,"frizz_risk":1,"updated_at":"2026-07-24T20:27:25.045272+05:30"},{"city":"Aligarh","state":"Uttar Pradesh","latitude":27.8974,"longitude":78.088,"temp":29.9,"humidity":75,"rain":0.0,"pressure":977.9,"uv_index":5.4,"wind_gusts":35.6,"aqi":82,"pm10":20.5,"pm2_5":19.6,"no2":12.2,"co":216.0,"o3":86.0,"so2":7.2,"mosquito_risk":7,"arthritis_risk":5,"migraine_risk":3,"frizz_risk":1,"updated_at":"2026-07-24T20:27:25.045278+05:30"},{"city":"Moradabad","state":"Uttar Pradesh","latitude":28.8386,"longitude":78.7733,"temp":27.7,"humidity":90,"rain":0.0,"pressure":977.7,"uv_index":7.1,"wind_gusts":47.2,"aqi":83,"pm10":23.3,"pm2_5":23.3,"no2":10.1,"co":361.0,"o3":94.0,"so2":7.6,"mosquito_risk":7,"arthritis_risk":5,"migraine_risk":7,"frizz_risk":1,"updated_at":"2026-07-24T20:27:25.045284+05:30"},{"city":"Saharanpur","state":"Uttar Pradesh","latitude":29.9637,"longitude":77.546,"temp":28.4,"humidity":86,"rain":0.0,"pressure":969.4,"uv_index":7.25,"wind_gusts":49.0,"aqi":90,"pm10":26.1,"pm2_5":26.1,"no2":12.2,"co":386.0,"o3":100.0,"so2":7.1,"mosquito_risk":7,"arthritis_risk":5,"migraine_risk":7,"frizz_risk":1,"updated_at":"2026-07-24T20:27:25.045291+05:30"},{"city":"Jhansi","state":"Uttar Pradesh","latitude":25.4484,"longitude":78.5685,"temp":29.4,"humidity":73,"rain":0.0,"pressure":970.5,"uv_index":7.0,"wind_gusts":38.2,"aqi":55,"pm10":9.5,"pm2_5":8.5,"no2":11.5,"co":175.0,"o3":60.0,"so2":5.3,"mosquito_risk":7,"arthritis_risk":5,"migraine_risk":7,"frizz_risk":1,"updated_at":"2026-07-24T20:27:28.323568+05:30"},{"city":"Surat","state":"Gujarat","latitude":21.1702,"longitude":72.8311,"temp":25.7,"humidity":94,"rain":0.1,"pressure":998.6,"uv_index":5.75,"wind_gusts":55.8,"aqi":65,"pm10":32.4,"pm2_5":19.5,"no2":22.1,"co":258.0,"o3":32.0,"so2":33.6,"mosquito_risk":10,"arthritis_risk":5,"migraine_risk":3,"frizz_risk":1,"updated_at":"2026-07-24T20:27:28.323600+05:30"},{"city":"Vadodara","state":"Gujarat","latitude":22.3072,"longitude":73.1812,"temp":26.2,"humidity":87,"rain":0.0,"pressure":994.9,"uv_index":2.0,"wind_gusts":50.4,"aqi":36,"pm10":11.0,"pm2_5":8.4,"no2":12.8,"co":203.0,"o3":40.0,"so2":5.1,"mosquito_risk":7,"arthritis_risk":5,"migraine_risk":3,"frizz_risk":1,"updated_at":"2026-07-24T20:27:28.323610+05:30"},{"city":"Rajkot","state":"Gujarat","latitude":22.3039,"longitude":70.8022,"temp":25.2,"humidity":95,"rain":1.4,"pressure":983.7,"uv_index":0.9,"wind_gusts":54.7,"aqi":38,"pm10":22.9,"pm2_5":11.1,"no2":7.4,"co":122.0,"o3":46.0,"so2":4.6,"mosquito_risk":10,"arthritis_risk":5,"migraine_risk":3,"frizz_risk":1,"updated_at":"2026-07-24T20:27:28.323620+05:30"},{"city":"Thane","state":"Maharashtra","latitude":19.2183,"longitude":72.9781,"temp":25.8,"humidity":92,"rain":0.1,"pressure":1002.2,"uv_index":7.65,"wind_gusts":54.0,"aqi":61,"pm10":23.6,"pm2_5":12.2,"no2":8.3,"co":192.0,"o3":42.0,"so2":5.1,"mosquito_risk":10,"arthritis_risk":5,"migraine_risk":4,"frizz_risk":1,"updated_at":"2026-07-24T20:27:28.323629+05:30"},{"city":"Nagpur","state":"Maharashtra","latitude":21.1458,"longitude":79.0882,"temp":25.9,"humidity":86,"rain":0.0,"pressure":967.8,"uv_index":8.5,"wind_gusts":42.8,"aqi":53,"pm10":15.9,"pm2_5":11.7,"no2":12.5,"co":219.0,"o3":56.0,"so2":10.2,"mosquito_risk":7,"arthritis_risk":5,"migraine_risk":7,"frizz_risk":1,"updated_at":"2026-07-24T20:27:28.323638+05:30"},{"city":"Nashik","state":"Maharashtra","latitude":19.9975,"longitude":73.7898,"temp":22.5,"humidity":96,"rain":0.1,"pressure":938.8,"uv_index":6.65,"wind_gusts":61.2,"aqi":25,"pm10":11.0,"pm2_5":6.2,"no2":7.3,"co":128.0,"o3":41.0,"so2":3.8,"mosquito_risk":6,"arthritis_risk":5,"migraine_risk":7,"frizz_risk":1,"updated_at":"2026-07-24T20:27:28.323646+05:30"},{"city":"Aurangabad","state":"Maharashtra","latitude":19.8762,"longitude":75.3433,"temp":25.3,"humidity":78,"rain":0.0,"pressure":938.3,"uv_index":6.55,"wind_gusts":60.5,"aqi":33,"pm10":7.8,"pm2_5":5.0,"no2":4.7,"co":129.0,"o3":52.0,"so2":5.4,"mosquito_risk":7,"arthritis_risk":5,"migraine_risk":7,"frizz_risk":1,"updated_at":"2026-07-24T20:27:28.323654+05:30"},{"city":"Solapur","state":"Maharashtra","latitude":17.6599,"longitude":75.9064,"temp":26.5,"humidity":70,"rain":0.0,"pressure":953.7,"uv_index":5.95,"wind_gusts":64.4,"aqi":34,"pm10":11.0,"pm2_5":6.4,"no2":2.9,"co":113.0,"o3":47.0,"so2":1.6,"mosquito_risk":7,"arthritis_risk":5,"migraine_risk":3,"frizz_risk":1,"updated_at":"2026-07-24T20:27:28.323662+05:30"},{"city":"Kolhapur","state":"Maharashtra","latitude":16.705,"longitude":74.2433,"temp":22.6,"humidity":95,"rain":0.1,"pressure":945.1,"uv_index":8.9,"wind_gusts":67.0,"aqi":28,"pm10":8.8,"pm2_5":6.0,"no2":4.6,"co":129.0,"o3":36.0,"so2":1.7,"mosquito_risk":6,"arthritis_risk":5,"migraine_risk":7,"frizz_risk":1,"updated_at":"2026-07-24T20:27:28.323669+05:30"},{"city":"Goa","state":"Goa","latitude":15.2993,"longitude":74.124,"temp":23.9,"humidity":97,"rain":0.2,"pressure":998.0,"uv_index":8.65,"wind_gusts":38.2,"aqi":79,"pm10":18.1,"pm2_5":10.2,"no2":2.7,"co":171.0,"o3":38.0,"so2":1.0,"mosquito_risk":6,"arthritis_risk":5,"migraine_risk":7,"frizz_risk":1,"updated_at":"2026-07-24T20:27:28.323677+05:30"},{"city":"Jodhpur","state":"Rajasthan","latitude":26.2389,"longitude":73.0243,"temp":28.0,"humidity":88,"rain":0.0,"pressure":972.5,"uv_index":7.3,"wind_gusts":28.1,"aqi":98,"pm10":19.9,"pm2_5":18.8,"no2":9.7,"co":334.0,"o3":107.0,"so2":2.2,"mosquito_risk":7,"arthritis_risk":5,"migraine_risk":7,"frizz_risk":1,"updated_at":"2026-07-24T20:27:28.323685+05:30"},{"city":"Udaipur","state":"Rajasthan","latitude":24.5854,"longitude":73.7125,"temp":25.2,"humidity":89,"rain":0.1,"pressure":936.3,"uv_index":7.2,"wind_gusts":29.9,"aqi":52,"pm10":5.7,"pm2_5":5.6,"no2":7.6,"co":256.0,"o3":64.0,"so2":4.1,"mosquito_risk":10,"arthritis_risk":5,"migraine_risk":7,"frizz_risk":1,"updated_at":"2026-07-24T20:27:28.323692+05:30"},{"city":"Kota","state":"Rajasthan","latitude":25.2138,"longitude":75.8648,"temp":28.3,"humidity":73,"rain":0.0,"pressure":969.7,"uv_index":7.5,"wind_gusts":44.3,"aqi":56,"pm10":5.7,"pm2_5":5.6,"no2":6.0,"co":245.0,"o3":87.0,"so2":4.8,"mosquito_risk":7,"arthritis_risk":5,"migraine_risk":7,"frizz_risk":1,"updated_at":"2026-07-24T20:27:28.323700+05:30"},{"city":"Bikaner","state":"Rajasthan","latitude":28.0229,"longitude":73.3119,"temp":28.6,"humidity":86,"rain":0.0,"pressure":972.3,"uv_index":8.0,"wind_gusts":30.2,"aqi":117,"pm10":23.6,"pm2_5":22.7,"no2":5.5,"co":301.0,"o3":122.0,"so2":5.2,"mosquito_risk":7,"arthritis_risk":5,"migraine_risk":7,"frizz_risk":1,"updated_at":"2026-07-24T20:27:28.323708+05:30"},{"city":"Ajmer","state":"Rajasthan","latitude":26.4499,"longitude":74.6399,"temp":26.4,"humidity":90,"rain":0.0,"pressure":945.2,"uv_index":8.1,"wind_gusts":33.1,"aqi":76,"pm10":14.4,"pm2_5":14.3,"no2":8.0,"co":304.0,"o3":91.0,"so2":3.2,"mosquito_risk":7,"arthritis_risk":5,"migraine_risk":7,"frizz_risk":1,"updated_at":"2026-07-24T20:27:28.323715+05:30"},{"city":"Gwalior","state":"Madhya Pradesh","latitude":26.2183,"longitude":78.1828,"temp":29.3,"humidity":72,"rain":0.0,"pressure":975.1,"uv_index":7.2,"wind_gusts":32.8,"aqi":61,"pm10":9.7,"pm2_5":9.5,"no2":10.8,"co":188.0,"o3":65.0,"so2":4.1,"mosquito_risk":7,"arthritis_risk":5,"migraine_risk":7,"frizz_risk":1,"updated_at":"2026-07-24T20:27:28.323723+05:30"},{"city":"Indore","state":"Madhya Pradesh","latitude":22.7196,"longitude":75.8577,"temp":25.6,"humidity":83,"rain":0.0,"pressure":940.2,"uv_index":6.35,"wind_gusts":52.6,"aqi":40,"pm10":21.5,"pm2_5":13.4,"no2":8.8,"co":243.0,"o3":65.0,"so2":6.2,"mosquito_risk":7,"arthritis_risk":5,"migraine_risk":7,"frizz_risk":1,"updated_at":"2026-07-24T20:27:28.323730+05:30"},{"city":"Bhopal","state":"Madhya Pradesh","latitude":23.2599,"longitude":77.4126,"temp":26.1,"humidity":84,"rain":0.0,"pressure":946.6,"uv_index":8.1,"wind_gusts":43.6,"aqi":38,"pm10":9.9,"pm2_5":7.3,"no2":4.7,"co":216.0,"o3":66.0,"so2":3.3,"mosquito_risk":7,"arthritis_risk":5,"migraine_risk":7,"frizz_risk":1,"updated_at":"2026-07-24T20:27:28.323758+05:30"},{"city":"Jabalpur","state":"Madhya Pradesh","latitude":23.1815,"longitude":79.9864,"temp":27.2,"humidity":80,"rain":0.0,"pressure":955.8,"uv_index":7.75,"wind_gusts":30.6,"aqi":51,"pm10":12.0,"pm2_5":9.2,"no2":6.2,"co":178.0,"o3":63.0,"so2":3.7,"mosquito_risk":7,"arthritis_risk":5,"migraine_risk":7,"frizz_risk":1,"updated_at":"2026-07-24T20:27:28.323767+05:30"},{"city":"Ujjain","state":"Madhya Pradesh","latitude":23.1765,"longitude":75.7885,"temp":26.1,"humidity":79,"rain":0.0,"pressure":945.5,"uv_index":4.95,"wind_gusts":58.3,"aqi":36,"pm10":19.0,"pm2_5":11.4,"no2":4.9,"co":178.0,"o3":67.0,"so2":3.9,"mosquito_risk":7,"arthritis_risk":5,"migraine_risk":3,"frizz_risk":1,"updated_at":"2026-07-24T20:27:28.323775+05:30"},{"city":"Visakhapatnam","state":"Andhra Pradesh","latitude":17.6868,"longitude":83.2185,"temp":29.6,"humidity":69,"rain":0.0,"pressure":998.6,"uv_index":8.6,"wind_gusts":43.2,"aqi":76,"pm10":31.0,"pm2_5":21.8,"no2":16.7,"co":277.0,"o3":68.0,"so2":30.4,"mosquito_risk":7,"arthritis_risk":5,"migraine_risk":7,"frizz_risk":1,"updated_at":"2026-07-24T20:27:28.323783+05:30"},{"city":"Vijayawada","state":"Andhra Pradesh","latitude":16.5062,"longitude":80.648,"temp":30.3,"humidity":66,"rain":0.0,"pressure":998.9,"uv_index":8.8,"wind_gusts":46.4,"aqi":73,"pm10":34.9,"pm2_5":25.3,"no2":19.0,"co":348.0,"o3":35.0,"so2":7.7,"mosquito_risk":3,"arthritis_risk":5,"migraine_risk":7,"frizz_risk":1,"updated_at":"2026-07-24T20:27:28.323791+05:30"},{"city":"Guntur","state":"Andhra Pradesh","latitude":16.3067,"longitude":80.4365,"temp":31.5,"humidity":54,"rain":0.0,"pressure":1000.2,"uv_index":9.0,"wind_gusts":47.5,"aqi":73,"pm10":32.5,"pm2_5":24.3,"no2":22.2,"co":239.0,"o3":32.0,"so2":7.8,"mosquito_risk":0,"arthritis_risk":5,"migraine_risk":4,"frizz_risk":1,"updated_at":"2026-07-24T20:27:28.323799+05:30"},{"city":"Nellore","state":"Andhra Pradesh","latitude":14.4426,"longitude":79.9865,"temp":32.6,"humidity":48,"rain":0.0,"pressure":1002.9,"uv_index":8.5,"wind_gusts":43.9,"aqi":72,"pm10":44.4,"pm2_5":22.4,"no2":4.7,"co":149.0,"o3":72.0,"so2":1.8,"mosquito_risk":0,"arthritis_risk":5,"migraine_risk":4,"frizz_risk":1,"updated_at":"2026-07-24T20:27:28.323807+05:30"},{"city":"Kurnool","state":"Andhra Pradesh","latitude":15.8281,"longitude":78.0373,"temp":28.3,"humidity":63,"rain":0.0,"pressure":974.4,"uv_index":6.85,"wind_gusts":51.1,"aqi":63,"pm10":18.3,"pm2_5":10.3,"no2":3.8,"co":131.0,"o3":59.0,"so2":1.6,"mosquito_risk":7,"arthritis_risk":5,"migraine_risk":7,"frizz_risk":1,"updated_at":"2026-07-24T20:27:28.323815+05:30"},{"city":"Kakinada","state":"Andhra Pradesh","latitude":16.9891,"longitude":82.2475,"temp":30.0,"humidity":74,"rain":0.0,"pressure":1003.4,"uv_index":9.0,"wind_gusts":63.0,"aqi":71,"pm10":27.6,"pm2_5":17.3,"no2":6.8,"co":215.0,"o3":74.0,"so2":4.4,"mosquito_risk":7,"arthritis_risk":5,"migraine_risk":4,"frizz_risk":1,"updated_at":"2026-07-24T20:27:28.323822+05:30"},{"city":"Tirupati","state":"Andhra Pradesh","latitude":13.6288,"longitude":79.4192,"temp":30.2,"humidity":62,"rain":0.0,"pressure":988.9,"uv_index":8.0,"wind_gusts":33.5,"aqi":70,"pm10":44.8,"pm2_5":23.3,"no2":17.6,"co":224.0,"o3":43.0,"so2":2.2,"mosquito_risk":3,"arthritis_risk":5,"migraine_risk":7,"frizz_risk":1,"updated_at":"2026-07-24T20:27:28.323829+05:30"},{"city":"Warangal","state":"Telangana","latitude":17.9689,"longitude":79.5941,"temp":28.1,"humidity":68,"rain":0.0,"pressure":974.7,"uv_index":8.7,"wind_gusts":51.1,"aqi":68,"pm10":26.8,"pm2_5":18.0,"no2":11.1,"co":224.0,"o3":54.0,"so2":3.8,"mosquito_risk":7,"arthritis_risk":5,"migraine_risk":7,"frizz_risk":1,"updated_at":"2026-07-24T20:27:28.323837+05:30"},{"city":"Nizamabad","state":"Telangana","latitude":18.6725,"longitude":78.0941,"temp":27.2,"humidity":74,"rain":0.0,"pressure":960.1,"uv_index":7.45,"wind_gusts":52.9,"aqi":52,"pm10":21.4,"pm2_5":11.7,"no2":7.3,"co":152.0,"o3":48.0,"so2":3.2,"mosquito_risk":7,"arthritis_risk":5,"migraine_risk":7,"frizz_risk":1,"updated_at":"2026-07-24T20:27:28.323844+05:30"},{"city":"Mysore","state":"Karnataka","latitude":12.2958,"longitude":76.6396,"temp":23.9,"humidity":76,"rain":0.0,"pressure":928.5,"uv_index":8.6,"wind_gusts":45.0,"aqi":54,"pm10":41.6,"pm2_5":21.1,"no2":7.6,"co":184.0,"o3":60.0,"so2":1.8,"mosquito_risk":3,"arthritis_risk":5,"migraine_risk":7,"frizz_risk":1,"updated_at":"2026-07-24T20:27:28.323851+05:30"},{"city":"Mangalore","state":"Karnataka","latitude":12.9141,"longitude":74.856,"temp":24.8,"humidity":98,"rain":0.4,"pressure":1007.4,"uv_index":8.7,"wind_gusts":40.3,"aqi":56,"pm10":23.1,"pm2_5":11.5,"no2":6.2,"co":202.0,"o3":35.0,"so2":1.7,"mosquito_risk":6,"arthritis_risk":5,"migraine_risk":4,"frizz_risk":1,"updated_at":"2026-07-24T20:27:28.323858+05:30"},{"city":"Hubli-Dharwad","state":"Karnataka","latitude":15.3647,"longitude":75.124,"temp":22.6,"humidity":92,"rain":0.0,"pressure":939.3,"uv_index":8.7,"wind_gusts":63.7,"aqi":51,"pm10":6.0,"pm2_5":4.2,"no2":4.9,"co":129.0,"o3":37.0,"so2":1.1,"mosquito_risk":3,"arthritis_risk":5,"migraine_risk":7,"frizz_risk":1,"updated_at":"2026-07-24T20:27:28.323865+05:30"},{"city":"Belgaum","state":"Karnataka","latitude":15.8497,"longitude":74.4977,"temp":21.3,"humidity":96,"rain":0.0,"pressure":923.5,"uv_index":9.0,"wind_gusts":63.0,"aqi":39,"pm10":9.1,"pm2_5":5.6,"no2":3.6,"co":111.0,"o3":35.0,"so2":1.4,"mosquito_risk":3,"arthritis_risk":5,"migraine_risk":7,"frizz_risk":1,"updated_at":"2026-07-24T20:27:31.618767+05:30"},{"city":"Coimbatore","state":"Tamil Nadu","latitude":11.0168,"longitude":76.9558,"temp":25.1,"humidity":85,"rain":0.1,"pressure":961.2,"uv_index":8.95,"wind_gusts":47.9,"aqi":41,"pm10":28.1,"pm2_5":15.1,"no2":7.5,"co":182.0,"o3":51.0,"so2":3.0,"mosquito_risk":10,"arthritis_risk":5,"migraine_risk":7,"frizz_risk":1,"updated_at":"2026-07-24T20:27:31.618801+05:30"},{"city":"Madurai","state":"Tamil Nadu","latitude":9.9252,"longitude":78.1198,"temp":30.8,"humidity":59,"rain":0.0,"pressure":991.8,"uv_index":8.85,"wind_gusts":28.8,"aqi":63,"pm10":26.1,"pm2_5":16.1,"no2":18.6,"co":174.0,"o3":73.0,"so2":4.8,"mosquito_risk":0,"arthritis_risk":5,"migraine_risk":7,"frizz_risk":1,"updated_at":"2026-07-24T20:27:31.618817+05:30"},{"city":"Trichy","state":"Tamil Nadu","latitude":10.7905,"longitude":78.7047,"temp":32.8,"humidity":49,"rain":0.0,"pressure":998.2,"uv_index":8.75,"wind_gusts":44.3,"aqi":48,"pm10":24.3,"pm2_5":15.9,"no2":19.5,"co":178.0,"o3":47.0,"so2":4.6,"mosquito_risk":0,"arthritis_risk":5,"migraine_risk":7,"frizz_risk":1,"updated_at":"2026-07-24T20:27:31.618827+05:30"},{"city":"Salem","state":"Tamil Nadu","latitude":11.6643,"longitude":78.146,"temp":29.7,"humidity":58,"rain":0.0,"pressure":976.5,"uv_index":8.35,"wind_gusts":35.3,"aqi":59,"pm10":27.1,"pm2_5":18.3,"no2":22.9,"co":334.0,"o3":56.0,"so2":9.8,"mosquito_risk":4,"arthritis_risk":5,"migraine_risk":7,"frizz_risk":1,"updated_at":"2026-07-24T20:27:31.618836+05:30"},{"city":"Tirunelveli","state":"Tamil Nadu","latitude":8.7139,"longitude":77.7567,"temp":31.0,"humidity":54,"rain":0.0,"pressure":1001.8,"uv_index":8.75,"wind_gusts":46.1,"aqi":39,"pm10":9.9,"pm2_5":7.1,"no2":4.3,"co":131.0,"o3":56.0,"so2":2.1,"mosquito_risk":0,"arthritis_risk":5,"migraine_risk":4,"frizz_risk":1,"updated_at":"2026-07-24T20:27:31.618843+05:30"},{"city":"Vellore","state":"Tamil Nadu","latitude":12.9165,"longitude":79.1325,"temp":26.6,"humidity":93,"rain":0.0,"pressure":982.9,"uv_index":7.4,"wind_gusts":37.8,"aqi":75,"pm10":33.9,"pm2_5":21.9,"no2":18.5,"co":341.0,"o3":52.0,"so2":4.1,"mosquito_risk":7,"arthritis_risk":5,"migraine_risk":7,"frizz_risk":1,"updated_at":"2026-07-24T20:27:31.618851+05:30"},{"city":"Erode","state":"Tamil Nadu","latitude":11.341,"longitude":77.7172,"temp":29.1,"humidity":67,"rain":0.0,"pressure":988.5,"uv_index":8.5,"wind_gusts":41.0,"aqi":51,"pm10":24.4,"pm2_5":15.7,"no2":16.3,"co":190.0,"o3":57.0,"so2":3.3,"mosquito_risk":7,"arthritis_risk":5,"migraine_risk":7,"frizz_risk":1,"updated_at":"2026-07-24T20:27:31.618859+05:30"},{"city":"Kochi","state":"Kerala","latitude":9.9312,"longitude":76.2673,"temp":27.3,"humidity":88,"rain":0.0,"pressure":1009.4,"uv_index":8.55,"wind_gusts":33.5,"aqi":56,"pm10":16.0,"pm2_5":12.7,"no2":16.8,"co":152.0,"o3":31.0,"so2":4.8,"mosquito_risk":7,"arthritis_risk":0,"migraine_risk":4,"frizz_risk":1,"updated_at":"2026-07-24T20:27:31.618867+05:30"},{"city":"Thiruvananthapuram","state":"Kerala","latitude":8.5241,"longitude":76.9366,"temp":27.1,"humidity":85,"rain":0.0,"pressure":1008.6,"uv_index":8.55,"wind_gusts":41.4,"aqi":51,"pm10":14.8,"pm2_5":9.5,"no2":5.6,"co":125.0,"o3":49.0,"so2":1.6,"mosquito_risk":7,"arthritis_risk":0,"migraine_risk":4,"frizz_risk":1,"updated_at":"2026-07-24T20:27:31.618875+05:30"},{"city":"Kozhikode","state":"Kerala","latitude":11.2588,"longitude":75.7804,"temp":25.9,"humidity":93,"rain":0.0,"pressure":1008.6,"uv_index":8.65,"wind_gusts":37.1,"aqi":38,"pm10":15.1,"pm2_5":7.4,"no2":1.7,"co":190.0,"o3":48.0,"so2":1.1,"mosquito_risk":7,"arthritis_risk":0,"migraine_risk":4,"frizz_risk":1,"updated_at":"2026-07-24T20:27:31.618882+05:30"},{"city":"Thrissur","state":"Kerala","latitude":10.5276,"longitude":76.2144,"temp":26.4,"humidity":91,"rain":0.0,"pressure":1007.7,"uv_index":8.65,"wind_gusts":34.6,"aqi":52,"pm10":16.1,"pm2_5":12.1,"no2":8.8,"co":164.0,"o3":38.0,"so2":3.0,"mosquito_risk":7,"arthritis_risk":5,"migraine_risk":4,"frizz_risk":1,"updated_at":"2026-07-24T20:27:31.618890+05:30"},{"city":"Kannur","state":"Kerala","latitude":11.8745,"longitude":75.3704,"temp":26.2,"humidity":91,"rain":0.0,"pressure":1007.7,"uv_index":8.7,"wind_gusts":35.3,"aqi":50,"pm10":20.1,"pm2_5":11.4,"no2":11.5,"co":269.0,"o3":29.0,"so2":2.0,"mosquito_risk":7,"arthritis_risk":5,"migraine_risk":4,"frizz_risk":1,"updated_at":"2026-07-24T20:27:31.618897+05:30"},{"city":"Patna","state":"Bihar","latitude":25.5941,"longitude":85.1376,"temp":27.2,"humidity":95,"rain":0.1,"pressure":995.7,"uv_index":5.7,"wind_gusts":21.6,"aqi":116,"pm10":44.1,"pm2_5":44.0,"no2":20.4,"co":410.0,"o3":92.0,"so2":14.2,"mosquito_risk":10,"arthritis_risk":5,"migraine_risk":3,"frizz_risk":1,"updated_at":"2026-07-24T20:27:31.618904+05:30"},{"city":"Gaya","state":"Bihar","latitude":24.7914,"longitude":85.0002,"temp":27.6,"humidity":95,"rain":0.0,"pressure":988.7,"uv_index":8.15,"wind_gusts":24.5,"aqi":112,"pm10":46.8,"pm2_5":46.7,"no2":15.0,"co":406.0,"o3":115.0,"so2":12.5,"mosquito_risk":7,"arthritis_risk":5,"migraine_risk":7,"frizz_risk":1,"updated_at":"2026-07-24T20:27:31.618911+05:30"},{"city":"Muzaffarpur","state":"Bihar","latitude":26.1209,"longitude":85.3647,"temp":27.0,"humidity":94,"rain":0.1,"pressure":995.7,"uv_index":6.65,"wind_gusts":26.3,"aqi":95,"pm10":43.8,"pm2_5":43.5,"no2":23.2,"co":539.0,"o3":79.0,"so2":11.7,"mosquito_risk":10,"arthritis_risk":5,"migraine_risk":7,"frizz_risk":1,"updated_at":"2026-07-24T20:27:31.618919+05:30"},{"city":"Bhagalpur","state":"Bihar","latitude":25.2425,"longitude":87.0117,"temp":28.0,"humidity":93,"rain":0.0,"pressure":996.0,"uv_index":6.35,"wind_gusts":25.6,"aqi":83,"pm10":24.7,"pm2_5":24.5,"no2":13.9,"co":319.0,"o3":80.0,"so2":8.4,"mosquito_risk":7,"arthritis_risk":5,"migraine_risk":7,"frizz_risk":1,"updated_at":"2026-07-24T20:27:31.618926+05:30"},{"city":"Ranchi","state":"Jharkhand","latitude":23.3441,"longitude":85.3096,"temp":23.5,"humidity":96,"rain":0.0,"pressure":932.8,"uv_index":6.45,"wind_gusts":31.7,"aqi":58,"pm10":18.0,"pm2_5":17.6,"no2":13.9,"co":299.0,"o3":56.0,"so2":6.5,"mosquito_risk":3,"arthritis_risk":5,"migraine_risk":7,"frizz_risk":1,"updated_at":"2026-07-24T20:27:31.618933+05:30"},{"city":"Jamshedpur","state":"Jharkhand","latitude":22.8046,"longitude":86.2029,"temp":26.4,"humidity":97,"rain":0.1,"pressure":985.5,"uv_index":7.15,"wind_gusts":32.0,"aqi":70,"pm10":16.5,"pm2_5":15.8,"no2":12.9,"co":530.0,"o3":65.0,"so2":13.3,"mosquito_risk":10,"arthritis_risk":5,"migraine_risk":7,"frizz_risk":1,"updated_at":"2026-07-24T20:27:31.618941+05:30"},{"city":"Dhanbad","state":"Jharkhand","latitude":23.7957,"longitude":86.4304,"temp":26.1,"humidity":96,"rain":0.0,"pressure":974.4,"uv_index":6.6,"wind_gusts":29.2,"aqi":90,"pm10":42.7,"pm2_5":42.6,"no2":37.2,"co":302.0,"o3":66.0,"so2":98.7,"mosquito_risk":7,"arthritis_risk":5,"migraine_risk":7,"frizz_risk":1,"updated_at":"2026-07-24T20:27:31.618948+05:30"},{"city":"Bokaro","state":"Jharkhand","latitude":23.6693,"longitude":86.1511,"temp":25.7,"humidity":95,"rain":0.0,"pressure":978.2,"uv_index":8.25,"wind_gusts":39.6,"aqi":82,"pm10":44.4,"pm2_5":44.1,"no2":37.3,"co":300.0,"o3":63.0,"so2":107.1,"mosquito_risk":7,"arthritis_risk":5,"migraine_risk":7,"frizz_risk":1,"updated_at":"2026-07-24T20:27:31.618956+05:30"},{"city":"Bhubaneswar","state":"Odisha","latitude":20.2961,"longitude":85.8245,"temp":26.5,"humidity":97,"rain":0.0,"pressure":997.5,"uv_index":8.75,"wind_gusts":37.4,"aqi":71,"pm10":27.8,"pm2_5":24.2,"no2":13.0,"co":430.0,"o3":68.0,"so2":5.4,"mosquito_risk":7,"arthritis_risk":5,"migraine_risk":7,"frizz_risk":1,"updated_at":"2026-07-24T20:27:31.618963+05:30"},{"city":"Cuttack","state":"Odisha","latitude":20.4625,"longitude":85.8828,"temp":26.6,"humidity":94,"rain":0.0,"pressure":999.3,"uv_index":8.5,"wind_gusts":41.0,"aqi":71,"pm10":27.8,"pm2_5":24.2,"no2":13.0,"co":441.0,"o3":68.0,"so2":5.4,"mosquito_risk":7,"arthritis_risk":5,"migraine_risk":7,"frizz_risk":1,"updated_at":"2026-07-24T20:27:31.618970+05:30"},{"city":"Rourkela","state":"Odisha","latitude":22.2604,"longitude":84.8536,"temp":27.7,"humidity":84,"rain":0.0,"pressure":979.7,"uv_index":8.15,"wind_gusts":38.5,"aqi":70,"pm10":34.9,"pm2_5":32.9,"no2":14.8,"co":898.0,"o3":80.0,"so2":15.6,"mosquito_risk":7,"arthritis_risk":5,"migraine_risk":7,"frizz_risk":1,"updated_at":"2026-07-24T20:27:31.618978+05:30"},{"city":"Raipur","state":"Chhattisgarh","latitude":21.2514,"longitude":81.6296,"temp":27.6,"humidity":78,"rain":0.0,"pressure":969.7,"uv_index":7.1,"wind_gusts":44.3,"aqi":73,"pm10":21.9,"pm2_5":19.6,"no2":24.9,"co":557.0,"o3":50.0,"so2":41.7,"mosquito_risk":7,"arthritis_risk":5,"migraine_risk":7,"frizz_risk":1,"updated_at":"2026-07-24T20:27:31.618985+05:30"},{"city":"Bhilai","state":"Chhattisgarh","latitude":21.1938,"longitude":81.3509,"temp":27.4,"humidity":80,"rain":0.0,"pressure":970.2,"uv_index":7.95,"wind_gusts":49.3,"aqi":70,"pm10":21.9,"pm2_5":18.5,"no2":21.6,"co":690.0,"o3":53.0,"so2":36.3,"mosquito_risk":7,"arthritis_risk":5,"migraine_risk":7,"frizz_risk":1,"updated_at":"2026-07-24T20:27:31.618992+05:30"},{"city":"Guwahati","state":"Assam","latitude":26.1158,"longitude":91.7086,"temp":26.9,"humidity":96,"rain":0.0,"pressure":997.3,"uv_index":8.35,"wind_gusts":19.8,"aqi":53,"pm10":11.9,"pm2_5":11.8,"no2":9.4,"co":286.0,"o3":44.0,"so2":1.8,"mosquito_risk":7,"arthritis_risk":5,"migraine_risk":7,"frizz_risk":1,"updated_at":"2026-07-24T20:27:31.618999+05:30"},{"city":"Agartala","state":"Tripura","latitude":23.8315,"longitude":91.2868,"temp":26.6,"humidity":87,"rain":0.0,"pressure":1002.1,"uv_index":7.35,"wind_gusts":35.6,"aqi":51,"pm10":10.8,"pm2_5":10.4,"no2":8.7,"co":195.0,"o3":53.0,"so2":2.2,"mosquito_risk":7,"arthritis_risk":5,"migraine_risk":4,"frizz_risk":1,"updated_at":"2026-07-24T20:27:31.619007+05:30"},{"city":"Shillong","state":"Meghalaya","latitude":25.5788,"longitude":91.8933,"temp":20.4,"humidity":88,"rain":0.0,"pressure":855.4,"uv_index":5.85,"wind_gusts":31.0,"aqi":34,"pm10":6.7,"pm2_5":6.5,"no2":8.6,"co":310.0,"o3":53.0,"so2":2.1,"mosquito_risk":3,"arthritis_risk":5,"migraine_risk":3,"frizz_risk":1,"updated_at":"2026-07-24T20:27:31.619014+05:30"},{"city":"Imphal","state":"Manipur","latitude":24.817,"longitude":93.9368,"temp":24.0,"humidity":89,"rain":0.0,"pressure":920.6,"uv_index":9.05,"wind_gusts":20.2,"aqi":40,"pm10":19.2,"pm2_5":18.7,"no2":20.6,"co":524.0,"o3":37.0,"so2":3.4,"mosquito_risk":3,"arthritis_risk":5,"migraine_risk":7,"frizz_risk":1,"updated_at":"2026-07-24T20:27:31.619022+05:30"},{"city":"Aizawl","state":"Mizoram","latitude":23.7271,"longitude":92.7176,"temp":20.8,"humidity":86,"rain":0.0,"pressure":889.8,"uv_index":8.5,"wind_gusts":34.6,"aqi":27,"pm10":5.8,"pm2_5":4.8,"no2":5.9,"co":135.0,"o3":34.0,"so2":0.7,"mosquito_risk":3,"arthritis_risk":5,"migraine_risk":7,"frizz_risk":1,"updated_at":"2026-07-24T20:27:31.619028+05:30"},{"city":"Kohima","state":"Nagaland","latitude":25.6701,"longitude":94.1077,"temp":20.5,"humidity":95,"rain":0.0,"pressure":853.7,"uv_index":8.65,"wind_gusts":20.9,"aqi":31,"pm10":10.0,"pm2_5":9.7,"no2":16.4,"co":318.0,"o3":36.0,"so2":1.6,"mosquito_risk":3,"arthritis_risk":5,"migraine_risk":7,"frizz_risk":1,"updated_at":"2026-07-24T20:27:31.619035+05:30"},{"city":"Gangtok","state":"Sikkim","latitude":27.3314,"longitude":88.6138,"temp":18.9,"humidity":97,"rain":0.0,"pressure":836.3,"uv_index":7.5,"wind_gusts":32.4,"aqi":43,"pm10":4.2,"pm2_5":4.1,"no2":5.7,"co":217.0,"o3":87.0,"so2":1.5,"mosquito_risk":3,"arthritis_risk":10,"migraine_risk":7,"frizz_risk":1,"updated_at":"2026-07-24T20:27:31.619042+05:30"},{"city":"Siliguri","state":"West Bengal","latitude":26.7271,"longitude":88.3953,"temp":27.1,"humidity":92,"rain":0.0,"pressure":988.9,"uv_index":7.65,"wind_gusts":27.7,"aqi":64,"pm10":17.9,"pm2_5":17.2,"no2":10.3,"co":598.0,"o3":85.0,"so2":4.1,"mosquito_risk":7,"arthritis_risk":5,"migraine_risk":7,"frizz_risk":1,"updated_at":"2026-07-24T20:27:34.899097+05:30"},{"city":"Durgapur","state":"West Bengal","latitude":23.5204,"longitude":87.3119,"temp":26.2,"humidity":97,"rain":0.1,"pressure":989.4,"uv_index":7.9,"wind_gusts":27.4,"aqi":118,"pm10":64.5,"pm2_5":64.3,"no2":31.7,"co":864.0,"o3":101.0,"so2":48.7,"mosquito_risk":10,"arthritis_risk":5,"migraine_risk":7,"frizz_risk":1,"updated_at":"2026-07-24T20:27:34.899131+05:30"},{"city":"Asansol","state":"West Bengal","latitude":23.6739,"longitude":86.9524,"temp":26.7,"humidity":95,"rain":0.2,"pressure":987.7,"uv_index":8.05,"wind_gusts":25.9,"aqi":89,"pm10":39.5,"pm2_5":39.3,"no2":30.0,"co":465.0,"o3":87.0,"so2":37.7,"mosquito_risk":10,"arthritis_risk":5,"migraine_risk":7,"frizz_risk":1,"updated_at":"2026-07-24T20:27:34.899143+05:30"},{"city":"Pondicherry","state":"Puducherry","latitude":11.9139,"longitude":79.8145,"temp":28.9,"humidity":84,"rain":0.0,"pressure":1006.6,"uv_index":8.2,"wind_gusts":41.4,"aqi":90,"pm10":27.5,"pm2_5":19.8,"no2":7.0,"co":196.0,"o3":107.0,"so2":4.1,"mosquito_risk":7,"arthritis_risk":5,"migraine_risk":4,"frizz_risk":1,"updated_at":"2026-07-24T20:27:34.899152+05:30"},{"city":"Port Blair","state":"Andaman and Nicobar Islands","latitude":11.6234,"longitude":92.7265,"temp":27.5,"humidity":80,"rain":0.0,"pressure":1006.8,"uv_index":8.75,"wind_gusts":44.6,"aqi":41,"pm10":15.7,"pm2_5":9.3,"no2":0.4,"co":101.0,"o3":43.0,"so2":0.4,"mosquito_risk":7,"arthritis_risk":5,"migraine_risk":4,"frizz_risk":1,"updated_at":"2026-07-24T20:27:34.899159+05:30"},{"city":"Haridwar","state":"Uttarakhand","latitude":29.9457,"longitude":78.1642,"temp":28.3,"humidity":83,"rain":0.0,"pressure":967.9,"uv_index":6.3,"wind_gusts":39.2,"aqi":87,"pm10":20.4,"pm2_5":20.3,"no2":7.6,"co":326.0,"o3":104.0,"so2":6.0,"mosquito_risk":7,"arthritis_risk":5,"migraine_risk":7,"frizz_risk":1,"updated_at":"2026-07-24T20:27:34.899167+05:30"},{"city":"Rishikesh","state":"Uttarakhand","latitude":30.0869,"longitude":78.2676,"temp":27.3,"humidity":94,"rain":0.0,"pressure":960.7,"uv_index":6.0,"wind_gusts":25.9,"aqi":74,"pm10":14.0,"pm2_5":14.0,"no2":4.9,"co":331.0,"o3":102.0,"so2":3.3,"mosquito_risk":7,"arthritis_risk":5,"migraine_risk":3,"frizz_risk":1,"updated_at":"2026-07-24T20:27:34.899175+05:30"},{"city":"Nainital","state":"Uttarakhand","latitude":29.3919,"longitude":79.4542,"temp":17.3,"humidity":99,"rain":0.0,"pressure":802.5,"uv_index":7.6,"wind_gusts":45.0,"aqi":60,"pm10":16.0,"pm2_5":16.0,"no2":6.5,"co":257.0,"o3":86.0,"so2":2.6,"mosquito_risk":3,"arthritis_risk":10,"migraine_risk":7,"frizz_risk":1,"updated_at":"2026-07-24T20:27:34.899183+05:30"},{"city":"Mussoorie","state":"Uttarakhand","latitude":30.4599,"longitude":78.0664,"temp":17.4,"humidity":99,"rain":0.0,"pressure":800.0,"uv_index":6.1,"wind_gusts":33.5,"aqi":74,"pm10":16.1,"pm2_5":16.1,"no2":10.7,"co":279.0,"o3":96.0,"so2":3.6,"mosquito_risk":3,"arthritis_risk":10,"migraine_risk":7,"frizz_risk":1,"updated_at":"2026-07-24T20:27:34.899191+05:30"},{"city":"Dharamshala","state":"Himachal Pradesh","latitude":32.219,"longitude":76.3234,"temp":21.7,"humidity":91,"rain":0.0,"pressure":864.4,"uv_index":6.9,"wind_gusts":32.0,"aqi":47,"pm10":7.5,"pm2_5":7.5,"no2":5.9,"co":353.0,"o3":87.0,"so2":0.9,"mosquito_risk":3,"arthritis_risk":5,"migraine_risk":7,"frizz_risk":1,"updated_at":"2026-07-24T20:27:34.899199+05:30"},{"city":"Dalhousie","state":"Himachal Pradesh","latitude":32.5387,"longitude":75.971,"temp":18.0,"humidity":95,"rain":0.0,"pressure":800.5,"uv_index":8.6,"wind_gusts":30.2,"aqi":83,"pm10":18.7,"pm2_5":18.5,"no2":15.2,"co":467.0,"o3":105.0,"so2":2.4,"mosquito_risk":3,"arthritis_risk":10,"migraine_risk":7,"frizz_risk":1,"updated_at":"2026-07-24T20:27:34.899207+05:30"},{"city":"Patiala","state":"Punjab","latitude":30.3398,"longitude":76.3869,"temp":28.4,"humidity":85,"rain":0.0,"pressure":970.9,"uv_index":7.3,"wind_gusts":38.9,"aqi":108,"pm10":26.1,"pm2_5":26.0,"no2":13.1,"co":378.0,"o3":100.0,"so2":7.1,"mosquito_risk":7,"arthritis_risk":5,"migraine_risk":7,"frizz_risk":1,"updated_at":"2026-07-24T20:27:34.899214+05:30"},{"city":"Bhatinda","state":"Punjab","latitude":30.211,"longitude":74.9455,"temp":28.8,"humidity":85,"rain":0.0,"pressure":975.6,"uv_index":7.95,"wind_gusts":36.0,"aqi":146,"pm10":28.8,"pm2_5":28.8,"no2":17.5,"co":411.0,"o3":89.0,"so2":5.9,"mosquito_risk":7,"arthritis_risk":5,"migraine_risk":7,"frizz_risk":1,"updated_at":"2026-07-24T20:27:34.899222+05:30"},{"city":"Rohtak","state":"Haryana","latitude":28.8955,"longitude":76.6066,"temp":27.1,"humidity":94,"rain":0.1,"pressure":974.0,"uv_index":4.5,"wind_gusts":34.6,"aqi":128,"pm10":23.4,"pm2_5":23.1,"no2":22.2,"co":463.0,"o3":101.0,"so2":14.8,"mosquito_risk":10,"arthritis_risk":5,"migraine_risk":3,"frizz_risk":1,"updated_at":"2026-07-24T20:27:34.899229+05:30"},{"city":"Panipat","state":"Haryana","latitude":29.3909,"longitude":76.9635,"temp":28.5,"humidity":87,"rain":0.0,"pressure":973.1,"uv_index":5.6,"wind_gusts":45.4,"aqi":118,"pm10":20.7,"pm2_5":20.7,"no2":13.1,"co":376.0,"o3":99.0,"so2":9.3,"mosquito_risk":7,"arthritis_risk":5,"migraine_risk":3,"frizz_risk":1,"updated_at":"2026-07-24T20:27:34.899236+05:30"},{"city":"Mathura","state":"Uttar Pradesh","latitude":27.4924,"longitude":77.6737,"temp":30.3,"humidity":71,"rain":0.0,"pressure":978.7,"uv_index":6.5,"wind_gusts":33.1,"aqi":80,"pm10":19.4,"pm2_5":18.9,"no2":21.2,"co":255.0,"o3":76.0,"so2":5.4,"mosquito_risk":3,"arthritis_risk":5,"migraine_risk":7,"frizz_risk":1,"updated_at":"2026-07-24T20:27:34.899243+05:30"},{"city":"Vrindavan","state":"Uttar Pradesh","latitude":27.5823,"longitude":77.7027,"temp":30.3,"humidity":71,"rain":0.0,"pressure":979.2,"uv_index":6.5,"wind_gusts":32.4,"aqi":80,"pm10":19.4,"pm2_5":18.9,"no2":21.2,"co":258.0,"o3":76.0,"so2":5.4,"mosquito_risk":3,"arthritis_risk":5,"migraine_risk":7,"frizz_risk":1,"updated_at":"2026-07-24T20:27:34.899251+05:30"},{"city":"Ayodhya","state":"Uttar Pradesh","latitude":26.7922,"longitude":82.1998,"temp":27.6,"humidity":94,"rain":0.0,"pressure":990.1,"uv_index":7.1,"wind_gusts":22.7,"aqi":93,"pm10":35.5,"pm2_5":35.5,"no2":12.3,"co":420.0,"o3":93.0,"so2":7.4,"mosquito_risk":7,"arthritis_risk":5,"migraine_risk":7,"frizz_risk":1,"updated_at":"2026-07-24T20:27:34.899259+05:30"},{"city":"Ratlam","state":"Madhya Pradesh","latitude":23.3315,"longitude":75.0367,"temp":25.3,"humidity":83,"rain":0.0,"pressure":946.0,"uv_index":4.75,"wind_gusts":54.0,"aqi":35,"pm10":16.5,"pm2_5":9.8,"no2":3.6,"co":136.0,"o3":69.0,"so2":4.1,"mosquito_risk":7,"arthritis_risk":5,"migraine_risk":3,"frizz_risk":1,"updated_at":"2026-07-24T20:27:34.899266+05:30"},{"city":"Sagar","state":"Madhya Pradesh","latitude":23.8388,"longitude":78.7378,"temp":26.5,"humidity":81,"rain":0.0,"pressure":943.9,"uv_index":7.55,"wind_gusts":36.0,"aqi":36,"pm10":9.9,"pm2_5":6.8,"no2":4.1,"co":145.0,"o3":64.0,"so2":2.5,"mosquito_risk":7,"arthritis_risk":5,"migraine_risk":7,"frizz_risk":1,"updated_at":"2026-07-24T20:27:34.899273+05:30"},{"city":"Satna","state":"Madhya Pradesh","latitude":24.6005,"longitude":80.8322,"temp":28.6,"humidity":79,"rain":0.0,"pressure":965.5,"uv_index":7.25,"wind_gusts":29.9,"aqi":46,"pm10":11.8,"pm2_5":11.4,"no2":12.1,"co":239.0,"o3":53.0,"so2":3.2,"mosquito_risk":7,"arthritis_risk":5,"migraine_risk":7,"frizz_risk":1,"updated_at":"2026-07-24T20:27:34.899280+05:30"},{"city":"Akola","state":"Maharashtra","latitude":20.7002,"longitude":77.0082,"temp":26.9,"humidity":80,"rain":0.0,"pressure":968.6,"uv_index":7.55,"wind_gusts":47.5,"aqi":32,"pm10":15.5,"pm2_5":10.2,"no2":8.5,"co":172.0,"o3":58.0,"so2":4.4,"mosquito_risk":7,"arthritis_risk":5,"migraine_risk":7,"frizz_risk":1,"updated_at":"2026-07-24T20:27:34.899288+05:30"},{"city":"Amravati","state":"Maharashtra","latitude":20.9374,"longitude":77.7796,"temp":25.9,"humidity":88,"rain":0.0,"pressure":961.5,"uv_index":7.5,"wind_gusts":51.1,"aqi":34,"pm10":14.7,"pm2_5":9.6,"no2":9.6,"co":169.0,"o3":55.0,"so2":4.8,"mosquito_risk":7,"arthritis_risk":5,"migraine_risk":7,"frizz_risk":1,"updated_at":"2026-07-24T20:27:34.899296+05:30"},{"city":"Latur","state":"Maharashtra","latitude":18.4088,"longitude":76.5604,"temp":25.8,"humidity":72,"rain":0.0,"pressure":935.7,"uv_index":6.3,"wind_gusts":63.7,"aqi":29,"pm10":9.7,"pm2_5":5.5,"no2":2.5,"co":129.0,"o3":48.0,"so2":1.3,"mosquito_risk":7,"arthritis_risk":5,"migraine_risk":7,"frizz_risk":1,"updated_at":"2026-07-24T20:27:34.899304+05:30"},{"city":"Nanded","state":"Maharashtra","latitude":19.1383,"longitude":77.3091,"temp":26.4,"humidity":81,"rain":0.0,"pressure":963.6,"uv_index":7.05,"wind_gusts":52.9,"aqi":37,"pm10":15.6,"pm2_5":9.6,"no2":7.4,"co":170.0,"o3":49.0,"so2":2.9,"mosquito_risk":7,"arthritis_risk":5,"migraine_risk":7,"frizz_risk":1,"updated_at":"2026-07-24T20:27:34.899311+05:30"},{"city":"Gulbarga","state":"Karnataka","latitude":17.3297,"longitude":76.8343,"temp":27.3,"humidity":65,"rain":0.0,"pressure":955.4,"uv_index":6.7,"wind_gusts":58.3,"aqi":54,"pm10":11.8,"pm2_5":6.7,"no2":4.1,"co":134.0,"o3":52.0,"so2":1.9,"mosquito_risk":7,"arthritis_risk":5,"migraine_risk":7,"frizz_risk":1,"updated_at":"2026-07-24T20:27:34.899318+05:30"},{"city":"Bidar","state":"Karnataka","latitude":17.9104,"longitude":77.5199,"temp":27.0,"humidity":63,"rain":0.0,"pressure":931.8,"uv_index":4.25,"wind_gusts":60.1,"aqi":53,"pm10":21.0,"pm2_5":11.3,"no2":6.3,"co":150.0,"o3":52.0,"so2":1.7,"mosquito_risk":7,"arthritis_risk":5,"migraine_risk":3,"frizz_risk":1,"updated_at":"2026-07-24T20:27:34.899325+05:30"},{"city":"Hospet","state":"Karnataka","latitude":15.2689,"longitude":76.3909,"temp":25.1,"humidity":76,"rain":0.0,"pressure":954.6,"uv_index":8.95,"wind_gusts":59.0,"aqi":53,"pm10":8.4,"pm2_5":5.2,"no2":4.3,"co":124.0,"o3":42.0,"so2":1.5,"mosquito_risk":7,"arthritis_risk":5,"migraine_risk":7,"frizz_risk":1,"updated_at":"2026-07-24T20:27:34.899332+05:30"},{"city":"Tirupur","state":"Tamil Nadu","latitude":11.1085,"longitude":77.3411,"temp":25.1,"humidity":89,"rain":0.2,"pressure":974.6,"uv_index":8.9,"wind_gusts":46.1,"aqi":54,"pm10":25.9,"pm2_5":16.7,"no2":18.1,"co":177.0,"o3":51.0,"so2":4.2,"mosquito_risk":10,"arthritis_risk":5,"migraine_risk":7,"frizz_risk":1,"updated_at":"2026-07-24T20:27:34.899340+05:30"},{"city":"Alappuzha","state":"Kerala","latitude":9.4981,"longitude":76.3388,"temp":27.6,"humidity":87,"rain":0.0,"pressure":1009.4,"uv_index":8.65,"wind_gusts":31.7,"aqi":56,"pm10":15.2,"pm2_5":10.9,"no2":10.8,"co":91.0,"o3":43.0,"so2":3.6,"mosquito_risk":7,"arthritis_risk":0,"migraine_risk":4,"frizz_risk":1,"updated_at":"2026-07-24T20:27:34.899347+05:30"},{"city":"Munnar","state":"Kerala","latitude":10.0889,"longitude":77.0595,"temp":17.0,"humidity":98,"rain":0.0,"pressure":856.9,"uv_index":9.05,"wind_gusts":36.0,"aqi":33,"pm10":11.4,"pm2_5":7.8,"no2":7.3,"co":120.0,"o3":43.0,"so2":1.9,"mosquito_risk":3,"arthritis_risk":10,"migraine_risk":7,"frizz_risk":1,"updated_at":"2026-07-24T20:27:34.899355+05:30"},{"city":"Silchar","state":"Assam","latitude":24.8333,"longitude":92.7789,"temp":27.1,"humidity":93,"rain":0.0,"pressure":1001.6,"uv_index":8.75,"wind_gusts":20.9,"aqi":55,"pm10":18.3,"pm2_5":16.7,"no2":7.0,"co":400.0,"o3":73.0,"so2":5.4,"mosquito_risk":7,"arthritis_risk":5,"migraine_risk":4,"frizz_risk":1,"updated_at":"2026-07-24T20:27:34.899363+05:30"},{"city":"Dibrugarh","state":"Assam","latitude":27.4728,"longitude":94.912,"temp":28.9,"humidity":85,"rain":0.0,"pressure":991.0,"uv_index":8.4,"wind_gusts":21.2,"aqi":55,"pm10":25.6,"pm2_5":24.7,"no2":12.1,"co":268.0,"o3":67.0,"so2":2.7,"mosquito_risk":7,"arthritis_risk":5,"migraine_risk":7,"frizz_risk":1,"updated_at":"2026-07-24T20:27:34.899369+05:30"}]