[{"city":"Delhi","state":"Delhi","latitude":28.6139,"longitude":77.209,"temp":31.6,"humidity":50,"rain":0.0,"pressure":977.5,"uv_index":7.65,"wind_gusts":29.2,"aqi":183,"pm10":273.8,"pm2_5":101.3,"no2":37.3,"co":783.0,"o3":95.0,"so2":31.7,"mosquito_risk":0,"arthritis_risk":5,"migraine_risk":7,"frizz_risk":1,"updated_at":"2026-05-13T21:51:11.793961+05:30"},{"city":"Mumbai","state":"Maharashtra","latitude":19.076,"longitude":72.8777,"temp":29.5,"humidity":80,"rain":0.0,"pressure":1005.2,"uv_index":7.85,"wind_gusts":40.7,"aqi":74,"pm10":34.8,"pm2_5":18.2,"no2":9.1,"co":271.0,"o3":71.0,"so2":5.6,"mosquito_risk":7,"arthritis_risk":5,"migraine_risk":4,"frizz_risk":1,"updated_at":"2026-05-13T21:51:11.794009+05:30"},{"city":"Bangalore","state":"Karnataka","latitude":12.9716,"longitude":77.5946,"temp":28.8,"humidity":40,"rain":0.0,"pressure":909.9,"uv_index":9.45,"wind_gusts":37.1,"aqi":81,"pm10":34.6,"pm2_5":29.6,"no2":58.6,"co":508.0,"o3":39.0,"so2":12.4,"mosquito_risk":4,"arthritis_risk":5,"migraine_risk":7,"frizz_risk":0,"updated_at":"2026-05-13T21:51:11.794028+05:30"},{"city":"Hyderabad","state":"Telangana","latitude":17.385,"longitude":78.4867,"temp":33.3,"humidity":38,"rain":0.0,"pressure":950.8,"uv_index":8.7,"wind_gusts":25.9,"aqi":99,"pm10":46.9,"pm2_5":32.9,"no2":25.0,"co":404.0,"o3":80.0,"so2":9.2,"mosquito_risk":0,"arthritis_risk":5,"migraine_risk":7,"frizz_risk":1,"updated_at":"2026-05-13T21:51:11.794040+05:30"},{"city":"Chennai","state":"Tamil Nadu","latitude":13.0827,"longitude":80.2707,"temp":30.0,"humidity":76,"rain":0.0,"pressure":1003.7,"uv_index":9.1,"wind_gusts":47.2,"aqi":25,"pm10":8.7,"pm2_5":5.8,"no2":5.6,"co":160.0,"o3":41.0,"so2":4.5,"mosquito_risk":7,"arthritis_risk":5,"migraine_risk":4,"frizz_risk":1,"updated_at":"2026-05-13T21:51:11.794050+05:30"},{"city":"Kolkata","state":"West Bengal","latitude":22.5726,"longitude":88.3639,"temp":26.7,"humidity":92,"rain":0.0,"pressure":1003.9,"uv_index":8.95,"wind_gusts":46.1,"aqi":63,"pm10":12.4,"pm2_5":10.6,"no2":7.7,"co":272.0,"o3":32.0,"so2":5.0,"mosquito_risk":7,"arthritis_risk":5,"migraine_risk":4,"frizz_risk":1,"updated_at":"2026-05-13T21:51:11.794060+05:30"},{"city":"Pune","state":"Maharashtra","latitude":18.5204,"longitude":73.8567,"temp":28.4,"humidity":67,"rain":0.0,"pressure":945.5,"uv_index":8.5,"wind_gusts":49.3,"aqi":107,"pm10":47.1,"pm2_5":26.5,"no2":11.5,"co":276.0,"o3":97.0,"so2":14.1,"mosquito_risk":7,"arthritis_risk":5,"migraine_risk":7,"frizz_risk":1,"updated_at":"2026-05-13T21:51:11.794068+05:30"},{"city":"Ahmedabad","state":"Gujarat","latitude":23.0225,"longitude":72.5714,"temp":33.7,"humidity":45,"rain":0.0,"pressure":996.8,"uv_index":8.15,"wind_gusts":36.7,"aqi":82,"pm10":54.2,"pm2_5":26.8,"no2":10.1,"co":306.0,"o3":85.0,"so2":5.5,"mosquito_risk":0,"arthritis_risk":5,"migraine_risk":7,"frizz_risk":1,"updated_at":"2026-05-13T21:51:11.794080+05:30"},{"city":"Jaipur","state":"Rajasthan","latitude":26.9124,"longitude":75.7873,"temp":34.8,"humidity":21,"rain":0.0,"pressure":955.1,"uv_index":8.25,"wind_gusts":49.3,"aqi":141,"pm10":109.4,"pm2_5":40.7,"no2":26.6,"co":286.0,"o3":51.0,"so2":9.9,"mosquito_risk":0,"arthritis_risk":5,"migraine_risk":7,"frizz_risk":0,"updated_at":"2026-05-13T21:51:11.794088+05:30"},{"city":"Lucknow","state":"Uttar Pradesh","latitude":26.8467,"longitude":80.9462,"temp":32.6,"humidity":50,"rain":0.0,"pressure":988.4,"uv_index":8.15,"wind_gusts":29.9,"aqi":154,"pm10":129.9,"pm2_5":78.0,"no2":24.6,"co":471.0,"o3":84.0,"so2":16.2,"mosquito_risk":0,"arthritis_risk":5,"migraine_risk":7,"frizz_risk":1,"updated_at":"2026-05-13T21:51:11.794097+05:30"},{"city":"Kanpur","state":"Uttar Pradesh","latitude":26.4499,"longitude":80.3319,"temp":33.5,"humidity":47,"rain":0.0,"pressure":986.6,"uv_index":8.2,"wind_gusts":35.3,"aqi":159,"pm10":159.3,"pm2_5":76.1,"no2":25.6,"co":467.0,"o3":72.0,"so2":15.0,"mosquito_risk":0,"arthritis_risk":5,"migraine_risk":7,"frizz_risk":1,"updated_at":"2026-05-13T21:51:11.794105+05:30"},{"city":"Chandigarh","state":"Chandigarh","latitude":30.7333,"longitude":76.7794,"temp":26.6,"humidity":38,"rain":0.0,"pressure":963.1,"uv_index":7.7,"wind_gusts":37.1,"aqi":139,"pm10":108.7,"pm2_5":56.9,"no2":30.2,"co":847.0,"o3":105.0,"so2":19.0,"mosquito_risk":4,"arthritis_risk":5,"migraine_risk":7,"frizz_risk":0,"updated_at":"2026-05-13T21:51:11.794113+05:30"},{"city":"Srinagar","state":"Jammu and Kashmir","latitude":34.0837,"longitude":74.7973,"temp":14.8,"humidity":77,"rain":0.0,"pressure":841.4,"uv_index":8.75,"wind_gusts":32.8,"aqi":62,"pm10":26.4,"pm2_5":24.0,"no2":25.4,"co":743.0,"o3":46.0,"so2":2.4,"mosquito_risk":3,"arthritis_risk":5,"migraine_risk":7,"frizz_risk":0,"updated_at":"2026-05-13T21:51:11.794122+05:30"},{"city":"Jammu","state":"Jammu and Kashmir","latitude":32.7266,"longitude":74.857,"temp":24.6,"humidity":50,"rain":0.0,"pressure":967.8,"uv_index":8.45,"wind_gusts":37.4,"aqi":87,"pm10":41.9,"pm2_5":30.5,"no2":35.9,"co":561.0,"o3":57.0,"so2":5.6,"mosquito_risk":0,"arthritis_risk":5,"migraine_risk":7,"frizz_risk":0,"updated_at":"2026-05-13T21:51:11.794131+05:30"},{"city":"Amritsar","state":"Punjab","latitude":31.634,"longitude":74.8723,"temp":27.8,"humidity":50,"rain":0.0,"pressure":975.9,"uv_index":8.35,"wind_gusts":34.9,"aqi":153,"pm10":73.6,"pm2_5":48.9,"no2":15.4,"co":624.0,"o3":89.0,"so2":7.6,"mosquito_risk":4,"arthritis_risk":5,"migraine_risk":7,"frizz_risk":1,"updated_at":"2026-05-13T21:51:11.794139+05:30"},{"city":"Ludhiana","state":"Punjab","latitude":30.901,"longitude":75.8573,"temp":29.0,"humidity":44,"rain":0.0,"pressure":973.6,"uv_index":7.95,"wind_gusts":38.2,"aqi":160,"pm10":92.4,"pm2_5":62.9,"no2":27.5,"co":921.0,"o3":79.0,"so2":11.7,"mosquito_risk":4,"arthritis_risk":5,"migraine_risk":7,"frizz_risk":0,"updated_at":"2026-05-13T21:51:11.794147+05:30"},{"city":"Jalandhar","state":"Punjab","latitude":31.326,"longitude":75.5762,"temp":27.8,"humidity":51,"rain":0.0,"pressure":974.6,"uv_index":8.1,"wind_gusts":45.4,"aqi":147,"pm10":83.4,"pm2_5":44.0,"no2":19.2,"co":1228.0,"o3":82.0,"so2":6.8,"mosquito_risk":4,"arthritis_risk":5,"migraine_risk":7,"frizz_risk":1,"updated_at":"2026-05-13T21:51:11.794155+05:30"},{"city":"Dehradun","state":"Uttarakhand","latitude":30.6284,"longitude":78.0322,"temp":14.9,"humidity":64,"rain":0.0,"pressure":826.0,"uv_index":8.1,"wind_gusts":36.0,"aqi":105,"pm10":47.4,"pm2_5":32.9,"no2":31.6,"co":346.0,"o3":86.0,"so2":5.3,"mosquito_risk":3,"arthritis_risk":5,"migraine_risk":7,"frizz_risk":0,"updated_at":"2026-05-13T21:51:11.794165+05:30"},{"city":"Shimla","state":"Himachal Pradesh","latitude":31.1048,"longitude":77.1734,"temp":12.6,"humidity":53,"rain":0.0,"pressure":780.4,"uv_index":8.2,"wind_gusts":45.7,"aqi":125,"pm10":38.8,"pm2_5":24.0,"no2":15.5,"co":439.0,"o3":112.0,"so2":7.7,"mosquito_risk":0,"arthritis_risk":5,"migraine_risk":7,"frizz_risk":0,"updated_at":"2026-05-13T21:51:11.794174+05:30"},{"city":"Manali","state":"Himachal Pradesh","latitude":32.2396,"longitude":77.1887,"temp":9.0,"humidity":74,"rain":0.1,"pressure":813.9,"uv_index":10.0,"wind_gusts":46.4,"aqi":101,"pm10":11.1,"pm2_5":8.1,"no2":43.2,"co":245.0,"o3":88.0,"so2":0.4,"mosquito_risk":6,"arthritis_risk":5,"migraine_risk":7,"frizz_risk":0,"updated_at":"2026-05-13T21:51:11.794181+05:30"},{"city":"Gurgaon","state":"Haryana","latitude":28.4595,"longitude":77.0266,"temp":30.4,"humidity":47,"rain":0.0,"pressure":975.9,"uv_index":7.75,"wind_gusts":33.8,"aqi":649,"pm10":1110.1,"pm2_5":213.3,"no2":41.2,"co":862.0,"o3":107.0,"so2":37.7,"mosquito_risk":0,"arthritis_risk":5,"migraine_risk":7,"frizz_risk":1,"updated_at":"2026-05-13T21:51:11.794188+05:30"},{"city":"Noida","state":"Uttar Pradesh","latitude":28.5355,"longitude":77.391,"temp":28.2,"humidity":67,"rain":0.0,"pressure":978.7,"uv_index":7.7,"wind_gusts":27.0,"aqi":649,"pm10":1110.1,"pm2_5":213.3,"no2":41.2,"co":1046.0,"o3":107.0,"so2":37.7,"mosquito_risk":7,"arthritis_risk":5,"migraine_risk":7,"frizz_risk":1,"updated_at":"2026-05-13T21:51:11.794196+05:30"},{"city":"Ghaziabad","state":"Uttar Pradesh","latitude":28.6692,"longitude":77.4538,"temp":28.8,"humidity":65,"rain":0.0,"pressure":977.0,"uv_index":7.7,"wind_gusts":28.1,"aqi":161,"pm10":208.6,"pm2_5":90.8,"no2":25.0,"co":592.0,"o3":85.0,"so2":20.0,"mosquito_risk":7,"arthritis_risk":5,"migraine_risk":7,"frizz_risk":1,"updated_at":"2026-05-13T21:51:11.794203+05:30"},{"city":"Faridabad","state":"Haryana","latitude":28.4089,"longitude":77.3178,"temp":30.6,"humidity":52,"rain":0.0,"pressure":978.2,"uv_index":7.75,"wind_gusts":28.4,"aqi":649,"pm10":1110.1,"pm2_5":213.3,"no2":41.2,"co":780.0,"o3":107.0,"so2":37.7,"mosquito_risk":0,"arthritis_risk":5,"migraine_risk":7,"frizz_risk":1,"updated_at":"2026-05-13T21:51:11.794210+05:30"},{"city":"Meerut","state":"Uttar Pradesh","latitude":28.9845,"longitude":77.7064,"temp":29.8,"humidity":58,"rain":0.0,"pressure":976.1,"uv_index":7.6,"wind_gusts":33.5,"aqi":161,"pm10":208.6,"pm2_5":90.8,"no2":25.0,"co":585.0,"o3":85.0,"so2":20.0,"mosquito_risk":4,"arthritis_risk":5,"migraine_risk":7,"frizz_risk":1,"updated_at":"2026-05-13T21:51:11.794217+05:30"},{"city":"Agra","state":"Uttar Pradesh","latitude":27.1767,"longitude":78.0081,"temp":32.0,"humidity":45,"rain":0.0,"pressure":982.3,"uv_index":8.05,"wind_gusts":29.5,"aqi":555,"pm10":909.0,"pm2_5":153.7,"no2":20.1,"co":454.0,"o3":88.0,"so2":16.0,"mosquito_risk":0,"arthritis_risk":5,"migraine_risk":7,"frizz_risk":1,"updated_at":"2026-05-13T21:51:11.794225+05:30"},{"city":"Varanasi","state":"Uttar Pradesh","latitude":25.3176,"longitude":82.9739,"temp":31.9,"humidity":51,"rain":0.0,"pressure":992.5,"uv_index":8.7,"wind_gusts":39.2,"aqi":155,"pm10":114.1,"pm2_5":87.1,"no2":36.5,"co":579.0,"o3":85.0,"so2":21.9,"mosquito_risk":0,"arthritis_risk":5,"migraine_risk":7,"frizz_risk":1,"updated_at":"2026-05-13T21:51:11.794232+05:30"},{"city":"Prayagraj","state":"Uttar Pradesh","latitude":25.4358,"longitude":81.8463,"temp":32.5,"humidity":48,"rain":0.0,"pressure":990.7,"uv_index":8.55,"wind_gusts":47.5,"aqi":154,"pm10":118.0,"pm2_5":81.7,"no2":36.2,"co":433.0,"o3":71.0,"so2":20.3,"mosquito_risk":0,"arthritis_risk":5,"migraine_risk":7,"frizz_risk":1,"updated_at":"2026-05-13T21:51:11.794242+05:30"},{"city":"Gorakhpur","state":"Uttar Pradesh","latitude":26.7606,"longitude":83.3732,"temp":29.0,"humidity":67,"rain":0.0,"pressure":992.6,"uv_index":8.5,"wind_gusts":38.2,"aqi":136,"pm10":65.0,"pm2_5":55.6,"no2":17.5,"co":431.0,"o3":96.0,"so2":12.2,"mosquito_risk":7,"arthritis_risk":5,"migraine_risk":7,"frizz_risk":1,"updated_at":"2026-05-13T21:51:11.794249+05:30"},{"city":"Bareilly","state":"Uttar Pradesh","latitude":28.367,"longitude":79.4304,"temp":28.0,"humidity":67,"rain":0.0,"pressure":981.3,"uv_index":7.95,"wind_gusts":28.1,"aqi":152,"pm10":150.9,"pm2_5":83.8,"no2":24.3,"co":476.0,"o3":102.0,"so2":21.2,"mosquito_risk":7,"arthritis_risk":5,"migraine_risk":7,"frizz_risk":1,"updated_at":"2026-05-13T21:51:11.794256+05:30"},{"city":"Aligarh","state":"Uttar Pradesh","latitude":27.8974,"longitude":78.088,"temp":29.3,"humidity":58,"rain":0.0,"pressure":979.8,"uv_index":7.85,"wind_gusts":26.3,"aqi":296,"pm10":358.6,"pm2_5":98.0,"no2":17.8,"co":514.0,"o3":99.0,"so2":15.1,"mosquito_risk":4,"arthritis_risk":5,"migraine_risk":7,"frizz_risk":1,"updated_at":"2026-05-13T21:51:11.794264+05:30"},{"city":"Moradabad","state":"Uttar Pradesh","latitude":28.8386,"longitude":78.7733,"temp":28.7,"humidity":68,"rain":0.0,"pressure":978.4,"uv_index":7.8,"wind_gusts":27.0,"aqi":153,"pm10":185.3,"pm2_5":95.5,"no2":32.0,"co":604.0,"o3":73.0,"so2":18.4,"mosquito_risk":7,"arthritis_risk":5,"migraine_risk":7,"frizz_risk":1,"updated_at":"2026-05-13T21:51:11.794271+05:30"},{"city":"Saharanpur","state":"Uttar Pradesh","latitude":29.9637,"longitude":77.546,"temp":27.5,"humidity":53,"rain":0.0,"pressure":970.2,"uv_index":7.4,"wind_gusts":31.0,"aqi":162,"pm10":135.0,"pm2_5":85.0,"no2":30.4,"co":594.0,"o3":105.0,"so2":23.0,"mosquito_risk":4,"arthritis_risk":5,"migraine_risk":7,"frizz_risk":1,"updated_at":"2026-05-13T21:51:11.794278+05:30"},{"city":"Jhansi","state":"Uttar Pradesh","latitude":25.4484,"longitude":78.5685,"temp":31.9,"humidity":40,"rain":0.0,"pressure":972.4,"uv_index":8.45,"wind_gusts":50.4,"aqi":110,"pm10":107.8,"pm2_5":41.9,"no2":10.4,"co":307.0,"o3":78.0,"so2":7.0,"mosquito_risk":0,"arthritis_risk":5,"migraine_risk":7,"frizz_risk":1,"updated_at":"2026-05-13T21:51:15.043340+05:30"},{"city":"Surat","state":"Gujarat","latitude":21.1702,"longitude":72.8311,"temp":30.0,"humidity":78,"rain":0.0,"pressure":1002.2,"uv_index":7.25,"wind_gusts":43.9,"aqi":86,"pm10":28.2,"pm2_5":21.9,"no2":28.7,"co":354.0,"o3":52.0,"so2":46.3,"mosquito_risk":7,"arthritis_risk":5,"migraine_risk":4,"frizz_risk":1,"updated_at":"2026-05-13T21:51:15.043376+05:30"},{"city":"Vadodara","state":"Gujarat","latitude":22.3072,"longitude":73.1812,"temp":32.2,"humidity":56,"rain":0.0,"pressure":999.2,"uv_index":8.1,"wind_gusts":39.2,"aqi":96,"pm10":46.6,"pm2_5":29.3,"no2":23.4,"co":406.0,"o3":78.0,"so2":29.6,"mosquito_risk":0,"arthritis_risk":5,"migraine_risk":7,"frizz_risk":1,"updated_at":"2026-05-13T21:51:15.043387+05:30"},{"city":"Rajkot","state":"Gujarat","latitude":22.3039,"longitude":70.8022,"temp":31.0,"humidity":47,"rain":0.0,"pressure":989.7,"uv_index":7.75,"wind_gusts":50.8,"aqi":60,"pm10":16.4,"pm2_5":11.7,"no2":6.5,"co":172.0,"o3":75.0,"so2":6.0,"mosquito_risk":0,"arthritis_risk":5,"migraine_risk":7,"frizz_risk":1,"updated_at":"2026-05-13T21:51:15.043395+05:30"},{"city":"Thane","state":"Maharashtra","latitude":19.2183,"longitude":72.9781,"temp":29.6,"humidity":77,"rain":0.0,"pressure":1004.6,"uv_index":7.9,"wind_gusts":37.1,"aqi":74,"pm10":34.8,"pm2_5":18.2,"no2":9.1,"co":232.0,"o3":71.0,"so2":5.6,"mosquito_risk":7,"arthritis_risk":5,"migraine_risk":4,"frizz_risk":1,"updated_at":"2026-05-13T21:51:15.043404+05:30"},{"city":"Nagpur","state":"Maharashtra","latitude":21.1458,"longitude":79.0882,"temp":35.8,"humidity":31,"rain":0.0,"pressure":968.4,"uv_index":8.95,"wind_gusts":40.3,"aqi":105,"pm10":79.4,"pm2_5":45.4,"no2":38.0,"co":390.0,"o3":68.0,"so2":23.1,"mosquito_risk":0,"arthritis_risk":5,"migraine_risk":10,"frizz_risk":0,"updated_at":"2026-05-13T21:51:15.043413+05:30"},{"city":"Nashik","state":"Maharashtra","latitude":19.9975,"longitude":73.7898,"temp":29.1,"humidity":60,"rain":0.0,"pressure":942.7,"uv_index":8.25,"wind_gusts":42.5,"aqi":70,"pm10":35.9,"pm2_5":19.1,"no2":5.5,"co":203.0,"o3":78.0,"so2":1.7,"mosquito_risk":4,"arthritis_risk":5,"migraine_risk":7,"frizz_risk":1,"updated_at":"2026-05-13T21:51:15.043421+05:30"},{"city":"Aurangabad","state":"Maharashtra","latitude":19.8762,"longitude":75.3433,"temp":34.5,"humidity":26,"rain":0.0,"pressure":941.0,"uv_index":8.85,"wind_gusts":40.3,"aqi":106,"pm10":25.9,"pm2_5":19.3,"no2":5.1,"co":279.0,"o3":117.0,"so2":6.0,"mosquito_risk":0,"arthritis_risk":5,"migraine_risk":7,"frizz_risk":0,"updated_at":"2026-05-13T21:51:15.043429+05:30"},{"city":"Solapur","state":"Maharashtra","latitude":17.6599,"longitude":75.9064,"temp":33.8,"humidity":36,"rain":0.0,"pressure":954.0,"uv_index":9.1,"wind_gusts":39.2,"aqi":113,"pm10":71.0,"pm2_5":45.3,"no2":22.7,"co":413.0,"o3":85.0,"so2":7.8,"mosquito_risk":0,"arthritis_risk":5,"migraine_risk":7,"frizz_risk":1,"updated_at":"2026-05-13T21:51:15.043436+05:30"},{"city":"Kolhapur","state":"Maharashtra","latitude":16.705,"longitude":74.2433,"temp":26.8,"humidity":79,"rain":0.0,"pressure":945.4,"uv_index":8.9,"wind_gusts":50.0,"aqi":73,"pm10":32.2,"pm2_5":21.2,"no2":12.4,"co":215.0,"o3":74.0,"so2":4.8,"mosquito_risk":7,"arthritis_risk":5,"migraine_risk":7,"frizz_risk":1,"updated_at":"2026-05-13T21:51:15.043444+05:30"},{"city":"Goa","state":"Goa","latitude":15.2993,"longitude":74.124,"temp":29.1,"humidity":83,"rain":0.0,"pressure":994.9,"uv_index":8.9,"wind_gusts":28.1,"aqi":68,"pm10":52.7,"pm2_5":23.6,"no2":4.4,"co":203.0,"o3":65.0,"so2":1.6,"mosquito_risk":7,"arthritis_risk":5,"migraine_risk":7,"frizz_risk":1,"updated_at":"2026-05-13T21:51:15.043451+05:30"},{"city":"Jodhpur","state":"Rajasthan","latitude":26.2389,"longitude":73.0243,"temp":36.4,"humidity":22,"rain":0.0,"pressure":976.8,"uv_index":8.4,"wind_gusts":36.0,"aqi":105,"pm10":190.0,"pm2_5":44.1,"no2":13.8,"co":231.0,"o3":83.0,"so2":3.7,"mosquito_risk":0,"arthritis_risk":5,"migraine_risk":10,"frizz_risk":0,"updated_at":"2026-05-13T21:51:15.043459+05:30"},{"city":"Udaipur","state":"Rajasthan","latitude":24.5854,"longitude":73.7125,"temp":33.7,"humidity":23,"rain":0.0,"pressure":942.7,"uv_index":8.85,"wind_gusts":43.6,"aqi":82,"pm10":44.7,"pm2_5":23.6,"no2":5.8,"co":234.0,"o3":102.0,"so2":4.8,"mosquito_risk":0,"arthritis_risk":5,"migraine_risk":7,"frizz_risk":0,"updated_at":"2026-05-13T21:51:15.043467+05:30"},{"city":"Kota","state":"Rajasthan","latitude":25.2138,"longitude":75.8648,"temp":36.2,"humidity":19,"rain":0.0,"pressure":973.6,"uv_index":8.4,"wind_gusts":40.0,"aqi":72,"pm10":37.4,"pm2_5":23.1,"no2":11.4,"co":276.0,"o3":78.0,"so2":4.4,"mosquito_risk":0,"arthritis_risk":5,"migraine_risk":10,"frizz_risk":0,"updated_at":"2026-05-13T21:51:15.043474+05:30"},{"city":"Bikaner","state":"Rajasthan","latitude":28.0229,"longitude":73.3119,"temp":35.3,"humidity":25,"rain":0.0,"pressure":976.0,"uv_index":8.35,"wind_gusts":28.8,"aqi":107,"pm10":105.5,"pm2_5":30.6,"no2":5.8,"co":333.0,"o3":76.0,"so2":4.2,"mosquito_risk":0,"arthritis_risk":5,"migraine_risk":10,"frizz_risk":0,"updated_at":"2026-05-13T21:51:15.043481+05:30"},{"city":"Ajmer","state":"Rajasthan","latitude":26.4499,"longitude":74.6399,"temp":33.5,"humidity":22,"rain":0.0,"pressure":950.1,"uv_index":8.35,"wind_gusts":47.9,"aqi":72,"pm10":46.3,"pm2_5":21.7,"no2":7.5,"co":219.0,"o3":91.0,"so2":4.8,"mosquito_risk":0,"arthritis_risk":5,"migraine_risk":7,"frizz_risk":0,"updated_at":"2026-05-13T21:51:15.043488+05:30"},{"city":"Gwalior","state":"Madhya Pradesh","latitude":26.2183,"longitude":78.1828,"temp":33.5,"humidity":42,"rain":0.0,"pressure":977.6,"uv_index":8.25,"wind_gusts":38.5,"aqi":138,"pm10":125.7,"pm2_5":49.7,"no2":12.8,"co":390.0,"o3":76.0,"so2":7.9,"mosquito_risk":0,"arthritis_risk":5,"migraine_risk":7,"frizz_risk":1,"updated_at":"2026-05-13T21:51:15.043495+05:30"},{"city":"Indore","state":"Madhya Pradesh","latitude":22.7196,"longitude":75.8577,"temp":35.0,"humidity":24,"rain":0.0,"pressure":944.4,"uv_index":8.7,"wind_gusts":40.0,"aqi":82,"pm10":50.3,"pm2_5":35.2,"no2":22.9,"co":378.0,"o3":75.0,"so2":10.4,"mosquito_risk":0,"arthritis_risk":5,"migraine_risk":7,"frizz_risk":0,"updated_at":"2026-05-13T21:51:15.043502+05:30"},{"city":"Bhopal","state":"Madhya Pradesh","latitude":23.2599,"longitude":77.4126,"temp":35.7,"humidity":18,"rain":0.0,"pressure":949.2,"uv_index":8.75,"wind_gusts":43.2,"aqi":90,"pm10":35.9,"pm2_5":21.9,"no2":9.3,"co":234.0,"o3":76.0,"so2":5.3,"mosquito_risk":0,"arthritis_risk":5,"migraine_risk":10,"frizz_risk":0,"updated_at":"2026-05-13T21:51:15.043509+05:30"},{"city":"Jabalpur","state":"Madhya Pradesh","latitude":23.1815,"longitude":79.9864,"temp":34.3,"humidity":21,"rain":0.0,"pressure":956.9,"uv_index":8.9,"wind_gusts":37.1,"aqi":95,"pm10":81.5,"pm2_5":37.3,"no2":25.3,"co":224.0,"o3":70.0,"so2":8.1,"mosquito_risk":0,"arthritis_risk":5,"migraine_risk":7,"frizz_risk":0,"updated_at":"2026-05-13T21:51:15.043516+05:30"},{"city":"Ujjain","state":"Madhya Pradesh","latitude":23.1765,"longitude":75.7885,"temp":34.3,"humidity":26,"rain":0.0,"pressure":949.8,"uv_index":8.65,"wind_gusts":36.7,"aqi":82,"pm10":27.7,"pm2_5":19.8,"no2":4.9,"co":283.0,"o3":99.0,"so2":4.9,"mosquito_risk":0,"arthritis_risk":5,"migraine_risk":7,"frizz_risk":0,"updated_at":"2026-05-13T21:51:15.043523+05:30"},{"city":"Visakhapatnam","state":"Andhra Pradesh","latitude":17.6868,"longitude":83.2185,"temp":29.1,"humidity":76,"rain":0.0,"pressure":1002.1,"uv_index":9.15,"wind_gusts":40.0,"aqi":75,"pm10":18.3,"pm2_5":16.1,"no2":19.7,"co":756.0,"o3":24.0,"so2":58.4,"mosquito_risk":7,"arthritis_risk":5,"migraine_risk":4,"frizz_risk":1,"updated_at":"2026-05-13T21:51:15.043530+05:30"},{"city":"Vijayawada","state":"Andhra Pradesh","latitude":16.5062,"longitude":80.648,"temp":30.1,"humidity":72,"rain":0.0,"pressure":999.7,"uv_index":9.2,"wind_gusts":37.4,"aqi":53,"pm10":9.6,"pm2_5":7.7,"no2":7.0,"co":142.0,"o3":32.0,"so2":6.1,"mosquito_risk":3,"arthritis_risk":5,"migraine_risk":7,"frizz_risk":1,"updated_at":"2026-05-13T21:51:15.043537+05:30"},{"city":"Guntur","state":"Andhra Pradesh","latitude":16.3067,"longitude":80.4365,"temp":30.3,"humidity":71,"rain":0.0,"pressure":1000.9,"uv_index":9.25,"wind_gusts":36.4,"aqi":54,"pm10":10.2,"pm2_5":8.3,"no2":6.9,"co":151.0,"o3":34.0,"so2":6.0,"mosquito_risk":3,"arthritis_risk":5,"migraine_risk":4,"frizz_risk":1,"updated_at":"2026-05-13T21:51:15.043544+05:30"},{"city":"Nellore","state":"Andhra Pradesh","latitude":14.4426,"longitude":79.9865,"temp":29.2,"humidity":79,"rain":0.0,"pressure":1002.8,"uv_index":9.15,"wind_gusts":38.5,"aqi":26,"pm10":9.2,"pm2_5":6.0,"no2":3.4,"co":170.0,"o3":41.0,"so2":1.9,"mosquito_risk":7,"arthritis_risk":5,"migraine_risk":4,"frizz_risk":1,"updated_at":"2026-05-13T21:51:15.043551+05:30"},{"city":"Kurnool","state":"Andhra Pradesh","latitude":15.8281,"longitude":78.0373,"temp":34.2,"humidity":37,"rain":0.0,"pressure":973.5,"uv_index":9.2,"wind_gusts":33.8,"aqi":71,"pm10":41.4,"pm2_5":26.8,"no2":13.3,"co":268.0,"o3":77.0,"so2":4.3,"mosquito_risk":0,"arthritis_risk":5,"migraine_risk":7,"frizz_risk":1,"updated_at":"2026-05-13T21:51:15.043559+05:30"},{"city":"Kakinada","state":"Andhra Pradesh","latitude":16.9891,"longitude":82.2475,"temp":29.1,"humidity":77,"rain":0.0,"pressure":1005.0,"uv_index":9.15,"wind_gusts":37.8,"aqi":32,"pm10":7.0,"pm2_5":4.3,"no2":1.3,"co":155.0,"o3":48.0,"so2":0.8,"mosquito_risk":7,"arthritis_risk":5,"migraine_risk":4,"frizz_risk":1,"updated_at":"2026-05-13T21:51:15.043566+05:30"},{"city":"Tirupati","state":"Andhra Pradesh","latitude":13.6288,"longitude":79.4192,"temp":29.0,"humidity":62,"rain":0.0,"pressure":988.5,"uv_index":9.25,"wind_gusts":37.8,"aqi":51,"pm10":11.6,"pm2_5":9.4,"no2":12.7,"co":165.0,"o3":27.0,"so2":2.1,"mosquito_risk":7,"arthritis_risk":5,"migraine_risk":7,"frizz_risk":1,"updated_at":"2026-05-13T21:51:15.043573+05:30"},{"city":"Warangal","state":"Telangana","latitude":17.9689,"longitude":79.5941,"temp":32.3,"humidity":48,"rain":0.0,"pressure":975.5,"uv_index":9.2,"wind_gusts":41.4,"aqi":83,"pm10":43.9,"pm2_5":34.6,"no2":17.3,"co":438.0,"o3":85.0,"so2":7.6,"mosquito_risk":0,"arthritis_risk":5,"migraine_risk":7,"frizz_risk":1,"updated_at":"2026-05-13T21:51:15.043580+05:30"},{"city":"Nizamabad","state":"Telangana","latitude":18.6725,"longitude":78.0941,"temp":34.0,"humidity":35,"rain":0.0,"pressure":961.3,"uv_index":9.15,"wind_gusts":33.8,"aqi":89,"pm10":63.1,"pm2_5":39.0,"no2":21.5,"co":414.0,"o3":77.0,"so2":7.4,"mosquito_risk":0,"arthritis_risk":5,"migraine_risk":7,"frizz_risk":1,"updated_at":"2026-05-13T21:51:15.043586+05:30"},{"city":"Mysore","state":"Karnataka","latitude":12.2958,"longitude":76.6396,"temp":24.5,"humidity":84,"rain":0.0,"pressure":925.9,"uv_index":9.25,"wind_gusts":31.0,"aqi":104,"pm10":44.1,"pm2_5":34.6,"no2":43.2,"co":307.0,"o3":67.0,"so2":7.3,"mosquito_risk":3,"arthritis_risk":5,"migraine_risk":7,"frizz_risk":1,"updated_at":"2026-05-13T21:51:15.043594+05:30"},{"city":"Mangalore","state":"Karnataka","latitude":12.9141,"longitude":74.856,"temp":26.9,"humidity":96,"rain":0.0,"pressure":1004.1,"uv_index":7.65,"wind_gusts":37.4,"aqi":78,"pm10":27.6,"pm2_5":18.2,"no2":12.7,"co":440.0,"o3":52.0,"so2":3.6,"mosquito_risk":7,"arthritis_risk":5,"migraine_risk":4,"frizz_risk":1,"updated_at":"2026-05-13T21:51:15.043601+05:30"},{"city":"Hubli-Dharwad","state":"Karnataka","latitude":15.3647,"longitude":75.124,"temp":26.1,"humidity":84,"rain":0.0,"pressure":938.8,"uv_index":8.75,"wind_gusts":42.5,"aqi":68,"pm10":20.8,"pm2_5":15.8,"no2":15.6,"co":197.0,"o3":54.0,"so2":2.7,"mosquito_risk":7,"arthritis_risk":5,"migraine_risk":7,"frizz_risk":1,"updated_at":"2026-05-13T21:51:15.043608+05:30"},{"city":"Belgaum","state":"Karnataka","latitude":15.8497,"longitude":74.4977,"temp":25.4,"humidity":81,"rain":0.0,"pressure":923.6,"uv_index":9.15,"wind_gusts":45.0,"aqi":60,"pm10":31.0,"pm2_5":18.9,"no2":11.2,"co":195.0,"o3":59.0,"so2":2.3,"mosquito_risk":7,"arthritis_risk":5,"migraine_risk":7,"frizz_risk":1,"updated_at":"2026-05-13T21:51:18.292936+05:30"},{"city":"Coimbatore","state":"Tamil Nadu","latitude":11.0168,"longitude":76.9558,"temp":26.0,"humidity":84,"rain":0.0,"pressure":958.9,"uv_index":9.2,"wind_gusts":39.6,"aqi":84,"pm10":18.6,"pm2_5":15.5,"no2":10.5,"co":271.0,"o3":80.0,"so2":4.2,"mosquito_risk":7,"arthritis_risk":5,"migraine_risk":7,"frizz_risk":1,"updated_at":"2026-05-13T21:51:18.292972+05:30"},{"city":"Madurai","state":"Tamil Nadu","latitude":9.9252,"longitude":78.1198,"temp":29.0,"humidity":75,"rain":0.0,"pressure":989.5,"uv_index":8.65,"wind_gusts":21.6,"aqi":76,"pm10":26.8,"pm2_5":24.1,"no2":24.2,"co":305.0,"o3":77.0,"so2":8.7,"mosquito_risk":7,"arthritis_risk":5,"migraine_risk":7,"frizz_risk":1,"updated_at":"2026-05-13T21:51:18.292984+05:30"},{"city":"Trichy","state":"Tamil Nadu","latitude":10.7905,"longitude":78.7047,"temp":28.9,"humidity":81,"rain":0.0,"pressure":995.9,"uv_index":9.0,"wind_gusts":33.1,"aqi":81,"pm10":27.4,"pm2_5":26.0,"no2":21.7,"co":312.0,"o3":70.0,"so2":10.9,"mosquito_risk":7,"arthritis_risk":5,"migraine_risk":7,"frizz_risk":1,"updated_at":"2026-05-13T21:51:18.292993+05:30"},{"city":"Salem","state":"Tamil Nadu","latitude":11.6643,"longitude":78.146,"temp":29.9,"humidity":56,"rain":0.0,"pressure":973.8,"uv_index":9.2,"wind_gusts":28.8,"aqi":132,"pm10":41.8,"pm2_5":35.5,"no2":34.3,"co":315.0,"o3":73.0,"so2":12.7,"mosquito_risk":4,"arthritis_risk":5,"migraine_risk":7,"frizz_risk":1,"updated_at":"2026-05-13T21:51:18.293001+05:30"},{"city":"Tirunelveli","state":"Tamil Nadu","latitude":8.7139,"longitude":77.7567,"temp":29.5,"humidity":66,"rain":0.0,"pressure":999.7,"uv_index":7.05,"wind_gusts":19.4,"aqi":60,"pm10":20.4,"pm2_5":16.2,"no2":7.8,"co":349.0,"o3":75.0,"so2":2.9,"mosquito_risk":7,"arthritis_risk":5,"migraine_risk":7,"frizz_risk":1,"updated_at":"2026-05-13T21:51:18.293009+05:30"},{"city":"Vellore","state":"Tamil Nadu","latitude":12.9165,"longitude":79.1325,"temp":28.1,"humidity":77,"rain":0.0,"pressure":981.8,"uv_index":9.15,"wind_gusts":33.1,"aqi":67,"pm10":20.1,"pm2_5":17.2,"no2":17.8,"co":235.0,"o3":58.0,"so2":10.5,"mosquito_risk":7,"arthritis_risk":5,"migraine_risk":7,"frizz_risk":1,"updated_at":"2026-05-13T21:51:18.293016+05:30"},{"city":"Erode","state":"Tamil Nadu","latitude":11.341,"longitude":77.7172,"temp":29.3,"humidity":67,"rain":0.0,"pressure":985.5,"uv_index":9.15,"wind_gusts":33.1,"aqi":124,"pm10":45.3,"pm2_5":37.5,"no2":43.9,"co":391.0,"o3":70.0,"so2":7.4,"mosquito_risk":7,"arthritis_risk":5,"migraine_risk":7,"frizz_risk":1,"updated_at":"2026-05-13T21:51:18.293024+05:30"},{"city":"Kochi","state":"Kerala","latitude":9.9312,"longitude":76.2673,"temp":26.4,"humidity":94,"rain":0.0,"pressure":1006.4,"uv_index":8.6,"wind_gusts":32.8,"aqi":78,"pm10":29.0,"pm2_5":26.0,"no2":25.5,"co":347.0,"o3":38.0,"so2":6.4,"mosquito_risk":7,"arthritis_risk":5,"migraine_risk":4,"frizz_risk":1,"updated_at":"2026-05-13T21:51:18.293032+05:30"},{"city":"Thiruvananthapuram","state":"Kerala","latitude":8.5241,"longitude":76.9366,"temp":26.8,"humidity":93,"rain":0.0,"pressure":1005.6,"uv_index":7.1,"wind_gusts":36.0,"aqi":55,"pm10":15.6,"pm2_5":9.3,"no2":3.1,"co":322.0,"o3":91.0,"so2":1.5,"mosquito_risk":7,"arthritis_risk":5,"migraine_risk":4,"frizz_risk":1,"updated_at":"2026-05-13T21:51:18.293039+05:30"},{"city":"Kozhikode","state":"Kerala","latitude":11.2588,"longitude":75.7804,"temp":26.0,"humidity":91,"rain":0.0,"pressure":1005.5,"uv_index":8.55,"wind_gusts":39.6,"aqi":64,"pm10":33.2,"pm2_5":19.0,"no2":3.7,"co":347.0,"o3":94.0,"so2":2.3,"mosquito_risk":7,"arthritis_risk":5,"migraine_risk":4,"frizz_risk":1,"updated_at":"2026-05-13T21:51:18.293046+05:30"},{"city":"Thrissur","state":"Kerala","latitude":10.5276,"longitude":76.2144,"temp":25.6,"humidity":99,"rain":0.0,"pressure":1004.8,"uv_index":8.7,"wind_gusts":35.3,"aqi":71,"pm10":35.2,"pm2_5":30.9,"no2":22.3,"co":564.0,"o3":41.0,"so2":5.6,"mosquito_risk":7,"arthritis_risk":5,"migraine_risk":4,"frizz_risk":1,"updated_at":"2026-05-13T21:51:18.293055+05:30"},{"city":"Kannur","state":"Kerala","latitude":11.8745,"longitude":75.3704,"temp":26.0,"humidity":98,"rain":0.0,"pressure":1004.5,"uv_index":8.9,"wind_gusts":36.0,"aqi":79,"pm10":35.5,"pm2_5":27.0,"no2":20.1,"co":269.0,"o3":53.0,"so2":3.9,"mosquito_risk":7,"arthritis_risk":5,"migraine_risk":4,"frizz_risk":1,"updated_at":"2026-05-13T21:51:18.293063+05:30"},{"city":"Patna","state":"Bihar","latitude":25.5941,"longitude":85.1376,"temp":28.0,"humidity":73,"rain":0.0,"pressure":996.5,"uv_index":8.75,"wind_gusts":30.2,"aqi":154,"pm10":70.3,"pm2_5":61.7,"no2":18.2,"co":438.0,"o3":109.0,"so2":20.3,"mosquito_risk":7,"arthritis_risk":5,"migraine_risk":7,"frizz_risk":1,"updated_at":"2026-05-13T21:51:18.293071+05:30"},{"city":"Gaya","state":"Bihar","latitude":24.7914,"longitude":85.0002,"temp":29.8,"humidity":62,"rain":0.0,"pressure":989.6,"uv_index":8.85,"wind_gusts":28.1,"aqi":165,"pm10":75.4,"pm2_5":67.5,"no2":14.5,"co":437.0,"o3":126.0,"so2":18.9,"mosquito_risk":7,"arthritis_risk":5,"migraine_risk":7,"frizz_risk":1,"updated_at":"2026-05-13T21:51:18.293078+05:30"},{"city":"Muzaffarpur","state":"Bihar","latitude":26.1209,"longitude":85.3647,"temp":26.4,"humidity":76,"rain":0.0,"pressure":997.1,"uv_index":8.75,"wind_gusts":33.8,"aqi":151,"pm10":68.0,"pm2_5":60.8,"no2":21.5,"co":438.0,"o3":95.0,"so2":19.0,"mosquito_risk":7,"arthritis_risk":5,"migraine_risk":7,"frizz_risk":1,"updated_at":"2026-05-13T21:51:18.293085+05:30"},{"city":"Bhagalpur","state":"Bihar","latitude":25.2425,"longitude":87.0117,"temp":26.5,"humidity":79,"rain":0.0,"pressure":998.4,"uv_index":8.75,"wind_gusts":38.2,"aqi":162,"pm10":40.0,"pm2_5":35.3,"no2":11.1,"co":333.0,"o3":114.0,"so2":15.5,"mosquito_risk":7,"arthritis_risk":5,"migraine_risk":7,"frizz_risk":1,"updated_at":"2026-05-13T21:51:18.293091+05:30"},{"city":"Ranchi","state":"Jharkhand","latitude":23.3441,"longitude":85.3096,"temp":25.2,"humidity":71,"rain":0.0,"pressure":934.5,"uv_index":9.25,"wind_gusts":35.3,"aqi":93,"pm10":44.8,"pm2_5":34.3,"no2":10.5,"co":306.0,"o3":111.0,"so2":13.5,"mosquito_risk":7,"arthritis_risk":5,"migraine_risk":7,"frizz_risk":1,"updated_at":"2026-05-13T21:51:18.293098+05:30"},{"city":"Jamshedpur","state":"Jharkhand","latitude":22.8046,"longitude":86.2029,"temp":28.1,"humidity":82,"rain":0.0,"pressure":987.5,"uv_index":9.15,"wind_gusts":29.5,"aqi":106,"pm10":50.3,"pm2_5":36.8,"no2":19.0,"co":390.0,"o3":91.0,"so2":22.7,"mosquito_risk":7,"arthritis_risk":5,"migraine_risk":7,"frizz_risk":1,"updated_at":"2026-05-13T21:51:18.293105+05:30"},{"city":"Dhanbad","state":"Jharkhand","latitude":23.7957,"longitude":86.4304,"temp":26.6,"humidity":83,"rain":0.0,"pressure":976.9,"uv_index":9.1,"wind_gusts":37.1,"aqi":150,"pm10":74.3,"pm2_5":61.2,"no2":51.7,"co":292.0,"o3":63.0,"so2":128.5,"mosquito_risk":7,"arthritis_risk":5,"migraine_risk":7,"frizz_risk":1,"updated_at":"2026-05-13T21:51:18.293112+05:30"},{"city":"Bokaro","state":"Jharkhand","latitude":23.6693,"longitude":86.1511,"temp":27.2,"humidity":78,"rain":0.0,"pressure":980.5,"uv_index":9.1,"wind_gusts":29.9,"aqi":151,"pm10":68.2,"pm2_5":54.7,"no2":38.4,"co":1571.0,"o3":81.0,"so2":105.1,"mosquito_risk":7,"arthritis_risk":5,"migraine_risk":7,"frizz_risk":1,"updated_at":"2026-05-13T21:51:18.293120+05:30"},{"city":"Bhubaneswar","state":"Odisha","latitude":20.2961,"longitude":85.8245,"temp":28.0,"humidity":82,"rain":0.0,"pressure":1001.1,"uv_index":9.0,"wind_gusts":41.0,"aqi":38,"pm10":10.1,"pm2_5":9.1,"no2":7.8,"co":212.0,"o3":31.0,"so2":3.1,"mosquito_risk":7,"arthritis_risk":5,"migraine_risk":4,"frizz_risk":1,"updated_at":"2026-05-13T21:51:18.293127+05:30"},{"city":"Cuttack","state":"Odisha","latitude":20.4625,"longitude":85.8828,"temp":28.2,"humidity":81,"rain":0.0,"pressure":1002.9,"uv_index":9.05,"wind_gusts":39.6,"aqi":38,"pm10":10.1,"pm2_5":9.1,"no2":7.8,"co":200.0,"o3":31.0,"so2":3.1,"mosquito_risk":7,"arthritis_risk":5,"migraine_risk":4,"frizz_risk":1,"updated_at":"2026-05-13T21:51:18.293134+05:30"},{"city":"Rourkela","state":"Odisha","latitude":22.2604,"longitude":84.8536,"temp":29.1,"humidity":73,"rain":0.0,"pressure":981.3,"uv_index":9.05,"wind_gusts":46.1,"aqi":103,"pm10":49.0,"pm2_5":36.7,"no2":15.6,"co":376.0,"o3":105.0,"so2":25.5,"mosquito_risk":7,"arthritis_risk":5,"migraine_risk":7,"frizz_risk":1,"updated_at":"2026-05-13T21:51:18.293140+05:30"},{"city":"Raipur","state":"Chhattisgarh","latitude":21.2514,"longitude":81.6296,"temp":33.3,"humidity":44,"rain":0.0,"pressure":970.4,"uv_index":9.05,"wind_gusts":38.5,"aqi":116,"pm10":57.0,"pm2_5":43.8,"no2":31.6,"co":543.0,"o3":82.0,"so2":46.6,"mosquito_risk":0,"arthritis_risk":5,"migraine_risk":7,"frizz_risk":1,"updated_at":"2026-05-13T21:51:18.293147+05:30"},{"city":"Bhilai","state":"Chhattisgarh","latitude":21.1938,"longitude":81.3509,"temp":32.6,"humidity":44,"rain":0.0,"pressure":970.5,"uv_index":9.05,"wind_gusts":42.8,"aqi":103,"pm10":61.0,"pm2_5":44.7,"no2":35.2,"co":577.0,"o3":77.0,"so2":49.0,"mosquito_risk":0,"arthritis_risk":5,"migraine_risk":7,"frizz_risk":1,"updated_at":"2026-05-13T21:51:18.293153+05:30"},{"city":"Guwahati","state":"Assam","latitude":26.1158,"longitude":91.7086,"temp":22.5,"humidity":94,"rain":0.0,"pressure":1000.2,"uv_index":7.4,"wind_gusts":22.3,"aqi":120,"pm10":37.5,"pm2_5":36.0,"no2":13.4,"co":525.0,"o3":58.0,"so2":2.7,"mosquito_risk":3,"arthritis_risk":5,"migraine_risk":4,"frizz_risk":1,"updated_at":"2026-05-13T21:51:18.293160+05:30"},{"city":"Agartala","state":"Tripura","latitude":23.8315,"longitude":91.2868,"temp":26.1,"humidity":83,"rain":0.0,"pressure":1004.5,"uv_index":8.75,"wind_gusts":24.8,"aqi":89,"pm10":30.0,"pm2_5":25.5,"no2":20.4,"co":373.0,"o3":37.0,"so2":2.8,"mosquito_risk":7,"arthritis_risk":5,"migraine_risk":4,"frizz_risk":1,"updated_at":"2026-05-13T21:51:18.293167+05:30"},{"city":"Shillong","state":"Meghalaya","latitude":25.5788,"longitude":91.8933,"temp":15.1,"humidity":88,"rain":0.1,"pressure":854.1,"uv_index":8.05,"wind_gusts":23.4,"aqi":70,"pm10":14.7,"pm2_5":12.6,"no2":8.9,"co":351.0,"o3":80.0,"so2":2.3,"mosquito_risk":6,"arthritis_risk":10,"migraine_risk":7,"frizz_risk":0,"updated_at":"2026-05-13T21:51:18.293175+05:30"},{"city":"Imphal","state":"Manipur","latitude":24.817,"longitude":93.9368,"temp":21.0,"humidity":91,"rain":0.0,"pressure":921.8,"uv_index":9.3,"wind_gusts":29.5,"aqi":86,"pm10":27.5,"pm2_5":25.6,"no2":21.3,"co":737.0,"o3":49.0,"so2":4.5,"mosquito_risk":3,"arthritis_risk":5,"migraine_risk":7,"frizz_risk":1,"updated_at":"2026-05-13T21:51:18.293182+05:30"},{"city":"Aizawl","state":"Mizoram","latitude":23.7271,"longitude":92.7176,"temp":19.6,"humidity":84,"rain":0.0,"pressure":891.1,"uv_index":9.1,"wind_gusts":24.1,"aqi":66,"pm10":20.0,"pm2_5":15.1,"no2":11.1,"co":239.0,"o3":67.0,"so2":2.9,"mosquito_risk":3,"arthritis_risk":10,"migraine_risk":7,"frizz_risk":1,"updated_at":"2026-05-13T21:51:18.293189+05:30"},{"city":"Kohima","state":"Nagaland","latitude":25.6701,"longitude":94.1077,"temp":17.0,"humidity":95,"rain":0.0,"pressure":853.7,"uv_index":8.85,"wind_gusts":28.8,"aqi":64,"pm10":20.1,"pm2_5":18.7,"no2":18.5,"co":455.0,"o3":41.0,"so2":1.6,"mosquito_risk":3,"arthritis_risk":10,"migraine_risk":7,"frizz_risk":1,"updated_at":"2026-05-13T21:51:18.293196+05:30"},{"city":"Gangtok","state":"Sikkim","latitude":27.3314,"longitude":88.6138,"temp":13.5,"humidity":98,"rain":0.1,"pressure":834.2,"uv_index":8.95,"wind_gusts":35.3,"aqi":91,"pm10":17.2,"pm2_5":16.2,"no2":12.2,"co":542.0,"o3":117.0,"so2":2.5,"mosquito_risk":6,"arthritis_risk":10,"migraine_risk":7,"frizz_risk":0,"updated_at":"2026-05-13T21:51:18.293202+05:30"},{"city":"Siliguri","state":"West Bengal","latitude":26.7271,"longitude":88.3953,"temp":22.5,"humidity":91,"rain":0.0,"pressure":991.7,"uv_index":8.65,"wind_gusts":33.8,"aqi":111,"pm10":35.0,"pm2_5":32.8,"no2":12.7,"co":551.0,"o3":109.0,"so2":4.8,"mosquito_risk":3,"arthritis_risk":5,"migraine_risk":7,"frizz_risk":1,"updated_at":"2026-05-13T21:51:21.538764+05:30"},{"city":"Durgapur","state":"West Bengal","latitude":23.5204,"longitude":87.3119,"temp":25.5,"humidity":87,"rain":0.0,"pressure":992.3,"uv_index":9.0,"wind_gusts":34.6,"aqi":104,"pm10":30.4,"pm2_5":27.8,"no2":28.1,"co":218.0,"o3":49.0,"so2":40.1,"mosquito_risk":7,"arthritis_risk":5,"migraine_risk":7,"frizz_risk":1,"updated_at":"2026-05-13T21:51:21.538807+05:30"},{"city":"Asansol","state":"West Bengal","latitude":23.6739,"longitude":86.9524,"temp":25.9,"humidity":85,"rain":0.0,"pressure":990.8,"uv_index":9.05,"wind_gusts":33.1,"aqi":111,"pm10":38.1,"pm2_5":32.5,"no2":28.5,"co":646.0,"o3":65.0,"so2":42.0,"mosquito_risk":7,"arthritis_risk":5,"migraine_risk":7,"frizz_risk":1,"updated_at":"2026-05-13T21:51:21.538819+05:30"},{"city":"Pondicherry","state":"Puducherry","latitude":11.9139,"longitude":79.8145,"temp":29.1,"humidity":82,"rain":0.0,"pressure":1004.6,"uv_index":9.0,"wind_gusts":32.4,"aqi":42,"pm10":9.4,"pm2_5":6.2,"no2":2.6,"co":178.0,"o3":43.0,"so2":1.2,"mosquito_risk":7,"arthritis_risk":5,"migraine_risk":4,"frizz_risk":1,"updated_at":"2026-05-13T21:51:21.538829+05:30"},{"city":"Port Blair","state":"Andaman and Nicobar Islands","latitude":11.6234,"longitude":92.7265,"temp":25.5,"humidity":97,"rain":0.0,"pressure":1005.9,"uv_index":3.1,"wind_gusts":35.6,"aqi":19,"pm10":6.2,"pm2_5":3.9,"no2":0.5,"co":116.0,"o3":41.0,"so2":0.2,"mosquito_risk":7,"arthritis_risk":5,"migraine_risk":0,"frizz_risk":1,"updated_at":"2026-05-13T21:51:21.538838+05:30"},{"city":"Haridwar","state":"Uttarakhand","latitude":29.9457,"longitude":78.1642,"temp":25.5,"humidity":71,"rain":0.0,"pressure":968.6,"uv_index":7.5,"wind_gusts":29.5,"aqi":154,"pm10":89.4,"pm2_5":61.5,"no2":19.1,"co":507.0,"o3":101.0,"so2":14.6,"mosquito_risk":7,"arthritis_risk":5,"migraine_risk":7,"frizz_risk":1,"updated_at":"2026-05-13T21:51:21.538846+05:30"},{"city":"Rishikesh","state":"Uttarakhand","latitude":30.0869,"longitude":78.2676,"temp":23.9,"humidity":70,"rain":0.0,"pressure":961.3,"uv_index":7.6,"wind_gusts":23.8,"aqi":136,"pm10":84.5,"pm2_5":49.6,"no2":13.1,"co":492.0,"o3":117.0,"so2":10.4,"mosquito_risk":3,"arthritis_risk":5,"migraine_risk":7,"frizz_risk":1,"updated_at":"2026-05-13T21:51:21.538854+05:30"},{"city":"Nainital","state":"Uttarakhand","latitude":29.3919,"longitude":79.4542,"temp":13.7,"humidity":91,"rain":0.0,"pressure":801.6,"uv_index":8.45,"wind_gusts":45.0,"aqi":134,"pm10":151.8,"pm2_5":63.8,"no2":15.7,"co":357.0,"o3":108.0,"so2":14.3,"mosquito_risk":3,"arthritis_risk":10,"migraine_risk":7,"frizz_risk":0,"updated_at":"2026-05-13T21:51:21.538862+05:30"},{"city":"Mussoorie","state":"Uttarakhand","latitude":30.4599,"longitude":78.0664,"temp":15.2,"humidity":56,"rain":0.0,"pressure":799.5,"uv_index":8.0,"wind_gusts":52.2,"aqi":133,"pm10":88.7,"pm2_5":54.6,"no2":26.2,"co":430.0,"o3":115.0,"so2":13.7,"mosquito_risk":0,"arthritis_risk":5,"migraine_risk":7,"frizz_risk":0,"updated_at":"2026-05-13T21:51:21.538870+05:30"},{"city":"Dharamshala","state":"Himachal Pradesh","latitude":32.219,"longitude":76.3234,"temp":19.5,"humidity":50,"rain":0.0,"pressure":865.6,"uv_index":8.35,"wind_gusts":45.0,"aqi":67,"pm10":23.1,"pm2_5":16.2,"no2":15.5,"co":296.0,"o3":59.0,"so2":1.2,"mosquito_risk":0,"arthritis_risk":5,"migraine_risk":7,"frizz_risk":0,"updated_at":"2026-05-13T21:51:21.538877+05:30"},{"city":"Dalhousie","state":"Himachal Pradesh","latitude":32.5387,"longitude":75.971,"temp":11.6,"humidity":66,"rain":0.0,"pressure":798.9,"uv_index":8.6,"wind_gusts":33.1,"aqi":84,"pm10":48.5,"pm2_5":29.9,"no2":42.1,"co":644.0,"o3":65.0,"so2":3.2,"mosquito_risk":3,"arthritis_risk":5,"migraine_risk":7,"frizz_risk":0,"updated_at":"2026-05-13T21:51:21.538885+05:30"},{"city":"Patiala","state":"Punjab","latitude":30.3398,"longitude":76.3869,"temp":29.1,"humidity":38,"rain":0.0,"pressure":973.0,"uv_index":7.6,"wind_gusts":38.2,"aqi":186,"pm10":170.0,"pm2_5":85.4,"no2":30.4,"co":481.0,"o3":70.0,"so2":15.4,"mosquito_risk":4,"arthritis_risk":5,"migraine_risk":7,"frizz_risk":0,"updated_at":"2026-05-13T21:51:21.538893+05:30"},{"city":"Bhatinda","state":"Punjab","latitude":30.211,"longitude":74.9455,"temp":31.8,"humidity":31,"rain":0.0,"pressure":978.8,"uv_index":8.25,"wind_gusts":38.9,"aqi":187,"pm10":194.2,"pm2_5":80.1,"no2":15.1,"co":492.0,"o3":82.0,"so2":10.6,"mosquito_risk":0,"arthritis_risk":5,"migraine_risk":7,"frizz_risk":0,"updated_at":"2026-05-13T21:51:21.538900+05:30"},{"city":"Rohtak","state":"Haryana","latitude":28.8955,"longitude":76.6066,"temp":29.6,"humidity":54,"rain":0.0,"pressure":976.4,"uv_index":7.7,"wind_gusts":33.5,"aqi":360,"pm10":694.8,"pm2_5":154.1,"no2":27.0,"co":568.0,"o3":128.0,"so2":30.6,"mosquito_risk":4,"arthritis_risk":5,"migraine_risk":7,"frizz_risk":1,"updated_at":"2026-05-13T21:51:21.538907+05:30"},{"city":"Panipat","state":"Haryana","latitude":29.3909,"longitude":76.9635,"temp":28.4,"humidity":58,"rain":0.0,"pressure":974.6,"uv_index":7.55,"wind_gusts":34.2,"aqi":522,"pm10":719.0,"pm2_5":163.9,"no2":20.5,"co":624.0,"o3":117.0,"so2":25.6,"mosquito_risk":4,"arthritis_risk":5,"migraine_risk":7,"frizz_risk":1,"updated_at":"2026-05-13T21:51:21.538915+05:30"},{"city":"Mathura","state":"Uttar Pradesh","latitude":27.4924,"longitude":77.6737,"temp":29.9,"humidity":53,"rain":0.0,"pressure":981.2,"uv_index":7.95,"wind_gusts":28.8,"aqi":473,"pm10":884.8,"pm2_5":159.3,"no2":19.0,"co":477.0,"o3":98.0,"so2":13.2,"mosquito_risk":4,"arthritis_risk":5,"migraine_risk":7,"frizz_risk":1,"updated_at":"2026-05-13T21:51:21.538922+05:30"},{"city":"Vrindavan","state":"Uttar Pradesh","latitude":27.5823,"longitude":77.7027,"temp":29.5,"humidity":54,"rain":0.0,"pressure":981.6,"uv_index":7.95,"wind_gusts":29.2,"aqi":473,"pm10":884.8,"pm2_5":159.3,"no2":19.0,"co":474.0,"o3":98.0,"so2":13.2,"mosquito_risk":4,"arthritis_risk":5,"migraine_risk":7,"frizz_risk":1,"updated_at":"2026-05-13T21:51:21.538930+05:30"},{"city":"Ayodhya","state":"Uttar Pradesh","latitude":26.7922,"longitude":82.1998,"temp":29.7,"humidity":69,"rain":0.0,"pressure":990.4,"uv_index":8.3,"wind_gusts":28.8,"aqi":151,"pm10":139.2,"pm2_5":71.9,"no2":22.7,"co":455.0,"o3":89.0,"so2":12.7,"mosquito_risk":7,"arthritis_risk":5,"migraine_risk":7,"frizz_risk":1,"updated_at":"2026-05-13T21:51:21.538938+05:30"},{"city":"Ratlam","state":"Madhya Pradesh","latitude":23.3315,"longitude":75.0367,"temp":32.8,"humidity":31,"rain":0.0,"pressure":950.4,"uv_index":8.55,"wind_gusts":40.0,"aqi":83,"pm10":25.4,"pm2_5":17.3,"no2":2.9,"co":202.0,"o3":109.0,"so2":4.6,"mosquito_risk":0,"arthritis_risk":5,"migraine_risk":7,"frizz_risk":0,"updated_at":"2026-05-13T21:51:21.538945+05:30"},{"city":"Sagar","state":"Madhya Pradesh","latitude":23.8388,"longitude":78.7378,"temp":33.5,"humidity":22,"rain":0.0,"pressure":945.8,"uv_index":8.8,"wind_gusts":39.6,"aqi":84,"pm10":67.1,"pm2_5":26.7,"no2":16.3,"co":263.0,"o3":66.0,"so2":3.8,"mosquito_risk":0,"arthritis_risk":5,"migraine_risk":7,"frizz_risk":0,"updated_at":"2026-05-13T21:51:21.538952+05:30"},{"city":"Satna","state":"Madhya Pradesh","latitude":24.6005,"longitude":80.8322,"temp":32.0,"humidity":30,"rain":0.0,"pressure":966.5,"uv_index":8.75,"wind_gusts":46.8,"aqi":109,"pm10":66.6,"pm2_5":39.0,"no2":16.9,"co":317.0,"o3":90.0,"so2":7.0,"mosquito_risk":0,"arthritis_risk":5,"migraine_risk":7,"frizz_risk":0,"updated_at":"2026-05-13T21:51:21.538960+05:30"},{"city":"Akola","state":"Maharashtra","latitude":20.7002,"longitude":77.0082,"temp":36.8,"humidity":23,"rain":0.0,"pressure":969.9,"uv_index":8.95,"wind_gusts":33.1,"aqi":96,"pm10":77.1,"pm2_5":44.2,"no2":29.4,"co":366.0,"o3":73.0,"so2":11.4,"mosquito_risk":0,"arthritis_risk":5,"migraine_risk":10,"frizz_risk":0,"updated_at":"2026-05-13T21:51:21.538968+05:30"},{"city":"Amravati","state":"Maharashtra","latitude":20.9374,"longitude":77.7796,"temp":35.5,"humidity":32,"rain":0.0,"pressure":962.8,"uv_index":8.95,"wind_gusts":36.7,"aqi":98,"pm10":65.4,"pm2_5":37.3,"no2":17.2,"co":303.0,"o3":82.0,"so2":8.6,"mosquito_risk":0,"arthritis_risk":5,"migraine_risk":10,"frizz_risk":1,"updated_at":"2026-05-13T21:51:21.538977+05:30"},{"city":"Latur","state":"Maharashtra","latitude":18.4088,"longitude":76.5604,"temp":32.8,"humidity":38,"rain":0.0,"pressure":936.8,"uv_index":8.95,"wind_gusts":34.9,"aqi":101,"pm10":93.1,"pm2_5":55.1,"no2":20.7,"co":294.0,"o3":85.0,"so2":9.3,"mosquito_risk":0,"arthritis_risk":5,"migraine_risk":7,"frizz_risk":1,"updated_at":"2026-05-13T21:51:21.538984+05:30"},{"city":"Nanded","state":"Maharashtra","latitude":19.1383,"longitude":77.3091,"temp":35.5,"humidity":29,"rain":0.0,"pressure":964.3,"uv_index":9.05,"wind_gusts":30.6,"aqi":100,"pm10":90.1,"pm2_5":54.8,"no2":32.1,"co":430.0,"o3":73.0,"so2":10.1,"mosquito_risk":0,"arthritis_risk":5,"migraine_risk":10,"frizz_risk":0,"updated_at":"2026-05-13T21:51:21.538991+05:30"},{"city":"Gulbarga","state":"Karnataka","latitude":17.3297,"longitude":76.8343,"temp":32.3,"humidity":40,"rain":0.0,"pressure":955.6,"uv_index":9.1,"wind_gusts":28.1,"aqi":113,"pm10":60.5,"pm2_5":37.0,"no2":28.0,"co":305.0,"o3":78.0,"so2":10.0,"mosquito_risk":0,"arthritis_risk":5,"migraine_risk":7,"frizz_risk":1,"updated_at":"2026-05-13T21:51:21.538998+05:30"},{"city":"Bidar","state":"Karnataka","latitude":17.9104,"longitude":77.5199,"temp":30.8,"humidity":45,"rain":0.0,"pressure":932.8,"uv_index":9.15,"wind_gusts":36.0,"aqi":88,"pm10":46.3,"pm2_5":32.6,"no2":26.5,"co":426.0,"o3":67.0,"so2":6.4,"mosquito_risk":0,"arthritis_risk":5,"migraine_risk":7,"frizz_risk":1,"updated_at":"2026-05-13T21:51:21.539004+05:30"},{"city":"Hospet","state":"Karnataka","latitude":15.2689,"longitude":76.3909,"temp":27.5,"humidity":79,"rain":0.0,"pressure":953.3,"uv_index":9.2,"wind_gusts":28.8,"aqi":101,"pm10":60.1,"pm2_5":43.4,"no2":39.8,"co":453.0,"o3":67.0,"so2":13.6,"mosquito_risk":7,"arthritis_risk":5,"migraine_risk":7,"frizz_risk":1,"updated_at":"2026-05-13T21:51:21.539011+05:30"},{"city":"Tirupur","state":"Tamil Nadu","latitude":11.1085,"longitude":77.3411,"temp":27.4,"humidity":77,"rain":0.0,"pressure":971.8,"uv_index":9.25,"wind_gusts":36.0,"aqi":115,"pm10":34.1,"pm2_5":27.4,"no2":29.1,"co":232.0,"o3":81.0,"so2":7.0,"mosquito_risk":7,"arthritis_risk":5,"migraine_risk":7,"frizz_risk":1,"updated_at":"2026-05-13T21:51:21.539018+05:30"},{"city":"Alappuzha","state":"Kerala","latitude":9.4981,"longitude":76.3388,"temp":27.1,"humidity":92,"rain":0.0,"pressure":1006.3,"uv_index":8.4,"wind_gusts":34.2,"aqi":72,"pm10":31.7,"pm2_5":23.2,"no2":17.4,"co":131.0,"o3":66.0,"so2":5.5,"mosquito_risk":7,"arthritis_risk":5,"migraine_risk":4,"frizz_risk":1,"updated_at":"2026-05-13T21:51:21.539026+05:30"},{"city":"Munnar","state":"Kerala","latitude":10.0889,"longitude":77.0595,"temp":18.1,"humidity":97,"rain":0.0,"pressure":854.6,"uv_index":9.45,"wind_gusts":33.5,"aqi":67,"pm10":26.2,"pm2_5":23.5,"no2":16.5,"co":322.0,"o3":42.0,"so2":2.7,"mosquito_risk":3,"arthritis_risk":10,"migraine_risk":7,"frizz_risk":1,"updated_at":"2026-05-13T21:51:21.539033+05:30"},{"city":"Silchar","state":"Assam","latitude":24.8333,"longitude":92.7789,"temp":24.8,"humidity":91,"rain":0.0,"pressure":1003.4,"uv_index":8.9,"wind_gusts":24.5,"aqi":112,"pm10":33.4,"pm2_5":28.2,"no2":9.4,"co":331.0,"o3":84.0,"so2":5.2,"mosquito_risk":3,"arthritis_risk":5,"migraine_risk":4,"frizz_risk":1,"updated_at":"2026-05-13T21:51:21.539041+05:30"},{"city":"Dibrugarh","state":"Assam","latitude":27.4728,"longitude":94.912,"temp":23.6,"humidity":97,"rain":0.1,"pressure":994.9,"uv_index":8.7,"wind_gusts":23.8,"aqi":77,"pm10":32.5,"pm2_5":30.7,"no2":19.8,"co":389.0,"o3":32.0,"so2":2.3,"mosquito_risk":6,"arthritis_risk":5,"migraine_risk":7,"frizz_risk":1,"updated_at":"2026-05-13T21:51:21.539048+05:30"}]