[{"city":"Delhi","state":"Delhi","latitude":28.6139,"longitude":77.209,"temp":27.2,"humidity":46,"rain":0.0,"pressure":985.5,"uv_index":7.15,"wind_gusts":31.0,"aqi":502,"pm10":588.6,"pm2_5":97.6,"mosquito_risk":4,"arthritis_risk":5,"migraine_risk":7,"frizz_risk":0,"updated_at":"2026-04-11T22:10:31.540535+05:30"},{"city":"Mumbai","state":"Maharashtra","latitude":19.076,"longitude":72.8777,"temp":29.0,"humidity":74,"rain":0.0,"pressure":1009.2,"uv_index":7.95,"wind_gusts":23.4,"aqi":155,"pm10":39.9,"pm2_5":31.9,"mosquito_risk":7,"arthritis_risk":0,"migraine_risk":4,"frizz_risk":1,"updated_at":"2026-04-11T22:10:31.540573+05:30"},{"city":"Bangalore","state":"Karnataka","latitude":12.9716,"longitude":77.5946,"temp":28.6,"humidity":45,"rain":0.0,"pressure":913.2,"uv_index":9.65,"wind_gusts":27.4,"aqi":97,"pm10":34.3,"pm2_5":29.1,"mosquito_risk":4,"arthritis_risk":5,"migraine_risk":7,"frizz_risk":0,"updated_at":"2026-04-11T22:10:31.540589+05:30"},{"city":"Hyderabad","state":"Telangana","latitude":17.385,"longitude":78.4867,"temp":32.4,"humidity":43,"rain":0.0,"pressure":954.7,"uv_index":9.2,"wind_gusts":18.7,"aqi":156,"pm10":48.5,"pm2_5":40.7,"mosquito_risk":0,"arthritis_risk":5,"migraine_risk":7,"frizz_risk":1,"updated_at":"2026-04-11T22:10:31.540598+05:30"},{"city":"Chennai","state":"Tamil Nadu","latitude":13.0827,"longitude":80.2707,"temp":29.4,"humidity":81,"rain":0.0,"pressure":1008.8,"uv_index":9.05,"wind_gusts":35.6,"aqi":55,"pm10":17.9,"pm2_5":12.5,"mosquito_risk":7,"arthritis_risk":0,"migraine_risk":4,"frizz_risk":1,"updated_at":"2026-04-11T22:10:31.540606+05:30"},{"city":"Kolkata","state":"West Bengal","latitude":22.5726,"longitude":88.3639,"temp":26.5,"humidity":70,"rain":0.0,"pressure":1007.1,"uv_index":8.75,"wind_gusts":18.0,"aqi":129,"pm10":71.2,"pm2_5":62.2,"mosquito_risk":7,"arthritis_risk":5,"migraine_risk":4,"frizz_risk":1,"updated_at":"2026-04-11T22:10:31.540615+05:30"},{"city":"Pune","state":"Maharashtra","latitude":18.5204,"longitude":73.8567,"temp":28.7,"humidity":53,"rain":0.0,"pressure":950.1,"uv_index":8.55,"wind_gusts":38.9,"aqi":184,"pm10":50.8,"pm2_5":45.3,"mosquito_risk":4,"arthritis_risk":5,"migraine_risk":7,"frizz_risk":1,"updated_at":"2026-04-11T22:10:31.540626+05:30"},{"city":"Ahmedabad","state":"Gujarat","latitude":23.0225,"longitude":72.5714,"temp":32.1,"humidity":31,"rain":0.0,"pressure":1002.7,"uv_index":8.05,"wind_gusts":22.3,"aqi":118,"pm10":68.7,"pm2_5":54.9,"mosquito_risk":0,"arthritis_risk":5,"migraine_risk":4,"frizz_risk":0,"updated_at":"2026-04-11T22:10:31.540634+05:30"},{"city":"Jaipur","state":"Rajasthan","latitude":26.9124,"longitude":75.7873,"temp":28.0,"humidity":30,"rain":0.0,"pressure":961.2,"uv_index":7.85,"wind_gusts":40.7,"aqi":96,"pm10":125.7,"pm2_5":34.3,"mosquito_risk":4,"arthritis_risk":5,"migraine_risk":7,"frizz_risk":0,"updated_at":"2026-04-11T22:10:31.540642+05:30"},{"city":"Lucknow","state":"Uttar Pradesh","latitude":26.8467,"longitude":80.9462,"temp":26.8,"humidity":44,"rain":0.0,"pressure":995.5,"uv_index":7.65,"wind_gusts":42.1,"aqi":271,"pm10":360.4,"pm2_5":66.6,"mosquito_risk":4,"arthritis_risk":5,"migraine_risk":7,"frizz_risk":0,"updated_at":"2026-04-11T22:10:31.540649+05:30"},{"city":"Kanpur","state":"Uttar Pradesh","latitude":26.4499,"longitude":80.3319,"temp":25.6,"humidity":58,"rain":0.0,"pressure":993.8,"uv_index":7.65,"wind_gusts":36.4,"aqi":623,"pm10":568.1,"pm2_5":85.9,"mosquito_risk":4,"arthritis_risk":5,"migraine_risk":7,"frizz_risk":1,"updated_at":"2026-04-11T22:10:31.540656+05:30"},{"city":"Chandigarh","state":"Chandigarh","latitude":30.7333,"longitude":76.7794,"temp":22.3,"humidity":60,"rain":0.0,"pressure":972.2,"uv_index":7.15,"wind_gusts":29.9,"aqi":102,"pm10":89.9,"pm2_5":42.3,"mosquito_risk":0,"arthritis_risk":5,"migraine_risk":7,"frizz_risk":0,"updated_at":"2026-04-11T22:10:31.540663+05:30"},{"city":"Srinagar","state":"Jammu and Kashmir","latitude":34.0837,"longitude":74.7973,"temp":9.6,"humidity":84,"rain":0.0,"pressure":842.3,"uv_index":7.4,"wind_gusts":14.0,"aqi":85,"pm10":44.4,"pm2_5":31.0,"mosquito_risk":3,"arthritis_risk":10,"migraine_risk":7,"frizz_risk":0,"updated_at":"2026-04-11T22:10:31.540670+05:30"},{"city":"Jammu","state":"Jammu and Kashmir","latitude":32.7266,"longitude":74.857,"temp":20.3,"humidity":72,"rain":0.0,"pressure":976.7,"uv_index":6.8,"wind_gusts":16.6,"aqi":84,"pm10":42.6,"pm2_5":26.4,"mosquito_risk":3,"arthritis_risk":5,"migraine_risk":7,"frizz_risk":0,"updated_at":"2026-04-11T22:10:31.540677+05:30"},{"city":"Amritsar","state":"Punjab","latitude":31.634,"longitude":74.8723,"temp":21.5,"humidity":66,"rain":0.0,"pressure":984.7,"uv_index":7.7,"wind_gusts":19.1,"aqi":92,"pm10":72.4,"pm2_5":35.3,"mosquito_risk":3,"arthritis_risk":5,"migraine_risk":7,"frizz_risk":0,"updated_at":"2026-04-11T22:10:31.540683+05:30"},{"city":"Ludhiana","state":"Punjab","latitude":30.901,"longitude":75.8573,"temp":23.5,"humidity":54,"rain":0.0,"pressure":982.5,"uv_index":7.35,"wind_gusts":28.8,"aqi":82,"pm10":110.4,"pm2_5":49.5,"mosquito_risk":0,"arthritis_risk":5,"migraine_risk":7,"frizz_risk":0,"updated_at":"2026-04-11T22:10:31.540690+05:30"},{"city":"Jalandhar","state":"Punjab","latitude":31.326,"longitude":75.5762,"temp":21.8,"humidity":64,"rain":0.0,"pressure":983.9,"uv_index":7.5,"wind_gusts":23.4,"aqi":87,"pm10":82.2,"pm2_5":35.2,"mosquito_risk":3,"arthritis_risk":5,"migraine_risk":7,"frizz_risk":0,"updated_at":"2026-04-11T22:10:31.540698+05:30"},{"city":"Dehradun","state":"Uttarakhand","latitude":30.6284,"longitude":78.0322,"temp":12.5,"humidity":78,"rain":0.0,"pressure":831.4,"uv_index":7.55,"wind_gusts":42.5,"aqi":83,"pm10":71.5,"pm2_5":18.9,"mosquito_risk":3,"arthritis_risk":5,"migraine_risk":7,"frizz_risk":0,"updated_at":"2026-04-11T22:10:31.540705+05:30"},{"city":"Shimla","state":"Himachal Pradesh","latitude":31.1048,"longitude":77.1734,"temp":11.0,"humidity":68,"rain":0.0,"pressure":785.2,"uv_index":7.5,"wind_gusts":46.4,"aqi":84,"pm10":74.7,"pm2_5":24.6,"mosquito_risk":3,"arthritis_risk":5,"migraine_risk":7,"frizz_risk":0,"updated_at":"2026-04-11T22:10:31.540712+05:30"},{"city":"Manali","state":"Himachal Pradesh","latitude":32.2396,"longitude":77.1887,"temp":11.4,"humidity":94,"rain":0.0,"pressure":820.1,"uv_index":8.5,"wind_gusts":30.2,"aqi":126,"pm10":21.4,"pm2_5":9.1,"mosquito_risk":3,"arthritis_risk":10,"migraine_risk":7,"frizz_risk":0,"updated_at":"2026-04-11T22:10:31.540718+05:30"},{"city":"Gurgaon","state":"Haryana","latitude":28.4595,"longitude":77.0266,"temp":25.0,"humidity":57,"rain":0.0,"pressure":983.7,"uv_index":7.3,"wind_gusts":26.3,"aqi":1350,"pm10":1061.7,"pm2_5":143.0,"mosquito_risk":4,"arthritis_risk":5,"migraine_risk":7,"frizz_risk":0,"updated_at":"2026-04-11T22:10:31.540725+05:30"},{"city":"Noida","state":"Uttar Pradesh","latitude":28.5355,"longitude":77.391,"temp":26.5,"humidity":49,"rain":0.0,"pressure":987.0,"uv_index":7.2,"wind_gusts":31.3,"aqi":1350,"pm10":1061.7,"pm2_5":143.0,"mosquito_risk":4,"arthritis_risk":5,"migraine_risk":7,"frizz_risk":0,"updated_at":"2026-04-11T22:10:31.540731+05:30"},{"city":"Ghaziabad","state":"Uttar Pradesh","latitude":28.6692,"longitude":77.4538,"temp":25.6,"humidity":54,"rain":0.0,"pressure":985.1,"uv_index":7.15,"wind_gusts":29.9,"aqi":379,"pm10":455.4,"pm2_5":80.8,"mosquito_risk":4,"arthritis_risk":5,"migraine_risk":7,"frizz_risk":0,"updated_at":"2026-04-11T22:10:31.540758+05:30"},{"city":"Faridabad","state":"Haryana","latitude":28.4089,"longitude":77.3178,"temp":25.6,"humidity":50,"rain":0.0,"pressure":986.0,"uv_index":7.25,"wind_gusts":31.0,"aqi":1350,"pm10":1061.7,"pm2_5":143.0,"mosquito_risk":4,"arthritis_risk":5,"migraine_risk":7,"frizz_risk":0,"updated_at":"2026-04-11T22:10:31.540765+05:30"},{"city":"Meerut","state":"Uttar Pradesh","latitude":28.9845,"longitude":77.7064,"temp":24.1,"humidity":59,"rain":0.0,"pressure":984.1,"uv_index":7.05,"wind_gusts":34.2,"aqi":379,"pm10":455.4,"pm2_5":80.8,"mosquito_risk":0,"arthritis_risk":5,"migraine_risk":7,"frizz_risk":0,"updated_at":"2026-04-11T22:10:31.540772+05:30"},{"city":"Agra","state":"Uttar Pradesh","latitude":27.1767,"longitude":78.0081,"temp":27.9,"humidity":46,"rain":0.0,"pressure":989.5,"uv_index":7.55,"wind_gusts":28.8,"aqi":882,"pm10":860.5,"pm2_5":115.3,"mosquito_risk":4,"arthritis_risk":5,"migraine_risk":7,"frizz_risk":0,"updated_at":"2026-04-11T22:10:31.540779+05:30"},{"city":"Varanasi","state":"Uttar Pradesh","latitude":25.3176,"longitude":82.9739,"temp":26.2,"humidity":46,"rain":0.0,"pressure":999.3,"uv_index":8.25,"wind_gusts":37.8,"aqi":110,"pm10":107.8,"pm2_5":42.7,"mosquito_risk":4,"arthritis_risk":5,"migraine_risk":7,"frizz_risk":0,"updated_at":"2026-04-11T22:10:31.540788+05:30"},{"city":"Prayagraj","state":"Uttar Pradesh","latitude":25.4358,"longitude":81.8463,"temp":27.3,"humidity":42,"rain":0.0,"pressure":998.1,"uv_index":8.15,"wind_gusts":39.2,"aqi":133,"pm10":183.0,"pm2_5":52.5,"mosquito_risk":4,"arthritis_risk":5,"migraine_risk":7,"frizz_risk":0,"updated_at":"2026-04-11T22:10:31.540795+05:30"},{"city":"Gorakhpur","state":"Uttar Pradesh","latitude":26.7606,"longitude":83.3732,"temp":26.5,"humidity":41,"rain":0.0,"pressure":998.4,"uv_index":8.1,"wind_gusts":29.2,"aqi":129,"pm10":86.6,"pm2_5":32.9,"mosquito_risk":4,"arthritis_risk":5,"migraine_risk":7,"frizz_risk":0,"updated_at":"2026-04-11T22:10:31.540802+05:30"},{"city":"Bareilly","state":"Uttar Pradesh","latitude":28.367,"longitude":79.4304,"temp":23.5,"humidity":59,"rain":0.0,"pressure":989.0,"uv_index":7.45,"wind_gusts":46.4,"aqi":93,"pm10":81.0,"pm2_5":31.5,"mosquito_risk":0,"arthritis_risk":5,"migraine_risk":7,"frizz_risk":0,"updated_at":"2026-04-11T22:10:31.540809+05:30"},{"city":"Aligarh","state":"Uttar Pradesh","latitude":27.8974,"longitude":78.088,"temp":24.5,"humidity":51,"rain":0.0,"pressure":987.6,"uv_index":7.35,"wind_gusts":37.1,"aqi":913,"pm10":599.8,"pm2_5":105.7,"mosquito_risk":0,"arthritis_risk":5,"migraine_risk":7,"frizz_risk":0,"updated_at":"2026-04-11T22:10:31.540815+05:30"},{"city":"Moradabad","state":"Uttar Pradesh","latitude":28.8386,"longitude":78.7733,"temp":23.7,"humidity":60,"rain":0.0,"pressure":986.1,"uv_index":7.3,"wind_gusts":41.4,"aqi":99,"pm10":163.0,"pm2_5":47.6,"mosquito_risk":0,"arthritis_risk":5,"migraine_risk":7,"frizz_risk":0,"updated_at":"2026-04-11T22:10:31.540823+05:30"},{"city":"Saharanpur","state":"Uttar Pradesh","latitude":29.9637,"longitude":77.546,"temp":22.7,"humidity":58,"rain":0.0,"pressure":978.8,"uv_index":6.85,"wind_gusts":35.3,"aqi":87,"pm10":107.1,"pm2_5":38.8,"mosquito_risk":0,"arthritis_risk":5,"migraine_risk":7,"frizz_risk":0,"updated_at":"2026-04-11T22:10:31.540831+05:30"},{"city":"Jhansi","state":"Uttar Pradesh","latitude":25.4484,"longitude":78.5685,"temp":28.5,"humidity":38,"rain":0.0,"pressure":979.9,"uv_index":8.1,"wind_gusts":25.6,"aqi":95,"pm10":35.3,"pm2_5":19.8,"mosquito_risk":4,"arthritis_risk":5,"migraine_risk":7,"frizz_risk":0,"updated_at":"2026-04-11T22:10:34.888716+05:30"},{"city":"Surat","state":"Gujarat","latitude":21.1702,"longitude":72.8311,"temp":29.4,"humidity":51,"rain":0.0,"pressure":1007.2,"uv_index":7.8,"wind_gusts":27.7,"aqi":137,"pm10":87.3,"pm2_5":81.5,"mosquito_risk":4,"arthritis_risk":5,"migraine_risk":4,"frizz_risk":1,"updated_at":"2026-04-11T22:10:34.888779+05:30"},{"city":"Vadodara","state":"Gujarat","latitude":22.3072,"longitude":73.1812,"temp":29.9,"humidity":39,"rain":0.0,"pressure":1004.7,"uv_index":8.05,"wind_gusts":18.4,"aqi":162,"pm10":58.3,"pm2_5":49.4,"mosquito_risk":4,"arthritis_risk":5,"migraine_risk":4,"frizz_risk":0,"updated_at":"2026-04-11T22:10:34.888791+05:30"},{"city":"Rajkot","state":"Gujarat","latitude":22.3039,"longitude":70.8022,"temp":28.6,"humidity":43,"rain":0.0,"pressure":996.3,"uv_index":7.75,"wind_gusts":31.3,"aqi":102,"pm10":75.0,"pm2_5":26.7,"mosquito_risk":4,"arthritis_risk":5,"migraine_risk":7,"frizz_risk":0,"updated_at":"2026-04-11T22:10:34.888799+05:30"},{"city":"Thane","state":"Maharashtra","latitude":19.2183,"longitude":72.9781,"temp":27.7,"humidity":75,"rain":0.0,"pressure":1008.6,"uv_index":7.95,"wind_gusts":37.1,"aqi":155,"pm10":39.9,"pm2_5":31.9,"mosquito_risk":7,"arthritis_risk":0,"migraine_risk":4,"frizz_risk":1,"updated_at":"2026-04-11T22:10:34.888806+05:30"},{"city":"Nagpur","state":"Maharashtra","latitude":21.1458,"longitude":79.0882,"temp":28.4,"humidity":47,"rain":0.0,"pressure":974.5,"uv_index":8.75,"wind_gusts":22.7,"aqi":131,"pm10":34.6,"pm2_5":29.3,"mosquito_risk":4,"arthritis_risk":5,"migraine_risk":7,"frizz_risk":0,"updated_at":"2026-04-11T22:10:34.888813+05:30"},{"city":"Nashik","state":"Maharashtra","latitude":19.9975,"longitude":73.7898,"temp":27.9,"humidity":51,"rain":0.0,"pressure":947.3,"uv_index":8.25,"wind_gusts":36.7,"aqi":173,"pm10":38.9,"pm2_5":32.2,"mosquito_risk":4,"arthritis_risk":5,"migraine_risk":7,"frizz_risk":1,"updated_at":"2026-04-11T22:10:34.888821+05:30"},{"city":"Aurangabad","state":"Maharashtra","latitude":19.8762,"longitude":75.3433,"temp":30.6,"humidity":32,"rain":0.0,"pressure":945.4,"uv_index":8.9,"wind_gusts":33.1,"aqi":125,"pm10":27.9,"pm2_5":21.0,"mosquito_risk":0,"arthritis_risk":5,"migraine_risk":7,"frizz_risk":0,"updated_at":"2026-04-11T22:10:34.888828+05:30"},{"city":"Solapur","state":"Maharashtra","latitude":17.6599,"longitude":75.9064,"temp":33.9,"humidity":32,"rain":0.0,"pressure":957.5,"uv_index":9.0,"wind_gusts":18.7,"aqi":144,"pm10":52.6,"pm2_5":41.3,"mosquito_risk":0,"arthritis_risk":5,"migraine_risk":7,"frizz_risk":0,"updated_at":"2026-04-11T22:10:34.888835+05:30"},{"city":"Kolhapur","state":"Maharashtra","latitude":16.705,"longitude":74.2433,"temp":25.1,"humidity":71,"rain":0.0,"pressure":949.2,"uv_index":8.5,"wind_gusts":42.5,"aqi":127,"pm10":37.0,"pm2_5":31.0,"mosquito_risk":7,"arthritis_risk":5,"migraine_risk":7,"frizz_risk":1,"updated_at":"2026-04-11T22:10:34.888843+05:30"},{"city":"Goa","state":"Goa","latitude":15.2993,"longitude":74.124,"temp":28.6,"humidity":77,"rain":0.0,"pressure":999.5,"uv_index":9.05,"wind_gusts":34.9,"aqi":106,"pm10":70.8,"pm2_5":33.1,"mosquito_risk":7,"arthritis_risk":5,"migraine_risk":7,"frizz_risk":1,"updated_at":"2026-04-11T22:10:34.888850+05:30"},{"city":"Jodhpur","state":"Rajasthan","latitude":26.2389,"longitude":73.0243,"temp":29.6,"humidity":37,"rain":0.0,"pressure":984.2,"uv_index":8.05,"wind_gusts":33.1,"aqi":82,"pm10":253.3,"pm2_5":50.1,"mosquito_risk":4,"arthritis_risk":5,"migraine_risk":7,"frizz_risk":0,"updated_at":"2026-04-11T22:10:34.888856+05:30"},{"city":"Udaipur","state":"Rajasthan","latitude":24.5854,"longitude":73.7125,"temp":27.7,"humidity":39,"rain":0.0,"pressure":948.5,"uv_index":8.6,"wind_gusts":36.4,"aqi":106,"pm10":27.2,"pm2_5":15.9,"mosquito_risk":4,"arthritis_risk":5,"migraine_risk":7,"frizz_risk":0,"updated_at":"2026-04-11T22:10:34.888863+05:30"},{"city":"Kota","state":"Rajasthan","latitude":25.2138,"longitude":75.8648,"temp":26.7,"humidity":50,"rain":0.0,"pressure":980.0,"uv_index":8.1,"wind_gusts":21.6,"aqi":112,"pm10":44.9,"pm2_5":34.6,"mosquito_risk":4,"arthritis_risk":5,"migraine_risk":7,"frizz_risk":0,"updated_at":"2026-04-11T22:10:34.888869+05:30"},{"city":"Bikaner","state":"Rajasthan","latitude":28.0229,"longitude":73.3119,"temp":29.4,"humidity":31,"rain":0.0,"pressure":984.0,"uv_index":7.9,"wind_gusts":32.8,"aqi":93,"pm10":65.2,"pm2_5":22.2,"mosquito_risk":4,"arthritis_risk":5,"migraine_risk":7,"frizz_risk":0,"updated_at":"2026-04-11T22:10:34.888875+05:30"},{"city":"Ajmer","state":"Rajasthan","latitude":26.4499,"longitude":74.6399,"temp":26.3,"humidity":43,"rain":0.0,"pressure":955.8,"uv_index":8.0,"wind_gusts":40.3,"aqi":103,"pm10":88.9,"pm2_5":26.4,"mosquito_risk":4,"arthritis_risk":5,"migraine_risk":7,"frizz_risk":0,"updated_at":"2026-04-11T22:10:34.888882+05:30"},{"city":"Gwalior","state":"Madhya Pradesh","latitude":26.2183,"longitude":78.1828,"temp":27.5,"humidity":50,"rain":0.0,"pressure":984.7,"uv_index":7.8,"wind_gusts":30.6,"aqi":99,"pm10":39.6,"pm2_5":22.8,"mosquito_risk":4,"arthritis_risk":5,"migraine_risk":7,"frizz_risk":1,"updated_at":"2026-04-11T22:10:34.888888+05:30"},{"city":"Indore","state":"Madhya Pradesh","latitude":22.7196,"longitude":75.8577,"temp":26.1,"humidity":43,"rain":0.0,"pressure":949.6,"uv_index":8.5,"wind_gusts":21.6,"aqi":130,"pm10":59.3,"pm2_5":48.0,"mosquito_risk":4,"arthritis_risk":5,"migraine_risk":7,"frizz_risk":0,"updated_at":"2026-04-11T22:10:34.888894+05:30"},{"city":"Bhopal","state":"Madhya Pradesh","latitude":23.2599,"longitude":77.4126,"temp":28.4,"humidity":33,"rain":0.0,"pressure":955.0,"uv_index":8.5,"wind_gusts":24.5,"aqi":100,"pm10":38.2,"pm2_5":22.5,"mosquito_risk":4,"arthritis_risk":5,"migraine_risk":7,"frizz_risk":0,"updated_at":"2026-04-11T22:10:34.888900+05:30"},{"city":"Jabalpur","state":"Madhya Pradesh","latitude":23.1815,"longitude":79.9864,"temp":28.0,"humidity":41,"rain":0.0,"pressure":963.0,"uv_index":8.6,"wind_gusts":18.4,"aqi":101,"pm10":70.5,"pm2_5":35.3,"mosquito_risk":4,"arthritis_risk":5,"migraine_risk":7,"frizz_risk":0,"updated_at":"2026-04-11T22:10:34.888906+05:30"},{"city":"Ujjain","state":"Madhya Pradesh","latitude":23.1765,"longitude":75.7885,"temp":26.6,"humidity":43,"rain":0.0,"pressure":955.4,"uv_index":8.4,"wind_gusts":20.5,"aqi":115,"pm10":70.1,"pm2_5":58.3,"mosquito_risk":4,"arthritis_risk":5,"migraine_risk":7,"frizz_risk":0,"updated_at":"2026-04-11T22:10:34.888917+05:30"},{"city":"Visakhapatnam","state":"Andhra Pradesh","latitude":17.6868,"longitude":83.2185,"temp":28.3,"humidity":87,"rain":0.0,"pressure":1005.7,"uv_index":9.15,"wind_gusts":39.6,"aqi":77,"pm10":28.1,"pm2_5":21.8,"mosquito_risk":7,"arthritis_risk":5,"migraine_risk":4,"frizz_risk":1,"updated_at":"2026-04-11T22:10:34.888924+05:30"},{"city":"Vijayawada","state":"Andhra Pradesh","latitude":16.5062,"longitude":80.648,"temp":29.6,"humidity":69,"rain":0.0,"pressure":1003.7,"uv_index":9.2,"wind_gusts":25.6,"aqi":73,"pm10":19.8,"pm2_5":16.0,"mosquito_risk":7,"arthritis_risk":5,"migraine_risk":4,"frizz_risk":1,"updated_at":"2026-04-11T22:10:34.888930+05:30"},{"city":"Guntur","state":"Andhra Pradesh","latitude":16.3067,"longitude":80.4365,"temp":28.6,"humidity":81,"rain":0.0,"pressure":1005.2,"uv_index":9.25,"wind_gusts":33.5,"aqi":97,"pm10":22.9,"pm2_5":19.0,"mosquito_risk":7,"arthritis_risk":5,"migraine_risk":4,"frizz_risk":1,"updated_at":"2026-04-11T22:10:34.888937+05:30"},{"city":"Nellore","state":"Andhra Pradesh","latitude":14.4426,"longitude":79.9865,"temp":28.9,"humidity":84,"rain":0.0,"pressure":1007.4,"uv_index":9.3,"wind_gusts":40.7,"aqi":60,"pm10":15.5,"pm2_5":10.9,"mosquito_risk":7,"arthritis_risk":5,"migraine_risk":4,"frizz_risk":1,"updated_at":"2026-04-11T22:10:34.888944+05:30"},{"city":"Kurnool","state":"Andhra Pradesh","latitude":15.8281,"longitude":78.0373,"temp":34.6,"humidity":36,"rain":0.0,"pressure":976.8,"uv_index":9.2,"wind_gusts":31.7,"aqi":110,"pm10":36.8,"pm2_5":28.9,"mosquito_risk":0,"arthritis_risk":5,"migraine_risk":7,"frizz_risk":1,"updated_at":"2026-04-11T22:10:34.888951+05:30"},{"city":"Kakinada","state":"Andhra Pradesh","latitude":16.9891,"longitude":82.2475,"temp":28.4,"humidity":85,"rain":0.0,"pressure":1009.2,"uv_index":9.2,"wind_gusts":33.8,"aqi":60,"pm10":21.9,"pm2_5":14.2,"mosquito_risk":7,"arthritis_risk":0,"migraine_risk":4,"frizz_risk":1,"updated_at":"2026-04-11T22:10:34.888957+05:30"},{"city":"Tirupati","state":"Andhra Pradesh","latitude":13.6288,"longitude":79.4192,"temp":28.7,"humidity":71,"rain":0.0,"pressure":993.6,"uv_index":9.4,"wind_gusts":32.0,"aqi":86,"pm10":22.7,"pm2_5":20.2,"mosquito_risk":7,"arthritis_risk":5,"migraine_risk":7,"frizz_risk":1,"updated_at":"2026-04-11T22:10:34.888963+05:30"},{"city":"Warangal","state":"Telangana","latitude":17.9689,"longitude":79.5941,"temp":31.9,"humidity":41,"rain":0.0,"pressure":979.5,"uv_index":9.05,"wind_gusts":25.2,"aqi":149,"pm10":54.2,"pm2_5":43.4,"mosquito_risk":0,"arthritis_risk":5,"migraine_risk":7,"frizz_risk":1,"updated_at":"2026-04-11T22:10:34.888970+05:30"},{"city":"Nizamabad","state":"Telangana","latitude":18.6725,"longitude":78.0941,"temp":30.4,"humidity":49,"rain":0.0,"pressure":965.7,"uv_index":9.0,"wind_gusts":24.8,"aqi":145,"pm10":65.2,"pm2_5":52.3,"mosquito_risk":0,"arthritis_risk":5,"migraine_risk":7,"frizz_risk":1,"updated_at":"2026-04-11T22:10:34.888976+05:30"},{"city":"Mysore","state":"Karnataka","latitude":12.2958,"longitude":76.6396,"temp":26.1,"humidity":77,"rain":0.0,"pressure":929.9,"uv_index":9.35,"wind_gusts":37.4,"aqi":98,"pm10":49.1,"pm2_5":41.0,"mosquito_risk":7,"arthritis_risk":5,"migraine_risk":7,"frizz_risk":1,"updated_at":"2026-04-11T22:10:34.888982+05:30"},{"city":"Mangalore","state":"Karnataka","latitude":12.9141,"longitude":74.856,"temp":29.6,"humidity":80,"rain":0.0,"pressure":1007.8,"uv_index":8.6,"wind_gusts":25.9,"aqi":88,"pm10":68.7,"pm2_5":30.4,"mosquito_risk":7,"arthritis_risk":5,"migraine_risk":4,"frizz_risk":1,"updated_at":"2026-04-11T22:10:34.888988+05:30"},{"city":"Hubli-Dharwad","state":"Karnataka","latitude":15.3647,"longitude":75.124,"temp":25.0,"humidity":84,"rain":0.0,"pressure":942.1,"uv_index":9.25,"wind_gusts":41.8,"aqi":146,"pm10":43.0,"pm2_5":27.0,"mosquito_risk":7,"arthritis_risk":5,"migraine_risk":7,"frizz_risk":1,"updated_at":"2026-04-11T22:10:34.888995+05:30"},{"city":"Belgaum","state":"Karnataka","latitude":15.8497,"longitude":74.4977,"temp":23.8,"humidity":87,"rain":0.0,"pressure":926.9,"uv_index":9.3,"wind_gusts":43.9,"aqi":128,"pm10":45.8,"pm2_5":29.0,"mosquito_risk":3,"arthritis_risk":5,"migraine_risk":7,"frizz_risk":1,"updated_at":"2026-04-11T22:10:38.237578+05:30"},{"city":"Coimbatore","state":"Tamil Nadu","latitude":11.0168,"longitude":76.9558,"temp":27.2,"humidity":79,"rain":0.0,"pressure":963.2,"uv_index":8.2,"wind_gusts":39.2,"aqi":88,"pm10":47.4,"pm2_5":41.1,"mosquito_risk":7,"arthritis_risk":5,"migraine_risk":7,"frizz_risk":1,"updated_at":"2026-04-11T22:10:38.237607+05:30"},{"city":"Madurai","state":"Tamil Nadu","latitude":9.9252,"longitude":78.1198,"temp":29.6,"humidity":71,"rain":0.0,"pressure":995.0,"uv_index":8.45,"wind_gusts":35.3,"aqi":70,"pm10":31.3,"pm2_5":27.2,"mosquito_risk":7,"arthritis_risk":5,"migraine_risk":7,"frizz_risk":1,"updated_at":"2026-04-11T22:10:38.237617+05:30"},{"city":"Trichy","state":"Tamil Nadu","latitude":10.7905,"longitude":78.7047,"temp":29.4,"humidity":76,"rain":0.0,"pressure":1001.1,"uv_index":9.4,"wind_gusts":27.7,"aqi":72,"pm10":24.2,"pm2_5":21.6,"mosquito_risk":7,"arthritis_risk":5,"migraine_risk":4,"frizz_risk":1,"updated_at":"2026-04-11T22:10:38.237625+05:30"},{"city":"Salem","state":"Tamil Nadu","latitude":11.6643,"longitude":78.146,"temp":30.7,"humidity":57,"rain":0.0,"pressure":978.3,"uv_index":9.1,"wind_gusts":20.9,"aqi":102,"pm10":31.2,"pm2_5":27.0,"mosquito_risk":0,"arthritis_risk":5,"migraine_risk":7,"frizz_risk":1,"updated_at":"2026-04-11T22:10:38.237632+05:30"},{"city":"Tirunelveli","state":"Tamil Nadu","latitude":8.7139,"longitude":77.7567,"temp":29.8,"humidity":68,"rain":0.0,"pressure":1004.7,"uv_index":9.25,"wind_gusts":46.1,"aqi":88,"pm10":24.4,"pm2_5":21.1,"mosquito_risk":7,"arthritis_risk":5,"migraine_risk":4,"frizz_risk":1,"updated_at":"2026-04-11T22:10:38.237639+05:30"},{"city":"Vellore","state":"Tamil Nadu","latitude":12.9165,"longitude":79.1325,"temp":29.0,"humidity":66,"rain":0.0,"pressure":986.3,"uv_index":9.45,"wind_gusts":36.7,"aqi":94,"pm10":30.9,"pm2_5":28.1,"mosquito_risk":7,"arthritis_risk":5,"migraine_risk":7,"frizz_risk":1,"updated_at":"2026-04-11T22:10:38.237647+05:30"},{"city":"Erode","state":"Tamil Nadu","latitude":11.341,"longitude":77.7172,"temp":31.6,"humidity":55,"rain":0.0,"pressure":989.7,"uv_index":8.95,"wind_gusts":32.0,"aqi":100,"pm10":25.6,"pm2_5":21.5,"mosquito_risk":0,"arthritis_risk":5,"migraine_risk":7,"frizz_risk":1,"updated_at":"2026-04-11T22:10:38.237654+05:30"},{"city":"Kochi","state":"Kerala","latitude":9.9312,"longitude":76.2673,"temp":30.0,"humidity":81,"rain":0.0,"pressure":1009.5,"uv_index":8.8,"wind_gusts":29.5,"aqi":67,"pm10":35.3,"pm2_5":26.7,"mosquito_risk":7,"arthritis_risk":0,"migraine_risk":4,"frizz_risk":1,"updated_at":"2026-04-11T22:10:38.237661+05:30"},{"city":"Thiruvananthapuram","state":"Kerala","latitude":8.5241,"longitude":76.9366,"temp":29.1,"humidity":84,"rain":0.0,"pressure":1009.5,"uv_index":7.6,"wind_gusts":36.4,"aqi":68,"pm10":33.3,"pm2_5":17.9,"mosquito_risk":7,"arthritis_risk":0,"migraine_risk":4,"frizz_risk":1,"updated_at":"2026-04-11T22:10:38.237667+05:30"},{"city":"Kozhikode","state":"Kerala","latitude":11.2588,"longitude":75.7804,"temp":30.0,"humidity":81,"rain":0.0,"pressure":1008.5,"uv_index":8.75,"wind_gusts":28.1,"aqi":60,"pm10":42.6,"pm2_5":18.4,"mosquito_risk":7,"arthritis_risk":0,"migraine_risk":4,"frizz_risk":1,"updated_at":"2026-04-11T22:10:38.237674+05:30"},{"city":"Thrissur","state":"Kerala","latitude":10.5276,"longitude":76.2144,"temp":29.2,"humidity":83,"rain":0.0,"pressure":1007.9,"uv_index":8.8,"wind_gusts":31.7,"aqi":66,"pm10":35.7,"pm2_5":23.9,"mosquito_risk":7,"arthritis_risk":5,"migraine_risk":4,"frizz_risk":1,"updated_at":"2026-04-11T22:10:38.237680+05:30"},{"city":"Kannur","state":"Kerala","latitude":11.8745,"longitude":75.3704,"temp":29.5,"humidity":79,"rain":0.0,"pressure":1008.1,"uv_index":8.65,"wind_gusts":31.3,"aqi":67,"pm10":61.0,"pm2_5":32.4,"mosquito_risk":7,"arthritis_risk":0,"migraine_risk":4,"frizz_risk":1,"updated_at":"2026-04-11T22:10:38.237687+05:30"},{"city":"Patna","state":"Bihar","latitude":25.5941,"longitude":85.1376,"temp":26.7,"humidity":46,"rain":0.0,"pressure":1001.4,"uv_index":8.45,"wind_gusts":28.4,"aqi":122,"pm10":97.8,"pm2_5":56.9,"mosquito_risk":4,"arthritis_risk":5,"migraine_risk":4,"frizz_risk":0,"updated_at":"2026-04-11T22:10:38.237694+05:30"},{"city":"Gaya","state":"Bihar","latitude":24.7914,"longitude":85.0002,"temp":26.3,"humidity":41,"rain":0.0,"pressure":995.3,"uv_index":8.5,"wind_gusts":33.5,"aqi":103,"pm10":71.7,"pm2_5":35.6,"mosquito_risk":4,"arthritis_risk":5,"migraine_risk":7,"frizz_risk":0,"updated_at":"2026-04-11T22:10:38.237700+05:30"},{"city":"Muzaffarpur","state":"Bihar","latitude":26.1209,"longitude":85.3647,"temp":24.7,"humidity":53,"rain":0.0,"pressure":1001.5,"uv_index":8.4,"wind_gusts":18.4,"aqi":123,"pm10":128.5,"pm2_5":73.8,"mosquito_risk":0,"arthritis_risk":5,"migraine_risk":4,"frizz_risk":0,"updated_at":"2026-04-11T22:10:38.237707+05:30"},{"city":"Bhagalpur","state":"Bihar","latitude":25.2425,"longitude":87.0117,"temp":24.9,"humidity":61,"rain":0.0,"pressure":1002.1,"uv_index":8.45,"wind_gusts":20.5,"aqi":128,"pm10":324.1,"pm2_5":82.7,"mosquito_risk":3,"arthritis_risk":5,"migraine_risk":4,"frizz_risk":1,"updated_at":"2026-04-11T22:10:38.237713+05:30"},{"city":"Ranchi","state":"Jharkhand","latitude":23.3441,"longitude":85.3096,"temp":22.9,"humidity":38,"rain":0.0,"pressure":939.9,"uv_index":9.05,"wind_gusts":31.7,"aqi":105,"pm10":75.9,"pm2_5":25.9,"mosquito_risk":0,"arthritis_risk":5,"migraine_risk":7,"frizz_risk":0,"updated_at":"2026-04-11T22:10:38.237719+05:30"},{"city":"Jamshedpur","state":"Jharkhand","latitude":22.8046,"longitude":86.2029,"temp":25.3,"humidity":63,"rain":0.0,"pressure":992.3,"uv_index":8.85,"wind_gusts":14.8,"aqi":126,"pm10":161.6,"pm2_5":49.1,"mosquito_risk":7,"arthritis_risk":5,"migraine_risk":7,"frizz_risk":1,"updated_at":"2026-04-11T22:10:38.237725+05:30"},{"city":"Dhanbad","state":"Jharkhand","latitude":23.7957,"longitude":86.4304,"temp":27.1,"humidity":37,"rain":0.0,"pressure":981.3,"uv_index":8.8,"wind_gusts":24.5,"aqi":150,"pm10":136.9,"pm2_5":62.4,"mosquito_risk":4,"arthritis_risk":5,"migraine_risk":7,"frizz_risk":0,"updated_at":"2026-04-11T22:10:38.237731+05:30"},{"city":"Bokaro","state":"Jharkhand","latitude":23.6693,"longitude":86.1511,"temp":24.5,"humidity":43,"rain":0.0,"pressure":985.5,"uv_index":8.8,"wind_gusts":25.6,"aqi":144,"pm10":121.1,"pm2_5":53.9,"mosquito_risk":0,"arthritis_risk":5,"migraine_risk":7,"frizz_risk":0,"updated_at":"2026-04-11T22:10:38.237757+05:30"},{"city":"Bhubaneswar","state":"Odisha","latitude":20.2961,"longitude":85.8245,"temp":27.3,"humidity":93,"rain":0.0,"pressure":1004.7,"uv_index":9.0,"wind_gusts":24.5,"aqi":134,"pm10":41.7,"pm2_5":37.7,"mosquito_risk":7,"arthritis_risk":5,"migraine_risk":4,"frizz_risk":1,"updated_at":"2026-04-11T22:10:38.237766+05:30"},{"city":"Cuttack","state":"Odisha","latitude":20.4625,"longitude":85.8828,"temp":27.6,"humidity":89,"rain":0.0,"pressure":1006.4,"uv_index":9.05,"wind_gusts":20.5,"aqi":134,"pm10":41.7,"pm2_5":37.7,"mosquito_risk":7,"arthritis_risk":5,"migraine_risk":4,"frizz_risk":1,"updated_at":"2026-04-11T22:10:38.237772+05:30"},{"city":"Rourkela","state":"Odisha","latitude":22.2604,"longitude":84.8536,"temp":23.4,"humidity":74,"rain":0.0,"pressure":986.9,"uv_index":8.75,"wind_gusts":16.2,"aqi":107,"pm10":150.4,"pm2_5":55.6,"mosquito_risk":3,"arthritis_risk":5,"migraine_risk":7,"frizz_risk":1,"updated_at":"2026-04-11T22:10:38.237778+05:30"},{"city":"Raipur","state":"Chhattisgarh","latitude":21.2514,"longitude":81.6296,"temp":29.7,"humidity":35,"rain":0.0,"pressure":976.2,"uv_index":8.85,"wind_gusts":21.6,"aqi":138,"pm10":48.3,"pm2_5":33.6,"mosquito_risk":4,"arthritis_risk":5,"migraine_risk":7,"frizz_risk":0,"updated_at":"2026-04-11T22:10:38.237784+05:30"},{"city":"Bhilai","state":"Chhattisgarh","latitude":21.1938,"longitude":81.3509,"temp":28.0,"humidity":45,"rain":0.0,"pressure":976.3,"uv_index":8.85,"wind_gusts":19.8,"aqi":113,"pm10":68.5,"pm2_5":51.1,"mosquito_risk":4,"arthritis_risk":5,"migraine_risk":7,"frizz_risk":0,"updated_at":"2026-04-11T22:10:38.237791+05:30"},{"city":"Guwahati","state":"Assam","latitude":26.1158,"longitude":91.7086,"temp":24.7,"humidity":78,"rain":0.0,"pressure":1003.9,"uv_index":8.35,"wind_gusts":20.2,"aqi":103,"pm10":51.2,"pm2_5":42.1,"mosquito_risk":3,"arthritis_risk":5,"migraine_risk":4,"frizz_risk":1,"updated_at":"2026-04-11T22:10:38.237797+05:30"},{"city":"Agartala","state":"Tripura","latitude":23.8315,"longitude":91.2868,"temp":25.4,"humidity":69,"rain":0.0,"pressure":1007.5,"uv_index":8.6,"wind_gusts":21.6,"aqi":132,"pm10":45.4,"pm2_5":38.6,"mosquito_risk":7,"arthritis_risk":5,"migraine_risk":4,"frizz_risk":1,"updated_at":"2026-04-11T22:10:38.237803+05:30"},{"city":"Shillong","state":"Meghalaya","latitude":25.5788,"longitude":91.8933,"temp":12.9,"humidity":84,"rain":0.0,"pressure":856.6,"uv_index":8.75,"wind_gusts":52.2,"aqi":126,"pm10":56.1,"pm2_5":43.0,"mosquito_risk":3,"arthritis_risk":10,"migraine_risk":7,"frizz_risk":0,"updated_at":"2026-04-11T22:10:38.237809+05:30"},{"city":"Imphal","state":"Manipur","latitude":24.817,"longitude":93.9368,"temp":15.5,"humidity":78,"rain":0.0,"pressure":924.5,"uv_index":8.95,"wind_gusts":52.2,"aqi":97,"pm10":52.7,"pm2_5":39.5,"mosquito_risk":3,"arthritis_risk":5,"migraine_risk":7,"frizz_risk":0,"updated_at":"2026-04-11T22:10:38.237816+05:30"},{"city":"Aizawl","state":"Mizoram","latitude":23.7271,"longitude":92.7176,"temp":18.1,"humidity":67,"rain":0.0,"pressure":893.7,"uv_index":8.8,"wind_gusts":41.8,"aqi":105,"pm10":55.8,"pm2_5":39.0,"mosquito_risk":3,"arthritis_risk":5,"migraine_risk":7,"frizz_risk":0,"updated_at":"2026-04-11T22:10:38.237822+05:30"},{"city":"Kohima","state":"Nagaland","latitude":25.6701,"longitude":94.1077,"temp":13.9,"humidity":79,"rain":0.0,"pressure":855.7,"uv_index":7.6,"wind_gusts":65.9,"aqi":101,"pm10":47.1,"pm2_5":34.1,"mosquito_risk":3,"arthritis_risk":5,"migraine_risk":7,"frizz_risk":0,"updated_at":"2026-04-11T22:10:38.237828+05:30"},{"city":"Gangtok","state":"Sikkim","latitude":27.3314,"longitude":88.6138,"temp":12.2,"humidity":93,"rain":0.0,"pressure":837.4,"uv_index":8.55,"wind_gusts":18.4,"aqi":95,"pm10":39.9,"pm2_5":35.6,"mosquito_risk":3,"arthritis_risk":10,"migraine_risk":7,"frizz_risk":0,"updated_at":"2026-04-11T22:10:38.237834+05:30"},{"city":"Siliguri","state":"West Bengal","latitude":26.7271,"longitude":88.3953,"temp":20.3,"humidity":63,"rain":0.0,"pressure":996.0,"uv_index":8.2,"wind_gusts":18.0,"aqi":115,"pm10":60.5,"pm2_5":48.1,"mosquito_risk":3,"arthritis_risk":5,"migraine_risk":7,"frizz_risk":0,"updated_at":"2026-04-11T22:10:41.586783+05:30"},{"city":"Durgapur","state":"West Bengal","latitude":23.5204,"longitude":87.3119,"temp":26.3,"humidity":48,"rain":0.0,"pressure":996.3,"uv_index":8.75,"wind_gusts":20.9,"aqi":143,"pm10":219.3,"pm2_5":85.2,"mosquito_risk":4,"arthritis_risk":5,"migraine_risk":7,"frizz_risk":0,"updated_at":"2026-04-11T22:10:41.586815+05:30"},{"city":"Asansol","state":"West Bengal","latitude":23.6739,"longitude":86.9524,"temp":28.0,"humidity":40,"rain":0.0,"pressure":994.8,"uv_index":8.75,"wind_gusts":22.7,"aqi":123,"pm10":153.7,"pm2_5":60.1,"mosquito_risk":4,"arthritis_risk":5,"migraine_risk":7,"frizz_risk":0,"updated_at":"2026-04-11T22:10:41.586832+05:30"},{"city":"Pondicherry","state":"Puducherry","latitude":11.9139,"longitude":79.8145,"temp":28.2,"humidity":88,"rain":0.0,"pressure":1009.8,"uv_index":9.35,"wind_gusts":34.9,"aqi":55,"pm10":17.9,"pm2_5":12.3,"mosquito_risk":7,"arthritis_risk":0,"migraine_risk":4,"frizz_risk":1,"updated_at":"2026-04-11T22:10:41.586842+05:30"},{"city":"Port Blair","state":"Andaman and Nicobar Islands","latitude":11.6234,"longitude":92.7265,"temp":29.0,"humidity":78,"rain":0.0,"pressure":1008.6,"uv_index":9.25,"wind_gusts":26.3,"aqi":30,"pm10":10.7,"pm2_5":6.8,"mosquito_risk":7,"arthritis_risk":0,"migraine_risk":4,"frizz_risk":1,"updated_at":"2026-04-11T22:10:41.586850+05:30"},{"city":"Haridwar","state":"Uttarakhand","latitude":29.9457,"longitude":78.1642,"temp":21.2,"humidity":67,"rain":0.0,"pressure":977.4,"uv_index":7.0,"wind_gusts":42.1,"aqi":86,"pm10":77.1,"pm2_5":31.0,"mosquito_risk":3,"arthritis_risk":5,"migraine_risk":7,"frizz_risk":0,"updated_at":"2026-04-11T22:10:41.586859+05:30"},{"city":"Rishikesh","state":"Uttarakhand","latitude":30.0869,"longitude":78.2676,"temp":19.6,"humidity":67,"rain":0.0,"pressure":970.2,"uv_index":6.9,"wind_gusts":42.1,"aqi":87,"pm10":70.1,"pm2_5":23.9,"mosquito_risk":3,"arthritis_risk":5,"migraine_risk":7,"frizz_risk":0,"updated_at":"2026-04-11T22:10:41.586867+05:30"},{"city":"Nainital","state":"Uttarakhand","latitude":29.3919,"longitude":79.4542,"temp":17.9,"humidity":41,"rain":0.0,"pressure":807.6,"uv_index":7.85,"wind_gusts":69.8,"aqi":76,"pm10":90.1,"pm2_5":25.3,"mosquito_risk":0,"arthritis_risk":5,"migraine_risk":7,"frizz_risk":0,"updated_at":"2026-04-11T22:10:41.586875+05:30"},{"city":"Mussoorie","state":"Uttarakhand","latitude":30.4599,"longitude":78.0664,"temp":14.2,"humidity":65,"rain":0.0,"pressure":804.0,"uv_index":7.45,"wind_gusts":59.8,"aqi":81,"pm10":102.4,"pm2_5":30.0,"mosquito_risk":3,"arthritis_risk":5,"migraine_risk":7,"frizz_risk":0,"updated_at":"2026-04-11T22:10:41.586883+05:30"},{"city":"Dharamshala","state":"Himachal Pradesh","latitude":32.219,"longitude":76.3234,"temp":16.5,"humidity":59,"rain":0.0,"pressure":871.0,"uv_index":7.5,"wind_gusts":30.6,"aqi":96,"pm10":27.8,"pm2_5":12.3,"mosquito_risk":0,"arthritis_risk":5,"migraine_risk":7,"frizz_risk":0,"updated_at":"2026-04-11T22:10:41.586891+05:30"},{"city":"Dalhousie","state":"Himachal Pradesh","latitude":32.5387,"longitude":75.971,"temp":12.6,"humidity":62,"rain":0.0,"pressure":804.4,"uv_index":6.7,"wind_gusts":23.4,"aqi":91,"pm10":66.1,"pm2_5":29.5,"mosquito_risk":3,"arthritis_risk":5,"migraine_risk":7,"frizz_risk":0,"updated_at":"2026-04-11T22:10:41.586900+05:30"},{"city":"Patiala","state":"Punjab","latitude":30.3398,"longitude":76.3869,"temp":23.2,"humidity":56,"rain":0.0,"pressure":981.6,"uv_index":6.95,"wind_gusts":30.6,"aqi":401,"pm10":112.9,"pm2_5":45.9,"mosquito_risk":0,"arthritis_risk":5,"migraine_risk":7,"frizz_risk":0,"updated_at":"2026-04-11T22:10:41.586909+05:30"},{"city":"Bhatinda","state":"Punjab","latitude":30.211,"longitude":74.9455,"temp":24.0,"humidity":52,"rain":0.0,"pressure":987.1,"uv_index":7.7,"wind_gusts":29.9,"aqi":115,"pm10":105.7,"pm2_5":38.5,"mosquito_risk":0,"arthritis_risk":5,"migraine_risk":7,"frizz_risk":0,"updated_at":"2026-04-11T22:10:41.586917+05:30"},{"city":"Rohtak","state":"Haryana","latitude":28.8955,"longitude":76.6066,"temp":24.2,"humidity":55,"rain":0.0,"pressure":984.1,"uv_index":7.1,"wind_gusts":25.9,"aqi":686,"pm10":838.2,"pm2_5":117.6,"mosquito_risk":0,"arthritis_risk":5,"migraine_risk":7,"frizz_risk":0,"updated_at":"2026-04-11T22:10:41.586924+05:30"},{"city":"Panipat","state":"Haryana","latitude":29.3909,"longitude":76.9635,"temp":23.5,"humidity":54,"rain":0.0,"pressure":983.1,"uv_index":6.95,"wind_gusts":29.5,"aqi":1434,"pm10":1121.3,"pm2_5":143.4,"mosquito_risk":0,"arthritis_risk":5,"migraine_risk":7,"frizz_risk":0,"updated_at":"2026-04-11T22:10:41.586932+05:30"},{"city":"Mathura","state":"Uttar Pradesh","latitude":27.4924,"longitude":77.6737,"temp":25.9,"humidity":49,"rain":0.0,"pressure":988.5,"uv_index":7.5,"wind_gusts":27.7,"aqi":899,"pm10":601.6,"pm2_5":98.7,"mosquito_risk":4,"arthritis_risk":5,"migraine_risk":7,"frizz_risk":0,"updated_at":"2026-04-11T22:10:41.586940+05:30"},{"city":"Vrindavan","state":"Uttar Pradesh","latitude":27.5823,"longitude":77.7027,"temp":25.1,"humidity":50,"rain":0.0,"pressure":989.1,"uv_index":7.45,"wind_gusts":32.0,"aqi":899,"pm10":601.6,"pm2_5":98.7,"mosquito_risk":4,"arthritis_risk":5,"migraine_risk":7,"frizz_risk":0,"updated_at":"2026-04-11T22:10:41.586948+05:30"},{"city":"Ayodhya","state":"Uttar Pradesh","latitude":26.7922,"longitude":82.1998,"temp":26.5,"humidity":39,"rain":0.0,"pressure":996.9,"uv_index":7.85,"wind_gusts":43.6,"aqi":151,"pm10":171.8,"pm2_5":41.9,"mosquito_risk":4,"arthritis_risk":5,"migraine_risk":7,"frizz_risk":0,"updated_at":"2026-04-11T22:10:41.586956+05:30"},{"city":"Ratlam","state":"Madhya Pradesh","latitude":23.3315,"longitude":75.0367,"temp":28.2,"humidity":43,"rain":0.0,"pressure":956.3,"uv_index":8.35,"wind_gusts":19.8,"aqi":112,"pm10":25.4,"pm2_5":18.6,"mosquito_risk":4,"arthritis_risk":5,"migraine_risk":7,"frizz_risk":0,"updated_at":"2026-04-11T22:10:41.586964+05:30"},{"city":"Sagar","state":"Madhya Pradesh","latitude":23.8388,"longitude":78.7378,"temp":27.8,"humidity":36,"rain":0.0,"pressure":951.8,"uv_index":8.5,"wind_gusts":27.4,"aqi":98,"pm10":53.2,"pm2_5":20.2,"mosquito_risk":4,"arthritis_risk":5,"migraine_risk":7,"frizz_risk":0,"updated_at":"2026-04-11T22:10:41.586972+05:30"},{"city":"Satna","state":"Madhya Pradesh","latitude":24.6005,"longitude":80.8322,"temp":28.5,"humidity":34,"rain":0.0,"pressure":973.7,"uv_index":8.5,"wind_gusts":28.1,"aqi":105,"pm10":71.2,"pm2_5":25.3,"mosquito_risk":4,"arthritis_risk":5,"migraine_risk":7,"frizz_risk":0,"updated_at":"2026-04-11T22:10:41.586980+05:30"},{"city":"Akola","state":"Maharashtra","latitude":20.7002,"longitude":77.0082,"temp":29.3,"humidity":42,"rain":0.0,"pressure":975.9,"uv_index":8.75,"wind_gusts":29.5,"aqi":145,"pm10":35.4,"pm2_5":26.1,"mosquito_risk":4,"arthritis_risk":5,"migraine_risk":7,"frizz_risk":0,"updated_at":"2026-04-11T22:10:41.586987+05:30"},{"city":"Amravati","state":"Maharashtra","latitude":20.9374,"longitude":77.7796,"temp":29.0,"humidity":48,"rain":0.0,"pressure":968.0,"uv_index":8.75,"wind_gusts":23.4,"aqi":152,"pm10":38.2,"pm2_5":29.1,"mosquito_risk":4,"arthritis_risk":5,"migraine_risk":7,"frizz_risk":1,"updated_at":"2026-04-11T22:10:41.586994+05:30"},{"city":"Latur","state":"Maharashtra","latitude":18.4088,"longitude":76.5604,"temp":29.3,"humidity":51,"rain":0.0,"pressure":941.1,"uv_index":9.0,"wind_gusts":20.9,"aqi":154,"pm10":31.8,"pm2_5":24.4,"mosquito_risk":4,"arthritis_risk":5,"migraine_risk":7,"frizz_risk":1,"updated_at":"2026-04-11T22:10:41.587000+05:30"},{"city":"Nanded","state":"Maharashtra","latitude":19.1383,"longitude":77.3091,"temp":31.6,"humidity":45,"rain":0.0,"pressure":969.5,"uv_index":8.9,"wind_gusts":17.3,"aqi":127,"pm10":55.3,"pm2_5":43.4,"mosquito_risk":0,"arthritis_risk":5,"migraine_risk":7,"frizz_risk":1,"updated_at":"2026-04-11T22:10:41.587006+05:30"},{"city":"Gulbarga","state":"Karnataka","latitude":17.3297,"longitude":76.8343,"temp":33.8,"humidity":33,"rain":0.0,"pressure":959.4,"uv_index":9.05,"wind_gusts":19.8,"aqi":142,"pm10":37.8,"pm2_5":30.9,"mosquito_risk":0,"arthritis_risk":5,"migraine_risk":7,"frizz_risk":0,"updated_at":"2026-04-11T22:10:41.587012+05:30"},{"city":"Bidar","state":"Karnataka","latitude":17.9104,"longitude":77.5199,"temp":30.4,"humidity":44,"rain":0.0,"pressure":936.8,"uv_index":9.05,"wind_gusts":25.2,"aqi":144,"pm10":33.9,"pm2_5":26.6,"mosquito_risk":0,"arthritis_risk":5,"migraine_risk":7,"frizz_risk":1,"updated_at":"2026-04-11T22:10:41.587018+05:30"},{"city":"Hospet","state":"Karnataka","latitude":15.2689,"longitude":76.3909,"temp":32.6,"humidity":52,"rain":0.0,"pressure":956.4,"uv_index":9.25,"wind_gusts":27.7,"aqi":173,"pm10":47.6,"pm2_5":40.5,"mosquito_risk":0,"arthritis_risk":5,"migraine_risk":7,"frizz_risk":1,"updated_at":"2026-04-11T22:10:41.587023+05:30"},{"city":"Tirupur","state":"Tamil Nadu","latitude":11.1085,"longitude":77.3411,"temp":30.0,"humidity":67,"rain":0.0,"pressure":976.5,"uv_index":8.95,"wind_gusts":29.5,"aqi":109,"pm10":43.8,"pm2_5":37.5,"mosquito_risk":7,"arthritis_risk":5,"migraine_risk":7,"frizz_risk":1,"updated_at":"2026-04-11T22:10:41.587029+05:30"},{"city":"Alappuzha","state":"Kerala","latitude":9.4981,"longitude":76.3388,"temp":29.8,"humidity":81,"rain":0.0,"pressure":1010.0,"uv_index":8.9,"wind_gusts":30.6,"aqi":68,"pm10":44.9,"pm2_5":27.4,"mosquito_risk":7,"arthritis_risk":0,"migraine_risk":4,"frizz_risk":1,"updated_at":"2026-04-11T22:10:41.587035+05:30"},{"city":"Munnar","state":"Kerala","latitude":10.0889,"longitude":77.0595,"temp":22.5,"humidity":90,"rain":0.0,"pressure":858.6,"uv_index":9.65,"wind_gusts":38.5,"aqi":77,"pm10":38.4,"pm2_5":33.6,"mosquito_risk":3,"arthritis_risk":5,"migraine_risk":7,"frizz_risk":1,"updated_at":"2026-04-11T22:10:41.587041+05:30"},{"city":"Silchar","state":"Assam","latitude":24.8333,"longitude":92.7789,"temp":24.1,"humidity":76,"rain":0.0,"pressure":1006.7,"uv_index":8.6,"wind_gusts":24.5,"aqi":136,"pm10":67.1,"pm2_5":53.0,"mosquito_risk":3,"arthritis_risk":5,"migraine_risk":4,"frizz_risk":1,"updated_at":"2026-04-11T22:10:41.587047+05:30"},{"city":"Dibrugarh","state":"Assam","latitude":27.4728,"longitude":94.912,"temp":21.7,"humidity":90,"rain":0.0,"pressure":999.0,"uv_index":8.4,"wind_gusts":19.4,"aqi":92,"pm10":52.3,"pm2_5":47.0,"mosquito_risk":3,"arthritis_risk":5,"migraine_risk":7,"frizz_risk":1,"updated_at":"2026-04-11T22:10:41.587053+05:30"}]