[{"city":"Delhi","state":"Delhi","latitude":28.6139,"longitude":77.209,"temp":41.2,"humidity":13,"rain":0.0,"pressure":981.5,"uv_index":7.25,"wind_gusts":50.4,"aqi":348,"pm10":306.4,"pm2_5":49.0,"mosquito_risk":0,"arthritis_risk":5,"migraine_risk":10,"frizz_risk":0,"updated_at":"2026-04-25T14:27:11.195461+05:30"},{"city":"Mumbai","state":"Maharashtra","latitude":19.076,"longitude":72.8777,"temp":37.5,"humidity":41,"rain":0.0,"pressure":1005.4,"uv_index":8.0,"wind_gusts":44.6,"aqi":79,"pm10":44.5,"pm2_5":33.3,"mosquito_risk":0,"arthritis_risk":5,"migraine_risk":7,"frizz_risk":1,"updated_at":"2026-04-25T14:27:11.195508+05:30"},{"city":"Bangalore","state":"Karnataka","latitude":12.9716,"longitude":77.5946,"temp":35.2,"humidity":21,"rain":0.0,"pressure":912.2,"uv_index":9.5,"wind_gusts":37.1,"aqi":74,"pm10":36.6,"pm2_5":27.5,"mosquito_risk":0,"arthritis_risk":5,"migraine_risk":10,"frizz_risk":0,"updated_at":"2026-04-25T14:27:11.195524+05:30"},{"city":"Hyderabad","state":"Telangana","latitude":17.385,"longitude":78.4867,"temp":38.9,"humidity":19,"rain":0.0,"pressure":953.0,"uv_index":9.3,"wind_gusts":31.7,"aqi":124,"pm10":52.0,"pm2_5":43.7,"mosquito_risk":0,"arthritis_risk":5,"migraine_risk":10,"frizz_risk":0,"updated_at":"2026-04-25T14:27:11.195535+05:30"},{"city":"Chennai","state":"Tamil Nadu","latitude":13.0827,"longitude":80.2707,"temp":34.5,"humidity":52,"rain":0.0,"pressure":1005.7,"uv_index":9.3,"wind_gusts":51.1,"aqi":31,"pm10":13.0,"pm2_5":8.8,"mosquito_risk":0,"arthritis_risk":5,"migraine_risk":4,"frizz_risk":1,"updated_at":"2026-04-25T14:27:11.195544+05:30"},{"city":"Kolkata","state":"West Bengal","latitude":22.5726,"longitude":88.3639,"temp":38.0,"humidity":44,"rain":0.0,"pressure":1002.9,"uv_index":8.45,"wind_gusts":43.9,"aqi":81,"pm10":41.6,"pm2_5":32.1,"mosquito_risk":0,"arthritis_risk":5,"migraine_risk":7,"frizz_risk":1,"updated_at":"2026-04-25T14:27:11.195557+05:30"},{"city":"Pune","state":"Maharashtra","latitude":18.5204,"longitude":73.8567,"temp":40.0,"humidity":12,"rain":0.0,"pressure":947.4,"uv_index":8.45,"wind_gusts":37.8,"aqi":99,"pm10":31.9,"pm2_5":25.2,"mosquito_risk":0,"arthritis_risk":5,"migraine_risk":10,"frizz_risk":0,"updated_at":"2026-04-25T14:27:11.195565+05:30"},{"city":"Ahmedabad","state":"Gujarat","latitude":23.0225,"longitude":72.5714,"temp":42.5,"humidity":16,"rain":0.0,"pressure":1000.1,"uv_index":8.2,"wind_gusts":24.1,"aqi":63,"pm10":64.5,"pm2_5":18.7,"mosquito_risk":0,"arthritis_risk":5,"migraine_risk":7,"frizz_risk":0,"updated_at":"2026-04-25T14:27:11.195573+05:30"},{"city":"Jaipur","state":"Rajasthan","latitude":26.9124,"longitude":75.7873,"temp":41.9,"humidity":12,"rain":0.0,"pressure":959.6,"uv_index":8.05,"wind_gusts":31.0,"aqi":126,"pm10":163.0,"pm2_5":31.3,"mosquito_risk":0,"arthritis_risk":5,"migraine_risk":10,"frizz_risk":0,"updated_at":"2026-04-25T14:27:11.195581+05:30"},{"city":"Lucknow","state":"Uttar Pradesh","latitude":26.8467,"longitude":80.9462,"temp":43.4,"humidity":10,"rain":0.0,"pressure":989.6,"uv_index":7.9,"wind_gusts":43.6,"aqi":130,"pm10":230.0,"pm2_5":42.0,"mosquito_risk":0,"arthritis_risk":5,"migraine_risk":10,"frizz_risk":0,"updated_at":"2026-04-25T14:27:11.195588+05:30"},{"city":"Kanpur","state":"Uttar Pradesh","latitude":26.4499,"longitude":80.3319,"temp":44.1,"humidity":10,"rain":0.0,"pressure":988.0,"uv_index":7.95,"wind_gusts":45.4,"aqi":145,"pm10":393.9,"pm2_5":49.0,"mosquito_risk":0,"arthritis_risk":5,"migraine_risk":10,"frizz_risk":0,"updated_at":"2026-04-25T14:27:11.195596+05:30"},{"city":"Chandigarh","state":"Chandigarh","latitude":30.7333,"longitude":76.7794,"temp":34.5,"humidity":28,"rain":0.0,"pressure":969.4,"uv_index":7.25,"wind_gusts":58.3,"aqi":66,"pm10":53.4,"pm2_5":16.5,"mosquito_risk":0,"arthritis_risk":5,"migraine_risk":7,"frizz_risk":0,"updated_at":"2026-04-25T14:27:11.195603+05:30"},{"city":"Srinagar","state":"Jammu and Kashmir","latitude":34.0837,"longitude":74.7973,"temp":19.5,"humidity":60,"rain":0.0,"pressure":847.1,"uv_index":8.6,"wind_gusts":36.7,"aqi":71,"pm10":52.2,"pm2_5":14.4,"mosquito_risk":0,"arthritis_risk":5,"migraine_risk":7,"frizz_risk":0,"updated_at":"2026-04-25T14:27:11.195610+05:30"},{"city":"Jammu","state":"Jammu and Kashmir","latitude":32.7266,"longitude":74.857,"temp":36.5,"humidity":20,"rain":0.0,"pressure":973.6,"uv_index":8.2,"wind_gusts":27.7,"aqi":78,"pm10":91.7,"pm2_5":20.8,"mosquito_risk":0,"arthritis_risk":5,"migraine_risk":10,"frizz_risk":0,"updated_at":"2026-04-25T14:27:11.195618+05:30"},{"city":"Amritsar","state":"Punjab","latitude":31.634,"longitude":74.8723,"temp":39.0,"humidity":17,"rain":0.0,"pressure":980.8,"uv_index":8.1,"wind_gusts":33.5,"aqi":85,"pm10":155.1,"pm2_5":33.2,"mosquito_risk":0,"arthritis_risk":5,"migraine_risk":10,"frizz_risk":0,"updated_at":"2026-04-25T14:27:11.195625+05:30"},{"city":"Ludhiana","state":"Punjab","latitude":30.901,"longitude":75.8573,"temp":37.3,"humidity":20,"rain":0.0,"pressure":979.4,"uv_index":7.7,"wind_gusts":48.6,"aqi":77,"pm10":89.9,"pm2_5":22.8,"mosquito_risk":0,"arthritis_risk":5,"migraine_risk":10,"frizz_risk":0,"updated_at":"2026-04-25T14:27:11.195635+05:30"},{"city":"Jalandhar","state":"Punjab","latitude":31.326,"longitude":75.5762,"temp":37.2,"humidity":20,"rain":0.0,"pressure":980.4,"uv_index":7.85,"wind_gusts":38.5,"aqi":87,"pm10":131.3,"pm2_5":28.1,"mosquito_risk":0,"arthritis_risk":5,"migraine_risk":10,"frizz_risk":0,"updated_at":"2026-04-25T14:27:11.195641+05:30"},{"city":"Dehradun","state":"Uttarakhand","latitude":30.6284,"longitude":78.0322,"temp":25.2,"humidity":34,"rain":0.0,"pressure":834.6,"uv_index":7.85,"wind_gusts":52.9,"aqi":54,"pm10":44.6,"pm2_5":12.1,"mosquito_risk":4,"arthritis_risk":5,"migraine_risk":7,"frizz_risk":0,"updated_at":"2026-04-25T14:27:11.195648+05:30"},{"city":"Shimla","state":"Himachal Pradesh","latitude":31.1048,"longitude":77.1734,"temp":22.6,"humidity":27,"rain":0.0,"pressure":790.0,"uv_index":7.45,"wind_gusts":55.8,"aqi":56,"pm10":40.9,"pm2_5":11.1,"mosquito_risk":0,"arthritis_risk":5,"migraine_risk":7,"frizz_risk":0,"updated_at":"2026-04-25T14:27:11.195655+05:30"},{"city":"Manali","state":"Himachal Pradesh","latitude":32.2396,"longitude":77.1887,"temp":20.0,"humidity":45,"rain":0.0,"pressure":822.0,"uv_index":9.85,"wind_gusts":43.9,"aqi":89,"pm10":37.1,"pm2_5":9.4,"mosquito_risk":0,"arthritis_risk":5,"migraine_risk":7,"frizz_risk":0,"updated_at":"2026-04-25T14:27:11.195662+05:30"},{"city":"Gurgaon","state":"Haryana","latitude":28.4595,"longitude":77.0266,"temp":40.2,"humidity":14,"rain":0.0,"pressure":980.5,"uv_index":7.45,"wind_gusts":51.1,"aqi":874,"pm10":983.5,"pm2_5":104.8,"mosquito_risk":0,"arthritis_risk":5,"migraine_risk":10,"frizz_risk":0,"updated_at":"2026-04-25T14:27:11.195671+05:30"},{"city":"Noida","state":"Uttar Pradesh","latitude":28.5355,"longitude":77.391,"temp":41.8,"humidity":14,"rain":0.0,"pressure":982.3,"uv_index":7.3,"wind_gusts":43.9,"aqi":874,"pm10":983.5,"pm2_5":104.8,"mosquito_risk":0,"arthritis_risk":5,"migraine_risk":10,"frizz_risk":0,"updated_at":"2026-04-25T14:27:11.195679+05:30"},{"city":"Ghaziabad","state":"Uttar Pradesh","latitude":28.6692,"longitude":77.4538,"temp":41.4,"humidity":13,"rain":0.0,"pressure":980.9,"uv_index":7.25,"wind_gusts":50.8,"aqi":175,"pm10":230.5,"pm2_5":40.5,"mosquito_risk":0,"arthritis_risk":5,"migraine_risk":10,"frizz_risk":0,"updated_at":"2026-04-25T14:27:11.195685+05:30"},{"city":"Faridabad","state":"Haryana","latitude":28.4089,"longitude":77.3178,"temp":41.2,"humidity":13,"rain":0.0,"pressure":981.9,"uv_index":7.35,"wind_gusts":52.6,"aqi":874,"pm10":983.5,"pm2_5":104.8,"mosquito_risk":0,"arthritis_risk":5,"migraine_risk":10,"frizz_risk":0,"updated_at":"2026-04-25T14:27:11.195691+05:30"},{"city":"Meerut","state":"Uttar Pradesh","latitude":28.9845,"longitude":77.7064,"temp":40.4,"humidity":17,"rain":0.0,"pressure":979.4,"uv_index":7.35,"wind_gusts":55.4,"aqi":175,"pm10":230.5,"pm2_5":40.5,"mosquito_risk":0,"arthritis_risk":5,"migraine_risk":10,"frizz_risk":0,"updated_at":"2026-04-25T14:27:11.195698+05:30"},{"city":"Agra","state":"Uttar Pradesh","latitude":27.1767,"longitude":78.0081,"temp":42.8,"humidity":12,"rain":0.0,"pressure":985.6,"uv_index":7.8,"wind_gusts":45.0,"aqi":270,"pm10":534.6,"pm2_5":61.7,"mosquito_risk":0,"arthritis_risk":5,"migraine_risk":10,"frizz_risk":0,"updated_at":"2026-04-25T14:27:11.195707+05:30"},{"city":"Varanasi","state":"Uttar Pradesh","latitude":25.3176,"longitude":82.9739,"temp":44.1,"humidity":10,"rain":0.0,"pressure":993.5,"uv_index":8.5,"wind_gusts":41.0,"aqi":125,"pm10":169.0,"pm2_5":36.3,"mosquito_risk":0,"arthritis_risk":5,"migraine_risk":10,"frizz_risk":0,"updated_at":"2026-04-25T14:27:11.195714+05:30"},{"city":"Prayagraj","state":"Uttar Pradesh","latitude":25.4358,"longitude":81.8463,"temp":43.0,"humidity":12,"rain":0.0,"pressure":992.7,"uv_index":8.4,"wind_gusts":29.5,"aqi":94,"pm10":164.4,"pm2_5":36.3,"mosquito_risk":0,"arthritis_risk":5,"migraine_risk":10,"frizz_risk":0,"updated_at":"2026-04-25T14:27:11.195722+05:30"},{"city":"Gorakhpur","state":"Uttar Pradesh","latitude":26.7606,"longitude":83.3732,"temp":39.6,"humidity":18,"rain":0.0,"pressure":994.5,"uv_index":8.35,"wind_gusts":41.4,"aqi":154,"pm10":145.8,"pm2_5":50.1,"mosquito_risk":0,"arthritis_risk":5,"migraine_risk":10,"frizz_risk":0,"updated_at":"2026-04-25T14:27:11.195729+05:30"},{"city":"Bareilly","state":"Uttar Pradesh","latitude":28.367,"longitude":79.4304,"temp":41.0,"humidity":18,"rain":0.0,"pressure":983.6,"uv_index":7.7,"wind_gusts":48.2,"aqi":124,"pm10":65.2,"pm2_5":26.6,"mosquito_risk":0,"arthritis_risk":5,"migraine_risk":10,"frizz_risk":0,"updated_at":"2026-04-25T14:27:11.195735+05:30"},{"city":"Aligarh","state":"Uttar Pradesh","latitude":27.8974,"longitude":78.088,"temp":42.3,"humidity":13,"rain":0.0,"pressure":983.3,"uv_index":7.6,"wind_gusts":47.9,"aqi":333,"pm10":429.3,"pm2_5":54.7,"mosquito_risk":0,"arthritis_risk":5,"migraine_risk":10,"frizz_risk":0,"updated_at":"2026-04-25T14:27:11.195741+05:30"},{"city":"Moradabad","state":"Uttar Pradesh","latitude":28.8386,"longitude":78.7733,"temp":40.8,"humidity":17,"rain":0.0,"pressure":981.4,"uv_index":7.5,"wind_gusts":49.3,"aqi":156,"pm10":79.9,"pm2_5":39.8,"mosquito_risk":0,"arthritis_risk":5,"migraine_risk":10,"frizz_risk":0,"updated_at":"2026-04-25T14:27:11.195747+05:30"},{"city":"Saharanpur","state":"Uttar Pradesh","latitude":29.9637,"longitude":77.546,"temp":38.3,"humidity":17,"rain":0.0,"pressure":974.6,"uv_index":7.1,"wind_gusts":53.6,"aqi":99,"pm10":85.0,"pm2_5":22.9,"mosquito_risk":0,"arthritis_risk":5,"migraine_risk":10,"frizz_risk":0,"updated_at":"2026-04-25T14:27:11.195753+05:30"},{"city":"Jhansi","state":"Uttar Pradesh","latitude":25.4484,"longitude":78.5685,"temp":43.3,"humidity":11,"rain":0.0,"pressure":975.8,"uv_index":8.3,"wind_gusts":29.5,"aqi":58,"pm10":106.4,"pm2_5":23.7,"mosquito_risk":0,"arthritis_risk":5,"migraine_risk":10,"frizz_risk":0,"updated_at":"2026-04-25T14:27:14.420038+05:30"},{"city":"Surat","state":"Gujarat","latitude":21.1702,"longitude":72.8311,"temp":42.7,"humidity":18,"rain":0.0,"pressure":1004.2,"uv_index":7.85,"wind_gusts":36.7,"aqi":101,"pm10":75.2,"pm2_5":45.9,"mosquito_risk":0,"arthritis_risk":5,"migraine_risk":7,"frizz_risk":0,"updated_at":"2026-04-25T14:27:14.420071+05:30"},{"city":"Vadodara","state":"Gujarat","latitude":22.3072,"longitude":73.1812,"temp":43.0,"humidity":14,"rain":0.0,"pressure":1002.0,"uv_index":8.15,"wind_gusts":25.2,"aqi":83,"pm10":68.9,"pm2_5":24.2,"mosquito_risk":0,"arthritis_risk":5,"migraine_risk":7,"frizz_risk":0,"updated_at":"2026-04-25T14:27:14.420081+05:30"},{"city":"Rajkot","state":"Gujarat","latitude":22.3039,"longitude":70.8022,"temp":41.5,"humidity":14,"rain":0.0,"pressure":993.2,"uv_index":7.9,"wind_gusts":33.1,"aqi":48,"pm10":53.7,"pm2_5":15.7,"mosquito_risk":0,"arthritis_risk":5,"migraine_risk":10,"frizz_risk":0,"updated_at":"2026-04-25T14:27:14.420090+05:30"},{"city":"Thane","state":"Maharashtra","latitude":19.2183,"longitude":72.9781,"temp":44.2,"humidity":11,"rain":0.0,"pressure":1004.0,"uv_index":8.0,"wind_gusts":47.5,"aqi":79,"pm10":44.5,"pm2_5":33.3,"mosquito_risk":0,"arthritis_risk":5,"migraine_risk":7,"frizz_risk":0,"updated_at":"2026-04-25T14:27:14.420096+05:30"},{"city":"Nagpur","state":"Maharashtra","latitude":21.1458,"longitude":79.0882,"temp":43.7,"humidity":9,"rain":0.0,"pressure":971.3,"uv_index":8.9,"wind_gusts":29.9,"aqi":103,"pm10":32.8,"pm2_5":23.9,"mosquito_risk":0,"arthritis_risk":5,"migraine_risk":10,"frizz_risk":0,"updated_at":"2026-04-25T14:27:14.420104+05:30"},{"city":"Nashik","state":"Maharashtra","latitude":19.9975,"longitude":73.7898,"temp":40.8,"humidity":13,"rain":0.0,"pressure":944.9,"uv_index":8.25,"wind_gusts":31.7,"aqi":78,"pm10":30.0,"pm2_5":20.5,"mosquito_risk":0,"arthritis_risk":5,"migraine_risk":10,"frizz_risk":0,"updated_at":"2026-04-25T14:27:14.420110+05:30"},{"city":"Aurangabad","state":"Maharashtra","latitude":19.8762,"longitude":75.3433,"temp":40.5,"humidity":12,"rain":0.0,"pressure":943.9,"uv_index":8.75,"wind_gusts":29.5,"aqi":93,"pm10":33.1,"pm2_5":21.4,"mosquito_risk":0,"arthritis_risk":5,"migraine_risk":10,"frizz_risk":0,"updated_at":"2026-04-25T14:27:14.420118+05:30"},{"city":"Solapur","state":"Maharashtra","latitude":17.6599,"longitude":75.9064,"temp":40.7,"humidity":16,"rain":0.0,"pressure":955.9,"uv_index":8.65,"wind_gusts":24.8,"aqi":116,"pm10":45.2,"pm2_5":37.1,"mosquito_risk":0,"arthritis_risk":5,"migraine_risk":10,"frizz_risk":0,"updated_at":"2026-04-25T14:27:14.420124+05:30"},{"city":"Kolhapur","state":"Maharashtra","latitude":16.705,"longitude":74.2433,"temp":38.5,"humidity":18,"rain":0.0,"pressure":947.3,"uv_index":9.05,"wind_gusts":34.2,"aqi":150,"pm10":47.7,"pm2_5":39.2,"mosquito_risk":0,"arthritis_risk":5,"migraine_risk":10,"frizz_risk":0,"updated_at":"2026-04-25T14:27:14.420131+05:30"},{"city":"Goa","state":"Goa","latitude":15.2993,"longitude":74.124,"temp":38.5,"humidity":44,"rain":0.0,"pressure":995.4,"uv_index":8.95,"wind_gusts":32.0,"aqi":76,"pm10":28.9,"pm2_5":22.6,"mosquito_risk":0,"arthritis_risk":5,"migraine_risk":10,"frizz_risk":1,"updated_at":"2026-04-25T14:27:14.420138+05:30"},{"city":"Jodhpur","state":"Rajasthan","latitude":26.2389,"longitude":73.0243,"temp":43.3,"humidity":11,"rain":0.0,"pressure":981.9,"uv_index":8.3,"wind_gusts":27.4,"aqi":104,"pm10":156.5,"pm2_5":30.0,"mosquito_risk":0,"arthritis_risk":5,"migraine_risk":10,"frizz_risk":0,"updated_at":"2026-04-25T14:27:14.420144+05:30"},{"city":"Udaipur","state":"Rajasthan","latitude":24.5854,"longitude":73.7125,"temp":39.5,"humidity":15,"rain":0.0,"pressure":946.9,"uv_index":8.8,"wind_gusts":42.5,"aqi":57,"pm10":62.6,"pm2_5":16.1,"mosquito_risk":0,"arthritis_risk":5,"migraine_risk":10,"frizz_risk":0,"updated_at":"2026-04-25T14:27:14.420151+05:30"},{"city":"Kota","state":"Rajasthan","latitude":25.2138,"longitude":75.8648,"temp":43.3,"humidity":12,"rain":0.0,"pressure":977.2,"uv_index":8.3,"wind_gusts":32.8,"aqi":71,"pm10":117.6,"pm2_5":27.7,"mosquito_risk":0,"arthritis_risk":5,"migraine_risk":10,"frizz_risk":0,"updated_at":"2026-04-25T14:27:14.420158+05:30"},{"city":"Bikaner","state":"Rajasthan","latitude":28.0229,"longitude":73.3119,"temp":43.2,"humidity":12,"rain":0.0,"pressure":980.5,"uv_index":8.15,"wind_gusts":33.8,"aqi":68,"pm10":107.6,"pm2_5":26.0,"mosquito_risk":0,"arthritis_risk":5,"migraine_risk":10,"frizz_risk":0,"updated_at":"2026-04-25T14:27:14.420164+05:30"},{"city":"Ajmer","state":"Rajasthan","latitude":26.4499,"longitude":74.6399,"temp":41.0,"humidity":12,"rain":0.0,"pressure":955.0,"uv_index":8.25,"wind_gusts":33.5,"aqi":73,"pm10":130.4,"pm2_5":26.8,"mosquito_risk":0,"arthritis_risk":5,"migraine_risk":10,"frizz_risk":0,"updated_at":"2026-04-25T14:27:14.420171+05:30"},{"city":"Gwalior","state":"Madhya Pradesh","latitude":26.2183,"longitude":78.1828,"temp":43.2,"humidity":10,"rain":0.0,"pressure":981.0,"uv_index":8.05,"wind_gusts":39.6,"aqi":85,"pm10":181.1,"pm2_5":33.8,"mosquito_risk":0,"arthritis_risk":5,"migraine_risk":10,"frizz_risk":0,"updated_at":"2026-04-25T14:27:14.420177+05:30"},{"city":"Indore","state":"Madhya Pradesh","latitude":22.7196,"longitude":75.8577,"temp":41.8,"humidity":10,"rain":0.0,"pressure":947.6,"uv_index":8.65,"wind_gusts":32.4,"aqi":53,"pm10":33.6,"pm2_5":11.5,"mosquito_risk":0,"arthritis_risk":5,"migraine_risk":10,"frizz_risk":0,"updated_at":"2026-04-25T14:27:14.420183+05:30"},{"city":"Bhopal","state":"Madhya Pradesh","latitude":23.2599,"longitude":77.4126,"temp":42.4,"humidity":9,"rain":0.0,"pressure":952.7,"uv_index":8.65,"wind_gusts":30.6,"aqi":55,"pm10":26.8,"pm2_5":9.7,"mosquito_risk":0,"arthritis_risk":5,"migraine_risk":10,"frizz_risk":0,"updated_at":"2026-04-25T14:27:14.420189+05:30"},{"city":"Jabalpur","state":"Madhya Pradesh","latitude":23.1815,"longitude":79.9864,"temp":42.0,"humidity":10,"rain":0.0,"pressure":960.2,"uv_index":8.75,"wind_gusts":32.0,"aqi":65,"pm10":16.8,"pm2_5":9.2,"mosquito_risk":0,"arthritis_risk":5,"migraine_risk":10,"frizz_risk":0,"updated_at":"2026-04-25T14:27:14.420195+05:30"},{"city":"Ujjain","state":"Madhya Pradesh","latitude":23.1765,"longitude":75.7885,"temp":41.5,"humidity":11,"rain":0.0,"pressure":953.0,"uv_index":8.55,"wind_gusts":29.2,"aqi":55,"pm10":49.5,"pm2_5":14.5,"mosquito_risk":0,"arthritis_risk":5,"migraine_risk":10,"frizz_risk":0,"updated_at":"2026-04-25T14:27:14.420202+05:30"},{"city":"Visakhapatnam","state":"Andhra Pradesh","latitude":17.6868,"longitude":83.2185,"temp":34.2,"humidity":55,"rain":0.0,"pressure":1002.1,"uv_index":8.7,"wind_gusts":44.3,"aqi":61,"pm10":21.6,"pm2_5":16.7,"mosquito_risk":0,"arthritis_risk":5,"migraine_risk":4,"frizz_risk":1,"updated_at":"2026-04-25T14:27:14.420209+05:30"},{"city":"Vijayawada","state":"Andhra Pradesh","latitude":16.5062,"longitude":80.648,"temp":39.0,"humidity":31,"rain":0.0,"pressure":1001.0,"uv_index":8.65,"wind_gusts":34.2,"aqi":52,"pm10":20.7,"pm2_5":15.1,"mosquito_risk":0,"arthritis_risk":5,"migraine_risk":7,"frizz_risk":1,"updated_at":"2026-04-25T14:27:14.420215+05:30"},{"city":"Guntur","state":"Andhra Pradesh","latitude":16.3067,"longitude":80.4365,"temp":38.0,"humidity":35,"rain":0.0,"pressure":1002.5,"uv_index":8.7,"wind_gusts":40.0,"aqi":55,"pm10":24.1,"pm2_5":18.0,"mosquito_risk":0,"arthritis_risk":5,"migraine_risk":7,"frizz_risk":1,"updated_at":"2026-04-25T14:27:14.420221+05:30"},{"city":"Nellore","state":"Andhra Pradesh","latitude":14.4426,"longitude":79.9865,"temp":37.1,"humidity":43,"rain":0.0,"pressure":1003.8,"uv_index":9.2,"wind_gusts":42.1,"aqi":42,"pm10":23.6,"pm2_5":16.7,"mosquito_risk":0,"arthritis_risk":5,"migraine_risk":7,"frizz_risk":1,"updated_at":"2026-04-25T14:27:14.420228+05:30"},{"city":"Kurnool","state":"Andhra Pradesh","latitude":15.8281,"longitude":78.0373,"temp":41.8,"humidity":15,"rain":0.0,"pressure":975.1,"uv_index":8.9,"wind_gusts":32.8,"aqi":82,"pm10":37.6,"pm2_5":30.7,"mosquito_risk":0,"arthritis_risk":5,"migraine_risk":10,"frizz_risk":0,"updated_at":"2026-04-25T14:27:14.420235+05:30"},{"city":"Kakinada","state":"Andhra Pradesh","latitude":16.9891,"longitude":82.2475,"temp":39.0,"humidity":36,"rain":0.0,"pressure":1005.2,"uv_index":8.45,"wind_gusts":39.6,"aqi":41,"pm10":14.7,"pm2_5":9.5,"mosquito_risk":0,"arthritis_risk":5,"migraine_risk":7,"frizz_risk":1,"updated_at":"2026-04-25T14:27:14.420242+05:30"},{"city":"Tirupati","state":"Andhra Pradesh","latitude":13.6288,"longitude":79.4192,"temp":39.7,"humidity":23,"rain":0.0,"pressure":989.0,"uv_index":9.35,"wind_gusts":37.4,"aqi":58,"pm10":25.7,"pm2_5":19.2,"mosquito_risk":0,"arthritis_risk":5,"migraine_risk":10,"frizz_risk":0,"updated_at":"2026-04-25T14:27:14.420268+05:30"},{"city":"Warangal","state":"Telangana","latitude":17.9689,"longitude":79.5941,"temp":39.8,"humidity":23,"rain":0.0,"pressure":977.9,"uv_index":8.9,"wind_gusts":28.1,"aqi":107,"pm10":44.7,"pm2_5":37.3,"mosquito_risk":0,"arthritis_risk":5,"migraine_risk":10,"frizz_risk":0,"updated_at":"2026-04-25T14:27:14.420275+05:30"},{"city":"Nizamabad","state":"Telangana","latitude":18.6725,"longitude":78.0941,"temp":40.7,"humidity":15,"rain":0.0,"pressure":963.9,"uv_index":9.05,"wind_gusts":27.7,"aqi":117,"pm10":31.5,"pm2_5":22.2,"mosquito_risk":0,"arthritis_risk":5,"migraine_risk":10,"frizz_risk":0,"updated_at":"2026-04-25T14:27:14.420281+05:30"},{"city":"Mysore","state":"Karnataka","latitude":12.2958,"longitude":76.6396,"temp":35.4,"humidity":24,"rain":0.0,"pressure":928.0,"uv_index":8.85,"wind_gusts":44.6,"aqi":87,"pm10":26.7,"pm2_5":20.8,"mosquito_risk":0,"arthritis_risk":5,"migraine_risk":10,"frizz_risk":0,"updated_at":"2026-04-25T14:27:14.420288+05:30"},{"city":"Mangalore","state":"Karnataka","latitude":12.9141,"longitude":74.856,"temp":33.5,"humidity":64,"rain":0.0,"pressure":1004.3,"uv_index":9.1,"wind_gusts":41.4,"aqi":64,"pm10":27.2,"pm2_5":21.7,"mosquito_risk":3,"arthritis_risk":5,"migraine_risk":4,"frizz_risk":1,"updated_at":"2026-04-25T14:27:14.420294+05:30"},{"city":"Hubli-Dharwad","state":"Karnataka","latitude":15.3647,"longitude":75.124,"temp":38.3,"humidity":20,"rain":0.0,"pressure":940.3,"uv_index":9.1,"wind_gusts":37.8,"aqi":101,"pm10":40.4,"pm2_5":32.2,"mosquito_risk":0,"arthritis_risk":5,"migraine_risk":10,"frizz_risk":0,"updated_at":"2026-04-25T14:27:14.420301+05:30"},{"city":"Belgaum","state":"Karnataka","latitude":15.8497,"longitude":74.4977,"temp":37.0,"humidity":19,"rain":0.0,"pressure":925.8,"uv_index":9.15,"wind_gusts":37.1,"aqi":114,"pm10":47.4,"pm2_5":38.3,"mosquito_risk":0,"arthritis_risk":5,"migraine_risk":10,"frizz_risk":0,"updated_at":"2026-04-25T14:27:17.644880+05:30"},{"city":"Coimbatore","state":"Tamil Nadu","latitude":11.0168,"longitude":76.9558,"temp":38.0,"humidity":22,"rain":0.0,"pressure":960.2,"uv_index":8.9,"wind_gusts":46.4,"aqi":73,"pm10":20.1,"pm2_5":15.6,"mosquito_risk":0,"arthritis_risk":5,"migraine_risk":10,"frizz_risk":0,"updated_at":"2026-04-25T14:27:17.644915+05:30"},{"city":"Madurai","state":"Tamil Nadu","latitude":9.9252,"longitude":78.1198,"temp":39.5,"humidity":24,"rain":0.0,"pressure":990.5,"uv_index":9.1,"wind_gusts":39.6,"aqi":53,"pm10":16.4,"pm2_5":13.8,"mosquito_risk":0,"arthritis_risk":5,"migraine_risk":10,"frizz_risk":0,"updated_at":"2026-04-25T14:27:17.644927+05:30"},{"city":"Trichy","state":"Tamil Nadu","latitude":10.7905,"longitude":78.7047,"temp":38.2,"humidity":31,"rain":0.0,"pressure":997.2,"uv_index":9.3,"wind_gusts":33.1,"aqi":50,"pm10":15.9,"pm2_5":12.1,"mosquito_risk":0,"arthritis_risk":5,"migraine_risk":10,"frizz_risk":1,"updated_at":"2026-04-25T14:27:17.644935+05:30"},{"city":"Salem","state":"Tamil Nadu","latitude":11.6643,"longitude":78.146,"temp":39.1,"humidity":22,"rain":0.0,"pressure":975.3,"uv_index":9.0,"wind_gusts":42.1,"aqi":59,"pm10":22.5,"pm2_5":17.3,"mosquito_risk":0,"arthritis_risk":5,"migraine_risk":10,"frizz_risk":0,"updated_at":"2026-04-25T14:27:17.644942+05:30"},{"city":"Tirunelveli","state":"Tamil Nadu","latitude":8.7139,"longitude":77.7567,"temp":38.5,"humidity":26,"rain":0.0,"pressure":1000.5,"uv_index":9.2,"wind_gusts":40.7,"aqi":66,"pm10":12.7,"pm2_5":11.6,"mosquito_risk":0,"arthritis_risk":5,"migraine_risk":7,"frizz_risk":0,"updated_at":"2026-04-25T14:27:17.644949+05:30"},{"city":"Vellore","state":"Tamil Nadu","latitude":12.9165,"longitude":79.1325,"temp":39.0,"humidity":25,"rain":0.0,"pressure":982.6,"uv_index":9.25,"wind_gusts":36.0,"aqi":80,"pm10":26.2,"pm2_5":21.1,"mosquito_risk":0,"arthritis_risk":5,"migraine_risk":10,"frizz_risk":0,"updated_at":"2026-04-25T14:27:17.644956+05:30"},{"city":"Erode","state":"Tamil Nadu","latitude":11.341,"longitude":77.7172,"temp":39.2,"humidity":23,"rain":0.0,"pressure":986.7,"uv_index":9.25,"wind_gusts":46.1,"aqi":49,"pm10":16.8,"pm2_5":12.6,"mosquito_risk":0,"arthritis_risk":5,"migraine_risk":10,"frizz_risk":0,"updated_at":"2026-04-25T14:27:17.644962+05:30"},{"city":"Kochi","state":"Kerala","latitude":9.9312,"longitude":76.2673,"temp":33.2,"humidity":59,"rain":0.0,"pressure":1005.9,"uv_index":8.05,"wind_gusts":39.2,"aqi":93,"pm10":25.0,"pm2_5":22.6,"mosquito_risk":0,"arthritis_risk":5,"migraine_risk":4,"frizz_risk":1,"updated_at":"2026-04-25T14:27:17.644970+05:30"},{"city":"Thiruvananthapuram","state":"Kerala","latitude":8.5241,"longitude":76.9366,"temp":31.0,"humidity":71,"rain":0.1,"pressure":1006.0,"uv_index":8.2,"wind_gusts":33.1,"aqi":62,"pm10":20.5,"pm2_5":17.6,"mosquito_risk":6,"arthritis_risk":5,"migraine_risk":4,"frizz_risk":1,"updated_at":"2026-04-25T14:27:17.644977+05:30"},{"city":"Kozhikode","state":"Kerala","latitude":11.2588,"longitude":75.7804,"temp":32.8,"humidity":66,"rain":0.0,"pressure":1005.0,"uv_index":8.55,"wind_gusts":37.1,"aqi":83,"pm10":24.6,"pm2_5":21.3,"mosquito_risk":3,"arthritis_risk":5,"migraine_risk":4,"frizz_risk":1,"updated_at":"2026-04-25T14:27:17.644983+05:30"},{"city":"Thrissur","state":"Kerala","latitude":10.5276,"longitude":76.2144,"temp":33.2,"humidity":57,"rain":0.0,"pressure":1003.9,"uv_index":8.15,"wind_gusts":44.3,"aqi":87,"pm10":18.9,"pm2_5":16.5,"mosquito_risk":0,"arthritis_risk":5,"migraine_risk":4,"frizz_risk":1,"updated_at":"2026-04-25T14:27:17.644990+05:30"},{"city":"Kannur","state":"Kerala","latitude":11.8745,"longitude":75.3704,"temp":32.8,"humidity":66,"rain":0.0,"pressure":1004.5,"uv_index":8.55,"wind_gusts":40.7,"aqi":72,"pm10":23.6,"pm2_5":19.3,"mosquito_risk":3,"arthritis_risk":5,"migraine_risk":4,"frizz_risk":1,"updated_at":"2026-04-25T14:27:17.644997+05:30"},{"city":"Patna","state":"Bihar","latitude":25.5941,"longitude":85.1376,"temp":34.1,"humidity":45,"rain":0.0,"pressure":998.2,"uv_index":8.65,"wind_gusts":60.1,"aqi":152,"pm10":128.5,"pm2_5":56.5,"mosquito_risk":0,"arthritis_risk":5,"migraine_risk":7,"frizz_risk":1,"updated_at":"2026-04-25T14:27:17.645004+05:30"},{"city":"Gaya","state":"Bihar","latitude":24.7914,"longitude":85.0002,"temp":42.0,"humidity":11,"rain":0.0,"pressure":990.6,"uv_index":8.7,"wind_gusts":48.2,"aqi":124,"pm10":89.4,"pm2_5":22.9,"mosquito_risk":0,"arthritis_risk":5,"migraine_risk":10,"frizz_risk":0,"updated_at":"2026-04-25T14:27:17.645009+05:30"},{"city":"Muzaffarpur","state":"Bihar","latitude":26.1209,"longitude":85.3647,"temp":28.0,"humidity":76,"rain":0.0,"pressure":999.6,"uv_index":8.65,"wind_gusts":34.6,"aqi":155,"pm10":117.3,"pm2_5":61.9,"mosquito_risk":7,"arthritis_risk":5,"migraine_risk":7,"frizz_risk":1,"updated_at":"2026-04-25T14:27:17.645016+05:30"},{"city":"Bhagalpur","state":"Bihar","latitude":25.2425,"longitude":87.0117,"temp":33.0,"humidity":60,"rain":0.0,"pressure":999.0,"uv_index":8.6,"wind_gusts":52.9,"aqi":154,"pm10":123.4,"pm2_5":57.5,"mosquito_risk":0,"arthritis_risk":5,"migraine_risk":7,"frizz_risk":1,"updated_at":"2026-04-25T14:27:17.645022+05:30"},{"city":"Ranchi","state":"Jharkhand","latitude":23.3441,"longitude":85.3096,"temp":37.5,"humidity":16,"rain":0.0,"pressure":937.3,"uv_index":9.2,"wind_gusts":28.8,"aqi":148,"pm10":54.7,"pm2_5":26.4,"mosquito_risk":0,"arthritis_risk":5,"migraine_risk":10,"frizz_risk":0,"updated_at":"2026-04-25T14:27:17.645028+05:30"},{"city":"Jamshedpur","state":"Jharkhand","latitude":22.8046,"longitude":86.2029,"temp":42.7,"humidity":13,"rain":0.0,"pressure":987.8,"uv_index":8.9,"wind_gusts":35.3,"aqi":137,"pm10":86.1,"pm2_5":56.0,"mosquito_risk":0,"arthritis_risk":5,"migraine_risk":10,"frizz_risk":0,"updated_at":"2026-04-25T14:27:17.645034+05:30"},{"city":"Dhanbad","state":"Jharkhand","latitude":23.7957,"longitude":86.4304,"temp":42.3,"humidity":13,"rain":0.0,"pressure":976.8,"uv_index":8.95,"wind_gusts":42.1,"aqi":156,"pm10":102.0,"pm2_5":70.5,"mosquito_risk":0,"arthritis_risk":5,"migraine_risk":10,"frizz_risk":0,"updated_at":"2026-04-25T14:27:17.645040+05:30"},{"city":"Bokaro","state":"Jharkhand","latitude":23.6693,"longitude":86.1511,"temp":42.0,"humidity":13,"rain":0.0,"pressure":980.6,"uv_index":9.0,"wind_gusts":34.6,"aqi":157,"pm10":86.4,"pm2_5":48.1,"mosquito_risk":0,"arthritis_risk":5,"migraine_risk":10,"frizz_risk":0,"updated_at":"2026-04-25T14:27:17.645047+05:30"},{"city":"Bhubaneswar","state":"Odisha","latitude":20.2961,"longitude":85.8245,"temp":34.4,"humidity":61,"rain":0.0,"pressure":1000.9,"uv_index":9.1,"wind_gusts":41.0,"aqi":68,"pm10":29.9,"pm2_5":22.7,"mosquito_risk":3,"arthritis_risk":5,"migraine_risk":4,"frizz_risk":1,"updated_at":"2026-04-25T14:27:17.645053+05:30"},{"city":"Cuttack","state":"Odisha","latitude":20.4625,"longitude":85.8828,"temp":35.8,"humidity":59,"rain":0.0,"pressure":1002.3,"uv_index":9.15,"wind_gusts":37.8,"aqi":68,"pm10":29.9,"pm2_5":22.7,"mosquito_risk":0,"arthritis_risk":5,"migraine_risk":7,"frizz_risk":1,"updated_at":"2026-04-25T14:27:17.645059+05:30"},{"city":"Rourkela","state":"Odisha","latitude":22.2604,"longitude":84.8536,"temp":42.6,"humidity":12,"rain":0.0,"pressure":982.3,"uv_index":8.6,"wind_gusts":45.0,"aqi":158,"pm10":54.7,"pm2_5":43.1,"mosquito_risk":0,"arthritis_risk":5,"migraine_risk":10,"frizz_risk":0,"updated_at":"2026-04-25T14:27:17.645065+05:30"},{"city":"Raipur","state":"Chhattisgarh","latitude":21.2514,"longitude":81.6296,"temp":42.8,"humidity":10,"rain":0.0,"pressure":972.7,"uv_index":9.0,"wind_gusts":31.0,"aqi":148,"pm10":32.1,"pm2_5":23.7,"mosquito_risk":0,"arthritis_risk":5,"migraine_risk":10,"frizz_risk":0,"updated_at":"2026-04-25T14:27:17.645071+05:30"},{"city":"Bhilai","state":"Chhattisgarh","latitude":21.1938,"longitude":81.3509,"temp":42.5,"humidity":10,"rain":0.0,"pressure":973.1,"uv_index":9.0,"wind_gusts":35.6,"aqi":121,"pm10":31.0,"pm2_5":21.5,"mosquito_risk":0,"arthritis_risk":5,"migraine_risk":10,"frizz_risk":0,"updated_at":"2026-04-25T14:27:17.645077+05:30"},{"city":"Guwahati","state":"Assam","latitude":26.1158,"longitude":91.7086,"temp":31.9,"humidity":59,"rain":0.0,"pressure":999.9,"uv_index":8.55,"wind_gusts":42.1,"aqi":161,"pm10":103.8,"pm2_5":63.6,"mosquito_risk":0,"arthritis_risk":5,"migraine_risk":7,"frizz_risk":1,"updated_at":"2026-04-25T14:27:17.645083+05:30"},{"city":"Agartala","state":"Tripura","latitude":23.8315,"longitude":91.2868,"temp":37.5,"humidity":36,"rain":0.0,"pressure":1003.2,"uv_index":8.75,"wind_gusts":35.6,"aqi":153,"pm10":70.3,"pm2_5":39.1,"mosquito_risk":0,"arthritis_risk":5,"migraine_risk":7,"frizz_risk":1,"updated_at":"2026-04-25T14:27:17.645090+05:30"},{"city":"Shillong","state":"Meghalaya","latitude":25.5788,"longitude":91.8933,"temp":25.2,"humidity":48,"rain":0.0,"pressure":858.9,"uv_index":8.2,"wind_gusts":27.0,"aqi":146,"pm10":88.7,"pm2_5":44.9,"mosquito_risk":4,"arthritis_risk":5,"migraine_risk":7,"frizz_risk":0,"updated_at":"2026-04-25T14:27:17.645096+05:30"},{"city":"Imphal","state":"Manipur","latitude":24.817,"longitude":93.9368,"temp":32.0,"humidity":34,"rain":0.0,"pressure":922.5,"uv_index":9.1,"wind_gusts":34.2,"aqi":155,"pm10":78.5,"pm2_5":36.6,"mosquito_risk":0,"arthritis_risk":5,"migraine_risk":7,"frizz_risk":0,"updated_at":"2026-04-25T14:27:17.645102+05:30"},{"city":"Aizawl","state":"Mizoram","latitude":23.7271,"longitude":92.7176,"temp":33.0,"humidity":21,"rain":0.0,"pressure":893.6,"uv_index":8.95,"wind_gusts":37.8,"aqi":121,"pm10":80.8,"pm2_5":28.6,"mosquito_risk":0,"arthritis_risk":5,"migraine_risk":7,"frizz_risk":0,"updated_at":"2026-04-25T14:27:17.645108+05:30"},{"city":"Kohima","state":"Nagaland","latitude":25.6701,"longitude":94.1077,"temp":22.8,"humidity":74,"rain":0.0,"pressure":856.7,"uv_index":8.8,"wind_gusts":38.2,"aqi":155,"pm10":109.4,"pm2_5":56.5,"mosquito_risk":3,"arthritis_risk":5,"migraine_risk":7,"frizz_risk":1,"updated_at":"2026-04-25T14:27:17.645114+05:30"},{"city":"Gangtok","state":"Sikkim","latitude":27.3314,"longitude":88.6138,"temp":21.0,"humidity":60,"rain":0.0,"pressure":839.6,"uv_index":8.8,"wind_gusts":41.4,"aqi":96,"pm10":44.5,"pm2_5":26.4,"mosquito_risk":0,"arthritis_risk":5,"migraine_risk":7,"frizz_risk":0,"updated_at":"2026-04-25T14:27:17.645120+05:30"},{"city":"Siliguri","state":"West Bengal","latitude":26.7271,"longitude":88.3953,"temp":31.3,"humidity":56,"rain":0.0,"pressure":992.3,"uv_index":8.45,"wind_gusts":29.2,"aqi":151,"pm10":88.5,"pm2_5":51.7,"mosquito_risk":0,"arthritis_risk":5,"migraine_risk":7,"frizz_risk":1,"updated_at":"2026-04-25T14:27:20.871415+05:30"},{"city":"Durgapur","state":"West Bengal","latitude":23.5204,"longitude":87.3119,"temp":37.5,"humidity":49,"rain":0.0,"pressure":992.2,"uv_index":8.9,"wind_gusts":38.2,"aqi":141,"pm10":89.9,"pm2_5":64.0,"mosquito_risk":0,"arthritis_risk":5,"migraine_risk":10,"frizz_risk":1,"updated_at":"2026-04-25T14:27:20.871449+05:30"},{"city":"Asansol","state":"West Bengal","latitude":23.6739,"longitude":86.9524,"temp":36.8,"humidity":44,"rain":0.0,"pressure":991.3,"uv_index":8.95,"wind_gusts":38.9,"aqi":141,"pm10":90.1,"pm2_5":67.3,"mosquito_risk":0,"arthritis_risk":5,"migraine_risk":10,"frizz_risk":1,"updated_at":"2026-04-25T14:27:20.871460+05:30"},{"city":"Pondicherry","state":"Puducherry","latitude":11.9139,"longitude":79.8145,"temp":32.9,"humidity":59,"rain":0.0,"pressure":1007.1,"uv_index":9.15,"wind_gusts":44.6,"aqi":25,"pm10":11.2,"pm2_5":7.3,"mosquito_risk":0,"arthritis_risk":5,"migraine_risk":4,"frizz_risk":1,"updated_at":"2026-04-25T14:27:20.871468+05:30"},{"city":"Port Blair","state":"Andaman and Nicobar Islands","latitude":11.6234,"longitude":92.7265,"temp":33.0,"humidity":56,"rain":0.0,"pressure":1005.5,"uv_index":9.15,"wind_gusts":32.4,"aqi":37,"pm10":17.0,"pm2_5":10.5,"mosquito_risk":0,"arthritis_risk":5,"migraine_risk":4,"frizz_risk":1,"updated_at":"2026-04-25T14:27:20.871476+05:30"},{"city":"Haridwar","state":"Uttarakhand","latitude":29.9457,"longitude":78.1642,"temp":36.2,"humidity":28,"rain":0.0,"pressure":973.3,"uv_index":7.2,"wind_gusts":32.8,"aqi":78,"pm10":70.1,"pm2_5":19.9,"mosquito_risk":0,"arthritis_risk":5,"migraine_risk":10,"frizz_risk":0,"updated_at":"2026-04-25T14:27:20.871483+05:30"},{"city":"Rishikesh","state":"Uttarakhand","latitude":30.0869,"longitude":78.2676,"temp":34.8,"humidity":28,"rain":0.0,"pressure":966.5,"uv_index":7.35,"wind_gusts":37.4,"aqi":64,"pm10":62.6,"pm2_5":17.2,"mosquito_risk":0,"arthritis_risk":5,"migraine_risk":7,"frizz_risk":0,"updated_at":"2026-04-25T14:27:20.871490+05:30"},{"city":"Nainital","state":"Uttarakhand","latitude":29.3919,"longitude":79.4542,"temp":25.4,"humidity":28,"rain":0.0,"pressure":809.6,"uv_index":8.15,"wind_gusts":43.6,"aqi":91,"pm10":44.0,"pm2_5":18.6,"mosquito_risk":4,"arthritis_risk":5,"migraine_risk":7,"frizz_risk":0,"updated_at":"2026-04-25T14:27:20.871497+05:30"},{"city":"Mussoorie","state":"Uttarakhand","latitude":30.4599,"longitude":78.0664,"temp":23.1,"humidity":33,"rain":0.0,"pressure":807.5,"uv_index":7.75,"wind_gusts":58.7,"aqi":67,"pm10":56.9,"pm2_5":16.8,"mosquito_risk":0,"arthritis_risk":5,"migraine_risk":7,"frizz_risk":0,"updated_at":"2026-04-25T14:27:20.871505+05:30"},{"city":"Dharamshala","state":"Himachal Pradesh","latitude":32.219,"longitude":76.3234,"temp":27.8,"humidity":26,"rain":0.0,"pressure":872.5,"uv_index":7.55,"wind_gusts":59.0,"aqi":49,"pm10":54.7,"pm2_5":11.3,"mosquito_risk":4,"arthritis_risk":5,"migraine_risk":7,"frizz_risk":0,"updated_at":"2026-04-25T14:27:20.871511+05:30"},{"city":"Dalhousie","state":"Himachal Pradesh","latitude":32.5387,"longitude":75.971,"temp":23.2,"humidity":32,"rain":0.0,"pressure":809.6,"uv_index":8.1,"wind_gusts":45.7,"aqi":57,"pm10":73.6,"pm2_5":16.2,"mosquito_risk":0,"arthritis_risk":5,"migraine_risk":7,"frizz_risk":0,"updated_at":"2026-04-25T14:27:20.871519+05:30"},{"city":"Patiala","state":"Punjab","latitude":30.3398,"longitude":76.3869,"temp":38.7,"humidity":17,"rain":0.0,"pressure":978.2,"uv_index":7.35,"wind_gusts":56.2,"aqi":408,"pm10":635.2,"pm2_5":63.8,"mosquito_risk":0,"arthritis_risk":5,"migraine_risk":10,"frizz_risk":0,"updated_at":"2026-04-25T14:27:20.871527+05:30"},{"city":"Bhatinda","state":"Punjab","latitude":30.211,"longitude":74.9455,"temp":39.8,"humidity":16,"rain":0.0,"pressure":983.9,"uv_index":8.0,"wind_gusts":46.1,"aqi":85,"pm10":121.1,"pm2_5":29.8,"mosquito_risk":0,"arthritis_risk":5,"migraine_risk":10,"frizz_risk":0,"updated_at":"2026-04-25T14:27:20.871534+05:30"},{"city":"Rohtak","state":"Haryana","latitude":28.8955,"longitude":76.6066,"temp":39.8,"humidity":16,"rain":0.0,"pressure":981.1,"uv_index":7.45,"wind_gusts":54.4,"aqi":576,"pm10":466.6,"pm2_5":58.8,"mosquito_risk":0,"arthritis_risk":5,"migraine_risk":10,"frizz_risk":0,"updated_at":"2026-04-25T14:27:20.871541+05:30"},{"city":"Panipat","state":"Haryana","latitude":29.3909,"longitude":76.9635,"temp":41.8,"humidity":13,"rain":0.0,"pressure":978.9,"uv_index":7.15,"wind_gusts":51.1,"aqi":996,"pm10":979.8,"pm2_5":93.6,"mosquito_risk":0,"arthritis_risk":5,"migraine_risk":10,"frizz_risk":0,"updated_at":"2026-04-25T14:27:20.871547+05:30"},{"city":"Mathura","state":"Uttar Pradesh","latitude":27.4924,"longitude":77.6737,"temp":42.2,"humidity":13,"rain":0.0,"pressure":984.9,"uv_index":7.65,"wind_gusts":45.0,"aqi":365,"pm10":532.7,"pm2_5":64.5,"mosquito_risk":0,"arthritis_risk":5,"migraine_risk":10,"frizz_risk":0,"updated_at":"2026-04-25T14:27:20.871554+05:30"},{"city":"Vrindavan","state":"Uttar Pradesh","latitude":27.5823,"longitude":77.7027,"temp":42.1,"humidity":13,"rain":0.0,"pressure":985.2,"uv_index":7.55,"wind_gusts":45.0,"aqi":365,"pm10":532.7,"pm2_5":64.5,"mosquito_risk":0,"arthritis_risk":5,"migraine_risk":10,"frizz_risk":0,"updated_at":"2026-04-25T14:27:20.871560+05:30"},{"city":"Ayodhya","state":"Uttar Pradesh","latitude":26.7922,"longitude":82.1998,"temp":43.4,"humidity":12,"rain":0.0,"pressure":991.5,"uv_index":8.1,"wind_gusts":38.5,"aqi":136,"pm10":165.8,"pm2_5":43.8,"mosquito_risk":0,"arthritis_risk":5,"migraine_risk":10,"frizz_risk":0,"updated_at":"2026-04-25T14:27:20.871566+05:30"},{"city":"Ratlam","state":"Madhya Pradesh","latitude":23.3315,"longitude":75.0367,"temp":41.8,"humidity":12,"rain":0.0,"pressure":953.9,"uv_index":8.45,"wind_gusts":25.9,"aqi":54,"pm10":47.3,"pm2_5":13.9,"mosquito_risk":0,"arthritis_risk":5,"migraine_risk":10,"frizz_risk":0,"updated_at":"2026-04-25T14:27:20.871573+05:30"},{"city":"Sagar","state":"Madhya Pradesh","latitude":23.8388,"longitude":78.7378,"temp":41.3,"humidity":12,"rain":0.0,"pressure":949.5,"uv_index":8.65,"wind_gusts":29.9,"aqi":84,"pm10":29.1,"pm2_5":11.1,"mosquito_risk":0,"arthritis_risk":5,"migraine_risk":10,"frizz_risk":0,"updated_at":"2026-04-25T14:27:20.871579+05:30"},{"city":"Satna","state":"Madhya Pradesh","latitude":24.6005,"longitude":80.8322,"temp":43.0,"humidity":11,"rain":0.0,"pressure":969.3,"uv_index":8.7,"wind_gusts":43.9,"aqi":81,"pm10":149.0,"pm2_5":30.7,"mosquito_risk":0,"arthritis_risk":5,"migraine_risk":10,"frizz_risk":0,"updated_at":"2026-04-25T14:27:20.871584+05:30"},{"city":"Akola","state":"Maharashtra","latitude":20.7002,"longitude":77.0082,"temp":42.4,"humidity":13,"rain":0.0,"pressure":973.5,"uv_index":8.7,"wind_gusts":23.8,"aqi":74,"pm10":26.4,"pm2_5":13.5,"mosquito_risk":0,"arthritis_risk":5,"migraine_risk":10,"frizz_risk":0,"updated_at":"2026-04-25T14:27:20.871592+05:30"},{"city":"Amravati","state":"Maharashtra","latitude":20.9374,"longitude":77.7796,"temp":42.5,"humidity":11,"rain":0.0,"pressure":966.0,"uv_index":8.5,"wind_gusts":27.7,"aqi":76,"pm10":25.5,"pm2_5":12.7,"mosquito_risk":0,"arthritis_risk":5,"migraine_risk":10,"frizz_risk":0,"updated_at":"2026-04-25T14:27:20.871598+05:30"},{"city":"Latur","state":"Maharashtra","latitude":18.4088,"longitude":76.5604,"temp":40.0,"humidity":14,"rain":0.0,"pressure":939.9,"uv_index":8.8,"wind_gusts":32.8,"aqi":101,"pm10":31.7,"pm2_5":25.1,"mosquito_risk":0,"arthritis_risk":5,"migraine_risk":10,"frizz_risk":0,"updated_at":"2026-04-25T14:27:20.871605+05:30"},{"city":"Nanded","state":"Maharashtra","latitude":19.1383,"longitude":77.3091,"temp":41.9,"humidity":12,"rain":0.0,"pressure":967.4,"uv_index":8.6,"wind_gusts":28.1,"aqi":105,"pm10":28.9,"pm2_5":19.8,"mosquito_risk":0,"arthritis_risk":5,"migraine_risk":10,"frizz_risk":0,"updated_at":"2026-04-25T14:27:20.871611+05:30"},{"city":"Gulbarga","state":"Karnataka","latitude":17.3297,"longitude":76.8343,"temp":40.1,"humidity":17,"rain":0.0,"pressure":958.0,"uv_index":9.15,"wind_gusts":26.6,"aqi":117,"pm10":50.1,"pm2_5":41.4,"mosquito_risk":0,"arthritis_risk":5,"migraine_risk":10,"frizz_risk":0,"updated_at":"2026-04-25T14:27:20.871617+05:30"},{"city":"Bidar","state":"Karnataka","latitude":17.9104,"longitude":77.5199,"temp":38.8,"humidity":18,"rain":0.0,"pressure":936.0,"uv_index":8.9,"wind_gusts":27.0,"aqi":120,"pm10":41.7,"pm2_5":34.6,"mosquito_risk":0,"arthritis_risk":5,"migraine_risk":10,"frizz_risk":0,"updated_at":"2026-04-25T14:27:20.871622+05:30"},{"city":"Hospet","state":"Karnataka","latitude":15.2689,"longitude":76.3909,"temp":38.0,"humidity":23,"rain":0.0,"pressure":954.9,"uv_index":9.3,"wind_gusts":27.4,"aqi":95,"pm10":41.9,"pm2_5":34.1,"mosquito_risk":0,"arthritis_risk":5,"migraine_risk":10,"frizz_risk":0,"updated_at":"2026-04-25T14:27:20.871628+05:30"},{"city":"Tirupur","state":"Tamil Nadu","latitude":11.1085,"longitude":77.3411,"temp":39.2,"humidity":22,"rain":0.0,"pressure":973.1,"uv_index":9.4,"wind_gusts":42.1,"aqi":55,"pm10":16.8,"pm2_5":12.7,"mosquito_risk":0,"arthritis_risk":5,"migraine_risk":10,"frizz_risk":0,"updated_at":"2026-04-25T14:27:20.871633+05:30"},{"city":"Alappuzha","state":"Kerala","latitude":9.4981,"longitude":76.3388,"temp":31.2,"humidity":73,"rain":0.0,"pressure":1006.2,"uv_index":8.05,"wind_gusts":36.7,"aqi":88,"pm10":31.1,"pm2_5":28.5,"mosquito_risk":3,"arthritis_risk":5,"migraine_risk":4,"frizz_risk":1,"updated_at":"2026-04-25T14:27:20.871639+05:30"},{"city":"Munnar","state":"Kerala","latitude":10.0889,"longitude":77.0595,"temp":26.6,"humidity":36,"rain":0.0,"pressure":858.1,"uv_index":9.15,"wind_gusts":31.7,"aqi":61,"pm10":11.0,"pm2_5":9.1,"mosquito_risk":4,"arthritis_risk":5,"migraine_risk":7,"frizz_risk":0,"updated_at":"2026-04-25T14:27:20.871645+05:30"},{"city":"Silchar","state":"Assam","latitude":24.8333,"longitude":92.7789,"temp":34.5,"humidity":53,"rain":0.0,"pressure":1001.9,"uv_index":8.75,"wind_gusts":21.6,"aqi":159,"pm10":125.3,"pm2_5":51.0,"mosquito_risk":0,"arthritis_risk":5,"migraine_risk":4,"frizz_risk":1,"updated_at":"2026-04-25T14:27:20.871651+05:30"},{"city":"Dibrugarh","state":"Assam","latitude":27.4728,"longitude":94.912,"temp":28.5,"humidity":69,"rain":0.0,"pressure":995.1,"uv_index":8.6,"wind_gusts":31.7,"aqi":97,"pm10":74.3,"pm2_5":36.3,"mosquito_risk":7,"arthritis_risk":5,"migraine_risk":7,"frizz_risk":1,"updated_at":"2026-04-25T14:27:20.871657+05:30"}]