[{"city":"Delhi","state":"Delhi","latitude":28.6139,"longitude":77.209,"temp":25.4,"humidity":57,"rain":0.0,"pressure":982.5,"uv_index":6.5,"wind_gusts":42.8,"aqi":157,"pm10":147.1,"pm2_5":40.5,"mosquito_risk":4,"arthritis_risk":5,"migraine_risk":7,"frizz_risk":1,"updated_at":"2026-03-27T20:24:15.040198+05:30"},{"city":"Mumbai","state":"Maharashtra","latitude":19.076,"longitude":72.8777,"temp":29.3,"humidity":67,"rain":0.0,"pressure":1008.4,"uv_index":8.0,"wind_gusts":28.4,"aqi":202,"pm10":40.2,"pm2_5":34.7,"mosquito_risk":7,"arthritis_risk":0,"migraine_risk":4,"frizz_risk":1,"updated_at":"2026-03-27T20:24:15.040239+05:30"},{"city":"Bangalore","state":"Karnataka","latitude":12.9716,"longitude":77.5946,"temp":28.8,"humidity":31,"rain":0.0,"pressure":911.7,"uv_index":9.5,"wind_gusts":28.1,"aqi":113,"pm10":26.7,"pm2_5":23.5,"mosquito_risk":4,"arthritis_risk":5,"migraine_risk":7,"frizz_risk":0,"updated_at":"2026-03-27T20:24:15.040254+05:30"},{"city":"Hyderabad","state":"Telangana","latitude":17.385,"longitude":78.4867,"temp":30.3,"humidity":50,"rain":0.0,"pressure":953.0,"uv_index":9.0,"wind_gusts":23.4,"aqi":123,"pm10":54.1,"pm2_5":46.4,"mosquito_risk":0,"arthritis_risk":5,"migraine_risk":7,"frizz_risk":1,"updated_at":"2026-03-27T20:24:15.040264+05:30"},{"city":"Chennai","state":"Tamil Nadu","latitude":13.0827,"longitude":80.2707,"temp":27.1,"humidity":80,"rain":0.0,"pressure":1007.8,"uv_index":9.2,"wind_gusts":29.5,"aqi":68,"pm10":27.7,"pm2_5":16.5,"mosquito_risk":7,"arthritis_risk":5,"migraine_risk":4,"frizz_risk":1,"updated_at":"2026-03-27T20:24:15.040274+05:30"},{"city":"Kolkata","state":"West Bengal","latitude":22.5726,"longitude":88.3639,"temp":27.4,"humidity":83,"rain":0.0,"pressure":1005.8,"uv_index":8.45,"wind_gusts":22.7,"aqi":119,"pm10":47.7,"pm2_5":40.9,"mosquito_risk":7,"arthritis_risk":5,"migraine_risk":4,"frizz_risk":1,"updated_at":"2026-03-27T20:24:15.040282+05:30"},{"city":"Pune","state":"Maharashtra","latitude":18.5204,"longitude":73.8567,"temp":29.9,"humidity":38,"rain":0.0,"pressure":949.4,"uv_index":8.55,"wind_gusts":39.2,"aqi":141,"pm10":40.5,"pm2_5":34.1,"mosquito_risk":4,"arthritis_risk":5,"migraine_risk":7,"frizz_risk":0,"updated_at":"2026-03-27T20:24:15.040293+05:30"},{"city":"Ahmedabad","state":"Gujarat","latitude":23.0225,"longitude":72.5714,"temp":30.4,"humidity":42,"rain":0.0,"pressure":1002.2,"uv_index":7.9,"wind_gusts":34.9,"aqi":60,"pm10":37.5,"pm2_5":20.6,"mosquito_risk":0,"arthritis_risk":5,"migraine_risk":4,"frizz_risk":1,"updated_at":"2026-03-27T20:24:15.040301+05:30"},{"city":"Jaipur","state":"Rajasthan","latitude":26.9124,"longitude":75.7873,"temp":28.5,"humidity":33,"rain":0.0,"pressure":959.5,"uv_index":7.35,"wind_gusts":43.2,"aqi":115,"pm10":226.8,"pm2_5":37.3,"mosquito_risk":4,"arthritis_risk":5,"migraine_risk":7,"frizz_risk":0,"updated_at":"2026-03-27T20:24:15.040308+05:30"},{"city":"Lucknow","state":"Uttar Pradesh","latitude":26.8467,"longitude":80.9462,"temp":26.7,"humidity":48,"rain":0.0,"pressure":992.7,"uv_index":6.5,"wind_gusts":49.3,"aqi":90,"pm10":109.7,"pm2_5":32.6,"mosquito_risk":4,"arthritis_risk":5,"migraine_risk":7,"frizz_risk":0,"updated_at":"2026-03-27T20:24:15.040316+05:30"},{"city":"Kanpur","state":"Uttar Pradesh","latitude":26.4499,"longitude":80.3319,"temp":25.5,"humidity":54,"rain":0.0,"pressure":991.0,"uv_index":6.65,"wind_gusts":64.1,"aqi":138,"pm10":217.9,"pm2_5":42.5,"mosquito_risk":4,"arthritis_risk":5,"migraine_risk":7,"frizz_risk":0,"updated_at":"2026-03-27T20:24:15.040323+05:30"},{"city":"Chandigarh","state":"Chandigarh","latitude":30.7333,"longitude":76.7794,"temp":21.8,"humidity":70,"rain":0.0,"pressure":967.5,"uv_index":6.45,"wind_gusts":31.3,"aqi":77,"pm10":35.0,"pm2_5":27.9,"mosquito_risk":3,"arthritis_risk":5,"migraine_risk":7,"frizz_risk":0,"updated_at":"2026-03-27T20:24:15.040332+05:30"},{"city":"Srinagar","state":"Jammu and Kashmir","latitude":34.0837,"longitude":74.7973,"temp":14.1,"humidity":67,"rain":0.0,"pressure":838.0,"uv_index":7.5,"wind_gusts":16.6,"aqi":105,"pm10":44.7,"pm2_5":34.0,"mosquito_risk":3,"arthritis_risk":5,"migraine_risk":7,"frizz_risk":0,"updated_at":"2026-03-27T20:24:15.040339+05:30"},{"city":"Jammu","state":"Jammu and Kashmir","latitude":32.7266,"longitude":74.857,"temp":24.2,"humidity":64,"rain":0.0,"pressure":971.0,"uv_index":7.15,"wind_gusts":20.2,"aqi":88,"pm10":34.5,"pm2_5":26.9,"mosquito_risk":3,"arthritis_risk":5,"migraine_risk":7,"frizz_risk":1,"updated_at":"2026-03-27T20:24:15.040345+05:30"},{"city":"Amritsar","state":"Punjab","latitude":31.634,"longitude":74.8723,"temp":22.6,"humidity":62,"rain":0.0,"pressure":979.7,"uv_index":7.1,"wind_gusts":25.9,"aqi":126,"pm10":48.2,"pm2_5":37.7,"mosquito_risk":3,"arthritis_risk":5,"migraine_risk":7,"frizz_risk":0,"updated_at":"2026-03-27T20:24:15.040353+05:30"},{"city":"Ludhiana","state":"Punjab","latitude":30.901,"longitude":75.8573,"temp":23.7,"humidity":59,"rain":0.0,"pressure":977.9,"uv_index":4.55,"wind_gusts":25.9,"aqi":84,"pm10":54.9,"pm2_5":32.2,"mosquito_risk":0,"arthritis_risk":5,"migraine_risk":3,"frizz_risk":0,"updated_at":"2026-03-27T20:24:15.040360+05:30"},{"city":"Jalandhar","state":"Punjab","latitude":31.326,"longitude":75.5762,"temp":23.4,"humidity":64,"rain":0.0,"pressure":978.9,"uv_index":4.4,"wind_gusts":22.3,"aqi":86,"pm10":46.4,"pm2_5":34.9,"mosquito_risk":3,"arthritis_risk":5,"migraine_risk":3,"frizz_risk":1,"updated_at":"2026-03-27T20:24:15.040368+05:30"},{"city":"Dehradun","state":"Uttarakhand","latitude":30.6284,"longitude":78.0322,"temp":13.2,"humidity":91,"rain":0.0,"pressure":827.2,"uv_index":5.8,"wind_gusts":27.0,"aqi":70,"pm10":28.6,"pm2_5":19.1,"mosquito_risk":3,"arthritis_risk":10,"migraine_risk":3,"frizz_risk":0,"updated_at":"2026-03-27T20:24:15.040376+05:30"},{"city":"Shimla","state":"Himachal Pradesh","latitude":31.1048,"longitude":77.1734,"temp":11.6,"humidity":81,"rain":0.0,"pressure":781.2,"uv_index":6.0,"wind_gusts":37.4,"aqi":71,"pm10":27.8,"pm2_5":20.0,"mosquito_risk":3,"arthritis_risk":10,"migraine_risk":3,"frizz_risk":0,"updated_at":"2026-03-27T20:24:15.040383+05:30"},{"city":"Manali","state":"Himachal Pradesh","latitude":32.2396,"longitude":77.1887,"temp":14.7,"humidity":89,"rain":0.0,"pressure":816.3,"uv_index":8.3,"wind_gusts":27.7,"aqi":138,"pm10":24.4,"pm2_5":10.9,"mosquito_risk":3,"arthritis_risk":10,"migraine_risk":7,"frizz_risk":0,"updated_at":"2026-03-27T20:24:15.040390+05:30"},{"city":"Gurgaon","state":"Haryana","latitude":28.4595,"longitude":77.0266,"temp":24.2,"humidity":64,"rain":0.0,"pressure":980.8,"uv_index":6.65,"wind_gusts":40.7,"aqi":892,"pm10":330.6,"pm2_5":65.2,"mosquito_risk":3,"arthritis_risk":5,"migraine_risk":7,"frizz_risk":1,"updated_at":"2026-03-27T20:24:15.040396+05:30"},{"city":"Noida","state":"Uttar Pradesh","latitude":28.5355,"longitude":77.391,"temp":25.3,"humidity":59,"rain":0.0,"pressure":984.1,"uv_index":6.5,"wind_gusts":41.0,"aqi":892,"pm10":330.6,"pm2_5":65.2,"mosquito_risk":4,"arthritis_risk":5,"migraine_risk":7,"frizz_risk":1,"updated_at":"2026-03-27T20:24:15.040403+05:30"},{"city":"Ghaziabad","state":"Uttar Pradesh","latitude":28.6692,"longitude":77.4538,"temp":24.4,"humidity":65,"rain":0.0,"pressure":982.2,"uv_index":6.45,"wind_gusts":40.0,"aqi":132,"pm10":82.0,"pm2_5":39.0,"mosquito_risk":3,"arthritis_risk":5,"migraine_risk":7,"frizz_risk":1,"updated_at":"2026-03-27T20:24:15.040410+05:30"},{"city":"Faridabad","state":"Haryana","latitude":28.4089,"longitude":77.3178,"temp":24.2,"humidity":64,"rain":0.0,"pressure":983.3,"uv_index":6.55,"wind_gusts":41.4,"aqi":892,"pm10":330.6,"pm2_5":65.2,"mosquito_risk":3,"arthritis_risk":5,"migraine_risk":7,"frizz_risk":1,"updated_at":"2026-03-27T20:24:15.040416+05:30"},{"city":"Meerut","state":"Uttar Pradesh","latitude":28.9845,"longitude":77.7064,"temp":22.8,"humidity":71,"rain":0.0,"pressure":980.7,"uv_index":6.35,"wind_gusts":41.4,"aqi":132,"pm10":82.0,"pm2_5":39.0,"mosquito_risk":3,"arthritis_risk":5,"migraine_risk":7,"frizz_risk":1,"updated_at":"2026-03-27T20:24:15.040422+05:30"},{"city":"Agra","state":"Uttar Pradesh","latitude":27.1767,"longitude":78.0081,"temp":24.2,"humidity":66,"rain":0.0,"pressure":987.4,"uv_index":6.9,"wind_gusts":47.5,"aqi":710,"pm10":599.8,"pm2_5":94.3,"mosquito_risk":3,"arthritis_risk":5,"migraine_risk":7,"frizz_risk":1,"updated_at":"2026-03-27T20:24:15.040428+05:30"},{"city":"Varanasi","state":"Uttar Pradesh","latitude":25.3176,"longitude":82.9739,"temp":26.6,"humidity":55,"rain":0.0,"pressure":997.0,"uv_index":7.3,"wind_gusts":42.5,"aqi":94,"pm10":36.4,"pm2_5":26.6,"mosquito_risk":4,"arthritis_risk":5,"migraine_risk":7,"frizz_risk":1,"updated_at":"2026-03-27T20:24:15.040437+05:30"},{"city":"Prayagraj","state":"Uttar Pradesh","latitude":25.4358,"longitude":81.8463,"temp":26.9,"humidity":63,"rain":0.0,"pressure":995.6,"uv_index":7.5,"wind_gusts":37.8,"aqi":96,"pm10":37.0,"pm2_5":25.0,"mosquito_risk":7,"arthritis_risk":5,"migraine_risk":7,"frizz_risk":1,"updated_at":"2026-03-27T20:24:15.040444+05:30"},{"city":"Gorakhpur","state":"Uttar Pradesh","latitude":26.7606,"longitude":83.3732,"temp":25.2,"humidity":52,"rain":0.0,"pressure":996.3,"uv_index":6.85,"wind_gusts":50.0,"aqi":105,"pm10":33.3,"pm2_5":21.2,"mosquito_risk":4,"arthritis_risk":5,"migraine_risk":7,"frizz_risk":0,"updated_at":"2026-03-27T20:24:15.040453+05:30"},{"city":"Bareilly","state":"Uttar Pradesh","latitude":28.367,"longitude":79.4304,"temp":22.4,"humidity":78,"rain":0.0,"pressure":986.1,"uv_index":6.4,"wind_gusts":41.0,"aqi":76,"pm10":37.4,"pm2_5":25.3,"mosquito_risk":3,"arthritis_risk":5,"migraine_risk":7,"frizz_risk":1,"updated_at":"2026-03-27T20:24:15.040459+05:30"},{"city":"Aligarh","state":"Uttar Pradesh","latitude":27.8974,"longitude":78.088,"temp":23.0,"humidity":76,"rain":0.0,"pressure":985.1,"uv_index":6.3,"wind_gusts":37.8,"aqi":336,"pm10":299.0,"pm2_5":63.3,"mosquito_risk":3,"arthritis_risk":5,"migraine_risk":7,"frizz_risk":1,"updated_at":"2026-03-27T20:24:15.040466+05:30"},{"city":"Moradabad","state":"Uttar Pradesh","latitude":28.8386,"longitude":78.7733,"temp":22.5,"humidity":75,"rain":0.0,"pressure":982.8,"uv_index":5.7,"wind_gusts":45.0,"aqi":79,"pm10":33.9,"pm2_5":23.7,"mosquito_risk":3,"arthritis_risk":5,"migraine_risk":3,"frizz_risk":1,"updated_at":"2026-03-27T20:24:15.040471+05:30"},{"city":"Saharanpur","state":"Uttar Pradesh","latitude":29.9637,"longitude":77.546,"temp":21.7,"humidity":72,"rain":0.0,"pressure":974.5,"uv_index":6.15,"wind_gusts":32.8,"aqi":80,"pm10":54.7,"pm2_5":41.8,"mosquito_risk":3,"arthritis_risk":5,"migraine_risk":7,"frizz_risk":1,"updated_at":"2026-03-27T20:24:15.040477+05:30"},{"city":"Jhansi","state":"Uttar Pradesh","latitude":25.4484,"longitude":78.5685,"temp":23.8,"humidity":63,"rain":0.0,"pressure":977.0,"uv_index":7.55,"wind_gusts":61.2,"aqi":81,"pm10":47.6,"pm2_5":18.2,"mosquito_risk":3,"arthritis_risk":5,"migraine_risk":7,"frizz_risk":1,"updated_at":"2026-03-27T20:24:18.385657+05:30"},{"city":"Surat","state":"Gujarat","latitude":21.1702,"longitude":72.8311,"temp":28.5,"humidity":65,"rain":0.0,"pressure":1006.4,"uv_index":7.75,"wind_gusts":27.7,"aqi":120,"pm10":63.6,"pm2_5":56.9,"mosquito_risk":7,"arthritis_risk":5,"migraine_risk":4,"frizz_risk":1,"updated_at":"2026-03-27T20:24:18.385685+05:30"},{"city":"Vadodara","state":"Gujarat","latitude":22.3072,"longitude":73.1812,"temp":31.9,"humidity":36,"rain":0.0,"pressure":1004.0,"uv_index":7.9,"wind_gusts":29.2,"aqi":95,"pm10":38.3,"pm2_5":26.3,"mosquito_risk":0,"arthritis_risk":5,"migraine_risk":4,"frizz_risk":0,"updated_at":"2026-03-27T20:24:18.385695+05:30"},{"city":"Rajkot","state":"Gujarat","latitude":22.3039,"longitude":70.8022,"temp":29.6,"humidity":36,"rain":0.0,"pressure":995.0,"uv_index":7.75,"wind_gusts":36.7,"aqi":52,"pm10":20.7,"pm2_5":15.1,"mosquito_risk":4,"arthritis_risk":5,"migraine_risk":7,"frizz_risk":0,"updated_at":"2026-03-27T20:24:18.385705+05:30"},{"city":"Thane","state":"Maharashtra","latitude":19.2183,"longitude":72.9781,"temp":28.8,"humidity":59,"rain":0.0,"pressure":1007.8,"uv_index":8.0,"wind_gusts":39.6,"aqi":202,"pm10":40.2,"pm2_5":34.7,"mosquito_risk":4,"arthritis_risk":5,"migraine_risk":4,"frizz_risk":1,"updated_at":"2026-03-27T20:24:18.385713+05:30"},{"city":"Nagpur","state":"Maharashtra","latitude":21.1458,"longitude":79.0882,"temp":30.9,"humidity":27,"rain":0.0,"pressure":971.8,"uv_index":8.25,"wind_gusts":46.4,"aqi":104,"pm10":20.0,"pm2_5":16.8,"mosquito_risk":0,"arthritis_risk":5,"migraine_risk":7,"frizz_risk":0,"updated_at":"2026-03-27T20:24:18.385721+05:30"},{"city":"Nashik","state":"Maharashtra","latitude":19.9975,"longitude":73.7898,"temp":28.0,"humidity":40,"rain":0.0,"pressure":946.1,"uv_index":8.2,"wind_gusts":43.2,"aqi":93,"pm10":21.5,"pm2_5":16.0,"mosquito_risk":4,"arthritis_risk":5,"migraine_risk":7,"frizz_risk":0,"updated_at":"2026-03-27T20:24:18.385729+05:30"},{"city":"Aurangabad","state":"Maharashtra","latitude":19.8762,"longitude":75.3433,"temp":30.8,"humidity":27,"rain":0.0,"pressure":944.3,"uv_index":8.75,"wind_gusts":37.1,"aqi":98,"pm10":23.3,"pm2_5":17.8,"mosquito_risk":0,"arthritis_risk":5,"migraine_risk":7,"frizz_risk":0,"updated_at":"2026-03-27T20:24:18.385737+05:30"},{"city":"Solapur","state":"Maharashtra","latitude":17.6599,"longitude":75.9064,"temp":32.9,"humidity":27,"rain":0.0,"pressure":956.5,"uv_index":8.85,"wind_gusts":27.4,"aqi":144,"pm10":41.8,"pm2_5":35.0,"mosquito_risk":0,"arthritis_risk":5,"migraine_risk":7,"frizz_risk":0,"updated_at":"2026-03-27T20:24:18.385745+05:30"},{"city":"Kolhapur","state":"Maharashtra","latitude":16.705,"longitude":74.2433,"temp":26.8,"humidity":77,"rain":0.0,"pressure":948.7,"uv_index":8.95,"wind_gusts":47.9,"aqi":155,"pm10":44.9,"pm2_5":41.6,"mosquito_risk":7,"arthritis_risk":5,"migraine_risk":7,"frizz_risk":1,"updated_at":"2026-03-27T20:24:18.385753+05:30"},{"city":"Goa","state":"Goa","latitude":15.2993,"longitude":74.124,"temp":29.3,"humidity":82,"rain":0.0,"pressure":998.2,"uv_index":8.9,"wind_gusts":31.7,"aqi":93,"pm10":32.4,"pm2_5":24.5,"mosquito_risk":7,"arthritis_risk":5,"migraine_risk":7,"frizz_risk":1,"updated_at":"2026-03-27T20:24:18.385761+05:30"},{"city":"Jodhpur","state":"Rajasthan","latitude":26.2389,"longitude":73.0243,"temp":29.9,"humidity":32,"rain":0.0,"pressure":982.9,"uv_index":7.7,"wind_gusts":36.0,"aqi":76,"pm10":79.9,"pm2_5":16.7,"mosquito_risk":4,"arthritis_risk":5,"migraine_risk":7,"frizz_risk":0,"updated_at":"2026-03-27T20:24:18.385769+05:30"},{"city":"Udaipur","state":"Rajasthan","latitude":24.5854,"longitude":73.7125,"temp":27.3,"humidity":38,"rain":0.0,"pressure":947.1,"uv_index":8.35,"wind_gusts":43.2,"aqi":45,"pm10":31.4,"pm2_5":12.7,"mosquito_risk":4,"arthritis_risk":5,"migraine_risk":7,"frizz_risk":0,"updated_at":"2026-03-27T20:24:18.385777+05:30"},{"city":"Kota","state":"Rajasthan","latitude":25.2138,"longitude":75.8648,"temp":30.6,"humidity":30,"rain":0.0,"pressure":977.9,"uv_index":7.7,"wind_gusts":41.4,"aqi":66,"pm10":27.5,"pm2_5":15.5,"mosquito_risk":0,"arthritis_risk":5,"migraine_risk":7,"frizz_risk":0,"updated_at":"2026-03-27T20:24:18.385785+05:30"},{"city":"Bikaner","state":"Rajasthan","latitude":28.0229,"longitude":73.3119,"temp":28.1,"humidity":35,"rain":0.0,"pressure":981.8,"uv_index":7.45,"wind_gusts":30.2,"aqi":65,"pm10":19.7,"pm2_5":8.2,"mosquito_risk":4,"arthritis_risk":5,"migraine_risk":7,"frizz_risk":0,"updated_at":"2026-03-27T20:24:18.385792+05:30"},{"city":"Ajmer","state":"Rajasthan","latitude":26.4499,"longitude":74.6399,"temp":27.8,"humidity":34,"rain":0.0,"pressure":954.6,"uv_index":7.65,"wind_gusts":40.0,"aqi":59,"pm10":23.6,"pm2_5":11.7,"mosquito_risk":4,"arthritis_risk":5,"migraine_risk":7,"frizz_risk":0,"updated_at":"2026-03-27T20:24:18.385799+05:30"},{"city":"Gwalior","state":"Madhya Pradesh","latitude":26.2183,"longitude":78.1828,"temp":25.6,"humidity":57,"rain":0.0,"pressure":982.7,"uv_index":7.25,"wind_gusts":55.8,"aqi":110,"pm10":203.5,"pm2_5":54.6,"mosquito_risk":4,"arthritis_risk":5,"migraine_risk":7,"frizz_risk":1,"updated_at":"2026-03-27T20:24:18.385807+05:30"},{"city":"Indore","state":"Madhya Pradesh","latitude":22.7196,"longitude":75.8577,"temp":27.6,"humidity":34,"rain":0.0,"pressure":948.1,"uv_index":8.2,"wind_gusts":41.8,"aqi":48,"pm10":18.9,"pm2_5":11.5,"mosquito_risk":4,"arthritis_risk":5,"migraine_risk":7,"frizz_risk":0,"updated_at":"2026-03-27T20:24:18.385814+05:30"},{"city":"Bhopal","state":"Madhya Pradesh","latitude":23.2599,"longitude":77.4126,"temp":29.3,"humidity":26,"rain":0.0,"pressure":952.4,"uv_index":8.1,"wind_gusts":45.0,"aqi":50,"pm10":26.1,"pm2_5":11.2,"mosquito_risk":4,"arthritis_risk":5,"migraine_risk":7,"frizz_risk":0,"updated_at":"2026-03-27T20:24:18.385822+05:30"},{"city":"Jabalpur","state":"Madhya Pradesh","latitude":23.1815,"longitude":79.9864,"temp":29.3,"humidity":40,"rain":0.0,"pressure":959.4,"uv_index":8.15,"wind_gusts":46.4,"aqi":73,"pm10":17.6,"pm2_5":11.9,"mosquito_risk":4,"arthritis_risk":5,"migraine_risk":7,"frizz_risk":0,"updated_at":"2026-03-27T20:24:18.385829+05:30"},{"city":"Ujjain","state":"Madhya Pradesh","latitude":23.1765,"longitude":75.7885,"temp":27.6,"humidity":37,"rain":0.0,"pressure":953.6,"uv_index":8.1,"wind_gusts":41.8,"aqi":44,"pm10":22.6,"pm2_5":13.1,"mosquito_risk":4,"arthritis_risk":5,"migraine_risk":7,"frizz_risk":0,"updated_at":"2026-03-27T20:24:18.385837+05:30"},{"city":"Visakhapatnam","state":"Andhra Pradesh","latitude":17.6868,"longitude":83.2185,"temp":27.4,"humidity":81,"rain":0.0,"pressure":1004.0,"uv_index":8.95,"wind_gusts":38.2,"aqi":79,"pm10":34.0,"pm2_5":24.5,"mosquito_risk":7,"arthritis_risk":5,"migraine_risk":4,"frizz_risk":1,"updated_at":"2026-03-27T20:24:18.385844+05:30"},{"city":"Vijayawada","state":"Andhra Pradesh","latitude":16.5062,"longitude":80.648,"temp":28.8,"humidity":57,"rain":0.0,"pressure":1002.3,"uv_index":9.0,"wind_gusts":26.3,"aqi":76,"pm10":28.7,"pm2_5":23.5,"mosquito_risk":4,"arthritis_risk":5,"migraine_risk":4,"frizz_risk":1,"updated_at":"2026-03-27T20:24:18.385852+05:30"},{"city":"Guntur","state":"Andhra Pradesh","latitude":16.3067,"longitude":80.4365,"temp":27.6,"humidity":73,"rain":0.0,"pressure":1003.5,"uv_index":9.05,"wind_gusts":30.2,"aqi":71,"pm10":29.6,"pm2_5":24.2,"mosquito_risk":7,"arthritis_risk":5,"migraine_risk":4,"frizz_risk":1,"updated_at":"2026-03-27T20:24:18.385859+05:30"},{"city":"Nellore","state":"Andhra Pradesh","latitude":14.4426,"longitude":79.9865,"temp":27.0,"humidity":79,"rain":0.0,"pressure":1005.8,"uv_index":9.15,"wind_gusts":28.1,"aqi":99,"pm10":24.1,"pm2_5":15.9,"mosquito_risk":7,"arthritis_risk":5,"migraine_risk":4,"frizz_risk":1,"updated_at":"2026-03-27T20:24:18.385867+05:30"},{"city":"Kurnool","state":"Andhra Pradesh","latitude":15.8281,"longitude":78.0373,"temp":34.0,"humidity":28,"rain":0.0,"pressure":975.4,"uv_index":9.05,"wind_gusts":17.6,"aqi":118,"pm10":34.8,"pm2_5":28.0,"mosquito_risk":0,"arthritis_risk":5,"migraine_risk":7,"frizz_risk":0,"updated_at":"2026-03-27T20:24:18.385875+05:30"},{"city":"Kakinada","state":"Andhra Pradesh","latitude":16.9891,"longitude":82.2475,"temp":27.4,"humidity":75,"rain":0.0,"pressure":1007.5,"uv_index":9.0,"wind_gusts":28.1,"aqi":68,"pm10":27.6,"pm2_5":17.5,"mosquito_risk":7,"arthritis_risk":5,"migraine_risk":4,"frizz_risk":1,"updated_at":"2026-03-27T20:24:18.385883+05:30"},{"city":"Tirupati","state":"Andhra Pradesh","latitude":13.6288,"longitude":79.4192,"temp":29.6,"humidity":53,"rain":0.0,"pressure":991.8,"uv_index":9.25,"wind_gusts":30.2,"aqi":133,"pm10":37.6,"pm2_5":31.4,"mosquito_risk":4,"arthritis_risk":5,"migraine_risk":7,"frizz_risk":1,"updated_at":"2026-03-27T20:24:18.385890+05:30"},{"city":"Warangal","state":"Telangana","latitude":17.9689,"longitude":79.5941,"temp":30.9,"humidity":49,"rain":0.0,"pressure":977.9,"uv_index":8.85,"wind_gusts":26.3,"aqi":98,"pm10":48.0,"pm2_5":42.1,"mosquito_risk":0,"arthritis_risk":5,"migraine_risk":7,"frizz_risk":1,"updated_at":"2026-03-27T20:24:18.385897+05:30"},{"city":"Nizamabad","state":"Telangana","latitude":18.6725,"longitude":78.0941,"temp":30.8,"humidity":43,"rain":0.0,"pressure":964.0,"uv_index":8.75,"wind_gusts":29.5,"aqi":102,"pm10":43.7,"pm2_5":34.7,"mosquito_risk":0,"arthritis_risk":5,"migraine_risk":7,"frizz_risk":1,"updated_at":"2026-03-27T20:24:18.385904+05:30"},{"city":"Mysore","state":"Karnataka","latitude":12.2958,"longitude":76.6396,"temp":27.8,"humidity":56,"rain":0.0,"pressure":928.6,"uv_index":9.45,"wind_gusts":44.6,"aqi":124,"pm10":37.3,"pm2_5":31.9,"mosquito_risk":4,"arthritis_risk":5,"migraine_risk":7,"frizz_risk":1,"updated_at":"2026-03-27T20:24:18.385911+05:30"},{"city":"Mangalore","state":"Karnataka","latitude":12.9141,"longitude":74.856,"temp":29.8,"humidity":82,"rain":0.0,"pressure":1007.0,"uv_index":9.1,"wind_gusts":25.9,"aqi":96,"pm10":39.1,"pm2_5":31.8,"mosquito_risk":7,"arthritis_risk":5,"migraine_risk":4,"frizz_risk":1,"updated_at":"2026-03-27T20:24:18.385919+05:30"},{"city":"Hubli-Dharwad","state":"Karnataka","latitude":15.3647,"longitude":75.124,"temp":26.5,"humidity":75,"rain":0.0,"pressure":941.2,"uv_index":9.1,"wind_gusts":44.6,"aqi":158,"pm10":35.2,"pm2_5":31.3,"mosquito_risk":7,"arthritis_risk":5,"migraine_risk":7,"frizz_risk":1,"updated_at":"2026-03-27T20:24:18.385926+05:30"},{"city":"Belgaum","state":"Karnataka","latitude":15.8497,"longitude":74.4977,"temp":24.8,"humidity":80,"rain":0.0,"pressure":926.4,"uv_index":9.15,"wind_gusts":38.2,"aqi":150,"pm10":40.2,"pm2_5":36.6,"mosquito_risk":3,"arthritis_risk":5,"migraine_risk":7,"frizz_risk":1,"updated_at":"2026-03-27T20:24:21.737688+05:30"},{"city":"Coimbatore","state":"Tamil Nadu","latitude":11.0168,"longitude":76.9558,"temp":26.9,"humidity":75,"rain":0.0,"pressure":962.2,"uv_index":9.4,"wind_gusts":43.2,"aqi":119,"pm10":31.9,"pm2_5":27.1,"mosquito_risk":7,"arthritis_risk":5,"migraine_risk":7,"frizz_risk":1,"updated_at":"2026-03-27T20:24:21.737715+05:30"},{"city":"Madurai","state":"Tamil Nadu","latitude":9.9252,"longitude":78.1198,"temp":29.8,"humidity":56,"rain":0.0,"pressure":993.0,"uv_index":9.35,"wind_gusts":21.6,"aqi":102,"pm10":37.1,"pm2_5":29.5,"mosquito_risk":4,"arthritis_risk":5,"migraine_risk":7,"frizz_risk":1,"updated_at":"2026-03-27T20:24:21.737724+05:30"},{"city":"Trichy","state":"Tamil Nadu","latitude":10.7905,"longitude":78.7047,"temp":28.8,"humidity":70,"rain":0.0,"pressure":999.8,"uv_index":9.3,"wind_gusts":18.0,"aqi":116,"pm10":41.0,"pm2_5":33.9,"mosquito_risk":7,"arthritis_risk":5,"migraine_risk":7,"frizz_risk":1,"updated_at":"2026-03-27T20:24:21.737731+05:30"},{"city":"Salem","state":"Tamil Nadu","latitude":11.6643,"longitude":78.146,"temp":31.0,"humidity":37,"rain":0.0,"pressure":977.1,"uv_index":9.35,"wind_gusts":25.9,"aqi":155,"pm10":33.9,"pm2_5":28.8,"mosquito_risk":0,"arthritis_risk":5,"migraine_risk":7,"frizz_risk":0,"updated_at":"2026-03-27T20:24:21.737739+05:30"},{"city":"Tirunelveli","state":"Tamil Nadu","latitude":8.7139,"longitude":77.7567,"temp":29.4,"humidity":66,"rain":0.0,"pressure":1003.4,"uv_index":9.35,"wind_gusts":47.5,"aqi":82,"pm10":16.2,"pm2_5":13.3,"mosquito_risk":7,"arthritis_risk":5,"migraine_risk":4,"frizz_risk":1,"updated_at":"2026-03-27T20:24:21.737746+05:30"},{"city":"Vellore","state":"Tamil Nadu","latitude":12.9165,"longitude":79.1325,"temp":28.8,"humidity":55,"rain":0.0,"pressure":984.8,"uv_index":9.3,"wind_gusts":30.6,"aqi":103,"pm10":34.1,"pm2_5":27.6,"mosquito_risk":4,"arthritis_risk":5,"migraine_risk":7,"frizz_risk":1,"updated_at":"2026-03-27T20:24:21.737752+05:30"},{"city":"Erode","state":"Tamil Nadu","latitude":11.341,"longitude":77.7172,"temp":32.1,"humidity":41,"rain":0.0,"pressure":988.4,"uv_index":9.35,"wind_gusts":25.9,"aqi":126,"pm10":36.7,"pm2_5":31.7,"mosquito_risk":0,"arthritis_risk":5,"migraine_risk":7,"frizz_risk":1,"updated_at":"2026-03-27T20:24:21.737758+05:30"},{"city":"Kochi","state":"Kerala","latitude":9.9312,"longitude":76.2673,"temp":29.3,"humidity":80,"rain":0.0,"pressure":1009.5,"uv_index":9.2,"wind_gusts":40.3,"aqi":99,"pm10":38.3,"pm2_5":31.4,"mosquito_risk":7,"arthritis_risk":0,"migraine_risk":4,"frizz_risk":1,"updated_at":"2026-03-27T20:24:21.737764+05:30"},{"city":"Thiruvananthapuram","state":"Kerala","latitude":8.5241,"longitude":76.9366,"temp":29.0,"humidity":80,"rain":0.0,"pressure":1008.7,"uv_index":9.2,"wind_gusts":32.8,"aqi":112,"pm10":24.9,"pm2_5":17.2,"mosquito_risk":7,"arthritis_risk":0,"migraine_risk":4,"frizz_risk":1,"updated_at":"2026-03-27T20:24:21.737771+05:30"},{"city":"Kozhikode","state":"Kerala","latitude":11.2588,"longitude":75.7804,"temp":29.3,"humidity":79,"rain":0.0,"pressure":1008.4,"uv_index":9.1,"wind_gusts":31.7,"aqi":89,"pm10":34.1,"pm2_5":27.0,"mosquito_risk":7,"arthritis_risk":0,"migraine_risk":4,"frizz_risk":1,"updated_at":"2026-03-27T20:24:21.737777+05:30"},{"city":"Thrissur","state":"Kerala","latitude":10.5276,"longitude":76.2144,"temp":29.3,"humidity":77,"rain":0.0,"pressure":1007.7,"uv_index":9.15,"wind_gusts":41.0,"aqi":117,"pm10":33.6,"pm2_5":28.8,"mosquito_risk":7,"arthritis_risk":5,"migraine_risk":4,"frizz_risk":1,"updated_at":"2026-03-27T20:24:21.737784+05:30"},{"city":"Kannur","state":"Kerala","latitude":11.8745,"longitude":75.3704,"temp":29.6,"humidity":76,"rain":0.0,"pressure":1007.6,"uv_index":9.1,"wind_gusts":32.4,"aqi":100,"pm10":37.1,"pm2_5":29.7,"mosquito_risk":7,"arthritis_risk":5,"migraine_risk":4,"frizz_risk":1,"updated_at":"2026-03-27T20:24:21.737790+05:30"},{"city":"Patna","state":"Bihar","latitude":25.5941,"longitude":85.1376,"temp":27.8,"humidity":53,"rain":0.0,"pressure":999.8,"uv_index":7.95,"wind_gusts":43.9,"aqi":149,"pm10":46.1,"pm2_5":31.1,"mosquito_risk":4,"arthritis_risk":5,"migraine_risk":7,"frizz_risk":1,"updated_at":"2026-03-27T20:24:21.737797+05:30"},{"city":"Gaya","state":"Bihar","latitude":24.7914,"longitude":85.0002,"temp":26.7,"humidity":58,"rain":0.0,"pressure":993.5,"uv_index":8.05,"wind_gusts":31.3,"aqi":90,"pm10":44.2,"pm2_5":26.5,"mosquito_risk":4,"arthritis_risk":5,"migraine_risk":7,"frizz_risk":1,"updated_at":"2026-03-27T20:24:21.737803+05:30"},{"city":"Muzaffarpur","state":"Bihar","latitude":26.1209,"longitude":85.3647,"temp":25.0,"humidity":62,"rain":0.0,"pressure":1000.3,"uv_index":7.6,"wind_gusts":38.2,"aqi":156,"pm10":52.3,"pm2_5":36.7,"mosquito_risk":7,"arthritis_risk":5,"migraine_risk":4,"frizz_risk":1,"updated_at":"2026-03-27T20:24:21.737809+05:30"},{"city":"Bhagalpur","state":"Bihar","latitude":25.2425,"longitude":87.0117,"temp":26.1,"humidity":74,"rain":0.0,"pressure":1001.1,"uv_index":8.0,"wind_gusts":31.3,"aqi":151,"pm10":48.9,"pm2_5":31.7,"mosquito_risk":7,"arthritis_risk":5,"migraine_risk":4,"frizz_risk":1,"updated_at":"2026-03-27T20:24:21.737815+05:30"},{"city":"Ranchi","state":"Jharkhand","latitude":23.3441,"longitude":85.3096,"temp":23.9,"humidity":56,"rain":0.0,"pressure":937.8,"uv_index":8.7,"wind_gusts":33.8,"aqi":100,"pm10":19.3,"pm2_5":15.9,"mosquito_risk":0,"arthritis_risk":5,"migraine_risk":7,"frizz_risk":0,"updated_at":"2026-03-27T20:24:21.737822+05:30"},{"city":"Jamshedpur","state":"Jharkhand","latitude":22.8046,"longitude":86.2029,"temp":30.4,"humidity":42,"rain":0.0,"pressure":991.1,"uv_index":8.55,"wind_gusts":22.3,"aqi":145,"pm10":40.5,"pm2_5":22.5,"mosquito_risk":0,"arthritis_risk":5,"migraine_risk":7,"frizz_risk":1,"updated_at":"2026-03-27T20:24:21.737828+05:30"},{"city":"Dhanbad","state":"Jharkhand","latitude":23.7957,"longitude":86.4304,"temp":29.9,"humidity":35,"rain":0.0,"pressure":979.2,"uv_index":8.45,"wind_gusts":25.6,"aqi":116,"pm10":49.2,"pm2_5":32.2,"mosquito_risk":4,"arthritis_risk":5,"migraine_risk":7,"frizz_risk":0,"updated_at":"2026-03-27T20:24:21.737834+05:30"},{"city":"Bokaro","state":"Jharkhand","latitude":23.6693,"longitude":86.1511,"temp":29.0,"humidity":36,"rain":0.0,"pressure":983.4,"uv_index":8.3,"wind_gusts":27.0,"aqi":116,"pm10":39.5,"pm2_5":25.1,"mosquito_risk":4,"arthritis_risk":5,"migraine_risk":7,"frizz_risk":0,"updated_at":"2026-03-27T20:24:21.737840+05:30"},{"city":"Bhubaneswar","state":"Odisha","latitude":20.2961,"longitude":85.8245,"temp":27.2,"humidity":84,"rain":0.0,"pressure":1002.8,"uv_index":8.75,"wind_gusts":29.2,"aqi":139,"pm10":34.3,"pm2_5":30.4,"mosquito_risk":7,"arthritis_risk":5,"migraine_risk":4,"frizz_risk":1,"updated_at":"2026-03-27T20:24:21.737847+05:30"},{"city":"Cuttack","state":"Odisha","latitude":20.4625,"longitude":85.8828,"temp":26.9,"humidity":80,"rain":0.0,"pressure":1004.6,"uv_index":8.8,"wind_gusts":35.3,"aqi":139,"pm10":34.3,"pm2_5":30.4,"mosquito_risk":7,"arthritis_risk":5,"migraine_risk":4,"frizz_risk":1,"updated_at":"2026-03-27T20:24:21.737853+05:30"},{"city":"Rourkela","state":"Odisha","latitude":22.2604,"longitude":84.8536,"temp":28.7,"humidity":53,"rain":0.0,"pressure":985.6,"uv_index":8.45,"wind_gusts":31.7,"aqi":167,"pm10":36.9,"pm2_5":32.1,"mosquito_risk":4,"arthritis_risk":5,"migraine_risk":7,"frizz_risk":1,"updated_at":"2026-03-27T20:24:21.737859+05:30"},{"city":"Raipur","state":"Chhattisgarh","latitude":21.2514,"longitude":81.6296,"temp":29.3,"humidity":48,"rain":0.0,"pressure":973.0,"uv_index":8.5,"wind_gusts":48.6,"aqi":150,"pm10":43.0,"pm2_5":38.3,"mosquito_risk":4,"arthritis_risk":5,"migraine_risk":7,"frizz_risk":1,"updated_at":"2026-03-27T20:24:21.737865+05:30"},{"city":"Bhilai","state":"Chhattisgarh","latitude":21.1938,"longitude":81.3509,"temp":29.0,"humidity":50,"rain":0.0,"pressure":973.1,"uv_index":8.55,"wind_gusts":44.6,"aqi":136,"pm10":32.6,"pm2_5":29.2,"mosquito_risk":4,"arthritis_risk":5,"migraine_risk":7,"frizz_risk":1,"updated_at":"2026-03-27T20:24:21.737871+05:30"},{"city":"Guwahati","state":"Assam","latitude":26.1158,"longitude":91.7086,"temp":24.7,"humidity":82,"rain":0.0,"pressure":1003.0,"uv_index":7.9,"wind_gusts":28.4,"aqi":154,"pm10":130.9,"pm2_5":95.7,"mosquito_risk":3,"arthritis_risk":5,"migraine_risk":4,"frizz_risk":1,"updated_at":"2026-03-27T20:24:21.737878+05:30"},{"city":"Agartala","state":"Tripura","latitude":23.8315,"longitude":91.2868,"temp":25.9,"humidity":78,"rain":0.0,"pressure":1006.3,"uv_index":8.2,"wind_gusts":19.1,"aqi":158,"pm10":95.2,"pm2_5":84.5,"mosquito_risk":7,"arthritis_risk":5,"migraine_risk":4,"frizz_risk":1,"updated_at":"2026-03-27T20:24:21.737884+05:30"},{"city":"Shillong","state":"Meghalaya","latitude":25.5788,"longitude":91.8933,"temp":13.1,"humidity":95,"rain":0.0,"pressure":855.8,"uv_index":8.15,"wind_gusts":42.1,"aqi":136,"pm10":57.4,"pm2_5":47.6,"mosquito_risk":3,"arthritis_risk":10,"migraine_risk":7,"frizz_risk":0,"updated_at":"2026-03-27T20:24:21.737891+05:30"},{"city":"Imphal","state":"Manipur","latitude":24.817,"longitude":93.9368,"temp":17.5,"humidity":61,"rain":0.0,"pressure":923.4,"uv_index":8.55,"wind_gusts":44.3,"aqi":126,"pm10":66.8,"pm2_5":53.4,"mosquito_risk":3,"arthritis_risk":5,"migraine_risk":7,"frizz_risk":0,"updated_at":"2026-03-27T20:24:21.737897+05:30"},{"city":"Aizawl","state":"Mizoram","latitude":23.7271,"longitude":92.7176,"temp":19.7,"humidity":59,"rain":0.0,"pressure":892.8,"uv_index":8.5,"wind_gusts":28.8,"aqi":119,"pm10":59.1,"pm2_5":43.8,"mosquito_risk":0,"arthritis_risk":5,"migraine_risk":7,"frizz_risk":0,"updated_at":"2026-03-27T20:24:21.737903+05:30"},{"city":"Kohima","state":"Nagaland","latitude":25.6701,"longitude":94.1077,"temp":14.8,"humidity":83,"rain":0.0,"pressure":854.8,"uv_index":8.45,"wind_gusts":51.5,"aqi":113,"pm10":58.1,"pm2_5":40.5,"mosquito_risk":3,"arthritis_risk":10,"migraine_risk":7,"frizz_risk":0,"updated_at":"2026-03-27T20:24:21.737910+05:30"},{"city":"Gangtok","state":"Sikkim","latitude":27.3314,"longitude":88.6138,"temp":13.5,"humidity":93,"rain":0.1,"pressure":836.7,"uv_index":7.6,"wind_gusts":19.4,"aqi":128,"pm10":65.0,"pm2_5":48.5,"mosquito_risk":6,"arthritis_risk":10,"migraine_risk":7,"frizz_risk":0,"updated_at":"2026-03-27T20:24:21.737916+05:30"},{"city":"Siliguri","state":"West Bengal","latitude":26.7271,"longitude":88.3953,"temp":20.0,"humidity":86,"rain":0.0,"pressure":995.1,"uv_index":7.7,"wind_gusts":33.1,"aqi":160,"pm10":103.1,"pm2_5":75.7,"mosquito_risk":3,"arthritis_risk":5,"migraine_risk":7,"frizz_risk":1,"updated_at":"2026-03-27T20:24:25.086014+05:30"},{"city":"Durgapur","state":"West Bengal","latitude":23.5204,"longitude":87.3119,"temp":31.2,"humidity":40,"rain":0.0,"pressure":994.0,"uv_index":8.4,"wind_gusts":20.2,"aqi":151,"pm10":67.8,"pm2_5":49.0,"mosquito_risk":0,"arthritis_risk":5,"migraine_risk":7,"frizz_risk":0,"updated_at":"2026-03-27T20:24:25.086043+05:30"},{"city":"Asansol","state":"West Bengal","latitude":23.6739,"longitude":86.9524,"temp":31.2,"humidity":37,"rain":0.0,"pressure":992.5,"uv_index":8.45,"wind_gusts":20.2,"aqi":101,"pm10":51.1,"pm2_5":32.7,"mosquito_risk":0,"arthritis_risk":5,"migraine_risk":7,"frizz_risk":0,"updated_at":"2026-03-27T20:24:25.086054+05:30"},{"city":"Pondicherry","state":"Puducherry","latitude":11.9139,"longitude":79.8145,"temp":25.3,"humidity":85,"rain":0.0,"pressure":1009.0,"uv_index":9.2,"wind_gusts":25.2,"aqi":68,"pm10":28.9,"pm2_5":16.7,"mosquito_risk":7,"arthritis_risk":0,"migraine_risk":4,"frizz_risk":1,"updated_at":"2026-03-27T20:24:25.086063+05:30"},{"city":"Port Blair","state":"Andaman and Nicobar Islands","latitude":11.6234,"longitude":92.7265,"temp":28.3,"humidity":78,"rain":0.0,"pressure":1006.9,"uv_index":9.15,"wind_gusts":25.6,"aqi":76,"pm10":29.6,"pm2_5":22.0,"mosquito_risk":7,"arthritis_risk":5,"migraine_risk":4,"frizz_risk":1,"updated_at":"2026-03-27T20:24:25.086072+05:30"},{"city":"Haridwar","state":"Uttarakhand","latitude":29.9457,"longitude":78.1642,"temp":24.2,"humidity":63,"rain":0.0,"pressure":973.4,"uv_index":5.75,"wind_gusts":38.5,"aqi":80,"pm10":43.4,"pm2_5":33.4,"mosquito_risk":3,"arthritis_risk":5,"migraine_risk":3,"frizz_risk":1,"updated_at":"2026-03-27T20:24:25.086080+05:30"},{"city":"Rishikesh","state":"Uttarakhand","latitude":30.0869,"longitude":78.2676,"temp":20.8,"humidity":72,"rain":0.0,"pressure":965.9,"uv_index":6.15,"wind_gusts":28.4,"aqi":71,"pm10":35.3,"pm2_5":22.9,"mosquito_risk":3,"arthritis_risk":5,"migraine_risk":7,"frizz_risk":0,"updated_at":"2026-03-27T20:24:25.086088+05:30"},{"city":"Nainital","state":"Uttarakhand","latitude":29.3919,"longitude":79.4542,"temp":16.0,"humidity":59,"rain":0.0,"pressure":803.6,"uv_index":6.65,"wind_gusts":50.4,"aqi":54,"pm10":26.7,"pm2_5":17.7,"mosquito_risk":0,"arthritis_risk":5,"migraine_risk":7,"frizz_risk":0,"updated_at":"2026-03-27T20:24:25.086096+05:30"},{"city":"Mussoorie","state":"Uttarakhand","latitude":30.4599,"longitude":78.0664,"temp":12.9,"humidity":87,"rain":0.0,"pressure":799.3,"uv_index":5.8,"wind_gusts":32.8,"aqi":78,"pm10":39.8,"pm2_5":27.9,"mosquito_risk":3,"arthritis_risk":10,"migraine_risk":3,"frizz_risk":0,"updated_at":"2026-03-27T20:24:25.086104+05:30"},{"city":"Dharamshala","state":"Himachal Pradesh","latitude":32.219,"longitude":76.3234,"temp":18.1,"humidity":74,"rain":0.0,"pressure":866.5,"uv_index":6.95,"wind_gusts":19.1,"aqi":78,"pm10":26.7,"pm2_5":15.1,"mosquito_risk":3,"arthritis_risk":5,"migraine_risk":7,"frizz_risk":0,"updated_at":"2026-03-27T20:24:25.086112+05:30"},{"city":"Dalhousie","state":"Himachal Pradesh","latitude":32.5387,"longitude":75.971,"temp":15.5,"humidity":80,"rain":0.0,"pressure":801.0,"uv_index":7.2,"wind_gusts":19.4,"aqi":78,"pm10":38.1,"pm2_5":28.3,"mosquito_risk":3,"arthritis_risk":5,"migraine_risk":7,"frizz_risk":0,"updated_at":"2026-03-27T20:24:25.086120+05:30"},{"city":"Patiala","state":"Punjab","latitude":30.3398,"longitude":76.3869,"temp":22.4,"humidity":66,"rain":0.0,"pressure":977.3,"uv_index":6.35,"wind_gusts":30.2,"aqi":120,"pm10":35.4,"pm2_5":27.8,"mosquito_risk":3,"arthritis_risk":5,"migraine_risk":7,"frizz_risk":0,"updated_at":"2026-03-27T20:24:25.086128+05:30"},{"city":"Bhatinda","state":"Punjab","latitude":30.211,"longitude":74.9455,"temp":23.5,"humidity":61,"rain":0.0,"pressure":983.1,"uv_index":7.0,"wind_gusts":27.0,"aqi":85,"pm10":36.2,"pm2_5":31.2,"mosquito_risk":3,"arthritis_risk":5,"migraine_risk":7,"frizz_risk":0,"updated_at":"2026-03-27T20:24:25.086136+05:30"},{"city":"Rohtak","state":"Haryana","latitude":28.8955,"longitude":76.6066,"temp":23.5,"humidity":67,"rain":0.0,"pressure":981.2,"uv_index":6.55,"wind_gusts":38.5,"aqi":167,"pm10":212.3,"pm2_5":46.6,"mosquito_risk":3,"arthritis_risk":5,"migraine_risk":7,"frizz_risk":1,"updated_at":"2026-03-27T20:24:25.086144+05:30"},{"city":"Panipat","state":"Haryana","latitude":29.3909,"longitude":76.9635,"temp":22.6,"humidity":68,"rain":0.0,"pressure":979.8,"uv_index":6.35,"wind_gusts":37.4,"aqi":257,"pm10":162.1,"pm2_5":39.8,"mosquito_risk":3,"arthritis_risk":5,"migraine_risk":7,"frizz_risk":1,"updated_at":"2026-03-27T20:24:25.086151+05:30"},{"city":"Mathura","state":"Uttar Pradesh","latitude":27.4924,"longitude":77.6737,"temp":23.5,"humidity":72,"rain":0.0,"pressure":986.4,"uv_index":6.8,"wind_gusts":32.4,"aqi":716,"pm10":405.1,"pm2_5":68.7,"mosquito_risk":3,"arthritis_risk":5,"migraine_risk":7,"frizz_risk":1,"updated_at":"2026-03-27T20:24:25.086159+05:30"},{"city":"Vrindavan","state":"Uttar Pradesh","latitude":27.5823,"longitude":77.7027,"temp":23.4,"humidity":72,"rain":0.0,"pressure":986.8,"uv_index":6.75,"wind_gusts":39.2,"aqi":716,"pm10":405.1,"pm2_5":68.7,"mosquito_risk":3,"arthritis_risk":5,"migraine_risk":7,"frizz_risk":1,"updated_at":"2026-03-27T20:24:25.086167+05:30"},{"city":"Ayodhya","state":"Uttar Pradesh","latitude":26.7922,"longitude":82.1998,"temp":25.9,"humidity":51,"rain":0.0,"pressure":994.4,"uv_index":6.8,"wind_gusts":50.4,"aqi":80,"pm10":42.7,"pm2_5":26.6,"mosquito_risk":4,"arthritis_risk":5,"migraine_risk":7,"frizz_risk":0,"updated_at":"2026-03-27T20:24:25.086174+05:30"},{"city":"Ratlam","state":"Madhya Pradesh","latitude":23.3315,"longitude":75.0367,"temp":27.3,"humidity":48,"rain":0.0,"pressure":954.3,"uv_index":8.05,"wind_gusts":38.2,"aqi":44,"pm10":22.4,"pm2_5":11.3,"mosquito_risk":4,"arthritis_risk":5,"migraine_risk":7,"frizz_risk":0,"updated_at":"2026-03-27T20:24:25.086182+05:30"},{"city":"Sagar","state":"Madhya Pradesh","latitude":23.8388,"longitude":78.7378,"temp":29.4,"humidity":33,"rain":0.0,"pressure":948.5,"uv_index":8.05,"wind_gusts":39.2,"aqi":66,"pm10":37.3,"pm2_5":13.7,"mosquito_risk":4,"arthritis_risk":5,"migraine_risk":7,"frizz_risk":0,"updated_at":"2026-03-27T20:24:25.086190+05:30"},{"city":"Satna","state":"Madhya Pradesh","latitude":24.6005,"longitude":80.8322,"temp":25.8,"humidity":66,"rain":0.0,"pressure":970.9,"uv_index":7.75,"wind_gusts":55.4,"aqi":111,"pm10":52.0,"pm2_5":19.2,"mosquito_risk":7,"arthritis_risk":5,"migraine_risk":7,"frizz_risk":1,"updated_at":"2026-03-27T20:24:25.086198+05:30"},{"city":"Akola","state":"Maharashtra","latitude":20.7002,"longitude":77.0082,"temp":29.9,"humidity":31,"rain":0.0,"pressure":974.4,"uv_index":8.45,"wind_gusts":43.6,"aqi":87,"pm10":19.7,"pm2_5":15.6,"mosquito_risk":4,"arthritis_risk":5,"migraine_risk":7,"frizz_risk":0,"updated_at":"2026-03-27T20:24:25.086206+05:30"},{"city":"Amravati","state":"Maharashtra","latitude":20.9374,"longitude":77.7796,"temp":29.0,"humidity":34,"rain":0.0,"pressure":966.2,"uv_index":8.45,"wind_gusts":43.9,"aqi":85,"pm10":20.3,"pm2_5":16.4,"mosquito_risk":4,"arthritis_risk":5,"migraine_risk":7,"frizz_risk":0,"updated_at":"2026-03-27T20:24:25.086215+05:30"},{"city":"Latur","state":"Maharashtra","latitude":18.4088,"longitude":76.5604,"temp":29.8,"humidity":33,"rain":0.0,"pressure":939.6,"uv_index":8.8,"wind_gusts":25.2,"aqi":113,"pm10":36.1,"pm2_5":29.6,"mosquito_risk":4,"arthritis_risk":5,"migraine_risk":7,"frizz_risk":0,"updated_at":"2026-03-27T20:24:25.086222+05:30"},{"city":"Nanded","state":"Maharashtra","latitude":19.1383,"longitude":77.3091,"temp":31.1,"humidity":36,"rain":0.0,"pressure":967.9,"uv_index":8.65,"wind_gusts":28.1,"aqi":100,"pm10":37.1,"pm2_5":30.2,"mosquito_risk":0,"arthritis_risk":5,"migraine_risk":7,"frizz_risk":0,"updated_at":"2026-03-27T20:24:25.086230+05:30"},{"city":"Gulbarga","state":"Karnataka","latitude":17.3297,"longitude":76.8343,"temp":33.4,"humidity":27,"rain":0.0,"pressure":958.1,"uv_index":8.85,"wind_gusts":32.0,"aqi":155,"pm10":48.1,"pm2_5":38.5,"mosquito_risk":0,"arthritis_risk":5,"migraine_risk":7,"frizz_risk":0,"updated_at":"2026-03-27T20:24:25.086238+05:30"},{"city":"Bidar","state":"Karnataka","latitude":17.9104,"longitude":77.5199,"temp":31.8,"humidity":35,"rain":0.0,"pressure":935.6,"uv_index":8.85,"wind_gusts":29.9,"aqi":114,"pm10":38.1,"pm2_5":31.5,"mosquito_risk":0,"arthritis_risk":5,"migraine_risk":7,"frizz_risk":0,"updated_at":"2026-03-27T20:24:25.086245+05:30"},{"city":"Hospet","state":"Karnataka","latitude":15.2689,"longitude":76.3909,"temp":32.4,"humidity":38,"rain":0.0,"pressure":955.7,"uv_index":9.1,"wind_gusts":26.6,"aqi":157,"pm10":35.3,"pm2_5":30.5,"mosquito_risk":0,"arthritis_risk":5,"migraine_risk":7,"frizz_risk":1,"updated_at":"2026-03-27T20:24:25.086252+05:30"},{"city":"Tirupur","state":"Tamil Nadu","latitude":11.1085,"longitude":77.3411,"temp":31.1,"humidity":45,"rain":0.0,"pressure":975.2,"uv_index":9.4,"wind_gusts":34.9,"aqi":134,"pm10":41.4,"pm2_5":35.0,"mosquito_risk":0,"arthritis_risk":5,"migraine_risk":7,"frizz_risk":1,"updated_at":"2026-03-27T20:24:25.086260+05:30"},{"city":"Alappuzha","state":"Kerala","latitude":9.4981,"longitude":76.3388,"temp":29.3,"humidity":80,"rain":0.0,"pressure":1009.8,"uv_index":9.15,"wind_gusts":35.6,"aqi":87,"pm10":31.2,"pm2_5":24.0,"mosquito_risk":7,"arthritis_risk":0,"migraine_risk":4,"frizz_risk":1,"updated_at":"2026-03-27T20:24:25.086267+05:30"},{"city":"Munnar","state":"Kerala","latitude":10.0889,"longitude":77.0595,"temp":21.8,"humidity":93,"rain":0.0,"pressure":858.1,"uv_index":9.7,"wind_gusts":33.8,"aqi":86,"pm10":31.7,"pm2_5":26.1,"mosquito_risk":3,"arthritis_risk":5,"migraine_risk":7,"frizz_risk":1,"updated_at":"2026-03-27T20:24:25.086275+05:30"},{"city":"Silchar","state":"Assam","latitude":24.8333,"longitude":92.7789,"temp":26.2,"humidity":68,"rain":0.0,"pressure":1005.1,"uv_index":8.25,"wind_gusts":16.2,"aqi":155,"pm10":103.6,"pm2_5":79.4,"mosquito_risk":7,"arthritis_risk":5,"migraine_risk":4,"frizz_risk":1,"updated_at":"2026-03-27T20:24:25.086283+05:30"},{"city":"Dibrugarh","state":"Assam","latitude":27.4728,"longitude":94.912,"temp":24.5,"humidity":82,"rain":0.0,"pressure":997.0,"uv_index":3.6,"wind_gusts":12.6,"aqi":124,"pm10":75.9,"pm2_5":58.3,"mosquito_risk":3,"arthritis_risk":5,"migraine_risk":3,"frizz_risk":1,"updated_at":"2026-03-27T20:24:25.086290+05:30"}]