[{"city":"Delhi","state":"Delhi","latitude":28.6139,"longitude":77.209,"temp":24.7,"humidity":53,"rain":0.0,"pressure":980.2,"uv_index":7.25,"wind_gusts":29.2,"aqi":173,"pm10":588.6,"pm2_5":101.7,"mosquito_risk":0,"arthritis_risk":5,"migraine_risk":7,"frizz_risk":0,"updated_at":"2026-04-20T03:09:20.655690+05:30"},{"city":"Mumbai","state":"Maharashtra","latitude":19.076,"longitude":72.8777,"temp":29.1,"humidity":73,"rain":0.0,"pressure":1006.5,"uv_index":7.3,"wind_gusts":20.5,"aqi":77,"pm10":34.2,"pm2_5":18.0,"mosquito_risk":7,"arthritis_risk":5,"migraine_risk":4,"frizz_risk":1,"updated_at":"2026-04-20T03:09:20.655733+05:30"},{"city":"Bangalore","state":"Karnataka","latitude":12.9716,"longitude":77.5946,"temp":23.3,"humidity":72,"rain":0.0,"pressure":910.2,"uv_index":9.55,"wind_gusts":17.6,"aqi":80,"pm10":31.5,"pm2_5":27.2,"mosquito_risk":3,"arthritis_risk":5,"migraine_risk":7,"frizz_risk":1,"updated_at":"2026-04-20T03:09:20.655749+05:30"},{"city":"Hyderabad","state":"Telangana","latitude":17.385,"longitude":78.4867,"temp":25.3,"humidity":75,"rain":0.0,"pressure":952.2,"uv_index":9.3,"wind_gusts":46.1,"aqi":111,"pm10":35.7,"pm2_5":32.4,"mosquito_risk":7,"arthritis_risk":5,"migraine_risk":7,"frizz_risk":1,"updated_at":"2026-04-20T03:09:20.655759+05:30"},{"city":"Chennai","state":"Tamil Nadu","latitude":13.0827,"longitude":80.2707,"temp":27.6,"humidity":87,"rain":0.0,"pressure":1005.5,"uv_index":9.3,"wind_gusts":34.6,"aqi":36,"pm10":14.4,"pm2_5":9.8,"mosquito_risk":7,"arthritis_risk":5,"migraine_risk":4,"frizz_risk":1,"updated_at":"2026-04-20T03:09:20.655769+05:30"},{"city":"Kolkata","state":"West Bengal","latitude":22.5726,"longitude":88.3639,"temp":27.5,"humidity":91,"rain":0.0,"pressure":1002.6,"uv_index":8.9,"wind_gusts":34.2,"aqi":78,"pm10":31.7,"pm2_5":25.3,"mosquito_risk":7,"arthritis_risk":5,"migraine_risk":4,"frizz_risk":1,"updated_at":"2026-04-20T03:09:20.655780+05:30"},{"city":"Pune","state":"Maharashtra","latitude":18.5204,"longitude":73.8567,"temp":24.9,"humidity":75,"rain":0.0,"pressure":946.8,"uv_index":7.3,"wind_gusts":35.6,"aqi":103,"pm10":66.4,"pm2_5":58.8,"mosquito_risk":3,"arthritis_risk":5,"migraine_risk":7,"frizz_risk":1,"updated_at":"2026-04-20T03:09:20.655789+05:30"},{"city":"Ahmedabad","state":"Gujarat","latitude":23.0225,"longitude":72.5714,"temp":25.6,"humidity":50,"rain":0.0,"pressure":1000.6,"uv_index":8.15,"wind_gusts":20.2,"aqi":54,"pm10":15.1,"pm2_5":10.8,"mosquito_risk":4,"arthritis_risk":5,"migraine_risk":4,"frizz_risk":0,"updated_at":"2026-04-20T03:09:20.655796+05:30"},{"city":"Jaipur","state":"Rajasthan","latitude":26.9124,"longitude":75.7873,"temp":26.5,"humidity":27,"rain":0.0,"pressure":957.4,"uv_index":7.9,"wind_gusts":22.0,"aqi":108,"pm10":202.1,"pm2_5":33.6,"mosquito_risk":4,"arthritis_risk":5,"migraine_risk":7,"frizz_risk":0,"updated_at":"2026-04-20T03:09:20.655804+05:30"},{"city":"Lucknow","state":"Uttar Pradesh","latitude":26.8467,"longitude":80.9462,"temp":26.9,"humidity":53,"rain":0.0,"pressure":989.4,"uv_index":7.9,"wind_gusts":34.6,"aqi":128,"pm10":143.9,"pm2_5":43.8,"mosquito_risk":4,"arthritis_risk":5,"migraine_risk":7,"frizz_risk":1,"updated_at":"2026-04-20T03:09:20.655812+05:30"},{"city":"Kanpur","state":"Uttar Pradesh","latitude":26.4499,"longitude":80.3319,"temp":25.6,"humidity":61,"rain":0.0,"pressure":987.9,"uv_index":7.9,"wind_gusts":27.0,"aqi":184,"pm10":259.8,"pm2_5":58.7,"mosquito_risk":7,"arthritis_risk":5,"migraine_risk":7,"frizz_risk":1,"updated_at":"2026-04-20T03:09:20.655819+05:30"},{"city":"Chandigarh","state":"Chandigarh","latitude":30.7333,"longitude":76.7794,"temp":21.6,"humidity":57,"rain":0.0,"pressure":966.1,"uv_index":7.25,"wind_gusts":32.4,"aqi":66,"pm10":19.6,"pm2_5":15.9,"mosquito_risk":0,"arthritis_risk":5,"migraine_risk":7,"frizz_risk":0,"updated_at":"2026-04-20T03:09:20.655827+05:30"},{"city":"Srinagar","state":"Jammu and Kashmir","latitude":34.0837,"longitude":74.7973,"temp":8.8,"humidity":92,"rain":0.0,"pressure":841.9,"uv_index":8.3,"wind_gusts":15.8,"aqi":75,"pm10":71.2,"pm2_5":51.2,"mosquito_risk":3,"arthritis_risk":10,"migraine_risk":7,"frizz_risk":0,"updated_at":"2026-04-20T03:09:20.655834+05:30"},{"city":"Jammu","state":"Jammu and Kashmir","latitude":32.7266,"longitude":74.857,"temp":22.3,"humidity":52,"rain":0.0,"pressure":971.7,"uv_index":7.95,"wind_gusts":32.0,"aqi":62,"pm10":27.0,"pm2_5":19.1,"mosquito_risk":0,"arthritis_risk":5,"migraine_risk":7,"frizz_risk":0,"updated_at":"2026-04-20T03:09:20.655841+05:30"},{"city":"Amritsar","state":"Punjab","latitude":31.634,"longitude":74.8723,"temp":21.7,"humidity":68,"rain":0.0,"pressure":979.5,"uv_index":7.9,"wind_gusts":28.4,"aqi":75,"pm10":74.5,"pm2_5":36.0,"mosquito_risk":3,"arthritis_risk":5,"migraine_risk":7,"frizz_risk":0,"updated_at":"2026-04-20T03:09:20.655848+05:30"},{"city":"Ludhiana","state":"Punjab","latitude":30.901,"longitude":75.8573,"temp":22.9,"humidity":56,"rain":0.0,"pressure":976.7,"uv_index":7.5,"wind_gusts":31.3,"aqi":73,"pm10":28.5,"pm2_5":18.6,"mosquito_risk":0,"arthritis_risk":5,"migraine_risk":7,"frizz_risk":0,"updated_at":"2026-04-20T03:09:20.655857+05:30"},{"city":"Jalandhar","state":"Punjab","latitude":31.326,"longitude":75.5762,"temp":21.4,"humidity":54,"rain":0.0,"pressure":978.1,"uv_index":7.65,"wind_gusts":31.3,"aqi":72,"pm10":49.9,"pm2_5":27.2,"mosquito_risk":0,"arthritis_risk":5,"migraine_risk":7,"frizz_risk":0,"updated_at":"2026-04-20T03:09:20.655863+05:30"},{"city":"Dehradun","state":"Uttarakhand","latitude":30.6284,"longitude":78.0322,"temp":16.3,"humidity":41,"rain":0.0,"pressure":829.1,"uv_index":7.7,"wind_gusts":42.8,"aqi":40,"pm10":14.4,"pm2_5":9.1,"mosquito_risk":0,"arthritis_risk":5,"migraine_risk":7,"frizz_risk":0,"updated_at":"2026-04-20T03:09:20.655869+05:30"},{"city":"Shimla","state":"Himachal Pradesh","latitude":31.1048,"longitude":77.1734,"temp":14.1,"humidity":53,"rain":0.0,"pressure":783.3,"uv_index":7.75,"wind_gusts":44.6,"aqi":51,"pm10":21.2,"pm2_5":11.8,"mosquito_risk":0,"arthritis_risk":5,"migraine_risk":7,"frizz_risk":0,"updated_at":"2026-04-20T03:09:20.655876+05:30"},{"city":"Manali","state":"Himachal Pradesh","latitude":32.2396,"longitude":77.1887,"temp":14.4,"humidity":51,"rain":0.0,"pressure":820.5,"uv_index":9.25,"wind_gusts":29.2,"aqi":50,"pm10":8.1,"pm2_5":5.1,"mosquito_risk":0,"arthritis_risk":5,"migraine_risk":7,"frizz_risk":0,"updated_at":"2026-04-20T03:09:20.655883+05:30"},{"city":"Gurgaon","state":"Haryana","latitude":28.4595,"longitude":77.0266,"temp":21.3,"humidity":67,"rain":0.0,"pressure":978.6,"uv_index":7.4,"wind_gusts":27.4,"aqi":568,"pm10":990.9,"pm2_5":135.5,"mosquito_risk":3,"arthritis_risk":5,"migraine_risk":7,"frizz_risk":0,"updated_at":"2026-04-20T03:09:20.655890+05:30"},{"city":"Noida","state":"Uttar Pradesh","latitude":28.5355,"longitude":77.391,"temp":24.6,"humidity":54,"rain":0.0,"pressure":981.7,"uv_index":7.3,"wind_gusts":29.5,"aqi":568,"pm10":990.9,"pm2_5":135.5,"mosquito_risk":0,"arthritis_risk":5,"migraine_risk":7,"frizz_risk":0,"updated_at":"2026-04-20T03:09:20.655896+05:30"},{"city":"Ghaziabad","state":"Uttar Pradesh","latitude":28.6692,"longitude":77.4538,"temp":23.4,"humidity":58,"rain":0.0,"pressure":979.7,"uv_index":7.3,"wind_gusts":28.1,"aqi":151,"pm10":314.8,"pm2_5":65.9,"mosquito_risk":0,"arthritis_risk":5,"migraine_risk":7,"frizz_risk":0,"updated_at":"2026-04-20T03:09:20.655902+05:30"},{"city":"Faridabad","state":"Haryana","latitude":28.4089,"longitude":77.3178,"temp":23.4,"humidity":55,"rain":0.0,"pressure":980.8,"uv_index":7.35,"wind_gusts":29.2,"aqi":568,"pm10":990.9,"pm2_5":135.5,"mosquito_risk":0,"arthritis_risk":5,"migraine_risk":7,"frizz_risk":0,"updated_at":"2026-04-20T03:09:20.655909+05:30"},{"city":"Meerut","state":"Uttar Pradesh","latitude":28.9845,"longitude":77.7064,"temp":22.5,"humidity":62,"rain":0.0,"pressure":978.3,"uv_index":7.2,"wind_gusts":28.8,"aqi":151,"pm10":314.8,"pm2_5":65.9,"mosquito_risk":3,"arthritis_risk":5,"migraine_risk":7,"frizz_risk":0,"updated_at":"2026-04-20T03:09:20.655915+05:30"},{"city":"Agra","state":"Uttar Pradesh","latitude":27.1767,"longitude":78.0081,"temp":23.8,"humidity":54,"rain":0.0,"pressure":984.8,"uv_index":7.7,"wind_gusts":22.3,"aqi":415,"pm10":401.4,"pm2_5":94.3,"mosquito_risk":0,"arthritis_risk":5,"migraine_risk":7,"frizz_risk":0,"updated_at":"2026-04-20T03:09:20.655924+05:30"},{"city":"Varanasi","state":"Uttar Pradesh","latitude":25.3176,"longitude":82.9739,"temp":26.1,"humidity":51,"rain":0.0,"pressure":993.3,"uv_index":8.45,"wind_gusts":36.4,"aqi":114,"pm10":108.3,"pm2_5":50.8,"mosquito_risk":4,"arthritis_risk":5,"migraine_risk":7,"frizz_risk":0,"updated_at":"2026-04-20T03:09:20.655931+05:30"},{"city":"Prayagraj","state":"Uttar Pradesh","latitude":25.4358,"longitude":81.8463,"temp":27.8,"humidity":52,"rain":0.0,"pressure":992.0,"uv_index":8.1,"wind_gusts":31.7,"aqi":110,"pm10":114.3,"pm2_5":40.2,"mosquito_risk":4,"arthritis_risk":5,"migraine_risk":7,"frizz_risk":1,"updated_at":"2026-04-20T03:09:20.655938+05:30"},{"city":"Gorakhpur","state":"Uttar Pradesh","latitude":26.7606,"longitude":83.3732,"temp":26.7,"humidity":81,"rain":0.0,"pressure":993.5,"uv_index":8.35,"wind_gusts":38.9,"aqi":134,"pm10":71.2,"pm2_5":60.8,"mosquito_risk":7,"arthritis_risk":5,"migraine_risk":7,"frizz_risk":1,"updated_at":"2026-04-20T03:09:20.655947+05:30"},{"city":"Bareilly","state":"Uttar Pradesh","latitude":28.367,"longitude":79.4304,"temp":23.6,"humidity":59,"rain":0.0,"pressure":982.9,"uv_index":7.6,"wind_gusts":29.9,"aqi":91,"pm10":62.6,"pm2_5":27.9,"mosquito_risk":0,"arthritis_risk":5,"migraine_risk":7,"frizz_risk":0,"updated_at":"2026-04-20T03:09:20.655953+05:30"},{"city":"Aligarh","state":"Uttar Pradesh","latitude":27.8974,"longitude":78.088,"temp":23.5,"humidity":53,"rain":0.0,"pressure":982.2,"uv_index":7.45,"wind_gusts":33.5,"aqi":225,"pm10":215.6,"pm2_5":68.9,"mosquito_risk":0,"arthritis_risk":5,"migraine_risk":7,"frizz_risk":0,"updated_at":"2026-04-20T03:09:20.655959+05:30"},{"city":"Moradabad","state":"Uttar Pradesh","latitude":28.8386,"longitude":78.7733,"temp":22.8,"humidity":61,"rain":0.0,"pressure":980.0,"uv_index":7.4,"wind_gusts":28.8,"aqi":114,"pm10":86.1,"pm2_5":43.0,"mosquito_risk":3,"arthritis_risk":5,"migraine_risk":7,"frizz_risk":0,"updated_at":"2026-04-20T03:09:20.655965+05:30"},{"city":"Saharanpur","state":"Uttar Pradesh","latitude":29.9637,"longitude":77.546,"temp":21.6,"humidity":69,"rain":0.0,"pressure":972.5,"uv_index":6.95,"wind_gusts":30.2,"aqi":99,"pm10":83.4,"pm2_5":44.8,"mosquito_risk":3,"arthritis_risk":5,"migraine_risk":7,"frizz_risk":0,"updated_at":"2026-04-20T03:09:20.655971+05:30"},{"city":"Jhansi","state":"Uttar Pradesh","latitude":25.4484,"longitude":78.5685,"temp":27.1,"humidity":51,"rain":0.0,"pressure":974.4,"uv_index":8.05,"wind_gusts":28.8,"aqi":55,"pm10":25.1,"pm2_5":13.5,"mosquito_risk":4,"arthritis_risk":5,"migraine_risk":7,"frizz_risk":1,"updated_at":"2026-04-20T03:09:23.902701+05:30"},{"city":"Surat","state":"Gujarat","latitude":21.1702,"longitude":72.8311,"temp":27.0,"humidity":85,"rain":0.0,"pressure":1004.7,"uv_index":7.85,"wind_gusts":27.7,"aqi":95,"pm10":37.1,"pm2_5":27.6,"mosquito_risk":7,"arthritis_risk":5,"migraine_risk":4,"frizz_risk":1,"updated_at":"2026-04-20T03:09:23.902735+05:30"},{"city":"Vadodara","state":"Gujarat","latitude":22.3072,"longitude":73.1812,"temp":26.9,"humidity":72,"rain":0.0,"pressure":1002.6,"uv_index":8.1,"wind_gusts":26.3,"aqi":78,"pm10":51.2,"pm2_5":43.4,"mosquito_risk":7,"arthritis_risk":5,"migraine_risk":4,"frizz_risk":1,"updated_at":"2026-04-20T03:09:23.902745+05:30"},{"city":"Rajkot","state":"Gujarat","latitude":22.3039,"longitude":70.8022,"temp":23.4,"humidity":82,"rain":0.0,"pressure":993.3,"uv_index":7.85,"wind_gusts":23.8,"aqi":52,"pm10":32.8,"pm2_5":13.2,"mosquito_risk":3,"arthritis_risk":5,"migraine_risk":7,"frizz_risk":1,"updated_at":"2026-04-20T03:09:23.902754+05:30"},{"city":"Thane","state":"Maharashtra","latitude":19.2183,"longitude":72.9781,"temp":27.4,"humidity":80,"rain":0.0,"pressure":1006.0,"uv_index":8.05,"wind_gusts":32.4,"aqi":77,"pm10":34.2,"pm2_5":18.0,"mosquito_risk":7,"arthritis_risk":5,"migraine_risk":4,"frizz_risk":1,"updated_at":"2026-04-20T03:09:23.902762+05:30"},{"city":"Nagpur","state":"Maharashtra","latitude":21.1458,"longitude":79.0882,"temp":27.8,"humidity":63,"rain":0.0,"pressure":972.0,"uv_index":8.8,"wind_gusts":32.8,"aqi":88,"pm10":39.5,"pm2_5":34.6,"mosquito_risk":7,"arthritis_risk":5,"migraine_risk":7,"frizz_risk":1,"updated_at":"2026-04-20T03:09:23.902768+05:30"},{"city":"Nashik","state":"Maharashtra","latitude":19.9975,"longitude":73.7898,"temp":26.4,"humidity":44,"rain":0.0,"pressure":944.1,"uv_index":8.25,"wind_gusts":30.2,"aqi":91,"pm10":54.6,"pm2_5":45.3,"mosquito_risk":4,"arthritis_risk":5,"migraine_risk":7,"frizz_risk":0,"updated_at":"2026-04-20T03:09:23.902775+05:30"},{"city":"Aurangabad","state":"Maharashtra","latitude":19.8762,"longitude":75.3433,"temp":27.7,"humidity":51,"rain":0.0,"pressure":942.8,"uv_index":9.05,"wind_gusts":24.8,"aqi":84,"pm10":44.7,"pm2_5":39.3,"mosquito_risk":4,"arthritis_risk":5,"migraine_risk":7,"frizz_risk":1,"updated_at":"2026-04-20T03:09:23.902781+05:30"},{"city":"Solapur","state":"Maharashtra","latitude":17.6599,"longitude":75.9064,"temp":26.1,"humidity":79,"rain":0.0,"pressure":955.9,"uv_index":9.1,"wind_gusts":33.1,"aqi":147,"pm10":70.3,"pm2_5":62.9,"mosquito_risk":7,"arthritis_risk":5,"migraine_risk":7,"frizz_risk":1,"updated_at":"2026-04-20T03:09:23.902788+05:30"},{"city":"Kolhapur","state":"Maharashtra","latitude":16.705,"longitude":74.2433,"temp":22.8,"humidity":96,"rain":0.0,"pressure":945.9,"uv_index":9.05,"wind_gusts":38.9,"aqi":102,"pm10":38.9,"pm2_5":32.5,"mosquito_risk":3,"arthritis_risk":5,"migraine_risk":7,"frizz_risk":1,"updated_at":"2026-04-20T03:09:23.902794+05:30"},{"city":"Goa","state":"Goa","latitude":15.2993,"longitude":74.124,"temp":27.8,"humidity":85,"rain":0.0,"pressure":996.2,"uv_index":9.0,"wind_gusts":34.6,"aqi":87,"pm10":57.0,"pm2_5":34.7,"mosquito_risk":7,"arthritis_risk":5,"migraine_risk":7,"frizz_risk":1,"updated_at":"2026-04-20T03:09:23.902801+05:30"},{"city":"Jodhpur","state":"Rajasthan","latitude":26.2389,"longitude":73.0243,"temp":26.8,"humidity":38,"rain":0.0,"pressure":981.3,"uv_index":8.15,"wind_gusts":23.8,"aqi":99,"pm10":127.1,"pm2_5":21.1,"mosquito_risk":4,"arthritis_risk":5,"migraine_risk":7,"frizz_risk":0,"updated_at":"2026-04-20T03:09:23.902807+05:30"},{"city":"Udaipur","state":"Rajasthan","latitude":24.5854,"longitude":73.7125,"temp":24.3,"humidity":38,"rain":0.0,"pressure":945.3,"uv_index":8.7,"wind_gusts":24.8,"aqi":45,"pm10":22.1,"pm2_5":9.2,"mosquito_risk":0,"arthritis_risk":5,"migraine_risk":7,"frizz_risk":0,"updated_at":"2026-04-20T03:09:23.902813+05:30"},{"city":"Kota","state":"Rajasthan","latitude":25.2138,"longitude":75.8648,"temp":25.8,"humidity":41,"rain":0.0,"pressure":976.2,"uv_index":8.25,"wind_gusts":21.6,"aqi":57,"pm10":11.4,"pm2_5":9.0,"mosquito_risk":4,"arthritis_risk":5,"migraine_risk":7,"frizz_risk":0,"updated_at":"2026-04-20T03:09:23.902819+05:30"},{"city":"Bikaner","state":"Rajasthan","latitude":28.0229,"longitude":73.3119,"temp":28.1,"humidity":43,"rain":0.0,"pressure":980.3,"uv_index":7.95,"wind_gusts":21.2,"aqi":75,"pm10":36.6,"pm2_5":18.7,"mosquito_risk":4,"arthritis_risk":5,"migraine_risk":7,"frizz_risk":0,"updated_at":"2026-04-20T03:09:23.902825+05:30"},{"city":"Ajmer","state":"Rajasthan","latitude":26.4499,"longitude":74.6399,"temp":26.3,"humidity":36,"rain":0.0,"pressure":953.0,"uv_index":8.15,"wind_gusts":22.3,"aqi":66,"pm10":50.3,"pm2_5":14.6,"mosquito_risk":4,"arthritis_risk":5,"migraine_risk":7,"frizz_risk":0,"updated_at":"2026-04-20T03:09:23.902831+05:30"},{"city":"Gwalior","state":"Madhya Pradesh","latitude":26.2183,"longitude":78.1828,"temp":26.8,"humidity":49,"rain":0.0,"pressure":980.2,"uv_index":8.0,"wind_gusts":33.8,"aqi":68,"pm10":63.1,"pm2_5":18.9,"mosquito_risk":4,"arthritis_risk":5,"migraine_risk":7,"frizz_risk":0,"updated_at":"2026-04-20T03:09:23.902837+05:30"},{"city":"Indore","state":"Madhya Pradesh","latitude":22.7196,"longitude":75.8577,"temp":26.4,"humidity":55,"rain":0.0,"pressure":946.7,"uv_index":8.25,"wind_gusts":34.9,"aqi":59,"pm10":21.9,"pm2_5":18.0,"mosquito_risk":4,"arthritis_risk":5,"migraine_risk":7,"frizz_risk":1,"updated_at":"2026-04-20T03:09:23.902843+05:30"},{"city":"Bhopal","state":"Madhya Pradesh","latitude":23.2599,"longitude":77.4126,"temp":27.4,"humidity":45,"rain":0.0,"pressure":951.6,"uv_index":5.75,"wind_gusts":30.6,"aqi":62,"pm10":23.6,"pm2_5":21.5,"mosquito_risk":4,"arthritis_risk":5,"migraine_risk":3,"frizz_risk":0,"updated_at":"2026-04-20T03:09:23.902849+05:30"},{"city":"Jabalpur","state":"Madhya Pradesh","latitude":23.1815,"longitude":79.9864,"temp":29.7,"humidity":39,"rain":0.0,"pressure":959.0,"uv_index":8.55,"wind_gusts":35.3,"aqi":64,"pm10":29.6,"pm2_5":23.3,"mosquito_risk":4,"arthritis_risk":5,"migraine_risk":7,"frizz_risk":0,"updated_at":"2026-04-20T03:09:23.902855+05:30"},{"city":"Ujjain","state":"Madhya Pradesh","latitude":23.1765,"longitude":75.7885,"temp":26.4,"humidity":58,"rain":0.0,"pressure":952.5,"uv_index":7.55,"wind_gusts":32.0,"aqi":57,"pm10":21.2,"pm2_5":16.4,"mosquito_risk":4,"arthritis_risk":5,"migraine_risk":7,"frizz_risk":1,"updated_at":"2026-04-20T03:09:23.902861+05:30"},{"city":"Visakhapatnam","state":"Andhra Pradesh","latitude":17.6868,"longitude":83.2185,"temp":26.8,"humidity":90,"rain":0.0,"pressure":1001.7,"uv_index":9.2,"wind_gusts":38.5,"aqi":59,"pm10":16.0,"pm2_5":12.4,"mosquito_risk":7,"arthritis_risk":5,"migraine_risk":4,"frizz_risk":1,"updated_at":"2026-04-20T03:09:23.902867+05:30"},{"city":"Vijayawada","state":"Andhra Pradesh","latitude":16.5062,"longitude":80.648,"temp":26.4,"humidity":91,"rain":0.0,"pressure":1001.0,"uv_index":9.2,"wind_gusts":29.5,"aqi":52,"pm10":16.6,"pm2_5":13.0,"mosquito_risk":7,"arthritis_risk":5,"migraine_risk":4,"frizz_risk":1,"updated_at":"2026-04-20T03:09:23.902873+05:30"},{"city":"Guntur","state":"Andhra Pradesh","latitude":16.3067,"longitude":80.4365,"temp":26.9,"humidity":92,"rain":0.0,"pressure":1001.9,"uv_index":9.25,"wind_gusts":32.8,"aqi":54,"pm10":14.8,"pm2_5":11.5,"mosquito_risk":7,"arthritis_risk":5,"migraine_risk":4,"frizz_risk":1,"updated_at":"2026-04-20T03:09:23.902879+05:30"},{"city":"Nellore","state":"Andhra Pradesh","latitude":14.4426,"longitude":79.9865,"temp":27.1,"humidity":85,"rain":0.0,"pressure":1003.5,"uv_index":9.3,"wind_gusts":34.6,"aqi":48,"pm10":12.4,"pm2_5":9.7,"mosquito_risk":7,"arthritis_risk":5,"migraine_risk":4,"frizz_risk":1,"updated_at":"2026-04-20T03:09:23.902887+05:30"},{"city":"Kurnool","state":"Andhra Pradesh","latitude":15.8281,"longitude":78.0373,"temp":29.5,"humidity":60,"rain":0.0,"pressure":975.3,"uv_index":9.25,"wind_gusts":47.9,"aqi":92,"pm10":31.7,"pm2_5":28.1,"mosquito_risk":4,"arthritis_risk":5,"migraine_risk":7,"frizz_risk":1,"updated_at":"2026-04-20T03:09:23.902894+05:30"},{"city":"Kakinada","state":"Andhra Pradesh","latitude":16.9891,"longitude":82.2475,"temp":26.2,"humidity":91,"rain":0.0,"pressure":1005.9,"uv_index":9.2,"wind_gusts":33.5,"aqi":46,"pm10":16.4,"pm2_5":11.2,"mosquito_risk":7,"arthritis_risk":5,"migraine_risk":4,"frizz_risk":1,"updated_at":"2026-04-20T03:09:23.902900+05:30"},{"city":"Tirupati","state":"Andhra Pradesh","latitude":13.6288,"longitude":79.4192,"temp":25.8,"humidity":89,"rain":0.0,"pressure":990.3,"uv_index":9.35,"wind_gusts":35.6,"aqi":61,"pm10":21.3,"pm2_5":18.9,"mosquito_risk":7,"arthritis_risk":5,"migraine_risk":7,"frizz_risk":1,"updated_at":"2026-04-20T03:09:23.902906+05:30"},{"city":"Warangal","state":"Telangana","latitude":17.9689,"longitude":79.5941,"temp":28.3,"humidity":64,"rain":0.0,"pressure":977.7,"uv_index":9.15,"wind_gusts":33.5,"aqi":88,"pm10":21.7,"pm2_5":19.2,"mosquito_risk":7,"arthritis_risk":5,"migraine_risk":7,"frizz_risk":1,"updated_at":"2026-04-20T03:09:23.902912+05:30"},{"city":"Nizamabad","state":"Telangana","latitude":18.6725,"longitude":78.0941,"temp":28.4,"humidity":55,"rain":0.0,"pressure":963.9,"uv_index":9.15,"wind_gusts":31.3,"aqi":129,"pm10":54.5,"pm2_5":50.6,"mosquito_risk":4,"arthritis_risk":5,"migraine_risk":7,"frizz_risk":1,"updated_at":"2026-04-20T03:09:23.902917+05:30"},{"city":"Mysore","state":"Karnataka","latitude":12.2958,"longitude":76.6396,"temp":23.2,"humidity":91,"rain":0.0,"pressure":927.2,"uv_index":9.45,"wind_gusts":36.7,"aqi":87,"pm10":32.2,"pm2_5":29.6,"mosquito_risk":3,"arthritis_risk":5,"migraine_risk":7,"frizz_risk":1,"updated_at":"2026-04-20T03:09:23.902923+05:30"},{"city":"Mangalore","state":"Karnataka","latitude":12.9141,"longitude":74.856,"temp":29.8,"humidity":73,"rain":0.0,"pressure":1005.2,"uv_index":9.1,"wind_gusts":25.2,"aqi":79,"pm10":48.7,"pm2_5":33.9,"mosquito_risk":7,"arthritis_risk":5,"migraine_risk":4,"frizz_risk":1,"updated_at":"2026-04-20T03:09:23.902929+05:30"},{"city":"Hubli-Dharwad","state":"Karnataka","latitude":15.3647,"longitude":75.124,"temp":24.0,"humidity":93,"rain":0.0,"pressure":939.8,"uv_index":9.25,"wind_gusts":40.7,"aqi":85,"pm10":35.4,"pm2_5":26.4,"mosquito_risk":3,"arthritis_risk":5,"migraine_risk":7,"frizz_risk":1,"updated_at":"2026-04-20T03:09:23.902935+05:30"},{"city":"Belgaum","state":"Karnataka","latitude":15.8497,"longitude":74.4977,"temp":22.8,"humidity":96,"rain":0.0,"pressure":924.1,"uv_index":9.25,"wind_gusts":37.8,"aqi":95,"pm10":52.5,"pm2_5":40.5,"mosquito_risk":3,"arthritis_risk":5,"migraine_risk":7,"frizz_risk":1,"updated_at":"2026-04-20T03:09:27.126812+05:30"},{"city":"Coimbatore","state":"Tamil Nadu","latitude":11.0168,"longitude":76.9558,"temp":24.9,"humidity":87,"rain":0.0,"pressure":960.2,"uv_index":9.4,"wind_gusts":45.4,"aqi":89,"pm10":31.5,"pm2_5":28.8,"mosquito_risk":3,"arthritis_risk":5,"migraine_risk":7,"frizz_risk":1,"updated_at":"2026-04-20T03:09:27.126846+05:30"},{"city":"Madurai","state":"Tamil Nadu","latitude":9.9252,"longitude":78.1198,"temp":26.1,"humidity":89,"rain":0.0,"pressure":991.4,"uv_index":9.3,"wind_gusts":37.1,"aqi":64,"pm10":22.2,"pm2_5":20.7,"mosquito_risk":7,"arthritis_risk":5,"migraine_risk":7,"frizz_risk":1,"updated_at":"2026-04-20T03:09:27.126857+05:30"},{"city":"Trichy","state":"Tamil Nadu","latitude":10.7905,"longitude":78.7047,"temp":26.2,"humidity":91,"rain":0.0,"pressure":998.5,"uv_index":9.3,"wind_gusts":22.3,"aqi":59,"pm10":20.4,"pm2_5":18.8,"mosquito_risk":7,"arthritis_risk":5,"migraine_risk":7,"frizz_risk":1,"updated_at":"2026-04-20T03:09:27.126864+05:30"},{"city":"Salem","state":"Tamil Nadu","latitude":11.6643,"longitude":78.146,"temp":26.7,"humidity":79,"rain":0.0,"pressure":975.9,"uv_index":9.4,"wind_gusts":16.9,"aqi":63,"pm10":21.7,"pm2_5":19.6,"mosquito_risk":7,"arthritis_risk":5,"migraine_risk":7,"frizz_risk":1,"updated_at":"2026-04-20T03:09:27.126871+05:30"},{"city":"Tirunelveli","state":"Tamil Nadu","latitude":8.7139,"longitude":77.7567,"temp":25.7,"humidity":79,"rain":0.0,"pressure":1001.5,"uv_index":9.25,"wind_gusts":50.4,"aqi":65,"pm10":23.6,"pm2_5":20.0,"mosquito_risk":7,"arthritis_risk":5,"migraine_risk":4,"frizz_risk":1,"updated_at":"2026-04-20T03:09:27.126878+05:30"},{"city":"Vellore","state":"Tamil Nadu","latitude":12.9165,"longitude":79.1325,"temp":25.5,"humidity":94,"rain":0.0,"pressure":983.0,"uv_index":9.4,"wind_gusts":29.2,"aqi":78,"pm10":36.0,"pm2_5":34.1,"mosquito_risk":7,"arthritis_risk":5,"migraine_risk":7,"frizz_risk":1,"updated_at":"2026-04-20T03:09:27.126884+05:30"},{"city":"Erode","state":"Tamil Nadu","latitude":11.341,"longitude":77.7172,"temp":28.3,"humidity":75,"rain":0.0,"pressure":987.4,"uv_index":9.35,"wind_gusts":24.5,"aqi":63,"pm10":18.0,"pm2_5":16.5,"mosquito_risk":7,"arthritis_risk":5,"migraine_risk":7,"frizz_risk":1,"updated_at":"2026-04-20T03:09:27.126891+05:30"},{"city":"Kochi","state":"Kerala","latitude":9.9312,"longitude":76.2673,"temp":28.5,"humidity":81,"rain":0.0,"pressure":1007.0,"uv_index":9.05,"wind_gusts":31.7,"aqi":66,"pm10":32.4,"pm2_5":29.7,"mosquito_risk":7,"arthritis_risk":5,"migraine_risk":4,"frizz_risk":1,"updated_at":"2026-04-20T03:09:27.126897+05:30"},{"city":"Thiruvananthapuram","state":"Kerala","latitude":8.5241,"longitude":76.9366,"temp":28.2,"humidity":84,"rain":0.0,"pressure":1006.2,"uv_index":9.1,"wind_gusts":32.0,"aqi":65,"pm10":21.5,"pm2_5":14.9,"mosquito_risk":7,"arthritis_risk":5,"migraine_risk":4,"frizz_risk":1,"updated_at":"2026-04-20T03:09:27.126903+05:30"},{"city":"Kozhikode","state":"Kerala","latitude":11.2588,"longitude":75.7804,"temp":29.1,"humidity":81,"rain":0.0,"pressure":1006.3,"uv_index":9.1,"wind_gusts":29.5,"aqi":65,"pm10":36.1,"pm2_5":23.3,"mosquito_risk":7,"arthritis_risk":5,"migraine_risk":4,"frizz_risk":1,"updated_at":"2026-04-20T03:09:27.126909+05:30"},{"city":"Thrissur","state":"Kerala","latitude":10.5276,"longitude":76.2144,"temp":27.3,"humidity":89,"rain":0.0,"pressure":1005.5,"uv_index":9.15,"wind_gusts":37.8,"aqi":67,"pm10":45.6,"pm2_5":40.7,"mosquito_risk":7,"arthritis_risk":5,"migraine_risk":4,"frizz_risk":1,"updated_at":"2026-04-20T03:09:27.126915+05:30"},{"city":"Kannur","state":"Kerala","latitude":11.8745,"longitude":75.3704,"temp":28.8,"humidity":81,"rain":0.0,"pressure":1005.7,"uv_index":9.1,"wind_gusts":33.1,"aqi":75,"pm10":40.2,"pm2_5":34.1,"mosquito_risk":7,"arthritis_risk":5,"migraine_risk":4,"frizz_risk":1,"updated_at":"2026-04-20T03:09:27.126921+05:30"},{"city":"Patna","state":"Bihar","latitude":25.5941,"longitude":85.1376,"temp":27.3,"humidity":83,"rain":0.0,"pressure":996.4,"uv_index":8.5,"wind_gusts":34.9,"aqi":129,"pm10":55.5,"pm2_5":50.8,"mosquito_risk":7,"arthritis_risk":5,"migraine_risk":7,"frizz_risk":1,"updated_at":"2026-04-20T03:09:27.126928+05:30"},{"city":"Gaya","state":"Bihar","latitude":24.7914,"longitude":85.0002,"temp":28.1,"humidity":65,"rain":0.0,"pressure":989.3,"uv_index":8.6,"wind_gusts":33.1,"aqi":101,"pm10":53.4,"pm2_5":39.5,"mosquito_risk":7,"arthritis_risk":5,"migraine_risk":7,"frizz_risk":1,"updated_at":"2026-04-20T03:09:27.126934+05:30"},{"city":"Muzaffarpur","state":"Bihar","latitude":26.1209,"longitude":85.3647,"temp":25.7,"humidity":87,"rain":0.0,"pressure":996.7,"uv_index":8.65,"wind_gusts":34.9,"aqi":133,"pm10":52.2,"pm2_5":48.1,"mosquito_risk":7,"arthritis_risk":5,"migraine_risk":7,"frizz_risk":1,"updated_at":"2026-04-20T03:09:27.126940+05:30"},{"city":"Bhagalpur","state":"Bihar","latitude":25.2425,"longitude":87.0117,"temp":26.5,"humidity":91,"rain":0.0,"pressure":997.2,"uv_index":8.65,"wind_gusts":25.6,"aqi":124,"pm10":46.7,"pm2_5":44.2,"mosquito_risk":7,"arthritis_risk":5,"migraine_risk":7,"frizz_risk":1,"updated_at":"2026-04-20T03:09:27.126946+05:30"},{"city":"Ranchi","state":"Jharkhand","latitude":23.3441,"longitude":85.3096,"temp":25.6,"humidity":70,"rain":0.0,"pressure":935.2,"uv_index":9.2,"wind_gusts":40.0,"aqi":93,"pm10":105.2,"pm2_5":34.5,"mosquito_risk":7,"arthritis_risk":5,"migraine_risk":7,"frizz_risk":1,"updated_at":"2026-04-20T03:09:27.126951+05:30"},{"city":"Jamshedpur","state":"Jharkhand","latitude":22.8046,"longitude":86.2029,"temp":28.3,"humidity":80,"rain":0.0,"pressure":987.5,"uv_index":9.0,"wind_gusts":29.2,"aqi":143,"pm10":61.0,"pm2_5":52.7,"mosquito_risk":7,"arthritis_risk":5,"migraine_risk":7,"frizz_risk":1,"updated_at":"2026-04-20T03:09:27.126957+05:30"},{"city":"Dhanbad","state":"Jharkhand","latitude":23.7957,"longitude":86.4304,"temp":28.7,"humidity":87,"rain":0.0,"pressure":976.1,"uv_index":9.0,"wind_gusts":44.6,"aqi":156,"pm10":110.1,"pm2_5":92.9,"mosquito_risk":7,"arthritis_risk":5,"migraine_risk":7,"frizz_risk":1,"updated_at":"2026-04-20T03:09:27.126964+05:30"},{"city":"Bokaro","state":"Jharkhand","latitude":23.6693,"longitude":86.1511,"temp":27.8,"humidity":75,"rain":0.0,"pressure":980.3,"uv_index":9.0,"wind_gusts":45.7,"aqi":143,"pm10":106.9,"pm2_5":74.7,"mosquito_risk":7,"arthritis_risk":5,"migraine_risk":7,"frizz_risk":1,"updated_at":"2026-04-20T03:09:27.126969+05:30"},{"city":"Bhubaneswar","state":"Odisha","latitude":20.2961,"longitude":85.8245,"temp":26.4,"humidity":92,"rain":0.0,"pressure":1000.0,"uv_index":9.1,"wind_gusts":29.2,"aqi":67,"pm10":16.3,"pm2_5":12.7,"mosquito_risk":7,"arthritis_risk":5,"migraine_risk":4,"frizz_risk":1,"updated_at":"2026-04-20T03:09:27.126975+05:30"},{"city":"Cuttack","state":"Odisha","latitude":20.4625,"longitude":85.8828,"temp":26.9,"humidity":92,"rain":0.0,"pressure":1001.8,"uv_index":9.15,"wind_gusts":28.8,"aqi":67,"pm10":16.3,"pm2_5":12.7,"mosquito_risk":7,"arthritis_risk":5,"migraine_risk":4,"frizz_risk":1,"updated_at":"2026-04-20T03:09:27.126982+05:30"},{"city":"Rourkela","state":"Odisha","latitude":22.2604,"longitude":84.8536,"temp":29.3,"humidity":72,"rain":0.0,"pressure":981.8,"uv_index":8.95,"wind_gusts":29.9,"aqi":151,"pm10":70.1,"pm2_5":57.6,"mosquito_risk":7,"arthritis_risk":5,"migraine_risk":7,"frizz_risk":1,"updated_at":"2026-04-20T03:09:27.126988+05:30"},{"city":"Raipur","state":"Chhattisgarh","latitude":21.2514,"longitude":81.6296,"temp":29.0,"humidity":58,"rain":0.0,"pressure":973.1,"uv_index":8.1,"wind_gusts":37.1,"aqi":119,"pm10":49.1,"pm2_5":46.4,"mosquito_risk":4,"arthritis_risk":5,"migraine_risk":7,"frizz_risk":1,"updated_at":"2026-04-20T03:09:27.126995+05:30"},{"city":"Bhilai","state":"Chhattisgarh","latitude":21.1938,"longitude":81.3509,"temp":28.6,"humidity":61,"rain":0.0,"pressure":973.4,"uv_index":8.5,"wind_gusts":37.1,"aqi":112,"pm10":42.3,"pm2_5":40.0,"mosquito_risk":7,"arthritis_risk":5,"migraine_risk":7,"frizz_risk":1,"updated_at":"2026-04-20T03:09:27.127001+05:30"},{"city":"Guwahati","state":"Assam","latitude":26.1158,"longitude":91.7086,"temp":24.4,"humidity":92,"rain":0.0,"pressure":998.7,"uv_index":8.5,"wind_gusts":32.4,"aqi":113,"pm10":51.8,"pm2_5":46.0,"mosquito_risk":3,"arthritis_risk":5,"migraine_risk":7,"frizz_risk":1,"updated_at":"2026-04-20T03:09:27.127007+05:30"},{"city":"Agartala","state":"Tripura","latitude":23.8315,"longitude":91.2868,"temp":24.4,"humidity":93,"rain":0.0,"pressure":1004.7,"uv_index":8.8,"wind_gusts":34.9,"aqi":104,"pm10":42.8,"pm2_5":38.2,"mosquito_risk":3,"arthritis_risk":5,"migraine_risk":4,"frizz_risk":1,"updated_at":"2026-04-20T03:09:27.127012+05:30"},{"city":"Shillong","state":"Meghalaya","latitude":25.5788,"longitude":91.8933,"temp":15.8,"humidity":91,"rain":0.0,"pressure":854.0,"uv_index":6.35,"wind_gusts":68.0,"aqi":76,"pm10":29.9,"pm2_5":24.5,"mosquito_risk":3,"arthritis_risk":10,"migraine_risk":7,"frizz_risk":0,"updated_at":"2026-04-20T03:09:27.127019+05:30"},{"city":"Imphal","state":"Manipur","latitude":24.817,"longitude":93.9368,"temp":18.5,"humidity":91,"rain":0.0,"pressure":921.5,"uv_index":8.95,"wind_gusts":80.3,"aqi":137,"pm10":50.2,"pm2_5":42.8,"mosquito_risk":3,"arthritis_risk":10,"migraine_risk":7,"frizz_risk":1,"updated_at":"2026-04-20T03:09:27.127025+05:30"},{"city":"Aizawl","state":"Mizoram","latitude":23.7271,"longitude":92.7176,"temp":19.7,"humidity":89,"rain":0.0,"pressure":891.5,"uv_index":9.0,"wind_gusts":53.6,"aqi":147,"pm10":51.9,"pm2_5":43.5,"mosquito_risk":3,"arthritis_risk":10,"migraine_risk":7,"frizz_risk":1,"updated_at":"2026-04-20T03:09:27.127030+05:30"},{"city":"Kohima","state":"Nagaland","latitude":25.6701,"longitude":94.1077,"temp":16.2,"humidity":87,"rain":0.0,"pressure":852.6,"uv_index":8.4,"wind_gusts":95.8,"aqi":97,"pm10":22.1,"pm2_5":16.2,"mosquito_risk":3,"arthritis_risk":10,"migraine_risk":7,"frizz_risk":0,"updated_at":"2026-04-20T03:09:27.127036+05:30"},{"city":"Gangtok","state":"Sikkim","latitude":27.3314,"longitude":88.6138,"temp":15.9,"humidity":90,"rain":0.0,"pressure":834.9,"uv_index":8.9,"wind_gusts":18.4,"aqi":55,"pm10":15.7,"pm2_5":14.6,"mosquito_risk":3,"arthritis_risk":10,"migraine_risk":7,"frizz_risk":0,"updated_at":"2026-04-20T03:09:27.127042+05:30"},{"city":"Siliguri","state":"West Bengal","latitude":26.7271,"longitude":88.3953,"temp":22.0,"humidity":78,"rain":0.0,"pressure":991.2,"uv_index":8.55,"wind_gusts":28.8,"aqi":102,"pm10":40.4,"pm2_5":35.2,"mosquito_risk":3,"arthritis_risk":5,"migraine_risk":7,"frizz_risk":1,"updated_at":"2026-04-20T03:09:30.350394+05:30"},{"city":"Durgapur","state":"West Bengal","latitude":23.5204,"longitude":87.3119,"temp":27.4,"humidity":93,"rain":0.0,"pressure":991.4,"uv_index":8.9,"wind_gusts":29.9,"aqi":141,"pm10":39.9,"pm2_5":37.4,"mosquito_risk":7,"arthritis_risk":5,"migraine_risk":7,"frizz_risk":1,"updated_at":"2026-04-20T03:09:30.350429+05:30"},{"city":"Asansol","state":"West Bengal","latitude":23.6739,"longitude":86.9524,"temp":28.2,"humidity":90,"rain":0.0,"pressure":989.9,"uv_index":8.95,"wind_gusts":37.1,"aqi":143,"pm10":59.1,"pm2_5":56.3,"mosquito_risk":7,"arthritis_risk":5,"migraine_risk":7,"frizz_risk":1,"updated_at":"2026-04-20T03:09:30.350440+05:30"},{"city":"Pondicherry","state":"Puducherry","latitude":11.9139,"longitude":79.8145,"temp":26.4,"humidity":95,"rain":0.0,"pressure":1007.0,"uv_index":9.25,"wind_gusts":32.4,"aqi":35,"pm10":12.1,"pm2_5":7.9,"mosquito_risk":7,"arthritis_risk":5,"migraine_risk":4,"frizz_risk":1,"updated_at":"2026-04-20T03:09:30.350448+05:30"},{"city":"Port Blair","state":"Andaman and Nicobar Islands","latitude":11.6234,"longitude":92.7265,"temp":28.9,"humidity":79,"rain":0.0,"pressure":1006.1,"uv_index":9.05,"wind_gusts":18.0,"aqi":50,"pm10":12.3,"pm2_5":9.8,"mosquito_risk":7,"arthritis_risk":5,"migraine_risk":4,"frizz_risk":1,"updated_at":"2026-04-20T03:09:30.350455+05:30"},{"city":"Haridwar","state":"Uttarakhand","latitude":29.9457,"longitude":78.1642,"temp":22.3,"humidity":64,"rain":0.0,"pressure":971.2,"uv_index":7.1,"wind_gusts":34.9,"aqi":69,"pm10":41.7,"pm2_5":25.4,"mosquito_risk":3,"arthritis_risk":5,"migraine_risk":7,"frizz_risk":0,"updated_at":"2026-04-20T03:09:30.350462+05:30"},{"city":"Rishikesh","state":"Uttarakhand","latitude":30.0869,"longitude":78.2676,"temp":21.9,"humidity":58,"rain":0.0,"pressure":964.3,"uv_index":7.2,"wind_gusts":36.0,"aqi":65,"pm10":63.1,"pm2_5":21.9,"mosquito_risk":0,"arthritis_risk":5,"migraine_risk":7,"frizz_risk":0,"updated_at":"2026-04-20T03:09:30.350469+05:30"},{"city":"Nainital","state":"Uttarakhand","latitude":29.3919,"longitude":79.4542,"temp":22.7,"humidity":29,"rain":0.0,"pressure":805.9,"uv_index":8.05,"wind_gusts":55.4,"aqi":64,"pm10":38.9,"pm2_5":17.6,"mosquito_risk":0,"arthritis_risk":5,"migraine_risk":7,"frizz_risk":0,"updated_at":"2026-04-20T03:09:30.350476+05:30"},{"city":"Mussoorie","state":"Uttarakhand","latitude":30.4599,"longitude":78.0664,"temp":18.8,"humidity":40,"rain":0.0,"pressure":802.2,"uv_index":7.55,"wind_gusts":45.7,"aqi":62,"pm10":29.7,"pm2_5":19.6,"mosquito_risk":0,"arthritis_risk":5,"migraine_risk":7,"frizz_risk":0,"updated_at":"2026-04-20T03:09:30.350483+05:30"},{"city":"Dharamshala","state":"Himachal Pradesh","latitude":32.219,"longitude":76.3234,"temp":21.6,"humidity":25,"rain":0.0,"pressure":868.8,"uv_index":7.8,"wind_gusts":30.6,"aqi":41,"pm10":6.3,"pm2_5":4.1,"mosquito_risk":0,"arthritis_risk":5,"migraine_risk":7,"frizz_risk":0,"updated_at":"2026-04-20T03:09:30.350490+05:30"},{"city":"Dalhousie","state":"Himachal Pradesh","latitude":32.5387,"longitude":75.971,"temp":17.8,"humidity":27,"rain":0.0,"pressure":803.4,"uv_index":8.05,"wind_gusts":28.8,"aqi":56,"pm10":18.9,"pm2_5":15.7,"mosquito_risk":0,"arthritis_risk":5,"migraine_risk":7,"frizz_risk":1,"updated_at":"2026-04-20T03:09:30.350498+05:30"},{"city":"Patiala","state":"Punjab","latitude":30.3398,"longitude":76.3869,"temp":21.8,"humidity":66,"rain":0.0,"pressure":975.6,"uv_index":7.15,"wind_gusts":29.2,"aqi":409,"pm10":694.8,"pm2_5":80.8,"mosquito_risk":3,"arthritis_risk":5,"migraine_risk":7,"frizz_risk":0,"updated_at":"2026-04-20T03:09:30.350505+05:30"},{"city":"Bhatinda","state":"Punjab","latitude":30.211,"longitude":74.9455,"temp":23.8,"humidity":57,"rain":0.0,"pressure":982.0,"uv_index":7.8,"wind_gusts":30.6,"aqi":71,"pm10":80.6,"pm2_5":31.1,"mosquito_risk":0,"arthritis_risk":5,"migraine_risk":7,"frizz_risk":0,"updated_at":"2026-04-20T03:09:30.350511+05:30"},{"city":"Rohtak","state":"Haryana","latitude":28.8955,"longitude":76.6066,"temp":21.0,"humidity":67,"rain":0.0,"pressure":979.0,"uv_index":7.3,"wind_gusts":26.6,"aqi":340,"pm10":1218.2,"pm2_5":171.8,"mosquito_risk":3,"arthritis_risk":5,"migraine_risk":7,"frizz_risk":0,"updated_at":"2026-04-20T03:09:30.350517+05:30"},{"city":"Panipat","state":"Haryana","latitude":29.3909,"longitude":76.9635,"temp":21.8,"humidity":65,"rain":0.0,"pressure":977.8,"uv_index":7.15,"wind_gusts":27.7,"aqi":638,"pm10":1944.6,"pm2_5":237.0,"mosquito_risk":3,"arthritis_risk":5,"migraine_risk":7,"frizz_risk":0,"updated_at":"2026-04-20T03:09:30.350523+05:30"},{"city":"Mathura","state":"Uttar Pradesh","latitude":27.4924,"longitude":77.6737,"temp":23.8,"humidity":54,"rain":0.0,"pressure":983.9,"uv_index":7.6,"wind_gusts":24.5,"aqi":411,"pm10":579.3,"pm2_5":107.3,"mosquito_risk":0,"arthritis_risk":5,"migraine_risk":7,"frizz_risk":0,"updated_at":"2026-04-20T03:09:30.350530+05:30"},{"city":"Vrindavan","state":"Uttar Pradesh","latitude":27.5823,"longitude":77.7027,"temp":22.7,"humidity":58,"rain":0.0,"pressure":984.1,"uv_index":7.6,"wind_gusts":28.8,"aqi":411,"pm10":579.3,"pm2_5":107.3,"mosquito_risk":0,"arthritis_risk":5,"migraine_risk":7,"frizz_risk":0,"updated_at":"2026-04-20T03:09:30.350535+05:30"},{"city":"Ayodhya","state":"Uttar Pradesh","latitude":26.7922,"longitude":82.1998,"temp":25.5,"humidity":71,"rain":0.0,"pressure":991.1,"uv_index":8.1,"wind_gusts":36.7,"aqi":106,"pm10":95.7,"pm2_5":33.6,"mosquito_risk":7,"arthritis_risk":5,"migraine_risk":7,"frizz_risk":1,"updated_at":"2026-04-20T03:09:30.350541+05:30"},{"city":"Ratlam","state":"Madhya Pradesh","latitude":23.3315,"longitude":75.0367,"temp":26.5,"humidity":56,"rain":0.0,"pressure":953.2,"uv_index":8.45,"wind_gusts":27.4,"aqi":84,"pm10":21.4,"pm2_5":15.4,"mosquito_risk":4,"arthritis_risk":5,"migraine_risk":7,"frizz_risk":1,"updated_at":"2026-04-20T03:09:30.350547+05:30"},{"city":"Sagar","state":"Madhya Pradesh","latitude":23.8388,"longitude":78.7378,"temp":28.6,"humidity":38,"rain":0.0,"pressure":947.9,"uv_index":8.25,"wind_gusts":31.7,"aqi":56,"pm10":29.6,"pm2_5":21.5,"mosquito_risk":4,"arthritis_risk":5,"migraine_risk":7,"frizz_risk":0,"updated_at":"2026-04-20T03:09:30.350553+05:30"},{"city":"Satna","state":"Madhya Pradesh","latitude":24.6005,"longitude":80.8322,"temp":27.9,"humidity":49,"rain":0.0,"pressure":968.4,"uv_index":8.4,"wind_gusts":38.9,"aqi":69,"pm10":33.9,"pm2_5":15.6,"mosquito_risk":4,"arthritis_risk":5,"migraine_risk":7,"frizz_risk":1,"updated_at":"2026-04-20T03:09:30.350559+05:30"},{"city":"Akola","state":"Maharashtra","latitude":20.7002,"longitude":77.0082,"temp":28.0,"humidity":60,"rain":0.0,"pressure":973.5,"uv_index":8.85,"wind_gusts":25.9,"aqi":75,"pm10":31.0,"pm2_5":28.6,"mosquito_risk":4,"arthritis_risk":5,"migraine_risk":7,"frizz_risk":1,"updated_at":"2026-04-20T03:09:30.350566+05:30"},{"city":"Amravati","state":"Maharashtra","latitude":20.9374,"longitude":77.7796,"temp":27.1,"humidity":64,"rain":0.0,"pressure":965.4,"uv_index":8.85,"wind_gusts":18.7,"aqi":72,"pm10":31.4,"pm2_5":29.3,"mosquito_risk":7,"arthritis_risk":5,"migraine_risk":7,"frizz_risk":1,"updated_at":"2026-04-20T03:09:30.350572+05:30"},{"city":"Latur","state":"Maharashtra","latitude":18.4088,"longitude":76.5604,"temp":25.5,"humidity":64,"rain":0.0,"pressure":939.2,"uv_index":9.1,"wind_gusts":30.6,"aqi":130,"pm10":81.3,"pm2_5":72.9,"mosquito_risk":7,"arthritis_risk":5,"migraine_risk":7,"frizz_risk":1,"updated_at":"2026-04-20T03:09:30.350578+05:30"},{"city":"Nanded","state":"Maharashtra","latitude":19.1383,"longitude":77.3091,"temp":26.6,"humidity":67,"rain":0.0,"pressure":967.2,"uv_index":9.0,"wind_gusts":19.8,"aqi":93,"pm10":38.8,"pm2_5":34.8,"mosquito_risk":7,"arthritis_risk":5,"migraine_risk":7,"frizz_risk":1,"updated_at":"2026-04-20T03:09:30.350584+05:30"},{"city":"Gulbarga","state":"Karnataka","latitude":17.3297,"longitude":76.8343,"temp":25.0,"humidity":71,"rain":0.0,"pressure":958.1,"uv_index":9.15,"wind_gusts":44.3,"aqi":112,"pm10":65.0,"pm2_5":59.8,"mosquito_risk":7,"arthritis_risk":5,"migraine_risk":7,"frizz_risk":1,"updated_at":"2026-04-20T03:09:30.350589+05:30"},{"city":"Bidar","state":"Karnataka","latitude":17.9104,"longitude":77.5199,"temp":25.2,"humidity":70,"rain":0.0,"pressure":934.9,"uv_index":9.15,"wind_gusts":32.0,"aqi":119,"pm10":56.6,"pm2_5":51.8,"mosquito_risk":7,"arthritis_risk":5,"migraine_risk":7,"frizz_risk":1,"updated_at":"2026-04-20T03:09:30.350595+05:30"},{"city":"Hospet","state":"Karnataka","latitude":15.2689,"longitude":76.3909,"temp":26.1,"humidity":84,"rain":0.0,"pressure":954.6,"uv_index":9.3,"wind_gusts":32.4,"aqi":96,"pm10":39.3,"pm2_5":36.6,"mosquito_risk":7,"arthritis_risk":5,"migraine_risk":7,"frizz_risk":1,"updated_at":"2026-04-20T03:09:30.350602+05:30"},{"city":"Tirupur","state":"Tamil Nadu","latitude":11.1085,"longitude":77.3411,"temp":26.4,"humidity":83,"rain":0.0,"pressure":973.7,"uv_index":9.45,"wind_gusts":31.0,"aqi":77,"pm10":27.6,"pm2_5":25.1,"mosquito_risk":7,"arthritis_risk":5,"migraine_risk":7,"frizz_risk":1,"updated_at":"2026-04-20T03:09:30.350608+05:30"},{"city":"Alappuzha","state":"Kerala","latitude":9.4981,"longitude":76.3388,"temp":27.5,"humidity":85,"rain":0.0,"pressure":1007.3,"uv_index":8.05,"wind_gusts":29.2,"aqi":71,"pm10":34.3,"pm2_5":27.3,"mosquito_risk":7,"arthritis_risk":5,"migraine_risk":4,"frizz_risk":1,"updated_at":"2026-04-20T03:09:30.350613+05:30"},{"city":"Munnar","state":"Kerala","latitude":10.0889,"longitude":77.0595,"temp":20.5,"humidity":95,"rain":0.0,"pressure":855.2,"uv_index":9.65,"wind_gusts":31.7,"aqi":76,"pm10":30.9,"pm2_5":28.4,"mosquito_risk":3,"arthritis_risk":5,"migraine_risk":7,"frizz_risk":1,"updated_at":"2026-04-20T03:09:30.350620+05:30"},{"city":"Silchar","state":"Assam","latitude":24.8333,"longitude":92.7789,"temp":23.8,"humidity":92,"rain":0.0,"pressure":1003.9,"uv_index":8.8,"wind_gusts":36.4,"aqi":145,"pm10":39.2,"pm2_5":30.5,"mosquito_risk":3,"arthritis_risk":5,"migraine_risk":4,"frizz_risk":1,"updated_at":"2026-04-20T03:09:30.350626+05:30"},{"city":"Dibrugarh","state":"Assam","latitude":27.4728,"longitude":94.912,"temp":23.3,"humidity":91,"rain":0.0,"pressure":993.7,"uv_index":6.7,"wind_gusts":15.8,"aqi":139,"pm10":58.3,"pm2_5":47.8,"mosquito_risk":3,"arthritis_risk":5,"migraine_risk":7,"frizz_risk":1,"updated_at":"2026-04-20T03:09:30.350632+05:30"}]