[{"city":"Delhi","state":"Delhi","latitude":28.6139,"longitude":77.209,"temp":34.9,"humidity":37,"rain":0.0,"pressure":983.1,"uv_index":7.05,"wind_gusts":20.5,"aqi":179,"pm10":389.3,"pm2_5":78.7,"mosquito_risk":0,"arthritis_risk":5,"migraine_risk":7,"frizz_risk":1,"updated_at":"2026-04-19T11:04:56.130014+05:30"},{"city":"Mumbai","state":"Maharashtra","latitude":19.076,"longitude":72.8777,"temp":29.7,"humidity":77,"rain":0.0,"pressure":1008.5,"uv_index":7.45,"wind_gusts":26.6,"aqi":87,"pm10":59.1,"pm2_5":31.2,"mosquito_risk":7,"arthritis_risk":0,"migraine_risk":4,"frizz_risk":1,"updated_at":"2026-04-19T11:04:56.130061+05:30"},{"city":"Bangalore","state":"Karnataka","latitude":12.9716,"longitude":77.5946,"temp":31.7,"humidity":48,"rain":0.0,"pressure":914.0,"uv_index":9.6,"wind_gusts":25.9,"aqi":85,"pm10":27.8,"pm2_5":21.8,"mosquito_risk":0,"arthritis_risk":5,"migraine_risk":7,"frizz_risk":1,"updated_at":"2026-04-19T11:04:56.130077+05:30"},{"city":"Hyderabad","state":"Telangana","latitude":17.385,"longitude":78.4867,"temp":36.7,"humidity":37,"rain":0.0,"pressure":954.7,"uv_index":9.25,"wind_gusts":39.2,"aqi":103,"pm10":39.8,"pm2_5":32.7,"mosquito_risk":0,"arthritis_risk":5,"migraine_risk":10,"frizz_risk":1,"updated_at":"2026-04-19T11:04:56.130088+05:30"},{"city":"Chennai","state":"Tamil Nadu","latitude":13.0827,"longitude":80.2707,"temp":34.2,"humidity":56,"rain":0.0,"pressure":1008.2,"uv_index":9.3,"wind_gusts":34.6,"aqi":37,"pm10":14.8,"pm2_5":9.8,"mosquito_risk":0,"arthritis_risk":0,"migraine_risk":4,"frizz_risk":1,"updated_at":"2026-04-19T11:04:56.130097+05:30"},{"city":"Kolkata","state":"West Bengal","latitude":22.5726,"longitude":88.3639,"temp":33.3,"humidity":69,"rain":0.0,"pressure":1005.7,"uv_index":8.9,"wind_gusts":32.4,"aqi":83,"pm10":36.7,"pm2_5":28.7,"mosquito_risk":3,"arthritis_risk":5,"migraine_risk":4,"frizz_risk":1,"updated_at":"2026-04-19T11:04:56.130109+05:30"},{"city":"Pune","state":"Maharashtra","latitude":18.5204,"longitude":73.8567,"temp":37.5,"humidity":24,"rain":0.0,"pressure":949.7,"uv_index":8.6,"wind_gusts":31.0,"aqi":95,"pm10":29.8,"pm2_5":21.8,"mosquito_risk":0,"arthritis_risk":5,"migraine_risk":10,"frizz_risk":0,"updated_at":"2026-04-19T11:04:56.130118+05:30"},{"city":"Ahmedabad","state":"Gujarat","latitude":23.0225,"longitude":72.5714,"temp":34.9,"humidity":31,"rain":0.0,"pressure":1002.9,"uv_index":7.75,"wind_gusts":25.2,"aqi":62,"pm10":42.8,"pm2_5":16.6,"mosquito_risk":0,"arthritis_risk":5,"migraine_risk":4,"frizz_risk":0,"updated_at":"2026-04-19T11:04:56.130126+05:30"},{"city":"Jaipur","state":"Rajasthan","latitude":26.9124,"longitude":75.7873,"temp":37.6,"humidity":20,"rain":0.0,"pressure":960.6,"uv_index":7.9,"wind_gusts":38.5,"aqi":149,"pm10":441.4,"pm2_5":56.3,"mosquito_risk":0,"arthritis_risk":5,"migraine_risk":10,"frizz_risk":0,"updated_at":"2026-04-19T11:04:56.130134+05:30"},{"city":"Lucknow","state":"Uttar Pradesh","latitude":26.8467,"longitude":80.9462,"temp":36.5,"humidity":32,"rain":0.0,"pressure":992.9,"uv_index":7.85,"wind_gusts":32.4,"aqi":116,"pm10":188.6,"pm2_5":50.4,"mosquito_risk":0,"arthritis_risk":5,"migraine_risk":10,"frizz_risk":1,"updated_at":"2026-04-19T11:04:56.130142+05:30"},{"city":"Kanpur","state":"Uttar Pradesh","latitude":26.4499,"longitude":80.3319,"temp":35.3,"humidity":40,"rain":0.0,"pressure":991.6,"uv_index":7.9,"wind_gusts":21.6,"aqi":179,"pm10":347.4,"pm2_5":64.3,"mosquito_risk":0,"arthritis_risk":5,"migraine_risk":10,"frizz_risk":1,"updated_at":"2026-04-19T11:04:56.130149+05:30"},{"city":"Chandigarh","state":"Chandigarh","latitude":30.7333,"longitude":76.7794,"temp":32.4,"humidity":41,"rain":0.0,"pressure":969.1,"uv_index":6.15,"wind_gusts":34.9,"aqi":69,"pm10":111.3,"pm2_5":24.1,"mosquito_risk":0,"arthritis_risk":5,"migraine_risk":7,"frizz_risk":1,"updated_at":"2026-04-19T11:04:56.130157+05:30"},{"city":"Srinagar","state":"Jammu and Kashmir","latitude":34.0837,"longitude":74.7973,"temp":15.6,"humidity":75,"rain":0.0,"pressure":845.9,"uv_index":7.55,"wind_gusts":30.2,"aqi":67,"pm10":31.9,"pm2_5":20.4,"mosquito_risk":3,"arthritis_risk":5,"migraine_risk":7,"frizz_risk":0,"updated_at":"2026-04-19T11:04:56.130167+05:30"},{"city":"Jammu","state":"Jammu and Kashmir","latitude":32.7266,"longitude":74.857,"temp":30.3,"humidity":35,"rain":0.0,"pressure":973.6,"uv_index":5.75,"wind_gusts":32.4,"aqi":63,"pm10":24.0,"pm2_5":13.0,"mosquito_risk":0,"arthritis_risk":5,"migraine_risk":3,"frizz_risk":0,"updated_at":"2026-04-19T11:04:56.130174+05:30"},{"city":"Amritsar","state":"Punjab","latitude":31.634,"longitude":74.8723,"temp":29.2,"humidity":43,"rain":0.0,"pressure":981.9,"uv_index":7.35,"wind_gusts":25.9,"aqi":64,"pm10":37.7,"pm2_5":19.7,"mosquito_risk":4,"arthritis_risk":5,"migraine_risk":7,"frizz_risk":0,"updated_at":"2026-04-19T11:04:56.130182+05:30"},{"city":"Ludhiana","state":"Punjab","latitude":30.901,"longitude":75.8573,"temp":32.8,"humidity":38,"rain":0.0,"pressure":979.0,"uv_index":7.4,"wind_gusts":37.1,"aqi":90,"pm10":41.3,"pm2_5":24.2,"mosquito_risk":0,"arthritis_risk":5,"migraine_risk":7,"frizz_risk":1,"updated_at":"2026-04-19T11:04:56.130195+05:30"},{"city":"Jalandhar","state":"Punjab","latitude":31.326,"longitude":75.5762,"temp":31.3,"humidity":36,"rain":0.0,"pressure":980.4,"uv_index":6.4,"wind_gusts":36.0,"aqi":74,"pm10":48.1,"pm2_5":23.6,"mosquito_risk":0,"arthritis_risk":5,"migraine_risk":7,"frizz_risk":0,"updated_at":"2026-04-19T11:04:56.130202+05:30"},{"city":"Dehradun","state":"Uttarakhand","latitude":30.6284,"longitude":78.0322,"temp":25.2,"humidity":28,"rain":0.0,"pressure":834.2,"uv_index":6.9,"wind_gusts":47.5,"aqi":33,"pm10":18.9,"pm2_5":5.4,"mosquito_risk":4,"arthritis_risk":5,"migraine_risk":7,"frizz_risk":0,"updated_at":"2026-04-19T11:04:56.130210+05:30"},{"city":"Shimla","state":"Himachal Pradesh","latitude":31.1048,"longitude":77.1734,"temp":24.1,"humidity":32,"rain":0.0,"pressure":789.9,"uv_index":6.75,"wind_gusts":44.6,"aqi":51,"pm10":46.9,"pm2_5":10.8,"mosquito_risk":0,"arthritis_risk":5,"migraine_risk":7,"frizz_risk":0,"updated_at":"2026-04-19T11:04:56.130241+05:30"},{"city":"Manali","state":"Himachal Pradesh","latitude":32.2396,"longitude":77.1887,"temp":22.7,"humidity":27,"rain":0.0,"pressure":824.8,"uv_index":6.7,"wind_gusts":44.3,"aqi":46,"pm10":5.8,"pm2_5":3.2,"mosquito_risk":0,"arthritis_risk":5,"migraine_risk":7,"frizz_risk":0,"updated_at":"2026-04-19T11:04:56.130257+05:30"},{"city":"Gurgaon","state":"Haryana","latitude":28.4595,"longitude":77.0266,"temp":33.9,"humidity":43,"rain":0.0,"pressure":981.7,"uv_index":7.15,"wind_gusts":18.4,"aqi":452,"pm10":698.5,"pm2_5":100.8,"mosquito_risk":0,"arthritis_risk":5,"migraine_risk":7,"frizz_risk":1,"updated_at":"2026-04-19T11:04:56.130265+05:30"},{"city":"Noida","state":"Uttar Pradesh","latitude":28.5355,"longitude":77.391,"temp":35.5,"humidity":36,"rain":0.0,"pressure":984.5,"uv_index":7.0,"wind_gusts":22.3,"aqi":452,"pm10":698.5,"pm2_5":100.8,"mosquito_risk":0,"arthritis_risk":5,"migraine_risk":10,"frizz_risk":1,"updated_at":"2026-04-19T11:04:56.130272+05:30"},{"city":"Ghaziabad","state":"Uttar Pradesh","latitude":28.6692,"longitude":77.4538,"temp":34.7,"humidity":40,"rain":0.0,"pressure":982.8,"uv_index":6.9,"wind_gusts":20.5,"aqi":157,"pm10":356.7,"pm2_5":74.0,"mosquito_risk":0,"arthritis_risk":5,"migraine_risk":7,"frizz_risk":1,"updated_at":"2026-04-19T11:04:56.130280+05:30"},{"city":"Faridabad","state":"Haryana","latitude":28.4089,"longitude":77.3178,"temp":35.7,"humidity":34,"rain":0.0,"pressure":983.8,"uv_index":7.2,"wind_gusts":24.8,"aqi":452,"pm10":698.5,"pm2_5":100.8,"mosquito_risk":0,"arthritis_risk":5,"migraine_risk":10,"frizz_risk":1,"updated_at":"2026-04-19T11:04:56.130287+05:30"},{"city":"Meerut","state":"Uttar Pradesh","latitude":28.9845,"longitude":77.7064,"temp":35.0,"humidity":40,"rain":0.0,"pressure":981.4,"uv_index":6.55,"wind_gusts":24.8,"aqi":157,"pm10":356.7,"pm2_5":74.0,"mosquito_risk":0,"arthritis_risk":5,"migraine_risk":7,"frizz_risk":1,"updated_at":"2026-04-19T11:04:56.130293+05:30"},{"city":"Agra","state":"Uttar Pradesh","latitude":27.1767,"longitude":78.0081,"temp":35.9,"humidity":35,"rain":0.0,"pressure":987.8,"uv_index":7.6,"wind_gusts":26.3,"aqi":334,"pm10":461.0,"pm2_5":93.1,"mosquito_risk":0,"arthritis_risk":5,"migraine_risk":10,"frizz_risk":1,"updated_at":"2026-04-19T11:04:56.130304+05:30"},{"city":"Varanasi","state":"Uttar Pradesh","latitude":25.3176,"longitude":82.9739,"temp":38.7,"humidity":27,"rain":0.0,"pressure":996.7,"uv_index":8.45,"wind_gusts":27.7,"aqi":101,"pm10":271.9,"pm2_5":48.8,"mosquito_risk":0,"arthritis_risk":5,"migraine_risk":10,"frizz_risk":1,"updated_at":"2026-04-19T11:04:56.130311+05:30"},{"city":"Prayagraj","state":"Uttar Pradesh","latitude":25.4358,"longitude":81.8463,"temp":38.7,"humidity":28,"rain":0.0,"pressure":995.4,"uv_index":8.35,"wind_gusts":27.7,"aqi":98,"pm10":275.7,"pm2_5":54.5,"mosquito_risk":0,"arthritis_risk":5,"migraine_risk":10,"frizz_risk":1,"updated_at":"2026-04-19T11:04:56.130319+05:30"},{"city":"Gorakhpur","state":"Uttar Pradesh","latitude":26.7606,"longitude":83.3732,"temp":33.8,"humidity":57,"rain":0.0,"pressure":996.7,"uv_index":8.3,"wind_gusts":28.8,"aqi":109,"pm10":64.7,"pm2_5":50.1,"mosquito_risk":0,"arthritis_risk":5,"migraine_risk":7,"frizz_risk":1,"updated_at":"2026-04-19T11:04:56.130326+05:30"},{"city":"Bareilly","state":"Uttar Pradesh","latitude":28.367,"longitude":79.4304,"temp":36.7,"humidity":34,"rain":0.0,"pressure":986.3,"uv_index":7.4,"wind_gusts":30.2,"aqi":84,"pm10":99.0,"pm2_5":27.6,"mosquito_risk":0,"arthritis_risk":5,"migraine_risk":10,"frizz_risk":1,"updated_at":"2026-04-19T11:04:56.130334+05:30"},{"city":"Aligarh","state":"Uttar Pradesh","latitude":27.8974,"longitude":78.088,"temp":38.2,"humidity":26,"rain":0.0,"pressure":985.4,"uv_index":7.55,"wind_gusts":32.0,"aqi":229,"pm10":491.7,"pm2_5":82.7,"mosquito_risk":0,"arthritis_risk":5,"migraine_risk":10,"frizz_risk":0,"updated_at":"2026-04-19T11:04:56.130343+05:30"},{"city":"Moradabad","state":"Uttar Pradesh","latitude":28.8386,"longitude":78.7733,"temp":36.1,"humidity":35,"rain":0.0,"pressure":983.2,"uv_index":7.25,"wind_gusts":34.2,"aqi":105,"pm10":102.0,"pm2_5":31.1,"mosquito_risk":0,"arthritis_risk":5,"migraine_risk":10,"frizz_risk":1,"updated_at":"2026-04-19T11:04:56.130349+05:30"},{"city":"Saharanpur","state":"Uttar Pradesh","latitude":29.9637,"longitude":77.546,"temp":33.5,"humidity":38,"rain":0.0,"pressure":975.8,"uv_index":6.35,"wind_gusts":35.3,"aqi":98,"pm10":44.7,"pm2_5":21.4,"mosquito_risk":0,"arthritis_risk":5,"migraine_risk":7,"frizz_risk":1,"updated_at":"2026-04-19T11:04:56.130355+05:30"},{"city":"Jhansi","state":"Uttar Pradesh","latitude":25.4484,"longitude":78.5685,"temp":38.6,"humidity":24,"rain":0.0,"pressure":978.2,"uv_index":8.25,"wind_gusts":26.3,"aqi":66,"pm10":53.1,"pm2_5":16.6,"mosquito_risk":0,"arthritis_risk":5,"migraine_risk":10,"frizz_risk":0,"updated_at":"2026-04-19T11:04:59.347498+05:30"},{"city":"Surat","state":"Gujarat","latitude":21.1702,"longitude":72.8311,"temp":33.3,"humidity":41,"rain":0.0,"pressure":1007.2,"uv_index":7.85,"wind_gusts":25.6,"aqi":99,"pm10":50.5,"pm2_5":38.0,"mosquito_risk":0,"arthritis_risk":5,"migraine_risk":4,"frizz_risk":1,"updated_at":"2026-04-19T11:04:59.347532+05:30"},{"city":"Vadodara","state":"Gujarat","latitude":22.3072,"longitude":73.1812,"temp":35.8,"humidity":32,"rain":0.0,"pressure":1005.0,"uv_index":8.15,"wind_gusts":30.2,"aqi":72,"pm10":26.4,"pm2_5":15.1,"mosquito_risk":0,"arthritis_risk":5,"migraine_risk":7,"frizz_risk":1,"updated_at":"2026-04-19T11:04:59.347544+05:30"},{"city":"Rajkot","state":"Gujarat","latitude":22.3039,"longitude":70.8022,"temp":31.1,"humidity":44,"rain":0.0,"pressure":995.8,"uv_index":7.15,"wind_gusts":28.4,"aqi":56,"pm10":54.2,"pm2_5":17.2,"mosquito_risk":0,"arthritis_risk":5,"migraine_risk":7,"frizz_risk":1,"updated_at":"2026-04-19T11:04:59.347554+05:30"},{"city":"Thane","state":"Maharashtra","latitude":19.2183,"longitude":72.9781,"temp":34.1,"humidity":44,"rain":0.0,"pressure":1008.1,"uv_index":7.3,"wind_gusts":40.0,"aqi":87,"pm10":59.1,"pm2_5":31.2,"mosquito_risk":0,"arthritis_risk":0,"migraine_risk":4,"frizz_risk":1,"updated_at":"2026-04-19T11:04:59.347563+05:30"},{"city":"Nagpur","state":"Maharashtra","latitude":21.1458,"longitude":79.0882,"temp":38.8,"humidity":17,"rain":0.0,"pressure":973.6,"uv_index":8.8,"wind_gusts":18.7,"aqi":93,"pm10":34.5,"pm2_5":30.7,"mosquito_risk":0,"arthritis_risk":5,"migraine_risk":10,"frizz_risk":0,"updated_at":"2026-04-19T11:04:59.347572+05:30"},{"city":"Nashik","state":"Maharashtra","latitude":19.9975,"longitude":73.7898,"temp":35.2,"humidity":28,"rain":0.0,"pressure":947.2,"uv_index":6.35,"wind_gusts":33.5,"aqi":73,"pm10":32.1,"pm2_5":14.6,"mosquito_risk":0,"arthritis_risk":5,"migraine_risk":10,"frizz_risk":0,"updated_at":"2026-04-19T11:04:59.347580+05:30"},{"city":"Aurangabad","state":"Maharashtra","latitude":19.8762,"longitude":75.3433,"temp":36.9,"humidity":27,"rain":0.0,"pressure":945.6,"uv_index":8.85,"wind_gusts":22.7,"aqi":63,"pm10":22.1,"pm2_5":15.5,"mosquito_risk":0,"arthritis_risk":5,"migraine_risk":10,"frizz_risk":0,"updated_at":"2026-04-19T11:04:59.347589+05:30"},{"city":"Solapur","state":"Maharashtra","latitude":17.6599,"longitude":75.9064,"temp":37.5,"humidity":30,"rain":0.0,"pressure":957.9,"uv_index":8.95,"wind_gusts":27.0,"aqi":130,"pm10":40.7,"pm2_5":34.6,"mosquito_risk":0,"arthritis_risk":5,"migraine_risk":10,"frizz_risk":1,"updated_at":"2026-04-19T11:04:59.347597+05:30"},{"city":"Kolhapur","state":"Maharashtra","latitude":16.705,"longitude":74.2433,"temp":34.3,"humidity":41,"rain":0.0,"pressure":949.1,"uv_index":9.05,"wind_gusts":45.4,"aqi":101,"pm10":44.9,"pm2_5":33.8,"mosquito_risk":0,"arthritis_risk":5,"migraine_risk":7,"frizz_risk":1,"updated_at":"2026-04-19T11:04:59.347611+05:30"},{"city":"Goa","state":"Goa","latitude":15.2993,"longitude":74.124,"temp":32.1,"humidity":64,"rain":0.0,"pressure":998.7,"uv_index":9.0,"wind_gusts":29.9,"aqi":85,"pm10":52.6,"pm2_5":25.6,"mosquito_risk":3,"arthritis_risk":5,"migraine_risk":7,"frizz_risk":1,"updated_at":"2026-04-19T11:04:59.347619+05:30"},{"city":"Jodhpur","state":"Rajasthan","latitude":26.2389,"longitude":73.0243,"temp":35.4,"humidity":25,"rain":0.0,"pressure":984.2,"uv_index":8.15,"wind_gusts":27.0,"aqi":109,"pm10":196.0,"pm2_5":48.5,"mosquito_risk":0,"arthritis_risk":5,"migraine_risk":10,"frizz_risk":0,"updated_at":"2026-04-19T11:04:59.347627+05:30"},{"city":"Udaipur","state":"Rajasthan","latitude":24.5854,"longitude":73.7125,"temp":35.6,"humidity":17,"rain":0.0,"pressure":948.3,"uv_index":8.4,"wind_gusts":36.7,"aqi":39,"pm10":25.5,"pm2_5":9.5,"mosquito_risk":0,"arthritis_risk":5,"migraine_risk":10,"frizz_risk":0,"updated_at":"2026-04-19T11:04:59.347635+05:30"},{"city":"Kota","state":"Rajasthan","latitude":25.2138,"longitude":75.8648,"temp":38.7,"humidity":18,"rain":0.0,"pressure":979.2,"uv_index":8.25,"wind_gusts":36.4,"aqi":76,"pm10":22.8,"pm2_5":8.9,"mosquito_risk":0,"arthritis_risk":5,"migraine_risk":10,"frizz_risk":0,"updated_at":"2026-04-19T11:04:59.347643+05:30"},{"city":"Bikaner","state":"Rajasthan","latitude":28.0229,"longitude":73.3119,"temp":33.8,"humidity":34,"rain":0.0,"pressure":982.6,"uv_index":8.0,"wind_gusts":23.0,"aqi":82,"pm10":69.2,"pm2_5":25.5,"mosquito_risk":0,"arthritis_risk":5,"migraine_risk":7,"frizz_risk":0,"updated_at":"2026-04-19T11:04:59.347651+05:30"},{"city":"Ajmer","state":"Rajasthan","latitude":26.4499,"longitude":74.6399,"temp":33.8,"humidity":25,"rain":0.0,"pressure":956.2,"uv_index":7.65,"wind_gusts":28.4,"aqi":63,"pm10":116.4,"pm2_5":24.9,"mosquito_risk":0,"arthritis_risk":5,"migraine_risk":7,"frizz_risk":0,"updated_at":"2026-04-19T11:04:59.347659+05:30"},{"city":"Gwalior","state":"Madhya Pradesh","latitude":26.2183,"longitude":78.1828,"temp":39.3,"humidity":21,"rain":0.0,"pressure":983.2,"uv_index":7.65,"wind_gusts":31.3,"aqi":85,"pm10":243.1,"pm2_5":48.0,"mosquito_risk":0,"arthritis_risk":5,"migraine_risk":10,"frizz_risk":0,"updated_at":"2026-04-19T11:04:59.347667+05:30"},{"city":"Indore","state":"Madhya Pradesh","latitude":22.7196,"longitude":75.8577,"temp":36.5,"humidity":23,"rain":0.0,"pressure":949.7,"uv_index":8.6,"wind_gusts":29.5,"aqi":52,"pm10":8.7,"pm2_5":5.5,"mosquito_risk":0,"arthritis_risk":5,"migraine_risk":10,"frizz_risk":0,"updated_at":"2026-04-19T11:04:59.347675+05:30"},{"city":"Bhopal","state":"Madhya Pradesh","latitude":23.2599,"longitude":77.4126,"temp":37.2,"humidity":24,"rain":0.0,"pressure":955.2,"uv_index":8.6,"wind_gusts":30.2,"aqi":56,"pm10":42.8,"pm2_5":18.2,"mosquito_risk":0,"arthritis_risk":5,"migraine_risk":10,"frizz_risk":0,"updated_at":"2026-04-19T11:04:59.347683+05:30"},{"city":"Jabalpur","state":"Madhya Pradesh","latitude":23.1815,"longitude":79.9864,"temp":35.6,"humidity":30,"rain":0.0,"pressure":962.4,"uv_index":8.75,"wind_gusts":23.8,"aqi":69,"pm10":19.6,"pm2_5":13.3,"mosquito_risk":0,"arthritis_risk":5,"migraine_risk":10,"frizz_risk":0,"updated_at":"2026-04-19T11:04:59.347691+05:30"},{"city":"Ujjain","state":"Madhya Pradesh","latitude":23.1765,"longitude":75.7885,"temp":36.6,"humidity":24,"rain":0.0,"pressure":955.3,"uv_index":8.5,"wind_gusts":33.8,"aqi":51,"pm10":9.4,"pm2_5":6.8,"mosquito_risk":0,"arthritis_risk":5,"migraine_risk":10,"frizz_risk":0,"updated_at":"2026-04-19T11:04:59.347700+05:30"},{"city":"Visakhapatnam","state":"Andhra Pradesh","latitude":17.6868,"longitude":83.2185,"temp":33.6,"humidity":58,"rain":0.0,"pressure":1004.7,"uv_index":9.15,"wind_gusts":38.5,"aqi":65,"pm10":27.8,"pm2_5":19.5,"mosquito_risk":0,"arthritis_risk":5,"migraine_risk":4,"frizz_risk":1,"updated_at":"2026-04-19T11:04:59.347707+05:30"},{"city":"Vijayawada","state":"Andhra Pradesh","latitude":16.5062,"longitude":80.648,"temp":33.9,"humidity":59,"rain":0.0,"pressure":1003.6,"uv_index":9.2,"wind_gusts":31.3,"aqi":58,"pm10":20.0,"pm2_5":12.4,"mosquito_risk":0,"arthritis_risk":5,"migraine_risk":4,"frizz_risk":1,"updated_at":"2026-04-19T11:04:59.347715+05:30"},{"city":"Guntur","state":"Andhra Pradesh","latitude":16.3067,"longitude":80.4365,"temp":34.4,"humidity":56,"rain":0.0,"pressure":1004.7,"uv_index":9.25,"wind_gusts":33.8,"aqi":62,"pm10":18.5,"pm2_5":12.5,"mosquito_risk":0,"arthritis_risk":5,"migraine_risk":4,"frizz_risk":1,"updated_at":"2026-04-19T11:04:59.347723+05:30"},{"city":"Nellore","state":"Andhra Pradesh","latitude":14.4426,"longitude":79.9865,"temp":35.6,"humidity":47,"rain":0.0,"pressure":1006.0,"uv_index":9.25,"wind_gusts":33.5,"aqi":51,"pm10":16.9,"pm2_5":12.1,"mosquito_risk":0,"arthritis_risk":5,"migraine_risk":7,"frizz_risk":1,"updated_at":"2026-04-19T11:04:59.347732+05:30"},{"city":"Kurnool","state":"Andhra Pradesh","latitude":15.8281,"longitude":78.0373,"temp":39.6,"humidity":26,"rain":0.0,"pressure":977.0,"uv_index":9.25,"wind_gusts":38.2,"aqi":87,"pm10":35.9,"pm2_5":30.9,"mosquito_risk":0,"arthritis_risk":5,"migraine_risk":10,"frizz_risk":1,"updated_at":"2026-04-19T11:04:59.347739+05:30"},{"city":"Kakinada","state":"Andhra Pradesh","latitude":16.9891,"longitude":82.2475,"temp":34.6,"humidity":56,"rain":0.0,"pressure":1008.5,"uv_index":9.2,"wind_gusts":29.9,"aqi":53,"pm10":20.7,"pm2_5":12.0,"mosquito_risk":0,"arthritis_risk":0,"migraine_risk":4,"frizz_risk":1,"updated_at":"2026-04-19T11:04:59.347746+05:30"},{"city":"Tirupati","state":"Andhra Pradesh","latitude":13.6288,"longitude":79.4192,"temp":33.9,"humidity":54,"rain":0.0,"pressure":992.9,"uv_index":9.35,"wind_gusts":33.1,"aqi":66,"pm10":14.9,"pm2_5":11.4,"mosquito_risk":0,"arthritis_risk":5,"migraine_risk":7,"frizz_risk":1,"updated_at":"2026-04-19T11:04:59.347753+05:30"},{"city":"Warangal","state":"Telangana","latitude":17.9689,"longitude":79.5941,"temp":34.4,"humidity":50,"rain":0.0,"pressure":979.6,"uv_index":9.15,"wind_gusts":32.8,"aqi":88,"pm10":24.4,"pm2_5":19.8,"mosquito_risk":0,"arthritis_risk":5,"migraine_risk":7,"frizz_risk":1,"updated_at":"2026-04-19T11:04:59.347759+05:30"},{"city":"Nizamabad","state":"Telangana","latitude":18.6725,"longitude":78.0941,"temp":38.4,"humidity":26,"rain":0.0,"pressure":965.7,"uv_index":9.1,"wind_gusts":39.2,"aqi":111,"pm10":44.8,"pm2_5":39.6,"mosquito_risk":0,"arthritis_risk":5,"migraine_risk":10,"frizz_risk":0,"updated_at":"2026-04-19T11:04:59.347765+05:30"},{"city":"Mysore","state":"Karnataka","latitude":12.2958,"longitude":76.6396,"temp":32.6,"humidity":44,"rain":0.0,"pressure":930.4,"uv_index":9.5,"wind_gusts":43.9,"aqi":88,"pm10":31.2,"pm2_5":25.4,"mosquito_risk":0,"arthritis_risk":5,"migraine_risk":7,"frizz_risk":1,"updated_at":"2026-04-19T11:04:59.347772+05:30"},{"city":"Mangalore","state":"Karnataka","latitude":12.9141,"longitude":74.856,"temp":29.8,"humidity":84,"rain":0.0,"pressure":1007.5,"uv_index":9.1,"wind_gusts":22.7,"aqi":69,"pm10":43.2,"pm2_5":23.8,"mosquito_risk":7,"arthritis_risk":5,"migraine_risk":4,"frizz_risk":1,"updated_at":"2026-04-19T11:04:59.347778+05:30"},{"city":"Hubli-Dharwad","state":"Karnataka","latitude":15.3647,"longitude":75.124,"temp":29.6,"humidity":70,"rain":0.0,"pressure":942.4,"uv_index":9.2,"wind_gusts":31.7,"aqi":77,"pm10":40.5,"pm2_5":31.4,"mosquito_risk":7,"arthritis_risk":5,"migraine_risk":7,"frizz_risk":1,"updated_at":"2026-04-19T11:04:59.347785+05:30"},{"city":"Belgaum","state":"Karnataka","latitude":15.8497,"longitude":74.4977,"temp":30.2,"humidity":66,"rain":0.0,"pressure":927.2,"uv_index":9.25,"wind_gusts":28.8,"aqi":92,"pm10":44.4,"pm2_5":33.9,"mosquito_risk":3,"arthritis_risk":5,"migraine_risk":7,"frizz_risk":1,"updated_at":"2026-04-19T11:05:02.586765+05:30"},{"city":"Coimbatore","state":"Tamil Nadu","latitude":11.0168,"longitude":76.9558,"temp":33.1,"humidity":53,"rain":0.0,"pressure":963.4,"uv_index":9.4,"wind_gusts":53.3,"aqi":90,"pm10":29.9,"pm2_5":23.1,"mosquito_risk":0,"arthritis_risk":5,"migraine_risk":7,"frizz_risk":1,"updated_at":"2026-04-19T11:05:02.586799+05:30"},{"city":"Madurai","state":"Tamil Nadu","latitude":9.9252,"longitude":78.1198,"temp":34.4,"humidity":46,"rain":0.0,"pressure":994.2,"uv_index":9.3,"wind_gusts":41.0,"aqi":64,"pm10":15.5,"pm2_5":13.6,"mosquito_risk":0,"arthritis_risk":5,"migraine_risk":7,"frizz_risk":1,"updated_at":"2026-04-19T11:05:02.586811+05:30"},{"city":"Trichy","state":"Tamil Nadu","latitude":10.7905,"longitude":78.7047,"temp":34.2,"humidity":53,"rain":0.0,"pressure":1000.9,"uv_index":9.3,"wind_gusts":23.0,"aqi":55,"pm10":16.2,"pm2_5":13.3,"mosquito_risk":0,"arthritis_risk":5,"migraine_risk":4,"frizz_risk":1,"updated_at":"2026-04-19T11:05:02.586821+05:30"},{"city":"Salem","state":"Tamil Nadu","latitude":11.6643,"longitude":78.146,"temp":33.5,"humidity":53,"rain":0.0,"pressure":978.8,"uv_index":9.35,"wind_gusts":18.0,"aqi":64,"pm10":15.3,"pm2_5":11.9,"mosquito_risk":0,"arthritis_risk":5,"migraine_risk":7,"frizz_risk":1,"updated_at":"2026-04-19T11:05:02.586831+05:30"},{"city":"Tirunelveli","state":"Tamil Nadu","latitude":8.7139,"longitude":77.7567,"temp":36.6,"humidity":38,"rain":0.0,"pressure":1004.0,"uv_index":9.25,"wind_gusts":49.0,"aqi":68,"pm10":21.5,"pm2_5":16.1,"mosquito_risk":0,"arthritis_risk":5,"migraine_risk":7,"frizz_risk":1,"updated_at":"2026-04-19T11:05:02.586839+05:30"},{"city":"Vellore","state":"Tamil Nadu","latitude":12.9165,"longitude":79.1325,"temp":33.1,"humidity":58,"rain":0.0,"pressure":985.9,"uv_index":9.4,"wind_gusts":27.7,"aqi":87,"pm10":18.0,"pm2_5":14.3,"mosquito_risk":0,"arthritis_risk":5,"migraine_risk":7,"frizz_risk":1,"updated_at":"2026-04-19T11:05:02.586849+05:30"},{"city":"Erode","state":"Tamil Nadu","latitude":11.341,"longitude":77.7172,"temp":35.5,"humidity":48,"rain":0.0,"pressure":990.0,"uv_index":9.35,"wind_gusts":27.0,"aqi":58,"pm10":20.2,"pm2_5":17.4,"mosquito_risk":0,"arthritis_risk":5,"migraine_risk":10,"frizz_risk":1,"updated_at":"2026-04-19T11:05:02.586858+05:30"},{"city":"Kochi","state":"Kerala","latitude":9.9312,"longitude":76.2673,"temp":29.4,"humidity":82,"rain":0.0,"pressure":1009.4,"uv_index":9.15,"wind_gusts":25.2,"aqi":78,"pm10":25.9,"pm2_5":20.3,"mosquito_risk":7,"arthritis_risk":0,"migraine_risk":4,"frizz_risk":1,"updated_at":"2026-04-19T11:05:02.586867+05:30"},{"city":"Thiruvananthapuram","state":"Kerala","latitude":8.5241,"longitude":76.9366,"temp":29.0,"humidity":84,"rain":0.0,"pressure":1008.7,"uv_index":9.1,"wind_gusts":29.5,"aqi":69,"pm10":28.2,"pm2_5":19.6,"mosquito_risk":7,"arthritis_risk":0,"migraine_risk":4,"frizz_risk":1,"updated_at":"2026-04-19T11:05:02.586873+05:30"},{"city":"Kozhikode","state":"Kerala","latitude":11.2588,"longitude":75.7804,"temp":31.3,"humidity":74,"rain":0.0,"pressure":1008.6,"uv_index":9.1,"wind_gusts":30.2,"aqi":64,"pm10":21.4,"pm2_5":16.3,"mosquito_risk":3,"arthritis_risk":0,"migraine_risk":4,"frizz_risk":1,"updated_at":"2026-04-19T11:05:02.586880+05:30"},{"city":"Thrissur","state":"Kerala","latitude":10.5276,"longitude":76.2144,"temp":34.1,"humidity":61,"rain":0.0,"pressure":1007.8,"uv_index":9.15,"wind_gusts":32.8,"aqi":77,"pm10":19.8,"pm2_5":15.5,"mosquito_risk":3,"arthritis_risk":5,"migraine_risk":4,"frizz_risk":1,"updated_at":"2026-04-19T11:05:02.586887+05:30"},{"city":"Kannur","state":"Kerala","latitude":11.8745,"longitude":75.3704,"temp":32.8,"humidity":65,"rain":0.0,"pressure":1007.9,"uv_index":9.1,"wind_gusts":33.1,"aqi":70,"pm10":34.2,"pm2_5":21.7,"mosquito_risk":3,"arthritis_risk":5,"migraine_risk":4,"frizz_risk":1,"updated_at":"2026-04-19T11:05:02.586895+05:30"},{"city":"Patna","state":"Bihar","latitude":25.5941,"longitude":85.1376,"temp":32.7,"humidity":61,"rain":0.0,"pressure":1000.0,"uv_index":8.6,"wind_gusts":27.0,"aqi":127,"pm10":56.9,"pm2_5":47.1,"mosquito_risk":3,"arthritis_risk":5,"migraine_risk":4,"frizz_risk":1,"updated_at":"2026-04-19T11:05:02.586901+05:30"},{"city":"Gaya","state":"Bihar","latitude":24.7914,"longitude":85.0002,"temp":37.5,"humidity":33,"rain":0.0,"pressure":993.1,"uv_index":8.7,"wind_gusts":33.8,"aqi":95,"pm10":84.3,"pm2_5":29.6,"mosquito_risk":0,"arthritis_risk":5,"migraine_risk":10,"frizz_risk":1,"updated_at":"2026-04-19T11:05:02.586907+05:30"},{"city":"Muzaffarpur","state":"Bihar","latitude":26.1209,"longitude":85.3647,"temp":31.8,"humidity":60,"rain":0.0,"pressure":1000.4,"uv_index":8.6,"wind_gusts":29.5,"aqi":141,"pm10":57.7,"pm2_5":49.2,"mosquito_risk":0,"arthritis_risk":5,"migraine_risk":4,"frizz_risk":1,"updated_at":"2026-04-19T11:05:02.586914+05:30"},{"city":"Bhagalpur","state":"Bihar","latitude":25.2425,"longitude":87.0117,"temp":31.2,"humidity":65,"rain":0.0,"pressure":1001.5,"uv_index":8.65,"wind_gusts":27.0,"aqi":122,"pm10":48.9,"pm2_5":44.5,"mosquito_risk":3,"arthritis_risk":5,"migraine_risk":4,"frizz_risk":1,"updated_at":"2026-04-19T11:05:02.586920+05:30"},{"city":"Ranchi","state":"Jharkhand","latitude":23.3441,"longitude":85.3096,"temp":37.1,"humidity":24,"rain":0.0,"pressure":939.5,"uv_index":9.2,"wind_gusts":43.2,"aqi":72,"pm10":79.4,"pm2_5":26.6,"mosquito_risk":0,"arthritis_risk":5,"migraine_risk":10,"frizz_risk":0,"updated_at":"2026-04-19T11:05:02.586926+05:30"},{"city":"Jamshedpur","state":"Jharkhand","latitude":22.8046,"longitude":86.2029,"temp":37.4,"humidity":50,"rain":0.0,"pressure":990.3,"uv_index":9.0,"wind_gusts":36.7,"aqi":115,"pm10":78.7,"pm2_5":60.1,"mosquito_risk":0,"arthritis_risk":5,"migraine_risk":10,"frizz_risk":1,"updated_at":"2026-04-19T11:05:02.586933+05:30"},{"city":"Dhanbad","state":"Jharkhand","latitude":23.7957,"longitude":86.4304,"temp":38.7,"humidity":34,"rain":0.0,"pressure":979.3,"uv_index":8.95,"wind_gusts":39.6,"aqi":157,"pm10":92.7,"pm2_5":39.5,"mosquito_risk":0,"arthritis_risk":5,"migraine_risk":10,"frizz_risk":1,"updated_at":"2026-04-19T11:05:02.586940+05:30"},{"city":"Bokaro","state":"Jharkhand","latitude":23.6693,"longitude":86.1511,"temp":38.8,"humidity":31,"rain":0.0,"pressure":983.4,"uv_index":8.95,"wind_gusts":44.3,"aqi":145,"pm10":105.2,"pm2_5":30.9,"mosquito_risk":0,"arthritis_risk":5,"migraine_risk":10,"frizz_risk":1,"updated_at":"2026-04-19T11:05:02.586946+05:30"},{"city":"Bhubaneswar","state":"Odisha","latitude":20.2961,"longitude":85.8245,"temp":32.9,"humidity":68,"rain":0.0,"pressure":1003.5,"uv_index":9.1,"wind_gusts":34.6,"aqi":65,"pm10":31.7,"pm2_5":23.1,"mosquito_risk":3,"arthritis_risk":5,"migraine_risk":4,"frizz_risk":1,"updated_at":"2026-04-19T11:05:02.586952+05:30"},{"city":"Cuttack","state":"Odisha","latitude":20.4625,"longitude":85.8828,"temp":34.4,"humidity":63,"rain":0.0,"pressure":1005.0,"uv_index":9.15,"wind_gusts":34.2,"aqi":65,"pm10":31.7,"pm2_5":23.1,"mosquito_risk":3,"arthritis_risk":5,"migraine_risk":4,"frizz_risk":1,"updated_at":"2026-04-19T11:05:02.586959+05:30"},{"city":"Rourkela","state":"Odisha","latitude":22.2604,"longitude":84.8536,"temp":38.9,"humidity":40,"rain":0.0,"pressure":984.9,"uv_index":8.8,"wind_gusts":32.8,"aqi":135,"pm10":68.9,"pm2_5":57.7,"mosquito_risk":0,"arthritis_risk":5,"migraine_risk":10,"frizz_risk":1,"updated_at":"2026-04-19T11:05:02.586965+05:30"},{"city":"Raipur","state":"Chhattisgarh","latitude":21.2514,"longitude":81.6296,"temp":38.5,"humidity":36,"rain":0.0,"pressure":975.0,"uv_index":9.0,"wind_gusts":33.8,"aqi":150,"pm10":46.8,"pm2_5":42.4,"mosquito_risk":0,"arthritis_risk":5,"migraine_risk":10,"frizz_risk":1,"updated_at":"2026-04-19T11:05:02.586971+05:30"},{"city":"Bhilai","state":"Chhattisgarh","latitude":21.1938,"longitude":81.3509,"temp":38.1,"humidity":38,"rain":0.0,"pressure":975.3,"uv_index":8.95,"wind_gusts":31.7,"aqi":152,"pm10":44.0,"pm2_5":39.5,"mosquito_risk":0,"arthritis_risk":5,"migraine_risk":10,"frizz_risk":1,"updated_at":"2026-04-19T11:05:02.586977+05:30"},{"city":"Guwahati","state":"Assam","latitude":26.1158,"longitude":91.7086,"temp":28.2,"humidity":79,"rain":0.0,"pressure":1002.6,"uv_index":8.55,"wind_gusts":24.8,"aqi":119,"pm10":69.2,"pm2_5":49.9,"mosquito_risk":7,"arthritis_risk":5,"migraine_risk":4,"frizz_risk":1,"updated_at":"2026-04-19T11:05:02.586983+05:30"},{"city":"Agartala","state":"Tripura","latitude":23.8315,"longitude":91.2868,"temp":29.9,"humidity":76,"rain":0.0,"pressure":1006.8,"uv_index":8.75,"wind_gusts":35.6,"aqi":125,"pm10":43.0,"pm2_5":32.9,"mosquito_risk":7,"arthritis_risk":5,"migraine_risk":4,"frizz_risk":1,"updated_at":"2026-04-19T11:05:02.586990+05:30"},{"city":"Shillong","state":"Meghalaya","latitude":25.5788,"longitude":91.8933,"temp":20.7,"humidity":71,"rain":0.0,"pressure":858.8,"uv_index":6.75,"wind_gusts":54.7,"aqi":99,"pm10":29.8,"pm2_5":20.2,"mosquito_risk":3,"arthritis_risk":5,"migraine_risk":7,"frizz_risk":0,"updated_at":"2026-04-19T11:05:02.586997+05:30"},{"city":"Imphal","state":"Manipur","latitude":24.817,"longitude":93.9368,"temp":22.7,"humidity":76,"rain":0.0,"pressure":924.7,"uv_index":8.2,"wind_gusts":61.2,"aqi":150,"pm10":66.4,"pm2_5":44.1,"mosquito_risk":3,"arthritis_risk":5,"migraine_risk":7,"frizz_risk":1,"updated_at":"2026-04-19T11:05:02.587003+05:30"},{"city":"Aizawl","state":"Mizoram","latitude":23.7271,"longitude":92.7176,"temp":25.7,"humidity":60,"rain":0.0,"pressure":895.2,"uv_index":8.7,"wind_gusts":38.5,"aqi":148,"pm10":49.2,"pm2_5":33.9,"mosquito_risk":4,"arthritis_risk":5,"migraine_risk":7,"frizz_risk":1,"updated_at":"2026-04-19T11:05:02.587009+05:30"},{"city":"Kohima","state":"Nagaland","latitude":25.6701,"longitude":94.1077,"temp":19.9,"humidity":87,"rain":0.0,"pressure":857.1,"uv_index":8.65,"wind_gusts":53.6,"aqi":127,"pm10":68.0,"pm2_5":45.1,"mosquito_risk":3,"arthritis_risk":10,"migraine_risk":7,"frizz_risk":1,"updated_at":"2026-04-19T11:05:02.587016+05:30"},{"city":"Gangtok","state":"Sikkim","latitude":27.3314,"longitude":88.6138,"temp":21.3,"humidity":75,"rain":0.0,"pressure":840.2,"uv_index":8.9,"wind_gusts":21.6,"aqi":77,"pm10":16.6,"pm2_5":13.0,"mosquito_risk":3,"arthritis_risk":5,"migraine_risk":7,"frizz_risk":1,"updated_at":"2026-04-19T11:05:02.587022+05:30"},{"city":"Siliguri","state":"West Bengal","latitude":26.7271,"longitude":88.3953,"temp":26.4,"humidity":73,"rain":0.0,"pressure":994.8,"uv_index":8.45,"wind_gusts":21.2,"aqi":150,"pm10":35.2,"pm2_5":27.2,"mosquito_risk":7,"arthritis_risk":5,"migraine_risk":7,"frizz_risk":1,"updated_at":"2026-04-19T11:05:05.808994+05:30"},{"city":"Durgapur","state":"West Bengal","latitude":23.5204,"longitude":87.3119,"temp":35.6,"humidity":61,"rain":0.0,"pressure":994.4,"uv_index":8.9,"wind_gusts":40.3,"aqi":126,"pm10":77.5,"pm2_5":61.2,"mosquito_risk":3,"arthritis_risk":5,"migraine_risk":10,"frizz_risk":1,"updated_at":"2026-04-19T11:05:05.809025+05:30"},{"city":"Asansol","state":"West Bengal","latitude":23.6739,"longitude":86.9524,"temp":36.3,"humidity":58,"rain":0.0,"pressure":992.9,"uv_index":8.95,"wind_gusts":34.6,"aqi":141,"pm10":86.1,"pm2_5":55.4,"mosquito_risk":0,"arthritis_risk":5,"migraine_risk":10,"frizz_risk":1,"updated_at":"2026-04-19T11:05:05.809036+05:30"},{"city":"Pondicherry","state":"Puducherry","latitude":11.9139,"longitude":79.8145,"temp":34.2,"humidity":58,"rain":0.0,"pressure":1009.3,"uv_index":9.25,"wind_gusts":30.6,"aqi":32,"pm10":15.1,"pm2_5":10.6,"mosquito_risk":0,"arthritis_risk":0,"migraine_risk":4,"frizz_risk":1,"updated_at":"2026-04-19T11:05:05.809044+05:30"},{"city":"Port Blair","state":"Andaman and Nicobar Islands","latitude":11.6234,"longitude":92.7265,"temp":29.4,"humidity":74,"rain":0.0,"pressure":1008.1,"uv_index":9.15,"wind_gusts":13.0,"aqi":55,"pm10":16.4,"pm2_5":13.3,"mosquito_risk":7,"arthritis_risk":0,"migraine_risk":4,"frizz_risk":1,"updated_at":"2026-04-19T11:05:05.809052+05:30"},{"city":"Haridwar","state":"Uttarakhand","latitude":29.9457,"longitude":78.1642,"temp":34.5,"humidity":34,"rain":0.0,"pressure":974.3,"uv_index":6.3,"wind_gusts":27.4,"aqi":67,"pm10":52.7,"pm2_5":15.6,"mosquito_risk":0,"arthritis_risk":5,"migraine_risk":7,"frizz_risk":1,"updated_at":"2026-04-19T11:05:05.809060+05:30"},{"city":"Rishikesh","state":"Uttarakhand","latitude":30.0869,"longitude":78.2676,"temp":34.4,"humidity":31,"rain":0.0,"pressure":967.2,"uv_index":6.7,"wind_gusts":27.0,"aqi":57,"pm10":60.8,"pm2_5":13.9,"mosquito_risk":0,"arthritis_risk":5,"migraine_risk":7,"frizz_risk":0,"updated_at":"2026-04-19T11:05:05.809067+05:30"},{"city":"Nainital","state":"Uttarakhand","latitude":29.3919,"longitude":79.4542,"temp":29.9,"humidity":31,"rain":0.0,"pressure":811.6,"uv_index":8.1,"wind_gusts":60.5,"aqi":56,"pm10":39.3,"pm2_5":10.5,"mosquito_risk":4,"arthritis_risk":5,"migraine_risk":7,"frizz_risk":0,"updated_at":"2026-04-19T11:05:05.809075+05:30"},{"city":"Mussoorie","state":"Uttarakhand","latitude":30.4599,"longitude":78.0664,"temp":26.9,"humidity":28,"rain":0.0,"pressure":807.8,"uv_index":6.9,"wind_gusts":46.4,"aqi":57,"pm10":52.4,"pm2_5":13.0,"mosquito_risk":4,"arthritis_risk":5,"migraine_risk":7,"frizz_risk":0,"updated_at":"2026-04-19T11:05:05.809082+05:30"},{"city":"Dharamshala","state":"Himachal Pradesh","latitude":32.219,"longitude":76.3234,"temp":25.2,"humidity":39,"rain":0.0,"pressure":871.8,"uv_index":6.3,"wind_gusts":39.2,"aqi":37,"pm10":27.1,"pm2_5":7.2,"mosquito_risk":4,"arthritis_risk":5,"migraine_risk":7,"frizz_risk":0,"updated_at":"2026-04-19T11:05:05.809089+05:30"},{"city":"Dalhousie","state":"Himachal Pradesh","latitude":32.5387,"longitude":75.971,"temp":22.0,"humidity":36,"rain":0.0,"pressure":807.3,"uv_index":6.2,"wind_gusts":34.6,"aqi":58,"pm10":53.3,"pm2_5":12.7,"mosquito_risk":0,"arthritis_risk":5,"migraine_risk":7,"frizz_risk":0,"updated_at":"2026-04-19T11:05:05.809098+05:30"},{"city":"Patiala","state":"Punjab","latitude":30.3398,"longitude":76.3869,"temp":33.2,"humidity":42,"rain":0.0,"pressure":978.4,"uv_index":6.05,"wind_gusts":26.6,"aqi":140,"pm10":207.2,"pm2_5":48.4,"mosquito_risk":0,"arthritis_risk":5,"migraine_risk":7,"frizz_risk":1,"updated_at":"2026-04-19T11:05:05.809105+05:30"},{"city":"Bhatinda","state":"Punjab","latitude":30.211,"longitude":74.9455,"temp":35.5,"humidity":25,"rain":0.0,"pressure":984.4,"uv_index":7.75,"wind_gusts":36.0,"aqi":81,"pm10":51.9,"pm2_5":23.0,"mosquito_risk":0,"arthritis_risk":5,"migraine_risk":10,"frizz_risk":0,"updated_at":"2026-04-19T11:05:05.809111+05:30"},{"city":"Rohtak","state":"Haryana","latitude":28.8955,"longitude":76.6066,"temp":32.4,"humidity":49,"rain":0.0,"pressure":982.0,"uv_index":6.55,"wind_gusts":23.0,"aqi":222,"pm10":444.2,"pm2_5":74.7,"mosquito_risk":0,"arthritis_risk":5,"migraine_risk":7,"frizz_risk":1,"updated_at":"2026-04-19T11:05:05.809117+05:30"},{"city":"Panipat","state":"Haryana","latitude":29.3909,"longitude":76.9635,"temp":34.1,"humidity":42,"rain":0.0,"pressure":980.6,"uv_index":6.05,"wind_gusts":28.8,"aqi":411,"pm10":586.7,"pm2_5":94.3,"mosquito_risk":0,"arthritis_risk":5,"migraine_risk":7,"frizz_risk":1,"updated_at":"2026-04-19T11:05:05.809124+05:30"},{"city":"Mathura","state":"Uttar Pradesh","latitude":27.4924,"longitude":77.6737,"temp":37.8,"humidity":28,"rain":0.0,"pressure":986.6,"uv_index":7.65,"wind_gusts":37.8,"aqi":293,"pm10":385.6,"pm2_5":80.3,"mosquito_risk":0,"arthritis_risk":5,"migraine_risk":10,"frizz_risk":1,"updated_at":"2026-04-19T11:05:05.809131+05:30"},{"city":"Vrindavan","state":"Uttar Pradesh","latitude":27.5823,"longitude":77.7027,"temp":37.5,"humidity":29,"rain":0.0,"pressure":987.1,"uv_index":7.65,"wind_gusts":41.4,"aqi":293,"pm10":385.6,"pm2_5":80.3,"mosquito_risk":0,"arthritis_risk":5,"migraine_risk":10,"frizz_risk":1,"updated_at":"2026-04-19T11:05:05.809138+05:30"},{"city":"Ayodhya","state":"Uttar Pradesh","latitude":26.7922,"longitude":82.1998,"temp":35.9,"humidity":44,"rain":0.0,"pressure":994.7,"uv_index":8.05,"wind_gusts":36.0,"aqi":94,"pm10":66.8,"pm2_5":43.2,"mosquito_risk":0,"arthritis_risk":5,"migraine_risk":10,"frizz_risk":1,"updated_at":"2026-04-19T11:05:05.809145+05:30"},{"city":"Ratlam","state":"Madhya Pradesh","latitude":23.3315,"longitude":75.0367,"temp":33.8,"humidity":34,"rain":0.0,"pressure":955.9,"uv_index":8.45,"wind_gusts":26.6,"aqi":36,"pm10":13.3,"pm2_5":7.1,"mosquito_risk":0,"arthritis_risk":5,"migraine_risk":7,"frizz_risk":0,"updated_at":"2026-04-19T11:05:05.809151+05:30"},{"city":"Sagar","state":"Madhya Pradesh","latitude":23.8388,"longitude":78.7378,"temp":38.1,"humidity":22,"rain":0.0,"pressure":951.4,"uv_index":8.65,"wind_gusts":34.2,"aqi":54,"pm10":62.4,"pm2_5":17.1,"mosquito_risk":0,"arthritis_risk":5,"migraine_risk":10,"frizz_risk":0,"updated_at":"2026-04-19T11:05:05.809157+05:30"},{"city":"Satna","state":"Madhya Pradesh","latitude":24.6005,"longitude":80.8322,"temp":40.2,"humidity":18,"rain":0.0,"pressure":971.7,"uv_index":8.65,"wind_gusts":39.6,"aqi":75,"pm10":234.2,"pm2_5":36.3,"mosquito_risk":0,"arthritis_risk":5,"migraine_risk":10,"frizz_risk":0,"updated_at":"2026-04-19T11:05:05.809164+05:30"},{"city":"Akola","state":"Maharashtra","latitude":20.7002,"longitude":77.0082,"temp":38.6,"humidity":26,"rain":0.0,"pressure":975.5,"uv_index":8.85,"wind_gusts":24.1,"aqi":65,"pm10":15.4,"pm2_5":9.9,"mosquito_risk":0,"arthritis_risk":5,"migraine_risk":10,"frizz_risk":0,"updated_at":"2026-04-19T11:05:05.809171+05:30"},{"city":"Amravati","state":"Maharashtra","latitude":20.9374,"longitude":77.7796,"temp":37.4,"humidity":23,"rain":0.0,"pressure":968.1,"uv_index":8.85,"wind_gusts":16.2,"aqi":67,"pm10":15.5,"pm2_5":9.7,"mosquito_risk":0,"arthritis_risk":5,"migraine_risk":10,"frizz_risk":0,"updated_at":"2026-04-19T11:05:05.809179+05:30"},{"city":"Latur","state":"Maharashtra","latitude":18.4088,"longitude":76.5604,"temp":35.2,"humidity":28,"rain":0.0,"pressure":941.4,"uv_index":8.7,"wind_gusts":17.6,"aqi":108,"pm10":25.9,"pm2_5":21.0,"mosquito_risk":0,"arthritis_risk":5,"migraine_risk":10,"frizz_risk":0,"updated_at":"2026-04-19T11:05:05.809186+05:30"},{"city":"Nanded","state":"Maharashtra","latitude":19.1383,"longitude":77.3091,"temp":36.3,"humidity":30,"rain":0.0,"pressure":969.7,"uv_index":9.0,"wind_gusts":22.7,"aqi":89,"pm10":20.0,"pm2_5":15.8,"mosquito_risk":0,"arthritis_risk":5,"migraine_risk":10,"frizz_risk":0,"updated_at":"2026-04-19T11:05:05.809193+05:30"},{"city":"Gulbarga","state":"Karnataka","latitude":17.3297,"longitude":76.8343,"temp":37.7,"humidity":30,"rain":0.0,"pressure":959.7,"uv_index":9.1,"wind_gusts":40.3,"aqi":98,"pm10":42.1,"pm2_5":36.3,"mosquito_risk":0,"arthritis_risk":5,"migraine_risk":10,"frizz_risk":1,"updated_at":"2026-04-19T11:05:05.809199+05:30"},{"city":"Bidar","state":"Karnataka","latitude":17.9104,"longitude":77.5199,"temp":36.1,"humidity":34,"rain":0.0,"pressure":937.3,"uv_index":9.15,"wind_gusts":34.9,"aqi":104,"pm10":40.5,"pm2_5":34.9,"mosquito_risk":0,"arthritis_risk":5,"migraine_risk":10,"frizz_risk":1,"updated_at":"2026-04-19T11:05:05.809205+05:30"},{"city":"Hospet","state":"Karnataka","latitude":15.2689,"longitude":76.3909,"temp":31.7,"humidity":62,"rain":0.0,"pressure":957.0,"uv_index":9.25,"wind_gusts":25.6,"aqi":93,"pm10":36.1,"pm2_5":30.6,"mosquito_risk":3,"arthritis_risk":5,"migraine_risk":7,"frizz_risk":1,"updated_at":"2026-04-19T11:05:05.809212+05:30"},{"city":"Tirupur","state":"Tamil Nadu","latitude":11.1085,"longitude":77.3411,"temp":34.5,"humidity":48,"rain":0.0,"pressure":976.6,"uv_index":9.4,"wind_gusts":28.8,"aqi":72,"pm10":23.9,"pm2_5":19.5,"mosquito_risk":0,"arthritis_risk":5,"migraine_risk":7,"frizz_risk":1,"updated_at":"2026-04-19T11:05:05.809218+05:30"},{"city":"Alappuzha","state":"Kerala","latitude":9.4981,"longitude":76.3388,"temp":29.2,"humidity":82,"rain":0.0,"pressure":1009.4,"uv_index":9.1,"wind_gusts":23.0,"aqi":85,"pm10":29.1,"pm2_5":22.9,"mosquito_risk":7,"arthritis_risk":0,"migraine_risk":4,"frizz_risk":1,"updated_at":"2026-04-19T11:05:05.809248+05:30"},{"city":"Munnar","state":"Kerala","latitude":10.0889,"longitude":77.0595,"temp":30.0,"humidity":49,"rain":0.0,"pressure":860.6,"uv_index":9.65,"wind_gusts":37.8,"aqi":78,"pm10":22.8,"pm2_5":15.6,"mosquito_risk":4,"arthritis_risk":5,"migraine_risk":7,"frizz_risk":1,"updated_at":"2026-04-19T11:05:05.809257+05:30"},{"city":"Silchar","state":"Assam","latitude":24.8333,"longitude":92.7789,"temp":26.9,"humidity":82,"rain":0.0,"pressure":1006.7,"uv_index":8.8,"wind_gusts":33.8,"aqi":158,"pm10":85.2,"pm2_5":60.3,"mosquito_risk":7,"arthritis_risk":5,"migraine_risk":4,"frizz_risk":1,"updated_at":"2026-04-19T11:05:05.809264+05:30"},{"city":"Dibrugarh","state":"Assam","latitude":27.4728,"longitude":94.912,"temp":28.0,"humidity":74,"rain":0.0,"pressure":996.0,"uv_index":8.65,"wind_gusts":19.4,"aqi":143,"pm10":76.6,"pm2_5":52.4,"mosquito_risk":7,"arthritis_risk":5,"migraine_risk":7,"frizz_risk":1,"updated_at":"2026-04-19T11:05:05.809271+05:30"}]