[{"city":"Delhi","state":"Delhi","latitude":28.6139,"longitude":77.209,"temp":19.5,"humidity":69,"rain":0.0,"pressure":986.8,"uv_index":5.55,"wind_gusts":27.0,"aqi":180,"pm10":198.4,"pm2_5":84.1,"mosquito_risk":3,"arthritis_risk":5,"migraine_risk":3,"frizz_risk":0,"updated_at":"2026-03-18T08:02:37.143985+05:30"},{"city":"Mumbai","state":"Maharashtra","latitude":19.076,"longitude":72.8777,"temp":26.2,"humidity":78,"rain":0.0,"pressure":1010.8,"uv_index":7.75,"wind_gusts":22.0,"aqi":84,"pm10":47.6,"pm2_5":27.9,"mosquito_risk":7,"arthritis_risk":0,"migraine_risk":4,"frizz_risk":1,"updated_at":"2026-03-18T08:02:37.144026+05:30"},{"city":"Bangalore","state":"Karnataka","latitude":12.9716,"longitude":77.5946,"temp":20.9,"humidity":85,"rain":0.0,"pressure":914.1,"uv_index":9.4,"wind_gusts":24.8,"aqi":102,"pm10":34.8,"pm2_5":32.6,"mosquito_risk":3,"arthritis_risk":5,"migraine_risk":7,"frizz_risk":1,"updated_at":"2026-03-18T08:02:37.144042+05:30"},{"city":"Hyderabad","state":"Telangana","latitude":17.385,"longitude":78.4867,"temp":22.5,"humidity":75,"rain":0.0,"pressure":956.6,"uv_index":8.5,"wind_gusts":43.9,"aqi":79,"pm10":12.2,"pm2_5":10.1,"mosquito_risk":3,"arthritis_risk":5,"migraine_risk":7,"frizz_risk":1,"updated_at":"2026-03-18T08:02:37.144052+05:30"},{"city":"Chennai","state":"Tamil Nadu","latitude":13.0827,"longitude":80.2707,"temp":27.0,"humidity":77,"rain":0.0,"pressure":1011.7,"uv_index":9.1,"wind_gusts":30.6,"aqi":38,"pm10":16.9,"pm2_5":13.4,"mosquito_risk":7,"arthritis_risk":0,"migraine_risk":4,"frizz_risk":1,"updated_at":"2026-03-18T08:02:37.144061+05:30"},{"city":"Kolkata","state":"West Bengal","latitude":22.5726,"longitude":88.3639,"temp":26.4,"humidity":83,"rain":0.0,"pressure":1010.7,"uv_index":8.1,"wind_gusts":31.7,"aqi":53,"pm10":15.6,"pm2_5":12.3,"mosquito_risk":7,"arthritis_risk":0,"migraine_risk":4,"frizz_risk":1,"updated_at":"2026-03-18T08:02:37.144070+05:30"},{"city":"Pune","state":"Maharashtra","latitude":18.5204,"longitude":73.8567,"temp":21.0,"humidity":72,"rain":0.0,"pressure":950.0,"uv_index":8.3,"wind_gusts":40.7,"aqi":97,"pm10":89.2,"pm2_5":68.0,"mosquito_risk":3,"arthritis_risk":5,"migraine_risk":7,"frizz_risk":0,"updated_at":"2026-03-18T08:02:37.144081+05:30"},{"city":"Ahmedabad","state":"Gujarat","latitude":23.0225,"longitude":72.5714,"temp":23.0,"humidity":74,"rain":0.0,"pressure":1004.7,"uv_index":7.15,"wind_gusts":15.8,"aqi":73,"pm10":33.1,"pm2_5":20.5,"mosquito_risk":3,"arthritis_risk":5,"migraine_risk":4,"frizz_risk":1,"updated_at":"2026-03-18T08:02:37.144089+05:30"},{"city":"Jaipur","state":"Rajasthan","latitude":26.9124,"longitude":75.7873,"temp":22.9,"humidity":51,"rain":0.0,"pressure":962.5,"uv_index":7.0,"wind_gusts":25.6,"aqi":177,"pm10":395.8,"pm2_5":68.7,"mosquito_risk":0,"arthritis_risk":5,"migraine_risk":7,"frizz_risk":0,"updated_at":"2026-03-18T08:02:37.144097+05:30"},{"city":"Lucknow","state":"Uttar Pradesh","latitude":26.8467,"longitude":80.9462,"temp":22.6,"humidity":61,"rain":0.0,"pressure":997.2,"uv_index":6.7,"wind_gusts":27.0,"aqi":91,"pm10":89.2,"pm2_5":58.9,"mosquito_risk":3,"arthritis_risk":5,"migraine_risk":7,"frizz_risk":0,"updated_at":"2026-03-18T08:02:37.144104+05:30"},{"city":"Kanpur","state":"Uttar Pradesh","latitude":26.4499,"longitude":80.3319,"temp":22.2,"humidity":67,"rain":0.0,"pressure":995.6,"uv_index":6.4,"wind_gusts":22.3,"aqi":105,"pm10":69.2,"pm2_5":42.7,"mosquito_risk":3,"arthritis_risk":5,"migraine_risk":7,"frizz_risk":0,"updated_at":"2026-03-18T08:02:37.144111+05:30"},{"city":"Chandigarh","state":"Chandigarh","latitude":30.7333,"longitude":76.7794,"temp":15.2,"humidity":84,"rain":0.0,"pressure":972.0,"uv_index":5.85,"wind_gusts":27.0,"aqi":92,"pm10":41.9,"pm2_5":25.6,"mosquito_risk":3,"arthritis_risk":10,"migraine_risk":3,"frizz_risk":0,"updated_at":"2026-03-18T08:02:37.144118+05:30"},{"city":"Srinagar","state":"Jammu and Kashmir","latitude":34.0837,"longitude":74.7973,"temp":5.6,"humidity":89,"rain":0.0,"pressure":842.2,"uv_index":3.1,"wind_gusts":22.0,"aqi":127,"pm10":84.3,"pm2_5":64.0,"mosquito_risk":3,"arthritis_risk":10,"migraine_risk":3,"frizz_risk":0,"updated_at":"2026-03-18T08:02:37.144126+05:30"},{"city":"Jammu","state":"Jammu and Kashmir","latitude":32.7266,"longitude":74.857,"temp":17.9,"humidity":60,"rain":0.0,"pressure":975.8,"uv_index":2.55,"wind_gusts":20.9,"aqi":92,"pm10":37.5,"pm2_5":23.9,"mosquito_risk":0,"arthritis_risk":5,"migraine_risk":3,"frizz_risk":0,"updated_at":"2026-03-18T08:02:37.144132+05:30"},{"city":"Amritsar","state":"Punjab","latitude":31.634,"longitude":74.8723,"temp":16.0,"humidity":74,"rain":0.0,"pressure":985.3,"uv_index":2.85,"wind_gusts":22.0,"aqi":119,"pm10":38.3,"pm2_5":35.4,"mosquito_risk":3,"arthritis_risk":5,"migraine_risk":3,"frizz_risk":0,"updated_at":"2026-03-18T08:02:37.144139+05:30"},{"city":"Ludhiana","state":"Punjab","latitude":30.901,"longitude":75.8573,"temp":16.3,"humidity":79,"rain":0.0,"pressure":982.5,"uv_index":5.75,"wind_gusts":29.5,"aqi":127,"pm10":65.2,"pm2_5":42.8,"mosquito_risk":3,"arthritis_risk":5,"migraine_risk":3,"frizz_risk":0,"updated_at":"2026-03-18T08:02:37.144145+05:30"},{"city":"Jalandhar","state":"Punjab","latitude":31.326,"longitude":75.5762,"temp":15.6,"humidity":83,"rain":0.0,"pressure":984.0,"uv_index":4.35,"wind_gusts":24.8,"aqi":117,"pm10":95.5,"pm2_5":56.1,"mosquito_risk":3,"arthritis_risk":10,"migraine_risk":3,"frizz_risk":0,"updated_at":"2026-03-18T08:02:37.144155+05:30"},{"city":"Dehradun","state":"Uttarakhand","latitude":30.6284,"longitude":78.0322,"temp":11.0,"humidity":50,"rain":0.0,"pressure":830.0,"uv_index":5.35,"wind_gusts":26.3,"aqi":52,"pm10":10.0,"pm2_5":4.4,"mosquito_risk":0,"arthritis_risk":5,"migraine_risk":3,"frizz_risk":0,"updated_at":"2026-03-18T08:02:37.144161+05:30"},{"city":"Shimla","state":"Himachal Pradesh","latitude":31.1048,"longitude":77.1734,"temp":10.3,"humidity":48,"rain":0.0,"pressure":783.8,"uv_index":5.4,"wind_gusts":37.4,"aqi":63,"pm10":28.7,"pm2_5":13.8,"mosquito_risk":0,"arthritis_risk":5,"migraine_risk":3,"frizz_risk":1,"updated_at":"2026-03-18T08:02:37.144168+05:30"},{"city":"Manali","state":"Himachal Pradesh","latitude":32.2396,"longitude":77.1887,"temp":9.6,"humidity":76,"rain":0.0,"pressure":818.9,"uv_index":6.4,"wind_gusts":23.8,"aqi":41,"pm10":31.3,"pm2_5":13.1,"mosquito_risk":3,"arthritis_risk":5,"migraine_risk":7,"frizz_risk":0,"updated_at":"2026-03-18T08:02:37.144178+05:30"},{"city":"Gurgaon","state":"Haryana","latitude":28.4595,"longitude":77.0266,"temp":17.8,"humidity":79,"rain":0.0,"pressure":985.0,"uv_index":5.65,"wind_gusts":23.8,"aqi":561,"pm10":270.1,"pm2_5":99.0,"mosquito_risk":3,"arthritis_risk":5,"migraine_risk":3,"frizz_risk":0,"updated_at":"2026-03-18T08:02:37.144186+05:30"},{"city":"Noida","state":"Uttar Pradesh","latitude":28.5355,"longitude":77.391,"temp":19.8,"humidity":69,"rain":0.0,"pressure":988.2,"uv_index":5.5,"wind_gusts":23.8,"aqi":561,"pm10":270.1,"pm2_5":99.0,"mosquito_risk":3,"arthritis_risk":5,"migraine_risk":3,"frizz_risk":0,"updated_at":"2026-03-18T08:02:37.144193+05:30"},{"city":"Ghaziabad","state":"Uttar Pradesh","latitude":28.6692,"longitude":77.4538,"temp":17.9,"humidity":75,"rain":0.0,"pressure":986.4,"uv_index":5.15,"wind_gusts":22.7,"aqi":151,"pm10":164.4,"pm2_5":71.0,"mosquito_risk":3,"arthritis_risk":5,"migraine_risk":3,"frizz_risk":0,"updated_at":"2026-03-18T08:02:37.144200+05:30"},{"city":"Faridabad","state":"Haryana","latitude":28.4089,"longitude":77.3178,"temp":19.3,"humidity":77,"rain":0.0,"pressure":987.3,"uv_index":5.75,"wind_gusts":21.2,"aqi":561,"pm10":270.1,"pm2_5":99.0,"mosquito_risk":3,"arthritis_risk":5,"migraine_risk":3,"frizz_risk":0,"updated_at":"2026-03-18T08:02:37.144207+05:30"},{"city":"Meerut","state":"Uttar Pradesh","latitude":28.9845,"longitude":77.7064,"temp":17.0,"humidity":78,"rain":0.0,"pressure":985.1,"uv_index":5.9,"wind_gusts":20.5,"aqi":151,"pm10":164.4,"pm2_5":71.0,"mosquito_risk":3,"arthritis_risk":5,"migraine_risk":3,"frizz_risk":0,"updated_at":"2026-03-18T08:02:37.144214+05:30"},{"city":"Agra","state":"Uttar Pradesh","latitude":27.1767,"longitude":78.0081,"temp":21.8,"humidity":67,"rain":0.0,"pressure":991.3,"uv_index":6.6,"wind_gusts":23.4,"aqi":403,"pm10":289.6,"pm2_5":74.7,"mosquito_risk":3,"arthritis_risk":5,"migraine_risk":7,"frizz_risk":0,"updated_at":"2026-03-18T08:02:37.144221+05:30"},{"city":"Varanasi","state":"Uttar Pradesh","latitude":25.3176,"longitude":82.9739,"temp":23.4,"humidity":71,"rain":0.0,"pressure":1000.8,"uv_index":6.8,"wind_gusts":24.1,"aqi":102,"pm10":50.2,"pm2_5":39.2,"mosquito_risk":3,"arthritis_risk":5,"migraine_risk":4,"frizz_risk":1,"updated_at":"2026-03-18T08:02:37.144230+05:30"},{"city":"Prayagraj","state":"Uttar Pradesh","latitude":25.4358,"longitude":81.8463,"temp":22.7,"humidity":72,"rain":0.0,"pressure":999.4,"uv_index":7.05,"wind_gusts":26.3,"aqi":108,"pm10":75.4,"pm2_5":57.9,"mosquito_risk":3,"arthritis_risk":5,"migraine_risk":7,"frizz_risk":1,"updated_at":"2026-03-18T08:02:37.144238+05:30"},{"city":"Gorakhpur","state":"Uttar Pradesh","latitude":26.7606,"longitude":83.3732,"temp":21.6,"humidity":69,"rain":0.0,"pressure":1001.1,"uv_index":7.0,"wind_gusts":22.3,"aqi":107,"pm10":101.0,"pm2_5":68.0,"mosquito_risk":3,"arthritis_risk":5,"migraine_risk":4,"frizz_risk":0,"updated_at":"2026-03-18T08:02:37.144245+05:30"},{"city":"Bareilly","state":"Uttar Pradesh","latitude":28.367,"longitude":79.4304,"temp":17.9,"humidity":79,"rain":0.0,"pressure":990.5,"uv_index":6.15,"wind_gusts":23.8,"aqi":104,"pm10":98.7,"pm2_5":68.5,"mosquito_risk":3,"arthritis_risk":5,"migraine_risk":7,"frizz_risk":0,"updated_at":"2026-03-18T08:02:37.144251+05:30"},{"city":"Aligarh","state":"Uttar Pradesh","latitude":27.8974,"longitude":78.088,"temp":20.6,"humidity":69,"rain":0.0,"pressure":989.3,"uv_index":6.25,"wind_gusts":20.9,"aqi":153,"pm10":196.5,"pm2_5":78.7,"mosquito_risk":3,"arthritis_risk":5,"migraine_risk":7,"frizz_risk":0,"updated_at":"2026-03-18T08:02:37.144260+05:30"},{"city":"Moradabad","state":"Uttar Pradesh","latitude":28.8386,"longitude":78.7733,"temp":17.7,"humidity":77,"rain":0.0,"pressure":987.2,"uv_index":5.6,"wind_gusts":21.6,"aqi":144,"pm10":83.1,"pm2_5":75.4,"mosquito_risk":3,"arthritis_risk":5,"migraine_risk":3,"frizz_risk":0,"updated_at":"2026-03-18T08:02:37.144267+05:30"},{"city":"Saharanpur","state":"Uttar Pradesh","latitude":29.9637,"longitude":77.546,"temp":16.3,"humidity":67,"rain":0.0,"pressure":979.1,"uv_index":5.5,"wind_gusts":39.2,"aqi":111,"pm10":87.5,"pm2_5":63.6,"mosquito_risk":3,"arthritis_risk":5,"migraine_risk":3,"frizz_risk":0,"updated_at":"2026-03-18T08:02:37.144273+05:30"},{"city":"Jhansi","state":"Uttar Pradesh","latitude":25.4484,"longitude":78.5685,"temp":21.7,"humidity":65,"rain":0.0,"pressure":981.2,"uv_index":7.2,"wind_gusts":32.0,"aqi":68,"pm10":120.1,"pm2_5":37.1,"mosquito_risk":3,"arthritis_risk":5,"migraine_risk":7,"frizz_risk":0,"updated_at":"2026-03-18T08:02:40.363405+05:30"},{"city":"Surat","state":"Gujarat","latitude":21.1702,"longitude":72.8311,"temp":24.6,"humidity":88,"rain":0.0,"pressure":1009.3,"uv_index":7.45,"wind_gusts":24.5,"aqi":84,"pm10":44.4,"pm2_5":34.2,"mosquito_risk":3,"arthritis_risk":0,"migraine_risk":4,"frizz_risk":1,"updated_at":"2026-03-18T08:02:40.363438+05:30"},{"city":"Vadodara","state":"Gujarat","latitude":22.3072,"longitude":73.1812,"temp":23.0,"humidity":88,"rain":0.0,"pressure":1007.0,"uv_index":7.6,"wind_gusts":24.1,"aqi":69,"pm10":33.5,"pm2_5":25.0,"mosquito_risk":3,"arthritis_risk":5,"migraine_risk":4,"frizz_risk":1,"updated_at":"2026-03-18T08:02:40.363455+05:30"},{"city":"Rajkot","state":"Gujarat","latitude":22.3039,"longitude":70.8022,"temp":23.4,"humidity":88,"rain":0.0,"pressure":996.4,"uv_index":7.4,"wind_gusts":40.3,"aqi":49,"pm10":20.7,"pm2_5":12.2,"mosquito_risk":3,"arthritis_risk":5,"migraine_risk":7,"frizz_risk":1,"updated_at":"2026-03-18T08:02:40.363464+05:30"},{"city":"Thane","state":"Maharashtra","latitude":19.2183,"longitude":72.9781,"temp":22.8,"humidity":94,"rain":0.0,"pressure":1010.4,"uv_index":7.7,"wind_gusts":33.8,"aqi":84,"pm10":47.6,"pm2_5":27.9,"mosquito_risk":3,"arthritis_risk":0,"migraine_risk":4,"frizz_risk":1,"updated_at":"2026-03-18T08:02:40.363472+05:30"},{"city":"Nagpur","state":"Maharashtra","latitude":21.1458,"longitude":79.0882,"temp":23.7,"humidity":74,"rain":0.0,"pressure":977.2,"uv_index":5.85,"wind_gusts":36.7,"aqi":85,"pm10":36.6,"pm2_5":34.0,"mosquito_risk":3,"arthritis_risk":5,"migraine_risk":3,"frizz_risk":1,"updated_at":"2026-03-18T08:02:40.363480+05:30"},{"city":"Nashik","state":"Maharashtra","latitude":19.9975,"longitude":73.7898,"temp":20.5,"humidity":75,"rain":0.0,"pressure":947.2,"uv_index":7.95,"wind_gusts":31.7,"aqi":66,"pm10":44.8,"pm2_5":27.6,"mosquito_risk":3,"arthritis_risk":5,"migraine_risk":7,"frizz_risk":0,"updated_at":"2026-03-18T08:02:40.363488+05:30"},{"city":"Aurangabad","state":"Maharashtra","latitude":19.8762,"longitude":75.3433,"temp":22.2,"humidity":59,"rain":0.0,"pressure":946.2,"uv_index":8.5,"wind_gusts":26.3,"aqi":62,"pm10":38.4,"pm2_5":30.3,"mosquito_risk":0,"arthritis_risk":5,"migraine_risk":7,"frizz_risk":0,"updated_at":"2026-03-18T08:02:40.363497+05:30"},{"city":"Solapur","state":"Maharashtra","latitude":17.6599,"longitude":75.9064,"temp":23.1,"humidity":71,"rain":0.0,"pressure":959.8,"uv_index":8.6,"wind_gusts":42.1,"aqi":109,"pm10":42.7,"pm2_5":39.5,"mosquito_risk":3,"arthritis_risk":5,"migraine_risk":7,"frizz_risk":1,"updated_at":"2026-03-18T08:02:40.363505+05:30"},{"city":"Kolhapur","state":"Maharashtra","latitude":16.705,"longitude":74.2433,"temp":20.1,"humidity":76,"rain":0.0,"pressure":949.6,"uv_index":5.6,"wind_gusts":46.4,"aqi":103,"pm10":103.8,"pm2_5":82.7,"mosquito_risk":3,"arthritis_risk":5,"migraine_risk":3,"frizz_risk":0,"updated_at":"2026-03-18T08:02:40.363513+05:30"},{"city":"Goa","state":"Goa","latitude":15.2993,"longitude":74.124,"temp":25.5,"humidity":78,"rain":0.0,"pressure":1000.4,"uv_index":8.7,"wind_gusts":23.4,"aqi":80,"pm10":74.3,"pm2_5":39.1,"mosquito_risk":7,"arthritis_risk":5,"migraine_risk":4,"frizz_risk":1,"updated_at":"2026-03-18T08:02:40.363521+05:30"},{"city":"Jodhpur","state":"Rajasthan","latitude":26.2389,"longitude":73.0243,"temp":22.3,"humidity":45,"rain":0.0,"pressure":984.9,"uv_index":6.25,"wind_gusts":39.6,"aqi":89,"pm10":44.9,"pm2_5":19.6,"mosquito_risk":0,"arthritis_risk":5,"migraine_risk":7,"frizz_risk":0,"updated_at":"2026-03-18T08:02:40.363529+05:30"},{"city":"Udaipur","state":"Rajasthan","latitude":24.5854,"longitude":73.7125,"temp":21.2,"humidity":46,"rain":0.0,"pressure":948.2,"uv_index":7.95,"wind_gusts":27.0,"aqi":34,"pm10":9.7,"pm2_5":7.2,"mosquito_risk":0,"arthritis_risk":5,"migraine_risk":7,"frizz_risk":0,"updated_at":"2026-03-18T08:02:40.363536+05:30"},{"city":"Kota","state":"Rajasthan","latitude":25.2138,"longitude":75.8648,"temp":20.7,"humidity":71,"rain":0.0,"pressure":981.2,"uv_index":7.35,"wind_gusts":16.6,"aqi":83,"pm10":122.9,"pm2_5":46.3,"mosquito_risk":3,"arthritis_risk":5,"migraine_risk":7,"frizz_risk":0,"updated_at":"2026-03-18T08:02:40.363544+05:30"},{"city":"Bikaner","state":"Rajasthan","latitude":28.0229,"longitude":73.3119,"temp":20.4,"humidity":58,"rain":0.0,"pressure":984.8,"uv_index":6.25,"wind_gusts":33.1,"aqi":70,"pm10":171.8,"pm2_5":33.9,"mosquito_risk":0,"arthritis_risk":5,"migraine_risk":7,"frizz_risk":0,"updated_at":"2026-03-18T08:02:40.363552+05:30"},{"city":"Ajmer","state":"Rajasthan","latitude":26.4499,"longitude":74.6399,"temp":23.4,"humidity":49,"rain":0.0,"pressure":956.8,"uv_index":7.25,"wind_gusts":26.3,"aqi":100,"pm10":245.9,"pm2_5":50.5,"mosquito_risk":0,"arthritis_risk":5,"migraine_risk":7,"frizz_risk":0,"updated_at":"2026-03-18T08:02:40.363559+05:30"},{"city":"Gwalior","state":"Madhya Pradesh","latitude":26.2183,"longitude":78.1828,"temp":22.1,"humidity":75,"rain":0.0,"pressure":986.8,"uv_index":6.9,"wind_gusts":24.5,"aqi":131,"pm10":321.3,"pm2_5":81.0,"mosquito_risk":3,"arthritis_risk":5,"migraine_risk":7,"frizz_risk":1,"updated_at":"2026-03-18T08:02:40.363566+05:30"},{"city":"Indore","state":"Madhya Pradesh","latitude":22.7196,"longitude":75.8577,"temp":22.5,"humidity":46,"rain":0.0,"pressure":949.8,"uv_index":7.85,"wind_gusts":21.2,"aqi":56,"pm10":20.7,"pm2_5":20.7,"mosquito_risk":0,"arthritis_risk":5,"migraine_risk":7,"frizz_risk":0,"updated_at":"2026-03-18T08:02:40.363574+05:30"},{"city":"Bhopal","state":"Madhya Pradesh","latitude":23.2599,"longitude":77.4126,"temp":23.1,"humidity":44,"rain":0.0,"pressure":956.0,"uv_index":7.75,"wind_gusts":31.0,"aqi":58,"pm10":20.1,"pm2_5":18.8,"mosquito_risk":0,"arthritis_risk":5,"migraine_risk":7,"frizz_risk":0,"updated_at":"2026-03-18T08:02:40.363581+05:30"},{"city":"Jabalpur","state":"Madhya Pradesh","latitude":23.1815,"longitude":79.9864,"temp":24.0,"humidity":66,"rain":0.0,"pressure":964.6,"uv_index":7.3,"wind_gusts":29.5,"aqi":56,"pm10":31.2,"pm2_5":28.8,"mosquito_risk":3,"arthritis_risk":5,"migraine_risk":7,"frizz_risk":1,"updated_at":"2026-03-18T08:02:40.363589+05:30"},{"city":"Ujjain","state":"Madhya Pradesh","latitude":23.1765,"longitude":75.7885,"temp":21.5,"humidity":55,"rain":0.0,"pressure":955.6,"uv_index":7.75,"wind_gusts":19.8,"aqi":55,"pm10":22.3,"pm2_5":22.3,"mosquito_risk":0,"arthritis_risk":5,"migraine_risk":7,"frizz_risk":0,"updated_at":"2026-03-18T08:02:40.363597+05:30"},{"city":"Visakhapatnam","state":"Andhra Pradesh","latitude":17.6868,"longitude":83.2185,"temp":25.9,"humidity":80,"rain":0.0,"pressure":1008.9,"uv_index":8.3,"wind_gusts":34.9,"aqi":50,"pm10":20.6,"pm2_5":19.6,"mosquito_risk":7,"arthritis_risk":0,"migraine_risk":4,"frizz_risk":1,"updated_at":"2026-03-18T08:02:40.363606+05:30"},{"city":"Vijayawada","state":"Andhra Pradesh","latitude":16.5062,"longitude":80.648,"temp":25.2,"humidity":87,"rain":0.0,"pressure":1007.6,"uv_index":8.4,"wind_gusts":24.1,"aqi":51,"pm10":22.4,"pm2_5":20.7,"mosquito_risk":7,"arthritis_risk":5,"migraine_risk":4,"frizz_risk":1,"updated_at":"2026-03-18T08:02:40.363614+05:30"},{"city":"Guntur","state":"Andhra Pradesh","latitude":16.3067,"longitude":80.4365,"temp":25.8,"humidity":86,"rain":0.0,"pressure":1008.7,"uv_index":8.3,"wind_gusts":30.6,"aqi":45,"pm10":19.2,"pm2_5":17.5,"mosquito_risk":7,"arthritis_risk":0,"migraine_risk":4,"frizz_risk":1,"updated_at":"2026-03-18T08:02:40.363621+05:30"},{"city":"Nellore","state":"Andhra Pradesh","latitude":14.4426,"longitude":79.9865,"temp":26.8,"humidity":81,"rain":0.0,"pressure":1010.4,"uv_index":8.95,"wind_gusts":32.0,"aqi":38,"pm10":12.4,"pm2_5":9.6,"mosquito_risk":7,"arthritis_risk":0,"migraine_risk":4,"frizz_risk":1,"updated_at":"2026-03-18T08:02:40.363628+05:30"},{"city":"Kurnool","state":"Andhra Pradesh","latitude":15.8281,"longitude":78.0373,"temp":22.9,"humidity":81,"rain":0.0,"pressure":981.8,"uv_index":8.65,"wind_gusts":41.8,"aqi":72,"pm10":9.5,"pm2_5":7.6,"mosquito_risk":3,"arthritis_risk":5,"migraine_risk":7,"frizz_risk":1,"updated_at":"2026-03-18T08:02:40.363636+05:30"},{"city":"Kakinada","state":"Andhra Pradesh","latitude":16.9891,"longitude":82.2475,"temp":25.2,"humidity":88,"rain":0.0,"pressure":1012.6,"uv_index":8.55,"wind_gusts":30.2,"aqi":30,"pm10":14.7,"pm2_5":13.0,"mosquito_risk":7,"arthritis_risk":0,"migraine_risk":4,"frizz_risk":1,"updated_at":"2026-03-18T08:02:40.363642+05:30"},{"city":"Tirupati","state":"Andhra Pradesh","latitude":13.6288,"longitude":79.4192,"temp":24.8,"humidity":82,"rain":0.0,"pressure":996.2,"uv_index":9.0,"wind_gusts":31.3,"aqi":62,"pm10":32.6,"pm2_5":29.2,"mosquito_risk":3,"arthritis_risk":5,"migraine_risk":7,"frizz_risk":1,"updated_at":"2026-03-18T08:02:40.363648+05:30"},{"city":"Warangal","state":"Telangana","latitude":17.9689,"longitude":79.5941,"temp":24.3,"humidity":85,"rain":0.0,"pressure":983.0,"uv_index":7.85,"wind_gusts":32.4,"aqi":55,"pm10":13.3,"pm2_5":12.1,"mosquito_risk":3,"arthritis_risk":5,"migraine_risk":7,"frizz_risk":1,"updated_at":"2026-03-18T08:02:40.363654+05:30"},{"city":"Nizamabad","state":"Telangana","latitude":18.6725,"longitude":78.0941,"temp":24.5,"humidity":71,"rain":0.0,"pressure":968.5,"uv_index":8.1,"wind_gusts":38.9,"aqi":119,"pm10":28.8,"pm2_5":27.2,"mosquito_risk":3,"arthritis_risk":5,"migraine_risk":7,"frizz_risk":1,"updated_at":"2026-03-18T08:02:40.363660+05:30"},{"city":"Mysore","state":"Karnataka","latitude":12.2958,"longitude":76.6396,"temp":20.5,"humidity":85,"rain":0.0,"pressure":930.6,"uv_index":9.3,"wind_gusts":20.5,"aqi":102,"pm10":51.7,"pm2_5":49.8,"mosquito_risk":3,"arthritis_risk":5,"migraine_risk":7,"frizz_risk":1,"updated_at":"2026-03-18T08:02:40.363667+05:30"},{"city":"Mangalore","state":"Karnataka","latitude":12.9141,"longitude":74.856,"temp":27.5,"humidity":79,"rain":0.0,"pressure":1009.0,"uv_index":9.0,"wind_gusts":18.0,"aqi":72,"pm10":31.5,"pm2_5":26.0,"mosquito_risk":7,"arthritis_risk":0,"migraine_risk":4,"frizz_risk":1,"updated_at":"2026-03-18T08:02:40.363673+05:30"},{"city":"Hubli-Dharwad","state":"Karnataka","latitude":15.3647,"longitude":75.124,"temp":21.8,"humidity":89,"rain":0.0,"pressure":943.0,"uv_index":8.95,"wind_gusts":32.0,"aqi":96,"pm10":66.6,"pm2_5":61.7,"mosquito_risk":3,"arthritis_risk":5,"migraine_risk":7,"frizz_risk":1,"updated_at":"2026-03-18T08:02:40.363680+05:30"},{"city":"Belgaum","state":"Karnataka","latitude":15.8497,"longitude":74.4977,"temp":20.9,"humidity":92,"rain":0.0,"pressure":927.2,"uv_index":9.0,"wind_gusts":36.4,"aqi":83,"pm10":73.6,"pm2_5":46.3,"mosquito_risk":3,"arthritis_risk":5,"migraine_risk":7,"frizz_risk":1,"updated_at":"2026-03-18T08:02:43.582041+05:30"},{"city":"Coimbatore","state":"Tamil Nadu","latitude":11.0168,"longitude":76.9558,"temp":23.3,"humidity":80,"rain":0.0,"pressure":964.9,"uv_index":8.95,"wind_gusts":28.1,"aqi":94,"pm10":40.7,"pm2_5":38.3,"mosquito_risk":3,"arthritis_risk":5,"migraine_risk":7,"frizz_risk":1,"updated_at":"2026-03-18T08:02:43.582069+05:30"},{"city":"Madurai","state":"Tamil Nadu","latitude":9.9252,"longitude":78.1198,"temp":25.2,"humidity":85,"rain":0.0,"pressure":996.6,"uv_index":8.25,"wind_gusts":25.6,"aqi":64,"pm10":32.8,"pm2_5":31.3,"mosquito_risk":7,"arthritis_risk":5,"migraine_risk":7,"frizz_risk":1,"updated_at":"2026-03-18T08:02:43.582079+05:30"},{"city":"Trichy","state":"Tamil Nadu","latitude":10.7905,"longitude":78.7047,"temp":26.0,"humidity":86,"rain":0.0,"pressure":1003.6,"uv_index":9.1,"wind_gusts":24.8,"aqi":55,"pm10":21.0,"pm2_5":17.2,"mosquito_risk":7,"arthritis_risk":5,"migraine_risk":4,"frizz_risk":1,"updated_at":"2026-03-18T08:02:43.582087+05:30"},{"city":"Salem","state":"Tamil Nadu","latitude":11.6643,"longitude":78.146,"temp":25.1,"humidity":80,"rain":0.0,"pressure":981.1,"uv_index":9.2,"wind_gusts":21.6,"aqi":78,"pm10":28.1,"pm2_5":24.3,"mosquito_risk":7,"arthritis_risk":5,"migraine_risk":7,"frizz_risk":1,"updated_at":"2026-03-18T08:02:43.582094+05:30"},{"city":"Tirunelveli","state":"Tamil Nadu","latitude":8.7139,"longitude":77.7567,"temp":25.1,"humidity":86,"rain":0.0,"pressure":1006.8,"uv_index":7.85,"wind_gusts":27.0,"aqi":69,"pm10":33.5,"pm2_5":32.5,"mosquito_risk":7,"arthritis_risk":5,"migraine_risk":4,"frizz_risk":1,"updated_at":"2026-03-18T08:02:43.582102+05:30"},{"city":"Vellore","state":"Tamil Nadu","latitude":12.9165,"longitude":79.1325,"temp":24.4,"humidity":82,"rain":0.0,"pressure":989.0,"uv_index":9.15,"wind_gusts":33.5,"aqi":66,"pm10":30.7,"pm2_5":27.2,"mosquito_risk":3,"arthritis_risk":5,"migraine_risk":7,"frizz_risk":1,"updated_at":"2026-03-18T08:02:43.582109+05:30"},{"city":"Erode","state":"Tamil Nadu","latitude":11.341,"longitude":77.7172,"temp":24.6,"humidity":80,"rain":0.0,"pressure":993.0,"uv_index":9.2,"wind_gusts":23.0,"aqi":61,"pm10":15.5,"pm2_5":13.0,"mosquito_risk":3,"arthritis_risk":5,"migraine_risk":7,"frizz_risk":1,"updated_at":"2026-03-18T08:02:43.582115+05:30"},{"city":"Kochi","state":"Kerala","latitude":9.9312,"longitude":76.2673,"temp":26.1,"humidity":81,"rain":0.0,"pressure":1011.3,"uv_index":9.1,"wind_gusts":25.6,"aqi":92,"pm10":39.5,"pm2_5":38.8,"mosquito_risk":7,"arthritis_risk":0,"migraine_risk":4,"frizz_risk":1,"updated_at":"2026-03-18T08:02:43.582122+05:30"},{"city":"Thiruvananthapuram","state":"Kerala","latitude":8.5241,"longitude":76.9366,"temp":27.2,"humidity":79,"rain":0.0,"pressure":1010.4,"uv_index":8.05,"wind_gusts":14.8,"aqi":57,"pm10":16.5,"pm2_5":15.5,"mosquito_risk":7,"arthritis_risk":0,"migraine_risk":4,"frizz_risk":1,"updated_at":"2026-03-18T08:02:43.582129+05:30"},{"city":"Kozhikode","state":"Kerala","latitude":11.2588,"longitude":75.7804,"temp":26.1,"humidity":84,"rain":0.0,"pressure":1010.7,"uv_index":8.3,"wind_gusts":27.4,"aqi":88,"pm10":28.7,"pm2_5":26.7,"mosquito_risk":7,"arthritis_risk":0,"migraine_risk":4,"frizz_risk":1,"updated_at":"2026-03-18T08:02:43.582136+05:30"},{"city":"Thrissur","state":"Kerala","latitude":10.5276,"longitude":76.2144,"temp":24.9,"humidity":81,"rain":0.0,"pressure":1010.0,"uv_index":8.05,"wind_gusts":31.7,"aqi":85,"pm10":32.4,"pm2_5":31.7,"mosquito_risk":3,"arthritis_risk":0,"migraine_risk":4,"frizz_risk":1,"updated_at":"2026-03-18T08:02:43.582143+05:30"},{"city":"Kannur","state":"Kerala","latitude":11.8745,"longitude":75.3704,"temp":25.7,"humidity":84,"rain":0.0,"pressure":1009.9,"uv_index":9.05,"wind_gusts":28.1,"aqi":97,"pm10":33.6,"pm2_5":30.9,"mosquito_risk":7,"arthritis_risk":0,"migraine_risk":4,"frizz_risk":1,"updated_at":"2026-03-18T08:02:43.582150+05:30"},{"city":"Patna","state":"Bihar","latitude":25.5941,"longitude":85.1376,"temp":25.2,"humidity":69,"rain":0.0,"pressure":1004.4,"uv_index":7.4,"wind_gusts":20.2,"aqi":141,"pm10":90.8,"pm2_5":73.6,"mosquito_risk":7,"arthritis_risk":5,"migraine_risk":4,"frizz_risk":1,"updated_at":"2026-03-18T08:02:43.582157+05:30"},{"city":"Gaya","state":"Bihar","latitude":24.7914,"longitude":85.0002,"temp":24.8,"humidity":59,"rain":0.0,"pressure":997.7,"uv_index":6.3,"wind_gusts":26.6,"aqi":90,"pm10":42.0,"pm2_5":34.7,"mosquito_risk":0,"arthritis_risk":5,"migraine_risk":7,"frizz_risk":1,"updated_at":"2026-03-18T08:02:43.582163+05:30"},{"city":"Muzaffarpur","state":"Bihar","latitude":26.1209,"longitude":85.3647,"temp":22.9,"humidity":77,"rain":0.0,"pressure":1004.7,"uv_index":7.2,"wind_gusts":20.2,"aqi":151,"pm10":100.4,"pm2_5":81.5,"mosquito_risk":3,"arthritis_risk":5,"migraine_risk":4,"frizz_risk":1,"updated_at":"2026-03-18T08:02:43.582169+05:30"},{"city":"Bhagalpur","state":"Bihar","latitude":25.2425,"longitude":87.0117,"temp":25.2,"humidity":77,"rain":0.0,"pressure":1004.9,"uv_index":7.55,"wind_gusts":22.7,"aqi":150,"pm10":75.9,"pm2_5":64.3,"mosquito_risk":7,"arthritis_risk":5,"migraine_risk":4,"frizz_risk":1,"updated_at":"2026-03-18T08:02:43.582176+05:30"},{"city":"Ranchi","state":"Jharkhand","latitude":23.3441,"longitude":85.3096,"temp":23.3,"humidity":67,"rain":0.0,"pressure":941.5,"uv_index":7.85,"wind_gusts":36.4,"aqi":112,"pm10":48.1,"pm2_5":40.2,"mosquito_risk":3,"arthritis_risk":5,"migraine_risk":7,"frizz_risk":1,"updated_at":"2026-03-18T08:02:43.582182+05:30"},{"city":"Jamshedpur","state":"Jharkhand","latitude":22.8046,"longitude":86.2029,"temp":25.7,"humidity":73,"rain":0.0,"pressure":995.7,"uv_index":8.2,"wind_gusts":31.7,"aqi":140,"pm10":57.2,"pm2_5":51.5,"mosquito_risk":7,"arthritis_risk":5,"migraine_risk":7,"frizz_risk":1,"updated_at":"2026-03-18T08:02:43.582189+05:30"},{"city":"Dhanbad","state":"Jharkhand","latitude":23.7957,"longitude":86.4304,"temp":25.9,"humidity":59,"rain":0.0,"pressure":984.2,"uv_index":8.05,"wind_gusts":38.5,"aqi":153,"pm10":78.7,"pm2_5":66.4,"mosquito_risk":4,"arthritis_risk":5,"migraine_risk":7,"frizz_risk":1,"updated_at":"2026-03-18T08:02:43.582195+05:30"},{"city":"Bokaro","state":"Jharkhand","latitude":23.6693,"longitude":86.1511,"temp":25.8,"humidity":62,"rain":0.0,"pressure":988.3,"uv_index":8.0,"wind_gusts":48.2,"aqi":146,"pm10":82.4,"pm2_5":73.3,"mosquito_risk":7,"arthritis_risk":5,"migraine_risk":7,"frizz_risk":1,"updated_at":"2026-03-18T08:02:43.582203+05:30"},{"city":"Bhubaneswar","state":"Odisha","latitude":20.2961,"longitude":85.8245,"temp":26.2,"humidity":81,"rain":0.0,"pressure":1008.0,"uv_index":8.45,"wind_gusts":31.3,"aqi":50,"pm10":11.8,"pm2_5":10.4,"mosquito_risk":7,"arthritis_risk":0,"migraine_risk":4,"frizz_risk":1,"updated_at":"2026-03-18T08:02:43.582209+05:30"},{"city":"Cuttack","state":"Odisha","latitude":20.4625,"longitude":85.8828,"temp":25.9,"humidity":84,"rain":0.0,"pressure":1009.9,"uv_index":8.5,"wind_gusts":21.6,"aqi":50,"pm10":11.8,"pm2_5":10.4,"mosquito_risk":7,"arthritis_risk":0,"migraine_risk":4,"frizz_risk":1,"updated_at":"2026-03-18T08:02:43.582216+05:30"},{"city":"Rourkela","state":"Odisha","latitude":22.2604,"longitude":84.8536,"temp":23.5,"humidity":78,"rain":0.0,"pressure":989.9,"uv_index":8.1,"wind_gusts":36.7,"aqi":152,"pm10":70.3,"pm2_5":61.0,"mosquito_risk":3,"arthritis_risk":5,"migraine_risk":7,"frizz_risk":1,"updated_at":"2026-03-18T08:02:43.582221+05:30"},{"city":"Raipur","state":"Chhattisgarh","latitude":21.2514,"longitude":81.6296,"temp":23.3,"humidity":70,"rain":0.0,"pressure":978.9,"uv_index":7.7,"wind_gusts":48.2,"aqi":119,"pm10":43.2,"pm2_5":41.2,"mosquito_risk":3,"arthritis_risk":5,"migraine_risk":7,"frizz_risk":1,"updated_at":"2026-03-18T08:02:43.582227+05:30"},{"city":"Bhilai","state":"Chhattisgarh","latitude":21.1938,"longitude":81.3509,"temp":22.6,"humidity":76,"rain":0.0,"pressure":979.2,"uv_index":7.35,"wind_gusts":42.5,"aqi":117,"pm10":38.9,"pm2_5":37.6,"mosquito_risk":3,"arthritis_risk":5,"migraine_risk":7,"frizz_risk":1,"updated_at":"2026-03-18T08:02:43.582234+05:30"},{"city":"Guwahati","state":"Assam","latitude":26.1158,"longitude":91.7086,"temp":20.8,"humidity":82,"rain":0.0,"pressure":1008.2,"uv_index":7.5,"wind_gusts":38.9,"aqi":102,"pm10":50.1,"pm2_5":42.5,"mosquito_risk":3,"arthritis_risk":0,"migraine_risk":4,"frizz_risk":1,"updated_at":"2026-03-18T08:02:43.582240+05:30"},{"city":"Agartala","state":"Tripura","latitude":23.8315,"longitude":91.2868,"temp":23.3,"humidity":88,"rain":0.0,"pressure":1012.2,"uv_index":7.85,"wind_gusts":27.0,"aqi":69,"pm10":10.0,"pm2_5":8.2,"mosquito_risk":3,"arthritis_risk":0,"migraine_risk":4,"frizz_risk":1,"updated_at":"2026-03-18T08:02:43.582246+05:30"},{"city":"Shillong","state":"Meghalaya","latitude":25.5788,"longitude":91.8933,"temp":15.4,"humidity":71,"rain":0.0,"pressure":859.6,"uv_index":7.4,"wind_gusts":61.9,"aqi":75,"pm10":41.6,"pm2_5":31.9,"mosquito_risk":3,"arthritis_risk":5,"migraine_risk":7,"frizz_risk":0,"updated_at":"2026-03-18T08:02:43.582253+05:30"},{"city":"Imphal","state":"Manipur","latitude":24.817,"longitude":93.9368,"temp":17.1,"humidity":88,"rain":0.0,"pressure":928.2,"uv_index":8.1,"wind_gusts":66.2,"aqi":83,"pm10":43.5,"pm2_5":36.3,"mosquito_risk":3,"arthritis_risk":10,"migraine_risk":7,"frizz_risk":0,"updated_at":"2026-03-18T08:02:43.582260+05:30"},{"city":"Aizawl","state":"Mizoram","latitude":23.7271,"longitude":92.7176,"temp":18.3,"humidity":81,"rain":0.0,"pressure":897.8,"uv_index":8.05,"wind_gusts":44.3,"aqi":75,"pm10":30.2,"pm2_5":26.1,"mosquito_risk":3,"arthritis_risk":10,"migraine_risk":7,"frizz_risk":0,"updated_at":"2026-03-18T08:02:43.582267+05:30"},{"city":"Kohima","state":"Nagaland","latitude":25.6701,"longitude":94.1077,"temp":16.0,"humidity":70,"rain":0.0,"pressure":858.8,"uv_index":7.95,"wind_gusts":96.1,"aqi":70,"pm10":35.7,"pm2_5":30.5,"mosquito_risk":3,"arthritis_risk":5,"migraine_risk":7,"frizz_risk":0,"updated_at":"2026-03-18T08:02:43.582274+05:30"},{"city":"Gangtok","state":"Sikkim","latitude":27.3314,"longitude":88.6138,"temp":13.1,"humidity":72,"rain":0.0,"pressure":839.4,"uv_index":7.7,"wind_gusts":22.7,"aqi":72,"pm10":23.6,"pm2_5":13.1,"mosquito_risk":3,"arthritis_risk":5,"migraine_risk":7,"frizz_risk":0,"updated_at":"2026-03-18T08:02:43.582280+05:30"},{"city":"Siliguri","state":"West Bengal","latitude":26.7271,"longitude":88.3953,"temp":21.5,"humidity":61,"rain":0.0,"pressure":998.5,"uv_index":7.5,"wind_gusts":33.8,"aqi":125,"pm10":64.7,"pm2_5":49.2,"mosquito_risk":3,"arthritis_risk":5,"migraine_risk":7,"frizz_risk":0,"updated_at":"2026-03-18T08:02:46.805746+05:30"},{"city":"Durgapur","state":"West Bengal","latitude":23.5204,"longitude":87.3119,"temp":25.7,"humidity":75,"rain":0.0,"pressure":999.9,"uv_index":8.05,"wind_gusts":34.9,"aqi":135,"pm10":65.9,"pm2_5":62.4,"mosquito_risk":7,"arthritis_risk":5,"migraine_risk":7,"frizz_risk":1,"updated_at":"2026-03-18T08:02:46.805774+05:30"},{"city":"Asansol","state":"West Bengal","latitude":23.6739,"longitude":86.9524,"temp":26.2,"humidity":69,"rain":0.0,"pressure":998.3,"uv_index":8.05,"wind_gusts":42.5,"aqi":138,"pm10":68.9,"pm2_5":57.7,"mosquito_risk":7,"arthritis_risk":5,"migraine_risk":7,"frizz_risk":1,"updated_at":"2026-03-18T08:02:46.805785+05:30"},{"city":"Pondicherry","state":"Puducherry","latitude":11.9139,"longitude":79.8145,"temp":26.1,"humidity":87,"rain":0.0,"pressure":1012.8,"uv_index":9.1,"wind_gusts":26.6,"aqi":33,"pm10":15.8,"pm2_5":11.4,"mosquito_risk":7,"arthritis_risk":0,"migraine_risk":4,"frizz_risk":1,"updated_at":"2026-03-18T08:02:46.805793+05:30"},{"city":"Port Blair","state":"Andaman and Nicobar Islands","latitude":11.6234,"longitude":92.7265,"temp":28.1,"humidity":77,"rain":0.0,"pressure":1011.0,"uv_index":9.05,"wind_gusts":23.0,"aqi":66,"pm10":14.1,"pm2_5":11.3,"mosquito_risk":7,"arthritis_risk":0,"migraine_risk":4,"frizz_risk":1,"updated_at":"2026-03-18T08:02:46.805801+05:30"},{"city":"Haridwar","state":"Uttarakhand","latitude":29.9457,"longitude":78.1642,"temp":17.9,"humidity":64,"rain":0.0,"pressure":977.7,"uv_index":5.7,"wind_gusts":27.0,"aqi":73,"pm10":30.6,"pm2_5":15.5,"mosquito_risk":3,"arthritis_risk":5,"migraine_risk":3,"frizz_risk":0,"updated_at":"2026-03-18T08:02:46.805808+05:30"},{"city":"Rishikesh","state":"Uttarakhand","latitude":30.0869,"longitude":78.2676,"temp":18.6,"humidity":58,"rain":0.0,"pressure":970.3,"uv_index":5.6,"wind_gusts":17.3,"aqi":60,"pm10":24.7,"pm2_5":13.0,"mosquito_risk":0,"arthritis_risk":5,"migraine_risk":3,"frizz_risk":0,"updated_at":"2026-03-18T08:02:46.805818+05:30"},{"city":"Nainital","state":"Uttarakhand","latitude":29.3919,"longitude":79.4542,"temp":17.6,"humidity":33,"rain":0.0,"pressure":807.9,"uv_index":6.0,"wind_gusts":31.7,"aqi":65,"pm10":31.5,"pm2_5":15.2,"mosquito_risk":0,"arthritis_risk":5,"migraine_risk":3,"frizz_risk":0,"updated_at":"2026-03-18T08:02:46.805827+05:30"},{"city":"Mussoorie","state":"Uttarakhand","latitude":30.4599,"longitude":78.0664,"temp":13.1,"humidity":44,"rain":0.0,"pressure":802.8,"uv_index":5.45,"wind_gusts":32.0,"aqi":70,"pm10":15.5,"pm2_5":11.3,"mosquito_risk":0,"arthritis_risk":5,"migraine_risk":3,"frizz_risk":0,"updated_at":"2026-03-18T08:02:46.805834+05:30"},{"city":"Dharamshala","state":"Himachal Pradesh","latitude":32.219,"longitude":76.3234,"temp":17.3,"humidity":34,"rain":0.0,"pressure":870.5,"uv_index":4.35,"wind_gusts":23.0,"aqi":47,"pm10":19.7,"pm2_5":8.4,"mosquito_risk":0,"arthritis_risk":5,"migraine_risk":3,"frizz_risk":0,"updated_at":"2026-03-18T08:02:46.805840+05:30"},{"city":"Dalhousie","state":"Himachal Pradesh","latitude":32.5387,"longitude":75.971,"temp":14.9,"humidity":30,"rain":0.0,"pressure":804.6,"uv_index":4.4,"wind_gusts":31.3,"aqi":77,"pm10":52.2,"pm2_5":26.4,"mosquito_risk":0,"arthritis_risk":5,"migraine_risk":3,"frizz_risk":1,"updated_at":"2026-03-18T08:02:46.805848+05:30"},{"city":"Patiala","state":"Punjab","latitude":30.3398,"longitude":76.3869,"temp":16.2,"humidity":84,"rain":0.0,"pressure":981.8,"uv_index":4.95,"wind_gusts":28.1,"aqi":138,"pm10":70.1,"pm2_5":42.6,"mosquito_risk":3,"arthritis_risk":10,"migraine_risk":3,"frizz_risk":0,"updated_at":"2026-03-18T08:02:46.805855+05:30"},{"city":"Bhatinda","state":"Punjab","latitude":30.211,"longitude":74.9455,"temp":15.9,"humidity":79,"rain":0.0,"pressure":987.8,"uv_index":6.15,"wind_gusts":27.0,"aqi":116,"pm10":38.4,"pm2_5":33.1,"mosquito_risk":3,"arthritis_risk":5,"migraine_risk":7,"frizz_risk":0,"updated_at":"2026-03-18T08:02:46.805862+05:30"},{"city":"Rohtak","state":"Haryana","latitude":28.8955,"longitude":76.6066,"temp":16.4,"humidity":88,"rain":0.0,"pressure":985.6,"uv_index":5.35,"wind_gusts":31.7,"aqi":295,"pm10":262.6,"pm2_5":85.2,"mosquito_risk":3,"arthritis_risk":10,"migraine_risk":3,"frizz_risk":0,"updated_at":"2026-03-18T08:02:46.805870+05:30"},{"city":"Panipat","state":"Haryana","latitude":29.3909,"longitude":76.9635,"temp":16.4,"humidity":86,"rain":0.0,"pressure":984.2,"uv_index":5.95,"wind_gusts":36.0,"aqi":254,"pm10":144.8,"pm2_5":63.1,"mosquito_risk":3,"arthritis_risk":10,"migraine_risk":3,"frizz_risk":0,"updated_at":"2026-03-18T08:02:46.805876+05:30"},{"city":"Mathura","state":"Uttar Pradesh","latitude":27.4924,"longitude":77.6737,"temp":21.0,"humidity":71,"rain":0.0,"pressure":990.5,"uv_index":6.5,"wind_gusts":19.1,"aqi":519,"pm10":388.4,"pm2_5":108.5,"mosquito_risk":3,"arthritis_risk":5,"migraine_risk":7,"frizz_risk":0,"updated_at":"2026-03-18T08:02:46.805883+05:30"},{"city":"Vrindavan","state":"Uttar Pradesh","latitude":27.5823,"longitude":77.7027,"temp":20.6,"humidity":70,"rain":0.0,"pressure":990.9,"uv_index":6.4,"wind_gusts":19.4,"aqi":519,"pm10":388.4,"pm2_5":108.5,"mosquito_risk":3,"arthritis_risk":5,"migraine_risk":7,"frizz_risk":0,"updated_at":"2026-03-18T08:02:46.805890+05:30"},{"city":"Ayodhya","state":"Uttar Pradesh","latitude":26.7922,"longitude":82.1998,"temp":21.4,"humidity":63,"rain":0.0,"pressure":999.4,"uv_index":6.8,"wind_gusts":34.2,"aqi":91,"pm10":83.8,"pm2_5":54.7,"mosquito_risk":3,"arthritis_risk":5,"migraine_risk":7,"frizz_risk":0,"updated_at":"2026-03-18T08:02:46.805897+05:30"},{"city":"Ratlam","state":"Madhya Pradesh","latitude":23.3315,"longitude":75.0367,"temp":23.2,"humidity":48,"rain":0.0,"pressure":956.5,"uv_index":7.7,"wind_gusts":25.2,"aqi":51,"pm10":18.9,"pm2_5":18.9,"mosquito_risk":0,"arthritis_risk":5,"migraine_risk":7,"frizz_risk":0,"updated_at":"2026-03-18T08:02:46.805903+05:30"},{"city":"Sagar","state":"Madhya Pradesh","latitude":23.8388,"longitude":78.7378,"temp":22.8,"humidity":53,"rain":0.0,"pressure":952.4,"uv_index":7.7,"wind_gusts":35.6,"aqi":38,"pm10":51.6,"pm2_5":20.1,"mosquito_risk":0,"arthritis_risk":5,"migraine_risk":7,"frizz_risk":0,"updated_at":"2026-03-18T08:02:46.805910+05:30"},{"city":"Satna","state":"Madhya Pradesh","latitude":24.6005,"longitude":80.8322,"temp":24.0,"humidity":51,"rain":0.0,"pressure":974.4,"uv_index":7.35,"wind_gusts":30.2,"aqi":65,"pm10":46.6,"pm2_5":29.3,"mosquito_risk":0,"arthritis_risk":5,"migraine_risk":7,"frizz_risk":0,"updated_at":"2026-03-18T08:02:46.805917+05:30"},{"city":"Akola","state":"Maharashtra","latitude":20.7002,"longitude":77.0082,"temp":24.0,"humidity":50,"rain":0.0,"pressure":977.8,"uv_index":8.15,"wind_gusts":29.2,"aqi":73,"pm10":38.5,"pm2_5":34.7,"mosquito_risk":0,"arthritis_risk":5,"migraine_risk":7,"frizz_risk":0,"updated_at":"2026-03-18T08:02:46.805924+05:30"},{"city":"Amravati","state":"Maharashtra","latitude":20.9374,"longitude":77.7796,"temp":24.5,"humidity":66,"rain":0.0,"pressure":970.0,"uv_index":8.15,"wind_gusts":52.9,"aqi":78,"pm10":44.2,"pm2_5":40.4,"mosquito_risk":3,"arthritis_risk":5,"migraine_risk":7,"frizz_risk":1,"updated_at":"2026-03-18T08:02:46.805931+05:30"},{"city":"Latur","state":"Maharashtra","latitude":18.4088,"longitude":76.5604,"temp":22.4,"humidity":71,"rain":0.0,"pressure":942.3,"uv_index":8.55,"wind_gusts":34.2,"aqi":107,"pm10":41.0,"pm2_5":37.4,"mosquito_risk":3,"arthritis_risk":5,"migraine_risk":7,"frizz_risk":1,"updated_at":"2026-03-18T08:02:46.805938+05:30"},{"city":"Nanded","state":"Maharashtra","latitude":19.1383,"longitude":77.3091,"temp":25.5,"humidity":58,"rain":0.0,"pressure":971.7,"uv_index":8.35,"wind_gusts":32.8,"aqi":100,"pm10":59.3,"pm2_5":54.4,"mosquito_risk":4,"arthritis_risk":5,"migraine_risk":7,"frizz_risk":1,"updated_at":"2026-03-18T08:02:46.805944+05:30"},{"city":"Gulbarga","state":"Karnataka","latitude":17.3297,"longitude":76.8343,"temp":23.6,"humidity":69,"rain":0.0,"pressure":962.1,"uv_index":8.6,"wind_gusts":46.4,"aqi":114,"pm10":44.9,"pm2_5":40.6,"mosquito_risk":3,"arthritis_risk":5,"migraine_risk":7,"frizz_risk":1,"updated_at":"2026-03-18T08:02:46.805950+05:30"},{"city":"Bidar","state":"Karnataka","latitude":17.9104,"longitude":77.5199,"temp":23.1,"humidity":69,"rain":0.0,"pressure":938.5,"uv_index":8.15,"wind_gusts":43.9,"aqi":103,"pm10":22.1,"pm2_5":20.4,"mosquito_risk":3,"arthritis_risk":5,"migraine_risk":7,"frizz_risk":1,"updated_at":"2026-03-18T08:02:46.805957+05:30"},{"city":"Hospet","state":"Karnataka","latitude":15.2689,"longitude":76.3909,"temp":23.4,"humidity":79,"rain":0.0,"pressure":959.1,"uv_index":8.95,"wind_gusts":25.9,"aqi":109,"pm10":31.3,"pm2_5":29.5,"mosquito_risk":3,"arthritis_risk":5,"migraine_risk":7,"frizz_risk":1,"updated_at":"2026-03-18T08:02:46.805963+05:30"},{"city":"Tirupur","state":"Tamil Nadu","latitude":11.1085,"longitude":77.3411,"temp":24.3,"humidity":78,"rain":0.0,"pressure":978.9,"uv_index":9.3,"wind_gusts":22.0,"aqi":83,"pm10":25.6,"pm2_5":23.9,"mosquito_risk":3,"arthritis_risk":5,"migraine_risk":7,"frizz_risk":1,"updated_at":"2026-03-18T08:02:46.805969+05:30"},{"city":"Alappuzha","state":"Kerala","latitude":9.4981,"longitude":76.3388,"temp":26.8,"humidity":83,"rain":0.0,"pressure":1011.3,"uv_index":8.95,"wind_gusts":20.9,"aqi":78,"pm10":30.5,"pm2_5":29.3,"mosquito_risk":7,"arthritis_risk":0,"migraine_risk":4,"frizz_risk":1,"updated_at":"2026-03-18T08:02:46.805976+05:30"},{"city":"Munnar","state":"Kerala","latitude":10.0889,"longitude":77.0595,"temp":22.1,"humidity":76,"rain":0.0,"pressure":859.0,"uv_index":9.55,"wind_gusts":30.2,"aqi":86,"pm10":41.2,"pm2_5":39.7,"mosquito_risk":3,"arthritis_risk":5,"migraine_risk":7,"frizz_risk":1,"updated_at":"2026-03-18T08:02:46.805983+05:30"},{"city":"Silchar","state":"Assam","latitude":24.8333,"longitude":92.7789,"temp":20.5,"humidity":86,"rain":0.0,"pressure":1012.9,"uv_index":7.8,"wind_gusts":43.6,"aqi":92,"pm10":49.4,"pm2_5":42.4,"mosquito_risk":3,"arthritis_risk":0,"migraine_risk":4,"frizz_risk":1,"updated_at":"2026-03-18T08:02:46.805990+05:30"},{"city":"Dibrugarh","state":"Assam","latitude":27.4728,"longitude":94.912,"temp":20.0,"humidity":83,"rain":0.0,"pressure":1002.7,"uv_index":7.55,"wind_gusts":28.1,"aqi":90,"pm10":43.2,"pm2_5":30.5,"mosquito_risk":3,"arthritis_risk":5,"migraine_risk":4,"frizz_risk":1,"updated_at":"2026-03-18T08:02:46.805996+05:30"}]