[{"city":"Delhi","state":"Delhi","latitude":28.6139,"longitude":77.209,"temp":32.2,"humidity":47,"rain":0.0,"pressure":979.4,"uv_index":7.8,"wind_gusts":38.2,"aqi":405,"pm10":657.5,"pm2_5":158.8,"no2":37.0,"co":437.0,"o3":50.0,"so2":17.3,"mosquito_risk":0,"arthritis_risk":5,"migraine_risk":7,"frizz_risk":1,"updated_at":"2026-06-20T02:10:24.225706+05:30"},{"city":"Mumbai","state":"Maharashtra","latitude":19.076,"longitude":72.8777,"temp":29.7,"humidity":65,"rain":0.0,"pressure":1007.8,"uv_index":7.7,"wind_gusts":43.2,"aqi":56,"pm10":25.6,"pm2_5":13.1,"no2":7.9,"co":140.0,"o3":42.0,"so2":6.7,"mosquito_risk":7,"arthritis_risk":5,"migraine_risk":4,"frizz_risk":1,"updated_at":"2026-06-20T02:10:24.225753+05:30"},{"city":"Bangalore","state":"Karnataka","latitude":12.9716,"longitude":77.5946,"temp":20.9,"humidity":95,"rain":0.0,"pressure":911.2,"uv_index":8.25,"wind_gusts":34.9,"aqi":59,"pm10":26.4,"pm2_5":22.7,"no2":30.7,"co":772.0,"o3":35.0,"so2":10.7,"mosquito_risk":3,"arthritis_risk":5,"migraine_risk":7,"frizz_risk":1,"updated_at":"2026-06-20T02:10:24.225768+05:30"},{"city":"Hyderabad","state":"Telangana","latitude":17.385,"longitude":78.4867,"temp":29.4,"humidity":48,"rain":0.0,"pressure":952.2,"uv_index":6.7,"wind_gusts":37.1,"aqi":77,"pm10":42.7,"pm2_5":35.6,"no2":33.4,"co":548.0,"o3":37.0,"so2":10.1,"mosquito_risk":4,"arthritis_risk":5,"migraine_risk":7,"frizz_risk":1,"updated_at":"2026-06-20T02:10:24.225778+05:30"},{"city":"Chennai","state":"Tamil Nadu","latitude":13.0827,"longitude":80.2707,"temp":26.5,"humidity":84,"rain":0.0,"pressure":1006.5,"uv_index":7.7,"wind_gusts":42.5,"aqi":97,"pm10":26.8,"pm2_5":22.3,"no2":11.0,"co":326.0,"o3":107.0,"so2":11.7,"mosquito_risk":7,"arthritis_risk":5,"migraine_risk":4,"frizz_risk":1,"updated_at":"2026-06-20T02:10:24.225786+05:30"},{"city":"Kolkata","state":"West Bengal","latitude":22.5726,"longitude":88.3639,"temp":27.0,"humidity":91,"rain":0.0,"pressure":1003.1,"uv_index":8.75,"wind_gusts":32.4,"aqi":107,"pm10":32.9,"pm2_5":30.0,"no2":10.5,"co":402.0,"o3":91.0,"so2":8.0,"mosquito_risk":7,"arthritis_risk":5,"migraine_risk":4,"frizz_risk":1,"updated_at":"2026-06-20T02:10:24.225793+05:30"},{"city":"Pune","state":"Maharashtra","latitude":18.5204,"longitude":73.8567,"temp":24.0,"humidity":81,"rain":0.0,"pressure":947.6,"uv_index":7.9,"wind_gusts":43.9,"aqi":46,"pm10":13.2,"pm2_5":8.5,"no2":7.8,"co":139.0,"o3":37.0,"so2":7.0,"mosquito_risk":3,"arthritis_risk":5,"migraine_risk":7,"frizz_risk":1,"updated_at":"2026-06-20T02:10:24.225800+05:30"},{"city":"Ahmedabad","state":"Gujarat","latitude":23.0225,"longitude":72.5714,"temp":31.3,"humidity":56,"rain":0.0,"pressure":1000.1,"uv_index":8.1,"wind_gusts":40.3,"aqi":66,"pm10":31.2,"pm2_5":17.6,"no2":6.7,"co":174.0,"o3":46.0,"so2":4.0,"mosquito_risk":0,"arthritis_risk":5,"migraine_risk":4,"frizz_risk":1,"updated_at":"2026-06-20T02:10:24.225806+05:30"},{"city":"Jaipur","state":"Rajasthan","latitude":26.9124,"longitude":75.7873,"temp":27.9,"humidity":63,"rain":0.0,"pressure":957.4,"uv_index":8.25,"wind_gusts":35.6,"aqi":118,"pm10":160.2,"pm2_5":48.1,"no2":10.4,"co":174.0,"o3":48.0,"so2":4.4,"mosquito_risk":7,"arthritis_risk":5,"migraine_risk":7,"frizz_risk":1,"updated_at":"2026-06-20T02:10:24.225813+05:30"},{"city":"Lucknow","state":"Uttar Pradesh","latitude":26.8467,"longitude":80.9462,"temp":32.7,"humidity":45,"rain":0.0,"pressure":988.8,"uv_index":8.35,"wind_gusts":38.5,"aqi":158,"pm10":337.1,"pm2_5":99.4,"no2":18.5,"co":233.0,"o3":66.0,"so2":10.3,"mosquito_risk":0,"arthritis_risk":5,"migraine_risk":7,"frizz_risk":1,"updated_at":"2026-06-20T02:10:24.225822+05:30"},{"city":"Kanpur","state":"Uttar Pradesh","latitude":26.4499,"longitude":80.3319,"temp":33.4,"humidity":42,"rain":0.0,"pressure":987.4,"uv_index":8.3,"wind_gusts":38.5,"aqi":158,"pm10":393.0,"pm2_5":95.9,"no2":19.3,"co":269.0,"o3":49.0,"so2":6.8,"mosquito_risk":0,"arthritis_risk":5,"migraine_risk":7,"frizz_risk":1,"updated_at":"2026-06-20T02:10:24.225828+05:30"},{"city":"Chandigarh","state":"Chandigarh","latitude":30.7333,"longitude":76.7794,"temp":26.1,"humidity":70,"rain":0.0,"pressure":964.9,"uv_index":7.7,"wind_gusts":34.9,"aqi":122,"pm10":53.1,"pm2_5":48.8,"no2":27.9,"co":668.0,"o3":67.0,"so2":12.2,"mosquito_risk":7,"arthritis_risk":5,"migraine_risk":7,"frizz_risk":1,"updated_at":"2026-06-20T02:10:24.225834+05:30"},{"city":"Srinagar","state":"Jammu and Kashmir","latitude":34.0837,"longitude":74.7973,"temp":15.1,"humidity":98,"rain":0.0,"pressure":841.7,"uv_index":7.95,"wind_gusts":29.5,"aqi":68,"pm10":26.1,"pm2_5":25.7,"no2":28.4,"co":983.0,"o3":8.0,"so2":0.8,"mosquito_risk":3,"arthritis_risk":10,"migraine_risk":7,"frizz_risk":0,"updated_at":"2026-06-20T02:10:24.225841+05:30"},{"city":"Jammu","state":"Jammu and Kashmir","latitude":32.7266,"longitude":74.857,"temp":24.2,"humidity":76,"rain":0.0,"pressure":969.2,"uv_index":8.55,"wind_gusts":35.3,"aqi":97,"pm10":56.0,"pm2_5":51.1,"no2":60.6,"co":622.0,"o3":8.0,"so2":5.6,"mosquito_risk":3,"arthritis_risk":5,"migraine_risk":7,"frizz_risk":1,"updated_at":"2026-06-20T02:10:24.225846+05:30"},{"city":"Amritsar","state":"Punjab","latitude":31.634,"longitude":74.8723,"temp":26.4,"humidity":85,"rain":0.0,"pressure":977.5,"uv_index":8.45,"wind_gusts":28.1,"aqi":121,"pm10":51.2,"pm2_5":42.0,"no2":29.9,"co":594.0,"o3":60.0,"so2":11.1,"mosquito_risk":7,"arthritis_risk":5,"migraine_risk":7,"frizz_risk":1,"updated_at":"2026-06-20T02:10:24.225852+05:30"},{"city":"Ludhiana","state":"Punjab","latitude":30.901,"longitude":75.8573,"temp":28.2,"humidity":70,"rain":0.0,"pressure":975.3,"uv_index":8.0,"wind_gusts":36.7,"aqi":151,"pm10":97.6,"pm2_5":50.6,"no2":18.5,"co":711.0,"o3":69.0,"so2":8.0,"mosquito_risk":7,"arthritis_risk":5,"migraine_risk":7,"frizz_risk":1,"updated_at":"2026-06-20T02:10:24.225859+05:30"},{"city":"Jalandhar","state":"Punjab","latitude":31.326,"longitude":75.5762,"temp":27.3,"humidity":74,"rain":0.0,"pressure":976.3,"uv_index":8.2,"wind_gusts":35.3,"aqi":151,"pm10":104.1,"pm2_5":54.1,"no2":23.7,"co":773.0,"o3":65.0,"so2":10.4,"mosquito_risk":7,"arthritis_risk":5,"migraine_risk":7,"frizz_risk":1,"updated_at":"2026-06-20T02:10:24.225865+05:30"},{"city":"Dehradun","state":"Uttarakhand","latitude":30.6284,"longitude":78.0322,"temp":15.6,"humidity":97,"rain":0.0,"pressure":827.7,"uv_index":7.55,"wind_gusts":31.0,"aqi":66,"pm10":27.5,"pm2_5":21.8,"no2":33.8,"co":211.0,"o3":25.0,"so2":0.7,"mosquito_risk":3,"arthritis_risk":10,"migraine_risk":7,"frizz_risk":0,"updated_at":"2026-06-20T02:10:24.225870+05:30"},{"city":"Shimla","state":"Himachal Pradesh","latitude":31.1048,"longitude":77.1734,"temp":11.3,"humidity":97,"rain":0.0,"pressure":780.1,"uv_index":8.0,"wind_gusts":35.6,"aqi":81,"pm10":56.0,"pm2_5":43.7,"no2":16.5,"co":290.0,"o3":79.0,"so2":3.4,"mosquito_risk":3,"arthritis_risk":10,"migraine_risk":7,"frizz_risk":0,"updated_at":"2026-06-20T02:10:24.225876+05:30"},{"city":"Manali","state":"Himachal Pradesh","latitude":32.2396,"longitude":77.1887,"temp":14.7,"humidity":81,"rain":0.0,"pressure":816.9,"uv_index":9.6,"wind_gusts":41.0,"aqi":42,"pm10":3.4,"pm2_5":3.4,"no2":20.2,"co":278.0,"o3":105.0,"so2":0.0,"mosquito_risk":3,"arthritis_risk":10,"migraine_risk":7,"frizz_risk":0,"updated_at":"2026-06-20T02:10:24.225884+05:30"},{"city":"Gurgaon","state":"Haryana","latitude":28.4595,"longitude":77.0266,"temp":29.8,"humidity":59,"rain":0.0,"pressure":977.8,"uv_index":7.9,"wind_gusts":37.4,"aqi":503,"pm10":599.8,"pm2_5":129.9,"no2":45.5,"co":833.0,"o3":31.0,"so2":16.1,"mosquito_risk":4,"arthritis_risk":5,"migraine_risk":7,"frizz_risk":1,"updated_at":"2026-06-20T02:10:24.225889+05:30"},{"city":"Noida","state":"Uttar Pradesh","latitude":28.5355,"longitude":77.391,"temp":30.7,"humidity":57,"rain":0.0,"pressure":980.6,"uv_index":7.85,"wind_gusts":29.2,"aqi":503,"pm10":599.8,"pm2_5":129.9,"no2":45.5,"co":726.0,"o3":31.0,"so2":16.1,"mosquito_risk":0,"arthritis_risk":5,"migraine_risk":7,"frizz_risk":1,"updated_at":"2026-06-20T02:10:24.225895+05:30"},{"city":"Ghaziabad","state":"Uttar Pradesh","latitude":28.6692,"longitude":77.4538,"temp":29.2,"humidity":62,"rain":0.0,"pressure":978.8,"uv_index":7.8,"wind_gusts":35.3,"aqi":292,"pm10":601.6,"pm2_5":152.7,"no2":33.0,"co":495.0,"o3":60.0,"so2":19.1,"mosquito_risk":7,"arthritis_risk":5,"migraine_risk":7,"frizz_risk":1,"updated_at":"2026-06-20T02:10:24.225901+05:30"},{"city":"Faridabad","state":"Haryana","latitude":28.4089,"longitude":77.3178,"temp":32.1,"humidity":48,"rain":0.0,"pressure":980.1,"uv_index":7.85,"wind_gusts":38.9,"aqi":503,"pm10":599.8,"pm2_5":129.9,"no2":45.5,"co":792.0,"o3":31.0,"so2":16.1,"mosquito_risk":0,"arthritis_risk":5,"migraine_risk":7,"frizz_risk":1,"updated_at":"2026-06-20T02:10:24.225906+05:30"},{"city":"Meerut","state":"Uttar Pradesh","latitude":28.9845,"longitude":77.7064,"temp":29.2,"humidity":60,"rain":0.0,"pressure":977.6,"uv_index":7.75,"wind_gusts":36.7,"aqi":292,"pm10":601.6,"pm2_5":152.7,"no2":33.0,"co":543.0,"o3":60.0,"so2":19.1,"mosquito_risk":4,"arthritis_risk":5,"migraine_risk":7,"frizz_risk":1,"updated_at":"2026-06-20T02:10:24.225912+05:30"},{"city":"Agra","state":"Uttar Pradesh","latitude":27.1767,"longitude":78.0081,"temp":32.2,"humidity":44,"rain":0.0,"pressure":984.3,"uv_index":8.2,"wind_gusts":34.6,"aqi":390,"pm10":1341.1,"pm2_5":170.9,"no2":17.6,"co":235.0,"o3":47.0,"so2":5.3,"mosquito_risk":0,"arthritis_risk":5,"migraine_risk":7,"frizz_risk":1,"updated_at":"2026-06-20T02:10:24.225918+05:30"},{"city":"Varanasi","state":"Uttar Pradesh","latitude":25.3176,"longitude":82.9739,"temp":30.6,"humidity":62,"rain":0.0,"pressure":992.9,"uv_index":8.8,"wind_gusts":37.1,"aqi":107,"pm10":55.6,"pm2_5":40.3,"no2":23.7,"co":269.0,"o3":44.0,"so2":13.2,"mosquito_risk":3,"arthritis_risk":5,"migraine_risk":7,"frizz_risk":1,"updated_at":"2026-06-20T02:10:24.225925+05:30"},{"city":"Prayagraj","state":"Uttar Pradesh","latitude":25.4358,"longitude":81.8463,"temp":32.6,"humidity":53,"rain":0.0,"pressure":991.1,"uv_index":8.75,"wind_gusts":37.1,"aqi":108,"pm10":63.1,"pm2_5":39.8,"no2":19.6,"co":259.0,"o3":46.0,"so2":7.5,"mosquito_risk":0,"arthritis_risk":5,"migraine_risk":7,"frizz_risk":1,"updated_at":"2026-06-20T02:10:24.225931+05:30"},{"city":"Gorakhpur","state":"Uttar Pradesh","latitude":26.7606,"longitude":83.3732,"temp":28.9,"humidity":83,"rain":0.0,"pressure":992.9,"uv_index":8.7,"wind_gusts":29.9,"aqi":159,"pm10":148.5,"pm2_5":102.7,"no2":66.2,"co":582.0,"o3":26.0,"so2":23.2,"mosquito_risk":7,"arthritis_risk":5,"migraine_risk":7,"frizz_risk":1,"updated_at":"2026-06-20T02:10:24.225937+05:30"},{"city":"Bareilly","state":"Uttar Pradesh","latitude":28.367,"longitude":79.4304,"temp":29.9,"humidity":59,"rain":0.0,"pressure":982.2,"uv_index":8.15,"wind_gusts":33.8,"aqi":155,"pm10":216.5,"pm2_5":102.2,"no2":28.8,"co":428.0,"o3":63.0,"so2":14.6,"mosquito_risk":4,"arthritis_risk":5,"migraine_risk":7,"frizz_risk":1,"updated_at":"2026-06-20T02:10:24.225944+05:30"},{"city":"Aligarh","state":"Uttar Pradesh","latitude":27.8974,"longitude":78.088,"temp":30.2,"humidity":54,"rain":0.0,"pressure":981.7,"uv_index":8.0,"wind_gusts":35.3,"aqi":371,"pm10":381.8,"pm2_5":105.5,"no2":32.4,"co":557.0,"o3":40.0,"so2":9.7,"mosquito_risk":0,"arthritis_risk":5,"migraine_risk":7,"frizz_risk":1,"updated_at":"2026-06-20T02:10:24.225950+05:30"},{"city":"Moradabad","state":"Uttar Pradesh","latitude":28.8386,"longitude":78.7733,"temp":30.2,"humidity":59,"rain":0.0,"pressure":979.6,"uv_index":7.95,"wind_gusts":39.2,"aqi":164,"pm10":283.1,"pm2_5":136.4,"no2":50.4,"co":450.0,"o3":40.0,"so2":17.7,"mosquito_risk":0,"arthritis_risk":5,"migraine_risk":7,"frizz_risk":1,"updated_at":"2026-06-20T02:10:24.225955+05:30"},{"city":"Saharanpur","state":"Uttar Pradesh","latitude":29.9637,"longitude":77.546,"temp":27.4,"humidity":71,"rain":0.0,"pressure":971.9,"uv_index":7.5,"wind_gusts":33.8,"aqi":163,"pm10":277.5,"pm2_5":99.7,"no2":25.0,"co":533.0,"o3":70.0,"so2":11.4,"mosquito_risk":7,"arthritis_risk":5,"migraine_risk":7,"frizz_risk":1,"updated_at":"2026-06-20T02:10:24.225961+05:30"},{"city":"Jhansi","state":"Uttar Pradesh","latitude":25.4484,"longitude":78.5685,"temp":30.7,"humidity":55,"rain":0.0,"pressure":974.9,"uv_index":8.5,"wind_gusts":38.2,"aqi":74,"pm10":55.4,"pm2_5":26.8,"no2":4.5,"co":158.0,"o3":66.0,"so2":1.8,"mosquito_risk":0,"arthritis_risk":5,"migraine_risk":7,"frizz_risk":1,"updated_at":"2026-06-20T02:10:27.727104+05:30"},{"city":"Surat","state":"Gujarat","latitude":21.1702,"longitude":72.8311,"temp":29.0,"humidity":77,"rain":0.0,"pressure":1005.5,"uv_index":7.6,"wind_gusts":46.4,"aqi":66,"pm10":25.6,"pm2_5":16.2,"no2":17.5,"co":256.0,"o3":33.0,"so2":29.5,"mosquito_risk":7,"arthritis_risk":5,"migraine_risk":4,"frizz_risk":1,"updated_at":"2026-06-20T02:10:27.727136+05:30"},{"city":"Vadodara","state":"Gujarat","latitude":22.3072,"longitude":73.1812,"temp":28.9,"humidity":78,"rain":0.0,"pressure":1002.6,"uv_index":8.05,"wind_gusts":39.6,"aqi":60,"pm10":22.2,"pm2_5":14.6,"no2":14.1,"co":113.0,"o3":33.0,"so2":13.7,"mosquito_risk":7,"arthritis_risk":5,"migraine_risk":4,"frizz_risk":1,"updated_at":"2026-06-20T02:10:27.727146+05:30"},{"city":"Rajkot","state":"Gujarat","latitude":22.3039,"longitude":70.8022,"temp":28.6,"humidity":70,"rain":0.0,"pressure":992.7,"uv_index":7.6,"wind_gusts":43.9,"aqi":62,"pm10":39.5,"pm2_5":17.3,"no2":4.4,"co":103.0,"o3":40.0,"so2":3.9,"mosquito_risk":7,"arthritis_risk":5,"migraine_risk":7,"frizz_risk":1,"updated_at":"2026-06-20T02:10:27.727154+05:30"},{"city":"Thane","state":"Maharashtra","latitude":19.2183,"longitude":72.9781,"temp":29.7,"humidity":65,"rain":0.0,"pressure":1007.1,"uv_index":7.65,"wind_gusts":41.0,"aqi":56,"pm10":25.6,"pm2_5":13.1,"no2":7.9,"co":153.0,"o3":42.0,"so2":6.7,"mosquito_risk":7,"arthritis_risk":5,"migraine_risk":4,"frizz_risk":1,"updated_at":"2026-06-20T02:10:27.727179+05:30"},{"city":"Nagpur","state":"Maharashtra","latitude":21.1458,"longitude":79.0882,"temp":32.0,"humidity":36,"rain":0.0,"pressure":971.1,"uv_index":8.9,"wind_gusts":43.2,"aqi":76,"pm10":28.9,"pm2_5":21.8,"no2":16.3,"co":253.0,"o3":51.0,"so2":7.8,"mosquito_risk":0,"arthritis_risk":5,"migraine_risk":7,"frizz_risk":0,"updated_at":"2026-06-20T02:10:27.727188+05:30"},{"city":"Nashik","state":"Maharashtra","latitude":19.9975,"longitude":73.7898,"temp":24.1,"humidity":84,"rain":0.0,"pressure":944.8,"uv_index":8.05,"wind_gusts":45.4,"aqi":48,"pm10":19.1,"pm2_5":11.3,"no2":7.2,"co":117.0,"o3":40.0,"so2":5.5,"mosquito_risk":3,"arthritis_risk":5,"migraine_risk":7,"frizz_risk":1,"updated_at":"2026-06-20T02:10:27.727196+05:30"},{"city":"Aurangabad","state":"Maharashtra","latitude":19.8762,"longitude":75.3433,"temp":27.4,"humidity":56,"rain":0.0,"pressure":943.7,"uv_index":9.0,"wind_gusts":39.6,"aqi":47,"pm10":14.9,"pm2_5":10.4,"no2":6.6,"co":124.0,"o3":56.0,"so2":6.3,"mosquito_risk":4,"arthritis_risk":5,"migraine_risk":7,"frizz_risk":1,"updated_at":"2026-06-20T02:10:27.727204+05:30"},{"city":"Solapur","state":"Maharashtra","latitude":17.6599,"longitude":75.9064,"temp":29.0,"humidity":52,"rain":0.0,"pressure":956.6,"uv_index":8.9,"wind_gusts":34.6,"aqi":52,"pm10":11.3,"pm2_5":8.4,"no2":5.2,"co":123.0,"o3":55.0,"so2":2.4,"mosquito_risk":4,"arthritis_risk":5,"migraine_risk":7,"frizz_risk":1,"updated_at":"2026-06-20T02:10:27.727212+05:30"},{"city":"Kolhapur","state":"Maharashtra","latitude":16.705,"longitude":74.2433,"temp":23.8,"humidity":86,"rain":0.0,"pressure":947.9,"uv_index":8.15,"wind_gusts":43.6,"aqi":46,"pm10":11.8,"pm2_5":8.7,"no2":6.8,"co":137.0,"o3":34.0,"so2":3.1,"mosquito_risk":3,"arthritis_risk":5,"migraine_risk":7,"frizz_risk":1,"updated_at":"2026-06-20T02:10:27.727220+05:30"},{"city":"Goa","state":"Goa","latitude":15.2993,"longitude":74.124,"temp":25.5,"humidity":87,"rain":0.0,"pressure":998.2,"uv_index":8.6,"wind_gusts":31.3,"aqi":57,"pm10":28.5,"pm2_5":20.8,"no2":8.6,"co":528.0,"o3":38.0,"so2":2.4,"mosquito_risk":7,"arthritis_risk":5,"migraine_risk":7,"frizz_risk":1,"updated_at":"2026-06-20T02:10:27.727228+05:30"},{"city":"Jodhpur","state":"Rajasthan","latitude":26.2389,"longitude":73.0243,"temp":30.3,"humidity":56,"rain":0.0,"pressure":980.2,"uv_index":8.4,"wind_gusts":36.7,"aqi":104,"pm10":105.9,"pm2_5":30.3,"no2":7.9,"co":128.0,"o3":47.0,"so2":2.3,"mosquito_risk":0,"arthritis_risk":5,"migraine_risk":7,"frizz_risk":1,"updated_at":"2026-06-20T02:10:27.727236+05:30"},{"city":"Udaipur","state":"Rajasthan","latitude":24.5854,"longitude":73.7125,"temp":26.2,"humidity":67,"rain":0.0,"pressure":944.6,"uv_index":8.85,"wind_gusts":30.6,"aqi":66,"pm10":38.3,"pm2_5":21.4,"no2":9.1,"co":165.0,"o3":51.0,"so2":7.1,"mosquito_risk":7,"arthritis_risk":5,"migraine_risk":7,"frizz_risk":1,"updated_at":"2026-06-20T02:10:27.727243+05:30"},{"city":"Kota","state":"Rajasthan","latitude":25.2138,"longitude":75.8648,"temp":29.3,"humidity":65,"rain":0.0,"pressure":976.4,"uv_index":8.4,"wind_gusts":29.5,"aqi":69,"pm10":28.6,"pm2_5":19.7,"no2":10.4,"co":171.0,"o3":46.0,"so2":4.8,"mosquito_risk":7,"arthritis_risk":5,"migraine_risk":7,"frizz_risk":1,"updated_at":"2026-06-20T02:10:27.727250+05:30"},{"city":"Bikaner","state":"Rajasthan","latitude":28.0229,"longitude":73.3119,"temp":30.0,"humidity":53,"rain":0.0,"pressure":978.3,"uv_index":8.5,"wind_gusts":30.2,"aqi":115,"pm10":130.9,"pm2_5":38.6,"no2":4.8,"co":132.0,"o3":50.0,"so2":2.8,"mosquito_risk":4,"arthritis_risk":5,"migraine_risk":7,"frizz_risk":1,"updated_at":"2026-06-20T02:10:27.727257+05:30"},{"city":"Ajmer","state":"Rajasthan","latitude":26.4499,"longitude":74.6399,"temp":27.7,"humidity":66,"rain":0.0,"pressure":952.4,"uv_index":8.4,"wind_gusts":41.8,"aqi":89,"pm10":41.4,"pm2_5":23.5,"no2":9.8,"co":148.0,"o3":47.0,"so2":4.2,"mosquito_risk":7,"arthritis_risk":5,"migraine_risk":7,"frizz_risk":1,"updated_at":"2026-06-20T02:10:27.727264+05:30"},{"city":"Gwalior","state":"Madhya Pradesh","latitude":26.2183,"longitude":78.1828,"temp":31.0,"humidity":54,"rain":0.0,"pressure":980.2,"uv_index":8.3,"wind_gusts":37.8,"aqi":92,"pm10":58.7,"pm2_5":27.5,"no2":5.0,"co":143.0,"o3":66.0,"so2":1.9,"mosquito_risk":0,"arthritis_risk":5,"migraine_risk":7,"frizz_risk":1,"updated_at":"2026-06-20T02:10:27.727272+05:30"},{"city":"Indore","state":"Madhya Pradesh","latitude":22.7196,"longitude":75.8577,"temp":27.5,"humidity":55,"rain":0.0,"pressure":947.0,"uv_index":7.45,"wind_gusts":40.0,"aqi":62,"pm10":35.6,"pm2_5":24.3,"no2":8.5,"co":222.0,"o3":69.0,"so2":7.6,"mosquito_risk":4,"arthritis_risk":5,"migraine_risk":7,"frizz_risk":1,"updated_at":"2026-06-20T02:10:27.727278+05:30"},{"city":"Bhopal","state":"Madhya Pradesh","latitude":23.2599,"longitude":77.4126,"temp":26.4,"humidity":66,"rain":0.0,"pressure":951.9,"uv_index":8.7,"wind_gusts":40.3,"aqi":64,"pm10":21.7,"pm2_5":17.2,"no2":7.1,"co":207.0,"o3":57.0,"so2":3.1,"mosquito_risk":7,"arthritis_risk":5,"migraine_risk":7,"frizz_risk":1,"updated_at":"2026-06-20T02:10:27.727285+05:30"},{"city":"Jabalpur","state":"Madhya Pradesh","latitude":23.1815,"longitude":79.9864,"temp":28.8,"humidity":58,"rain":0.0,"pressure":959.4,"uv_index":8.75,"wind_gusts":29.2,"aqi":66,"pm10":21.8,"pm2_5":15.8,"no2":8.9,"co":201.0,"o3":67.0,"so2":4.3,"mosquito_risk":4,"arthritis_risk":5,"migraine_risk":7,"frizz_risk":1,"updated_at":"2026-06-20T02:10:27.727292+05:30"},{"city":"Ujjain","state":"Madhya Pradesh","latitude":23.1765,"longitude":75.7885,"temp":27.6,"humidity":58,"rain":0.0,"pressure":952.5,"uv_index":7.8,"wind_gusts":36.0,"aqi":63,"pm10":34.1,"pm2_5":23.4,"no2":6.3,"co":208.0,"o3":69.0,"so2":8.0,"mosquito_risk":4,"arthritis_risk":5,"migraine_risk":7,"frizz_risk":1,"updated_at":"2026-06-20T02:10:27.727300+05:30"},{"city":"Visakhapatnam","state":"Andhra Pradesh","latitude":17.6868,"longitude":83.2185,"temp":29.1,"humidity":91,"rain":0.0,"pressure":1001.4,"uv_index":4.05,"wind_gusts":33.1,"aqi":98,"pm10":34.5,"pm2_5":29.6,"no2":31.0,"co":334.0,"o3":80.0,"so2":37.7,"mosquito_risk":7,"arthritis_risk":5,"migraine_risk":0,"frizz_risk":1,"updated_at":"2026-06-20T02:10:27.727307+05:30"},{"city":"Vijayawada","state":"Andhra Pradesh","latitude":16.5062,"longitude":80.648,"temp":29.2,"humidity":80,"rain":0.0,"pressure":1000.2,"uv_index":8.8,"wind_gusts":31.3,"aqi":82,"pm10":27.6,"pm2_5":23.4,"no2":7.7,"co":283.0,"o3":91.0,"so2":5.3,"mosquito_risk":7,"arthritis_risk":5,"migraine_risk":4,"frizz_risk":1,"updated_at":"2026-06-20T02:10:27.727314+05:30"},{"city":"Guntur","state":"Andhra Pradesh","latitude":16.3067,"longitude":80.4365,"temp":30.0,"humidity":65,"rain":0.0,"pressure":1001.4,"uv_index":8.35,"wind_gusts":31.7,"aqi":78,"pm10":26.4,"pm2_5":22.5,"no2":9.3,"co":267.0,"o3":86.0,"so2":5.6,"mosquito_risk":7,"arthritis_risk":5,"migraine_risk":4,"frizz_risk":1,"updated_at":"2026-06-20T02:10:27.727321+05:30"},{"city":"Nellore","state":"Andhra Pradesh","latitude":14.4426,"longitude":79.9865,"temp":26.8,"humidity":89,"rain":0.2,"pressure":1004.6,"uv_index":7.75,"wind_gusts":32.0,"aqi":83,"pm10":29.3,"pm2_5":26.1,"no2":9.2,"co":228.0,"o3":105.0,"so2":13.7,"mosquito_risk":10,"arthritis_risk":5,"migraine_risk":4,"frizz_risk":1,"updated_at":"2026-06-20T02:10:27.727329+05:30"},{"city":"Kurnool","state":"Andhra Pradesh","latitude":15.8281,"longitude":78.0373,"temp":28.8,"humidity":58,"rain":0.0,"pressure":975.7,"uv_index":8.25,"wind_gusts":41.4,"aqi":71,"pm10":43.0,"pm2_5":35.0,"no2":27.4,"co":282.0,"o3":51.0,"so2":11.5,"mosquito_risk":4,"arthritis_risk":5,"migraine_risk":7,"frizz_risk":1,"updated_at":"2026-06-20T02:10:27.727337+05:30"},{"city":"Kakinada","state":"Andhra Pradesh","latitude":16.9891,"longitude":82.2475,"temp":28.6,"humidity":82,"rain":0.0,"pressure":1005.2,"uv_index":7.75,"wind_gusts":34.6,"aqi":78,"pm10":26.4,"pm2_5":20.0,"no2":4.2,"co":346.0,"o3":111.0,"so2":3.8,"mosquito_risk":7,"arthritis_risk":5,"migraine_risk":4,"frizz_risk":1,"updated_at":"2026-06-20T02:10:27.727344+05:30"},{"city":"Tirupati","state":"Andhra Pradesh","latitude":13.6288,"longitude":79.4192,"temp":26.7,"humidity":77,"rain":0.0,"pressure":990.4,"uv_index":5.9,"wind_gusts":35.3,"aqi":74,"pm10":24.7,"pm2_5":21.7,"no2":14.4,"co":288.0,"o3":71.0,"so2":5.1,"mosquito_risk":7,"arthritis_risk":5,"migraine_risk":3,"frizz_risk":1,"updated_at":"2026-06-20T02:10:27.727351+05:30"},{"city":"Warangal","state":"Telangana","latitude":17.9689,"longitude":79.5941,"temp":29.3,"humidity":62,"rain":0.0,"pressure":977.0,"uv_index":7.95,"wind_gusts":25.6,"aqi":87,"pm10":47.7,"pm2_5":40.7,"no2":28.2,"co":528.0,"o3":28.0,"so2":5.9,"mosquito_risk":7,"arthritis_risk":5,"migraine_risk":7,"frizz_risk":1,"updated_at":"2026-06-20T02:10:27.727357+05:30"},{"city":"Nizamabad","state":"Telangana","latitude":18.6725,"longitude":78.0941,"temp":30.9,"humidity":45,"rain":0.0,"pressure":963.0,"uv_index":8.8,"wind_gusts":35.3,"aqi":70,"pm10":49.7,"pm2_5":40.3,"no2":28.3,"co":484.0,"o3":44.0,"so2":6.0,"mosquito_risk":0,"arthritis_risk":5,"migraine_risk":7,"frizz_risk":1,"updated_at":"2026-06-20T02:10:27.727364+05:30"},{"city":"Mysore","state":"Karnataka","latitude":12.2958,"longitude":76.6396,"temp":21.8,"humidity":94,"rain":0.0,"pressure":928.4,"uv_index":8.1,"wind_gusts":31.3,"aqi":50,"pm10":21.9,"pm2_5":18.0,"no2":28.0,"co":253.0,"o3":18.0,"so2":3.5,"mosquito_risk":3,"arthritis_risk":5,"migraine_risk":7,"frizz_risk":1,"updated_at":"2026-06-20T02:10:27.727371+05:30"},{"city":"Mangalore","state":"Karnataka","latitude":12.9141,"longitude":74.856,"temp":24.8,"humidity":96,"rain":0.0,"pressure":1007.1,"uv_index":7.4,"wind_gusts":35.3,"aqi":59,"pm10":44.5,"pm2_5":33.2,"no2":26.6,"co":435.0,"o3":18.0,"so2":7.6,"mosquito_risk":3,"arthritis_risk":5,"migraine_risk":4,"frizz_risk":1,"updated_at":"2026-06-20T02:10:27.727378+05:30"},{"city":"Hubli-Dharwad","state":"Karnataka","latitude":15.3647,"longitude":75.124,"temp":22.8,"humidity":91,"rain":0.0,"pressure":941.0,"uv_index":8.8,"wind_gusts":47.9,"aqi":48,"pm10":12.5,"pm2_5":7.9,"no2":5.6,"co":138.0,"o3":36.0,"so2":1.8,"mosquito_risk":3,"arthritis_risk":5,"migraine_risk":7,"frizz_risk":1,"updated_at":"2026-06-20T02:10:27.727385+05:30"},{"city":"Belgaum","state":"Karnataka","latitude":15.8497,"longitude":74.4977,"temp":21.3,"humidity":98,"rain":0.0,"pressure":925.6,"uv_index":8.4,"wind_gusts":38.5,"aqi":49,"pm10":16.6,"pm2_5":12.3,"no2":8.6,"co":118.0,"o3":29.0,"so2":2.1,"mosquito_risk":3,"arthritis_risk":5,"migraine_risk":7,"frizz_risk":1,"updated_at":"2026-06-20T02:10:31.060805+05:30"},{"city":"Coimbatore","state":"Tamil Nadu","latitude":11.0168,"longitude":76.9558,"temp":24.1,"humidity":89,"rain":0.0,"pressure":961.6,"uv_index":8.75,"wind_gusts":41.4,"aqi":37,"pm10":16.9,"pm2_5":13.3,"no2":20.0,"co":345.0,"o3":21.0,"so2":4.3,"mosquito_risk":3,"arthritis_risk":5,"migraine_risk":7,"frizz_risk":1,"updated_at":"2026-06-20T02:10:31.060838+05:30"},{"city":"Madurai","state":"Tamil Nadu","latitude":9.9252,"longitude":78.1198,"temp":27.0,"humidity":90,"rain":0.0,"pressure":992.9,"uv_index":8.75,"wind_gusts":29.2,"aqi":56,"pm10":22.5,"pm2_5":20.8,"no2":40.5,"co":526.0,"o3":8.0,"so2":6.7,"mosquito_risk":7,"arthritis_risk":5,"migraine_risk":7,"frizz_risk":1,"updated_at":"2026-06-20T02:10:31.060849+05:30"},{"city":"Trichy","state":"Tamil Nadu","latitude":10.7905,"longitude":78.7047,"temp":26.5,"humidity":90,"rain":0.0,"pressure":999.5,"uv_index":8.7,"wind_gusts":31.0,"aqi":47,"pm10":19.5,"pm2_5":17.0,"no2":20.2,"co":216.0,"o3":41.0,"so2":3.9,"mosquito_risk":7,"arthritis_risk":5,"migraine_risk":7,"frizz_risk":1,"updated_at":"2026-06-20T02:10:31.060859+05:30"},{"city":"Salem","state":"Tamil Nadu","latitude":11.6643,"longitude":78.146,"temp":24.6,"humidity":93,"rain":0.0,"pressure":977.1,"uv_index":8.15,"wind_gusts":20.5,"aqi":60,"pm10":37.3,"pm2_5":33.8,"no2":35.1,"co":433.0,"o3":50.0,"so2":12.1,"mosquito_risk":3,"arthritis_risk":5,"migraine_risk":7,"frizz_risk":1,"updated_at":"2026-06-20T02:10:31.060867+05:30"},{"city":"Tirunelveli","state":"Tamil Nadu","latitude":8.7139,"longitude":77.7567,"temp":27.7,"humidity":75,"rain":0.0,"pressure":1003.2,"uv_index":8.65,"wind_gusts":22.3,"aqi":51,"pm10":27.1,"pm2_5":20.5,"no2":13.8,"co":315.0,"o3":40.0,"so2":3.8,"mosquito_risk":7,"arthritis_risk":5,"migraine_risk":4,"frizz_risk":1,"updated_at":"2026-06-20T02:10:31.060875+05:30"},{"city":"Vellore","state":"Tamil Nadu","latitude":12.9165,"longitude":79.1325,"temp":25.8,"humidity":78,"rain":0.0,"pressure":983.9,"uv_index":7.7,"wind_gusts":34.9,"aqi":70,"pm10":21.9,"pm2_5":19.8,"no2":13.6,"co":233.0,"o3":68.0,"so2":5.1,"mosquito_risk":7,"arthritis_risk":5,"migraine_risk":7,"frizz_risk":1,"updated_at":"2026-06-20T02:10:31.060883+05:30"},{"city":"Erode","state":"Tamil Nadu","latitude":11.341,"longitude":77.7172,"temp":24.9,"humidity":93,"rain":0.0,"pressure":989.2,"uv_index":8.6,"wind_gusts":28.1,"aqi":52,"pm10":34.2,"pm2_5":30.3,"no2":45.3,"co":474.0,"o3":12.0,"so2":6.2,"mosquito_risk":3,"arthritis_risk":5,"migraine_risk":7,"frizz_risk":1,"updated_at":"2026-06-20T02:10:31.060891+05:30"},{"city":"Kochi","state":"Kerala","latitude":9.9312,"longitude":76.2673,"temp":26.0,"humidity":96,"rain":0.0,"pressure":1009.2,"uv_index":8.55,"wind_gusts":34.9,"aqi":68,"pm10":43.3,"pm2_5":32.9,"no2":36.8,"co":101.0,"o3":13.0,"so2":9.7,"mosquito_risk":7,"arthritis_risk":0,"migraine_risk":4,"frizz_risk":1,"updated_at":"2026-06-20T02:10:31.060898+05:30"},{"city":"Thiruvananthapuram","state":"Kerala","latitude":8.5241,"longitude":76.9366,"temp":24.2,"humidity":93,"rain":0.0,"pressure":1008.9,"uv_index":8.4,"wind_gusts":35.3,"aqi":59,"pm10":33.3,"pm2_5":14.5,"no2":2.9,"co":405.0,"o3":55.0,"so2":1.6,"mosquito_risk":3,"arthritis_risk":0,"migraine_risk":4,"frizz_risk":1,"updated_at":"2026-06-20T02:10:31.060905+05:30"},{"city":"Kozhikode","state":"Kerala","latitude":11.2588,"longitude":75.7804,"temp":25.7,"humidity":93,"rain":0.0,"pressure":1008.3,"uv_index":7.8,"wind_gusts":31.3,"aqi":51,"pm10":30.4,"pm2_5":14.0,"no2":2.3,"co":236.0,"o3":55.0,"so2":1.5,"mosquito_risk":7,"arthritis_risk":0,"migraine_risk":4,"frizz_risk":1,"updated_at":"2026-06-20T02:10:31.060912+05:30"},{"city":"Thrissur","state":"Kerala","latitude":10.5276,"longitude":76.2144,"temp":24.8,"humidity":94,"rain":0.0,"pressure":1007.5,"uv_index":8.45,"wind_gusts":34.2,"aqi":70,"pm10":52.5,"pm2_5":42.6,"no2":33.3,"co":636.0,"o3":15.0,"so2":8.7,"mosquito_risk":3,"arthritis_risk":5,"migraine_risk":4,"frizz_risk":1,"updated_at":"2026-06-20T02:10:31.060921+05:30"},{"city":"Kannur","state":"Kerala","latitude":11.8745,"longitude":75.3704,"temp":25.6,"humidity":93,"rain":0.0,"pressure":1007.5,"uv_index":7.55,"wind_gusts":32.0,"aqi":59,"pm10":41.7,"pm2_5":30.9,"no2":26.4,"co":774.0,"o3":19.0,"so2":5.0,"mosquito_risk":7,"arthritis_risk":5,"migraine_risk":4,"frizz_risk":1,"updated_at":"2026-06-20T02:10:31.060928+05:30"},{"city":"Patna","state":"Bihar","latitude":25.5941,"longitude":85.1376,"temp":29.7,"humidity":66,"rain":0.0,"pressure":995.9,"uv_index":8.8,"wind_gusts":30.6,"aqi":155,"pm10":90.6,"pm2_5":69.4,"no2":29.0,"co":582.0,"o3":57.0,"so2":15.3,"mosquito_risk":7,"arthritis_risk":5,"migraine_risk":7,"frizz_risk":1,"updated_at":"2026-06-20T02:10:31.060936+05:30"},{"city":"Gaya","state":"Bihar","latitude":24.7914,"longitude":85.0002,"temp":29.4,"humidity":68,"rain":0.0,"pressure":990.0,"uv_index":8.95,"wind_gusts":28.1,"aqi":133,"pm10":53.0,"pm2_5":36.4,"no2":10.1,"co":219.0,"o3":74.0,"so2":8.9,"mosquito_risk":7,"arthritis_risk":5,"migraine_risk":7,"frizz_risk":1,"updated_at":"2026-06-20T02:10:31.060943+05:30"},{"city":"Muzaffarpur","state":"Bihar","latitude":26.1209,"longitude":85.3647,"temp":28.2,"humidity":86,"rain":0.0,"pressure":996.1,"uv_index":8.9,"wind_gusts":34.9,"aqi":154,"pm10":81.5,"pm2_5":66.4,"no2":17.6,"co":461.0,"o3":89.0,"so2":14.9,"mosquito_risk":7,"arthritis_risk":5,"migraine_risk":7,"frizz_risk":1,"updated_at":"2026-06-20T02:10:31.060950+05:30"},{"city":"Bhagalpur","state":"Bihar","latitude":25.2425,"longitude":87.0117,"temp":28.6,"humidity":88,"rain":0.0,"pressure":997.3,"uv_index":8.7,"wind_gusts":22.7,"aqi":159,"pm10":73.1,"pm2_5":68.9,"no2":17.9,"co":446.0,"o3":75.0,"so2":32.2,"mosquito_risk":7,"arthritis_risk":5,"migraine_risk":7,"frizz_risk":1,"updated_at":"2026-06-20T02:10:31.060957+05:30"},{"city":"Ranchi","state":"Jharkhand","latitude":23.3441,"longitude":85.3096,"temp":24.8,"humidity":84,"rain":0.0,"pressure":934.9,"uv_index":8.9,"wind_gusts":39.6,"aqi":133,"pm10":44.2,"pm2_5":39.8,"no2":13.8,"co":319.0,"o3":85.0,"so2":8.5,"mosquito_risk":3,"arthritis_risk":5,"migraine_risk":7,"frizz_risk":1,"updated_at":"2026-06-20T02:10:31.060964+05:30"},{"city":"Jamshedpur","state":"Jharkhand","latitude":22.8046,"longitude":86.2029,"temp":27.2,"humidity":87,"rain":0.0,"pressure":988.0,"uv_index":9.1,"wind_gusts":32.0,"aqi":152,"pm10":61.9,"pm2_5":58.3,"no2":27.1,"co":527.0,"o3":60.0,"so2":28.5,"mosquito_risk":7,"arthritis_risk":5,"migraine_risk":7,"frizz_risk":1,"updated_at":"2026-06-20T02:10:31.060971+05:30"},{"city":"Dhanbad","state":"Jharkhand","latitude":23.7957,"longitude":86.4304,"temp":27.5,"humidity":89,"rain":0.0,"pressure":976.4,"uv_index":8.7,"wind_gusts":22.7,"aqi":161,"pm10":78.0,"pm2_5":75.4,"no2":52.2,"co":761.0,"o3":56.0,"so2":140.8,"mosquito_risk":7,"arthritis_risk":5,"migraine_risk":7,"frizz_risk":1,"updated_at":"2026-06-20T02:10:31.060978+05:30"},{"city":"Bokaro","state":"Jharkhand","latitude":23.6693,"longitude":86.1511,"temp":27.3,"humidity":90,"rain":0.0,"pressure":980.1,"uv_index":8.85,"wind_gusts":25.9,"aqi":155,"pm10":67.8,"pm2_5":64.7,"no2":41.1,"co":437.0,"o3":63.0,"so2":103.3,"mosquito_risk":7,"arthritis_risk":5,"migraine_risk":7,"frizz_risk":1,"updated_at":"2026-06-20T02:10:31.060985+05:30"},{"city":"Bhubaneswar","state":"Odisha","latitude":20.2961,"longitude":85.8245,"temp":26.3,"humidity":95,"rain":0.0,"pressure":1000.3,"uv_index":8.8,"wind_gusts":33.8,"aqi":86,"pm10":28.7,"pm2_5":26.7,"no2":7.7,"co":223.0,"o3":117.0,"so2":7.1,"mosquito_risk":7,"arthritis_risk":5,"migraine_risk":4,"frizz_risk":1,"updated_at":"2026-06-20T02:10:31.060992+05:30"},{"city":"Cuttack","state":"Odisha","latitude":20.4625,"longitude":85.8828,"temp":26.7,"humidity":93,"rain":0.0,"pressure":1001.8,"uv_index":9.15,"wind_gusts":28.1,"aqi":86,"pm10":28.7,"pm2_5":26.7,"no2":7.7,"co":307.0,"o3":117.0,"so2":7.1,"mosquito_risk":7,"arthritis_risk":5,"migraine_risk":4,"frizz_risk":1,"updated_at":"2026-06-20T02:10:31.060999+05:30"},{"city":"Rourkela","state":"Odisha","latitude":22.2604,"longitude":84.8536,"temp":25.7,"humidity":92,"rain":0.0,"pressure":982.4,"uv_index":6.35,"wind_gusts":38.5,"aqi":151,"pm10":75.7,"pm2_5":71.5,"no2":28.1,"co":329.0,"o3":75.0,"so2":19.7,"mosquito_risk":7,"arthritis_risk":5,"migraine_risk":7,"frizz_risk":1,"updated_at":"2026-06-20T02:10:31.061006+05:30"},{"city":"Raipur","state":"Chhattisgarh","latitude":21.2514,"longitude":81.6296,"temp":28.8,"humidity":77,"rain":0.0,"pressure":972.2,"uv_index":1.2,"wind_gusts":27.7,"aqi":106,"pm10":62.2,"pm2_5":54.1,"no2":51.5,"co":492.0,"o3":22.0,"so2":41.2,"mosquito_risk":7,"arthritis_risk":5,"migraine_risk":3,"frizz_risk":1,"updated_at":"2026-06-20T02:10:31.061013+05:30"},{"city":"Bhilai","state":"Chhattisgarh","latitude":21.1938,"longitude":81.3509,"temp":28.4,"humidity":80,"rain":0.0,"pressure":972.7,"uv_index":6.95,"wind_gusts":36.4,"aqi":107,"pm10":63.8,"pm2_5":54.9,"no2":57.8,"co":725.0,"o3":28.0,"so2":53.5,"mosquito_risk":7,"arthritis_risk":5,"migraine_risk":7,"frizz_risk":1,"updated_at":"2026-06-20T02:10:31.061020+05:30"},{"city":"Guwahati","state":"Assam","latitude":26.1158,"longitude":91.7086,"temp":25.6,"humidity":95,"rain":0.1,"pressure":998.9,"uv_index":8.7,"wind_gusts":25.9,"aqi":100,"pm10":53.4,"pm2_5":43.7,"no2":9.4,"co":385.0,"o3":75.0,"so2":4.7,"mosquito_risk":10,"arthritis_risk":5,"migraine_risk":7,"frizz_risk":1,"updated_at":"2026-06-20T02:10:31.061028+05:30"},{"city":"Agartala","state":"Tripura","latitude":23.8315,"longitude":91.2868,"temp":25.2,"humidity":93,"rain":0.0,"pressure":1004.3,"uv_index":8.65,"wind_gusts":32.8,"aqi":87,"pm10":28.5,"pm2_5":23.3,"no2":9.4,"co":187.0,"o3":66.0,"so2":2.2,"mosquito_risk":7,"arthritis_risk":5,"migraine_risk":4,"frizz_risk":1,"updated_at":"2026-06-20T02:10:31.061035+05:30"},{"city":"Shillong","state":"Meghalaya","latitude":25.5788,"longitude":91.8933,"temp":18.6,"humidity":93,"rain":0.0,"pressure":855.4,"uv_index":6.35,"wind_gusts":31.0,"aqi":55,"pm10":18.4,"pm2_5":14.0,"no2":4.6,"co":247.0,"o3":95.0,"so2":4.1,"mosquito_risk":3,"arthritis_risk":10,"migraine_risk":7,"frizz_risk":1,"updated_at":"2026-06-20T02:10:31.061042+05:30"},{"city":"Imphal","state":"Manipur","latitude":24.817,"longitude":93.9368,"temp":22.3,"humidity":96,"rain":0.0,"pressure":921.5,"uv_index":9.05,"wind_gusts":37.1,"aqi":56,"pm10":20.9,"pm2_5":18.4,"no2":9.5,"co":477.0,"o3":45.0,"so2":2.5,"mosquito_risk":3,"arthritis_risk":5,"migraine_risk":7,"frizz_risk":1,"updated_at":"2026-06-20T02:10:31.061049+05:30"},{"city":"Aizawl","state":"Mizoram","latitude":23.7271,"longitude":92.7176,"temp":19.0,"humidity":98,"rain":0.0,"pressure":890.9,"uv_index":8.3,"wind_gusts":35.6,"aqi":47,"pm10":8.3,"pm2_5":6.6,"no2":3.1,"co":167.0,"o3":58.0,"so2":1.3,"mosquito_risk":3,"arthritis_risk":10,"migraine_risk":7,"frizz_risk":1,"updated_at":"2026-06-20T02:10:31.061056+05:30"},{"city":"Kohima","state":"Nagaland","latitude":25.6701,"longitude":94.1077,"temp":18.5,"humidity":95,"rain":0.0,"pressure":853.4,"uv_index":8.3,"wind_gusts":32.4,"aqi":42,"pm10":6.9,"pm2_5":4.9,"no2":3.8,"co":338.0,"o3":68.0,"so2":1.2,"mosquito_risk":3,"arthritis_risk":10,"migraine_risk":7,"frizz_risk":1,"updated_at":"2026-06-20T02:10:31.061063+05:30"},{"city":"Gangtok","state":"Sikkim","latitude":27.3314,"longitude":88.6138,"temp":17.8,"humidity":95,"rain":0.5,"pressure":835.7,"uv_index":8.85,"wind_gusts":33.1,"aqi":78,"pm10":16.4,"pm2_5":14.0,"no2":5.7,"co":387.0,"o3":129.0,"so2":6.6,"mosquito_risk":6,"arthritis_risk":10,"migraine_risk":7,"frizz_risk":1,"updated_at":"2026-06-20T02:10:31.061070+05:30"},{"city":"Siliguri","state":"West Bengal","latitude":26.7271,"longitude":88.3953,"temp":24.5,"humidity":98,"rain":0.1,"pressure":990.8,"uv_index":7.2,"wind_gusts":19.4,"aqi":101,"pm10":64.7,"pm2_5":54.5,"no2":11.0,"co":518.0,"o3":104.0,"so2":8.9,"mosquito_risk":6,"arthritis_risk":5,"migraine_risk":7,"frizz_risk":1,"updated_at":"2026-06-20T02:10:34.398536+05:30"},{"city":"Durgapur","state":"West Bengal","latitude":23.5204,"longitude":87.3119,"temp":26.2,"humidity":89,"rain":0.0,"pressure":991.8,"uv_index":9.0,"wind_gusts":32.0,"aqi":161,"pm10":78.9,"pm2_5":76.6,"no2":37.6,"co":963.0,"o3":54.0,"so2":54.4,"mosquito_risk":7,"arthritis_risk":5,"migraine_risk":7,"frizz_risk":1,"updated_at":"2026-06-20T02:10:34.398572+05:30"},{"city":"Asansol","state":"West Bengal","latitude":23.6739,"longitude":86.9524,"temp":27.2,"humidity":86,"rain":0.0,"pressure":990.2,"uv_index":9.05,"wind_gusts":25.6,"aqi":160,"pm10":69.4,"pm2_5":67.1,"no2":39.7,"co":552.0,"o3":56.0,"so2":69.1,"mosquito_risk":7,"arthritis_risk":5,"migraine_risk":7,"frizz_risk":1,"updated_at":"2026-06-20T02:10:34.398585+05:30"},{"city":"Pondicherry","state":"Puducherry","latitude":11.9139,"longitude":79.8145,"temp":25.7,"humidity":95,"rain":0.0,"pressure":1007.9,"uv_index":8.05,"wind_gusts":37.4,"aqi":72,"pm10":18.2,"pm2_5":15.4,"no2":13.1,"co":298.0,"o3":81.0,"so2":14.4,"mosquito_risk":7,"arthritis_risk":5,"migraine_risk":4,"frizz_risk":1,"updated_at":"2026-06-20T02:10:34.398595+05:30"},{"city":"Port Blair","state":"Andaman and Nicobar Islands","latitude":11.6234,"longitude":92.7265,"temp":26.6,"humidity":87,"rain":0.0,"pressure":1007.5,"uv_index":8.75,"wind_gusts":39.2,"aqi":27,"pm10":11.9,"pm2_5":5.7,"no2":0.2,"co":90.0,"o3":43.0,"so2":0.4,"mosquito_risk":7,"arthritis_risk":5,"migraine_risk":4,"frizz_risk":1,"updated_at":"2026-06-20T02:10:34.398605+05:30"},{"city":"Haridwar","state":"Uttarakhand","latitude":29.9457,"longitude":78.1642,"temp":26.5,"humidity":85,"rain":0.0,"pressure":969.9,"uv_index":7.65,"wind_gusts":25.9,"aqi":151,"pm10":160.2,"pm2_5":84.3,"no2":40.4,"co":495.0,"o3":54.0,"so2":14.7,"mosquito_risk":7,"arthritis_risk":5,"migraine_risk":7,"frizz_risk":1,"updated_at":"2026-06-20T02:10:34.398614+05:30"},{"city":"Rishikesh","state":"Uttarakhand","latitude":30.0869,"longitude":78.2676,"temp":24.3,"humidity":84,"rain":0.0,"pressure":962.7,"uv_index":7.7,"wind_gusts":29.2,"aqi":125,"pm10":51.6,"pm2_5":42.0,"no2":15.7,"co":458.0,"o3":108.0,"so2":6.9,"mosquito_risk":3,"arthritis_risk":5,"migraine_risk":7,"frizz_risk":1,"updated_at":"2026-06-20T02:10:34.398621+05:30"},{"city":"Nainital","state":"Uttarakhand","latitude":29.3919,"longitude":79.4542,"temp":14.9,"humidity":92,"rain":0.0,"pressure":802.9,"uv_index":6.85,"wind_gusts":31.3,"aqi":109,"pm10":40.9,"pm2_5":36.4,"no2":19.9,"co":365.0,"o3":58.0,"so2":3.2,"mosquito_risk":3,"arthritis_risk":10,"migraine_risk":7,"frizz_risk":0,"updated_at":"2026-06-20T02:10:34.398630+05:30"},{"city":"Mussoorie","state":"Uttarakhand","latitude":30.4599,"longitude":78.0664,"temp":14.4,"humidity":99,"rain":0.0,"pressure":800.3,"uv_index":7.35,"wind_gusts":42.1,"aqi":105,"pm10":53.9,"pm2_5":50.3,"no2":41.5,"co":318.0,"o3":59.0,"so2":9.1,"mosquito_risk":3,"arthritis_risk":10,"migraine_risk":7,"frizz_risk":0,"updated_at":"2026-06-20T02:10:34.398637+05:30"},{"city":"Dharamshala","state":"Himachal Pradesh","latitude":32.219,"longitude":76.3234,"temp":20.1,"humidity":82,"rain":0.0,"pressure":867.1,"uv_index":8.4,"wind_gusts":42.8,"aqi":45,"pm10":13.0,"pm2_5":9.2,"no2":9.2,"co":324.0,"o3":90.0,"so2":0.2,"mosquito_risk":3,"arthritis_risk":5,"migraine_risk":7,"frizz_risk":1,"updated_at":"2026-06-20T02:10:34.398645+05:30"},{"city":"Dalhousie","state":"Himachal Pradesh","latitude":32.5387,"longitude":75.971,"temp":13.6,"humidity":92,"rain":0.0,"pressure":801.4,"uv_index":8.65,"wind_gusts":31.7,"aqi":74,"pm10":32.8,"pm2_5":29.1,"no2":38.3,"co":329.0,"o3":22.0,"so2":0.9,"mosquito_risk":3,"arthritis_risk":10,"migraine_risk":7,"frizz_risk":0,"updated_at":"2026-06-20T02:10:34.398653+05:30"},{"city":"Patiala","state":"Punjab","latitude":30.3398,"longitude":76.3869,"temp":28.2,"humidity":70,"rain":0.0,"pressure":974.4,"uv_index":7.7,"wind_gusts":34.6,"aqi":324,"pm10":758.1,"pm2_5":142.0,"no2":15.6,"co":457.0,"o3":69.0,"so2":8.5,"mosquito_risk":7,"arthritis_risk":5,"migraine_risk":7,"frizz_risk":1,"updated_at":"2026-06-20T02:10:34.398661+05:30"},{"city":"Bhatinda","state":"Punjab","latitude":30.211,"longitude":74.9455,"temp":29.3,"humidity":63,"rain":0.0,"pressure":980.2,"uv_index":8.3,"wind_gusts":32.4,"aqi":130,"pm10":58.9,"pm2_5":43.3,"no2":28.9,"co":388.0,"o3":42.0,"so2":5.3,"mosquito_risk":7,"arthritis_risk":5,"migraine_risk":7,"frizz_risk":1,"updated_at":"2026-06-20T02:10:34.398668+05:30"},{"city":"Rohtak","state":"Haryana","latitude":28.8955,"longitude":76.6066,"temp":28.3,"humidity":68,"rain":0.0,"pressure":977.9,"uv_index":7.8,"wind_gusts":33.5,"aqi":543,"pm10":586.7,"pm2_5":142.5,"no2":44.1,"co":391.0,"o3":34.0,"so2":8.8,"mosquito_risk":7,"arthritis_risk":5,"migraine_risk":7,"frizz_risk":1,"updated_at":"2026-06-20T02:10:34.398675+05:30"},{"city":"Panipat","state":"Haryana","latitude":29.3909,"longitude":76.9635,"temp":28.4,"humidity":66,"rain":0.0,"pressure":976.6,"uv_index":7.65,"wind_gusts":32.0,"aqi":1085,"pm10":1613.1,"pm2_5":267.3,"no2":19.3,"co":469.0,"o3":75.0,"so2":9.6,"mosquito_risk":7,"arthritis_risk":5,"migraine_risk":7,"frizz_risk":1,"updated_at":"2026-06-20T02:10:34.398682+05:30"},{"city":"Mathura","state":"Uttar Pradesh","latitude":27.4924,"longitude":77.6737,"temp":30.1,"humidity":55,"rain":0.0,"pressure":983.0,"uv_index":8.1,"wind_gusts":33.5,"aqi":204,"pm10":618.4,"pm2_5":98.7,"no2":31.4,"co":284.0,"o3":31.0,"so2":5.9,"mosquito_risk":0,"arthritis_risk":5,"migraine_risk":7,"frizz_risk":1,"updated_at":"2026-06-20T02:10:34.398689+05:30"},{"city":"Vrindavan","state":"Uttar Pradesh","latitude":27.5823,"longitude":77.7027,"temp":29.9,"humidity":56,"rain":0.0,"pressure":983.4,"uv_index":8.1,"wind_gusts":32.4,"aqi":204,"pm10":618.4,"pm2_5":98.7,"no2":31.4,"co":280.0,"o3":31.0,"so2":5.9,"mosquito_risk":4,"arthritis_risk":5,"migraine_risk":7,"frizz_risk":1,"updated_at":"2026-06-20T02:10:34.398696+05:30"},{"city":"Ayodhya","state":"Uttar Pradesh","latitude":26.7922,"longitude":82.1998,"temp":30.6,"humidity":68,"rain":0.0,"pressure":990.3,"uv_index":8.45,"wind_gusts":32.8,"aqi":154,"pm10":142.5,"pm2_5":67.5,"no2":28.7,"co":438.0,"o3":43.0,"so2":9.0,"mosquito_risk":3,"arthritis_risk":5,"migraine_risk":7,"frizz_risk":1,"updated_at":"2026-06-20T02:10:34.398703+05:30"},{"city":"Ratlam","state":"Madhya Pradesh","latitude":23.3315,"longitude":75.0367,"temp":26.5,"humidity":60,"rain":0.0,"pressure":953.5,"uv_index":7.75,"wind_gusts":40.0,"aqi":62,"pm10":24.6,"pm2_5":17.6,"no2":6.4,"co":151.0,"o3":63.0,"so2":10.2,"mosquito_risk":4,"arthritis_risk":5,"migraine_risk":7,"frizz_risk":1,"updated_at":"2026-06-20T02:10:34.398710+05:30"},{"city":"Sagar","state":"Madhya Pradesh","latitude":23.8388,"longitude":78.7378,"temp":26.7,"humidity":69,"rain":0.0,"pressure":948.2,"uv_index":8.75,"wind_gusts":39.2,"aqi":58,"pm10":24.2,"pm2_5":17.9,"no2":6.0,"co":185.0,"o3":70.0,"so2":2.8,"mosquito_risk":7,"arthritis_risk":5,"migraine_risk":7,"frizz_risk":1,"updated_at":"2026-06-20T02:10:34.398717+05:30"},{"city":"Satna","state":"Madhya Pradesh","latitude":24.6005,"longitude":80.8322,"temp":30.5,"humidity":55,"rain":0.0,"pressure":968.2,"uv_index":8.85,"wind_gusts":34.9,"aqi":77,"pm10":28.8,"pm2_5":21.1,"no2":12.3,"co":174.0,"o3":54.0,"so2":3.8,"mosquito_risk":0,"arthritis_risk":5,"migraine_risk":7,"frizz_risk":1,"updated_at":"2026-06-20T02:10:34.398724+05:30"},{"city":"Akola","state":"Maharashtra","latitude":20.7002,"longitude":77.0082,"temp":31.5,"humidity":42,"rain":0.0,"pressure":973.9,"uv_index":8.85,"wind_gusts":40.0,"aqi":56,"pm10":22.1,"pm2_5":14.9,"no2":10.0,"co":164.0,"o3":64.0,"so2":5.6,"mosquito_risk":0,"arthritis_risk":5,"migraine_risk":7,"frizz_risk":1,"updated_at":"2026-06-20T02:10:34.398732+05:30"},{"city":"Amravati","state":"Maharashtra","latitude":20.9374,"longitude":77.7796,"temp":30.4,"humidity":46,"rain":0.0,"pressure":966.0,"uv_index":8.85,"wind_gusts":40.0,"aqi":57,"pm10":22.3,"pm2_5":15.0,"no2":12.0,"co":268.0,"o3":56.0,"so2":4.8,"mosquito_risk":0,"arthritis_risk":5,"migraine_risk":7,"frizz_risk":1,"updated_at":"2026-06-20T02:10:34.398740+05:30"},{"city":"Latur","state":"Maharashtra","latitude":18.4088,"longitude":76.5604,"temp":29.1,"humidity":45,"rain":0.0,"pressure":938.9,"uv_index":8.9,"wind_gusts":32.4,"aqi":56,"pm10":13.8,"pm2_5":10.7,"no2":6.5,"co":205.0,"o3":69.0,"so2":3.4,"mosquito_risk":4,"arthritis_risk":5,"migraine_risk":7,"frizz_risk":0,"updated_at":"2026-06-20T02:10:34.398747+05:30"},{"city":"Nanded","state":"Maharashtra","latitude":19.1383,"longitude":77.3091,"temp":31.4,"humidity":41,"rain":0.0,"pressure":966.6,"uv_index":8.65,"wind_gusts":31.7,"aqi":65,"pm10":46.1,"pm2_5":38.5,"no2":37.2,"co":463.0,"o3":28.0,"so2":8.1,"mosquito_risk":0,"arthritis_risk":5,"migraine_risk":7,"frizz_risk":1,"updated_at":"2026-06-20T02:10:34.398755+05:30"},{"city":"Gulbarga","state":"Karnataka","latitude":17.3297,"longitude":76.8343,"temp":29.4,"humidity":48,"rain":0.0,"pressure":957.8,"uv_index":8.4,"wind_gusts":35.3,"aqi":58,"pm10":20.7,"pm2_5":16.6,"no2":16.8,"co":174.0,"o3":49.0,"so2":3.3,"mosquito_risk":4,"arthritis_risk":5,"migraine_risk":7,"frizz_risk":1,"updated_at":"2026-06-20T02:10:34.398762+05:30"},{"city":"Bidar","state":"Karnataka","latitude":17.9104,"longitude":77.5199,"temp":28.4,"humidity":50,"rain":0.0,"pressure":934.0,"uv_index":8.0,"wind_gusts":34.9,"aqi":75,"pm10":44.0,"pm2_5":37.5,"no2":43.2,"co":343.0,"o3":27.0,"so2":6.6,"mosquito_risk":4,"arthritis_risk":5,"migraine_risk":7,"frizz_risk":1,"updated_at":"2026-06-20T02:10:34.398769+05:30"},{"city":"Hospet","state":"Karnataka","latitude":15.2689,"longitude":76.3909,"temp":25.7,"humidity":75,"rain":0.0,"pressure":956.1,"uv_index":8.9,"wind_gusts":40.0,"aqi":52,"pm10":16.8,"pm2_5":11.3,"no2":6.9,"co":154.0,"o3":45.0,"so2":2.2,"mosquito_risk":7,"arthritis_risk":5,"migraine_risk":7,"frizz_risk":1,"updated_at":"2026-06-20T02:10:34.398776+05:30"},{"city":"Tirupur","state":"Tamil Nadu","latitude":11.1085,"longitude":77.3411,"temp":24.8,"humidity":89,"rain":0.0,"pressure":975.1,"uv_index":8.8,"wind_gusts":41.8,"aqi":55,"pm10":33.5,"pm2_5":30.3,"no2":43.5,"co":228.0,"o3":12.0,"so2":8.0,"mosquito_risk":3,"arthritis_risk":5,"migraine_risk":7,"frizz_risk":1,"updated_at":"2026-06-20T02:10:34.398783+05:30"},{"city":"Alappuzha","state":"Kerala","latitude":9.4981,"longitude":76.3388,"temp":27.0,"humidity":88,"rain":0.0,"pressure":1009.3,"uv_index":8.5,"wind_gusts":34.2,"aqi":59,"pm10":37.6,"pm2_5":23.5,"no2":15.7,"co":88.0,"o3":37.0,"so2":4.2,"mosquito_risk":7,"arthritis_risk":0,"migraine_risk":4,"frizz_risk":1,"updated_at":"2026-06-20T02:10:34.398790+05:30"},{"city":"Munnar","state":"Kerala","latitude":10.0889,"longitude":77.0595,"temp":15.4,"humidity":90,"rain":0.0,"pressure":855.3,"uv_index":8.95,"wind_gusts":32.4,"aqi":19,"pm10":11.8,"pm2_5":10.2,"no2":16.2,"co":165.0,"o3":12.0,"so2":1.5,"mosquito_risk":3,"arthritis_risk":10,"migraine_risk":7,"frizz_risk":0,"updated_at":"2026-06-20T02:10:34.398798+05:30"},{"city":"Silchar","state":"Assam","latitude":24.8333,"longitude":92.7789,"temp":25.5,"humidity":97,"rain":0.0,"pressure":1003.5,"uv_index":8.3,"wind_gusts":30.6,"aqi":81,"pm10":26.5,"pm2_5":21.1,"no2":7.8,"co":278.0,"o3":87.0,"so2":4.6,"mosquito_risk":7,"arthritis_risk":5,"migraine_risk":4,"frizz_risk":1,"updated_at":"2026-06-20T02:10:34.398805+05:30"},{"city":"Dibrugarh","state":"Assam","latitude":27.4728,"longitude":94.912,"temp":24.3,"humidity":98,"rain":0.0,"pressure":993.0,"uv_index":7.95,"wind_gusts":21.6,"aqi":65,"pm10":18.2,"pm2_5":16.0,"no2":6.6,"co":273.0,"o3":87.0,"so2":1.6,"mosquito_risk":3,"arthritis_risk":5,"migraine_risk":7,"frizz_risk":1,"updated_at":"2026-06-20T02:10:34.398812+05:30"}]