[{"city":"Delhi","state":"Delhi","latitude":28.6139,"longitude":77.209,"temp":25.7,"humidity":63,"rain":0.0,"pressure":981.7,"uv_index":5.8,"wind_gusts":31.7,"aqi":194,"pm10":299.0,"pm2_5":77.8,"mosquito_risk":7,"arthritis_risk":5,"migraine_risk":3,"frizz_risk":1,"updated_at":"2026-03-29T23:04:46.305060+05:30"},{"city":"Mumbai","state":"Maharashtra","latitude":19.076,"longitude":72.8777,"temp":27.6,"humidity":83,"rain":0.0,"pressure":1008.4,"uv_index":8.0,"wind_gusts":20.5,"aqi":57,"pm10":24.1,"pm2_5":12.4,"mosquito_risk":7,"arthritis_risk":0,"migraine_risk":4,"frizz_risk":1,"updated_at":"2026-03-29T23:04:46.305106+05:30"},{"city":"Bangalore","state":"Karnataka","latitude":12.9716,"longitude":77.5946,"temp":24.8,"humidity":68,"rain":0.0,"pressure":911.9,"uv_index":9.55,"wind_gusts":42.5,"aqi":128,"pm10":71.5,"pm2_5":64.3,"mosquito_risk":3,"arthritis_risk":5,"migraine_risk":7,"frizz_risk":1,"updated_at":"2026-03-29T23:04:46.305121+05:30"},{"city":"Hyderabad","state":"Telangana","latitude":17.385,"longitude":78.4867,"temp":27.8,"humidity":60,"rain":0.0,"pressure":952.1,"uv_index":9.05,"wind_gusts":24.5,"aqi":94,"pm10":39.0,"pm2_5":36.8,"mosquito_risk":4,"arthritis_risk":5,"migraine_risk":7,"frizz_risk":1,"updated_at":"2026-03-29T23:04:46.305131+05:30"},{"city":"Chennai","state":"Tamil Nadu","latitude":13.0827,"longitude":80.2707,"temp":27.6,"humidity":86,"rain":0.0,"pressure":1006.9,"uv_index":9.25,"wind_gusts":37.4,"aqi":55,"pm10":17.2,"pm2_5":12.4,"mosquito_risk":7,"arthritis_risk":5,"migraine_risk":4,"frizz_risk":1,"updated_at":"2026-03-29T23:04:46.305140+05:30"},{"city":"Kolkata","state":"West Bengal","latitude":22.5726,"longitude":88.3639,"temp":25.4,"humidity":91,"rain":0.0,"pressure":1006.3,"uv_index":8.45,"wind_gusts":26.6,"aqi":117,"pm10":42.4,"pm2_5":37.7,"mosquito_risk":7,"arthritis_risk":5,"migraine_risk":4,"frizz_risk":1,"updated_at":"2026-03-29T23:04:46.305149+05:30"},{"city":"Pune","state":"Maharashtra","latitude":18.5204,"longitude":73.8567,"temp":25.0,"humidity":86,"rain":0.0,"pressure":948.2,"uv_index":8.55,"wind_gusts":40.3,"aqi":88,"pm10":28.2,"pm2_5":21.7,"mosquito_risk":7,"arthritis_risk":5,"migraine_risk":7,"frizz_risk":1,"updated_at":"2026-03-29T23:04:46.305161+05:30"},{"city":"Ahmedabad","state":"Gujarat","latitude":23.0225,"longitude":72.5714,"temp":28.8,"humidity":64,"rain":0.0,"pressure":1001.8,"uv_index":7.7,"wind_gusts":31.0,"aqi":45,"pm10":30.9,"pm2_5":14.9,"mosquito_risk":7,"arthritis_risk":5,"migraine_risk":4,"frizz_risk":1,"updated_at":"2026-03-29T23:04:46.305170+05:30"},{"city":"Jaipur","state":"Rajasthan","latitude":26.9124,"longitude":75.7873,"temp":27.0,"humidity":31,"rain":0.0,"pressure":959.2,"uv_index":7.45,"wind_gusts":36.7,"aqi":94,"pm10":228.2,"pm2_5":34.5,"mosquito_risk":4,"arthritis_risk":5,"migraine_risk":7,"frizz_risk":0,"updated_at":"2026-03-29T23:04:46.305178+05:30"},{"city":"Lucknow","state":"Uttar Pradesh","latitude":26.8467,"longitude":80.9462,"temp":25.5,"humidity":64,"rain":0.0,"pressure":992.6,"uv_index":7.2,"wind_gusts":16.6,"aqi":108,"pm10":65.2,"pm2_5":32.9,"mosquito_risk":7,"arthritis_risk":5,"migraine_risk":7,"frizz_risk":1,"updated_at":"2026-03-29T23:04:46.305186+05:30"},{"city":"Kanpur","state":"Uttar Pradesh","latitude":26.4499,"longitude":80.3319,"temp":25.6,"humidity":64,"rain":0.0,"pressure":990.8,"uv_index":7.25,"wind_gusts":17.3,"aqi":106,"pm10":141.6,"pm2_5":35.6,"mosquito_risk":7,"arthritis_risk":5,"migraine_risk":7,"frizz_risk":1,"updated_at":"2026-03-29T23:04:46.305194+05:30"},{"city":"Chandigarh","state":"Chandigarh","latitude":30.7333,"longitude":76.7794,"temp":22.3,"humidity":82,"rain":0.0,"pressure":967.9,"uv_index":6.5,"wind_gusts":28.1,"aqi":95,"pm10":77.8,"pm2_5":42.3,"mosquito_risk":3,"arthritis_risk":5,"migraine_risk":7,"frizz_risk":1,"updated_at":"2026-03-29T23:04:46.305202+05:30"},{"city":"Srinagar","state":"Jammu and Kashmir","latitude":34.0837,"longitude":74.7973,"temp":11.0,"humidity":85,"rain":0.0,"pressure":840.3,"uv_index":6.55,"wind_gusts":22.3,"aqi":76,"pm10":38.4,"pm2_5":36.2,"mosquito_risk":3,"arthritis_risk":10,"migraine_risk":7,"frizz_risk":0,"updated_at":"2026-03-29T23:04:46.305211+05:30"},{"city":"Jammu","state":"Jammu and Kashmir","latitude":32.7266,"longitude":74.857,"temp":21.4,"humidity":79,"rain":0.0,"pressure":972.4,"uv_index":5.4,"wind_gusts":28.1,"aqi":90,"pm10":67.5,"pm2_5":42.8,"mosquito_risk":3,"arthritis_risk":5,"migraine_risk":3,"frizz_risk":1,"updated_at":"2026-03-29T23:04:46.305220+05:30"},{"city":"Amritsar","state":"Punjab","latitude":31.634,"longitude":74.8723,"temp":21.5,"humidity":79,"rain":0.0,"pressure":980.2,"uv_index":7.3,"wind_gusts":37.1,"aqi":79,"pm10":61.2,"pm2_5":32.0,"mosquito_risk":3,"arthritis_risk":5,"migraine_risk":7,"frizz_risk":1,"updated_at":"2026-03-29T23:04:46.305227+05:30"},{"city":"Ludhiana","state":"Punjab","latitude":30.901,"longitude":75.8573,"temp":22.8,"humidity":81,"rain":0.0,"pressure":978.0,"uv_index":6.95,"wind_gusts":36.4,"aqi":107,"pm10":88.7,"pm2_5":52.5,"mosquito_risk":3,"arthritis_risk":5,"migraine_risk":7,"frizz_risk":1,"updated_at":"2026-03-29T23:04:46.305234+05:30"},{"city":"Jalandhar","state":"Punjab","latitude":31.326,"longitude":75.5762,"temp":22.1,"humidity":77,"rain":0.0,"pressure":979.4,"uv_index":7.1,"wind_gusts":33.1,"aqi":96,"pm10":57.2,"pm2_5":31.1,"mosquito_risk":3,"arthritis_risk":5,"migraine_risk":7,"frizz_risk":1,"updated_at":"2026-03-29T23:04:46.305244+05:30"},{"city":"Dehradun","state":"Uttarakhand","latitude":30.6284,"longitude":78.0322,"temp":14.3,"humidity":75,"rain":0.0,"pressure":829.5,"uv_index":6.35,"wind_gusts":20.2,"aqi":64,"pm10":39.6,"pm2_5":15.3,"mosquito_risk":3,"arthritis_risk":5,"migraine_risk":7,"frizz_risk":0,"updated_at":"2026-03-29T23:04:46.305251+05:30"},{"city":"Shimla","state":"Himachal Pradesh","latitude":31.1048,"longitude":77.1734,"temp":12.9,"humidity":69,"rain":0.0,"pressure":783.4,"uv_index":4.3,"wind_gusts":26.6,"aqi":77,"pm10":31.3,"pm2_5":17.3,"mosquito_risk":3,"arthritis_risk":5,"migraine_risk":3,"frizz_risk":0,"updated_at":"2026-03-29T23:04:46.305258+05:30"},{"city":"Manali","state":"Himachal Pradesh","latitude":32.2396,"longitude":77.1887,"temp":14.7,"humidity":54,"rain":0.0,"pressure":819.2,"uv_index":5.1,"wind_gusts":29.2,"aqi":45,"pm10":4.0,"pm2_5":3.9,"mosquito_risk":0,"arthritis_risk":5,"migraine_risk":3,"frizz_risk":0,"updated_at":"2026-03-29T23:04:46.305266+05:30"},{"city":"Gurgaon","state":"Haryana","latitude":28.4595,"longitude":77.0266,"temp":25.4,"humidity":68,"rain":0.0,"pressure":980.0,"uv_index":6.45,"wind_gusts":27.0,"aqi":582,"pm10":356.7,"pm2_5":76.8,"mosquito_risk":7,"arthritis_risk":5,"migraine_risk":7,"frizz_risk":1,"updated_at":"2026-03-29T23:04:46.305273+05:30"},{"city":"Noida","state":"Uttar Pradesh","latitude":28.5355,"longitude":77.391,"temp":25.7,"humidity":67,"rain":0.0,"pressure":983.3,"uv_index":5.9,"wind_gusts":27.4,"aqi":582,"pm10":356.7,"pm2_5":76.8,"mosquito_risk":7,"arthritis_risk":5,"migraine_risk":3,"frizz_risk":1,"updated_at":"2026-03-29T23:04:46.305280+05:30"},{"city":"Ghaziabad","state":"Uttar Pradesh","latitude":28.6692,"longitude":77.4538,"temp":24.7,"humidity":66,"rain":0.0,"pressure":981.4,"uv_index":5.9,"wind_gusts":25.6,"aqi":157,"pm10":222.1,"pm2_5":74.3,"mosquito_risk":3,"arthritis_risk":5,"migraine_risk":3,"frizz_risk":1,"updated_at":"2026-03-29T23:04:46.305288+05:30"},{"city":"Faridabad","state":"Haryana","latitude":28.4089,"longitude":77.3178,"temp":26.0,"humidity":62,"rain":0.0,"pressure":982.5,"uv_index":6.25,"wind_gusts":28.8,"aqi":582,"pm10":356.7,"pm2_5":76.8,"mosquito_risk":7,"arthritis_risk":5,"migraine_risk":7,"frizz_risk":1,"updated_at":"2026-03-29T23:04:46.305294+05:30"},{"city":"Meerut","state":"Uttar Pradesh","latitude":28.9845,"longitude":77.7064,"temp":23.5,"humidity":71,"rain":0.0,"pressure":980.3,"uv_index":6.15,"wind_gusts":24.1,"aqi":157,"pm10":222.1,"pm2_5":74.3,"mosquito_risk":3,"arthritis_risk":5,"migraine_risk":7,"frizz_risk":1,"updated_at":"2026-03-29T23:04:46.305302+05:30"},{"city":"Agra","state":"Uttar Pradesh","latitude":27.1767,"longitude":78.0081,"temp":27.7,"humidity":56,"rain":0.0,"pressure":986.2,"uv_index":7.1,"wind_gusts":33.1,"aqi":259,"pm10":411.6,"pm2_5":73.8,"mosquito_risk":4,"arthritis_risk":5,"migraine_risk":7,"frizz_risk":1,"updated_at":"2026-03-29T23:04:46.305330+05:30"},{"city":"Varanasi","state":"Uttar Pradesh","latitude":25.3176,"longitude":82.9739,"temp":24.1,"humidity":59,"rain":0.0,"pressure":996.9,"uv_index":7.9,"wind_gusts":18.4,"aqi":88,"pm10":73.8,"pm2_5":47.8,"mosquito_risk":0,"arthritis_risk":5,"migraine_risk":7,"frizz_risk":0,"updated_at":"2026-03-29T23:04:46.305341+05:30"},{"city":"Prayagraj","state":"Uttar Pradesh","latitude":25.4358,"longitude":81.8463,"temp":25.1,"humidity":57,"rain":0.0,"pressure":995.1,"uv_index":7.8,"wind_gusts":20.9,"aqi":101,"pm10":63.6,"pm2_5":39.8,"mosquito_risk":4,"arthritis_risk":5,"migraine_risk":7,"frizz_risk":0,"updated_at":"2026-03-29T23:04:46.305348+05:30"},{"city":"Gorakhpur","state":"Uttar Pradesh","latitude":26.7606,"longitude":83.3732,"temp":23.2,"humidity":70,"rain":0.0,"pressure":997.1,"uv_index":7.55,"wind_gusts":26.3,"aqi":133,"pm10":75.9,"pm2_5":52.3,"mosquito_risk":3,"arthritis_risk":5,"migraine_risk":7,"frizz_risk":1,"updated_at":"2026-03-29T23:04:46.305357+05:30"},{"city":"Bareilly","state":"Uttar Pradesh","latitude":28.367,"longitude":79.4304,"temp":23.6,"humidity":71,"rain":0.0,"pressure":985.9,"uv_index":6.95,"wind_gusts":15.8,"aqi":100,"pm10":69.8,"pm2_5":50.6,"mosquito_risk":3,"arthritis_risk":5,"migraine_risk":7,"frizz_risk":1,"updated_at":"2026-03-29T23:04:46.305364+05:30"},{"city":"Aligarh","state":"Uttar Pradesh","latitude":27.8974,"longitude":78.088,"temp":24.7,"humidity":66,"rain":0.0,"pressure":984.6,"uv_index":6.9,"wind_gusts":26.3,"aqi":177,"pm10":229.1,"pm2_5":71.2,"mosquito_risk":3,"arthritis_risk":5,"migraine_risk":7,"frizz_risk":1,"updated_at":"2026-03-29T23:04:46.305370+05:30"},{"city":"Moradabad","state":"Uttar Pradesh","latitude":28.8386,"longitude":78.7733,"temp":24.3,"humidity":63,"rain":0.0,"pressure":982.7,"uv_index":6.8,"wind_gusts":14.8,"aqi":151,"pm10":127.6,"pm2_5":98.5,"mosquito_risk":3,"arthritis_risk":5,"migraine_risk":7,"frizz_risk":1,"updated_at":"2026-03-29T23:04:46.305377+05:30"},{"city":"Saharanpur","state":"Uttar Pradesh","latitude":29.9637,"longitude":77.546,"temp":21.7,"humidity":71,"rain":0.0,"pressure":975.0,"uv_index":6.0,"wind_gusts":19.4,"aqi":100,"pm10":68.0,"pm2_5":49.8,"mosquito_risk":3,"arthritis_risk":5,"migraine_risk":3,"frizz_risk":1,"updated_at":"2026-03-29T23:04:46.305383+05:30"},{"city":"Jhansi","state":"Uttar Pradesh","latitude":25.4484,"longitude":78.5685,"temp":26.8,"humidity":54,"rain":0.0,"pressure":976.4,"uv_index":7.75,"wind_gusts":23.8,"aqi":68,"pm10":35.3,"pm2_5":21.4,"mosquito_risk":4,"arthritis_risk":5,"migraine_risk":7,"frizz_risk":1,"updated_at":"2026-03-29T23:04:49.667148+05:30"},{"city":"Surat","state":"Gujarat","latitude":21.1702,"longitude":72.8311,"temp":26.8,"humidity":86,"rain":0.0,"pressure":1006.6,"uv_index":7.75,"wind_gusts":26.3,"aqi":74,"pm10":32.9,"pm2_5":23.9,"mosquito_risk":7,"arthritis_risk":5,"migraine_risk":4,"frizz_risk":1,"updated_at":"2026-03-29T23:04:49.667179+05:30"},{"city":"Vadodara","state":"Gujarat","latitude":22.3072,"longitude":73.1812,"temp":28.0,"humidity":77,"rain":0.0,"pressure":1004.2,"uv_index":7.8,"wind_gusts":27.0,"aqi":61,"pm10":45.5,"pm2_5":26.9,"mosquito_risk":7,"arthritis_risk":5,"migraine_risk":4,"frizz_risk":1,"updated_at":"2026-03-29T23:04:49.667188+05:30"},{"city":"Rajkot","state":"Gujarat","latitude":22.3039,"longitude":70.8022,"temp":26.4,"humidity":84,"rain":0.0,"pressure":994.7,"uv_index":7.7,"wind_gusts":30.6,"aqi":53,"pm10":38.4,"pm2_5":15.4,"mosquito_risk":7,"arthritis_risk":5,"migraine_risk":7,"frizz_risk":1,"updated_at":"2026-03-29T23:04:49.667196+05:30"},{"city":"Thane","state":"Maharashtra","latitude":19.2183,"longitude":72.9781,"temp":26.6,"humidity":86,"rain":0.0,"pressure":1007.9,"uv_index":8.0,"wind_gusts":34.6,"aqi":57,"pm10":24.1,"pm2_5":12.4,"mosquito_risk":7,"arthritis_risk":5,"migraine_risk":4,"frizz_risk":1,"updated_at":"2026-03-29T23:04:49.667203+05:30"},{"city":"Nagpur","state":"Maharashtra","latitude":21.1458,"longitude":79.0882,"temp":29.0,"humidity":47,"rain":0.0,"pressure":971.6,"uv_index":8.55,"wind_gusts":27.0,"aqi":63,"pm10":58.3,"pm2_5":34.9,"mosquito_risk":4,"arthritis_risk":5,"migraine_risk":7,"frizz_risk":1,"updated_at":"2026-03-29T23:04:49.667210+05:30"},{"city":"Nashik","state":"Maharashtra","latitude":19.9975,"longitude":73.7898,"temp":24.1,"humidity":71,"rain":0.0,"pressure":945.5,"uv_index":8.25,"wind_gusts":31.7,"aqi":47,"pm10":16.2,"pm2_5":9.4,"mosquito_risk":3,"arthritis_risk":5,"migraine_risk":7,"frizz_risk":1,"updated_at":"2026-03-29T23:04:49.667217+05:30"},{"city":"Aurangabad","state":"Maharashtra","latitude":19.8762,"longitude":75.3433,"temp":28.3,"humidity":48,"rain":0.0,"pressure":943.4,"uv_index":8.75,"wind_gusts":32.0,"aqi":41,"pm10":19.0,"pm2_5":13.4,"mosquito_risk":4,"arthritis_risk":5,"migraine_risk":7,"frizz_risk":1,"updated_at":"2026-03-29T23:04:49.667224+05:30"},{"city":"Solapur","state":"Maharashtra","latitude":17.6599,"longitude":75.9064,"temp":29.4,"humidity":29,"rain":0.0,"pressure":955.4,"uv_index":8.85,"wind_gusts":23.0,"aqi":64,"pm10":31.2,"pm2_5":25.5,"mosquito_risk":4,"arthritis_risk":5,"migraine_risk":7,"frizz_risk":0,"updated_at":"2026-03-29T23:04:49.667231+05:30"},{"city":"Kolhapur","state":"Maharashtra","latitude":16.705,"longitude":74.2433,"temp":22.2,"humidity":88,"rain":0.0,"pressure":947.1,"uv_index":9.0,"wind_gusts":37.4,"aqi":69,"pm10":19.9,"pm2_5":17.5,"mosquito_risk":3,"arthritis_risk":5,"migraine_risk":7,"frizz_risk":1,"updated_at":"2026-03-29T23:04:49.667238+05:30"},{"city":"Goa","state":"Goa","latitude":15.2993,"longitude":74.124,"temp":27.8,"humidity":76,"rain":0.0,"pressure":997.1,"uv_index":8.95,"wind_gusts":37.1,"aqi":73,"pm10":19.7,"pm2_5":13.6,"mosquito_risk":7,"arthritis_risk":5,"migraine_risk":7,"frizz_risk":1,"updated_at":"2026-03-29T23:04:49.667244+05:30"},{"city":"Jodhpur","state":"Rajasthan","latitude":26.2389,"longitude":73.0243,"temp":27.6,"humidity":51,"rain":0.0,"pressure":981.9,"uv_index":7.35,"wind_gusts":46.1,"aqi":124,"pm10":210.5,"pm2_5":31.3,"mosquito_risk":4,"arthritis_risk":5,"migraine_risk":7,"frizz_risk":1,"updated_at":"2026-03-29T23:04:49.667251+05:30"},{"city":"Udaipur","state":"Rajasthan","latitude":24.5854,"longitude":73.7125,"temp":25.1,"humidity":54,"rain":0.0,"pressure":946.6,"uv_index":7.95,"wind_gusts":35.3,"aqi":47,"pm10":33.5,"pm2_5":12.9,"mosquito_risk":4,"arthritis_risk":5,"migraine_risk":7,"frizz_risk":0,"updated_at":"2026-03-29T23:04:49.667257+05:30"},{"city":"Kota","state":"Rajasthan","latitude":25.2138,"longitude":75.8648,"temp":28.4,"humidity":31,"rain":0.0,"pressure":977.4,"uv_index":7.5,"wind_gusts":34.9,"aqi":45,"pm10":14.1,"pm2_5":10.1,"mosquito_risk":4,"arthritis_risk":5,"migraine_risk":7,"frizz_risk":0,"updated_at":"2026-03-29T23:04:49.667264+05:30"},{"city":"Bikaner","state":"Rajasthan","latitude":28.0229,"longitude":73.3119,"temp":27.3,"humidity":33,"rain":0.0,"pressure":979.6,"uv_index":7.5,"wind_gusts":34.6,"aqi":108,"pm10":131.3,"pm2_5":34.0,"mosquito_risk":4,"arthritis_risk":5,"migraine_risk":7,"frizz_risk":0,"updated_at":"2026-03-29T23:04:49.667271+05:30"},{"city":"Ajmer","state":"Rajasthan","latitude":26.4499,"longitude":74.6399,"temp":24.9,"humidity":46,"rain":0.0,"pressure":953.9,"uv_index":7.7,"wind_gusts":45.0,"aqi":49,"pm10":67.8,"pm2_5":16.1,"mosquito_risk":0,"arthritis_risk":5,"migraine_risk":7,"frizz_risk":0,"updated_at":"2026-03-29T23:04:49.667277+05:30"},{"city":"Gwalior","state":"Madhya Pradesh","latitude":26.2183,"longitude":78.1828,"temp":27.4,"humidity":59,"rain":0.0,"pressure":981.7,"uv_index":7.45,"wind_gusts":25.2,"aqi":78,"pm10":51.2,"pm2_5":28.1,"mosquito_risk":4,"arthritis_risk":5,"migraine_risk":7,"frizz_risk":1,"updated_at":"2026-03-29T23:04:49.667284+05:30"},{"city":"Indore","state":"Madhya Pradesh","latitude":22.7196,"longitude":75.8577,"temp":25.0,"humidity":61,"rain":0.0,"pressure":947.7,"uv_index":8.25,"wind_gusts":33.5,"aqi":48,"pm10":29.7,"pm2_5":16.8,"mosquito_risk":7,"arthritis_risk":5,"migraine_risk":7,"frizz_risk":1,"updated_at":"2026-03-29T23:04:49.667290+05:30"},{"city":"Bhopal","state":"Madhya Pradesh","latitude":23.2599,"longitude":77.4126,"temp":26.8,"humidity":52,"rain":0.0,"pressure":952.8,"uv_index":8.2,"wind_gusts":35.6,"aqi":41,"pm10":21.8,"pm2_5":12.8,"mosquito_risk":4,"arthritis_risk":5,"migraine_risk":7,"frizz_risk":1,"updated_at":"2026-03-29T23:04:49.667296+05:30"},{"city":"Jabalpur","state":"Madhya Pradesh","latitude":23.1815,"longitude":79.9864,"temp":26.3,"humidity":64,"rain":0.0,"pressure":959.8,"uv_index":8.25,"wind_gusts":32.4,"aqi":58,"pm10":28.3,"pm2_5":18.3,"mosquito_risk":7,"arthritis_risk":5,"migraine_risk":7,"frizz_risk":1,"updated_at":"2026-03-29T23:04:49.667302+05:30"},{"city":"Ujjain","state":"Madhya Pradesh","latitude":23.1765,"longitude":75.7885,"temp":25.1,"humidity":63,"rain":0.0,"pressure":953.5,"uv_index":8.2,"wind_gusts":34.9,"aqi":47,"pm10":32.5,"pm2_5":18.0,"mosquito_risk":7,"arthritis_risk":5,"migraine_risk":7,"frizz_risk":1,"updated_at":"2026-03-29T23:04:49.667330+05:30"},{"city":"Visakhapatnam","state":"Andhra Pradesh","latitude":17.6868,"longitude":83.2185,"temp":27.5,"humidity":85,"rain":0.0,"pressure":1003.1,"uv_index":9.0,"wind_gusts":38.2,"aqi":67,"pm10":23.1,"pm2_5":16.7,"mosquito_risk":7,"arthritis_risk":5,"migraine_risk":4,"frizz_risk":1,"updated_at":"2026-03-29T23:04:49.667339+05:30"},{"city":"Vijayawada","state":"Andhra Pradesh","latitude":16.5062,"longitude":80.648,"temp":27.6,"humidity":87,"rain":0.0,"pressure":1001.8,"uv_index":9.05,"wind_gusts":29.9,"aqi":98,"pm10":22.1,"pm2_5":19.7,"mosquito_risk":7,"arthritis_risk":5,"migraine_risk":4,"frizz_risk":1,"updated_at":"2026-03-29T23:04:49.667346+05:30"},{"city":"Guntur","state":"Andhra Pradesh","latitude":16.3067,"longitude":80.4365,"temp":27.2,"humidity":90,"rain":0.0,"pressure":1003.0,"uv_index":9.05,"wind_gusts":31.3,"aqi":111,"pm10":27.8,"pm2_5":25.3,"mosquito_risk":7,"arthritis_risk":5,"migraine_risk":4,"frizz_risk":1,"updated_at":"2026-03-29T23:04:49.667353+05:30"},{"city":"Nellore","state":"Andhra Pradesh","latitude":14.4426,"longitude":79.9865,"temp":27.3,"humidity":87,"rain":0.0,"pressure":1005.3,"uv_index":8.65,"wind_gusts":31.7,"aqi":80,"pm10":14.6,"pm2_5":11.3,"mosquito_risk":7,"arthritis_risk":5,"migraine_risk":4,"frizz_risk":1,"updated_at":"2026-03-29T23:04:49.667360+05:30"},{"city":"Kurnool","state":"Andhra Pradesh","latitude":15.8281,"longitude":78.0373,"temp":30.5,"humidity":42,"rain":0.0,"pressure":975.0,"uv_index":9.1,"wind_gusts":29.2,"aqi":121,"pm10":45.2,"pm2_5":41.6,"mosquito_risk":0,"arthritis_risk":5,"migraine_risk":7,"frizz_risk":1,"updated_at":"2026-03-29T23:04:49.667367+05:30"},{"city":"Kakinada","state":"Andhra Pradesh","latitude":16.9891,"longitude":82.2475,"temp":26.4,"humidity":92,"rain":0.0,"pressure":1007.1,"uv_index":9.0,"wind_gusts":29.9,"aqi":55,"pm10":18.1,"pm2_5":11.4,"mosquito_risk":7,"arthritis_risk":5,"migraine_risk":4,"frizz_risk":1,"updated_at":"2026-03-29T23:04:49.667374+05:30"},{"city":"Tirupati","state":"Andhra Pradesh","latitude":13.6288,"longitude":79.4192,"temp":27.6,"humidity":84,"rain":0.0,"pressure":991.9,"uv_index":9.1,"wind_gusts":33.8,"aqi":97,"pm10":31.1,"pm2_5":29.4,"mosquito_risk":7,"arthritis_risk":5,"migraine_risk":7,"frizz_risk":1,"updated_at":"2026-03-29T23:04:49.667380+05:30"},{"city":"Warangal","state":"Telangana","latitude":17.9689,"longitude":79.5941,"temp":29.6,"humidity":52,"rain":0.0,"pressure":977.0,"uv_index":8.9,"wind_gusts":28.4,"aqi":101,"pm10":57.2,"pm2_5":56.1,"mosquito_risk":4,"arthritis_risk":5,"migraine_risk":7,"frizz_risk":1,"updated_at":"2026-03-29T23:04:49.667387+05:30"},{"city":"Nizamabad","state":"Telangana","latitude":18.6725,"longitude":78.0941,"temp":28.6,"humidity":44,"rain":0.0,"pressure":962.9,"uv_index":8.8,"wind_gusts":28.8,"aqi":73,"pm10":41.0,"pm2_5":37.0,"mosquito_risk":4,"arthritis_risk":5,"migraine_risk":7,"frizz_risk":0,"updated_at":"2026-03-29T23:04:49.667393+05:30"},{"city":"Mysore","state":"Karnataka","latitude":12.2958,"longitude":76.6396,"temp":25.1,"humidity":76,"rain":0.0,"pressure":928.4,"uv_index":9.45,"wind_gusts":24.1,"aqi":122,"pm10":61.7,"pm2_5":54.7,"mosquito_risk":7,"arthritis_risk":5,"migraine_risk":7,"frizz_risk":1,"updated_at":"2026-03-29T23:04:49.667399+05:30"},{"city":"Mangalore","state":"Karnataka","latitude":12.9141,"longitude":74.856,"temp":29.6,"humidity":80,"rain":0.0,"pressure":1005.8,"uv_index":9.1,"wind_gusts":31.3,"aqi":84,"pm10":25.0,"pm2_5":12.7,"mosquito_risk":7,"arthritis_risk":5,"migraine_risk":4,"frizz_risk":1,"updated_at":"2026-03-29T23:04:49.667405+05:30"},{"city":"Hubli-Dharwad","state":"Karnataka","latitude":15.3647,"longitude":75.124,"temp":26.0,"humidity":66,"rain":0.0,"pressure":940.0,"uv_index":9.15,"wind_gusts":30.2,"aqi":82,"pm10":30.0,"pm2_5":23.8,"mosquito_risk":7,"arthritis_risk":5,"migraine_risk":7,"frizz_risk":1,"updated_at":"2026-03-29T23:04:49.667412+05:30"},{"city":"Belgaum","state":"Karnataka","latitude":15.8497,"longitude":74.4977,"temp":22.7,"humidity":77,"rain":0.0,"pressure":924.6,"uv_index":9.2,"wind_gusts":37.8,"aqi":66,"pm10":23.3,"pm2_5":18.2,"mosquito_risk":3,"arthritis_risk":5,"migraine_risk":7,"frizz_risk":1,"updated_at":"2026-03-29T23:04:53.032511+05:30"},{"city":"Coimbatore","state":"Tamil Nadu","latitude":11.0168,"longitude":76.9558,"temp":25.9,"humidity":81,"rain":0.0,"pressure":962.0,"uv_index":9.25,"wind_gusts":46.1,"aqi":92,"pm10":58.7,"pm2_5":53.8,"mosquito_risk":7,"arthritis_risk":5,"migraine_risk":7,"frizz_risk":1,"updated_at":"2026-03-29T23:04:53.032541+05:30"},{"city":"Madurai","state":"Tamil Nadu","latitude":9.9252,"longitude":78.1198,"temp":27.7,"humidity":74,"rain":0.0,"pressure":993.4,"uv_index":9.25,"wind_gusts":26.6,"aqi":81,"pm10":23.2,"pm2_5":22.1,"mosquito_risk":7,"arthritis_risk":5,"migraine_risk":7,"frizz_risk":1,"updated_at":"2026-03-29T23:04:53.032551+05:30"},{"city":"Trichy","state":"Tamil Nadu","latitude":10.7905,"longitude":78.7047,"temp":27.0,"humidity":83,"rain":0.0,"pressure":999.9,"uv_index":8.8,"wind_gusts":27.4,"aqi":70,"pm10":21.0,"pm2_5":19.8,"mosquito_risk":7,"arthritis_risk":5,"migraine_risk":7,"frizz_risk":1,"updated_at":"2026-03-29T23:04:53.032559+05:30"},{"city":"Salem","state":"Tamil Nadu","latitude":11.6643,"longitude":78.146,"temp":29.8,"humidity":62,"rain":0.0,"pressure":977.3,"uv_index":9.4,"wind_gusts":30.2,"aqi":117,"pm10":28.9,"pm2_5":27.1,"mosquito_risk":7,"arthritis_risk":5,"migraine_risk":7,"frizz_risk":1,"updated_at":"2026-03-29T23:04:53.032566+05:30"},{"city":"Tirunelveli","state":"Tamil Nadu","latitude":8.7139,"longitude":77.7567,"temp":28.2,"humidity":70,"rain":0.0,"pressure":1003.0,"uv_index":9.35,"wind_gusts":51.8,"aqi":95,"pm10":30.9,"pm2_5":29.2,"mosquito_risk":7,"arthritis_risk":5,"migraine_risk":4,"frizz_risk":1,"updated_at":"2026-03-29T23:04:53.032574+05:30"},{"city":"Vellore","state":"Tamil Nadu","latitude":12.9165,"longitude":79.1325,"temp":27.6,"humidity":80,"rain":0.0,"pressure":984.8,"uv_index":9.35,"wind_gusts":34.6,"aqi":110,"pm10":32.0,"pm2_5":30.7,"mosquito_risk":7,"arthritis_risk":5,"migraine_risk":7,"frizz_risk":1,"updated_at":"2026-03-29T23:04:53.032582+05:30"},{"city":"Erode","state":"Tamil Nadu","latitude":11.341,"longitude":77.7172,"temp":28.8,"humidity":68,"rain":0.0,"pressure":989.2,"uv_index":9.35,"wind_gusts":31.0,"aqi":112,"pm10":23.2,"pm2_5":21.3,"mosquito_risk":7,"arthritis_risk":5,"migraine_risk":7,"frizz_risk":1,"updated_at":"2026-03-29T23:04:53.032589+05:30"},{"city":"Kochi","state":"Kerala","latitude":9.9312,"longitude":76.2673,"temp":29.2,"humidity":80,"rain":0.0,"pressure":1008.5,"uv_index":9.15,"wind_gusts":29.2,"aqi":93,"pm10":44.6,"pm2_5":41.7,"mosquito_risk":7,"arthritis_risk":0,"migraine_risk":4,"frizz_risk":1,"updated_at":"2026-03-29T23:04:53.032596+05:30"},{"city":"Thiruvananthapuram","state":"Kerala","latitude":8.5241,"longitude":76.9366,"temp":29.1,"humidity":83,"rain":0.0,"pressure":1007.6,"uv_index":9.2,"wind_gusts":32.4,"aqi":77,"pm10":27.8,"pm2_5":21.9,"mosquito_risk":7,"arthritis_risk":5,"migraine_risk":4,"frizz_risk":1,"updated_at":"2026-03-29T23:04:53.032603+05:30"},{"city":"Kozhikode","state":"Kerala","latitude":11.2588,"longitude":75.7804,"temp":28.9,"humidity":83,"rain":0.0,"pressure":1007.0,"uv_index":9.1,"wind_gusts":32.4,"aqi":122,"pm10":34.5,"pm2_5":29.7,"mosquito_risk":7,"arthritis_risk":5,"migraine_risk":4,"frizz_risk":1,"updated_at":"2026-03-29T23:04:53.032610+05:30"},{"city":"Thrissur","state":"Kerala","latitude":10.5276,"longitude":76.2144,"temp":28.5,"humidity":85,"rain":0.0,"pressure":1006.4,"uv_index":9.15,"wind_gusts":34.9,"aqi":89,"pm10":41.6,"pm2_5":36.9,"mosquito_risk":7,"arthritis_risk":5,"migraine_risk":4,"frizz_risk":1,"updated_at":"2026-03-29T23:04:53.032617+05:30"},{"city":"Kannur","state":"Kerala","latitude":11.8745,"longitude":75.3704,"temp":29.5,"humidity":79,"rain":0.0,"pressure":1006.0,"uv_index":9.15,"wind_gusts":34.9,"aqi":93,"pm10":28.5,"pm2_5":25.4,"mosquito_risk":7,"arthritis_risk":5,"migraine_risk":4,"frizz_risk":1,"updated_at":"2026-03-29T23:04:53.032624+05:30"},{"city":"Patna","state":"Bihar","latitude":25.5941,"longitude":85.1376,"temp":24.4,"humidity":79,"rain":0.0,"pressure":1000.9,"uv_index":8.05,"wind_gusts":23.8,"aqi":135,"pm10":73.3,"pm2_5":63.1,"mosquito_risk":3,"arthritis_risk":5,"migraine_risk":4,"frizz_risk":1,"updated_at":"2026-03-29T23:04:53.032632+05:30"},{"city":"Gaya","state":"Bihar","latitude":24.7914,"longitude":85.0002,"temp":24.0,"humidity":82,"rain":0.0,"pressure":993.8,"uv_index":8.15,"wind_gusts":19.1,"aqi":104,"pm10":62.4,"pm2_5":48.2,"mosquito_risk":3,"arthritis_risk":5,"migraine_risk":7,"frizz_risk":1,"updated_at":"2026-03-29T23:04:53.032638+05:30"},{"city":"Muzaffarpur","state":"Bihar","latitude":26.1209,"longitude":85.3647,"temp":22.9,"humidity":82,"rain":0.0,"pressure":1001.1,"uv_index":8.05,"wind_gusts":28.1,"aqi":144,"pm10":84.1,"pm2_5":70.5,"mosquito_risk":3,"arthritis_risk":5,"migraine_risk":4,"frizz_risk":1,"updated_at":"2026-03-29T23:04:53.032645+05:30"},{"city":"Bhagalpur","state":"Bihar","latitude":25.2425,"longitude":87.0117,"temp":22.6,"humidity":91,"rain":0.0,"pressure":1002.6,"uv_index":8.1,"wind_gusts":19.8,"aqi":143,"pm10":65.9,"pm2_5":56.8,"mosquito_risk":3,"arthritis_risk":5,"migraine_risk":4,"frizz_risk":1,"updated_at":"2026-03-29T23:04:53.032651+05:30"},{"city":"Ranchi","state":"Jharkhand","latitude":23.3441,"longitude":85.3096,"temp":24.4,"humidity":78,"rain":0.0,"pressure":937.6,"uv_index":8.75,"wind_gusts":31.7,"aqi":107,"pm10":37.7,"pm2_5":22.4,"mosquito_risk":3,"arthritis_risk":5,"migraine_risk":7,"frizz_risk":1,"updated_at":"2026-03-29T23:04:53.032658+05:30"},{"city":"Jamshedpur","state":"Jharkhand","latitude":22.8046,"longitude":86.2029,"temp":27.2,"humidity":81,"rain":0.0,"pressure":990.6,"uv_index":8.55,"wind_gusts":33.1,"aqi":137,"pm10":69.8,"pm2_5":54.6,"mosquito_risk":7,"arthritis_risk":5,"migraine_risk":7,"frizz_risk":1,"updated_at":"2026-03-29T23:04:53.032664+05:30"},{"city":"Dhanbad","state":"Jharkhand","latitude":23.7957,"longitude":86.4304,"temp":26.3,"humidity":77,"rain":0.0,"pressure":980.1,"uv_index":8.5,"wind_gusts":24.5,"aqi":157,"pm10":108.0,"pm2_5":97.3,"mosquito_risk":7,"arthritis_risk":5,"migraine_risk":7,"frizz_risk":1,"updated_at":"2026-03-29T23:04:53.032671+05:30"},{"city":"Bokaro","state":"Jharkhand","latitude":23.6693,"longitude":86.1511,"temp":25.8,"humidity":81,"rain":0.0,"pressure":984.2,"uv_index":8.5,"wind_gusts":29.2,"aqi":156,"pm10":90.3,"pm2_5":73.3,"mosquito_risk":7,"arthritis_risk":5,"migraine_risk":7,"frizz_risk":1,"updated_at":"2026-03-29T23:04:53.032677+05:30"},{"city":"Bhubaneswar","state":"Odisha","latitude":20.2961,"longitude":85.8245,"temp":27.0,"humidity":88,"rain":0.0,"pressure":1002.1,"uv_index":8.8,"wind_gusts":31.3,"aqi":75,"pm10":23.2,"pm2_5":19.3,"mosquito_risk":7,"arthritis_risk":5,"migraine_risk":4,"frizz_risk":1,"updated_at":"2026-03-29T23:04:53.032684+05:30"},{"city":"Cuttack","state":"Odisha","latitude":20.4625,"longitude":85.8828,"temp":27.1,"humidity":89,"rain":0.0,"pressure":1003.9,"uv_index":8.8,"wind_gusts":25.6,"aqi":75,"pm10":23.2,"pm2_5":19.3,"mosquito_risk":7,"arthritis_risk":5,"migraine_risk":4,"frizz_risk":1,"updated_at":"2026-03-29T23:04:53.032690+05:30"},{"city":"Rourkela","state":"Odisha","latitude":22.2604,"longitude":84.8536,"temp":28.9,"humidity":54,"rain":0.0,"pressure":983.5,"uv_index":8.5,"wind_gusts":30.6,"aqi":120,"pm10":60.8,"pm2_5":49.4,"mosquito_risk":4,"arthritis_risk":5,"migraine_risk":7,"frizz_risk":1,"updated_at":"2026-03-29T23:04:53.032696+05:30"},{"city":"Raipur","state":"Chhattisgarh","latitude":21.2514,"longitude":81.6296,"temp":29.8,"humidity":39,"rain":0.0,"pressure":972.4,"uv_index":8.6,"wind_gusts":26.6,"aqi":105,"pm10":51.2,"pm2_5":48.2,"mosquito_risk":4,"arthritis_risk":5,"migraine_risk":7,"frizz_risk":0,"updated_at":"2026-03-29T23:04:53.032703+05:30"},{"city":"Bhilai","state":"Chhattisgarh","latitude":21.1938,"longitude":81.3509,"temp":28.8,"humidity":45,"rain":0.0,"pressure":972.7,"uv_index":8.6,"wind_gusts":29.9,"aqi":83,"pm10":33.1,"pm2_5":31.0,"mosquito_risk":4,"arthritis_risk":5,"migraine_risk":7,"frizz_risk":0,"updated_at":"2026-03-29T23:04:53.032710+05:30"},{"city":"Guwahati","state":"Assam","latitude":26.1158,"longitude":91.7086,"temp":21.3,"humidity":82,"rain":0.0,"pressure":1003.8,"uv_index":7.1,"wind_gusts":14.4,"aqi":114,"pm10":66.6,"pm2_5":54.9,"mosquito_risk":3,"arthritis_risk":5,"migraine_risk":4,"frizz_risk":1,"updated_at":"2026-03-29T23:04:53.032716+05:30"},{"city":"Agartala","state":"Tripura","latitude":23.8315,"longitude":91.2868,"temp":22.7,"humidity":92,"rain":0.0,"pressure":1007.5,"uv_index":8.2,"wind_gusts":34.2,"aqi":136,"pm10":48.9,"pm2_5":44.5,"mosquito_risk":3,"arthritis_risk":5,"migraine_risk":4,"frizz_risk":1,"updated_at":"2026-03-29T23:04:53.032723+05:30"},{"city":"Shillong","state":"Meghalaya","latitude":25.5788,"longitude":91.8933,"temp":10.8,"humidity":96,"rain":0.0,"pressure":854.5,"uv_index":5.45,"wind_gusts":43.9,"aqi":81,"pm10":54.8,"pm2_5":43.9,"mosquito_risk":3,"arthritis_risk":10,"migraine_risk":3,"frizz_risk":0,"updated_at":"2026-03-29T23:04:53.032730+05:30"},{"city":"Imphal","state":"Manipur","latitude":24.817,"longitude":93.9368,"temp":16.4,"humidity":88,"rain":0.0,"pressure":923.9,"uv_index":7.85,"wind_gusts":68.4,"aqi":131,"pm10":95.2,"pm2_5":77.3,"mosquito_risk":3,"arthritis_risk":10,"migraine_risk":7,"frizz_risk":0,"updated_at":"2026-03-29T23:04:53.032737+05:30"},{"city":"Aizawl","state":"Mizoram","latitude":23.7271,"longitude":92.7176,"temp":16.4,"humidity":95,"rain":0.0,"pressure":892.8,"uv_index":7.7,"wind_gusts":52.9,"aqi":152,"pm10":83.4,"pm2_5":73.1,"mosquito_risk":3,"arthritis_risk":10,"migraine_risk":7,"frizz_risk":0,"updated_at":"2026-03-29T23:04:53.032743+05:30"},{"city":"Kohima","state":"Nagaland","latitude":25.6701,"longitude":94.1077,"temp":13.0,"humidity":84,"rain":0.0,"pressure":854.3,"uv_index":7.05,"wind_gusts":86.4,"aqi":106,"pm10":73.8,"pm2_5":54.1,"mosquito_risk":3,"arthritis_risk":10,"migraine_risk":7,"frizz_risk":0,"updated_at":"2026-03-29T23:04:53.032750+05:30"},{"city":"Gangtok","state":"Sikkim","latitude":27.3314,"longitude":88.6138,"temp":12.3,"humidity":88,"rain":0.0,"pressure":835.9,"uv_index":8.3,"wind_gusts":18.7,"aqi":70,"pm10":48.4,"pm2_5":40.9,"mosquito_risk":3,"arthritis_risk":10,"migraine_risk":7,"frizz_risk":0,"updated_at":"2026-03-29T23:04:53.032757+05:30"},{"city":"Siliguri","state":"West Bengal","latitude":26.7271,"longitude":88.3953,"temp":18.3,"humidity":85,"rain":0.0,"pressure":995.8,"uv_index":6.55,"wind_gusts":12.6,"aqi":128,"pm10":95.7,"pm2_5":73.3,"mosquito_risk":3,"arthritis_risk":10,"migraine_risk":7,"frizz_risk":0,"updated_at":"2026-03-29T23:04:56.388510+05:30"},{"city":"Durgapur","state":"West Bengal","latitude":23.5204,"longitude":87.3119,"temp":25.5,"humidity":87,"rain":0.0,"pressure":995.8,"uv_index":8.4,"wind_gusts":22.3,"aqi":157,"pm10":86.1,"pm2_5":80.3,"mosquito_risk":7,"arthritis_risk":5,"migraine_risk":7,"frizz_risk":1,"updated_at":"2026-03-29T23:04:56.388543+05:30"},{"city":"Asansol","state":"West Bengal","latitude":23.6739,"longitude":86.9524,"temp":26.0,"humidity":84,"rain":0.0,"pressure":994.1,"uv_index":8.45,"wind_gusts":21.6,"aqi":155,"pm10":85.2,"pm2_5":79.2,"mosquito_risk":7,"arthritis_risk":5,"migraine_risk":7,"frizz_risk":1,"updated_at":"2026-03-29T23:04:56.388553+05:30"},{"city":"Pondicherry","state":"Puducherry","latitude":11.9139,"longitude":79.8145,"temp":26.3,"humidity":95,"rain":0.0,"pressure":1008.4,"uv_index":8.95,"wind_gusts":32.8,"aqi":52,"pm10":15.6,"pm2_5":11.1,"mosquito_risk":7,"arthritis_risk":0,"migraine_risk":4,"frizz_risk":1,"updated_at":"2026-03-29T23:04:56.388561+05:30"},{"city":"Port Blair","state":"Andaman and Nicobar Islands","latitude":11.6234,"longitude":92.7265,"temp":28.5,"humidity":79,"rain":0.0,"pressure":1007.1,"uv_index":9.0,"wind_gusts":17.3,"aqi":71,"pm10":27.4,"pm2_5":21.7,"mosquito_risk":7,"arthritis_risk":5,"migraine_risk":4,"frizz_risk":1,"updated_at":"2026-03-29T23:04:56.388569+05:30"},{"city":"Haridwar","state":"Uttarakhand","latitude":29.9457,"longitude":78.1642,"temp":22.8,"humidity":77,"rain":0.0,"pressure":974.0,"uv_index":5.5,"wind_gusts":34.6,"aqi":86,"pm10":49.8,"pm2_5":37.5,"mosquito_risk":3,"arthritis_risk":5,"migraine_risk":3,"frizz_risk":1,"updated_at":"2026-03-29T23:04:56.388576+05:30"},{"city":"Rishikesh","state":"Uttarakhand","latitude":30.0869,"longitude":78.2676,"temp":22.2,"humidity":73,"rain":0.0,"pressure":967.1,"uv_index":5.75,"wind_gusts":24.8,"aqi":71,"pm10":57.9,"pm2_5":24.1,"mosquito_risk":3,"arthritis_risk":5,"migraine_risk":3,"frizz_risk":1,"updated_at":"2026-03-29T23:04:56.388583+05:30"},{"city":"Nainital","state":"Uttarakhand","latitude":29.3919,"longitude":79.4542,"temp":18.6,"humidity":60,"rain":0.0,"pressure":806.1,"uv_index":7.3,"wind_gusts":62.6,"aqi":100,"pm10":60.1,"pm2_5":36.1,"mosquito_risk":0,"arthritis_risk":5,"migraine_risk":7,"frizz_risk":0,"updated_at":"2026-03-29T23:04:56.388590+05:30"},{"city":"Mussoorie","state":"Uttarakhand","latitude":30.4599,"longitude":78.0664,"temp":16.3,"humidity":63,"rain":0.0,"pressure":802.5,"uv_index":4.9,"wind_gusts":28.1,"aqi":86,"pm10":63.8,"pm2_5":33.5,"mosquito_risk":3,"arthritis_risk":5,"migraine_risk":3,"frizz_risk":0,"updated_at":"2026-03-29T23:04:56.388596+05:30"},{"city":"Dharamshala","state":"Himachal Pradesh","latitude":32.219,"longitude":76.3234,"temp":19.4,"humidity":56,"rain":0.0,"pressure":868.5,"uv_index":5.15,"wind_gusts":26.6,"aqi":47,"pm10":20.4,"pm2_5":14.5,"mosquito_risk":0,"arthritis_risk":5,"migraine_risk":3,"frizz_risk":0,"updated_at":"2026-03-29T23:04:56.388603+05:30"},{"city":"Dalhousie","state":"Himachal Pradesh","latitude":32.5387,"longitude":75.971,"temp":15.9,"humidity":64,"rain":0.0,"pressure":802.6,"uv_index":3.45,"wind_gusts":29.5,"aqi":83,"pm10":65.4,"pm2_5":34.9,"mosquito_risk":3,"arthritis_risk":5,"migraine_risk":3,"frizz_risk":0,"updated_at":"2026-03-29T23:04:56.388611+05:30"},{"city":"Patiala","state":"Punjab","latitude":30.3398,"longitude":76.3869,"temp":22.2,"humidity":78,"rain":0.0,"pressure":977.1,"uv_index":6.4,"wind_gusts":32.8,"aqi":192,"pm10":254.3,"pm2_5":48.5,"mosquito_risk":3,"arthritis_risk":5,"migraine_risk":7,"frizz_risk":1,"updated_at":"2026-03-29T23:04:56.388618+05:30"},{"city":"Bhatinda","state":"Punjab","latitude":30.211,"longitude":74.9455,"temp":23.7,"humidity":73,"rain":0.0,"pressure":982.5,"uv_index":7.3,"wind_gusts":41.4,"aqi":160,"pm10":504.8,"pm2_5":98.3,"mosquito_risk":3,"arthritis_risk":5,"migraine_risk":7,"frizz_risk":1,"updated_at":"2026-03-29T23:04:56.388624+05:30"},{"city":"Rohtak","state":"Haryana","latitude":28.8955,"longitude":76.6066,"temp":24.3,"humidity":70,"rain":0.0,"pressure":980.3,"uv_index":6.55,"wind_gusts":35.3,"aqi":252,"pm10":493.6,"pm2_5":95.5,"mosquito_risk":3,"arthritis_risk":5,"migraine_risk":7,"frizz_risk":1,"updated_at":"2026-03-29T23:04:56.388631+05:30"},{"city":"Panipat","state":"Haryana","latitude":29.3909,"longitude":76.9635,"temp":23.3,"humidity":70,"rain":0.0,"pressure":979.0,"uv_index":5.8,"wind_gusts":30.6,"aqi":427,"pm10":392.1,"pm2_5":86.4,"mosquito_risk":3,"arthritis_risk":5,"migraine_risk":3,"frizz_risk":1,"updated_at":"2026-03-29T23:04:56.388638+05:30"},{"city":"Mathura","state":"Uttar Pradesh","latitude":27.4924,"longitude":77.6737,"temp":26.8,"humidity":58,"rain":0.0,"pressure":985.0,"uv_index":6.95,"wind_gusts":26.6,"aqi":223,"pm10":549.5,"pm2_5":77.3,"mosquito_risk":4,"arthritis_risk":5,"migraine_risk":7,"frizz_risk":1,"updated_at":"2026-03-29T23:04:56.388644+05:30"},{"city":"Vrindavan","state":"Uttar Pradesh","latitude":27.5823,"longitude":77.7027,"temp":25.9,"humidity":63,"rain":0.0,"pressure":985.5,"uv_index":6.9,"wind_gusts":29.2,"aqi":223,"pm10":549.5,"pm2_5":77.3,"mosquito_risk":7,"arthritis_risk":5,"migraine_risk":7,"frizz_risk":1,"updated_at":"2026-03-29T23:04:56.388650+05:30"},{"city":"Ayodhya","state":"Uttar Pradesh","latitude":26.7922,"longitude":82.1998,"temp":23.5,"humidity":63,"rain":0.0,"pressure":994.8,"uv_index":7.1,"wind_gusts":20.9,"aqi":139,"pm10":96.9,"pm2_5":56.5,"mosquito_risk":3,"arthritis_risk":5,"migraine_risk":7,"frizz_risk":1,"updated_at":"2026-03-29T23:04:56.388656+05:30"},{"city":"Ratlam","state":"Madhya Pradesh","latitude":23.3315,"longitude":75.0367,"temp":26.1,"humidity":66,"rain":0.0,"pressure":954.2,"uv_index":8.15,"wind_gusts":36.0,"aqi":46,"pm10":33.6,"pm2_5":17.1,"mosquito_risk":7,"arthritis_risk":5,"migraine_risk":7,"frizz_risk":1,"updated_at":"2026-03-29T23:04:56.388663+05:30"},{"city":"Sagar","state":"Madhya Pradesh","latitude":23.8388,"longitude":78.7378,"temp":28.2,"humidity":50,"rain":0.0,"pressure":949.0,"uv_index":8.15,"wind_gusts":34.6,"aqi":42,"pm10":19.0,"pm2_5":9.9,"mosquito_risk":4,"arthritis_risk":5,"migraine_risk":7,"frizz_risk":1,"updated_at":"2026-03-29T23:04:56.388670+05:30"},{"city":"Satna","state":"Madhya Pradesh","latitude":24.6005,"longitude":80.8322,"temp":26.9,"humidity":59,"rain":0.0,"pressure":970.4,"uv_index":8.15,"wind_gusts":46.8,"aqi":63,"pm10":32.8,"pm2_5":15.3,"mosquito_risk":4,"arthritis_risk":5,"migraine_risk":7,"frizz_risk":1,"updated_at":"2026-03-29T23:04:56.388676+05:30"},{"city":"Akola","state":"Maharashtra","latitude":20.7002,"longitude":77.0082,"temp":29.0,"humidity":52,"rain":0.0,"pressure":974.1,"uv_index":8.5,"wind_gusts":30.2,"aqi":53,"pm10":21.9,"pm2_5":13.4,"mosquito_risk":4,"arthritis_risk":5,"migraine_risk":7,"frizz_risk":1,"updated_at":"2026-03-29T23:04:56.388684+05:30"},{"city":"Amravati","state":"Maharashtra","latitude":20.9374,"longitude":77.7796,"temp":28.1,"humidity":54,"rain":0.0,"pressure":965.9,"uv_index":8.5,"wind_gusts":31.3,"aqi":51,"pm10":27.6,"pm2_5":15.0,"mosquito_risk":4,"arthritis_risk":5,"migraine_risk":7,"frizz_risk":1,"updated_at":"2026-03-29T23:04:56.388691+05:30"},{"city":"Latur","state":"Maharashtra","latitude":18.4088,"longitude":76.5604,"temp":26.8,"humidity":45,"rain":0.0,"pressure":938.4,"uv_index":8.85,"wind_gusts":28.4,"aqi":53,"pm10":23.7,"pm2_5":15.5,"mosquito_risk":4,"arthritis_risk":5,"migraine_risk":7,"frizz_risk":0,"updated_at":"2026-03-29T23:04:56.388697+05:30"},{"city":"Nanded","state":"Maharashtra","latitude":19.1383,"longitude":77.3091,"temp":28.6,"humidity":44,"rain":0.0,"pressure":966.9,"uv_index":8.7,"wind_gusts":20.5,"aqi":58,"pm10":27.8,"pm2_5":18.9,"mosquito_risk":4,"arthritis_risk":5,"migraine_risk":7,"frizz_risk":0,"updated_at":"2026-03-29T23:04:56.388703+05:30"},{"city":"Gulbarga","state":"Karnataka","latitude":17.3297,"longitude":76.8343,"temp":30.6,"humidity":32,"rain":0.0,"pressure":957.0,"uv_index":8.9,"wind_gusts":32.0,"aqi":90,"pm10":23.2,"pm2_5":21.4,"mosquito_risk":0,"arthritis_risk":5,"migraine_risk":7,"frizz_risk":0,"updated_at":"2026-03-29T23:04:56.388710+05:30"},{"city":"Bidar","state":"Karnataka","latitude":17.9104,"longitude":77.5199,"temp":29.2,"humidity":39,"rain":0.0,"pressure":934.2,"uv_index":8.9,"wind_gusts":30.2,"aqi":70,"pm10":30.3,"pm2_5":27.5,"mosquito_risk":4,"arthritis_risk":5,"migraine_risk":7,"frizz_risk":0,"updated_at":"2026-03-29T23:04:56.388716+05:30"},{"city":"Hospet","state":"Karnataka","latitude":15.2689,"longitude":76.3909,"temp":30.9,"humidity":46,"rain":0.0,"pressure":954.5,"uv_index":9.1,"wind_gusts":17.6,"aqi":93,"pm10":27.1,"pm2_5":24.0,"mosquito_risk":0,"arthritis_risk":5,"migraine_risk":7,"frizz_risk":1,"updated_at":"2026-03-29T23:04:56.388722+05:30"},{"city":"Tirupur","state":"Tamil Nadu","latitude":11.1085,"longitude":77.3411,"temp":27.8,"humidity":73,"rain":0.0,"pressure":975.6,"uv_index":9.25,"wind_gusts":35.6,"aqi":118,"pm10":54.4,"pm2_5":49.7,"mosquito_risk":7,"arthritis_risk":5,"migraine_risk":7,"frizz_risk":1,"updated_at":"2026-03-29T23:04:56.388728+05:30"},{"city":"Alappuzha","state":"Kerala","latitude":9.4981,"longitude":76.3388,"temp":28.6,"humidity":84,"rain":0.0,"pressure":1008.6,"uv_index":9.1,"wind_gusts":28.4,"aqi":86,"pm10":47.8,"pm2_5":42.3,"mosquito_risk":7,"arthritis_risk":0,"migraine_risk":4,"frizz_risk":1,"updated_at":"2026-03-29T23:04:56.388734+05:30"},{"city":"Munnar","state":"Kerala","latitude":10.0889,"longitude":77.0595,"temp":21.6,"humidity":81,"rain":0.0,"pressure":856.9,"uv_index":8.8,"wind_gusts":34.6,"aqi":87,"pm10":45.4,"pm2_5":43.2,"mosquito_risk":3,"arthritis_risk":5,"migraine_risk":7,"frizz_risk":1,"updated_at":"2026-03-29T23:04:56.388741+05:30"},{"city":"Silchar","state":"Assam","latitude":24.8333,"longitude":92.7789,"temp":21.9,"humidity":88,"rain":0.0,"pressure":1006.8,"uv_index":8.2,"wind_gusts":34.9,"aqi":151,"pm10":102.7,"pm2_5":80.3,"mosquito_risk":3,"arthritis_risk":5,"migraine_risk":4,"frizz_risk":1,"updated_at":"2026-03-29T23:04:56.388748+05:30"},{"city":"Dibrugarh","state":"Assam","latitude":27.4728,"longitude":94.912,"temp":20.7,"humidity":88,"rain":0.0,"pressure":999.0,"uv_index":7.35,"wind_gusts":16.9,"aqi":72,"pm10":33.4,"pm2_5":30.5,"mosquito_risk":3,"arthritis_risk":5,"migraine_risk":7,"frizz_risk":1,"updated_at":"2026-03-29T23:04:56.388754+05:30"}]