[{"city":"Delhi","state":"Delhi","latitude":28.6139,"longitude":77.209,"temp":22.5,"humidity":67,"rain":0.0,"pressure":986.8,"uv_index":5.85,"wind_gusts":32.8,"aqi":291,"pm10":534.6,"pm2_5":105.9,"mosquito_risk":3,"arthritis_risk":5,"migraine_risk":3,"frizz_risk":1,"updated_at":"2026-03-04T23:11:48.485088+05:30"},{"city":"Mumbai","state":"Maharashtra","latitude":19.076,"longitude":72.8777,"temp":29.1,"humidity":60,"rain":0.0,"pressure":1010.4,"uv_index":7.35,"wind_gusts":24.5,"aqi":199,"pm10":34.5,"pm2_5":33.3,"mosquito_risk":4,"arthritis_risk":0,"migraine_risk":4,"frizz_risk":1,"updated_at":"2026-03-04T23:11:48.485120+05:30"},{"city":"Bangalore","state":"Karnataka","latitude":12.9716,"longitude":77.5946,"temp":23.1,"humidity":48,"rain":0.0,"pressure":914.4,"uv_index":9.1,"wind_gusts":35.3,"aqi":99,"pm10":27.1,"pm2_5":26.4,"mosquito_risk":0,"arthritis_risk":5,"migraine_risk":7,"frizz_risk":0,"updated_at":"2026-03-04T23:11:48.485134+05:30"},{"city":"Hyderabad","state":"Telangana","latitude":17.385,"longitude":78.4867,"temp":24.8,"humidity":57,"rain":0.0,"pressure":956.4,"uv_index":8.4,"wind_gusts":25.6,"aqi":99,"pm10":41.9,"pm2_5":39.5,"mosquito_risk":0,"arthritis_risk":5,"migraine_risk":7,"frizz_risk":0,"updated_at":"2026-03-04T23:11:48.485143+05:30"},{"city":"Chennai","state":"Tamil Nadu","latitude":13.0827,"longitude":80.2707,"temp":25.2,"humidity":88,"rain":0.0,"pressure":1010.9,"uv_index":8.8,"wind_gusts":29.5,"aqi":93,"pm10":21.4,"pm2_5":18.7,"mosquito_risk":7,"arthritis_risk":0,"migraine_risk":4,"frizz_risk":1,"updated_at":"2026-03-04T23:11:48.485151+05:30"},{"city":"Kolkata","state":"West Bengal","latitude":22.5726,"longitude":88.3639,"temp":23.3,"humidity":58,"rain":0.0,"pressure":1008.6,"uv_index":7.75,"wind_gusts":18.7,"aqi":167,"pm10":136.0,"pm2_5":104.8,"mosquito_risk":0,"arthritis_risk":0,"migraine_risk":4,"frizz_risk":0,"updated_at":"2026-03-04T23:11:48.485159+05:30"},{"city":"Pune","state":"Maharashtra","latitude":18.5204,"longitude":73.8567,"temp":25.0,"humidity":51,"rain":0.0,"pressure":951.0,"uv_index":7.95,"wind_gusts":30.2,"aqi":106,"pm10":25.6,"pm2_5":25.0,"mosquito_risk":4,"arthritis_risk":5,"migraine_risk":7,"frizz_risk":0,"updated_at":"2026-03-04T23:11:48.485170+05:30"},{"city":"Ahmedabad","state":"Gujarat","latitude":23.0225,"longitude":72.5714,"temp":25.9,"humidity":37,"rain":0.0,"pressure":1006.1,"uv_index":7.2,"wind_gusts":19.8,"aqi":76,"pm10":30.3,"pm2_5":27.6,"mosquito_risk":4,"arthritis_risk":5,"migraine_risk":4,"frizz_risk":0,"updated_at":"2026-03-04T23:11:48.485177+05:30"},{"city":"Jaipur","state":"Rajasthan","latitude":26.9124,"longitude":75.7873,"temp":26.4,"humidity":25,"rain":0.0,"pressure":964.2,"uv_index":6.6,"wind_gusts":32.0,"aqi":93,"pm10":86.6,"pm2_5":40.9,"mosquito_risk":4,"arthritis_risk":5,"migraine_risk":7,"frizz_risk":0,"updated_at":"2026-03-04T23:11:48.485183+05:30"},{"city":"Lucknow","state":"Uttar Pradesh","latitude":26.8467,"longitude":80.9462,"temp":22.5,"humidity":71,"rain":0.0,"pressure":997.1,"uv_index":6.35,"wind_gusts":24.8,"aqi":159,"pm10":189.1,"pm2_5":86.4,"mosquito_risk":3,"arthritis_risk":5,"migraine_risk":7,"frizz_risk":1,"updated_at":"2026-03-04T23:11:48.485190+05:30"},{"city":"Kanpur","state":"Uttar Pradesh","latitude":26.4499,"longitude":80.3319,"temp":22.1,"humidity":69,"rain":0.0,"pressure":995.5,"uv_index":6.35,"wind_gusts":27.0,"aqi":176,"pm10":285.9,"pm2_5":88.2,"mosquito_risk":3,"arthritis_risk":5,"migraine_risk":7,"frizz_risk":1,"updated_at":"2026-03-04T23:11:48.485196+05:30"},{"city":"Chandigarh","state":"Chandigarh","latitude":30.7333,"longitude":76.7794,"temp":20.1,"humidity":76,"rain":0.0,"pressure":972.0,"uv_index":5.75,"wind_gusts":34.9,"aqi":104,"pm10":40.4,"pm2_5":37.1,"mosquito_risk":3,"arthritis_risk":5,"migraine_risk":3,"frizz_risk":0,"updated_at":"2026-03-04T23:11:48.485205+05:30"},{"city":"Srinagar","state":"Jammu and Kashmir","latitude":34.0837,"longitude":74.7973,"temp":9.1,"humidity":80,"rain":0.0,"pressure":843.5,"uv_index":6.15,"wind_gusts":14.8,"aqi":150,"pm10":130.9,"pm2_5":102.2,"mosquito_risk":3,"arthritis_risk":5,"migraine_risk":7,"frizz_risk":0,"updated_at":"2026-03-04T23:11:48.485212+05:30"},{"city":"Jammu","state":"Jammu and Kashmir","latitude":32.7266,"longitude":74.857,"temp":21.7,"humidity":64,"rain":0.0,"pressure":976.3,"uv_index":6.35,"wind_gusts":22.3,"aqi":106,"pm10":68.5,"pm2_5":55.6,"mosquito_risk":3,"arthritis_risk":5,"migraine_risk":7,"frizz_risk":0,"updated_at":"2026-03-04T23:11:48.485218+05:30"},{"city":"Amritsar","state":"Punjab","latitude":31.634,"longitude":74.8723,"temp":20.3,"humidity":72,"rain":0.0,"pressure":984.3,"uv_index":6.3,"wind_gusts":22.0,"aqi":152,"pm10":75.9,"pm2_5":59.0,"mosquito_risk":3,"arthritis_risk":5,"migraine_risk":7,"frizz_risk":0,"updated_at":"2026-03-04T23:11:48.485224+05:30"},{"city":"Ludhiana","state":"Punjab","latitude":30.901,"longitude":75.8573,"temp":22.3,"humidity":75,"rain":0.0,"pressure":982.6,"uv_index":5.95,"wind_gusts":28.8,"aqi":154,"pm10":106.4,"pm2_5":82.0,"mosquito_risk":3,"arthritis_risk":5,"migraine_risk":3,"frizz_risk":1,"updated_at":"2026-03-04T23:11:48.485230+05:30"},{"city":"Jalandhar","state":"Punjab","latitude":31.326,"longitude":75.5762,"temp":21.3,"humidity":72,"rain":0.0,"pressure":983.7,"uv_index":6.15,"wind_gusts":27.0,"aqi":155,"pm10":105.7,"pm2_5":84.5,"mosquito_risk":3,"arthritis_risk":5,"migraine_risk":7,"frizz_risk":0,"updated_at":"2026-03-04T23:11:48.485238+05:30"},{"city":"Dehradun","state":"Uttarakhand","latitude":30.6284,"longitude":78.0322,"temp":13.7,"humidity":67,"rain":0.0,"pressure":831.0,"uv_index":6.1,"wind_gusts":29.2,"aqi":74,"pm10":31.3,"pm2_5":23.7,"mosquito_risk":3,"arthritis_risk":5,"migraine_risk":7,"frizz_risk":0,"updated_at":"2026-03-04T23:11:48.485244+05:30"},{"city":"Shimla","state":"Himachal Pradesh","latitude":31.1048,"longitude":77.1734,"temp":14.5,"humidity":43,"rain":0.0,"pressure":787.1,"uv_index":6.15,"wind_gusts":50.4,"aqi":82,"pm10":36.1,"pm2_5":26.1,"mosquito_risk":0,"arthritis_risk":5,"migraine_risk":7,"frizz_risk":0,"updated_at":"2026-03-04T23:11:48.485250+05:30"},{"city":"Manali","state":"Himachal Pradesh","latitude":32.2396,"longitude":77.1887,"temp":18.0,"humidity":28,"rain":0.0,"pressure":824.0,"uv_index":7.75,"wind_gusts":32.8,"aqi":76,"pm10":30.5,"pm2_5":17.3,"mosquito_risk":0,"arthritis_risk":5,"migraine_risk":7,"frizz_risk":1,"updated_at":"2026-03-04T23:11:48.485256+05:30"},{"city":"Gurgaon","state":"Haryana","latitude":28.4595,"longitude":77.0266,"temp":19.7,"humidity":76,"rain":0.0,"pressure":985.1,"uv_index":5.95,"wind_gusts":31.0,"aqi":1190,"pm10":1329.9,"pm2_5":178.8,"mosquito_risk":3,"arthritis_risk":5,"migraine_risk":3,"frizz_risk":0,"updated_at":"2026-03-04T23:11:48.485262+05:30"},{"city":"Noida","state":"Uttar Pradesh","latitude":28.5355,"longitude":77.391,"temp":22.8,"humidity":65,"rain":0.0,"pressure":988.2,"uv_index":5.85,"wind_gusts":32.0,"aqi":1190,"pm10":1329.9,"pm2_5":178.8,"mosquito_risk":3,"arthritis_risk":5,"migraine_risk":3,"frizz_risk":0,"updated_at":"2026-03-04T23:11:48.485268+05:30"},{"city":"Ghaziabad","state":"Uttar Pradesh","latitude":28.6692,"longitude":77.4538,"temp":22.3,"humidity":70,"rain":0.0,"pressure":986.3,"uv_index":5.8,"wind_gusts":29.5,"aqi":193,"pm10":489.9,"pm2_5":103.6,"mosquito_risk":3,"arthritis_risk":5,"migraine_risk":3,"frizz_risk":1,"updated_at":"2026-03-04T23:11:48.485274+05:30"},{"city":"Faridabad","state":"Haryana","latitude":28.4089,"longitude":77.3178,"temp":22.8,"humidity":58,"rain":0.0,"pressure":987.5,"uv_index":5.9,"wind_gusts":29.9,"aqi":1190,"pm10":1329.9,"pm2_5":178.8,"mosquito_risk":0,"arthritis_risk":5,"migraine_risk":3,"frizz_risk":0,"updated_at":"2026-03-04T23:11:48.485280+05:30"},{"city":"Meerut","state":"Uttar Pradesh","latitude":28.9845,"longitude":77.7064,"temp":20.3,"humidity":81,"rain":0.0,"pressure":984.9,"uv_index":5.7,"wind_gusts":32.0,"aqi":193,"pm10":489.9,"pm2_5":103.6,"mosquito_risk":3,"arthritis_risk":5,"migraine_risk":3,"frizz_risk":1,"updated_at":"2026-03-04T23:11:48.485286+05:30"},{"city":"Agra","state":"Uttar Pradesh","latitude":27.1767,"longitude":78.0081,"temp":20.8,"humidity":64,"rain":0.0,"pressure":991.3,"uv_index":6.2,"wind_gusts":32.8,"aqi":426,"pm10":566.2,"pm2_5":93.4,"mosquito_risk":3,"arthritis_risk":5,"migraine_risk":7,"frizz_risk":0,"updated_at":"2026-03-04T23:11:48.485292+05:30"},{"city":"Varanasi","state":"Uttar Pradesh","latitude":25.3176,"longitude":82.9739,"temp":21.2,"humidity":76,"rain":0.0,"pressure":1001.1,"uv_index":7.0,"wind_gusts":18.4,"aqi":153,"pm10":168.6,"pm2_5":90.8,"mosquito_risk":3,"arthritis_risk":5,"migraine_risk":4,"frizz_risk":1,"updated_at":"2026-03-04T23:11:48.485300+05:30"},{"city":"Prayagraj","state":"Uttar Pradesh","latitude":25.4358,"longitude":81.8463,"temp":22.6,"humidity":68,"rain":0.0,"pressure":999.7,"uv_index":6.85,"wind_gusts":23.4,"aqi":154,"pm10":117.3,"pm2_5":71.7,"mosquito_risk":3,"arthritis_risk":5,"migraine_risk":7,"frizz_risk":1,"updated_at":"2026-03-04T23:11:48.485307+05:30"},{"city":"Gorakhpur","state":"Uttar Pradesh","latitude":26.7606,"longitude":83.3732,"temp":21.6,"humidity":72,"rain":0.0,"pressure":1000.6,"uv_index":6.7,"wind_gusts":12.2,"aqi":166,"pm10":170.0,"pm2_5":132.2,"mosquito_risk":3,"arthritis_risk":5,"migraine_risk":4,"frizz_risk":1,"updated_at":"2026-03-04T23:11:48.485315+05:30"},{"city":"Bareilly","state":"Uttar Pradesh","latitude":28.367,"longitude":79.4304,"temp":20.2,"humidity":78,"rain":0.0,"pressure":990.4,"uv_index":6.05,"wind_gusts":20.5,"aqi":162,"pm10":104.5,"pm2_5":87.1,"mosquito_risk":3,"arthritis_risk":5,"migraine_risk":7,"frizz_risk":1,"updated_at":"2026-03-04T23:11:48.485321+05:30"},{"city":"Aligarh","state":"Uttar Pradesh","latitude":27.8974,"longitude":78.088,"temp":20.3,"humidity":70,"rain":0.0,"pressure":989.1,"uv_index":5.95,"wind_gusts":28.8,"aqi":614,"pm10":853.1,"pm2_5":149.9,"mosquito_risk":3,"arthritis_risk":5,"migraine_risk":3,"frizz_risk":0,"updated_at":"2026-03-04T23:11:48.485326+05:30"},{"city":"Moradabad","state":"Uttar Pradesh","latitude":28.8386,"longitude":78.7733,"temp":19.9,"humidity":82,"rain":0.0,"pressure":987.3,"uv_index":5.85,"wind_gusts":23.4,"aqi":158,"pm10":275.7,"pm2_5":105.5,"mosquito_risk":3,"arthritis_risk":10,"migraine_risk":3,"frizz_risk":1,"updated_at":"2026-03-04T23:11:48.485333+05:30"},{"city":"Saharanpur","state":"Uttar Pradesh","latitude":29.9637,"longitude":77.546,"temp":20.0,"humidity":81,"rain":0.0,"pressure":978.9,"uv_index":5.5,"wind_gusts":39.2,"aqi":152,"pm10":149.0,"pm2_5":69.2,"mosquito_risk":3,"arthritis_risk":5,"migraine_risk":3,"frizz_risk":1,"updated_at":"2026-03-04T23:11:48.485339+05:30"},{"city":"Jhansi","state":"Uttar Pradesh","latitude":25.4484,"longitude":78.5685,"temp":23.6,"humidity":46,"rain":0.0,"pressure":981.7,"uv_index":6.8,"wind_gusts":31.7,"aqi":61,"pm10":34.6,"pm2_5":27.9,"mosquito_risk":0,"arthritis_risk":5,"migraine_risk":7,"frizz_risk":0,"updated_at":"2026-03-04T23:11:51.747871+05:30"},{"city":"Surat","state":"Gujarat","latitude":21.1702,"longitude":72.8311,"temp":26.7,"humidity":48,"rain":0.0,"pressure":1009.5,"uv_index":7.05,"wind_gusts":27.7,"aqi":139,"pm10":46.2,"pm2_5":43.4,"mosquito_risk":4,"arthritis_risk":0,"migraine_risk":4,"frizz_risk":0,"updated_at":"2026-03-04T23:11:51.747900+05:30"},{"city":"Vadodara","state":"Gujarat","latitude":22.3072,"longitude":73.1812,"temp":26.4,"humidity":53,"rain":0.0,"pressure":1007.9,"uv_index":7.2,"wind_gusts":18.7,"aqi":141,"pm10":46.2,"pm2_5":42.6,"mosquito_risk":4,"arthritis_risk":5,"migraine_risk":4,"frizz_risk":0,"updated_at":"2026-03-04T23:11:51.747914+05:30"},{"city":"Rajkot","state":"Gujarat","latitude":22.3039,"longitude":70.8022,"temp":25.3,"humidity":44,"rain":0.0,"pressure":999.0,"uv_index":7.0,"wind_gusts":25.9,"aqi":96,"pm10":23.6,"pm2_5":22.7,"mosquito_risk":4,"arthritis_risk":5,"migraine_risk":7,"frizz_risk":0,"updated_at":"2026-03-04T23:11:51.747962+05:30"},{"city":"Thane","state":"Maharashtra","latitude":19.2183,"longitude":72.9781,"temp":27.9,"humidity":48,"rain":0.0,"pressure":1010.0,"uv_index":7.35,"wind_gusts":35.3,"aqi":199,"pm10":34.5,"pm2_5":33.3,"mosquito_risk":4,"arthritis_risk":0,"migraine_risk":4,"frizz_risk":0,"updated_at":"2026-03-04T23:11:51.747973+05:30"},{"city":"Nagpur","state":"Maharashtra","latitude":21.1458,"longitude":79.0882,"temp":24.9,"humidity":51,"rain":0.0,"pressure":976.6,"uv_index":7.75,"wind_gusts":23.0,"aqi":66,"pm10":34.7,"pm2_5":30.6,"mosquito_risk":0,"arthritis_risk":5,"migraine_risk":7,"frizz_risk":0,"updated_at":"2026-03-04T23:11:51.747984+05:30"},{"city":"Nashik","state":"Maharashtra","latitude":19.9975,"longitude":73.7898,"temp":24.3,"humidity":48,"rain":0.0,"pressure":948.5,"uv_index":7.55,"wind_gusts":23.4,"aqi":100,"pm10":29.3,"pm2_5":28.5,"mosquito_risk":0,"arthritis_risk":5,"migraine_risk":7,"frizz_risk":0,"updated_at":"2026-03-04T23:11:51.747994+05:30"},{"city":"Aurangabad","state":"Maharashtra","latitude":19.8762,"longitude":75.3433,"temp":24.4,"humidity":45,"rain":0.0,"pressure":946.8,"uv_index":8.05,"wind_gusts":22.7,"aqi":115,"pm10":35.6,"pm2_5":34.9,"mosquito_risk":0,"arthritis_risk":5,"migraine_risk":7,"frizz_risk":0,"updated_at":"2026-03-04T23:11:51.748004+05:30"},{"city":"Solapur","state":"Maharashtra","latitude":17.6599,"longitude":75.9064,"temp":25.4,"humidity":57,"rain":0.0,"pressure":959.4,"uv_index":8.3,"wind_gusts":18.0,"aqi":115,"pm10":23.1,"pm2_5":22.1,"mosquito_risk":4,"arthritis_risk":5,"migraine_risk":7,"frizz_risk":1,"updated_at":"2026-03-04T23:11:51.748018+05:30"},{"city":"Kolhapur","state":"Maharashtra","latitude":16.705,"longitude":74.2433,"temp":22.2,"humidity":76,"rain":0.0,"pressure":950.6,"uv_index":8.45,"wind_gusts":37.8,"aqi":154,"pm10":68.0,"pm2_5":67.5,"mosquito_risk":3,"arthritis_risk":5,"migraine_risk":7,"frizz_risk":1,"updated_at":"2026-03-04T23:11:51.748028+05:30"},{"city":"Goa","state":"Goa","latitude":15.2993,"longitude":74.124,"temp":27.4,"humidity":87,"rain":0.0,"pressure":1001.0,"uv_index":8.5,"wind_gusts":35.6,"aqi":117,"pm10":55.9,"pm2_5":51.6,"mosquito_risk":7,"arthritis_risk":5,"migraine_risk":4,"frizz_risk":1,"updated_at":"2026-03-04T23:11:51.748038+05:30"},{"city":"Jodhpur","state":"Rajasthan","latitude":26.2389,"longitude":73.0243,"temp":25.8,"humidity":41,"rain":0.0,"pressure":987.5,"uv_index":6.9,"wind_gusts":18.0,"aqi":83,"pm10":77.1,"pm2_5":34.2,"mosquito_risk":4,"arthritis_risk":5,"migraine_risk":7,"frizz_risk":0,"updated_at":"2026-03-04T23:11:51.748048+05:30"},{"city":"Udaipur","state":"Rajasthan","latitude":24.5854,"longitude":73.7125,"temp":21.6,"humidity":47,"rain":0.0,"pressure":951.1,"uv_index":7.5,"wind_gusts":23.8,"aqi":66,"pm10":33.1,"pm2_5":21.6,"mosquito_risk":0,"arthritis_risk":5,"migraine_risk":7,"frizz_risk":0,"updated_at":"2026-03-04T23:11:51.748058+05:30"},{"city":"Kota","state":"Rajasthan","latitude":25.2138,"longitude":75.8648,"temp":22.5,"humidity":56,"rain":0.0,"pressure":983.0,"uv_index":6.9,"wind_gusts":17.6,"aqi":82,"pm10":56.6,"pm2_5":40.6,"mosquito_risk":0,"arthritis_risk":5,"migraine_risk":7,"frizz_risk":0,"updated_at":"2026-03-04T23:11:51.748067+05:30"},{"city":"Bikaner","state":"Rajasthan","latitude":28.0229,"longitude":73.3119,"temp":25.3,"humidity":39,"rain":0.0,"pressure":986.5,"uv_index":6.55,"wind_gusts":23.8,"aqi":67,"pm10":57.4,"pm2_5":21.0,"mosquito_risk":4,"arthritis_risk":5,"migraine_risk":7,"frizz_risk":0,"updated_at":"2026-03-04T23:11:51.748077+05:30"},{"city":"Ajmer","state":"Rajasthan","latitude":26.4499,"longitude":74.6399,"temp":24.0,"humidity":35,"rain":0.0,"pressure":958.9,"uv_index":6.85,"wind_gusts":23.4,"aqi":72,"pm10":67.5,"pm2_5":27.8,"mosquito_risk":0,"arthritis_risk":5,"migraine_risk":7,"frizz_risk":0,"updated_at":"2026-03-04T23:11:51.748086+05:30"},{"city":"Gwalior","state":"Madhya Pradesh","latitude":26.2183,"longitude":78.1828,"temp":23.4,"humidity":54,"rain":0.0,"pressure":987.0,"uv_index":6.5,"wind_gusts":29.2,"aqi":80,"pm10":66.4,"pm2_5":34.9,"mosquito_risk":0,"arthritis_risk":5,"migraine_risk":7,"frizz_risk":0,"updated_at":"2026-03-04T23:11:51.748097+05:30"},{"city":"Indore","state":"Madhya Pradesh","latitude":22.7196,"longitude":75.8577,"temp":22.9,"humidity":50,"rain":0.0,"pressure":951.6,"uv_index":7.45,"wind_gusts":20.5,"aqi":80,"pm10":40.2,"pm2_5":33.2,"mosquito_risk":0,"arthritis_risk":5,"migraine_risk":7,"frizz_risk":0,"updated_at":"2026-03-04T23:11:51.748106+05:30"},{"city":"Bhopal","state":"Madhya Pradesh","latitude":23.2599,"longitude":77.4126,"temp":22.1,"humidity":43,"rain":0.0,"pressure":957.5,"uv_index":7.3,"wind_gusts":23.0,"aqi":68,"pm10":30.7,"pm2_5":26.5,"mosquito_risk":0,"arthritis_risk":5,"migraine_risk":7,"frizz_risk":0,"updated_at":"2026-03-04T23:11:51.748116+05:30"},{"city":"Jabalpur","state":"Madhya Pradesh","latitude":23.1815,"longitude":79.9864,"temp":23.9,"humidity":41,"rain":0.0,"pressure":965.0,"uv_index":7.45,"wind_gusts":23.4,"aqi":67,"pm10":27.5,"pm2_5":19.6,"mosquito_risk":0,"arthritis_risk":5,"migraine_risk":7,"frizz_risk":0,"updated_at":"2026-03-04T23:11:51.748126+05:30"},{"city":"Ujjain","state":"Madhya Pradesh","latitude":23.1765,"longitude":75.7885,"temp":23.1,"humidity":46,"rain":0.0,"pressure":957.5,"uv_index":7.35,"wind_gusts":19.4,"aqi":107,"pm10":65.2,"pm2_5":56.8,"mosquito_risk":0,"arthritis_risk":5,"migraine_risk":7,"frizz_risk":0,"updated_at":"2026-03-04T23:11:51.748136+05:30"},{"city":"Visakhapatnam","state":"Andhra Pradesh","latitude":17.6868,"longitude":83.2185,"temp":24.8,"humidity":81,"rain":0.0,"pressure":1006.2,"uv_index":8.4,"wind_gusts":36.7,"aqi":130,"pm10":32.7,"pm2_5":29.7,"mosquito_risk":3,"arthritis_risk":5,"migraine_risk":4,"frizz_risk":1,"updated_at":"2026-03-04T23:11:51.748146+05:30"},{"city":"Vijayawada","state":"Andhra Pradesh","latitude":16.5062,"longitude":80.648,"temp":24.9,"humidity":77,"rain":0.0,"pressure":1005.7,"uv_index":8.45,"wind_gusts":22.3,"aqi":122,"pm10":29.1,"pm2_5":27.8,"mosquito_risk":3,"arthritis_risk":5,"migraine_risk":4,"frizz_risk":1,"updated_at":"2026-03-04T23:11:51.748155+05:30"},{"city":"Guntur","state":"Andhra Pradesh","latitude":16.3067,"longitude":80.4365,"temp":24.6,"humidity":84,"rain":0.0,"pressure":1007.2,"uv_index":8.45,"wind_gusts":25.2,"aqi":111,"pm10":30.3,"pm2_5":29.2,"mosquito_risk":3,"arthritis_risk":5,"migraine_risk":4,"frizz_risk":1,"updated_at":"2026-03-04T23:11:51.748165+05:30"},{"city":"Nellore","state":"Andhra Pradesh","latitude":14.4426,"longitude":79.9865,"temp":24.7,"humidity":89,"rain":0.0,"pressure":1009.4,"uv_index":8.65,"wind_gusts":29.9,"aqi":98,"pm10":15.2,"pm2_5":13.4,"mosquito_risk":3,"arthritis_risk":0,"migraine_risk":4,"frizz_risk":1,"updated_at":"2026-03-04T23:11:51.748175+05:30"},{"city":"Kurnool","state":"Andhra Pradesh","latitude":15.8281,"longitude":78.0373,"temp":29.0,"humidity":41,"rain":0.0,"pressure":979.7,"uv_index":8.45,"wind_gusts":27.0,"aqi":102,"pm10":17.8,"pm2_5":17.1,"mosquito_risk":4,"arthritis_risk":5,"migraine_risk":7,"frizz_risk":0,"updated_at":"2026-03-04T23:11:51.748186+05:30"},{"city":"Kakinada","state":"Andhra Pradesh","latitude":16.9891,"longitude":82.2475,"temp":23.3,"humidity":90,"rain":0.0,"pressure":1010.4,"uv_index":8.4,"wind_gusts":33.8,"aqi":98,"pm10":30.4,"pm2_5":26.5,"mosquito_risk":3,"arthritis_risk":0,"migraine_risk":4,"frizz_risk":1,"updated_at":"2026-03-04T23:11:51.748195+05:30"},{"city":"Tirupati","state":"Andhra Pradesh","latitude":13.6288,"longitude":79.4192,"temp":25.1,"humidity":53,"rain":0.0,"pressure":995.5,"uv_index":8.8,"wind_gusts":34.6,"aqi":135,"pm10":46.1,"pm2_5":45.2,"mosquito_risk":4,"arthritis_risk":5,"migraine_risk":7,"frizz_risk":0,"updated_at":"2026-03-04T23:11:51.748205+05:30"},{"city":"Warangal","state":"Telangana","latitude":17.9689,"longitude":79.5941,"temp":26.8,"humidity":46,"rain":0.0,"pressure":981.2,"uv_index":8.2,"wind_gusts":20.5,"aqi":114,"pm10":36.0,"pm2_5":33.9,"mosquito_risk":4,"arthritis_risk":5,"migraine_risk":7,"frizz_risk":0,"updated_at":"2026-03-04T23:11:51.748215+05:30"},{"city":"Nizamabad","state":"Telangana","latitude":18.6725,"longitude":78.0941,"temp":23.1,"humidity":60,"rain":0.0,"pressure":967.4,"uv_index":8.1,"wind_gusts":26.3,"aqi":98,"pm10":31.8,"pm2_5":29.4,"mosquito_risk":0,"arthritis_risk":5,"migraine_risk":7,"frizz_risk":0,"updated_at":"2026-03-04T23:11:51.748224+05:30"},{"city":"Mysore","state":"Karnataka","latitude":12.2958,"longitude":76.6396,"temp":23.2,"humidity":55,"rain":0.0,"pressure":931.0,"uv_index":9.15,"wind_gusts":40.3,"aqi":91,"pm10":29.6,"pm2_5":28.8,"mosquito_risk":0,"arthritis_risk":5,"migraine_risk":7,"frizz_risk":0,"updated_at":"2026-03-04T23:11:51.748234+05:30"},{"city":"Mangalore","state":"Karnataka","latitude":12.9141,"longitude":74.856,"temp":28.6,"humidity":81,"rain":0.0,"pressure":1010.0,"uv_index":8.75,"wind_gusts":29.2,"aqi":93,"pm10":41.7,"pm2_5":36.3,"mosquito_risk":7,"arthritis_risk":0,"migraine_risk":4,"frizz_risk":1,"updated_at":"2026-03-04T23:11:51.748243+05:30"},{"city":"Hubli-Dharwad","state":"Karnataka","latitude":15.3647,"longitude":75.124,"temp":24.0,"humidity":77,"rain":0.0,"pressure":943.6,"uv_index":8.65,"wind_gusts":25.6,"aqi":138,"pm10":24.6,"pm2_5":24.1,"mosquito_risk":3,"arthritis_risk":5,"migraine_risk":7,"frizz_risk":1,"updated_at":"2026-03-04T23:11:51.748253+05:30"},{"city":"Belgaum","state":"Karnataka","latitude":15.8497,"longitude":74.4977,"temp":23.0,"humidity":83,"rain":0.0,"pressure":928.5,"uv_index":8.7,"wind_gusts":32.4,"aqi":126,"pm10":52.4,"pm2_5":51.3,"mosquito_risk":3,"arthritis_risk":5,"migraine_risk":7,"frizz_risk":1,"updated_at":"2026-03-04T23:11:55.012809+05:30"},{"city":"Coimbatore","state":"Tamil Nadu","latitude":11.0168,"longitude":76.9558,"temp":22.5,"humidity":74,"rain":0.0,"pressure":965.1,"uv_index":9.15,"wind_gusts":43.2,"aqi":108,"pm10":47.4,"pm2_5":46.2,"mosquito_risk":3,"arthritis_risk":5,"migraine_risk":7,"frizz_risk":1,"updated_at":"2026-03-04T23:11:55.012835+05:30"},{"city":"Madurai","state":"Tamil Nadu","latitude":9.9252,"longitude":78.1198,"temp":25.8,"humidity":77,"rain":0.0,"pressure":996.9,"uv_index":9.1,"wind_gusts":25.9,"aqi":88,"pm10":24.6,"pm2_5":24.0,"mosquito_risk":7,"arthritis_risk":5,"migraine_risk":7,"frizz_risk":1,"updated_at":"2026-03-04T23:11:55.012849+05:30"},{"city":"Trichy","state":"Tamil Nadu","latitude":10.7905,"longitude":78.7047,"temp":24.6,"humidity":85,"rain":0.0,"pressure":1003.6,"uv_index":9.0,"wind_gusts":31.0,"aqi":93,"pm10":21.5,"pm2_5":20.4,"mosquito_risk":3,"arthritis_risk":5,"migraine_risk":4,"frizz_risk":1,"updated_at":"2026-03-04T23:11:55.012860+05:30"},{"city":"Salem","state":"Tamil Nadu","latitude":11.6643,"longitude":78.146,"temp":25.5,"humidity":55,"rain":0.0,"pressure":980.4,"uv_index":9.0,"wind_gusts":37.8,"aqi":101,"pm10":29.3,"pm2_5":28.7,"mosquito_risk":4,"arthritis_risk":5,"migraine_risk":7,"frizz_risk":0,"updated_at":"2026-03-04T23:11:55.012871+05:30"},{"city":"Tirunelveli","state":"Tamil Nadu","latitude":8.7139,"longitude":77.7567,"temp":25.5,"humidity":82,"rain":0.0,"pressure":1007.0,"uv_index":9.15,"wind_gusts":36.0,"aqi":79,"pm10":22.5,"pm2_5":21.4,"mosquito_risk":7,"arthritis_risk":5,"migraine_risk":4,"frizz_risk":1,"updated_at":"2026-03-04T23:11:55.012881+05:30"},{"city":"Vellore","state":"Tamil Nadu","latitude":12.9165,"longitude":79.1325,"temp":24.1,"humidity":65,"rain":0.0,"pressure":988.5,"uv_index":8.85,"wind_gusts":38.9,"aqi":123,"pm10":41.4,"pm2_5":40.5,"mosquito_risk":3,"arthritis_risk":5,"migraine_risk":7,"frizz_risk":1,"updated_at":"2026-03-04T23:11:55.012891+05:30"},{"city":"Erode","state":"Tamil Nadu","latitude":11.341,"longitude":77.7172,"temp":26.7,"humidity":56,"rain":0.0,"pressure":992.2,"uv_index":9.05,"wind_gusts":29.9,"aqi":101,"pm10":30.0,"pm2_5":29.4,"mosquito_risk":4,"arthritis_risk":5,"migraine_risk":7,"frizz_risk":1,"updated_at":"2026-03-04T23:11:55.012901+05:30"},{"city":"Kochi","state":"Kerala","latitude":9.9312,"longitude":76.2673,"temp":27.6,"humidity":81,"rain":0.0,"pressure":1012.1,"uv_index":8.95,"wind_gusts":34.6,"aqi":99,"pm10":49.2,"pm2_5":48.4,"mosquito_risk":7,"arthritis_risk":0,"migraine_risk":4,"frizz_risk":1,"updated_at":"2026-03-04T23:11:55.012911+05:30"},{"city":"Thiruvananthapuram","state":"Kerala","latitude":8.5241,"longitude":76.9366,"temp":27.6,"humidity":79,"rain":0.0,"pressure":1011.2,"uv_index":9.0,"wind_gusts":27.4,"aqi":116,"pm10":21.1,"pm2_5":18.7,"mosquito_risk":7,"arthritis_risk":0,"migraine_risk":4,"frizz_risk":1,"updated_at":"2026-03-04T23:11:55.012934+05:30"},{"city":"Kozhikode","state":"Kerala","latitude":11.2588,"longitude":75.7804,"temp":28.4,"humidity":81,"rain":0.0,"pressure":1011.2,"uv_index":8.85,"wind_gusts":31.0,"aqi":93,"pm10":36.1,"pm2_5":31.3,"mosquito_risk":7,"arthritis_risk":0,"migraine_risk":4,"frizz_risk":1,"updated_at":"2026-03-04T23:11:55.012944+05:30"},{"city":"Thrissur","state":"Kerala","latitude":10.5276,"longitude":76.2144,"temp":26.6,"humidity":89,"rain":0.0,"pressure":1010.5,"uv_index":8.9,"wind_gusts":37.8,"aqi":106,"pm10":40.9,"pm2_5":39.3,"mosquito_risk":7,"arthritis_risk":0,"migraine_risk":4,"frizz_risk":1,"updated_at":"2026-03-04T23:11:55.012954+05:30"},{"city":"Kannur","state":"Kerala","latitude":11.8745,"longitude":75.3704,"temp":28.1,"humidity":81,"rain":0.0,"pressure":1010.4,"uv_index":8.8,"wind_gusts":33.5,"aqi":89,"pm10":41.3,"pm2_5":36.3,"mosquito_risk":7,"arthritis_risk":0,"migraine_risk":4,"frizz_risk":1,"updated_at":"2026-03-04T23:11:55.012965+05:30"},{"city":"Patna","state":"Bihar","latitude":25.5941,"longitude":85.1376,"temp":23.8,"humidity":64,"rain":0.0,"pressure":1003.9,"uv_index":7.2,"wind_gusts":15.5,"aqi":168,"pm10":145.8,"pm2_5":113.2,"mosquito_risk":3,"arthritis_risk":5,"migraine_risk":4,"frizz_risk":1,"updated_at":"2026-03-04T23:11:55.012974+05:30"},{"city":"Gaya","state":"Bihar","latitude":24.7914,"longitude":85.0002,"temp":20.2,"humidity":73,"rain":0.0,"pressure":997.5,"uv_index":7.25,"wind_gusts":17.6,"aqi":153,"pm10":140.2,"pm2_5":89.2,"mosquito_risk":3,"arthritis_risk":5,"migraine_risk":7,"frizz_risk":0,"updated_at":"2026-03-04T23:11:55.012984+05:30"},{"city":"Muzaffarpur","state":"Bihar","latitude":26.1209,"longitude":85.3647,"temp":21.4,"humidity":71,"rain":0.0,"pressure":1003.8,"uv_index":7.15,"wind_gusts":14.0,"aqi":169,"pm10":142.0,"pm2_5":112.2,"mosquito_risk":3,"arthritis_risk":5,"migraine_risk":4,"frizz_risk":0,"updated_at":"2026-03-04T23:11:55.012994+05:30"},{"city":"Bhagalpur","state":"Bihar","latitude":25.2425,"longitude":87.0117,"temp":22.1,"humidity":65,"rain":0.0,"pressure":1004.8,"uv_index":7.2,"wind_gusts":8.3,"aqi":163,"pm10":129.5,"pm2_5":96.6,"mosquito_risk":3,"arthritis_risk":5,"migraine_risk":4,"frizz_risk":0,"updated_at":"2026-03-04T23:11:55.013003+05:30"},{"city":"Ranchi","state":"Jharkhand","latitude":23.3441,"longitude":85.3096,"temp":20.3,"humidity":46,"rain":0.0,"pressure":940.3,"uv_index":7.9,"wind_gusts":30.6,"aqi":96,"pm10":125.7,"pm2_5":44.4,"mosquito_risk":0,"arthritis_risk":5,"migraine_risk":7,"frizz_risk":0,"updated_at":"2026-03-04T23:11:55.013013+05:30"},{"city":"Jamshedpur","state":"Jharkhand","latitude":22.8046,"longitude":86.2029,"temp":22.8,"humidity":64,"rain":0.0,"pressure":993.7,"uv_index":7.85,"wind_gusts":19.1,"aqi":143,"pm10":147.1,"pm2_5":78.0,"mosquito_risk":3,"arthritis_risk":5,"migraine_risk":7,"frizz_risk":0,"updated_at":"2026-03-04T23:11:55.013022+05:30"},{"city":"Dhanbad","state":"Jharkhand","latitude":23.7957,"longitude":86.4304,"temp":23.7,"humidity":45,"rain":0.0,"pressure":983.0,"uv_index":7.7,"wind_gusts":23.4,"aqi":151,"pm10":101.7,"pm2_5":67.3,"mosquito_risk":0,"arthritis_risk":5,"migraine_risk":7,"frizz_risk":0,"updated_at":"2026-03-04T23:11:55.013032+05:30"},{"city":"Bokaro","state":"Jharkhand","latitude":23.6693,"longitude":86.1511,"temp":23.2,"humidity":49,"rain":0.0,"pressure":987.4,"uv_index":7.7,"wind_gusts":23.8,"aqi":152,"pm10":126.7,"pm2_5":69.6,"mosquito_risk":0,"arthritis_risk":5,"migraine_risk":7,"frizz_risk":0,"updated_at":"2026-03-04T23:11:55.013041+05:30"},{"city":"Bhubaneswar","state":"Odisha","latitude":20.2961,"longitude":85.8245,"temp":24.7,"humidity":87,"rain":0.0,"pressure":1004.5,"uv_index":8.15,"wind_gusts":27.0,"aqi":155,"pm10":72.2,"pm2_5":63.6,"mosquito_risk":3,"arthritis_risk":5,"migraine_risk":4,"frizz_risk":1,"updated_at":"2026-03-04T23:11:55.013051+05:30"},{"city":"Cuttack","state":"Odisha","latitude":20.4625,"longitude":85.8828,"temp":24.3,"humidity":82,"rain":0.0,"pressure":1006.7,"uv_index":8.15,"wind_gusts":27.0,"aqi":155,"pm10":72.2,"pm2_5":63.6,"mosquito_risk":3,"arthritis_risk":5,"migraine_risk":4,"frizz_risk":1,"updated_at":"2026-03-04T23:11:55.013060+05:30"},{"city":"Rourkela","state":"Odisha","latitude":22.2604,"longitude":84.8536,"temp":25.8,"humidity":44,"rain":0.0,"pressure":988.1,"uv_index":7.75,"wind_gusts":21.2,"aqi":98,"pm10":71.2,"pm2_5":46.3,"mosquito_risk":4,"arthritis_risk":5,"migraine_risk":7,"frizz_risk":0,"updated_at":"2026-03-04T23:11:55.013069+05:30"},{"city":"Raipur","state":"Chhattisgarh","latitude":21.2514,"longitude":81.6296,"temp":24.8,"humidity":47,"rain":0.0,"pressure":977.5,"uv_index":7.8,"wind_gusts":19.8,"aqi":128,"pm10":74.0,"pm2_5":63.6,"mosquito_risk":0,"arthritis_risk":5,"migraine_risk":7,"frizz_risk":0,"updated_at":"2026-03-04T23:11:55.013079+05:30"},{"city":"Bhilai","state":"Chhattisgarh","latitude":21.1938,"longitude":81.3509,"temp":24.3,"humidity":51,"rain":0.0,"pressure":977.8,"uv_index":7.8,"wind_gusts":16.9,"aqi":114,"pm10":73.8,"pm2_5":64.0,"mosquito_risk":0,"arthritis_risk":5,"migraine_risk":7,"frizz_risk":0,"updated_at":"2026-03-04T23:11:55.013088+05:30"},{"city":"Guwahati","state":"Assam","latitude":26.1158,"longitude":91.7086,"temp":21.9,"humidity":79,"rain":0.0,"pressure":1004.4,"uv_index":7.1,"wind_gusts":18.4,"aqi":147,"pm10":60.1,"pm2_5":55.3,"mosquito_risk":3,"arthritis_risk":5,"migraine_risk":4,"frizz_risk":1,"updated_at":"2026-03-04T23:11:55.013098+05:30"},{"city":"Agartala","state":"Tripura","latitude":23.8315,"longitude":91.2868,"temp":21.2,"humidity":69,"rain":0.0,"pressure":1008.9,"uv_index":7.5,"wind_gusts":20.9,"aqi":162,"pm10":111.3,"pm2_5":87.5,"mosquito_risk":3,"arthritis_risk":0,"migraine_risk":4,"frizz_risk":0,"updated_at":"2026-03-04T23:11:55.013107+05:30"},{"city":"Shillong","state":"Meghalaya","latitude":25.5788,"longitude":91.8933,"temp":11.2,"humidity":93,"rain":0.0,"pressure":856.9,"uv_index":7.5,"wind_gusts":29.9,"aqi":130,"pm10":49.9,"pm2_5":45.1,"mosquito_risk":3,"arthritis_risk":10,"migraine_risk":7,"frizz_risk":0,"updated_at":"2026-03-04T23:11:55.013117+05:30"},{"city":"Imphal","state":"Manipur","latitude":24.817,"longitude":93.9368,"temp":15.4,"humidity":75,"rain":0.0,"pressure":924.6,"uv_index":7.7,"wind_gusts":21.2,"aqi":137,"pm10":76.6,"pm2_5":69.8,"mosquito_risk":3,"arthritis_risk":5,"migraine_risk":7,"frizz_risk":0,"updated_at":"2026-03-04T23:11:55.013127+05:30"},{"city":"Aizawl","state":"Mizoram","latitude":23.7271,"longitude":92.7176,"temp":15.5,"humidity":71,"rain":0.0,"pressure":893.1,"uv_index":7.7,"wind_gusts":22.0,"aqi":161,"pm10":114.8,"pm2_5":101.7,"mosquito_risk":3,"arthritis_risk":5,"migraine_risk":7,"frizz_risk":0,"updated_at":"2026-03-04T23:11:55.013136+05:30"},{"city":"Kohima","state":"Nagaland","latitude":25.6701,"longitude":94.1077,"temp":13.7,"humidity":74,"rain":0.0,"pressure":855.7,"uv_index":7.55,"wind_gusts":38.5,"aqi":151,"pm10":82.0,"pm2_5":74.0,"mosquito_risk":3,"arthritis_risk":5,"migraine_risk":7,"frizz_risk":0,"updated_at":"2026-03-04T23:11:55.013146+05:30"},{"city":"Gangtok","state":"Sikkim","latitude":27.3314,"longitude":88.6138,"temp":12.5,"humidity":82,"rain":0.0,"pressure":838.6,"uv_index":7.45,"wind_gusts":22.7,"aqi":131,"pm10":66.1,"pm2_5":57.2,"mosquito_risk":3,"arthritis_risk":10,"migraine_risk":7,"frizz_risk":0,"updated_at":"2026-03-04T23:11:55.013155+05:30"},{"city":"Siliguri","state":"West Bengal","latitude":26.7271,"longitude":88.3953,"temp":21.0,"humidity":70,"rain":0.0,"pressure":997.4,"uv_index":7.1,"wind_gusts":19.8,"aqi":156,"pm10":87.5,"pm2_5":73.1,"mosquito_risk":3,"arthritis_risk":5,"migraine_risk":7,"frizz_risk":0,"updated_at":"2026-03-04T23:11:58.278949+05:30"},{"city":"Durgapur","state":"West Bengal","latitude":23.5204,"longitude":87.3119,"temp":24.0,"humidity":45,"rain":0.0,"pressure":998.3,"uv_index":7.7,"wind_gusts":20.5,"aqi":136,"pm10":97.6,"pm2_5":72.2,"mosquito_risk":0,"arthritis_risk":5,"migraine_risk":7,"frizz_risk":0,"updated_at":"2026-03-04T23:11:58.278973+05:30"},{"city":"Asansol","state":"West Bengal","latitude":23.6739,"longitude":86.9524,"temp":24.2,"humidity":47,"rain":0.0,"pressure":996.9,"uv_index":7.7,"wind_gusts":20.9,"aqi":120,"pm10":74.5,"pm2_5":53.4,"mosquito_risk":0,"arthritis_risk":5,"migraine_risk":7,"frizz_risk":0,"updated_at":"2026-03-04T23:11:58.278984+05:30"},{"city":"Pondicherry","state":"Puducherry","latitude":11.9139,"longitude":79.8145,"temp":23.4,"humidity":93,"rain":0.0,"pressure":1012.3,"uv_index":8.85,"wind_gusts":29.2,"aqi":84,"pm10":21.7,"pm2_5":18.0,"mosquito_risk":3,"arthritis_risk":0,"migraine_risk":4,"frizz_risk":1,"updated_at":"2026-03-04T23:11:58.278994+05:30"},{"city":"Port Blair","state":"Andaman and Nicobar Islands","latitude":11.6234,"longitude":92.7265,"temp":27.3,"humidity":73,"rain":0.0,"pressure":1008.2,"uv_index":8.8,"wind_gusts":25.6,"aqi":100,"pm10":38.5,"pm2_5":33.2,"mosquito_risk":7,"arthritis_risk":0,"migraine_risk":4,"frizz_risk":1,"updated_at":"2026-03-04T23:11:58.279005+05:30"},{"city":"Haridwar","state":"Uttarakhand","latitude":29.9457,"longitude":78.1642,"temp":19.9,"humidity":78,"rain":0.0,"pressure":977.7,"uv_index":5.6,"wind_gusts":19.8,"aqi":128,"pm10":115.5,"pm2_5":67.1,"mosquito_risk":3,"arthritis_risk":5,"migraine_risk":3,"frizz_risk":0,"updated_at":"2026-03-04T23:11:58.279014+05:30"},{"city":"Rishikesh","state":"Uttarakhand","latitude":30.0869,"longitude":78.2676,"temp":19.3,"humidity":73,"rain":0.0,"pressure":970.3,"uv_index":5.65,"wind_gusts":22.7,"aqi":154,"pm10":55.6,"pm2_5":46.0,"mosquito_risk":3,"arthritis_risk":5,"migraine_risk":3,"frizz_risk":0,"updated_at":"2026-03-04T23:11:58.279023+05:30"},{"city":"Nainital","state":"Uttarakhand","latitude":29.3919,"longitude":79.4542,"temp":16.2,"humidity":61,"rain":0.0,"pressure":807.6,"uv_index":6.45,"wind_gusts":57.2,"aqi":154,"pm10":82.7,"pm2_5":64.5,"mosquito_risk":3,"arthritis_risk":5,"migraine_risk":7,"frizz_risk":0,"updated_at":"2026-03-04T23:11:58.279032+05:30"},{"city":"Mussoorie","state":"Uttarakhand","latitude":30.4599,"longitude":78.0664,"temp":15.6,"humidity":61,"rain":0.0,"pressure":804.3,"uv_index":6.0,"wind_gusts":35.6,"aqi":145,"pm10":63.6,"pm2_5":48.8,"mosquito_risk":3,"arthritis_risk":5,"migraine_risk":3,"frizz_risk":0,"updated_at":"2026-03-04T23:11:58.279040+05:30"},{"city":"Dharamshala","state":"Himachal Pradesh","latitude":32.219,"longitude":76.3234,"temp":22.0,"humidity":37,"rain":0.0,"pressure":873.0,"uv_index":6.25,"wind_gusts":27.7,"aqi":86,"pm10":29.4,"pm2_5":18.7,"mosquito_risk":0,"arthritis_risk":5,"migraine_risk":7,"frizz_risk":0,"updated_at":"2026-03-04T23:11:58.279049+05:30"},{"city":"Dalhousie","state":"Himachal Pradesh","latitude":32.5387,"longitude":75.971,"temp":17.7,"humidity":40,"rain":0.0,"pressure":806.9,"uv_index":6.45,"wind_gusts":22.0,"aqi":82,"pm10":54.5,"pm2_5":46.8,"mosquito_risk":0,"arthritis_risk":5,"migraine_risk":7,"frizz_risk":0,"updated_at":"2026-03-04T23:11:58.279058+05:30"},{"city":"Patiala","state":"Punjab","latitude":30.3398,"longitude":76.3869,"temp":20.6,"humidity":84,"rain":0.0,"pressure":981.8,"uv_index":5.65,"wind_gusts":30.6,"aqi":182,"pm10":358.6,"pm2_5":86.6,"mosquito_risk":3,"arthritis_risk":5,"migraine_risk":3,"frizz_risk":1,"updated_at":"2026-03-04T23:11:58.279068+05:30"},{"city":"Bhatinda","state":"Punjab","latitude":30.211,"longitude":74.9455,"temp":21.7,"humidity":74,"rain":0.0,"pressure":987.5,"uv_index":6.3,"wind_gusts":22.7,"aqi":151,"pm10":64.0,"pm2_5":41.7,"mosquito_risk":3,"arthritis_risk":5,"migraine_risk":7,"frizz_risk":1,"updated_at":"2026-03-04T23:11:58.279076+05:30"},{"city":"Rohtak","state":"Haryana","latitude":28.8955,"longitude":76.6066,"temp":20.4,"humidity":77,"rain":0.0,"pressure":985.4,"uv_index":5.85,"wind_gusts":31.0,"aqi":414,"pm10":638.9,"pm2_5":109.4,"mosquito_risk":3,"arthritis_risk":5,"migraine_risk":3,"frizz_risk":1,"updated_at":"2026-03-04T23:11:58.279084+05:30"},{"city":"Panipat","state":"Haryana","latitude":29.3909,"longitude":76.9635,"temp":20.3,"humidity":85,"rain":0.0,"pressure":984.0,"uv_index":5.65,"wind_gusts":31.0,"aqi":941,"pm10":1210.7,"pm2_5":164.4,"mosquito_risk":3,"arthritis_risk":5,"migraine_risk":3,"frizz_risk":1,"updated_at":"2026-03-04T23:11:58.279093+05:30"},{"city":"Mathura","state":"Uttar Pradesh","latitude":27.4924,"longitude":77.6737,"temp":24.5,"humidity":48,"rain":0.0,"pressure":990.5,"uv_index":6.1,"wind_gusts":29.9,"aqi":491,"pm10":596.0,"pm2_5":98.3,"mosquito_risk":0,"arthritis_risk":5,"migraine_risk":7,"frizz_risk":0,"updated_at":"2026-03-04T23:11:58.279101+05:30"},{"city":"Vrindavan","state":"Uttar Pradesh","latitude":27.5823,"longitude":77.7027,"temp":21.0,"humidity":65,"rain":0.0,"pressure":990.9,"uv_index":6.1,"wind_gusts":31.7,"aqi":491,"pm10":596.0,"pm2_5":98.3,"mosquito_risk":3,"arthritis_risk":5,"migraine_risk":7,"frizz_risk":0,"updated_at":"2026-03-04T23:11:58.279110+05:30"},{"city":"Ayodhya","state":"Uttar Pradesh","latitude":26.7922,"longitude":82.1998,"temp":22.5,"humidity":69,"rain":0.0,"pressure":998.8,"uv_index":6.5,"wind_gusts":9.7,"aqi":166,"pm10":253.3,"pm2_5":122.9,"mosquito_risk":3,"arthritis_risk":5,"migraine_risk":7,"frizz_risk":1,"updated_at":"2026-03-04T23:11:58.279118+05:30"},{"city":"Ratlam","state":"Madhya Pradesh","latitude":23.3315,"longitude":75.0367,"temp":23.9,"humidity":54,"rain":0.0,"pressure":958.2,"uv_index":7.3,"wind_gusts":21.2,"aqi":104,"pm10":47.4,"pm2_5":39.5,"mosquito_risk":0,"arthritis_risk":5,"migraine_risk":7,"frizz_risk":0,"updated_at":"2026-03-04T23:11:58.279126+05:30"},{"city":"Sagar","state":"Madhya Pradesh","latitude":23.8388,"longitude":78.7378,"temp":24.4,"humidity":34,"rain":0.0,"pressure":953.9,"uv_index":7.25,"wind_gusts":25.6,"aqi":69,"pm10":27.3,"pm2_5":20.3,"mosquito_risk":0,"arthritis_risk":5,"migraine_risk":7,"frizz_risk":0,"updated_at":"2026-03-04T23:11:58.279134+05:30"},{"city":"Satna","state":"Madhya Pradesh","latitude":24.6005,"longitude":80.8322,"temp":22.8,"humidity":48,"rain":0.0,"pressure":974.8,"uv_index":7.25,"wind_gusts":34.9,"aqi":94,"pm10":41.6,"pm2_5":28.8,"mosquito_risk":0,"arthritis_risk":5,"migraine_risk":7,"frizz_risk":0,"updated_at":"2026-03-04T23:11:58.279142+05:30"},{"city":"Akola","state":"Maharashtra","latitude":20.7002,"longitude":77.0082,"temp":25.9,"humidity":43,"rain":0.0,"pressure":978.2,"uv_index":7.8,"wind_gusts":17.3,"aqi":81,"pm10":39.1,"pm2_5":36.0,"mosquito_risk":4,"arthritis_risk":5,"migraine_risk":7,"frizz_risk":0,"updated_at":"2026-03-04T23:11:58.279152+05:30"},{"city":"Amravati","state":"Maharashtra","latitude":20.9374,"longitude":77.7796,"temp":24.6,"humidity":57,"rain":0.0,"pressure":970.1,"uv_index":7.75,"wind_gusts":16.2,"aqi":84,"pm10":43.7,"pm2_5":39.3,"mosquito_risk":0,"arthritis_risk":5,"migraine_risk":7,"frizz_risk":0,"updated_at":"2026-03-04T23:11:58.279161+05:30"},{"city":"Latur","state":"Maharashtra","latitude":18.4088,"longitude":76.5604,"temp":25.0,"humidity":49,"rain":0.0,"pressure":942.4,"uv_index":8.25,"wind_gusts":19.8,"aqi":115,"pm10":42.3,"pm2_5":39.5,"mosquito_risk":4,"arthritis_risk":5,"migraine_risk":7,"frizz_risk":0,"updated_at":"2026-03-04T23:11:58.279170+05:30"},{"city":"Nanded","state":"Maharashtra","latitude":19.1383,"longitude":77.3091,"temp":25.6,"humidity":55,"rain":0.0,"pressure":971.3,"uv_index":8.0,"wind_gusts":13.0,"aqi":89,"pm10":29.7,"pm2_5":27.9,"mosquito_risk":4,"arthritis_risk":5,"migraine_risk":7,"frizz_risk":0,"updated_at":"2026-03-04T23:11:58.279178+05:30"},{"city":"Gulbarga","state":"Karnataka","latitude":17.3297,"longitude":76.8343,"temp":27.1,"humidity":41,"rain":0.0,"pressure":961.4,"uv_index":8.35,"wind_gusts":23.0,"aqi":118,"pm10":21.0,"pm2_5":19.6,"mosquito_risk":4,"arthritis_risk":5,"migraine_risk":7,"frizz_risk":0,"updated_at":"2026-03-04T23:11:58.279186+05:30"},{"city":"Bidar","state":"Karnataka","latitude":17.9104,"longitude":77.5199,"temp":24.5,"humidity":49,"rain":0.0,"pressure":938.1,"uv_index":8.3,"wind_gusts":25.9,"aqi":102,"pm10":42.7,"pm2_5":39.3,"mosquito_risk":0,"arthritis_risk":5,"migraine_risk":7,"frizz_risk":0,"updated_at":"2026-03-04T23:11:58.279194+05:30"},{"city":"Hospet","state":"Karnataka","latitude":15.2689,"longitude":76.3909,"temp":28.0,"humidity":39,"rain":0.0,"pressure":958.5,"uv_index":8.6,"wind_gusts":25.9,"aqi":147,"pm10":33.9,"pm2_5":32.9,"mosquito_risk":4,"arthritis_risk":5,"migraine_risk":7,"frizz_risk":0,"updated_at":"2026-03-04T23:11:58.279203+05:30"},{"city":"Tirupur","state":"Tamil Nadu","latitude":11.1085,"longitude":77.3411,"temp":26.6,"humidity":47,"rain":0.0,"pressure":978.6,"uv_index":9.15,"wind_gusts":32.4,"aqi":119,"pm10":46.6,"pm2_5":45.8,"mosquito_risk":4,"arthritis_risk":5,"migraine_risk":7,"frizz_risk":0,"updated_at":"2026-03-04T23:11:58.279211+05:30"},{"city":"Alappuzha","state":"Kerala","latitude":9.4981,"longitude":76.3388,"temp":27.9,"humidity":78,"rain":0.0,"pressure":1012.2,"uv_index":8.95,"wind_gusts":30.2,"aqi":97,"pm10":43.0,"pm2_5":40.7,"mosquito_risk":7,"arthritis_risk":0,"migraine_risk":4,"frizz_risk":1,"updated_at":"2026-03-04T23:11:58.279219+05:30"},{"city":"Munnar","state":"Kerala","latitude":10.0889,"longitude":77.0595,"temp":19.2,"humidity":75,"rain":0.0,"pressure":858.6,"uv_index":9.45,"wind_gusts":24.5,"aqi":78,"pm10":32.9,"pm2_5":32.6,"mosquito_risk":3,"arthritis_risk":5,"migraine_risk":7,"frizz_risk":0,"updated_at":"2026-03-04T23:11:58.279228+05:30"},{"city":"Silchar","state":"Assam","latitude":24.8333,"longitude":92.7789,"temp":23.8,"humidity":62,"rain":0.0,"pressure":1007.4,"uv_index":7.45,"wind_gusts":14.4,"aqi":151,"pm10":91.0,"pm2_5":80.8,"mosquito_risk":3,"arthritis_risk":5,"migraine_risk":4,"frizz_risk":1,"updated_at":"2026-03-04T23:11:58.279236+05:30"},{"city":"Dibrugarh","state":"Assam","latitude":27.4728,"longitude":94.912,"temp":22.8,"humidity":80,"rain":0.0,"pressure":997.8,"uv_index":7.15,"wind_gusts":9.0,"aqi":128,"pm10":60.3,"pm2_5":54.2,"mosquito_risk":3,"arthritis_risk":5,"migraine_risk":7,"frizz_risk":1,"updated_at":"2026-03-04T23:11:58.279245+05:30"}]