[{"city":"Delhi","state":"Delhi","latitude":28.6139,"longitude":77.209,"temp":29.9,"humidity":45,"rain":0.0,"pressure":988.6,"uv_index":5.85,"wind_gusts":37.1,"aqi":304,"pm10":274.7,"pm2_5":70.3,"mosquito_risk":4,"arthritis_risk":5,"migraine_risk":3,"frizz_risk":1,"updated_at":"2026-03-04T12:23:45.417239+05:30"},{"city":"Mumbai","state":"Maharashtra","latitude":19.076,"longitude":72.8777,"temp":28.8,"humidity":67,"rain":0.0,"pressure":1012.0,"uv_index":7.4,"wind_gusts":24.8,"aqi":135,"pm10":49.2,"pm2_5":48.3,"mosquito_risk":7,"arthritis_risk":0,"migraine_risk":4,"frizz_risk":1,"updated_at":"2026-03-04T12:23:45.417278+05:30"},{"city":"Bangalore","state":"Karnataka","latitude":12.9716,"longitude":77.5946,"temp":30.4,"humidity":27,"rain":0.0,"pressure":915.9,"uv_index":9.1,"wind_gusts":35.3,"aqi":95,"pm10":31.4,"pm2_5":29.9,"mosquito_risk":0,"arthritis_risk":5,"migraine_risk":7,"frizz_risk":0,"updated_at":"2026-03-04T12:23:45.417293+05:30"},{"city":"Hyderabad","state":"Telangana","latitude":17.385,"longitude":78.4867,"temp":33.8,"humidity":24,"rain":0.0,"pressure":958.1,"uv_index":8.4,"wind_gusts":27.4,"aqi":114,"pm10":22.8,"pm2_5":20.1,"mosquito_risk":0,"arthritis_risk":5,"migraine_risk":7,"frizz_risk":0,"updated_at":"2026-03-04T12:23:45.417303+05:30"},{"city":"Chennai","state":"Tamil Nadu","latitude":13.0827,"longitude":80.2707,"temp":33.2,"humidity":44,"rain":0.0,"pressure":1011.5,"uv_index":8.8,"wind_gusts":28.4,"aqi":115,"pm10":36.3,"pm2_5":32.0,"mosquito_risk":0,"arthritis_risk":0,"migraine_risk":4,"frizz_risk":1,"updated_at":"2026-03-04T12:23:45.417312+05:30"},{"city":"Kolkata","state":"West Bengal","latitude":22.5726,"longitude":88.3639,"temp":30.7,"humidity":53,"rain":0.0,"pressure":1009.9,"uv_index":7.75,"wind_gusts":21.2,"aqi":165,"pm10":94.1,"pm2_5":59.1,"mosquito_risk":0,"arthritis_risk":0,"migraine_risk":4,"frizz_risk":1,"updated_at":"2026-03-04T12:23:45.417320+05:30"},{"city":"Pune","state":"Maharashtra","latitude":18.5204,"longitude":73.8567,"temp":35.2,"humidity":24,"rain":0.0,"pressure":953.2,"uv_index":7.95,"wind_gusts":31.3,"aqi":77,"pm10":18.2,"pm2_5":17.5,"mosquito_risk":0,"arthritis_risk":5,"migraine_risk":10,"frizz_risk":0,"updated_at":"2026-03-04T12:23:45.417332+05:30"},{"city":"Ahmedabad","state":"Gujarat","latitude":23.0225,"longitude":72.5714,"temp":35.5,"humidity":25,"rain":0.0,"pressure":1008.6,"uv_index":7.2,"wind_gusts":16.6,"aqi":78,"pm10":26.9,"pm2_5":20.5,"mosquito_risk":0,"arthritis_risk":0,"migraine_risk":7,"frizz_risk":0,"updated_at":"2026-03-04T12:23:45.417340+05:30"},{"city":"Jaipur","state":"Rajasthan","latitude":26.9124,"longitude":75.7873,"temp":34.4,"humidity":16,"rain":0.0,"pressure":966.8,"uv_index":6.6,"wind_gusts":34.6,"aqi":91,"pm10":105.7,"pm2_5":25.1,"mosquito_risk":0,"arthritis_risk":5,"migraine_risk":7,"frizz_risk":0,"updated_at":"2026-03-04T12:23:45.417347+05:30"},{"city":"Lucknow","state":"Uttar Pradesh","latitude":26.8467,"longitude":80.9462,"temp":28.5,"humidity":47,"rain":0.0,"pressure":999.3,"uv_index":6.35,"wind_gusts":26.6,"aqi":154,"pm10":299.9,"pm2_5":91.3,"mosquito_risk":4,"arthritis_risk":5,"migraine_risk":7,"frizz_risk":1,"updated_at":"2026-03-04T12:23:45.417355+05:30"},{"city":"Kanpur","state":"Uttar Pradesh","latitude":26.4499,"longitude":80.3319,"temp":29.2,"humidity":46,"rain":0.0,"pressure":997.7,"uv_index":6.35,"wind_gusts":28.8,"aqi":175,"pm10":281.3,"pm2_5":76.1,"mosquito_risk":4,"arthritis_risk":5,"migraine_risk":7,"frizz_risk":1,"updated_at":"2026-03-04T12:23:45.417362+05:30"},{"city":"Chandigarh","state":"Chandigarh","latitude":30.7333,"longitude":76.7794,"temp":29.3,"humidity":39,"rain":0.0,"pressure":974.1,"uv_index":5.75,"wind_gusts":36.0,"aqi":85,"pm10":30.2,"pm2_5":22.5,"mosquito_risk":4,"arthritis_risk":5,"migraine_risk":3,"frizz_risk":0,"updated_at":"2026-03-04T12:23:45.417369+05:30"},{"city":"Srinagar","state":"Jammu and Kashmir","latitude":34.0837,"longitude":74.7973,"temp":18.1,"humidity":36,"rain":0.0,"pressure":849.9,"uv_index":6.2,"wind_gusts":16.9,"aqi":142,"pm10":52.9,"pm2_5":36.2,"mosquito_risk":0,"arthritis_risk":5,"migraine_risk":7,"frizz_risk":0,"updated_at":"2026-03-04T12:23:45.417376+05:30"},{"city":"Jammu","state":"Jammu and Kashmir","latitude":32.7266,"longitude":74.857,"temp":28.3,"humidity":40,"rain":0.0,"pressure":978.7,"uv_index":6.35,"wind_gusts":25.6,"aqi":97,"pm10":38.0,"pm2_5":28.0,"mosquito_risk":4,"arthritis_risk":5,"migraine_risk":7,"frizz_risk":0,"updated_at":"2026-03-04T12:23:45.417383+05:30"},{"city":"Amritsar","state":"Punjab","latitude":31.634,"longitude":74.8723,"temp":29.0,"humidity":49,"rain":0.0,"pressure":987.0,"uv_index":6.3,"wind_gusts":23.4,"aqi":132,"pm10":73.1,"pm2_5":58.1,"mosquito_risk":4,"arthritis_risk":5,"migraine_risk":7,"frizz_risk":1,"updated_at":"2026-03-04T12:23:45.417389+05:30"},{"city":"Ludhiana","state":"Punjab","latitude":30.901,"longitude":75.8573,"temp":28.9,"humidity":47,"rain":0.0,"pressure":984.7,"uv_index":6.0,"wind_gusts":30.2,"aqi":152,"pm10":68.0,"pm2_5":57.3,"mosquito_risk":4,"arthritis_risk":5,"migraine_risk":3,"frizz_risk":1,"updated_at":"2026-03-04T12:23:45.417395+05:30"},{"city":"Jalandhar","state":"Punjab","latitude":31.326,"longitude":75.5762,"temp":28.5,"humidity":47,"rain":0.0,"pressure":985.8,"uv_index":6.15,"wind_gusts":28.8,"aqi":152,"pm10":70.1,"pm2_5":53.3,"mosquito_risk":4,"arthritis_risk":5,"migraine_risk":7,"frizz_risk":1,"updated_at":"2026-03-04T12:23:45.417404+05:30"},{"city":"Dehradun","state":"Uttarakhand","latitude":30.6284,"longitude":78.0322,"temp":23.1,"humidity":39,"rain":0.0,"pressure":835.6,"uv_index":6.1,"wind_gusts":31.3,"aqi":59,"pm10":15.8,"pm2_5":8.4,"mosquito_risk":0,"arthritis_risk":5,"migraine_risk":7,"frizz_risk":0,"updated_at":"2026-03-04T12:23:45.417411+05:30"},{"city":"Shimla","state":"Himachal Pradesh","latitude":31.1048,"longitude":77.1734,"temp":22.1,"humidity":31,"rain":0.0,"pressure":791.8,"uv_index":6.15,"wind_gusts":52.6,"aqi":69,"pm10":18.9,"pm2_5":10.1,"mosquito_risk":0,"arthritis_risk":5,"migraine_risk":7,"frizz_risk":0,"updated_at":"2026-03-04T12:23:45.417418+05:30"},{"city":"Manali","state":"Himachal Pradesh","latitude":32.2396,"longitude":77.1887,"temp":25.4,"humidity":15,"rain":0.0,"pressure":828.0,"uv_index":7.8,"wind_gusts":32.8,"aqi":49,"pm10":16.4,"pm2_5":7.5,"mosquito_risk":4,"arthritis_risk":5,"migraine_risk":7,"frizz_risk":1,"updated_at":"2026-03-04T12:23:45.417424+05:30"},{"city":"Gurgaon","state":"Haryana","latitude":28.4595,"longitude":77.0266,"temp":30.4,"humidity":43,"rain":0.0,"pressure":987.3,"uv_index":5.95,"wind_gusts":35.6,"aqi":1141,"pm10":1080.3,"pm2_5":139.2,"mosquito_risk":0,"arthritis_risk":5,"migraine_risk":3,"frizz_risk":1,"updated_at":"2026-03-04T12:23:45.417433+05:30"},{"city":"Noida","state":"Uttar Pradesh","latitude":28.5355,"longitude":77.391,"temp":30.5,"humidity":43,"rain":0.0,"pressure":990.1,"uv_index":5.85,"wind_gusts":36.4,"aqi":1141,"pm10":1080.3,"pm2_5":139.2,"mosquito_risk":0,"arthritis_risk":5,"migraine_risk":3,"frizz_risk":1,"updated_at":"2026-03-04T12:23:45.417446+05:30"},{"city":"Ghaziabad","state":"Uttar Pradesh","latitude":28.6692,"longitude":77.4538,"temp":29.3,"humidity":50,"rain":0.0,"pressure":988.2,"uv_index":5.85,"wind_gusts":33.8,"aqi":230,"pm10":217.0,"pm2_5":68.9,"mosquito_risk":4,"arthritis_risk":5,"migraine_risk":3,"frizz_risk":1,"updated_at":"2026-03-04T12:23:45.417452+05:30"},{"city":"Faridabad","state":"Haryana","latitude":28.4089,"longitude":77.3178,"temp":29.8,"humidity":46,"rain":0.0,"pressure":989.5,"uv_index":5.9,"wind_gusts":34.2,"aqi":1141,"pm10":1080.3,"pm2_5":139.2,"mosquito_risk":4,"arthritis_risk":5,"migraine_risk":3,"frizz_risk":1,"updated_at":"2026-03-04T12:23:45.417458+05:30"},{"city":"Meerut","state":"Uttar Pradesh","latitude":28.9845,"longitude":77.7064,"temp":29.1,"humidity":47,"rain":0.0,"pressure":986.7,"uv_index":5.7,"wind_gusts":35.6,"aqi":230,"pm10":217.0,"pm2_5":68.9,"mosquito_risk":4,"arthritis_risk":5,"migraine_risk":3,"frizz_risk":1,"updated_at":"2026-03-04T12:23:45.417465+05:30"},{"city":"Agra","state":"Uttar Pradesh","latitude":27.1767,"longitude":78.0081,"temp":32.0,"humidity":33,"rain":0.0,"pressure":993.8,"uv_index":6.2,"wind_gusts":35.3,"aqi":338,"pm10":311.1,"pm2_5":60.3,"mosquito_risk":0,"arthritis_risk":5,"migraine_risk":7,"frizz_risk":0,"updated_at":"2026-03-04T12:23:45.417472+05:30"},{"city":"Varanasi","state":"Uttar Pradesh","latitude":25.3176,"longitude":82.9739,"temp":29.3,"humidity":47,"rain":0.0,"pressure":1003.6,"uv_index":7.0,"wind_gusts":19.8,"aqi":140,"pm10":329.7,"pm2_5":66.4,"mosquito_risk":4,"arthritis_risk":5,"migraine_risk":4,"frizz_risk":1,"updated_at":"2026-03-04T12:23:45.417481+05:30"},{"city":"Prayagraj","state":"Uttar Pradesh","latitude":25.4358,"longitude":81.8463,"temp":29.9,"humidity":40,"rain":0.0,"pressure":1002.0,"uv_index":6.9,"wind_gusts":25.9,"aqi":144,"pm10":344.6,"pm2_5":76.8,"mosquito_risk":4,"arthritis_risk":5,"migraine_risk":4,"frizz_risk":0,"updated_at":"2026-03-04T12:23:45.417490+05:30"},{"city":"Gorakhpur","state":"Uttar Pradesh","latitude":26.7606,"longitude":83.3732,"temp":28.2,"humidity":54,"rain":0.0,"pressure":1003.1,"uv_index":6.75,"wind_gusts":10.1,"aqi":165,"pm10":97.1,"pm2_5":68.5,"mosquito_risk":4,"arthritis_risk":5,"migraine_risk":4,"frizz_risk":1,"updated_at":"2026-03-04T12:23:45.417496+05:30"},{"city":"Bareilly","state":"Uttar Pradesh","latitude":28.367,"longitude":79.4304,"temp":26.4,"humidity":59,"rain":0.0,"pressure":992.3,"uv_index":6.05,"wind_gusts":19.1,"aqi":160,"pm10":169.5,"pm2_5":73.6,"mosquito_risk":4,"arthritis_risk":5,"migraine_risk":7,"frizz_risk":1,"updated_at":"2026-03-04T12:23:45.417503+05:30"},{"city":"Aligarh","state":"Uttar Pradesh","latitude":27.8974,"longitude":78.088,"temp":30.2,"humidity":45,"rain":0.0,"pressure":991.2,"uv_index":5.95,"wind_gusts":33.1,"aqi":654,"pm10":458.2,"pm2_5":94.3,"mosquito_risk":0,"arthritis_risk":5,"migraine_risk":3,"frizz_risk":1,"updated_at":"2026-03-04T12:23:45.417510+05:30"},{"city":"Moradabad","state":"Uttar Pradesh","latitude":28.8386,"longitude":78.7733,"temp":27.0,"humidity":53,"rain":0.0,"pressure":989.0,"uv_index":5.85,"wind_gusts":22.3,"aqi":155,"pm10":123.9,"pm2_5":67.5,"mosquito_risk":4,"arthritis_risk":5,"migraine_risk":3,"frizz_risk":1,"updated_at":"2026-03-04T12:23:45.417516+05:30"},{"city":"Saharanpur","state":"Uttar Pradesh","latitude":29.9637,"longitude":77.546,"temp":28.7,"humidity":45,"rain":0.0,"pressure":980.3,"uv_index":5.5,"wind_gusts":45.7,"aqi":149,"pm10":75.9,"pm2_5":45.8,"mosquito_risk":4,"arthritis_risk":5,"migraine_risk":3,"frizz_risk":0,"updated_at":"2026-03-04T12:23:45.417522+05:30"},{"city":"Jhansi","state":"Uttar Pradesh","latitude":25.4484,"longitude":78.5685,"temp":33.6,"humidity":24,"rain":0.0,"pressure":984.2,"uv_index":6.8,"wind_gusts":32.0,"aqi":62,"pm10":24.4,"pm2_5":14.3,"mosquito_risk":0,"arthritis_risk":5,"migraine_risk":7,"frizz_risk":0,"updated_at":"2026-03-04T12:23:48.636275+05:30"},{"city":"Surat","state":"Gujarat","latitude":21.1702,"longitude":72.8311,"temp":33.8,"humidity":35,"rain":0.0,"pressure":1012.0,"uv_index":7.1,"wind_gusts":25.2,"aqi":152,"pm10":58.3,"pm2_5":53.1,"mosquito_risk":0,"arthritis_risk":0,"migraine_risk":4,"frizz_risk":1,"updated_at":"2026-03-04T12:23:48.636308+05:30"},{"city":"Vadodara","state":"Gujarat","latitude":22.3072,"longitude":73.1812,"temp":36.0,"humidity":27,"rain":0.0,"pressure":1010.4,"uv_index":7.2,"wind_gusts":18.0,"aqi":139,"pm10":35.6,"pm2_5":24.8,"mosquito_risk":0,"arthritis_risk":0,"migraine_risk":7,"frizz_risk":0,"updated_at":"2026-03-04T12:23:48.636320+05:30"},{"city":"Rajkot","state":"Gujarat","latitude":22.3039,"longitude":70.8022,"temp":34.0,"humidity":31,"rain":0.0,"pressure":1000.9,"uv_index":7.0,"wind_gusts":24.8,"aqi":62,"pm10":25.4,"pm2_5":17.9,"mosquito_risk":0,"arthritis_risk":5,"migraine_risk":4,"frizz_risk":0,"updated_at":"2026-03-04T12:23:48.636329+05:30"},{"city":"Thane","state":"Maharashtra","latitude":19.2183,"longitude":72.9781,"temp":35.7,"humidity":30,"rain":0.0,"pressure":1011.5,"uv_index":7.35,"wind_gusts":35.6,"aqi":135,"pm10":49.2,"pm2_5":48.3,"mosquito_risk":0,"arthritis_risk":0,"migraine_risk":7,"frizz_risk":0,"updated_at":"2026-03-04T12:23:48.636338+05:30"},{"city":"Nagpur","state":"Maharashtra","latitude":21.1458,"longitude":79.0882,"temp":33.9,"humidity":26,"rain":0.0,"pressure":979.0,"uv_index":7.75,"wind_gusts":23.4,"aqi":68,"pm10":21.2,"pm2_5":13.9,"mosquito_risk":0,"arthritis_risk":5,"migraine_risk":7,"frizz_risk":0,"updated_at":"2026-03-04T12:23:48.636346+05:30"},{"city":"Nashik","state":"Maharashtra","latitude":19.9975,"longitude":73.7898,"temp":33.7,"humidity":21,"rain":0.0,"pressure":951.0,"uv_index":7.55,"wind_gusts":23.4,"aqi":83,"pm10":18.3,"pm2_5":17.7,"mosquito_risk":0,"arthritis_risk":5,"migraine_risk":7,"frizz_risk":0,"updated_at":"2026-03-04T12:23:48.636354+05:30"},{"city":"Aurangabad","state":"Maharashtra","latitude":19.8762,"longitude":75.3433,"temp":33.8,"humidity":23,"rain":0.0,"pressure":949.7,"uv_index":8.1,"wind_gusts":22.7,"aqi":75,"pm10":19.2,"pm2_5":18.0,"mosquito_risk":0,"arthritis_risk":5,"migraine_risk":7,"frizz_risk":0,"updated_at":"2026-03-04T12:23:48.636363+05:30"},{"city":"Solapur","state":"Maharashtra","latitude":17.6599,"longitude":75.9064,"temp":33.5,"humidity":34,"rain":0.0,"pressure":962.0,"uv_index":8.35,"wind_gusts":18.7,"aqi":75,"pm10":23.6,"pm2_5":22.5,"mosquito_risk":0,"arthritis_risk":5,"migraine_risk":7,"frizz_risk":0,"updated_at":"2026-03-04T12:23:48.636371+05:30"},{"city":"Kolhapur","state":"Maharashtra","latitude":16.705,"longitude":74.2433,"temp":33.6,"humidity":29,"rain":0.0,"pressure":952.1,"uv_index":8.45,"wind_gusts":37.4,"aqi":159,"pm10":36.4,"pm2_5":35.5,"mosquito_risk":0,"arthritis_risk":5,"migraine_risk":7,"frizz_risk":0,"updated_at":"2026-03-04T12:23:48.636380+05:30"},{"city":"Goa","state":"Goa","latitude":15.2993,"longitude":74.124,"temp":31.7,"humidity":62,"rain":0.0,"pressure":1001.4,"uv_index":8.5,"wind_gusts":34.9,"aqi":106,"pm10":42.7,"pm2_5":40.0,"mosquito_risk":3,"arthritis_risk":5,"migraine_risk":4,"frizz_risk":1,"updated_at":"2026-03-04T12:23:48.636388+05:30"},{"city":"Jodhpur","state":"Rajasthan","latitude":26.2389,"longitude":73.0243,"temp":34.2,"humidity":24,"rain":0.0,"pressure":990.5,"uv_index":6.9,"wind_gusts":18.7,"aqi":79,"pm10":71.2,"pm2_5":23.3,"mosquito_risk":0,"arthritis_risk":5,"migraine_risk":7,"frizz_risk":0,"updated_at":"2026-03-04T12:23:48.636397+05:30"},{"city":"Udaipur","state":"Rajasthan","latitude":24.5854,"longitude":73.7125,"temp":33.0,"humidity":20,"rain":0.0,"pressure":953.7,"uv_index":7.5,"wind_gusts":23.4,"aqi":58,"pm10":32.8,"pm2_5":13.0,"mosquito_risk":0,"arthritis_risk":5,"migraine_risk":7,"frizz_risk":0,"updated_at":"2026-03-04T12:23:48.636405+05:30"},{"city":"Kota","state":"Rajasthan","latitude":25.2138,"longitude":75.8648,"temp":33.7,"humidity":23,"rain":0.0,"pressure":985.8,"uv_index":6.9,"wind_gusts":17.3,"aqi":84,"pm10":27.1,"pm2_5":18.6,"mosquito_risk":0,"arthritis_risk":5,"migraine_risk":7,"frizz_risk":0,"updated_at":"2026-03-04T12:23:48.636412+05:30"},{"city":"Bikaner","state":"Rajasthan","latitude":28.0229,"longitude":73.3119,"temp":32.3,"humidity":29,"rain":0.0,"pressure":989.2,"uv_index":6.6,"wind_gusts":26.3,"aqi":66,"pm10":49.5,"pm2_5":20.3,"mosquito_risk":0,"arthritis_risk":5,"migraine_risk":7,"frizz_risk":0,"updated_at":"2026-03-04T12:23:48.636420+05:30"},{"city":"Ajmer","state":"Rajasthan","latitude":26.4499,"longitude":74.6399,"temp":33.1,"humidity":27,"rain":0.0,"pressure":961.9,"uv_index":6.85,"wind_gusts":25.2,"aqi":69,"pm10":45.5,"pm2_5":16.2,"mosquito_risk":0,"arthritis_risk":5,"migraine_risk":7,"frizz_risk":0,"updated_at":"2026-03-04T12:23:48.636428+05:30"},{"city":"Gwalior","state":"Madhya Pradesh","latitude":26.2183,"longitude":78.1828,"temp":32.1,"humidity":30,"rain":0.0,"pressure":989.7,"uv_index":6.55,"wind_gusts":31.0,"aqi":79,"pm10":27.2,"pm2_5":18.2,"mosquito_risk":0,"arthritis_risk":5,"migraine_risk":7,"frizz_risk":0,"updated_at":"2026-03-04T12:23:48.636436+05:30"},{"city":"Indore","state":"Madhya Pradesh","latitude":22.7196,"longitude":75.8577,"temp":32.6,"humidity":25,"rain":0.0,"pressure":954.7,"uv_index":7.45,"wind_gusts":17.6,"aqi":81,"pm10":26.1,"pm2_5":15.9,"mosquito_risk":0,"arthritis_risk":5,"migraine_risk":7,"frizz_risk":0,"updated_at":"2026-03-04T12:23:48.636444+05:30"},{"city":"Bhopal","state":"Madhya Pradesh","latitude":23.2599,"longitude":77.4126,"temp":32.9,"humidity":24,"rain":0.0,"pressure":960.3,"uv_index":7.35,"wind_gusts":22.0,"aqi":75,"pm10":24.3,"pm2_5":13.2,"mosquito_risk":0,"arthritis_risk":5,"migraine_risk":7,"frizz_risk":0,"updated_at":"2026-03-04T12:23:48.636452+05:30"},{"city":"Jabalpur","state":"Madhya Pradesh","latitude":23.1815,"longitude":79.9864,"temp":31.5,"humidity":32,"rain":0.0,"pressure":967.9,"uv_index":7.45,"wind_gusts":24.5,"aqi":71,"pm10":25.1,"pm2_5":15.9,"mosquito_risk":0,"arthritis_risk":5,"migraine_risk":7,"frizz_risk":0,"updated_at":"2026-03-04T12:23:48.636459+05:30"},{"city":"Ujjain","state":"Madhya Pradesh","latitude":23.1765,"longitude":75.7885,"temp":32.2,"humidity":30,"rain":0.0,"pressure":960.5,"uv_index":7.4,"wind_gusts":16.2,"aqi":101,"pm10":30.7,"pm2_5":19.4,"mosquito_risk":0,"arthritis_risk":5,"migraine_risk":7,"frizz_risk":0,"updated_at":"2026-03-04T12:23:48.636468+05:30"},{"city":"Visakhapatnam","state":"Andhra Pradesh","latitude":17.6868,"longitude":83.2185,"temp":34.2,"humidity":41,"rain":0.0,"pressure":1007.8,"uv_index":8.4,"wind_gusts":37.1,"aqi":139,"pm10":56.3,"pm2_5":52.4,"mosquito_risk":0,"arthritis_risk":5,"migraine_risk":4,"frizz_risk":1,"updated_at":"2026-03-04T12:23:48.636476+05:30"},{"city":"Vijayawada","state":"Andhra Pradesh","latitude":16.5062,"longitude":80.648,"temp":33.0,"humidity":47,"rain":0.0,"pressure":1007.1,"uv_index":8.45,"wind_gusts":20.5,"aqi":129,"pm10":43.9,"pm2_5":39.8,"mosquito_risk":0,"arthritis_risk":5,"migraine_risk":4,"frizz_risk":1,"updated_at":"2026-03-04T12:23:48.636484+05:30"},{"city":"Guntur","state":"Andhra Pradesh","latitude":16.3067,"longitude":80.4365,"temp":34.0,"humidity":41,"rain":0.0,"pressure":1008.1,"uv_index":8.45,"wind_gusts":25.6,"aqi":118,"pm10":40.2,"pm2_5":36.8,"mosquito_risk":0,"arthritis_risk":0,"migraine_risk":4,"frizz_risk":1,"updated_at":"2026-03-04T12:23:48.636492+05:30"},{"city":"Nellore","state":"Andhra Pradesh","latitude":14.4426,"longitude":79.9865,"temp":35.6,"humidity":30,"rain":0.0,"pressure":1009.7,"uv_index":8.65,"wind_gusts":29.9,"aqi":115,"pm10":43.0,"pm2_5":39.9,"mosquito_risk":0,"arthritis_risk":0,"migraine_risk":7,"frizz_risk":0,"updated_at":"2026-03-04T12:23:48.636501+05:30"},{"city":"Kurnool","state":"Andhra Pradesh","latitude":15.8281,"longitude":78.0373,"temp":36.1,"humidity":22,"rain":0.0,"pressure":981.0,"uv_index":8.5,"wind_gusts":26.3,"aqi":98,"pm10":39.2,"pm2_5":37.0,"mosquito_risk":0,"arthritis_risk":5,"migraine_risk":10,"frizz_risk":0,"updated_at":"2026-03-04T12:23:48.636510+05:30"},{"city":"Kakinada","state":"Andhra Pradesh","latitude":16.9891,"longitude":82.2475,"temp":35.0,"humidity":38,"rain":0.0,"pressure":1011.5,"uv_index":8.4,"wind_gusts":33.8,"aqi":108,"pm10":43.5,"pm2_5":37.7,"mosquito_risk":0,"arthritis_risk":0,"migraine_risk":4,"frizz_risk":1,"updated_at":"2026-03-04T12:23:48.636518+05:30"},{"city":"Tirupati","state":"Andhra Pradesh","latitude":13.6288,"longitude":79.4192,"temp":34.2,"humidity":24,"rain":0.0,"pressure":995.6,"uv_index":8.8,"wind_gusts":32.4,"aqi":149,"pm10":36.7,"pm2_5":34.2,"mosquito_risk":0,"arthritis_risk":5,"migraine_risk":7,"frizz_risk":0,"updated_at":"2026-03-04T12:23:48.636527+05:30"},{"city":"Warangal","state":"Telangana","latitude":17.9689,"longitude":79.5941,"temp":33.3,"humidity":36,"rain":0.0,"pressure":983.6,"uv_index":8.25,"wind_gusts":23.8,"aqi":116,"pm10":43.3,"pm2_5":41.2,"mosquito_risk":0,"arthritis_risk":5,"migraine_risk":7,"frizz_risk":1,"updated_at":"2026-03-04T12:23:48.636534+05:30"},{"city":"Nizamabad","state":"Telangana","latitude":18.6725,"longitude":78.0941,"temp":34.2,"humidity":26,"rain":0.0,"pressure":970.1,"uv_index":8.1,"wind_gusts":28.1,"aqi":73,"pm10":24.2,"pm2_5":20.0,"mosquito_risk":0,"arthritis_risk":5,"migraine_risk":7,"frizz_risk":0,"updated_at":"2026-03-04T12:23:48.636542+05:30"},{"city":"Mysore","state":"Karnataka","latitude":12.2958,"longitude":76.6396,"temp":31.4,"humidity":25,"rain":0.0,"pressure":932.2,"uv_index":9.15,"wind_gusts":39.2,"aqi":98,"pm10":31.5,"pm2_5":30.4,"mosquito_risk":0,"arthritis_risk":5,"migraine_risk":7,"frizz_risk":0,"updated_at":"2026-03-04T12:23:48.636550+05:30"},{"city":"Mangalore","state":"Karnataka","latitude":12.9141,"longitude":74.856,"temp":27.8,"humidity":83,"rain":0.0,"pressure":1009.6,"uv_index":8.75,"wind_gusts":30.2,"aqi":82,"pm10":41.0,"pm2_5":36.6,"mosquito_risk":7,"arthritis_risk":0,"migraine_risk":4,"frizz_risk":1,"updated_at":"2026-03-04T12:23:48.636558+05:30"},{"city":"Hubli-Dharwad","state":"Karnataka","latitude":15.3647,"longitude":75.124,"temp":32.5,"humidity":37,"rain":0.0,"pressure":945.0,"uv_index":8.65,"wind_gusts":24.5,"aqi":94,"pm10":36.4,"pm2_5":35.2,"mosquito_risk":0,"arthritis_risk":5,"migraine_risk":7,"frizz_risk":0,"updated_at":"2026-03-04T12:23:48.636566+05:30"},{"city":"Belgaum","state":"Karnataka","latitude":15.8497,"longitude":74.4977,"temp":33.2,"humidity":29,"rain":0.0,"pressure":929.9,"uv_index":8.75,"wind_gusts":32.0,"aqi":135,"pm10":31.2,"pm2_5":30.4,"mosquito_risk":0,"arthritis_risk":5,"migraine_risk":7,"frizz_risk":0,"updated_at":"2026-03-04T12:23:51.848111+05:30"},{"city":"Coimbatore","state":"Tamil Nadu","latitude":11.0168,"longitude":76.9558,"temp":31.6,"humidity":34,"rain":0.0,"pressure":965.6,"uv_index":9.15,"wind_gusts":41.0,"aqi":99,"pm10":31.3,"pm2_5":29.7,"mosquito_risk":0,"arthritis_risk":5,"migraine_risk":7,"frizz_risk":0,"updated_at":"2026-03-04T12:23:51.848142+05:30"},{"city":"Madurai","state":"Tamil Nadu","latitude":9.9252,"longitude":78.1198,"temp":32.4,"humidity":40,"rain":0.0,"pressure":996.7,"uv_index":9.1,"wind_gusts":24.1,"aqi":97,"pm10":26.8,"pm2_5":24.5,"mosquito_risk":0,"arthritis_risk":5,"migraine_risk":7,"frizz_risk":1,"updated_at":"2026-03-04T12:23:51.848154+05:30"},{"city":"Trichy","state":"Tamil Nadu","latitude":10.7905,"longitude":78.7047,"temp":32.9,"humidity":41,"rain":0.0,"pressure":1003.6,"uv_index":9.0,"wind_gusts":28.8,"aqi":104,"pm10":27.6,"pm2_5":25.2,"mosquito_risk":0,"arthritis_risk":5,"migraine_risk":4,"frizz_risk":1,"updated_at":"2026-03-04T12:23:51.848163+05:30"},{"city":"Salem","state":"Tamil Nadu","latitude":11.6643,"longitude":78.146,"temp":34.2,"humidity":28,"rain":0.0,"pressure":980.9,"uv_index":9.05,"wind_gusts":35.6,"aqi":122,"pm10":44.8,"pm2_5":42.6,"mosquito_risk":0,"arthritis_risk":5,"migraine_risk":7,"frizz_risk":0,"updated_at":"2026-03-04T12:23:51.848172+05:30"},{"city":"Tirunelveli","state":"Tamil Nadu","latitude":8.7139,"longitude":77.7567,"temp":33.7,"humidity":37,"rain":0.0,"pressure":1006.8,"uv_index":9.15,"wind_gusts":38.9,"aqi":88,"pm10":19.7,"pm2_5":18.2,"mosquito_risk":0,"arthritis_risk":5,"migraine_risk":4,"frizz_risk":1,"updated_at":"2026-03-04T12:23:51.848181+05:30"},{"city":"Vellore","state":"Tamil Nadu","latitude":12.9165,"longitude":79.1325,"temp":33.6,"humidity":25,"rain":0.0,"pressure":988.7,"uv_index":8.9,"wind_gusts":36.7,"aqi":142,"pm10":34.6,"pm2_5":32.0,"mosquito_risk":0,"arthritis_risk":5,"migraine_risk":7,"frizz_risk":0,"updated_at":"2026-03-04T12:23:51.848189+05:30"},{"city":"Erode","state":"Tamil Nadu","latitude":11.341,"longitude":77.7172,"temp":33.6,"humidity":36,"rain":0.0,"pressure":992.6,"uv_index":9.05,"wind_gusts":28.8,"aqi":101,"pm10":39.1,"pm2_5":37.0,"mosquito_risk":0,"arthritis_risk":5,"migraine_risk":7,"frizz_risk":1,"updated_at":"2026-03-04T12:23:51.848197+05:30"},{"city":"Kochi","state":"Kerala","latitude":9.9312,"longitude":76.2673,"temp":27.6,"humidity":77,"rain":0.0,"pressure":1011.9,"uv_index":8.95,"wind_gusts":32.8,"aqi":105,"pm10":34.7,"pm2_5":32.5,"mosquito_risk":7,"arthritis_risk":0,"migraine_risk":4,"frizz_risk":1,"updated_at":"2026-03-04T12:23:51.848205+05:30"},{"city":"Thiruvananthapuram","state":"Kerala","latitude":8.5241,"longitude":76.9366,"temp":27.5,"humidity":73,"rain":0.0,"pressure":1011.3,"uv_index":9.0,"wind_gusts":27.4,"aqi":98,"pm10":35.5,"pm2_5":33.1,"mosquito_risk":7,"arthritis_risk":0,"migraine_risk":4,"frizz_risk":1,"updated_at":"2026-03-04T12:23:51.848214+05:30"},{"city":"Kozhikode","state":"Kerala","latitude":11.2588,"longitude":75.7804,"temp":29.5,"humidity":72,"rain":0.0,"pressure":1011.0,"uv_index":8.85,"wind_gusts":30.6,"aqi":85,"pm10":45.6,"pm2_5":41.3,"mosquito_risk":7,"arthritis_risk":0,"migraine_risk":4,"frizz_risk":1,"updated_at":"2026-03-04T12:23:51.848221+05:30"},{"city":"Thrissur","state":"Kerala","latitude":10.5276,"longitude":76.2144,"temp":34.4,"humidity":43,"rain":0.0,"pressure":1009.7,"uv_index":8.95,"wind_gusts":38.9,"aqi":114,"pm10":38.8,"pm2_5":36.8,"mosquito_risk":0,"arthritis_risk":0,"migraine_risk":4,"frizz_risk":1,"updated_at":"2026-03-04T12:23:51.848230+05:30"},{"city":"Kannur","state":"Kerala","latitude":11.8745,"longitude":75.3704,"temp":30.9,"humidity":62,"rain":0.0,"pressure":1010.2,"uv_index":8.85,"wind_gusts":35.3,"aqi":79,"pm10":40.4,"pm2_5":36.1,"mosquito_risk":3,"arthritis_risk":0,"migraine_risk":4,"frizz_risk":1,"updated_at":"2026-03-04T12:23:51.848238+05:30"},{"city":"Patna","state":"Bihar","latitude":25.5941,"longitude":85.1376,"temp":29.4,"humidity":41,"rain":0.0,"pressure":1006.3,"uv_index":7.2,"wind_gusts":15.5,"aqi":165,"pm10":107.8,"pm2_5":70.3,"mosquito_risk":4,"arthritis_risk":5,"migraine_risk":4,"frizz_risk":0,"updated_at":"2026-03-04T12:23:51.848246+05:30"},{"city":"Gaya","state":"Bihar","latitude":24.7914,"longitude":85.0002,"temp":29.5,"humidity":41,"rain":0.0,"pressure":999.6,"uv_index":7.25,"wind_gusts":18.4,"aqi":139,"pm10":100.4,"pm2_5":44.2,"mosquito_risk":4,"arthritis_risk":5,"migraine_risk":7,"frizz_risk":0,"updated_at":"2026-03-04T12:23:51.848254+05:30"},{"city":"Muzaffarpur","state":"Bihar","latitude":26.1209,"longitude":85.3647,"temp":30.0,"humidity":38,"rain":0.0,"pressure":1006.2,"uv_index":7.15,"wind_gusts":12.2,"aqi":167,"pm10":103.4,"pm2_5":66.1,"mosquito_risk":4,"arthritis_risk":5,"migraine_risk":4,"frizz_risk":0,"updated_at":"2026-03-04T12:23:51.848262+05:30"},{"city":"Bhagalpur","state":"Bihar","latitude":25.2425,"longitude":87.0117,"temp":29.1,"humidity":44,"rain":0.0,"pressure":1006.8,"uv_index":7.2,"wind_gusts":9.4,"aqi":159,"pm10":108.7,"pm2_5":57.6,"mosquito_risk":4,"arthritis_risk":5,"migraine_risk":4,"frizz_risk":0,"updated_at":"2026-03-04T12:23:51.848269+05:30"},{"city":"Ranchi","state":"Jharkhand","latitude":23.3441,"longitude":85.3096,"temp":28.4,"humidity":26,"rain":0.0,"pressure":942.8,"uv_index":7.9,"wind_gusts":31.3,"aqi":86,"pm10":100.1,"pm2_5":27.4,"mosquito_risk":4,"arthritis_risk":5,"migraine_risk":7,"frizz_risk":0,"updated_at":"2026-03-04T12:23:51.848277+05:30"},{"city":"Jamshedpur","state":"Jharkhand","latitude":22.8046,"longitude":86.2029,"temp":31.6,"humidity":25,"rain":0.0,"pressure":995.7,"uv_index":7.85,"wind_gusts":24.5,"aqi":119,"pm10":88.9,"pm2_5":42.3,"mosquito_risk":0,"arthritis_risk":5,"migraine_risk":7,"frizz_risk":0,"updated_at":"2026-03-04T12:23:51.848284+05:30"},{"city":"Dhanbad","state":"Jharkhand","latitude":23.7957,"longitude":86.4304,"temp":31.9,"humidity":22,"rain":0.0,"pressure":984.8,"uv_index":7.7,"wind_gusts":25.2,"aqi":127,"pm10":121.1,"pm2_5":46.2,"mosquito_risk":0,"arthritis_risk":5,"migraine_risk":7,"frizz_risk":0,"updated_at":"2026-03-04T12:23:51.848292+05:30"},{"city":"Bokaro","state":"Jharkhand","latitude":23.6693,"longitude":86.1511,"temp":30.9,"humidity":26,"rain":0.0,"pressure":989.0,"uv_index":7.7,"wind_gusts":26.6,"aqi":134,"pm10":146.7,"pm2_5":48.3,"mosquito_risk":0,"arthritis_risk":5,"migraine_risk":7,"frizz_risk":0,"updated_at":"2026-03-04T12:23:51.848300+05:30"},{"city":"Bhubaneswar","state":"Odisha","latitude":20.2961,"longitude":85.8245,"temp":35.4,"humidity":29,"rain":0.0,"pressure":1006.4,"uv_index":8.15,"wind_gusts":26.6,"aqi":152,"pm10":76.8,"pm2_5":60.8,"mosquito_risk":0,"arthritis_risk":5,"migraine_risk":7,"frizz_risk":0,"updated_at":"2026-03-04T12:23:51.848308+05:30"},{"city":"Cuttack","state":"Odisha","latitude":20.4625,"longitude":85.8828,"temp":35.5,"humidity":27,"rain":0.0,"pressure":1008.5,"uv_index":8.15,"wind_gusts":27.7,"aqi":152,"pm10":76.8,"pm2_5":60.8,"mosquito_risk":0,"arthritis_risk":0,"migraine_risk":7,"frizz_risk":0,"updated_at":"2026-03-04T12:23:51.848315+05:30"},{"city":"Rourkela","state":"Odisha","latitude":22.2604,"longitude":84.8536,"temp":32.7,"humidity":24,"rain":0.0,"pressure":989.9,"uv_index":7.75,"wind_gusts":21.6,"aqi":94,"pm10":56.3,"pm2_5":32.1,"mosquito_risk":0,"arthritis_risk":5,"migraine_risk":7,"frizz_risk":0,"updated_at":"2026-03-04T12:23:51.848323+05:30"},{"city":"Raipur","state":"Chhattisgarh","latitude":21.2514,"longitude":81.6296,"temp":34.2,"humidity":21,"rain":0.0,"pressure":980.2,"uv_index":7.8,"wind_gusts":23.4,"aqi":139,"pm10":30.3,"pm2_5":19.7,"mosquito_risk":0,"arthritis_risk":5,"migraine_risk":7,"frizz_risk":0,"updated_at":"2026-03-04T12:23:51.848331+05:30"},{"city":"Bhilai","state":"Chhattisgarh","latitude":21.1938,"longitude":81.3509,"temp":34.7,"humidity":22,"rain":0.0,"pressure":980.6,"uv_index":7.8,"wind_gusts":20.5,"aqi":121,"pm10":24.4,"pm2_5":15.8,"mosquito_risk":0,"arthritis_risk":5,"migraine_risk":7,"frizz_risk":0,"updated_at":"2026-03-04T12:23:51.848339+05:30"},{"city":"Guwahati","state":"Assam","latitude":26.1158,"longitude":91.7086,"temp":28.8,"humidity":51,"rain":0.0,"pressure":1005.9,"uv_index":7.1,"wind_gusts":16.6,"aqi":154,"pm10":52.9,"pm2_5":43.2,"mosquito_risk":4,"arthritis_risk":5,"migraine_risk":4,"frizz_risk":1,"updated_at":"2026-03-04T12:23:51.848346+05:30"},{"city":"Agartala","state":"Tripura","latitude":23.8315,"longitude":91.2868,"temp":29.7,"humidity":45,"rain":0.0,"pressure":1010.0,"uv_index":7.5,"wind_gusts":21.6,"aqi":163,"pm10":78.9,"pm2_5":56.8,"mosquito_risk":4,"arthritis_risk":0,"migraine_risk":4,"frizz_risk":1,"updated_at":"2026-03-04T12:23:51.848354+05:30"},{"city":"Shillong","state":"Meghalaya","latitude":25.5788,"longitude":91.8933,"temp":18.3,"humidity":46,"rain":0.0,"pressure":859.6,"uv_index":7.5,"wind_gusts":29.2,"aqi":151,"pm10":54.8,"pm2_5":43.1,"mosquito_risk":0,"arthritis_risk":5,"migraine_risk":7,"frizz_risk":0,"updated_at":"2026-03-04T12:23:51.848362+05:30"},{"city":"Imphal","state":"Manipur","latitude":24.817,"longitude":93.9368,"temp":22.8,"humidity":45,"rain":0.0,"pressure":926.4,"uv_index":7.7,"wind_gusts":21.2,"aqi":134,"pm10":40.0,"pm2_5":33.1,"mosquito_risk":0,"arthritis_risk":5,"migraine_risk":7,"frizz_risk":0,"updated_at":"2026-03-04T12:23:51.848370+05:30"},{"city":"Aizawl","state":"Mizoram","latitude":23.7271,"longitude":92.7176,"temp":23.2,"humidity":42,"rain":0.0,"pressure":896.0,"uv_index":7.7,"wind_gusts":24.5,"aqi":155,"pm10":60.5,"pm2_5":47.4,"mosquito_risk":0,"arthritis_risk":5,"migraine_risk":7,"frizz_risk":0,"updated_at":"2026-03-04T12:23:51.848378+05:30"},{"city":"Kohima","state":"Nagaland","latitude":25.6701,"longitude":94.1077,"temp":18.2,"humidity":60,"rain":0.0,"pressure":858.3,"uv_index":7.55,"wind_gusts":39.2,"aqi":147,"pm10":51.7,"pm2_5":41.6,"mosquito_risk":0,"arthritis_risk":5,"migraine_risk":7,"frizz_risk":0,"updated_at":"2026-03-04T12:23:51.848386+05:30"},{"city":"Gangtok","state":"Sikkim","latitude":27.3314,"longitude":88.6138,"temp":19.5,"humidity":55,"rain":0.0,"pressure":842.3,"uv_index":7.45,"wind_gusts":20.9,"aqi":151,"pm10":63.6,"pm2_5":45.8,"mosquito_risk":0,"arthritis_risk":5,"migraine_risk":7,"frizz_risk":0,"updated_at":"2026-03-04T12:23:51.848393+05:30"},{"city":"Siliguri","state":"West Bengal","latitude":26.7271,"longitude":88.3953,"temp":25.0,"humidity":60,"rain":0.0,"pressure":999.1,"uv_index":7.1,"wind_gusts":20.5,"aqi":160,"pm10":70.5,"pm2_5":46.3,"mosquito_risk":4,"arthritis_risk":5,"migraine_risk":7,"frizz_risk":1,"updated_at":"2026-03-04T12:23:55.064048+05:30"},{"city":"Durgapur","state":"West Bengal","latitude":23.5204,"longitude":87.3119,"temp":32.9,"humidity":23,"rain":0.0,"pressure":999.6,"uv_index":7.7,"wind_gusts":22.3,"aqi":104,"pm10":93.4,"pm2_5":44.5,"mosquito_risk":0,"arthritis_risk":5,"migraine_risk":7,"frizz_risk":0,"updated_at":"2026-03-04T12:23:55.064077+05:30"},{"city":"Asansol","state":"West Bengal","latitude":23.6739,"longitude":86.9524,"temp":32.4,"humidity":23,"rain":0.0,"pressure":998.4,"uv_index":7.7,"wind_gusts":23.0,"aqi":95,"pm10":102.7,"pm2_5":44.0,"mosquito_risk":0,"arthritis_risk":5,"migraine_risk":7,"frizz_risk":0,"updated_at":"2026-03-04T12:23:55.064089+05:30"},{"city":"Pondicherry","state":"Puducherry","latitude":11.9139,"longitude":79.8145,"temp":32.4,"humidity":53,"rain":0.0,"pressure":1012.3,"uv_index":8.85,"wind_gusts":27.4,"aqi":103,"pm10":29.4,"pm2_5":25.4,"mosquito_risk":0,"arthritis_risk":0,"migraine_risk":4,"frizz_risk":1,"updated_at":"2026-03-04T12:23:55.064097+05:30"},{"city":"Port Blair","state":"Andaman and Nicobar Islands","latitude":11.6234,"longitude":92.7265,"temp":27.3,"humidity":71,"rain":0.0,"pressure":1009.3,"uv_index":8.85,"wind_gusts":26.3,"aqi":85,"pm10":48.4,"pm2_5":38.9,"mosquito_risk":7,"arthritis_risk":0,"migraine_risk":4,"frizz_risk":1,"updated_at":"2026-03-04T12:23:55.064106+05:30"},{"city":"Haridwar","state":"Uttarakhand","latitude":29.9457,"longitude":78.1642,"temp":27.3,"humidity":50,"rain":0.0,"pressure":978.9,"uv_index":5.6,"wind_gusts":19.1,"aqi":123,"pm10":42.0,"pm2_5":32.0,"mosquito_risk":4,"arthritis_risk":5,"migraine_risk":3,"frizz_risk":0,"updated_at":"2026-03-04T12:23:55.064114+05:30"},{"city":"Rishikesh","state":"Uttarakhand","latitude":30.0869,"longitude":78.2676,"temp":27.8,"humidity":48,"rain":0.0,"pressure":971.5,"uv_index":5.65,"wind_gusts":24.1,"aqi":98,"pm10":42.1,"pm2_5":28.9,"mosquito_risk":4,"arthritis_risk":5,"migraine_risk":3,"frizz_risk":0,"updated_at":"2026-03-04T12:23:55.064122+05:30"},{"city":"Nainital","state":"Uttarakhand","latitude":29.3919,"longitude":79.4542,"temp":19.7,"humidity":73,"rain":0.0,"pressure":810.1,"uv_index":6.45,"wind_gusts":57.2,"aqi":135,"pm10":60.1,"pm2_5":38.4,"mosquito_risk":3,"arthritis_risk":5,"migraine_risk":7,"frizz_risk":0,"updated_at":"2026-03-04T12:23:55.064130+05:30"},{"city":"Mussoorie","state":"Uttarakhand","latitude":30.4599,"longitude":78.0664,"temp":21.1,"humidity":51,"rain":0.0,"pressure":807.7,"uv_index":6.0,"wind_gusts":37.8,"aqi":94,"pm10":31.9,"pm2_5":24.8,"mosquito_risk":0,"arthritis_risk":5,"migraine_risk":3,"frizz_risk":0,"updated_at":"2026-03-04T12:23:55.064138+05:30"},{"city":"Dharamshala","state":"Himachal Pradesh","latitude":32.219,"longitude":76.3234,"temp":25.4,"humidity":37,"rain":0.0,"pressure":875.1,"uv_index":6.25,"wind_gusts":29.5,"aqi":48,"pm10":19.4,"pm2_5":7.3,"mosquito_risk":4,"arthritis_risk":5,"migraine_risk":7,"frizz_risk":0,"updated_at":"2026-03-04T12:23:55.064146+05:30"},{"city":"Dalhousie","state":"Himachal Pradesh","latitude":32.5387,"longitude":75.971,"temp":25.9,"humidity":18,"rain":0.0,"pressure":811.6,"uv_index":6.45,"wind_gusts":24.1,"aqi":84,"pm10":21.7,"pm2_5":14.0,"mosquito_risk":4,"arthritis_risk":5,"migraine_risk":7,"frizz_risk":1,"updated_at":"2026-03-04T12:23:55.064154+05:30"},{"city":"Patiala","state":"Punjab","latitude":30.3398,"longitude":76.3869,"temp":29.4,"humidity":45,"rain":0.0,"pressure":983.8,"uv_index":5.65,"wind_gusts":32.8,"aqi":215,"pm10":275.7,"pm2_5":67.3,"mosquito_risk":4,"arthritis_risk":5,"migraine_risk":3,"frizz_risk":1,"updated_at":"2026-03-04T12:23:55.064162+05:30"},{"city":"Bhatinda","state":"Punjab","latitude":30.211,"longitude":74.9455,"temp":30.5,"humidity":45,"rain":0.0,"pressure":990.0,"uv_index":6.3,"wind_gusts":25.6,"aqi":152,"pm10":79.2,"pm2_5":51.7,"mosquito_risk":0,"arthritis_risk":5,"migraine_risk":7,"frizz_risk":1,"updated_at":"2026-03-04T12:23:55.064170+05:30"},{"city":"Rohtak","state":"Haryana","latitude":28.8955,"longitude":76.6066,"temp":30.3,"humidity":44,"rain":0.0,"pressure":987.7,"uv_index":5.85,"wind_gusts":34.6,"aqi":402,"pm10":368.8,"pm2_5":71.7,"mosquito_risk":0,"arthritis_risk":5,"migraine_risk":3,"frizz_risk":1,"updated_at":"2026-03-04T12:23:55.064177+05:30"},{"city":"Panipat","state":"Haryana","latitude":29.3909,"longitude":76.9635,"temp":29.9,"humidity":46,"rain":0.0,"pressure":985.9,"uv_index":5.65,"wind_gusts":34.2,"aqi":983,"pm10":819.6,"pm2_5":118.3,"mosquito_risk":4,"arthritis_risk":5,"migraine_risk":3,"frizz_risk":1,"updated_at":"2026-03-04T12:23:55.064185+05:30"},{"city":"Mathura","state":"Uttar Pradesh","latitude":27.4924,"longitude":77.6737,"temp":31.4,"humidity":36,"rain":0.0,"pressure":993.0,"uv_index":6.1,"wind_gusts":32.8,"aqi":416,"pm10":373.5,"pm2_5":63.3,"mosquito_risk":0,"arthritis_risk":5,"migraine_risk":7,"frizz_risk":0,"updated_at":"2026-03-04T12:23:55.064192+05:30"},{"city":"Vrindavan","state":"Uttar Pradesh","latitude":27.5823,"longitude":77.7027,"temp":30.9,"humidity":39,"rain":0.0,"pressure":993.2,"uv_index":6.1,"wind_gusts":34.9,"aqi":416,"pm10":373.5,"pm2_5":63.3,"mosquito_risk":0,"arthritis_risk":5,"migraine_risk":7,"frizz_risk":0,"updated_at":"2026-03-04T12:23:55.064199+05:30"},{"city":"Ayodhya","state":"Uttar Pradesh","latitude":26.7922,"longitude":82.1998,"temp":28.7,"humidity":50,"rain":0.0,"pressure":1001.1,"uv_index":6.5,"wind_gusts":9.7,"aqi":159,"pm10":135.0,"pm2_5":70.1,"mosquito_risk":4,"arthritis_risk":5,"migraine_risk":4,"frizz_risk":1,"updated_at":"2026-03-04T12:23:55.064207+05:30"},{"city":"Ratlam","state":"Madhya Pradesh","latitude":23.3315,"longitude":75.0367,"temp":32.7,"humidity":30,"rain":0.0,"pressure":961.3,"uv_index":7.35,"wind_gusts":18.0,"aqi":98,"pm10":28.2,"pm2_5":17.6,"mosquito_risk":0,"arthritis_risk":5,"migraine_risk":7,"frizz_risk":0,"updated_at":"2026-03-04T12:23:55.064215+05:30"},{"city":"Sagar","state":"Madhya Pradesh","latitude":23.8388,"longitude":78.7378,"temp":32.2,"humidity":25,"rain":0.0,"pressure":956.7,"uv_index":7.25,"wind_gusts":27.0,"aqi":64,"pm10":21.8,"pm2_5":10.4,"mosquito_risk":0,"arthritis_risk":5,"migraine_risk":7,"frizz_risk":0,"updated_at":"2026-03-04T12:23:55.064222+05:30"},{"city":"Satna","state":"Madhya Pradesh","latitude":24.6005,"longitude":80.8322,"temp":32.8,"humidity":25,"rain":0.0,"pressure":977.3,"uv_index":7.25,"wind_gusts":36.7,"aqi":65,"pm10":35.2,"pm2_5":16.2,"mosquito_risk":0,"arthritis_risk":5,"migraine_risk":7,"frizz_risk":0,"updated_at":"2026-03-04T12:23:55.064229+05:30"},{"city":"Akola","state":"Maharashtra","latitude":20.7002,"longitude":77.0082,"temp":35.0,"humidity":24,"rain":0.0,"pressure":981.0,"uv_index":7.8,"wind_gusts":14.4,"aqi":73,"pm10":23.1,"pm2_5":17.8,"mosquito_risk":0,"arthritis_risk":5,"migraine_risk":7,"frizz_risk":0,"updated_at":"2026-03-04T12:23:55.064238+05:30"},{"city":"Amravati","state":"Maharashtra","latitude":20.9374,"longitude":77.7796,"temp":35.3,"humidity":24,"rain":0.0,"pressure":973.2,"uv_index":7.75,"wind_gusts":16.2,"aqi":68,"pm10":21.4,"pm2_5":15.4,"mosquito_risk":0,"arthritis_risk":5,"migraine_risk":10,"frizz_risk":0,"updated_at":"2026-03-04T12:23:55.064246+05:30"},{"city":"Latur","state":"Maharashtra","latitude":18.4088,"longitude":76.5604,"temp":33.3,"humidity":25,"rain":0.0,"pressure":945.1,"uv_index":8.25,"wind_gusts":20.5,"aqi":79,"pm10":19.2,"pm2_5":17.5,"mosquito_risk":0,"arthritis_risk":5,"migraine_risk":7,"frizz_risk":0,"updated_at":"2026-03-04T12:23:55.064254+05:30"},{"city":"Nanded","state":"Maharashtra","latitude":19.1383,"longitude":77.3091,"temp":35.3,"humidity":26,"rain":0.0,"pressure":973.9,"uv_index":8.0,"wind_gusts":14.4,"aqi":81,"pm10":21.9,"pm2_5":17.6,"mosquito_risk":0,"arthritis_risk":5,"migraine_risk":10,"frizz_risk":0,"updated_at":"2026-03-04T12:23:55.064261+05:30"},{"city":"Gulbarga","state":"Karnataka","latitude":17.3297,"longitude":76.8343,"temp":35.6,"humidity":21,"rain":0.0,"pressure":963.3,"uv_index":8.35,"wind_gusts":25.2,"aqi":85,"pm10":29.5,"pm2_5":28.2,"mosquito_risk":0,"arthritis_risk":5,"migraine_risk":10,"frizz_risk":0,"updated_at":"2026-03-04T12:23:55.064268+05:30"},{"city":"Bidar","state":"Karnataka","latitude":17.9104,"longitude":77.5199,"temp":33.9,"humidity":21,"rain":0.0,"pressure":940.6,"uv_index":8.3,"wind_gusts":26.6,"aqi":89,"pm10":19.0,"pm2_5":16.4,"mosquito_risk":0,"arthritis_risk":5,"migraine_risk":7,"frizz_risk":0,"updated_at":"2026-03-04T12:23:55.064276+05:30"},{"city":"Hospet","state":"Karnataka","latitude":15.2689,"longitude":76.3909,"temp":32.7,"humidity":33,"rain":0.0,"pressure":960.2,"uv_index":8.65,"wind_gusts":25.2,"aqi":102,"pm10":29.9,"pm2_5":29.0,"mosquito_risk":0,"arthritis_risk":5,"migraine_risk":7,"frizz_risk":0,"updated_at":"2026-03-04T12:23:55.064283+05:30"},{"city":"Tirupur","state":"Tamil Nadu","latitude":11.1085,"longitude":77.3411,"temp":32.8,"humidity":34,"rain":0.0,"pressure":979.2,"uv_index":9.15,"wind_gusts":31.0,"aqi":108,"pm10":41.1,"pm2_5":39.2,"mosquito_risk":0,"arthritis_risk":5,"migraine_risk":7,"frizz_risk":0,"updated_at":"2026-03-04T12:23:55.064290+05:30"},{"city":"Alappuzha","state":"Kerala","latitude":9.4981,"longitude":76.3388,"temp":27.7,"humidity":78,"rain":0.0,"pressure":1012.0,"uv_index":8.95,"wind_gusts":32.4,"aqi":104,"pm10":38.9,"pm2_5":36.9,"mosquito_risk":7,"arthritis_risk":0,"migraine_risk":4,"frizz_risk":1,"updated_at":"2026-03-04T12:23:55.064297+05:30"},{"city":"Munnar","state":"Kerala","latitude":10.0889,"longitude":77.0595,"temp":28.1,"humidity":40,"rain":0.0,"pressure":861.2,"uv_index":9.45,"wind_gusts":22.0,"aqi":88,"pm10":26.5,"pm2_5":25.5,"mosquito_risk":4,"arthritis_risk":5,"migraine_risk":7,"frizz_risk":0,"updated_at":"2026-03-04T12:23:55.064305+05:30"},{"city":"Silchar","state":"Assam","latitude":24.8333,"longitude":92.7789,"temp":30.7,"humidity":38,"rain":0.0,"pressure":1008.5,"uv_index":7.45,"wind_gusts":15.8,"aqi":151,"pm10":42.5,"pm2_5":33.1,"mosquito_risk":0,"arthritis_risk":0,"migraine_risk":4,"frizz_risk":0,"updated_at":"2026-03-04T12:23:55.064313+05:30"},{"city":"Dibrugarh","state":"Assam","latitude":27.4728,"longitude":94.912,"temp":26.7,"humidity":61,"rain":0.0,"pressure":999.9,"uv_index":7.15,"wind_gusts":9.0,"aqi":135,"pm10":71.5,"pm2_5":53.1,"mosquito_risk":7,"arthritis_risk":5,"migraine_risk":7,"frizz_risk":1,"updated_at":"2026-03-04T12:23:55.064320+05:30"}]