[{"city":"Delhi","state":"Delhi","latitude":28.6139,"longitude":77.209,"temp":29.4,"humidity":33,"rain":0.0,"pressure":983.5,"uv_index":5.6,"aqi":151,"mosquito_risk":4,"arthritis_risk":5,"migraine_risk":3,"frizz_risk":0,"updated_at":"2026-02-27T14:16:46.051914+05:30"},{"city":"Mumbai","state":"Maharashtra","latitude":19.076,"longitude":72.8777,"temp":25.6,"humidity":67,"rain":0.0,"pressure":1008.6,"uv_index":7.3,"aqi":68,"mosquito_risk":7,"arthritis_risk":0,"migraine_risk":4,"frizz_risk":1,"updated_at":"2026-02-27T14:16:46.051951+05:30"},{"city":"Bangalore","state":"Karnataka","latitude":12.9716,"longitude":77.5946,"temp":30.3,"humidity":34,"rain":0.0,"pressure":910.2,"uv_index":8.95,"aqi":114,"mosquito_risk":0,"arthritis_risk":5,"migraine_risk":7,"frizz_risk":0,"updated_at":"2026-02-27T14:16:46.051965+05:30"},{"city":"Hyderabad","state":"Telangana","latitude":17.385,"longitude":78.4867,"temp":31.0,"humidity":38,"rain":0.0,"pressure":952.6,"uv_index":8.15,"aqi":129,"mosquito_risk":0,"arthritis_risk":5,"migraine_risk":7,"frizz_risk":0,"updated_at":"2026-02-27T14:16:46.051973+05:30"},{"city":"Chennai","state":"Tamil Nadu","latitude":13.0827,"longitude":80.2707,"temp":32.8,"humidity":46,"rain":0.0,"pressure":1006.2,"uv_index":8.65,"aqi":105,"mosquito_risk":0,"arthritis_risk":5,"migraine_risk":4,"frizz_risk":1,"updated_at":"2026-02-27T14:16:46.051980+05:30"},{"city":"Kolkata","state":"West Bengal","latitude":22.5726,"longitude":88.3639,"temp":30.3,"humidity":36,"rain":0.0,"pressure":1004.9,"uv_index":7.5,"aqi":164,"mosquito_risk":0,"arthritis_risk":5,"migraine_risk":4,"frizz_risk":0,"updated_at":"2026-02-27T14:16:46.051987+05:30"},{"city":"Pune","state":"Maharashtra","latitude":18.5204,"longitude":73.8567,"temp":32.6,"humidity":23,"rain":0.0,"pressure":947.7,"uv_index":7.85,"aqi":72,"mosquito_risk":0,"arthritis_risk":5,"migraine_risk":7,"frizz_risk":0,"updated_at":"2026-02-27T14:16:46.051994+05:30"},{"city":"Ahmedabad","state":"Gujarat","latitude":23.0225,"longitude":72.5714,"temp":31.5,"humidity":35,"rain":0.0,"pressure":1001.3,"uv_index":7.1,"aqi":64,"mosquito_risk":0,"arthritis_risk":5,"migraine_risk":4,"frizz_risk":0,"updated_at":"2026-02-27T14:16:46.052000+05:30"},{"city":"Jaipur","state":"Rajasthan","latitude":26.9124,"longitude":75.7873,"temp":31.2,"humidity":23,"rain":0.0,"pressure":959.6,"uv_index":6.4,"aqi":72,"mosquito_risk":0,"arthritis_risk":5,"migraine_risk":7,"frizz_risk":0,"updated_at":"2026-02-27T14:16:46.052010+05:30"},{"city":"Lucknow","state":"Uttar Pradesh","latitude":26.8467,"longitude":80.9462,"temp":29.9,"humidity":32,"rain":0.0,"pressure":994.0,"uv_index":6.05,"aqi":128,"mosquito_risk":4,"arthritis_risk":5,"migraine_risk":7,"frizz_risk":0,"updated_at":"2026-02-27T14:16:46.052017+05:30"},{"city":"Kanpur","state":"Uttar Pradesh","latitude":26.4499,"longitude":80.3319,"temp":30.2,"humidity":31,"rain":0.0,"pressure":992.3,"uv_index":6.05,"aqi":135,"mosquito_risk":0,"arthritis_risk":5,"migraine_risk":7,"frizz_risk":0,"updated_at":"2026-02-27T14:16:46.052023+05:30"},{"city":"Chandigarh","state":"Chandigarh","latitude":30.7333,"longitude":76.7794,"temp":27.2,"humidity":43,"rain":0.0,"pressure":968.7,"uv_index":5.5,"aqi":121,"mosquito_risk":4,"arthritis_risk":5,"migraine_risk":3,"frizz_risk":0,"updated_at":"2026-02-27T14:16:46.052030+05:30"},{"city":"Srinagar","state":"Jammu and Kashmir","latitude":34.0837,"longitude":74.7973,"temp":16.9,"humidity":28,"rain":0.0,"pressure":840.2,"uv_index":6.35,"aqi":155,"mosquito_risk":0,"arthritis_risk":5,"migraine_risk":7,"frizz_risk":1,"updated_at":"2026-02-27T14:16:46.052036+05:30"},{"city":"Jammu","state":"Jammu and Kashmir","latitude":32.7266,"longitude":74.857,"temp":27.1,"humidity":44,"rain":0.0,"pressure":972.3,"uv_index":6.05,"aqi":116,"mosquito_risk":4,"arthritis_risk":5,"migraine_risk":7,"frizz_risk":0,"updated_at":"2026-02-27T14:16:46.052042+05:30"},{"city":"Amritsar","state":"Punjab","latitude":31.634,"longitude":74.8723,"temp":26.9,"humidity":48,"rain":0.0,"pressure":981.0,"uv_index":6.0,"aqi":163,"mosquito_risk":4,"arthritis_risk":5,"migraine_risk":3,"frizz_risk":0,"updated_at":"2026-02-27T14:16:46.052048+05:30"},{"city":"Ludhiana","state":"Punjab","latitude":30.901,"longitude":75.8573,"temp":27.6,"humidity":43,"rain":0.0,"pressure":978.9,"uv_index":5.75,"aqi":175,"mosquito_risk":4,"arthritis_risk":5,"migraine_risk":3,"frizz_risk":0,"updated_at":"2026-02-27T14:16:46.052054+05:30"},{"city":"Jalandhar","state":"Punjab","latitude":31.326,"longitude":75.5762,"temp":27.4,"humidity":46,"rain":0.0,"pressure":979.9,"uv_index":5.9,"aqi":178,"mosquito_risk":4,"arthritis_risk":5,"migraine_risk":3,"frizz_risk":0,"updated_at":"2026-02-27T14:16:46.052060+05:30"},{"city":"Dehradun","state":"Uttarakhand","latitude":30.6284,"longitude":78.0322,"temp":18.2,"humidity":43,"rain":0.0,"pressure":829.1,"uv_index":5.85,"aqi":80,"mosquito_risk":0,"arthritis_risk":5,"migraine_risk":3,"frizz_risk":0,"updated_at":"2026-02-27T14:16:46.052066+05:30"},{"city":"Shimla","state":"Himachal Pradesh","latitude":31.1048,"longitude":77.1734,"temp":16.3,"humidity":38,"rain":0.0,"pressure":783.9,"uv_index":5.9,"aqi":96,"mosquito_risk":0,"arthritis_risk":5,"migraine_risk":3,"frizz_risk":0,"updated_at":"2026-02-27T14:16:46.052074+05:30"},{"city":"Manali","state":"Himachal Pradesh","latitude":32.2396,"longitude":77.1887,"temp":18.0,"humidity":24,"rain":0.0,"pressure":817.1,"uv_index":7.6,"aqi":103,"mosquito_risk":0,"arthritis_risk":5,"migraine_risk":7,"frizz_risk":1,"updated_at":"2026-02-27T14:16:46.052080+05:30"},{"city":"Gurgaon","state":"Haryana","latitude":28.4595,"longitude":77.0266,"temp":29.6,"humidity":34,"rain":0.0,"pressure":981.9,"uv_index":5.7,"aqi":182,"mosquito_risk":4,"arthritis_risk":5,"migraine_risk":3,"frizz_risk":0,"updated_at":"2026-02-27T14:16:46.052086+05:30"},{"city":"Noida","state":"Uttar Pradesh","latitude":28.5355,"longitude":77.391,"temp":29.9,"humidity":31,"rain":0.0,"pressure":985.0,"uv_index":5.6,"aqi":182,"mosquito_risk":4,"arthritis_risk":5,"migraine_risk":3,"frizz_risk":0,"updated_at":"2026-02-27T14:16:46.052092+05:30"},{"city":"Ghaziabad","state":"Uttar Pradesh","latitude":28.6692,"longitude":77.4538,"temp":28.5,"humidity":40,"rain":0.0,"pressure":983.2,"uv_index":5.55,"aqi":151,"mosquito_risk":4,"arthritis_risk":5,"migraine_risk":3,"frizz_risk":0,"updated_at":"2026-02-27T14:16:46.052097+05:30"},{"city":"Faridabad","state":"Haryana","latitude":28.4089,"longitude":77.3178,"temp":29.0,"humidity":39,"rain":0.0,"pressure":984.2,"uv_index":5.65,"aqi":182,"mosquito_risk":4,"arthritis_risk":5,"migraine_risk":3,"frizz_risk":0,"updated_at":"2026-02-27T14:16:46.052103+05:30"},{"city":"Meerut","state":"Uttar Pradesh","latitude":28.9845,"longitude":77.7064,"temp":28.2,"humidity":43,"rain":0.0,"pressure":981.9,"uv_index":5.45,"aqi":151,"mosquito_risk":4,"arthritis_risk":5,"migraine_risk":3,"frizz_risk":0,"updated_at":"2026-02-27T14:16:46.052109+05:30"},{"city":"Agra","state":"Uttar Pradesh","latitude":27.1767,"longitude":78.0081,"temp":30.7,"humidity":33,"rain":0.0,"pressure":988.2,"uv_index":5.9,"aqi":139,"mosquito_risk":0,"arthritis_risk":5,"migraine_risk":3,"frizz_risk":0,"updated_at":"2026-02-27T14:16:46.052114+05:30"},{"city":"Varanasi","state":"Uttar Pradesh","latitude":25.3176,"longitude":82.9739,"temp":29.6,"humidity":34,"rain":0.0,"pressure":998.0,"uv_index":6.75,"aqi":129,"mosquito_risk":4,"arthritis_risk":5,"migraine_risk":7,"frizz_risk":0,"updated_at":"2026-02-27T14:16:46.052121+05:30"},{"city":"Prayagraj","state":"Uttar Pradesh","latitude":25.4358,"longitude":81.8463,"temp":30.3,"humidity":31,"rain":0.0,"pressure":996.6,"uv_index":6.6,"aqi":152,"mosquito_risk":0,"arthritis_risk":5,"migraine_risk":7,"frizz_risk":0,"updated_at":"2026-02-27T14:16:46.052127+05:30"},{"city":"Gorakhpur","state":"Uttar Pradesh","latitude":26.7606,"longitude":83.3732,"temp":28.1,"humidity":41,"rain":0.0,"pressure":997.4,"uv_index":6.45,"aqi":156,"mosquito_risk":4,"arthritis_risk":5,"migraine_risk":7,"frizz_risk":0,"updated_at":"2026-02-27T14:16:46.052135+05:30"},{"city":"Bareilly","state":"Uttar Pradesh","latitude":28.367,"longitude":79.4304,"temp":27.9,"humidity":42,"rain":0.0,"pressure":987.2,"uv_index":5.75,"aqi":151,"mosquito_risk":4,"arthritis_risk":5,"migraine_risk":3,"frizz_risk":0,"updated_at":"2026-02-27T14:16:46.052141+05:30"},{"city":"Aligarh","state":"Uttar Pradesh","latitude":27.8974,"longitude":78.088,"temp":29.4,"humidity":37,"rain":0.0,"pressure":986.2,"uv_index":5.7,"aqi":154,"mosquito_risk":4,"arthritis_risk":5,"migraine_risk":3,"frizz_risk":0,"updated_at":"2026-02-27T14:16:46.052149+05:30"},{"city":"Moradabad","state":"Uttar Pradesh","latitude":28.8386,"longitude":78.7733,"temp":27.8,"humidity":42,"rain":0.0,"pressure":983.9,"uv_index":5.6,"aqi":151,"mosquito_risk":4,"arthritis_risk":5,"migraine_risk":3,"frizz_risk":0,"updated_at":"2026-02-27T14:16:46.052155+05:30"},{"city":"Saharanpur","state":"Uttar Pradesh","latitude":29.9637,"longitude":77.546,"temp":27.7,"humidity":40,"rain":0.0,"pressure":975.6,"uv_index":5.25,"aqi":156,"mosquito_risk":4,"arthritis_risk":5,"migraine_risk":3,"frizz_risk":0,"updated_at":"2026-02-27T14:16:46.052160+05:30"},{"city":"Jhansi","state":"Uttar Pradesh","latitude":25.4484,"longitude":78.5685,"temp":31.8,"humidity":28,"rain":0.0,"pressure":977.8,"uv_index":6.55,"aqi":75,"mosquito_risk":0,"arthritis_risk":5,"migraine_risk":7,"frizz_risk":0,"updated_at":"2026-02-27T14:16:49.349618+05:30"},{"city":"Surat","state":"Gujarat","latitude":21.1702,"longitude":72.8311,"temp":27.8,"humidity":51,"rain":0.0,"pressure":1007.1,"uv_index":7.05,"aqi":79,"mosquito_risk":4,"arthritis_risk":5,"migraine_risk":4,"frizz_risk":1,"updated_at":"2026-02-27T14:16:49.349677+05:30"},{"city":"Vadodara","state":"Gujarat","latitude":22.3072,"longitude":73.1812,"temp":31.1,"humidity":38,"rain":0.0,"pressure":1004.0,"uv_index":7.1,"aqi":66,"mosquito_risk":0,"arthritis_risk":5,"migraine_risk":4,"frizz_risk":0,"updated_at":"2026-02-27T14:16:49.349688+05:30"},{"city":"Rajkot","state":"Gujarat","latitude":22.3039,"longitude":70.8022,"temp":31.5,"humidity":31,"rain":0.0,"pressure":993.2,"uv_index":7.0,"aqi":59,"mosquito_risk":0,"arthritis_risk":5,"migraine_risk":7,"frizz_risk":0,"updated_at":"2026-02-27T14:16:49.349696+05:30"},{"city":"Thane","state":"Maharashtra","latitude":19.2183,"longitude":72.9781,"temp":28.3,"humidity":51,"rain":0.0,"pressure":1008.0,"uv_index":7.3,"aqi":68,"mosquito_risk":4,"arthritis_risk":0,"migraine_risk":4,"frizz_risk":1,"updated_at":"2026-02-27T14:16:49.349704+05:30"},{"city":"Nagpur","state":"Maharashtra","latitude":21.1458,"longitude":79.0882,"temp":31.3,"humidity":32,"rain":0.0,"pressure":973.4,"uv_index":7.45,"aqi":109,"mosquito_risk":0,"arthritis_risk":5,"migraine_risk":7,"frizz_risk":0,"updated_at":"2026-02-27T14:16:49.349710+05:30"},{"city":"Nashik","state":"Maharashtra","latitude":19.9975,"longitude":73.7898,"temp":29.0,"humidity":37,"rain":0.0,"pressure":944.9,"uv_index":7.5,"aqi":51,"mosquito_risk":4,"arthritis_risk":5,"migraine_risk":7,"frizz_risk":0,"updated_at":"2026-02-27T14:16:49.349717+05:30"},{"city":"Aurangabad","state":"Maharashtra","latitude":19.8762,"longitude":75.3433,"temp":32.3,"humidity":23,"rain":0.0,"pressure":943.4,"uv_index":7.8,"aqi":60,"mosquito_risk":0,"arthritis_risk":5,"migraine_risk":7,"frizz_risk":0,"updated_at":"2026-02-27T14:16:49.349724+05:30"},{"city":"Solapur","state":"Maharashtra","latitude":17.6599,"longitude":75.9064,"temp":32.0,"humidity":28,"rain":0.0,"pressure":956.5,"uv_index":8.1,"aqi":68,"mosquito_risk":0,"arthritis_risk":5,"migraine_risk":7,"frizz_risk":0,"updated_at":"2026-02-27T14:16:49.349731+05:30"},{"city":"Kolhapur","state":"Maharashtra","latitude":16.705,"longitude":74.2433,"temp":31.4,"humidity":24,"rain":0.0,"pressure":947.2,"uv_index":8.3,"aqi":50,"mosquito_risk":0,"arthritis_risk":5,"migraine_risk":7,"frizz_risk":0,"updated_at":"2026-02-27T14:16:49.349742+05:30"},{"city":"Goa","state":"Goa","latitude":15.2993,"longitude":74.124,"temp":31.3,"humidity":53,"rain":0.0,"pressure":996.9,"uv_index":8.3,"aqi":43,"mosquito_risk":0,"arthritis_risk":5,"migraine_risk":7,"frizz_risk":1,"updated_at":"2026-02-27T14:16:49.349749+05:30"},{"city":"Jodhpur","state":"Rajasthan","latitude":26.2389,"longitude":73.0243,"temp":33.6,"humidity":21,"rain":0.0,"pressure":981.9,"uv_index":6.7,"aqi":75,"mosquito_risk":0,"arthritis_risk":5,"migraine_risk":7,"frizz_risk":0,"updated_at":"2026-02-27T14:16:49.349756+05:30"},{"city":"Udaipur","state":"Rajasthan","latitude":24.5854,"longitude":73.7125,"temp":30.0,"humidity":29,"rain":0.0,"pressure":945.8,"uv_index":7.35,"aqi":70,"mosquito_risk":4,"arthritis_risk":5,"migraine_risk":7,"frizz_risk":0,"updated_at":"2026-02-27T14:16:49.349763+05:30"},{"city":"Kota","state":"Rajasthan","latitude":25.2138,"longitude":75.8648,"temp":31.9,"humidity":34,"rain":0.0,"pressure":978.5,"uv_index":6.75,"aqi":80,"mosquito_risk":0,"arthritis_risk":5,"migraine_risk":7,"frizz_risk":0,"updated_at":"2026-02-27T14:16:49.349769+05:30"},{"city":"Bikaner","state":"Rajasthan","latitude":28.0229,"longitude":73.3119,"temp":32.4,"humidity":20,"rain":0.0,"pressure":980.7,"uv_index":6.35,"aqi":57,"mosquito_risk":0,"arthritis_risk":5,"migraine_risk":7,"frizz_risk":0,"updated_at":"2026-02-27T14:16:49.349776+05:30"},{"city":"Ajmer","state":"Rajasthan","latitude":26.4499,"longitude":74.6399,"temp":31.5,"humidity":24,"rain":0.0,"pressure":954.0,"uv_index":6.7,"aqi":71,"mosquito_risk":0,"arthritis_risk":5,"migraine_risk":7,"frizz_risk":0,"updated_at":"2026-02-27T14:16:49.349782+05:30"},{"city":"Gwalior","state":"Madhya Pradesh","latitude":26.2183,"longitude":78.1828,"temp":30.5,"humidity":39,"rain":0.0,"pressure":983.2,"uv_index":6.25,"aqi":81,"mosquito_risk":0,"arthritis_risk":5,"migraine_risk":7,"frizz_risk":0,"updated_at":"2026-02-27T14:16:49.349788+05:30"},{"city":"Indore","state":"Madhya Pradesh","latitude":22.7196,"longitude":75.8577,"temp":29.9,"humidity":36,"rain":0.0,"pressure":947.8,"uv_index":7.25,"aqi":89,"mosquito_risk":4,"arthritis_risk":5,"migraine_risk":7,"frizz_risk":0,"updated_at":"2026-02-27T14:16:49.349794+05:30"},{"city":"Bhopal","state":"Madhya Pradesh","latitude":23.2599,"longitude":77.4126,"temp":30.6,"humidity":33,"rain":0.0,"pressure":953.5,"uv_index":7.1,"aqi":84,"mosquito_risk":0,"arthritis_risk":5,"migraine_risk":7,"frizz_risk":0,"updated_at":"2026-02-27T14:16:49.349800+05:30"},{"city":"Jabalpur","state":"Madhya Pradesh","latitude":23.1815,"longitude":79.9864,"temp":31.3,"humidity":26,"rain":0.0,"pressure":961.7,"uv_index":7.15,"aqi":73,"mosquito_risk":0,"arthritis_risk":5,"migraine_risk":7,"frizz_risk":0,"updated_at":"2026-02-27T14:16:49.349806+05:30"},{"city":"Ujjain","state":"Madhya Pradesh","latitude":23.1765,"longitude":75.7885,"temp":30.1,"humidity":36,"rain":0.0,"pressure":953.7,"uv_index":7.15,"aqi":92,"mosquito_risk":0,"arthritis_risk":5,"migraine_risk":7,"frizz_risk":0,"updated_at":"2026-02-27T14:16:49.349812+05:30"},{"city":"Visakhapatnam","state":"Andhra Pradesh","latitude":17.6868,"longitude":83.2185,"temp":31.1,"humidity":52,"rain":0.0,"pressure":1002.8,"uv_index":8.15,"aqi":112,"mosquito_risk":0,"arthritis_risk":5,"migraine_risk":4,"frizz_risk":1,"updated_at":"2026-02-27T14:16:49.349818+05:30"},{"city":"Vijayawada","state":"Andhra Pradesh","latitude":16.5062,"longitude":80.648,"temp":33.2,"humidity":45,"rain":0.0,"pressure":1001.5,"uv_index":8.2,"aqi":113,"mosquito_risk":0,"arthritis_risk":5,"migraine_risk":4,"frizz_risk":1,"updated_at":"2026-02-27T14:16:49.349824+05:30"},{"city":"Guntur","state":"Andhra Pradesh","latitude":16.3067,"longitude":80.4365,"temp":33.8,"humidity":41,"rain":0.0,"pressure":1002.5,"uv_index":8.2,"aqi":109,"mosquito_risk":0,"arthritis_risk":5,"migraine_risk":4,"frizz_risk":1,"updated_at":"2026-02-27T14:16:49.349830+05:30"},{"city":"Nellore","state":"Andhra Pradesh","latitude":14.4426,"longitude":79.9865,"temp":35.2,"humidity":31,"rain":0.0,"pressure":1004.0,"uv_index":8.45,"aqi":95,"mosquito_risk":0,"arthritis_risk":5,"migraine_risk":7,"frizz_risk":0,"updated_at":"2026-02-27T14:16:49.349838+05:30"},{"city":"Kurnool","state":"Andhra Pradesh","latitude":15.8281,"longitude":78.0373,"temp":34.3,"humidity":30,"rain":0.0,"pressure":975.5,"uv_index":8.25,"aqi":104,"mosquito_risk":0,"arthritis_risk":5,"migraine_risk":7,"frizz_risk":0,"updated_at":"2026-02-27T14:16:49.349845+05:30"},{"city":"Kakinada","state":"Andhra Pradesh","latitude":16.9891,"longitude":82.2475,"temp":31.7,"humidity":52,"rain":0.0,"pressure":1006.6,"uv_index":8.15,"aqi":94,"mosquito_risk":0,"arthritis_risk":5,"migraine_risk":4,"frizz_risk":1,"updated_at":"2026-02-27T14:16:49.349851+05:30"},{"city":"Tirupati","state":"Andhra Pradesh","latitude":13.6288,"longitude":79.4192,"temp":33.3,"humidity":32,"rain":0.0,"pressure":989.9,"uv_index":8.6,"aqi":112,"mosquito_risk":0,"arthritis_risk":5,"migraine_risk":7,"frizz_risk":0,"updated_at":"2026-02-27T14:16:49.349857+05:30"},{"city":"Warangal","state":"Telangana","latitude":17.9689,"longitude":79.5941,"temp":32.4,"humidity":40,"rain":0.0,"pressure":978.2,"uv_index":7.95,"aqi":154,"mosquito_risk":0,"arthritis_risk":5,"migraine_risk":7,"frizz_risk":1,"updated_at":"2026-02-27T14:16:49.349863+05:30"},{"city":"Nizamabad","state":"Telangana","latitude":18.6725,"longitude":78.0941,"temp":33.4,"humidity":32,"rain":0.0,"pressure":964.0,"uv_index":7.85,"aqi":148,"mosquito_risk":0,"arthritis_risk":5,"migraine_risk":7,"frizz_risk":0,"updated_at":"2026-02-27T14:16:49.349868+05:30"},{"city":"Mysore","state":"Karnataka","latitude":12.2958,"longitude":76.6396,"temp":30.7,"humidity":38,"rain":0.0,"pressure":926.6,"uv_index":8.85,"aqi":116,"mosquito_risk":0,"arthritis_risk":5,"migraine_risk":7,"frizz_risk":0,"updated_at":"2026-02-27T14:16:49.349874+05:30"},{"city":"Mangalore","state":"Karnataka","latitude":12.9141,"longitude":74.856,"temp":28.3,"humidity":74,"rain":0.0,"pressure":1004.8,"uv_index":8.55,"aqi":45,"mosquito_risk":7,"arthritis_risk":5,"migraine_risk":4,"frizz_risk":1,"updated_at":"2026-02-27T14:16:49.349881+05:30"},{"city":"Hubli-Dharwad","state":"Karnataka","latitude":15.3647,"longitude":75.124,"temp":33.5,"humidity":22,"rain":0.0,"pressure":939.7,"uv_index":8.45,"aqi":41,"mosquito_risk":0,"arthritis_risk":5,"migraine_risk":7,"frizz_risk":0,"updated_at":"2026-02-27T14:16:49.349887+05:30"},{"city":"Belgaum","state":"Karnataka","latitude":15.8497,"longitude":74.4977,"temp":32.4,"humidity":21,"rain":0.0,"pressure":925.0,"uv_index":8.55,"aqi":37,"mosquito_risk":0,"arthritis_risk":5,"migraine_risk":7,"frizz_risk":0,"updated_at":"2026-02-27T14:16:52.643398+05:30"},{"city":"Coimbatore","state":"Tamil Nadu","latitude":11.0168,"longitude":76.9558,"temp":29.6,"humidity":57,"rain":0.0,"pressure":960.4,"uv_index":5.45,"aqi":122,"mosquito_risk":4,"arthritis_risk":5,"migraine_risk":3,"frizz_risk":1,"updated_at":"2026-02-27T14:16:52.643431+05:30"},{"city":"Madurai","state":"Tamil Nadu","latitude":9.9252,"longitude":78.1198,"temp":32.4,"humidity":40,"rain":0.0,"pressure":991.3,"uv_index":8.95,"aqi":152,"mosquito_risk":0,"arthritis_risk":5,"migraine_risk":7,"frizz_risk":1,"updated_at":"2026-02-27T14:16:52.643443+05:30"},{"city":"Trichy","state":"Tamil Nadu","latitude":10.7905,"longitude":78.7047,"temp":33.1,"humidity":39,"rain":0.0,"pressure":998.0,"uv_index":8.85,"aqi":111,"mosquito_risk":0,"arthritis_risk":5,"migraine_risk":7,"frizz_risk":1,"updated_at":"2026-02-27T14:16:52.643452+05:30"},{"city":"Salem","state":"Tamil Nadu","latitude":11.6643,"longitude":78.146,"temp":33.8,"humidity":36,"rain":0.0,"pressure":975.4,"uv_index":8.85,"aqi":120,"mosquito_risk":0,"arthritis_risk":5,"migraine_risk":7,"frizz_risk":1,"updated_at":"2026-02-27T14:16:52.643460+05:30"},{"city":"Tirunelveli","state":"Tamil Nadu","latitude":8.7139,"longitude":77.7567,"temp":33.7,"humidity":43,"rain":0.0,"pressure":1000.8,"uv_index":9.0,"aqi":112,"mosquito_risk":0,"arthritis_risk":5,"migraine_risk":4,"frizz_risk":1,"updated_at":"2026-02-27T14:16:52.643468+05:30"},{"city":"Vellore","state":"Tamil Nadu","latitude":12.9165,"longitude":79.1325,"temp":33.5,"humidity":30,"rain":0.0,"pressure":982.9,"uv_index":8.7,"aqi":112,"mosquito_risk":0,"arthritis_risk":5,"migraine_risk":7,"frizz_risk":0,"updated_at":"2026-02-27T14:16:52.643475+05:30"},{"city":"Erode","state":"Tamil Nadu","latitude":11.341,"longitude":77.7172,"temp":33.0,"humidity":41,"rain":0.0,"pressure":987.1,"uv_index":8.85,"aqi":113,"mosquito_risk":0,"arthritis_risk":5,"migraine_risk":7,"frizz_risk":1,"updated_at":"2026-02-27T14:16:52.643483+05:30"},{"city":"Kochi","state":"Kerala","latitude":9.9312,"longitude":76.2673,"temp":27.3,"humidity":82,"rain":0.0,"pressure":1006.9,"uv_index":8.8,"aqi":92,"mosquito_risk":7,"arthritis_risk":5,"migraine_risk":4,"frizz_risk":1,"updated_at":"2026-02-27T14:16:52.643491+05:30"},{"city":"Thiruvananthapuram","state":"Kerala","latitude":8.5241,"longitude":76.9366,"temp":28.1,"humidity":76,"rain":0.0,"pressure":1005.9,"uv_index":8.8,"aqi":79,"mosquito_risk":7,"arthritis_risk":5,"migraine_risk":4,"frizz_risk":1,"updated_at":"2026-02-27T14:16:52.643498+05:30"},{"city":"Kozhikode","state":"Kerala","latitude":11.2588,"longitude":75.7804,"temp":29.1,"humidity":71,"rain":0.0,"pressure":1006.4,"uv_index":8.7,"aqi":60,"mosquito_risk":7,"arthritis_risk":5,"migraine_risk":4,"frizz_risk":1,"updated_at":"2026-02-27T14:16:52.643506+05:30"},{"city":"Thrissur","state":"Kerala","latitude":10.5276,"longitude":76.2144,"temp":29.4,"humidity":71,"rain":0.0,"pressure":1005.4,"uv_index":8.8,"aqi":112,"mosquito_risk":7,"arthritis_risk":5,"migraine_risk":4,"frizz_risk":1,"updated_at":"2026-02-27T14:16:52.643514+05:30"},{"city":"Kannur","state":"Kerala","latitude":11.8745,"longitude":75.3704,"temp":31.1,"humidity":58,"rain":0.0,"pressure":1005.3,"uv_index":8.65,"aqi":54,"mosquito_risk":0,"arthritis_risk":5,"migraine_risk":4,"frizz_risk":1,"updated_at":"2026-02-27T14:16:52.643522+05:30"},{"city":"Patna","state":"Bihar","latitude":25.5941,"longitude":85.1376,"temp":28.9,"humidity":32,"rain":0.0,"pressure":1000.8,"uv_index":6.9,"aqi":152,"mosquito_risk":4,"arthritis_risk":5,"migraine_risk":4,"frizz_risk":0,"updated_at":"2026-02-27T14:16:52.643529+05:30"},{"city":"Gaya","state":"Bihar","latitude":24.7914,"longitude":85.0002,"temp":28.2,"humidity":41,"rain":0.0,"pressure":994.3,"uv_index":7.0,"aqi":109,"mosquito_risk":4,"arthritis_risk":5,"migraine_risk":7,"frizz_risk":0,"updated_at":"2026-02-27T14:16:52.643537+05:30"},{"city":"Muzaffarpur","state":"Bihar","latitude":26.1209,"longitude":85.3647,"temp":28.8,"humidity":34,"rain":0.0,"pressure":1000.5,"uv_index":6.85,"aqi":156,"mosquito_risk":4,"arthritis_risk":5,"migraine_risk":4,"frizz_risk":0,"updated_at":"2026-02-27T14:16:52.643545+05:30"},{"city":"Bhagalpur","state":"Bihar","latitude":25.2425,"longitude":87.0117,"temp":27.7,"humidity":41,"rain":0.0,"pressure":1001.2,"uv_index":6.9,"aqi":122,"mosquito_risk":4,"arthritis_risk":5,"migraine_risk":4,"frizz_risk":0,"updated_at":"2026-02-27T14:16:52.643552+05:30"},{"city":"Ranchi","state":"Jharkhand","latitude":23.3441,"longitude":85.3096,"temp":28.2,"humidity":22,"rain":0.0,"pressure":937.4,"uv_index":7.65,"aqi":82,"mosquito_risk":4,"arthritis_risk":5,"migraine_risk":7,"frizz_risk":0,"updated_at":"2026-02-27T14:16:52.643560+05:30"},{"city":"Jamshedpur","state":"Jharkhand","latitude":22.8046,"longitude":86.2029,"temp":31.2,"humidity":26,"rain":0.0,"pressure":990.2,"uv_index":7.55,"aqi":126,"mosquito_risk":0,"arthritis_risk":5,"migraine_risk":7,"frizz_risk":0,"updated_at":"2026-02-27T14:16:52.643567+05:30"},{"city":"Dhanbad","state":"Jharkhand","latitude":23.7957,"longitude":86.4304,"temp":31.7,"humidity":20,"rain":0.0,"pressure":979.2,"uv_index":7.4,"aqi":131,"mosquito_risk":0,"arthritis_risk":5,"migraine_risk":7,"frizz_risk":0,"updated_at":"2026-02-27T14:16:52.643575+05:30"},{"city":"Bokaro","state":"Jharkhand","latitude":23.6693,"longitude":86.1511,"temp":31.1,"humidity":21,"rain":0.0,"pressure":983.2,"uv_index":7.45,"aqi":131,"mosquito_risk":0,"arthritis_risk":5,"migraine_risk":7,"frizz_risk":0,"updated_at":"2026-02-27T14:16:52.643582+05:30"},{"city":"Bhubaneswar","state":"Odisha","latitude":20.2961,"longitude":85.8245,"temp":33.9,"humidity":22,"rain":0.0,"pressure":1001.6,"uv_index":7.85,"aqi":125,"mosquito_risk":0,"arthritis_risk":5,"migraine_risk":4,"frizz_risk":0,"updated_at":"2026-02-27T14:16:52.643589+05:30"},{"city":"Cuttack","state":"Odisha","latitude":20.4625,"longitude":85.8828,"temp":33.9,"humidity":21,"rain":0.0,"pressure":1003.6,"uv_index":7.9,"aqi":125,"mosquito_risk":0,"arthritis_risk":5,"migraine_risk":4,"frizz_risk":0,"updated_at":"2026-02-27T14:16:52.643597+05:30"},{"city":"Rourkela","state":"Odisha","latitude":22.2604,"longitude":84.8536,"temp":32.7,"humidity":22,"rain":0.0,"pressure":984.6,"uv_index":7.45,"aqi":88,"mosquito_risk":0,"arthritis_risk":5,"migraine_risk":7,"frizz_risk":0,"updated_at":"2026-02-27T14:16:52.643603+05:30"},{"city":"Raipur","state":"Chhattisgarh","latitude":21.2514,"longitude":81.6296,"temp":32.6,"humidity":23,"rain":0.0,"pressure":974.9,"uv_index":7.55,"aqi":149,"mosquito_risk":0,"arthritis_risk":5,"migraine_risk":7,"frizz_risk":0,"updated_at":"2026-02-27T14:16:52.643610+05:30"},{"city":"Bhilai","state":"Chhattisgarh","latitude":21.1938,"longitude":81.3509,"temp":32.4,"humidity":25,"rain":0.0,"pressure":975.2,"uv_index":7.55,"aqi":153,"mosquito_risk":0,"arthritis_risk":5,"migraine_risk":7,"frizz_risk":0,"updated_at":"2026-02-27T14:16:52.643617+05:30"},{"city":"Guwahati","state":"Assam","latitude":26.1158,"longitude":91.7086,"temp":26.8,"humidity":56,"rain":0.0,"pressure":1000.5,"uv_index":6.9,"aqi":149,"mosquito_risk":4,"arthritis_risk":5,"migraine_risk":4,"frizz_risk":1,"updated_at":"2026-02-27T14:16:52.643625+05:30"},{"city":"Agartala","state":"Tripura","latitude":23.8315,"longitude":91.2868,"temp":28.7,"humidity":42,"rain":0.0,"pressure":1004.7,"uv_index":7.25,"aqi":163,"mosquito_risk":4,"arthritis_risk":5,"migraine_risk":4,"frizz_risk":0,"updated_at":"2026-02-27T14:16:52.643633+05:30"},{"city":"Shillong","state":"Meghalaya","latitude":25.5788,"longitude":91.8933,"temp":13.6,"humidity":61,"rain":0.0,"pressure":853.1,"uv_index":5.45,"aqi":124,"mosquito_risk":3,"arthritis_risk":5,"migraine_risk":3,"frizz_risk":0,"updated_at":"2026-02-27T14:16:52.643658+05:30"},{"city":"Imphal","state":"Manipur","latitude":24.817,"longitude":93.9368,"temp":20.7,"humidity":43,"rain":0.0,"pressure":920.5,"uv_index":7.45,"aqi":157,"mosquito_risk":0,"arthritis_risk":5,"migraine_risk":7,"frizz_risk":0,"updated_at":"2026-02-27T14:16:52.643665+05:30"},{"city":"Aizawl","state":"Mizoram","latitude":23.7271,"longitude":92.7176,"temp":22.5,"humidity":33,"rain":0.0,"pressure":891.1,"uv_index":7.4,"aqi":173,"mosquito_risk":0,"arthritis_risk":5,"migraine_risk":7,"frizz_risk":0,"updated_at":"2026-02-27T14:16:52.643671+05:30"},{"city":"Kohima","state":"Nagaland","latitude":25.6701,"longitude":94.1077,"temp":12.2,"humidity":92,"rain":0.0,"pressure":851.2,"uv_index":5.85,"aqi":157,"mosquito_risk":3,"arthritis_risk":10,"migraine_risk":3,"frizz_risk":0,"updated_at":"2026-02-27T14:16:52.643682+05:30"},{"city":"Gangtok","state":"Sikkim","latitude":27.3314,"longitude":88.6138,"temp":13.2,"humidity":81,"rain":0.0,"pressure":834.0,"uv_index":5.15,"aqi":158,"mosquito_risk":3,"arthritis_risk":10,"migraine_risk":3,"frizz_risk":0,"updated_at":"2026-02-27T14:16:52.643688+05:30"},{"city":"Siliguri","state":"West Bengal","latitude":26.7271,"longitude":88.3953,"temp":21.3,"humidity":64,"rain":0.0,"pressure":993.2,"uv_index":6.85,"aqi":164,"mosquito_risk":3,"arthritis_risk":5,"migraine_risk":7,"frizz_risk":0,"updated_at":"2026-02-27T14:16:55.939473+05:30"},{"city":"Durgapur","state":"West Bengal","latitude":23.5204,"longitude":87.3119,"temp":32.0,"humidity":21,"rain":0.0,"pressure":994.1,"uv_index":7.4,"aqi":114,"mosquito_risk":0,"arthritis_risk":5,"migraine_risk":7,"frizz_risk":0,"updated_at":"2026-02-27T14:16:55.939499+05:30"},{"city":"Asansol","state":"West Bengal","latitude":23.6739,"longitude":86.9524,"temp":32.4,"humidity":18,"rain":0.0,"pressure":992.8,"uv_index":7.4,"aqi":104,"mosquito_risk":0,"arthritis_risk":5,"migraine_risk":7,"frizz_risk":0,"updated_at":"2026-02-27T14:16:55.939508+05:30"},{"city":"Pondicherry","state":"Puducherry","latitude":11.9139,"longitude":79.8145,"temp":33.5,"humidity":46,"rain":0.0,"pressure":1006.6,"uv_index":8.7,"aqi":99,"mosquito_risk":0,"arthritis_risk":5,"migraine_risk":4,"frizz_risk":1,"updated_at":"2026-02-27T14:16:55.939515+05:30"},{"city":"Port Blair","state":"Andaman and Nicobar Islands","latitude":11.6234,"longitude":92.7265,"temp":27.1,"humidity":82,"rain":0.0,"pressure":1003.8,"uv_index":8.65,"aqi":33,"mosquito_risk":7,"arthritis_risk":5,"migraine_risk":4,"frizz_risk":1,"updated_at":"2026-02-27T14:16:55.939521+05:30"},{"city":"Haridwar","state":"Uttarakhand","latitude":29.9457,"longitude":78.1642,"temp":27.1,"humidity":43,"rain":0.0,"pressure":974.1,"uv_index":5.3,"aqi":140,"mosquito_risk":4,"arthritis_risk":5,"migraine_risk":3,"frizz_risk":0,"updated_at":"2026-02-27T14:16:55.939528+05:30"},{"city":"Rishikesh","state":"Uttarakhand","latitude":30.0869,"longitude":78.2676,"temp":26.4,"humidity":47,"rain":0.0,"pressure":966.7,"uv_index":5.4,"aqi":117,"mosquito_risk":4,"arthritis_risk":5,"migraine_risk":3,"frizz_risk":0,"updated_at":"2026-02-27T14:16:55.939533+05:30"},{"city":"Nainital","state":"Uttarakhand","latitude":29.3919,"longitude":79.4542,"temp":18.6,"humidity":68,"rain":0.0,"pressure":805.4,"uv_index":6.2,"aqi":139,"mosquito_risk":3,"arthritis_risk":5,"migraine_risk":7,"frizz_risk":0,"updated_at":"2026-02-27T14:16:55.939539+05:30"},{"city":"Mussoorie","state":"Uttarakhand","latitude":30.4599,"longitude":78.0664,"temp":18.1,"humidity":52,"rain":0.0,"pressure":802.0,"uv_index":5.75,"aqi":113,"mosquito_risk":0,"arthritis_risk":5,"migraine_risk":3,"frizz_risk":0,"updated_at":"2026-02-27T14:16:55.939545+05:30"},{"city":"Dharamshala","state":"Himachal Pradesh","latitude":32.219,"longitude":76.3234,"temp":21.3,"humidity":45,"rain":0.0,"pressure":868.2,"uv_index":5.95,"aqi":89,"mosquito_risk":0,"arthritis_risk":5,"migraine_risk":3,"frizz_risk":0,"updated_at":"2026-02-27T14:16:55.939551+05:30"},{"city":"Dalhousie","state":"Himachal Pradesh","latitude":32.5387,"longitude":75.971,"temp":20.8,"humidity":29,"rain":0.0,"pressure":803.8,"uv_index":6.2,"aqi":133,"mosquito_risk":0,"arthritis_risk":5,"migraine_risk":7,"frizz_risk":0,"updated_at":"2026-02-27T14:16:55.939557+05:30"},{"city":"Patiala","state":"Punjab","latitude":30.3398,"longitude":76.3869,"temp":27.5,"humidity":44,"rain":0.0,"pressure":978.4,"uv_index":5.4,"aqi":167,"mosquito_risk":4,"arthritis_risk":5,"migraine_risk":3,"frizz_risk":0,"updated_at":"2026-02-27T14:16:55.939564+05:30"},{"city":"Bhatinda","state":"Punjab","latitude":30.211,"longitude":74.9455,"temp":28.8,"humidity":40,"rain":0.0,"pressure":983.6,"uv_index":6.1,"aqi":160,"mosquito_risk":4,"arthritis_risk":5,"migraine_risk":7,"frizz_risk":0,"updated_at":"2026-02-27T14:16:55.939570+05:30"},{"city":"Rohtak","state":"Haryana","latitude":28.8955,"longitude":76.6066,"temp":29.5,"humidity":35,"rain":0.0,"pressure":982.1,"uv_index":5.6,"aqi":153,"mosquito_risk":4,"arthritis_risk":5,"migraine_risk":3,"frizz_risk":0,"updated_at":"2026-02-27T14:16:55.939575+05:30"},{"city":"Panipat","state":"Haryana","latitude":29.3909,"longitude":76.9635,"temp":28.1,"humidity":43,"rain":0.0,"pressure":980.8,"uv_index":5.4,"aqi":187,"mosquito_risk":4,"arthritis_risk":5,"migraine_risk":3,"frizz_risk":0,"updated_at":"2026-02-27T14:16:55.939581+05:30"},{"city":"Mathura","state":"Uttar Pradesh","latitude":27.4924,"longitude":77.6737,"temp":30.2,"humidity":35,"rain":0.0,"pressure":987.3,"uv_index":5.85,"aqi":128,"mosquito_risk":0,"arthritis_risk":5,"migraine_risk":3,"frizz_risk":0,"updated_at":"2026-02-27T14:16:55.939587+05:30"},{"city":"Vrindavan","state":"Uttar Pradesh","latitude":27.5823,"longitude":77.7027,"temp":29.8,"humidity":36,"rain":0.0,"pressure":987.9,"uv_index":5.8,"aqi":128,"mosquito_risk":4,"arthritis_risk":5,"migraine_risk":3,"frizz_risk":0,"updated_at":"2026-02-27T14:16:55.939592+05:30"},{"city":"Ayodhya","state":"Uttar Pradesh","latitude":26.7922,"longitude":82.1998,"temp":29.1,"humidity":35,"rain":0.0,"pressure":995.6,"uv_index":6.2,"aqi":150,"mosquito_risk":4,"arthritis_risk":5,"migraine_risk":7,"frizz_risk":0,"updated_at":"2026-02-27T14:16:55.939598+05:30"},{"city":"Ratlam","state":"Madhya Pradesh","latitude":23.3315,"longitude":75.0367,"temp":29.1,"humidity":40,"rain":0.0,"pressure":954.6,"uv_index":7.1,"aqi":75,"mosquito_risk":4,"arthritis_risk":5,"migraine_risk":7,"frizz_risk":0,"updated_at":"2026-02-27T14:16:55.939604+05:30"},{"city":"Sagar","state":"Madhya Pradesh","latitude":23.8388,"longitude":78.7378,"temp":30.7,"humidity":27,"rain":0.0,"pressure":950.5,"uv_index":7.05,"aqi":60,"mosquito_risk":0,"arthritis_risk":5,"migraine_risk":7,"frizz_risk":0,"updated_at":"2026-02-27T14:16:55.939610+05:30"},{"city":"Satna","state":"Madhya Pradesh","latitude":24.6005,"longitude":80.8322,"temp":32.4,"humidity":21,"rain":0.0,"pressure":971.5,"uv_index":7.0,"aqi":71,"mosquito_risk":0,"arthritis_risk":5,"migraine_risk":7,"frizz_risk":0,"updated_at":"2026-02-27T14:16:55.939616+05:30"},{"city":"Akola","state":"Maharashtra","latitude":20.7002,"longitude":77.0082,"temp":34.1,"humidity":29,"rain":0.0,"pressure":974.4,"uv_index":7.55,"aqi":120,"mosquito_risk":0,"arthritis_risk":5,"migraine_risk":7,"frizz_risk":0,"updated_at":"2026-02-27T14:16:55.939623+05:30"},{"city":"Amravati","state":"Maharashtra","latitude":20.9374,"longitude":77.7796,"temp":33.2,"humidity":29,"rain":0.0,"pressure":966.8,"uv_index":7.5,"aqi":129,"mosquito_risk":0,"arthritis_risk":5,"migraine_risk":7,"frizz_risk":0,"updated_at":"2026-02-27T14:16:55.939630+05:30"},{"city":"Latur","state":"Maharashtra","latitude":18.4088,"longitude":76.5604,"temp":31.7,"humidity":26,"rain":0.0,"pressure":938.9,"uv_index":8.0,"aqi":112,"mosquito_risk":0,"arthritis_risk":5,"migraine_risk":7,"frizz_risk":0,"updated_at":"2026-02-27T14:16:55.939636+05:30"},{"city":"Nanded","state":"Maharashtra","latitude":19.1383,"longitude":77.3091,"temp":34.8,"humidity":26,"rain":0.0,"pressure":967.5,"uv_index":7.75,"aqi":147,"mosquito_risk":0,"arthritis_risk":5,"migraine_risk":7,"frizz_risk":0,"updated_at":"2026-02-27T14:16:55.939669+05:30"},{"city":"Gulbarga","state":"Karnataka","latitude":17.3297,"longitude":76.8343,"temp":33.7,"humidity":26,"rain":0.0,"pressure":957.7,"uv_index":8.1,"aqi":110,"mosquito_risk":0,"arthritis_risk":5,"migraine_risk":7,"frizz_risk":0,"updated_at":"2026-02-27T14:16:55.939675+05:30"},{"city":"Bidar","state":"Karnataka","latitude":17.9104,"longitude":77.5199,"temp":31.6,"humidity":29,"rain":0.0,"pressure":934.8,"uv_index":8.05,"aqi":136,"mosquito_risk":0,"arthritis_risk":5,"migraine_risk":7,"frizz_risk":0,"updated_at":"2026-02-27T14:16:55.939681+05:30"},{"city":"Hospet","state":"Karnataka","latitude":15.2689,"longitude":76.3909,"temp":33.7,"humidity":27,"rain":0.0,"pressure":954.3,"uv_index":8.4,"aqi":91,"mosquito_risk":0,"arthritis_risk":5,"migraine_risk":7,"frizz_risk":0,"updated_at":"2026-02-27T14:16:55.939687+05:30"},{"city":"Tirupur","state":"Tamil Nadu","latitude":11.1085,"longitude":77.3411,"temp":32.4,"humidity":39,"rain":0.0,"pressure":973.5,"uv_index":7.1,"aqi":140,"mosquito_risk":0,"arthritis_risk":5,"migraine_risk":7,"frizz_risk":1,"updated_at":"2026-02-27T14:16:55.939693+05:30"},{"city":"Alappuzha","state":"Kerala","latitude":9.4981,"longitude":76.3388,"temp":27.6,"humidity":80,"rain":0.0,"pressure":1007.0,"uv_index":8.7,"aqi":99,"mosquito_risk":7,"arthritis_risk":5,"migraine_risk":4,"frizz_risk":1,"updated_at":"2026-02-27T14:16:55.939698+05:30"},{"city":"Munnar","state":"Kerala","latitude":10.0889,"longitude":77.0595,"temp":25.4,"humidity":54,"rain":0.0,"pressure":856.4,"uv_index":6.35,"aqi":99,"mosquito_risk":4,"arthritis_risk":5,"migraine_risk":7,"frizz_risk":0,"updated_at":"2026-02-27T14:16:55.939705+05:30"},{"city":"Silchar","state":"Assam","latitude":24.8333,"longitude":92.7789,"temp":28.6,"humidity":40,"rain":0.0,"pressure":1003.4,"uv_index":7.2,"aqi":164,"mosquito_risk":4,"arthritis_risk":5,"migraine_risk":4,"frizz_risk":0,"updated_at":"2026-02-27T14:16:55.939710+05:30"},{"city":"Dibrugarh","state":"Assam","latitude":27.4728,"longitude":94.912,"temp":22.7,"humidity":69,"rain":0.0,"pressure":995.4,"uv_index":6.95,"aqi":155,"mosquito_risk":3,"arthritis_risk":5,"migraine_risk":7,"frizz_risk":1,"updated_at":"2026-02-27T14:16:55.939718+05:30"}]