[{"city":"Delhi","state":"Delhi","latitude":28.6139,"longitude":77.209,"temp":33.3,"humidity":54,"rain":0.0,"pressure":974.1,"uv_index":4.2,"wind_gusts":37.8,"aqi":388,"pm10":407.0,"pm2_5":128.5,"no2":39.9,"co":387.0,"o3":40.0,"so2":32.5,"mosquito_risk":0,"arthritis_risk":5,"migraine_risk":3,"frizz_risk":1,"updated_at":"2026-06-30T03:39:56.235520+05:30"},{"city":"Mumbai","state":"Maharashtra","latitude":19.076,"longitude":72.8777,"temp":26.3,"humidity":93,"rain":0.5,"pressure":1004.1,"uv_index":1.05,"wind_gusts":37.1,"aqi":48,"pm10":8.9,"pm2_5":5.6,"no2":7.6,"co":112.0,"o3":50.0,"so2":6.8,"mosquito_risk":10,"arthritis_risk":5,"migraine_risk":0,"frizz_risk":1,"updated_at":"2026-06-30T03:39:56.235567+05:30"},{"city":"Bangalore","state":"Karnataka","latitude":12.9716,"longitude":77.5946,"temp":20.5,"humidity":91,"rain":0.0,"pressure":909.9,"uv_index":8.15,"wind_gusts":60.8,"aqi":18,"pm10":3.2,"pm2_5":2.4,"no2":5.1,"co":124.0,"o3":41.0,"so2":2.5,"mosquito_risk":3,"arthritis_risk":5,"migraine_risk":7,"frizz_risk":1,"updated_at":"2026-06-30T03:39:56.235584+05:30"},{"city":"Hyderabad","state":"Telangana","latitude":17.385,"longitude":78.4867,"temp":24.5,"humidity":87,"rain":0.0,"pressure":949.4,"uv_index":6.95,"wind_gusts":45.7,"aqi":29,"pm10":4.1,"pm2_5":3.6,"no2":7.5,"co":156.0,"o3":40.0,"so2":3.1,"mosquito_risk":3,"arthritis_risk":5,"migraine_risk":7,"frizz_risk":1,"updated_at":"2026-06-30T03:39:56.235594+05:30"},{"city":"Chennai","state":"Tamil Nadu","latitude":13.0827,"longitude":80.2707,"temp":27.3,"humidity":78,"rain":0.0,"pressure":1004.0,"uv_index":7.25,"wind_gusts":45.4,"aqi":53,"pm10":7.1,"pm2_5":5.9,"no2":12.1,"co":213.0,"o3":40.0,"so2":8.1,"mosquito_risk":7,"arthritis_risk":5,"migraine_risk":4,"frizz_risk":1,"updated_at":"2026-06-30T03:39:56.235603+05:30"},{"city":"Kolkata","state":"West Bengal","latitude":22.5726,"longitude":88.3639,"temp":27.5,"humidity":97,"rain":0.0,"pressure":999.2,"uv_index":9.0,"wind_gusts":27.7,"aqi":104,"pm10":56.7,"pm2_5":56.1,"no2":20.5,"co":460.0,"o3":70.0,"so2":11.9,"mosquito_risk":7,"arthritis_risk":5,"migraine_risk":7,"frizz_risk":1,"updated_at":"2026-06-30T03:39:56.235610+05:30"},{"city":"Pune","state":"Maharashtra","latitude":18.5204,"longitude":73.8567,"temp":22.9,"humidity":95,"rain":0.1,"pressure":943.9,"uv_index":1.05,"wind_gusts":38.2,"aqi":26,"pm10":4.1,"pm2_5":3.9,"no2":7.4,"co":115.0,"o3":35.0,"so2":6.7,"mosquito_risk":6,"arthritis_risk":5,"migraine_risk":3,"frizz_risk":1,"updated_at":"2026-06-30T03:39:56.235617+05:30"},{"city":"Ahmedabad","state":"Gujarat","latitude":23.0225,"longitude":72.5714,"temp":31.0,"humidity":62,"rain":0.0,"pressure":995.7,"uv_index":6.2,"wind_gusts":41.0,"aqi":60,"pm10":26.5,"pm2_5":14.0,"no2":6.5,"co":108.0,"o3":45.0,"so2":5.1,"mosquito_risk":3,"arthritis_risk":5,"migraine_risk":7,"frizz_risk":1,"updated_at":"2026-06-30T03:39:56.235624+05:30"},{"city":"Jaipur","state":"Rajasthan","latitude":26.9124,"longitude":75.7873,"temp":31.1,"humidity":50,"rain":0.0,"pressure":952.4,"uv_index":7.75,"wind_gusts":42.1,"aqi":143,"pm10":410.7,"pm2_5":70.8,"no2":7.9,"co":153.0,"o3":51.0,"so2":4.1,"mosquito_risk":0,"arthritis_risk":5,"migraine_risk":7,"frizz_risk":1,"updated_at":"2026-06-30T03:39:56.235635+05:30"},{"city":"Lucknow","state":"Uttar Pradesh","latitude":26.8467,"longitude":80.9462,"temp":28.6,"humidity":84,"rain":0.0,"pressure":985.5,"uv_index":7.55,"wind_gusts":28.1,"aqi":125,"pm10":39.6,"pm2_5":33.4,"no2":12.5,"co":270.0,"o3":78.0,"so2":5.7,"mosquito_risk":7,"arthritis_risk":5,"migraine_risk":7,"frizz_risk":1,"updated_at":"2026-06-30T03:39:56.235644+05:30"},{"city":"Kanpur","state":"Uttar Pradesh","latitude":26.4499,"longitude":80.3319,"temp":29.9,"humidity":78,"rain":0.0,"pressure":983.7,"uv_index":7.65,"wind_gusts":28.4,"aqi":138,"pm10":73.3,"pm2_5":34.6,"no2":16.6,"co":207.0,"o3":61.0,"so2":7.9,"mosquito_risk":7,"arthritis_risk":5,"migraine_risk":7,"frizz_risk":1,"updated_at":"2026-06-30T03:39:56.235650+05:30"},{"city":"Chandigarh","state":"Chandigarh","latitude":30.7333,"longitude":76.7794,"temp":30.3,"humidity":63,"rain":0.0,"pressure":960.9,"uv_index":7.4,"wind_gusts":37.1,"aqi":128,"pm10":56.8,"pm2_5":49.0,"no2":29.9,"co":243.0,"o3":33.0,"so2":7.3,"mosquito_risk":3,"arthritis_risk":5,"migraine_risk":7,"frizz_risk":1,"updated_at":"2026-06-30T03:39:56.235657+05:30"},{"city":"Srinagar","state":"Jammu and Kashmir","latitude":34.0837,"longitude":74.7973,"temp":20.8,"humidity":74,"rain":0.0,"pressure":835.0,"uv_index":9.1,"wind_gusts":23.4,"aqi":90,"pm10":51.9,"pm2_5":45.8,"no2":35.3,"co":401.0,"o3":15.0,"so2":2.4,"mosquito_risk":3,"arthritis_risk":5,"migraine_risk":7,"frizz_risk":1,"updated_at":"2026-06-30T03:39:56.235663+05:30"},{"city":"Jammu","state":"Jammu and Kashmir","latitude":32.7266,"longitude":74.857,"temp":27.5,"humidity":90,"rain":0.2,"pressure":964.3,"uv_index":8.65,"wind_gusts":41.4,"aqi":135,"pm10":75.2,"pm2_5":59.8,"no2":22.1,"co":214.0,"o3":55.0,"so2":5.6,"mosquito_risk":10,"arthritis_risk":5,"migraine_risk":7,"frizz_risk":1,"updated_at":"2026-06-30T03:39:56.235669+05:30"},{"city":"Amritsar","state":"Punjab","latitude":31.634,"longitude":74.8723,"temp":30.0,"humidity":72,"rain":0.0,"pressure":971.1,"uv_index":8.5,"wind_gusts":31.3,"aqi":150,"pm10":92.7,"pm2_5":68.9,"no2":36.5,"co":356.0,"o3":33.0,"so2":6.9,"mosquito_risk":7,"arthritis_risk":5,"migraine_risk":7,"frizz_risk":1,"updated_at":"2026-06-30T03:39:56.235675+05:30"},{"city":"Ludhiana","state":"Punjab","latitude":30.901,"longitude":75.8573,"temp":32.1,"humidity":56,"rain":0.0,"pressure":969.4,"uv_index":6.4,"wind_gusts":29.5,"aqi":160,"pm10":176.0,"pm2_5":82.4,"no2":24.1,"co":384.0,"o3":58.0,"so2":16.3,"mosquito_risk":0,"arthritis_risk":5,"migraine_risk":7,"frizz_risk":1,"updated_at":"2026-06-30T03:39:56.235681+05:30"},{"city":"Jalandhar","state":"Punjab","latitude":31.326,"longitude":75.5762,"temp":31.7,"humidity":60,"rain":0.0,"pressure":970.2,"uv_index":7.6,"wind_gusts":27.4,"aqi":155,"pm10":103.8,"pm2_5":70.8,"no2":26.0,"co":301.0,"o3":57.0,"so2":16.0,"mosquito_risk":0,"arthritis_risk":5,"migraine_risk":7,"frizz_risk":1,"updated_at":"2026-06-30T03:39:56.235688+05:30"},{"city":"Dehradun","state":"Uttarakhand","latitude":30.6284,"longitude":78.0322,"temp":17.7,"humidity":100,"rain":0.0,"pressure":825.5,"uv_index":5.4,"wind_gusts":28.8,"aqi":66,"pm10":21.1,"pm2_5":17.1,"no2":12.0,"co":245.0,"o3":63.0,"so2":0.7,"mosquito_risk":3,"arthritis_risk":10,"migraine_risk":3,"frizz_risk":1,"updated_at":"2026-06-30T03:39:56.235694+05:30"},{"city":"Shimla","state":"Himachal Pradesh","latitude":31.1048,"longitude":77.1734,"temp":14.5,"humidity":96,"rain":0.0,"pressure":779.1,"uv_index":6.1,"wind_gusts":38.5,"aqi":85,"pm10":39.8,"pm2_5":31.8,"no2":13.2,"co":181.0,"o3":62.0,"so2":0.5,"mosquito_risk":3,"arthritis_risk":10,"migraine_risk":7,"frizz_risk":0,"updated_at":"2026-06-30T03:39:56.235700+05:30"},{"city":"Manali","state":"Himachal Pradesh","latitude":32.2396,"longitude":77.1887,"temp":20.4,"humidity":70,"rain":0.0,"pressure":816.1,"uv_index":5.55,"wind_gusts":36.0,"aqi":58,"pm10":7.7,"pm2_5":6.3,"no2":67.3,"co":239.0,"o3":18.0,"so2":0.1,"mosquito_risk":3,"arthritis_risk":5,"migraine_risk":3,"frizz_risk":0,"updated_at":"2026-06-30T03:39:56.235709+05:30"},{"city":"Gurgaon","state":"Haryana","latitude":28.4595,"longitude":77.0266,"temp":32.8,"humidity":47,"rain":0.0,"pressure":972.6,"uv_index":5.15,"wind_gusts":39.2,"aqi":616,"pm10":610.9,"pm2_5":134.6,"no2":26.6,"co":313.0,"o3":42.0,"so2":12.7,"mosquito_risk":0,"arthritis_risk":5,"migraine_risk":3,"frizz_risk":1,"updated_at":"2026-06-30T03:39:56.235717+05:30"},{"city":"Noida","state":"Uttar Pradesh","latitude":28.5355,"longitude":77.391,"temp":30.4,"humidity":71,"rain":0.0,"pressure":975.4,"uv_index":5.35,"wind_gusts":26.3,"aqi":616,"pm10":610.9,"pm2_5":134.6,"no2":26.6,"co":485.0,"o3":42.0,"so2":12.7,"mosquito_risk":3,"arthritis_risk":5,"migraine_risk":3,"frizz_risk":1,"updated_at":"2026-06-30T03:39:56.235724+05:30"},{"city":"Ghaziabad","state":"Uttar Pradesh","latitude":28.6692,"longitude":77.4538,"temp":30.3,"humidity":69,"rain":0.0,"pressure":974.0,"uv_index":4.55,"wind_gusts":32.8,"aqi":175,"pm10":258.0,"pm2_5":97.6,"no2":20.8,"co":538.0,"o3":74.0,"so2":15.7,"mosquito_risk":3,"arthritis_risk":5,"migraine_risk":3,"frizz_risk":1,"updated_at":"2026-06-30T03:39:56.235730+05:30"},{"city":"Faridabad","state":"Haryana","latitude":28.4089,"longitude":77.3178,"temp":31.3,"humidity":66,"rain":0.0,"pressure":974.7,"uv_index":5.85,"wind_gusts":37.8,"aqi":616,"pm10":610.9,"pm2_5":134.6,"no2":26.6,"co":548.0,"o3":42.0,"so2":12.7,"mosquito_risk":3,"arthritis_risk":5,"migraine_risk":3,"frizz_risk":1,"updated_at":"2026-06-30T03:39:56.235739+05:30"},{"city":"Meerut","state":"Uttar Pradesh","latitude":28.9845,"longitude":77.7064,"temp":31.2,"humidity":69,"rain":0.0,"pressure":973.2,"uv_index":7.05,"wind_gusts":32.0,"aqi":175,"pm10":258.0,"pm2_5":97.6,"no2":20.8,"co":383.0,"o3":74.0,"so2":15.7,"mosquito_risk":3,"arthritis_risk":5,"migraine_risk":7,"frizz_risk":1,"updated_at":"2026-06-30T03:39:56.235746+05:30"},{"city":"Agra","state":"Uttar Pradesh","latitude":27.1767,"longitude":78.0081,"temp":32.2,"humidity":56,"rain":0.0,"pressure":979.0,"uv_index":8.15,"wind_gusts":34.6,"aqi":505,"pm10":149.5,"pm2_5":58.2,"no2":21.6,"co":193.0,"o3":46.0,"so2":8.7,"mosquito_risk":0,"arthritis_risk":5,"migraine_risk":7,"frizz_risk":1,"updated_at":"2026-06-30T03:39:56.235752+05:30"},{"city":"Varanasi","state":"Uttar Pradesh","latitude":25.3176,"longitude":82.9739,"temp":27.9,"humidity":90,"rain":0.1,"pressure":990.3,"uv_index":8.5,"wind_gusts":24.5,"aqi":75,"pm10":19.9,"pm2_5":17.4,"no2":24.5,"co":353.0,"o3":58.0,"so2":27.2,"mosquito_risk":10,"arthritis_risk":5,"migraine_risk":7,"frizz_risk":1,"updated_at":"2026-06-30T03:39:56.235759+05:30"},{"city":"Prayagraj","state":"Uttar Pradesh","latitude":25.4358,"longitude":81.8463,"temp":31.2,"humidity":68,"rain":0.0,"pressure":988.2,"uv_index":8.6,"wind_gusts":44.3,"aqi":74,"pm10":30.4,"pm2_5":25.7,"no2":18.2,"co":252.0,"o3":57.0,"so2":9.5,"mosquito_risk":3,"arthritis_risk":5,"migraine_risk":7,"frizz_risk":1,"updated_at":"2026-06-30T03:39:56.235765+05:30"},{"city":"Gorakhpur","state":"Uttar Pradesh","latitude":26.7606,"longitude":83.3732,"temp":25.9,"humidity":95,"rain":0.0,"pressure":990.6,"uv_index":8.65,"wind_gusts":43.2,"aqi":116,"pm10":45.2,"pm2_5":38.5,"no2":7.8,"co":404.0,"o3":104.0,"so2":4.2,"mosquito_risk":7,"arthritis_risk":5,"migraine_risk":7,"frizz_risk":1,"updated_at":"2026-06-30T03:39:56.235771+05:30"},{"city":"Bareilly","state":"Uttar Pradesh","latitude":28.367,"longitude":79.4304,"temp":27.9,"humidity":93,"rain":0.2,"pressure":979.8,"uv_index":7.6,"wind_gusts":34.6,"aqi":136,"pm10":49.7,"pm2_5":38.5,"no2":8.6,"co":282.0,"o3":102.0,"so2":3.9,"mosquito_risk":10,"arthritis_risk":5,"migraine_risk":7,"frizz_risk":1,"updated_at":"2026-06-30T03:39:56.235780+05:30"},{"city":"Aligarh","state":"Uttar Pradesh","latitude":27.8974,"longitude":78.088,"temp":30.9,"humidity":72,"rain":0.0,"pressure":976.7,"uv_index":7.1,"wind_gusts":46.8,"aqi":327,"pm10":336.2,"pm2_5":104.8,"no2":18.9,"co":526.0,"o3":72.0,"so2":11.8,"mosquito_risk":3,"arthritis_risk":5,"migraine_risk":7,"frizz_risk":1,"updated_at":"2026-06-30T03:39:56.235786+05:30"},{"city":"Moradabad","state":"Uttar Pradesh","latitude":28.8386,"longitude":78.7733,"temp":27.8,"humidity":89,"rain":0.1,"pressure":976.4,"uv_index":6.2,"wind_gusts":32.0,"aqi":156,"pm10":56.7,"pm2_5":43.0,"no2":10.0,"co":311.0,"o3":105.0,"so2":11.9,"mosquito_risk":10,"arthritis_risk":5,"migraine_risk":7,"frizz_risk":1,"updated_at":"2026-06-30T03:39:56.235792+05:30"},{"city":"Saharanpur","state":"Uttar Pradesh","latitude":29.9637,"longitude":77.546,"temp":29.6,"humidity":73,"rain":0.0,"pressure":968.1,"uv_index":7.5,"wind_gusts":34.6,"aqi":155,"pm10":83.8,"pm2_5":64.3,"no2":11.6,"co":296.0,"o3":91.0,"so2":9.9,"mosquito_risk":7,"arthritis_risk":5,"migraine_risk":7,"frizz_risk":1,"updated_at":"2026-06-30T03:39:56.235799+05:30"},{"city":"Jhansi","state":"Uttar Pradesh","latitude":25.4484,"longitude":78.5685,"temp":31.6,"humidity":58,"rain":0.0,"pressure":970.6,"uv_index":8.05,"wind_gusts":40.3,"aqi":83,"pm10":21.6,"pm2_5":16.2,"no2":7.4,"co":187.0,"o3":76.0,"so2":10.0,"mosquito_risk":0,"arthritis_risk":5,"migraine_risk":7,"frizz_risk":1,"updated_at":"2026-06-30T03:39:59.501142+05:30"},{"city":"Surat","state":"Gujarat","latitude":21.1702,"longitude":72.8311,"temp":28.2,"humidity":81,"rain":0.1,"pressure":1001.2,"uv_index":1.3,"wind_gusts":46.1,"aqi":68,"pm10":20.5,"pm2_5":15.8,"no2":23.5,"co":298.0,"o3":27.0,"so2":35.4,"mosquito_risk":10,"arthritis_risk":5,"migraine_risk":0,"frizz_risk":1,"updated_at":"2026-06-30T03:39:59.501181+05:30"},{"city":"Vadodara","state":"Gujarat","latitude":22.3072,"longitude":73.1812,"temp":30.1,"humidity":72,"rain":0.0,"pressure":998.2,"uv_index":3.2,"wind_gusts":51.1,"aqi":62,"pm10":16.2,"pm2_5":12.8,"no2":17.3,"co":116.0,"o3":27.0,"so2":17.8,"mosquito_risk":3,"arthritis_risk":5,"migraine_risk":3,"frizz_risk":1,"updated_at":"2026-06-30T03:39:59.501192+05:30"},{"city":"Rajkot","state":"Gujarat","latitude":22.3039,"longitude":70.8022,"temp":29.2,"humidity":69,"rain":0.0,"pressure":988.2,"uv_index":5.7,"wind_gusts":45.0,"aqi":56,"pm10":25.6,"pm2_5":12.5,"no2":4.6,"co":95.0,"o3":46.0,"so2":4.8,"mosquito_risk":7,"arthritis_risk":5,"migraine_risk":3,"frizz_risk":1,"updated_at":"2026-06-30T03:39:59.501201+05:30"},{"city":"Thane","state":"Maharashtra","latitude":19.2183,"longitude":72.9781,"temp":25.3,"humidity":98,"rain":0.3,"pressure":1003.5,"uv_index":0.85,"wind_gusts":26.6,"aqi":48,"pm10":8.9,"pm2_5":5.6,"no2":7.6,"co":153.0,"o3":50.0,"so2":6.8,"mosquito_risk":10,"arthritis_risk":5,"migraine_risk":0,"frizz_risk":1,"updated_at":"2026-06-30T03:39:59.501209+05:30"},{"city":"Nagpur","state":"Maharashtra","latitude":21.1458,"longitude":79.0882,"temp":25.0,"humidity":96,"rain":0.1,"pressure":967.9,"uv_index":4.65,"wind_gusts":34.9,"aqi":76,"pm10":26.2,"pm2_5":21.7,"no2":13.1,"co":175.0,"o3":62.0,"so2":8.4,"mosquito_risk":10,"arthritis_risk":5,"migraine_risk":3,"frizz_risk":1,"updated_at":"2026-06-30T03:39:59.501217+05:30"},{"city":"Nashik","state":"Maharashtra","latitude":19.9975,"longitude":73.7898,"temp":23.3,"humidity":92,"rain":0.0,"pressure":940.7,"uv_index":0.8,"wind_gusts":46.1,"aqi":39,"pm10":12.3,"pm2_5":8.8,"no2":13.3,"co":124.0,"o3":33.0,"so2":16.8,"mosquito_risk":3,"arthritis_risk":5,"migraine_risk":3,"frizz_risk":1,"updated_at":"2026-06-30T03:39:59.501224+05:30"},{"city":"Aurangabad","state":"Maharashtra","latitude":19.8762,"longitude":75.3433,"temp":24.3,"humidity":81,"rain":0.0,"pressure":939.5,"uv_index":1.9,"wind_gusts":40.7,"aqi":41,"pm10":20.9,"pm2_5":13.0,"no2":10.8,"co":165.0,"o3":48.0,"so2":11.2,"mosquito_risk":3,"arthritis_risk":5,"migraine_risk":3,"frizz_risk":1,"updated_at":"2026-06-30T03:39:59.501231+05:30"},{"city":"Solapur","state":"Maharashtra","latitude":17.6599,"longitude":75.9064,"temp":24.0,"humidity":90,"rain":0.0,"pressure":953.8,"uv_index":4.2,"wind_gusts":48.2,"aqi":21,"pm10":4.0,"pm2_5":3.7,"no2":7.4,"co":138.0,"o3":33.0,"so2":2.2,"mosquito_risk":3,"arthritis_risk":5,"migraine_risk":3,"frizz_risk":1,"updated_at":"2026-06-30T03:39:59.501239+05:30"},{"city":"Kolhapur","state":"Maharashtra","latitude":16.705,"longitude":74.2433,"temp":22.3,"humidity":96,"rain":0.0,"pressure":944.8,"uv_index":2.05,"wind_gusts":56.9,"aqi":20,"pm10":2.1,"pm2_5":2.1,"no2":3.4,"co":109.0,"o3":45.0,"so2":1.4,"mosquito_risk":3,"arthritis_risk":5,"migraine_risk":3,"frizz_risk":1,"updated_at":"2026-06-30T03:39:59.501246+05:30"},{"city":"Goa","state":"Goa","latitude":15.2993,"longitude":74.124,"temp":24.5,"humidity":96,"rain":0.3,"pressure":996.9,"uv_index":4.35,"wind_gusts":26.6,"aqi":29,"pm10":13.4,"pm2_5":8.0,"no2":1.9,"co":210.0,"o3":49.0,"so2":0.5,"mosquito_risk":6,"arthritis_risk":5,"migraine_risk":3,"frizz_risk":1,"updated_at":"2026-06-30T03:39:59.501254+05:30"},{"city":"Jodhpur","state":"Rajasthan","latitude":26.2389,"longitude":73.0243,"temp":32.0,"humidity":51,"rain":0.0,"pressure":975.4,"uv_index":8.45,"wind_gusts":45.0,"aqi":145,"pm10":310.1,"pm2_5":70.3,"no2":3.3,"co":113.0,"o3":55.0,"so2":2.5,"mosquito_risk":0,"arthritis_risk":5,"migraine_risk":7,"frizz_risk":1,"updated_at":"2026-06-30T03:39:59.501261+05:30"},{"city":"Udaipur","state":"Rajasthan","latitude":24.5854,"longitude":73.7125,"temp":26.6,"humidity":72,"rain":0.0,"pressure":940.1,"uv_index":8.55,"wind_gusts":35.6,"aqi":56,"pm10":23.3,"pm2_5":15.9,"no2":8.8,"co":144.0,"o3":50.0,"so2":7.0,"mosquito_risk":7,"arthritis_risk":5,"migraine_risk":7,"frizz_risk":1,"updated_at":"2026-06-30T03:39:59.501268+05:30"},{"city":"Kota","state":"Rajasthan","latitude":25.2138,"longitude":75.8648,"temp":30.1,"humidity":62,"rain":0.0,"pressure":971.3,"uv_index":8.35,"wind_gusts":37.4,"aqi":67,"pm10":19.4,"pm2_5":15.1,"no2":7.5,"co":185.0,"o3":59.0,"so2":5.7,"mosquito_risk":3,"arthritis_risk":5,"migraine_risk":7,"frizz_risk":1,"updated_at":"2026-06-30T03:39:59.501275+05:30"},{"city":"Bikaner","state":"Rajasthan","latitude":28.0229,"longitude":73.3119,"temp":33.4,"humidity":45,"rain":0.0,"pressure":973.1,"uv_index":8.5,"wind_gusts":39.6,"aqi":152,"pm10":278.5,"pm2_5":88.9,"no2":2.3,"co":107.0,"o3":57.0,"so2":2.7,"mosquito_risk":0,"arthritis_risk":5,"migraine_risk":7,"frizz_risk":1,"updated_at":"2026-06-30T03:39:59.501282+05:30"},{"city":"Ajmer","state":"Rajasthan","latitude":26.4499,"longitude":74.6399,"temp":29.7,"humidity":55,"rain":0.0,"pressure":947.7,"uv_index":8.35,"wind_gusts":47.9,"aqi":73,"pm10":25.1,"pm2_5":13.4,"no2":5.9,"co":141.0,"o3":54.0,"so2":3.2,"mosquito_risk":4,"arthritis_risk":5,"migraine_risk":7,"frizz_risk":1,"updated_at":"2026-06-30T03:39:59.501290+05:30"},{"city":"Gwalior","state":"Madhya Pradesh","latitude":26.2183,"longitude":78.1828,"temp":32.2,"humidity":49,"rain":0.0,"pressure":975.2,"uv_index":7.7,"wind_gusts":40.7,"aqi":94,"pm10":26.5,"pm2_5":18.5,"no2":10.1,"co":151.0,"o3":57.0,"so2":6.5,"mosquito_risk":0,"arthritis_risk":5,"migraine_risk":7,"frizz_risk":1,"updated_at":"2026-06-30T03:39:59.501296+05:30"},{"city":"Indore","state":"Madhya Pradesh","latitude":22.7196,"longitude":75.8577,"temp":25.1,"humidity":87,"rain":0.0,"pressure":942.4,"uv_index":4.25,"wind_gusts":36.0,"aqi":68,"pm10":25.7,"pm2_5":20.1,"no2":9.6,"co":197.0,"o3":59.0,"so2":9.8,"mosquito_risk":7,"arthritis_risk":5,"migraine_risk":3,"frizz_risk":1,"updated_at":"2026-06-30T03:39:59.501303+05:30"},{"city":"Bhopal","state":"Madhya Pradesh","latitude":23.2599,"longitude":77.4126,"temp":25.6,"humidity":88,"rain":0.0,"pressure":947.9,"uv_index":6.2,"wind_gusts":40.0,"aqi":72,"pm10":20.6,"pm2_5":18.1,"no2":9.6,"co":224.0,"o3":52.0,"so2":4.5,"mosquito_risk":7,"arthritis_risk":5,"migraine_risk":7,"frizz_risk":1,"updated_at":"2026-06-30T03:39:59.501311+05:30"},{"city":"Jabalpur","state":"Madhya Pradesh","latitude":23.1815,"longitude":79.9864,"temp":25.7,"humidity":90,"rain":0.1,"pressure":955.7,"uv_index":6.85,"wind_gusts":40.0,"aqi":62,"pm10":25.7,"pm2_5":20.4,"no2":8.7,"co":198.0,"o3":63.0,"so2":2.5,"mosquito_risk":10,"arthritis_risk":5,"migraine_risk":7,"frizz_risk":1,"updated_at":"2026-06-30T03:39:59.501318+05:30"},{"city":"Ujjain","state":"Madhya Pradesh","latitude":23.1765,"longitude":75.7885,"temp":26.1,"humidity":79,"rain":0.0,"pressure":948.0,"uv_index":7.6,"wind_gusts":41.0,"aqi":68,"pm10":25.4,"pm2_5":18.9,"no2":7.7,"co":199.0,"o3":60.0,"so2":9.5,"mosquito_risk":7,"arthritis_risk":5,"migraine_risk":7,"frizz_risk":1,"updated_at":"2026-06-30T03:39:59.501325+05:30"},{"city":"Visakhapatnam","state":"Andhra Pradesh","latitude":17.6868,"longitude":83.2185,"temp":28.1,"humidity":82,"rain":0.0,"pressure":998.4,"uv_index":8.5,"wind_gusts":36.0,"aqi":66,"pm10":18.1,"pm2_5":15.7,"no2":17.1,"co":266.0,"o3":62.0,"so2":29.7,"mosquito_risk":7,"arthritis_risk":5,"migraine_risk":7,"frizz_risk":1,"updated_at":"2026-06-30T03:39:59.501333+05:30"},{"city":"Vijayawada","state":"Andhra Pradesh","latitude":16.5062,"longitude":80.648,"temp":28.9,"humidity":68,"rain":0.0,"pressure":998.2,"uv_index":7.35,"wind_gusts":46.1,"aqi":56,"pm10":10.2,"pm2_5":9.8,"no2":8.6,"co":176.0,"o3":67.0,"so2":4.1,"mosquito_risk":7,"arthritis_risk":5,"migraine_risk":7,"frizz_risk":1,"updated_at":"2026-06-30T03:39:59.501341+05:30"},{"city":"Guntur","state":"Andhra Pradesh","latitude":16.3067,"longitude":80.4365,"temp":28.7,"humidity":67,"rain":0.0,"pressure":999.5,"uv_index":7.45,"wind_gusts":46.8,"aqi":52,"pm10":9.3,"pm2_5":9.1,"no2":10.5,"co":170.0,"o3":47.0,"so2":3.6,"mosquito_risk":7,"arthritis_risk":5,"migraine_risk":7,"frizz_risk":1,"updated_at":"2026-06-30T03:39:59.501348+05:30"},{"city":"Nellore","state":"Andhra Pradesh","latitude":14.4426,"longitude":79.9865,"temp":28.1,"humidity":72,"rain":0.0,"pressure":1002.5,"uv_index":8.6,"wind_gusts":54.4,"aqi":38,"pm10":4.6,"pm2_5":3.6,"no2":6.5,"co":150.0,"o3":45.0,"so2":4.4,"mosquito_risk":7,"arthritis_risk":5,"migraine_risk":4,"frizz_risk":1,"updated_at":"2026-06-30T03:39:59.501356+05:30"},{"city":"Kurnool","state":"Andhra Pradesh","latitude":15.8281,"longitude":78.0373,"temp":25.7,"humidity":77,"rain":0.0,"pressure":974.3,"uv_index":6.7,"wind_gusts":54.4,"aqi":23,"pm10":2.7,"pm2_5":2.3,"no2":6.1,"co":120.0,"o3":40.0,"so2":1.5,"mosquito_risk":7,"arthritis_risk":5,"migraine_risk":7,"frizz_risk":1,"updated_at":"2026-06-30T03:39:59.501364+05:30"},{"city":"Kakinada","state":"Andhra Pradesh","latitude":16.9891,"longitude":82.2475,"temp":28.0,"humidity":84,"rain":0.1,"pressure":1002.7,"uv_index":8.6,"wind_gusts":43.6,"aqi":49,"pm10":11.2,"pm2_5":8.2,"no2":2.9,"co":161.0,"o3":99.0,"so2":3.6,"mosquito_risk":10,"arthritis_risk":5,"migraine_risk":4,"frizz_risk":1,"updated_at":"2026-06-30T03:39:59.501371+05:30"},{"city":"Tirupati","state":"Andhra Pradesh","latitude":13.6288,"longitude":79.4192,"temp":26.9,"humidity":71,"rain":0.0,"pressure":988.0,"uv_index":7.1,"wind_gusts":48.6,"aqi":30,"pm10":3.4,"pm2_5":2.9,"no2":5.8,"co":123.0,"o3":41.0,"so2":1.7,"mosquito_risk":7,"arthritis_risk":5,"migraine_risk":7,"frizz_risk":1,"updated_at":"2026-06-30T03:39:59.501378+05:30"},{"city":"Warangal","state":"Telangana","latitude":17.9689,"longitude":79.5941,"temp":26.3,"humidity":93,"rain":0.0,"pressure":974.3,"uv_index":3.3,"wind_gusts":37.8,"aqi":48,"pm10":11.1,"pm2_5":10.9,"no2":11.8,"co":203.0,"o3":42.0,"so2":4.3,"mosquito_risk":7,"arthritis_risk":5,"migraine_risk":3,"frizz_risk":1,"updated_at":"2026-06-30T03:39:59.501384+05:30"},{"city":"Nizamabad","state":"Telangana","latitude":18.6725,"longitude":78.0941,"temp":24.8,"humidity":92,"rain":0.0,"pressure":960.3,"uv_index":2.7,"wind_gusts":39.2,"aqi":56,"pm10":10.7,"pm2_5":10.2,"no2":8.6,"co":182.0,"o3":52.0,"so2":3.4,"mosquito_risk":3,"arthritis_risk":5,"migraine_risk":3,"frizz_risk":1,"updated_at":"2026-06-30T03:39:59.501391+05:30"},{"city":"Mysore","state":"Karnataka","latitude":12.2958,"longitude":76.6396,"temp":21.3,"humidity":90,"rain":0.0,"pressure":927.4,"uv_index":7.45,"wind_gusts":54.7,"aqi":20,"pm10":2.5,"pm2_5":2.0,"no2":3.7,"co":104.0,"o3":41.0,"so2":1.3,"mosquito_risk":3,"arthritis_risk":5,"migraine_risk":7,"frizz_risk":1,"updated_at":"2026-06-30T03:39:59.501398+05:30"},{"city":"Mangalore","state":"Karnataka","latitude":12.9141,"longitude":74.856,"temp":24.4,"humidity":95,"rain":0.2,"pressure":1007.4,"uv_index":7.3,"wind_gusts":39.6,"aqi":28,"pm10":13.4,"pm2_5":7.7,"no2":2.9,"co":124.0,"o3":39.0,"so2":1.1,"mosquito_risk":6,"arthritis_risk":5,"migraine_risk":4,"frizz_risk":1,"updated_at":"2026-06-30T03:39:59.501421+05:30"},{"city":"Hubli-Dharwad","state":"Karnataka","latitude":15.3647,"longitude":75.124,"temp":21.9,"humidity":98,"rain":0.0,"pressure":938.5,"uv_index":3.85,"wind_gusts":60.8,"aqi":21,"pm10":0.8,"pm2_5":0.7,"no2":2.4,"co":106.0,"o3":44.0,"so2":0.8,"mosquito_risk":3,"arthritis_risk":5,"migraine_risk":3,"frizz_risk":1,"updated_at":"2026-06-30T03:39:59.501430+05:30"},{"city":"Belgaum","state":"Karnataka","latitude":15.8497,"longitude":74.4977,"temp":21.3,"humidity":96,"rain":0.0,"pressure":923.0,"uv_index":4.05,"wind_gusts":61.6,"aqi":20,"pm10":1.6,"pm2_5":1.5,"no2":3.4,"co":101.0,"o3":44.0,"so2":1.3,"mosquito_risk":3,"arthritis_risk":5,"migraine_risk":3,"frizz_risk":1,"updated_at":"2026-06-30T03:40:07.277468+05:30"},{"city":"Coimbatore","state":"Tamil Nadu","latitude":11.0168,"longitude":76.9558,"temp":22.3,"humidity":95,"rain":0.0,"pressure":960.1,"uv_index":8.5,"wind_gusts":59.0,"aqi":17,"pm10":4.3,"pm2_5":3.2,"no2":5.3,"co":162.0,"o3":35.0,"so2":2.1,"mosquito_risk":3,"arthritis_risk":5,"migraine_risk":7,"frizz_risk":1,"updated_at":"2026-06-30T03:40:07.277508+05:30"},{"city":"Madurai","state":"Tamil Nadu","latitude":9.9252,"longitude":78.1198,"temp":26.7,"humidity":68,"rain":0.0,"pressure":990.8,"uv_index":7.3,"wind_gusts":29.2,"aqi":53,"pm10":24.6,"pm2_5":21.8,"no2":33.3,"co":209.0,"o3":0.0,"so2":6.0,"mosquito_risk":7,"arthritis_risk":5,"migraine_risk":7,"frizz_risk":1,"updated_at":"2026-06-30T03:40:07.277519+05:30"},{"city":"Trichy","state":"Tamil Nadu","latitude":10.7905,"longitude":78.7047,"temp":27.4,"humidity":67,"rain":0.0,"pressure":997.7,"uv_index":8.0,"wind_gusts":61.9,"aqi":22,"pm10":5.7,"pm2_5":4.0,"no2":4.0,"co":104.0,"o3":43.0,"so2":2.1,"mosquito_risk":7,"arthritis_risk":5,"migraine_risk":7,"frizz_risk":1,"updated_at":"2026-06-30T03:40:07.277528+05:30"},{"city":"Salem","state":"Tamil Nadu","latitude":11.6643,"longitude":78.146,"temp":24.1,"humidity":96,"rain":0.0,"pressure":976.1,"uv_index":7.55,"wind_gusts":37.4,"aqi":40,"pm10":13.9,"pm2_5":11.6,"no2":17.8,"co":295.0,"o3":25.0,"so2":7.4,"mosquito_risk":3,"arthritis_risk":5,"migraine_risk":7,"frizz_risk":1,"updated_at":"2026-06-30T03:40:07.277536+05:30"},{"city":"Tirunelveli","state":"Tamil Nadu","latitude":8.7139,"longitude":77.7567,"temp":28.7,"humidity":60,"rain":0.0,"pressure":1001.5,"uv_index":8.5,"wind_gusts":50.0,"aqi":22,"pm10":6.2,"pm2_5":3.8,"no2":2.8,"co":138.0,"o3":41.0,"so2":1.3,"mosquito_risk":4,"arthritis_risk":5,"migraine_risk":4,"frizz_risk":1,"updated_at":"2026-06-30T03:40:07.277545+05:30"},{"city":"Vellore","state":"Tamil Nadu","latitude":12.9165,"longitude":79.1325,"temp":26.2,"humidity":72,"rain":0.0,"pressure":981.7,"uv_index":7.7,"wind_gusts":52.2,"aqi":26,"pm10":3.9,"pm2_5":3.2,"no2":6.8,"co":150.0,"o3":40.0,"so2":2.9,"mosquito_risk":7,"arthritis_risk":5,"migraine_risk":7,"frizz_risk":1,"updated_at":"2026-06-30T03:40:07.277552+05:30"},{"city":"Erode","state":"Tamil Nadu","latitude":11.341,"longitude":77.7172,"temp":24.9,"humidity":78,"rain":0.0,"pressure":987.8,"uv_index":8.1,"wind_gusts":43.2,"aqi":37,"pm10":13.0,"pm2_5":11.6,"no2":14.5,"co":147.0,"o3":29.0,"so2":3.5,"mosquito_risk":3,"arthritis_risk":5,"migraine_risk":7,"frizz_risk":1,"updated_at":"2026-06-30T03:40:07.277560+05:30"},{"city":"Kochi","state":"Kerala","latitude":9.9312,"longitude":76.2673,"temp":24.8,"humidity":95,"rain":0.1,"pressure":1009.7,"uv_index":7.6,"wind_gusts":42.1,"aqi":36,"pm10":10.7,"pm2_5":9.7,"no2":11.2,"co":198.0,"o3":19.0,"so2":3.4,"mosquito_risk":6,"arthritis_risk":0,"migraine_risk":4,"frizz_risk":1,"updated_at":"2026-06-30T03:40:07.277567+05:30"},{"city":"Thiruvananthapuram","state":"Kerala","latitude":8.5241,"longitude":76.9366,"temp":24.6,"humidity":88,"rain":0.0,"pressure":1008.4,"uv_index":8.35,"wind_gusts":52.9,"aqi":29,"pm10":10.5,"pm2_5":6.8,"no2":4.5,"co":154.0,"o3":41.0,"so2":2.0,"mosquito_risk":3,"arthritis_risk":0,"migraine_risk":4,"frizz_risk":1,"updated_at":"2026-06-30T03:40:07.277574+05:30"},{"city":"Kozhikode","state":"Kerala","latitude":11.2588,"longitude":75.7804,"temp":23.6,"humidity":99,"rain":0.1,"pressure":1008.8,"uv_index":8.1,"wind_gusts":39.6,"aqi":24,"pm10":9.3,"pm2_5":4.6,"no2":1.1,"co":145.0,"o3":49.0,"so2":0.6,"mosquito_risk":6,"arthritis_risk":0,"migraine_risk":4,"frizz_risk":1,"updated_at":"2026-06-30T03:40:07.277580+05:30"},{"city":"Thrissur","state":"Kerala","latitude":10.5276,"longitude":76.2144,"temp":23.6,"humidity":99,"rain":0.0,"pressure":1008.0,"uv_index":7.9,"wind_gusts":41.4,"aqi":32,"pm10":11.2,"pm2_5":10.0,"no2":9.3,"co":228.0,"o3":23.0,"so2":2.7,"mosquito_risk":3,"arthritis_risk":0,"migraine_risk":4,"frizz_risk":1,"updated_at":"2026-06-30T03:40:07.277588+05:30"},{"city":"Kannur","state":"Kerala","latitude":11.8745,"longitude":75.3704,"temp":23.6,"humidity":98,"rain":0.1,"pressure":1007.9,"uv_index":8.2,"wind_gusts":40.7,"aqi":26,"pm10":11.0,"pm2_5":6.6,"no2":3.5,"co":167.0,"o3":37.0,"so2":0.8,"mosquito_risk":6,"arthritis_risk":5,"migraine_risk":4,"frizz_risk":1,"updated_at":"2026-06-30T03:40:07.277596+05:30"},{"city":"Patna","state":"Bihar","latitude":25.5941,"longitude":85.1376,"temp":26.2,"humidity":97,"rain":0.2,"pressure":993.9,"uv_index":6.6,"wind_gusts":31.0,"aqi":124,"pm10":43.9,"pm2_5":43.0,"no2":15.9,"co":346.0,"o3":68.0,"so2":12.6,"mosquito_risk":10,"arthritis_risk":5,"migraine_risk":7,"frizz_risk":1,"updated_at":"2026-06-30T03:40:07.277603+05:30"},{"city":"Gaya","state":"Bihar","latitude":24.7914,"longitude":85.0002,"temp":27.7,"humidity":81,"rain":0.1,"pressure":986.7,"uv_index":5.4,"wind_gusts":24.5,"aqi":93,"pm10":35.2,"pm2_5":34.8,"no2":21.3,"co":298.0,"o3":42.0,"so2":8.2,"mosquito_risk":10,"arthritis_risk":5,"migraine_risk":3,"frizz_risk":1,"updated_at":"2026-06-30T03:40:07.277610+05:30"},{"city":"Muzaffarpur","state":"Bihar","latitude":26.1209,"longitude":85.3647,"temp":25.7,"humidity":97,"rain":0.1,"pressure":994.1,"uv_index":8.55,"wind_gusts":24.5,"aqi":125,"pm10":35.2,"pm2_5":33.5,"no2":12.4,"co":298.0,"o3":84.0,"so2":10.2,"mosquito_risk":10,"arthritis_risk":5,"migraine_risk":7,"frizz_risk":1,"updated_at":"2026-06-30T03:40:07.277617+05:30"},{"city":"Bhagalpur","state":"Bihar","latitude":25.2425,"longitude":87.0117,"temp":26.3,"humidity":97,"rain":0.0,"pressure":994.9,"uv_index":8.05,"wind_gusts":21.2,"aqi":141,"pm10":31.3,"pm2_5":30.4,"no2":10.6,"co":323.0,"o3":89.0,"so2":9.0,"mosquito_risk":7,"arthritis_risk":5,"migraine_risk":7,"frizz_risk":1,"updated_at":"2026-06-30T03:40:07.277624+05:30"},{"city":"Ranchi","state":"Jharkhand","latitude":23.3441,"longitude":85.3096,"temp":23.5,"humidity":95,"rain":0.0,"pressure":931.5,"uv_index":8.65,"wind_gusts":31.0,"aqi":98,"pm10":35.9,"pm2_5":35.4,"no2":9.6,"co":297.0,"o3":81.0,"so2":9.4,"mosquito_risk":3,"arthritis_risk":5,"migraine_risk":7,"frizz_risk":1,"updated_at":"2026-06-30T03:40:07.277632+05:30"},{"city":"Jamshedpur","state":"Jharkhand","latitude":22.8046,"longitude":86.2029,"temp":26.2,"humidity":98,"rain":0.0,"pressure":984.5,"uv_index":8.9,"wind_gusts":32.8,"aqi":149,"pm10":72.2,"pm2_5":71.2,"no2":23.9,"co":525.0,"o3":62.0,"so2":31.1,"mosquito_risk":7,"arthritis_risk":5,"migraine_risk":7,"frizz_risk":1,"updated_at":"2026-06-30T03:40:07.277640+05:30"},{"city":"Dhanbad","state":"Jharkhand","latitude":23.7957,"longitude":86.4304,"temp":26.0,"humidity":95,"rain":0.0,"pressure":973.3,"uv_index":8.3,"wind_gusts":21.6,"aqi":158,"pm10":136.9,"pm2_5":136.4,"no2":80.7,"co":452.0,"o3":14.0,"so2":187.3,"mosquito_risk":7,"arthritis_risk":5,"migraine_risk":7,"frizz_risk":1,"updated_at":"2026-06-30T03:40:07.277647+05:30"},{"city":"Bokaro","state":"Jharkhand","latitude":23.6693,"longitude":86.1511,"temp":25.9,"humidity":95,"rain":0.0,"pressure":977.0,"uv_index":7.85,"wind_gusts":22.0,"aqi":153,"pm10":111.5,"pm2_5":110.6,"no2":49.3,"co":249.0,"o3":45.0,"so2":145.0,"mosquito_risk":7,"arthritis_risk":5,"migraine_risk":7,"frizz_risk":1,"updated_at":"2026-06-30T03:40:07.277654+05:30"},{"city":"Bhubaneswar","state":"Odisha","latitude":20.2961,"longitude":85.8245,"temp":27.5,"humidity":94,"rain":0.0,"pressure":996.3,"uv_index":7.65,"wind_gusts":32.4,"aqi":81,"pm10":22.7,"pm2_5":21.0,"no2":8.2,"co":184.0,"o3":81.0,"so2":7.7,"mosquito_risk":7,"arthritis_risk":5,"migraine_risk":7,"frizz_risk":1,"updated_at":"2026-06-30T03:40:07.277661+05:30"},{"city":"Cuttack","state":"Odisha","latitude":20.4625,"longitude":85.8828,"temp":27.9,"humidity":91,"rain":0.0,"pressure":997.9,"uv_index":9.0,"wind_gusts":33.5,"aqi":81,"pm10":22.7,"pm2_5":21.0,"no2":8.2,"co":190.0,"o3":81.0,"so2":7.7,"mosquito_risk":7,"arthritis_risk":5,"migraine_risk":7,"frizz_risk":1,"updated_at":"2026-06-30T03:40:07.277668+05:30"},{"city":"Rourkela","state":"Odisha","latitude":22.2604,"longitude":84.8536,"temp":26.5,"humidity":97,"rain":0.0,"pressure":979.2,"uv_index":6.5,"wind_gusts":37.4,"aqi":97,"pm10":38.1,"pm2_5":37.3,"no2":13.4,"co":302.0,"o3":69.0,"so2":15.0,"mosquito_risk":7,"arthritis_risk":5,"migraine_risk":7,"frizz_risk":1,"updated_at":"2026-06-30T03:40:07.277674+05:30"},{"city":"Raipur","state":"Chhattisgarh","latitude":21.2514,"longitude":81.6296,"temp":26.1,"humidity":90,"rain":0.0,"pressure":969.1,"uv_index":8.95,"wind_gusts":32.0,"aqi":85,"pm10":44.5,"pm2_5":41.4,"no2":33.9,"co":419.0,"o3":57.0,"so2":47.0,"mosquito_risk":7,"arthritis_risk":5,"migraine_risk":7,"frizz_risk":1,"updated_at":"2026-06-30T03:40:07.277682+05:30"},{"city":"Bhilai","state":"Chhattisgarh","latitude":21.1938,"longitude":81.3509,"temp":26.4,"humidity":86,"rain":0.0,"pressure":969.6,"uv_index":7.7,"wind_gusts":34.6,"aqi":83,"pm10":42.3,"pm2_5":38.4,"no2":29.5,"co":513.0,"o3":67.0,"so2":44.6,"mosquito_risk":7,"arthritis_risk":5,"migraine_risk":7,"frizz_risk":1,"updated_at":"2026-06-30T03:40:07.277688+05:30"},{"city":"Guwahati","state":"Assam","latitude":26.1158,"longitude":91.7086,"temp":24.8,"humidity":99,"rain":0.1,"pressure":996.5,"uv_index":5.35,"wind_gusts":21.6,"aqi":57,"pm10":13.3,"pm2_5":13.0,"no2":9.2,"co":292.0,"o3":44.0,"so2":1.9,"mosquito_risk":6,"arthritis_risk":5,"migraine_risk":3,"frizz_risk":1,"updated_at":"2026-06-30T03:40:07.277695+05:30"},{"city":"Agartala","state":"Tripura","latitude":23.8315,"longitude":91.2868,"temp":26.2,"humidity":95,"rain":0.0,"pressure":1000.1,"uv_index":6.15,"wind_gusts":25.6,"aqi":53,"pm10":15.8,"pm2_5":14.8,"no2":15.4,"co":184.0,"o3":29.0,"so2":3.5,"mosquito_risk":7,"arthritis_risk":5,"migraine_risk":4,"frizz_risk":1,"updated_at":"2026-06-30T03:40:07.277703+05:30"},{"city":"Shillong","state":"Meghalaya","latitude":25.5788,"longitude":91.8933,"temp":19.9,"humidity":95,"rain":0.0,"pressure":853.5,"uv_index":6.6,"wind_gusts":18.0,"aqi":30,"pm10":5.7,"pm2_5":5.4,"no2":5.0,"co":187.0,"o3":54.0,"so2":2.0,"mosquito_risk":3,"arthritis_risk":10,"migraine_risk":7,"frizz_risk":1,"updated_at":"2026-06-30T03:40:07.277710+05:30"},{"city":"Imphal","state":"Manipur","latitude":24.817,"longitude":93.9368,"temp":22.9,"humidity":98,"rain":0.0,"pressure":918.6,"uv_index":8.6,"wind_gusts":24.1,"aqi":37,"pm10":9.7,"pm2_5":9.3,"no2":10.2,"co":335.0,"o3":22.0,"so2":2.3,"mosquito_risk":3,"arthritis_risk":5,"migraine_risk":7,"frizz_risk":1,"updated_at":"2026-06-30T03:40:07.277717+05:30"},{"city":"Aizawl","state":"Mizoram","latitude":23.7271,"longitude":92.7176,"temp":20.1,"humidity":99,"rain":0.0,"pressure":887.7,"uv_index":8.95,"wind_gusts":22.3,"aqi":22,"pm10":9.4,"pm2_5":9.1,"no2":8.8,"co":143.0,"o3":11.0,"so2":0.7,"mosquito_risk":3,"arthritis_risk":5,"migraine_risk":7,"frizz_risk":1,"updated_at":"2026-06-30T03:40:07.277725+05:30"},{"city":"Kohima","state":"Nagaland","latitude":25.6701,"longitude":94.1077,"temp":19.8,"humidity":91,"rain":0.1,"pressure":851.6,"uv_index":7.0,"wind_gusts":24.5,"aqi":22,"pm10":4.4,"pm2_5":4.1,"no2":5.2,"co":208.0,"o3":32.0,"so2":0.6,"mosquito_risk":6,"arthritis_risk":10,"migraine_risk":7,"frizz_risk":1,"updated_at":"2026-06-30T03:40:07.277732+05:30"},{"city":"Gangtok","state":"Sikkim","latitude":27.3314,"longitude":88.6138,"temp":18.6,"humidity":97,"rain":0.0,"pressure":834.0,"uv_index":6.15,"wind_gusts":27.0,"aqi":48,"pm10":9.4,"pm2_5":8.9,"no2":4.6,"co":310.0,"o3":99.0,"so2":1.8,"mosquito_risk":3,"arthritis_risk":10,"migraine_risk":7,"frizz_risk":1,"updated_at":"2026-06-30T03:40:07.277739+05:30"},{"city":"Siliguri","state":"West Bengal","latitude":26.7271,"longitude":88.3953,"temp":24.4,"humidity":98,"rain":0.3,"pressure":987.4,"uv_index":6.35,"wind_gusts":21.2,"aqi":54,"pm10":20.5,"pm2_5":19.6,"no2":8.6,"co":341.0,"o3":101.0,"so2":4.2,"mosquito_risk":6,"arthritis_risk":5,"migraine_risk":7,"frizz_risk":1,"updated_at":"2026-06-30T03:40:10.538137+05:30"},{"city":"Durgapur","state":"West Bengal","latitude":23.5204,"longitude":87.3119,"temp":27.1,"humidity":98,"rain":0.0,"pressure":988.2,"uv_index":8.85,"wind_gusts":32.4,"aqi":164,"pm10":133.2,"pm2_5":131.8,"no2":53.2,"co":1047.0,"o3":31.0,"so2":69.1,"mosquito_risk":7,"arthritis_risk":5,"migraine_risk":7,"frizz_risk":1,"updated_at":"2026-06-30T03:40:10.538178+05:30"},{"city":"Asansol","state":"West Bengal","latitude":23.6739,"longitude":86.9524,"temp":26.8,"humidity":98,"rain":0.0,"pressure":986.8,"uv_index":7.9,"wind_gusts":25.6,"aqi":158,"pm10":112.0,"pm2_5":111.3,"no2":58.6,"co":445.0,"o3":23.0,"so2":75.1,"mosquito_risk":7,"arthritis_risk":5,"migraine_risk":7,"frizz_risk":1,"updated_at":"2026-06-30T03:40:10.538191+05:30"},{"city":"Pondicherry","state":"Puducherry","latitude":11.9139,"longitude":79.8145,"temp":29.0,"humidity":61,"rain":0.0,"pressure":1005.7,"uv_index":7.65,"wind_gusts":46.4,"aqi":52,"pm10":11.5,"pm2_5":9.5,"no2":12.6,"co":247.0,"o3":40.0,"so2":5.4,"mosquito_risk":7,"arthritis_risk":5,"migraine_risk":4,"frizz_risk":1,"updated_at":"2026-06-30T03:40:10.538200+05:30"},{"city":"Port Blair","state":"Andaman and Nicobar Islands","latitude":11.6234,"longitude":92.7265,"temp":27.1,"humidity":87,"rain":0.0,"pressure":1005.3,"uv_index":7.05,"wind_gusts":46.4,"aqi":26,"pm10":11.9,"pm2_5":7.0,"no2":0.2,"co":84.0,"o3":48.0,"so2":0.3,"mosquito_risk":7,"arthritis_risk":5,"migraine_risk":4,"frizz_risk":1,"updated_at":"2026-06-30T03:40:10.538208+05:30"},{"city":"Haridwar","state":"Uttarakhand","latitude":29.9457,"longitude":78.1642,"temp":29.2,"humidity":72,"rain":0.0,"pressure":966.8,"uv_index":7.4,"wind_gusts":31.0,"aqi":136,"pm10":65.9,"pm2_5":49.0,"no2":5.2,"co":261.0,"o3":114.0,"so2":5.6,"mosquito_risk":7,"arthritis_risk":5,"migraine_risk":7,"frizz_risk":1,"updated_at":"2026-06-30T03:40:10.538216+05:30"},{"city":"Rishikesh","state":"Uttarakhand","latitude":30.0869,"longitude":78.2676,"temp":26.1,"humidity":96,"rain":0.0,"pressure":959.4,"uv_index":7.15,"wind_gusts":27.4,"aqi":115,"pm10":47.3,"pm2_5":34.0,"no2":5.5,"co":225.0,"o3":106.0,"so2":2.4,"mosquito_risk":7,"arthritis_risk":5,"migraine_risk":7,"frizz_risk":1,"updated_at":"2026-06-30T03:40:10.538225+05:30"},{"city":"Nainital","state":"Uttarakhand","latitude":29.3919,"longitude":79.4542,"temp":16.2,"humidity":99,"rain":0.0,"pressure":801.4,"uv_index":6.2,"wind_gusts":29.2,"aqi":115,"pm10":26.1,"pm2_5":18.9,"no2":6.5,"co":227.0,"o3":113.0,"so2":2.0,"mosquito_risk":3,"arthritis_risk":10,"migraine_risk":7,"frizz_risk":1,"updated_at":"2026-06-30T03:40:10.538232+05:30"},{"city":"Mussoorie","state":"Uttarakhand","latitude":30.4599,"longitude":78.0664,"temp":17.6,"humidity":94,"rain":0.1,"pressure":799.4,"uv_index":6.2,"wind_gusts":40.0,"aqi":102,"pm10":31.5,"pm2_5":25.6,"no2":10.1,"co":278.0,"o3":86.0,"so2":3.6,"mosquito_risk":6,"arthritis_risk":10,"migraine_risk":7,"frizz_risk":1,"updated_at":"2026-06-30T03:40:10.538240+05:30"},{"city":"Dharamshala","state":"Himachal Pradesh","latitude":32.219,"longitude":76.3234,"temp":21.8,"humidity":92,"rain":0.0,"pressure":863.6,"uv_index":8.5,"wind_gusts":28.1,"aqi":73,"pm10":9.4,"pm2_5":7.0,"no2":20.4,"co":249.0,"o3":27.0,"so2":0.3,"mosquito_risk":3,"arthritis_risk":5,"migraine_risk":7,"frizz_risk":1,"updated_at":"2026-06-30T03:40:10.538247+05:30"},{"city":"Dalhousie","state":"Himachal Pradesh","latitude":32.5387,"longitude":75.971,"temp":18.1,"humidity":96,"rain":0.1,"pressure":800.6,"uv_index":7.65,"wind_gusts":27.7,"aqi":104,"pm10":61.9,"pm2_5":46.3,"no2":14.5,"co":223.0,"o3":85.0,"so2":2.6,"mosquito_risk":6,"arthritis_risk":10,"migraine_risk":7,"frizz_risk":1,"updated_at":"2026-06-30T03:40:10.538255+05:30"},{"city":"Patiala","state":"Punjab","latitude":30.3398,"longitude":76.3869,"temp":31.5,"humidity":59,"rain":0.0,"pressure":969.3,"uv_index":6.6,"wind_gusts":38.2,"aqi":171,"pm10":470.3,"pm2_5":115.5,"no2":23.3,"co":486.0,"o3":55.0,"so2":12.6,"mosquito_risk":0,"arthritis_risk":5,"migraine_risk":7,"frizz_risk":1,"updated_at":"2026-06-30T03:40:10.538263+05:30"},{"city":"Bhatinda","state":"Punjab","latitude":30.211,"longitude":74.9455,"temp":32.2,"humidity":56,"rain":0.0,"pressure":973.6,"uv_index":6.0,"wind_gusts":35.3,"aqi":154,"pm10":163.9,"pm2_5":83.6,"no2":55.3,"co":372.0,"o3":12.0,"so2":7.8,"mosquito_risk":0,"arthritis_risk":5,"migraine_risk":3,"frizz_risk":1,"updated_at":"2026-06-30T03:40:10.538270+05:30"},{"city":"Rohtak","state":"Haryana","latitude":28.8955,"longitude":76.6066,"temp":32.7,"humidity":48,"rain":0.0,"pressure":972.7,"uv_index":7.8,"wind_gusts":34.6,"aqi":670,"pm10":691.0,"pm2_5":158.8,"no2":39.9,"co":265.0,"o3":22.0,"so2":17.2,"mosquito_risk":0,"arthritis_risk":5,"migraine_risk":7,"frizz_risk":1,"updated_at":"2026-06-30T03:40:10.538277+05:30"},{"city":"Panipat","state":"Haryana","latitude":29.3909,"longitude":76.9635,"temp":31.2,"humidity":64,"rain":0.0,"pressure":971.6,"uv_index":7.0,"wind_gusts":27.7,"aqi":755,"pm10":1389.5,"pm2_5":243.1,"no2":38.5,"co":465.0,"o3":31.0,"so2":22.5,"mosquito_risk":3,"arthritis_risk":5,"migraine_risk":7,"frizz_risk":1,"updated_at":"2026-06-30T03:40:10.538283+05:30"},{"city":"Mathura","state":"Uttar Pradesh","latitude":27.4924,"longitude":77.6737,"temp":31.8,"humidity":56,"rain":0.0,"pressure":978.0,"uv_index":8.0,"wind_gusts":32.8,"aqi":462,"pm10":180.2,"pm2_5":53.3,"no2":21.7,"co":239.0,"o3":44.0,"so2":5.3,"mosquito_risk":0,"arthritis_risk":5,"migraine_risk":7,"frizz_risk":1,"updated_at":"2026-06-30T03:40:10.538291+05:30"},{"city":"Vrindavan","state":"Uttar Pradesh","latitude":27.5823,"longitude":77.7027,"temp":31.4,"humidity":59,"rain":0.0,"pressure":978.4,"uv_index":6.4,"wind_gusts":32.4,"aqi":462,"pm10":180.2,"pm2_5":53.3,"no2":21.7,"co":262.0,"o3":44.0,"so2":5.3,"mosquito_risk":0,"arthritis_risk":5,"migraine_risk":7,"frizz_risk":1,"updated_at":"2026-06-30T03:40:10.538298+05:30"},{"city":"Ayodhya","state":"Uttar Pradesh","latitude":26.7922,"longitude":82.1998,"temp":26.8,"humidity":90,"rain":0.0,"pressure":988.5,"uv_index":6.05,"wind_gusts":27.7,"aqi":108,"pm10":49.9,"pm2_5":36.4,"no2":10.3,"co":403.0,"o3":93.0,"so2":3.8,"mosquito_risk":7,"arthritis_risk":5,"migraine_risk":7,"frizz_risk":1,"updated_at":"2026-06-30T03:40:10.538305+05:30"},{"city":"Ratlam","state":"Madhya Pradesh","latitude":23.3315,"longitude":75.0367,"temp":26.0,"humidity":80,"rain":0.0,"pressure":949.0,"uv_index":2.7,"wind_gusts":40.7,"aqi":64,"pm10":24.7,"pm2_5":17.3,"no2":7.7,"co":168.0,"o3":56.0,"so2":10.0,"mosquito_risk":7,"arthritis_risk":5,"migraine_risk":3,"frizz_risk":1,"updated_at":"2026-06-30T03:40:10.538313+05:30"},{"city":"Sagar","state":"Madhya Pradesh","latitude":23.8388,"longitude":78.7378,"temp":24.7,"humidity":96,"rain":0.0,"pressure":943.9,"uv_index":5.45,"wind_gusts":34.2,"aqi":67,"pm10":28.3,"pm2_5":21.5,"no2":6.6,"co":183.0,"o3":68.0,"so2":4.2,"mosquito_risk":3,"arthritis_risk":5,"migraine_risk":3,"frizz_risk":1,"updated_at":"2026-06-30T03:40:10.538320+05:30"},{"city":"Satna","state":"Madhya Pradesh","latitude":24.6005,"longitude":80.8322,"temp":27.1,"humidity":81,"rain":0.0,"pressure":964.1,"uv_index":8.2,"wind_gusts":40.7,"aqi":71,"pm10":21.0,"pm2_5":16.2,"no2":7.6,"co":145.0,"o3":65.0,"so2":3.0,"mosquito_risk":7,"arthritis_risk":5,"migraine_risk":7,"frizz_risk":1,"updated_at":"2026-06-30T03:40:10.538328+05:30"},{"city":"Akola","state":"Maharashtra","latitude":20.7002,"longitude":77.0082,"temp":26.0,"humidity":90,"rain":0.0,"pressure":970.0,"uv_index":2.75,"wind_gusts":34.6,"aqi":60,"pm10":19.0,"pm2_5":13.9,"no2":11.1,"co":143.0,"o3":50.0,"so2":10.9,"mosquito_risk":7,"arthritis_risk":5,"migraine_risk":3,"frizz_risk":1,"updated_at":"2026-06-30T03:40:10.538337+05:30"},{"city":"Amravati","state":"Maharashtra","latitude":20.9374,"longitude":77.7796,"temp":25.6,"humidity":96,"rain":0.1,"pressure":961.9,"uv_index":4.55,"wind_gusts":39.2,"aqi":63,"pm10":18.2,"pm2_5":14.6,"no2":11.1,"co":171.0,"o3":54.0,"so2":10.9,"mosquito_risk":10,"arthritis_risk":5,"migraine_risk":3,"frizz_risk":1,"updated_at":"2026-06-30T03:40:10.538346+05:30"},{"city":"Latur","state":"Maharashtra","latitude":18.4088,"longitude":76.5604,"temp":23.7,"humidity":89,"rain":0.0,"pressure":935.8,"uv_index":4.75,"wind_gusts":44.3,"aqi":38,"pm10":14.0,"pm2_5":10.4,"no2":10.0,"co":135.0,"o3":32.0,"so2":3.9,"mosquito_risk":3,"arthritis_risk":5,"migraine_risk":3,"frizz_risk":1,"updated_at":"2026-06-30T03:40:10.538354+05:30"},{"city":"Nanded","state":"Maharashtra","latitude":19.1383,"longitude":77.3091,"temp":25.1,"humidity":94,"rain":0.0,"pressure":964.0,"uv_index":6.45,"wind_gusts":36.0,"aqi":56,"pm10":11.8,"pm2_5":10.5,"no2":9.0,"co":150.0,"o3":51.0,"so2":3.5,"mosquito_risk":7,"arthritis_risk":5,"migraine_risk":7,"frizz_risk":1,"updated_at":"2026-06-30T03:40:10.538360+05:30"},{"city":"Gulbarga","state":"Karnataka","latitude":17.3297,"longitude":76.8343,"temp":24.2,"humidity":85,"rain":0.0,"pressure":955.5,"uv_index":6.6,"wind_gusts":51.5,"aqi":22,"pm10":3.0,"pm2_5":2.8,"no2":6.9,"co":126.0,"o3":36.0,"so2":2.7,"mosquito_risk":3,"arthritis_risk":5,"migraine_risk":7,"frizz_risk":1,"updated_at":"2026-06-30T03:40:10.538367+05:30"},{"city":"Bidar","state":"Karnataka","latitude":17.9104,"longitude":77.5199,"temp":23.6,"humidity":89,"rain":0.0,"pressure":931.6,"uv_index":3.85,"wind_gusts":44.3,"aqi":40,"pm10":7.0,"pm2_5":5.7,"no2":7.6,"co":140.0,"o3":42.0,"so2":1.6,"mosquito_risk":3,"arthritis_risk":5,"migraine_risk":3,"frizz_risk":1,"updated_at":"2026-06-30T03:40:10.538373+05:30"},{"city":"Hospet","state":"Karnataka","latitude":15.2689,"longitude":76.3909,"temp":23.3,"humidity":91,"rain":0.0,"pressure":953.6,"uv_index":6.75,"wind_gusts":58.0,"aqi":21,"pm10":1.5,"pm2_5":1.3,"no2":3.4,"co":105.0,"o3":43.0,"so2":1.2,"mosquito_risk":3,"arthritis_risk":5,"migraine_risk":7,"frizz_risk":1,"updated_at":"2026-06-30T03:40:10.538379+05:30"},{"city":"Tirupur","state":"Tamil Nadu","latitude":11.1085,"longitude":77.3411,"temp":23.2,"humidity":90,"rain":0.0,"pressure":973.8,"uv_index":8.35,"wind_gusts":58.0,"aqi":43,"pm10":16.3,"pm2_5":14.8,"no2":18.8,"co":135.0,"o3":21.0,"so2":4.4,"mosquito_risk":3,"arthritis_risk":5,"migraine_risk":7,"frizz_risk":1,"updated_at":"2026-06-30T03:40:10.538386+05:30"},{"city":"Alappuzha","state":"Kerala","latitude":9.4981,"longitude":76.3388,"temp":24.8,"humidity":95,"rain":0.2,"pressure":1009.8,"uv_index":7.9,"wind_gusts":43.9,"aqi":32,"pm10":10.1,"pm2_5":7.2,"no2":6.8,"co":86.0,"o3":35.0,"so2":3.2,"mosquito_risk":6,"arthritis_risk":0,"migraine_risk":4,"frizz_risk":1,"updated_at":"2026-06-30T03:40:10.538393+05:30"},{"city":"Munnar","state":"Kerala","latitude":10.0889,"longitude":77.0595,"temp":16.2,"humidity":97,"rain":0.0,"pressure":856.0,"uv_index":5.6,"wind_gusts":52.6,"aqi":15,"pm10":2.2,"pm2_5":1.7,"no2":3.2,"co":88.0,"o3":30.0,"so2":0.7,"mosquito_risk":3,"arthritis_risk":10,"migraine_risk":3,"frizz_risk":0,"updated_at":"2026-06-30T03:40:10.538401+05:30"},{"city":"Silchar","state":"Assam","latitude":24.8333,"longitude":92.7789,"temp":26.0,"humidity":98,"rain":0.1,"pressure":999.9,"uv_index":8.8,"wind_gusts":27.4,"aqi":61,"pm10":20.3,"pm2_5":18.6,"no2":8.6,"co":229.0,"o3":46.0,"so2":3.6,"mosquito_risk":10,"arthritis_risk":5,"migraine_risk":7,"frizz_risk":1,"updated_at":"2026-06-30T03:40:10.538428+05:30"},{"city":"Dibrugarh","state":"Assam","latitude":27.4728,"longitude":94.912,"temp":25.3,"humidity":95,"rain":0.0,"pressure":990.4,"uv_index":4.35,"wind_gusts":19.4,"aqi":71,"pm10":26.6,"pm2_5":26.1,"no2":26.5,"co":248.0,"o3":13.0,"so2":1.0,"mosquito_risk":7,"arthritis_risk":5,"migraine_risk":3,"frizz_risk":1,"updated_at":"2026-06-30T03:40:10.538435+05:30"}]