[{"city":"Delhi","state":"Delhi","latitude":28.6139,"longitude":77.209,"temp":38.8,"humidity":21,"rain":0.0,"pressure":981.3,"uv_index":7.75,"wind_gusts":34.6,"aqi":618,"pm10":523.4,"pm2_5":105.9,"no2":9.9,"co":362.0,"o3":133.0,"so2":14.1,"mosquito_risk":0,"arthritis_risk":5,"migraine_risk":10,"frizz_risk":0,"updated_at":"2026-05-22T10:33:15.307931+05:30"},{"city":"Mumbai","state":"Maharashtra","latitude":19.076,"longitude":72.8777,"temp":32.9,"humidity":62,"rain":0.1,"pressure":1009.9,"uv_index":6.75,"wind_gusts":37.8,"aqi":56,"pm10":30.5,"pm2_5":20.6,"no2":9.3,"co":206.0,"o3":88.0,"so2":14.0,"mosquito_risk":6,"arthritis_risk":0,"migraine_risk":4,"frizz_risk":1,"updated_at":"2026-05-22T10:33:15.307989+05:30"},{"city":"Bangalore","state":"Karnataka","latitude":12.9716,"longitude":77.5946,"temp":26.9,"humidity":70,"rain":0.0,"pressure":914.1,"uv_index":6.65,"wind_gusts":30.6,"aqi":36,"pm10":9.2,"pm2_5":7.4,"no2":5.5,"co":345.0,"o3":85.0,"so2":4.1,"mosquito_risk":7,"arthritis_risk":5,"migraine_risk":7,"frizz_risk":1,"updated_at":"2026-05-22T10:33:15.308005+05:30"},{"city":"Hyderabad","state":"Telangana","latitude":17.385,"longitude":78.4867,"temp":36.5,"humidity":36,"rain":0.0,"pressure":953.6,"uv_index":6.45,"wind_gusts":51.1,"aqi":81,"pm10":21.8,"pm2_5":16.1,"no2":3.3,"co":292.0,"o3":124.0,"so2":6.6,"mosquito_risk":0,"arthritis_risk":5,"migraine_risk":10,"frizz_risk":1,"updated_at":"2026-05-22T10:33:15.308014+05:30"},{"city":"Chennai","state":"Tamil Nadu","latitude":13.0827,"longitude":80.2707,"temp":39.0,"humidity":37,"rain":0.0,"pressure":1005.7,"uv_index":9.05,"wind_gusts":43.2,"aqi":66,"pm10":20.6,"pm2_5":18.6,"no2":8.8,"co":318.0,"o3":161.0,"so2":10.1,"mosquito_risk":0,"arthritis_risk":5,"migraine_risk":7,"frizz_risk":1,"updated_at":"2026-05-22T10:33:15.308023+05:30"},{"city":"Kolkata","state":"West Bengal","latitude":22.5726,"longitude":88.3639,"temp":34.8,"humidity":66,"rain":0.0,"pressure":1003.9,"uv_index":8.95,"wind_gusts":31.7,"aqi":128,"pm10":73.8,"pm2_5":47.7,"no2":2.5,"co":345.0,"o3":129.0,"so2":8.3,"mosquito_risk":3,"arthritis_risk":5,"migraine_risk":4,"frizz_risk":1,"updated_at":"2026-05-22T10:33:15.308030+05:30"},{"city":"Pune","state":"Maharashtra","latitude":18.5204,"longitude":73.8567,"temp":33.3,"humidity":45,"rain":0.0,"pressure":950.4,"uv_index":8.4,"wind_gusts":51.8,"aqi":54,"pm10":17.8,"pm2_5":11.8,"no2":3.9,"co":203.0,"o3":100.0,"so2":7.8,"mosquito_risk":0,"arthritis_risk":5,"migraine_risk":7,"frizz_risk":1,"updated_at":"2026-05-22T10:33:15.308037+05:30"},{"city":"Ahmedabad","state":"Gujarat","latitude":23.0225,"longitude":72.5714,"temp":36.2,"humidity":32,"rain":0.0,"pressure":1003.2,"uv_index":8.2,"wind_gusts":34.6,"aqi":72,"pm10":88.9,"pm2_5":33.6,"no2":3.0,"co":197.0,"o3":94.0,"so2":4.4,"mosquito_risk":0,"arthritis_risk":5,"migraine_risk":7,"frizz_risk":1,"updated_at":"2026-05-22T10:33:15.308044+05:30"},{"city":"Jaipur","state":"Rajasthan","latitude":26.9124,"longitude":75.7873,"temp":37.4,"humidity":25,"rain":0.0,"pressure":960.4,"uv_index":8.25,"wind_gusts":45.0,"aqi":149,"pm10":469.4,"pm2_5":84.5,"no2":1.9,"co":172.0,"o3":97.0,"so2":4.1,"mosquito_risk":0,"arthritis_risk":5,"migraine_risk":10,"frizz_risk":0,"updated_at":"2026-05-22T10:33:15.308067+05:30"},{"city":"Lucknow","state":"Uttar Pradesh","latitude":26.8467,"longitude":80.9462,"temp":38.7,"humidity":26,"rain":0.0,"pressure":991.4,"uv_index":8.25,"wind_gusts":33.1,"aqi":193,"pm10":362.3,"pm2_5":94.5,"no2":5.7,"co":290.0,"o3":171.0,"so2":12.3,"mosquito_risk":0,"arthritis_risk":5,"migraine_risk":10,"frizz_risk":0,"updated_at":"2026-05-22T10:33:15.308074+05:30"},{"city":"Kanpur","state":"Uttar Pradesh","latitude":26.4499,"longitude":80.3319,"temp":39.8,"humidity":17,"rain":0.0,"pressure":990.0,"uv_index":8.25,"wind_gusts":37.8,"aqi":429,"pm10":704.1,"pm2_5":117.1,"no2":3.5,"co":206.0,"o3":135.0,"so2":7.9,"mosquito_risk":0,"arthritis_risk":5,"migraine_risk":10,"frizz_risk":0,"updated_at":"2026-05-22T10:33:15.308081+05:30"},{"city":"Chandigarh","state":"Chandigarh","latitude":30.7333,"longitude":76.7794,"temp":38.0,"humidity":21,"rain":0.0,"pressure":967.8,"uv_index":7.75,"wind_gusts":45.4,"aqi":94,"pm10":52.9,"pm2_5":27.9,"no2":4.8,"co":467.0,"o3":168.0,"so2":12.8,"mosquito_risk":0,"arthritis_risk":5,"migraine_risk":10,"frizz_risk":0,"updated_at":"2026-05-22T10:33:15.308088+05:30"},{"city":"Srinagar","state":"Jammu and Kashmir","latitude":34.0837,"longitude":74.7973,"temp":18.2,"humidity":68,"rain":0.0,"pressure":846.3,"uv_index":8.95,"wind_gusts":29.9,"aqi":66,"pm10":68.0,"pm2_5":17.8,"no2":2.9,"co":212.0,"o3":112.0,"so2":3.0,"mosquito_risk":3,"arthritis_risk":5,"migraine_risk":7,"frizz_risk":0,"updated_at":"2026-05-22T10:33:15.308095+05:30"},{"city":"Jammu","state":"Jammu and Kashmir","latitude":32.7266,"longitude":74.857,"temp":35.6,"humidity":25,"rain":0.0,"pressure":972.5,"uv_index":8.55,"wind_gusts":41.8,"aqi":77,"pm10":58.9,"pm2_5":20.0,"no2":3.5,"co":185.0,"o3":119.0,"so2":2.4,"mosquito_risk":0,"arthritis_risk":5,"migraine_risk":10,"frizz_risk":0,"updated_at":"2026-05-22T10:33:15.308102+05:30"},{"city":"Amritsar","state":"Punjab","latitude":31.634,"longitude":74.8723,"temp":33.9,"humidity":36,"rain":0.0,"pressure":980.3,"uv_index":8.45,"wind_gusts":56.2,"aqi":80,"pm10":70.1,"pm2_5":23.3,"no2":3.0,"co":229.0,"o3":121.0,"so2":3.8,"mosquito_risk":0,"arthritis_risk":5,"migraine_risk":7,"frizz_risk":1,"updated_at":"2026-05-22T10:33:15.308108+05:30"},{"city":"Ludhiana","state":"Punjab","latitude":30.901,"longitude":75.8573,"temp":35.3,"humidity":28,"rain":0.0,"pressure":978.1,"uv_index":8.0,"wind_gusts":42.8,"aqi":90,"pm10":46.4,"pm2_5":20.5,"no2":4.1,"co":250.0,"o3":120.0,"so2":5.5,"mosquito_risk":0,"arthritis_risk":5,"migraine_risk":10,"frizz_risk":0,"updated_at":"2026-05-22T10:33:15.308114+05:30"},{"city":"Jalandhar","state":"Punjab","latitude":31.326,"longitude":75.5762,"temp":35.6,"humidity":26,"rain":0.0,"pressure":979.2,"uv_index":7.15,"wind_gusts":43.6,"aqi":95,"pm10":55.1,"pm2_5":22.2,"no2":3.6,"co":256.0,"o3":118.0,"so2":3.3,"mosquito_risk":0,"arthritis_risk":5,"migraine_risk":10,"frizz_risk":0,"updated_at":"2026-05-22T10:33:15.308120+05:30"},{"city":"Dehradun","state":"Uttarakhand","latitude":30.6284,"longitude":78.0322,"temp":27.7,"humidity":29,"rain":0.0,"pressure":835.1,"uv_index":8.2,"wind_gusts":36.0,"aqi":79,"pm10":88.2,"pm2_5":29.9,"no2":0.5,"co":180.0,"o3":150.0,"so2":6.3,"mosquito_risk":4,"arthritis_risk":5,"migraine_risk":7,"frizz_risk":0,"updated_at":"2026-05-22T10:33:15.308126+05:30"},{"city":"Shimla","state":"Himachal Pradesh","latitude":31.1048,"longitude":77.1734,"temp":22.6,"humidity":38,"rain":0.0,"pressure":790.0,"uv_index":8.1,"wind_gusts":38.9,"aqi":77,"pm10":56.2,"pm2_5":21.3,"no2":0.4,"co":167.0,"o3":137.0,"so2":3.9,"mosquito_risk":0,"arthritis_risk":5,"migraine_risk":7,"frizz_risk":0,"updated_at":"2026-05-22T10:33:15.308135+05:30"},{"city":"Manali","state":"Himachal Pradesh","latitude":32.2396,"longitude":77.1887,"temp":15.2,"humidity":93,"rain":0.5,"pressure":823.6,"uv_index":7.65,"wind_gusts":51.8,"aqi":47,"pm10":39.9,"pm2_5":13.8,"no2":3.9,"co":149.0,"o3":125.0,"so2":1.3,"mosquito_risk":6,"arthritis_risk":10,"migraine_risk":7,"frizz_risk":0,"updated_at":"2026-05-22T10:33:15.308144+05:30"},{"city":"Gurgaon","state":"Haryana","latitude":28.4595,"longitude":77.0266,"temp":38.2,"humidity":22,"rain":0.0,"pressure":979.9,"uv_index":7.85,"wind_gusts":34.2,"aqi":1737,"pm10":2019.1,"pm2_5":279.4,"no2":8.3,"co":273.0,"o3":120.0,"so2":11.0,"mosquito_risk":0,"arthritis_risk":5,"migraine_risk":10,"frizz_risk":0,"updated_at":"2026-05-22T10:33:15.308150+05:30"},{"city":"Noida","state":"Uttar Pradesh","latitude":28.5355,"longitude":77.391,"temp":39.2,"humidity":21,"rain":0.0,"pressure":982.5,"uv_index":7.8,"wind_gusts":29.9,"aqi":1737,"pm10":2019.1,"pm2_5":279.4,"no2":8.3,"co":385.0,"o3":120.0,"so2":11.0,"mosquito_risk":0,"arthritis_risk":5,"migraine_risk":10,"frizz_risk":0,"updated_at":"2026-05-22T10:33:15.308157+05:30"},{"city":"Ghaziabad","state":"Uttar Pradesh","latitude":28.6692,"longitude":77.4538,"temp":39.3,"humidity":20,"rain":0.0,"pressure":980.8,"uv_index":7.8,"wind_gusts":34.2,"aqi":546,"pm10":430.3,"pm2_5":102.2,"no2":10.0,"co":301.0,"o3":163.0,"so2":21.5,"mosquito_risk":0,"arthritis_risk":5,"migraine_risk":10,"frizz_risk":0,"updated_at":"2026-05-22T10:33:15.308162+05:30"},{"city":"Faridabad","state":"Haryana","latitude":28.4089,"longitude":77.3178,"temp":38.9,"humidity":21,"rain":0.0,"pressure":981.9,"uv_index":7.85,"wind_gusts":37.8,"aqi":1737,"pm10":2019.1,"pm2_5":279.4,"no2":8.3,"co":298.0,"o3":120.0,"so2":11.0,"mosquito_risk":0,"arthritis_risk":5,"migraine_risk":10,"frizz_risk":0,"updated_at":"2026-05-22T10:33:15.308168+05:30"},{"city":"Meerut","state":"Uttar Pradesh","latitude":28.9845,"longitude":77.7064,"temp":37.4,"humidity":22,"rain":0.0,"pressure":979.9,"uv_index":7.7,"wind_gusts":30.6,"aqi":546,"pm10":430.3,"pm2_5":102.2,"no2":10.0,"co":270.0,"o3":163.0,"so2":21.5,"mosquito_risk":0,"arthritis_risk":5,"migraine_risk":10,"frizz_risk":0,"updated_at":"2026-05-22T10:33:15.308174+05:30"},{"city":"Agra","state":"Uttar Pradesh","latitude":27.1767,"longitude":78.0081,"temp":39.6,"humidity":22,"rain":0.0,"pressure":986.3,"uv_index":8.1,"wind_gusts":36.7,"aqi":924,"pm10":1154.8,"pm2_5":146.2,"no2":3.5,"co":192.0,"o3":116.0,"so2":4.7,"mosquito_risk":0,"arthritis_risk":5,"migraine_risk":10,"frizz_risk":0,"updated_at":"2026-05-22T10:33:15.308181+05:30"},{"city":"Varanasi","state":"Uttar Pradesh","latitude":25.3176,"longitude":82.9739,"temp":39.3,"humidity":36,"rain":0.0,"pressure":995.3,"uv_index":8.75,"wind_gusts":33.5,"aqi":129,"pm10":55.5,"pm2_5":31.3,"no2":6.8,"co":399.0,"o3":171.0,"so2":15.2,"mosquito_risk":0,"arthritis_risk":5,"migraine_risk":10,"frizz_risk":1,"updated_at":"2026-05-22T10:33:15.308187+05:30"},{"city":"Prayagraj","state":"Uttar Pradesh","latitude":25.4358,"longitude":81.8463,"temp":39.7,"humidity":21,"rain":0.0,"pressure":993.8,"uv_index":8.65,"wind_gusts":36.0,"aqi":110,"pm10":87.8,"pm2_5":38.8,"no2":7.0,"co":213.0,"o3":164.0,"so2":13.4,"mosquito_risk":0,"arthritis_risk":5,"migraine_risk":10,"frizz_risk":0,"updated_at":"2026-05-22T10:33:15.308194+05:30"},{"city":"Gorakhpur","state":"Uttar Pradesh","latitude":26.7606,"longitude":83.3732,"temp":35.0,"humidity":54,"rain":0.0,"pressure":995.7,"uv_index":8.65,"wind_gusts":29.9,"aqi":157,"pm10":69.6,"pm2_5":54.4,"no2":3.6,"co":387.0,"o3":177.0,"so2":16.4,"mosquito_risk":0,"arthritis_risk":5,"migraine_risk":7,"frizz_risk":1,"updated_at":"2026-05-22T10:33:15.308202+05:30"},{"city":"Bareilly","state":"Uttar Pradesh","latitude":28.367,"longitude":79.4304,"temp":35.8,"humidity":43,"rain":0.0,"pressure":985.1,"uv_index":8.05,"wind_gusts":27.0,"aqi":190,"pm10":257.0,"pm2_5":101.3,"no2":6.9,"co":519.0,"o3":206.0,"so2":14.1,"mosquito_risk":0,"arthritis_risk":5,"migraine_risk":10,"frizz_risk":1,"updated_at":"2026-05-22T10:33:15.308209+05:30"},{"city":"Aligarh","state":"Uttar Pradesh","latitude":27.8974,"longitude":78.088,"temp":38.3,"humidity":25,"rain":0.0,"pressure":984.0,"uv_index":7.9,"wind_gusts":33.5,"aqi":1017,"pm10":1244.2,"pm2_5":201.6,"no2":5.1,"co":209.0,"o3":127.0,"so2":9.8,"mosquito_risk":0,"arthritis_risk":5,"migraine_risk":10,"frizz_risk":0,"updated_at":"2026-05-22T10:33:15.308215+05:30"},{"city":"Moradabad","state":"Uttar Pradesh","latitude":28.8386,"longitude":78.7733,"temp":37.5,"humidity":25,"rain":0.0,"pressure":982.1,"uv_index":7.9,"wind_gusts":29.5,"aqi":242,"pm10":299.9,"pm2_5":112.5,"no2":14.3,"co":572.0,"o3":218.0,"so2":24.5,"mosquito_risk":0,"arthritis_risk":5,"migraine_risk":10,"frizz_risk":0,"updated_at":"2026-05-22T10:33:15.308221+05:30"},{"city":"Saharanpur","state":"Uttar Pradesh","latitude":29.9637,"longitude":77.546,"temp":36.1,"humidity":31,"rain":0.0,"pressure":974.2,"uv_index":7.5,"wind_gusts":36.7,"aqi":162,"pm10":187.7,"pm2_5":80.1,"no2":8.1,"co":409.0,"o3":205.0,"so2":15.4,"mosquito_risk":0,"arthritis_risk":5,"migraine_risk":10,"frizz_risk":1,"updated_at":"2026-05-22T10:33:15.308227+05:30"},{"city":"Jhansi","state":"Uttar Pradesh","latitude":25.4484,"longitude":78.5685,"temp":39.3,"humidity":20,"rain":0.0,"pressure":977.6,"uv_index":8.5,"wind_gusts":43.6,"aqi":53,"pm10":139.7,"pm2_5":27.8,"no2":1.4,"co":139.0,"o3":106.0,"so2":3.0,"mosquito_risk":0,"arthritis_risk":5,"migraine_risk":10,"frizz_risk":0,"updated_at":"2026-05-22T10:33:18.614839+05:30"},{"city":"Surat","state":"Gujarat","latitude":21.1702,"longitude":72.8311,"temp":34.8,"humidity":50,"rain":0.0,"pressure":1008.0,"uv_index":7.75,"wind_gusts":40.3,"aqi":78,"pm10":36.3,"pm2_5":25.9,"no2":18.3,"co":408.0,"o3":47.0,"so2":58.8,"mosquito_risk":0,"arthritis_risk":0,"migraine_risk":4,"frizz_risk":1,"updated_at":"2026-05-22T10:33:18.614871+05:30"},{"city":"Vadodara","state":"Gujarat","latitude":22.3072,"longitude":73.1812,"temp":37.2,"humidity":32,"rain":0.0,"pressure":1005.1,"uv_index":8.15,"wind_gusts":41.4,"aqi":78,"pm10":66.4,"pm2_5":31.5,"no2":4.3,"co":217.0,"o3":101.0,"so2":10.5,"mosquito_risk":0,"arthritis_risk":5,"migraine_risk":7,"frizz_risk":1,"updated_at":"2026-05-22T10:33:18.614883+05:30"},{"city":"Rajkot","state":"Gujarat","latitude":22.3039,"longitude":70.8022,"temp":35.2,"humidity":39,"rain":0.0,"pressure":995.6,"uv_index":7.8,"wind_gusts":48.6,"aqi":76,"pm10":81.5,"pm2_5":29.5,"no2":2.5,"co":151.0,"o3":93.0,"so2":7.3,"mosquito_risk":0,"arthritis_risk":5,"migraine_risk":10,"frizz_risk":1,"updated_at":"2026-05-22T10:33:18.614893+05:30"},{"city":"Thane","state":"Maharashtra","latitude":19.2183,"longitude":72.9781,"temp":35.1,"humidity":54,"rain":0.0,"pressure":1009.0,"uv_index":6.95,"wind_gusts":36.7,"aqi":56,"pm10":30.5,"pm2_5":20.6,"no2":9.3,"co":228.0,"o3":88.0,"so2":14.0,"mosquito_risk":0,"arthritis_risk":0,"migraine_risk":7,"frizz_risk":1,"updated_at":"2026-05-22T10:33:18.614903+05:30"},{"city":"Nagpur","state":"Maharashtra","latitude":21.1458,"longitude":79.0882,"temp":41.8,"humidity":12,"rain":0.0,"pressure":972.5,"uv_index":8.9,"wind_gusts":41.8,"aqi":67,"pm10":21.5,"pm2_5":13.4,"no2":4.8,"co":186.0,"o3":138.0,"so2":15.0,"mosquito_risk":0,"arthritis_risk":5,"migraine_risk":10,"frizz_risk":0,"updated_at":"2026-05-22T10:33:18.614911+05:30"},{"city":"Nashik","state":"Maharashtra","latitude":19.9975,"longitude":73.7898,"temp":32.8,"humidity":49,"rain":0.0,"pressure":948.0,"uv_index":8.15,"wind_gusts":36.0,"aqi":52,"pm10":24.0,"pm2_5":15.2,"no2":5.0,"co":159.0,"o3":77.0,"so2":9.6,"mosquito_risk":0,"arthritis_risk":5,"migraine_risk":7,"frizz_risk":1,"updated_at":"2026-05-22T10:33:18.614920+05:30"},{"city":"Aurangabad","state":"Maharashtra","latitude":19.8762,"longitude":75.3433,"temp":34.8,"humidity":34,"rain":0.0,"pressure":946.3,"uv_index":6.35,"wind_gusts":56.2,"aqi":63,"pm10":32.9,"pm2_5":17.2,"no2":2.5,"co":191.0,"o3":103.0,"so2":6.2,"mosquito_risk":0,"arthritis_risk":5,"migraine_risk":7,"frizz_risk":1,"updated_at":"2026-05-22T10:33:18.614928+05:30"},{"city":"Solapur","state":"Maharashtra","latitude":17.6599,"longitude":75.9064,"temp":34.9,"humidity":43,"rain":0.0,"pressure":958.8,"uv_index":9.0,"wind_gusts":41.8,"aqi":64,"pm10":21.1,"pm2_5":13.7,"no2":1.9,"co":168.0,"o3":109.0,"so2":4.6,"mosquito_risk":0,"arthritis_risk":5,"migraine_risk":7,"frizz_risk":1,"updated_at":"2026-05-22T10:33:18.614936+05:30"},{"city":"Kolhapur","state":"Maharashtra","latitude":16.705,"longitude":74.2433,"temp":31.8,"humidity":49,"rain":0.0,"pressure":950.5,"uv_index":8.3,"wind_gusts":40.7,"aqi":49,"pm10":7.7,"pm2_5":6.0,"no2":2.1,"co":155.0,"o3":80.0,"so2":1.6,"mosquito_risk":0,"arthritis_risk":5,"migraine_risk":7,"frizz_risk":1,"updated_at":"2026-05-22T10:33:18.614944+05:30"},{"city":"Goa","state":"Goa","latitude":15.2993,"longitude":74.124,"temp":31.8,"humidity":69,"rain":0.0,"pressure":999.5,"uv_index":6.0,"wind_gusts":28.8,"aqi":30,"pm10":6.7,"pm2_5":4.7,"no2":0.9,"co":139.0,"o3":62.0,"so2":0.8,"mosquito_risk":3,"arthritis_risk":5,"migraine_risk":3,"frizz_risk":1,"updated_at":"2026-05-22T10:33:18.614995+05:30"},{"city":"Jodhpur","state":"Rajasthan","latitude":26.2389,"longitude":73.0243,"temp":36.0,"humidity":30,"rain":0.0,"pressure":983.8,"uv_index":8.45,"wind_gusts":36.4,"aqi":158,"pm10":269.2,"pm2_5":58.9,"no2":1.6,"co":138.0,"o3":95.0,"so2":4.4,"mosquito_risk":0,"arthritis_risk":5,"migraine_risk":10,"frizz_risk":0,"updated_at":"2026-05-22T10:33:18.615006+05:30"},{"city":"Udaipur","state":"Rajasthan","latitude":24.5854,"longitude":73.7125,"temp":35.5,"humidity":21,"rain":0.0,"pressure":948.5,"uv_index":8.9,"wind_gusts":40.3,"aqi":57,"pm10":84.3,"pm2_5":25.4,"no2":1.1,"co":141.0,"o3":101.0,"so2":3.6,"mosquito_risk":0,"arthritis_risk":5,"migraine_risk":10,"frizz_risk":0,"updated_at":"2026-05-22T10:33:18.615015+05:30"},{"city":"Kota","state":"Rajasthan","latitude":25.2138,"longitude":75.8648,"temp":39.6,"humidity":16,"rain":0.0,"pressure":979.3,"uv_index":8.4,"wind_gusts":42.8,"aqi":64,"pm10":68.2,"pm2_5":22.0,"no2":1.7,"co":142.0,"o3":98.0,"so2":3.4,"mosquito_risk":0,"arthritis_risk":5,"migraine_risk":10,"frizz_risk":0,"updated_at":"2026-05-22T10:33:18.615024+05:30"},{"city":"Bikaner","state":"Rajasthan","latitude":28.0229,"longitude":73.3119,"temp":37.2,"humidity":27,"rain":0.0,"pressure":981.9,"uv_index":8.4,"wind_gusts":25.9,"aqi":165,"pm10":167.2,"pm2_5":70.1,"no2":0.5,"co":164.0,"o3":101.0,"so2":4.4,"mosquito_risk":0,"arthritis_risk":5,"migraine_risk":10,"frizz_risk":0,"updated_at":"2026-05-22T10:33:18.615033+05:30"},{"city":"Ajmer","state":"Rajasthan","latitude":26.4499,"longitude":74.6399,"temp":36.0,"humidity":20,"rain":0.0,"pressure":956.0,"uv_index":8.4,"wind_gusts":42.8,"aqi":73,"pm10":106.2,"pm2_5":32.2,"no2":1.4,"co":149.0,"o3":91.0,"so2":3.7,"mosquito_risk":0,"arthritis_risk":5,"migraine_risk":10,"frizz_risk":0,"updated_at":"2026-05-22T10:33:18.615042+05:30"},{"city":"Gwalior","state":"Madhya Pradesh","latitude":26.2183,"longitude":78.1828,"temp":39.3,"humidity":20,"rain":0.0,"pressure":982.5,"uv_index":8.3,"wind_gusts":45.4,"aqi":63,"pm10":169.0,"pm2_5":39.1,"no2":1.3,"co":148.0,"o3":104.0,"so2":3.0,"mosquito_risk":0,"arthritis_risk":5,"migraine_risk":10,"frizz_risk":0,"updated_at":"2026-05-22T10:33:18.615050+05:30"},{"city":"Indore","state":"Madhya Pradesh","latitude":22.7196,"longitude":75.8577,"temp":36.3,"humidity":27,"rain":0.0,"pressure":950.2,"uv_index":8.7,"wind_gusts":42.5,"aqi":68,"pm10":33.4,"pm2_5":18.6,"no2":3.2,"co":208.0,"o3":107.0,"so2":10.2,"mosquito_risk":0,"arthritis_risk":5,"migraine_risk":10,"frizz_risk":0,"updated_at":"2026-05-22T10:33:18.615058+05:30"},{"city":"Bhopal","state":"Madhya Pradesh","latitude":23.2599,"longitude":77.4126,"temp":38.5,"humidity":14,"rain":0.0,"pressure":955.0,"uv_index":8.75,"wind_gusts":41.0,"aqi":63,"pm10":35.5,"pm2_5":13.6,"no2":1.5,"co":178.0,"o3":115.0,"so2":5.3,"mosquito_risk":0,"arthritis_risk":5,"migraine_risk":10,"frizz_risk":0,"updated_at":"2026-05-22T10:33:18.615068+05:30"},{"city":"Jabalpur","state":"Madhya Pradesh","latitude":23.1815,"longitude":79.9864,"temp":40.3,"humidity":10,"rain":0.0,"pressure":962.0,"uv_index":8.9,"wind_gusts":39.2,"aqi":60,"pm10":15.3,"pm2_5":8.1,"no2":2.0,"co":159.0,"o3":127.0,"so2":3.6,"mosquito_risk":0,"arthritis_risk":5,"migraine_risk":10,"frizz_risk":0,"updated_at":"2026-05-22T10:33:18.615078+05:30"},{"city":"Ujjain","state":"Madhya Pradesh","latitude":23.1765,"longitude":75.7885,"temp":36.5,"humidity":26,"rain":0.0,"pressure":955.6,"uv_index":8.65,"wind_gusts":40.0,"aqi":68,"pm10":36.2,"pm2_5":19.8,"no2":2.8,"co":172.0,"o3":100.0,"so2":8.7,"mosquito_risk":0,"arthritis_risk":5,"migraine_risk":10,"frizz_risk":0,"updated_at":"2026-05-22T10:33:18.615087+05:30"},{"city":"Visakhapatnam","state":"Andhra Pradesh","latitude":17.6868,"longitude":83.2185,"temp":37.7,"humidity":52,"rain":0.0,"pressure":1000.0,"uv_index":9.05,"wind_gusts":36.7,"aqi":132,"pm10":56.8,"pm2_5":46.0,"no2":13.4,"co":457.0,"o3":174.0,"so2":44.0,"mosquito_risk":0,"arthritis_risk":5,"migraine_risk":7,"frizz_risk":1,"updated_at":"2026-05-22T10:33:18.615096+05:30"},{"city":"Vijayawada","state":"Andhra Pradesh","latitude":16.5062,"longitude":80.648,"temp":39.7,"humidity":36,"rain":0.0,"pressure":999.5,"uv_index":9.1,"wind_gusts":46.4,"aqi":111,"pm10":22.9,"pm2_5":19.7,"no2":4.7,"co":228.0,"o3":133.0,"so2":8.4,"mosquito_risk":0,"arthritis_risk":5,"migraine_risk":10,"frizz_risk":1,"updated_at":"2026-05-22T10:33:18.615104+05:30"},{"city":"Guntur","state":"Andhra Pradesh","latitude":16.3067,"longitude":80.4365,"temp":39.7,"humidity":36,"rain":0.0,"pressure":1000.9,"uv_index":9.1,"wind_gusts":46.8,"aqi":110,"pm10":19.1,"pm2_5":16.2,"no2":4.5,"co":221.0,"o3":124.0,"so2":7.1,"mosquito_risk":0,"arthritis_risk":5,"migraine_risk":7,"frizz_risk":1,"updated_at":"2026-05-22T10:33:18.615113+05:30"},{"city":"Nellore","state":"Andhra Pradesh","latitude":14.4426,"longitude":79.9865,"temp":37.7,"humidity":39,"rain":0.0,"pressure":1004.3,"uv_index":8.6,"wind_gusts":49.7,"aqi":73,"pm10":13.3,"pm2_5":10.8,"no2":3.1,"co":167.0,"o3":120.0,"so2":6.7,"mosquito_risk":0,"arthritis_risk":5,"migraine_risk":7,"frizz_risk":1,"updated_at":"2026-05-22T10:33:18.615122+05:30"},{"city":"Kurnool","state":"Andhra Pradesh","latitude":15.8281,"longitude":78.0373,"temp":35.8,"humidity":42,"rain":0.0,"pressure":978.0,"uv_index":6.8,"wind_gusts":45.0,"aqi":71,"pm10":8.1,"pm2_5":7.0,"no2":2.9,"co":154.0,"o3":95.0,"so2":7.4,"mosquito_risk":0,"arthritis_risk":5,"migraine_risk":10,"frizz_risk":1,"updated_at":"2026-05-22T10:33:18.615131+05:30"},{"city":"Kakinada","state":"Andhra Pradesh","latitude":16.9891,"longitude":82.2475,"temp":39.2,"humidity":40,"rain":0.0,"pressure":1003.7,"uv_index":9.1,"wind_gusts":39.6,"aqi":97,"pm10":40.4,"pm2_5":31.9,"no2":4.5,"co":322.0,"o3":176.0,"so2":10.2,"mosquito_risk":0,"arthritis_risk":5,"migraine_risk":7,"frizz_risk":1,"updated_at":"2026-05-22T10:33:18.615139+05:30"},{"city":"Tirupati","state":"Andhra Pradesh","latitude":13.6288,"longitude":79.4192,"temp":38.3,"humidity":35,"rain":0.0,"pressure":990.1,"uv_index":8.1,"wind_gusts":43.2,"aqi":73,"pm10":13.0,"pm2_5":10.3,"no2":2.6,"co":167.0,"o3":118.0,"so2":2.3,"mosquito_risk":0,"arthritis_risk":5,"migraine_risk":10,"frizz_risk":1,"updated_at":"2026-05-22T10:33:18.615148+05:30"},{"city":"Warangal","state":"Telangana","latitude":17.9689,"longitude":79.5941,"temp":39.6,"humidity":28,"rain":0.0,"pressure":976.7,"uv_index":9.1,"wind_gusts":46.1,"aqi":126,"pm10":33.6,"pm2_5":25.9,"no2":3.2,"co":227.0,"o3":146.0,"so2":10.0,"mosquito_risk":0,"arthritis_risk":5,"migraine_risk":10,"frizz_risk":1,"updated_at":"2026-05-22T10:33:18.615156+05:30"},{"city":"Nizamabad","state":"Telangana","latitude":18.6725,"longitude":78.0941,"temp":39.6,"humidity":22,"rain":0.0,"pressure":965.0,"uv_index":9.1,"wind_gusts":41.8,"aqi":88,"pm10":35.9,"pm2_5":21.2,"no2":2.8,"co":190.0,"o3":133.0,"so2":7.9,"mosquito_risk":0,"arthritis_risk":5,"migraine_risk":10,"frizz_risk":0,"updated_at":"2026-05-22T10:33:18.615164+05:30"},{"city":"Mysore","state":"Karnataka","latitude":12.2958,"longitude":76.6396,"temp":30.2,"humidity":53,"rain":0.0,"pressure":931.0,"uv_index":8.25,"wind_gusts":56.2,"aqi":24,"pm10":7.5,"pm2_5":5.9,"no2":2.7,"co":151.0,"o3":80.0,"so2":1.7,"mosquito_risk":0,"arthritis_risk":5,"migraine_risk":7,"frizz_risk":1,"updated_at":"2026-05-22T10:33:18.615171+05:30"},{"city":"Mangalore","state":"Karnataka","latitude":12.9141,"longitude":74.856,"temp":29.5,"humidity":75,"rain":0.1,"pressure":1009.0,"uv_index":8.05,"wind_gusts":44.6,"aqi":40,"pm10":8.2,"pm2_5":6.0,"no2":2.0,"co":172.0,"o3":72.0,"so2":1.9,"mosquito_risk":10,"arthritis_risk":0,"migraine_risk":4,"frizz_risk":1,"updated_at":"2026-05-22T10:33:18.615186+05:30"},{"city":"Hubli-Dharwad","state":"Karnataka","latitude":15.3647,"longitude":75.124,"temp":29.8,"humidity":59,"rain":0.0,"pressure":943.5,"uv_index":8.7,"wind_gusts":49.7,"aqi":22,"pm10":3.8,"pm2_5":2.9,"no2":1.7,"co":130.0,"o3":68.0,"so2":0.7,"mosquito_risk":4,"arthritis_risk":5,"migraine_risk":7,"frizz_risk":1,"updated_at":"2026-05-22T10:33:18.615195+05:30"},{"city":"Belgaum","state":"Karnataka","latitude":15.8497,"longitude":74.4977,"temp":29.5,"humidity":57,"rain":0.0,"pressure":928.6,"uv_index":8.4,"wind_gusts":42.5,"aqi":30,"pm10":5.6,"pm2_5":4.1,"no2":1.7,"co":126.0,"o3":72.0,"so2":1.4,"mosquito_risk":4,"arthritis_risk":5,"migraine_risk":7,"frizz_risk":1,"updated_at":"2026-05-22T10:33:21.926499+05:30"},{"city":"Coimbatore","state":"Tamil Nadu","latitude":11.0168,"longitude":76.9558,"temp":31.2,"humidity":56,"rain":0.0,"pressure":963.8,"uv_index":8.8,"wind_gusts":58.7,"aqi":24,"pm10":7.4,"pm2_5":5.5,"no2":1.9,"co":165.0,"o3":78.0,"so2":2.1,"mosquito_risk":0,"arthritis_risk":5,"migraine_risk":7,"frizz_risk":1,"updated_at":"2026-05-22T10:33:21.926528+05:30"},{"city":"Madurai","state":"Tamil Nadu","latitude":9.9252,"longitude":78.1198,"temp":36.8,"humidity":39,"rain":0.0,"pressure":993.4,"uv_index":8.8,"wind_gusts":53.3,"aqi":62,"pm10":16.8,"pm2_5":13.6,"no2":5.7,"co":160.0,"o3":119.0,"so2":5.1,"mosquito_risk":0,"arthritis_risk":5,"migraine_risk":10,"frizz_risk":1,"updated_at":"2026-05-22T10:33:21.926538+05:30"},{"city":"Trichy","state":"Tamil Nadu","latitude":10.7905,"longitude":78.7047,"temp":34.3,"humidity":51,"rain":0.0,"pressure":999.6,"uv_index":8.95,"wind_gusts":45.7,"aqi":38,"pm10":10.5,"pm2_5":8.1,"no2":2.8,"co":154.0,"o3":80.0,"so2":3.2,"mosquito_risk":0,"arthritis_risk":5,"migraine_risk":7,"frizz_risk":1,"updated_at":"2026-05-22T10:33:21.926546+05:30"},{"city":"Salem","state":"Tamil Nadu","latitude":11.6643,"longitude":78.146,"temp":33.9,"humidity":50,"rain":0.0,"pressure":978.4,"uv_index":8.8,"wind_gusts":47.2,"aqi":50,"pm10":14.4,"pm2_5":12.6,"no2":5.5,"co":166.0,"o3":119.0,"so2":14.5,"mosquito_risk":0,"arthritis_risk":5,"migraine_risk":7,"frizz_risk":1,"updated_at":"2026-05-22T10:33:21.926553+05:30"},{"city":"Tirunelveli","state":"Tamil Nadu","latitude":8.7139,"longitude":77.7567,"temp":36.1,"humidity":42,"rain":0.0,"pressure":1003.8,"uv_index":8.1,"wind_gusts":56.5,"aqi":20,"pm10":3.8,"pm2_5":3.1,"no2":1.7,"co":136.0,"o3":69.0,"so2":1.1,"mosquito_risk":0,"arthritis_risk":5,"migraine_risk":7,"frizz_risk":1,"updated_at":"2026-05-22T10:33:21.926560+05:30"},{"city":"Vellore","state":"Tamil Nadu","latitude":12.9165,"longitude":79.1325,"temp":35.1,"humidity":46,"rain":0.0,"pressure":984.2,"uv_index":7.2,"wind_gusts":53.3,"aqi":66,"pm10":10.3,"pm2_5":8.8,"no2":3.0,"co":173.0,"o3":115.0,"so2":3.5,"mosquito_risk":0,"arthritis_risk":5,"migraine_risk":10,"frizz_risk":1,"updated_at":"2026-05-22T10:33:21.926567+05:30"},{"city":"Erode","state":"Tamil Nadu","latitude":11.341,"longitude":77.7172,"temp":35.7,"humidity":38,"rain":0.0,"pressure":989.9,"uv_index":8.1,"wind_gusts":53.3,"aqi":36,"pm10":10.2,"pm2_5":8.1,"no2":3.2,"co":192.0,"o3":92.0,"so2":2.5,"mosquito_risk":0,"arthritis_risk":5,"migraine_risk":10,"frizz_risk":1,"updated_at":"2026-05-22T10:33:21.926575+05:30"},{"city":"Kochi","state":"Kerala","latitude":9.9312,"longitude":76.2673,"temp":28.6,"humidity":76,"rain":0.0,"pressure":1011.7,"uv_index":8.55,"wind_gusts":36.7,"aqi":51,"pm10":10.7,"pm2_5":8.4,"no2":4.0,"co":159.0,"o3":80.0,"so2":4.3,"mosquito_risk":7,"arthritis_risk":0,"migraine_risk":4,"frizz_risk":1,"updated_at":"2026-05-22T10:33:21.926582+05:30"},{"city":"Thiruvananthapuram","state":"Kerala","latitude":8.5241,"longitude":76.9366,"temp":27.8,"humidity":82,"rain":0.1,"pressure":1011.5,"uv_index":7.7,"wind_gusts":44.3,"aqi":25,"pm10":6.9,"pm2_5":4.4,"no2":1.4,"co":135.0,"o3":65.0,"so2":0.9,"mosquito_risk":10,"arthritis_risk":0,"migraine_risk":4,"frizz_risk":1,"updated_at":"2026-05-22T10:33:21.926589+05:30"},{"city":"Kozhikode","state":"Kerala","latitude":11.2588,"longitude":75.7804,"temp":29.1,"humidity":77,"rain":0.1,"pressure":1010.7,"uv_index":7.8,"wind_gusts":30.6,"aqi":28,"pm10":7.2,"pm2_5":4.6,"no2":0.7,"co":163.0,"o3":66.0,"so2":0.8,"mosquito_risk":10,"arthritis_risk":0,"migraine_risk":4,"frizz_risk":1,"updated_at":"2026-05-22T10:33:21.926596+05:30"},{"city":"Thrissur","state":"Kerala","latitude":10.5276,"longitude":76.2144,"temp":28.4,"humidity":79,"rain":0.0,"pressure":1010.0,"uv_index":7.9,"wind_gusts":37.4,"aqi":50,"pm10":11.1,"pm2_5":9.2,"no2":3.6,"co":183.0,"o3":80.0,"so2":4.0,"mosquito_risk":7,"arthritis_risk":0,"migraine_risk":4,"frizz_risk":1,"updated_at":"2026-05-22T10:33:21.926604+05:30"},{"city":"Kannur","state":"Kerala","latitude":11.8745,"longitude":75.3704,"temp":28.9,"humidity":79,"rain":0.1,"pressure":1009.9,"uv_index":7.7,"wind_gusts":37.1,"aqi":36,"pm10":9.2,"pm2_5":6.9,"no2":1.8,"co":151.0,"o3":77.0,"so2":1.9,"mosquito_risk":10,"arthritis_risk":0,"migraine_risk":4,"frizz_risk":1,"updated_at":"2026-05-22T10:33:21.926611+05:30"},{"city":"Patna","state":"Bihar","latitude":25.5941,"longitude":85.1376,"temp":35.0,"humidity":61,"rain":0.0,"pressure":998.6,"uv_index":8.85,"wind_gusts":28.8,"aqi":154,"pm10":75.0,"pm2_5":61.0,"no2":5.1,"co":475.0,"o3":194.0,"so2":22.8,"mosquito_risk":3,"arthritis_risk":5,"migraine_risk":7,"frizz_risk":1,"updated_at":"2026-05-22T10:33:21.926617+05:30"},{"city":"Gaya","state":"Bihar","latitude":24.7914,"longitude":85.0002,"temp":37.5,"humidity":47,"rain":0.0,"pressure":991.8,"uv_index":8.9,"wind_gusts":25.2,"aqi":154,"pm10":119.2,"pm2_5":71.5,"no2":4.4,"co":441.0,"o3":179.0,"so2":30.9,"mosquito_risk":0,"arthritis_risk":5,"migraine_risk":10,"frizz_risk":1,"updated_at":"2026-05-22T10:33:21.926624+05:30"},{"city":"Muzaffarpur","state":"Bihar","latitude":26.1209,"longitude":85.3647,"temp":33.2,"humidity":66,"rain":0.0,"pressure":999.2,"uv_index":8.85,"wind_gusts":35.6,"aqi":151,"pm10":68.9,"pm2_5":54.8,"no2":4.8,"co":397.0,"o3":183.0,"so2":19.9,"mosquito_risk":3,"arthritis_risk":5,"migraine_risk":7,"frizz_risk":1,"updated_at":"2026-05-22T10:33:21.926630+05:30"},{"city":"Bhagalpur","state":"Bihar","latitude":25.2425,"longitude":87.0117,"temp":31.7,"humidity":70,"rain":0.0,"pressure":1000.3,"uv_index":8.85,"wind_gusts":33.5,"aqi":123,"pm10":69.2,"pm2_5":52.4,"no2":8.8,"co":458.0,"o3":151.0,"so2":24.5,"mosquito_risk":3,"arthritis_risk":5,"migraine_risk":4,"frizz_risk":1,"updated_at":"2026-05-22T10:33:21.926637+05:30"},{"city":"Ranchi","state":"Jharkhand","latitude":23.3441,"longitude":85.3096,"temp":35.8,"humidity":28,"rain":0.0,"pressure":938.2,"uv_index":9.3,"wind_gusts":27.4,"aqi":153,"pm10":122.0,"pm2_5":64.5,"no2":2.5,"co":272.0,"o3":183.0,"so2":22.1,"mosquito_risk":0,"arthritis_risk":5,"migraine_risk":10,"frizz_risk":0,"updated_at":"2026-05-22T10:33:21.926643+05:30"},{"city":"Jamshedpur","state":"Jharkhand","latitude":22.8046,"longitude":86.2029,"temp":37.4,"humidity":49,"rain":0.0,"pressure":988.9,"uv_index":9.1,"wind_gusts":32.4,"aqi":151,"pm10":91.7,"pm2_5":65.7,"no2":6.4,"co":628.0,"o3":177.0,"so2":34.8,"mosquito_risk":0,"arthritis_risk":5,"migraine_risk":10,"frizz_risk":1,"updated_at":"2026-05-22T10:33:21.926650+05:30"},{"city":"Dhanbad","state":"Jharkhand","latitude":23.7957,"longitude":86.4304,"temp":37.3,"humidity":47,"rain":0.0,"pressure":978.3,"uv_index":9.1,"wind_gusts":38.9,"aqi":162,"pm10":104.8,"pm2_5":78.7,"no2":22.2,"co":1088.0,"o3":155.0,"so2":89.2,"mosquito_risk":0,"arthritis_risk":5,"migraine_risk":10,"frizz_risk":1,"updated_at":"2026-05-22T10:33:21.926656+05:30"},{"city":"Bokaro","state":"Jharkhand","latitude":23.6693,"longitude":86.1511,"temp":37.4,"humidity":48,"rain":0.0,"pressure":982.0,"uv_index":9.1,"wind_gusts":28.8,"aqi":160,"pm10":117.6,"pm2_5":84.5,"no2":18.8,"co":1222.0,"o3":182.0,"so2":85.1,"mosquito_risk":0,"arthritis_risk":5,"migraine_risk":10,"frizz_risk":1,"updated_at":"2026-05-22T10:33:21.926663+05:30"},{"city":"Bhubaneswar","state":"Odisha","latitude":20.2961,"longitude":85.8245,"temp":36.2,"humidity":62,"rain":0.0,"pressure":1000.5,"uv_index":9.15,"wind_gusts":37.1,"aqi":144,"pm10":44.1,"pm2_5":31.2,"no2":2.1,"co":272.0,"o3":128.0,"so2":9.2,"mosquito_risk":3,"arthritis_risk":5,"migraine_risk":7,"frizz_risk":1,"updated_at":"2026-05-22T10:33:21.926669+05:30"},{"city":"Cuttack","state":"Odisha","latitude":20.4625,"longitude":85.8828,"temp":35.9,"humidity":63,"rain":0.0,"pressure":1002.2,"uv_index":9.2,"wind_gusts":33.8,"aqi":144,"pm10":44.1,"pm2_5":31.2,"no2":2.1,"co":287.0,"o3":128.0,"so2":9.2,"mosquito_risk":3,"arthritis_risk":5,"migraine_risk":7,"frizz_risk":1,"updated_at":"2026-05-22T10:33:21.926675+05:30"},{"city":"Rourkela","state":"Odisha","latitude":22.2604,"longitude":84.8536,"temp":38.5,"humidity":40,"rain":0.0,"pressure":983.1,"uv_index":9.0,"wind_gusts":38.2,"aqi":164,"pm10":126.7,"pm2_5":83.6,"no2":6.1,"co":450.0,"o3":231.0,"so2":34.8,"mosquito_risk":0,"arthritis_risk":5,"migraine_risk":10,"frizz_risk":1,"updated_at":"2026-05-22T10:33:21.926682+05:30"},{"city":"Raipur","state":"Chhattisgarh","latitude":21.2514,"longitude":81.6296,"temp":41.6,"humidity":14,"rain":0.0,"pressure":973.3,"uv_index":8.95,"wind_gusts":37.1,"aqi":154,"pm10":48.0,"pm2_5":33.9,"no2":15.3,"co":201.0,"o3":143.0,"so2":37.3,"mosquito_risk":0,"arthritis_risk":5,"migraine_risk":10,"frizz_risk":0,"updated_at":"2026-05-22T10:33:21.926688+05:30"},{"city":"Bhilai","state":"Chhattisgarh","latitude":21.1938,"longitude":81.3509,"temp":40.5,"humidity":17,"rain":0.0,"pressure":973.8,"uv_index":9.0,"wind_gusts":35.6,"aqi":110,"pm10":31.1,"pm2_5":24.3,"no2":16.4,"co":231.0,"o3":128.0,"so2":48.1,"mosquito_risk":0,"arthritis_risk":5,"migraine_risk":10,"frizz_risk":0,"updated_at":"2026-05-22T10:33:21.926695+05:30"},{"city":"Guwahati","state":"Assam","latitude":26.1158,"longitude":91.7086,"temp":30.6,"humidity":74,"rain":0.0,"pressure":1000.7,"uv_index":8.75,"wind_gusts":22.7,"aqi":97,"pm10":27.5,"pm2_5":20.1,"no2":1.2,"co":357.0,"o3":129.0,"so2":2.3,"mosquito_risk":3,"arthritis_risk":5,"migraine_risk":4,"frizz_risk":1,"updated_at":"2026-05-22T10:33:21.926701+05:30"},{"city":"Agartala","state":"Tripura","latitude":23.8315,"longitude":91.2868,"temp":32.1,"humidity":68,"rain":0.0,"pressure":1005.7,"uv_index":8.4,"wind_gusts":31.7,"aqi":86,"pm10":68.2,"pm2_5":33.5,"no2":3.9,"co":219.0,"o3":121.0,"so2":3.5,"mosquito_risk":3,"arthritis_risk":5,"migraine_risk":4,"frizz_risk":1,"updated_at":"2026-05-22T10:33:21.926708+05:30"},{"city":"Shillong","state":"Meghalaya","latitude":25.5788,"longitude":91.8933,"temp":20.7,"humidity":91,"rain":0.0,"pressure":858.2,"uv_index":7.1,"wind_gusts":24.1,"aqi":75,"pm10":16.9,"pm2_5":10.7,"no2":1.5,"co":241.0,"o3":113.0,"so2":2.1,"mosquito_risk":3,"arthritis_risk":5,"migraine_risk":7,"frizz_risk":1,"updated_at":"2026-05-22T10:33:21.926714+05:30"},{"city":"Imphal","state":"Manipur","latitude":24.817,"longitude":93.9368,"temp":30.1,"humidity":59,"rain":0.0,"pressure":923.9,"uv_index":8.75,"wind_gusts":40.3,"aqi":104,"pm10":29.2,"pm2_5":18.0,"no2":0.9,"co":249.0,"o3":119.0,"so2":2.8,"mosquito_risk":0,"arthritis_risk":5,"migraine_risk":7,"frizz_risk":1,"updated_at":"2026-05-22T10:33:21.926720+05:30"},{"city":"Aizawl","state":"Mizoram","latitude":23.7271,"longitude":92.7176,"temp":27.6,"humidity":59,"rain":0.0,"pressure":894.2,"uv_index":8.5,"wind_gusts":27.7,"aqi":78,"pm10":26.8,"pm2_5":13.5,"no2":0.3,"co":196.0,"o3":88.0,"so2":1.5,"mosquito_risk":4,"arthritis_risk":5,"migraine_risk":7,"frizz_risk":1,"updated_at":"2026-05-22T10:33:21.926727+05:30"},{"city":"Kohima","state":"Nagaland","latitude":25.6701,"longitude":94.1077,"temp":22.4,"humidity":88,"rain":0.3,"pressure":857.0,"uv_index":8.75,"wind_gusts":27.4,"aqi":98,"pm10":38.2,"pm2_5":23.6,"no2":0.9,"co":217.0,"o3":113.0,"so2":2.2,"mosquito_risk":6,"arthritis_risk":5,"migraine_risk":7,"frizz_risk":1,"updated_at":"2026-05-22T10:33:21.926733+05:30"},{"city":"Gangtok","state":"Sikkim","latitude":27.3314,"longitude":88.6138,"temp":20.4,"humidity":86,"rain":0.0,"pressure":839.9,"uv_index":9.15,"wind_gusts":34.2,"aqi":65,"pm10":12.1,"pm2_5":7.9,"no2":1.2,"co":292.0,"o3":130.0,"so2":2.7,"mosquito_risk":3,"arthritis_risk":5,"migraine_risk":7,"frizz_risk":1,"updated_at":"2026-05-22T10:33:21.926740+05:30"},{"city":"Siliguri","state":"West Bengal","latitude":26.7271,"longitude":88.3953,"temp":31.1,"humidity":62,"rain":0.0,"pressure":992.8,"uv_index":8.4,"wind_gusts":23.8,"aqi":101,"pm10":36.7,"pm2_5":23.3,"no2":1.5,"co":353.0,"o3":150.0,"so2":4.6,"mosquito_risk":3,"arthritis_risk":5,"migraine_risk":7,"frizz_risk":1,"updated_at":"2026-05-22T10:33:25.244920+05:30"},{"city":"Durgapur","state":"West Bengal","latitude":23.5204,"longitude":87.3119,"temp":35.5,"humidity":66,"rain":0.0,"pressure":993.2,"uv_index":9.0,"wind_gusts":39.6,"aqi":160,"pm10":87.5,"pm2_5":66.6,"no2":11.9,"co":606.0,"o3":157.0,"so2":48.4,"mosquito_risk":3,"arthritis_risk":5,"migraine_risk":10,"frizz_risk":1,"updated_at":"2026-05-22T10:33:25.244975+05:30"},{"city":"Asansol","state":"West Bengal","latitude":23.6739,"longitude":86.9524,"temp":36.5,"humidity":58,"rain":0.0,"pressure":991.7,"uv_index":9.05,"wind_gusts":31.3,"aqi":159,"pm10":85.0,"pm2_5":63.3,"no2":10.9,"co":352.0,"o3":149.0,"so2":42.9,"mosquito_risk":0,"arthritis_risk":5,"migraine_risk":10,"frizz_risk":1,"updated_at":"2026-05-22T10:33:25.244988+05:30"},{"city":"Pondicherry","state":"Puducherry","latitude":11.9139,"longitude":79.8145,"temp":33.4,"humidity":61,"rain":0.0,"pressure":1007.5,"uv_index":8.95,"wind_gusts":39.6,"aqi":61,"pm10":20.9,"pm2_5":17.5,"no2":6.1,"co":238.0,"o3":124.0,"so2":8.2,"mosquito_risk":3,"arthritis_risk":5,"migraine_risk":4,"frizz_risk":1,"updated_at":"2026-05-22T10:33:25.244997+05:30"},{"city":"Port Blair","state":"Andaman and Nicobar Islands","latitude":11.6234,"longitude":92.7265,"temp":27.7,"humidity":89,"rain":0.1,"pressure":1007.9,"uv_index":4.55,"wind_gusts":32.4,"aqi":30,"pm10":6.5,"pm2_5":4.4,"no2":0.4,"co":108.0,"o3":67.0,"so2":0.3,"mosquito_risk":10,"arthritis_risk":5,"migraine_risk":0,"frizz_risk":1,"updated_at":"2026-05-22T10:33:25.245005+05:30"},{"city":"Haridwar","state":"Uttarakhand","latitude":29.9457,"longitude":78.1642,"temp":36.2,"humidity":37,"rain":0.0,"pressure":972.6,"uv_index":7.55,"wind_gusts":31.0,"aqi":152,"pm10":210.0,"pm2_5":75.2,"no2":3.8,"co":291.0,"o3":205.0,"so2":12.9,"mosquito_risk":0,"arthritis_risk":5,"migraine_risk":10,"frizz_risk":1,"updated_at":"2026-05-22T10:33:25.245013+05:30"},{"city":"Rishikesh","state":"Uttarakhand","latitude":30.0869,"longitude":78.2676,"temp":35.7,"humidity":37,"rain":0.0,"pressure":965.6,"uv_index":7.7,"wind_gusts":32.8,"aqi":132,"pm10":161.6,"pm2_5":48.8,"no2":1.2,"co":244.0,"o3":168.0,"so2":9.2,"mosquito_risk":0,"arthritis_risk":5,"migraine_risk":10,"frizz_risk":1,"updated_at":"2026-05-22T10:33:25.245025+05:30"},{"city":"Nainital","state":"Uttarakhand","latitude":29.3919,"longitude":79.4542,"temp":25.7,"humidity":35,"rain":0.0,"pressure":810.7,"uv_index":8.55,"wind_gusts":48.6,"aqi":159,"pm10":233.8,"pm2_5":69.4,"no2":1.0,"co":241.0,"o3":177.0,"so2":10.7,"mosquito_risk":4,"arthritis_risk":5,"migraine_risk":7,"frizz_risk":0,"updated_at":"2026-05-22T10:33:25.245033+05:30"},{"city":"Mussoorie","state":"Uttarakhand","latitude":30.4599,"longitude":78.0664,"temp":25.0,"humidity":32,"rain":0.0,"pressure":808.1,"uv_index":8.1,"wind_gusts":46.1,"aqi":119,"pm10":94.3,"pm2_5":35.7,"no2":1.7,"co":178.0,"o3":171.0,"so2":8.9,"mosquito_risk":4,"arthritis_risk":5,"migraine_risk":7,"frizz_risk":0,"updated_at":"2026-05-22T10:33:25.245041+05:30"},{"city":"Dharamshala","state":"Himachal Pradesh","latitude":32.219,"longitude":76.3234,"temp":24.4,"humidity":46,"rain":0.0,"pressure":872.9,"uv_index":7.95,"wind_gusts":43.2,"aqi":51,"pm10":35.4,"pm2_5":13.2,"no2":1.7,"co":155.0,"o3":114.0,"so2":1.5,"mosquito_risk":0,"arthritis_risk":5,"migraine_risk":7,"frizz_risk":0,"updated_at":"2026-05-22T10:33:25.245049+05:30"},{"city":"Dalhousie","state":"Himachal Pradesh","latitude":32.5387,"longitude":75.971,"temp":19.0,"humidity":52,"rain":0.0,"pressure":808.9,"uv_index":6.5,"wind_gusts":56.2,"aqi":69,"pm10":47.8,"pm2_5":19.3,"no2":5.3,"co":160.0,"o3":111.0,"so2":1.6,"mosquito_risk":0,"arthritis_risk":5,"migraine_risk":7,"frizz_risk":0,"updated_at":"2026-05-22T10:33:25.245061+05:30"},{"city":"Patiala","state":"Punjab","latitude":30.3398,"longitude":76.3869,"temp":37.0,"humidity":23,"rain":0.0,"pressure":977.1,"uv_index":7.7,"wind_gusts":58.0,"aqi":195,"pm10":1344.8,"pm2_5":159.3,"no2":4.3,"co":279.0,"o3":142.0,"so2":11.0,"mosquito_risk":0,"arthritis_risk":5,"migraine_risk":10,"frizz_risk":0,"updated_at":"2026-05-22T10:33:25.245068+05:30"},{"city":"Bhatinda","state":"Punjab","latitude":30.211,"longitude":74.9455,"temp":36.3,"humidity":27,"rain":0.0,"pressure":983.1,"uv_index":8.3,"wind_gusts":34.2,"aqi":95,"pm10":142.0,"pm2_5":34.7,"no2":3.7,"co":205.0,"o3":120.0,"so2":7.8,"mosquito_risk":0,"arthritis_risk":5,"migraine_risk":10,"frizz_risk":0,"updated_at":"2026-05-22T10:33:25.245075+05:30"},{"city":"Rohtak","state":"Haryana","latitude":28.8955,"longitude":76.6066,"temp":36.9,"humidity":26,"rain":0.0,"pressure":980.4,"uv_index":7.8,"wind_gusts":41.0,"aqi":812,"pm10":771.1,"pm2_5":121.5,"no2":4.6,"co":263.0,"o3":114.0,"so2":4.9,"mosquito_risk":0,"arthritis_risk":5,"migraine_risk":10,"frizz_risk":0,"updated_at":"2026-05-22T10:33:25.245083+05:30"},{"city":"Panipat","state":"Haryana","latitude":29.3909,"longitude":76.9635,"temp":37.8,"humidity":25,"rain":0.0,"pressure":978.6,"uv_index":7.65,"wind_gusts":33.5,"aqi":1688,"pm10":1326.2,"pm2_5":184.4,"no2":7.7,"co":273.0,"o3":117.0,"so2":15.5,"mosquito_risk":0,"arthritis_risk":5,"migraine_risk":10,"frizz_risk":0,"updated_at":"2026-05-22T10:33:25.245089+05:30"},{"city":"Mathura","state":"Uttar Pradesh","latitude":27.4924,"longitude":77.6737,"temp":39.9,"humidity":21,"rain":0.0,"pressure":985.3,"uv_index":8.0,"wind_gusts":39.2,"aqi":804,"pm10":1184.6,"pm2_5":160.2,"no2":3.5,"co":188.0,"o3":107.0,"so2":3.4,"mosquito_risk":0,"arthritis_risk":5,"migraine_risk":10,"frizz_risk":0,"updated_at":"2026-05-22T10:33:25.245096+05:30"},{"city":"Vrindavan","state":"Uttar Pradesh","latitude":27.5823,"longitude":77.7027,"temp":39.7,"humidity":23,"rain":0.0,"pressure":985.6,"uv_index":8.0,"wind_gusts":33.1,"aqi":804,"pm10":1184.6,"pm2_5":160.2,"no2":3.5,"co":184.0,"o3":107.0,"so2":3.4,"mosquito_risk":0,"arthritis_risk":5,"migraine_risk":10,"frizz_risk":0,"updated_at":"2026-05-22T10:33:25.245103+05:30"},{"city":"Ayodhya","state":"Uttar Pradesh","latitude":26.7922,"longitude":82.1998,"temp":35.2,"humidity":55,"rain":0.0,"pressure":993.5,"uv_index":8.4,"wind_gusts":29.2,"aqi":152,"pm10":83.4,"pm2_5":58.7,"no2":3.6,"co":425.0,"o3":178.0,"so2":13.9,"mosquito_risk":0,"arthritis_risk":5,"migraine_risk":10,"frizz_risk":1,"updated_at":"2026-05-22T10:33:25.245110+05:30"},{"city":"Ratlam","state":"Madhya Pradesh","latitude":23.3315,"longitude":75.0367,"temp":36.0,"humidity":30,"rain":0.0,"pressure":956.7,"uv_index":8.6,"wind_gusts":38.5,"aqi":69,"pm10":38.4,"pm2_5":21.0,"no2":2.4,"co":144.0,"o3":98.0,"so2":7.8,"mosquito_risk":0,"arthritis_risk":5,"migraine_risk":10,"frizz_risk":0,"updated_at":"2026-05-22T10:33:25.245117+05:30"},{"city":"Sagar","state":"Madhya Pradesh","latitude":23.8388,"longitude":78.7378,"temp":39.0,"humidity":11,"rain":0.0,"pressure":951.5,"uv_index":8.75,"wind_gusts":39.2,"aqi":46,"pm10":31.7,"pm2_5":11.5,"no2":1.5,"co":147.0,"o3":113.0,"so2":4.2,"mosquito_risk":0,"arthritis_risk":5,"migraine_risk":10,"frizz_risk":0,"updated_at":"2026-05-22T10:33:25.245123+05:30"},{"city":"Satna","state":"Madhya Pradesh","latitude":24.6005,"longitude":80.8322,"temp":40.0,"humidity":13,"rain":0.0,"pressure":971.0,"uv_index":8.8,"wind_gusts":36.0,"aqi":51,"pm10":22.6,"pm2_5":9.5,"no2":1.6,"co":145.0,"o3":117.0,"so2":3.0,"mosquito_risk":0,"arthritis_risk":5,"migraine_risk":10,"frizz_risk":0,"updated_at":"2026-05-22T10:33:25.245130+05:30"},{"city":"Akola","state":"Maharashtra","latitude":20.7002,"longitude":77.0082,"temp":39.2,"humidity":22,"rain":0.0,"pressure":975.7,"uv_index":8.9,"wind_gusts":46.8,"aqi":74,"pm10":34.2,"pm2_5":19.3,"no2":2.5,"co":180.0,"o3":133.0,"so2":11.0,"mosquito_risk":0,"arthritis_risk":5,"migraine_risk":10,"frizz_risk":0,"updated_at":"2026-05-22T10:33:25.245138+05:30"},{"city":"Amravati","state":"Maharashtra","latitude":20.9374,"longitude":77.7796,"temp":40.3,"humidity":15,"rain":0.0,"pressure":967.7,"uv_index":8.9,"wind_gusts":40.7,"aqi":73,"pm10":28.9,"pm2_5":15.3,"no2":2.5,"co":161.0,"o3":127.0,"so2":8.2,"mosquito_risk":0,"arthritis_risk":5,"migraine_risk":10,"frizz_risk":0,"updated_at":"2026-05-22T10:33:25.245146+05:30"},{"city":"Latur","state":"Maharashtra","latitude":18.4088,"longitude":76.5604,"temp":36.0,"humidity":35,"rain":0.0,"pressure":941.6,"uv_index":8.9,"wind_gusts":42.8,"aqi":74,"pm10":37.5,"pm2_5":21.6,"no2":2.1,"co":167.0,"o3":125.0,"so2":10.0,"mosquito_risk":0,"arthritis_risk":5,"migraine_risk":10,"frizz_risk":1,"updated_at":"2026-05-22T10:33:25.245153+05:30"},{"city":"Nanded","state":"Maharashtra","latitude":19.1383,"longitude":77.3091,"temp":38.8,"humidity":26,"rain":0.0,"pressure":969.3,"uv_index":8.95,"wind_gusts":51.8,"aqi":84,"pm10":38.8,"pm2_5":23.3,"no2":2.2,"co":197.0,"o3":142.0,"so2":10.8,"mosquito_risk":0,"arthritis_risk":5,"migraine_risk":10,"frizz_risk":0,"updated_at":"2026-05-22T10:33:25.245160+05:30"},{"city":"Gulbarga","state":"Karnataka","latitude":17.3297,"longitude":76.8343,"temp":35.2,"humidity":43,"rain":0.0,"pressure":960.0,"uv_index":8.8,"wind_gusts":63.4,"aqi":66,"pm10":17.8,"pm2_5":12.0,"no2":2.2,"co":173.0,"o3":109.0,"so2":4.2,"mosquito_risk":0,"arthritis_risk":5,"migraine_risk":10,"frizz_risk":1,"updated_at":"2026-05-22T10:33:25.245167+05:30"},{"city":"Bidar","state":"Karnataka","latitude":17.9104,"longitude":77.5199,"temp":36.2,"humidity":34,"rain":0.0,"pressure":937.0,"uv_index":9.0,"wind_gusts":47.9,"aqi":79,"pm10":32.4,"pm2_5":20.9,"no2":2.9,"co":195.0,"o3":130.0,"so2":9.9,"mosquito_risk":0,"arthritis_risk":5,"migraine_risk":10,"frizz_risk":1,"updated_at":"2026-05-22T10:33:25.245174+05:30"},{"city":"Hospet","state":"Karnataka","latitude":15.2689,"longitude":76.3909,"temp":30.6,"humidity":61,"rain":0.0,"pressure":958.3,"uv_index":8.65,"wind_gusts":43.9,"aqi":34,"pm10":6.0,"pm2_5":4.5,"no2":2.3,"co":144.0,"o3":73.0,"so2":2.2,"mosquito_risk":3,"arthritis_risk":5,"migraine_risk":7,"frizz_risk":1,"updated_at":"2026-05-22T10:33:25.245180+05:30"},{"city":"Tirupur","state":"Tamil Nadu","latitude":11.1085,"longitude":77.3411,"temp":33.8,"humidity":49,"rain":0.0,"pressure":976.5,"uv_index":8.8,"wind_gusts":64.4,"aqi":38,"pm10":9.8,"pm2_5":7.8,"no2":2.8,"co":171.0,"o3":90.0,"so2":2.7,"mosquito_risk":0,"arthritis_risk":5,"migraine_risk":7,"frizz_risk":1,"updated_at":"2026-05-22T10:33:25.245187+05:30"},{"city":"Alappuzha","state":"Kerala","latitude":9.4981,"longitude":76.3388,"temp":29.1,"humidity":74,"rain":0.0,"pressure":1011.8,"uv_index":8.5,"wind_gusts":34.9,"aqi":40,"pm10":8.6,"pm2_5":6.0,"no2":2.6,"co":115.0,"o3":75.0,"so2":2.1,"mosquito_risk":7,"arthritis_risk":0,"migraine_risk":4,"frizz_risk":1,"updated_at":"2026-05-22T10:33:25.245194+05:30"},{"city":"Munnar","state":"Kerala","latitude":10.0889,"longitude":77.0595,"temp":20.5,"humidity":86,"rain":0.1,"pressure":860.1,"uv_index":5.85,"wind_gusts":32.4,"aqi":24,"pm10":4.7,"pm2_5":3.8,"no2":1.3,"co":122.0,"o3":70.0,"so2":1.1,"mosquito_risk":6,"arthritis_risk":5,"migraine_risk":3,"frizz_risk":1,"updated_at":"2026-05-22T10:33:25.245201+05:30"},{"city":"Silchar","state":"Assam","latitude":24.8333,"longitude":92.7789,"temp":31.8,"humidity":71,"rain":0.0,"pressure":1004.3,"uv_index":8.95,"wind_gusts":32.8,"aqi":98,"pm10":29.6,"pm2_5":18.2,"no2":1.3,"co":255.0,"o3":117.0,"so2":4.8,"mosquito_risk":3,"arthritis_risk":5,"migraine_risk":4,"frizz_risk":1,"updated_at":"2026-05-22T10:33:25.245208+05:30"},{"city":"Dibrugarh","state":"Assam","latitude":27.4728,"longitude":94.912,"temp":30.6,"humidity":70,"rain":0.0,"pressure":994.5,"uv_index":8.9,"wind_gusts":27.4,"aqi":93,"pm10":37.7,"pm2_5":26.7,"no2":1.2,"co":277.0,"o3":147.0,"so2":1.8,"mosquito_risk":3,"arthritis_risk":5,"migraine_risk":7,"frizz_risk":1,"updated_at":"2026-05-22T10:33:25.245215+05:30"}]