[{"city":"Delhi","state":"Delhi","latitude":28.6139,"longitude":77.209,"temp":16.6,"humidity":80,"rain":0.0,"pressure":982.6,"uv_index":5.6,"aqi":155,"mosquito_risk":3,"arthritis_risk":5,"migraine_risk":3,"frizz_risk":0,"updated_at":"2026-02-27T03:05:14.138427+05:30"},{"city":"Mumbai","state":"Maharashtra","latitude":19.076,"longitude":72.8777,"temp":25.7,"humidity":68,"rain":0.0,"pressure":1008.7,"uv_index":7.35,"aqi":73,"mosquito_risk":7,"arthritis_risk":0,"migraine_risk":4,"frizz_risk":1,"updated_at":"2026-02-27T03:05:14.138482+05:30"},{"city":"Bangalore","state":"Karnataka","latitude":12.9716,"longitude":77.5946,"temp":21.2,"humidity":73,"rain":0.0,"pressure":910.0,"uv_index":8.95,"aqi":112,"mosquito_risk":3,"arthritis_risk":5,"migraine_risk":7,"frizz_risk":1,"updated_at":"2026-02-27T03:05:14.138498+05:30"},{"city":"Hyderabad","state":"Telangana","latitude":17.385,"longitude":78.4867,"temp":22.3,"humidity":72,"rain":0.0,"pressure":951.8,"uv_index":8.15,"aqi":139,"mosquito_risk":3,"arthritis_risk":5,"migraine_risk":7,"frizz_risk":1,"updated_at":"2026-02-27T03:05:14.138507+05:30"},{"city":"Chennai","state":"Tamil Nadu","latitude":13.0827,"longitude":80.2707,"temp":24.8,"humidity":88,"rain":0.0,"pressure":1006.9,"uv_index":8.65,"aqi":95,"mosquito_risk":3,"arthritis_risk":5,"migraine_risk":4,"frizz_risk":1,"updated_at":"2026-02-27T03:05:14.138519+05:30"},{"city":"Kolkata","state":"West Bengal","latitude":22.5726,"longitude":88.3639,"temp":18.3,"humidity":90,"rain":0.0,"pressure":1006.8,"uv_index":7.5,"aqi":167,"mosquito_risk":3,"arthritis_risk":10,"migraine_risk":4,"frizz_risk":1,"updated_at":"2026-02-27T03:05:14.138528+05:30"},{"city":"Pune","state":"Maharashtra","latitude":18.5204,"longitude":73.8567,"temp":15.8,"humidity":88,"rain":0.0,"pressure":946.8,"uv_index":7.85,"aqi":65,"mosquito_risk":3,"arthritis_risk":10,"migraine_risk":7,"frizz_risk":0,"updated_at":"2026-02-27T03:05:14.138535+05:30"},{"city":"Ahmedabad","state":"Gujarat","latitude":23.0225,"longitude":72.5714,"temp":20.0,"humidity":75,"rain":0.0,"pressure":1001.7,"uv_index":7.1,"aqi":72,"mosquito_risk":3,"arthritis_risk":5,"migraine_risk":4,"frizz_risk":0,"updated_at":"2026-02-27T03:05:14.138543+05:30"},{"city":"Jaipur","state":"Rajasthan","latitude":26.9124,"longitude":75.7873,"temp":20.2,"humidity":41,"rain":0.0,"pressure":959.0,"uv_index":6.45,"aqi":93,"mosquito_risk":0,"arthritis_risk":5,"migraine_risk":7,"frizz_risk":0,"updated_at":"2026-02-27T03:05:14.138553+05:30"},{"city":"Lucknow","state":"Uttar Pradesh","latitude":26.8467,"longitude":80.9462,"temp":17.3,"humidity":66,"rain":0.0,"pressure":993.6,"uv_index":6.05,"aqi":148,"mosquito_risk":3,"arthritis_risk":5,"migraine_risk":7,"frizz_risk":0,"updated_at":"2026-02-27T03:05:14.138560+05:30"},{"city":"Kanpur","state":"Uttar Pradesh","latitude":26.4499,"longitude":80.3319,"temp":17.7,"humidity":61,"rain":0.0,"pressure":992.1,"uv_index":6.05,"aqi":150,"mosquito_risk":3,"arthritis_risk":5,"migraine_risk":7,"frizz_risk":0,"updated_at":"2026-02-27T03:05:14.138567+05:30"},{"city":"Chandigarh","state":"Chandigarh","latitude":30.7333,"longitude":76.7794,"temp":15.4,"humidity":75,"rain":0.0,"pressure":967.9,"uv_index":5.5,"aqi":129,"mosquito_risk":3,"arthritis_risk":5,"migraine_risk":3,"frizz_risk":0,"updated_at":"2026-02-27T03:05:14.138575+05:30"},{"city":"Srinagar","state":"Jammu and Kashmir","latitude":34.0837,"longitude":74.7973,"temp":3.1,"humidity":79,"rain":0.0,"pressure":835.2,"uv_index":6.35,"aqi":143,"mosquito_risk":3,"arthritis_risk":5,"migraine_risk":7,"frizz_risk":1,"updated_at":"2026-02-27T03:05:14.138583+05:30"},{"city":"Jammu","state":"Jammu and Kashmir","latitude":32.7266,"longitude":74.857,"temp":15.5,"humidity":84,"rain":0.0,"pressure":972.8,"uv_index":6.1,"aqi":122,"mosquito_risk":3,"arthritis_risk":10,"migraine_risk":7,"frizz_risk":0,"updated_at":"2026-02-27T03:05:14.138591+05:30"},{"city":"Amritsar","state":"Punjab","latitude":31.634,"longitude":74.8723,"temp":15.1,"humidity":87,"rain":0.0,"pressure":980.8,"uv_index":6.05,"aqi":171,"mosquito_risk":3,"arthritis_risk":10,"migraine_risk":7,"frizz_risk":0,"updated_at":"2026-02-27T03:05:14.138598+05:30"},{"city":"Ludhiana","state":"Punjab","latitude":30.901,"longitude":75.8573,"temp":17.3,"humidity":79,"rain":0.0,"pressure":978.5,"uv_index":5.75,"aqi":173,"mosquito_risk":3,"arthritis_risk":5,"migraine_risk":3,"frizz_risk":0,"updated_at":"2026-02-27T03:05:14.138605+05:30"},{"city":"Jalandhar","state":"Punjab","latitude":31.326,"longitude":75.5762,"temp":15.8,"humidity":88,"rain":0.0,"pressure":979.7,"uv_index":5.9,"aqi":177,"mosquito_risk":3,"arthritis_risk":10,"migraine_risk":3,"frizz_risk":0,"updated_at":"2026-02-27T03:05:14.138612+05:30"},{"city":"Dehradun","state":"Uttarakhand","latitude":30.6284,"longitude":78.0322,"temp":9.2,"humidity":76,"rain":0.0,"pressure":825.4,"uv_index":5.85,"aqi":76,"mosquito_risk":3,"arthritis_risk":5,"migraine_risk":3,"frizz_risk":0,"updated_at":"2026-02-27T03:05:14.138619+05:30"},{"city":"Shimla","state":"Himachal Pradesh","latitude":31.1048,"longitude":77.1734,"temp":5.8,"humidity":62,"rain":0.0,"pressure":778.0,"uv_index":5.9,"aqi":91,"mosquito_risk":3,"arthritis_risk":5,"migraine_risk":3,"frizz_risk":1,"updated_at":"2026-02-27T03:05:14.138628+05:30"},{"city":"Manali","state":"Himachal Pradesh","latitude":32.2396,"longitude":77.1887,"temp":9.1,"humidity":60,"rain":0.0,"pressure":814.1,"uv_index":7.35,"aqi":95,"mosquito_risk":0,"arthritis_risk":5,"migraine_risk":7,"frizz_risk":0,"updated_at":"2026-02-27T03:05:14.138635+05:30"},{"city":"Gurgaon","state":"Haryana","latitude":28.4595,"longitude":77.0266,"temp":14.0,"humidity":88,"rain":0.0,"pressure":981.1,"uv_index":5.7,"aqi":187,"mosquito_risk":3,"arthritis_risk":10,"migraine_risk":3,"frizz_risk":0,"updated_at":"2026-02-27T03:05:14.138641+05:30"},{"city":"Noida","state":"Uttar Pradesh","latitude":28.5355,"longitude":77.391,"temp":17.1,"humidity":77,"rain":0.0,"pressure":984.2,"uv_index":5.6,"aqi":187,"mosquito_risk":3,"arthritis_risk":5,"migraine_risk":3,"frizz_risk":0,"updated_at":"2026-02-27T03:05:14.138649+05:30"},{"city":"Ghaziabad","state":"Uttar Pradesh","latitude":28.6692,"longitude":77.4538,"temp":15.6,"humidity":87,"rain":0.0,"pressure":982.3,"uv_index":5.55,"aqi":153,"mosquito_risk":3,"arthritis_risk":10,"migraine_risk":3,"frizz_risk":0,"updated_at":"2026-02-27T03:05:14.138656+05:30"},{"city":"Faridabad","state":"Haryana","latitude":28.4089,"longitude":77.3178,"temp":15.7,"humidity":77,"rain":0.0,"pressure":983.5,"uv_index":5.65,"aqi":187,"mosquito_risk":3,"arthritis_risk":5,"migraine_risk":3,"frizz_risk":0,"updated_at":"2026-02-27T03:05:14.138662+05:30"},{"city":"Meerut","state":"Uttar Pradesh","latitude":28.9845,"longitude":77.7064,"temp":15.6,"humidity":89,"rain":0.0,"pressure":981.2,"uv_index":5.45,"aqi":153,"mosquito_risk":3,"arthritis_risk":10,"migraine_risk":3,"frizz_risk":0,"updated_at":"2026-02-27T03:05:14.138669+05:30"},{"city":"Agra","state":"Uttar Pradesh","latitude":27.1767,"longitude":78.0081,"temp":17.7,"humidity":53,"rain":0.0,"pressure":987.8,"uv_index":5.95,"aqi":158,"mosquito_risk":0,"arthritis_risk":5,"migraine_risk":3,"frizz_risk":0,"updated_at":"2026-02-27T03:05:14.138675+05:30"},{"city":"Varanasi","state":"Uttar Pradesh","latitude":25.3176,"longitude":82.9739,"temp":17.5,"humidity":70,"rain":0.0,"pressure":998.5,"uv_index":6.75,"aqi":115,"mosquito_risk":3,"arthritis_risk":5,"migraine_risk":7,"frizz_risk":0,"updated_at":"2026-02-27T03:05:14.138682+05:30"},{"city":"Prayagraj","state":"Uttar Pradesh","latitude":25.4358,"longitude":81.8463,"temp":18.5,"humidity":77,"rain":0.0,"pressure":996.9,"uv_index":6.6,"aqi":131,"mosquito_risk":3,"arthritis_risk":5,"migraine_risk":7,"frizz_risk":0,"updated_at":"2026-02-27T03:05:14.138689+05:30"},{"city":"Gorakhpur","state":"Uttar Pradesh","latitude":26.7606,"longitude":83.3732,"temp":15.2,"humidity":75,"rain":0.0,"pressure":997.4,"uv_index":6.45,"aqi":152,"mosquito_risk":3,"arthritis_risk":5,"migraine_risk":7,"frizz_risk":0,"updated_at":"2026-02-27T03:05:14.138698+05:30"},{"city":"Bareilly","state":"Uttar Pradesh","latitude":28.367,"longitude":79.4304,"temp":14.7,"humidity":87,"rain":0.0,"pressure":986.6,"uv_index":5.75,"aqi":152,"mosquito_risk":3,"arthritis_risk":10,"migraine_risk":3,"frizz_risk":0,"updated_at":"2026-02-27T03:05:14.138705+05:30"},{"city":"Aligarh","state":"Uttar Pradesh","latitude":27.8974,"longitude":78.088,"temp":15.2,"humidity":73,"rain":0.0,"pressure":985.5,"uv_index":5.7,"aqi":158,"mosquito_risk":3,"arthritis_risk":5,"migraine_risk":3,"frizz_risk":0,"updated_at":"2026-02-27T03:05:14.138712+05:30"},{"city":"Moradabad","state":"Uttar Pradesh","latitude":28.8386,"longitude":78.7733,"temp":14.5,"humidity":89,"rain":0.0,"pressure":983.4,"uv_index":5.6,"aqi":151,"mosquito_risk":3,"arthritis_risk":10,"migraine_risk":3,"frizz_risk":0,"updated_at":"2026-02-27T03:05:14.138718+05:30"},{"city":"Saharanpur","state":"Uttar Pradesh","latitude":29.9637,"longitude":77.546,"temp":14.6,"humidity":89,"rain":0.0,"pressure":975.1,"uv_index":5.25,"aqi":162,"mosquito_risk":3,"arthritis_risk":10,"migraine_risk":3,"frizz_risk":0,"updated_at":"2026-02-27T03:05:14.138724+05:30"},{"city":"Jhansi","state":"Uttar Pradesh","latitude":25.4484,"longitude":78.5685,"temp":18.3,"humidity":73,"rain":0.0,"pressure":977.8,"uv_index":6.55,"aqi":86,"mosquito_risk":3,"arthritis_risk":5,"migraine_risk":7,"frizz_risk":0,"updated_at":"2026-02-27T03:05:17.475753+05:30"},{"city":"Surat","state":"Gujarat","latitude":21.1702,"longitude":72.8311,"temp":23.3,"humidity":73,"rain":0.0,"pressure":1007.1,"uv_index":7.05,"aqi":86,"mosquito_risk":3,"arthritis_risk":5,"migraine_risk":4,"frizz_risk":1,"updated_at":"2026-02-27T03:05:17.475786+05:30"},{"city":"Vadodara","state":"Gujarat","latitude":22.3072,"longitude":73.1812,"temp":20.6,"humidity":90,"rain":0.0,"pressure":1004.3,"uv_index":7.15,"aqi":66,"mosquito_risk":3,"arthritis_risk":5,"migraine_risk":4,"frizz_risk":1,"updated_at":"2026-02-27T03:05:17.475795+05:30"},{"city":"Rajkot","state":"Gujarat","latitude":22.3039,"longitude":70.8022,"temp":20.1,"humidity":78,"rain":0.0,"pressure":994.0,"uv_index":7.05,"aqi":59,"mosquito_risk":3,"arthritis_risk":5,"migraine_risk":7,"frizz_risk":1,"updated_at":"2026-02-27T03:05:17.475804+05:30"},{"city":"Thane","state":"Maharashtra","latitude":19.2183,"longitude":72.9781,"temp":23.4,"humidity":80,"rain":0.0,"pressure":1008.3,"uv_index":7.35,"aqi":73,"mosquito_risk":3,"arthritis_risk":0,"migraine_risk":4,"frizz_risk":1,"updated_at":"2026-02-27T03:05:17.475812+05:30"},{"city":"Nagpur","state":"Maharashtra","latitude":21.1458,"longitude":79.0882,"temp":22.2,"humidity":61,"rain":0.0,"pressure":972.6,"uv_index":7.45,"aqi":100,"mosquito_risk":3,"arthritis_risk":5,"migraine_risk":7,"frizz_risk":0,"updated_at":"2026-02-27T03:05:17.475819+05:30"},{"city":"Nashik","state":"Maharashtra","latitude":19.9975,"longitude":73.7898,"temp":17.0,"humidity":96,"rain":0.0,"pressure":944.1,"uv_index":7.5,"aqi":49,"mosquito_risk":3,"arthritis_risk":10,"migraine_risk":7,"frizz_risk":1,"updated_at":"2026-02-27T03:05:17.475826+05:30"},{"city":"Aurangabad","state":"Maharashtra","latitude":19.8762,"longitude":75.3433,"temp":20.7,"humidity":66,"rain":0.0,"pressure":942.7,"uv_index":7.85,"aqi":77,"mosquito_risk":3,"arthritis_risk":5,"migraine_risk":7,"frizz_risk":0,"updated_at":"2026-02-27T03:05:17.475834+05:30"},{"city":"Solapur","state":"Maharashtra","latitude":17.6599,"longitude":75.9064,"temp":20.4,"humidity":69,"rain":0.0,"pressure":955.5,"uv_index":8.1,"aqi":80,"mosquito_risk":3,"arthritis_risk":5,"migraine_risk":7,"frizz_risk":0,"updated_at":"2026-02-27T03:05:17.475841+05:30"},{"city":"Kolhapur","state":"Maharashtra","latitude":16.705,"longitude":74.2433,"temp":16.2,"humidity":73,"rain":0.0,"pressure":945.9,"uv_index":8.3,"aqi":63,"mosquito_risk":3,"arthritis_risk":5,"migraine_risk":7,"frizz_risk":0,"updated_at":"2026-02-27T03:05:17.475848+05:30"},{"city":"Goa","state":"Goa","latitude":15.2993,"longitude":74.124,"temp":23.3,"humidity":86,"rain":0.0,"pressure":996.7,"uv_index":8.3,"aqi":55,"mosquito_risk":3,"arthritis_risk":5,"migraine_risk":7,"frizz_risk":1,"updated_at":"2026-02-27T03:05:17.475855+05:30"},{"city":"Jodhpur","state":"Rajasthan","latitude":26.2389,"longitude":73.0243,"temp":21.5,"humidity":49,"rain":0.0,"pressure":981.9,"uv_index":6.7,"aqi":74,"mosquito_risk":0,"arthritis_risk":5,"migraine_risk":7,"frizz_risk":0,"updated_at":"2026-02-27T03:05:17.475862+05:30"},{"city":"Udaipur","state":"Rajasthan","latitude":24.5854,"longitude":73.7125,"temp":19.7,"humidity":57,"rain":0.0,"pressure":945.4,"uv_index":7.35,"aqi":69,"mosquito_risk":0,"arthritis_risk":5,"migraine_risk":7,"frizz_risk":0,"updated_at":"2026-02-27T03:05:17.475869+05:30"},{"city":"Kota","state":"Rajasthan","latitude":25.2138,"longitude":75.8648,"temp":19.6,"humidity":72,"rain":0.0,"pressure":977.6,"uv_index":6.75,"aqi":93,"mosquito_risk":3,"arthritis_risk":5,"migraine_risk":7,"frizz_risk":0,"updated_at":"2026-02-27T03:05:17.475876+05:30"},{"city":"Bikaner","state":"Rajasthan","latitude":28.0229,"longitude":73.3119,"temp":22.1,"humidity":39,"rain":0.0,"pressure":981.2,"uv_index":6.35,"aqi":55,"mosquito_risk":0,"arthritis_risk":5,"migraine_risk":7,"frizz_risk":0,"updated_at":"2026-02-27T03:05:17.475883+05:30"},{"city":"Ajmer","state":"Rajasthan","latitude":26.4499,"longitude":74.6399,"temp":20.6,"humidity":42,"rain":0.0,"pressure":953.1,"uv_index":6.7,"aqi":81,"mosquito_risk":0,"arthritis_risk":5,"migraine_risk":7,"frizz_risk":0,"updated_at":"2026-02-27T03:05:17.475890+05:30"},{"city":"Gwalior","state":"Madhya Pradesh","latitude":26.2183,"longitude":78.1828,"temp":19.1,"humidity":66,"rain":0.0,"pressure":983.3,"uv_index":6.25,"aqi":105,"mosquito_risk":3,"arthritis_risk":5,"migraine_risk":7,"frizz_risk":0,"updated_at":"2026-02-27T03:05:17.475896+05:30"},{"city":"Indore","state":"Madhya Pradesh","latitude":22.7196,"longitude":75.8577,"temp":17.8,"humidity":70,"rain":0.0,"pressure":946.3,"uv_index":7.25,"aqi":90,"mosquito_risk":3,"arthritis_risk":5,"migraine_risk":7,"frizz_risk":0,"updated_at":"2026-02-27T03:05:17.475903+05:30"},{"city":"Bhopal","state":"Madhya Pradesh","latitude":23.2599,"longitude":77.4126,"temp":19.9,"humidity":57,"rain":0.0,"pressure":952.2,"uv_index":7.1,"aqi":75,"mosquito_risk":0,"arthritis_risk":5,"migraine_risk":7,"frizz_risk":0,"updated_at":"2026-02-27T03:05:17.475910+05:30"},{"city":"Jabalpur","state":"Madhya Pradesh","latitude":23.1815,"longitude":79.9864,"temp":18.5,"humidity":55,"rain":0.0,"pressure":960.5,"uv_index":7.2,"aqi":70,"mosquito_risk":0,"arthritis_risk":5,"migraine_risk":7,"frizz_risk":0,"updated_at":"2026-02-27T03:05:17.475916+05:30"},{"city":"Ujjain","state":"Madhya Pradesh","latitude":23.1765,"longitude":75.7885,"temp":18.3,"humidity":64,"rain":0.0,"pressure":952.3,"uv_index":7.15,"aqi":98,"mosquito_risk":3,"arthritis_risk":5,"migraine_risk":7,"frizz_risk":0,"updated_at":"2026-02-27T03:05:17.475923+05:30"},{"city":"Visakhapatnam","state":"Andhra Pradesh","latitude":17.6868,"longitude":83.2185,"temp":24.1,"humidity":91,"rain":0.0,"pressure":1004.0,"uv_index":8.15,"aqi":128,"mosquito_risk":3,"arthritis_risk":5,"migraine_risk":4,"frizz_risk":1,"updated_at":"2026-02-27T03:05:17.475930+05:30"},{"city":"Vijayawada","state":"Andhra Pradesh","latitude":16.5062,"longitude":80.648,"temp":23.9,"humidity":95,"rain":0.0,"pressure":1002.3,"uv_index":8.2,"aqi":113,"mosquito_risk":3,"arthritis_risk":5,"migraine_risk":4,"frizz_risk":1,"updated_at":"2026-02-27T03:05:17.475937+05:30"},{"city":"Guntur","state":"Andhra Pradesh","latitude":16.3067,"longitude":80.4365,"temp":24.0,"humidity":94,"rain":0.0,"pressure":1003.4,"uv_index":8.2,"aqi":108,"mosquito_risk":3,"arthritis_risk":5,"migraine_risk":4,"frizz_risk":1,"updated_at":"2026-02-27T03:05:17.475944+05:30"},{"city":"Nellore","state":"Andhra Pradesh","latitude":14.4426,"longitude":79.9865,"temp":24.7,"humidity":88,"rain":0.0,"pressure":1005.5,"uv_index":8.45,"aqi":86,"mosquito_risk":3,"arthritis_risk":5,"migraine_risk":4,"frizz_risk":1,"updated_at":"2026-02-27T03:05:17.475951+05:30"},{"city":"Kurnool","state":"Andhra Pradesh","latitude":15.8281,"longitude":78.0373,"temp":24.5,"humidity":62,"rain":0.0,"pressure":975.5,"uv_index":8.25,"aqi":103,"mosquito_risk":3,"arthritis_risk":5,"migraine_risk":7,"frizz_risk":1,"updated_at":"2026-02-27T03:05:17.475959+05:30"},{"city":"Kakinada","state":"Andhra Pradesh","latitude":16.9891,"longitude":82.2475,"temp":22.6,"humidity":98,"rain":0.0,"pressure":1007.6,"uv_index":8.15,"aqi":81,"mosquito_risk":3,"arthritis_risk":5,"migraine_risk":4,"frizz_risk":1,"updated_at":"2026-02-27T03:05:17.475965+05:30"},{"city":"Tirupati","state":"Andhra Pradesh","latitude":13.6288,"longitude":79.4192,"temp":22.0,"humidity":80,"rain":0.0,"pressure":991.4,"uv_index":8.6,"aqi":109,"mosquito_risk":3,"arthritis_risk":5,"migraine_risk":7,"frizz_risk":1,"updated_at":"2026-02-27T03:05:17.475972+05:30"},{"city":"Warangal","state":"Telangana","latitude":17.9689,"longitude":79.5941,"temp":22.1,"humidity":70,"rain":0.0,"pressure":977.7,"uv_index":7.95,"aqi":154,"mosquito_risk":3,"arthritis_risk":5,"migraine_risk":7,"frizz_risk":1,"updated_at":"2026-02-27T03:05:17.475978+05:30"},{"city":"Nizamabad","state":"Telangana","latitude":18.6725,"longitude":78.0941,"temp":22.7,"humidity":65,"rain":0.0,"pressure":963.2,"uv_index":7.85,"aqi":154,"mosquito_risk":3,"arthritis_risk":5,"migraine_risk":7,"frizz_risk":0,"updated_at":"2026-02-27T03:05:17.475984+05:30"},{"city":"Mysore","state":"Karnataka","latitude":12.2958,"longitude":76.6396,"temp":21.7,"humidity":88,"rain":0.0,"pressure":926.6,"uv_index":9.0,"aqi":122,"mosquito_risk":3,"arthritis_risk":5,"migraine_risk":7,"frizz_risk":1,"updated_at":"2026-02-27T03:05:17.475990+05:30"},{"city":"Mangalore","state":"Karnataka","latitude":12.9141,"longitude":74.856,"temp":28.3,"humidity":78,"rain":0.0,"pressure":1005.3,"uv_index":8.55,"aqi":76,"mosquito_risk":7,"arthritis_risk":5,"migraine_risk":4,"frizz_risk":1,"updated_at":"2026-02-27T03:05:17.475997+05:30"},{"city":"Hubli-Dharwad","state":"Karnataka","latitude":15.3647,"longitude":75.124,"temp":20.2,"humidity":59,"rain":0.0,"pressure":938.6,"uv_index":8.45,"aqi":53,"mosquito_risk":0,"arthritis_risk":5,"migraine_risk":7,"frizz_risk":0,"updated_at":"2026-02-27T03:05:17.476003+05:30"},{"city":"Belgaum","state":"Karnataka","latitude":15.8497,"longitude":74.4977,"temp":18.2,"humidity":59,"rain":0.0,"pressure":923.2,"uv_index":8.5,"aqi":48,"mosquito_risk":0,"arthritis_risk":5,"migraine_risk":7,"frizz_risk":0,"updated_at":"2026-02-27T03:05:20.814688+05:30"},{"city":"Coimbatore","state":"Tamil Nadu","latitude":11.0168,"longitude":76.9558,"temp":22.0,"humidity":85,"rain":0.0,"pressure":960.8,"uv_index":9.0,"aqi":107,"mosquito_risk":3,"arthritis_risk":5,"migraine_risk":7,"frizz_risk":1,"updated_at":"2026-02-27T03:05:20.814724+05:30"},{"city":"Madurai","state":"Tamil Nadu","latitude":9.9252,"longitude":78.1198,"temp":23.2,"humidity":89,"rain":0.0,"pressure":992.6,"uv_index":9.0,"aqi":103,"mosquito_risk":3,"arthritis_risk":5,"migraine_risk":7,"frizz_risk":1,"updated_at":"2026-02-27T03:05:20.814736+05:30"},{"city":"Trichy","state":"Tamil Nadu","latitude":10.7905,"longitude":78.7047,"temp":24.5,"humidity":93,"rain":0.0,"pressure":999.4,"uv_index":8.85,"aqi":107,"mosquito_risk":3,"arthritis_risk":5,"migraine_risk":7,"frizz_risk":1,"updated_at":"2026-02-27T03:05:20.814745+05:30"},{"city":"Salem","state":"Tamil Nadu","latitude":11.6643,"longitude":78.146,"temp":24.2,"humidity":83,"rain":0.0,"pressure":976.7,"uv_index":8.85,"aqi":128,"mosquito_risk":3,"arthritis_risk":5,"migraine_risk":7,"frizz_risk":1,"updated_at":"2026-02-27T03:05:20.814754+05:30"},{"city":"Tirunelveli","state":"Tamil Nadu","latitude":8.7139,"longitude":77.7567,"temp":23.8,"humidity":92,"rain":0.0,"pressure":1002.5,"uv_index":9.0,"aqi":81,"mosquito_risk":3,"arthritis_risk":5,"migraine_risk":4,"frizz_risk":1,"updated_at":"2026-02-27T03:05:20.814762+05:30"},{"city":"Vellore","state":"Tamil Nadu","latitude":12.9165,"longitude":79.1325,"temp":21.3,"humidity":85,"rain":0.0,"pressure":984.2,"uv_index":8.7,"aqi":114,"mosquito_risk":3,"arthritis_risk":5,"migraine_risk":7,"frizz_risk":1,"updated_at":"2026-02-27T03:05:20.814771+05:30"},{"city":"Erode","state":"Tamil Nadu","latitude":11.341,"longitude":77.7172,"temp":24.8,"humidity":87,"rain":0.0,"pressure":988.4,"uv_index":8.45,"aqi":132,"mosquito_risk":3,"arthritis_risk":5,"migraine_risk":7,"frizz_risk":1,"updated_at":"2026-02-27T03:05:20.814779+05:30"},{"city":"Kochi","state":"Kerala","latitude":9.9312,"longitude":76.2673,"temp":26.7,"humidity":84,"rain":0.0,"pressure":1007.4,"uv_index":8.8,"aqi":84,"mosquito_risk":7,"arthritis_risk":5,"migraine_risk":4,"frizz_risk":1,"updated_at":"2026-02-27T03:05:20.814787+05:30"},{"city":"Thiruvananthapuram","state":"Kerala","latitude":8.5241,"longitude":76.9366,"temp":27.5,"humidity":82,"rain":0.0,"pressure":1006.5,"uv_index":8.8,"aqi":62,"mosquito_risk":7,"arthritis_risk":5,"migraine_risk":4,"frizz_risk":1,"updated_at":"2026-02-27T03:05:20.814795+05:30"},{"city":"Kozhikode","state":"Kerala","latitude":11.2588,"longitude":75.7804,"temp":27.9,"humidity":79,"rain":0.0,"pressure":1006.2,"uv_index":8.7,"aqi":86,"mosquito_risk":7,"arthritis_risk":5,"migraine_risk":4,"frizz_risk":1,"updated_at":"2026-02-27T03:05:20.814802+05:30"},{"city":"Thrissur","state":"Kerala","latitude":10.5276,"longitude":76.2144,"temp":24.3,"humidity":85,"rain":0.0,"pressure":1006.0,"uv_index":8.8,"aqi":99,"mosquito_risk":3,"arthritis_risk":5,"migraine_risk":4,"frizz_risk":1,"updated_at":"2026-02-27T03:05:20.814811+05:30"},{"city":"Kannur","state":"Kerala","latitude":11.8745,"longitude":75.3704,"temp":27.0,"humidity":81,"rain":0.0,"pressure":1005.6,"uv_index":8.7,"aqi":82,"mosquito_risk":7,"arthritis_risk":5,"migraine_risk":4,"frizz_risk":1,"updated_at":"2026-02-27T03:05:20.814819+05:30"},{"city":"Patna","state":"Bihar","latitude":25.5941,"longitude":85.1376,"temp":18.2,"humidity":68,"rain":0.0,"pressure":1000.9,"uv_index":6.9,"aqi":153,"mosquito_risk":3,"arthritis_risk":5,"migraine_risk":4,"frizz_risk":0,"updated_at":"2026-02-27T03:05:20.814827+05:30"},{"city":"Gaya","state":"Bihar","latitude":24.7914,"longitude":85.0002,"temp":17.1,"humidity":59,"rain":0.0,"pressure":994.7,"uv_index":7.0,"aqi":124,"mosquito_risk":0,"arthritis_risk":5,"migraine_risk":7,"frizz_risk":0,"updated_at":"2026-02-27T03:05:20.814835+05:30"},{"city":"Muzaffarpur","state":"Bihar","latitude":26.1209,"longitude":85.3647,"temp":16.3,"humidity":73,"rain":0.0,"pressure":1000.8,"uv_index":6.85,"aqi":156,"mosquito_risk":3,"arthritis_risk":5,"migraine_risk":4,"frizz_risk":0,"updated_at":"2026-02-27T03:05:20.814842+05:30"},{"city":"Bhagalpur","state":"Bihar","latitude":25.2425,"longitude":87.0117,"temp":17.2,"humidity":68,"rain":0.0,"pressure":1001.8,"uv_index":6.95,"aqi":147,"mosquito_risk":3,"arthritis_risk":5,"migraine_risk":4,"frizz_risk":0,"updated_at":"2026-02-27T03:05:20.814850+05:30"},{"city":"Ranchi","state":"Jharkhand","latitude":23.3441,"longitude":85.3096,"temp":16.6,"humidity":47,"rain":0.0,"pressure":937.1,"uv_index":7.65,"aqi":89,"mosquito_risk":0,"arthritis_risk":5,"migraine_risk":7,"frizz_risk":0,"updated_at":"2026-02-27T03:05:20.814857+05:30"},{"city":"Jamshedpur","state":"Jharkhand","latitude":22.8046,"longitude":86.2029,"temp":15.2,"humidity":83,"rain":0.0,"pressure":991.6,"uv_index":7.55,"aqi":143,"mosquito_risk":3,"arthritis_risk":10,"migraine_risk":7,"frizz_risk":0,"updated_at":"2026-02-27T03:05:20.814865+05:30"},{"city":"Dhanbad","state":"Jharkhand","latitude":23.7957,"longitude":86.4304,"temp":16.2,"humidity":57,"rain":0.0,"pressure":980.4,"uv_index":7.45,"aqi":138,"mosquito_risk":0,"arthritis_risk":5,"migraine_risk":7,"frizz_risk":0,"updated_at":"2026-02-27T03:05:20.814873+05:30"},{"city":"Bokaro","state":"Jharkhand","latitude":23.6693,"longitude":86.1511,"temp":16.3,"humidity":56,"rain":0.0,"pressure":984.8,"uv_index":7.45,"aqi":141,"mosquito_risk":0,"arthritis_risk":5,"migraine_risk":7,"frizz_risk":0,"updated_at":"2026-02-27T03:05:20.814881+05:30"},{"city":"Bhubaneswar","state":"Odisha","latitude":20.2961,"longitude":85.8245,"temp":22.9,"humidity":94,"rain":0.0,"pressure":1003.2,"uv_index":7.85,"aqi":127,"mosquito_risk":3,"arthritis_risk":5,"migraine_risk":4,"frizz_risk":1,"updated_at":"2026-02-27T03:05:20.814889+05:30"},{"city":"Cuttack","state":"Odisha","latitude":20.4625,"longitude":85.8828,"temp":22.4,"humidity":98,"rain":0.0,"pressure":1005.2,"uv_index":7.9,"aqi":127,"mosquito_risk":3,"arthritis_risk":5,"migraine_risk":4,"frizz_risk":1,"updated_at":"2026-02-27T03:05:20.814896+05:30"},{"city":"Rourkela","state":"Odisha","latitude":22.2604,"longitude":84.8536,"temp":18.3,"humidity":61,"rain":0.0,"pressure":985.6,"uv_index":7.45,"aqi":92,"mosquito_risk":3,"arthritis_risk":5,"migraine_risk":7,"frizz_risk":0,"updated_at":"2026-02-27T03:05:20.814903+05:30"},{"city":"Raipur","state":"Chhattisgarh","latitude":21.2514,"longitude":81.6296,"temp":19.9,"humidity":55,"rain":0.0,"pressure":974.3,"uv_index":7.55,"aqi":122,"mosquito_risk":0,"arthritis_risk":5,"migraine_risk":7,"frizz_risk":0,"updated_at":"2026-02-27T03:05:20.814910+05:30"},{"city":"Bhilai","state":"Chhattisgarh","latitude":21.1938,"longitude":81.3509,"temp":19.3,"humidity":56,"rain":0.0,"pressure":974.7,"uv_index":7.55,"aqi":130,"mosquito_risk":0,"arthritis_risk":5,"migraine_risk":7,"frizz_risk":0,"updated_at":"2026-02-27T03:05:20.814917+05:30"},{"city":"Guwahati","state":"Assam","latitude":26.1158,"longitude":91.7086,"temp":18.4,"humidity":88,"rain":0.0,"pressure":1001.7,"uv_index":6.9,"aqi":149,"mosquito_risk":3,"arthritis_risk":10,"migraine_risk":4,"frizz_risk":1,"updated_at":"2026-02-27T03:05:20.814924+05:30"},{"city":"Agartala","state":"Tripura","latitude":23.8315,"longitude":91.2868,"temp":17.3,"humidity":69,"rain":0.0,"pressure":1006.6,"uv_index":7.25,"aqi":169,"mosquito_risk":3,"arthritis_risk":5,"migraine_risk":4,"frizz_risk":0,"updated_at":"2026-02-27T03:05:20.814932+05:30"},{"city":"Shillong","state":"Meghalaya","latitude":25.5788,"longitude":91.8933,"temp":7.1,"humidity":91,"rain":0.0,"pressure":851.2,"uv_index":4.9,"aqi":129,"mosquito_risk":3,"arthritis_risk":10,"migraine_risk":3,"frizz_risk":0,"updated_at":"2026-02-27T03:05:20.814939+05:30"},{"city":"Imphal","state":"Manipur","latitude":24.817,"longitude":93.9368,"temp":12.7,"humidity":80,"rain":0.0,"pressure":921.3,"uv_index":7.45,"aqi":153,"mosquito_risk":3,"arthritis_risk":5,"migraine_risk":7,"frizz_risk":0,"updated_at":"2026-02-27T03:05:20.814946+05:30"},{"city":"Aizawl","state":"Mizoram","latitude":23.7271,"longitude":92.7176,"temp":14.0,"humidity":73,"rain":0.0,"pressure":890.5,"uv_index":7.4,"aqi":156,"mosquito_risk":3,"arthritis_risk":5,"migraine_risk":7,"frizz_risk":0,"updated_at":"2026-02-27T03:05:20.814953+05:30"},{"city":"Kohima","state":"Nagaland","latitude":25.6701,"longitude":94.1077,"temp":10.9,"humidity":78,"rain":0.0,"pressure":851.4,"uv_index":7.25,"aqi":151,"mosquito_risk":3,"arthritis_risk":5,"migraine_risk":7,"frizz_risk":0,"updated_at":"2026-02-27T03:05:20.814961+05:30"},{"city":"Gangtok","state":"Sikkim","latitude":27.3314,"longitude":88.6138,"temp":10.2,"humidity":77,"rain":0.0,"pressure":833.0,"uv_index":4.4,"aqi":151,"mosquito_risk":3,"arthritis_risk":5,"migraine_risk":3,"frizz_risk":0,"updated_at":"2026-02-27T03:05:20.814969+05:30"},{"city":"Siliguri","state":"West Bengal","latitude":26.7271,"longitude":88.3953,"temp":18.0,"humidity":63,"rain":0.0,"pressure":993.6,"uv_index":6.9,"aqi":159,"mosquito_risk":3,"arthritis_risk":5,"migraine_risk":7,"frizz_risk":0,"updated_at":"2026-02-27T03:05:24.159982+05:30"},{"city":"Durgapur","state":"West Bengal","latitude":23.5204,"longitude":87.3119,"temp":19.2,"humidity":52,"rain":0.0,"pressure":995.9,"uv_index":7.4,"aqi":126,"mosquito_risk":0,"arthritis_risk":5,"migraine_risk":7,"frizz_risk":0,"updated_at":"2026-02-27T03:05:24.160018+05:30"},{"city":"Asansol","state":"West Bengal","latitude":23.6739,"longitude":86.9524,"temp":20.5,"humidity":42,"rain":0.0,"pressure":994.4,"uv_index":7.4,"aqi":114,"mosquito_risk":0,"arthritis_risk":5,"migraine_risk":7,"frizz_risk":0,"updated_at":"2026-02-27T03:05:24.160029+05:30"},{"city":"Pondicherry","state":"Puducherry","latitude":11.9139,"longitude":79.8145,"temp":23.0,"humidity":97,"rain":0.0,"pressure":1008.3,"uv_index":8.7,"aqi":85,"mosquito_risk":3,"arthritis_risk":0,"migraine_risk":4,"frizz_risk":1,"updated_at":"2026-02-27T03:05:24.160039+05:30"},{"city":"Port Blair","state":"Andaman and Nicobar Islands","latitude":11.6234,"longitude":92.7265,"temp":26.4,"humidity":86,"rain":0.0,"pressure":1004.6,"uv_index":8.7,"aqi":31,"mosquito_risk":7,"arthritis_risk":5,"migraine_risk":4,"frizz_risk":1,"updated_at":"2026-02-27T03:05:24.160047+05:30"},{"city":"Haridwar","state":"Uttarakhand","latitude":29.9457,"longitude":78.1642,"temp":14.2,"humidity":92,"rain":0.0,"pressure":973.6,"uv_index":5.3,"aqi":152,"mosquito_risk":3,"arthritis_risk":10,"migraine_risk":3,"frizz_risk":0,"updated_at":"2026-02-27T03:05:24.160056+05:30"},{"city":"Rishikesh","state":"Uttarakhand","latitude":30.0869,"longitude":78.2676,"temp":15.2,"humidity":83,"rain":0.0,"pressure":966.0,"uv_index":5.4,"aqi":122,"mosquito_risk":3,"arthritis_risk":10,"migraine_risk":3,"frizz_risk":0,"updated_at":"2026-02-27T03:05:24.160065+05:30"},{"city":"Nainital","state":"Uttarakhand","latitude":29.3919,"longitude":79.4542,"temp":12.9,"humidity":68,"rain":0.0,"pressure":801.9,"uv_index":6.2,"aqi":119,"mosquito_risk":3,"arthritis_risk":5,"migraine_risk":7,"frizz_risk":0,"updated_at":"2026-02-27T03:05:24.160073+05:30"},{"city":"Mussoorie","state":"Uttarakhand","latitude":30.4599,"longitude":78.0664,"temp":11.1,"humidity":75,"rain":0.0,"pressure":798.2,"uv_index":5.75,"aqi":124,"mosquito_risk":3,"arthritis_risk":5,"migraine_risk":3,"frizz_risk":0,"updated_at":"2026-02-27T03:05:24.160081+05:30"},{"city":"Dharamshala","state":"Himachal Pradesh","latitude":32.219,"longitude":76.3234,"temp":15.1,"humidity":36,"rain":0.0,"pressure":866.3,"uv_index":5.95,"aqi":92,"mosquito_risk":0,"arthritis_risk":5,"migraine_risk":3,"frizz_risk":0,"updated_at":"2026-02-27T03:05:24.160089+05:30"},{"city":"Dalhousie","state":"Himachal Pradesh","latitude":32.5387,"longitude":75.971,"temp":11.5,"humidity":46,"rain":0.0,"pressure":799.9,"uv_index":6.2,"aqi":116,"mosquito_risk":0,"arthritis_risk":5,"migraine_risk":7,"frizz_risk":0,"updated_at":"2026-02-27T03:05:24.160098+05:30"},{"city":"Patiala","state":"Punjab","latitude":30.3398,"longitude":76.3869,"temp":15.7,"humidity":89,"rain":0.0,"pressure":977.7,"uv_index":5.4,"aqi":165,"mosquito_risk":3,"arthritis_risk":10,"migraine_risk":3,"frizz_risk":0,"updated_at":"2026-02-27T03:05:24.160106+05:30"},{"city":"Bhatinda","state":"Punjab","latitude":30.211,"longitude":74.9455,"temp":16.1,"humidity":87,"rain":0.0,"pressure":983.4,"uv_index":6.1,"aqi":161,"mosquito_risk":3,"arthritis_risk":10,"migraine_risk":7,"frizz_risk":0,"updated_at":"2026-02-27T03:05:24.160114+05:30"},{"city":"Rohtak","state":"Haryana","latitude":28.8955,"longitude":76.6066,"temp":15.2,"humidity":87,"rain":0.0,"pressure":981.5,"uv_index":5.6,"aqi":157,"mosquito_risk":3,"arthritis_risk":10,"migraine_risk":3,"frizz_risk":0,"updated_at":"2026-02-27T03:05:24.160123+05:30"},{"city":"Panipat","state":"Haryana","latitude":29.3909,"longitude":76.9635,"temp":15.4,"humidity":90,"rain":0.0,"pressure":980.0,"uv_index":5.4,"aqi":169,"mosquito_risk":3,"arthritis_risk":10,"migraine_risk":3,"frizz_risk":0,"updated_at":"2026-02-27T03:05:24.160131+05:30"},{"city":"Mathura","state":"Uttar Pradesh","latitude":27.4924,"longitude":77.6737,"temp":16.4,"humidity":54,"rain":0.0,"pressure":986.9,"uv_index":5.85,"aqi":153,"mosquito_risk":0,"arthritis_risk":5,"migraine_risk":3,"frizz_risk":0,"updated_at":"2026-02-27T03:05:24.160139+05:30"},{"city":"Vrindavan","state":"Uttar Pradesh","latitude":27.5823,"longitude":77.7027,"temp":15.3,"humidity":59,"rain":0.0,"pressure":987.4,"uv_index":5.85,"aqi":153,"mosquito_risk":0,"arthritis_risk":5,"migraine_risk":3,"frizz_risk":0,"updated_at":"2026-02-27T03:05:24.160146+05:30"},{"city":"Ayodhya","state":"Uttar Pradesh","latitude":26.7922,"longitude":82.1998,"temp":16.6,"humidity":68,"rain":0.0,"pressure":995.5,"uv_index":6.25,"aqi":147,"mosquito_risk":3,"arthritis_risk":5,"migraine_risk":7,"frizz_risk":0,"updated_at":"2026-02-27T03:05:24.160154+05:30"},{"city":"Ratlam","state":"Madhya Pradesh","latitude":23.3315,"longitude":75.0367,"temp":19.8,"humidity":60,"rain":0.0,"pressure":953.1,"uv_index":7.15,"aqi":89,"mosquito_risk":0,"arthritis_risk":5,"migraine_risk":7,"frizz_risk":0,"updated_at":"2026-02-27T03:05:24.160161+05:30"},{"city":"Sagar","state":"Madhya Pradesh","latitude":23.8388,"longitude":78.7378,"temp":21.7,"humidity":48,"rain":0.0,"pressure":949.3,"uv_index":7.05,"aqi":61,"mosquito_risk":0,"arthritis_risk":5,"migraine_risk":7,"frizz_risk":0,"updated_at":"2026-02-27T03:05:24.160169+05:30"},{"city":"Satna","state":"Madhya Pradesh","latitude":24.6005,"longitude":80.8322,"temp":19.0,"humidity":51,"rain":0.0,"pressure":971.3,"uv_index":7.0,"aqi":72,"mosquito_risk":0,"arthritis_risk":5,"migraine_risk":7,"frizz_risk":0,"updated_at":"2026-02-27T03:05:24.160176+05:30"},{"city":"Akola","state":"Maharashtra","latitude":20.7002,"longitude":77.0082,"temp":23.1,"humidity":56,"rain":0.0,"pressure":973.9,"uv_index":7.55,"aqi":125,"mosquito_risk":0,"arthritis_risk":5,"migraine_risk":7,"frizz_risk":0,"updated_at":"2026-02-27T03:05:24.160184+05:30"},{"city":"Amravati","state":"Maharashtra","latitude":20.9374,"longitude":77.7796,"temp":22.1,"humidity":58,"rain":0.0,"pressure":965.8,"uv_index":7.5,"aqi":124,"mosquito_risk":0,"arthritis_risk":5,"migraine_risk":7,"frizz_risk":0,"updated_at":"2026-02-27T03:05:24.160193+05:30"},{"city":"Latur","state":"Maharashtra","latitude":18.4088,"longitude":76.5604,"temp":21.1,"humidity":59,"rain":0.0,"pressure":938.0,"uv_index":8.0,"aqi":112,"mosquito_risk":0,"arthritis_risk":5,"migraine_risk":7,"frizz_risk":0,"updated_at":"2026-02-27T03:05:24.160201+05:30"},{"city":"Nanded","state":"Maharashtra","latitude":19.1383,"longitude":77.3091,"temp":22.9,"humidity":66,"rain":0.0,"pressure":967.1,"uv_index":7.75,"aqi":153,"mosquito_risk":3,"arthritis_risk":5,"migraine_risk":7,"frizz_risk":1,"updated_at":"2026-02-27T03:05:24.160208+05:30"},{"city":"Gulbarga","state":"Karnataka","latitude":17.3297,"longitude":76.8343,"temp":22.5,"humidity":61,"rain":0.0,"pressure":957.0,"uv_index":8.1,"aqi":117,"mosquito_risk":3,"arthritis_risk":5,"migraine_risk":7,"frizz_risk":0,"updated_at":"2026-02-27T03:05:24.160217+05:30"},{"city":"Bidar","state":"Karnataka","latitude":17.9104,"longitude":77.5199,"temp":22.3,"humidity":68,"rain":0.0,"pressure":933.7,"uv_index":8.05,"aqi":147,"mosquito_risk":3,"arthritis_risk":5,"migraine_risk":7,"frizz_risk":1,"updated_at":"2026-02-27T03:05:24.160224+05:30"},{"city":"Hospet","state":"Karnataka","latitude":15.2689,"longitude":76.3909,"temp":23.3,"humidity":63,"rain":0.0,"pressure":954.2,"uv_index":8.4,"aqi":110,"mosquito_risk":3,"arthritis_risk":5,"migraine_risk":7,"frizz_risk":0,"updated_at":"2026-02-27T03:05:24.160231+05:30"},{"city":"Tirupur","state":"Tamil Nadu","latitude":11.1085,"longitude":77.3411,"temp":23.8,"humidity":81,"rain":0.0,"pressure":974.5,"uv_index":8.05,"aqi":135,"mosquito_risk":3,"arthritis_risk":5,"migraine_risk":7,"frizz_risk":1,"updated_at":"2026-02-27T03:05:24.160239+05:30"},{"city":"Alappuzha","state":"Kerala","latitude":9.4981,"longitude":76.3388,"temp":27.0,"humidity":83,"rain":0.0,"pressure":1007.4,"uv_index":8.7,"aqi":81,"mosquito_risk":7,"arthritis_risk":5,"migraine_risk":4,"frizz_risk":1,"updated_at":"2026-02-27T03:05:24.160248+05:30"},{"city":"Munnar","state":"Kerala","latitude":10.0889,"longitude":77.0595,"temp":18.7,"humidity":92,"rain":0.0,"pressure":854.5,"uv_index":6.3,"aqi":79,"mosquito_risk":3,"arthritis_risk":10,"migraine_risk":7,"frizz_risk":1,"updated_at":"2026-02-27T03:05:24.160257+05:30"},{"city":"Silchar","state":"Assam","latitude":24.8333,"longitude":92.7789,"temp":16.7,"humidity":76,"rain":0.0,"pressure":1005.5,"uv_index":7.2,"aqi":160,"mosquito_risk":3,"arthritis_risk":5,"migraine_risk":4,"frizz_risk":0,"updated_at":"2026-02-27T03:05:24.160265+05:30"},{"city":"Dibrugarh","state":"Assam","latitude":27.4728,"longitude":94.912,"temp":20.1,"humidity":79,"rain":0.0,"pressure":995.7,"uv_index":6.95,"aqi":125,"mosquito_risk":3,"arthritis_risk":5,"migraine_risk":7,"frizz_risk":1,"updated_at":"2026-02-27T03:05:24.160273+05:30"}]