[{"city":"Delhi","state":"Delhi","latitude":28.6139,"longitude":77.209,"temp":34.3,"humidity":22,"rain":0.0,"pressure":978.6,"uv_index":7.35,"wind_gusts":34.6,"aqi":422,"pm10":538.3,"pm2_5":70.8,"mosquito_risk":0,"arthritis_risk":5,"migraine_risk":7,"frizz_risk":0,"updated_at":"2026-04-22T19:19:15.766603+05:30"},{"city":"Mumbai","state":"Maharashtra","latitude":19.076,"longitude":72.8777,"temp":29.7,"humidity":66,"rain":0.0,"pressure":1006.4,"uv_index":8.05,"wind_gusts":23.8,"aqi":136,"pm10":32.7,"pm2_5":22.9,"mosquito_risk":7,"arthritis_risk":5,"migraine_risk":4,"frizz_risk":1,"updated_at":"2026-04-22T19:19:15.766654+05:30"},{"city":"Bangalore","state":"Karnataka","latitude":12.9716,"longitude":77.5946,"temp":31.1,"humidity":20,"rain":0.0,"pressure":910.3,"uv_index":9.6,"wind_gusts":29.5,"aqi":147,"pm10":21.9,"pm2_5":18.9,"mosquito_risk":0,"arthritis_risk":5,"migraine_risk":7,"frizz_risk":0,"updated_at":"2026-04-22T19:19:15.766668+05:30"},{"city":"Hyderabad","state":"Telangana","latitude":17.385,"longitude":78.4867,"temp":32.9,"humidity":37,"rain":0.0,"pressure":952.8,"uv_index":9.3,"wind_gusts":34.6,"aqi":174,"pm10":46.8,"pm2_5":42.4,"mosquito_risk":0,"arthritis_risk":5,"migraine_risk":7,"frizz_risk":1,"updated_at":"2026-04-22T19:19:15.766678+05:30"},{"city":"Chennai","state":"Tamil Nadu","latitude":13.0827,"longitude":80.2707,"temp":29.9,"humidity":74,"rain":0.0,"pressure":1005.1,"uv_index":9.15,"wind_gusts":32.0,"aqi":38,"pm10":9.1,"pm2_5":6.3,"mosquito_risk":7,"arthritis_risk":5,"migraine_risk":4,"frizz_risk":1,"updated_at":"2026-04-22T19:19:15.766685+05:30"},{"city":"Kolkata","state":"West Bengal","latitude":22.5726,"longitude":88.3639,"temp":30.6,"humidity":78,"rain":0.0,"pressure":1002.1,"uv_index":8.95,"wind_gusts":28.8,"aqi":172,"pm10":102.2,"pm2_5":70.3,"mosquito_risk":3,"arthritis_risk":5,"migraine_risk":4,"frizz_risk":1,"updated_at":"2026-04-22T19:19:15.766695+05:30"},{"city":"Pune","state":"Maharashtra","latitude":18.5204,"longitude":73.8567,"temp":32.3,"humidity":50,"rain":0.0,"pressure":947.3,"uv_index":8.6,"wind_gusts":41.4,"aqi":178,"pm10":42.4,"pm2_5":36.2,"mosquito_risk":0,"arthritis_risk":5,"migraine_risk":7,"frizz_risk":1,"updated_at":"2026-04-22T19:19:15.766702+05:30"},{"city":"Ahmedabad","state":"Gujarat","latitude":23.0225,"longitude":72.5714,"temp":35.0,"humidity":32,"rain":0.0,"pressure":999.4,"uv_index":8.2,"wind_gusts":26.3,"aqi":71,"pm10":17.8,"pm2_5":11.8,"mosquito_risk":0,"arthritis_risk":5,"migraine_risk":7,"frizz_risk":0,"updated_at":"2026-04-22T19:19:15.766708+05:30"},{"city":"Jaipur","state":"Rajasthan","latitude":26.9124,"longitude":75.7873,"temp":35.1,"humidity":11,"rain":0.0,"pressure":957.6,"uv_index":8.0,"wind_gusts":35.3,"aqi":139,"pm10":181.6,"pm2_5":24.4,"mosquito_risk":0,"arthritis_risk":5,"migraine_risk":10,"frizz_risk":0,"updated_at":"2026-04-22T19:19:15.766714+05:30"},{"city":"Lucknow","state":"Uttar Pradesh","latitude":26.8467,"longitude":80.9462,"temp":34.8,"humidity":28,"rain":0.0,"pressure":988.9,"uv_index":7.85,"wind_gusts":42.8,"aqi":276,"pm10":275.7,"pm2_5":52.7,"mosquito_risk":0,"arthritis_risk":5,"migraine_risk":7,"frizz_risk":0,"updated_at":"2026-04-22T19:19:15.766721+05:30"},{"city":"Kanpur","state":"Uttar Pradesh","latitude":26.4499,"longitude":80.3319,"temp":33.0,"humidity":27,"rain":0.0,"pressure":987.3,"uv_index":7.9,"wind_gusts":40.0,"aqi":432,"pm10":564.4,"pm2_5":75.2,"mosquito_risk":0,"arthritis_risk":5,"migraine_risk":7,"frizz_risk":0,"updated_at":"2026-04-22T19:19:15.766727+05:30"},{"city":"Chandigarh","state":"Chandigarh","latitude":30.7333,"longitude":76.7794,"temp":30.5,"humidity":35,"rain":0.0,"pressure":964.2,"uv_index":7.35,"wind_gusts":32.4,"aqi":150,"pm10":20.7,"pm2_5":14.6,"mosquito_risk":0,"arthritis_risk":5,"migraine_risk":7,"frizz_risk":0,"updated_at":"2026-04-22T19:19:15.766733+05:30"},{"city":"Srinagar","state":"Jammu and Kashmir","latitude":34.0837,"longitude":74.7973,"temp":20.6,"humidity":69,"rain":0.0,"pressure":840.9,"uv_index":8.5,"wind_gusts":16.2,"aqi":102,"pm10":24.8,"pm2_5":14.3,"mosquito_risk":3,"arthritis_risk":5,"migraine_risk":7,"frizz_risk":0,"updated_at":"2026-04-22T19:19:15.766739+05:30"},{"city":"Jammu","state":"Jammu and Kashmir","latitude":32.7266,"longitude":74.857,"temp":32.5,"humidity":37,"rain":0.0,"pressure":968.4,"uv_index":8.1,"wind_gusts":29.2,"aqi":145,"pm10":29.6,"pm2_5":21.2,"mosquito_risk":0,"arthritis_risk":5,"migraine_risk":7,"frizz_risk":0,"updated_at":"2026-04-22T19:19:15.766745+05:30"},{"city":"Amritsar","state":"Punjab","latitude":31.634,"longitude":74.8723,"temp":33.3,"humidity":32,"rain":0.0,"pressure":976.1,"uv_index":8.0,"wind_gusts":30.2,"aqi":172,"pm10":37.6,"pm2_5":23.2,"mosquito_risk":0,"arthritis_risk":5,"migraine_risk":7,"frizz_risk":0,"updated_at":"2026-04-22T19:19:15.766751+05:30"},{"city":"Ludhiana","state":"Punjab","latitude":30.901,"longitude":75.8573,"temp":35.0,"humidity":23,"rain":0.0,"pressure":974.2,"uv_index":7.65,"wind_gusts":30.6,"aqi":135,"pm10":46.1,"pm2_5":20.7,"mosquito_risk":0,"arthritis_risk":5,"migraine_risk":7,"frizz_risk":0,"updated_at":"2026-04-22T19:19:15.766758+05:30"},{"city":"Jalandhar","state":"Punjab","latitude":31.326,"longitude":75.5762,"temp":33.9,"humidity":27,"rain":0.0,"pressure":975.3,"uv_index":7.8,"wind_gusts":32.0,"aqi":154,"pm10":52.2,"pm2_5":21.2,"mosquito_risk":0,"arthritis_risk":5,"migraine_risk":7,"frizz_risk":0,"updated_at":"2026-04-22T19:19:15.766764+05:30"},{"city":"Dehradun","state":"Uttarakhand","latitude":30.6284,"longitude":78.0322,"temp":22.2,"humidity":41,"rain":0.0,"pressure":830.0,"uv_index":7.75,"wind_gusts":31.3,"aqi":139,"pm10":17.9,"pm2_5":11.8,"mosquito_risk":0,"arthritis_risk":5,"migraine_risk":7,"frizz_risk":0,"updated_at":"2026-04-22T19:19:15.766770+05:30"},{"city":"Shimla","state":"Himachal Pradesh","latitude":31.1048,"longitude":77.1734,"temp":20.2,"humidity":34,"rain":0.0,"pressure":785.5,"uv_index":7.85,"wind_gusts":52.6,"aqi":134,"pm10":19.2,"pm2_5":10.7,"mosquito_risk":0,"arthritis_risk":5,"migraine_risk":7,"frizz_risk":0,"updated_at":"2026-04-22T19:19:15.766778+05:30"},{"city":"Manali","state":"Himachal Pradesh","latitude":32.2396,"longitude":77.1887,"temp":22.2,"humidity":62,"rain":0.0,"pressure":822.5,"uv_index":9.8,"wind_gusts":34.2,"aqi":137,"pm10":23.1,"pm2_5":11.7,"mosquito_risk":3,"arthritis_risk":5,"migraine_risk":7,"frizz_risk":0,"updated_at":"2026-04-22T19:19:15.766783+05:30"},{"city":"Gurgaon","state":"Haryana","latitude":28.4595,"longitude":77.0266,"temp":32.0,"humidity":30,"rain":0.0,"pressure":976.9,"uv_index":7.45,"wind_gusts":31.0,"aqi":1028,"pm10":1195.8,"pm2_5":132.2,"mosquito_risk":0,"arthritis_risk":5,"migraine_risk":7,"frizz_risk":0,"updated_at":"2026-04-22T19:19:15.766789+05:30"},{"city":"Noida","state":"Uttar Pradesh","latitude":28.5355,"longitude":77.391,"temp":34.2,"humidity":23,"rain":0.0,"pressure":980.0,"uv_index":7.4,"wind_gusts":36.0,"aqi":1028,"pm10":1195.8,"pm2_5":132.2,"mosquito_risk":0,"arthritis_risk":5,"migraine_risk":7,"frizz_risk":0,"updated_at":"2026-04-22T19:19:15.766795+05:30"},{"city":"Ghaziabad","state":"Uttar Pradesh","latitude":28.6692,"longitude":77.4538,"temp":33.5,"humidity":25,"rain":0.0,"pressure":978.3,"uv_index":7.35,"wind_gusts":34.6,"aqi":330,"pm10":433.1,"pm2_5":62.6,"mosquito_risk":0,"arthritis_risk":5,"migraine_risk":7,"frizz_risk":0,"updated_at":"2026-04-22T19:19:15.766801+05:30"},{"city":"Faridabad","state":"Haryana","latitude":28.4089,"longitude":77.3178,"temp":34.4,"humidity":22,"rain":0.0,"pressure":979.5,"uv_index":7.4,"wind_gusts":35.6,"aqi":1028,"pm10":1195.8,"pm2_5":132.2,"mosquito_risk":0,"arthritis_risk":5,"migraine_risk":7,"frizz_risk":0,"updated_at":"2026-04-22T19:19:15.766806+05:30"},{"city":"Meerut","state":"Uttar Pradesh","latitude":28.9845,"longitude":77.7064,"temp":31.9,"humidity":34,"rain":0.0,"pressure":977.0,"uv_index":7.25,"wind_gusts":38.5,"aqi":330,"pm10":433.1,"pm2_5":62.6,"mosquito_risk":0,"arthritis_risk":5,"migraine_risk":7,"frizz_risk":0,"updated_at":"2026-04-22T19:19:15.766811+05:30"},{"city":"Agra","state":"Uttar Pradesh","latitude":27.1767,"longitude":78.0081,"temp":33.7,"humidity":28,"rain":0.0,"pressure":983.3,"uv_index":7.75,"wind_gusts":38.2,"aqi":709,"pm10":556.9,"pm2_5":69.4,"mosquito_risk":0,"arthritis_risk":5,"migraine_risk":7,"frizz_risk":0,"updated_at":"2026-04-22T19:19:15.766819+05:30"},{"city":"Varanasi","state":"Uttar Pradesh","latitude":25.3176,"longitude":82.9739,"temp":35.2,"humidity":18,"rain":0.0,"pressure":992.8,"uv_index":8.5,"wind_gusts":39.2,"aqi":143,"pm10":74.7,"pm2_5":25.1,"mosquito_risk":0,"arthritis_risk":5,"migraine_risk":10,"frizz_risk":0,"updated_at":"2026-04-22T19:19:15.766825+05:30"},{"city":"Prayagraj","state":"Uttar Pradesh","latitude":25.4358,"longitude":81.8463,"temp":35.0,"humidity":23,"rain":0.0,"pressure":991.6,"uv_index":8.4,"wind_gusts":36.0,"aqi":135,"pm10":102.9,"pm2_5":27.6,"mosquito_risk":0,"arthritis_risk":5,"migraine_risk":7,"frizz_risk":0,"updated_at":"2026-04-22T19:19:15.766830+05:30"},{"city":"Gorakhpur","state":"Uttar Pradesh","latitude":26.7606,"longitude":83.3732,"temp":34.6,"humidity":16,"rain":0.0,"pressure":992.0,"uv_index":8.25,"wind_gusts":38.5,"aqi":156,"pm10":47.6,"pm2_5":21.9,"mosquito_risk":0,"arthritis_risk":5,"migraine_risk":7,"frizz_risk":0,"updated_at":"2026-04-22T19:19:15.766837+05:30"},{"city":"Bareilly","state":"Uttar Pradesh","latitude":28.367,"longitude":79.4304,"temp":32.8,"humidity":29,"rain":0.0,"pressure":982.1,"uv_index":7.6,"wind_gusts":41.4,"aqi":160,"pm10":29.6,"pm2_5":18.5,"mosquito_risk":0,"arthritis_risk":5,"migraine_risk":7,"frizz_risk":0,"updated_at":"2026-04-22T19:19:15.766843+05:30"},{"city":"Aligarh","state":"Uttar Pradesh","latitude":27.8974,"longitude":78.088,"temp":33.7,"humidity":23,"rain":0.0,"pressure":981.1,"uv_index":7.5,"wind_gusts":36.7,"aqi":717,"pm10":795.3,"pm2_5":102.0,"mosquito_risk":0,"arthritis_risk":5,"migraine_risk":7,"frizz_risk":0,"updated_at":"2026-04-22T19:19:15.766849+05:30"},{"city":"Moradabad","state":"Uttar Pradesh","latitude":28.8386,"longitude":78.7733,"temp":32.7,"humidity":29,"rain":0.0,"pressure":979.1,"uv_index":7.45,"wind_gusts":39.2,"aqi":150,"pm10":134.1,"pm2_5":33.3,"mosquito_risk":0,"arthritis_risk":5,"migraine_risk":7,"frizz_risk":0,"updated_at":"2026-04-22T19:19:15.766854+05:30"},{"city":"Saharanpur","state":"Uttar Pradesh","latitude":29.9637,"longitude":77.546,"temp":31.5,"humidity":35,"rain":0.0,"pressure":971.1,"uv_index":7.0,"wind_gusts":34.6,"aqi":154,"pm10":135.0,"pm2_5":31.3,"mosquito_risk":0,"arthritis_risk":5,"migraine_risk":7,"frizz_risk":0,"updated_at":"2026-04-22T19:19:15.766859+05:30"},{"city":"Jhansi","state":"Uttar Pradesh","latitude":25.4484,"longitude":78.5685,"temp":35.9,"humidity":9,"rain":0.0,"pressure":974.7,"uv_index":8.3,"wind_gusts":34.6,"aqi":99,"pm10":28.7,"pm2_5":10.2,"mosquito_risk":0,"arthritis_risk":5,"migraine_risk":10,"frizz_risk":1,"updated_at":"2026-04-22T19:19:19.111532+05:30"},{"city":"Surat","state":"Gujarat","latitude":21.1702,"longitude":72.8311,"temp":29.3,"humidity":60,"rain":0.0,"pressure":1004.6,"uv_index":7.9,"wind_gusts":24.5,"aqi":110,"pm10":60.5,"pm2_5":56.8,"mosquito_risk":4,"arthritis_risk":5,"migraine_risk":4,"frizz_risk":1,"updated_at":"2026-04-22T19:19:19.111562+05:30"},{"city":"Vadodara","state":"Gujarat","latitude":22.3072,"longitude":73.1812,"temp":34.8,"humidity":25,"rain":0.0,"pressure":1001.6,"uv_index":8.15,"wind_gusts":29.9,"aqi":123,"pm10":30.4,"pm2_5":25.1,"mosquito_risk":0,"arthritis_risk":5,"migraine_risk":4,"frizz_risk":0,"updated_at":"2026-04-22T19:19:19.111572+05:30"},{"city":"Rajkot","state":"Gujarat","latitude":22.3039,"longitude":70.8022,"temp":33.0,"humidity":39,"rain":0.0,"pressure":992.3,"uv_index":7.85,"wind_gusts":32.0,"aqi":77,"pm10":21.2,"pm2_5":10.2,"mosquito_risk":0,"arthritis_risk":5,"migraine_risk":7,"frizz_risk":1,"updated_at":"2026-04-22T19:19:19.111580+05:30"},{"city":"Thane","state":"Maharashtra","latitude":19.2183,"longitude":72.9781,"temp":29.6,"humidity":63,"rain":0.0,"pressure":1005.9,"uv_index":8.05,"wind_gusts":37.4,"aqi":136,"pm10":32.7,"pm2_5":22.9,"mosquito_risk":7,"arthritis_risk":5,"migraine_risk":4,"frizz_risk":1,"updated_at":"2026-04-22T19:19:19.111588+05:30"},{"city":"Nagpur","state":"Maharashtra","latitude":21.1458,"longitude":79.0882,"temp":34.6,"humidity":28,"rain":0.0,"pressure":970.2,"uv_index":8.6,"wind_gusts":30.6,"aqi":134,"pm10":19.8,"pm2_5":17.6,"mosquito_risk":0,"arthritis_risk":5,"migraine_risk":7,"frizz_risk":0,"updated_at":"2026-04-22T19:19:19.111596+05:30"},{"city":"Nashik","state":"Maharashtra","latitude":19.9975,"longitude":73.7898,"temp":30.9,"humidity":40,"rain":0.0,"pressure":944.6,"uv_index":8.35,"wind_gusts":37.4,"aqi":144,"pm10":35.2,"pm2_5":29.1,"mosquito_risk":0,"arthritis_risk":5,"migraine_risk":7,"frizz_risk":0,"updated_at":"2026-04-22T19:19:19.111605+05:30"},{"city":"Aurangabad","state":"Maharashtra","latitude":19.8762,"longitude":75.3433,"temp":34.3,"humidity":25,"rain":0.0,"pressure":942.6,"uv_index":9.05,"wind_gusts":38.9,"aqi":143,"pm10":29.6,"pm2_5":23.5,"mosquito_risk":0,"arthritis_risk":5,"migraine_risk":7,"frizz_risk":0,"updated_at":"2026-04-22T19:19:19.111612+05:30"},{"city":"Solapur","state":"Maharashtra","latitude":17.6599,"longitude":75.9064,"temp":33.4,"humidity":35,"rain":0.0,"pressure":955.2,"uv_index":9.1,"wind_gusts":20.5,"aqi":159,"pm10":35.6,"pm2_5":30.9,"mosquito_risk":0,"arthritis_risk":5,"migraine_risk":7,"frizz_risk":0,"updated_at":"2026-04-22T19:19:19.111619+05:30"},{"city":"Kolhapur","state":"Maharashtra","latitude":16.705,"longitude":74.2433,"temp":29.2,"humidity":64,"rain":0.0,"pressure":946.6,"uv_index":9.05,"wind_gusts":34.6,"aqi":164,"pm10":39.2,"pm2_5":36.2,"mosquito_risk":7,"arthritis_risk":5,"migraine_risk":7,"frizz_risk":1,"updated_at":"2026-04-22T19:19:19.111627+05:30"},{"city":"Goa","state":"Goa","latitude":15.2993,"longitude":74.124,"temp":29.7,"humidity":75,"rain":0.0,"pressure":995.3,"uv_index":9.0,"wind_gusts":32.8,"aqi":83,"pm10":33.2,"pm2_5":22.2,"mosquito_risk":7,"arthritis_risk":5,"migraine_risk":7,"frizz_risk":1,"updated_at":"2026-04-22T19:19:19.111634+05:30"},{"city":"Jodhpur","state":"Rajasthan","latitude":26.2389,"longitude":73.0243,"temp":33.7,"humidity":20,"rain":0.0,"pressure":980.2,"uv_index":8.2,"wind_gusts":33.1,"aqi":90,"pm10":174.6,"pm2_5":21.2,"mosquito_risk":0,"arthritis_risk":5,"migraine_risk":7,"frizz_risk":0,"updated_at":"2026-04-22T19:19:19.111641+05:30"},{"city":"Udaipur","state":"Rajasthan","latitude":24.5854,"longitude":73.7125,"temp":30.9,"humidity":19,"rain":0.0,"pressure":945.7,"uv_index":8.75,"wind_gusts":46.8,"aqi":82,"pm10":15.7,"pm2_5":11.8,"mosquito_risk":0,"arthritis_risk":5,"migraine_risk":7,"frizz_risk":0,"updated_at":"2026-04-22T19:19:19.111648+05:30"},{"city":"Kota","state":"Rajasthan","latitude":25.2138,"longitude":75.8648,"temp":36.4,"humidity":13,"rain":0.0,"pressure":975.6,"uv_index":8.25,"wind_gusts":35.3,"aqi":98,"pm10":14.6,"pm2_5":12.3,"mosquito_risk":0,"arthritis_risk":5,"migraine_risk":10,"frizz_risk":0,"updated_at":"2026-04-22T19:19:19.111655+05:30"},{"city":"Bikaner","state":"Rajasthan","latitude":28.0229,"longitude":73.3119,"temp":37.4,"humidity":16,"rain":0.0,"pressure":978.0,"uv_index":8.05,"wind_gusts":32.4,"aqi":85,"pm10":67.3,"pm2_5":15.9,"mosquito_risk":0,"arthritis_risk":5,"migraine_risk":10,"frizz_risk":0,"updated_at":"2026-04-22T19:19:19.111662+05:30"},{"city":"Ajmer","state":"Rajasthan","latitude":26.4499,"longitude":74.6399,"temp":32.6,"humidity":16,"rain":0.0,"pressure":952.9,"uv_index":8.2,"wind_gusts":40.3,"aqi":88,"pm10":12.5,"pm2_5":7.7,"mosquito_risk":0,"arthritis_risk":5,"migraine_risk":7,"frizz_risk":0,"updated_at":"2026-04-22T19:19:19.111669+05:30"},{"city":"Gwalior","state":"Madhya Pradesh","latitude":26.2183,"longitude":78.1828,"temp":34.6,"humidity":17,"rain":0.0,"pressure":980.0,"uv_index":8.0,"wind_gusts":38.2,"aqi":110,"pm10":39.7,"pm2_5":13.4,"mosquito_risk":0,"arthritis_risk":5,"migraine_risk":7,"frizz_risk":0,"updated_at":"2026-04-22T19:19:19.111676+05:30"},{"city":"Indore","state":"Madhya Pradesh","latitude":22.7196,"longitude":75.8577,"temp":32.1,"humidity":27,"rain":0.0,"pressure":946.8,"uv_index":8.65,"wind_gusts":40.0,"aqi":102,"pm10":20.4,"pm2_5":17.2,"mosquito_risk":0,"arthritis_risk":5,"migraine_risk":7,"frizz_risk":0,"updated_at":"2026-04-22T19:19:19.111683+05:30"},{"city":"Bhopal","state":"Madhya Pradesh","latitude":23.2599,"longitude":77.4126,"temp":33.2,"humidity":24,"rain":0.0,"pressure":952.1,"uv_index":8.7,"wind_gusts":38.5,"aqi":99,"pm10":18.6,"pm2_5":16.2,"mosquito_risk":0,"arthritis_risk":5,"migraine_risk":7,"frizz_risk":0,"updated_at":"2026-04-22T19:19:19.111690+05:30"},{"city":"Jabalpur","state":"Madhya Pradesh","latitude":23.1815,"longitude":79.9864,"temp":32.7,"humidity":30,"rain":0.0,"pressure":959.0,"uv_index":8.8,"wind_gusts":33.1,"aqi":116,"pm10":14.2,"pm2_5":11.9,"mosquito_risk":0,"arthritis_risk":5,"migraine_risk":7,"frizz_risk":0,"updated_at":"2026-04-22T19:19:19.111697+05:30"},{"city":"Ujjain","state":"Madhya Pradesh","latitude":23.1765,"longitude":75.7885,"temp":32.8,"humidity":25,"rain":0.0,"pressure":952.6,"uv_index":8.6,"wind_gusts":38.2,"aqi":92,"pm10":20.0,"pm2_5":17.4,"mosquito_risk":0,"arthritis_risk":5,"migraine_risk":7,"frizz_risk":0,"updated_at":"2026-04-22T19:19:19.111705+05:30"},{"city":"Visakhapatnam","state":"Andhra Pradesh","latitude":17.6868,"longitude":83.2185,"temp":28.6,"humidity":79,"rain":0.0,"pressure":1001.3,"uv_index":8.95,"wind_gusts":38.5,"aqi":62,"pm10":22.3,"pm2_5":18.6,"mosquito_risk":7,"arthritis_risk":5,"migraine_risk":4,"frizz_risk":1,"updated_at":"2026-04-22T19:19:19.111711+05:30"},{"city":"Vijayawada","state":"Andhra Pradesh","latitude":16.5062,"longitude":80.648,"temp":32.7,"humidity":47,"rain":0.0,"pressure":999.9,"uv_index":9.25,"wind_gusts":28.1,"aqi":80,"pm10":24.7,"pm2_5":22.5,"mosquito_risk":0,"arthritis_risk":5,"migraine_risk":7,"frizz_risk":1,"updated_at":"2026-04-22T19:19:19.111718+05:30"},{"city":"Guntur","state":"Andhra Pradesh","latitude":16.3067,"longitude":80.4365,"temp":30.9,"humidity":56,"rain":0.0,"pressure":1001.3,"uv_index":9.25,"wind_gusts":33.1,"aqi":100,"pm10":28.3,"pm2_5":25.3,"mosquito_risk":0,"arthritis_risk":5,"migraine_risk":4,"frizz_risk":1,"updated_at":"2026-04-22T19:19:19.111726+05:30"},{"city":"Nellore","state":"Andhra Pradesh","latitude":14.4426,"longitude":79.9865,"temp":29.8,"humidity":68,"rain":0.0,"pressure":1003.3,"uv_index":9.25,"wind_gusts":32.0,"aqi":86,"pm10":12.3,"pm2_5":9.4,"mosquito_risk":7,"arthritis_risk":5,"migraine_risk":4,"frizz_risk":1,"updated_at":"2026-04-22T19:19:19.111733+05:30"},{"city":"Kurnool","state":"Andhra Pradesh","latitude":15.8281,"longitude":78.0373,"temp":35.5,"humidity":33,"rain":0.0,"pressure":975.1,"uv_index":9.25,"wind_gusts":25.6,"aqi":156,"pm10":39.7,"pm2_5":34.6,"mosquito_risk":0,"arthritis_risk":5,"migraine_risk":10,"frizz_risk":1,"updated_at":"2026-04-22T19:19:19.111741+05:30"},{"city":"Kakinada","state":"Andhra Pradesh","latitude":16.9891,"longitude":82.2475,"temp":30.6,"humidity":65,"rain":0.0,"pressure":1004.7,"uv_index":8.8,"wind_gusts":28.1,"aqi":42,"pm10":12.8,"pm2_5":9.0,"mosquito_risk":3,"arthritis_risk":5,"migraine_risk":4,"frizz_risk":1,"updated_at":"2026-04-22T19:19:19.111748+05:30"},{"city":"Tirupati","state":"Andhra Pradesh","latitude":13.6288,"longitude":79.4192,"temp":32.8,"humidity":42,"rain":0.0,"pressure":989.4,"uv_index":9.35,"wind_gusts":33.8,"aqi":95,"pm10":21.4,"pm2_5":19.5,"mosquito_risk":0,"arthritis_risk":5,"migraine_risk":7,"frizz_risk":1,"updated_at":"2026-04-22T19:19:19.111754+05:30"},{"city":"Warangal","state":"Telangana","latitude":17.9689,"longitude":79.5941,"temp":36.2,"humidity":37,"rain":0.0,"pressure":976.0,"uv_index":9.2,"wind_gusts":24.1,"aqi":166,"pm10":55.2,"pm2_5":48.9,"mosquito_risk":0,"arthritis_risk":5,"migraine_risk":10,"frizz_risk":1,"updated_at":"2026-04-22T19:19:19.111761+05:30"},{"city":"Nizamabad","state":"Telangana","latitude":18.6725,"longitude":78.0941,"temp":34.5,"humidity":32,"rain":0.0,"pressure":962.4,"uv_index":8.9,"wind_gusts":33.5,"aqi":149,"pm10":43.3,"pm2_5":36.2,"mosquito_risk":0,"arthritis_risk":5,"migraine_risk":7,"frizz_risk":0,"updated_at":"2026-04-22T19:19:19.111768+05:30"},{"city":"Mysore","state":"Karnataka","latitude":12.2958,"longitude":76.6396,"temp":32.4,"humidity":29,"rain":0.0,"pressure":926.4,"uv_index":9.45,"wind_gusts":35.6,"aqi":158,"pm10":23.6,"pm2_5":19.7,"mosquito_risk":0,"arthritis_risk":5,"migraine_risk":7,"frizz_risk":0,"updated_at":"2026-04-22T19:19:19.111775+05:30"},{"city":"Mangalore","state":"Karnataka","latitude":12.9141,"longitude":74.856,"temp":30.5,"humidity":79,"rain":0.0,"pressure":1004.3,"uv_index":9.1,"wind_gusts":28.8,"aqi":102,"pm10":30.3,"pm2_5":23.0,"mosquito_risk":3,"arthritis_risk":5,"migraine_risk":4,"frizz_risk":1,"updated_at":"2026-04-22T19:19:19.111781+05:30"},{"city":"Hubli-Dharwad","state":"Karnataka","latitude":15.3647,"longitude":75.124,"temp":29.7,"humidity":47,"rain":0.0,"pressure":939.2,"uv_index":9.2,"wind_gusts":37.1,"aqi":171,"pm10":33.4,"pm2_5":29.7,"mosquito_risk":4,"arthritis_risk":5,"migraine_risk":7,"frizz_risk":1,"updated_at":"2026-04-22T19:19:19.111788+05:30"},{"city":"Belgaum","state":"Karnataka","latitude":15.8497,"longitude":74.4977,"temp":28.2,"humidity":66,"rain":0.0,"pressure":924.7,"uv_index":9.25,"wind_gusts":36.0,"aqi":170,"pm10":38.0,"pm2_5":32.9,"mosquito_risk":7,"arthritis_risk":5,"migraine_risk":7,"frizz_risk":1,"updated_at":"2026-04-22T19:19:22.438351+05:30"},{"city":"Coimbatore","state":"Tamil Nadu","latitude":11.0168,"longitude":76.9558,"temp":29.4,"humidity":65,"rain":0.0,"pressure":959.8,"uv_index":9.35,"wind_gusts":37.4,"aqi":135,"pm10":20.1,"pm2_5":17.8,"mosquito_risk":7,"arthritis_risk":5,"migraine_risk":7,"frizz_risk":1,"updated_at":"2026-04-22T19:19:22.438381+05:30"},{"city":"Madurai","state":"Tamil Nadu","latitude":9.9252,"longitude":78.1198,"temp":32.5,"humidity":55,"rain":0.0,"pressure":990.5,"uv_index":9.3,"wind_gusts":38.9,"aqi":85,"pm10":11.5,"pm2_5":9.9,"mosquito_risk":0,"arthritis_risk":5,"migraine_risk":7,"frizz_risk":1,"updated_at":"2026-04-22T19:19:22.438391+05:30"},{"city":"Trichy","state":"Tamil Nadu","latitude":10.7905,"longitude":78.7047,"temp":32.8,"humidity":53,"rain":0.0,"pressure":997.1,"uv_index":9.2,"wind_gusts":23.0,"aqi":81,"pm10":13.4,"pm2_5":12.4,"mosquito_risk":0,"arthritis_risk":5,"migraine_risk":7,"frizz_risk":1,"updated_at":"2026-04-22T19:19:22.438398+05:30"},{"city":"Salem","state":"Tamil Nadu","latitude":11.6643,"longitude":78.146,"temp":33.0,"humidity":35,"rain":0.0,"pressure":974.8,"uv_index":9.1,"wind_gusts":27.7,"aqi":115,"pm10":13.7,"pm2_5":12.3,"mosquito_risk":0,"arthritis_risk":5,"migraine_risk":7,"frizz_risk":0,"updated_at":"2026-04-22T19:19:22.438406+05:30"},{"city":"Tirunelveli","state":"Tamil Nadu","latitude":8.7139,"longitude":77.7567,"temp":30.9,"humidity":62,"rain":0.0,"pressure":1000.7,"uv_index":9.25,"wind_gusts":37.8,"aqi":102,"pm10":20.0,"pm2_5":18.6,"mosquito_risk":3,"arthritis_risk":5,"migraine_risk":4,"frizz_risk":1,"updated_at":"2026-04-22T19:19:22.438413+05:30"},{"city":"Vellore","state":"Tamil Nadu","latitude":12.9165,"longitude":79.1325,"temp":31.5,"humidity":43,"rain":0.0,"pressure":982.5,"uv_index":9.35,"wind_gusts":30.2,"aqi":93,"pm10":21.3,"pm2_5":20.0,"mosquito_risk":0,"arthritis_risk":5,"migraine_risk":7,"frizz_risk":1,"updated_at":"2026-04-22T19:19:22.438421+05:30"},{"city":"Erode","state":"Tamil Nadu","latitude":11.341,"longitude":77.7172,"temp":35.2,"humidity":37,"rain":0.0,"pressure":985.9,"uv_index":9.2,"wind_gusts":24.8,"aqi":98,"pm10":14.1,"pm2_5":12.7,"mosquito_risk":0,"arthritis_risk":5,"migraine_risk":10,"frizz_risk":1,"updated_at":"2026-04-22T19:19:22.438428+05:30"},{"city":"Kochi","state":"Kerala","latitude":9.9312,"longitude":76.2673,"temp":30.0,"humidity":80,"rain":0.0,"pressure":1005.9,"uv_index":8.9,"wind_gusts":31.3,"aqi":97,"pm10":24.2,"pm2_5":20.7,"mosquito_risk":7,"arthritis_risk":5,"migraine_risk":4,"frizz_risk":1,"updated_at":"2026-04-22T19:19:22.438435+05:30"},{"city":"Thiruvananthapuram","state":"Kerala","latitude":8.5241,"longitude":76.9366,"temp":29.1,"humidity":81,"rain":0.0,"pressure":1005.8,"uv_index":8.95,"wind_gusts":28.1,"aqi":102,"pm10":19.9,"pm2_5":15.6,"mosquito_risk":7,"arthritis_risk":5,"migraine_risk":4,"frizz_risk":1,"updated_at":"2026-04-22T19:19:22.438442+05:30"},{"city":"Kozhikode","state":"Kerala","latitude":11.2588,"longitude":75.7804,"temp":30.6,"humidity":78,"rain":0.0,"pressure":1005.3,"uv_index":9.1,"wind_gusts":32.0,"aqi":71,"pm10":22.4,"pm2_5":18.2,"mosquito_risk":3,"arthritis_risk":5,"migraine_risk":4,"frizz_risk":1,"updated_at":"2026-04-22T19:19:22.438449+05:30"},{"city":"Thrissur","state":"Kerala","latitude":10.5276,"longitude":76.2144,"temp":30.2,"humidity":77,"rain":0.0,"pressure":1004.5,"uv_index":9.1,"wind_gusts":39.6,"aqi":91,"pm10":21.8,"pm2_5":19.3,"mosquito_risk":3,"arthritis_risk":5,"migraine_risk":4,"frizz_risk":1,"updated_at":"2026-04-22T19:19:22.438456+05:30"},{"city":"Kannur","state":"Kerala","latitude":11.8745,"longitude":75.3704,"temp":30.6,"humidity":74,"rain":0.0,"pressure":1004.7,"uv_index":9.05,"wind_gusts":34.6,"aqi":109,"pm10":29.7,"pm2_5":24.0,"mosquito_risk":3,"arthritis_risk":5,"migraine_risk":4,"frizz_risk":1,"updated_at":"2026-04-22T19:19:22.438463+05:30"},{"city":"Patna","state":"Bihar","latitude":25.5941,"longitude":85.1376,"temp":34.6,"humidity":26,"rain":0.0,"pressure":995.2,"uv_index":8.65,"wind_gusts":40.7,"aqi":154,"pm10":142.0,"pm2_5":44.7,"mosquito_risk":0,"arthritis_risk":5,"migraine_risk":7,"frizz_risk":0,"updated_at":"2026-04-22T19:19:22.438470+05:30"},{"city":"Gaya","state":"Bihar","latitude":24.7914,"longitude":85.0002,"temp":34.8,"humidity":26,"rain":0.0,"pressure":989.2,"uv_index":8.75,"wind_gusts":35.3,"aqi":156,"pm10":139.2,"pm2_5":39.0,"mosquito_risk":0,"arthritis_risk":5,"migraine_risk":7,"frizz_risk":0,"updated_at":"2026-04-22T19:19:22.438476+05:30"},{"city":"Muzaffarpur","state":"Bihar","latitude":26.1209,"longitude":85.3647,"temp":32.0,"humidity":38,"rain":0.0,"pressure":995.4,"uv_index":8.6,"wind_gusts":18.0,"aqi":151,"pm10":163.9,"pm2_5":53.6,"mosquito_risk":0,"arthritis_risk":5,"migraine_risk":7,"frizz_risk":0,"updated_at":"2026-04-22T19:19:22.438483+05:30"},{"city":"Bhagalpur","state":"Bihar","latitude":25.2425,"longitude":87.0117,"temp":31.2,"humidity":49,"rain":0.0,"pressure":996.5,"uv_index":8.7,"wind_gusts":20.5,"aqi":172,"pm10":155.5,"pm2_5":49.1,"mosquito_risk":0,"arthritis_risk":5,"migraine_risk":7,"frizz_risk":1,"updated_at":"2026-04-22T19:19:22.438489+05:30"},{"city":"Ranchi","state":"Jharkhand","latitude":23.3441,"longitude":85.3096,"temp":31.7,"humidity":20,"rain":0.0,"pressure":935.5,"uv_index":9.25,"wind_gusts":39.2,"aqi":146,"pm10":70.3,"pm2_5":23.7,"mosquito_risk":0,"arthritis_risk":5,"migraine_risk":7,"frizz_risk":0,"updated_at":"2026-04-22T19:19:22.438496+05:30"},{"city":"Jamshedpur","state":"Jharkhand","latitude":22.8046,"longitude":86.2029,"temp":36.0,"humidity":34,"rain":0.0,"pressure":986.1,"uv_index":9.05,"wind_gusts":23.4,"aqi":198,"pm10":162.5,"pm2_5":44.4,"mosquito_risk":0,"arthritis_risk":5,"migraine_risk":10,"frizz_risk":1,"updated_at":"2026-04-22T19:19:22.438503+05:30"},{"city":"Dhanbad","state":"Jharkhand","latitude":23.7957,"longitude":86.4304,"temp":36.4,"humidity":16,"rain":0.0,"pressure":975.6,"uv_index":9.0,"wind_gusts":29.5,"aqi":153,"pm10":137.4,"pm2_5":58.8,"mosquito_risk":0,"arthritis_risk":5,"migraine_risk":10,"frizz_risk":0,"updated_at":"2026-04-22T19:19:22.438509+05:30"},{"city":"Bokaro","state":"Jharkhand","latitude":23.6693,"longitude":86.1511,"temp":34.6,"humidity":17,"rain":0.0,"pressure":979.8,"uv_index":9.0,"wind_gusts":37.8,"aqi":155,"pm10":131.3,"pm2_5":55.6,"mosquito_risk":0,"arthritis_risk":5,"migraine_risk":7,"frizz_risk":0,"updated_at":"2026-04-22T19:19:22.438516+05:30"},{"city":"Bhubaneswar","state":"Odisha","latitude":20.2961,"longitude":85.8245,"temp":29.7,"humidity":71,"rain":0.0,"pressure":999.0,"uv_index":9.15,"wind_gusts":37.4,"aqi":203,"pm10":36.4,"pm2_5":33.8,"mosquito_risk":7,"arthritis_risk":5,"migraine_risk":7,"frizz_risk":1,"updated_at":"2026-04-22T19:19:22.438523+05:30"},{"city":"Cuttack","state":"Odisha","latitude":20.4625,"longitude":85.8828,"temp":32.2,"humidity":59,"rain":0.0,"pressure":1000.8,"uv_index":9.2,"wind_gusts":38.5,"aqi":203,"pm10":36.4,"pm2_5":33.8,"mosquito_risk":0,"arthritis_risk":5,"migraine_risk":4,"frizz_risk":1,"updated_at":"2026-04-22T19:19:22.438530+05:30"},{"city":"Rourkela","state":"Odisha","latitude":22.2604,"longitude":84.8536,"temp":35.2,"humidity":24,"rain":0.0,"pressure":980.4,"uv_index":9.0,"wind_gusts":33.1,"aqi":180,"pm10":78.5,"pm2_5":34.3,"mosquito_risk":0,"arthritis_risk":5,"migraine_risk":10,"frizz_risk":0,"updated_at":"2026-04-22T19:19:22.438537+05:30"},{"city":"Raipur","state":"Chhattisgarh","latitude":21.2514,"longitude":81.6296,"temp":36.6,"humidity":18,"rain":0.0,"pressure":971.2,"uv_index":8.95,"wind_gusts":33.5,"aqi":166,"pm10":39.5,"pm2_5":31.4,"mosquito_risk":0,"arthritis_risk":5,"migraine_risk":10,"frizz_risk":0,"updated_at":"2026-04-22T19:19:22.438543+05:30"},{"city":"Bhilai","state":"Chhattisgarh","latitude":21.1938,"longitude":81.3509,"temp":35.1,"humidity":23,"rain":0.0,"pressure":971.4,"uv_index":9.0,"wind_gusts":30.2,"aqi":151,"pm10":32.4,"pm2_5":25.8,"mosquito_risk":0,"arthritis_risk":5,"migraine_risk":10,"frizz_risk":0,"updated_at":"2026-04-22T19:19:22.438550+05:30"},{"city":"Guwahati","state":"Assam","latitude":26.1158,"longitude":91.7086,"temp":28.4,"humidity":81,"rain":0.0,"pressure":999.6,"uv_index":8.6,"wind_gusts":36.7,"aqi":116,"pm10":57.4,"pm2_5":35.6,"mosquito_risk":7,"arthritis_risk":5,"migraine_risk":7,"frizz_risk":1,"updated_at":"2026-04-22T19:19:22.438556+05:30"},{"city":"Agartala","state":"Tripura","latitude":23.8315,"longitude":91.2868,"temp":30.4,"humidity":72,"rain":0.0,"pressure":1002.8,"uv_index":8.85,"wind_gusts":31.3,"aqi":84,"pm10":42.5,"pm2_5":36.9,"mosquito_risk":3,"arthritis_risk":5,"migraine_risk":4,"frizz_risk":1,"updated_at":"2026-04-22T19:19:22.438563+05:30"},{"city":"Shillong","state":"Meghalaya","latitude":25.5788,"longitude":91.8933,"temp":16.6,"humidity":80,"rain":0.0,"pressure":855.7,"uv_index":9.05,"wind_gusts":75.2,"aqi":81,"pm10":46.7,"pm2_5":26.0,"mosquito_risk":3,"arthritis_risk":5,"migraine_risk":7,"frizz_risk":0,"updated_at":"2026-04-22T19:19:22.438569+05:30"},{"city":"Imphal","state":"Manipur","latitude":24.817,"longitude":93.9368,"temp":21.9,"humidity":79,"rain":0.0,"pressure":922.5,"uv_index":9.2,"wind_gusts":80.6,"aqi":132,"pm10":58.9,"pm2_5":32.0,"mosquito_risk":3,"arthritis_risk":5,"migraine_risk":7,"frizz_risk":1,"updated_at":"2026-04-22T19:19:22.438576+05:30"},{"city":"Aizawl","state":"Mizoram","latitude":23.7271,"longitude":92.7176,"temp":23.0,"humidity":81,"rain":0.0,"pressure":891.8,"uv_index":9.05,"wind_gusts":54.0,"aqi":98,"pm10":53.9,"pm2_5":34.6,"mosquito_risk":3,"arthritis_risk":5,"migraine_risk":7,"frizz_risk":1,"updated_at":"2026-04-22T19:19:22.438581+05:30"},{"city":"Kohima","state":"Nagaland","latitude":25.6701,"longitude":94.1077,"temp":17.1,"humidity":92,"rain":0.0,"pressure":854.6,"uv_index":9.15,"wind_gusts":88.2,"aqi":106,"pm10":43.9,"pm2_5":21.0,"mosquito_risk":3,"arthritis_risk":10,"migraine_risk":7,"frizz_risk":0,"updated_at":"2026-04-22T19:19:22.438586+05:30"},{"city":"Gangtok","state":"Sikkim","latitude":27.3314,"longitude":88.6138,"temp":18.4,"humidity":83,"rain":0.0,"pressure":837.4,"uv_index":8.9,"wind_gusts":20.2,"aqi":141,"pm10":66.6,"pm2_5":39.2,"mosquito_risk":3,"arthritis_risk":10,"migraine_risk":7,"frizz_risk":0,"updated_at":"2026-04-22T19:19:22.438592+05:30"},{"city":"Siliguri","state":"West Bengal","latitude":26.7271,"longitude":88.3953,"temp":25.4,"humidity":72,"rain":0.0,"pressure":991.2,"uv_index":8.5,"wind_gusts":22.7,"aqi":150,"pm10":83.1,"pm2_5":54.4,"mosquito_risk":7,"arthritis_risk":5,"migraine_risk":7,"frizz_risk":1,"updated_at":"2026-04-22T19:19:25.759330+05:30"},{"city":"Durgapur","state":"West Bengal","latitude":23.5204,"longitude":87.3119,"temp":34.3,"humidity":46,"rain":0.0,"pressure":990.9,"uv_index":8.95,"wind_gusts":28.8,"aqi":168,"pm10":169.0,"pm2_5":64.5,"mosquito_risk":0,"arthritis_risk":5,"migraine_risk":7,"frizz_risk":1,"updated_at":"2026-04-22T19:19:25.759361+05:30"},{"city":"Asansol","state":"West Bengal","latitude":23.6739,"longitude":86.9524,"temp":35.6,"humidity":34,"rain":0.0,"pressure":989.3,"uv_index":9.0,"wind_gusts":26.3,"aqi":151,"pm10":136.0,"pm2_5":48.1,"mosquito_risk":0,"arthritis_risk":5,"migraine_risk":10,"frizz_risk":1,"updated_at":"2026-04-22T19:19:25.759370+05:30"},{"city":"Pondicherry","state":"Puducherry","latitude":11.9139,"longitude":79.8145,"temp":29.2,"humidity":78,"rain":0.0,"pressure":1006.3,"uv_index":8.95,"wind_gusts":28.1,"aqi":31,"pm10":6.6,"pm2_5":4.3,"mosquito_risk":7,"arthritis_risk":5,"migraine_risk":4,"frizz_risk":1,"updated_at":"2026-04-22T19:19:25.759379+05:30"},{"city":"Port Blair","state":"Andaman and Nicobar Islands","latitude":11.6234,"longitude":92.7265,"temp":29.9,"humidity":71,"rain":0.0,"pressure":1006.0,"uv_index":9.15,"wind_gusts":23.4,"aqi":35,"pm10":10.9,"pm2_5":8.2,"mosquito_risk":7,"arthritis_risk":5,"migraine_risk":4,"frizz_risk":1,"updated_at":"2026-04-22T19:19:25.759387+05:30"},{"city":"Haridwar","state":"Uttarakhand","latitude":29.9457,"longitude":78.1642,"temp":30.6,"humidity":36,"rain":0.0,"pressure":969.9,"uv_index":7.15,"wind_gusts":34.6,"aqi":159,"pm10":63.6,"pm2_5":20.5,"mosquito_risk":0,"arthritis_risk":5,"migraine_risk":7,"frizz_risk":0,"updated_at":"2026-04-22T19:19:25.759395+05:30"},{"city":"Rishikesh","state":"Uttarakhand","latitude":30.0869,"longitude":78.2676,"temp":29.2,"humidity":45,"rain":0.0,"pressure":963.2,"uv_index":7.25,"wind_gusts":32.8,"aqi":152,"pm10":30.6,"pm2_5":15.3,"mosquito_risk":4,"arthritis_risk":5,"migraine_risk":7,"frizz_risk":1,"updated_at":"2026-04-22T19:19:25.759403+05:30"},{"city":"Nainital","state":"Uttarakhand","latitude":29.3919,"longitude":79.4542,"temp":24.6,"humidity":31,"rain":0.0,"pressure":806.3,"uv_index":8.05,"wind_gusts":44.6,"aqi":153,"pm10":31.9,"pm2_5":16.1,"mosquito_risk":0,"arthritis_risk":5,"migraine_risk":7,"frizz_risk":0,"updated_at":"2026-04-22T19:19:25.759411+05:30"},{"city":"Mussoorie","state":"Uttarakhand","latitude":30.4599,"longitude":78.0664,"temp":22.7,"humidity":41,"rain":0.0,"pressure":802.9,"uv_index":7.65,"wind_gusts":40.0,"aqi":158,"pm10":26.4,"pm2_5":15.0,"mosquito_risk":0,"arthritis_risk":5,"migraine_risk":7,"frizz_risk":0,"updated_at":"2026-04-22T19:19:25.759418+05:30"},{"city":"Dharamshala","state":"Himachal Pradesh","latitude":32.219,"longitude":76.3234,"temp":26.6,"humidity":40,"rain":0.0,"pressure":868.4,"uv_index":7.95,"wind_gusts":30.2,"aqi":127,"pm10":20.4,"pm2_5":12.3,"mosquito_risk":4,"arthritis_risk":5,"migraine_risk":7,"frizz_risk":0,"updated_at":"2026-04-22T19:19:25.759425+05:30"},{"city":"Dalhousie","state":"Himachal Pradesh","latitude":32.5387,"longitude":75.971,"temp":25.3,"humidity":32,"rain":0.0,"pressure":804.5,"uv_index":8.2,"wind_gusts":24.8,"aqi":154,"pm10":24.3,"pm2_5":15.5,"mosquito_risk":4,"arthritis_risk":5,"migraine_risk":7,"frizz_risk":0,"updated_at":"2026-04-22T19:19:25.759433+05:30"},{"city":"Patiala","state":"Punjab","latitude":30.3398,"longitude":76.3869,"temp":33.3,"humidity":36,"rain":0.0,"pressure":973.5,"uv_index":7.25,"wind_gusts":27.0,"aqi":206,"pm10":409.8,"pm2_5":51.7,"mosquito_risk":0,"arthritis_risk":5,"migraine_risk":7,"frizz_risk":1,"updated_at":"2026-04-22T19:19:25.759440+05:30"},{"city":"Bhatinda","state":"Punjab","latitude":30.211,"longitude":74.9455,"temp":36.2,"humidity":18,"rain":0.0,"pressure":978.8,"uv_index":7.85,"wind_gusts":30.2,"aqi":144,"pm10":35.0,"pm2_5":18.1,"mosquito_risk":0,"arthritis_risk":5,"migraine_risk":10,"frizz_risk":0,"updated_at":"2026-04-22T19:19:25.759447+05:30"},{"city":"Rohtak","state":"Haryana","latitude":28.8955,"longitude":76.6066,"temp":31.4,"humidity":28,"rain":0.0,"pressure":977.3,"uv_index":7.4,"wind_gusts":35.6,"aqi":536,"pm10":517.8,"pm2_5":68.0,"mosquito_risk":0,"arthritis_risk":5,"migraine_risk":7,"frizz_risk":0,"updated_at":"2026-04-22T19:19:25.759454+05:30"},{"city":"Panipat","state":"Haryana","latitude":29.3909,"longitude":76.9635,"temp":32.4,"humidity":33,"rain":0.0,"pressure":975.9,"uv_index":7.2,"wind_gusts":33.5,"aqi":892,"pm10":935.0,"pm2_5":108.7,"mosquito_risk":0,"arthritis_risk":5,"migraine_risk":7,"frizz_risk":0,"updated_at":"2026-04-22T19:19:25.759461+05:30"},{"city":"Mathura","state":"Uttar Pradesh","latitude":27.4924,"longitude":77.6737,"temp":33.7,"humidity":23,"rain":0.0,"pressure":982.0,"uv_index":7.7,"wind_gusts":37.8,"aqi":722,"pm10":713.4,"pm2_5":85.9,"mosquito_risk":0,"arthritis_risk":5,"migraine_risk":7,"frizz_risk":0,"updated_at":"2026-04-22T19:19:25.759469+05:30"},{"city":"Vrindavan","state":"Uttar Pradesh","latitude":27.5823,"longitude":77.7027,"temp":34.1,"humidity":28,"rain":0.0,"pressure":982.7,"uv_index":7.65,"wind_gusts":36.4,"aqi":722,"pm10":713.4,"pm2_5":85.9,"mosquito_risk":0,"arthritis_risk":5,"migraine_risk":7,"frizz_risk":0,"updated_at":"2026-04-22T19:19:25.759476+05:30"},{"city":"Ayodhya","state":"Uttar Pradesh","latitude":26.7922,"longitude":82.1998,"temp":34.6,"humidity":22,"rain":0.0,"pressure":990.2,"uv_index":8.05,"wind_gusts":44.3,"aqi":156,"pm10":84.3,"pm2_5":29.0,"mosquito_risk":0,"arthritis_risk":5,"migraine_risk":7,"frizz_risk":0,"updated_at":"2026-04-22T19:19:25.759483+05:30"},{"city":"Ratlam","state":"Madhya Pradesh","latitude":23.3315,"longitude":75.0367,"temp":30.6,"humidity":38,"rain":0.0,"pressure":953.3,"uv_index":8.45,"wind_gusts":30.6,"aqi":93,"pm10":19.3,"pm2_5":16.2,"mosquito_risk":0,"arthritis_risk":5,"migraine_risk":7,"frizz_risk":0,"updated_at":"2026-04-22T19:19:25.759491+05:30"},{"city":"Sagar","state":"Madhya Pradesh","latitude":23.8388,"longitude":78.7378,"temp":33.6,"humidity":21,"rain":0.0,"pressure":948.4,"uv_index":8.65,"wind_gusts":38.2,"aqi":110,"pm10":9.3,"pm2_5":7.9,"mosquito_risk":0,"arthritis_risk":5,"migraine_risk":7,"frizz_risk":0,"updated_at":"2026-04-22T19:19:25.759498+05:30"},{"city":"Satna","state":"Madhya Pradesh","latitude":24.6005,"longitude":80.8322,"temp":34.9,"humidity":18,"rain":0.0,"pressure":967.9,"uv_index":8.7,"wind_gusts":40.0,"aqi":116,"pm10":39.2,"pm2_5":13.4,"mosquito_risk":0,"arthritis_risk":5,"migraine_risk":7,"frizz_risk":0,"updated_at":"2026-04-22T19:19:25.759505+05:30"},{"city":"Akola","state":"Maharashtra","latitude":20.7002,"longitude":77.0082,"temp":36.5,"humidity":23,"rain":0.0,"pressure":972.4,"uv_index":8.9,"wind_gusts":26.6,"aqi":122,"pm10":28.1,"pm2_5":23.0,"mosquito_risk":0,"arthritis_risk":5,"migraine_risk":10,"frizz_risk":0,"updated_at":"2026-04-22T19:19:25.759512+05:30"},{"city":"Amravati","state":"Maharashtra","latitude":20.9374,"longitude":77.7796,"temp":34.6,"humidity":31,"rain":0.0,"pressure":964.5,"uv_index":8.8,"wind_gusts":22.0,"aqi":123,"pm10":28.1,"pm2_5":22.8,"mosquito_risk":0,"arthritis_risk":5,"migraine_risk":7,"frizz_risk":0,"updated_at":"2026-04-22T19:19:25.759520+05:30"},{"city":"Latur","state":"Maharashtra","latitude":18.4088,"longitude":76.5604,"temp":32.2,"humidity":36,"rain":0.0,"pressure":938.1,"uv_index":8.35,"wind_gusts":29.2,"aqi":155,"pm10":37.5,"pm2_5":32.9,"mosquito_risk":0,"arthritis_risk":5,"migraine_risk":7,"frizz_risk":0,"updated_at":"2026-04-22T19:19:25.759528+05:30"},{"city":"Nanded","state":"Maharashtra","latitude":19.1383,"longitude":77.3091,"temp":34.8,"humidity":42,"rain":0.0,"pressure":966.0,"uv_index":9.0,"wind_gusts":21.2,"aqi":149,"pm10":33.6,"pm2_5":28.8,"mosquito_risk":0,"arthritis_risk":5,"migraine_risk":7,"frizz_risk":1,"updated_at":"2026-04-22T19:19:25.759534+05:30"},{"city":"Gulbarga","state":"Karnataka","latitude":17.3297,"longitude":76.8343,"temp":33.4,"humidity":34,"rain":0.0,"pressure":957.1,"uv_index":9.15,"wind_gusts":25.9,"aqi":161,"pm10":30.3,"pm2_5":26.6,"mosquito_risk":0,"arthritis_risk":5,"migraine_risk":7,"frizz_risk":0,"updated_at":"2026-04-22T19:19:25.759541+05:30"},{"city":"Bidar","state":"Karnataka","latitude":17.9104,"longitude":77.5199,"temp":32.1,"humidity":35,"rain":0.0,"pressure":934.4,"uv_index":7.6,"wind_gusts":26.3,"aqi":152,"pm10":41.8,"pm2_5":36.4,"mosquito_risk":0,"arthritis_risk":5,"migraine_risk":7,"frizz_risk":0,"updated_at":"2026-04-22T19:19:25.759548+05:30"},{"city":"Hospet","state":"Karnataka","latitude":15.2689,"longitude":76.3909,"temp":33.6,"humidity":38,"rain":0.0,"pressure":953.9,"uv_index":9.25,"wind_gusts":25.9,"aqi":184,"pm10":39.9,"pm2_5":35.2,"mosquito_risk":0,"arthritis_risk":5,"migraine_risk":7,"frizz_risk":1,"updated_at":"2026-04-22T19:19:25.759555+05:30"},{"city":"Tirupur","state":"Tamil Nadu","latitude":11.1085,"longitude":77.3411,"temp":34.6,"humidity":36,"rain":0.0,"pressure":972.5,"uv_index":9.25,"wind_gusts":28.1,"aqi":124,"pm10":16.6,"pm2_5":14.8,"mosquito_risk":0,"arthritis_risk":5,"migraine_risk":7,"frizz_risk":1,"updated_at":"2026-04-22T19:19:25.759562+05:30"},{"city":"Alappuzha","state":"Kerala","latitude":9.4981,"longitude":76.3388,"temp":29.8,"humidity":81,"rain":0.0,"pressure":1006.2,"uv_index":8.8,"wind_gusts":28.1,"aqi":102,"pm10":25.6,"pm2_5":20.8,"mosquito_risk":7,"arthritis_risk":5,"migraine_risk":4,"frizz_risk":1,"updated_at":"2026-04-22T19:19:25.759569+05:30"},{"city":"Munnar","state":"Kerala","latitude":10.0889,"longitude":77.0595,"temp":24.1,"humidity":81,"rain":0.0,"pressure":856.2,"uv_index":9.65,"wind_gusts":31.0,"aqi":89,"pm10":19.4,"pm2_5":17.2,"mosquito_risk":3,"arthritis_risk":5,"migraine_risk":7,"frizz_risk":1,"updated_at":"2026-04-22T19:19:25.759576+05:30"},{"city":"Silchar","state":"Assam","latitude":24.8333,"longitude":92.7789,"temp":28.6,"humidity":76,"rain":0.0,"pressure":1002.6,"uv_index":8.85,"wind_gusts":46.4,"aqi":150,"pm10":56.8,"pm2_5":40.7,"mosquito_risk":7,"arthritis_risk":5,"migraine_risk":4,"frizz_risk":1,"updated_at":"2026-04-22T19:19:25.759583+05:30"},{"city":"Dibrugarh","state":"Assam","latitude":27.4728,"longitude":94.912,"temp":23.8,"humidity":87,"rain":0.0,"pressure":995.4,"uv_index":8.6,"wind_gusts":20.9,"aqi":86,"pm10":18.9,"pm2_5":16.6,"mosquito_risk":3,"arthritis_risk":5,"migraine_risk":7,"frizz_risk":1,"updated_at":"2026-04-22T19:19:25.759590+05:30"}]