[{"city":"Delhi","state":"Delhi","latitude":28.6139,"longitude":77.209,"temp":35.8,"humidity":29,"rain":0.0,"pressure":979.7,"uv_index":7.7,"wind_gusts":27.0,"aqi":185,"pm10":313.9,"pm2_5":102.0,"no2":40.6,"co":841.0,"o3":177.0,"so2":50.8,"mosquito_risk":0,"arthritis_risk":5,"migraine_risk":10,"frizz_risk":0,"updated_at":"2026-05-14T10:15:12.151819+05:30"},{"city":"Mumbai","state":"Maharashtra","latitude":19.076,"longitude":72.8777,"temp":33.0,"humidity":61,"rain":0.0,"pressure":1005.8,"uv_index":7.9,"wind_gusts":46.1,"aqi":80,"pm10":47.1,"pm2_5":30.5,"no2":11.8,"co":309.0,"o3":101.0,"so2":12.7,"mosquito_risk":3,"arthritis_risk":5,"migraine_risk":4,"frizz_risk":1,"updated_at":"2026-05-14T10:15:12.151866+05:30"},{"city":"Bangalore","state":"Karnataka","latitude":12.9716,"longitude":77.5946,"temp":30.5,"humidity":46,"rain":0.0,"pressure":910.6,"uv_index":9.35,"wind_gusts":40.3,"aqi":87,"pm10":41.2,"pm2_5":30.0,"no2":20.6,"co":829.0,"o3":81.0,"so2":11.6,"mosquito_risk":0,"arthritis_risk":5,"migraine_risk":7,"frizz_risk":1,"updated_at":"2026-05-14T10:15:12.151883+05:30"},{"city":"Hyderabad","state":"Telangana","latitude":17.385,"longitude":78.4867,"temp":34.6,"humidity":35,"rain":0.0,"pressure":951.4,"uv_index":7.5,"wind_gusts":24.8,"aqi":71,"pm10":29.1,"pm2_5":19.9,"no2":8.9,"co":460.0,"o3":108.0,"so2":8.6,"mosquito_risk":0,"arthritis_risk":5,"migraine_risk":7,"frizz_risk":1,"updated_at":"2026-05-14T10:15:12.151895+05:30"},{"city":"Chennai","state":"Tamil Nadu","latitude":13.0827,"longitude":80.2707,"temp":33.5,"humidity":55,"rain":0.0,"pressure":1004.2,"uv_index":8.65,"wind_gusts":42.8,"aqi":26,"pm10":8.3,"pm2_5":5.4,"no2":4.3,"co":294.0,"o3":52.0,"so2":8.6,"mosquito_risk":0,"arthritis_risk":5,"migraine_risk":4,"frizz_risk":1,"updated_at":"2026-05-14T10:15:12.151910+05:30"},{"city":"Kolkata","state":"West Bengal","latitude":22.5726,"longitude":88.3639,"temp":32.1,"humidity":67,"rain":0.0,"pressure":1003.2,"uv_index":8.95,"wind_gusts":32.8,"aqi":51,"pm10":16.6,"pm2_5":11.7,"no2":2.5,"co":232.0,"o3":84.0,"so2":6.4,"mosquito_risk":3,"arthritis_risk":5,"migraine_risk":4,"frizz_risk":1,"updated_at":"2026-05-14T10:15:12.151920+05:30"},{"city":"Pune","state":"Maharashtra","latitude":18.5204,"longitude":73.8567,"temp":34.0,"humidity":33,"rain":0.0,"pressure":946.7,"uv_index":7.4,"wind_gusts":50.0,"aqi":80,"pm10":66.6,"pm2_5":28.8,"no2":9.7,"co":286.0,"o3":93.0,"so2":14.4,"mosquito_risk":0,"arthritis_risk":5,"migraine_risk":7,"frizz_risk":0,"updated_at":"2026-05-14T10:15:12.151928+05:30"},{"city":"Ahmedabad","state":"Gujarat","latitude":23.0225,"longitude":72.5714,"temp":36.5,"humidity":32,"rain":0.0,"pressure":998.5,"uv_index":8.2,"wind_gusts":41.4,"aqi":76,"pm10":18.9,"pm2_5":13.0,"no2":4.7,"co":241.0,"o3":87.0,"so2":5.2,"mosquito_risk":0,"arthritis_risk":5,"migraine_risk":10,"frizz_risk":1,"updated_at":"2026-05-14T10:15:12.151938+05:30"},{"city":"Jaipur","state":"Rajasthan","latitude":26.9124,"longitude":75.7873,"temp":35.9,"humidity":23,"rain":0.0,"pressure":957.5,"uv_index":8.25,"wind_gusts":27.7,"aqi":120,"pm10":162.1,"pm2_5":42.7,"no2":7.3,"co":430.0,"o3":107.0,"so2":8.6,"mosquito_risk":0,"arthritis_risk":5,"migraine_risk":10,"frizz_risk":0,"updated_at":"2026-05-14T10:15:12.151947+05:30"},{"city":"Lucknow","state":"Uttar Pradesh","latitude":26.8467,"longitude":80.9462,"temp":34.6,"humidity":39,"rain":0.0,"pressure":990.6,"uv_index":8.2,"wind_gusts":28.1,"aqi":156,"pm10":55.6,"pm2_5":48.2,"no2":7.2,"co":548.0,"o3":140.0,"so2":16.8,"mosquito_risk":0,"arthritis_risk":5,"migraine_risk":7,"frizz_risk":1,"updated_at":"2026-05-14T10:15:12.151955+05:30"},{"city":"Kanpur","state":"Uttar Pradesh","latitude":26.4499,"longitude":80.3319,"temp":37.2,"humidity":27,"rain":0.0,"pressure":988.4,"uv_index":8.2,"wind_gusts":29.5,"aqi":157,"pm10":138.8,"pm2_5":58.9,"no2":7.4,"co":417.0,"o3":146.0,"so2":16.4,"mosquito_risk":0,"arthritis_risk":5,"migraine_risk":10,"frizz_risk":0,"updated_at":"2026-05-14T10:15:12.151963+05:30"},{"city":"Chandigarh","state":"Chandigarh","latitude":30.7333,"longitude":76.7794,"temp":33.1,"humidity":28,"rain":0.0,"pressure":965.5,"uv_index":7.65,"wind_gusts":24.8,"aqi":116,"pm10":56.8,"pm2_5":29.1,"no2":8.9,"co":701.0,"o3":148.0,"so2":10.4,"mosquito_risk":0,"arthritis_risk":5,"migraine_risk":7,"frizz_risk":0,"updated_at":"2026-05-14T10:15:12.151971+05:30"},{"city":"Srinagar","state":"Jammu and Kashmir","latitude":34.0837,"longitude":74.7973,"temp":15.9,"humidity":69,"rain":0.0,"pressure":843.6,"uv_index":8.75,"wind_gusts":22.3,"aqi":69,"pm10":28.4,"pm2_5":20.0,"no2":5.4,"co":392.0,"o3":99.0,"so2":3.0,"mosquito_risk":3,"arthritis_risk":5,"migraine_risk":7,"frizz_risk":0,"updated_at":"2026-05-14T10:15:12.151980+05:30"},{"city":"Jammu","state":"Jammu and Kashmir","latitude":32.7266,"longitude":74.857,"temp":31.1,"humidity":40,"rain":0.0,"pressure":969.3,"uv_index":8.45,"wind_gusts":31.3,"aqi":80,"pm10":25.5,"pm2_5":15.7,"no2":9.0,"co":366.0,"o3":100.0,"so2":3.0,"mosquito_risk":0,"arthritis_risk":5,"migraine_risk":7,"frizz_risk":0,"updated_at":"2026-05-14T10:15:12.151988+05:30"},{"city":"Amritsar","state":"Punjab","latitude":31.634,"longitude":74.8723,"temp":31.9,"humidity":36,"rain":0.0,"pressure":977.4,"uv_index":8.3,"wind_gusts":56.2,"aqi":134,"pm10":47.1,"pm2_5":29.8,"no2":9.3,"co":474.0,"o3":106.0,"so2":5.5,"mosquito_risk":0,"arthritis_risk":5,"migraine_risk":7,"frizz_risk":0,"updated_at":"2026-05-14T10:15:12.151996+05:30"},{"city":"Ludhiana","state":"Punjab","latitude":30.901,"longitude":75.8573,"temp":32.5,"humidity":35,"rain":0.0,"pressure":975.2,"uv_index":7.95,"wind_gusts":41.4,"aqi":157,"pm10":59.4,"pm2_5":33.4,"no2":9.8,"co":619.0,"o3":124.0,"so2":10.1,"mosquito_risk":0,"arthritis_risk":5,"migraine_risk":7,"frizz_risk":0,"updated_at":"2026-05-14T10:15:12.152003+05:30"},{"city":"Jalandhar","state":"Punjab","latitude":31.326,"longitude":75.5762,"temp":32.1,"humidity":33,"rain":0.0,"pressure":976.3,"uv_index":8.05,"wind_gusts":47.9,"aqi":125,"pm10":55.5,"pm2_5":30.4,"no2":7.5,"co":786.0,"o3":120.0,"so2":4.4,"mosquito_risk":0,"arthritis_risk":5,"migraine_risk":7,"frizz_risk":0,"updated_at":"2026-05-14T10:15:12.152010+05:30"},{"city":"Dehradun","state":"Uttarakhand","latitude":30.6284,"longitude":78.0322,"temp":24.1,"humidity":32,"rain":0.0,"pressure":831.2,"uv_index":8.1,"wind_gusts":40.7,"aqi":60,"pm10":23.1,"pm2_5":10.0,"no2":1.0,"co":202.0,"o3":141.0,"so2":1.8,"mosquito_risk":0,"arthritis_risk":5,"migraine_risk":7,"frizz_risk":0,"updated_at":"2026-05-14T10:15:12.152019+05:30"},{"city":"Shimla","state":"Himachal Pradesh","latitude":31.1048,"longitude":77.1734,"temp":21.8,"humidity":22,"rain":0.0,"pressure":786.1,"uv_index":8.15,"wind_gusts":46.4,"aqi":74,"pm10":34.6,"pm2_5":14.0,"no2":0.2,"co":178.0,"o3":141.0,"so2":1.3,"mosquito_risk":0,"arthritis_risk":5,"migraine_risk":7,"frizz_risk":1,"updated_at":"2026-05-14T10:15:12.152027+05:30"},{"city":"Manali","state":"Himachal Pradesh","latitude":32.2396,"longitude":77.1887,"temp":21.2,"humidity":27,"rain":0.0,"pressure":817.5,"uv_index":9.75,"wind_gusts":43.2,"aqi":46,"pm10":12.7,"pm2_5":5.3,"no2":5.8,"co":173.0,"o3":129.0,"so2":0.2,"mosquito_risk":0,"arthritis_risk":5,"migraine_risk":7,"frizz_risk":0,"updated_at":"2026-05-14T10:15:12.152033+05:30"},{"city":"Gurgaon","state":"Haryana","latitude":28.4595,"longitude":77.0266,"temp":35.8,"humidity":28,"rain":0.0,"pressure":978.1,"uv_index":7.8,"wind_gusts":36.0,"aqi":538,"pm10":653.8,"pm2_5":129.5,"no2":27.4,"co":663.0,"o3":149.0,"so2":33.0,"mosquito_risk":0,"arthritis_risk":5,"migraine_risk":10,"frizz_risk":0,"updated_at":"2026-05-14T10:15:12.152043+05:30"},{"city":"Noida","state":"Uttar Pradesh","latitude":28.5355,"longitude":77.391,"temp":33.5,"humidity":43,"rain":0.0,"pressure":981.3,"uv_index":7.7,"wind_gusts":27.7,"aqi":538,"pm10":653.8,"pm2_5":129.5,"no2":27.4,"co":698.0,"o3":149.0,"so2":33.0,"mosquito_risk":0,"arthritis_risk":5,"migraine_risk":7,"frizz_risk":1,"updated_at":"2026-05-14T10:15:12.152050+05:30"},{"city":"Ghaziabad","state":"Uttar Pradesh","latitude":28.6692,"longitude":77.4538,"temp":32.4,"humidity":46,"rain":0.0,"pressure":979.8,"uv_index":7.7,"wind_gusts":27.7,"aqi":180,"pm10":280.3,"pm2_5":88.0,"no2":10.7,"co":827.0,"o3":182.0,"so2":26.3,"mosquito_risk":0,"arthritis_risk":5,"migraine_risk":7,"frizz_risk":1,"updated_at":"2026-05-14T10:15:12.152058+05:30"},{"city":"Faridabad","state":"Haryana","latitude":28.4089,"longitude":77.3178,"temp":35.0,"humidity":31,"rain":0.0,"pressure":980.6,"uv_index":7.75,"wind_gusts":36.0,"aqi":538,"pm10":653.8,"pm2_5":129.5,"no2":27.4,"co":584.0,"o3":149.0,"so2":33.0,"mosquito_risk":0,"arthritis_risk":5,"migraine_risk":7,"frizz_risk":0,"updated_at":"2026-05-14T10:15:12.152065+05:30"},{"city":"Meerut","state":"Uttar Pradesh","latitude":28.9845,"longitude":77.7064,"temp":32.0,"humidity":42,"rain":0.0,"pressure":979.0,"uv_index":7.6,"wind_gusts":20.5,"aqi":180,"pm10":280.3,"pm2_5":88.0,"no2":10.7,"co":609.0,"o3":182.0,"so2":26.3,"mosquito_risk":0,"arthritis_risk":5,"migraine_risk":7,"frizz_risk":1,"updated_at":"2026-05-14T10:15:12.152072+05:30"},{"city":"Agra","state":"Uttar Pradesh","latitude":27.1767,"longitude":78.0081,"temp":36.0,"humidity":32,"rain":0.0,"pressure":984.4,"uv_index":8.05,"wind_gusts":28.8,"aqi":263,"pm10":300.8,"pm2_5":76.4,"no2":9.9,"co":471.0,"o3":144.0,"so2":14.5,"mosquito_risk":0,"arthritis_risk":5,"migraine_risk":10,"frizz_risk":1,"updated_at":"2026-05-14T10:15:12.152078+05:30"},{"city":"Varanasi","state":"Uttar Pradesh","latitude":25.3176,"longitude":82.9739,"temp":34.2,"humidity":44,"rain":0.0,"pressure":994.3,"uv_index":8.75,"wind_gusts":25.6,"aqi":141,"pm10":51.2,"pm2_5":43.1,"no2":8.9,"co":802.0,"o3":150.0,"so2":25.8,"mosquito_risk":0,"arthritis_risk":5,"migraine_risk":7,"frizz_risk":1,"updated_at":"2026-05-14T10:15:12.152086+05:30"},{"city":"Prayagraj","state":"Uttar Pradesh","latitude":25.4358,"longitude":81.8463,"temp":36.7,"humidity":32,"rain":0.0,"pressure":992.2,"uv_index":8.6,"wind_gusts":27.7,"aqi":150,"pm10":49.1,"pm2_5":44.7,"no2":8.9,"co":491.0,"o3":151.0,"so2":20.6,"mosquito_risk":0,"arthritis_risk":5,"migraine_risk":10,"frizz_risk":1,"updated_at":"2026-05-14T10:15:12.152095+05:30"},{"city":"Gorakhpur","state":"Uttar Pradesh","latitude":26.7606,"longitude":83.3732,"temp":30.2,"humidity":63,"rain":0.0,"pressure":995.2,"uv_index":8.6,"wind_gusts":31.0,"aqi":126,"pm10":50.3,"pm2_5":34.0,"no2":3.3,"co":361.0,"o3":141.0,"so2":8.3,"mosquito_risk":3,"arthritis_risk":5,"migraine_risk":7,"frizz_risk":1,"updated_at":"2026-05-14T10:15:12.152101+05:30"},{"city":"Bareilly","state":"Uttar Pradesh","latitude":28.367,"longitude":79.4304,"temp":32.9,"humidity":51,"rain":0.0,"pressure":984.4,"uv_index":8.0,"wind_gusts":34.9,"aqi":158,"pm10":112.5,"pm2_5":60.8,"no2":6.4,"co":490.0,"o3":141.0,"so2":12.8,"mosquito_risk":0,"arthritis_risk":5,"migraine_risk":7,"frizz_risk":1,"updated_at":"2026-05-14T10:15:12.152109+05:30"},{"city":"Aligarh","state":"Uttar Pradesh","latitude":27.8974,"longitude":78.088,"temp":33.2,"humidity":42,"rain":0.0,"pressure":982.7,"uv_index":7.85,"wind_gusts":48.6,"aqi":171,"pm10":310.1,"pm2_5":83.8,"no2":6.8,"co":485.0,"o3":154.0,"so2":20.0,"mosquito_risk":0,"arthritis_risk":5,"migraine_risk":7,"frizz_risk":1,"updated_at":"2026-05-14T10:15:12.152116+05:30"},{"city":"Moradabad","state":"Uttar Pradesh","latitude":28.8386,"longitude":78.7733,"temp":31.4,"humidity":54,"rain":0.0,"pressure":981.5,"uv_index":7.8,"wind_gusts":53.3,"aqi":167,"pm10":134.1,"pm2_5":70.5,"no2":9.1,"co":564.0,"o3":142.0,"so2":16.0,"mosquito_risk":0,"arthritis_risk":5,"migraine_risk":7,"frizz_risk":1,"updated_at":"2026-05-14T10:15:12.152122+05:30"},{"city":"Saharanpur","state":"Uttar Pradesh","latitude":29.9637,"longitude":77.546,"temp":30.6,"humidity":43,"rain":0.0,"pressure":973.1,"uv_index":7.35,"wind_gusts":26.3,"aqi":154,"pm10":65.0,"pm2_5":39.6,"no2":13.5,"co":577.0,"o3":151.0,"so2":15.8,"mosquito_risk":0,"arthritis_risk":5,"migraine_risk":7,"frizz_risk":1,"updated_at":"2026-05-14T10:15:12.152129+05:30"},{"city":"Jhansi","state":"Uttar Pradesh","latitude":25.4484,"longitude":78.5685,"temp":37.0,"humidity":31,"rain":0.0,"pressure":974.9,"uv_index":8.45,"wind_gusts":28.1,"aqi":90,"pm10":36.2,"pm2_5":21.2,"no2":2.8,"co":309.0,"o3":117.0,"so2":7.3,"mosquito_risk":0,"arthritis_risk":5,"migraine_risk":10,"frizz_risk":1,"updated_at":"2026-05-14T10:15:15.381031+05:30"},{"city":"Surat","state":"Gujarat","latitude":21.1702,"longitude":72.8311,"temp":36.2,"humidity":30,"rain":0.0,"pressure":1003.6,"uv_index":7.7,"wind_gusts":41.8,"aqi":90,"pm10":40.0,"pm2_5":33.1,"no2":35.3,"co":934.0,"o3":60.0,"so2":83.6,"mosquito_risk":0,"arthritis_risk":5,"migraine_risk":7,"frizz_risk":0,"updated_at":"2026-05-14T10:15:15.381067+05:30"},{"city":"Vadodara","state":"Gujarat","latitude":22.3072,"longitude":73.1812,"temp":36.3,"humidity":30,"rain":0.0,"pressure":1001.1,"uv_index":8.15,"wind_gusts":37.8,"aqi":82,"pm10":30.0,"pm2_5":19.2,"no2":6.5,"co":245.0,"o3":91.0,"so2":9.9,"mosquito_risk":0,"arthritis_risk":5,"migraine_risk":7,"frizz_risk":1,"updated_at":"2026-05-14T10:15:15.381078+05:30"},{"city":"Rajkot","state":"Gujarat","latitude":22.3039,"longitude":70.8022,"temp":35.7,"humidity":38,"rain":0.0,"pressure":991.0,"uv_index":7.75,"wind_gusts":59.0,"aqi":63,"pm10":14.5,"pm2_5":10.2,"no2":3.2,"co":169.0,"o3":88.0,"so2":5.2,"mosquito_risk":0,"arthritis_risk":5,"migraine_risk":10,"frizz_risk":1,"updated_at":"2026-05-14T10:15:15.381087+05:30"},{"city":"Thane","state":"Maharashtra","latitude":19.2183,"longitude":72.9781,"temp":35.1,"humidity":49,"rain":0.0,"pressure":1004.9,"uv_index":7.9,"wind_gusts":41.0,"aqi":80,"pm10":47.1,"pm2_5":30.5,"no2":11.8,"co":273.0,"o3":101.0,"so2":12.7,"mosquito_risk":0,"arthritis_risk":5,"migraine_risk":7,"frizz_risk":1,"updated_at":"2026-05-14T10:15:15.381095+05:30"},{"city":"Nagpur","state":"Maharashtra","latitude":21.1458,"longitude":79.0882,"temp":37.0,"humidity":33,"rain":0.0,"pressure":970.3,"uv_index":8.95,"wind_gusts":32.4,"aqi":101,"pm10":83.4,"pm2_5":51.1,"no2":9.1,"co":327.0,"o3":139.0,"so2":22.8,"mosquito_risk":0,"arthritis_risk":5,"migraine_risk":10,"frizz_risk":1,"updated_at":"2026-05-14T10:15:15.381103+05:30"},{"city":"Nashik","state":"Maharashtra","latitude":19.9975,"longitude":73.7898,"temp":34.7,"humidity":28,"rain":0.0,"pressure":944.2,"uv_index":8.25,"wind_gusts":38.2,"aqi":75,"pm10":48.5,"pm2_5":23.9,"no2":5.5,"co":208.0,"o3":90.0,"so2":9.1,"mosquito_risk":0,"arthritis_risk":5,"migraine_risk":7,"frizz_risk":0,"updated_at":"2026-05-14T10:15:15.381110+05:30"},{"city":"Aurangabad","state":"Maharashtra","latitude":19.8762,"longitude":75.3433,"temp":35.2,"humidity":34,"rain":0.0,"pressure":942.5,"uv_index":9.1,"wind_gusts":36.7,"aqi":75,"pm10":50.5,"pm2_5":23.6,"no2":4.7,"co":235.0,"o3":101.0,"so2":6.9,"mosquito_risk":0,"arthritis_risk":5,"migraine_risk":10,"frizz_risk":1,"updated_at":"2026-05-14T10:15:15.381118+05:30"},{"city":"Solapur","state":"Maharashtra","latitude":17.6599,"longitude":75.9064,"temp":34.4,"humidity":40,"rain":0.0,"pressure":955.1,"uv_index":8.25,"wind_gusts":28.1,"aqi":109,"pm10":67.1,"pm2_5":33.9,"no2":4.6,"co":279.0,"o3":114.0,"so2":9.9,"mosquito_risk":0,"arthritis_risk":5,"migraine_risk":7,"frizz_risk":1,"updated_at":"2026-05-14T10:15:15.381125+05:30"},{"city":"Kolhapur","state":"Maharashtra","latitude":16.705,"longitude":74.2433,"temp":30.6,"humidity":47,"rain":0.0,"pressure":946.1,"uv_index":8.55,"wind_gusts":39.6,"aqi":75,"pm10":67.3,"pm2_5":29.6,"no2":6.4,"co":274.0,"o3":94.0,"so2":4.9,"mosquito_risk":0,"arthritis_risk":5,"migraine_risk":7,"frizz_risk":1,"updated_at":"2026-05-14T10:15:15.381132+05:30"},{"city":"Goa","state":"Goa","latitude":15.2993,"longitude":74.124,"temp":33.5,"humidity":58,"rain":0.0,"pressure":994.7,"uv_index":4.95,"wind_gusts":33.8,"aqi":78,"pm10":65.2,"pm2_5":27.7,"no2":1.9,"co":175.0,"o3":84.0,"so2":2.5,"mosquito_risk":0,"arthritis_risk":5,"migraine_risk":3,"frizz_risk":1,"updated_at":"2026-05-14T10:15:15.381140+05:30"},{"city":"Jodhpur","state":"Rajasthan","latitude":26.2389,"longitude":73.0243,"temp":37.5,"humidity":27,"rain":0.0,"pressure":978.7,"uv_index":8.4,"wind_gusts":39.2,"aqi":101,"pm10":197.4,"pm2_5":50.6,"no2":2.9,"co":188.0,"o3":95.0,"so2":4.5,"mosquito_risk":0,"arthritis_risk":5,"migraine_risk":10,"frizz_risk":0,"updated_at":"2026-05-14T10:15:15.381147+05:30"},{"city":"Udaipur","state":"Rajasthan","latitude":24.5854,"longitude":73.7125,"temp":35.6,"humidity":29,"rain":0.0,"pressure":944.2,"uv_index":8.85,"wind_gusts":38.2,"aqi":69,"pm10":75.7,"pm2_5":28.8,"no2":1.7,"co":187.0,"o3":98.0,"so2":4.3,"mosquito_risk":0,"arthritis_risk":5,"migraine_risk":10,"frizz_risk":0,"updated_at":"2026-05-14T10:15:15.381155+05:30"},{"city":"Kota","state":"Rajasthan","latitude":25.2138,"longitude":75.8648,"temp":39.3,"humidity":16,"rain":0.0,"pressure":975.6,"uv_index":8.4,"wind_gusts":32.8,"aqi":73,"pm10":49.9,"pm2_5":24.7,"no2":3.7,"co":252.0,"o3":103.0,"so2":6.2,"mosquito_risk":0,"arthritis_risk":5,"migraine_risk":10,"frizz_risk":0,"updated_at":"2026-05-14T10:15:15.381162+05:30"},{"city":"Bikaner","state":"Rajasthan","latitude":28.0229,"longitude":73.3119,"temp":38.3,"humidity":21,"rain":0.0,"pressure":977.2,"uv_index":8.35,"wind_gusts":33.5,"aqi":95,"pm10":88.2,"pm2_5":32.1,"no2":3.0,"co":236.0,"o3":85.0,"so2":4.5,"mosquito_risk":0,"arthritis_risk":5,"migraine_risk":10,"frizz_risk":0,"updated_at":"2026-05-14T10:15:15.381169+05:30"},{"city":"Ajmer","state":"Rajasthan","latitude":26.4499,"longitude":74.6399,"temp":35.5,"humidity":30,"rain":0.0,"pressure":952.4,"uv_index":8.3,"wind_gusts":36.4,"aqi":74,"pm10":69.4,"pm2_5":27.5,"no2":3.1,"co":214.0,"o3":101.0,"so2":4.9,"mosquito_risk":0,"arthritis_risk":5,"migraine_risk":10,"frizz_risk":0,"updated_at":"2026-05-14T10:15:15.381176+05:30"},{"city":"Gwalior","state":"Madhya Pradesh","latitude":26.2183,"longitude":78.1828,"temp":37.2,"humidity":29,"rain":0.0,"pressure":980.0,"uv_index":8.25,"wind_gusts":34.2,"aqi":118,"pm10":53.7,"pm2_5":25.4,"no2":3.8,"co":346.0,"o3":114.0,"so2":8.5,"mosquito_risk":0,"arthritis_risk":5,"migraine_risk":10,"frizz_risk":1,"updated_at":"2026-05-14T10:15:15.381183+05:30"},{"city":"Indore","state":"Madhya Pradesh","latitude":22.7196,"longitude":75.8577,"temp":37.5,"humidity":25,"rain":0.0,"pressure":946.1,"uv_index":8.75,"wind_gusts":43.6,"aqi":82,"pm10":61.9,"pm2_5":31.8,"no2":5.2,"co":334.0,"o3":106.0,"so2":15.1,"mosquito_risk":0,"arthritis_risk":5,"migraine_risk":10,"frizz_risk":0,"updated_at":"2026-05-14T10:15:15.381190+05:30"},{"city":"Bhopal","state":"Madhya Pradesh","latitude":23.2599,"longitude":77.4126,"temp":38.4,"humidity":19,"rain":0.0,"pressure":951.3,"uv_index":8.8,"wind_gusts":34.9,"aqi":71,"pm10":37.5,"pm2_5":23.5,"no2":3.3,"co":337.0,"o3":117.0,"so2":8.4,"mosquito_risk":0,"arthritis_risk":5,"migraine_risk":10,"frizz_risk":0,"updated_at":"2026-05-14T10:15:15.381198+05:30"},{"city":"Jabalpur","state":"Madhya Pradesh","latitude":23.1815,"longitude":79.9864,"temp":37.2,"humidity":32,"rain":0.0,"pressure":958.9,"uv_index":8.9,"wind_gusts":38.5,"aqi":87,"pm10":74.7,"pm2_5":45.4,"no2":4.2,"co":285.0,"o3":138.0,"so2":15.2,"mosquito_risk":0,"arthritis_risk":5,"migraine_risk":10,"frizz_risk":1,"updated_at":"2026-05-14T10:15:15.381205+05:30"},{"city":"Ujjain","state":"Madhya Pradesh","latitude":23.1765,"longitude":75.7885,"temp":38.2,"humidity":22,"rain":0.0,"pressure":951.4,"uv_index":8.65,"wind_gusts":46.1,"aqi":74,"pm10":57.6,"pm2_5":30.5,"no2":4.6,"co":247.0,"o3":96.0,"so2":15.3,"mosquito_risk":0,"arthritis_risk":5,"migraine_risk":10,"frizz_risk":0,"updated_at":"2026-05-14T10:15:15.381213+05:30"},{"city":"Visakhapatnam","state":"Andhra Pradesh","latitude":17.6868,"longitude":83.2185,"temp":33.7,"humidity":57,"rain":0.0,"pressure":999.9,"uv_index":8.75,"wind_gusts":41.0,"aqi":75,"pm10":25.5,"pm2_5":22.3,"no2":22.6,"co":1373.0,"o3":29.0,"so2":91.5,"mosquito_risk":0,"arthritis_risk":5,"migraine_risk":7,"frizz_risk":1,"updated_at":"2026-05-14T10:15:15.381220+05:30"},{"city":"Vijayawada","state":"Andhra Pradesh","latitude":16.5062,"longitude":80.648,"temp":35.2,"humidity":50,"rain":0.0,"pressure":999.2,"uv_index":9.05,"wind_gusts":40.0,"aqi":52,"pm10":16.6,"pm2_5":12.8,"no2":5.3,"co":197.0,"o3":64.0,"so2":11.9,"mosquito_risk":0,"arthritis_risk":5,"migraine_risk":10,"frizz_risk":1,"updated_at":"2026-05-14T10:15:15.381226+05:30"},{"city":"Guntur","state":"Andhra Pradesh","latitude":16.3067,"longitude":80.4365,"temp":35.5,"humidity":50,"rain":0.0,"pressure":1000.5,"uv_index":8.5,"wind_gusts":44.6,"aqi":53,"pm10":15.2,"pm2_5":11.9,"no2":5.3,"co":173.0,"o3":61.0,"so2":10.0,"mosquito_risk":0,"arthritis_risk":5,"migraine_risk":7,"frizz_risk":1,"updated_at":"2026-05-14T10:15:15.381234+05:30"},{"city":"Nellore","state":"Andhra Pradesh","latitude":14.4426,"longitude":79.9865,"temp":34.0,"humidity":56,"rain":0.0,"pressure":1002.7,"uv_index":9.2,"wind_gusts":35.6,"aqi":29,"pm10":10.4,"pm2_5":6.7,"no2":3.4,"co":154.0,"o3":56.0,"so2":4.7,"mosquito_risk":0,"arthritis_risk":5,"migraine_risk":4,"frizz_risk":1,"updated_at":"2026-05-14T10:15:15.381242+05:30"},{"city":"Kurnool","state":"Andhra Pradesh","latitude":15.8281,"longitude":78.0373,"temp":37.6,"humidity":29,"rain":0.0,"pressure":974.1,"uv_index":8.95,"wind_gusts":31.0,"aqi":63,"pm10":34.7,"pm2_5":22.1,"no2":4.8,"co":188.0,"o3":95.0,"so2":9.1,"mosquito_risk":0,"arthritis_risk":5,"migraine_risk":10,"frizz_risk":1,"updated_at":"2026-05-14T10:15:15.381250+05:30"},{"city":"Kakinada","state":"Andhra Pradesh","latitude":16.9891,"longitude":82.2475,"temp":33.2,"humidity":59,"rain":0.0,"pressure":1003.7,"uv_index":7.3,"wind_gusts":42.1,"aqi":29,"pm10":9.4,"pm2_5":6.0,"no2":2.2,"co":143.0,"o3":52.0,"so2":4.0,"mosquito_risk":0,"arthritis_risk":5,"migraine_risk":4,"frizz_risk":1,"updated_at":"2026-05-14T10:15:15.381257+05:30"},{"city":"Tirupati","state":"Andhra Pradesh","latitude":13.6288,"longitude":79.4192,"temp":34.0,"humidity":47,"rain":0.0,"pressure":988.2,"uv_index":9.0,"wind_gusts":41.4,"aqi":53,"pm10":16.3,"pm2_5":11.5,"no2":4.9,"co":205.0,"o3":68.0,"so2":4.4,"mosquito_risk":0,"arthritis_risk":5,"migraine_risk":7,"frizz_risk":1,"updated_at":"2026-05-14T10:15:15.381264+05:30"},{"city":"Warangal","state":"Telangana","latitude":17.9689,"longitude":79.5941,"temp":34.8,"humidity":47,"rain":0.0,"pressure":976.3,"uv_index":9.05,"wind_gusts":35.6,"aqi":69,"pm10":21.6,"pm2_5":16.3,"no2":5.6,"co":187.0,"o3":70.0,"so2":9.7,"mosquito_risk":0,"arthritis_risk":5,"migraine_risk":7,"frizz_risk":1,"updated_at":"2026-05-14T10:15:15.381271+05:30"},{"city":"Nizamabad","state":"Telangana","latitude":18.6725,"longitude":78.0941,"temp":36.5,"humidity":32,"rain":0.0,"pressure":962.7,"uv_index":8.7,"wind_gusts":34.2,"aqi":102,"pm10":90.1,"pm2_5":51.6,"no2":4.6,"co":288.0,"o3":134.0,"so2":7.1,"mosquito_risk":0,"arthritis_risk":5,"migraine_risk":10,"frizz_risk":1,"updated_at":"2026-05-14T10:15:15.381278+05:30"},{"city":"Mysore","state":"Karnataka","latitude":12.2958,"longitude":76.6396,"temp":30.5,"humidity":55,"rain":0.0,"pressure":927.1,"uv_index":9.15,"wind_gusts":46.1,"aqi":86,"pm10":41.3,"pm2_5":27.6,"no2":7.6,"co":269.0,"o3":102.0,"so2":4.4,"mosquito_risk":0,"arthritis_risk":5,"migraine_risk":7,"frizz_risk":1,"updated_at":"2026-05-14T10:15:15.381284+05:30"},{"city":"Mangalore","state":"Karnataka","latitude":12.9141,"longitude":74.856,"temp":33.2,"humidity":62,"rain":0.0,"pressure":1003.5,"uv_index":8.95,"wind_gusts":46.1,"aqi":79,"pm10":53.0,"pm2_5":25.6,"no2":3.2,"co":239.0,"o3":90.0,"so2":2.9,"mosquito_risk":3,"arthritis_risk":5,"migraine_risk":4,"frizz_risk":1,"updated_at":"2026-05-14T10:15:15.381291+05:30"},{"city":"Hubli-Dharwad","state":"Karnataka","latitude":15.3647,"longitude":75.124,"temp":33.0,"humidity":44,"rain":0.0,"pressure":939.3,"uv_index":9.1,"wind_gusts":37.4,"aqi":71,"pm10":52.5,"pm2_5":27.8,"no2":4.5,"co":227.0,"o3":100.0,"so2":3.5,"mosquito_risk":0,"arthritis_risk":5,"migraine_risk":7,"frizz_risk":1,"updated_at":"2026-05-14T10:15:15.381297+05:30"},{"city":"Belgaum","state":"Karnataka","latitude":15.8497,"longitude":74.4977,"temp":33.3,"humidity":34,"rain":0.0,"pressure":924.9,"uv_index":9.15,"wind_gusts":38.2,"aqi":72,"pm10":73.6,"pm2_5":34.2,"no2":4.6,"co":236.0,"o3":110.0,"so2":4.3,"mosquito_risk":0,"arthritis_risk":5,"migraine_risk":7,"frizz_risk":0,"updated_at":"2026-05-14T10:15:18.620395+05:30"},{"city":"Coimbatore","state":"Tamil Nadu","latitude":11.0168,"longitude":76.9558,"temp":29.5,"humidity":68,"rain":0.0,"pressure":959.6,"uv_index":7.85,"wind_gusts":38.2,"aqi":68,"pm10":48.1,"pm2_5":28.0,"no2":4.5,"co":260.0,"o3":118.0,"so2":4.9,"mosquito_risk":7,"arthritis_risk":5,"migraine_risk":7,"frizz_risk":1,"updated_at":"2026-05-14T10:15:18.620431+05:30"},{"city":"Madurai","state":"Tamil Nadu","latitude":9.9252,"longitude":78.1198,"temp":30.5,"humidity":62,"rain":0.0,"pressure":990.2,"uv_index":8.65,"wind_gusts":18.0,"aqi":84,"pm10":32.7,"pm2_5":27.1,"no2":9.9,"co":317.0,"o3":123.0,"so2":12.5,"mosquito_risk":3,"arthritis_risk":5,"migraine_risk":7,"frizz_risk":1,"updated_at":"2026-05-14T10:15:18.620443+05:30"},{"city":"Trichy","state":"Tamil Nadu","latitude":10.7905,"longitude":78.7047,"temp":31.5,"humidity":66,"rain":0.0,"pressure":996.5,"uv_index":9.1,"wind_gusts":23.0,"aqi":78,"pm10":30.6,"pm2_5":25.5,"no2":12.0,"co":196.0,"o3":99.0,"so2":18.9,"mosquito_risk":3,"arthritis_risk":5,"migraine_risk":7,"frizz_risk":1,"updated_at":"2026-05-14T10:15:18.620452+05:30"},{"city":"Salem","state":"Tamil Nadu","latitude":11.6643,"longitude":78.146,"temp":32.4,"humidity":56,"rain":0.0,"pressure":974.7,"uv_index":8.9,"wind_gusts":36.0,"aqi":107,"pm10":46.9,"pm2_5":34.8,"no2":15.1,"co":296.0,"o3":103.0,"so2":15.1,"mosquito_risk":0,"arthritis_risk":5,"migraine_risk":7,"frizz_risk":1,"updated_at":"2026-05-14T10:15:18.620460+05:30"},{"city":"Tirunelveli","state":"Tamil Nadu","latitude":8.7139,"longitude":77.7567,"temp":32.8,"humidity":56,"rain":0.0,"pressure":1000.1,"uv_index":4.75,"wind_gusts":19.4,"aqi":62,"pm10":32.6,"pm2_5":19.6,"no2":5.8,"co":194.0,"o3":89.0,"so2":3.9,"mosquito_risk":0,"arthritis_risk":5,"migraine_risk":0,"frizz_risk":1,"updated_at":"2026-05-14T10:15:18.620468+05:30"},{"city":"Vellore","state":"Tamil Nadu","latitude":12.9165,"longitude":79.1325,"temp":33.7,"humidity":47,"rain":0.0,"pressure":981.7,"uv_index":8.45,"wind_gusts":37.8,"aqi":69,"pm10":29.3,"pm2_5":22.1,"no2":9.0,"co":231.0,"o3":70.0,"so2":12.0,"mosquito_risk":0,"arthritis_risk":5,"migraine_risk":7,"frizz_risk":1,"updated_at":"2026-05-14T10:15:18.620493+05:30"},{"city":"Erode","state":"Tamil Nadu","latitude":11.341,"longitude":77.7172,"temp":32.7,"humidity":57,"rain":0.0,"pressure":986.4,"uv_index":8.95,"wind_gusts":31.3,"aqi":82,"pm10":40.0,"pm2_5":26.4,"no2":9.0,"co":321.0,"o3":102.0,"so2":5.0,"mosquito_risk":0,"arthritis_risk":5,"migraine_risk":7,"frizz_risk":1,"updated_at":"2026-05-14T10:15:18.620501+05:30"},{"city":"Kochi","state":"Kerala","latitude":9.9312,"longitude":76.2673,"temp":30.0,"humidity":78,"rain":0.0,"pressure":1006.3,"uv_index":8.55,"wind_gusts":40.7,"aqi":88,"pm10":42.6,"pm2_5":27.8,"no2":11.8,"co":229.0,"o3":84.0,"so2":7.6,"mosquito_risk":7,"arthritis_risk":5,"migraine_risk":4,"frizz_risk":1,"updated_at":"2026-05-14T10:15:18.620508+05:30"},{"city":"Thiruvananthapuram","state":"Kerala","latitude":8.5241,"longitude":76.9366,"temp":28.0,"humidity":81,"rain":0.0,"pressure":1006.2,"uv_index":7.15,"wind_gusts":34.9,"aqi":60,"pm10":34.5,"pm2_5":18.9,"no2":3.2,"co":218.0,"o3":95.0,"so2":2.1,"mosquito_risk":7,"arthritis_risk":5,"migraine_risk":4,"frizz_risk":1,"updated_at":"2026-05-14T10:15:18.620516+05:30"},{"city":"Kozhikode","state":"Kerala","latitude":11.2588,"longitude":75.7804,"temp":31.9,"humidity":71,"rain":0.0,"pressure":1004.7,"uv_index":8.55,"wind_gusts":40.0,"aqi":70,"pm10":45.8,"pm2_5":25.1,"no2":2.4,"co":221.0,"o3":94.0,"so2":3.1,"mosquito_risk":3,"arthritis_risk":5,"migraine_risk":4,"frizz_risk":1,"updated_at":"2026-05-14T10:15:18.620523+05:30"},{"city":"Thrissur","state":"Kerala","latitude":10.5276,"longitude":76.2144,"temp":31.8,"humidity":71,"rain":0.0,"pressure":1004.1,"uv_index":8.85,"wind_gusts":37.1,"aqi":86,"pm10":41.4,"pm2_5":25.1,"no2":4.6,"co":258.0,"o3":99.0,"so2":5.1,"mosquito_risk":3,"arthritis_risk":5,"migraine_risk":4,"frizz_risk":1,"updated_at":"2026-05-14T10:15:18.620532+05:30"},{"city":"Kannur","state":"Kerala","latitude":11.8745,"longitude":75.3704,"temp":32.5,"humidity":69,"rain":0.0,"pressure":1003.9,"uv_index":8.55,"wind_gusts":44.6,"aqi":83,"pm10":39.8,"pm2_5":23.0,"no2":3.8,"co":299.0,"o3":94.0,"so2":3.2,"mosquito_risk":3,"arthritis_risk":5,"migraine_risk":4,"frizz_risk":1,"updated_at":"2026-05-14T10:15:18.620539+05:30"},{"city":"Patna","state":"Bihar","latitude":25.5941,"longitude":85.1376,"temp":30.5,"humidity":65,"rain":0.0,"pressure":998.0,"uv_index":8.8,"wind_gusts":29.9,"aqi":122,"pm10":41.2,"pm2_5":33.8,"no2":6.0,"co":429.0,"o3":129.0,"so2":20.6,"mosquito_risk":3,"arthritis_risk":5,"migraine_risk":7,"frizz_risk":1,"updated_at":"2026-05-14T10:15:18.620547+05:30"},{"city":"Gaya","state":"Bihar","latitude":24.7914,"longitude":85.0002,"temp":32.6,"humidity":55,"rain":0.0,"pressure":991.1,"uv_index":8.85,"wind_gusts":24.1,"aqi":131,"pm10":52.3,"pm2_5":43.3,"no2":7.8,"co":450.0,"o3":131.0,"so2":22.5,"mosquito_risk":0,"arthritis_risk":5,"migraine_risk":7,"frizz_risk":1,"updated_at":"2026-05-14T10:15:18.620554+05:30"},{"city":"Muzaffarpur","state":"Bihar","latitude":26.1209,"longitude":85.3647,"temp":28.8,"humidity":70,"rain":0.0,"pressure":998.7,"uv_index":8.8,"wind_gusts":33.8,"aqi":113,"pm10":47.0,"pm2_5":35.5,"no2":5.4,"co":346.0,"o3":130.0,"so2":16.5,"mosquito_risk":7,"arthritis_risk":5,"migraine_risk":7,"frizz_risk":1,"updated_at":"2026-05-14T10:15:18.620560+05:30"},{"city":"Bhagalpur","state":"Bihar","latitude":25.2425,"longitude":87.0117,"temp":27.5,"humidity":75,"rain":0.0,"pressure":999.7,"uv_index":8.8,"wind_gusts":28.1,"aqi":98,"pm10":15.6,"pm2_5":11.9,"no2":6.9,"co":315.0,"o3":103.0,"so2":16.4,"mosquito_risk":7,"arthritis_risk":5,"migraine_risk":7,"frizz_risk":1,"updated_at":"2026-05-14T10:15:18.620568+05:30"},{"city":"Ranchi","state":"Jharkhand","latitude":23.3441,"longitude":85.3096,"temp":31.4,"humidity":49,"rain":0.0,"pressure":936.0,"uv_index":9.3,"wind_gusts":36.7,"aqi":82,"pm10":42.4,"pm2_5":29.5,"no2":3.4,"co":214.0,"o3":145.0,"so2":17.3,"mosquito_risk":0,"arthritis_risk":5,"migraine_risk":7,"frizz_risk":1,"updated_at":"2026-05-14T10:15:18.620575+05:30"},{"city":"Jamshedpur","state":"Jharkhand","latitude":22.8046,"longitude":86.2029,"temp":33.0,"humidity":56,"rain":0.0,"pressure":988.0,"uv_index":9.15,"wind_gusts":32.8,"aqi":80,"pm10":24.4,"pm2_5":19.5,"no2":9.3,"co":205.0,"o3":104.0,"so2":33.3,"mosquito_risk":0,"arthritis_risk":5,"migraine_risk":7,"frizz_risk":1,"updated_at":"2026-05-14T10:15:18.620582+05:30"},{"city":"Dhanbad","state":"Jharkhand","latitude":23.7957,"longitude":86.4304,"temp":31.6,"humidity":50,"rain":0.0,"pressure":977.3,"uv_index":9.1,"wind_gusts":26.3,"aqi":125,"pm10":45.5,"pm2_5":39.1,"no2":21.0,"co":255.0,"o3":117.0,"so2":72.3,"mosquito_risk":0,"arthritis_risk":5,"migraine_risk":7,"frizz_risk":1,"updated_at":"2026-05-14T10:15:18.620589+05:30"},{"city":"Bokaro","state":"Jharkhand","latitude":23.6693,"longitude":86.1511,"temp":32.2,"humidity":51,"rain":0.0,"pressure":980.9,"uv_index":9.1,"wind_gusts":29.5,"aqi":120,"pm10":44.0,"pm2_5":35.3,"no2":12.8,"co":261.0,"o3":133.0,"so2":49.4,"mosquito_risk":0,"arthritis_risk":5,"migraine_risk":7,"frizz_risk":1,"updated_at":"2026-05-14T10:15:18.620596+05:30"},{"city":"Bhubaneswar","state":"Odisha","latitude":20.2961,"longitude":85.8245,"temp":33.8,"humidity":57,"rain":0.0,"pressure":999.5,"uv_index":9.2,"wind_gusts":49.0,"aqi":30,"pm10":14.7,"pm2_5":9.5,"no2":1.9,"co":163.0,"o3":72.0,"so2":3.7,"mosquito_risk":0,"arthritis_risk":5,"migraine_risk":7,"frizz_risk":1,"updated_at":"2026-05-14T10:15:18.620603+05:30"},{"city":"Cuttack","state":"Odisha","latitude":20.4625,"longitude":85.8828,"temp":33.5,"humidity":59,"rain":0.0,"pressure":1001.4,"uv_index":9.2,"wind_gusts":48.6,"aqi":30,"pm10":14.7,"pm2_5":9.5,"no2":1.9,"co":177.0,"o3":72.0,"so2":3.7,"mosquito_risk":0,"arthritis_risk":5,"migraine_risk":4,"frizz_risk":1,"updated_at":"2026-05-14T10:15:18.620610+05:30"},{"city":"Rourkela","state":"Odisha","latitude":22.2604,"longitude":84.8536,"temp":32.8,"humidity":60,"rain":0.0,"pressure":982.6,"uv_index":9.05,"wind_gusts":53.3,"aqi":82,"pm10":22.8,"pm2_5":16.8,"no2":5.0,"co":222.0,"o3":110.0,"so2":16.0,"mosquito_risk":0,"arthritis_risk":5,"migraine_risk":7,"frizz_risk":1,"updated_at":"2026-05-14T10:15:18.620617+05:30"},{"city":"Raipur","state":"Chhattisgarh","latitude":21.2514,"longitude":81.6296,"temp":36.2,"humidity":37,"rain":0.0,"pressure":972.1,"uv_index":9.05,"wind_gusts":39.2,"aqi":120,"pm10":61.0,"pm2_5":44.8,"no2":28.9,"co":604.0,"o3":119.0,"so2":72.0,"mosquito_risk":0,"arthritis_risk":5,"migraine_risk":10,"frizz_risk":1,"updated_at":"2026-05-14T10:15:18.620625+05:30"},{"city":"Bhilai","state":"Chhattisgarh","latitude":21.1938,"longitude":81.3509,"temp":35.5,"humidity":39,"rain":0.0,"pressure":972.5,"uv_index":9.05,"wind_gusts":37.8,"aqi":111,"pm10":60.3,"pm2_5":41.8,"no2":21.3,"co":888.0,"o3":124.0,"so2":59.8,"mosquito_risk":0,"arthritis_risk":5,"migraine_risk":10,"frizz_risk":1,"updated_at":"2026-05-14T10:15:18.620631+05:30"},{"city":"Guwahati","state":"Assam","latitude":26.1158,"longitude":91.7086,"temp":25.7,"humidity":78,"rain":0.1,"pressure":1000.9,"uv_index":8.55,"wind_gusts":29.9,"aqi":88,"pm10":9.5,"pm2_5":7.9,"no2":2.0,"co":249.0,"o3":110.0,"so2":2.3,"mosquito_risk":10,"arthritis_risk":5,"migraine_risk":4,"frizz_risk":1,"updated_at":"2026-05-14T10:15:18.620638+05:30"},{"city":"Agartala","state":"Tripura","latitude":23.8315,"longitude":91.2868,"temp":30.2,"humidity":71,"rain":0.0,"pressure":1004.6,"uv_index":8.8,"wind_gusts":31.0,"aqi":71,"pm10":17.8,"pm2_5":12.3,"no2":5.3,"co":166.0,"o3":80.0,"so2":2.1,"mosquito_risk":3,"arthritis_risk":5,"migraine_risk":4,"frizz_risk":1,"updated_at":"2026-05-14T10:15:18.620645+05:30"},{"city":"Shillong","state":"Meghalaya","latitude":25.5788,"longitude":91.8933,"temp":21.3,"humidity":73,"rain":0.1,"pressure":856.8,"uv_index":8.9,"wind_gusts":33.5,"aqi":63,"pm10":9.8,"pm2_5":5.9,"no2":2.2,"co":235.0,"o3":91.0,"so2":2.0,"mosquito_risk":6,"arthritis_risk":5,"migraine_risk":7,"frizz_risk":1,"updated_at":"2026-05-14T10:15:18.620652+05:30"},{"city":"Imphal","state":"Manipur","latitude":24.817,"longitude":93.9368,"temp":26.5,"humidity":60,"rain":0.0,"pressure":922.9,"uv_index":9.25,"wind_gusts":28.8,"aqi":98,"pm10":33.2,"pm2_5":19.0,"no2":0.1,"co":215.0,"o3":120.0,"so2":2.9,"mosquito_risk":4,"arthritis_risk":5,"migraine_risk":7,"frizz_risk":1,"updated_at":"2026-05-14T10:15:18.620659+05:30"},{"city":"Aizawl","state":"Mizoram","latitude":23.7271,"longitude":92.7176,"temp":24.5,"humidity":59,"rain":0.1,"pressure":892.8,"uv_index":8.5,"wind_gusts":28.4,"aqi":62,"pm10":14.1,"pm2_5":7.9,"no2":0.3,"co":136.0,"o3":91.0,"so2":1.6,"mosquito_risk":3,"arthritis_risk":5,"migraine_risk":7,"frizz_risk":0,"updated_at":"2026-05-14T10:15:18.620667+05:30"},{"city":"Kohima","state":"Nagaland","latitude":25.6701,"longitude":94.1077,"temp":22.0,"humidity":76,"rain":0.1,"pressure":855.3,"uv_index":9.15,"wind_gusts":28.1,"aqi":67,"pm10":29.1,"pm2_5":16.6,"no2":0.4,"co":215.0,"o3":120.0,"so2":1.9,"mosquito_risk":6,"arthritis_risk":5,"migraine_risk":7,"frizz_risk":1,"updated_at":"2026-05-14T10:15:18.620674+05:30"},{"city":"Gangtok","state":"Sikkim","latitude":27.3314,"longitude":88.6138,"temp":19.9,"humidity":71,"rain":0.0,"pressure":837.0,"uv_index":8.95,"wind_gusts":37.1,"aqi":52,"pm10":13.7,"pm2_5":11.4,"no2":1.3,"co":309.0,"o3":123.0,"so2":2.5,"mosquito_risk":3,"arthritis_risk":5,"migraine_risk":7,"frizz_risk":0,"updated_at":"2026-05-14T10:15:18.620681+05:30"},{"city":"Siliguri","state":"West Bengal","latitude":26.7271,"longitude":88.3953,"temp":27.4,"humidity":68,"rain":0.0,"pressure":991.9,"uv_index":8.7,"wind_gusts":28.1,"aqi":91,"pm10":32.4,"pm2_5":24.9,"no2":2.7,"co":346.0,"o3":122.0,"so2":4.1,"mosquito_risk":7,"arthritis_risk":5,"migraine_risk":7,"frizz_risk":1,"updated_at":"2026-05-14T10:15:21.859527+05:30"},{"city":"Durgapur","state":"West Bengal","latitude":23.5204,"longitude":87.3119,"temp":32.0,"humidity":64,"rain":0.0,"pressure":992.2,"uv_index":9.0,"wind_gusts":35.6,"aqi":92,"pm10":32.4,"pm2_5":30.0,"no2":23.7,"co":769.0,"o3":70.0,"so2":75.3,"mosquito_risk":3,"arthritis_risk":5,"migraine_risk":7,"frizz_risk":1,"updated_at":"2026-05-14T10:15:21.859565+05:30"},{"city":"Asansol","state":"West Bengal","latitude":23.6739,"longitude":86.9524,"temp":32.8,"humidity":52,"rain":0.0,"pressure":990.7,"uv_index":9.05,"wind_gusts":35.6,"aqi":97,"pm10":38.3,"pm2_5":34.1,"no2":22.6,"co":294.0,"o3":97.0,"so2":73.0,"mosquito_risk":0,"arthritis_risk":5,"migraine_risk":7,"frizz_risk":1,"updated_at":"2026-05-14T10:15:21.859577+05:30"},{"city":"Pondicherry","state":"Puducherry","latitude":11.9139,"longitude":79.8145,"temp":31.0,"humidity":76,"rain":0.0,"pressure":1005.1,"uv_index":8.75,"wind_gusts":34.2,"aqi":49,"pm10":18.0,"pm2_5":13.8,"no2":10.5,"co":240.0,"o3":42.0,"so2":14.8,"mosquito_risk":3,"arthritis_risk":5,"migraine_risk":4,"frizz_risk":1,"updated_at":"2026-05-14T10:15:21.859586+05:30"},{"city":"Port Blair","state":"Andaman and Nicobar Islands","latitude":11.6234,"longitude":92.7265,"temp":29.5,"humidity":78,"rain":0.1,"pressure":1005.1,"uv_index":3.6,"wind_gusts":36.4,"aqi":23,"pm10":5.3,"pm2_5":3.5,"no2":0.4,"co":121.0,"o3":61.0,"so2":0.2,"mosquito_risk":10,"arthritis_risk":5,"migraine_risk":0,"frizz_risk":1,"updated_at":"2026-05-14T10:15:21.859595+05:30"},{"city":"Haridwar","state":"Uttarakhand","latitude":29.9457,"longitude":78.1642,"temp":31.1,"humidity":47,"rain":0.0,"pressure":971.8,"uv_index":7.5,"wind_gusts":35.6,"aqi":118,"pm10":64.0,"pm2_5":32.4,"no2":3.5,"co":356.0,"o3":161.0,"so2":9.1,"mosquito_risk":0,"arthritis_risk":5,"migraine_risk":7,"frizz_risk":1,"updated_at":"2026-05-14T10:15:21.859604+05:30"},{"city":"Rishikesh","state":"Uttarakhand","latitude":30.0869,"longitude":78.2676,"temp":31.6,"humidity":40,"rain":0.0,"pressure":964.3,"uv_index":7.6,"wind_gusts":32.8,"aqi":90,"pm10":57.5,"pm2_5":24.2,"no2":0.5,"co":291.0,"o3":157.0,"so2":7.3,"mosquito_risk":0,"arthritis_risk":5,"migraine_risk":7,"frizz_risk":1,"updated_at":"2026-05-14T10:15:21.859611+05:30"},{"city":"Nainital","state":"Uttarakhand","latitude":29.3919,"longitude":79.4542,"temp":21.6,"humidity":42,"rain":0.0,"pressure":806.9,"uv_index":8.45,"wind_gusts":38.2,"aqi":117,"pm10":89.6,"pm2_5":34.7,"no2":0.2,"co":266.0,"o3":154.0,"so2":6.2,"mosquito_risk":0,"arthritis_risk":5,"migraine_risk":7,"frizz_risk":0,"updated_at":"2026-05-14T10:15:21.859619+05:30"},{"city":"Mussoorie","state":"Uttarakhand","latitude":30.4599,"longitude":78.0664,"temp":22.1,"humidity":34,"rain":0.0,"pressure":804.1,"uv_index":8.0,"wind_gusts":46.1,"aqi":89,"pm10":41.2,"pm2_5":21.3,"no2":1.9,"co":208.0,"o3":162.0,"so2":6.3,"mosquito_risk":0,"arthritis_risk":5,"migraine_risk":7,"frizz_risk":0,"updated_at":"2026-05-14T10:15:21.859626+05:30"},{"city":"Dharamshala","state":"Himachal Pradesh","latitude":32.219,"longitude":76.3234,"temp":25.4,"humidity":36,"rain":0.0,"pressure":867.8,"uv_index":8.3,"wind_gusts":40.0,"aqi":51,"pm10":25.1,"pm2_5":9.7,"no2":0.6,"co":237.0,"o3":126.0,"so2":0.7,"mosquito_risk":4,"arthritis_risk":5,"migraine_risk":7,"frizz_risk":0,"updated_at":"2026-05-14T10:15:21.859633+05:30"},{"city":"Dalhousie","state":"Himachal Pradesh","latitude":32.5387,"longitude":75.971,"temp":23.1,"humidity":21,"rain":0.0,"pressure":805.3,"uv_index":8.55,"wind_gusts":36.7,"aqi":72,"pm10":38.4,"pm2_5":16.4,"no2":4.0,"co":222.0,"o3":133.0,"so2":1.3,"mosquito_risk":0,"arthritis_risk":5,"migraine_risk":7,"frizz_risk":1,"updated_at":"2026-05-14T10:15:21.859642+05:30"},{"city":"Patiala","state":"Punjab","latitude":30.3398,"longitude":76.3869,"temp":34.2,"humidity":27,"rain":0.0,"pressure":974.9,"uv_index":7.6,"wind_gusts":46.8,"aqi":164,"pm10":136.4,"pm2_5":49.1,"no2":8.4,"co":471.0,"o3":129.0,"so2":15.4,"mosquito_risk":0,"arthritis_risk":5,"migraine_risk":7,"frizz_risk":0,"updated_at":"2026-05-14T10:15:21.859649+05:30"},{"city":"Bhatinda","state":"Punjab","latitude":30.211,"longitude":74.9455,"temp":35.7,"humidity":30,"rain":0.0,"pressure":979.8,"uv_index":8.25,"wind_gusts":59.8,"aqi":160,"pm10":76.6,"pm2_5":40.0,"no2":6.9,"co":425.0,"o3":112.0,"so2":10.1,"mosquito_risk":0,"arthritis_risk":5,"migraine_risk":10,"frizz_risk":0,"updated_at":"2026-05-14T10:15:21.859655+05:30"},{"city":"Rohtak","state":"Haryana","latitude":28.8955,"longitude":76.6066,"temp":35.1,"humidity":33,"rain":0.0,"pressure":978.2,"uv_index":7.75,"wind_gusts":26.3,"aqi":301,"pm10":383.7,"pm2_5":107.1,"no2":29.5,"co":574.0,"o3":169.0,"so2":42.0,"mosquito_risk":0,"arthritis_risk":5,"migraine_risk":10,"frizz_risk":1,"updated_at":"2026-05-14T10:15:21.859662+05:30"},{"city":"Panipat","state":"Haryana","latitude":29.3909,"longitude":76.9635,"temp":32.5,"humidity":44,"rain":0.0,"pressure":977.3,"uv_index":7.6,"wind_gusts":21.6,"aqi":417,"pm10":278.5,"pm2_5":84.5,"no2":18.2,"co":490.0,"o3":147.0,"so2":27.7,"mosquito_risk":0,"arthritis_risk":5,"migraine_risk":7,"frizz_risk":1,"updated_at":"2026-05-14T10:15:21.859669+05:30"},{"city":"Mathura","state":"Uttar Pradesh","latitude":27.4924,"longitude":77.6737,"temp":35.2,"humidity":35,"rain":0.0,"pressure":983.4,"uv_index":7.95,"wind_gusts":31.7,"aqi":232,"pm10":326.9,"pm2_5":78.9,"no2":9.0,"co":496.0,"o3":138.0,"so2":13.5,"mosquito_risk":0,"arthritis_risk":5,"migraine_risk":10,"frizz_risk":1,"updated_at":"2026-05-14T10:15:21.859676+05:30"},{"city":"Vrindavan","state":"Uttar Pradesh","latitude":27.5823,"longitude":77.7027,"temp":35.1,"humidity":36,"rain":0.0,"pressure":983.9,"uv_index":7.95,"wind_gusts":34.6,"aqi":232,"pm10":326.9,"pm2_5":78.9,"no2":9.0,"co":499.0,"o3":138.0,"so2":13.5,"mosquito_risk":0,"arthritis_risk":5,"migraine_risk":10,"frizz_risk":1,"updated_at":"2026-05-14T10:15:21.859682+05:30"},{"city":"Ayodhya","state":"Uttar Pradesh","latitude":26.7922,"longitude":82.1998,"temp":30.9,"humidity":60,"rain":0.0,"pressure":993.0,"uv_index":8.35,"wind_gusts":28.8,"aqi":150,"pm10":41.0,"pm2_5":33.9,"no2":4.3,"co":469.0,"o3":134.0,"so2":9.7,"mosquito_risk":0,"arthritis_risk":5,"migraine_risk":7,"frizz_risk":1,"updated_at":"2026-05-14T10:15:21.859689+05:30"},{"city":"Ratlam","state":"Madhya Pradesh","latitude":23.3315,"longitude":75.0367,"temp":35.8,"humidity":37,"rain":0.0,"pressure":952.6,"uv_index":8.6,"wind_gusts":39.6,"aqi":72,"pm10":53.7,"pm2_5":29.0,"no2":4.9,"co":209.0,"o3":92.0,"so2":15.6,"mosquito_risk":0,"arthritis_risk":5,"migraine_risk":10,"frizz_risk":1,"updated_at":"2026-05-14T10:15:21.859696+05:30"},{"city":"Sagar","state":"Madhya Pradesh","latitude":23.8388,"longitude":78.7378,"temp":38.7,"humidity":17,"rain":0.0,"pressure":948.0,"uv_index":8.8,"wind_gusts":34.9,"aqi":74,"pm10":64.7,"pm2_5":29.2,"no2":3.8,"co":220.0,"o3":124.0,"so2":9.5,"mosquito_risk":0,"arthritis_risk":5,"migraine_risk":10,"frizz_risk":0,"updated_at":"2026-05-14T10:15:21.859702+05:30"},{"city":"Satna","state":"Madhya Pradesh","latitude":24.6005,"longitude":80.8322,"temp":37.9,"humidity":26,"rain":0.0,"pressure":968.0,"uv_index":8.8,"wind_gusts":43.2,"aqi":93,"pm10":59.8,"pm2_5":25.6,"no2":4.7,"co":346.0,"o3":131.0,"so2":13.8,"mosquito_risk":0,"arthritis_risk":5,"migraine_risk":10,"frizz_risk":0,"updated_at":"2026-05-14T10:15:21.859709+05:30"},{"city":"Akola","state":"Maharashtra","latitude":20.7002,"longitude":77.0082,"temp":38.4,"humidity":28,"rain":0.0,"pressure":971.9,"uv_index":8.95,"wind_gusts":42.5,"aqi":122,"pm10":56.9,"pm2_5":31.8,"no2":5.2,"co":260.0,"o3":127.0,"so2":14.0,"mosquito_risk":0,"arthritis_risk":5,"migraine_risk":10,"frizz_risk":1,"updated_at":"2026-05-14T10:15:21.859716+05:30"},{"city":"Amravati","state":"Maharashtra","latitude":20.9374,"longitude":77.7796,"temp":38.3,"humidity":25,"rain":0.0,"pressure":964.2,"uv_index":8.95,"wind_gusts":45.0,"aqi":120,"pm10":63.3,"pm2_5":39.2,"no2":5.3,"co":261.0,"o3":134.0,"so2":14.9,"mosquito_risk":0,"arthritis_risk":5,"migraine_risk":10,"frizz_risk":0,"updated_at":"2026-05-14T10:15:21.859724+05:30"},{"city":"Latur","state":"Maharashtra","latitude":18.4088,"longitude":76.5604,"temp":36.0,"humidity":31,"rain":0.0,"pressure":938.2,"uv_index":8.85,"wind_gusts":39.2,"aqi":120,"pm10":65.0,"pm2_5":36.3,"no2":3.3,"co":232.0,"o3":127.0,"so2":8.7,"mosquito_risk":0,"arthritis_risk":5,"migraine_risk":10,"frizz_risk":1,"updated_at":"2026-05-14T10:15:21.859732+05:30"},{"city":"Nanded","state":"Maharashtra","latitude":19.1383,"longitude":77.3091,"temp":37.6,"humidity":33,"rain":0.0,"pressure":966.0,"uv_index":9.1,"wind_gusts":29.9,"aqi":119,"pm10":74.5,"pm2_5":49.5,"no2":4.3,"co":273.0,"o3":138.0,"so2":8.7,"mosquito_risk":0,"arthritis_risk":5,"migraine_risk":10,"frizz_risk":1,"updated_at":"2026-05-14T10:15:21.859738+05:30"},{"city":"Gulbarga","state":"Karnataka","latitude":17.3297,"longitude":76.8343,"temp":35.7,"humidity":35,"rain":0.0,"pressure":956.7,"uv_index":8.9,"wind_gusts":31.0,"aqi":116,"pm10":81.7,"pm2_5":50.6,"no2":7.5,"co":269.0,"o3":126.0,"so2":10.7,"mosquito_risk":0,"arthritis_risk":5,"migraine_risk":10,"frizz_risk":1,"updated_at":"2026-05-14T10:15:21.859745+05:30"},{"city":"Bidar","state":"Karnataka","latitude":17.9104,"longitude":77.5199,"temp":34.8,"humidity":35,"rain":0.0,"pressure":934.2,"uv_index":9.0,"wind_gusts":32.4,"aqi":98,"pm10":86.1,"pm2_5":49.9,"no2":6.0,"co":259.0,"o3":135.0,"so2":8.4,"mosquito_risk":0,"arthritis_risk":5,"migraine_risk":7,"frizz_risk":1,"updated_at":"2026-05-14T10:15:21.859751+05:30"},{"city":"Hospet","state":"Karnataka","latitude":15.2689,"longitude":76.3909,"temp":31.6,"humidity":56,"rain":0.0,"pressure":954.2,"uv_index":8.85,"wind_gusts":40.7,"aqi":84,"pm10":49.1,"pm2_5":29.9,"no2":6.1,"co":217.0,"o3":104.0,"so2":6.3,"mosquito_risk":0,"arthritis_risk":5,"migraine_risk":7,"frizz_risk":1,"updated_at":"2026-05-14T10:15:21.859757+05:30"},{"city":"Tirupur","state":"Tamil Nadu","latitude":11.1085,"longitude":77.3411,"temp":32.0,"humidity":57,"rain":0.0,"pressure":972.8,"uv_index":8.8,"wind_gusts":43.6,"aqi":82,"pm10":44.4,"pm2_5":28.3,"no2":8.7,"co":254.0,"o3":110.0,"so2":5.3,"mosquito_risk":0,"arthritis_risk":5,"migraine_risk":7,"frizz_risk":1,"updated_at":"2026-05-14T10:15:21.859764+05:30"},{"city":"Alappuzha","state":"Kerala","latitude":9.4981,"longitude":76.3388,"temp":27.0,"humidity":91,"rain":0.1,"pressure":1006.9,"uv_index":6.95,"wind_gusts":38.2,"aqi":72,"pm10":36.8,"pm2_5":22.6,"no2":8.5,"co":163.0,"o3":94.0,"so2":5.7,"mosquito_risk":10,"arthritis_risk":5,"migraine_risk":4,"frizz_risk":1,"updated_at":"2026-05-14T10:15:21.859771+05:30"},{"city":"Munnar","state":"Kerala","latitude":10.0889,"longitude":77.0595,"temp":22.6,"humidity":73,"rain":0.0,"pressure":856.3,"uv_index":8.5,"wind_gusts":23.0,"aqi":62,"pm10":34.5,"pm2_5":18.8,"no2":2.0,"co":211.0,"o3":98.0,"so2":2.2,"mosquito_risk":3,"arthritis_risk":5,"migraine_risk":7,"frizz_risk":1,"updated_at":"2026-05-14T10:15:21.859778+05:30"},{"city":"Silchar","state":"Assam","latitude":24.8333,"longitude":92.7789,"temp":29.1,"humidity":72,"rain":0.0,"pressure":1004.5,"uv_index":8.9,"wind_gusts":28.8,"aqi":110,"pm10":29.2,"pm2_5":19.2,"no2":1.1,"co":231.0,"o3":105.0,"so2":4.1,"mosquito_risk":7,"arthritis_risk":5,"migraine_risk":4,"frizz_risk":1,"updated_at":"2026-05-14T10:15:21.859785+05:30"},{"city":"Dibrugarh","state":"Assam","latitude":27.4728,"longitude":94.912,"temp":26.2,"humidity":77,"rain":0.1,"pressure":995.2,"uv_index":7.5,"wind_gusts":23.8,"aqi":78,"pm10":32.4,"pm2_5":26.5,"no2":0.9,"co":266.0,"o3":138.0,"so2":1.9,"mosquito_risk":10,"arthritis_risk":5,"migraine_risk":7,"frizz_risk":1,"updated_at":"2026-05-14T10:15:21.859791+05:30"}]