[{"city":"Delhi","state":"Delhi","latitude":28.6139,"longitude":77.209,"temp":24.8,"humidity":49,"rain":0.0,"pressure":984.7,"uv_index":5.75,"wind_gusts":29.2,"aqi":350,"pm10":748.8,"pm2_5":110.6,"mosquito_risk":0,"arthritis_risk":5,"migraine_risk":3,"frizz_risk":0,"updated_at":"2026-03-13T20:14:45.998665+05:30"},{"city":"Mumbai","state":"Maharashtra","latitude":19.076,"longitude":72.8777,"temp":29.5,"humidity":60,"rain":0.0,"pressure":1007.6,"uv_index":7.65,"wind_gusts":23.8,"aqi":224,"pm10":29.5,"pm2_5":25.8,"mosquito_risk":4,"arthritis_risk":5,"migraine_risk":4,"frizz_risk":1,"updated_at":"2026-03-13T20:14:45.998705+05:30"},{"city":"Bangalore","state":"Karnataka","latitude":12.9716,"longitude":77.5946,"temp":26.5,"humidity":39,"rain":0.0,"pressure":912.3,"uv_index":9.3,"wind_gusts":28.8,"aqi":130,"pm10":40.3,"pm2_5":35.5,"mosquito_risk":4,"arthritis_risk":5,"migraine_risk":7,"frizz_risk":0,"updated_at":"2026-03-13T20:14:45.998721+05:30"},{"city":"Hyderabad","state":"Telangana","latitude":17.385,"longitude":78.4867,"temp":29.2,"humidity":29,"rain":0.0,"pressure":953.7,"uv_index":8.65,"wind_gusts":19.1,"aqi":175,"pm10":41.2,"pm2_5":32.8,"mosquito_risk":4,"arthritis_risk":5,"migraine_risk":7,"frizz_risk":0,"updated_at":"2026-03-13T20:14:45.998730+05:30"},{"city":"Chennai","state":"Tamil Nadu","latitude":13.0827,"longitude":80.2707,"temp":27.1,"humidity":77,"rain":0.0,"pressure":1009.0,"uv_index":9.05,"wind_gusts":32.4,"aqi":61,"pm10":18.9,"pm2_5":14.4,"mosquito_risk":7,"arthritis_risk":0,"migraine_risk":4,"frizz_risk":1,"updated_at":"2026-03-13T20:14:45.998739+05:30"},{"city":"Kolkata","state":"West Bengal","latitude":22.5726,"longitude":88.3639,"temp":26.4,"humidity":81,"rain":0.0,"pressure":1006.7,"uv_index":8.0,"wind_gusts":29.2,"aqi":125,"pm10":32.2,"pm2_5":28.5,"mosquito_risk":7,"arthritis_risk":5,"migraine_risk":4,"frizz_risk":1,"updated_at":"2026-03-13T20:14:45.998753+05:30"},{"city":"Pune","state":"Maharashtra","latitude":18.5204,"longitude":73.8567,"temp":29.8,"humidity":38,"rain":0.0,"pressure":948.4,"uv_index":8.2,"wind_gusts":37.8,"aqi":156,"pm10":28.8,"pm2_5":27.1,"mosquito_risk":4,"arthritis_risk":5,"migraine_risk":7,"frizz_risk":0,"updated_at":"2026-03-13T20:14:45.998763+05:30"},{"city":"Ahmedabad","state":"Gujarat","latitude":23.0225,"longitude":72.5714,"temp":31.2,"humidity":32,"rain":0.0,"pressure":1001.5,"uv_index":7.45,"wind_gusts":22.3,"aqi":126,"pm10":48.3,"pm2_5":31.4,"mosquito_risk":0,"arthritis_risk":5,"migraine_risk":4,"frizz_risk":0,"updated_at":"2026-03-13T20:14:45.998771+05:30"},{"city":"Jaipur","state":"Rajasthan","latitude":26.9124,"longitude":75.7873,"temp":28.0,"humidity":33,"rain":0.0,"pressure":960.7,"uv_index":6.95,"wind_gusts":27.0,"aqi":114,"pm10":141.1,"pm2_5":39.0,"mosquito_risk":4,"arthritis_risk":5,"migraine_risk":7,"frizz_risk":0,"updated_at":"2026-03-13T20:14:45.998778+05:30"},{"city":"Lucknow","state":"Uttar Pradesh","latitude":26.8467,"longitude":80.9462,"temp":27.4,"humidity":49,"rain":0.0,"pressure":993.6,"uv_index":6.05,"wind_gusts":28.4,"aqi":166,"pm10":173.2,"pm2_5":57.9,"mosquito_risk":4,"arthritis_risk":5,"migraine_risk":7,"frizz_risk":0,"updated_at":"2026-03-13T20:14:45.998786+05:30"},{"city":"Kanpur","state":"Uttar Pradesh","latitude":26.4499,"longitude":80.3319,"temp":26.3,"humidity":63,"rain":0.0,"pressure":992.1,"uv_index":6.35,"wind_gusts":18.7,"aqi":248,"pm10":244.9,"pm2_5":64.3,"mosquito_risk":7,"arthritis_risk":5,"migraine_risk":7,"frizz_risk":1,"updated_at":"2026-03-13T20:14:45.998793+05:30"},{"city":"Chandigarh","state":"Chandigarh","latitude":30.7333,"longitude":76.7794,"temp":21.1,"humidity":65,"rain":0.0,"pressure":970.1,"uv_index":5.35,"wind_gusts":29.5,"aqi":81,"pm10":27.8,"pm2_5":24.2,"mosquito_risk":3,"arthritis_risk":5,"migraine_risk":3,"frizz_risk":0,"updated_at":"2026-03-13T20:14:45.998800+05:30"},{"city":"Srinagar","state":"Jammu and Kashmir","latitude":34.0837,"longitude":74.7973,"temp":10.7,"humidity":70,"rain":0.0,"pressure":840.7,"uv_index":6.75,"wind_gusts":14.4,"aqi":97,"pm10":56.3,"pm2_5":41.3,"mosquito_risk":3,"arthritis_risk":5,"migraine_risk":7,"frizz_risk":0,"updated_at":"2026-03-13T20:14:45.998807+05:30"},{"city":"Jammu","state":"Jammu and Kashmir","latitude":32.7266,"longitude":74.857,"temp":22.2,"humidity":55,"rain":0.0,"pressure":974.1,"uv_index":6.45,"wind_gusts":24.8,"aqi":73,"pm10":34.8,"pm2_5":27.6,"mosquito_risk":0,"arthritis_risk":5,"migraine_risk":7,"frizz_risk":0,"updated_at":"2026-03-13T20:14:45.998813+05:30"},{"city":"Amritsar","state":"Punjab","latitude":31.634,"longitude":74.8723,"temp":20.9,"humidity":59,"rain":0.0,"pressure":982.6,"uv_index":5.85,"wind_gusts":25.6,"aqi":92,"pm10":29.5,"pm2_5":22.4,"mosquito_risk":0,"arthritis_risk":5,"migraine_risk":3,"frizz_risk":0,"updated_at":"2026-03-13T20:14:45.998820+05:30"},{"city":"Ludhiana","state":"Punjab","latitude":30.901,"longitude":75.8573,"temp":22.5,"humidity":64,"rain":0.0,"pressure":980.7,"uv_index":5.7,"wind_gusts":27.7,"aqi":103,"pm10":46.2,"pm2_5":26.5,"mosquito_risk":3,"arthritis_risk":5,"migraine_risk":3,"frizz_risk":0,"updated_at":"2026-03-13T20:14:45.998826+05:30"},{"city":"Jalandhar","state":"Punjab","latitude":31.326,"longitude":75.5762,"temp":22.3,"humidity":62,"rain":0.0,"pressure":981.7,"uv_index":5.7,"wind_gusts":25.6,"aqi":100,"pm10":43.9,"pm2_5":23.7,"mosquito_risk":3,"arthritis_risk":5,"migraine_risk":3,"frizz_risk":0,"updated_at":"2026-03-13T20:14:45.998835+05:30"},{"city":"Dehradun","state":"Uttarakhand","latitude":30.6284,"longitude":78.0322,"temp":15.2,"humidity":71,"rain":0.0,"pressure":829.9,"uv_index":5.7,"wind_gusts":28.8,"aqi":75,"pm10":38.1,"pm2_5":20.1,"mosquito_risk":3,"arthritis_risk":5,"migraine_risk":3,"frizz_risk":0,"updated_at":"2026-03-13T20:14:45.998843+05:30"},{"city":"Shimla","state":"Himachal Pradesh","latitude":31.1048,"longitude":77.1734,"temp":12.3,"humidity":67,"rain":0.0,"pressure":784.0,"uv_index":5.15,"wind_gusts":39.2,"aqi":72,"pm10":25.0,"pm2_5":16.2,"mosquito_risk":3,"arthritis_risk":5,"migraine_risk":3,"frizz_risk":0,"updated_at":"2026-03-13T20:14:45.998850+05:30"},{"city":"Manali","state":"Himachal Pradesh","latitude":32.2396,"longitude":77.1887,"temp":14.2,"humidity":25,"rain":0.0,"pressure":819.8,"uv_index":8.05,"wind_gusts":38.5,"aqi":89,"pm10":24.6,"pm2_5":9.4,"mosquito_risk":0,"arthritis_risk":5,"migraine_risk":7,"frizz_risk":1,"updated_at":"2026-03-13T20:14:45.998857+05:30"},{"city":"Gurgaon","state":"Haryana","latitude":28.4595,"longitude":77.0266,"temp":22.4,"humidity":57,"rain":0.0,"pressure":983.1,"uv_index":6.15,"wind_gusts":28.1,"aqi":1101,"pm10":1870.1,"pm2_5":219.8,"mosquito_risk":0,"arthritis_risk":5,"migraine_risk":7,"frizz_risk":0,"updated_at":"2026-03-13T20:14:45.998864+05:30"},{"city":"Noida","state":"Uttar Pradesh","latitude":28.5355,"longitude":77.391,"temp":24.5,"humidity":50,"rain":0.0,"pressure":986.2,"uv_index":5.95,"wind_gusts":28.8,"aqi":1101,"pm10":1870.1,"pm2_5":219.8,"mosquito_risk":0,"arthritis_risk":5,"migraine_risk":3,"frizz_risk":0,"updated_at":"2026-03-13T20:14:45.998870+05:30"},{"city":"Ghaziabad","state":"Uttar Pradesh","latitude":28.6692,"longitude":77.4538,"temp":23.6,"humidity":55,"rain":0.0,"pressure":984.2,"uv_index":5.75,"wind_gusts":27.7,"aqi":186,"pm10":499.2,"pm2_5":85.9,"mosquito_risk":0,"arthritis_risk":5,"migraine_risk":3,"frizz_risk":0,"updated_at":"2026-03-13T20:14:45.998876+05:30"},{"city":"Faridabad","state":"Haryana","latitude":28.4089,"longitude":77.3178,"temp":23.3,"humidity":51,"rain":0.0,"pressure":985.4,"uv_index":6.2,"wind_gusts":27.7,"aqi":1101,"pm10":1870.1,"pm2_5":219.8,"mosquito_risk":0,"arthritis_risk":5,"migraine_risk":7,"frizz_risk":0,"updated_at":"2026-03-13T20:14:45.998882+05:30"},{"city":"Meerut","state":"Uttar Pradesh","latitude":28.9845,"longitude":77.7064,"temp":22.0,"humidity":65,"rain":0.0,"pressure":982.8,"uv_index":4.85,"wind_gusts":27.7,"aqi":186,"pm10":499.2,"pm2_5":85.9,"mosquito_risk":3,"arthritis_risk":5,"migraine_risk":3,"frizz_risk":0,"updated_at":"2026-03-13T20:14:45.998888+05:30"},{"city":"Agra","state":"Uttar Pradesh","latitude":27.1767,"longitude":78.0081,"temp":25.3,"humidity":43,"rain":0.0,"pressure":988.7,"uv_index":6.25,"wind_gusts":24.8,"aqi":538,"pm10":579.3,"pm2_5":94.5,"mosquito_risk":4,"arthritis_risk":5,"migraine_risk":7,"frizz_risk":0,"updated_at":"2026-03-13T20:14:45.998895+05:30"},{"city":"Varanasi","state":"Uttar Pradesh","latitude":25.3176,"longitude":82.9739,"temp":25.7,"humidity":55,"rain":0.0,"pressure":997.6,"uv_index":7.35,"wind_gusts":25.2,"aqi":124,"pm10":134.1,"pm2_5":52.3,"mosquito_risk":4,"arthritis_risk":5,"migraine_risk":7,"frizz_risk":0,"updated_at":"2026-03-13T20:14:45.998904+05:30"},{"city":"Prayagraj","state":"Uttar Pradesh","latitude":25.4358,"longitude":81.8463,"temp":27.4,"humidity":52,"rain":0.0,"pressure":996.3,"uv_index":7.1,"wind_gusts":21.6,"aqi":149,"pm10":110.8,"pm2_5":45.3,"mosquito_risk":4,"arthritis_risk":5,"migraine_risk":7,"frizz_risk":1,"updated_at":"2026-03-13T20:14:45.998911+05:30"},{"city":"Gorakhpur","state":"Uttar Pradesh","latitude":26.7606,"longitude":83.3732,"temp":25.2,"humidity":63,"rain":0.0,"pressure":996.7,"uv_index":7.05,"wind_gusts":28.4,"aqi":182,"pm10":80.6,"pm2_5":48.1,"mosquito_risk":7,"arthritis_risk":5,"migraine_risk":7,"frizz_risk":1,"updated_at":"2026-03-13T20:14:45.998918+05:30"},{"city":"Bareilly","state":"Uttar Pradesh","latitude":28.367,"longitude":79.4304,"temp":22.7,"humidity":60,"rain":0.0,"pressure":987.4,"uv_index":6.35,"wind_gusts":26.6,"aqi":151,"pm10":59.4,"pm2_5":36.8,"mosquito_risk":0,"arthritis_risk":5,"migraine_risk":7,"frizz_risk":0,"updated_at":"2026-03-13T20:14:45.998927+05:30"},{"city":"Aligarh","state":"Uttar Pradesh","latitude":27.8974,"longitude":78.088,"temp":23.0,"humidity":49,"rain":0.0,"pressure":986.8,"uv_index":5.9,"wind_gusts":28.8,"aqi":604,"pm10":804.7,"pm2_5":126.7,"mosquito_risk":0,"arthritis_risk":5,"migraine_risk":3,"frizz_risk":0,"updated_at":"2026-03-13T20:14:45.998934+05:30"},{"city":"Moradabad","state":"Uttar Pradesh","latitude":28.8386,"longitude":78.7733,"temp":22.7,"humidity":62,"rain":0.0,"pressure":984.7,"uv_index":5.75,"wind_gusts":27.4,"aqi":146,"pm10":65.9,"pm2_5":37.6,"mosquito_risk":3,"arthritis_risk":5,"migraine_risk":3,"frizz_risk":0,"updated_at":"2026-03-13T20:14:45.998940+05:30"},{"city":"Saharanpur","state":"Uttar Pradesh","latitude":29.9637,"longitude":77.546,"temp":22.0,"humidity":63,"rain":0.0,"pressure":976.7,"uv_index":4.95,"wind_gusts":27.4,"aqi":134,"pm10":187.7,"pm2_5":52.5,"mosquito_risk":3,"arthritis_risk":5,"migraine_risk":3,"frizz_risk":0,"updated_at":"2026-03-13T20:14:45.998946+05:30"},{"city":"Jhansi","state":"Uttar Pradesh","latitude":25.4484,"longitude":78.5685,"temp":27.2,"humidity":47,"rain":0.0,"pressure":978.5,"uv_index":6.75,"wind_gusts":20.9,"aqi":89,"pm10":79.9,"pm2_5":33.2,"mosquito_risk":4,"arthritis_risk":5,"migraine_risk":7,"frizz_risk":0,"updated_at":"2026-03-13T20:14:49.268776+05:30"},{"city":"Surat","state":"Gujarat","latitude":21.1702,"longitude":72.8311,"temp":28.0,"humidity":55,"rain":0.0,"pressure":1006.0,"uv_index":7.35,"wind_gusts":23.8,"aqi":146,"pm10":76.8,"pm2_5":71.2,"mosquito_risk":4,"arthritis_risk":5,"migraine_risk":4,"frizz_risk":1,"updated_at":"2026-03-13T20:14:49.268818+05:30"},{"city":"Vadodara","state":"Gujarat","latitude":22.3072,"longitude":73.1812,"temp":32.5,"humidity":28,"rain":0.0,"pressure":1003.6,"uv_index":7.5,"wind_gusts":23.8,"aqi":165,"pm10":52.6,"pm2_5":43.2,"mosquito_risk":0,"arthritis_risk":5,"migraine_risk":4,"frizz_risk":0,"updated_at":"2026-03-13T20:14:49.268831+05:30"},{"city":"Rajkot","state":"Gujarat","latitude":22.3039,"longitude":70.8022,"temp":30.1,"humidity":23,"rain":0.0,"pressure":994.3,"uv_index":7.3,"wind_gusts":33.1,"aqi":100,"pm10":36.1,"pm2_5":20.2,"mosquito_risk":0,"arthritis_risk":5,"migraine_risk":7,"frizz_risk":0,"updated_at":"2026-03-13T20:14:49.268842+05:30"},{"city":"Thane","state":"Maharashtra","latitude":19.2183,"longitude":72.9781,"temp":29.3,"humidity":48,"rain":0.0,"pressure":1007.0,"uv_index":7.65,"wind_gusts":38.2,"aqi":224,"pm10":29.5,"pm2_5":25.8,"mosquito_risk":4,"arthritis_risk":5,"migraine_risk":4,"frizz_risk":1,"updated_at":"2026-03-13T20:14:49.268851+05:30"},{"city":"Nagpur","state":"Maharashtra","latitude":21.1458,"longitude":79.0882,"temp":28.8,"humidity":34,"rain":0.0,"pressure":972.5,"uv_index":8.05,"wind_gusts":19.4,"aqi":136,"pm10":35.4,"pm2_5":31.2,"mosquito_risk":4,"arthritis_risk":5,"migraine_risk":7,"frizz_risk":0,"updated_at":"2026-03-13T20:14:49.268860+05:30"},{"city":"Nashik","state":"Maharashtra","latitude":19.9975,"longitude":73.7898,"temp":28.9,"humidity":33,"rain":0.0,"pressure":945.8,"uv_index":7.85,"wind_gusts":34.9,"aqi":150,"pm10":29.0,"pm2_5":27.1,"mosquito_risk":4,"arthritis_risk":5,"migraine_risk":7,"frizz_risk":0,"updated_at":"2026-03-13T20:14:49.268868+05:30"},{"city":"Aurangabad","state":"Maharashtra","latitude":19.8762,"longitude":75.3433,"temp":30.6,"humidity":28,"rain":0.0,"pressure":944.2,"uv_index":8.35,"wind_gusts":29.5,"aqi":162,"pm10":25.3,"pm2_5":23.6,"mosquito_risk":0,"arthritis_risk":5,"migraine_risk":7,"frizz_risk":0,"updated_at":"2026-03-13T20:14:49.268877+05:30"},{"city":"Solapur","state":"Maharashtra","latitude":17.6599,"longitude":75.9064,"temp":29.4,"humidity":40,"rain":0.0,"pressure":956.4,"uv_index":8.6,"wind_gusts":24.1,"aqi":164,"pm10":40.9,"pm2_5":35.2,"mosquito_risk":4,"arthritis_risk":5,"migraine_risk":7,"frizz_risk":0,"updated_at":"2026-03-13T20:14:49.268886+05:30"},{"city":"Kolhapur","state":"Maharashtra","latitude":16.705,"longitude":74.2433,"temp":25.9,"humidity":74,"rain":0.0,"pressure":948.2,"uv_index":8.7,"wind_gusts":47.9,"aqi":158,"pm10":46.0,"pm2_5":43.2,"mosquito_risk":7,"arthritis_risk":5,"migraine_risk":7,"frizz_risk":1,"updated_at":"2026-03-13T20:14:49.268895+05:30"},{"city":"Goa","state":"Goa","latitude":15.2993,"longitude":74.124,"temp":27.9,"humidity":79,"rain":0.0,"pressure":998.1,"uv_index":8.7,"wind_gusts":31.3,"aqi":135,"pm10":41.8,"pm2_5":36.9,"mosquito_risk":7,"arthritis_risk":5,"migraine_risk":7,"frizz_risk":1,"updated_at":"2026-03-13T20:14:49.268904+05:30"},{"city":"Jodhpur","state":"Rajasthan","latitude":26.2389,"longitude":73.0243,"temp":30.2,"humidity":33,"rain":0.0,"pressure":982.6,"uv_index":6.8,"wind_gusts":18.7,"aqi":84,"pm10":161.1,"pm2_5":33.1,"mosquito_risk":0,"arthritis_risk":5,"migraine_risk":7,"frizz_risk":0,"updated_at":"2026-03-13T20:14:49.268913+05:30"},{"city":"Udaipur","state":"Rajasthan","latitude":24.5854,"longitude":73.7125,"temp":27.1,"humidity":22,"rain":0.0,"pressure":947.1,"uv_index":7.8,"wind_gusts":30.2,"aqi":96,"pm10":22.7,"pm2_5":14.7,"mosquito_risk":4,"arthritis_risk":5,"migraine_risk":7,"frizz_risk":0,"updated_at":"2026-03-13T20:14:49.268921+05:30"},{"city":"Kota","state":"Rajasthan","latitude":25.2138,"longitude":75.8648,"temp":29.5,"humidity":34,"rain":0.0,"pressure":978.5,"uv_index":7.1,"wind_gusts":17.6,"aqi":101,"pm10":32.8,"pm2_5":17.6,"mosquito_risk":4,"arthritis_risk":5,"migraine_risk":7,"frizz_risk":0,"updated_at":"2026-03-13T20:14:49.268930+05:30"},{"city":"Bikaner","state":"Rajasthan","latitude":28.0229,"longitude":73.3119,"temp":29.5,"humidity":24,"rain":0.0,"pressure":982.8,"uv_index":6.75,"wind_gusts":24.8,"aqi":97,"pm10":22.9,"pm2_5":15.6,"mosquito_risk":4,"arthritis_risk":5,"migraine_risk":7,"frizz_risk":0,"updated_at":"2026-03-13T20:14:49.268939+05:30"},{"city":"Ajmer","state":"Rajasthan","latitude":26.4499,"longitude":74.6399,"temp":26.9,"humidity":38,"rain":0.0,"pressure":954.9,"uv_index":7.05,"wind_gusts":22.0,"aqi":94,"pm10":131.8,"pm2_5":38.5,"mosquito_risk":4,"arthritis_risk":5,"migraine_risk":7,"frizz_risk":0,"updated_at":"2026-03-13T20:14:49.268947+05:30"},{"city":"Gwalior","state":"Madhya Pradesh","latitude":26.2183,"longitude":78.1828,"temp":26.9,"humidity":60,"rain":0.0,"pressure":984.0,"uv_index":6.8,"wind_gusts":21.2,"aqi":115,"pm10":130.4,"pm2_5":45.8,"mosquito_risk":4,"arthritis_risk":5,"migraine_risk":7,"frizz_risk":1,"updated_at":"2026-03-13T20:14:49.268956+05:30"},{"city":"Indore","state":"Madhya Pradesh","latitude":22.7196,"longitude":75.8577,"temp":25.6,"humidity":30,"rain":0.0,"pressure":948.2,"uv_index":7.75,"wind_gusts":32.4,"aqi":111,"pm10":27.8,"pm2_5":24.4,"mosquito_risk":4,"arthritis_risk":5,"migraine_risk":7,"frizz_risk":0,"updated_at":"2026-03-13T20:14:49.268964+05:30"},{"city":"Bhopal","state":"Madhya Pradesh","latitude":23.2599,"longitude":77.4126,"temp":25.6,"humidity":28,"rain":0.0,"pressure":953.9,"uv_index":7.55,"wind_gusts":31.0,"aqi":118,"pm10":17.0,"pm2_5":16.6,"mosquito_risk":4,"arthritis_risk":5,"migraine_risk":7,"frizz_risk":0,"updated_at":"2026-03-13T20:14:49.268973+05:30"},{"city":"Jabalpur","state":"Madhya Pradesh","latitude":23.1815,"longitude":79.9864,"temp":28.5,"humidity":40,"rain":0.0,"pressure":961.9,"uv_index":7.75,"wind_gusts":20.2,"aqi":134,"pm10":25.8,"pm2_5":24.3,"mosquito_risk":4,"arthritis_risk":5,"migraine_risk":7,"frizz_risk":0,"updated_at":"2026-03-13T20:14:49.268982+05:30"},{"city":"Ujjain","state":"Madhya Pradesh","latitude":23.1765,"longitude":75.7885,"temp":25.4,"humidity":35,"rain":0.0,"pressure":954.1,"uv_index":7.65,"wind_gusts":26.3,"aqi":90,"pm10":37.3,"pm2_5":31.5,"mosquito_risk":4,"arthritis_risk":5,"migraine_risk":7,"frizz_risk":0,"updated_at":"2026-03-13T20:14:49.268991+05:30"},{"city":"Visakhapatnam","state":"Andhra Pradesh","latitude":17.6868,"longitude":83.2185,"temp":26.4,"humidity":84,"rain":0.0,"pressure":1005.9,"uv_index":8.65,"wind_gusts":40.3,"aqi":84,"pm10":21.0,"pm2_5":17.5,"mosquito_risk":7,"arthritis_risk":5,"migraine_risk":4,"frizz_risk":1,"updated_at":"2026-03-13T20:14:49.268998+05:30"},{"city":"Vijayawada","state":"Andhra Pradesh","latitude":16.5062,"longitude":80.648,"temp":27.6,"humidity":72,"rain":0.0,"pressure":1004.1,"uv_index":8.75,"wind_gusts":31.3,"aqi":89,"pm10":18.8,"pm2_5":16.6,"mosquito_risk":7,"arthritis_risk":5,"migraine_risk":4,"frizz_risk":1,"updated_at":"2026-03-13T20:14:49.269005+05:30"},{"city":"Guntur","state":"Andhra Pradesh","latitude":16.3067,"longitude":80.4365,"temp":26.6,"humidity":80,"rain":0.0,"pressure":1005.5,"uv_index":8.75,"wind_gusts":33.8,"aqi":84,"pm10":19.6,"pm2_5":17.2,"mosquito_risk":7,"arthritis_risk":5,"migraine_risk":4,"frizz_risk":1,"updated_at":"2026-03-13T20:14:49.269012+05:30"},{"city":"Nellore","state":"Andhra Pradesh","latitude":14.4426,"longitude":79.9865,"temp":26.6,"humidity":81,"rain":0.0,"pressure":1007.4,"uv_index":8.9,"wind_gusts":30.2,"aqi":72,"pm10":16.5,"pm2_5":13.2,"mosquito_risk":7,"arthritis_risk":5,"migraine_risk":4,"frizz_risk":1,"updated_at":"2026-03-13T20:14:49.269019+05:30"},{"city":"Kurnool","state":"Andhra Pradesh","latitude":15.8281,"longitude":78.0373,"temp":32.6,"humidity":29,"rain":0.0,"pressure":976.7,"uv_index":8.7,"wind_gusts":23.8,"aqi":166,"pm10":62.6,"pm2_5":48.5,"mosquito_risk":0,"arthritis_risk":5,"migraine_risk":7,"frizz_risk":0,"updated_at":"2026-03-13T20:14:49.269026+05:30"},{"city":"Kakinada","state":"Andhra Pradesh","latitude":16.9891,"longitude":82.2475,"temp":26.1,"humidity":82,"rain":0.0,"pressure":1009.6,"uv_index":8.65,"wind_gusts":34.6,"aqi":74,"pm10":15.1,"pm2_5":11.4,"mosquito_risk":7,"arthritis_risk":0,"migraine_risk":4,"frizz_risk":1,"updated_at":"2026-03-13T20:14:49.269033+05:30"},{"city":"Tirupati","state":"Andhra Pradesh","latitude":13.6288,"longitude":79.4192,"temp":28.5,"humidity":58,"rain":0.0,"pressure":993.1,"uv_index":9.05,"wind_gusts":33.5,"aqi":94,"pm10":24.0,"pm2_5":21.2,"mosquito_risk":4,"arthritis_risk":5,"migraine_risk":7,"frizz_risk":1,"updated_at":"2026-03-13T20:14:49.269040+05:30"},{"city":"Warangal","state":"Telangana","latitude":17.9689,"longitude":79.5941,"temp":30.1,"humidity":45,"rain":0.0,"pressure":978.7,"uv_index":8.5,"wind_gusts":28.8,"aqi":143,"pm10":59.3,"pm2_5":47.5,"mosquito_risk":0,"arthritis_risk":5,"migraine_risk":7,"frizz_risk":1,"updated_at":"2026-03-13T20:14:49.269046+05:30"},{"city":"Nizamabad","state":"Telangana","latitude":18.6725,"longitude":78.0941,"temp":28.2,"humidity":40,"rain":0.0,"pressure":964.4,"uv_index":8.4,"wind_gusts":19.1,"aqi":171,"pm10":57.4,"pm2_5":46.6,"mosquito_risk":4,"arthritis_risk":5,"migraine_risk":7,"frizz_risk":0,"updated_at":"2026-03-13T20:14:49.269052+05:30"},{"city":"Mysore","state":"Karnataka","latitude":12.2958,"longitude":76.6396,"temp":27.4,"humidity":39,"rain":0.0,"pressure":928.4,"uv_index":9.3,"wind_gusts":29.9,"aqi":130,"pm10":40.0,"pm2_5":35.2,"mosquito_risk":4,"arthritis_risk":5,"migraine_risk":7,"frizz_risk":0,"updated_at":"2026-03-13T20:14:49.269058+05:30"},{"city":"Mangalore","state":"Karnataka","latitude":12.9141,"longitude":74.856,"temp":28.8,"humidity":81,"rain":0.0,"pressure":1007.2,"uv_index":8.95,"wind_gusts":23.0,"aqi":116,"pm10":43.1,"pm2_5":36.8,"mosquito_risk":7,"arthritis_risk":5,"migraine_risk":4,"frizz_risk":1,"updated_at":"2026-03-13T20:14:49.269064+05:30"},{"city":"Hubli-Dharwad","state":"Karnataka","latitude":15.3647,"longitude":75.124,"temp":27.8,"humidity":60,"rain":0.0,"pressure":941.0,"uv_index":8.9,"wind_gusts":33.5,"aqi":162,"pm10":33.5,"pm2_5":30.3,"mosquito_risk":4,"arthritis_risk":5,"migraine_risk":7,"frizz_risk":1,"updated_at":"2026-03-13T20:14:49.269071+05:30"},{"city":"Belgaum","state":"Karnataka","latitude":15.8497,"longitude":74.4977,"temp":25.4,"humidity":74,"rain":0.0,"pressure":926.0,"uv_index":8.95,"wind_gusts":41.0,"aqi":163,"pm10":44.7,"pm2_5":41.6,"mosquito_risk":7,"arthritis_risk":5,"migraine_risk":7,"frizz_risk":1,"updated_at":"2026-03-13T20:14:52.540487+05:30"},{"city":"Coimbatore","state":"Tamil Nadu","latitude":11.0168,"longitude":76.9558,"temp":26.2,"humidity":54,"rain":0.0,"pressure":962.3,"uv_index":9.3,"wind_gusts":42.8,"aqi":108,"pm10":35.0,"pm2_5":29.7,"mosquito_risk":4,"arthritis_risk":5,"migraine_risk":7,"frizz_risk":1,"updated_at":"2026-03-13T20:14:52.540517+05:30"},{"city":"Madurai","state":"Tamil Nadu","latitude":9.9252,"longitude":78.1198,"temp":29.7,"humidity":51,"rain":0.0,"pressure":993.4,"uv_index":9.25,"wind_gusts":26.6,"aqi":80,"pm10":20.2,"pm2_5":17.8,"mosquito_risk":4,"arthritis_risk":5,"migraine_risk":7,"frizz_risk":1,"updated_at":"2026-03-13T20:14:52.540527+05:30"},{"city":"Trichy","state":"Tamil Nadu","latitude":10.7905,"longitude":78.7047,"temp":28.6,"humidity":62,"rain":0.0,"pressure":1000.5,"uv_index":9.15,"wind_gusts":23.0,"aqi":83,"pm10":21.4,"pm2_5":19.6,"mosquito_risk":7,"arthritis_risk":5,"migraine_risk":4,"frizz_risk":1,"updated_at":"2026-03-13T20:14:52.540536+05:30"},{"city":"Salem","state":"Tamil Nadu","latitude":11.6643,"longitude":78.146,"temp":28.5,"humidity":50,"rain":0.0,"pressure":977.7,"uv_index":9.2,"wind_gusts":24.8,"aqi":123,"pm10":41.0,"pm2_5":35.0,"mosquito_risk":4,"arthritis_risk":5,"migraine_risk":7,"frizz_risk":1,"updated_at":"2026-03-13T20:14:52.540543+05:30"},{"city":"Tirunelveli","state":"Tamil Nadu","latitude":8.7139,"longitude":77.7567,"temp":28.1,"humidity":59,"rain":0.0,"pressure":1003.7,"uv_index":9.2,"wind_gusts":31.3,"aqi":63,"pm10":13.9,"pm2_5":12.0,"mosquito_risk":4,"arthritis_risk":5,"migraine_risk":4,"frizz_risk":1,"updated_at":"2026-03-13T20:14:52.540550+05:30"},{"city":"Vellore","state":"Tamil Nadu","latitude":12.9165,"longitude":79.1325,"temp":27.6,"humidity":60,"rain":0.0,"pressure":985.9,"uv_index":9.1,"wind_gusts":33.1,"aqi":106,"pm10":23.7,"pm2_5":21.8,"mosquito_risk":4,"arthritis_risk":5,"migraine_risk":7,"frizz_risk":1,"updated_at":"2026-03-13T20:14:52.540557+05:30"},{"city":"Erode","state":"Tamil Nadu","latitude":11.341,"longitude":77.7172,"temp":30.4,"humidity":49,"rain":0.0,"pressure":989.1,"uv_index":9.15,"wind_gusts":23.8,"aqi":89,"pm10":32.0,"pm2_5":27.8,"mosquito_risk":0,"arthritis_risk":5,"migraine_risk":7,"frizz_risk":1,"updated_at":"2026-03-13T20:14:52.540565+05:30"},{"city":"Kochi","state":"Kerala","latitude":9.9312,"longitude":76.2673,"temp":28.3,"humidity":80,"rain":0.0,"pressure":1009.1,"uv_index":9.1,"wind_gusts":33.8,"aqi":144,"pm10":24.2,"pm2_5":22.4,"mosquito_risk":7,"arthritis_risk":0,"migraine_risk":4,"frizz_risk":1,"updated_at":"2026-03-13T20:14:52.540572+05:30"},{"city":"Thiruvananthapuram","state":"Kerala","latitude":8.5241,"longitude":76.9366,"temp":28.1,"humidity":80,"rain":0.0,"pressure":1008.5,"uv_index":9.1,"wind_gusts":24.1,"aqi":96,"pm10":21.6,"pm2_5":16.8,"mosquito_risk":7,"arthritis_risk":0,"migraine_risk":4,"frizz_risk":1,"updated_at":"2026-03-13T20:14:52.540579+05:30"},{"city":"Kozhikode","state":"Kerala","latitude":11.2588,"longitude":75.7804,"temp":28.6,"humidity":82,"rain":0.0,"pressure":1008.2,"uv_index":9.0,"wind_gusts":29.9,"aqi":93,"pm10":27.0,"pm2_5":23.6,"mosquito_risk":7,"arthritis_risk":0,"migraine_risk":4,"frizz_risk":1,"updated_at":"2026-03-13T20:14:52.540586+05:30"},{"city":"Thrissur","state":"Kerala","latitude":10.5276,"longitude":76.2144,"temp":28.1,"humidity":81,"rain":0.0,"pressure":1007.5,"uv_index":9.05,"wind_gusts":37.1,"aqi":120,"pm10":26.3,"pm2_5":24.3,"mosquito_risk":7,"arthritis_risk":5,"migraine_risk":4,"frizz_risk":1,"updated_at":"2026-03-13T20:14:52.540594+05:30"},{"city":"Kannur","state":"Kerala","latitude":11.8745,"longitude":75.3704,"temp":28.6,"humidity":79,"rain":0.0,"pressure":1007.4,"uv_index":9.0,"wind_gusts":28.1,"aqi":106,"pm10":37.5,"pm2_5":32.5,"mosquito_risk":7,"arthritis_risk":5,"migraine_risk":4,"frizz_risk":1,"updated_at":"2026-03-13T20:14:52.540601+05:30"},{"city":"Patna","state":"Bihar","latitude":25.5941,"longitude":85.1376,"temp":28.0,"humidity":58,"rain":0.0,"pressure":1000.1,"uv_index":7.5,"wind_gusts":23.0,"aqi":179,"pm10":156.5,"pm2_5":60.3,"mosquito_risk":4,"arthritis_risk":5,"migraine_risk":4,"frizz_risk":1,"updated_at":"2026-03-13T20:14:52.540608+05:30"},{"city":"Gaya","state":"Bihar","latitude":24.7914,"longitude":85.0002,"temp":27.8,"humidity":52,"rain":0.0,"pressure":994.1,"uv_index":7.6,"wind_gusts":19.4,"aqi":145,"pm10":161.6,"pm2_5":53.4,"mosquito_risk":4,"arthritis_risk":5,"migraine_risk":7,"frizz_risk":1,"updated_at":"2026-03-13T20:14:52.540614+05:30"},{"city":"Muzaffarpur","state":"Bihar","latitude":26.1209,"longitude":85.3647,"temp":26.9,"humidity":69,"rain":0.0,"pressure":999.9,"uv_index":7.45,"wind_gusts":24.8,"aqi":180,"pm10":163.9,"pm2_5":75.4,"mosquito_risk":7,"arthritis_risk":5,"migraine_risk":7,"frizz_risk":1,"updated_at":"2026-03-13T20:14:52.540620+05:30"},{"city":"Bhagalpur","state":"Bihar","latitude":25.2425,"longitude":87.0117,"temp":27.0,"humidity":67,"rain":0.0,"pressure":1001.2,"uv_index":7.5,"wind_gusts":26.6,"aqi":167,"pm10":191.4,"pm2_5":88.0,"mosquito_risk":7,"arthritis_risk":5,"migraine_risk":4,"frizz_risk":1,"updated_at":"2026-03-13T20:14:52.540626+05:30"},{"city":"Ranchi","state":"Jharkhand","latitude":23.3441,"longitude":85.3096,"temp":24.7,"humidity":30,"rain":0.0,"pressure":938.3,"uv_index":8.2,"wind_gusts":26.3,"aqi":109,"pm10":26.3,"pm2_5":17.8,"mosquito_risk":0,"arthritis_risk":5,"migraine_risk":7,"frizz_risk":0,"updated_at":"2026-03-13T20:14:52.540632+05:30"},{"city":"Jamshedpur","state":"Jharkhand","latitude":22.8046,"longitude":86.2029,"temp":29.4,"humidity":45,"rain":0.0,"pressure":990.7,"uv_index":8.05,"wind_gusts":16.6,"aqi":154,"pm10":53.7,"pm2_5":31.0,"mosquito_risk":4,"arthritis_risk":5,"migraine_risk":7,"frizz_risk":1,"updated_at":"2026-03-13T20:14:52.540639+05:30"},{"city":"Dhanbad","state":"Jharkhand","latitude":23.7957,"longitude":86.4304,"temp":29.6,"humidity":28,"rain":0.0,"pressure":979.9,"uv_index":7.95,"wind_gusts":26.3,"aqi":166,"pm10":81.3,"pm2_5":57.3,"mosquito_risk":4,"arthritis_risk":5,"migraine_risk":7,"frizz_risk":0,"updated_at":"2026-03-13T20:14:52.540645+05:30"},{"city":"Bokaro","state":"Jharkhand","latitude":23.6693,"longitude":86.1511,"temp":28.6,"humidity":35,"rain":0.0,"pressure":984.2,"uv_index":7.95,"wind_gusts":26.6,"aqi":150,"pm10":73.8,"pm2_5":51.5,"mosquito_risk":4,"arthritis_risk":5,"migraine_risk":7,"frizz_risk":0,"updated_at":"2026-03-13T20:14:52.540651+05:30"},{"city":"Bhubaneswar","state":"Odisha","latitude":20.2961,"longitude":85.8245,"temp":25.9,"humidity":86,"rain":0.0,"pressure":1004.1,"uv_index":8.4,"wind_gusts":33.5,"aqi":100,"pm10":27.5,"pm2_5":24.9,"mosquito_risk":7,"arthritis_risk":5,"migraine_risk":4,"frizz_risk":1,"updated_at":"2026-03-13T20:14:52.540658+05:30"},{"city":"Cuttack","state":"Odisha","latitude":20.4625,"longitude":85.8828,"temp":26.7,"humidity":79,"rain":0.0,"pressure":1005.9,"uv_index":8.4,"wind_gusts":28.1,"aqi":100,"pm10":27.5,"pm2_5":24.9,"mosquito_risk":7,"arthritis_risk":5,"migraine_risk":4,"frizz_risk":1,"updated_at":"2026-03-13T20:14:52.540665+05:30"},{"city":"Rourkela","state":"Odisha","latitude":22.2604,"longitude":84.8536,"temp":28.4,"humidity":43,"rain":0.0,"pressure":984.8,"uv_index":8.0,"wind_gusts":19.4,"aqi":141,"pm10":52.4,"pm2_5":31.5,"mosquito_risk":4,"arthritis_risk":5,"migraine_risk":7,"frizz_risk":0,"updated_at":"2026-03-13T20:14:52.540671+05:30"},{"city":"Raipur","state":"Chhattisgarh","latitude":21.2514,"longitude":81.6296,"temp":30.4,"humidity":27,"rain":0.0,"pressure":974.4,"uv_index":8.15,"wind_gusts":18.0,"aqi":157,"pm10":52.4,"pm2_5":45.5,"mosquito_risk":0,"arthritis_risk":5,"migraine_risk":7,"frizz_risk":0,"updated_at":"2026-03-13T20:14:52.540678+05:30"},{"city":"Bhilai","state":"Chhattisgarh","latitude":21.1938,"longitude":81.3509,"temp":29.3,"humidity":38,"rain":0.0,"pressure":974.7,"uv_index":8.15,"wind_gusts":14.8,"aqi":141,"pm10":46.1,"pm2_5":40.0,"mosquito_risk":4,"arthritis_risk":5,"migraine_risk":7,"frizz_risk":0,"updated_at":"2026-03-13T20:14:52.540684+05:30"},{"city":"Guwahati","state":"Assam","latitude":26.1158,"longitude":91.7086,"temp":22.6,"humidity":91,"rain":0.0,"pressure":1002.6,"uv_index":6.6,"wind_gusts":29.9,"aqi":152,"pm10":32.4,"pm2_5":27.4,"mosquito_risk":3,"arthritis_risk":5,"migraine_risk":4,"frizz_risk":1,"updated_at":"2026-03-13T20:14:52.540689+05:30"},{"city":"Agartala","state":"Tripura","latitude":23.8315,"longitude":91.2868,"temp":23.1,"humidity":88,"rain":0.0,"pressure":1007.7,"uv_index":7.6,"wind_gusts":32.8,"aqi":125,"pm10":60.1,"pm2_5":52.5,"mosquito_risk":3,"arthritis_risk":5,"migraine_risk":4,"frizz_risk":1,"updated_at":"2026-03-13T20:14:52.540696+05:30"},{"city":"Shillong","state":"Meghalaya","latitude":25.5788,"longitude":91.8933,"temp":13.3,"humidity":89,"rain":0.0,"pressure":855.4,"uv_index":7.0,"wind_gusts":56.9,"aqi":122,"pm10":26.5,"pm2_5":21.0,"mosquito_risk":3,"arthritis_risk":10,"migraine_risk":7,"frizz_risk":0,"updated_at":"2026-03-13T20:14:52.540702+05:30"},{"city":"Imphal","state":"Manipur","latitude":24.817,"longitude":93.9368,"temp":16.6,"humidity":94,"rain":0.0,"pressure":924.3,"uv_index":7.3,"wind_gusts":61.2,"aqi":157,"pm10":70.8,"pm2_5":64.3,"mosquito_risk":3,"arthritis_risk":10,"migraine_risk":7,"frizz_risk":0,"updated_at":"2026-03-13T20:14:52.540709+05:30"},{"city":"Aizawl","state":"Mizoram","latitude":23.7271,"longitude":92.7176,"temp":17.7,"humidity":88,"rain":0.0,"pressure":894.0,"uv_index":7.15,"wind_gusts":76.0,"aqi":146,"pm10":47.7,"pm2_5":44.5,"mosquito_risk":3,"arthritis_risk":10,"migraine_risk":7,"frizz_risk":0,"updated_at":"2026-03-13T20:14:52.540715+05:30"},{"city":"Kohima","state":"Nagaland","latitude":25.6701,"longitude":94.1077,"temp":14.8,"humidity":87,"rain":0.0,"pressure":854.4,"uv_index":6.25,"wind_gusts":82.8,"aqi":137,"pm10":39.3,"pm2_5":36.0,"mosquito_risk":3,"arthritis_risk":10,"migraine_risk":7,"frizz_risk":0,"updated_at":"2026-03-13T20:14:52.540721+05:30"},{"city":"Gangtok","state":"Sikkim","latitude":27.3314,"longitude":88.6138,"temp":14.8,"humidity":92,"rain":0.0,"pressure":836.5,"uv_index":5.15,"wind_gusts":15.8,"aqi":99,"pm10":32.5,"pm2_5":31.1,"mosquito_risk":3,"arthritis_risk":10,"migraine_risk":3,"frizz_risk":0,"updated_at":"2026-03-13T20:14:52.540727+05:30"},{"city":"Siliguri","state":"West Bengal","latitude":26.7271,"longitude":88.3953,"temp":20.2,"humidity":86,"rain":0.0,"pressure":994.2,"uv_index":7.3,"wind_gusts":29.5,"aqi":152,"pm10":43.4,"pm2_5":39.1,"mosquito_risk":3,"arthritis_risk":5,"migraine_risk":7,"frizz_risk":1,"updated_at":"2026-03-13T20:14:55.821586+05:30"},{"city":"Durgapur","state":"West Bengal","latitude":23.5204,"longitude":87.3119,"temp":30.9,"humidity":36,"rain":0.0,"pressure":995.0,"uv_index":7.95,"wind_gusts":26.3,"aqi":162,"pm10":77.5,"pm2_5":56.8,"mosquito_risk":0,"arthritis_risk":5,"migraine_risk":7,"frizz_risk":0,"updated_at":"2026-03-13T20:14:55.821616+05:30"},{"city":"Asansol","state":"West Bengal","latitude":23.6739,"longitude":86.9524,"temp":31.1,"humidity":34,"rain":0.0,"pressure":993.5,"uv_index":7.95,"wind_gusts":23.4,"aqi":164,"pm10":67.8,"pm2_5":43.0,"mosquito_risk":0,"arthritis_risk":5,"migraine_risk":7,"frizz_risk":0,"updated_at":"2026-03-13T20:14:55.821626+05:30"},{"city":"Pondicherry","state":"Puducherry","latitude":11.9139,"longitude":79.8145,"temp":25.4,"humidity":87,"rain":0.0,"pressure":1010.0,"uv_index":9.0,"wind_gusts":27.7,"aqi":59,"pm10":18.7,"pm2_5":13.9,"mosquito_risk":7,"arthritis_risk":0,"migraine_risk":4,"frizz_risk":1,"updated_at":"2026-03-13T20:14:55.821634+05:30"},{"city":"Port Blair","state":"Andaman and Nicobar Islands","latitude":11.6234,"longitude":92.7265,"temp":27.8,"humidity":81,"rain":0.0,"pressure":1008.6,"uv_index":8.95,"wind_gusts":22.3,"aqi":62,"pm10":10.3,"pm2_5":8.0,"mosquito_risk":7,"arthritis_risk":0,"migraine_risk":4,"frizz_risk":1,"updated_at":"2026-03-13T20:14:55.821642+05:30"},{"city":"Haridwar","state":"Uttarakhand","latitude":29.9457,"longitude":78.1642,"temp":23.3,"humidity":66,"rain":0.0,"pressure":975.3,"uv_index":5.6,"wind_gusts":29.5,"aqi":87,"pm10":66.8,"pm2_5":35.6,"mosquito_risk":3,"arthritis_risk":5,"migraine_risk":3,"frizz_risk":1,"updated_at":"2026-03-13T20:14:55.821649+05:30"},{"city":"Rishikesh","state":"Uttarakhand","latitude":30.0869,"longitude":78.2676,"temp":22.6,"humidity":69,"rain":0.0,"pressure":967.9,"uv_index":5.8,"wind_gusts":30.2,"aqi":82,"pm10":31.5,"pm2_5":21.5,"mosquito_risk":3,"arthritis_risk":5,"migraine_risk":3,"frizz_risk":1,"updated_at":"2026-03-13T20:14:55.821656+05:30"},{"city":"Nainital","state":"Uttarakhand","latitude":29.3919,"longitude":79.4542,"temp":17.7,"humidity":47,"rain":0.0,"pressure":806.0,"uv_index":6.55,"wind_gusts":44.3,"aqi":105,"pm10":32.7,"pm2_5":25.7,"mosquito_risk":0,"arthritis_risk":5,"migraine_risk":7,"frizz_risk":0,"updated_at":"2026-03-13T20:14:55.821663+05:30"},{"city":"Mussoorie","state":"Uttarakhand","latitude":30.4599,"longitude":78.0664,"temp":16.0,"humidity":63,"rain":0.0,"pressure":802.7,"uv_index":5.75,"wind_gusts":30.6,"aqi":84,"pm10":47.4,"pm2_5":33.5,"mosquito_risk":3,"arthritis_risk":5,"migraine_risk":3,"frizz_risk":0,"updated_at":"2026-03-13T20:14:55.821670+05:30"},{"city":"Dharamshala","state":"Himachal Pradesh","latitude":32.219,"longitude":76.3234,"temp":19.0,"humidity":58,"rain":0.0,"pressure":869.8,"uv_index":6.0,"wind_gusts":24.8,"aqi":83,"pm10":20.0,"pm2_5":13.1,"mosquito_risk":0,"arthritis_risk":5,"migraine_risk":3,"frizz_risk":0,"updated_at":"2026-03-13T20:14:55.821677+05:30"},{"city":"Dalhousie","state":"Himachal Pradesh","latitude":32.5387,"longitude":75.971,"temp":16.7,"humidity":54,"rain":0.0,"pressure":804.1,"uv_index":6.4,"wind_gusts":31.0,"aqi":80,"pm10":28.9,"pm2_5":21.1,"mosquito_risk":0,"arthritis_risk":5,"migraine_risk":7,"frizz_risk":0,"updated_at":"2026-03-13T20:14:55.821685+05:30"},{"city":"Patiala","state":"Punjab","latitude":30.3398,"longitude":76.3869,"temp":20.8,"humidity":70,"rain":0.0,"pressure":979.9,"uv_index":5.2,"wind_gusts":27.0,"aqi":359,"pm10":603.5,"pm2_5":79.4,"mosquito_risk":3,"arthritis_risk":5,"migraine_risk":3,"frizz_risk":0,"updated_at":"2026-03-13T20:14:55.821692+05:30"},{"city":"Bhatinda","state":"Punjab","latitude":30.211,"longitude":74.9455,"temp":22.6,"humidity":62,"rain":0.0,"pressure":985.8,"uv_index":6.25,"wind_gusts":27.7,"aqi":117,"pm10":41.2,"pm2_5":32.6,"mosquito_risk":3,"arthritis_risk":5,"migraine_risk":7,"frizz_risk":0,"updated_at":"2026-03-13T20:14:55.821699+05:30"},{"city":"Rohtak","state":"Haryana","latitude":28.8955,"longitude":76.6066,"temp":22.1,"humidity":61,"rain":0.0,"pressure":983.4,"uv_index":5.3,"wind_gusts":26.6,"aqi":529,"pm10":961.1,"pm2_5":129.5,"mosquito_risk":3,"arthritis_risk":5,"migraine_risk":3,"frizz_risk":0,"updated_at":"2026-03-13T20:14:55.821705+05:30"},{"city":"Panipat","state":"Haryana","latitude":29.3909,"longitude":76.9635,"temp":21.3,"humidity":68,"rain":0.0,"pressure":981.9,"uv_index":4.9,"wind_gusts":24.8,"aqi":987,"pm10":1497.6,"pm2_5":177.9,"mosquito_risk":3,"arthritis_risk":5,"migraine_risk":3,"frizz_risk":0,"updated_at":"2026-03-13T20:14:55.821711+05:30"},{"city":"Mathura","state":"Uttar Pradesh","latitude":27.4924,"longitude":77.6737,"temp":24.6,"humidity":43,"rain":0.0,"pressure":988.0,"uv_index":5.65,"wind_gusts":25.6,"aqi":664,"pm10":689.2,"pm2_5":100.1,"mosquito_risk":0,"arthritis_risk":5,"migraine_risk":3,"frizz_risk":0,"updated_at":"2026-03-13T20:14:55.821718+05:30"},{"city":"Vrindavan","state":"Uttar Pradesh","latitude":27.5823,"longitude":77.7027,"temp":23.2,"humidity":48,"rain":0.0,"pressure":988.5,"uv_index":5.75,"wind_gusts":28.8,"aqi":664,"pm10":689.2,"pm2_5":100.1,"mosquito_risk":0,"arthritis_risk":5,"migraine_risk":3,"frizz_risk":0,"updated_at":"2026-03-13T20:14:55.821724+05:30"},{"city":"Ayodhya","state":"Uttar Pradesh","latitude":26.7922,"longitude":82.1998,"temp":25.6,"humidity":58,"rain":0.0,"pressure":995.1,"uv_index":6.35,"wind_gusts":30.2,"aqi":156,"pm10":61.9,"pm2_5":39.9,"mosquito_risk":4,"arthritis_risk":5,"migraine_risk":7,"frizz_risk":1,"updated_at":"2026-03-13T20:14:55.821731+05:30"},{"city":"Ratlam","state":"Madhya Pradesh","latitude":23.3315,"longitude":75.0367,"temp":28.3,"humidity":30,"rain":0.0,"pressure":955.1,"uv_index":7.6,"wind_gusts":30.6,"aqi":107,"pm10":25.7,"pm2_5":21.6,"mosquito_risk":4,"arthritis_risk":5,"migraine_risk":7,"frizz_risk":0,"updated_at":"2026-03-13T20:14:55.821737+05:30"},{"city":"Sagar","state":"Madhya Pradesh","latitude":23.8388,"longitude":78.7378,"temp":28.0,"humidity":31,"rain":0.0,"pressure":950.6,"uv_index":7.6,"wind_gusts":29.2,"aqi":116,"pm10":13.4,"pm2_5":12.4,"mosquito_risk":4,"arthritis_risk":5,"migraine_risk":7,"frizz_risk":0,"updated_at":"2026-03-13T20:14:55.821743+05:30"},{"city":"Satna","state":"Madhya Pradesh","latitude":24.6005,"longitude":80.8322,"temp":27.7,"humidity":25,"rain":0.0,"pressure":971.5,"uv_index":7.2,"wind_gusts":29.9,"aqi":101,"pm10":24.0,"pm2_5":12.7,"mosquito_risk":4,"arthritis_risk":5,"migraine_risk":7,"frizz_risk":0,"updated_at":"2026-03-13T20:14:55.821750+05:30"},{"city":"Akola","state":"Maharashtra","latitude":20.7002,"longitude":77.0082,"temp":30.3,"humidity":29,"rain":0.0,"pressure":974.6,"uv_index":8.05,"wind_gusts":24.8,"aqi":171,"pm10":33.6,"pm2_5":30.0,"mosquito_risk":0,"arthritis_risk":5,"migraine_risk":7,"frizz_risk":0,"updated_at":"2026-03-13T20:14:55.821757+05:30"},{"city":"Amravati","state":"Maharashtra","latitude":20.9374,"longitude":77.7796,"temp":29.9,"humidity":32,"rain":0.0,"pressure":966.8,"uv_index":8.0,"wind_gusts":15.1,"aqi":169,"pm10":34.6,"pm2_5":29.9,"mosquito_risk":4,"arthritis_risk":5,"migraine_risk":7,"frizz_risk":0,"updated_at":"2026-03-13T20:14:55.821764+05:30"},{"city":"Latur","state":"Maharashtra","latitude":18.4088,"longitude":76.5604,"temp":29.7,"humidity":39,"rain":0.0,"pressure":940.0,"uv_index":8.5,"wind_gusts":21.2,"aqi":156,"pm10":38.9,"pm2_5":34.7,"mosquito_risk":4,"arthritis_risk":5,"migraine_risk":7,"frizz_risk":0,"updated_at":"2026-03-13T20:14:55.821771+05:30"},{"city":"Nanded","state":"Maharashtra","latitude":19.1383,"longitude":77.3091,"temp":32.9,"humidity":29,"rain":0.0,"pressure":968.3,"uv_index":8.25,"wind_gusts":21.6,"aqi":175,"pm10":50.6,"pm2_5":44.0,"mosquito_risk":0,"arthritis_risk":5,"migraine_risk":7,"frizz_risk":0,"updated_at":"2026-03-13T20:14:55.821778+05:30"},{"city":"Gulbarga","state":"Karnataka","latitude":17.3297,"longitude":76.8343,"temp":31.4,"humidity":32,"rain":0.0,"pressure":958.5,"uv_index":8.6,"wind_gusts":32.0,"aqi":174,"pm10":38.1,"pm2_5":32.0,"mosquito_risk":0,"arthritis_risk":5,"migraine_risk":7,"frizz_risk":0,"updated_at":"2026-03-13T20:14:55.821785+05:30"},{"city":"Bidar","state":"Karnataka","latitude":17.9104,"longitude":77.5199,"temp":29.6,"humidity":32,"rain":0.0,"pressure":935.7,"uv_index":8.55,"wind_gusts":26.6,"aqi":166,"pm10":40.4,"pm2_5":32.4,"mosquito_risk":4,"arthritis_risk":5,"migraine_risk":7,"frizz_risk":0,"updated_at":"2026-03-13T20:14:55.821791+05:30"},{"city":"Hospet","state":"Karnataka","latitude":15.2689,"longitude":76.3909,"temp":31.5,"humidity":34,"rain":0.0,"pressure":955.6,"uv_index":8.9,"wind_gusts":24.1,"aqi":170,"pm10":39.0,"pm2_5":33.9,"mosquito_risk":0,"arthritis_risk":5,"migraine_risk":7,"frizz_risk":0,"updated_at":"2026-03-13T20:14:55.821797+05:30"},{"city":"Tirupur","state":"Tamil Nadu","latitude":11.1085,"longitude":77.3411,"temp":30.2,"humidity":41,"rain":0.0,"pressure":975.4,"uv_index":9.3,"wind_gusts":30.6,"aqi":108,"pm10":40.4,"pm2_5":34.9,"mosquito_risk":0,"arthritis_risk":5,"migraine_risk":7,"frizz_risk":0,"updated_at":"2026-03-13T20:14:55.821803+05:30"},{"city":"Alappuzha","state":"Kerala","latitude":9.4981,"longitude":76.3388,"temp":28.1,"humidity":80,"rain":0.0,"pressure":1009.3,"uv_index":9.1,"wind_gusts":28.1,"aqi":146,"pm10":20.0,"pm2_5":16.9,"mosquito_risk":7,"arthritis_risk":0,"migraine_risk":4,"frizz_risk":1,"updated_at":"2026-03-13T20:14:55.821810+05:30"},{"city":"Munnar","state":"Kerala","latitude":10.0889,"longitude":77.0595,"temp":22.2,"humidity":83,"rain":0.0,"pressure":857.4,"uv_index":9.55,"wind_gusts":24.5,"aqi":73,"pm10":25.7,"pm2_5":23.2,"mosquito_risk":3,"arthritis_risk":5,"migraine_risk":7,"frizz_risk":1,"updated_at":"2026-03-13T20:14:55.821817+05:30"},{"city":"Silchar","state":"Assam","latitude":24.8333,"longitude":92.7789,"temp":21.8,"humidity":92,"rain":0.0,"pressure":1007.9,"uv_index":7.75,"wind_gusts":42.8,"aqi":163,"pm10":48.4,"pm2_5":41.7,"mosquito_risk":3,"arthritis_risk":5,"migraine_risk":4,"frizz_risk":1,"updated_at":"2026-03-13T20:14:55.821823+05:30"},{"city":"Dibrugarh","state":"Assam","latitude":27.4728,"longitude":94.912,"temp":21.3,"humidity":85,"rain":0.0,"pressure":996.7,"uv_index":5.5,"wind_gusts":25.2,"aqi":147,"pm10":56.5,"pm2_5":52.0,"mosquito_risk":3,"arthritis_risk":5,"migraine_risk":3,"frizz_risk":1,"updated_at":"2026-03-13T20:14:55.821830+05:30"}]