[{"city":"Delhi","state":"Delhi","latitude":28.6139,"longitude":77.209,"temp":29.5,"humidity":53,"rain":0.0,"pressure":977.5,"uv_index":7.75,"wind_gusts":35.3,"aqi":350,"pm10":171.4,"pm2_5":54.8,"no2":33.0,"co":282.0,"o3":34.0,"so2":13.6,"mosquito_risk":4,"arthritis_risk":5,"migraine_risk":7,"frizz_risk":1,"updated_at":"2026-06-23T05:39:17.944853+05:30"},{"city":"Mumbai","state":"Maharashtra","latitude":19.076,"longitude":72.8777,"temp":25.0,"humidity":96,"rain":0.1,"pressure":1005.2,"uv_index":1.7,"wind_gusts":35.3,"aqi":38,"pm10":7.6,"pm2_5":6.2,"no2":12.5,"co":139.0,"o3":39.0,"so2":11.0,"mosquito_risk":10,"arthritis_risk":5,"migraine_risk":0,"frizz_risk":1,"updated_at":"2026-06-23T05:39:17.944903+05:30"},{"city":"Bangalore","state":"Karnataka","latitude":12.9716,"longitude":77.5946,"temp":20.2,"humidity":95,"rain":0.0,"pressure":910.6,"uv_index":7.2,"wind_gusts":52.2,"aqi":21,"pm10":3.1,"pm2_5":2.9,"no2":7.8,"co":193.0,"o3":35.0,"so2":4.1,"mosquito_risk":3,"arthritis_risk":5,"migraine_risk":7,"frizz_risk":1,"updated_at":"2026-06-23T05:39:17.944918+05:30"},{"city":"Hyderabad","state":"Telangana","latitude":17.385,"longitude":78.4867,"temp":26.8,"humidity":69,"rain":0.0,"pressure":951.1,"uv_index":4.7,"wind_gusts":48.2,"aqi":36,"pm10":7.5,"pm2_5":6.6,"no2":11.3,"co":178.0,"o3":34.0,"so2":5.0,"mosquito_risk":7,"arthritis_risk":5,"migraine_risk":3,"frizz_risk":1,"updated_at":"2026-06-23T05:39:17.944928+05:30"},{"city":"Chennai","state":"Tamil Nadu","latitude":13.0827,"longitude":80.2707,"temp":27.4,"humidity":81,"rain":0.0,"pressure":1005.0,"uv_index":4.9,"wind_gusts":37.1,"aqi":57,"pm10":11.5,"pm2_5":10.7,"no2":17.4,"co":239.0,"o3":35.0,"so2":9.6,"mosquito_risk":7,"arthritis_risk":5,"migraine_risk":0,"frizz_risk":1,"updated_at":"2026-06-23T05:39:17.944937+05:30"},{"city":"Kolkata","state":"West Bengal","latitude":22.5726,"longitude":88.3639,"temp":27.5,"humidity":93,"rain":0.0,"pressure":1000.5,"uv_index":8.9,"wind_gusts":26.3,"aqi":115,"pm10":54.5,"pm2_5":51.9,"no2":19.1,"co":438.0,"o3":59.0,"so2":13.0,"mosquito_risk":7,"arthritis_risk":5,"migraine_risk":4,"frizz_risk":1,"updated_at":"2026-06-23T05:39:17.944945+05:30"},{"city":"Pune","state":"Maharashtra","latitude":18.5204,"longitude":73.8567,"temp":23.7,"humidity":94,"rain":0.1,"pressure":945.0,"uv_index":3.2,"wind_gusts":36.4,"aqi":22,"pm10":5.4,"pm2_5":4.8,"no2":9.0,"co":130.0,"o3":32.0,"so2":5.0,"mosquito_risk":6,"arthritis_risk":5,"migraine_risk":3,"frizz_risk":1,"updated_at":"2026-06-23T05:39:17.944953+05:30"},{"city":"Ahmedabad","state":"Gujarat","latitude":23.0225,"longitude":72.5714,"temp":29.9,"humidity":72,"rain":0.0,"pressure":997.9,"uv_index":8.05,"wind_gusts":42.1,"aqi":64,"pm10":41.8,"pm2_5":16.7,"no2":5.6,"co":137.0,"o3":39.0,"so2":3.9,"mosquito_risk":7,"arthritis_risk":5,"migraine_risk":7,"frizz_risk":1,"updated_at":"2026-06-23T05:39:17.944961+05:30"},{"city":"Jaipur","state":"Rajasthan","latitude":26.9124,"longitude":75.7873,"temp":27.0,"humidity":54,"rain":0.0,"pressure":954.7,"uv_index":8.2,"wind_gusts":35.6,"aqi":143,"pm10":78.5,"pm2_5":39.1,"no2":16.0,"co":203.0,"o3":33.0,"so2":6.2,"mosquito_risk":4,"arthritis_risk":5,"migraine_risk":7,"frizz_risk":1,"updated_at":"2026-06-23T05:39:17.944969+05:30"},{"city":"Lucknow","state":"Uttar Pradesh","latitude":26.8467,"longitude":80.9462,"temp":30.7,"humidity":52,"rain":0.0,"pressure":986.9,"uv_index":8.25,"wind_gusts":40.3,"aqi":155,"pm10":171.8,"pm2_5":67.8,"no2":20.8,"co":340.0,"o3":67.0,"so2":12.4,"mosquito_risk":0,"arthritis_risk":5,"migraine_risk":7,"frizz_risk":1,"updated_at":"2026-06-23T05:39:17.944981+05:30"},{"city":"Kanpur","state":"Uttar Pradesh","latitude":26.4499,"longitude":80.3319,"temp":30.6,"humidity":49,"rain":0.0,"pressure":985.7,"uv_index":8.25,"wind_gusts":43.6,"aqi":218,"pm10":318.5,"pm2_5":86.8,"no2":24.4,"co":311.0,"o3":49.0,"so2":9.7,"mosquito_risk":0,"arthritis_risk":5,"migraine_risk":7,"frizz_risk":1,"updated_at":"2026-06-23T05:39:17.944988+05:30"},{"city":"Chandigarh","state":"Chandigarh","latitude":30.7333,"longitude":76.7794,"temp":25.6,"humidity":59,"rain":0.0,"pressure":963.1,"uv_index":7.8,"wind_gusts":36.0,"aqi":95,"pm10":43.7,"pm2_5":40.6,"no2":39.3,"co":504.0,"o3":19.0,"so2":8.0,"mosquito_risk":4,"arthritis_risk":5,"migraine_risk":7,"frizz_risk":1,"updated_at":"2026-06-23T05:39:17.944996+05:30"},{"city":"Srinagar","state":"Jammu and Kashmir","latitude":34.0837,"longitude":74.7973,"temp":13.8,"humidity":100,"rain":0.0,"pressure":838.7,"uv_index":9.1,"wind_gusts":18.7,"aqi":74,"pm10":27.8,"pm2_5":26.9,"no2":20.4,"co":414.0,"o3":22.0,"so2":0.9,"mosquito_risk":3,"arthritis_risk":10,"migraine_risk":7,"frizz_risk":0,"updated_at":"2026-06-23T05:39:17.945004+05:30"},{"city":"Jammu","state":"Jammu and Kashmir","latitude":32.7266,"longitude":74.857,"temp":24.1,"humidity":60,"rain":0.0,"pressure":966.6,"uv_index":8.65,"wind_gusts":35.6,"aqi":82,"pm10":33.3,"pm2_5":31.5,"no2":38.1,"co":411.0,"o3":2.0,"so2":2.2,"mosquito_risk":0,"arthritis_risk":5,"migraine_risk":7,"frizz_risk":0,"updated_at":"2026-06-23T05:39:17.945019+05:30"},{"city":"Amritsar","state":"Punjab","latitude":31.634,"longitude":74.8723,"temp":25.8,"humidity":73,"rain":0.0,"pressure":974.8,"uv_index":8.5,"wind_gusts":18.4,"aqi":133,"pm10":101.3,"pm2_5":85.4,"no2":72.7,"co":438.0,"o3":4.0,"so2":14.3,"mosquito_risk":7,"arthritis_risk":5,"migraine_risk":7,"frizz_risk":1,"updated_at":"2026-06-23T05:39:17.945026+05:30"},{"city":"Ludhiana","state":"Punjab","latitude":30.901,"longitude":75.8573,"temp":26.6,"humidity":68,"rain":0.0,"pressure":972.9,"uv_index":8.05,"wind_gusts":32.4,"aqi":114,"pm10":62.4,"pm2_5":47.8,"no2":30.0,"co":376.0,"o3":41.0,"so2":6.9,"mosquito_risk":7,"arthritis_risk":5,"migraine_risk":7,"frizz_risk":1,"updated_at":"2026-06-23T05:39:17.945033+05:30"},{"city":"Jalandhar","state":"Punjab","latitude":31.326,"longitude":75.5762,"temp":26.6,"humidity":70,"rain":0.0,"pressure":973.9,"uv_index":8.25,"wind_gusts":27.7,"aqi":124,"pm10":75.7,"pm2_5":61.2,"no2":47.9,"co":422.0,"o3":18.0,"so2":7.3,"mosquito_risk":7,"arthritis_risk":5,"migraine_risk":7,"frizz_risk":1,"updated_at":"2026-06-23T05:39:17.945043+05:30"},{"city":"Dehradun","state":"Uttarakhand","latitude":30.6284,"longitude":78.0322,"temp":14.3,"humidity":94,"rain":0.0,"pressure":824.9,"uv_index":7.7,"wind_gusts":32.4,"aqi":64,"pm10":27.6,"pm2_5":19.1,"no2":23.2,"co":301.0,"o3":21.0,"so2":0.4,"mosquito_risk":3,"arthritis_risk":10,"migraine_risk":7,"frizz_risk":0,"updated_at":"2026-06-23T05:39:17.945050+05:30"},{"city":"Shimla","state":"Himachal Pradesh","latitude":31.1048,"longitude":77.1734,"temp":11.8,"humidity":73,"rain":0.0,"pressure":778.5,"uv_index":8.3,"wind_gusts":40.3,"aqi":68,"pm10":21.6,"pm2_5":16.1,"no2":13.3,"co":161.0,"o3":57.0,"so2":0.6,"mosquito_risk":3,"arthritis_risk":5,"migraine_risk":7,"frizz_risk":0,"updated_at":"2026-06-23T05:39:17.945057+05:30"},{"city":"Manali","state":"Himachal Pradesh","latitude":32.2396,"longitude":77.1887,"temp":12.9,"humidity":72,"rain":0.0,"pressure":812.9,"uv_index":9.6,"wind_gusts":36.4,"aqi":43,"pm10":2.5,"pm2_5":2.3,"no2":9.5,"co":151.0,"o3":129.0,"so2":0.0,"mosquito_risk":3,"arthritis_risk":5,"migraine_risk":7,"frizz_risk":0,"updated_at":"2026-06-23T05:39:17.945066+05:30"},{"city":"Gurgaon","state":"Haryana","latitude":28.4595,"longitude":77.0266,"temp":26.6,"humidity":66,"rain":0.0,"pressure":975.9,"uv_index":7.85,"wind_gusts":47.9,"aqi":629,"pm10":128.1,"pm2_5":49.5,"no2":34.9,"co":247.0,"o3":31.0,"so2":13.2,"mosquito_risk":7,"arthritis_risk":5,"migraine_risk":7,"frizz_risk":1,"updated_at":"2026-06-23T05:39:17.945073+05:30"},{"city":"Noida","state":"Uttar Pradesh","latitude":28.5355,"longitude":77.391,"temp":28.4,"humidity":60,"rain":0.0,"pressure":978.7,"uv_index":7.8,"wind_gusts":27.7,"aqi":629,"pm10":128.1,"pm2_5":49.5,"no2":34.9,"co":332.0,"o3":31.0,"so2":13.2,"mosquito_risk":4,"arthritis_risk":5,"migraine_risk":7,"frizz_risk":1,"updated_at":"2026-06-23T05:39:17.945080+05:30"},{"city":"Ghaziabad","state":"Uttar Pradesh","latitude":28.6692,"longitude":77.4538,"temp":26.9,"humidity":65,"rain":0.0,"pressure":976.8,"uv_index":7.8,"wind_gusts":29.2,"aqi":273,"pm10":162.1,"pm2_5":55.9,"no2":35.1,"co":398.0,"o3":35.0,"so2":17.1,"mosquito_risk":7,"arthritis_risk":5,"migraine_risk":7,"frizz_risk":1,"updated_at":"2026-06-23T05:39:17.945086+05:30"},{"city":"Faridabad","state":"Haryana","latitude":28.4089,"longitude":77.3178,"temp":28.9,"humidity":55,"rain":0.0,"pressure":978.2,"uv_index":7.85,"wind_gusts":41.0,"aqi":629,"pm10":128.1,"pm2_5":49.5,"no2":34.9,"co":248.0,"o3":31.0,"so2":13.2,"mosquito_risk":4,"arthritis_risk":5,"migraine_risk":7,"frizz_risk":1,"updated_at":"2026-06-23T05:39:17.945093+05:30"},{"city":"Meerut","state":"Uttar Pradesh","latitude":28.9845,"longitude":77.7064,"temp":27.2,"humidity":64,"rain":0.0,"pressure":975.6,"uv_index":7.7,"wind_gusts":34.9,"aqi":273,"pm10":162.1,"pm2_5":55.9,"no2":35.1,"co":350.0,"o3":35.0,"so2":17.1,"mosquito_risk":7,"arthritis_risk":5,"migraine_risk":7,"frizz_risk":1,"updated_at":"2026-06-23T05:39:17.945100+05:30"},{"city":"Agra","state":"Uttar Pradesh","latitude":27.1767,"longitude":78.0081,"temp":29.1,"humidity":58,"rain":0.0,"pressure":982.2,"uv_index":8.1,"wind_gusts":33.1,"aqi":713,"pm10":216.1,"pm2_5":49.0,"no2":28.6,"co":349.0,"o3":23.0,"so2":6.1,"mosquito_risk":4,"arthritis_risk":5,"migraine_risk":7,"frizz_risk":1,"updated_at":"2026-06-23T05:39:17.945107+05:30"},{"city":"Varanasi","state":"Uttar Pradesh","latitude":25.3176,"longitude":82.9739,"temp":30.2,"humidity":55,"rain":0.0,"pressure":990.9,"uv_index":8.4,"wind_gusts":41.8,"aqi":114,"pm10":49.2,"pm2_5":34.5,"no2":16.0,"co":291.0,"o3":48.0,"so2":8.7,"mosquito_risk":0,"arthritis_risk":5,"migraine_risk":7,"frizz_risk":1,"updated_at":"2026-06-23T05:39:17.945114+05:30"},{"city":"Prayagraj","state":"Uttar Pradesh","latitude":25.4358,"longitude":81.8463,"temp":31.3,"humidity":51,"rain":0.0,"pressure":989.7,"uv_index":8.25,"wind_gusts":41.4,"aqi":124,"pm10":93.8,"pm2_5":48.7,"no2":30.3,"co":213.0,"o3":25.0,"so2":8.6,"mosquito_risk":0,"arthritis_risk":5,"migraine_risk":7,"frizz_risk":1,"updated_at":"2026-06-23T05:39:17.945121+05:30"},{"city":"Gorakhpur","state":"Uttar Pradesh","latitude":26.7606,"longitude":83.3732,"temp":27.6,"humidity":83,"rain":0.0,"pressure":990.7,"uv_index":8.3,"wind_gusts":37.1,"aqi":163,"pm10":95.0,"pm2_5":77.8,"no2":18.3,"co":674.0,"o3":82.0,"so2":13.7,"mosquito_risk":7,"arthritis_risk":5,"migraine_risk":7,"frizz_risk":1,"updated_at":"2026-06-23T05:39:17.945160+05:30"},{"city":"Bareilly","state":"Uttar Pradesh","latitude":28.367,"longitude":79.4304,"temp":28.5,"humidity":59,"rain":0.0,"pressure":980.7,"uv_index":8.1,"wind_gusts":32.8,"aqi":161,"pm10":262.6,"pm2_5":86.8,"no2":29.0,"co":411.0,"o3":40.0,"so2":15.8,"mosquito_risk":4,"arthritis_risk":5,"migraine_risk":7,"frizz_risk":1,"updated_at":"2026-06-23T05:39:17.945177+05:30"},{"city":"Aligarh","state":"Uttar Pradesh","latitude":27.8974,"longitude":78.088,"temp":27.8,"humidity":60,"rain":0.0,"pressure":979.8,"uv_index":7.95,"wind_gusts":31.7,"aqi":491,"pm10":247.7,"pm2_5":70.8,"no2":28.8,"co":338.0,"o3":33.0,"so2":9.0,"mosquito_risk":4,"arthritis_risk":5,"migraine_risk":7,"frizz_risk":1,"updated_at":"2026-06-23T05:39:17.945185+05:30"},{"city":"Moradabad","state":"Uttar Pradesh","latitude":28.8386,"longitude":78.7733,"temp":28.1,"humidity":59,"rain":0.0,"pressure":977.5,"uv_index":7.95,"wind_gusts":37.8,"aqi":166,"pm10":249.6,"pm2_5":85.9,"no2":27.3,"co":438.0,"o3":39.0,"so2":14.3,"mosquito_risk":4,"arthritis_risk":5,"migraine_risk":7,"frizz_risk":1,"updated_at":"2026-06-23T05:39:17.945198+05:30"},{"city":"Saharanpur","state":"Uttar Pradesh","latitude":29.9637,"longitude":77.546,"temp":25.8,"humidity":69,"rain":0.0,"pressure":969.9,"uv_index":7.45,"wind_gusts":34.2,"aqi":160,"pm10":386.5,"pm2_5":130.4,"no2":45.9,"co":388.0,"o3":22.0,"so2":11.7,"mosquito_risk":7,"arthritis_risk":5,"migraine_risk":7,"frizz_risk":1,"updated_at":"2026-06-23T05:39:17.945206+05:30"},{"city":"Jhansi","state":"Uttar Pradesh","latitude":25.4484,"longitude":78.5685,"temp":29.4,"humidity":58,"rain":0.0,"pressure":972.7,"uv_index":8.45,"wind_gusts":37.1,"aqi":92,"pm10":59.6,"pm2_5":34.0,"no2":8.0,"co":175.0,"o3":58.0,"so2":5.7,"mosquito_risk":4,"arthritis_risk":5,"migraine_risk":7,"frizz_risk":1,"updated_at":"2026-06-23T05:39:21.295421+05:30"},{"city":"Surat","state":"Gujarat","latitude":21.1702,"longitude":72.8311,"temp":26.0,"humidity":96,"rain":0.0,"pressure":1003.2,"uv_index":4.2,"wind_gusts":41.8,"aqi":61,"pm10":27.8,"pm2_5":19.6,"no2":29.5,"co":328.0,"o3":18.0,"so2":42.4,"mosquito_risk":7,"arthritis_risk":5,"migraine_risk":0,"frizz_risk":1,"updated_at":"2026-06-23T05:39:21.295456+05:30"},{"city":"Vadodara","state":"Gujarat","latitude":22.3072,"longitude":73.1812,"temp":28.9,"humidity":78,"rain":0.0,"pressure":1000.2,"uv_index":7.85,"wind_gusts":44.3,"aqi":54,"pm10":20.1,"pm2_5":13.4,"no2":14.5,"co":120.0,"o3":27.0,"so2":12.7,"mosquito_risk":7,"arthritis_risk":5,"migraine_risk":4,"frizz_risk":1,"updated_at":"2026-06-23T05:39:21.295466+05:30"},{"city":"Rajkot","state":"Gujarat","latitude":22.3039,"longitude":70.8022,"temp":27.7,"humidity":78,"rain":0.0,"pressure":990.1,"uv_index":7.55,"wind_gusts":44.3,"aqi":68,"pm10":41.0,"pm2_5":15.3,"no2":6.0,"co":106.0,"o3":38.0,"so2":5.7,"mosquito_risk":7,"arthritis_risk":5,"migraine_risk":7,"frizz_risk":1,"updated_at":"2026-06-23T05:39:21.295475+05:30"},{"city":"Thane","state":"Maharashtra","latitude":19.2183,"longitude":72.9781,"temp":24.6,"humidity":98,"rain":0.1,"pressure":1004.8,"uv_index":1.2,"wind_gusts":31.0,"aqi":38,"pm10":7.6,"pm2_5":6.2,"no2":12.5,"co":115.0,"o3":39.0,"so2":11.0,"mosquito_risk":6,"arthritis_risk":5,"migraine_risk":0,"frizz_risk":1,"updated_at":"2026-06-23T05:39:21.295483+05:30"},{"city":"Nagpur","state":"Maharashtra","latitude":21.1458,"longitude":79.0882,"temp":26.4,"humidity":80,"rain":0.0,"pressure":970.4,"uv_index":5.05,"wind_gusts":54.0,"aqi":63,"pm10":8.3,"pm2_5":8.0,"no2":12.4,"co":202.0,"o3":59.0,"so2":11.7,"mosquito_risk":7,"arthritis_risk":5,"migraine_risk":3,"frizz_risk":1,"updated_at":"2026-06-23T05:39:21.295491+05:30"},{"city":"Nashik","state":"Maharashtra","latitude":19.9975,"longitude":73.7898,"temp":23.0,"humidity":94,"rain":0.0,"pressure":942.2,"uv_index":5.65,"wind_gusts":38.2,"aqi":22,"pm10":6.7,"pm2_5":5.5,"no2":11.9,"co":114.0,"o3":32.0,"so2":15.0,"mosquito_risk":3,"arthritis_risk":5,"migraine_risk":3,"frizz_risk":1,"updated_at":"2026-06-23T05:39:21.295499+05:30"},{"city":"Aurangabad","state":"Maharashtra","latitude":19.8762,"longitude":75.3433,"temp":25.0,"humidity":81,"rain":0.0,"pressure":941.6,"uv_index":8.1,"wind_gusts":32.0,"aqi":28,"pm10":5.6,"pm2_5":5.5,"no2":9.2,"co":180.0,"o3":46.0,"so2":7.9,"mosquito_risk":7,"arthritis_risk":5,"migraine_risk":7,"frizz_risk":1,"updated_at":"2026-06-23T05:39:21.295507+05:30"},{"city":"Solapur","state":"Maharashtra","latitude":17.6599,"longitude":75.9064,"temp":26.3,"humidity":74,"rain":0.0,"pressure":955.5,"uv_index":6.6,"wind_gusts":56.9,"aqi":20,"pm10":4.4,"pm2_5":3.5,"no2":3.8,"co":144.0,"o3":40.0,"so2":1.4,"mosquito_risk":7,"arthritis_risk":5,"migraine_risk":7,"frizz_risk":1,"updated_at":"2026-06-23T05:39:21.295515+05:30"},{"city":"Kolhapur","state":"Maharashtra","latitude":16.705,"longitude":74.2433,"temp":23.0,"humidity":95,"rain":0.1,"pressure":945.5,"uv_index":8.35,"wind_gusts":56.9,"aqi":18,"pm10":2.6,"pm2_5":2.5,"no2":3.9,"co":124.0,"o3":39.0,"so2":1.8,"mosquito_risk":6,"arthritis_risk":5,"migraine_risk":7,"frizz_risk":1,"updated_at":"2026-06-23T05:39:21.295523+05:30"},{"city":"Goa","state":"Goa","latitude":15.2993,"longitude":74.124,"temp":24.4,"humidity":98,"rain":0.1,"pressure":997.1,"uv_index":3.55,"wind_gusts":35.3,"aqi":25,"pm10":11.1,"pm2_5":6.8,"no2":1.8,"co":132.0,"o3":45.0,"so2":0.5,"mosquito_risk":6,"arthritis_risk":5,"migraine_risk":3,"frizz_risk":1,"updated_at":"2026-06-23T05:39:21.295530+05:30"},{"city":"Jodhpur","state":"Rajasthan","latitude":26.2389,"longitude":73.0243,"temp":30.5,"humidity":52,"rain":0.0,"pressure":977.7,"uv_index":8.4,"wind_gusts":37.1,"aqi":126,"pm10":168.1,"pm2_5":44.1,"no2":6.7,"co":132.0,"o3":42.0,"so2":2.3,"mosquito_risk":0,"arthritis_risk":5,"migraine_risk":7,"frizz_risk":1,"updated_at":"2026-06-23T05:39:21.295538+05:30"},{"city":"Udaipur","state":"Rajasthan","latitude":24.5854,"longitude":73.7125,"temp":25.1,"humidity":82,"rain":0.0,"pressure":942.2,"uv_index":8.75,"wind_gusts":35.6,"aqi":68,"pm10":17.8,"pm2_5":11.6,"no2":14.0,"co":143.0,"o3":32.0,"so2":14.7,"mosquito_risk":7,"arthritis_risk":5,"migraine_risk":7,"frizz_risk":1,"updated_at":"2026-06-23T05:39:21.295545+05:30"},{"city":"Kota","state":"Rajasthan","latitude":25.2138,"longitude":75.8648,"temp":28.5,"humidity":62,"rain":0.0,"pressure":973.8,"uv_index":8.3,"wind_gusts":34.6,"aqi":86,"pm10":33.1,"pm2_5":21.0,"no2":9.0,"co":168.0,"o3":52.0,"so2":6.4,"mosquito_risk":7,"arthritis_risk":5,"migraine_risk":7,"frizz_risk":1,"updated_at":"2026-06-23T05:39:21.295552+05:30"},{"city":"Bikaner","state":"Rajasthan","latitude":28.0229,"longitude":73.3119,"temp":30.1,"humidity":50,"rain":0.0,"pressure":976.1,"uv_index":8.5,"wind_gusts":35.3,"aqi":142,"pm10":159.3,"pm2_5":44.5,"no2":4.2,"co":130.0,"o3":45.0,"so2":2.9,"mosquito_risk":0,"arthritis_risk":5,"migraine_risk":7,"frizz_risk":1,"updated_at":"2026-06-23T05:39:21.295559+05:30"},{"city":"Ajmer","state":"Rajasthan","latitude":26.4499,"longitude":74.6399,"temp":26.9,"humidity":52,"rain":0.0,"pressure":949.9,"uv_index":8.35,"wind_gusts":45.7,"aqi":96,"pm10":49.7,"pm2_5":24.5,"no2":12.8,"co":133.0,"o3":37.0,"so2":4.2,"mosquito_risk":4,"arthritis_risk":5,"migraine_risk":7,"frizz_risk":1,"updated_at":"2026-06-23T05:39:21.295566+05:30"},{"city":"Gwalior","state":"Madhya Pradesh","latitude":26.2183,"longitude":78.1828,"temp":28.5,"humidity":55,"rain":0.0,"pressure":977.9,"uv_index":8.25,"wind_gusts":42.1,"aqi":107,"pm10":76.8,"pm2_5":38.8,"no2":14.0,"co":187.0,"o3":36.0,"so2":3.4,"mosquito_risk":4,"arthritis_risk":5,"migraine_risk":7,"frizz_risk":1,"updated_at":"2026-06-23T05:39:21.295573+05:30"},{"city":"Indore","state":"Madhya Pradesh","latitude":22.7196,"longitude":75.8577,"temp":25.8,"humidity":76,"rain":0.0,"pressure":945.1,"uv_index":6.35,"wind_gusts":38.2,"aqi":61,"pm10":16.0,"pm2_5":14.9,"no2":7.9,"co":174.0,"o3":60.0,"so2":8.9,"mosquito_risk":7,"arthritis_risk":5,"migraine_risk":7,"frizz_risk":1,"updated_at":"2026-06-23T05:39:21.295580+05:30"},{"city":"Bhopal","state":"Madhya Pradesh","latitude":23.2599,"longitude":77.4126,"temp":24.8,"humidity":86,"rain":0.0,"pressure":950.3,"uv_index":6.65,"wind_gusts":38.2,"aqi":67,"pm10":15.5,"pm2_5":13.4,"no2":8.2,"co":280.0,"o3":48.0,"so2":2.9,"mosquito_risk":3,"arthritis_risk":5,"migraine_risk":7,"frizz_risk":1,"updated_at":"2026-06-23T05:39:21.295587+05:30"},{"city":"Jabalpur","state":"Madhya Pradesh","latitude":23.1815,"longitude":79.9864,"temp":28.0,"humidity":61,"rain":0.0,"pressure":957.8,"uv_index":6.9,"wind_gusts":34.6,"aqi":87,"pm10":21.8,"pm2_5":17.1,"no2":10.2,"co":211.0,"o3":47.0,"so2":3.6,"mosquito_risk":7,"arthritis_risk":5,"migraine_risk":7,"frizz_risk":1,"updated_at":"2026-06-23T05:39:21.295594+05:30"},{"city":"Ujjain","state":"Madhya Pradesh","latitude":23.1765,"longitude":75.7885,"temp":26.1,"humidity":73,"rain":0.0,"pressure":950.5,"uv_index":8.1,"wind_gusts":35.6,"aqi":63,"pm10":15.9,"pm2_5":14.9,"no2":8.4,"co":228.0,"o3":54.0,"so2":12.9,"mosquito_risk":7,"arthritis_risk":5,"migraine_risk":7,"frizz_risk":1,"updated_at":"2026-06-23T05:39:21.295601+05:30"},{"city":"Visakhapatnam","state":"Andhra Pradesh","latitude":17.6868,"longitude":83.2185,"temp":28.4,"humidity":80,"rain":0.0,"pressure":999.6,"uv_index":8.55,"wind_gusts":32.4,"aqi":90,"pm10":29.0,"pm2_5":27.7,"no2":21.8,"co":322.0,"o3":64.0,"so2":37.8,"mosquito_risk":7,"arthritis_risk":5,"migraine_risk":7,"frizz_risk":1,"updated_at":"2026-06-23T05:39:21.295609+05:30"},{"city":"Vijayawada","state":"Andhra Pradesh","latitude":16.5062,"longitude":80.648,"temp":27.2,"humidity":78,"rain":0.0,"pressure":999.8,"uv_index":5.8,"wind_gusts":38.5,"aqi":82,"pm10":26.3,"pm2_5":25.6,"no2":13.5,"co":236.0,"o3":52.0,"so2":4.5,"mosquito_risk":7,"arthritis_risk":5,"migraine_risk":3,"frizz_risk":1,"updated_at":"2026-06-23T05:39:21.295615+05:30"},{"city":"Guntur","state":"Andhra Pradesh","latitude":16.3067,"longitude":80.4365,"temp":27.2,"humidity":76,"rain":0.0,"pressure":1001.1,"uv_index":5.55,"wind_gusts":39.2,"aqi":75,"pm10":18.3,"pm2_5":17.8,"no2":13.4,"co":201.0,"o3":44.0,"so2":5.4,"mosquito_risk":7,"arthritis_risk":5,"migraine_risk":0,"frizz_risk":1,"updated_at":"2026-06-23T05:39:21.295622+05:30"},{"city":"Nellore","state":"Andhra Pradesh","latitude":14.4426,"longitude":79.9865,"temp":27.2,"humidity":78,"rain":0.0,"pressure":1003.6,"uv_index":8.3,"wind_gusts":37.1,"aqi":59,"pm10":7.8,"pm2_5":7.1,"no2":8.9,"co":133.0,"o3":44.0,"so2":5.4,"mosquito_risk":7,"arthritis_risk":5,"migraine_risk":4,"frizz_risk":1,"updated_at":"2026-06-23T05:39:21.295630+05:30"},{"city":"Kurnool","state":"Andhra Pradesh","latitude":15.8281,"longitude":78.0373,"temp":26.5,"humidity":75,"rain":0.0,"pressure":975.9,"uv_index":7.8,"wind_gusts":46.1,"aqi":24,"pm10":4.2,"pm2_5":3.6,"no2":7.3,"co":137.0,"o3":32.0,"so2":3.6,"mosquito_risk":7,"arthritis_risk":5,"migraine_risk":7,"frizz_risk":1,"updated_at":"2026-06-23T05:39:21.295639+05:30"},{"city":"Kakinada","state":"Andhra Pradesh","latitude":16.9891,"longitude":82.2475,"temp":28.2,"humidity":82,"rain":0.0,"pressure":1004.2,"uv_index":7.9,"wind_gusts":42.1,"aqi":76,"pm10":18.8,"pm2_5":16.8,"no2":5.3,"co":208.0,"o3":97.0,"so2":6.0,"mosquito_risk":7,"arthritis_risk":5,"migraine_risk":4,"frizz_risk":1,"updated_at":"2026-06-23T05:39:21.295646+05:30"},{"city":"Tirupati","state":"Andhra Pradesh","latitude":13.6288,"longitude":79.4192,"temp":25.8,"humidity":80,"rain":0.0,"pressure":989.0,"uv_index":7.7,"wind_gusts":37.8,"aqi":53,"pm10":9.4,"pm2_5":8.6,"no2":15.6,"co":164.0,"o3":24.0,"so2":2.7,"mosquito_risk":7,"arthritis_risk":5,"migraine_risk":7,"frizz_risk":1,"updated_at":"2026-06-23T05:39:21.295653+05:30"},{"city":"Warangal","state":"Telangana","latitude":17.9689,"longitude":79.5941,"temp":25.0,"humidity":93,"rain":0.0,"pressure":975.9,"uv_index":9.0,"wind_gusts":37.1,"aqi":54,"pm10":13.5,"pm2_5":13.2,"no2":14.2,"co":201.0,"o3":41.0,"so2":4.8,"mosquito_risk":7,"arthritis_risk":5,"migraine_risk":7,"frizz_risk":1,"updated_at":"2026-06-23T05:39:21.295660+05:30"},{"city":"Nizamabad","state":"Telangana","latitude":18.6725,"longitude":78.0941,"temp":26.2,"humidity":79,"rain":0.0,"pressure":962.5,"uv_index":7.75,"wind_gusts":59.0,"aqi":29,"pm10":7.0,"pm2_5":6.7,"no2":8.8,"co":151.0,"o3":44.0,"so2":4.0,"mosquito_risk":7,"arthritis_risk":5,"migraine_risk":7,"frizz_risk":1,"updated_at":"2026-06-23T05:39:21.295667+05:30"},{"city":"Mysore","state":"Karnataka","latitude":12.2958,"longitude":76.6396,"temp":21.4,"humidity":93,"rain":0.0,"pressure":927.6,"uv_index":8.05,"wind_gusts":47.2,"aqi":18,"pm10":1.8,"pm2_5":1.7,"no2":3.9,"co":120.0,"o3":39.0,"so2":1.7,"mosquito_risk":3,"arthritis_risk":5,"migraine_risk":7,"frizz_risk":1,"updated_at":"2026-06-23T05:39:21.295675+05:30"},{"city":"Mangalore","state":"Karnataka","latitude":12.9141,"longitude":74.856,"temp":24.1,"humidity":98,"rain":0.0,"pressure":1007.2,"uv_index":7.85,"wind_gusts":36.7,"aqi":25,"pm10":11.4,"pm2_5":6.9,"no2":2.9,"co":128.0,"o3":40.0,"so2":1.3,"mosquito_risk":3,"arthritis_risk":5,"migraine_risk":4,"frizz_risk":1,"updated_at":"2026-06-23T05:39:21.295682+05:30"},{"city":"Hubli-Dharwad","state":"Karnataka","latitude":15.3647,"longitude":75.124,"temp":22.0,"humidity":96,"rain":0.0,"pressure":939.4,"uv_index":7.55,"wind_gusts":63.4,"aqi":21,"pm10":0.8,"pm2_5":0.7,"no2":1.7,"co":92.0,"o3":45.0,"so2":0.6,"mosquito_risk":3,"arthritis_risk":5,"migraine_risk":7,"frizz_risk":1,"updated_at":"2026-06-23T05:39:21.295689+05:30"},{"city":"Belgaum","state":"Karnataka","latitude":15.8497,"longitude":74.4977,"temp":21.5,"humidity":98,"rain":0.0,"pressure":923.5,"uv_index":8.6,"wind_gusts":51.5,"aqi":20,"pm10":1.5,"pm2_5":1.4,"no2":3.5,"co":112.0,"o3":38.0,"so2":1.2,"mosquito_risk":3,"arthritis_risk":5,"migraine_risk":7,"frizz_risk":1,"updated_at":"2026-06-23T05:39:24.662495+05:30"},{"city":"Coimbatore","state":"Tamil Nadu","latitude":11.0168,"longitude":76.9558,"temp":22.2,"humidity":97,"rain":0.0,"pressure":960.8,"uv_index":8.0,"wind_gusts":51.5,"aqi":19,"pm10":3.1,"pm2_5":2.6,"no2":4.1,"co":122.0,"o3":38.0,"so2":2.2,"mosquito_risk":3,"arthritis_risk":5,"migraine_risk":7,"frizz_risk":1,"updated_at":"2026-06-23T05:39:24.662530+05:30"},{"city":"Madurai","state":"Tamil Nadu","latitude":9.9252,"longitude":78.1198,"temp":26.5,"humidity":68,"rain":0.0,"pressure":992.1,"uv_index":8.25,"wind_gusts":44.6,"aqi":58,"pm10":29.3,"pm2_5":28.9,"no2":32.5,"co":213.0,"o3":1.0,"so2":6.3,"mosquito_risk":7,"arthritis_risk":5,"migraine_risk":7,"frizz_risk":1,"updated_at":"2026-06-23T05:39:24.662542+05:30"},{"city":"Trichy","state":"Tamil Nadu","latitude":10.7905,"longitude":78.7047,"temp":27.2,"humidity":70,"rain":0.0,"pressure":999.1,"uv_index":7.8,"wind_gusts":52.9,"aqi":23,"pm10":4.5,"pm2_5":3.6,"no2":6.1,"co":116.0,"o3":36.0,"so2":2.7,"mosquito_risk":7,"arthritis_risk":5,"migraine_risk":7,"frizz_risk":1,"updated_at":"2026-06-23T05:39:24.662551+05:30"},{"city":"Salem","state":"Tamil Nadu","latitude":11.6643,"longitude":78.146,"temp":24.3,"humidity":89,"rain":0.0,"pressure":976.9,"uv_index":8.1,"wind_gusts":43.9,"aqi":39,"pm10":12.8,"pm2_5":11.7,"no2":17.5,"co":274.0,"o3":25.0,"so2":6.6,"mosquito_risk":3,"arthritis_risk":5,"migraine_risk":7,"frizz_risk":1,"updated_at":"2026-06-23T05:39:24.662561+05:30"},{"city":"Tirunelveli","state":"Tamil Nadu","latitude":8.7139,"longitude":77.7567,"temp":27.2,"humidity":71,"rain":0.0,"pressure":1003.0,"uv_index":2.9,"wind_gusts":43.9,"aqi":16,"pm10":6.0,"pm2_5":5.0,"no2":6.8,"co":128.0,"o3":29.0,"so2":2.1,"mosquito_risk":7,"arthritis_risk":5,"migraine_risk":0,"frizz_risk":1,"updated_at":"2026-06-23T05:39:24.662568+05:30"},{"city":"Vellore","state":"Tamil Nadu","latitude":12.9165,"longitude":79.1325,"temp":26.3,"humidity":70,"rain":0.0,"pressure":982.6,"uv_index":6.9,"wind_gusts":41.4,"aqi":42,"pm10":7.9,"pm2_5":7.3,"no2":12.9,"co":168.0,"o3":27.0,"so2":4.3,"mosquito_risk":7,"arthritis_risk":5,"migraine_risk":7,"frizz_risk":1,"updated_at":"2026-06-23T05:39:24.662576+05:30"},{"city":"Erode","state":"Tamil Nadu","latitude":11.341,"longitude":77.7172,"temp":25.0,"humidity":81,"rain":0.0,"pressure":988.8,"uv_index":7.75,"wind_gusts":32.8,"aqi":29,"pm10":9.3,"pm2_5":8.3,"no2":11.7,"co":133.0,"o3":30.0,"so2":3.3,"mosquito_risk":7,"arthritis_risk":5,"migraine_risk":7,"frizz_risk":1,"updated_at":"2026-06-23T05:39:24.662584+05:30"},{"city":"Kochi","state":"Kerala","latitude":9.9312,"longitude":76.2673,"temp":25.0,"humidity":96,"rain":0.0,"pressure":1009.8,"uv_index":8.4,"wind_gusts":37.4,"aqi":38,"pm10":10.8,"pm2_5":8.9,"no2":11.1,"co":87.0,"o3":24.0,"so2":4.0,"mosquito_risk":7,"arthritis_risk":0,"migraine_risk":4,"frizz_risk":1,"updated_at":"2026-06-23T05:39:24.662592+05:30"},{"city":"Thiruvananthapuram","state":"Kerala","latitude":8.5241,"longitude":76.9366,"temp":24.3,"humidity":98,"rain":0.0,"pressure":1009.3,"uv_index":8.0,"wind_gusts":46.8,"aqi":20,"pm10":11.0,"pm2_5":6.7,"no2":3.8,"co":105.0,"o3":43.0,"so2":2.0,"mosquito_risk":3,"arthritis_risk":0,"migraine_risk":4,"frizz_risk":1,"updated_at":"2026-06-23T05:39:24.662599+05:30"},{"city":"Kozhikode","state":"Kerala","latitude":11.2588,"longitude":75.7804,"temp":23.4,"humidity":99,"rain":0.0,"pressure":1009.2,"uv_index":7.65,"wind_gusts":35.6,"aqi":25,"pm10":7.6,"pm2_5":3.9,"no2":0.6,"co":122.0,"o3":54.0,"so2":0.4,"mosquito_risk":3,"arthritis_risk":0,"migraine_risk":4,"frizz_risk":1,"updated_at":"2026-06-23T05:39:24.662606+05:30"},{"city":"Thrissur","state":"Kerala","latitude":10.5276,"longitude":76.2144,"temp":23.8,"humidity":99,"rain":0.0,"pressure":1008.2,"uv_index":7.65,"wind_gusts":35.3,"aqi":38,"pm10":11.0,"pm2_5":9.1,"no2":8.3,"co":175.0,"o3":29.0,"so2":2.8,"mosquito_risk":3,"arthritis_risk":0,"migraine_risk":4,"frizz_risk":1,"updated_at":"2026-06-23T05:39:24.662614+05:30"},{"city":"Kannur","state":"Kerala","latitude":11.8745,"longitude":75.3704,"temp":24.0,"humidity":97,"rain":0.1,"pressure":1007.8,"uv_index":6.4,"wind_gusts":34.9,"aqi":20,"pm10":7.8,"pm2_5":5.1,"no2":3.8,"co":120.0,"o3":38.0,"so2":1.3,"mosquito_risk":6,"arthritis_risk":5,"migraine_risk":4,"frizz_risk":1,"updated_at":"2026-06-23T05:39:24.662621+05:30"},{"city":"Patna","state":"Bihar","latitude":25.5941,"longitude":85.1376,"temp":26.7,"humidity":95,"rain":0.0,"pressure":994.1,"uv_index":8.6,"wind_gusts":32.0,"aqi":151,"pm10":81.3,"pm2_5":66.6,"no2":24.1,"co":632.0,"o3":44.0,"so2":11.7,"mosquito_risk":7,"arthritis_risk":5,"migraine_risk":7,"frizz_risk":1,"updated_at":"2026-06-23T05:39:24.662629+05:30"},{"city":"Gaya","state":"Bihar","latitude":24.7914,"longitude":85.0002,"temp":28.9,"humidity":71,"rain":0.0,"pressure":987.4,"uv_index":8.6,"wind_gusts":37.4,"aqi":99,"pm10":51.1,"pm2_5":36.1,"no2":15.1,"co":255.0,"o3":60.0,"so2":12.1,"mosquito_risk":7,"arthritis_risk":5,"migraine_risk":7,"frizz_risk":1,"updated_at":"2026-06-23T05:39:24.662636+05:30"},{"city":"Muzaffarpur","state":"Bihar","latitude":26.1209,"longitude":85.3647,"temp":25.5,"humidity":93,"rain":0.0,"pressure":994.4,"uv_index":8.85,"wind_gusts":26.3,"aqi":156,"pm10":93.1,"pm2_5":79.4,"no2":18.2,"co":487.0,"o3":64.0,"so2":13.5,"mosquito_risk":7,"arthritis_risk":5,"migraine_risk":7,"frizz_risk":1,"updated_at":"2026-06-23T05:39:24.662642+05:30"},{"city":"Bhagalpur","state":"Bihar","latitude":25.2425,"longitude":87.0117,"temp":26.5,"humidity":96,"rain":0.0,"pressure":995.2,"uv_index":8.85,"wind_gusts":22.3,"aqi":150,"pm10":72.9,"pm2_5":53.1,"no2":16.5,"co":335.0,"o3":56.0,"so2":9.3,"mosquito_risk":7,"arthritis_risk":5,"migraine_risk":7,"frizz_risk":1,"updated_at":"2026-06-23T05:39:24.662649+05:30"},{"city":"Ranchi","state":"Jharkhand","latitude":23.3441,"longitude":85.3096,"temp":24.1,"humidity":83,"rain":0.0,"pressure":932.4,"uv_index":8.95,"wind_gusts":37.8,"aqi":83,"pm10":36.1,"pm2_5":28.0,"no2":10.1,"co":246.0,"o3":67.0,"so2":6.7,"mosquito_risk":3,"arthritis_risk":5,"migraine_risk":7,"frizz_risk":1,"updated_at":"2026-06-23T05:39:24.662656+05:30"},{"city":"Jamshedpur","state":"Jharkhand","latitude":22.8046,"longitude":86.2029,"temp":26.0,"humidity":84,"rain":0.0,"pressure":985.5,"uv_index":9.1,"wind_gusts":43.2,"aqi":113,"pm10":33.8,"pm2_5":28.4,"no2":13.1,"co":302.0,"o3":81.0,"so2":19.9,"mosquito_risk":7,"arthritis_risk":5,"migraine_risk":7,"frizz_risk":1,"updated_at":"2026-06-23T05:39:24.662663+05:30"},{"city":"Dhanbad","state":"Jharkhand","latitude":23.7957,"longitude":86.4304,"temp":26.3,"humidity":87,"rain":0.0,"pressure":974.3,"uv_index":9.1,"wind_gusts":27.0,"aqi":153,"pm10":69.6,"pm2_5":57.6,"no2":47.2,"co":249.0,"o3":35.0,"so2":106.5,"mosquito_risk":7,"arthritis_risk":5,"migraine_risk":7,"frizz_risk":1,"updated_at":"2026-06-23T05:39:24.662670+05:30"},{"city":"Bokaro","state":"Jharkhand","latitude":23.6693,"longitude":86.1511,"temp":26.7,"humidity":82,"rain":0.0,"pressure":977.8,"uv_index":8.85,"wind_gusts":29.9,"aqi":131,"pm10":56.5,"pm2_5":44.0,"no2":29.9,"co":272.0,"o3":47.0,"so2":77.9,"mosquito_risk":7,"arthritis_risk":5,"migraine_risk":7,"frizz_risk":1,"updated_at":"2026-06-23T05:39:24.662676+05:30"},{"city":"Bhubaneswar","state":"Odisha","latitude":20.2961,"longitude":85.8245,"temp":27.5,"humidity":93,"rain":0.0,"pressure":997.7,"uv_index":9.05,"wind_gusts":33.1,"aqi":76,"pm10":30.7,"pm2_5":29.7,"no2":16.5,"co":367.0,"o3":49.0,"so2":7.1,"mosquito_risk":7,"arthritis_risk":5,"migraine_risk":7,"frizz_risk":1,"updated_at":"2026-06-23T05:39:24.662684+05:30"},{"city":"Cuttack","state":"Odisha","latitude":20.4625,"longitude":85.8828,"temp":27.4,"humidity":87,"rain":0.0,"pressure":999.4,"uv_index":9.05,"wind_gusts":36.7,"aqi":76,"pm10":30.7,"pm2_5":29.7,"no2":16.5,"co":340.0,"o3":49.0,"so2":7.1,"mosquito_risk":7,"arthritis_risk":5,"migraine_risk":7,"frizz_risk":1,"updated_at":"2026-06-23T05:39:24.662691+05:30"},{"city":"Rourkela","state":"Odisha","latitude":22.2604,"longitude":84.8536,"temp":26.3,"humidity":85,"rain":0.0,"pressure":980.4,"uv_index":9.0,"wind_gusts":38.5,"aqi":98,"pm10":41.0,"pm2_5":37.1,"no2":12.9,"co":309.0,"o3":61.0,"so2":9.6,"mosquito_risk":7,"arthritis_risk":5,"migraine_risk":7,"frizz_risk":1,"updated_at":"2026-06-23T05:39:24.662699+05:30"},{"city":"Raipur","state":"Chhattisgarh","latitude":21.2514,"longitude":81.6296,"temp":27.5,"humidity":68,"rain":0.0,"pressure":971.2,"uv_index":8.95,"wind_gusts":45.0,"aqi":87,"pm10":20.7,"pm2_5":20.2,"no2":23.7,"co":589.0,"o3":63.0,"so2":41.5,"mosquito_risk":7,"arthritis_risk":5,"migraine_risk":7,"frizz_risk":1,"updated_at":"2026-06-23T05:39:24.662706+05:30"},{"city":"Bhilai","state":"Chhattisgarh","latitude":21.1938,"longitude":81.3509,"temp":27.1,"humidity":69,"rain":0.0,"pressure":971.7,"uv_index":8.9,"wind_gusts":44.3,"aqi":83,"pm10":19.3,"pm2_5":18.9,"no2":19.9,"co":733.0,"o3":62.0,"so2":34.8,"mosquito_risk":7,"arthritis_risk":5,"migraine_risk":7,"frizz_risk":1,"updated_at":"2026-06-23T05:39:24.662712+05:30"},{"city":"Guwahati","state":"Assam","latitude":26.1158,"longitude":91.7086,"temp":24.7,"humidity":99,"rain":0.0,"pressure":996.8,"uv_index":8.7,"wind_gusts":29.9,"aqi":80,"pm10":27.6,"pm2_5":21.9,"no2":6.5,"co":331.0,"o3":73.0,"so2":3.0,"mosquito_risk":3,"arthritis_risk":5,"migraine_risk":7,"frizz_risk":1,"updated_at":"2026-06-23T05:39:24.662719+05:30"},{"city":"Agartala","state":"Tripura","latitude":23.8315,"longitude":91.2868,"temp":25.1,"humidity":96,"rain":0.0,"pressure":1001.7,"uv_index":8.65,"wind_gusts":38.2,"aqi":66,"pm10":15.5,"pm2_5":14.2,"no2":13.3,"co":198.0,"o3":48.0,"so2":4.6,"mosquito_risk":7,"arthritis_risk":5,"migraine_risk":4,"frizz_risk":1,"updated_at":"2026-06-23T05:39:24.662726+05:30"},{"city":"Shillong","state":"Meghalaya","latitude":25.5788,"longitude":91.8933,"temp":19.3,"humidity":92,"rain":0.0,"pressure":853.7,"uv_index":7.85,"wind_gusts":29.2,"aqi":57,"pm10":10.4,"pm2_5":8.5,"no2":3.5,"co":206.0,"o3":84.0,"so2":2.6,"mosquito_risk":3,"arthritis_risk":10,"migraine_risk":7,"frizz_risk":1,"updated_at":"2026-06-23T05:39:24.662733+05:30"},{"city":"Imphal","state":"Manipur","latitude":24.817,"longitude":93.9368,"temp":22.3,"humidity":97,"rain":0.0,"pressure":919.5,"uv_index":9.1,"wind_gusts":29.2,"aqi":72,"pm10":24.2,"pm2_5":22.7,"no2":7.9,"co":334.0,"o3":42.0,"so2":2.4,"mosquito_risk":3,"arthritis_risk":5,"migraine_risk":7,"frizz_risk":1,"updated_at":"2026-06-23T05:39:24.662739+05:30"},{"city":"Aizawl","state":"Mizoram","latitude":23.7271,"longitude":92.7176,"temp":19.5,"humidity":95,"rain":0.0,"pressure":888.7,"uv_index":8.2,"wind_gusts":28.1,"aqi":19,"pm10":4.1,"pm2_5":4.1,"no2":4.8,"co":161.0,"o3":31.0,"so2":0.5,"mosquito_risk":3,"arthritis_risk":10,"migraine_risk":7,"frizz_risk":1,"updated_at":"2026-06-23T05:39:24.662746+05:30"},{"city":"Kohima","state":"Nagaland","latitude":25.6701,"longitude":94.1077,"temp":19.5,"humidity":96,"rain":0.0,"pressure":851.8,"uv_index":6.95,"wind_gusts":22.3,"aqi":55,"pm10":19.0,"pm2_5":15.5,"no2":5.4,"co":230.0,"o3":41.0,"so2":1.0,"mosquito_risk":3,"arthritis_risk":10,"migraine_risk":7,"frizz_risk":1,"updated_at":"2026-06-23T05:39:24.662753+05:30"},{"city":"Gangtok","state":"Sikkim","latitude":27.3314,"longitude":88.6138,"temp":17.1,"humidity":96,"rain":0.1,"pressure":832.9,"uv_index":9.05,"wind_gusts":34.9,"aqi":53,"pm10":13.1,"pm2_5":10.0,"no2":6.0,"co":405.0,"o3":110.0,"so2":3.3,"mosquito_risk":6,"arthritis_risk":10,"migraine_risk":7,"frizz_risk":1,"updated_at":"2026-06-23T05:39:24.662760+05:30"},{"city":"Siliguri","state":"West Bengal","latitude":26.7271,"longitude":88.3953,"temp":23.8,"humidity":97,"rain":0.0,"pressure":987.9,"uv_index":8.8,"wind_gusts":20.9,"aqi":81,"pm10":33.8,"pm2_5":25.1,"no2":8.2,"co":494.0,"o3":117.0,"so2":6.0,"mosquito_risk":3,"arthritis_risk":5,"migraine_risk":7,"frizz_risk":1,"updated_at":"2026-06-23T05:39:28.023967+05:30"},{"city":"Durgapur","state":"West Bengal","latitude":23.5204,"longitude":87.3119,"temp":26.6,"humidity":90,"rain":0.0,"pressure":989.3,"uv_index":9.0,"wind_gusts":29.2,"aqi":157,"pm10":87.8,"pm2_5":82.7,"no2":53.3,"co":1090.0,"o3":19.0,"so2":58.3,"mosquito_risk":7,"arthritis_risk":5,"migraine_risk":7,"frizz_risk":1,"updated_at":"2026-06-23T05:39:28.024009+05:30"},{"city":"Asansol","state":"West Bengal","latitude":23.6739,"longitude":86.9524,"temp":26.5,"humidity":89,"rain":0.0,"pressure":987.8,"uv_index":9.05,"wind_gusts":30.6,"aqi":153,"pm10":75.2,"pm2_5":65.9,"no2":50.5,"co":995.0,"o3":29.0,"so2":64.6,"mosquito_risk":7,"arthritis_risk":5,"migraine_risk":7,"frizz_risk":1,"updated_at":"2026-06-23T05:39:28.024021+05:30"},{"city":"Pondicherry","state":"Puducherry","latitude":11.9139,"longitude":79.8145,"temp":28.1,"humidity":65,"rain":0.0,"pressure":1006.7,"uv_index":7.55,"wind_gusts":40.3,"aqi":56,"pm10":18.6,"pm2_5":17.3,"no2":21.0,"co":308.0,"o3":30.0,"so2":10.4,"mosquito_risk":7,"arthritis_risk":5,"migraine_risk":4,"frizz_risk":1,"updated_at":"2026-06-23T05:39:28.024031+05:30"},{"city":"Port Blair","state":"Andaman and Nicobar Islands","latitude":11.6234,"longitude":92.7265,"temp":27.5,"humidity":81,"rain":0.0,"pressure":1006.7,"uv_index":8.75,"wind_gusts":45.0,"aqi":25,"pm10":9.6,"pm2_5":5.4,"no2":0.2,"co":98.0,"o3":42.0,"so2":0.2,"mosquito_risk":7,"arthritis_risk":5,"migraine_risk":4,"frizz_risk":1,"updated_at":"2026-06-23T05:39:28.024040+05:30"},{"city":"Haridwar","state":"Uttarakhand","latitude":29.9457,"longitude":78.1642,"temp":24.0,"humidity":80,"rain":0.0,"pressure":967.9,"uv_index":7.6,"wind_gusts":28.4,"aqi":125,"pm10":160.7,"pm2_5":74.0,"no2":39.9,"co":386.0,"o3":36.0,"so2":12.9,"mosquito_risk":3,"arthritis_risk":5,"migraine_risk":7,"frizz_risk":1,"updated_at":"2026-06-23T05:39:28.024048+05:30"},{"city":"Rishikesh","state":"Uttarakhand","latitude":30.0869,"longitude":78.2676,"temp":21.8,"humidity":89,"rain":0.0,"pressure":960.5,"uv_index":7.7,"wind_gusts":23.4,"aqi":93,"pm10":64.7,"pm2_5":39.3,"no2":12.6,"co":397.0,"o3":97.0,"so2":8.7,"mosquito_risk":3,"arthritis_risk":5,"migraine_risk":7,"frizz_risk":1,"updated_at":"2026-06-23T05:39:28.024057+05:30"},{"city":"Nainital","state":"Uttarakhand","latitude":29.3919,"longitude":79.4542,"temp":13.4,"humidity":98,"rain":0.0,"pressure":800.4,"uv_index":6.65,"wind_gusts":33.8,"aqi":109,"pm10":28.8,"pm2_5":23.3,"no2":13.5,"co":302.0,"o3":71.0,"so2":2.2,"mosquito_risk":3,"arthritis_risk":10,"migraine_risk":7,"frizz_risk":0,"updated_at":"2026-06-23T05:39:28.024065+05:30"},{"city":"Mussoorie","state":"Uttarakhand","latitude":30.4599,"longitude":78.0664,"temp":15.0,"humidity":76,"rain":0.0,"pressure":798.4,"uv_index":7.25,"wind_gusts":40.0,"aqi":83,"pm10":43.5,"pm2_5":36.1,"no2":31.1,"co":262.0,"o3":41.0,"so2":4.8,"mosquito_risk":3,"arthritis_risk":5,"migraine_risk":7,"frizz_risk":0,"updated_at":"2026-06-23T05:39:28.024074+05:30"},{"city":"Dharamshala","state":"Himachal Pradesh","latitude":32.219,"longitude":76.3234,"temp":21.1,"humidity":57,"rain":0.0,"pressure":864.9,"uv_index":8.5,"wind_gusts":40.7,"aqi":43,"pm10":9.7,"pm2_5":7.8,"no2":10.7,"co":231.0,"o3":74.0,"so2":0.1,"mosquito_risk":0,"arthritis_risk":5,"migraine_risk":7,"frizz_risk":0,"updated_at":"2026-06-23T05:39:28.024082+05:30"},{"city":"Dalhousie","state":"Himachal Pradesh","latitude":32.5387,"longitude":75.971,"temp":11.9,"humidity":86,"rain":0.0,"pressure":798.0,"uv_index":8.8,"wind_gusts":37.8,"aqi":75,"pm10":27.0,"pm2_5":23.3,"no2":28.0,"co":238.0,"o3":20.0,"so2":0.7,"mosquito_risk":3,"arthritis_risk":10,"migraine_risk":7,"frizz_risk":0,"updated_at":"2026-06-23T05:39:28.024091+05:30"},{"city":"Patiala","state":"Punjab","latitude":30.3398,"longitude":76.3869,"temp":27.0,"humidity":67,"rain":0.0,"pressure":972.5,"uv_index":7.7,"wind_gusts":32.4,"aqi":300,"pm10":351.1,"pm2_5":85.4,"no2":22.5,"co":300.0,"o3":48.0,"so2":7.1,"mosquito_risk":7,"arthritis_risk":5,"migraine_risk":7,"frizz_risk":1,"updated_at":"2026-06-23T05:39:28.024099+05:30"},{"city":"Bhatinda","state":"Punjab","latitude":30.211,"longitude":74.9455,"temp":27.9,"humidity":61,"rain":0.0,"pressure":978.0,"uv_index":8.3,"wind_gusts":28.8,"aqi":104,"pm10":117.6,"pm2_5":62.2,"no2":61.4,"co":411.0,"o3":10.0,"so2":5.3,"mosquito_risk":7,"arthritis_risk":5,"migraine_risk":7,"frizz_risk":1,"updated_at":"2026-06-23T05:39:28.024106+05:30"},{"city":"Rohtak","state":"Haryana","latitude":28.8955,"longitude":76.6066,"temp":26.5,"humidity":70,"rain":0.0,"pressure":976.0,"uv_index":7.75,"wind_gusts":33.1,"aqi":447,"pm10":174.2,"pm2_5":52.9,"no2":38.1,"co":254.0,"o3":24.0,"so2":5.6,"mosquito_risk":7,"arthritis_risk":5,"migraine_risk":7,"frizz_risk":1,"updated_at":"2026-06-23T05:39:28.024114+05:30"},{"city":"Panipat","state":"Haryana","latitude":29.3909,"longitude":76.9635,"temp":26.6,"humidity":70,"rain":0.0,"pressure":974.7,"uv_index":7.65,"wind_gusts":32.4,"aqi":1439,"pm10":512.2,"pm2_5":109.7,"no2":32.4,"co":316.0,"o3":32.0,"so2":7.7,"mosquito_risk":7,"arthritis_risk":5,"migraine_risk":7,"frizz_risk":1,"updated_at":"2026-06-23T05:39:28.024121+05:30"},{"city":"Mathura","state":"Uttar Pradesh","latitude":27.4924,"longitude":77.6737,"temp":27.4,"humidity":65,"rain":0.0,"pressure":981.2,"uv_index":8.05,"wind_gusts":39.2,"aqi":598,"pm10":108.5,"pm2_5":41.7,"no2":33.9,"co":320.0,"o3":16.0,"so2":4.2,"mosquito_risk":7,"arthritis_risk":5,"migraine_risk":7,"frizz_risk":1,"updated_at":"2026-06-23T05:39:28.024153+05:30"},{"city":"Vrindavan","state":"Uttar Pradesh","latitude":27.5823,"longitude":77.7027,"temp":27.0,"humidity":68,"rain":0.0,"pressure":981.6,"uv_index":8.05,"wind_gusts":38.5,"aqi":598,"pm10":108.5,"pm2_5":41.7,"no2":33.9,"co":310.0,"o3":16.0,"so2":4.2,"mosquito_risk":7,"arthritis_risk":5,"migraine_risk":7,"frizz_risk":1,"updated_at":"2026-06-23T05:39:28.024162+05:30"},{"city":"Ayodhya","state":"Uttar Pradesh","latitude":26.7922,"longitude":82.1998,"temp":28.1,"humidity":83,"rain":0.0,"pressure":988.3,"uv_index":8.4,"wind_gusts":36.0,"aqi":159,"pm10":112.9,"pm2_5":59.3,"no2":25.2,"co":1000.0,"o3":49.0,"so2":13.5,"mosquito_risk":7,"arthritis_risk":5,"migraine_risk":7,"frizz_risk":1,"updated_at":"2026-06-23T05:39:28.024170+05:30"},{"city":"Ratlam","state":"Madhya Pradesh","latitude":23.3315,"longitude":75.0367,"temp":25.0,"humidity":83,"rain":0.0,"pressure":951.3,"uv_index":7.5,"wind_gusts":34.2,"aqi":61,"pm10":14.2,"pm2_5":12.5,"no2":10.9,"co":210.0,"o3":39.0,"so2":16.0,"mosquito_risk":7,"arthritis_risk":5,"migraine_risk":7,"frizz_risk":1,"updated_at":"2026-06-23T05:39:28.024178+05:30"},{"city":"Sagar","state":"Madhya Pradesh","latitude":23.8388,"longitude":78.7378,"temp":26.7,"humidity":69,"rain":0.0,"pressure":946.3,"uv_index":5.95,"wind_gusts":38.9,"aqi":90,"pm10":24.7,"pm2_5":18.6,"no2":8.8,"co":253.0,"o3":48.0,"so2":3.2,"mosquito_risk":7,"arthritis_risk":5,"migraine_risk":3,"frizz_risk":1,"updated_at":"2026-06-23T05:39:28.024186+05:30"},{"city":"Satna","state":"Madhya Pradesh","latitude":24.6005,"longitude":80.8322,"temp":29.2,"humidity":58,"rain":0.0,"pressure":966.3,"uv_index":8.8,"wind_gusts":39.2,"aqi":86,"pm10":48.4,"pm2_5":30.7,"no2":9.3,"co":175.0,"o3":54.0,"so2":4.2,"mosquito_risk":4,"arthritis_risk":5,"migraine_risk":7,"frizz_risk":1,"updated_at":"2026-06-23T05:39:28.024193+05:30"},{"city":"Akola","state":"Maharashtra","latitude":20.7002,"longitude":77.0082,"temp":26.8,"humidity":83,"rain":0.1,"pressure":972.7,"uv_index":7.85,"wind_gusts":37.1,"aqi":41,"pm10":8.4,"pm2_5":8.2,"no2":11.9,"co":176.0,"o3":48.0,"so2":7.1,"mosquito_risk":10,"arthritis_risk":5,"migraine_risk":7,"frizz_risk":1,"updated_at":"2026-06-23T05:39:28.024203+05:30"},{"city":"Amravati","state":"Maharashtra","latitude":20.9374,"longitude":77.7796,"temp":25.5,"humidity":90,"rain":0.0,"pressure":965.0,"uv_index":8.2,"wind_gusts":38.9,"aqi":49,"pm10":9.5,"pm2_5":9.2,"no2":12.6,"co":150.0,"o3":50.0,"so2":7.6,"mosquito_risk":7,"arthritis_risk":5,"migraine_risk":7,"frizz_risk":1,"updated_at":"2026-06-23T05:39:28.024211+05:30"},{"city":"Latur","state":"Maharashtra","latitude":18.4088,"longitude":76.5604,"temp":25.5,"humidity":75,"rain":0.0,"pressure":937.8,"uv_index":6.8,"wind_gusts":47.9,"aqi":23,"pm10":4.4,"pm2_5":3.9,"no2":5.6,"co":144.0,"o3":36.0,"so2":1.3,"mosquito_risk":7,"arthritis_risk":5,"migraine_risk":7,"frizz_risk":1,"updated_at":"2026-06-23T05:39:28.024219+05:30"},{"city":"Nanded","state":"Maharashtra","latitude":19.1383,"longitude":77.3091,"temp":26.3,"humidity":82,"rain":0.0,"pressure":966.6,"uv_index":8.0,"wind_gusts":43.2,"aqi":34,"pm10":4.2,"pm2_5":4.1,"no2":6.4,"co":167.0,"o3":50.0,"so2":2.4,"mosquito_risk":7,"arthritis_risk":5,"migraine_risk":7,"frizz_risk":1,"updated_at":"2026-06-23T05:39:28.024227+05:30"},{"city":"Gulbarga","state":"Karnataka","latitude":17.3297,"longitude":76.8343,"temp":25.9,"humidity":75,"rain":0.0,"pressure":957.0,"uv_index":8.65,"wind_gusts":64.4,"aqi":21,"pm10":4.9,"pm2_5":4.2,"no2":5.9,"co":149.0,"o3":36.0,"so2":2.4,"mosquito_risk":7,"arthritis_risk":5,"migraine_risk":7,"frizz_risk":1,"updated_at":"2026-06-23T05:39:28.024234+05:30"},{"city":"Bidar","state":"Karnataka","latitude":17.9104,"longitude":77.5199,"temp":25.4,"humidity":75,"rain":0.0,"pressure":933.5,"uv_index":8.0,"wind_gusts":59.0,"aqi":24,"pm10":6.7,"pm2_5":5.9,"no2":9.2,"co":149.0,"o3":34.0,"so2":2.4,"mosquito_risk":7,"arthritis_risk":5,"migraine_risk":7,"frizz_risk":1,"updated_at":"2026-06-23T05:39:28.024241+05:30"},{"city":"Hospet","state":"Karnataka","latitude":15.2689,"longitude":76.3909,"temp":24.0,"humidity":86,"rain":0.0,"pressure":954.5,"uv_index":7.75,"wind_gusts":55.4,"aqi":20,"pm10":1.9,"pm2_5":1.6,"no2":3.0,"co":104.0,"o3":42.0,"so2":1.2,"mosquito_risk":3,"arthritis_risk":5,"migraine_risk":7,"frizz_risk":1,"updated_at":"2026-06-23T05:39:28.024247+05:30"},{"city":"Tirupur","state":"Tamil Nadu","latitude":11.1085,"longitude":77.3411,"temp":23.7,"humidity":90,"rain":0.0,"pressure":974.9,"uv_index":8.1,"wind_gusts":51.1,"aqi":32,"pm10":10.8,"pm2_5":10.0,"no2":14.3,"co":115.0,"o3":25.0,"so2":4.0,"mosquito_risk":3,"arthritis_risk":5,"migraine_risk":7,"frizz_risk":1,"updated_at":"2026-06-23T05:39:28.024254+05:30"},{"city":"Alappuzha","state":"Kerala","latitude":9.4981,"longitude":76.3388,"temp":25.6,"humidity":90,"rain":0.1,"pressure":1009.9,"uv_index":3.55,"wind_gusts":38.9,"aqi":29,"pm10":8.6,"pm2_5":6.1,"no2":6.7,"co":81.0,"o3":36.0,"so2":2.5,"mosquito_risk":10,"arthritis_risk":0,"migraine_risk":0,"frizz_risk":1,"updated_at":"2026-06-23T05:39:28.024261+05:30"},{"city":"Munnar","state":"Kerala","latitude":10.0889,"longitude":77.0595,"temp":16.6,"humidity":100,"rain":0.0,"pressure":856.5,"uv_index":9.05,"wind_gusts":41.0,"aqi":16,"pm10":4.7,"pm2_5":3.4,"no2":3.9,"co":96.0,"o3":28.0,"so2":1.1,"mosquito_risk":3,"arthritis_risk":10,"migraine_risk":7,"frizz_risk":1,"updated_at":"2026-06-23T05:39:28.024269+05:30"},{"city":"Silchar","state":"Assam","latitude":24.8333,"longitude":92.7789,"temp":25.5,"humidity":96,"rain":0.1,"pressure":1001.2,"uv_index":8.4,"wind_gusts":23.4,"aqi":87,"pm10":58.3,"pm2_5":54.2,"no2":20.4,"co":269.0,"o3":38.0,"so2":6.5,"mosquito_risk":10,"arthritis_risk":5,"migraine_risk":4,"frizz_risk":1,"updated_at":"2026-06-23T05:39:28.024277+05:30"},{"city":"Dibrugarh","state":"Assam","latitude":27.4728,"longitude":94.912,"temp":24.0,"humidity":98,"rain":0.1,"pressure":991.2,"uv_index":8.5,"wind_gusts":20.5,"aqi":79,"pm10":24.6,"pm2_5":18.8,"no2":8.0,"co":219.0,"o3":71.0,"so2":1.3,"mosquito_risk":6,"arthritis_risk":5,"migraine_risk":7,"frizz_risk":1,"updated_at":"2026-06-23T05:39:28.024284+05:30"}]