[{"city":"Delhi","state":"Delhi","latitude":28.6139,"longitude":77.209,"temp":27.0,"humidity":64,"rain":0.0,"pressure":982.9,"uv_index":7.55,"wind_gusts":37.4,"aqi":173,"pm10":122.5,"pm2_5":44.5,"no2":20.1,"co":532.0,"o3":130.0,"so2":25.1,"mosquito_risk":7,"arthritis_risk":5,"migraine_risk":7,"frizz_risk":1,"updated_at":"2026-05-31T20:18:16.467078+05:30"},{"city":"Mumbai","state":"Maharashtra","latitude":19.076,"longitude":72.8777,"temp":30.8,"humidity":72,"rain":0.0,"pressure":1008.3,"uv_index":7.8,"wind_gusts":39.2,"aqi":61,"pm10":24.0,"pm2_5":14.6,"no2":5.7,"co":170.0,"o3":52.0,"so2":4.2,"mosquito_risk":3,"arthritis_risk":0,"migraine_risk":4,"frizz_risk":1,"updated_at":"2026-05-31T20:18:16.467131+05:30"},{"city":"Bangalore","state":"Karnataka","latitude":12.9716,"longitude":77.5946,"temp":27.0,"humidity":70,"rain":0.0,"pressure":912.2,"uv_index":9.25,"wind_gusts":29.2,"aqi":83,"pm10":27.3,"pm2_5":23.3,"no2":29.4,"co":618.0,"o3":65.0,"so2":6.9,"mosquito_risk":7,"arthritis_risk":5,"migraine_risk":7,"frizz_risk":1,"updated_at":"2026-05-31T20:18:16.467147+05:30"},{"city":"Hyderabad","state":"Telangana","latitude":17.385,"longitude":78.4867,"temp":33.1,"humidity":38,"rain":0.0,"pressure":952.7,"uv_index":9.05,"wind_gusts":55.1,"aqi":74,"pm10":61.0,"pm2_5":34.8,"no2":23.6,"co":333.0,"o3":68.0,"so2":7.9,"mosquito_risk":0,"arthritis_risk":5,"migraine_risk":7,"frizz_risk":1,"updated_at":"2026-05-31T20:18:16.467158+05:30"},{"city":"Chennai","state":"Tamil Nadu","latitude":13.0827,"longitude":80.2707,"temp":32.3,"humidity":66,"rain":0.0,"pressure":1006.2,"uv_index":8.3,"wind_gusts":38.5,"aqi":114,"pm10":33.6,"pm2_5":26.5,"no2":6.1,"co":304.0,"o3":131.0,"so2":8.1,"mosquito_risk":3,"arthritis_risk":5,"migraine_risk":4,"frizz_risk":1,"updated_at":"2026-05-31T20:18:16.467168+05:30"},{"city":"Kolkata","state":"West Bengal","latitude":22.5726,"longitude":88.3639,"temp":29.6,"humidity":79,"rain":0.0,"pressure":1005.2,"uv_index":8.95,"wind_gusts":32.4,"aqi":152,"pm10":44.4,"pm2_5":36.9,"no2":13.0,"co":574.0,"o3":64.0,"so2":9.2,"mosquito_risk":7,"arthritis_risk":5,"migraine_risk":4,"frizz_risk":1,"updated_at":"2026-05-31T20:18:16.467176+05:30"},{"city":"Pune","state":"Maharashtra","latitude":18.5204,"longitude":73.8567,"temp":28.1,"humidity":64,"rain":0.0,"pressure":948.6,"uv_index":5.75,"wind_gusts":38.9,"aqi":53,"pm10":29.6,"pm2_5":15.7,"no2":3.9,"co":141.0,"o3":75.0,"so2":4.6,"mosquito_risk":7,"arthritis_risk":5,"migraine_risk":3,"frizz_risk":1,"updated_at":"2026-05-31T20:18:16.467184+05:30"},{"city":"Ahmedabad","state":"Gujarat","latitude":23.0225,"longitude":72.5714,"temp":33.2,"humidity":55,"rain":0.0,"pressure":999.7,"uv_index":8.1,"wind_gusts":53.3,"aqi":72,"pm10":59.0,"pm2_5":23.5,"no2":7.1,"co":156.0,"o3":75.0,"so2":4.3,"mosquito_risk":0,"arthritis_risk":5,"migraine_risk":7,"frizz_risk":1,"updated_at":"2026-05-31T20:18:16.467191+05:30"},{"city":"Jaipur","state":"Rajasthan","latitude":26.9124,"longitude":75.7873,"temp":30.2,"humidity":51,"rain":0.0,"pressure":959.5,"uv_index":8.15,"wind_gusts":35.3,"aqi":87,"pm10":140.2,"pm2_5":37.7,"no2":8.1,"co":232.0,"o3":85.0,"so2":5.2,"mosquito_risk":0,"arthritis_risk":5,"migraine_risk":7,"frizz_risk":1,"updated_at":"2026-05-31T20:18:16.467202+05:30"},{"city":"Lucknow","state":"Uttar Pradesh","latitude":26.8467,"longitude":80.9462,"temp":28.4,"humidity":71,"rain":0.0,"pressure":993.5,"uv_index":8.15,"wind_gusts":29.5,"aqi":136,"pm10":44.5,"pm2_5":26.4,"no2":12.5,"co":267.0,"o3":103.0,"so2":7.1,"mosquito_risk":7,"arthritis_risk":5,"migraine_risk":7,"frizz_risk":1,"updated_at":"2026-05-31T20:18:16.467210+05:30"},{"city":"Kanpur","state":"Uttar Pradesh","latitude":26.4499,"longitude":80.3319,"temp":28.8,"humidity":69,"rain":0.0,"pressure":991.6,"uv_index":8.15,"wind_gusts":47.9,"aqi":147,"pm10":54.8,"pm2_5":24.4,"no2":8.5,"co":260.0,"o3":119.0,"so2":6.8,"mosquito_risk":7,"arthritis_risk":5,"migraine_risk":7,"frizz_risk":1,"updated_at":"2026-05-31T20:18:16.467217+05:30"},{"city":"Chandigarh","state":"Chandigarh","latitude":30.7333,"longitude":76.7794,"temp":24.0,"humidity":72,"rain":0.0,"pressure":969.3,"uv_index":7.0,"wind_gusts":40.0,"aqi":147,"pm10":35.4,"pm2_5":30.0,"no2":15.7,"co":373.0,"o3":116.0,"so2":7.2,"mosquito_risk":3,"arthritis_risk":5,"migraine_risk":7,"frizz_risk":1,"updated_at":"2026-05-31T20:18:16.467225+05:30"},{"city":"Srinagar","state":"Jammu and Kashmir","latitude":34.0837,"longitude":74.7973,"temp":22.4,"humidity":56,"rain":0.0,"pressure":840.8,"uv_index":9.0,"wind_gusts":25.6,"aqi":121,"pm10":60.1,"pm2_5":28.6,"no2":14.3,"co":778.0,"o3":96.0,"so2":3.5,"mosquito_risk":0,"arthritis_risk":5,"migraine_risk":7,"frizz_risk":0,"updated_at":"2026-05-31T20:18:16.467234+05:30"},{"city":"Jammu","state":"Jammu and Kashmir","latitude":32.7266,"longitude":74.857,"temp":28.2,"humidity":48,"rain":0.0,"pressure":973.0,"uv_index":8.5,"wind_gusts":28.1,"aqi":136,"pm10":86.4,"pm2_5":33.9,"no2":16.1,"co":426.0,"o3":122.0,"so2":6.1,"mosquito_risk":4,"arthritis_risk":5,"migraine_risk":7,"frizz_risk":1,"updated_at":"2026-05-31T20:18:16.467241+05:30"},{"city":"Amritsar","state":"Punjab","latitude":31.634,"longitude":74.8723,"temp":28.1,"humidity":49,"rain":0.0,"pressure":981.2,"uv_index":8.3,"wind_gusts":38.5,"aqi":136,"pm10":96.4,"pm2_5":37.5,"no2":6.8,"co":460.0,"o3":127.0,"so2":6.5,"mosquito_risk":4,"arthritis_risk":5,"migraine_risk":7,"frizz_risk":1,"updated_at":"2026-05-31T20:18:16.467251+05:30"},{"city":"Ludhiana","state":"Punjab","latitude":30.901,"longitude":75.8573,"temp":26.9,"humidity":61,"rain":0.0,"pressure":979.1,"uv_index":7.85,"wind_gusts":38.5,"aqi":144,"pm10":140.2,"pm2_5":42.4,"no2":9.1,"co":368.0,"o3":131.0,"so2":9.3,"mosquito_risk":7,"arthritis_risk":5,"migraine_risk":7,"frizz_risk":1,"updated_at":"2026-05-31T20:18:16.467259+05:30"},{"city":"Jalandhar","state":"Punjab","latitude":31.326,"longitude":75.5762,"temp":27.0,"humidity":57,"rain":0.0,"pressure":980.1,"uv_index":8.05,"wind_gusts":40.3,"aqi":148,"pm10":69.4,"pm2_5":34.7,"no2":12.3,"co":369.0,"o3":126.0,"so2":9.7,"mosquito_risk":4,"arthritis_risk":5,"migraine_risk":7,"frizz_risk":1,"updated_at":"2026-05-31T20:18:16.467266+05:30"},{"city":"Dehradun","state":"Uttarakhand","latitude":30.6284,"longitude":78.0322,"temp":14.6,"humidity":82,"rain":0.0,"pressure":829.7,"uv_index":7.25,"wind_gusts":31.0,"aqi":102,"pm10":9.5,"pm2_5":7.1,"no2":10.9,"co":231.0,"o3":107.0,"so2":1.1,"mosquito_risk":3,"arthritis_risk":10,"migraine_risk":7,"frizz_risk":0,"updated_at":"2026-05-31T20:18:16.467273+05:30"},{"city":"Shimla","state":"Himachal Pradesh","latitude":31.1048,"longitude":77.1734,"temp":12.2,"humidity":70,"rain":0.0,"pressure":783.6,"uv_index":2.85,"wind_gusts":25.9,"aqi":104,"pm10":11.4,"pm2_5":9.5,"no2":11.6,"co":383.0,"o3":115.0,"so2":0.8,"mosquito_risk":3,"arthritis_risk":5,"migraine_risk":3,"frizz_risk":0,"updated_at":"2026-05-31T20:18:16.467283+05:30"},{"city":"Manali","state":"Himachal Pradesh","latitude":32.2396,"longitude":77.1887,"temp":14.9,"humidity":80,"rain":0.0,"pressure":819.1,"uv_index":7.6,"wind_gusts":33.5,"aqi":127,"pm10":13.6,"pm2_5":7.9,"no2":15.9,"co":190.0,"o3":133.0,"so2":0.6,"mosquito_risk":3,"arthritis_risk":5,"migraine_risk":7,"frizz_risk":0,"updated_at":"2026-05-31T20:18:16.467290+05:30"},{"city":"Gurgaon","state":"Haryana","latitude":28.4595,"longitude":77.0266,"temp":26.0,"humidity":66,"rain":0.0,"pressure":981.3,"uv_index":7.65,"wind_gusts":37.4,"aqi":773,"pm10":164.4,"pm2_5":51.2,"no2":20.1,"co":567.0,"o3":128.0,"so2":24.3,"mosquito_risk":7,"arthritis_risk":5,"migraine_risk":7,"frizz_risk":1,"updated_at":"2026-05-31T20:18:16.467299+05:30"},{"city":"Noida","state":"Uttar Pradesh","latitude":28.5355,"longitude":77.391,"temp":26.5,"humidity":68,"rain":0.0,"pressure":984.2,"uv_index":7.6,"wind_gusts":41.4,"aqi":773,"pm10":164.4,"pm2_5":51.2,"no2":20.1,"co":506.0,"o3":128.0,"so2":24.3,"mosquito_risk":7,"arthritis_risk":5,"migraine_risk":7,"frizz_risk":1,"updated_at":"2026-05-31T20:18:16.467307+05:30"},{"city":"Ghaziabad","state":"Uttar Pradesh","latitude":28.6692,"longitude":77.4538,"temp":26.8,"humidity":66,"rain":0.0,"pressure":982.6,"uv_index":7.6,"wind_gusts":42.8,"aqi":136,"pm10":71.2,"pm2_5":35.6,"no2":12.5,"co":363.0,"o3":113.0,"so2":10.4,"mosquito_risk":7,"arthritis_risk":5,"migraine_risk":7,"frizz_risk":1,"updated_at":"2026-05-31T20:18:16.467314+05:30"},{"city":"Faridabad","state":"Haryana","latitude":28.4089,"longitude":77.3178,"temp":26.5,"humidity":65,"rain":0.0,"pressure":983.6,"uv_index":7.65,"wind_gusts":42.8,"aqi":773,"pm10":164.4,"pm2_5":51.2,"no2":20.1,"co":441.0,"o3":128.0,"so2":24.3,"mosquito_risk":7,"arthritis_risk":5,"migraine_risk":7,"frizz_risk":1,"updated_at":"2026-05-31T20:18:16.467321+05:30"},{"city":"Meerut","state":"Uttar Pradesh","latitude":28.9845,"longitude":77.7064,"temp":25.4,"humidity":74,"rain":0.0,"pressure":981.5,"uv_index":6.9,"wind_gusts":51.1,"aqi":136,"pm10":71.2,"pm2_5":35.6,"no2":12.5,"co":378.0,"o3":113.0,"so2":10.4,"mosquito_risk":7,"arthritis_risk":5,"migraine_risk":7,"frizz_risk":1,"updated_at":"2026-05-31T20:18:16.467328+05:30"},{"city":"Agra","state":"Uttar Pradesh","latitude":27.1767,"longitude":78.0081,"temp":26.9,"humidity":74,"rain":0.0,"pressure":987.3,"uv_index":7.95,"wind_gusts":43.2,"aqi":533,"pm10":103.8,"pm2_5":36.1,"no2":10.1,"co":336.0,"o3":115.0,"so2":7.4,"mosquito_risk":7,"arthritis_risk":5,"migraine_risk":7,"frizz_risk":1,"updated_at":"2026-05-31T20:18:16.467336+05:30"},{"city":"Varanasi","state":"Uttar Pradesh","latitude":25.3176,"longitude":82.9739,"temp":30.9,"humidity":54,"rain":0.0,"pressure":996.6,"uv_index":8.65,"wind_gusts":31.0,"aqi":166,"pm10":63.3,"pm2_5":47.6,"no2":16.1,"co":516.0,"o3":120.0,"so2":11.7,"mosquito_risk":0,"arthritis_risk":5,"migraine_risk":7,"frizz_risk":1,"updated_at":"2026-05-31T20:18:16.467348+05:30"},{"city":"Prayagraj","state":"Uttar Pradesh","latitude":25.4358,"longitude":81.8463,"temp":31.1,"humidity":53,"rain":0.0,"pressure":995.4,"uv_index":8.55,"wind_gusts":28.1,"aqi":164,"pm10":48.1,"pm2_5":35.0,"no2":9.0,"co":356.0,"o3":131.0,"so2":9.3,"mosquito_risk":0,"arthritis_risk":5,"migraine_risk":7,"frizz_risk":1,"updated_at":"2026-05-31T20:18:16.467355+05:30"},{"city":"Gorakhpur","state":"Uttar Pradesh","latitude":26.7606,"longitude":83.3732,"temp":28.9,"humidity":71,"rain":0.0,"pressure":996.6,"uv_index":8.55,"wind_gusts":26.3,"aqi":149,"pm10":58.2,"pm2_5":46.6,"no2":13.0,"co":428.0,"o3":117.0,"so2":8.6,"mosquito_risk":7,"arthritis_risk":5,"migraine_risk":7,"frizz_risk":1,"updated_at":"2026-05-31T20:18:16.467364+05:30"},{"city":"Bareilly","state":"Uttar Pradesh","latitude":28.367,"longitude":79.4304,"temp":27.1,"humidity":71,"rain":0.0,"pressure":986.7,"uv_index":7.95,"wind_gusts":33.5,"aqi":132,"pm10":36.6,"pm2_5":29.5,"no2":21.2,"co":367.0,"o3":95.0,"so2":7.0,"mosquito_risk":7,"arthritis_risk":5,"migraine_risk":7,"frizz_risk":1,"updated_at":"2026-05-31T20:18:16.467371+05:30"},{"city":"Aligarh","state":"Uttar Pradesh","latitude":27.8974,"longitude":78.088,"temp":26.5,"humidity":71,"rain":0.0,"pressure":985.3,"uv_index":7.75,"wind_gusts":26.6,"aqi":143,"pm10":109.0,"pm2_5":38.4,"no2":10.7,"co":345.0,"o3":122.0,"so2":10.6,"mosquito_risk":7,"arthritis_risk":5,"migraine_risk":7,"frizz_risk":1,"updated_at":"2026-05-31T20:18:16.467377+05:30"},{"city":"Moradabad","state":"Uttar Pradesh","latitude":28.8386,"longitude":78.7733,"temp":24.9,"humidity":91,"rain":0.0,"pressure":983.7,"uv_index":7.75,"wind_gusts":30.2,"aqi":154,"pm10":54.5,"pm2_5":41.9,"no2":22.5,"co":485.0,"o3":108.0,"so2":14.0,"mosquito_risk":3,"arthritis_risk":5,"migraine_risk":7,"frizz_risk":1,"updated_at":"2026-05-31T20:18:16.467385+05:30"},{"city":"Saharanpur","state":"Uttar Pradesh","latitude":29.9637,"longitude":77.546,"temp":25.3,"humidity":77,"rain":0.0,"pressure":975.9,"uv_index":6.55,"wind_gusts":39.6,"aqi":133,"pm10":43.4,"pm2_5":33.9,"no2":22.2,"co":405.0,"o3":102.0,"so2":8.1,"mosquito_risk":7,"arthritis_risk":5,"migraine_risk":7,"frizz_risk":1,"updated_at":"2026-05-31T20:18:16.467392+05:30"},{"city":"Jhansi","state":"Uttar Pradesh","latitude":25.4484,"longitude":78.5685,"temp":29.2,"humidity":53,"rain":0.0,"pressure":977.5,"uv_index":8.35,"wind_gusts":32.0,"aqi":122,"pm10":31.4,"pm2_5":17.9,"no2":6.4,"co":282.0,"o3":106.0,"so2":6.6,"mosquito_risk":4,"arthritis_risk":5,"migraine_risk":7,"frizz_risk":1,"updated_at":"2026-05-31T20:18:19.697466+05:30"},{"city":"Surat","state":"Gujarat","latitude":21.1702,"longitude":72.8311,"temp":30.5,"humidity":75,"rain":0.0,"pressure":1005.3,"uv_index":7.7,"wind_gusts":50.8,"aqi":77,"pm10":28.1,"pm2_5":20.4,"no2":17.0,"co":196.0,"o3":36.0,"so2":31.3,"mosquito_risk":3,"arthritis_risk":5,"migraine_risk":4,"frizz_risk":1,"updated_at":"2026-05-31T20:18:19.697502+05:30"},{"city":"Vadodara","state":"Gujarat","latitude":22.3072,"longitude":73.1812,"temp":32.6,"humidity":51,"rain":0.0,"pressure":1002.3,"uv_index":8.05,"wind_gusts":42.5,"aqi":72,"pm10":39.7,"pm2_5":21.1,"no2":8.5,"co":151.0,"o3":62.0,"so2":11.0,"mosquito_risk":0,"arthritis_risk":5,"migraine_risk":4,"frizz_risk":1,"updated_at":"2026-05-31T20:18:19.697513+05:30"},{"city":"Rajkot","state":"Gujarat","latitude":22.3039,"longitude":70.8022,"temp":34.5,"humidity":45,"rain":0.0,"pressure":992.2,"uv_index":7.7,"wind_gusts":43.6,"aqi":65,"pm10":40.3,"pm2_5":21.0,"no2":2.8,"co":121.0,"o3":73.0,"so2":4.4,"mosquito_risk":0,"arthritis_risk":5,"migraine_risk":7,"frizz_risk":1,"updated_at":"2026-05-31T20:18:19.697522+05:30"},{"city":"Thane","state":"Maharashtra","latitude":19.2183,"longitude":72.9781,"temp":30.7,"humidity":71,"rain":0.0,"pressure":1007.7,"uv_index":7.8,"wind_gusts":38.2,"aqi":61,"pm10":24.0,"pm2_5":14.6,"no2":5.7,"co":150.0,"o3":52.0,"so2":4.2,"mosquito_risk":3,"arthritis_risk":5,"migraine_risk":4,"frizz_risk":1,"updated_at":"2026-05-31T20:18:19.697529+05:30"},{"city":"Nagpur","state":"Maharashtra","latitude":21.1458,"longitude":79.0882,"temp":35.2,"humidity":26,"rain":0.0,"pressure":971.7,"uv_index":8.8,"wind_gusts":38.2,"aqi":98,"pm10":35.0,"pm2_5":19.2,"no2":8.1,"co":236.0,"o3":109.0,"so2":11.8,"mosquito_risk":0,"arthritis_risk":5,"migraine_risk":10,"frizz_risk":0,"updated_at":"2026-05-31T20:18:19.697538+05:30"},{"city":"Nashik","state":"Maharashtra","latitude":19.9975,"longitude":73.7898,"temp":28.1,"humidity":63,"rain":0.0,"pressure":945.9,"uv_index":8.1,"wind_gusts":49.0,"aqi":53,"pm10":20.5,"pm2_5":12.2,"no2":2.4,"co":121.0,"o3":57.0,"so2":0.9,"mosquito_risk":7,"arthritis_risk":5,"migraine_risk":7,"frizz_risk":1,"updated_at":"2026-05-31T20:18:19.697546+05:30"},{"city":"Aurangabad","state":"Maharashtra","latitude":19.8762,"longitude":75.3433,"temp":30.9,"humidity":40,"rain":0.0,"pressure":944.1,"uv_index":8.85,"wind_gusts":49.0,"aqi":64,"pm10":27.5,"pm2_5":15.3,"no2":5.8,"co":142.0,"o3":83.0,"so2":3.5,"mosquito_risk":0,"arthritis_risk":5,"migraine_risk":7,"frizz_risk":0,"updated_at":"2026-05-31T20:18:19.697553+05:30"},{"city":"Solapur","state":"Maharashtra","latitude":17.6599,"longitude":75.9064,"temp":30.5,"humidity":44,"rain":0.0,"pressure":957.1,"uv_index":8.9,"wind_gusts":51.5,"aqi":65,"pm10":71.2,"pm2_5":27.0,"no2":2.6,"co":166.0,"o3":91.0,"so2":2.1,"mosquito_risk":0,"arthritis_risk":5,"migraine_risk":7,"frizz_risk":1,"updated_at":"2026-05-31T20:18:19.697561+05:30"},{"city":"Kolhapur","state":"Maharashtra","latitude":16.705,"longitude":74.2433,"temp":28.4,"humidity":65,"rain":0.0,"pressure":948.5,"uv_index":8.75,"wind_gusts":46.1,"aqi":40,"pm10":13.8,"pm2_5":9.5,"no2":3.7,"co":146.0,"o3":69.0,"so2":2.0,"mosquito_risk":7,"arthritis_risk":5,"migraine_risk":7,"frizz_risk":1,"updated_at":"2026-05-31T20:18:19.697570+05:30"},{"city":"Goa","state":"Goa","latitude":15.2993,"longitude":74.124,"temp":29.2,"humidity":80,"rain":0.0,"pressure":998.4,"uv_index":7.35,"wind_gusts":31.0,"aqi":50,"pm10":12.9,"pm2_5":8.7,"no2":1.8,"co":374.0,"o3":51.0,"so2":1.2,"mosquito_risk":7,"arthritis_risk":5,"migraine_risk":7,"frizz_risk":1,"updated_at":"2026-05-31T20:18:19.697577+05:30"},{"city":"Jodhpur","state":"Rajasthan","latitude":26.2389,"longitude":73.0243,"temp":34.0,"humidity":39,"rain":0.0,"pressure":980.8,"uv_index":8.4,"wind_gusts":39.6,"aqi":84,"pm10":199.3,"pm2_5":39.6,"no2":6.9,"co":202.0,"o3":76.0,"so2":2.6,"mosquito_risk":0,"arthritis_risk":5,"migraine_risk":7,"frizz_risk":1,"updated_at":"2026-05-31T20:18:19.697584+05:30"},{"city":"Udaipur","state":"Rajasthan","latitude":24.5854,"longitude":73.7125,"temp":32.2,"humidity":36,"rain":0.0,"pressure":945.9,"uv_index":8.75,"wind_gusts":38.2,"aqi":66,"pm10":80.1,"pm2_5":25.6,"no2":3.9,"co":157.0,"o3":80.0,"so2":3.2,"mosquito_risk":0,"arthritis_risk":5,"migraine_risk":7,"frizz_risk":0,"updated_at":"2026-05-31T20:18:19.697591+05:30"},{"city":"Kota","state":"Rajasthan","latitude":25.2138,"longitude":75.8648,"temp":32.0,"humidity":48,"rain":0.0,"pressure":978.0,"uv_index":8.3,"wind_gusts":33.1,"aqi":75,"pm10":51.8,"pm2_5":23.7,"no2":7.7,"co":224.0,"o3":92.0,"so2":6.2,"mosquito_risk":0,"arthritis_risk":5,"migraine_risk":7,"frizz_risk":1,"updated_at":"2026-05-31T20:18:19.697598+05:30"},{"city":"Bikaner","state":"Rajasthan","latitude":28.0229,"longitude":73.3119,"temp":32.5,"humidity":56,"rain":0.0,"pressure":980.4,"uv_index":8.35,"wind_gusts":25.9,"aqi":65,"pm10":178.8,"pm2_5":44.9,"no2":3.3,"co":189.0,"o3":72.0,"so2":2.9,"mosquito_risk":0,"arthritis_risk":5,"migraine_risk":7,"frizz_risk":1,"updated_at":"2026-05-31T20:18:19.697605+05:30"},{"city":"Ajmer","state":"Rajasthan","latitude":26.4499,"longitude":74.6399,"temp":25.8,"humidity":74,"rain":0.0,"pressure":954.8,"uv_index":8.3,"wind_gusts":40.3,"aqi":55,"pm10":94.5,"pm2_5":28.7,"no2":6.0,"co":146.0,"o3":84.0,"so2":3.1,"mosquito_risk":7,"arthritis_risk":5,"migraine_risk":7,"frizz_risk":1,"updated_at":"2026-05-31T20:18:19.697613+05:30"},{"city":"Gwalior","state":"Madhya Pradesh","latitude":26.2183,"longitude":78.1828,"temp":27.8,"humidity":66,"rain":0.1,"pressure":983.4,"uv_index":8.15,"wind_gusts":35.6,"aqi":108,"pm10":61.0,"pm2_5":25.3,"no2":6.8,"co":237.0,"o3":105.0,"so2":5.2,"mosquito_risk":10,"arthritis_risk":5,"migraine_risk":7,"frizz_risk":1,"updated_at":"2026-05-31T20:18:19.697619+05:30"},{"city":"Indore","state":"Madhya Pradesh","latitude":22.7196,"longitude":75.8577,"temp":29.2,"humidity":52,"rain":0.0,"pressure":948.4,"uv_index":8.15,"wind_gusts":67.7,"aqi":65,"pm10":45.9,"pm2_5":21.9,"no2":4.3,"co":189.0,"o3":94.0,"so2":3.9,"mosquito_risk":4,"arthritis_risk":5,"migraine_risk":7,"frizz_risk":1,"updated_at":"2026-05-31T20:18:19.697627+05:30"},{"city":"Bhopal","state":"Madhya Pradesh","latitude":23.2599,"longitude":77.4126,"temp":32.0,"humidity":33,"rain":0.0,"pressure":953.0,"uv_index":8.6,"wind_gusts":42.1,"aqi":94,"pm10":26.5,"pm2_5":14.0,"no2":6.3,"co":254.0,"o3":99.0,"so2":4.1,"mosquito_risk":0,"arthritis_risk":5,"migraine_risk":7,"frizz_risk":0,"updated_at":"2026-05-31T20:18:19.697633+05:30"},{"city":"Jabalpur","state":"Madhya Pradesh","latitude":23.1815,"longitude":79.9864,"temp":30.6,"humidity":46,"rain":0.0,"pressure":961.3,"uv_index":8.75,"wind_gusts":45.4,"aqi":103,"pm10":44.7,"pm2_5":30.0,"no2":9.1,"co":198.0,"o3":98.0,"so2":4.7,"mosquito_risk":0,"arthritis_risk":5,"migraine_risk":7,"frizz_risk":1,"updated_at":"2026-05-31T20:18:19.697640+05:30"},{"city":"Ujjain","state":"Madhya Pradesh","latitude":23.1765,"longitude":75.7885,"temp":29.5,"humidity":57,"rain":0.0,"pressure":953.8,"uv_index":8.3,"wind_gusts":52.6,"aqi":64,"pm10":48.7,"pm2_5":23.2,"no2":2.7,"co":167.0,"o3":89.0,"so2":3.8,"mosquito_risk":4,"arthritis_risk":5,"migraine_risk":7,"frizz_risk":1,"updated_at":"2026-05-31T20:18:19.697648+05:30"},{"city":"Visakhapatnam","state":"Andhra Pradesh","latitude":17.6868,"longitude":83.2185,"temp":30.6,"humidity":80,"rain":0.0,"pressure":1001.5,"uv_index":9.0,"wind_gusts":41.0,"aqi":120,"pm10":46.0,"pm2_5":35.9,"no2":20.5,"co":371.0,"o3":94.0,"so2":38.9,"mosquito_risk":3,"arthritis_risk":5,"migraine_risk":4,"frizz_risk":1,"updated_at":"2026-05-31T20:18:19.697655+05:30"},{"city":"Vijayawada","state":"Andhra Pradesh","latitude":16.5062,"longitude":80.648,"temp":34.7,"humidity":44,"rain":0.0,"pressure":1000.1,"uv_index":8.95,"wind_gusts":42.5,"aqi":113,"pm10":43.1,"pm2_5":37.8,"no2":9.5,"co":446.0,"o3":104.0,"so2":7.1,"mosquito_risk":0,"arthritis_risk":5,"migraine_risk":4,"frizz_risk":1,"updated_at":"2026-05-31T20:18:19.697662+05:30"},{"city":"Guntur","state":"Andhra Pradesh","latitude":16.3067,"longitude":80.4365,"temp":32.9,"humidity":54,"rain":0.0,"pressure":1001.6,"uv_index":8.55,"wind_gusts":45.0,"aqi":92,"pm10":50.8,"pm2_5":40.2,"no2":12.3,"co":440.0,"o3":92.0,"so2":6.6,"mosquito_risk":0,"arthritis_risk":5,"migraine_risk":4,"frizz_risk":1,"updated_at":"2026-05-31T20:18:19.697670+05:30"},{"city":"Nellore","state":"Andhra Pradesh","latitude":14.4426,"longitude":79.9865,"temp":31.3,"humidity":71,"rain":0.0,"pressure":1004.3,"uv_index":8.3,"wind_gusts":38.2,"aqi":108,"pm10":35.6,"pm2_5":30.2,"no2":4.8,"co":246.0,"o3":138.0,"so2":5.0,"mosquito_risk":3,"arthritis_risk":5,"migraine_risk":4,"frizz_risk":1,"updated_at":"2026-05-31T20:18:19.697678+05:30"},{"city":"Kurnool","state":"Andhra Pradesh","latitude":15.8281,"longitude":78.0373,"temp":31.6,"humidity":48,"rain":0.0,"pressure":975.5,"uv_index":9.0,"wind_gusts":43.6,"aqi":64,"pm10":46.4,"pm2_5":28.3,"no2":13.6,"co":291.0,"o3":90.0,"so2":9.2,"mosquito_risk":0,"arthritis_risk":5,"migraine_risk":7,"frizz_risk":1,"updated_at":"2026-05-31T20:18:19.697686+05:30"},{"city":"Kakinada","state":"Andhra Pradesh","latitude":16.9891,"longitude":82.2475,"temp":31.9,"humidity":73,"rain":0.0,"pressure":1005.0,"uv_index":8.8,"wind_gusts":36.0,"aqi":89,"pm10":37.5,"pm2_5":30.0,"no2":3.8,"co":381.0,"o3":119.0,"so2":3.5,"mosquito_risk":3,"arthritis_risk":5,"migraine_risk":4,"frizz_risk":1,"updated_at":"2026-05-31T20:18:19.697693+05:30"},{"city":"Tirupati","state":"Andhra Pradesh","latitude":13.6288,"longitude":79.4192,"temp":29.7,"humidity":67,"rain":0.0,"pressure":990.6,"uv_index":9.05,"wind_gusts":36.0,"aqi":72,"pm10":29.9,"pm2_5":25.1,"no2":13.8,"co":244.0,"o3":82.0,"so2":4.2,"mosquito_risk":7,"arthritis_risk":5,"migraine_risk":7,"frizz_risk":1,"updated_at":"2026-05-31T20:18:19.697700+05:30"},{"city":"Warangal","state":"Telangana","latitude":17.9689,"longitude":79.5941,"temp":33.0,"humidity":46,"rain":0.0,"pressure":977.1,"uv_index":8.55,"wind_gusts":59.0,"aqi":95,"pm10":61.5,"pm2_5":41.4,"no2":17.5,"co":357.0,"o3":75.0,"so2":7.9,"mosquito_risk":0,"arthritis_risk":5,"migraine_risk":7,"frizz_risk":1,"updated_at":"2026-05-31T20:18:19.697707+05:30"},{"city":"Nizamabad","state":"Telangana","latitude":18.6725,"longitude":78.0941,"temp":28.8,"humidity":58,"rain":0.0,"pressure":963.4,"uv_index":9.0,"wind_gusts":40.0,"aqi":87,"pm10":78.7,"pm2_5":31.1,"no2":9.7,"co":175.0,"o3":78.0,"so2":3.8,"mosquito_risk":4,"arthritis_risk":5,"migraine_risk":7,"frizz_risk":1,"updated_at":"2026-05-31T20:18:19.697714+05:30"},{"city":"Mysore","state":"Karnataka","latitude":12.2958,"longitude":76.6396,"temp":26.3,"humidity":72,"rain":0.0,"pressure":929.6,"uv_index":9.15,"wind_gusts":29.2,"aqi":60,"pm10":15.4,"pm2_5":12.6,"no2":9.1,"co":301.0,"o3":82.0,"so2":2.2,"mosquito_risk":7,"arthritis_risk":5,"migraine_risk":7,"frizz_risk":1,"updated_at":"2026-05-31T20:18:19.697721+05:30"},{"city":"Mangalore","state":"Karnataka","latitude":12.9141,"longitude":74.856,"temp":27.2,"humidity":92,"rain":0.0,"pressure":1008.0,"uv_index":8.75,"wind_gusts":26.6,"aqi":45,"pm10":16.8,"pm2_5":12.3,"no2":8.4,"co":258.0,"o3":48.0,"so2":3.4,"mosquito_risk":7,"arthritis_risk":0,"migraine_risk":4,"frizz_risk":1,"updated_at":"2026-05-31T20:18:19.697728+05:30"},{"city":"Hubli-Dharwad","state":"Karnataka","latitude":15.3647,"longitude":75.124,"temp":28.0,"humidity":69,"rain":0.0,"pressure":941.5,"uv_index":8.9,"wind_gusts":38.9,"aqi":40,"pm10":12.0,"pm2_5":8.8,"no2":3.6,"co":150.0,"o3":64.0,"so2":1.4,"mosquito_risk":7,"arthritis_risk":5,"migraine_risk":7,"frizz_risk":1,"updated_at":"2026-05-31T20:18:19.697735+05:30"},{"city":"Belgaum","state":"Karnataka","latitude":15.8497,"longitude":74.4977,"temp":25.8,"humidity":77,"rain":0.0,"pressure":926.3,"uv_index":7.55,"wind_gusts":36.7,"aqi":36,"pm10":14.1,"pm2_5":10.0,"no2":4.0,"co":142.0,"o3":57.0,"so2":1.5,"mosquito_risk":7,"arthritis_risk":5,"migraine_risk":7,"frizz_risk":1,"updated_at":"2026-05-31T20:18:22.921691+05:30"},{"city":"Coimbatore","state":"Tamil Nadu","latitude":11.0168,"longitude":76.9558,"temp":26.3,"humidity":85,"rain":0.0,"pressure":962.9,"uv_index":7.95,"wind_gusts":42.5,"aqi":42,"pm10":9.6,"pm2_5":8.2,"no2":5.7,"co":189.0,"o3":67.0,"so2":2.4,"mosquito_risk":7,"arthritis_risk":5,"migraine_risk":7,"frizz_risk":1,"updated_at":"2026-05-31T20:18:22.921728+05:30"},{"city":"Madurai","state":"Tamil Nadu","latitude":9.9252,"longitude":78.1198,"temp":29.8,"humidity":62,"rain":0.0,"pressure":994.1,"uv_index":8.8,"wind_gusts":29.5,"aqi":116,"pm10":28.4,"pm2_5":19.7,"no2":17.7,"co":229.0,"o3":85.0,"so2":5.3,"mosquito_risk":7,"arthritis_risk":5,"migraine_risk":7,"frizz_risk":1,"updated_at":"2026-05-31T20:18:22.921738+05:30"},{"city":"Trichy","state":"Tamil Nadu","latitude":10.7905,"longitude":78.7047,"temp":30.6,"humidity":73,"rain":0.0,"pressure":1000.1,"uv_index":8.9,"wind_gusts":38.5,"aqi":74,"pm10":17.1,"pm2_5":12.7,"no2":7.2,"co":256.0,"o3":74.0,"so2":3.3,"mosquito_risk":3,"arthritis_risk":5,"migraine_risk":4,"frizz_risk":1,"updated_at":"2026-05-31T20:18:22.921747+05:30"},{"city":"Salem","state":"Tamil Nadu","latitude":11.6643,"longitude":78.146,"temp":28.5,"humidity":73,"rain":0.0,"pressure":977.5,"uv_index":8.35,"wind_gusts":36.4,"aqi":144,"pm10":32.9,"pm2_5":23.5,"no2":10.1,"co":214.0,"o3":126.0,"so2":9.1,"mosquito_risk":7,"arthritis_risk":5,"migraine_risk":7,"frizz_risk":1,"updated_at":"2026-05-31T20:18:22.921755+05:30"},{"city":"Tirunelveli","state":"Tamil Nadu","latitude":8.7139,"longitude":77.7567,"temp":31.7,"humidity":60,"rain":0.0,"pressure":1003.6,"uv_index":8.45,"wind_gusts":20.5,"aqi":39,"pm10":8.4,"pm2_5":6.3,"no2":4.1,"co":148.0,"o3":64.0,"so2":1.4,"mosquito_risk":0,"arthritis_risk":5,"migraine_risk":4,"frizz_risk":1,"updated_at":"2026-05-31T20:18:22.921764+05:30"},{"city":"Vellore","state":"Tamil Nadu","latitude":12.9165,"longitude":79.1325,"temp":29.6,"humidity":66,"rain":0.0,"pressure":984.0,"uv_index":8.45,"wind_gusts":26.3,"aqi":98,"pm10":36.2,"pm2_5":30.9,"no2":21.6,"co":209.0,"o3":62.0,"so2":5.7,"mosquito_risk":7,"arthritis_risk":5,"migraine_risk":7,"frizz_risk":1,"updated_at":"2026-05-31T20:18:22.921772+05:30"},{"city":"Erode","state":"Tamil Nadu","latitude":11.341,"longitude":77.7172,"temp":30.6,"humidity":57,"rain":0.0,"pressure":989.4,"uv_index":8.75,"wind_gusts":37.8,"aqi":86,"pm10":14.2,"pm2_5":10.9,"no2":6.6,"co":243.0,"o3":91.0,"so2":2.6,"mosquito_risk":0,"arthritis_risk":5,"migraine_risk":7,"frizz_risk":1,"updated_at":"2026-05-31T20:18:22.921779+05:30"},{"city":"Kochi","state":"Kerala","latitude":9.9312,"longitude":76.2673,"temp":27.3,"humidity":86,"rain":0.0,"pressure":1010.9,"uv_index":7.75,"wind_gusts":29.2,"aqi":62,"pm10":15.6,"pm2_5":12.2,"no2":13.2,"co":161.0,"o3":41.0,"so2":4.3,"mosquito_risk":7,"arthritis_risk":0,"migraine_risk":4,"frizz_risk":1,"updated_at":"2026-05-31T20:18:22.921787+05:30"},{"city":"Thiruvananthapuram","state":"Kerala","latitude":8.5241,"longitude":76.9366,"temp":25.4,"humidity":94,"rain":0.0,"pressure":1010.8,"uv_index":7.35,"wind_gusts":32.4,"aqi":35,"pm10":11.9,"pm2_5":6.9,"no2":2.2,"co":157.0,"o3":61.0,"so2":0.8,"mosquito_risk":7,"arthritis_risk":0,"migraine_risk":4,"frizz_risk":1,"updated_at":"2026-05-31T20:18:22.921794+05:30"},{"city":"Kozhikode","state":"Kerala","latitude":11.2588,"longitude":75.7804,"temp":26.2,"humidity":99,"rain":0.1,"pressure":1009.8,"uv_index":8.65,"wind_gusts":32.4,"aqi":31,"pm10":8.0,"pm2_5":5.0,"no2":1.0,"co":388.0,"o3":67.0,"so2":0.6,"mosquito_risk":10,"arthritis_risk":0,"migraine_risk":4,"frizz_risk":1,"updated_at":"2026-05-31T20:18:22.921801+05:30"},{"city":"Thrissur","state":"Kerala","latitude":10.5276,"longitude":76.2144,"temp":25.7,"humidity":95,"rain":0.0,"pressure":1009.2,"uv_index":7.4,"wind_gusts":30.6,"aqi":56,"pm10":14.3,"pm2_5":11.3,"no2":7.9,"co":511.0,"o3":48.0,"so2":2.9,"mosquito_risk":7,"arthritis_risk":0,"migraine_risk":4,"frizz_risk":1,"updated_at":"2026-05-31T20:18:22.921809+05:30"},{"city":"Kannur","state":"Kerala","latitude":11.8745,"longitude":75.3704,"temp":26.0,"humidity":98,"rain":0.0,"pressure":1008.8,"uv_index":7.1,"wind_gusts":25.6,"aqi":40,"pm10":13.9,"pm2_5":10.6,"no2":12.1,"co":306.0,"o3":40.0,"so2":2.8,"mosquito_risk":7,"arthritis_risk":0,"migraine_risk":4,"frizz_risk":1,"updated_at":"2026-05-31T20:18:22.921816+05:30"},{"city":"Patna","state":"Bihar","latitude":25.5941,"longitude":85.1376,"temp":29.4,"humidity":77,"rain":0.0,"pressure":999.6,"uv_index":8.8,"wind_gusts":33.5,"aqi":188,"pm10":96.2,"pm2_5":79.9,"no2":31.1,"co":515.0,"o3":111.0,"so2":23.6,"mosquito_risk":7,"arthritis_risk":5,"migraine_risk":7,"frizz_risk":1,"updated_at":"2026-05-31T20:18:22.921822+05:30"},{"city":"Gaya","state":"Bihar","latitude":24.7914,"longitude":85.0002,"temp":28.4,"humidity":70,"rain":0.0,"pressure":993.2,"uv_index":8.85,"wind_gusts":21.2,"aqi":168,"pm10":71.5,"pm2_5":59.4,"no2":23.0,"co":519.0,"o3":110.0,"so2":17.4,"mosquito_risk":7,"arthritis_risk":5,"migraine_risk":7,"frizz_risk":1,"updated_at":"2026-05-31T20:18:22.921829+05:30"},{"city":"Muzaffarpur","state":"Bihar","latitude":26.1209,"longitude":85.3647,"temp":28.2,"humidity":83,"rain":0.0,"pressure":999.6,"uv_index":8.75,"wind_gusts":33.5,"aqi":187,"pm10":104.1,"pm2_5":85.7,"no2":31.5,"co":517.0,"o3":115.0,"so2":22.9,"mosquito_risk":7,"arthritis_risk":5,"migraine_risk":7,"frizz_risk":1,"updated_at":"2026-05-31T20:18:22.921835+05:30"},{"city":"Bhagalpur","state":"Bihar","latitude":25.2425,"longitude":87.0117,"temp":30.2,"humidity":81,"rain":0.0,"pressure":1000.3,"uv_index":8.75,"wind_gusts":19.8,"aqi":213,"pm10":85.7,"pm2_5":71.0,"no2":19.4,"co":466.0,"o3":149.0,"so2":26.7,"mosquito_risk":3,"arthritis_risk":5,"migraine_risk":4,"frizz_risk":1,"updated_at":"2026-05-31T20:18:22.921859+05:30"},{"city":"Ranchi","state":"Jharkhand","latitude":23.3441,"longitude":85.3096,"temp":24.8,"humidity":83,"rain":0.0,"pressure":937.4,"uv_index":9.2,"wind_gusts":34.9,"aqi":135,"pm10":55.9,"pm2_5":44.4,"no2":10.4,"co":308.0,"o3":120.0,"so2":9.3,"mosquito_risk":3,"arthritis_risk":5,"migraine_risk":7,"frizz_risk":1,"updated_at":"2026-05-31T20:18:22.921866+05:30"},{"city":"Jamshedpur","state":"Jharkhand","latitude":22.8046,"longitude":86.2029,"temp":27.5,"humidity":85,"rain":0.0,"pressure":990.6,"uv_index":5.55,"wind_gusts":36.7,"aqi":188,"pm10":71.0,"pm2_5":60.3,"no2":19.0,"co":645.0,"o3":123.0,"so2":26.0,"mosquito_risk":7,"arthritis_risk":5,"migraine_risk":3,"frizz_risk":1,"updated_at":"2026-05-31T20:18:22.921873+05:30"},{"city":"Dhanbad","state":"Jharkhand","latitude":23.7957,"longitude":86.4304,"temp":26.7,"humidity":90,"rain":0.0,"pressure":979.4,"uv_index":8.85,"wind_gusts":25.2,"aqi":178,"pm10":118.3,"pm2_5":103.8,"no2":49.7,"co":698.0,"o3":118.0,"so2":114.5,"mosquito_risk":7,"arthritis_risk":5,"migraine_risk":7,"frizz_risk":1,"updated_at":"2026-05-31T20:18:22.921880+05:30"},{"city":"Bokaro","state":"Jharkhand","latitude":23.6693,"longitude":86.1511,"temp":27.6,"humidity":85,"rain":0.0,"pressure":983.2,"uv_index":9.0,"wind_gusts":30.6,"aqi":199,"pm10":121.1,"pm2_5":106.4,"no2":51.6,"co":739.0,"o3":129.0,"so2":118.0,"mosquito_risk":7,"arthritis_risk":5,"migraine_risk":7,"frizz_risk":1,"updated_at":"2026-05-31T20:18:22.921888+05:30"},{"city":"Bhubaneswar","state":"Odisha","latitude":20.2961,"longitude":85.8245,"temp":28.7,"humidity":84,"rain":0.0,"pressure":1001.7,"uv_index":8.85,"wind_gusts":24.8,"aqi":126,"pm10":41.4,"pm2_5":36.7,"no2":10.5,"co":471.0,"o3":99.0,"so2":8.0,"mosquito_risk":7,"arthritis_risk":5,"migraine_risk":4,"frizz_risk":1,"updated_at":"2026-05-31T20:18:22.921894+05:30"},{"city":"Cuttack","state":"Odisha","latitude":20.4625,"longitude":85.8828,"temp":29.4,"humidity":86,"rain":0.0,"pressure":1003.6,"uv_index":9.1,"wind_gusts":27.4,"aqi":126,"pm10":41.4,"pm2_5":36.7,"no2":10.5,"co":374.0,"o3":99.0,"so2":8.0,"mosquito_risk":7,"arthritis_risk":5,"migraine_risk":4,"frizz_risk":1,"updated_at":"2026-05-31T20:18:22.921901+05:30"},{"city":"Rourkela","state":"Odisha","latitude":22.2604,"longitude":84.8536,"temp":29.8,"humidity":69,"rain":0.0,"pressure":983.6,"uv_index":8.9,"wind_gusts":37.1,"aqi":175,"pm10":53.8,"pm2_5":43.0,"no2":8.0,"co":522.0,"o3":151.0,"so2":15.1,"mosquito_risk":7,"arthritis_risk":5,"migraine_risk":7,"frizz_risk":1,"updated_at":"2026-05-31T20:18:22.921907+05:30"},{"city":"Raipur","state":"Chhattisgarh","latitude":21.2514,"longitude":81.6296,"temp":34.1,"humidity":29,"rain":0.0,"pressure":973.1,"uv_index":8.85,"wind_gusts":30.2,"aqi":145,"pm10":73.8,"pm2_5":53.0,"no2":36.4,"co":291.0,"o3":97.0,"so2":43.4,"mosquito_risk":0,"arthritis_risk":5,"migraine_risk":7,"frizz_risk":0,"updated_at":"2026-05-31T20:18:22.921914+05:30"},{"city":"Bhilai","state":"Chhattisgarh","latitude":21.1938,"longitude":81.3509,"temp":34.3,"humidity":29,"rain":0.0,"pressure":973.5,"uv_index":8.85,"wind_gusts":28.4,"aqi":133,"pm10":70.8,"pm2_5":45.9,"no2":30.8,"co":303.0,"o3":87.0,"so2":36.2,"mosquito_risk":0,"arthritis_risk":5,"migraine_risk":7,"frizz_risk":0,"updated_at":"2026-05-31T20:18:22.921920+05:30"},{"city":"Guwahati","state":"Assam","latitude":26.1158,"longitude":91.7086,"temp":27.5,"humidity":84,"rain":0.0,"pressure":1000.9,"uv_index":8.75,"wind_gusts":29.9,"aqi":67,"pm10":26.1,"pm2_5":21.1,"no2":7.3,"co":483.0,"o3":66.0,"so2":2.2,"mosquito_risk":7,"arthritis_risk":5,"migraine_risk":4,"frizz_risk":1,"updated_at":"2026-05-31T20:18:22.921927+05:30"},{"city":"Agartala","state":"Tripura","latitude":23.8315,"longitude":91.2868,"temp":28.8,"humidity":76,"rain":0.0,"pressure":1005.3,"uv_index":8.85,"wind_gusts":23.8,"aqi":164,"pm10":80.6,"pm2_5":72.4,"no2":37.6,"co":527.0,"o3":95.0,"so2":13.2,"mosquito_risk":7,"arthritis_risk":5,"migraine_risk":4,"frizz_risk":1,"updated_at":"2026-05-31T20:18:22.921933+05:30"},{"city":"Shillong","state":"Meghalaya","latitude":25.5788,"longitude":91.8933,"temp":19.7,"humidity":94,"rain":0.0,"pressure":858.1,"uv_index":9.05,"wind_gusts":23.8,"aqi":65,"pm10":13.7,"pm2_5":10.4,"no2":5.7,"co":416.0,"o3":83.0,"so2":2.3,"mosquito_risk":3,"arthritis_risk":10,"migraine_risk":7,"frizz_risk":1,"updated_at":"2026-05-31T20:18:22.921941+05:30"},{"city":"Imphal","state":"Manipur","latitude":24.817,"longitude":93.9368,"temp":22.9,"humidity":94,"rain":0.0,"pressure":923.7,"uv_index":9.0,"wind_gusts":20.5,"aqi":64,"pm10":11.6,"pm2_5":11.3,"no2":10.1,"co":730.0,"o3":42.0,"so2":2.4,"mosquito_risk":3,"arthritis_risk":5,"migraine_risk":7,"frizz_risk":1,"updated_at":"2026-05-31T20:18:22.921948+05:30"},{"city":"Aizawl","state":"Mizoram","latitude":23.7271,"longitude":92.7176,"temp":20.8,"humidity":98,"rain":0.0,"pressure":892.6,"uv_index":8.2,"wind_gusts":23.4,"aqi":36,"pm10":9.1,"pm2_5":8.2,"no2":7.0,"co":293.0,"o3":35.0,"so2":0.8,"mosquito_risk":3,"arthritis_risk":5,"migraine_risk":7,"frizz_risk":1,"updated_at":"2026-05-31T20:18:22.921955+05:30"},{"city":"Kohima","state":"Nagaland","latitude":25.6701,"longitude":94.1077,"temp":19.2,"humidity":94,"rain":0.1,"pressure":856.1,"uv_index":1.95,"wind_gusts":23.0,"aqi":49,"pm10":11.2,"pm2_5":10.4,"no2":10.7,"co":292.0,"o3":38.0,"so2":1.3,"mosquito_risk":6,"arthritis_risk":10,"migraine_risk":3,"frizz_risk":1,"updated_at":"2026-05-31T20:18:22.921962+05:30"},{"city":"Gangtok","state":"Sikkim","latitude":27.3314,"longitude":88.6138,"temp":18.3,"humidity":81,"rain":0.0,"pressure":839.1,"uv_index":9.2,"wind_gusts":40.7,"aqi":84,"pm10":36.2,"pm2_5":24.1,"no2":7.3,"co":388.0,"o3":117.0,"so2":2.4,"mosquito_risk":3,"arthritis_risk":10,"migraine_risk":7,"frizz_risk":0,"updated_at":"2026-05-31T20:18:22.921969+05:30"},{"city":"Siliguri","state":"West Bengal","latitude":26.7271,"longitude":88.3953,"temp":27.6,"humidity":78,"rain":0.0,"pressure":992.0,"uv_index":8.6,"wind_gusts":20.9,"aqi":134,"pm10":60.5,"pm2_5":39.6,"no2":10.6,"co":1008.0,"o3":131.0,"so2":6.4,"mosquito_risk":7,"arthritis_risk":5,"migraine_risk":7,"frizz_risk":1,"updated_at":"2026-05-31T20:18:26.231604+05:30"},{"city":"Durgapur","state":"West Bengal","latitude":23.5204,"longitude":87.3119,"temp":28.4,"humidity":84,"rain":0.0,"pressure":994.5,"uv_index":8.95,"wind_gusts":19.1,"aqi":193,"pm10":123.9,"pm2_5":115.0,"no2":45.0,"co":630.0,"o3":116.0,"so2":61.7,"mosquito_risk":7,"arthritis_risk":5,"migraine_risk":7,"frizz_risk":1,"updated_at":"2026-05-31T20:18:26.231641+05:30"},{"city":"Asansol","state":"West Bengal","latitude":23.6739,"longitude":86.9524,"temp":28.1,"humidity":86,"rain":0.0,"pressure":993.1,"uv_index":9.0,"wind_gusts":30.6,"aqi":174,"pm10":101.3,"pm2_5":89.9,"no2":36.3,"co":468.0,"o3":120.0,"so2":51.9,"mosquito_risk":7,"arthritis_risk":5,"migraine_risk":7,"frizz_risk":1,"updated_at":"2026-05-31T20:18:26.231653+05:30"},{"city":"Pondicherry","state":"Puducherry","latitude":11.9139,"longitude":79.8145,"temp":30.4,"humidity":82,"rain":0.0,"pressure":1007.6,"uv_index":8.85,"wind_gusts":38.2,"aqi":135,"pm10":27.6,"pm2_5":20.1,"no2":7.7,"co":231.0,"o3":103.0,"so2":4.3,"mosquito_risk":3,"arthritis_risk":5,"migraine_risk":4,"frizz_risk":1,"updated_at":"2026-05-31T20:18:26.231662+05:30"},{"city":"Port Blair","state":"Andaman and Nicobar Islands","latitude":11.6234,"longitude":92.7265,"temp":25.6,"humidity":96,"rain":0.0,"pressure":1008.3,"uv_index":8.0,"wind_gusts":36.0,"aqi":35,"pm10":9.2,"pm2_5":5.1,"no2":0.3,"co":134.0,"o3":78.0,"so2":0.4,"mosquito_risk":7,"arthritis_risk":0,"migraine_risk":4,"frizz_risk":1,"updated_at":"2026-05-31T20:18:26.231672+05:30"},{"city":"Haridwar","state":"Uttarakhand","latitude":29.9457,"longitude":78.1642,"temp":24.5,"humidity":88,"rain":0.0,"pressure":974.3,"uv_index":7.15,"wind_gusts":33.8,"aqi":120,"pm10":32.4,"pm2_5":25.5,"no2":15.3,"co":379.0,"o3":102.0,"so2":5.4,"mosquito_risk":3,"arthritis_risk":5,"migraine_risk":7,"frizz_risk":1,"updated_at":"2026-05-31T20:18:26.231680+05:30"},{"city":"Rishikesh","state":"Uttarakhand","latitude":30.0869,"longitude":78.2676,"temp":22.8,"humidity":95,"rain":0.0,"pressure":966.9,"uv_index":6.9,"wind_gusts":22.7,"aqi":94,"pm10":24.1,"pm2_5":17.7,"no2":11.0,"co":337.0,"o3":98.0,"so2":2.8,"mosquito_risk":3,"arthritis_risk":5,"migraine_risk":7,"frizz_risk":1,"updated_at":"2026-05-31T20:18:26.231688+05:30"},{"city":"Nainital","state":"Uttarakhand","latitude":29.3919,"longitude":79.4542,"temp":12.8,"humidity":92,"rain":0.0,"pressure":804.5,"uv_index":6.15,"wind_gusts":27.4,"aqi":103,"pm10":24.3,"pm2_5":17.6,"no2":9.9,"co":295.0,"o3":108.0,"so2":2.6,"mosquito_risk":3,"arthritis_risk":10,"migraine_risk":7,"frizz_risk":0,"updated_at":"2026-05-31T20:18:26.231696+05:30"},{"city":"Mussoorie","state":"Uttarakhand","latitude":30.4599,"longitude":78.0664,"temp":12.4,"humidity":90,"rain":0.0,"pressure":801.7,"uv_index":7.65,"wind_gusts":38.9,"aqi":119,"pm10":20.8,"pm2_5":17.1,"no2":13.0,"co":309.0,"o3":101.0,"so2":3.7,"mosquito_risk":3,"arthritis_risk":10,"migraine_risk":7,"frizz_risk":0,"updated_at":"2026-05-31T20:18:26.231703+05:30"},{"city":"Dharamshala","state":"Himachal Pradesh","latitude":32.219,"longitude":76.3234,"temp":18.0,"humidity":72,"rain":0.0,"pressure":869.3,"uv_index":7.85,"wind_gusts":30.2,"aqi":92,"pm10":23.1,"pm2_5":13.0,"no2":7.7,"co":360.0,"o3":100.0,"so2":0.7,"mosquito_risk":3,"arthritis_risk":5,"migraine_risk":7,"frizz_risk":0,"updated_at":"2026-05-31T20:18:26.231711+05:30"},{"city":"Dalhousie","state":"Himachal Pradesh","latitude":32.5387,"longitude":75.971,"temp":13.6,"humidity":92,"rain":0.0,"pressure":804.4,"uv_index":7.7,"wind_gusts":31.3,"aqi":135,"pm10":42.1,"pm2_5":17.4,"no2":13.6,"co":476.0,"o3":128.0,"so2":2.7,"mosquito_risk":3,"arthritis_risk":10,"migraine_risk":7,"frizz_risk":0,"updated_at":"2026-05-31T20:18:26.231718+05:30"},{"city":"Patiala","state":"Punjab","latitude":30.3398,"longitude":76.3869,"temp":25.5,"humidity":65,"rain":0.0,"pressure":978.6,"uv_index":7.5,"wind_gusts":44.6,"aqi":323,"pm10":210.5,"pm2_5":44.9,"no2":6.5,"co":314.0,"o3":132.0,"so2":7.3,"mosquito_risk":7,"arthritis_risk":5,"migraine_risk":7,"frizz_risk":1,"updated_at":"2026-05-31T20:18:26.231726+05:30"},{"city":"Bhatinda","state":"Punjab","latitude":30.211,"longitude":74.9455,"temp":28.8,"humidity":52,"rain":0.0,"pressure":983.6,"uv_index":8.2,"wind_gusts":33.5,"aqi":435,"pm10":691.0,"pm2_5":145.3,"no2":9.6,"co":278.0,"o3":125.0,"so2":12.6,"mosquito_risk":4,"arthritis_risk":5,"migraine_risk":7,"frizz_risk":1,"updated_at":"2026-05-31T20:18:26.231733+05:30"},{"city":"Rohtak","state":"Haryana","latitude":28.8955,"longitude":76.6066,"temp":27.5,"humidity":62,"rain":0.0,"pressure":981.8,"uv_index":7.6,"wind_gusts":36.4,"aqi":481,"pm10":359.5,"pm2_5":77.5,"no2":14.2,"co":383.0,"o3":158.0,"so2":22.1,"mosquito_risk":7,"arthritis_risk":5,"migraine_risk":7,"frizz_risk":1,"updated_at":"2026-05-31T20:18:26.231741+05:30"},{"city":"Panipat","state":"Haryana","latitude":29.3909,"longitude":76.9635,"temp":26.3,"humidity":65,"rain":0.0,"pressure":980.6,"uv_index":7.4,"wind_gusts":36.0,"aqi":545,"pm10":538.3,"pm2_5":84.3,"no2":9.8,"co":372.0,"o3":146.0,"so2":15.5,"mosquito_risk":7,"arthritis_risk":5,"migraine_risk":7,"frizz_risk":1,"updated_at":"2026-05-31T20:18:26.231747+05:30"},{"city":"Mathura","state":"Uttar Pradesh","latitude":27.4924,"longitude":77.6737,"temp":26.4,"humidity":68,"rain":0.0,"pressure":986.2,"uv_index":7.9,"wind_gusts":49.0,"aqi":459,"pm10":100.4,"pm2_5":33.8,"no2":10.2,"co":324.0,"o3":118.0,"so2":6.0,"mosquito_risk":7,"arthritis_risk":5,"migraine_risk":7,"frizz_risk":1,"updated_at":"2026-05-31T20:18:26.231754+05:30"},{"city":"Vrindavan","state":"Uttar Pradesh","latitude":27.5823,"longitude":77.7027,"temp":26.6,"humidity":65,"rain":0.0,"pressure":986.7,"uv_index":7.85,"wind_gusts":54.7,"aqi":459,"pm10":100.4,"pm2_5":33.8,"no2":10.2,"co":325.0,"o3":118.0,"so2":6.0,"mosquito_risk":7,"arthritis_risk":5,"migraine_risk":7,"frizz_risk":1,"updated_at":"2026-05-31T20:18:26.231760+05:30"},{"city":"Ayodhya","state":"Uttar Pradesh","latitude":26.7922,"longitude":82.1998,"temp":27.3,"humidity":80,"rain":0.0,"pressure":995.1,"uv_index":8.25,"wind_gusts":36.7,"aqi":138,"pm10":44.7,"pm2_5":31.9,"no2":10.4,"co":377.0,"o3":112.0,"so2":6.0,"mosquito_risk":7,"arthritis_risk":5,"migraine_risk":7,"frizz_risk":1,"updated_at":"2026-05-31T20:18:26.231766+05:30"},{"city":"Ratlam","state":"Madhya Pradesh","latitude":23.3315,"longitude":75.0367,"temp":31.0,"humidity":47,"rain":0.0,"pressure":954.3,"uv_index":8.4,"wind_gusts":47.2,"aqi":66,"pm10":51.3,"pm2_5":24.3,"no2":2.3,"co":147.0,"o3":86.0,"so2":4.1,"mosquito_risk":0,"arthritis_risk":5,"migraine_risk":7,"frizz_risk":1,"updated_at":"2026-05-31T20:18:26.231773+05:30"},{"city":"Sagar","state":"Madhya Pradesh","latitude":23.8388,"longitude":78.7378,"temp":28.7,"humidity":51,"rain":0.0,"pressure":950.0,"uv_index":8.65,"wind_gusts":42.8,"aqi":93,"pm10":15.0,"pm2_5":8.9,"no2":5.2,"co":212.0,"o3":107.0,"so2":2.8,"mosquito_risk":4,"arthritis_risk":5,"migraine_risk":7,"frizz_risk":1,"updated_at":"2026-05-31T20:18:26.231779+05:30"},{"city":"Satna","state":"Madhya Pradesh","latitude":24.6005,"longitude":80.8322,"temp":30.5,"humidity":50,"rain":0.0,"pressure":970.9,"uv_index":8.7,"wind_gusts":55.4,"aqi":131,"pm10":27.5,"pm2_5":19.7,"no2":5.5,"co":270.0,"o3":121.0,"so2":4.4,"mosquito_risk":0,"arthritis_risk":5,"migraine_risk":7,"frizz_risk":1,"updated_at":"2026-05-31T20:18:26.231786+05:30"},{"city":"Akola","state":"Maharashtra","latitude":20.7002,"longitude":77.0082,"temp":33.6,"humidity":37,"rain":0.0,"pressure":974.3,"uv_index":8.75,"wind_gusts":64.1,"aqi":73,"pm10":46.6,"pm2_5":21.0,"no2":8.2,"co":168.0,"o3":94.0,"so2":5.4,"mosquito_risk":0,"arthritis_risk":5,"migraine_risk":7,"frizz_risk":1,"updated_at":"2026-05-31T20:18:26.231794+05:30"},{"city":"Amravati","state":"Maharashtra","latitude":20.9374,"longitude":77.7796,"temp":33.2,"humidity":33,"rain":0.0,"pressure":966.5,"uv_index":8.75,"wind_gusts":48.6,"aqi":73,"pm10":46.9,"pm2_5":21.1,"no2":7.1,"co":196.0,"o3":97.0,"so2":5.8,"mosquito_risk":0,"arthritis_risk":5,"migraine_risk":7,"frizz_risk":0,"updated_at":"2026-05-31T20:18:26.231803+05:30"},{"city":"Latur","state":"Maharashtra","latitude":18.4088,"longitude":76.5604,"temp":32.0,"humidity":29,"rain":0.0,"pressure":939.4,"uv_index":8.95,"wind_gusts":44.3,"aqi":69,"pm10":78.2,"pm2_5":28.1,"no2":3.9,"co":167.0,"o3":88.0,"so2":2.6,"mosquito_risk":0,"arthritis_risk":5,"migraine_risk":7,"frizz_risk":0,"updated_at":"2026-05-31T20:18:26.231810+05:30"},{"city":"Nanded","state":"Maharashtra","latitude":19.1383,"longitude":77.3091,"temp":34.0,"humidity":32,"rain":0.0,"pressure":967.6,"uv_index":8.85,"wind_gusts":47.2,"aqi":77,"pm10":93.6,"pm2_5":31.2,"no2":4.3,"co":227.0,"o3":85.0,"so2":1.7,"mosquito_risk":0,"arthritis_risk":5,"migraine_risk":7,"frizz_risk":0,"updated_at":"2026-05-31T20:18:26.231817+05:30"},{"city":"Gulbarga","state":"Karnataka","latitude":17.3297,"longitude":76.8343,"temp":34.2,"humidity":29,"rain":0.0,"pressure":957.8,"uv_index":8.95,"wind_gusts":46.4,"aqi":60,"pm10":47.8,"pm2_5":21.7,"no2":15.1,"co":193.0,"o3":69.0,"so2":3.5,"mosquito_risk":0,"arthritis_risk":5,"migraine_risk":7,"frizz_risk":0,"updated_at":"2026-05-31T20:18:26.231823+05:30"},{"city":"Bidar","state":"Karnataka","latitude":17.9104,"longitude":77.5199,"temp":29.0,"humidity":52,"rain":0.0,"pressure":934.4,"uv_index":9.0,"wind_gusts":45.4,"aqi":75,"pm10":79.9,"pm2_5":35.7,"no2":16.5,"co":147.0,"o3":74.0,"so2":4.9,"mosquito_risk":4,"arthritis_risk":5,"migraine_risk":7,"frizz_risk":1,"updated_at":"2026-05-31T20:18:26.231829+05:30"},{"city":"Hospet","state":"Karnataka","latitude":15.2689,"longitude":76.3909,"temp":26.6,"humidity":71,"rain":0.0,"pressure":956.2,"uv_index":9.0,"wind_gusts":56.5,"aqi":45,"pm10":22.2,"pm2_5":14.2,"no2":5.3,"co":176.0,"o3":85.0,"so2":2.2,"mosquito_risk":7,"arthritis_risk":5,"migraine_risk":7,"frizz_risk":1,"updated_at":"2026-05-31T20:18:26.231835+05:30"},{"city":"Tirupur","state":"Tamil Nadu","latitude":11.1085,"longitude":77.3411,"temp":27.3,"humidity":81,"rain":0.0,"pressure":975.9,"uv_index":8.5,"wind_gusts":41.4,"aqi":67,"pm10":14.9,"pm2_5":11.6,"no2":7.1,"co":167.0,"o3":84.0,"so2":3.1,"mosquito_risk":7,"arthritis_risk":5,"migraine_risk":7,"frizz_risk":1,"updated_at":"2026-05-31T20:18:26.231859+05:30"},{"city":"Alappuzha","state":"Kerala","latitude":9.4981,"longitude":76.3388,"temp":26.8,"humidity":92,"rain":0.0,"pressure":1011.1,"uv_index":6.4,"wind_gusts":37.8,"aqi":46,"pm10":17.5,"pm2_5":11.5,"no2":8.6,"co":106.0,"o3":53.0,"so2":2.5,"mosquito_risk":7,"arthritis_risk":0,"migraine_risk":4,"frizz_risk":1,"updated_at":"2026-05-31T20:18:26.231866+05:30"},{"city":"Munnar","state":"Kerala","latitude":10.0889,"longitude":77.0595,"temp":18.1,"humidity":99,"rain":0.0,"pressure":858.2,"uv_index":7.95,"wind_gusts":25.9,"aqi":42,"pm10":10.7,"pm2_5":7.6,"no2":5.1,"co":182.0,"o3":72.0,"so2":1.7,"mosquito_risk":3,"arthritis_risk":10,"migraine_risk":7,"frizz_risk":1,"updated_at":"2026-05-31T20:18:26.231874+05:30"},{"city":"Silchar","state":"Assam","latitude":24.8333,"longitude":92.7789,"temp":28.5,"humidity":88,"rain":0.0,"pressure":1004.3,"uv_index":8.2,"wind_gusts":24.8,"aqi":110,"pm10":41.4,"pm2_5":32.7,"no2":9.7,"co":367.0,"o3":66.0,"so2":6.3,"mosquito_risk":7,"arthritis_risk":5,"migraine_risk":4,"frizz_risk":1,"updated_at":"2026-05-31T20:18:26.231880+05:30"},{"city":"Dibrugarh","state":"Assam","latitude":27.4728,"longitude":94.912,"temp":28.0,"humidity":91,"rain":0.0,"pressure":995.0,"uv_index":5.15,"wind_gusts":22.7,"aqi":108,"pm10":31.5,"pm2_5":28.8,"no2":16.5,"co":394.0,"o3":36.0,"so2":2.6,"mosquito_risk":7,"arthritis_risk":5,"migraine_risk":3,"frizz_risk":1,"updated_at":"2026-05-31T20:18:26.231887+05:30"}]