[{"city":"Delhi","state":"Delhi","latitude":28.6139,"longitude":77.209,"temp":37.3,"humidity":29,"rain":0.0,"pressure":976.2,"uv_index":7.8,"wind_gusts":50.8,"aqi":227,"pm10":393.9,"pm2_5":83.6,"no2":15.6,"co":330.0,"o3":105.0,"so2":13.3,"mosquito_risk":0,"arthritis_risk":5,"migraine_risk":10,"frizz_risk":1,"updated_at":"2026-06-07T19:29:13.958232+05:30"},{"city":"Mumbai","state":"Maharashtra","latitude":19.076,"longitude":72.8777,"temp":31.4,"humidity":69,"rain":0.0,"pressure":1006.0,"uv_index":7.7,"wind_gusts":38.2,"aqi":72,"pm10":54.1,"pm2_5":17.9,"no2":5.8,"co":161.0,"o3":63.0,"so2":4.9,"mosquito_risk":3,"arthritis_risk":5,"migraine_risk":4,"frizz_risk":1,"updated_at":"2026-06-07T19:29:13.958282+05:30"},{"city":"Bangalore","state":"Karnataka","latitude":12.9716,"longitude":77.5946,"temp":24.4,"humidity":76,"rain":0.0,"pressure":911.5,"uv_index":8.2,"wind_gusts":37.1,"aqi":32,"pm10":5.5,"pm2_5":5.4,"no2":12.5,"co":392.0,"o3":52.0,"so2":4.0,"mosquito_risk":3,"arthritis_risk":5,"migraine_risk":7,"frizz_risk":1,"updated_at":"2026-06-07T19:29:13.958298+05:30"},{"city":"Hyderabad","state":"Telangana","latitude":17.385,"longitude":78.4867,"temp":31.0,"humidity":53,"rain":0.0,"pressure":950.8,"uv_index":8.45,"wind_gusts":44.3,"aqi":84,"pm10":44.7,"pm2_5":29.7,"no2":14.1,"co":313.0,"o3":103.0,"so2":8.3,"mosquito_risk":0,"arthritis_risk":5,"migraine_risk":7,"frizz_risk":1,"updated_at":"2026-06-07T19:29:13.958309+05:30"},{"city":"Chennai","state":"Tamil Nadu","latitude":13.0827,"longitude":80.2707,"temp":32.7,"humidity":62,"rain":0.0,"pressure":1004.6,"uv_index":8.6,"wind_gusts":41.0,"aqi":54,"pm10":20.2,"pm2_5":14.6,"no2":6.4,"co":250.0,"o3":93.0,"so2":5.9,"mosquito_risk":3,"arthritis_risk":5,"migraine_risk":4,"frizz_risk":1,"updated_at":"2026-06-07T19:29:13.958317+05:30"},{"city":"Kolkata","state":"West Bengal","latitude":22.5726,"longitude":88.3639,"temp":29.0,"humidity":87,"rain":0.0,"pressure":1001.1,"uv_index":6.6,"wind_gusts":28.1,"aqi":130,"pm10":57.7,"pm2_5":54.6,"no2":17.6,"co":628.0,"o3":70.0,"so2":10.9,"mosquito_risk":7,"arthritis_risk":5,"migraine_risk":4,"frizz_risk":1,"updated_at":"2026-06-07T19:29:13.958326+05:30"},{"city":"Pune","state":"Maharashtra","latitude":18.5204,"longitude":73.8567,"temp":28.1,"humidity":69,"rain":0.0,"pressure":946.5,"uv_index":8.15,"wind_gusts":46.1,"aqi":56,"pm10":28.6,"pm2_5":13.8,"no2":5.6,"co":141.0,"o3":70.0,"so2":4.7,"mosquito_risk":7,"arthritis_risk":5,"migraine_risk":7,"frizz_risk":1,"updated_at":"2026-06-07T19:29:13.958333+05:30"},{"city":"Ahmedabad","state":"Gujarat","latitude":23.0225,"longitude":72.5714,"temp":36.4,"humidity":45,"rain":0.0,"pressure":996.5,"uv_index":8.05,"wind_gusts":42.5,"aqi":77,"pm10":64.7,"pm2_5":24.4,"no2":4.0,"co":147.0,"o3":89.0,"so2":4.2,"mosquito_risk":0,"arthritis_risk":5,"migraine_risk":10,"frizz_risk":1,"updated_at":"2026-06-07T19:29:13.958339+05:30"},{"city":"Jaipur","state":"Rajasthan","latitude":26.9124,"longitude":75.7873,"temp":33.9,"humidity":43,"rain":0.0,"pressure":954.2,"uv_index":8.25,"wind_gusts":32.0,"aqi":137,"pm10":175.1,"pm2_5":47.8,"no2":8.1,"co":218.0,"o3":83.0,"so2":5.6,"mosquito_risk":0,"arthritis_risk":5,"migraine_risk":7,"frizz_risk":1,"updated_at":"2026-06-07T19:29:13.958351+05:30"},{"city":"Lucknow","state":"Uttar Pradesh","latitude":26.8467,"longitude":80.9462,"temp":36.5,"humidity":34,"rain":0.0,"pressure":986.7,"uv_index":8.3,"wind_gusts":36.4,"aqi":154,"pm10":206.3,"pm2_5":61.7,"no2":6.9,"co":313.0,"o3":117.0,"so2":6.9,"mosquito_risk":0,"arthritis_risk":5,"migraine_risk":10,"frizz_risk":1,"updated_at":"2026-06-07T19:29:13.958358+05:30"},{"city":"Kanpur","state":"Uttar Pradesh","latitude":26.4499,"longitude":80.3319,"temp":37.6,"humidity":25,"rain":0.0,"pressure":985.1,"uv_index":8.3,"wind_gusts":36.0,"aqi":179,"pm10":431.2,"pm2_5":82.0,"no2":7.5,"co":184.0,"o3":114.0,"so2":6.9,"mosquito_risk":0,"arthritis_risk":5,"migraine_risk":10,"frizz_risk":0,"updated_at":"2026-06-07T19:29:13.958364+05:30"},{"city":"Chandigarh","state":"Chandigarh","latitude":30.7333,"longitude":76.7794,"temp":31.3,"humidity":43,"rain":0.0,"pressure":962.1,"uv_index":7.8,"wind_gusts":25.9,"aqi":178,"pm10":33.3,"pm2_5":28.1,"no2":7.9,"co":566.0,"o3":167.0,"so2":10.7,"mosquito_risk":0,"arthritis_risk":5,"migraine_risk":7,"frizz_risk":1,"updated_at":"2026-06-07T19:29:13.958372+05:30"},{"city":"Srinagar","state":"Jammu and Kashmir","latitude":34.0837,"longitude":74.7973,"temp":22.0,"humidity":57,"rain":0.0,"pressure":840.9,"uv_index":9.0,"wind_gusts":28.4,"aqi":123,"pm10":12.9,"pm2_5":9.7,"no2":6.2,"co":467.0,"o3":123.0,"so2":2.1,"mosquito_risk":0,"arthritis_risk":5,"migraine_risk":7,"frizz_risk":0,"updated_at":"2026-06-07T19:29:13.958380+05:30"},{"city":"Jammu","state":"Jammu and Kashmir","latitude":32.7266,"longitude":74.857,"temp":35.2,"humidity":25,"rain":0.0,"pressure":966.3,"uv_index":8.6,"wind_gusts":27.0,"aqi":150,"pm10":16.9,"pm2_5":11.4,"no2":6.4,"co":209.0,"o3":144.0,"so2":2.8,"mosquito_risk":0,"arthritis_risk":5,"migraine_risk":10,"frizz_risk":0,"updated_at":"2026-06-07T19:29:13.958387+05:30"},{"city":"Amritsar","state":"Punjab","latitude":31.634,"longitude":74.8723,"temp":37.0,"humidity":21,"rain":0.0,"pressure":973.9,"uv_index":8.45,"wind_gusts":26.6,"aqi":176,"pm10":39.6,"pm2_5":28.6,"no2":9.8,"co":322.0,"o3":170.0,"so2":8.8,"mosquito_risk":0,"arthritis_risk":5,"migraine_risk":10,"frizz_risk":0,"updated_at":"2026-06-07T19:29:13.958393+05:30"},{"city":"Ludhiana","state":"Punjab","latitude":30.901,"longitude":75.8573,"temp":36.0,"humidity":24,"rain":0.0,"pressure":972.0,"uv_index":8.05,"wind_gusts":34.6,"aqi":169,"pm10":40.2,"pm2_5":30.3,"no2":8.1,"co":257.0,"o3":143.0,"so2":5.5,"mosquito_risk":0,"arthritis_risk":5,"migraine_risk":10,"frizz_risk":0,"updated_at":"2026-06-07T19:29:13.958399+05:30"},{"city":"Jalandhar","state":"Punjab","latitude":31.326,"longitude":75.5762,"temp":36.4,"humidity":22,"rain":0.0,"pressure":972.9,"uv_index":8.25,"wind_gusts":28.8,"aqi":167,"pm10":38.4,"pm2_5":28.7,"no2":10.1,"co":396.0,"o3":148.0,"so2":5.7,"mosquito_risk":0,"arthritis_risk":5,"migraine_risk":10,"frizz_risk":0,"updated_at":"2026-06-07T19:29:13.958405+05:30"},{"city":"Dehradun","state":"Uttarakhand","latitude":30.6284,"longitude":78.0322,"temp":20.0,"humidity":71,"rain":0.0,"pressure":827.7,"uv_index":8.3,"wind_gusts":47.5,"aqi":127,"pm10":22.8,"pm2_5":15.9,"no2":5.3,"co":218.0,"o3":150.0,"so2":4.6,"mosquito_risk":3,"arthritis_risk":5,"migraine_risk":7,"frizz_risk":0,"updated_at":"2026-06-07T19:29:13.958414+05:30"},{"city":"Shimla","state":"Himachal Pradesh","latitude":31.1048,"longitude":77.1734,"temp":17.9,"humidity":46,"rain":0.0,"pressure":782.5,"uv_index":8.35,"wind_gusts":44.3,"aqi":141,"pm10":16.9,"pm2_5":12.0,"no2":3.2,"co":221.0,"o3":157.0,"so2":4.7,"mosquito_risk":0,"arthritis_risk":5,"migraine_risk":7,"frizz_risk":0,"updated_at":"2026-06-07T19:29:13.958422+05:30"},{"city":"Manali","state":"Himachal Pradesh","latitude":32.2396,"longitude":77.1887,"temp":18.3,"humidity":64,"rain":0.0,"pressure":816.9,"uv_index":9.35,"wind_gusts":35.6,"aqi":137,"pm10":12.6,"pm2_5":10.5,"no2":14.6,"co":160.0,"o3":145.0,"so2":0.5,"mosquito_risk":3,"arthritis_risk":5,"migraine_risk":7,"frizz_risk":0,"updated_at":"2026-06-07T19:29:13.958429+05:30"},{"city":"Gurgaon","state":"Haryana","latitude":28.4595,"longitude":77.0266,"temp":36.4,"humidity":34,"rain":0.0,"pressure":974.7,"uv_index":7.9,"wind_gusts":47.2,"aqi":455,"pm10":402.3,"pm2_5":77.1,"no2":15.1,"co":335.0,"o3":98.0,"so2":10.7,"mosquito_risk":0,"arthritis_risk":5,"migraine_risk":10,"frizz_risk":1,"updated_at":"2026-06-07T19:29:13.958435+05:30"},{"city":"Noida","state":"Uttar Pradesh","latitude":28.5355,"longitude":77.391,"temp":36.1,"humidity":34,"rain":0.0,"pressure":977.5,"uv_index":7.85,"wind_gusts":41.0,"aqi":455,"pm10":402.3,"pm2_5":77.1,"no2":15.1,"co":551.0,"o3":98.0,"so2":10.7,"mosquito_risk":0,"arthritis_risk":5,"migraine_risk":10,"frizz_risk":1,"updated_at":"2026-06-07T19:29:13.958442+05:30"},{"city":"Ghaziabad","state":"Uttar Pradesh","latitude":28.6692,"longitude":77.4538,"temp":33.9,"humidity":55,"rain":0.0,"pressure":975.6,"uv_index":7.8,"wind_gusts":41.4,"aqi":186,"pm10":276.6,"pm2_5":77.8,"no2":14.6,"co":301.0,"o3":123.0,"so2":16.9,"mosquito_risk":0,"arthritis_risk":5,"migraine_risk":7,"frizz_risk":1,"updated_at":"2026-06-07T19:29:13.958451+05:30"},{"city":"Faridabad","state":"Haryana","latitude":28.4089,"longitude":77.3178,"temp":37.6,"humidity":29,"rain":0.0,"pressure":977.0,"uv_index":7.85,"wind_gusts":50.4,"aqi":455,"pm10":402.3,"pm2_5":77.1,"no2":15.1,"co":277.0,"o3":98.0,"so2":10.7,"mosquito_risk":0,"arthritis_risk":5,"migraine_risk":10,"frizz_risk":1,"updated_at":"2026-06-07T19:29:13.958457+05:30"},{"city":"Meerut","state":"Uttar Pradesh","latitude":28.9845,"longitude":77.7064,"temp":34.0,"humidity":50,"rain":0.0,"pressure":974.4,"uv_index":7.7,"wind_gusts":35.6,"aqi":186,"pm10":276.6,"pm2_5":77.8,"no2":14.6,"co":294.0,"o3":123.0,"so2":16.9,"mosquito_risk":0,"arthritis_risk":5,"migraine_risk":7,"frizz_risk":1,"updated_at":"2026-06-07T19:29:13.958464+05:30"},{"city":"Agra","state":"Uttar Pradesh","latitude":27.1767,"longitude":78.0081,"temp":36.8,"humidity":33,"rain":0.0,"pressure":981.2,"uv_index":8.15,"wind_gusts":29.2,"aqi":406,"pm10":491.7,"pm2_5":92.4,"no2":17.2,"co":312.0,"o3":94.0,"so2":8.8,"mosquito_risk":0,"arthritis_risk":5,"migraine_risk":10,"frizz_risk":1,"updated_at":"2026-06-07T19:29:13.958470+05:30"},{"city":"Varanasi","state":"Uttar Pradesh","latitude":25.3176,"longitude":82.9739,"temp":35.4,"humidity":36,"rain":0.0,"pressure":991.4,"uv_index":8.75,"wind_gusts":36.0,"aqi":165,"pm10":107.1,"pm2_5":50.8,"no2":14.8,"co":384.0,"o3":137.0,"so2":12.9,"mosquito_risk":0,"arthritis_risk":5,"migraine_risk":10,"frizz_risk":1,"updated_at":"2026-06-07T19:29:13.958476+05:30"},{"city":"Prayagraj","state":"Uttar Pradesh","latitude":25.4358,"longitude":81.8463,"temp":35.9,"humidity":42,"rain":0.0,"pressure":989.6,"uv_index":8.7,"wind_gusts":32.0,"aqi":164,"pm10":122.0,"pm2_5":48.3,"no2":10.3,"co":325.0,"o3":129.0,"so2":10.2,"mosquito_risk":0,"arthritis_risk":5,"migraine_risk":10,"frizz_risk":1,"updated_at":"2026-06-07T19:29:13.958483+05:30"},{"city":"Gorakhpur","state":"Uttar Pradesh","latitude":26.7606,"longitude":83.3732,"temp":31.8,"humidity":63,"rain":0.0,"pressure":990.8,"uv_index":8.7,"wind_gusts":29.9,"aqi":145,"pm10":87.5,"pm2_5":48.7,"no2":15.7,"co":341.0,"o3":124.0,"so2":11.3,"mosquito_risk":3,"arthritis_risk":5,"migraine_risk":7,"frizz_risk":1,"updated_at":"2026-06-07T19:29:13.958492+05:30"},{"city":"Bareilly","state":"Uttar Pradesh","latitude":28.367,"longitude":79.4304,"temp":33.5,"humidity":46,"rain":0.0,"pressure":979.7,"uv_index":8.15,"wind_gusts":41.4,"aqi":166,"pm10":75.0,"pm2_5":43.2,"no2":5.7,"co":284.0,"o3":151.0,"so2":9.4,"mosquito_risk":0,"arthritis_risk":5,"migraine_risk":7,"frizz_risk":1,"updated_at":"2026-06-07T19:29:13.958498+05:30"},{"city":"Aligarh","state":"Uttar Pradesh","latitude":27.8974,"longitude":78.088,"temp":34.2,"humidity":49,"rain":0.0,"pressure":978.7,"uv_index":8.0,"wind_gusts":30.6,"aqi":391,"pm10":351.1,"pm2_5":80.6,"no2":14.8,"co":284.0,"o3":115.0,"so2":11.2,"mosquito_risk":0,"arthritis_risk":5,"migraine_risk":7,"frizz_risk":1,"updated_at":"2026-06-07T19:29:13.958505+05:30"},{"city":"Moradabad","state":"Uttar Pradesh","latitude":28.8386,"longitude":78.7733,"temp":34.2,"humidity":47,"rain":0.0,"pressure":976.7,"uv_index":7.95,"wind_gusts":32.4,"aqi":193,"pm10":96.9,"pm2_5":52.0,"no2":12.3,"co":359.0,"o3":123.0,"so2":9.2,"mosquito_risk":0,"arthritis_risk":5,"migraine_risk":7,"frizz_risk":1,"updated_at":"2026-06-07T19:29:13.958511+05:30"},{"city":"Saharanpur","state":"Uttar Pradesh","latitude":29.9637,"longitude":77.546,"temp":32.2,"humidity":53,"rain":0.0,"pressure":968.6,"uv_index":7.55,"wind_gusts":32.0,"aqi":176,"pm10":70.3,"pm2_5":41.6,"no2":9.7,"co":323.0,"o3":143.0,"so2":12.0,"mosquito_risk":0,"arthritis_risk":5,"migraine_risk":7,"frizz_risk":1,"updated_at":"2026-06-07T19:29:13.958517+05:30"},{"city":"Jhansi","state":"Uttar Pradesh","latitude":25.4484,"longitude":78.5685,"temp":34.0,"humidity":45,"rain":0.0,"pressure":972.1,"uv_index":8.5,"wind_gusts":32.8,"aqi":98,"pm10":72.9,"pm2_5":30.0,"no2":5.0,"co":183.0,"o3":99.0,"so2":4.5,"mosquito_risk":0,"arthritis_risk":5,"migraine_risk":7,"frizz_risk":1,"updated_at":"2026-06-07T19:29:17.448504+05:30"},{"city":"Surat","state":"Gujarat","latitude":21.1702,"longitude":72.8311,"temp":31.2,"humidity":74,"rain":0.0,"pressure":1002.8,"uv_index":7.6,"wind_gusts":45.4,"aqi":88,"pm10":41.0,"pm2_5":19.7,"no2":14.6,"co":220.0,"o3":44.0,"so2":31.4,"mosquito_risk":3,"arthritis_risk":5,"migraine_risk":4,"frizz_risk":1,"updated_at":"2026-06-07T19:29:17.448542+05:30"},{"city":"Vadodara","state":"Gujarat","latitude":22.3072,"longitude":73.1812,"temp":34.9,"humidity":50,"rain":0.0,"pressure":999.5,"uv_index":7.4,"wind_gusts":41.4,"aqi":87,"pm10":67.3,"pm2_5":30.2,"no2":5.2,"co":136.0,"o3":96.0,"so2":10.3,"mosquito_risk":0,"arthritis_risk":5,"migraine_risk":7,"frizz_risk":1,"updated_at":"2026-06-07T19:29:17.448552+05:30"},{"city":"Rajkot","state":"Gujarat","latitude":22.3039,"longitude":70.8022,"temp":33.0,"humidity":63,"rain":0.0,"pressure":989.7,"uv_index":7.45,"wind_gusts":52.6,"aqi":69,"pm10":51.9,"pm2_5":22.1,"no2":2.2,"co":113.0,"o3":85.0,"so2":4.9,"mosquito_risk":3,"arthritis_risk":5,"migraine_risk":7,"frizz_risk":1,"updated_at":"2026-06-07T19:29:17.448561+05:30"},{"city":"Thane","state":"Maharashtra","latitude":19.2183,"longitude":72.9781,"temp":32.3,"humidity":62,"rain":0.0,"pressure":1005.3,"uv_index":7.7,"wind_gusts":41.4,"aqi":72,"pm10":54.1,"pm2_5":17.9,"no2":5.8,"co":146.0,"o3":63.0,"so2":4.9,"mosquito_risk":3,"arthritis_risk":5,"migraine_risk":4,"frizz_risk":1,"updated_at":"2026-06-07T19:29:17.448569+05:30"},{"city":"Nagpur","state":"Maharashtra","latitude":21.1458,"longitude":79.0882,"temp":37.0,"humidity":29,"rain":0.0,"pressure":968.8,"uv_index":8.75,"wind_gusts":42.8,"aqi":99,"pm10":80.8,"pm2_5":34.2,"no2":7.1,"co":197.0,"o3":106.0,"so2":14.1,"mosquito_risk":0,"arthritis_risk":5,"migraine_risk":10,"frizz_risk":1,"updated_at":"2026-06-07T19:29:17.448577+05:30"},{"city":"Nashik","state":"Maharashtra","latitude":19.9975,"longitude":73.7898,"temp":29.4,"humidity":59,"rain":0.0,"pressure":943.4,"uv_index":7.9,"wind_gusts":44.6,"aqi":64,"pm10":65.9,"pm2_5":21.9,"no2":1.5,"co":123.0,"o3":67.0,"so2":1.1,"mosquito_risk":4,"arthritis_risk":5,"migraine_risk":7,"frizz_risk":1,"updated_at":"2026-06-07T19:29:17.448585+05:30"},{"city":"Aurangabad","state":"Maharashtra","latitude":19.8762,"longitude":75.3433,"temp":34.4,"humidity":31,"rain":0.0,"pressure":941.2,"uv_index":8.95,"wind_gusts":41.4,"aqi":66,"pm10":64.5,"pm2_5":23.6,"no2":2.4,"co":147.0,"o3":97.0,"so2":2.5,"mosquito_risk":0,"arthritis_risk":5,"migraine_risk":7,"frizz_risk":0,"updated_at":"2026-06-07T19:29:17.448593+05:30"},{"city":"Solapur","state":"Maharashtra","latitude":17.6599,"longitude":75.9064,"temp":31.1,"humidity":54,"rain":0.1,"pressure":954.5,"uv_index":6.3,"wind_gusts":36.4,"aqi":64,"pm10":49.6,"pm2_5":24.7,"no2":4.1,"co":136.0,"o3":102.0,"so2":3.9,"mosquito_risk":3,"arthritis_risk":5,"migraine_risk":7,"frizz_risk":1,"updated_at":"2026-06-07T19:29:17.448601+05:30"},{"city":"Kolhapur","state":"Maharashtra","latitude":16.705,"longitude":74.2433,"temp":24.4,"humidity":85,"rain":0.0,"pressure":947.1,"uv_index":8.25,"wind_gusts":46.1,"aqi":34,"pm10":17.0,"pm2_5":9.5,"no2":3.4,"co":134.0,"o3":70.0,"so2":2.0,"mosquito_risk":3,"arthritis_risk":5,"migraine_risk":7,"frizz_risk":1,"updated_at":"2026-06-07T19:29:17.448609+05:30"},{"city":"Goa","state":"Goa","latitude":15.2993,"longitude":74.124,"temp":24.9,"humidity":97,"rain":0.1,"pressure":998.3,"uv_index":5.1,"wind_gusts":26.6,"aqi":41,"pm10":8.4,"pm2_5":5.5,"no2":2.0,"co":175.0,"o3":62.0,"so2":1.0,"mosquito_risk":6,"arthritis_risk":5,"migraine_risk":3,"frizz_risk":1,"updated_at":"2026-06-07T19:29:17.448618+05:30"},{"city":"Jodhpur","state":"Rajasthan","latitude":26.2389,"longitude":73.0243,"temp":37.9,"humidity":34,"rain":0.0,"pressure":977.0,"uv_index":8.4,"wind_gusts":37.1,"aqi":130,"pm10":300.8,"pm2_5":57.7,"no2":2.3,"co":141.0,"o3":85.0,"so2":2.0,"mosquito_risk":0,"arthritis_risk":5,"migraine_risk":10,"frizz_risk":1,"updated_at":"2026-06-07T19:29:17.448625+05:30"},{"city":"Udaipur","state":"Rajasthan","latitude":24.5854,"longitude":73.7125,"temp":33.3,"humidity":45,"rain":0.0,"pressure":942.8,"uv_index":8.8,"wind_gusts":34.2,"aqi":77,"pm10":55.5,"pm2_5":23.2,"no2":1.6,"co":134.0,"o3":90.0,"so2":2.9,"mosquito_risk":0,"arthritis_risk":5,"migraine_risk":7,"frizz_risk":1,"updated_at":"2026-06-07T19:29:17.448632+05:30"},{"city":"Kota","state":"Rajasthan","latitude":25.2138,"longitude":75.8648,"temp":34.9,"humidity":38,"rain":0.0,"pressure":972.9,"uv_index":8.35,"wind_gusts":31.0,"aqi":107,"pm10":91.5,"pm2_5":32.5,"no2":5.3,"co":181.0,"o3":100.0,"so2":5.4,"mosquito_risk":0,"arthritis_risk":5,"migraine_risk":7,"frizz_risk":1,"updated_at":"2026-06-07T19:29:17.448640+05:30"},{"city":"Bikaner","state":"Rajasthan","latitude":28.0229,"longitude":73.3119,"temp":39.3,"humidity":20,"rain":0.0,"pressure":974.9,"uv_index":8.45,"wind_gusts":32.4,"aqi":131,"pm10":140.6,"pm2_5":47.8,"no2":1.6,"co":159.0,"o3":92.0,"so2":2.6,"mosquito_risk":0,"arthritis_risk":5,"migraine_risk":10,"frizz_risk":0,"updated_at":"2026-06-07T19:29:17.448647+05:30"},{"city":"Ajmer","state":"Rajasthan","latitude":26.4499,"longitude":74.6399,"temp":33.8,"humidity":36,"rain":0.0,"pressure":949.5,"uv_index":8.35,"wind_gusts":37.4,"aqi":93,"pm10":133.6,"pm2_5":37.5,"no2":3.1,"co":153.0,"o3":90.0,"so2":3.2,"mosquito_risk":0,"arthritis_risk":5,"migraine_risk":7,"frizz_risk":1,"updated_at":"2026-06-07T19:29:17.448655+05:30"},{"city":"Gwalior","state":"Madhya Pradesh","latitude":26.2183,"longitude":78.1828,"temp":36.4,"humidity":30,"rain":0.0,"pressure":977.1,"uv_index":8.3,"wind_gusts":34.6,"aqi":105,"pm10":115.3,"pm2_5":36.8,"no2":5.2,"co":143.0,"o3":103.0,"so2":3.7,"mosquito_risk":0,"arthritis_risk":5,"migraine_risk":10,"frizz_risk":0,"updated_at":"2026-06-07T19:29:17.448662+05:30"},{"city":"Indore","state":"Madhya Pradesh","latitude":22.7196,"longitude":75.8577,"temp":33.1,"humidity":46,"rain":0.0,"pressure":944.4,"uv_index":8.65,"wind_gusts":34.9,"aqi":95,"pm10":63.8,"pm2_5":29.0,"no2":3.5,"co":257.0,"o3":99.0,"so2":5.1,"mosquito_risk":0,"arthritis_risk":5,"migraine_risk":7,"frizz_risk":1,"updated_at":"2026-06-07T19:29:17.448669+05:30"},{"city":"Bhopal","state":"Madhya Pradesh","latitude":23.2599,"longitude":77.4126,"temp":30.6,"humidity":61,"rain":0.0,"pressure":950.0,"uv_index":8.7,"wind_gusts":51.5,"aqi":105,"pm10":56.7,"pm2_5":29.9,"no2":5.3,"co":283.0,"o3":92.0,"so2":4.5,"mosquito_risk":3,"arthritis_risk":5,"migraine_risk":7,"frizz_risk":1,"updated_at":"2026-06-07T19:29:17.448677+05:30"},{"city":"Jabalpur","state":"Madhya Pradesh","latitude":23.1815,"longitude":79.9864,"temp":33.3,"humidity":49,"rain":0.0,"pressure":957.0,"uv_index":8.9,"wind_gusts":29.9,"aqi":112,"pm10":92.7,"pm2_5":39.0,"no2":4.4,"co":191.0,"o3":99.0,"so2":3.7,"mosquito_risk":0,"arthritis_risk":5,"migraine_risk":7,"frizz_risk":1,"updated_at":"2026-06-07T19:29:17.448683+05:30"},{"city":"Ujjain","state":"Madhya Pradesh","latitude":23.1765,"longitude":75.7885,"temp":32.6,"humidity":53,"rain":0.0,"pressure":949.6,"uv_index":8.6,"wind_gusts":34.9,"aqi":90,"pm10":59.1,"pm2_5":27.7,"no2":2.0,"co":206.0,"o3":100.0,"so2":4.8,"mosquito_risk":0,"arthritis_risk":5,"migraine_risk":7,"frizz_risk":1,"updated_at":"2026-06-07T19:29:17.448691+05:30"},{"city":"Visakhapatnam","state":"Andhra Pradesh","latitude":17.6868,"longitude":83.2185,"temp":32.5,"humidity":77,"rain":0.0,"pressure":998.6,"uv_index":8.2,"wind_gusts":41.0,"aqi":161,"pm10":48.9,"pm2_5":39.2,"no2":21.7,"co":289.0,"o3":141.0,"so2":46.1,"mosquito_risk":3,"arthritis_risk":5,"migraine_risk":7,"frizz_risk":1,"updated_at":"2026-06-07T19:29:17.448698+05:30"},{"city":"Vijayawada","state":"Andhra Pradesh","latitude":16.5062,"longitude":80.648,"temp":35.8,"humidity":43,"rain":0.0,"pressure":998.1,"uv_index":8.0,"wind_gusts":37.8,"aqi":91,"pm10":44.2,"pm2_5":33.6,"no2":7.0,"co":201.0,"o3":102.0,"so2":5.3,"mosquito_risk":0,"arthritis_risk":5,"migraine_risk":10,"frizz_risk":1,"updated_at":"2026-06-07T19:29:17.448705+05:30"},{"city":"Guntur","state":"Andhra Pradesh","latitude":16.3067,"longitude":80.4365,"temp":35.0,"humidity":46,"rain":0.0,"pressure":999.5,"uv_index":8.2,"wind_gusts":43.2,"aqi":88,"pm10":50.1,"pm2_5":35.6,"no2":6.2,"co":200.0,"o3":110.0,"so2":5.0,"mosquito_risk":0,"arthritis_risk":5,"migraine_risk":7,"frizz_risk":1,"updated_at":"2026-06-07T19:29:17.448712+05:30"},{"city":"Nellore","state":"Andhra Pradesh","latitude":14.4426,"longitude":79.9865,"temp":30.5,"humidity":75,"rain":0.1,"pressure":1003.3,"uv_index":8.1,"wind_gusts":37.4,"aqi":78,"pm10":20.1,"pm2_5":15.3,"no2":2.8,"co":194.0,"o3":115.0,"so2":4.0,"mosquito_risk":6,"arthritis_risk":5,"migraine_risk":4,"frizz_risk":1,"updated_at":"2026-06-07T19:29:17.448720+05:30"},{"city":"Kurnool","state":"Andhra Pradesh","latitude":15.8281,"longitude":78.0373,"temp":31.9,"humidity":54,"rain":0.0,"pressure":974.5,"uv_index":7.95,"wind_gusts":48.6,"aqi":80,"pm10":48.5,"pm2_5":28.7,"no2":5.2,"co":175.0,"o3":123.0,"so2":10.0,"mosquito_risk":0,"arthritis_risk":5,"migraine_risk":7,"frizz_risk":1,"updated_at":"2026-06-07T19:29:17.448727+05:30"},{"city":"Kakinada","state":"Andhra Pradesh","latitude":16.9891,"longitude":82.2475,"temp":34.0,"humidity":57,"rain":0.0,"pressure":1002.5,"uv_index":7.95,"wind_gusts":38.9,"aqi":142,"pm10":36.2,"pm2_5":27.2,"no2":3.1,"co":259.0,"o3":137.0,"so2":4.2,"mosquito_risk":0,"arthritis_risk":5,"migraine_risk":4,"frizz_risk":1,"updated_at":"2026-06-07T19:29:17.448734+05:30"},{"city":"Tirupati","state":"Andhra Pradesh","latitude":13.6288,"longitude":79.4192,"temp":30.3,"humidity":69,"rain":0.0,"pressure":988.7,"uv_index":8.25,"wind_gusts":36.7,"aqi":43,"pm10":17.1,"pm2_5":14.6,"no2":9.9,"co":213.0,"o3":70.0,"so2":2.1,"mosquito_risk":3,"arthritis_risk":5,"migraine_risk":7,"frizz_risk":1,"updated_at":"2026-06-07T19:29:17.448741+05:30"},{"city":"Warangal","state":"Telangana","latitude":17.9689,"longitude":79.5941,"temp":34.2,"humidity":50,"rain":0.0,"pressure":974.4,"uv_index":7.75,"wind_gusts":40.3,"aqi":103,"pm10":74.7,"pm2_5":48.2,"no2":5.4,"co":278.0,"o3":112.0,"so2":6.9,"mosquito_risk":0,"arthritis_risk":5,"migraine_risk":7,"frizz_risk":1,"updated_at":"2026-06-07T19:29:17.448747+05:30"},{"city":"Nizamabad","state":"Telangana","latitude":18.6725,"longitude":78.0941,"temp":27.9,"humidity":78,"rain":0.1,"pressure":962.3,"uv_index":8.7,"wind_gusts":47.9,"aqi":90,"pm10":50.3,"pm2_5":27.8,"no2":4.4,"co":213.0,"o3":101.0,"so2":4.2,"mosquito_risk":10,"arthritis_risk":5,"migraine_risk":7,"frizz_risk":1,"updated_at":"2026-06-07T19:29:17.448754+05:30"},{"city":"Mysore","state":"Karnataka","latitude":12.2958,"longitude":76.6396,"temp":24.0,"humidity":79,"rain":0.0,"pressure":928.6,"uv_index":7.85,"wind_gusts":44.6,"aqi":29,"pm10":3.9,"pm2_5":3.7,"no2":7.7,"co":158.0,"o3":49.0,"so2":1.6,"mosquito_risk":3,"arthritis_risk":5,"migraine_risk":7,"frizz_risk":1,"updated_at":"2026-06-07T19:29:17.448760+05:30"},{"city":"Mangalore","state":"Karnataka","latitude":12.9141,"longitude":74.856,"temp":25.2,"humidity":95,"rain":0.1,"pressure":1007.8,"uv_index":2.25,"wind_gusts":28.8,"aqi":26,"pm10":9.8,"pm2_5":6.3,"no2":5.2,"co":221.0,"o3":47.0,"so2":1.5,"mosquito_risk":10,"arthritis_risk":5,"migraine_risk":0,"frizz_risk":1,"updated_at":"2026-06-07T19:29:17.448767+05:30"},{"city":"Hubli-Dharwad","state":"Karnataka","latitude":15.3647,"longitude":75.124,"temp":22.4,"humidity":97,"rain":0.4,"pressure":940.3,"uv_index":4.85,"wind_gusts":37.1,"aqi":33,"pm10":10.7,"pm2_5":6.0,"no2":3.4,"co":141.0,"o3":65.0,"so2":1.1,"mosquito_risk":6,"arthritis_risk":5,"migraine_risk":3,"frizz_risk":1,"updated_at":"2026-06-07T19:29:17.448774+05:30"},{"city":"Belgaum","state":"Karnataka","latitude":15.8497,"longitude":74.4977,"temp":21.5,"humidity":98,"rain":0.2,"pressure":925.1,"uv_index":5.9,"wind_gusts":42.1,"aqi":27,"pm10":13.2,"pm2_5":7.4,"no2":3.6,"co":146.0,"o3":58.0,"so2":1.6,"mosquito_risk":6,"arthritis_risk":5,"migraine_risk":3,"frizz_risk":1,"updated_at":"2026-06-07T19:29:20.762386+05:30"},{"city":"Coimbatore","state":"Tamil Nadu","latitude":11.0168,"longitude":76.9558,"temp":24.5,"humidity":89,"rain":0.0,"pressure":961.9,"uv_index":7.4,"wind_gusts":58.7,"aqi":27,"pm10":2.2,"pm2_5":1.9,"no2":4.1,"co":197.0,"o3":50.0,"so2":1.6,"mosquito_risk":3,"arthritis_risk":5,"migraine_risk":7,"frizz_risk":1,"updated_at":"2026-06-07T19:29:20.762422+05:30"},{"city":"Madurai","state":"Tamil Nadu","latitude":9.9252,"longitude":78.1198,"temp":30.8,"humidity":55,"rain":0.0,"pressure":992.6,"uv_index":8.65,"wind_gusts":71.6,"aqi":32,"pm10":3.1,"pm2_5":2.4,"no2":3.2,"co":116.0,"o3":62.0,"so2":1.5,"mosquito_risk":0,"arthritis_risk":5,"migraine_risk":7,"frizz_risk":1,"updated_at":"2026-06-07T19:29:20.762435+05:30"},{"city":"Trichy","state":"Tamil Nadu","latitude":10.7905,"longitude":78.7047,"temp":32.7,"humidity":51,"rain":0.0,"pressure":998.5,"uv_index":8.0,"wind_gusts":47.2,"aqi":38,"pm10":9.3,"pm2_5":7.7,"no2":6.6,"co":160.0,"o3":62.0,"so2":2.5,"mosquito_risk":0,"arthritis_risk":5,"migraine_risk":7,"frizz_risk":1,"updated_at":"2026-06-07T19:29:20.762445+05:30"},{"city":"Salem","state":"Tamil Nadu","latitude":11.6643,"longitude":78.146,"temp":29.5,"humidity":62,"rain":0.0,"pressure":976.9,"uv_index":8.6,"wind_gusts":40.0,"aqi":39,"pm10":4.5,"pm2_5":4.0,"no2":5.9,"co":155.0,"o3":69.0,"so2":4.2,"mosquito_risk":7,"arthritis_risk":5,"migraine_risk":7,"frizz_risk":1,"updated_at":"2026-06-07T19:29:20.762454+05:30"},{"city":"Tirunelveli","state":"Tamil Nadu","latitude":8.7139,"longitude":77.7567,"temp":29.5,"humidity":66,"rain":0.0,"pressure":1003.9,"uv_index":8.0,"wind_gusts":54.4,"aqi":25,"pm10":6.8,"pm2_5":4.7,"no2":3.1,"co":112.0,"o3":48.0,"so2":0.7,"mosquito_risk":7,"arthritis_risk":5,"migraine_risk":4,"frizz_risk":1,"updated_at":"2026-06-07T19:29:20.762462+05:30"},{"city":"Vellore","state":"Tamil Nadu","latitude":12.9165,"longitude":79.1325,"temp":31.0,"humidity":58,"rain":0.0,"pressure":982.5,"uv_index":7.65,"wind_gusts":44.3,"aqi":41,"pm10":8.4,"pm2_5":7.9,"no2":8.3,"co":277.0,"o3":69.0,"so2":2.7,"mosquito_risk":0,"arthritis_risk":5,"migraine_risk":7,"frizz_risk":1,"updated_at":"2026-06-07T19:29:20.762470+05:30"},{"city":"Erode","state":"Tamil Nadu","latitude":11.341,"longitude":77.7172,"temp":28.0,"humidity":69,"rain":0.0,"pressure":988.6,"uv_index":7.85,"wind_gusts":53.3,"aqi":34,"pm10":3.5,"pm2_5":3.0,"no2":4.1,"co":160.0,"o3":61.0,"so2":1.7,"mosquito_risk":7,"arthritis_risk":5,"migraine_risk":7,"frizz_risk":1,"updated_at":"2026-06-07T19:29:20.762478+05:30"},{"city":"Kochi","state":"Kerala","latitude":9.9312,"longitude":76.2673,"temp":25.8,"humidity":91,"rain":0.2,"pressure":1010.8,"uv_index":6.45,"wind_gusts":48.2,"aqi":39,"pm10":11.2,"pm2_5":7.5,"no2":7.4,"co":114.0,"o3":38.0,"so2":2.2,"mosquito_risk":10,"arthritis_risk":0,"migraine_risk":4,"frizz_risk":1,"updated_at":"2026-06-07T19:29:20.762486+05:30"},{"city":"Thiruvananthapuram","state":"Kerala","latitude":8.5241,"longitude":76.9366,"temp":25.6,"humidity":92,"rain":0.0,"pressure":1010.4,"uv_index":7.4,"wind_gusts":49.3,"aqi":30,"pm10":13.1,"pm2_5":7.0,"no2":1.2,"co":97.0,"o3":52.0,"so2":0.3,"mosquito_risk":7,"arthritis_risk":0,"migraine_risk":4,"frizz_risk":1,"updated_at":"2026-06-07T19:29:20.762494+05:30"},{"city":"Kozhikode","state":"Kerala","latitude":11.2588,"longitude":75.7804,"temp":24.9,"humidity":97,"rain":0.1,"pressure":1009.5,"uv_index":5.45,"wind_gusts":37.1,"aqi":28,"pm10":8.1,"pm2_5":4.3,"no2":0.7,"co":192.0,"o3":58.0,"so2":0.3,"mosquito_risk":6,"arthritis_risk":0,"migraine_risk":0,"frizz_risk":1,"updated_at":"2026-06-07T19:29:20.762501+05:30"},{"city":"Thrissur","state":"Kerala","latitude":10.5276,"longitude":76.2144,"temp":24.6,"humidity":98,"rain":0.2,"pressure":1009.1,"uv_index":4.6,"wind_gusts":39.2,"aqi":38,"pm10":9.4,"pm2_5":6.8,"no2":6.0,"co":150.0,"o3":40.0,"so2":1.8,"mosquito_risk":6,"arthritis_risk":0,"migraine_risk":0,"frizz_risk":1,"updated_at":"2026-06-07T19:29:20.762509+05:30"},{"city":"Kannur","state":"Kerala","latitude":11.8745,"longitude":75.3704,"temp":25.3,"humidity":95,"rain":0.2,"pressure":1008.5,"uv_index":1.5,"wind_gusts":42.1,"aqi":27,"pm10":8.3,"pm2_5":5.2,"no2":4.8,"co":211.0,"o3":54.0,"so2":1.2,"mosquito_risk":10,"arthritis_risk":0,"migraine_risk":0,"frizz_risk":1,"updated_at":"2026-06-07T19:29:20.762517+05:30"},{"city":"Patna","state":"Bihar","latitude":25.5941,"longitude":85.1376,"temp":30.9,"humidity":72,"rain":0.0,"pressure":994.3,"uv_index":8.7,"wind_gusts":30.2,"aqi":180,"pm10":98.7,"pm2_5":71.0,"no2":20.9,"co":422.0,"o3":126.0,"so2":13.2,"mosquito_risk":3,"arthritis_risk":5,"migraine_risk":7,"frizz_risk":1,"updated_at":"2026-06-07T19:29:20.762524+05:30"},{"city":"Gaya","state":"Bihar","latitude":24.7914,"longitude":85.0002,"temp":32.2,"humidity":58,"rain":0.0,"pressure":987.9,"uv_index":8.65,"wind_gusts":27.0,"aqi":155,"pm10":100.8,"pm2_5":71.2,"no2":18.6,"co":424.0,"o3":104.0,"so2":10.5,"mosquito_risk":0,"arthritis_risk":5,"migraine_risk":7,"frizz_risk":1,"updated_at":"2026-06-07T19:29:20.762531+05:30"},{"city":"Muzaffarpur","state":"Bihar","latitude":26.1209,"longitude":85.3647,"temp":30.8,"humidity":73,"rain":0.0,"pressure":994.3,"uv_index":8.6,"wind_gusts":27.0,"aqi":174,"pm10":96.6,"pm2_5":71.9,"no2":17.6,"co":437.0,"o3":127.0,"so2":12.3,"mosquito_risk":3,"arthritis_risk":5,"migraine_risk":7,"frizz_risk":1,"updated_at":"2026-06-07T19:29:20.762539+05:30"},{"city":"Bhagalpur","state":"Bihar","latitude":25.2425,"longitude":87.0117,"temp":32.2,"humidity":70,"rain":0.0,"pressure":995.1,"uv_index":8.85,"wind_gusts":22.0,"aqi":184,"pm10":78.9,"pm2_5":61.0,"no2":9.8,"co":325.0,"o3":150.0,"so2":13.7,"mosquito_risk":3,"arthritis_risk":5,"migraine_risk":7,"frizz_risk":1,"updated_at":"2026-06-07T19:29:20.762546+05:30"},{"city":"Ranchi","state":"Jharkhand","latitude":23.3441,"longitude":85.3096,"temp":27.8,"humidity":65,"rain":0.0,"pressure":933.6,"uv_index":9.15,"wind_gusts":43.6,"aqi":150,"pm10":97.8,"pm2_5":57.0,"no2":11.5,"co":279.0,"o3":153.0,"so2":12.6,"mosquito_risk":7,"arthritis_risk":5,"migraine_risk":7,"frizz_risk":1,"updated_at":"2026-06-07T19:29:20.762553+05:30"},{"city":"Jamshedpur","state":"Jharkhand","latitude":22.8046,"longitude":86.2029,"temp":30.7,"humidity":72,"rain":0.0,"pressure":985.9,"uv_index":9.05,"wind_gusts":38.9,"aqi":196,"pm10":69.8,"pm2_5":63.1,"no2":12.0,"co":420.0,"o3":140.0,"so2":19.7,"mosquito_risk":3,"arthritis_risk":5,"migraine_risk":7,"frizz_risk":1,"updated_at":"2026-06-07T19:29:20.762560+05:30"},{"city":"Dhanbad","state":"Jharkhand","latitude":23.7957,"longitude":86.4304,"temp":32.0,"humidity":60,"rain":0.0,"pressure":975.1,"uv_index":8.4,"wind_gusts":34.6,"aqi":177,"pm10":91.0,"pm2_5":76.8,"no2":28.1,"co":352.0,"o3":142.0,"so2":68.1,"mosquito_risk":0,"arthritis_risk":5,"migraine_risk":7,"frizz_risk":1,"updated_at":"2026-06-07T19:29:20.762567+05:30"},{"city":"Bokaro","state":"Jharkhand","latitude":23.6693,"longitude":86.1511,"temp":30.7,"humidity":67,"rain":0.0,"pressure":978.4,"uv_index":8.55,"wind_gusts":37.8,"aqi":166,"pm10":112.0,"pm2_5":78.0,"no2":25.9,"co":712.0,"o3":136.0,"so2":63.5,"mosquito_risk":3,"arthritis_risk":5,"migraine_risk":7,"frizz_risk":1,"updated_at":"2026-06-07T19:29:20.762574+05:30"},{"city":"Bhubaneswar","state":"Odisha","latitude":20.2961,"longitude":85.8245,"temp":28.2,"humidity":93,"rain":0.0,"pressure":997.8,"uv_index":9.1,"wind_gusts":32.4,"aqi":129,"pm10":48.0,"pm2_5":39.7,"no2":12.8,"co":327.0,"o3":92.0,"so2":7.5,"mosquito_risk":7,"arthritis_risk":5,"migraine_risk":7,"frizz_risk":1,"updated_at":"2026-06-07T19:29:20.762581+05:30"},{"city":"Cuttack","state":"Odisha","latitude":20.4625,"longitude":85.8828,"temp":29.5,"humidity":87,"rain":0.0,"pressure":999.3,"uv_index":9.15,"wind_gusts":22.0,"aqi":129,"pm10":48.0,"pm2_5":39.7,"no2":12.8,"co":375.0,"o3":92.0,"so2":7.5,"mosquito_risk":7,"arthritis_risk":5,"migraine_risk":7,"frizz_risk":1,"updated_at":"2026-06-07T19:29:20.762588+05:30"},{"city":"Rourkela","state":"Odisha","latitude":22.2604,"longitude":84.8536,"temp":31.6,"humidity":61,"rain":0.0,"pressure":979.6,"uv_index":9.0,"wind_gusts":34.9,"aqi":151,"pm10":125.3,"pm2_5":61.5,"no2":11.0,"co":427.0,"o3":115.0,"so2":9.2,"mosquito_risk":3,"arthritis_risk":5,"migraine_risk":7,"frizz_risk":1,"updated_at":"2026-06-07T19:29:20.762594+05:30"},{"city":"Raipur","state":"Chhattisgarh","latitude":21.2514,"longitude":81.6296,"temp":38.1,"humidity":26,"rain":0.0,"pressure":969.8,"uv_index":8.7,"wind_gusts":37.8,"aqi":139,"pm10":66.6,"pm2_5":38.3,"no2":16.6,"co":216.0,"o3":127.0,"so2":36.7,"mosquito_risk":0,"arthritis_risk":5,"migraine_risk":10,"frizz_risk":0,"updated_at":"2026-06-07T19:29:20.762601+05:30"},{"city":"Bhilai","state":"Chhattisgarh","latitude":21.1938,"longitude":81.3509,"temp":36.2,"humidity":31,"rain":0.0,"pressure":970.1,"uv_index":8.5,"wind_gusts":31.0,"aqi":142,"pm10":67.5,"pm2_5":39.3,"no2":15.3,"co":176.0,"o3":111.0,"so2":29.0,"mosquito_risk":0,"arthritis_risk":5,"migraine_risk":10,"frizz_risk":1,"updated_at":"2026-06-07T19:29:20.762607+05:30"},{"city":"Guwahati","state":"Assam","latitude":26.1158,"longitude":91.7086,"temp":29.3,"humidity":77,"rain":0.0,"pressure":996.0,"uv_index":8.8,"wind_gusts":31.7,"aqi":126,"pm10":41.7,"pm2_5":38.4,"no2":6.1,"co":358.0,"o3":94.0,"so2":4.0,"mosquito_risk":7,"arthritis_risk":5,"migraine_risk":7,"frizz_risk":1,"updated_at":"2026-06-07T19:29:20.762614+05:30"},{"city":"Agartala","state":"Tripura","latitude":23.8315,"longitude":91.2868,"temp":28.4,"humidity":86,"rain":0.0,"pressure":1002.0,"uv_index":8.6,"wind_gusts":31.0,"aqi":130,"pm10":31.2,"pm2_5":29.4,"no2":13.1,"co":206.0,"o3":85.0,"so2":5.2,"mosquito_risk":7,"arthritis_risk":5,"migraine_risk":4,"frizz_risk":1,"updated_at":"2026-06-07T19:29:20.762620+05:30"},{"city":"Shillong","state":"Meghalaya","latitude":25.5788,"longitude":91.8933,"temp":20.0,"humidity":91,"rain":0.0,"pressure":854.4,"uv_index":8.6,"wind_gusts":23.4,"aqi":98,"pm10":14.0,"pm2_5":13.0,"no2":4.7,"co":284.0,"o3":106.0,"so2":2.8,"mosquito_risk":3,"arthritis_risk":5,"migraine_risk":7,"frizz_risk":1,"updated_at":"2026-06-07T19:29:20.762627+05:30"},{"city":"Imphal","state":"Manipur","latitude":24.817,"longitude":93.9368,"temp":25.2,"humidity":78,"rain":0.0,"pressure":919.7,"uv_index":8.5,"wind_gusts":31.3,"aqi":79,"pm10":15.3,"pm2_5":14.6,"no2":6.9,"co":258.0,"o3":72.0,"so2":2.3,"mosquito_risk":7,"arthritis_risk":5,"migraine_risk":7,"frizz_risk":1,"updated_at":"2026-06-07T19:29:20.762634+05:30"},{"city":"Aizawl","state":"Mizoram","latitude":23.7271,"longitude":92.7176,"temp":20.7,"humidity":93,"rain":0.0,"pressure":889.8,"uv_index":9.05,"wind_gusts":33.1,"aqi":84,"pm10":24.9,"pm2_5":21.1,"no2":3.2,"co":174.0,"o3":75.0,"so2":1.3,"mosquito_risk":3,"arthritis_risk":5,"migraine_risk":7,"frizz_risk":1,"updated_at":"2026-06-07T19:29:20.762641+05:30"},{"city":"Kohima","state":"Nagaland","latitude":25.6701,"longitude":94.1077,"temp":19.8,"humidity":95,"rain":0.0,"pressure":852.4,"uv_index":9.2,"wind_gusts":25.2,"aqi":78,"pm10":18.1,"pm2_5":16.1,"no2":3.5,"co":275.0,"o3":85.0,"so2":1.4,"mosquito_risk":3,"arthritis_risk":10,"migraine_risk":7,"frizz_risk":1,"updated_at":"2026-06-07T19:29:20.762649+05:30"},{"city":"Gangtok","state":"Sikkim","latitude":27.3314,"longitude":88.6138,"temp":18.1,"humidity":93,"rain":0.2,"pressure":834.6,"uv_index":9.0,"wind_gusts":38.2,"aqi":95,"pm10":28.4,"pm2_5":25.3,"no2":5.2,"co":353.0,"o3":115.0,"so2":1.9,"mosquito_risk":6,"arthritis_risk":10,"migraine_risk":7,"frizz_risk":1,"updated_at":"2026-06-07T19:29:20.762656+05:30"},{"city":"Siliguri","state":"West Bengal","latitude":26.7271,"longitude":88.3953,"temp":27.6,"humidity":88,"rain":0.0,"pressure":987.6,"uv_index":8.7,"wind_gusts":23.4,"aqi":135,"pm10":38.8,"pm2_5":34.7,"no2":6.8,"co":603.0,"o3":139.0,"so2":5.9,"mosquito_risk":7,"arthritis_risk":5,"migraine_risk":7,"frizz_risk":1,"updated_at":"2026-06-07T19:29:24.159840+05:30"},{"city":"Durgapur","state":"West Bengal","latitude":23.5204,"longitude":87.3119,"temp":30.3,"humidity":80,"rain":0.0,"pressure":990.0,"uv_index":8.95,"wind_gusts":41.4,"aqi":196,"pm10":90.1,"pm2_5":85.4,"no2":31.6,"co":514.0,"o3":118.0,"so2":47.5,"mosquito_risk":3,"arthritis_risk":5,"migraine_risk":7,"frizz_risk":1,"updated_at":"2026-06-07T19:29:24.159876+05:30"},{"city":"Asansol","state":"West Bengal","latitude":23.6739,"longitude":86.9524,"temp":30.6,"humidity":71,"rain":0.0,"pressure":988.5,"uv_index":8.9,"wind_gusts":37.4,"aqi":188,"pm10":89.6,"pm2_5":84.8,"no2":32.5,"co":615.0,"o3":133.0,"so2":49.5,"mosquito_risk":3,"arthritis_risk":5,"migraine_risk":7,"frizz_risk":1,"updated_at":"2026-06-07T19:29:24.159887+05:30"},{"city":"Pondicherry","state":"Puducherry","latitude":11.9139,"longitude":79.8145,"temp":31.6,"humidity":61,"rain":0.0,"pressure":1006.1,"uv_index":7.85,"wind_gusts":44.3,"aqi":48,"pm10":15.7,"pm2_5":11.5,"no2":6.7,"co":196.0,"o3":76.0,"so2":5.5,"mosquito_risk":3,"arthritis_risk":5,"migraine_risk":4,"frizz_risk":1,"updated_at":"2026-06-07T19:29:24.159896+05:30"},{"city":"Port Blair","state":"Andaman and Nicobar Islands","latitude":11.6234,"longitude":92.7265,"temp":27.9,"humidity":90,"rain":0.0,"pressure":1007.8,"uv_index":7.0,"wind_gusts":38.2,"aqi":24,"pm10":10.2,"pm2_5":5.9,"no2":0.4,"co":94.0,"o3":46.0,"so2":0.4,"mosquito_risk":7,"arthritis_risk":5,"migraine_risk":4,"frizz_risk":1,"updated_at":"2026-06-07T19:29:24.159903+05:30"},{"city":"Haridwar","state":"Uttarakhand","latitude":29.9457,"longitude":78.1642,"temp":31.5,"humidity":59,"rain":0.0,"pressure":967.2,"uv_index":7.6,"wind_gusts":32.4,"aqi":166,"pm10":47.4,"pm2_5":34.9,"no2":5.8,"co":329.0,"o3":158.0,"so2":11.1,"mosquito_risk":0,"arthritis_risk":5,"migraine_risk":7,"frizz_risk":1,"updated_at":"2026-06-07T19:29:24.159911+05:30"},{"city":"Rishikesh","state":"Uttarakhand","latitude":30.0869,"longitude":78.2676,"temp":30.5,"humidity":58,"rain":0.0,"pressure":960.2,"uv_index":7.7,"wind_gusts":37.1,"aqi":152,"pm10":40.3,"pm2_5":29.4,"no2":3.2,"co":284.0,"o3":161.0,"so2":8.7,"mosquito_risk":0,"arthritis_risk":5,"migraine_risk":7,"frizz_risk":1,"updated_at":"2026-06-07T19:29:24.159918+05:30"},{"city":"Nainital","state":"Uttarakhand","latitude":29.3919,"longitude":79.4542,"temp":17.9,"humidity":72,"rain":0.0,"pressure":802.7,"uv_index":8.6,"wind_gusts":37.8,"aqi":152,"pm10":47.3,"pm2_5":30.6,"no2":3.8,"co":249.0,"o3":150.0,"so2":7.1,"mosquito_risk":3,"arthritis_risk":5,"migraine_risk":7,"frizz_risk":0,"updated_at":"2026-06-07T19:29:24.159925+05:30"},{"city":"Mussoorie","state":"Uttarakhand","latitude":30.4599,"longitude":78.0664,"temp":17.6,"humidity":75,"rain":0.0,"pressure":800.4,"uv_index":8.15,"wind_gusts":46.8,"aqi":161,"pm10":41.2,"pm2_5":29.8,"no2":5.1,"co":239.0,"o3":162.0,"so2":8.7,"mosquito_risk":3,"arthritis_risk":5,"migraine_risk":7,"frizz_risk":0,"updated_at":"2026-06-07T19:29:24.159933+05:30"},{"city":"Dharamshala","state":"Himachal Pradesh","latitude":32.219,"longitude":76.3234,"temp":23.2,"humidity":47,"rain":0.0,"pressure":865.8,"uv_index":8.5,"wind_gusts":38.2,"aqi":123,"pm10":16.4,"pm2_5":12.6,"no2":2.9,"co":201.0,"o3":132.0,"so2":1.6,"mosquito_risk":0,"arthritis_risk":5,"migraine_risk":7,"frizz_risk":0,"updated_at":"2026-06-07T19:29:24.159940+05:30"},{"city":"Dalhousie","state":"Himachal Pradesh","latitude":32.5387,"longitude":75.971,"temp":18.9,"humidity":53,"rain":0.0,"pressure":802.6,"uv_index":8.75,"wind_gusts":42.8,"aqi":148,"pm10":23.2,"pm2_5":16.9,"no2":7.1,"co":221.0,"o3":148.0,"so2":3.1,"mosquito_risk":0,"arthritis_risk":5,"migraine_risk":7,"frizz_risk":0,"updated_at":"2026-06-07T19:29:24.159947+05:30"},{"city":"Patiala","state":"Punjab","latitude":30.3398,"longitude":76.3869,"temp":34.9,"humidity":34,"rain":0.0,"pressure":971.3,"uv_index":7.7,"wind_gusts":29.2,"aqi":161,"pm10":114.3,"pm2_5":43.3,"no2":6.2,"co":300.0,"o3":146.0,"so2":7.6,"mosquito_risk":0,"arthritis_risk":5,"migraine_risk":7,"frizz_risk":1,"updated_at":"2026-06-07T19:29:24.159954+05:30"},{"city":"Bhatinda","state":"Punjab","latitude":30.211,"longitude":74.9455,"temp":36.5,"humidity":28,"rain":0.0,"pressure":976.9,"uv_index":8.3,"wind_gusts":22.0,"aqi":165,"pm10":59.5,"pm2_5":32.1,"no2":10.2,"co":274.0,"o3":137.0,"so2":10.7,"mosquito_risk":0,"arthritis_risk":5,"migraine_risk":10,"frizz_risk":0,"updated_at":"2026-06-07T19:29:24.159961+05:30"},{"city":"Rohtak","state":"Haryana","latitude":28.8955,"longitude":76.6066,"temp":35.1,"humidity":38,"rain":0.0,"pressure":974.5,"uv_index":7.8,"wind_gusts":43.9,"aqi":279,"pm10":350.2,"pm2_5":71.7,"no2":10.8,"co":325.0,"o3":101.0,"so2":6.8,"mosquito_risk":0,"arthritis_risk":5,"migraine_risk":10,"frizz_risk":1,"updated_at":"2026-06-07T19:29:24.159968+05:30"},{"city":"Panipat","state":"Haryana","latitude":29.3909,"longitude":76.9635,"temp":33.8,"humidity":46,"rain":0.0,"pressure":973.3,"uv_index":7.65,"wind_gusts":32.8,"aqi":572,"pm10":486.2,"pm2_5":95.2,"no2":10.1,"co":234.0,"o3":109.0,"so2":11.2,"mosquito_risk":0,"arthritis_risk":5,"migraine_risk":7,"frizz_risk":1,"updated_at":"2026-06-07T19:29:24.159975+05:30"},{"city":"Mathura","state":"Uttar Pradesh","latitude":27.4924,"longitude":77.6737,"temp":34.3,"humidity":51,"rain":0.0,"pressure":980.0,"uv_index":8.1,"wind_gusts":27.0,"aqi":288,"pm10":220.3,"pm2_5":56.9,"no2":19.0,"co":395.0,"o3":81.0,"so2":5.0,"mosquito_risk":0,"arthritis_risk":5,"migraine_risk":7,"frizz_risk":1,"updated_at":"2026-06-07T19:29:24.159982+05:30"},{"city":"Vrindavan","state":"Uttar Pradesh","latitude":27.5823,"longitude":77.7027,"temp":34.6,"humidity":50,"rain":0.0,"pressure":980.3,"uv_index":8.05,"wind_gusts":25.9,"aqi":288,"pm10":220.3,"pm2_5":56.9,"no2":19.0,"co":336.0,"o3":81.0,"so2":5.0,"mosquito_risk":0,"arthritis_risk":5,"migraine_risk":7,"frizz_risk":1,"updated_at":"2026-06-07T19:29:24.159989+05:30"},{"city":"Ayodhya","state":"Uttar Pradesh","latitude":26.7922,"longitude":82.1998,"temp":32.6,"humidity":58,"rain":0.0,"pressure":988.6,"uv_index":8.4,"wind_gusts":27.0,"aqi":150,"pm10":99.0,"pm2_5":45.3,"no2":10.4,"co":411.0,"o3":115.0,"so2":8.1,"mosquito_risk":0,"arthritis_risk":5,"migraine_risk":7,"frizz_risk":1,"updated_at":"2026-06-07T19:29:24.159996+05:30"},{"city":"Ratlam","state":"Madhya Pradesh","latitude":23.3315,"longitude":75.0367,"temp":33.3,"humidity":48,"rain":0.0,"pressure":950.9,"uv_index":8.5,"wind_gusts":38.5,"aqi":87,"pm10":59.8,"pm2_5":27.6,"no2":1.3,"co":142.0,"o3":100.0,"so2":4.5,"mosquito_risk":0,"arthritis_risk":5,"migraine_risk":7,"frizz_risk":1,"updated_at":"2026-06-07T19:29:24.160003+05:30"},{"city":"Sagar","state":"Madhya Pradesh","latitude":23.8388,"longitude":78.7378,"temp":32.5,"humidity":39,"rain":0.0,"pressure":945.9,"uv_index":8.2,"wind_gusts":38.2,"aqi":99,"pm10":76.6,"pm2_5":29.5,"no2":3.8,"co":148.0,"o3":99.0,"so2":3.6,"mosquito_risk":0,"arthritis_risk":5,"migraine_risk":7,"frizz_risk":1,"updated_at":"2026-06-07T19:29:24.160009+05:30"},{"city":"Satna","state":"Madhya Pradesh","latitude":24.6005,"longitude":80.8322,"temp":34.3,"humidity":35,"rain":0.0,"pressure":966.0,"uv_index":8.8,"wind_gusts":35.6,"aqi":132,"pm10":80.3,"pm2_5":33.3,"no2":3.9,"co":173.0,"o3":100.0,"so2":2.6,"mosquito_risk":0,"arthritis_risk":5,"migraine_risk":7,"frizz_risk":1,"updated_at":"2026-06-07T19:29:24.160016+05:30"},{"city":"Akola","state":"Maharashtra","latitude":20.7002,"longitude":77.0082,"temp":33.9,"humidity":45,"rain":0.0,"pressure":970.9,"uv_index":8.8,"wind_gusts":38.5,"aqi":89,"pm10":69.8,"pm2_5":29.7,"no2":3.7,"co":166.0,"o3":102.0,"so2":5.7,"mosquito_risk":0,"arthritis_risk":5,"migraine_risk":7,"frizz_risk":1,"updated_at":"2026-06-07T19:29:24.160023+05:30"},{"city":"Amravati","state":"Maharashtra","latitude":20.9374,"longitude":77.7796,"temp":33.5,"humidity":44,"rain":0.0,"pressure":963.8,"uv_index":8.85,"wind_gusts":55.4,"aqi":98,"pm10":70.1,"pm2_5":30.9,"no2":3.8,"co":213.0,"o3":105.0,"so2":6.5,"mosquito_risk":0,"arthritis_risk":5,"migraine_risk":7,"frizz_risk":1,"updated_at":"2026-06-07T19:29:24.160031+05:30"},{"city":"Latur","state":"Maharashtra","latitude":18.4088,"longitude":76.5604,"temp":32.0,"humidity":52,"rain":0.0,"pressure":937.0,"uv_index":8.4,"wind_gusts":46.1,"aqi":79,"pm10":51.8,"pm2_5":25.6,"no2":8.1,"co":194.0,"o3":94.0,"so2":4.4,"mosquito_risk":0,"arthritis_risk":5,"migraine_risk":7,"frizz_risk":1,"updated_at":"2026-06-07T19:29:24.160039+05:30"},{"city":"Nanded","state":"Maharashtra","latitude":19.1383,"longitude":77.3091,"temp":29.2,"humidity":67,"rain":0.0,"pressure":965.1,"uv_index":8.9,"wind_gusts":40.0,"aqi":87,"pm10":64.3,"pm2_5":29.9,"no2":5.0,"co":191.0,"o3":97.0,"so2":3.4,"mosquito_risk":7,"arthritis_risk":5,"migraine_risk":7,"frizz_risk":1,"updated_at":"2026-06-07T19:29:24.160045+05:30"},{"city":"Gulbarga","state":"Karnataka","latitude":17.3297,"longitude":76.8343,"temp":27.3,"humidity":87,"rain":0.1,"pressure":956.0,"uv_index":8.7,"wind_gusts":48.6,"aqi":63,"pm10":36.6,"pm2_5":21.2,"no2":8.8,"co":274.0,"o3":96.0,"so2":5.1,"mosquito_risk":10,"arthritis_risk":5,"migraine_risk":7,"frizz_risk":1,"updated_at":"2026-06-07T19:29:24.160052+05:30"},{"city":"Bidar","state":"Karnataka","latitude":17.9104,"longitude":77.5199,"temp":28.3,"humidity":70,"rain":0.0,"pressure":933.2,"uv_index":8.95,"wind_gusts":42.8,"aqi":86,"pm10":47.7,"pm2_5":28.4,"no2":12.3,"co":178.0,"o3":95.0,"so2":7.2,"mosquito_risk":7,"arthritis_risk":5,"migraine_risk":7,"frizz_risk":1,"updated_at":"2026-06-07T19:29:24.160059+05:30"},{"city":"Hospet","state":"Karnataka","latitude":15.2689,"longitude":76.3909,"temp":25.5,"humidity":82,"rain":0.0,"pressure":955.3,"uv_index":8.35,"wind_gusts":39.2,"aqi":43,"pm10":16.4,"pm2_5":11.4,"no2":5.6,"co":182.0,"o3":82.0,"so2":1.7,"mosquito_risk":7,"arthritis_risk":5,"migraine_risk":7,"frizz_risk":1,"updated_at":"2026-06-07T19:29:24.160065+05:30"},{"city":"Tirupur","state":"Tamil Nadu","latitude":11.1085,"longitude":77.3411,"temp":26.0,"humidity":81,"rain":0.0,"pressure":975.1,"uv_index":8.55,"wind_gusts":63.0,"aqi":33,"pm10":4.0,"pm2_5":3.4,"no2":4.8,"co":155.0,"o3":58.0,"so2":2.3,"mosquito_risk":7,"arthritis_risk":5,"migraine_risk":7,"frizz_risk":1,"updated_at":"2026-06-07T19:29:24.160071+05:30"},{"city":"Alappuzha","state":"Kerala","latitude":9.4981,"longitude":76.3388,"temp":26.1,"humidity":91,"rain":0.4,"pressure":1010.8,"uv_index":7.3,"wind_gusts":48.2,"aqi":34,"pm10":12.1,"pm2_5":6.8,"no2":3.1,"co":85.0,"o3":50.0,"so2":0.9,"mosquito_risk":10,"arthritis_risk":0,"migraine_risk":4,"frizz_risk":1,"updated_at":"2026-06-07T19:29:24.160077+05:30"},{"city":"Munnar","state":"Kerala","latitude":10.0889,"longitude":77.0595,"temp":17.3,"humidity":100,"rain":0.5,"pressure":857.1,"uv_index":4.3,"wind_gusts":47.5,"aqi":25,"pm10":3.0,"pm2_5":2.6,"no2":4.2,"co":116.0,"o3":46.0,"so2":1.2,"mosquito_risk":6,"arthritis_risk":10,"migraine_risk":3,"frizz_risk":1,"updated_at":"2026-06-07T19:29:24.160084+05:30"},{"city":"Silchar","state":"Assam","latitude":24.8333,"longitude":92.7789,"temp":27.5,"humidity":93,"rain":0.1,"pressure":1000.9,"uv_index":8.1,"wind_gusts":21.2,"aqi":100,"pm10":43.2,"pm2_5":37.4,"no2":4.7,"co":280.0,"o3":107.0,"so2":5.4,"mosquito_risk":10,"arthritis_risk":5,"migraine_risk":4,"frizz_risk":1,"updated_at":"2026-06-07T19:29:24.160091+05:30"},{"city":"Dibrugarh","state":"Assam","latitude":27.4728,"longitude":94.912,"temp":27.8,"humidity":88,"rain":0.0,"pressure":990.1,"uv_index":8.6,"wind_gusts":21.2,"aqi":85,"pm10":41.0,"pm2_5":37.7,"no2":8.9,"co":307.0,"o3":91.0,"so2":2.4,"mosquito_risk":7,"arthritis_risk":5,"migraine_risk":7,"frizz_risk":1,"updated_at":"2026-06-07T19:29:24.160097+05:30"}]