[{"city":"Delhi","state":"Delhi","latitude":28.6139,"longitude":77.209,"temp":28.9,"humidity":87,"rain":0.0,"pressure":974.7,"uv_index":7.0,"wind_gusts":39.2,"aqi":118,"pm10":75.9,"pm2_5":66.8,"no2":61.8,"co":326.0,"o3":14.0,"so2":28.9,"mosquito_risk":7,"arthritis_risk":5,"migraine_risk":7,"frizz_risk":1,"updated_at":"2026-07-07T05:40:08.744115+05:30"},{"city":"Mumbai","state":"Maharashtra","latitude":19.076,"longitude":72.8777,"temp":26.8,"humidity":89,"rain":0.5,"pressure":999.2,"uv_index":0.95,"wind_gusts":60.8,"aqi":40,"pm10":26.4,"pm2_5":12.1,"no2":2.6,"co":108.0,"o3":60.0,"so2":2.4,"mosquito_risk":10,"arthritis_risk":5,"migraine_risk":3,"frizz_risk":1,"updated_at":"2026-07-07T05:40:08.744164+05:30"},{"city":"Bangalore","state":"Karnataka","latitude":12.9716,"longitude":77.5946,"temp":20.8,"humidity":86,"rain":0.0,"pressure":909.6,"uv_index":7.75,"wind_gusts":76.3,"aqi":22,"pm10":5.4,"pm2_5":3.1,"no2":3.5,"co":136.0,"o3":52.0,"so2":2.7,"mosquito_risk":3,"arthritis_risk":5,"migraine_risk":7,"frizz_risk":1,"updated_at":"2026-07-07T05:40:08.744180+05:30"},{"city":"Hyderabad","state":"Telangana","latitude":17.385,"longitude":78.4867,"temp":24.8,"humidity":79,"rain":0.0,"pressure":947.0,"uv_index":7.3,"wind_gusts":63.4,"aqi":24,"pm10":4.0,"pm2_5":2.6,"no2":4.5,"co":129.0,"o3":42.0,"so2":3.7,"mosquito_risk":3,"arthritis_risk":5,"migraine_risk":7,"frizz_risk":1,"updated_at":"2026-07-07T05:40:08.744191+05:30"},{"city":"Chennai","state":"Tamil Nadu","latitude":13.0827,"longitude":80.2707,"temp":30.1,"humidity":54,"rain":0.0,"pressure":1005.0,"uv_index":8.35,"wind_gusts":55.1,"aqi":61,"pm10":15.2,"pm2_5":8.3,"no2":9.2,"co":152.0,"o3":40.0,"so2":7.0,"mosquito_risk":0,"arthritis_risk":5,"migraine_risk":4,"frizz_risk":1,"updated_at":"2026-07-07T05:40:08.744199+05:30"},{"city":"Kolkata","state":"West Bengal","latitude":22.5726,"longitude":88.3639,"temp":26.3,"humidity":92,"rain":0.0,"pressure":1000.2,"uv_index":8.3,"wind_gusts":42.1,"aqi":60,"pm10":20.8,"pm2_5":16.8,"no2":7.4,"co":189.0,"o3":66.0,"so2":8.2,"mosquito_risk":7,"arthritis_risk":5,"migraine_risk":4,"frizz_risk":1,"updated_at":"2026-07-07T05:40:08.744206+05:30"},{"city":"Pune","state":"Maharashtra","latitude":18.5204,"longitude":73.8567,"temp":23.4,"humidity":93,"rain":0.9,"pressure":938.9,"uv_index":1.55,"wind_gusts":54.0,"aqi":22,"pm10":1.0,"pm2_5":1.0,"no2":3.7,"co":104.0,"o3":43.0,"so2":1.0,"mosquito_risk":6,"arthritis_risk":5,"migraine_risk":3,"frizz_risk":1,"updated_at":"2026-07-07T05:40:08.744213+05:30"},{"city":"Ahmedabad","state":"Gujarat","latitude":23.0225,"longitude":72.5714,"temp":26.4,"humidity":99,"rain":0.2,"pressure":992.1,"uv_index":1.7,"wind_gusts":29.2,"aqi":108,"pm10":48.5,"pm2_5":23.9,"no2":8.6,"co":205.0,"o3":41.0,"so2":4.4,"mosquito_risk":10,"arthritis_risk":5,"migraine_risk":3,"frizz_risk":1,"updated_at":"2026-07-07T05:40:08.744220+05:30"},{"city":"Jaipur","state":"Rajasthan","latitude":26.9124,"longitude":75.7873,"temp":28.0,"humidity":83,"rain":0.0,"pressure":951.3,"uv_index":7.4,"wind_gusts":31.3,"aqi":69,"pm10":22.6,"pm2_5":21.9,"no2":36.0,"co":337.0,"o3":26.0,"so2":10.7,"mosquito_risk":7,"arthritis_risk":5,"migraine_risk":7,"frizz_risk":1,"updated_at":"2026-07-07T05:40:08.744226+05:30"},{"city":"Lucknow","state":"Uttar Pradesh","latitude":26.8467,"longitude":80.9462,"temp":28.7,"humidity":86,"rain":0.0,"pressure":984.4,"uv_index":7.45,"wind_gusts":48.6,"aqi":67,"pm10":15.4,"pm2_5":13.6,"no2":10.7,"co":301.0,"o3":68.0,"so2":6.0,"mosquito_risk":7,"arthritis_risk":5,"migraine_risk":7,"frizz_risk":1,"updated_at":"2026-07-07T05:40:08.744237+05:30"},{"city":"Kanpur","state":"Uttar Pradesh","latitude":26.4499,"longitude":80.3319,"temp":28.7,"humidity":83,"rain":0.0,"pressure":982.4,"uv_index":4.15,"wind_gusts":47.9,"aqi":67,"pm10":56.8,"pm2_5":18.7,"no2":12.6,"co":294.0,"o3":65.0,"so2":5.9,"mosquito_risk":7,"arthritis_risk":5,"migraine_risk":3,"frizz_risk":1,"updated_at":"2026-07-07T05:40:08.744244+05:30"},{"city":"Chandigarh","state":"Chandigarh","latitude":30.7333,"longitude":76.7794,"temp":27.2,"humidity":93,"rain":0.0,"pressure":960.2,"uv_index":7.75,"wind_gusts":27.4,"aqi":114,"pm10":52.3,"pm2_5":51.9,"no2":38.2,"co":461.0,"o3":24.0,"so2":6.4,"mosquito_risk":7,"arthritis_risk":5,"migraine_risk":7,"frizz_risk":1,"updated_at":"2026-07-07T05:40:08.744251+05:30"},{"city":"Srinagar","state":"Jammu and Kashmir","latitude":34.0837,"longitude":74.7973,"temp":18.8,"humidity":95,"rain":0.0,"pressure":837.9,"uv_index":9.1,"wind_gusts":23.8,"aqi":84,"pm10":23.1,"pm2_5":20.0,"no2":14.4,"co":318.0,"o3":58.0,"so2":3.4,"mosquito_risk":3,"arthritis_risk":10,"migraine_risk":7,"frizz_risk":1,"updated_at":"2026-07-07T05:40:08.744258+05:30"},{"city":"Jammu","state":"Jammu and Kashmir","latitude":32.7266,"longitude":74.857,"temp":27.7,"humidity":81,"rain":0.0,"pressure":964.6,"uv_index":8.65,"wind_gusts":40.0,"aqi":95,"pm10":42.3,"pm2_5":40.5,"no2":41.3,"co":367.0,"o3":18.0,"so2":4.4,"mosquito_risk":7,"arthritis_risk":5,"migraine_risk":7,"frizz_risk":1,"updated_at":"2026-07-07T05:40:08.744264+05:30"},{"city":"Amritsar","state":"Punjab","latitude":31.634,"longitude":74.8723,"temp":28.1,"humidity":91,"rain":0.0,"pressure":972.1,"uv_index":8.4,"wind_gusts":31.0,"aqi":142,"pm10":101.0,"pm2_5":92.9,"no2":38.3,"co":800.0,"o3":33.0,"so2":10.9,"mosquito_risk":7,"arthritis_risk":5,"migraine_risk":7,"frizz_risk":1,"updated_at":"2026-07-07T05:40:08.744270+05:30"},{"city":"Ludhiana","state":"Punjab","latitude":30.901,"longitude":75.8573,"temp":27.5,"humidity":95,"rain":0.1,"pressure":970.3,"uv_index":7.15,"wind_gusts":28.4,"aqi":126,"pm10":97.3,"pm2_5":87.3,"no2":43.5,"co":902.0,"o3":32.0,"so2":15.2,"mosquito_risk":10,"arthritis_risk":5,"migraine_risk":7,"frizz_risk":1,"updated_at":"2026-07-07T05:40:08.744276+05:30"},{"city":"Jalandhar","state":"Punjab","latitude":31.326,"longitude":75.5762,"temp":27.0,"humidity":97,"rain":0.1,"pressure":971.6,"uv_index":7.75,"wind_gusts":28.8,"aqi":133,"pm10":82.7,"pm2_5":82.7,"no2":43.5,"co":841.0,"o3":29.0,"so2":17.3,"mosquito_risk":10,"arthritis_risk":5,"migraine_risk":7,"frizz_risk":1,"updated_at":"2026-07-07T05:40:08.744282+05:30"},{"city":"Dehradun","state":"Uttarakhand","latitude":30.6284,"longitude":78.0322,"temp":16.8,"humidity":98,"rain":0.0,"pressure":823.9,"uv_index":5.85,"wind_gusts":24.8,"aqi":44,"pm10":13.5,"pm2_5":13.4,"no2":21.1,"co":223.0,"o3":41.0,"so2":1.3,"mosquito_risk":3,"arthritis_risk":10,"migraine_risk":3,"frizz_risk":1,"updated_at":"2026-07-07T05:40:08.744288+05:30"},{"city":"Shimla","state":"Himachal Pradesh","latitude":31.1048,"longitude":77.1734,"temp":16.0,"humidity":89,"rain":0.0,"pressure":779.5,"uv_index":5.95,"wind_gusts":23.4,"aqi":48,"pm10":11.8,"pm2_5":11.3,"no2":8.9,"co":288.0,"o3":81.0,"so2":0.5,"mosquito_risk":3,"arthritis_risk":10,"migraine_risk":3,"frizz_risk":0,"updated_at":"2026-07-07T05:40:08.744295+05:30"},{"city":"Manali","state":"Himachal Pradesh","latitude":32.2396,"longitude":77.1887,"temp":17.5,"humidity":82,"rain":0.0,"pressure":813.9,"uv_index":9.25,"wind_gusts":34.2,"aqi":41,"pm10":1.6,"pm2_5":1.3,"no2":12.2,"co":191.0,"o3":79.0,"so2":0.2,"mosquito_risk":3,"arthritis_risk":10,"migraine_risk":7,"frizz_risk":0,"updated_at":"2026-07-07T05:40:08.744304+05:30"},{"city":"Gurgaon","state":"Haryana","latitude":28.4595,"longitude":77.0266,"temp":28.9,"humidity":87,"rain":0.0,"pressure":973.1,"uv_index":7.7,"wind_gusts":47.2,"aqi":112,"pm10":82.0,"pm2_5":62.6,"no2":61.7,"co":345.0,"o3":9.0,"so2":21.0,"mosquito_risk":7,"arthritis_risk":5,"migraine_risk":7,"frizz_risk":1,"updated_at":"2026-07-07T05:40:08.744314+05:30"},{"city":"Noida","state":"Uttar Pradesh","latitude":28.5355,"longitude":77.391,"temp":27.2,"humidity":94,"rain":0.0,"pressure":977.2,"uv_index":6.95,"wind_gusts":36.7,"aqi":112,"pm10":82.0,"pm2_5":62.6,"no2":61.7,"co":332.0,"o3":9.0,"so2":21.0,"mosquito_risk":7,"arthritis_risk":5,"migraine_risk":7,"frizz_risk":1,"updated_at":"2026-07-07T05:40:08.744321+05:30"},{"city":"Ghaziabad","state":"Uttar Pradesh","latitude":28.6692,"longitude":77.4538,"temp":26.4,"humidity":95,"rain":0.0,"pressure":975.5,"uv_index":5.85,"wind_gusts":43.2,"aqi":113,"pm10":89.4,"pm2_5":77.8,"no2":49.7,"co":284.0,"o3":13.0,"so2":10.3,"mosquito_risk":7,"arthritis_risk":5,"migraine_risk":3,"frizz_risk":1,"updated_at":"2026-07-07T05:40:08.744327+05:30"},{"city":"Faridabad","state":"Haryana","latitude":28.4089,"longitude":77.3178,"temp":27.5,"humidity":93,"rain":0.0,"pressure":976.2,"uv_index":6.35,"wind_gusts":40.3,"aqi":112,"pm10":82.0,"pm2_5":62.6,"no2":61.7,"co":304.0,"o3":9.0,"so2":21.0,"mosquito_risk":7,"arthritis_risk":5,"migraine_risk":7,"frizz_risk":1,"updated_at":"2026-07-07T05:40:08.744334+05:30"},{"city":"Meerut","state":"Uttar Pradesh","latitude":28.9845,"longitude":77.7064,"temp":26.1,"humidity":92,"rain":0.0,"pressure":974.3,"uv_index":5.8,"wind_gusts":44.6,"aqi":113,"pm10":89.4,"pm2_5":77.8,"no2":49.7,"co":316.0,"o3":13.0,"so2":10.3,"mosquito_risk":7,"arthritis_risk":5,"migraine_risk":3,"frizz_risk":1,"updated_at":"2026-07-07T05:40:08.744340+05:30"},{"city":"Agra","state":"Uttar Pradesh","latitude":27.1767,"longitude":78.0081,"temp":26.9,"humidity":94,"rain":0.3,"pressure":980.2,"uv_index":3.0,"wind_gusts":33.8,"aqi":102,"pm10":141.6,"pm2_5":63.6,"no2":39.8,"co":276.0,"o3":20.0,"so2":9.6,"mosquito_risk":10,"arthritis_risk":5,"migraine_risk":3,"frizz_risk":1,"updated_at":"2026-07-07T05:40:08.744347+05:30"},{"city":"Varanasi","state":"Uttar Pradesh","latitude":25.3176,"longitude":82.9739,"temp":26.9,"humidity":91,"rain":0.0,"pressure":987.8,"uv_index":6.25,"wind_gusts":39.6,"aqi":58,"pm10":16.9,"pm2_5":16.8,"no2":11.9,"co":290.0,"o3":71.0,"so2":13.7,"mosquito_risk":7,"arthritis_risk":5,"migraine_risk":7,"frizz_risk":1,"updated_at":"2026-07-07T05:40:08.744353+05:30"},{"city":"Prayagraj","state":"Uttar Pradesh","latitude":25.4358,"longitude":81.8463,"temp":26.4,"humidity":95,"rain":0.0,"pressure":985.9,"uv_index":6.6,"wind_gusts":42.5,"aqi":56,"pm10":15.6,"pm2_5":15.4,"no2":11.3,"co":272.0,"o3":69.0,"so2":9.0,"mosquito_risk":7,"arthritis_risk":5,"migraine_risk":7,"frizz_risk":1,"updated_at":"2026-07-07T05:40:08.744359+05:30"},{"city":"Gorakhpur","state":"Uttar Pradesh","latitude":26.7606,"longitude":83.3732,"temp":28.2,"humidity":81,"rain":0.0,"pressure":989.2,"uv_index":6.45,"wind_gusts":52.9,"aqi":53,"pm10":9.3,"pm2_5":9.2,"no2":7.2,"co":241.0,"o3":71.0,"so2":4.1,"mosquito_risk":7,"arthritis_risk":5,"migraine_risk":7,"frizz_risk":1,"updated_at":"2026-07-07T05:40:08.744366+05:30"},{"city":"Bareilly","state":"Uttar Pradesh","latitude":28.367,"longitude":79.4304,"temp":27.8,"humidity":93,"rain":0.0,"pressure":978.8,"uv_index":7.4,"wind_gusts":29.9,"aqi":123,"pm10":69.4,"pm2_5":67.8,"no2":31.4,"co":314.0,"o3":41.0,"so2":12.0,"mosquito_risk":7,"arthritis_risk":5,"migraine_risk":7,"frizz_risk":1,"updated_at":"2026-07-07T05:40:08.744380+05:30"},{"city":"Aligarh","state":"Uttar Pradesh","latitude":27.8974,"longitude":78.088,"temp":27.2,"humidity":92,"rain":0.3,"pressure":978.1,"uv_index":4.3,"wind_gusts":29.2,"aqi":99,"pm10":117.1,"pm2_5":60.8,"no2":32.3,"co":313.0,"o3":32.0,"so2":8.0,"mosquito_risk":10,"arthritis_risk":5,"migraine_risk":3,"frizz_risk":1,"updated_at":"2026-07-07T05:40:08.744387+05:30"},{"city":"Moradabad","state":"Uttar Pradesh","latitude":28.8386,"longitude":78.7733,"temp":26.9,"humidity":97,"rain":0.1,"pressure":976.0,"uv_index":5.75,"wind_gusts":41.8,"aqi":148,"pm10":111.1,"pm2_5":101.7,"no2":63.7,"co":342.0,"o3":7.0,"so2":16.3,"mosquito_risk":10,"arthritis_risk":5,"migraine_risk":3,"frizz_risk":1,"updated_at":"2026-07-07T05:40:08.744393+05:30"},{"city":"Saharanpur","state":"Uttar Pradesh","latitude":29.9637,"longitude":77.546,"temp":28.5,"humidity":81,"rain":0.0,"pressure":967.1,"uv_index":6.75,"wind_gusts":28.8,"aqi":123,"pm10":93.1,"pm2_5":92.9,"no2":53.0,"co":428.0,"o3":5.0,"so2":8.7,"mosquito_risk":7,"arthritis_risk":5,"migraine_risk":7,"frizz_risk":1,"updated_at":"2026-07-07T05:40:08.744399+05:30"},{"city":"Jhansi","state":"Uttar Pradesh","latitude":25.4484,"longitude":78.5685,"temp":26.8,"humidity":97,"rain":0.0,"pressure":968.6,"uv_index":6.45,"wind_gusts":42.5,"aqi":59,"pm10":15.4,"pm2_5":15.3,"no2":14.4,"co":267.0,"o3":60.0,"so2":4.6,"mosquito_risk":7,"arthritis_risk":5,"migraine_risk":7,"frizz_risk":1,"updated_at":"2026-07-07T05:40:12.269340+05:30"},{"city":"Surat","state":"Gujarat","latitude":21.1702,"longitude":72.8311,"temp":26.3,"humidity":97,"rain":0.5,"pressure":995.8,"uv_index":2.2,"wind_gusts":41.4,"aqi":103,"pm10":43.1,"pm2_5":26.7,"no2":23.4,"co":188.0,"o3":27.0,"so2":37.0,"mosquito_risk":10,"arthritis_risk":5,"migraine_risk":3,"frizz_risk":1,"updated_at":"2026-07-07T05:40:12.269379+05:30"},{"city":"Vadodara","state":"Gujarat","latitude":22.3072,"longitude":73.1812,"temp":25.8,"humidity":97,"rain":0.2,"pressure":994.2,"uv_index":1.15,"wind_gusts":22.7,"aqi":84,"pm10":31.4,"pm2_5":22.8,"no2":12.9,"co":202.0,"o3":54.0,"so2":4.8,"mosquito_risk":10,"arthritis_risk":5,"migraine_risk":3,"frizz_risk":1,"updated_at":"2026-07-07T05:40:12.269390+05:30"},{"city":"Rajkot","state":"Gujarat","latitude":22.3039,"longitude":70.8022,"temp":27.5,"humidity":87,"rain":0.0,"pressure":984.6,"uv_index":1.0,"wind_gusts":29.9,"aqi":91,"pm10":31.1,"pm2_5":16.5,"no2":6.1,"co":98.0,"o3":41.0,"so2":5.4,"mosquito_risk":7,"arthritis_risk":5,"migraine_risk":3,"frizz_risk":1,"updated_at":"2026-07-07T05:40:12.269399+05:30"},{"city":"Thane","state":"Maharashtra","latitude":19.2183,"longitude":72.9781,"temp":26.0,"humidity":96,"rain":1.2,"pressure":998.4,"uv_index":0.8,"wind_gusts":46.8,"aqi":40,"pm10":26.4,"pm2_5":12.1,"no2":2.6,"co":107.0,"o3":60.0,"so2":2.4,"mosquito_risk":10,"arthritis_risk":5,"migraine_risk":3,"frizz_risk":1,"updated_at":"2026-07-07T05:40:12.269406+05:30"},{"city":"Nagpur","state":"Maharashtra","latitude":21.1458,"longitude":79.0882,"temp":26.4,"humidity":81,"rain":0.0,"pressure":963.7,"uv_index":6.5,"wind_gusts":54.4,"aqi":35,"pm10":24.3,"pm2_5":14.2,"no2":9.9,"co":174.0,"o3":38.0,"so2":9.1,"mosquito_risk":7,"arthritis_risk":5,"migraine_risk":7,"frizz_risk":1,"updated_at":"2026-07-07T05:40:12.269414+05:30"},{"city":"Nashik","state":"Maharashtra","latitude":19.9975,"longitude":73.7898,"temp":23.3,"humidity":96,"rain":0.1,"pressure":934.8,"uv_index":2.55,"wind_gusts":45.0,"aqi":26,"pm10":3.4,"pm2_5":2.8,"no2":3.5,"co":168.0,"o3":56.0,"so2":0.7,"mosquito_risk":6,"arthritis_risk":5,"migraine_risk":3,"frizz_risk":1,"updated_at":"2026-07-07T05:40:12.269439+05:30"},{"city":"Aurangabad","state":"Maharashtra","latitude":19.8762,"longitude":75.3433,"temp":22.9,"humidity":97,"rain":0.1,"pressure":934.3,"uv_index":2.7,"wind_gusts":57.6,"aqi":23,"pm10":4.8,"pm2_5":4.8,"no2":8.1,"co":176.0,"o3":50.0,"so2":4.6,"mosquito_risk":6,"arthritis_risk":5,"migraine_risk":3,"frizz_risk":1,"updated_at":"2026-07-07T05:40:12.269447+05:30"},{"city":"Solapur","state":"Maharashtra","latitude":17.6599,"longitude":75.9064,"temp":25.2,"humidity":80,"rain":0.0,"pressure":950.4,"uv_index":1.85,"wind_gusts":72.7,"aqi":21,"pm10":2.1,"pm2_5":1.5,"no2":2.4,"co":103.0,"o3":45.0,"so2":1.5,"mosquito_risk":7,"arthritis_risk":5,"migraine_risk":3,"frizz_risk":1,"updated_at":"2026-07-07T05:40:12.269455+05:30"},{"city":"Kolhapur","state":"Maharashtra","latitude":16.705,"longitude":74.2433,"temp":22.7,"humidity":95,"rain":0.0,"pressure":941.9,"uv_index":3.15,"wind_gusts":58.7,"aqi":22,"pm10":3.1,"pm2_5":1.9,"no2":1.8,"co":98.0,"o3":48.0,"so2":1.1,"mosquito_risk":3,"arthritis_risk":5,"migraine_risk":3,"frizz_risk":1,"updated_at":"2026-07-07T05:40:12.269462+05:30"},{"city":"Goa","state":"Goa","latitude":15.2993,"longitude":74.124,"temp":24.3,"humidity":98,"rain":0.8,"pressure":995.0,"uv_index":7.1,"wind_gusts":42.5,"aqi":56,"pm10":32.5,"pm2_5":15.0,"no2":1.2,"co":153.0,"o3":55.0,"so2":0.6,"mosquito_risk":6,"arthritis_risk":5,"migraine_risk":7,"frizz_risk":1,"updated_at":"2026-07-07T05:40:12.269468+05:30"},{"city":"Jodhpur","state":"Rajasthan","latitude":26.2389,"longitude":73.0243,"temp":28.3,"humidity":83,"rain":0.0,"pressure":973.4,"uv_index":7.65,"wind_gusts":46.4,"aqi":96,"pm10":35.4,"pm2_5":21.8,"no2":16.9,"co":165.0,"o3":37.0,"so2":3.6,"mosquito_risk":7,"arthritis_risk":5,"migraine_risk":7,"frizz_risk":1,"updated_at":"2026-07-07T05:40:12.269476+05:30"},{"city":"Udaipur","state":"Rajasthan","latitude":24.5854,"longitude":73.7125,"temp":25.4,"humidity":92,"rain":0.0,"pressure":936.5,"uv_index":8.75,"wind_gusts":36.0,"aqi":60,"pm10":20.3,"pm2_5":19.0,"no2":19.4,"co":199.0,"o3":35.0,"so2":3.9,"mosquito_risk":7,"arthritis_risk":5,"migraine_risk":7,"frizz_risk":1,"updated_at":"2026-07-07T05:40:12.269483+05:30"},{"city":"Kota","state":"Rajasthan","latitude":25.2138,"longitude":75.8648,"temp":27.5,"humidity":96,"rain":0.0,"pressure":969.2,"uv_index":8.25,"wind_gusts":39.2,"aqi":74,"pm10":21.8,"pm2_5":21.8,"no2":18.4,"co":331.0,"o3":38.0,"so2":8.5,"mosquito_risk":7,"arthritis_risk":5,"migraine_risk":7,"frizz_risk":1,"updated_at":"2026-07-07T05:40:12.269491+05:30"},{"city":"Bikaner","state":"Rajasthan","latitude":28.0229,"longitude":73.3119,"temp":30.6,"humidity":78,"rain":0.0,"pressure":972.5,"uv_index":8.45,"wind_gusts":49.0,"aqi":91,"pm10":43.9,"pm2_5":22.3,"no2":4.6,"co":183.0,"o3":60.0,"so2":2.6,"mosquito_risk":3,"arthritis_risk":5,"migraine_risk":7,"frizz_risk":1,"updated_at":"2026-07-07T05:40:12.269497+05:30"},{"city":"Ajmer","state":"Rajasthan","latitude":26.4499,"longitude":74.6399,"temp":27.9,"humidity":83,"rain":0.0,"pressure":945.6,"uv_index":7.5,"wind_gusts":24.5,"aqi":59,"pm10":19.7,"pm2_5":18.8,"no2":22.5,"co":277.0,"o3":27.0,"so2":3.5,"mosquito_risk":7,"arthritis_risk":5,"migraine_risk":7,"frizz_risk":1,"updated_at":"2026-07-07T05:40:12.269505+05:30"},{"city":"Gwalior","state":"Madhya Pradesh","latitude":26.2183,"longitude":78.1828,"temp":26.6,"humidity":92,"rain":0.0,"pressure":974.4,"uv_index":7.5,"wind_gusts":45.7,"aqi":65,"pm10":52.4,"pm2_5":32.4,"no2":24.5,"co":251.0,"o3":28.0,"so2":5.1,"mosquito_risk":7,"arthritis_risk":5,"migraine_risk":7,"frizz_risk":1,"updated_at":"2026-07-07T05:40:12.269512+05:30"},{"city":"Indore","state":"Madhya Pradesh","latitude":22.7196,"longitude":75.8577,"temp":24.3,"humidity":97,"rain":0.0,"pressure":937.3,"uv_index":7.95,"wind_gusts":31.3,"aqi":100,"pm10":27.2,"pm2_5":27.0,"no2":15.0,"co":345.0,"o3":46.0,"so2":4.2,"mosquito_risk":3,"arthritis_risk":5,"migraine_risk":7,"frizz_risk":1,"updated_at":"2026-07-07T05:40:12.269519+05:30"},{"city":"Bhopal","state":"Madhya Pradesh","latitude":23.2599,"longitude":77.4126,"temp":24.6,"humidity":97,"rain":0.1,"pressure":942.9,"uv_index":2.9,"wind_gusts":24.1,"aqi":62,"pm10":12.9,"pm2_5":12.9,"no2":12.7,"co":279.0,"o3":51.0,"so2":2.6,"mosquito_risk":6,"arthritis_risk":5,"migraine_risk":3,"frizz_risk":1,"updated_at":"2026-07-07T05:40:12.269525+05:30"},{"city":"Jabalpur","state":"Madhya Pradesh","latitude":23.1815,"longitude":79.9864,"temp":24.4,"humidity":98,"rain":0.2,"pressure":951.1,"uv_index":5.85,"wind_gusts":32.4,"aqi":52,"pm10":10.9,"pm2_5":10.4,"no2":9.2,"co":227.0,"o3":49.0,"so2":4.6,"mosquito_risk":6,"arthritis_risk":5,"migraine_risk":3,"frizz_risk":1,"updated_at":"2026-07-07T05:40:12.269531+05:30"},{"city":"Ujjain","state":"Madhya Pradesh","latitude":23.1765,"longitude":75.7885,"temp":24.6,"humidity":98,"rain":0.0,"pressure":943.2,"uv_index":6.55,"wind_gusts":32.4,"aqi":109,"pm10":27.5,"pm2_5":27.4,"no2":13.2,"co":369.0,"o3":50.0,"so2":4.6,"mosquito_risk":3,"arthritis_risk":5,"migraine_risk":7,"frizz_risk":1,"updated_at":"2026-07-07T05:40:12.269538+05:30"},{"city":"Visakhapatnam","state":"Andhra Pradesh","latitude":17.6868,"longitude":83.2185,"temp":27.6,"humidity":84,"rain":0.0,"pressure":998.2,"uv_index":9.0,"wind_gusts":58.0,"aqi":66,"pm10":30.2,"pm2_5":22.2,"no2":14.2,"co":276.0,"o3":83.0,"so2":26.8,"mosquito_risk":7,"arthritis_risk":5,"migraine_risk":7,"frizz_risk":1,"updated_at":"2026-07-07T05:40:12.269545+05:30"},{"city":"Vijayawada","state":"Andhra Pradesh","latitude":16.5062,"longitude":80.648,"temp":29.6,"humidity":62,"rain":0.0,"pressure":997.7,"uv_index":6.5,"wind_gusts":51.1,"aqi":46,"pm10":13.8,"pm2_5":8.4,"no2":5.9,"co":130.0,"o3":41.0,"so2":4.2,"mosquito_risk":7,"arthritis_risk":5,"migraine_risk":7,"frizz_risk":1,"updated_at":"2026-07-07T05:40:12.269551+05:30"},{"city":"Guntur","state":"Andhra Pradesh","latitude":16.3067,"longitude":80.4365,"temp":29.8,"humidity":60,"rain":0.0,"pressure":999.0,"uv_index":6.5,"wind_gusts":54.4,"aqi":37,"pm10":11.6,"pm2_5":7.2,"no2":5.8,"co":122.0,"o3":40.0,"so2":4.6,"mosquito_risk":4,"arthritis_risk":5,"migraine_risk":7,"frizz_risk":1,"updated_at":"2026-07-07T05:40:12.269558+05:30"},{"city":"Nellore","state":"Andhra Pradesh","latitude":14.4426,"longitude":79.9865,"temp":30.0,"humidity":56,"rain":0.0,"pressure":1002.7,"uv_index":8.7,"wind_gusts":55.8,"aqi":30,"pm10":13.5,"pm2_5":6.8,"no2":4.7,"co":119.0,"o3":44.0,"so2":2.5,"mosquito_risk":4,"arthritis_risk":5,"migraine_risk":4,"frizz_risk":1,"updated_at":"2026-07-07T05:40:12.269566+05:30"},{"city":"Kurnool","state":"Andhra Pradesh","latitude":15.8281,"longitude":78.0373,"temp":26.2,"humidity":74,"rain":0.0,"pressure":972.9,"uv_index":4.6,"wind_gusts":68.4,"aqi":21,"pm10":6.8,"pm2_5":4.0,"no2":3.5,"co":103.0,"o3":45.0,"so2":3.0,"mosquito_risk":7,"arthritis_risk":5,"migraine_risk":3,"frizz_risk":1,"updated_at":"2026-07-07T05:40:12.269574+05:30"},{"city":"Kakinada","state":"Andhra Pradesh","latitude":16.9891,"longitude":82.2475,"temp":29.2,"humidity":65,"rain":0.0,"pressure":1002.2,"uv_index":8.25,"wind_gusts":54.4,"aqi":62,"pm10":20.7,"pm2_5":13.9,"no2":5.0,"co":159.0,"o3":64.0,"so2":3.1,"mosquito_risk":7,"arthritis_risk":5,"migraine_risk":4,"frizz_risk":1,"updated_at":"2026-07-07T05:40:12.269580+05:30"},{"city":"Tirupati","state":"Andhra Pradesh","latitude":13.6288,"longitude":79.4192,"temp":27.9,"humidity":60,"rain":0.0,"pressure":988.8,"uv_index":8.45,"wind_gusts":54.0,"aqi":33,"pm10":12.4,"pm2_5":6.7,"no2":5.5,"co":121.0,"o3":42.0,"so2":2.1,"mosquito_risk":4,"arthritis_risk":5,"migraine_risk":7,"frizz_risk":1,"updated_at":"2026-07-07T05:40:12.269587+05:30"},{"city":"Warangal","state":"Telangana","latitude":17.9689,"longitude":79.5941,"temp":27.3,"humidity":71,"rain":0.0,"pressure":972.4,"uv_index":5.9,"wind_gusts":54.7,"aqi":33,"pm10":6.4,"pm2_5":4.2,"no2":5.6,"co":131.0,"o3":40.0,"so2":3.6,"mosquito_risk":7,"arthritis_risk":5,"migraine_risk":3,"frizz_risk":1,"updated_at":"2026-07-07T05:40:12.269593+05:30"},{"city":"Nizamabad","state":"Telangana","latitude":18.6725,"longitude":78.0941,"temp":25.8,"humidity":78,"rain":0.0,"pressure":957.0,"uv_index":5.35,"wind_gusts":62.3,"aqi":26,"pm10":3.0,"pm2_5":2.2,"no2":3.4,"co":119.0,"o3":42.0,"so2":1.6,"mosquito_risk":7,"arthritis_risk":5,"migraine_risk":3,"frizz_risk":1,"updated_at":"2026-07-07T05:40:12.269599+05:30"},{"city":"Mysore","state":"Karnataka","latitude":12.2958,"longitude":76.6396,"temp":21.7,"humidity":88,"rain":0.0,"pressure":927.2,"uv_index":7.55,"wind_gusts":69.1,"aqi":23,"pm10":4.8,"pm2_5":2.7,"no2":2.2,"co":96.0,"o3":53.0,"so2":1.3,"mosquito_risk":3,"arthritis_risk":5,"migraine_risk":7,"frizz_risk":1,"updated_at":"2026-07-07T05:40:12.269605+05:30"},{"city":"Mangalore","state":"Karnataka","latitude":12.9141,"longitude":74.856,"temp":25.9,"humidity":87,"rain":0.0,"pressure":1005.8,"uv_index":8.15,"wind_gusts":72.4,"aqi":60,"pm10":38.3,"pm2_5":17.9,"no2":1.4,"co":102.0,"o3":51.0,"so2":0.9,"mosquito_risk":7,"arthritis_risk":5,"migraine_risk":4,"frizz_risk":1,"updated_at":"2026-07-07T05:40:12.269611+05:30"},{"city":"Hubli-Dharwad","state":"Karnataka","latitude":15.3647,"longitude":75.124,"temp":21.6,"humidity":98,"rain":0.1,"pressure":936.9,"uv_index":7.0,"wind_gusts":67.7,"aqi":23,"pm10":1.0,"pm2_5":0.7,"no2":1.4,"co":92.0,"o3":52.0,"so2":0.7,"mosquito_risk":6,"arthritis_risk":5,"migraine_risk":7,"frizz_risk":1,"updated_at":"2026-07-07T05:40:12.269618+05:30"},{"city":"Belgaum","state":"Karnataka","latitude":15.8497,"longitude":74.4977,"temp":21.4,"humidity":98,"rain":0.2,"pressure":920.7,"uv_index":3.1,"wind_gusts":70.6,"aqi":23,"pm10":1.9,"pm2_5":1.2,"no2":1.7,"co":92.0,"o3":50.0,"so2":0.9,"mosquito_risk":6,"arthritis_risk":5,"migraine_risk":3,"frizz_risk":1,"updated_at":"2026-07-07T05:40:15.651038+05:30"},{"city":"Coimbatore","state":"Tamil Nadu","latitude":11.0168,"longitude":76.9558,"temp":22.2,"humidity":93,"rain":0.0,"pressure":961.0,"uv_index":8.75,"wind_gusts":71.6,"aqi":25,"pm10":9.3,"pm2_5":4.8,"no2":3.1,"co":141.0,"o3":46.0,"so2":1.9,"mosquito_risk":3,"arthritis_risk":5,"migraine_risk":7,"frizz_risk":1,"updated_at":"2026-07-07T05:40:15.651076+05:30"},{"city":"Madurai","state":"Tamil Nadu","latitude":9.9252,"longitude":78.1198,"temp":28.1,"humidity":63,"rain":0.0,"pressure":992.5,"uv_index":8.7,"wind_gusts":56.2,"aqi":56,"pm10":24.7,"pm2_5":17.6,"no2":15.5,"co":116.0,"o3":24.0,"so2":4.6,"mosquito_risk":7,"arthritis_risk":5,"migraine_risk":7,"frizz_risk":1,"updated_at":"2026-07-07T05:40:15.651089+05:30"},{"city":"Trichy","state":"Tamil Nadu","latitude":10.7905,"longitude":78.7047,"temp":28.8,"humidity":61,"rain":0.0,"pressure":999.0,"uv_index":8.65,"wind_gusts":76.3,"aqi":47,"pm10":13.2,"pm2_5":7.7,"no2":4.3,"co":103.0,"o3":46.0,"so2":2.3,"mosquito_risk":7,"arthritis_risk":5,"migraine_risk":7,"frizz_risk":1,"updated_at":"2026-07-07T05:40:15.651099+05:30"},{"city":"Salem","state":"Tamil Nadu","latitude":11.6643,"longitude":78.146,"temp":24.2,"humidity":85,"rain":0.0,"pressure":976.5,"uv_index":8.35,"wind_gusts":37.8,"aqi":51,"pm10":14.0,"pm2_5":10.8,"no2":13.1,"co":168.0,"o3":28.0,"so2":5.9,"mosquito_risk":3,"arthritis_risk":5,"migraine_risk":7,"frizz_risk":1,"updated_at":"2026-07-07T05:40:15.651107+05:30"},{"city":"Tirunelveli","state":"Tamil Nadu","latitude":8.7139,"longitude":77.7567,"temp":27.5,"humidity":69,"rain":0.0,"pressure":1003.6,"uv_index":8.45,"wind_gusts":49.0,"aqi":50,"pm10":8.8,"pm2_5":6.1,"no2":5.1,"co":109.0,"o3":37.0,"so2":2.1,"mosquito_risk":7,"arthritis_risk":5,"migraine_risk":4,"frizz_risk":1,"updated_at":"2026-07-07T05:40:15.651115+05:30"},{"city":"Vellore","state":"Tamil Nadu","latitude":12.9165,"longitude":79.1325,"temp":27.4,"humidity":63,"rain":0.0,"pressure":982.6,"uv_index":7.95,"wind_gusts":56.2,"aqi":34,"pm10":10.5,"pm2_5":6.0,"no2":4.3,"co":111.0,"o3":48.0,"so2":2.4,"mosquito_risk":7,"arthritis_risk":5,"migraine_risk":7,"frizz_risk":1,"updated_at":"2026-07-07T05:40:15.651123+05:30"},{"city":"Erode","state":"Tamil Nadu","latitude":11.341,"longitude":77.7172,"temp":25.5,"humidity":75,"rain":0.0,"pressure":988.3,"uv_index":8.4,"wind_gusts":58.3,"aqi":46,"pm10":12.3,"pm2_5":9.3,"no2":10.5,"co":138.0,"o3":36.0,"so2":3.0,"mosquito_risk":7,"arthritis_risk":5,"migraine_risk":7,"frizz_risk":1,"updated_at":"2026-07-07T05:40:15.651130+05:30"},{"city":"Kochi","state":"Kerala","latitude":9.9312,"longitude":76.2673,"temp":24.5,"humidity":95,"rain":0.1,"pressure":1010.7,"uv_index":8.25,"wind_gusts":46.4,"aqi":61,"pm10":22.7,"pm2_5":13.0,"no2":7.4,"co":94.0,"o3":31.0,"so2":2.8,"mosquito_risk":6,"arthritis_risk":0,"migraine_risk":4,"frizz_risk":1,"updated_at":"2026-07-07T05:40:15.651138+05:30"},{"city":"Thiruvananthapuram","state":"Kerala","latitude":8.5241,"longitude":76.9366,"temp":25.2,"humidity":93,"rain":0.0,"pressure":1009.6,"uv_index":8.25,"wind_gusts":51.5,"aqi":55,"pm10":28.6,"pm2_5":15.3,"no2":1.9,"co":94.0,"o3":51.0,"so2":0.8,"mosquito_risk":7,"arthritis_risk":0,"migraine_risk":4,"frizz_risk":1,"updated_at":"2026-07-07T05:40:15.651145+05:30"},{"city":"Kozhikode","state":"Kerala","latitude":11.2588,"longitude":75.7804,"temp":23.2,"humidity":98,"rain":0.1,"pressure":1009.1,"uv_index":8.3,"wind_gusts":36.0,"aqi":59,"pm10":39.0,"pm2_5":18.3,"no2":0.6,"co":141.0,"o3":58.0,"so2":0.6,"mosquito_risk":6,"arthritis_risk":0,"migraine_risk":4,"frizz_risk":1,"updated_at":"2026-07-07T05:40:15.651151+05:30"},{"city":"Thrissur","state":"Kerala","latitude":10.5276,"longitude":76.2144,"temp":23.3,"humidity":98,"rain":0.0,"pressure":1008.7,"uv_index":8.55,"wind_gusts":47.5,"aqi":57,"pm10":23.2,"pm2_5":12.6,"no2":4.6,"co":185.0,"o3":41.0,"so2":1.9,"mosquito_risk":3,"arthritis_risk":0,"migraine_risk":4,"frizz_risk":1,"updated_at":"2026-07-07T05:40:15.651160+05:30"},{"city":"Kannur","state":"Kerala","latitude":11.8745,"longitude":75.3704,"temp":23.1,"humidity":98,"rain":0.3,"pressure":1008.2,"uv_index":7.3,"wind_gusts":51.8,"aqi":58,"pm10":37.0,"pm2_5":16.2,"no2":3.5,"co":192.0,"o3":42.0,"so2":1.1,"mosquito_risk":6,"arthritis_risk":0,"migraine_risk":4,"frizz_risk":1,"updated_at":"2026-07-07T05:40:15.651167+05:30"},{"city":"Patna","state":"Bihar","latitude":25.5941,"longitude":85.1376,"temp":26.4,"humidity":92,"rain":0.0,"pressure":992.1,"uv_index":7.95,"wind_gusts":46.8,"aqi":48,"pm10":14.8,"pm2_5":14.7,"no2":12.8,"co":260.0,"o3":56.0,"so2":14.8,"mosquito_risk":7,"arthritis_risk":5,"migraine_risk":7,"frizz_risk":1,"updated_at":"2026-07-07T05:40:15.651174+05:30"},{"city":"Gaya","state":"Bihar","latitude":24.7914,"longitude":85.0002,"temp":26.6,"humidity":90,"rain":0.0,"pressure":984.7,"uv_index":8.2,"wind_gusts":39.2,"aqi":51,"pm10":12.3,"pm2_5":12.3,"no2":18.1,"co":318.0,"o3":36.0,"so2":22.8,"mosquito_risk":7,"arthritis_risk":5,"migraine_risk":7,"frizz_risk":1,"updated_at":"2026-07-07T05:40:15.651181+05:30"},{"city":"Muzaffarpur","state":"Bihar","latitude":26.1209,"longitude":85.3647,"temp":26.9,"humidity":89,"rain":0.0,"pressure":992.8,"uv_index":6.25,"wind_gusts":51.5,"aqi":46,"pm10":12.3,"pm2_5":12.2,"no2":10.1,"co":227.0,"o3":60.0,"so2":9.5,"mosquito_risk":7,"arthritis_risk":5,"migraine_risk":7,"frizz_risk":1,"updated_at":"2026-07-07T05:40:15.651188+05:30"},{"city":"Bhagalpur","state":"Bihar","latitude":25.2425,"longitude":87.0117,"temp":26.1,"humidity":96,"rain":0.0,"pressure":994.2,"uv_index":8.25,"wind_gusts":43.9,"aqi":48,"pm10":11.4,"pm2_5":11.3,"no2":13.6,"co":249.0,"o3":47.0,"so2":11.8,"mosquito_risk":7,"arthritis_risk":5,"migraine_risk":7,"frizz_risk":1,"updated_at":"2026-07-07T05:40:15.651194+05:30"},{"city":"Ranchi","state":"Jharkhand","latitude":23.3441,"longitude":85.3096,"temp":22.9,"humidity":97,"rain":0.7,"pressure":929.3,"uv_index":7.2,"wind_gusts":52.2,"aqi":27,"pm10":2.8,"pm2_5":2.8,"no2":6.5,"co":178.0,"o3":48.0,"so2":7.4,"mosquito_risk":6,"arthritis_risk":5,"migraine_risk":7,"frizz_risk":1,"updated_at":"2026-07-07T05:40:15.651201+05:30"},{"city":"Jamshedpur","state":"Jharkhand","latitude":22.8046,"longitude":86.2029,"temp":25.2,"humidity":95,"rain":0.1,"pressure":983.3,"uv_index":7.85,"wind_gusts":45.4,"aqi":47,"pm10":16.7,"pm2_5":16.4,"no2":22.1,"co":258.0,"o3":28.0,"so2":25.5,"mosquito_risk":10,"arthritis_risk":5,"migraine_risk":7,"frizz_risk":1,"updated_at":"2026-07-07T05:40:15.651208+05:30"},{"city":"Dhanbad","state":"Jharkhand","latitude":23.7957,"longitude":86.4304,"temp":24.7,"humidity":96,"rain":1.3,"pressure":971.7,"uv_index":7.95,"wind_gusts":43.2,"aqi":69,"pm10":22.5,"pm2_5":22.3,"no2":35.5,"co":916.0,"o3":18.0,"so2":68.5,"mosquito_risk":6,"arthritis_risk":5,"migraine_risk":7,"frizz_risk":1,"updated_at":"2026-07-07T05:40:15.651215+05:30"},{"city":"Bokaro","state":"Jharkhand","latitude":23.6693,"longitude":86.1511,"temp":25.0,"humidity":95,"rain":1.1,"pressure":975.3,"uv_index":8.5,"wind_gusts":45.4,"aqi":67,"pm10":15.7,"pm2_5":15.5,"no2":24.7,"co":426.0,"o3":30.0,"so2":51.1,"mosquito_risk":10,"arthritis_risk":5,"migraine_risk":7,"frizz_risk":1,"updated_at":"2026-07-07T05:40:15.651222+05:30"},{"city":"Bhubaneswar","state":"Odisha","latitude":20.2961,"longitude":85.8245,"temp":27.1,"humidity":88,"rain":0.0,"pressure":996.6,"uv_index":8.85,"wind_gusts":60.8,"aqi":55,"pm10":23.7,"pm2_5":16.8,"no2":5.5,"co":152.0,"o3":76.0,"so2":6.2,"mosquito_risk":7,"arthritis_risk":5,"migraine_risk":7,"frizz_risk":1,"updated_at":"2026-07-07T05:40:15.651229+05:30"},{"city":"Cuttack","state":"Odisha","latitude":20.4625,"longitude":85.8828,"temp":27.2,"humidity":88,"rain":0.0,"pressure":998.3,"uv_index":8.75,"wind_gusts":51.5,"aqi":55,"pm10":23.7,"pm2_5":16.8,"no2":5.5,"co":184.0,"o3":76.0,"so2":6.2,"mosquito_risk":7,"arthritis_risk":5,"migraine_risk":7,"frizz_risk":1,"updated_at":"2026-07-07T05:40:15.651235+05:30"},{"city":"Rourkela","state":"Odisha","latitude":22.2604,"longitude":84.8536,"temp":25.0,"humidity":96,"rain":0.2,"pressure":977.6,"uv_index":5.5,"wind_gusts":45.0,"aqi":34,"pm10":6.0,"pm2_5":5.6,"no2":5.5,"co":168.0,"o3":48.0,"so2":3.1,"mosquito_risk":10,"arthritis_risk":5,"migraine_risk":3,"frizz_risk":1,"updated_at":"2026-07-07T05:40:15.651242+05:30"},{"city":"Raipur","state":"Chhattisgarh","latitude":21.2514,"longitude":81.6296,"temp":24.8,"humidity":95,"rain":0.1,"pressure":966.3,"uv_index":7.05,"wind_gusts":54.7,"aqi":52,"pm10":16.2,"pm2_5":13.3,"no2":19.8,"co":168.0,"o3":37.0,"so2":28.6,"mosquito_risk":6,"arthritis_risk":5,"migraine_risk":7,"frizz_risk":1,"updated_at":"2026-07-07T05:40:15.651248+05:30"},{"city":"Bhilai","state":"Chhattisgarh","latitude":21.1938,"longitude":81.3509,"temp":24.8,"humidity":94,"rain":0.0,"pressure":966.6,"uv_index":7.7,"wind_gusts":57.2,"aqi":50,"pm10":17.5,"pm2_5":14.2,"no2":20.3,"co":301.0,"o3":34.0,"so2":31.8,"mosquito_risk":3,"arthritis_risk":5,"migraine_risk":7,"frizz_risk":1,"updated_at":"2026-07-07T05:40:15.651255+05:30"},{"city":"Guwahati","state":"Assam","latitude":26.1158,"longitude":91.7086,"temp":26.0,"humidity":98,"rain":0.0,"pressure":997.6,"uv_index":4.45,"wind_gusts":22.0,"aqi":30,"pm10":8.8,"pm2_5":8.4,"no2":7.5,"co":204.0,"o3":40.0,"so2":1.9,"mosquito_risk":7,"arthritis_risk":5,"migraine_risk":3,"frizz_risk":1,"updated_at":"2026-07-07T05:40:15.651261+05:30"},{"city":"Agartala","state":"Tripura","latitude":23.8315,"longitude":91.2868,"temp":25.0,"humidity":97,"rain":0.0,"pressure":1002.9,"uv_index":5.6,"wind_gusts":34.6,"aqi":29,"pm10":7.1,"pm2_5":6.0,"no2":6.7,"co":135.0,"o3":47.0,"so2":1.4,"mosquito_risk":7,"arthritis_risk":5,"migraine_risk":0,"frizz_risk":1,"updated_at":"2026-07-07T05:40:15.651268+05:30"},{"city":"Shillong","state":"Meghalaya","latitude":25.5788,"longitude":91.8933,"temp":20.0,"humidity":94,"rain":0.0,"pressure":854.8,"uv_index":3.4,"wind_gusts":34.9,"aqi":24,"pm10":1.7,"pm2_5":1.5,"no2":4.2,"co":147.0,"o3":48.0,"so2":2.3,"mosquito_risk":3,"arthritis_risk":5,"migraine_risk":3,"frizz_risk":1,"updated_at":"2026-07-07T05:40:15.651274+05:30"},{"city":"Imphal","state":"Manipur","latitude":24.817,"longitude":93.9368,"temp":23.0,"humidity":96,"rain":0.0,"pressure":920.9,"uv_index":7.45,"wind_gusts":35.6,"aqi":19,"pm10":5.9,"pm2_5":5.5,"no2":5.5,"co":271.0,"o3":37.0,"so2":1.9,"mosquito_risk":3,"arthritis_risk":5,"migraine_risk":7,"frizz_risk":1,"updated_at":"2026-07-07T05:40:15.651280+05:30"},{"city":"Aizawl","state":"Mizoram","latitude":23.7271,"longitude":92.7176,"temp":19.7,"humidity":97,"rain":0.0,"pressure":890.3,"uv_index":2.6,"wind_gusts":45.4,"aqi":23,"pm10":5.9,"pm2_5":3.3,"no2":1.6,"co":104.0,"o3":48.0,"so2":0.9,"mosquito_risk":3,"arthritis_risk":10,"migraine_risk":3,"frizz_risk":1,"updated_at":"2026-07-07T05:40:15.651287+05:30"},{"city":"Kohima","state":"Nagaland","latitude":25.6701,"longitude":94.1077,"temp":20.5,"humidity":95,"rain":0.0,"pressure":853.2,"uv_index":3.35,"wind_gusts":22.3,"aqi":16,"pm10":3.4,"pm2_5":3.3,"no2":4.3,"co":201.0,"o3":35.0,"so2":0.9,"mosquito_risk":3,"arthritis_risk":5,"migraine_risk":3,"frizz_risk":1,"updated_at":"2026-07-07T05:40:15.651294+05:30"},{"city":"Gangtok","state":"Sikkim","latitude":27.3314,"longitude":88.6138,"temp":18.3,"humidity":99,"rain":0.0,"pressure":834.7,"uv_index":1.9,"wind_gusts":27.4,"aqi":32,"pm10":4.1,"pm2_5":3.9,"no2":4.9,"co":244.0,"o3":61.0,"so2":0.8,"mosquito_risk":3,"arthritis_risk":10,"migraine_risk":3,"frizz_risk":1,"updated_at":"2026-07-07T05:40:15.651300+05:30"},{"city":"Siliguri","state":"West Bengal","latitude":26.7271,"longitude":88.3953,"temp":25.2,"humidity":92,"rain":0.0,"pressure":988.6,"uv_index":8.2,"wind_gusts":32.4,"aqi":31,"pm10":8.4,"pm2_5":8.1,"no2":7.2,"co":180.0,"o3":61.0,"so2":2.2,"mosquito_risk":7,"arthritis_risk":5,"migraine_risk":7,"frizz_risk":1,"updated_at":"2026-07-07T05:40:18.931455+05:30"},{"city":"Durgapur","state":"West Bengal","latitude":23.5204,"longitude":87.3119,"temp":26.0,"humidity":97,"rain":0.3,"pressure":988.1,"uv_index":8.7,"wind_gusts":41.0,"aqi":63,"pm10":29.2,"pm2_5":28.8,"no2":23.6,"co":346.0,"o3":38.0,"so2":30.1,"mosquito_risk":10,"arthritis_risk":5,"migraine_risk":7,"frizz_risk":1,"updated_at":"2026-07-07T05:40:18.931494+05:30"},{"city":"Asansol","state":"West Bengal","latitude":23.6739,"longitude":86.9524,"temp":25.7,"humidity":96,"rain":0.5,"pressure":986.1,"uv_index":6.6,"wind_gusts":47.2,"aqi":59,"pm10":21.5,"pm2_5":21.3,"no2":25.7,"co":228.0,"o3":31.0,"so2":30.1,"mosquito_risk":10,"arthritis_risk":5,"migraine_risk":7,"frizz_risk":1,"updated_at":"2026-07-07T05:40:18.931506+05:30"},{"city":"Pondicherry","state":"Puducherry","latitude":11.9139,"longitude":79.8145,"temp":27.8,"humidity":67,"rain":0.0,"pressure":1006.8,"uv_index":8.7,"wind_gusts":32.0,"aqi":61,"pm10":21.5,"pm2_5":16.2,"no2":14.5,"co":192.0,"o3":32.0,"so2":7.1,"mosquito_risk":7,"arthritis_risk":5,"migraine_risk":4,"frizz_risk":1,"updated_at":"2026-07-07T05:40:18.931516+05:30"},{"city":"Port Blair","state":"Andaman and Nicobar Islands","latitude":11.6234,"longitude":92.7265,"temp":27.3,"humidity":82,"rain":0.0,"pressure":1008.5,"uv_index":7.85,"wind_gusts":41.8,"aqi":51,"pm10":24.4,"pm2_5":14.1,"no2":0.1,"co":96.0,"o3":62.0,"so2":0.5,"mosquito_risk":7,"arthritis_risk":0,"migraine_risk":4,"frizz_risk":1,"updated_at":"2026-07-07T05:40:18.931525+05:30"},{"city":"Haridwar","state":"Uttarakhand","latitude":29.9457,"longitude":78.1642,"temp":27.4,"humidity":87,"rain":0.0,"pressure":965.8,"uv_index":6.4,"wind_gusts":30.6,"aqi":94,"pm10":58.3,"pm2_5":58.1,"no2":45.1,"co":270.0,"o3":19.0,"so2":7.7,"mosquito_risk":7,"arthritis_risk":5,"migraine_risk":7,"frizz_risk":1,"updated_at":"2026-07-07T05:40:18.931533+05:30"},{"city":"Rishikesh","state":"Uttarakhand","latitude":30.0869,"longitude":78.2676,"temp":25.3,"humidity":91,"rain":0.0,"pressure":958.5,"uv_index":6.75,"wind_gusts":23.4,"aqi":63,"pm10":20.0,"pm2_5":19.9,"no2":9.0,"co":286.0,"o3":79.0,"so2":3.9,"mosquito_risk":7,"arthritis_risk":5,"migraine_risk":7,"frizz_risk":1,"updated_at":"2026-07-07T05:40:18.931541+05:30"},{"city":"Nainital","state":"Uttarakhand","latitude":29.3919,"longitude":79.4542,"temp":16.6,"humidity":99,"rain":0.0,"pressure":800.9,"uv_index":6.05,"wind_gusts":24.8,"aqi":65,"pm10":22.6,"pm2_5":22.5,"no2":27.7,"co":251.0,"o3":30.0,"so2":2.9,"mosquito_risk":3,"arthritis_risk":10,"migraine_risk":7,"frizz_risk":1,"updated_at":"2026-07-07T05:40:18.931549+05:30"},{"city":"Mussoorie","state":"Uttarakhand","latitude":30.4599,"longitude":78.0664,"temp":16.9,"humidity":91,"rain":0.0,"pressure":798.0,"uv_index":5.85,"wind_gusts":28.8,"aqi":67,"pm10":27.7,"pm2_5":27.5,"no2":29.9,"co":281.0,"o3":39.0,"so2":5.6,"mosquito_risk":3,"arthritis_risk":10,"migraine_risk":3,"frizz_risk":0,"updated_at":"2026-07-07T05:40:18.931556+05:30"},{"city":"Dharamshala","state":"Himachal Pradesh","latitude":32.219,"longitude":76.3234,"temp":22.5,"humidity":78,"rain":0.0,"pressure":863.7,"uv_index":8.45,"wind_gusts":34.9,"aqi":36,"pm10":3.7,"pm2_5":3.5,"no2":8.2,"co":304.0,"o3":56.0,"so2":0.2,"mosquito_risk":3,"arthritis_risk":5,"migraine_risk":7,"frizz_risk":1,"updated_at":"2026-07-07T05:40:18.931564+05:30"},{"city":"Dalhousie","state":"Himachal Pradesh","latitude":32.5387,"longitude":75.971,"temp":16.5,"humidity":89,"rain":0.0,"pressure":799.7,"uv_index":8.7,"wind_gusts":28.4,"aqi":58,"pm10":13.4,"pm2_5":13.1,"no2":17.5,"co":276.0,"o3":70.0,"so2":2.5,"mosquito_risk":3,"arthritis_risk":10,"migraine_risk":7,"frizz_risk":0,"updated_at":"2026-07-07T05:40:18.931572+05:30"},{"city":"Patiala","state":"Punjab","latitude":30.3398,"longitude":76.3869,"temp":28.9,"humidity":89,"rain":0.0,"pressure":969.4,"uv_index":7.55,"wind_gusts":31.3,"aqi":114,"pm10":85.7,"pm2_5":83.1,"no2":36.3,"co":673.0,"o3":37.0,"so2":12.9,"mosquito_risk":7,"arthritis_risk":5,"migraine_risk":7,"frizz_risk":1,"updated_at":"2026-07-07T05:40:18.931579+05:30"},{"city":"Bhatinda","state":"Punjab","latitude":30.211,"longitude":74.9455,"temp":30.4,"humidity":80,"rain":0.0,"pressure":974.5,"uv_index":8.1,"wind_gusts":55.1,"aqi":136,"pm10":167.6,"pm2_5":74.5,"no2":31.7,"co":507.0,"o3":28.0,"so2":6.2,"mosquito_risk":3,"arthritis_risk":5,"migraine_risk":7,"frizz_risk":1,"updated_at":"2026-07-07T05:40:18.931586+05:30"},{"city":"Rohtak","state":"Haryana","latitude":28.8955,"longitude":76.6066,"temp":29.3,"humidity":86,"rain":0.0,"pressure":973.1,"uv_index":5.35,"wind_gusts":41.8,"aqi":123,"pm10":82.4,"pm2_5":70.8,"no2":68.2,"co":723.0,"o3":14.0,"so2":30.6,"mosquito_risk":7,"arthritis_risk":5,"migraine_risk":3,"frizz_risk":1,"updated_at":"2026-07-07T05:40:18.931592+05:30"},{"city":"Panipat","state":"Haryana","latitude":29.3909,"longitude":76.9635,"temp":29.0,"humidity":83,"rain":0.0,"pressure":971.8,"uv_index":5.55,"wind_gusts":22.7,"aqi":124,"pm10":68.9,"pm2_5":58.2,"no2":40.4,"co":366.0,"o3":28.0,"so2":9.9,"mosquito_risk":7,"arthritis_risk":5,"migraine_risk":3,"frizz_risk":1,"updated_at":"2026-07-07T05:40:18.931599+05:30"},{"city":"Mathura","state":"Uttar Pradesh","latitude":27.4924,"longitude":77.6737,"temp":27.0,"humidity":95,"rain":0.2,"pressure":979.9,"uv_index":4.35,"wind_gusts":35.3,"aqi":96,"pm10":112.0,"pm2_5":63.3,"no2":51.5,"co":319.0,"o3":6.0,"so2":9.1,"mosquito_risk":10,"arthritis_risk":5,"migraine_risk":3,"frizz_risk":1,"updated_at":"2026-07-07T05:40:18.931606+05:30"},{"city":"Vrindavan","state":"Uttar Pradesh","latitude":27.5823,"longitude":77.7027,"temp":27.0,"humidity":95,"rain":0.2,"pressure":980.4,"uv_index":4.3,"wind_gusts":31.0,"aqi":96,"pm10":112.0,"pm2_5":63.3,"no2":51.5,"co":302.0,"o3":6.0,"so2":9.1,"mosquito_risk":10,"arthritis_risk":5,"migraine_risk":3,"frizz_risk":1,"updated_at":"2026-07-07T05:40:18.931613+05:30"},{"city":"Ayodhya","state":"Uttar Pradesh","latitude":26.7922,"longitude":82.1998,"temp":28.6,"humidity":80,"rain":0.0,"pressure":986.6,"uv_index":4.65,"wind_gusts":49.3,"aqi":64,"pm10":13.7,"pm2_5":13.0,"no2":8.9,"co":294.0,"o3":71.0,"so2":5.0,"mosquito_risk":7,"arthritis_risk":5,"migraine_risk":3,"frizz_risk":1,"updated_at":"2026-07-07T05:40:18.931619+05:30"},{"city":"Ratlam","state":"Madhya Pradesh","latitude":23.3315,"longitude":75.0367,"temp":25.0,"humidity":98,"rain":0.0,"pressure":944.2,"uv_index":7.1,"wind_gusts":37.1,"aqi":99,"pm10":23.2,"pm2_5":23.0,"no2":10.4,"co":258.0,"o3":59.0,"so2":4.0,"mosquito_risk":7,"arthritis_risk":5,"migraine_risk":7,"frizz_risk":1,"updated_at":"2026-07-07T05:40:18.931626+05:30"},{"city":"Sagar","state":"Madhya Pradesh","latitude":23.8388,"longitude":78.7378,"temp":24.5,"humidity":95,"rain":0.0,"pressure":939.9,"uv_index":4.0,"wind_gusts":22.3,"aqi":47,"pm10":4.8,"pm2_5":4.8,"no2":5.1,"co":280.0,"o3":85.0,"so2":1.1,"mosquito_risk":3,"arthritis_risk":5,"migraine_risk":3,"frizz_risk":1,"updated_at":"2026-07-07T05:40:18.931632+05:30"},{"city":"Satna","state":"Madhya Pradesh","latitude":24.6005,"longitude":80.8322,"temp":25.0,"humidity":97,"rain":0.2,"pressure":960.7,"uv_index":3.8,"wind_gusts":33.1,"aqi":49,"pm10":20.4,"pm2_5":20.3,"no2":9.0,"co":220.0,"o3":76.0,"so2":6.3,"mosquito_risk":10,"arthritis_risk":5,"migraine_risk":3,"frizz_risk":1,"updated_at":"2026-07-07T05:40:18.931640+05:30"},{"city":"Akola","state":"Maharashtra","latitude":20.7002,"longitude":77.0082,"temp":25.7,"humidity":90,"rain":0.1,"pressure":964.8,"uv_index":6.75,"wind_gusts":40.0,"aqi":24,"pm10":11.8,"pm2_5":9.5,"no2":8.0,"co":179.0,"o3":43.0,"so2":3.5,"mosquito_risk":10,"arthritis_risk":5,"migraine_risk":7,"frizz_risk":1,"updated_at":"2026-07-07T05:40:18.931647+05:30"},{"city":"Amravati","state":"Maharashtra","latitude":20.9374,"longitude":77.7796,"temp":25.7,"humidity":86,"rain":0.1,"pressure":957.2,"uv_index":7.25,"wind_gusts":42.1,"aqi":25,"pm10":17.2,"pm2_5":12.6,"no2":7.8,"co":192.0,"o3":42.0,"so2":3.6,"mosquito_risk":10,"arthritis_risk":5,"migraine_risk":7,"frizz_risk":1,"updated_at":"2026-07-07T05:40:18.931655+05:30"},{"city":"Latur","state":"Maharashtra","latitude":18.4088,"longitude":76.5604,"temp":23.9,"humidity":86,"rain":0.0,"pressure":932.1,"uv_index":2.95,"wind_gusts":67.3,"aqi":24,"pm10":1.6,"pm2_5":1.4,"no2":2.8,"co":108.0,"o3":43.0,"so2":1.4,"mosquito_risk":3,"arthritis_risk":5,"migraine_risk":3,"frizz_risk":1,"updated_at":"2026-07-07T05:40:18.931663+05:30"},{"city":"Nanded","state":"Maharashtra","latitude":19.1383,"longitude":77.3091,"temp":26.1,"humidity":77,"rain":0.0,"pressure":960.2,"uv_index":5.6,"wind_gusts":69.8,"aqi":31,"pm10":2.3,"pm2_5":1.9,"no2":4.2,"co":122.0,"o3":42.0,"so2":2.9,"mosquito_risk":7,"arthritis_risk":5,"migraine_risk":3,"frizz_risk":1,"updated_at":"2026-07-07T05:40:18.931669+05:30"},{"city":"Gulbarga","state":"Karnataka","latitude":17.3297,"longitude":76.8343,"temp":24.9,"humidity":79,"rain":0.0,"pressure":952.7,"uv_index":5.0,"wind_gusts":70.6,"aqi":22,"pm10":4.0,"pm2_5":2.4,"no2":3.0,"co":101.0,"o3":44.0,"so2":2.0,"mosquito_risk":3,"arthritis_risk":5,"migraine_risk":3,"frizz_risk":1,"updated_at":"2026-07-07T05:40:18.931675+05:30"},{"city":"Bidar","state":"Karnataka","latitude":17.9104,"longitude":77.5199,"temp":24.1,"humidity":82,"rain":0.0,"pressure":928.5,"uv_index":5.8,"wind_gusts":70.9,"aqi":23,"pm10":3.5,"pm2_5":2.3,"no2":3.1,"co":106.0,"o3":44.0,"so2":2.0,"mosquito_risk":3,"arthritis_risk":5,"migraine_risk":3,"frizz_risk":1,"updated_at":"2026-07-07T05:40:18.931681+05:30"},{"city":"Hospet","state":"Karnataka","latitude":15.2689,"longitude":76.3909,"temp":23.5,"humidity":87,"rain":0.0,"pressure":951.8,"uv_index":6.3,"wind_gusts":76.3,"aqi":22,"pm10":2.1,"pm2_5":1.4,"no2":2.0,"co":93.0,"o3":50.0,"so2":1.2,"mosquito_risk":3,"arthritis_risk":5,"migraine_risk":7,"frizz_risk":1,"updated_at":"2026-07-07T05:40:18.931687+05:30"},{"city":"Tirupur","state":"Tamil Nadu","latitude":11.1085,"longitude":77.3411,"temp":23.5,"humidity":86,"rain":0.0,"pressure":974.3,"uv_index":8.45,"wind_gusts":70.6,"aqi":48,"pm10":15.5,"pm2_5":11.5,"no2":13.1,"co":128.0,"o3":31.0,"so2":3.6,"mosquito_risk":3,"arthritis_risk":5,"migraine_risk":7,"frizz_risk":1,"updated_at":"2026-07-07T05:40:18.931693+05:30"},{"city":"Alappuzha","state":"Kerala","latitude":9.4981,"longitude":76.3388,"temp":26.3,"humidity":89,"rain":0.1,"pressure":1010.3,"uv_index":8.5,"wind_gusts":41.0,"aqi":63,"pm10":31.0,"pm2_5":16.1,"no2":3.3,"co":83.0,"o3":47.0,"so2":1.6,"mosquito_risk":10,"arthritis_risk":0,"migraine_risk":4,"frizz_risk":1,"updated_at":"2026-07-07T05:40:18.931700+05:30"},{"city":"Munnar","state":"Kerala","latitude":10.0889,"longitude":77.0595,"temp":16.1,"humidity":100,"rain":0.2,"pressure":856.4,"uv_index":5.25,"wind_gusts":58.3,"aqi":35,"pm10":1.2,"pm2_5":1.0,"no2":3.9,"co":87.0,"o3":34.0,"so2":1.6,"mosquito_risk":6,"arthritis_risk":10,"migraine_risk":3,"frizz_risk":1,"updated_at":"2026-07-07T05:40:18.931707+05:30"},{"city":"Silchar","state":"Assam","latitude":24.8333,"longitude":92.7789,"temp":26.2,"humidity":97,"rain":0.1,"pressure":1002.4,"uv_index":3.5,"wind_gusts":33.1,"aqi":38,"pm10":14.8,"pm2_5":13.1,"no2":9.1,"co":176.0,"o3":43.0,"so2":5.0,"mosquito_risk":10,"arthritis_risk":5,"migraine_risk":0,"frizz_risk":1,"updated_at":"2026-07-07T05:40:18.931713+05:30"},{"city":"Dibrugarh","state":"Assam","latitude":27.4728,"longitude":94.912,"temp":25.4,"humidity":97,"rain":0.0,"pressure":991.7,"uv_index":1.25,"wind_gusts":33.5,"aqi":43,"pm10":7.8,"pm2_5":7.6,"no2":6.3,"co":172.0,"o3":52.0,"so2":1.5,"mosquito_risk":7,"arthritis_risk":5,"migraine_risk":3,"frizz_risk":1,"updated_at":"2026-07-07T05:40:18.931719+05:30"}]