[{"city":"Delhi","state":"Delhi","latitude":28.6139,"longitude":77.209,"temp":27.1,"humidity":34,"rain":0.0,"pressure":980.0,"uv_index":7.3,"wind_gusts":22.7,"aqi":228,"pm10":523.4,"pm2_5":108.5,"mosquito_risk":4,"arthritis_risk":5,"migraine_risk":7,"frizz_risk":0,"updated_at":"2026-04-16T04:15:06.604053+05:30"},{"city":"Mumbai","state":"Maharashtra","latitude":19.076,"longitude":72.8777,"temp":28.1,"humidity":81,"rain":0.0,"pressure":1006.0,"uv_index":8.0,"wind_gusts":20.2,"aqi":82,"pm10":40.6,"pm2_5":23.7,"mosquito_risk":7,"arthritis_risk":5,"migraine_risk":4,"frizz_risk":1,"updated_at":"2026-04-16T04:15:06.604112+05:30"},{"city":"Bangalore","state":"Karnataka","latitude":12.9716,"longitude":77.5946,"temp":24.4,"humidity":58,"rain":0.0,"pressure":909.5,"uv_index":9.6,"wind_gusts":32.4,"aqi":72,"pm10":28.8,"pm2_5":24.4,"mosquito_risk":0,"arthritis_risk":5,"migraine_risk":7,"frizz_risk":0,"updated_at":"2026-04-16T04:15:06.604128+05:30"},{"city":"Hyderabad","state":"Telangana","latitude":17.385,"longitude":78.4867,"temp":27.8,"humidity":64,"rain":0.0,"pressure":950.4,"uv_index":9.25,"wind_gusts":27.7,"aqi":88,"pm10":29.0,"pm2_5":25.3,"mosquito_risk":7,"arthritis_risk":5,"migraine_risk":7,"frizz_risk":1,"updated_at":"2026-04-16T04:15:06.604139+05:30"},{"city":"Chennai","state":"Tamil Nadu","latitude":13.0827,"longitude":80.2707,"temp":28.4,"humidity":88,"rain":0.0,"pressure":1004.7,"uv_index":9.35,"wind_gusts":32.8,"aqi":30,"pm10":9.1,"pm2_5":6.3,"mosquito_risk":7,"arthritis_risk":5,"migraine_risk":4,"frizz_risk":1,"updated_at":"2026-04-16T04:15:06.604149+05:30"},{"city":"Kolkata","state":"West Bengal","latitude":22.5726,"longitude":88.3639,"temp":27.6,"humidity":89,"rain":0.0,"pressure":1003.5,"uv_index":8.9,"wind_gusts":34.9,"aqi":90,"pm10":29.7,"pm2_5":22.3,"mosquito_risk":7,"arthritis_risk":5,"migraine_risk":4,"frizz_risk":1,"updated_at":"2026-04-16T04:15:06.604159+05:30"},{"city":"Pune","state":"Maharashtra","latitude":18.5204,"longitude":73.8567,"temp":20.7,"humidity":56,"rain":0.0,"pressure":945.5,"uv_index":8.6,"wind_gusts":41.0,"aqi":69,"pm10":28.3,"pm2_5":21.3,"mosquito_risk":0,"arthritis_risk":5,"migraine_risk":7,"frizz_risk":0,"updated_at":"2026-04-16T04:15:06.604171+05:30"},{"city":"Ahmedabad","state":"Gujarat","latitude":23.0225,"longitude":72.5714,"temp":26.4,"humidity":42,"rain":0.0,"pressure":998.6,"uv_index":7.7,"wind_gusts":16.2,"aqi":87,"pm10":33.3,"pm2_5":16.1,"mosquito_risk":4,"arthritis_risk":5,"migraine_risk":7,"frizz_risk":0,"updated_at":"2026-04-16T04:15:06.604180+05:30"},{"city":"Jaipur","state":"Rajasthan","latitude":26.9124,"longitude":75.7873,"temp":27.2,"humidity":27,"rain":0.0,"pressure":956.6,"uv_index":7.95,"wind_gusts":29.5,"aqi":165,"pm10":155.1,"pm2_5":29.2,"mosquito_risk":4,"arthritis_risk":5,"migraine_risk":7,"frizz_risk":0,"updated_at":"2026-04-16T04:15:06.604189+05:30"},{"city":"Lucknow","state":"Uttar Pradesh","latitude":26.8467,"longitude":80.9462,"temp":24.7,"humidity":41,"rain":0.0,"pressure":990.7,"uv_index":7.85,"wind_gusts":21.2,"aqi":103,"pm10":200.2,"pm2_5":41.1,"mosquito_risk":0,"arthritis_risk":5,"migraine_risk":7,"frizz_risk":0,"updated_at":"2026-04-16T04:15:06.604197+05:30"},{"city":"Kanpur","state":"Uttar Pradesh","latitude":26.4499,"longitude":80.3319,"temp":23.6,"humidity":57,"rain":0.0,"pressure":988.8,"uv_index":7.85,"wind_gusts":20.2,"aqi":138,"pm10":219.8,"pm2_5":40.7,"mosquito_risk":0,"arthritis_risk":5,"migraine_risk":7,"frizz_risk":0,"updated_at":"2026-04-16T04:15:06.604206+05:30"},{"city":"Chandigarh","state":"Chandigarh","latitude":30.7333,"longitude":76.7794,"temp":20.0,"humidity":56,"rain":0.0,"pressure":965.8,"uv_index":7.2,"wind_gusts":21.2,"aqi":45,"pm10":11.9,"pm2_5":11.6,"mosquito_risk":0,"arthritis_risk":5,"migraine_risk":7,"frizz_risk":0,"updated_at":"2026-04-16T04:15:06.604215+05:30"},{"city":"Srinagar","state":"Jammu and Kashmir","latitude":34.0837,"longitude":74.7973,"temp":9.6,"humidity":63,"rain":0.0,"pressure":837.3,"uv_index":7.3,"wind_gusts":25.2,"aqi":70,"pm10":31.1,"pm2_5":24.9,"mosquito_risk":3,"arthritis_risk":5,"migraine_risk":7,"frizz_risk":0,"updated_at":"2026-04-16T04:15:06.604222+05:30"},{"city":"Jammu","state":"Jammu and Kashmir","latitude":32.7266,"longitude":74.857,"temp":19.0,"humidity":67,"rain":0.0,"pressure":969.6,"uv_index":7.3,"wind_gusts":29.5,"aqi":61,"pm10":17.5,"pm2_5":17.2,"mosquito_risk":3,"arthritis_risk":5,"migraine_risk":7,"frizz_risk":0,"updated_at":"2026-04-16T04:15:06.604231+05:30"},{"city":"Amritsar","state":"Punjab","latitude":31.634,"longitude":74.8723,"temp":20.4,"humidity":71,"rain":0.0,"pressure":977.5,"uv_index":7.45,"wind_gusts":26.3,"aqi":83,"pm10":38.4,"pm2_5":36.1,"mosquito_risk":3,"arthritis_risk":5,"migraine_risk":7,"frizz_risk":0,"updated_at":"2026-04-16T04:15:06.604239+05:30"},{"city":"Ludhiana","state":"Punjab","latitude":30.901,"longitude":75.8573,"temp":21.8,"humidity":56,"rain":0.0,"pressure":975.9,"uv_index":7.4,"wind_gusts":18.4,"aqi":71,"pm10":41.8,"pm2_5":40.3,"mosquito_risk":0,"arthritis_risk":5,"migraine_risk":7,"frizz_risk":0,"updated_at":"2026-04-16T04:15:06.604246+05:30"},{"city":"Jalandhar","state":"Punjab","latitude":31.326,"longitude":75.5762,"temp":20.0,"humidity":62,"rain":0.0,"pressure":976.8,"uv_index":7.3,"wind_gusts":22.7,"aqi":63,"pm10":30.6,"pm2_5":29.5,"mosquito_risk":3,"arthritis_risk":5,"migraine_risk":7,"frizz_risk":0,"updated_at":"2026-04-16T04:15:06.604255+05:30"},{"city":"Dehradun","state":"Uttarakhand","latitude":30.6284,"longitude":78.0322,"temp":14.1,"humidity":59,"rain":0.0,"pressure":827.6,"uv_index":7.35,"wind_gusts":34.6,"aqi":49,"pm10":8.1,"pm2_5":7.9,"mosquito_risk":0,"arthritis_risk":5,"migraine_risk":7,"frizz_risk":0,"updated_at":"2026-04-16T04:15:06.604263+05:30"},{"city":"Shimla","state":"Himachal Pradesh","latitude":31.1048,"longitude":77.1734,"temp":11.5,"humidity":67,"rain":0.0,"pressure":781.2,"uv_index":7.4,"wind_gusts":42.5,"aqi":63,"pm10":11.8,"pm2_5":11.5,"mosquito_risk":3,"arthritis_risk":5,"migraine_risk":7,"frizz_risk":0,"updated_at":"2026-04-16T04:15:06.604270+05:30"},{"city":"Manali","state":"Himachal Pradesh","latitude":32.2396,"longitude":77.1887,"temp":15.0,"humidity":51,"rain":0.0,"pressure":818.4,"uv_index":8.65,"wind_gusts":31.7,"aqi":68,"pm10":14.6,"pm2_5":12.5,"mosquito_risk":0,"arthritis_risk":5,"migraine_risk":7,"frizz_risk":0,"updated_at":"2026-04-16T04:15:06.604278+05:30"},{"city":"Gurgaon","state":"Haryana","latitude":28.4595,"longitude":77.0266,"temp":23.5,"humidity":48,"rain":0.0,"pressure":978.3,"uv_index":7.4,"wind_gusts":19.1,"aqi":637,"pm10":668.7,"pm2_5":121.1,"mosquito_risk":0,"arthritis_risk":5,"migraine_risk":7,"frizz_risk":0,"updated_at":"2026-04-16T04:15:06.604286+05:30"},{"city":"Noida","state":"Uttar Pradesh","latitude":28.5355,"longitude":77.391,"temp":26.1,"humidity":38,"rain":0.0,"pressure":981.5,"uv_index":7.35,"wind_gusts":26.6,"aqi":637,"pm10":668.7,"pm2_5":121.1,"mosquito_risk":4,"arthritis_risk":5,"migraine_risk":7,"frizz_risk":0,"updated_at":"2026-04-16T04:15:06.604308+05:30"},{"city":"Ghaziabad","state":"Uttar Pradesh","latitude":28.6692,"longitude":77.4538,"temp":24.4,"humidity":42,"rain":0.0,"pressure":979.6,"uv_index":7.35,"wind_gusts":20.2,"aqi":143,"pm10":242.1,"pm2_5":64.7,"mosquito_risk":0,"arthritis_risk":5,"migraine_risk":7,"frizz_risk":0,"updated_at":"2026-04-16T04:15:06.604315+05:30"},{"city":"Faridabad","state":"Haryana","latitude":28.4089,"longitude":77.3178,"temp":24.9,"humidity":41,"rain":0.0,"pressure":980.8,"uv_index":7.4,"wind_gusts":23.4,"aqi":637,"pm10":668.7,"pm2_5":121.1,"mosquito_risk":0,"arthritis_risk":5,"migraine_risk":7,"frizz_risk":0,"updated_at":"2026-04-16T04:15:06.604323+05:30"},{"city":"Meerut","state":"Uttar Pradesh","latitude":28.9845,"longitude":77.7064,"temp":22.4,"humidity":49,"rain":0.0,"pressure":978.3,"uv_index":7.25,"wind_gusts":25.9,"aqi":143,"pm10":242.1,"pm2_5":64.7,"mosquito_risk":0,"arthritis_risk":5,"migraine_risk":7,"frizz_risk":0,"updated_at":"2026-04-16T04:15:06.604330+05:30"},{"city":"Agra","state":"Uttar Pradesh","latitude":27.1767,"longitude":78.0081,"temp":23.6,"humidity":39,"rain":0.0,"pressure":984.6,"uv_index":7.75,"wind_gusts":19.1,"aqi":348,"pm10":631.4,"pm2_5":96.6,"mosquito_risk":0,"arthritis_risk":5,"migraine_risk":7,"frizz_risk":0,"updated_at":"2026-04-16T04:15:06.604338+05:30"},{"city":"Varanasi","state":"Uttar Pradesh","latitude":25.3176,"longitude":82.9739,"temp":24.9,"humidity":53,"rain":0.0,"pressure":993.9,"uv_index":8.45,"wind_gusts":21.2,"aqi":82,"pm10":93.8,"pm2_5":40.4,"mosquito_risk":0,"arthritis_risk":5,"migraine_risk":7,"frizz_risk":0,"updated_at":"2026-04-16T04:15:06.604347+05:30"},{"city":"Prayagraj","state":"Uttar Pradesh","latitude":25.4358,"longitude":81.8463,"temp":27.3,"humidity":47,"rain":0.0,"pressure":992.8,"uv_index":8.3,"wind_gusts":22.3,"aqi":81,"pm10":70.1,"pm2_5":31.9,"mosquito_risk":4,"arthritis_risk":5,"migraine_risk":7,"frizz_risk":0,"updated_at":"2026-04-16T04:15:06.604355+05:30"},{"city":"Gorakhpur","state":"Uttar Pradesh","latitude":26.7606,"longitude":83.3732,"temp":24.0,"humidity":69,"rain":0.0,"pressure":994.4,"uv_index":8.25,"wind_gusts":29.5,"aqi":93,"pm10":65.4,"pm2_5":44.1,"mosquito_risk":3,"arthritis_risk":5,"migraine_risk":7,"frizz_risk":1,"updated_at":"2026-04-16T04:15:06.604363+05:30"},{"city":"Bareilly","state":"Uttar Pradesh","latitude":28.367,"longitude":79.4304,"temp":19.7,"humidity":67,"rain":0.0,"pressure":983.4,"uv_index":7.6,"wind_gusts":23.8,"aqi":59,"pm10":26.9,"pm2_5":26.0,"mosquito_risk":3,"arthritis_risk":5,"migraine_risk":7,"frizz_risk":0,"updated_at":"2026-04-16T04:15:06.604372+05:30"},{"city":"Aligarh","state":"Uttar Pradesh","latitude":27.8974,"longitude":78.088,"temp":21.7,"humidity":52,"rain":0.0,"pressure":982.3,"uv_index":7.5,"wind_gusts":24.1,"aqi":322,"pm10":418.2,"pm2_5":79.6,"mosquito_risk":0,"arthritis_risk":5,"migraine_risk":7,"frizz_risk":0,"updated_at":"2026-04-16T04:15:06.604382+05:30"},{"city":"Moradabad","state":"Uttar Pradesh","latitude":28.8386,"longitude":78.7733,"temp":21.0,"humidity":58,"rain":0.0,"pressure":980.3,"uv_index":7.45,"wind_gusts":26.6,"aqi":74,"pm10":56.2,"pm2_5":44.4,"mosquito_risk":0,"arthritis_risk":5,"migraine_risk":7,"frizz_risk":0,"updated_at":"2026-04-16T04:15:06.604389+05:30"},{"city":"Saharanpur","state":"Uttar Pradesh","latitude":29.9637,"longitude":77.546,"temp":18.3,"humidity":72,"rain":0.0,"pressure":972.6,"uv_index":6.9,"wind_gusts":26.3,"aqi":72,"pm10":34.7,"pm2_5":34.1,"mosquito_risk":3,"arthritis_risk":5,"migraine_risk":7,"frizz_risk":0,"updated_at":"2026-04-16T04:15:06.604396+05:30"},{"city":"Jhansi","state":"Uttar Pradesh","latitude":25.4484,"longitude":78.5685,"temp":26.0,"humidity":49,"rain":0.0,"pressure":974.6,"uv_index":8.2,"wind_gusts":32.4,"aqi":68,"pm10":165.3,"pm2_5":30.2,"mosquito_risk":4,"arthritis_risk":5,"migraine_risk":7,"frizz_risk":0,"updated_at":"2026-04-16T04:15:09.906267+05:30"},{"city":"Surat","state":"Gujarat","latitude":21.1702,"longitude":72.8311,"temp":26.8,"humidity":83,"rain":0.0,"pressure":1003.9,"uv_index":7.85,"wind_gusts":27.7,"aqi":101,"pm10":30.4,"pm2_5":23.8,"mosquito_risk":7,"arthritis_risk":5,"migraine_risk":4,"frizz_risk":1,"updated_at":"2026-04-16T04:15:09.906322+05:30"},{"city":"Vadodara","state":"Gujarat","latitude":22.3072,"longitude":73.1812,"temp":25.9,"humidity":82,"rain":0.0,"pressure":1001.1,"uv_index":8.0,"wind_gusts":22.7,"aqi":86,"pm10":22.4,"pm2_5":19.5,"mosquito_risk":7,"arthritis_risk":5,"migraine_risk":4,"frizz_risk":1,"updated_at":"2026-04-16T04:15:09.906333+05:30"},{"city":"Rajkot","state":"Gujarat","latitude":22.3039,"longitude":70.8022,"temp":23.0,"humidity":89,"rain":0.0,"pressure":991.4,"uv_index":7.2,"wind_gusts":29.9,"aqi":63,"pm10":32.9,"pm2_5":14.1,"mosquito_risk":3,"arthritis_risk":5,"migraine_risk":7,"frizz_risk":1,"updated_at":"2026-04-16T04:15:09.906341+05:30"},{"city":"Thane","state":"Maharashtra","latitude":19.2183,"longitude":72.9781,"temp":26.4,"humidity":88,"rain":0.0,"pressure":1005.6,"uv_index":8.05,"wind_gusts":32.4,"aqi":82,"pm10":40.6,"pm2_5":23.7,"mosquito_risk":7,"arthritis_risk":5,"migraine_risk":4,"frizz_risk":1,"updated_at":"2026-04-16T04:15:09.906348+05:30"},{"city":"Nagpur","state":"Maharashtra","latitude":21.1458,"longitude":79.0882,"temp":25.9,"humidity":46,"rain":0.0,"pressure":969.4,"uv_index":8.85,"wind_gusts":15.1,"aqi":65,"pm10":18.6,"pm2_5":17.2,"mosquito_risk":4,"arthritis_risk":5,"migraine_risk":7,"frizz_risk":0,"updated_at":"2026-04-16T04:15:09.906356+05:30"},{"city":"Nashik","state":"Maharashtra","latitude":19.9975,"longitude":73.7898,"temp":22.0,"humidity":54,"rain":0.0,"pressure":942.7,"uv_index":8.3,"wind_gusts":31.7,"aqi":58,"pm10":31.5,"pm2_5":20.8,"mosquito_risk":0,"arthritis_risk":5,"migraine_risk":7,"frizz_risk":0,"updated_at":"2026-04-16T04:15:09.906364+05:30"},{"city":"Aurangabad","state":"Maharashtra","latitude":19.8762,"longitude":75.3433,"temp":25.8,"humidity":34,"rain":0.0,"pressure":941.3,"uv_index":8.95,"wind_gusts":27.0,"aqi":44,"pm10":22.9,"pm2_5":9.3,"mosquito_risk":4,"arthritis_risk":5,"migraine_risk":7,"frizz_risk":0,"updated_at":"2026-04-16T04:15:09.906372+05:30"},{"city":"Solapur","state":"Maharashtra","latitude":17.6599,"longitude":75.9064,"temp":26.7,"humidity":44,"rain":0.0,"pressure":954.0,"uv_index":9.05,"wind_gusts":23.8,"aqi":73,"pm10":18.6,"pm2_5":17.1,"mosquito_risk":4,"arthritis_risk":5,"migraine_risk":7,"frizz_risk":0,"updated_at":"2026-04-16T04:15:09.906379+05:30"},{"city":"Kolhapur","state":"Maharashtra","latitude":16.705,"longitude":74.2433,"temp":21.5,"humidity":86,"rain":0.0,"pressure":944.9,"uv_index":9.0,"wind_gusts":38.9,"aqi":84,"pm10":33.6,"pm2_5":24.6,"mosquito_risk":3,"arthritis_risk":5,"migraine_risk":7,"frizz_risk":1,"updated_at":"2026-04-16T04:15:09.906387+05:30"},{"city":"Goa","state":"Goa","latitude":15.2993,"longitude":74.124,"temp":27.9,"humidity":76,"rain":0.0,"pressure":995.2,"uv_index":9.0,"wind_gusts":29.2,"aqi":79,"pm10":56.9,"pm2_5":28.5,"mosquito_risk":7,"arthritis_risk":5,"migraine_risk":7,"frizz_risk":1,"updated_at":"2026-04-16T04:15:09.906394+05:30"},{"city":"Jodhpur","state":"Rajasthan","latitude":26.2389,"longitude":73.0243,"temp":28.1,"humidity":43,"rain":0.0,"pressure":978.9,"uv_index":7.95,"wind_gusts":25.6,"aqi":69,"pm10":48.7,"pm2_5":21.7,"mosquito_risk":4,"arthritis_risk":5,"migraine_risk":7,"frizz_risk":0,"updated_at":"2026-04-16T04:15:09.906401+05:30"},{"city":"Udaipur","state":"Rajasthan","latitude":24.5854,"longitude":73.7125,"temp":23.6,"humidity":50,"rain":0.0,"pressure":943.6,"uv_index":8.7,"wind_gusts":29.2,"aqi":70,"pm10":92.0,"pm2_5":23.1,"mosquito_risk":0,"arthritis_risk":5,"migraine_risk":7,"frizz_risk":0,"updated_at":"2026-04-16T04:15:09.906407+05:30"},{"city":"Kota","state":"Rajasthan","latitude":25.2138,"longitude":75.8648,"temp":26.3,"humidity":63,"rain":0.0,"pressure":974.7,"uv_index":8.2,"wind_gusts":16.9,"aqi":63,"pm10":61.7,"pm2_5":23.5,"mosquito_risk":7,"arthritis_risk":5,"migraine_risk":7,"frizz_risk":1,"updated_at":"2026-04-16T04:15:09.906413+05:30"},{"city":"Bikaner","state":"Rajasthan","latitude":28.0229,"longitude":73.3119,"temp":27.5,"humidity":41,"rain":0.0,"pressure":977.8,"uv_index":7.75,"wind_gusts":24.1,"aqi":60,"pm10":23.7,"pm2_5":12.3,"mosquito_risk":4,"arthritis_risk":5,"migraine_risk":7,"frizz_risk":0,"updated_at":"2026-04-16T04:15:09.906421+05:30"},{"city":"Ajmer","state":"Rajasthan","latitude":26.4499,"longitude":74.6399,"temp":25.8,"humidity":34,"rain":0.0,"pressure":951.1,"uv_index":8.15,"wind_gusts":31.3,"aqi":72,"pm10":36.8,"pm2_5":13.5,"mosquito_risk":4,"arthritis_risk":5,"migraine_risk":7,"frizz_risk":0,"updated_at":"2026-04-16T04:15:09.906427+05:30"},{"city":"Gwalior","state":"Madhya Pradesh","latitude":26.2183,"longitude":78.1828,"temp":25.5,"humidity":52,"rain":0.0,"pressure":980.1,"uv_index":7.95,"wind_gusts":26.6,"aqi":109,"pm10":315.7,"pm2_5":51.0,"mosquito_risk":4,"arthritis_risk":5,"migraine_risk":7,"frizz_risk":0,"updated_at":"2026-04-16T04:15:09.906434+05:30"},{"city":"Indore","state":"Madhya Pradesh","latitude":22.7196,"longitude":75.8577,"temp":24.4,"humidity":59,"rain":0.0,"pressure":944.8,"uv_index":8.6,"wind_gusts":25.2,"aqi":64,"pm10":36.3,"pm2_5":20.5,"mosquito_risk":0,"arthritis_risk":5,"migraine_risk":7,"frizz_risk":0,"updated_at":"2026-04-16T04:15:09.906441+05:30"},{"city":"Bhopal","state":"Madhya Pradesh","latitude":23.2599,"longitude":77.4126,"temp":26.3,"humidity":52,"rain":0.0,"pressure":950.7,"uv_index":8.55,"wind_gusts":20.5,"aqi":57,"pm10":36.9,"pm2_5":24.0,"mosquito_risk":4,"arthritis_risk":5,"migraine_risk":7,"frizz_risk":0,"updated_at":"2026-04-16T04:15:09.906448+05:30"},{"city":"Jabalpur","state":"Madhya Pradesh","latitude":23.1815,"longitude":79.9864,"temp":23.5,"humidity":60,"rain":0.0,"pressure":957.3,"uv_index":8.7,"wind_gusts":23.4,"aqi":50,"pm10":20.4,"pm2_5":13.2,"mosquito_risk":0,"arthritis_risk":5,"migraine_risk":7,"frizz_risk":0,"updated_at":"2026-04-16T04:15:09.906454+05:30"},{"city":"Ujjain","state":"Madhya Pradesh","latitude":23.1765,"longitude":75.7885,"temp":24.4,"humidity":58,"rain":0.0,"pressure":950.4,"uv_index":8.5,"wind_gusts":24.1,"aqi":71,"pm10":40.3,"pm2_5":22.9,"mosquito_risk":0,"arthritis_risk":5,"migraine_risk":7,"frizz_risk":0,"updated_at":"2026-04-16T04:15:09.906462+05:30"},{"city":"Visakhapatnam","state":"Andhra Pradesh","latitude":17.6868,"longitude":83.2185,"temp":27.0,"humidity":89,"rain":0.0,"pressure":1001.0,"uv_index":9.15,"wind_gusts":45.0,"aqi":54,"pm10":12.8,"pm2_5":10.5,"mosquito_risk":7,"arthritis_risk":5,"migraine_risk":4,"frizz_risk":1,"updated_at":"2026-04-16T04:15:09.906469+05:30"},{"city":"Vijayawada","state":"Andhra Pradesh","latitude":16.5062,"longitude":80.648,"temp":27.4,"humidity":90,"rain":0.0,"pressure":1000.0,"uv_index":9.2,"wind_gusts":31.0,"aqi":43,"pm10":7.9,"pm2_5":6.4,"mosquito_risk":7,"arthritis_risk":5,"migraine_risk":4,"frizz_risk":1,"updated_at":"2026-04-16T04:15:09.906475+05:30"},{"city":"Guntur","state":"Andhra Pradesh","latitude":16.3067,"longitude":80.4365,"temp":27.7,"humidity":88,"rain":0.0,"pressure":1001.0,"uv_index":9.2,"wind_gusts":32.4,"aqi":49,"pm10":7.7,"pm2_5":6.1,"mosquito_risk":7,"arthritis_risk":5,"migraine_risk":4,"frizz_risk":1,"updated_at":"2026-04-16T04:15:09.906482+05:30"},{"city":"Nellore","state":"Andhra Pradesh","latitude":14.4426,"longitude":79.9865,"temp":27.2,"humidity":90,"rain":0.0,"pressure":1002.6,"uv_index":9.3,"wind_gusts":38.2,"aqi":43,"pm10":8.0,"pm2_5":7.0,"mosquito_risk":7,"arthritis_risk":5,"migraine_risk":4,"frizz_risk":1,"updated_at":"2026-04-16T04:15:09.906490+05:30"},{"city":"Kurnool","state":"Andhra Pradesh","latitude":15.8281,"longitude":78.0373,"temp":31.7,"humidity":42,"rain":0.0,"pressure":974.0,"uv_index":9.2,"wind_gusts":19.4,"aqi":87,"pm10":13.6,"pm2_5":13.1,"mosquito_risk":0,"arthritis_risk":5,"migraine_risk":7,"frizz_risk":1,"updated_at":"2026-04-16T04:15:09.906499+05:30"},{"city":"Kakinada","state":"Andhra Pradesh","latitude":16.9891,"longitude":82.2475,"temp":26.6,"humidity":92,"rain":0.0,"pressure":1005.1,"uv_index":9.2,"wind_gusts":36.0,"aqi":37,"pm10":9.9,"pm2_5":6.9,"mosquito_risk":7,"arthritis_risk":5,"migraine_risk":4,"frizz_risk":1,"updated_at":"2026-04-16T04:15:09.906505+05:30"},{"city":"Tirupati","state":"Andhra Pradesh","latitude":13.6288,"longitude":79.4192,"temp":25.7,"humidity":89,"rain":0.0,"pressure":989.3,"uv_index":9.4,"wind_gusts":32.8,"aqi":60,"pm10":22.6,"pm2_5":22.1,"mosquito_risk":7,"arthritis_risk":5,"migraine_risk":7,"frizz_risk":1,"updated_at":"2026-04-16T04:15:09.906512+05:30"},{"city":"Warangal","state":"Telangana","latitude":17.9689,"longitude":79.5941,"temp":27.1,"humidity":71,"rain":0.0,"pressure":975.4,"uv_index":9.1,"wind_gusts":26.3,"aqi":72,"pm10":13.8,"pm2_5":13.2,"mosquito_risk":7,"arthritis_risk":5,"migraine_risk":7,"frizz_risk":1,"updated_at":"2026-04-16T04:15:09.906518+05:30"},{"city":"Nizamabad","state":"Telangana","latitude":18.6725,"longitude":78.0941,"temp":28.0,"humidity":53,"rain":0.0,"pressure":961.7,"uv_index":9.05,"wind_gusts":27.4,"aqi":80,"pm10":38.0,"pm2_5":35.9,"mosquito_risk":4,"arthritis_risk":5,"migraine_risk":7,"frizz_risk":1,"updated_at":"2026-04-16T04:15:09.906524+05:30"},{"city":"Mysore","state":"Karnataka","latitude":12.2958,"longitude":76.6396,"temp":23.3,"humidity":91,"rain":0.0,"pressure":926.2,"uv_index":9.55,"wind_gusts":38.5,"aqi":77,"pm10":38.6,"pm2_5":33.5,"mosquito_risk":3,"arthritis_risk":5,"migraine_risk":7,"frizz_risk":1,"updated_at":"2026-04-16T04:15:09.906530+05:30"},{"city":"Mangalore","state":"Karnataka","latitude":12.9141,"longitude":74.856,"temp":29.5,"humidity":81,"rain":0.0,"pressure":1003.9,"uv_index":8.95,"wind_gusts":22.3,"aqi":76,"pm10":55.6,"pm2_5":31.2,"mosquito_risk":7,"arthritis_risk":5,"migraine_risk":4,"frizz_risk":1,"updated_at":"2026-04-16T04:15:09.906537+05:30"},{"city":"Hubli-Dharwad","state":"Karnataka","latitude":15.3647,"longitude":75.124,"temp":23.4,"humidity":95,"rain":0.0,"pressure":938.5,"uv_index":6.75,"wind_gusts":29.5,"aqi":70,"pm10":35.3,"pm2_5":18.2,"mosquito_risk":3,"arthritis_risk":5,"migraine_risk":7,"frizz_risk":1,"updated_at":"2026-04-16T04:15:09.906543+05:30"},{"city":"Belgaum","state":"Karnataka","latitude":15.8497,"longitude":74.4977,"temp":21.0,"humidity":97,"rain":0.0,"pressure":922.7,"uv_index":9.25,"wind_gusts":36.7,"aqi":70,"pm10":38.0,"pm2_5":22.6,"mosquito_risk":3,"arthritis_risk":5,"migraine_risk":7,"frizz_risk":1,"updated_at":"2026-04-16T04:15:13.210061+05:30"},{"city":"Coimbatore","state":"Tamil Nadu","latitude":11.0168,"longitude":76.9558,"temp":24.8,"humidity":92,"rain":0.0,"pressure":959.3,"uv_index":9.0,"wind_gusts":37.1,"aqi":89,"pm10":49.7,"pm2_5":43.9,"mosquito_risk":3,"arthritis_risk":5,"migraine_risk":7,"frizz_risk":1,"updated_at":"2026-04-16T04:15:13.210098+05:30"},{"city":"Madurai","state":"Tamil Nadu","latitude":9.9252,"longitude":78.1198,"temp":27.4,"humidity":89,"rain":0.0,"pressure":990.4,"uv_index":9.3,"wind_gusts":36.7,"aqi":56,"pm10":20.3,"pm2_5":18.6,"mosquito_risk":7,"arthritis_risk":5,"migraine_risk":7,"frizz_risk":1,"updated_at":"2026-04-16T04:15:13.210108+05:30"},{"city":"Trichy","state":"Tamil Nadu","latitude":10.7905,"longitude":78.7047,"temp":26.9,"humidity":91,"rain":0.0,"pressure":997.5,"uv_index":9.35,"wind_gusts":27.0,"aqi":49,"pm10":11.4,"pm2_5":10.8,"mosquito_risk":7,"arthritis_risk":5,"migraine_risk":7,"frizz_risk":1,"updated_at":"2026-04-16T04:15:13.210115+05:30"},{"city":"Salem","state":"Tamil Nadu","latitude":11.6643,"longitude":78.146,"temp":25.2,"humidity":82,"rain":0.0,"pressure":975.0,"uv_index":9.45,"wind_gusts":24.5,"aqi":62,"pm10":18.6,"pm2_5":18.0,"mosquito_risk":7,"arthritis_risk":5,"migraine_risk":7,"frizz_risk":1,"updated_at":"2026-04-16T04:15:13.210122+05:30"},{"city":"Tirunelveli","state":"Tamil Nadu","latitude":8.7139,"longitude":77.7567,"temp":27.9,"humidity":75,"rain":0.0,"pressure":1000.3,"uv_index":9.15,"wind_gusts":41.4,"aqi":65,"pm10":35.6,"pm2_5":29.3,"mosquito_risk":7,"arthritis_risk":5,"migraine_risk":4,"frizz_risk":1,"updated_at":"2026-04-16T04:15:13.210129+05:30"},{"city":"Vellore","state":"Tamil Nadu","latitude":12.9165,"longitude":79.1325,"temp":25.1,"humidity":95,"rain":0.0,"pressure":982.5,"uv_index":9.4,"wind_gusts":32.4,"aqi":77,"pm10":33.9,"pm2_5":32.9,"mosquito_risk":7,"arthritis_risk":5,"migraine_risk":7,"frizz_risk":1,"updated_at":"2026-04-16T04:15:13.210136+05:30"},{"city":"Erode","state":"Tamil Nadu","latitude":11.341,"longitude":77.7172,"temp":27.9,"humidity":79,"rain":0.0,"pressure":986.5,"uv_index":9.4,"wind_gusts":30.2,"aqi":58,"pm10":23.5,"pm2_5":21.8,"mosquito_risk":7,"arthritis_risk":5,"migraine_risk":7,"frizz_risk":1,"updated_at":"2026-04-16T04:15:13.210143+05:30"},{"city":"Kochi","state":"Kerala","latitude":9.9312,"longitude":76.2673,"temp":28.8,"humidity":84,"rain":0.0,"pressure":1005.8,"uv_index":8.7,"wind_gusts":31.7,"aqi":94,"pm10":51.3,"pm2_5":47.6,"mosquito_risk":7,"arthritis_risk":5,"migraine_risk":4,"frizz_risk":1,"updated_at":"2026-04-16T04:15:13.210150+05:30"},{"city":"Thiruvananthapuram","state":"Kerala","latitude":8.5241,"longitude":76.9366,"temp":29.1,"humidity":82,"rain":0.0,"pressure":1005.0,"uv_index":9.15,"wind_gusts":25.9,"aqi":73,"pm10":37.0,"pm2_5":25.9,"mosquito_risk":7,"arthritis_risk":5,"migraine_risk":4,"frizz_risk":1,"updated_at":"2026-04-16T04:15:13.210157+05:30"},{"city":"Kozhikode","state":"Kerala","latitude":11.2588,"longitude":75.7804,"temp":29.2,"humidity":83,"rain":0.0,"pressure":1004.9,"uv_index":9.15,"wind_gusts":31.0,"aqi":76,"pm10":48.9,"pm2_5":30.5,"mosquito_risk":7,"arthritis_risk":5,"migraine_risk":4,"frizz_risk":1,"updated_at":"2026-04-16T04:15:13.210163+05:30"},{"city":"Thrissur","state":"Kerala","latitude":10.5276,"longitude":76.2144,"temp":28.1,"humidity":88,"rain":0.0,"pressure":1004.0,"uv_index":8.95,"wind_gusts":38.5,"aqi":96,"pm10":65.4,"pm2_5":57.2,"mosquito_risk":7,"arthritis_risk":5,"migraine_risk":4,"frizz_risk":1,"updated_at":"2026-04-16T04:15:13.210171+05:30"},{"city":"Kannur","state":"Kerala","latitude":11.8745,"longitude":75.3704,"temp":29.2,"humidity":82,"rain":0.0,"pressure":1004.2,"uv_index":9.15,"wind_gusts":30.2,"aqi":76,"pm10":44.2,"pm2_5":32.4,"mosquito_risk":7,"arthritis_risk":5,"migraine_risk":4,"frizz_risk":1,"updated_at":"2026-04-16T04:15:13.210179+05:30"},{"city":"Patna","state":"Bihar","latitude":25.5941,"longitude":85.1376,"temp":25.6,"humidity":80,"rain":0.0,"pressure":997.6,"uv_index":8.55,"wind_gusts":33.1,"aqi":115,"pm10":70.3,"pm2_5":61.2,"mosquito_risk":7,"arthritis_risk":5,"migraine_risk":7,"frizz_risk":1,"updated_at":"2026-04-16T04:15:13.210186+05:30"},{"city":"Gaya","state":"Bihar","latitude":24.7914,"longitude":85.0002,"temp":24.1,"humidity":72,"rain":0.0,"pressure":990.0,"uv_index":8.65,"wind_gusts":27.0,"aqi":72,"pm10":56.5,"pm2_5":30.6,"mosquito_risk":3,"arthritis_risk":5,"migraine_risk":7,"frizz_risk":1,"updated_at":"2026-04-16T04:15:13.210193+05:30"},{"city":"Muzaffarpur","state":"Bihar","latitude":26.1209,"longitude":85.3647,"temp":24.5,"humidity":83,"rain":0.0,"pressure":998.0,"uv_index":8.55,"wind_gusts":34.2,"aqi":143,"pm10":74.0,"pm2_5":65.4,"mosquito_risk":3,"arthritis_risk":5,"migraine_risk":7,"frizz_risk":1,"updated_at":"2026-04-16T04:15:13.210200+05:30"},{"city":"Bhagalpur","state":"Bihar","latitude":25.2425,"longitude":87.0117,"temp":24.3,"humidity":92,"rain":0.0,"pressure":998.8,"uv_index":8.55,"wind_gusts":35.6,"aqi":147,"pm10":67.5,"pm2_5":58.0,"mosquito_risk":3,"arthritis_risk":5,"migraine_risk":7,"frizz_risk":1,"updated_at":"2026-04-16T04:15:13.210206+05:30"},{"city":"Ranchi","state":"Jharkhand","latitude":23.3441,"longitude":85.3096,"temp":25.1,"humidity":84,"rain":0.0,"pressure":935.1,"uv_index":9.15,"wind_gusts":44.3,"aqi":89,"pm10":73.8,"pm2_5":44.5,"mosquito_risk":7,"arthritis_risk":5,"migraine_risk":7,"frizz_risk":1,"updated_at":"2026-04-16T04:15:13.210213+05:30"},{"city":"Jamshedpur","state":"Jharkhand","latitude":22.8046,"longitude":86.2029,"temp":26.8,"humidity":91,"rain":0.0,"pressure":988.0,"uv_index":9.0,"wind_gusts":43.6,"aqi":124,"pm10":74.0,"pm2_5":56.6,"mosquito_risk":7,"arthritis_risk":5,"migraine_risk":7,"frizz_risk":1,"updated_at":"2026-04-16T04:15:13.210219+05:30"},{"city":"Dhanbad","state":"Jharkhand","latitude":23.7957,"longitude":86.4304,"temp":27.7,"humidity":89,"rain":0.0,"pressure":976.8,"uv_index":8.95,"wind_gusts":42.5,"aqi":150,"pm10":84.5,"pm2_5":77.8,"mosquito_risk":7,"arthritis_risk":5,"migraine_risk":7,"frizz_risk":1,"updated_at":"2026-04-16T04:15:13.210227+05:30"},{"city":"Bokaro","state":"Jharkhand","latitude":23.6693,"longitude":86.1511,"temp":26.3,"humidity":77,"rain":0.0,"pressure":980.9,"uv_index":8.95,"wind_gusts":48.6,"aqi":123,"pm10":91.7,"pm2_5":77.3,"mosquito_risk":7,"arthritis_risk":5,"migraine_risk":7,"frizz_risk":1,"updated_at":"2026-04-16T04:15:13.210233+05:30"},{"city":"Bhubaneswar","state":"Odisha","latitude":20.2961,"longitude":85.8245,"temp":27.0,"humidity":91,"rain":0.0,"pressure":999.7,"uv_index":9.1,"wind_gusts":40.3,"aqi":67,"pm10":15.3,"pm2_5":11.2,"mosquito_risk":7,"arthritis_risk":5,"migraine_risk":7,"frizz_risk":1,"updated_at":"2026-04-16T04:15:13.210239+05:30"},{"city":"Cuttack","state":"Odisha","latitude":20.4625,"longitude":85.8828,"temp":27.2,"humidity":89,"rain":0.0,"pressure":1001.5,"uv_index":9.15,"wind_gusts":37.4,"aqi":67,"pm10":15.3,"pm2_5":11.2,"mosquito_risk":7,"arthritis_risk":5,"migraine_risk":4,"frizz_risk":1,"updated_at":"2026-04-16T04:15:13.210246+05:30"},{"city":"Rourkela","state":"Odisha","latitude":22.2604,"longitude":84.8536,"temp":28.7,"humidity":83,"rain":0.0,"pressure":982.0,"uv_index":8.9,"wind_gusts":38.9,"aqi":131,"pm10":65.9,"pm2_5":53.6,"mosquito_risk":7,"arthritis_risk":5,"migraine_risk":7,"frizz_risk":1,"updated_at":"2026-04-16T04:15:13.210252+05:30"},{"city":"Raipur","state":"Chhattisgarh","latitude":21.2514,"longitude":81.6296,"temp":28.0,"humidity":54,"rain":0.0,"pressure":970.4,"uv_index":8.95,"wind_gusts":32.0,"aqi":107,"pm10":34.6,"pm2_5":33.8,"mosquito_risk":4,"arthritis_risk":5,"migraine_risk":7,"frizz_risk":1,"updated_at":"2026-04-16T04:15:13.210258+05:30"},{"city":"Bhilai","state":"Chhattisgarh","latitude":21.1938,"longitude":81.3509,"temp":26.9,"humidity":59,"rain":0.0,"pressure":970.7,"uv_index":8.95,"wind_gusts":31.0,"aqi":91,"pm10":22.7,"pm2_5":22.0,"mosquito_risk":4,"arthritis_risk":5,"migraine_risk":7,"frizz_risk":1,"updated_at":"2026-04-16T04:15:13.210264+05:30"},{"city":"Guwahati","state":"Assam","latitude":26.1158,"longitude":91.7086,"temp":22.7,"humidity":91,"rain":0.0,"pressure":1001.5,"uv_index":8.45,"wind_gusts":24.8,"aqi":131,"pm10":57.7,"pm2_5":44.1,"mosquito_risk":3,"arthritis_risk":5,"migraine_risk":4,"frizz_risk":1,"updated_at":"2026-04-16T04:15:13.210272+05:30"},{"city":"Agartala","state":"Tripura","latitude":23.8315,"longitude":91.2868,"temp":23.0,"humidity":93,"rain":0.0,"pressure":1006.4,"uv_index":8.7,"wind_gusts":27.4,"aqi":111,"pm10":48.3,"pm2_5":33.9,"mosquito_risk":3,"arthritis_risk":5,"migraine_risk":4,"frizz_risk":1,"updated_at":"2026-04-16T04:15:13.210279+05:30"},{"city":"Shillong","state":"Meghalaya","latitude":25.5788,"longitude":91.8933,"temp":13.2,"humidity":95,"rain":0.0,"pressure":854.4,"uv_index":8.1,"wind_gusts":53.6,"aqi":98,"pm10":57.3,"pm2_5":36.1,"mosquito_risk":3,"arthritis_risk":10,"migraine_risk":7,"frizz_risk":0,"updated_at":"2026-04-16T04:15:13.210286+05:30"},{"city":"Imphal","state":"Manipur","latitude":24.817,"longitude":93.9368,"temp":17.2,"humidity":91,"rain":0.0,"pressure":922.9,"uv_index":9.05,"wind_gusts":68.0,"aqi":114,"pm10":68.0,"pm2_5":42.0,"mosquito_risk":3,"arthritis_risk":10,"migraine_risk":7,"frizz_risk":0,"updated_at":"2026-04-16T04:15:13.210311+05:30"},{"city":"Aizawl","state":"Mizoram","latitude":23.7271,"longitude":92.7176,"temp":18.3,"humidity":92,"rain":0.0,"pressure":892.0,"uv_index":8.95,"wind_gusts":32.8,"aqi":122,"pm10":80.8,"pm2_5":52.4,"mosquito_risk":3,"arthritis_risk":10,"migraine_risk":7,"frizz_risk":1,"updated_at":"2026-04-16T04:15:13.210319+05:30"},{"city":"Kohima","state":"Nagaland","latitude":25.6701,"longitude":94.1077,"temp":14.4,"humidity":81,"rain":0.0,"pressure":853.9,"uv_index":8.6,"wind_gusts":54.4,"aqi":97,"pm10":52.2,"pm2_5":28.0,"mosquito_risk":3,"arthritis_risk":10,"migraine_risk":7,"frizz_risk":0,"updated_at":"2026-04-16T04:15:13.210326+05:30"},{"city":"Gangtok","state":"Sikkim","latitude":27.3314,"longitude":88.6138,"temp":14.3,"humidity":80,"rain":0.0,"pressure":835.4,"uv_index":8.8,"wind_gusts":18.7,"aqi":151,"pm10":56.5,"pm2_5":39.8,"mosquito_risk":3,"arthritis_risk":5,"migraine_risk":7,"frizz_risk":0,"updated_at":"2026-04-16T04:15:13.210333+05:30"},{"city":"Siliguri","state":"West Bengal","latitude":26.7271,"longitude":88.3953,"temp":20.4,"humidity":73,"rain":0.0,"pressure":993.3,"uv_index":8.45,"wind_gusts":23.4,"aqi":163,"pm10":158.3,"pm2_5":105.5,"mosquito_risk":3,"arthritis_risk":5,"migraine_risk":7,"frizz_risk":0,"updated_at":"2026-04-16T04:15:16.511378+05:30"},{"city":"Durgapur","state":"West Bengal","latitude":23.5204,"longitude":87.3119,"temp":27.5,"humidity":91,"rain":0.0,"pressure":992.5,"uv_index":8.85,"wind_gusts":40.7,"aqi":132,"pm10":48.7,"pm2_5":45.3,"mosquito_risk":7,"arthritis_risk":5,"migraine_risk":7,"frizz_risk":1,"updated_at":"2026-04-16T04:15:16.511415+05:30"},{"city":"Asansol","state":"West Bengal","latitude":23.6739,"longitude":86.9524,"temp":27.9,"humidity":88,"rain":0.0,"pressure":990.9,"uv_index":8.9,"wind_gusts":50.4,"aqi":126,"pm10":54.5,"pm2_5":51.1,"mosquito_risk":7,"arthritis_risk":5,"migraine_risk":7,"frizz_risk":1,"updated_at":"2026-04-16T04:15:16.511426+05:30"},{"city":"Pondicherry","state":"Puducherry","latitude":11.9139,"longitude":79.8145,"temp":27.6,"humidity":95,"rain":0.0,"pressure":1006.2,"uv_index":9.25,"wind_gusts":28.8,"aqi":35,"pm10":8.3,"pm2_5":5.5,"mosquito_risk":7,"arthritis_risk":5,"migraine_risk":4,"frizz_risk":1,"updated_at":"2026-04-16T04:15:16.511434+05:30"},{"city":"Port Blair","state":"Andaman and Nicobar Islands","latitude":11.6234,"longitude":92.7265,"temp":29.3,"humidity":69,"rain":0.0,"pressure":1005.8,"uv_index":9.2,"wind_gusts":13.3,"aqi":66,"pm10":25.7,"pm2_5":18.3,"mosquito_risk":7,"arthritis_risk":5,"migraine_risk":4,"frizz_risk":1,"updated_at":"2026-04-16T04:15:16.511442+05:30"},{"city":"Haridwar","state":"Uttarakhand","latitude":29.9457,"longitude":78.1642,"temp":19.2,"humidity":71,"rain":0.0,"pressure":971.4,"uv_index":7.15,"wind_gusts":31.7,"aqi":53,"pm10":20.4,"pm2_5":20.3,"mosquito_risk":3,"arthritis_risk":5,"migraine_risk":7,"frizz_risk":0,"updated_at":"2026-04-16T04:15:16.511451+05:30"},{"city":"Rishikesh","state":"Uttarakhand","latitude":30.0869,"longitude":78.2676,"temp":19.5,"humidity":70,"rain":0.0,"pressure":964.3,"uv_index":7.1,"wind_gusts":33.1,"aqi":83,"pm10":14.6,"pm2_5":14.6,"mosquito_risk":3,"arthritis_risk":5,"migraine_risk":7,"frizz_risk":0,"updated_at":"2026-04-16T04:15:16.511459+05:30"},{"city":"Nainital","state":"Uttarakhand","latitude":29.3919,"longitude":79.4542,"temp":19.7,"humidity":33,"rain":0.0,"pressure":804.5,"uv_index":8.1,"wind_gusts":50.0,"aqi":80,"pm10":10.1,"pm2_5":9.2,"mosquito_risk":0,"arthritis_risk":5,"migraine_risk":7,"frizz_risk":0,"updated_at":"2026-04-16T04:15:16.511466+05:30"},{"city":"Mussoorie","state":"Uttarakhand","latitude":30.4599,"longitude":78.0664,"temp":16.7,"humidity":58,"rain":0.0,"pressure":800.7,"uv_index":7.4,"wind_gusts":38.2,"aqi":51,"pm10":16.8,"pm2_5":16.8,"mosquito_risk":0,"arthritis_risk":5,"migraine_risk":7,"frizz_risk":0,"updated_at":"2026-04-16T04:15:16.511474+05:30"},{"city":"Dharamshala","state":"Himachal Pradesh","latitude":32.219,"longitude":76.3234,"temp":20.7,"humidity":42,"rain":0.0,"pressure":867.4,"uv_index":7.35,"wind_gusts":25.2,"aqi":63,"pm10":5.8,"pm2_5":5.0,"mosquito_risk":0,"arthritis_risk":5,"migraine_risk":7,"frizz_risk":0,"updated_at":"2026-04-16T04:15:16.511481+05:30"},{"city":"Dalhousie","state":"Himachal Pradesh","latitude":32.5387,"longitude":75.971,"temp":17.3,"humidity":40,"rain":0.0,"pressure":801.9,"uv_index":7.55,"wind_gusts":25.6,"aqi":50,"pm10":13.1,"pm2_5":12.7,"mosquito_risk":0,"arthritis_risk":5,"migraine_risk":7,"frizz_risk":0,"updated_at":"2026-04-16T04:15:16.511489+05:30"},{"city":"Patiala","state":"Punjab","latitude":30.3398,"longitude":76.3869,"temp":18.9,"humidity":64,"rain":0.0,"pressure":975.1,"uv_index":7.05,"wind_gusts":19.8,"aqi":161,"pm10":40.3,"pm2_5":38.8,"mosquito_risk":3,"arthritis_risk":5,"migraine_risk":7,"frizz_risk":0,"updated_at":"2026-04-16T04:15:16.511496+05:30"},{"city":"Bhatinda","state":"Punjab","latitude":30.211,"longitude":74.9455,"temp":22.7,"humidity":57,"rain":0.0,"pressure":980.2,"uv_index":7.8,"wind_gusts":23.0,"aqi":61,"pm10":42.5,"pm2_5":29.4,"mosquito_risk":0,"arthritis_risk":5,"migraine_risk":7,"frizz_risk":0,"updated_at":"2026-04-16T04:15:16.511503+05:30"},{"city":"Rohtak","state":"Haryana","latitude":28.8955,"longitude":76.6066,"temp":22.7,"humidity":50,"rain":0.0,"pressure":978.5,"uv_index":7.35,"wind_gusts":27.0,"aqi":408,"pm10":726.4,"pm2_5":126.2,"mosquito_risk":0,"arthritis_risk":5,"migraine_risk":7,"frizz_risk":0,"updated_at":"2026-04-16T04:15:16.511511+05:30"},{"city":"Panipat","state":"Haryana","latitude":29.3909,"longitude":76.9635,"temp":20.7,"humidity":57,"rain":0.0,"pressure":977.4,"uv_index":7.2,"wind_gusts":23.0,"aqi":718,"pm10":453.6,"pm2_5":102.7,"mosquito_risk":0,"arthritis_risk":5,"migraine_risk":7,"frizz_risk":0,"updated_at":"2026-04-16T04:15:16.511517+05:30"},{"city":"Mathura","state":"Uttar Pradesh","latitude":27.4924,"longitude":77.6737,"temp":22.9,"humidity":45,"rain":0.0,"pressure":983.7,"uv_index":7.65,"wind_gusts":25.2,"aqi":418,"pm10":586.7,"pm2_5":102.4,"mosquito_risk":0,"arthritis_risk":5,"migraine_risk":7,"frizz_risk":0,"updated_at":"2026-04-16T04:15:16.511524+05:30"},{"city":"Vrindavan","state":"Uttar Pradesh","latitude":27.5823,"longitude":77.7027,"temp":22.5,"humidity":44,"rain":0.0,"pressure":984.2,"uv_index":7.6,"wind_gusts":26.6,"aqi":418,"pm10":586.7,"pm2_5":102.4,"mosquito_risk":0,"arthritis_risk":5,"migraine_risk":7,"frizz_risk":0,"updated_at":"2026-04-16T04:15:16.511531+05:30"},{"city":"Ayodhya","state":"Uttar Pradesh","latitude":26.7922,"longitude":82.1998,"temp":23.3,"humidity":45,"rain":0.0,"pressure":992.2,"uv_index":8.0,"wind_gusts":22.7,"aqi":85,"pm10":97.1,"pm2_5":27.6,"mosquito_risk":0,"arthritis_risk":5,"migraine_risk":7,"frizz_risk":0,"updated_at":"2026-04-16T04:15:16.511538+05:30"},{"city":"Ratlam","state":"Madhya Pradesh","latitude":23.3315,"longitude":75.0367,"temp":23.4,"humidity":69,"rain":0.0,"pressure":951.2,"uv_index":8.4,"wind_gusts":28.8,"aqi":65,"pm10":41.8,"pm2_5":21.5,"mosquito_risk":3,"arthritis_risk":5,"migraine_risk":7,"frizz_risk":1,"updated_at":"2026-04-16T04:15:16.511545+05:30"},{"city":"Sagar","state":"Madhya Pradesh","latitude":23.8388,"longitude":78.7378,"temp":26.3,"humidity":47,"rain":0.0,"pressure":946.7,"uv_index":8.6,"wind_gusts":21.6,"aqi":48,"pm10":24.2,"pm2_5":13.7,"mosquito_risk":4,"arthritis_risk":5,"migraine_risk":7,"frizz_risk":0,"updated_at":"2026-04-16T04:15:16.511552+05:30"},{"city":"Satna","state":"Madhya Pradesh","latitude":24.6005,"longitude":80.8322,"temp":28.0,"humidity":46,"rain":0.0,"pressure":968.0,"uv_index":8.6,"wind_gusts":28.8,"aqi":82,"pm10":61.2,"pm2_5":20.0,"mosquito_risk":4,"arthritis_risk":5,"migraine_risk":7,"frizz_risk":0,"updated_at":"2026-04-16T04:15:16.511559+05:30"},{"city":"Akola","state":"Maharashtra","latitude":20.7002,"longitude":77.0082,"temp":26.0,"humidity":59,"rain":0.0,"pressure":971.9,"uv_index":8.8,"wind_gusts":24.1,"aqi":51,"pm10":28.5,"pm2_5":18.3,"mosquito_risk":4,"arthritis_risk":5,"migraine_risk":7,"frizz_risk":1,"updated_at":"2026-04-16T04:15:16.511566+05:30"},{"city":"Amravati","state":"Maharashtra","latitude":20.9374,"longitude":77.7796,"temp":24.4,"humidity":55,"rain":0.0,"pressure":963.7,"uv_index":8.8,"wind_gusts":19.1,"aqi":48,"pm10":24.5,"pm2_5":16.1,"mosquito_risk":0,"arthritis_risk":5,"migraine_risk":7,"frizz_risk":0,"updated_at":"2026-04-16T04:15:16.511573+05:30"},{"city":"Latur","state":"Maharashtra","latitude":18.4088,"longitude":76.5604,"temp":24.5,"humidity":51,"rain":0.0,"pressure":936.6,"uv_index":9.05,"wind_gusts":23.4,"aqi":65,"pm10":20.6,"pm2_5":15.4,"mosquito_risk":0,"arthritis_risk":5,"migraine_risk":7,"frizz_risk":0,"updated_at":"2026-04-16T04:15:16.511580+05:30"},{"city":"Nanded","state":"Maharashtra","latitude":19.1383,"longitude":77.3091,"temp":25.4,"humidity":55,"rain":0.0,"pressure":965.6,"uv_index":8.95,"wind_gusts":17.3,"aqi":63,"pm10":24.6,"pm2_5":19.1,"mosquito_risk":4,"arthritis_risk":5,"migraine_risk":7,"frizz_risk":0,"updated_at":"2026-04-16T04:15:16.511587+05:30"},{"city":"Gulbarga","state":"Karnataka","latitude":17.3297,"longitude":76.8343,"temp":29.3,"humidity":43,"rain":0.0,"pressure":955.4,"uv_index":9.1,"wind_gusts":27.4,"aqi":95,"pm10":31.5,"pm2_5":28.4,"mosquito_risk":4,"arthritis_risk":5,"migraine_risk":7,"frizz_risk":0,"updated_at":"2026-04-16T04:15:16.511593+05:30"},{"city":"Bidar","state":"Karnataka","latitude":17.9104,"longitude":77.5199,"temp":27.4,"humidity":51,"rain":0.0,"pressure":932.6,"uv_index":9.1,"wind_gusts":33.8,"aqi":106,"pm10":48.9,"pm2_5":41.1,"mosquito_risk":4,"arthritis_risk":5,"migraine_risk":7,"frizz_risk":1,"updated_at":"2026-04-16T04:15:16.511600+05:30"},{"city":"Hospet","state":"Karnataka","latitude":15.2689,"longitude":76.3909,"temp":27.0,"humidity":82,"rain":0.0,"pressure":954.0,"uv_index":9.25,"wind_gusts":31.7,"aqi":79,"pm10":24.7,"pm2_5":18.5,"mosquito_risk":7,"arthritis_risk":5,"migraine_risk":7,"frizz_risk":1,"updated_at":"2026-04-16T04:15:16.511606+05:30"},{"city":"Tirupur","state":"Tamil Nadu","latitude":11.1085,"longitude":77.3411,"temp":26.7,"humidity":87,"rain":0.0,"pressure":972.8,"uv_index":9.35,"wind_gusts":32.8,"aqi":74,"pm10":36.7,"pm2_5":32.0,"mosquito_risk":7,"arthritis_risk":5,"migraine_risk":7,"frizz_risk":1,"updated_at":"2026-04-16T04:15:16.511613+05:30"},{"city":"Alappuzha","state":"Kerala","latitude":9.4981,"longitude":76.3388,"temp":28.8,"humidity":84,"rain":0.0,"pressure":1006.0,"uv_index":8.4,"wind_gusts":29.5,"aqi":92,"pm10":52.0,"pm2_5":39.6,"mosquito_risk":7,"arthritis_risk":5,"migraine_risk":4,"frizz_risk":1,"updated_at":"2026-04-16T04:15:16.511619+05:30"},{"city":"Munnar","state":"Kerala","latitude":10.0889,"longitude":77.0595,"temp":20.4,"humidity":79,"rain":0.0,"pressure":854.2,"uv_index":9.0,"wind_gusts":22.0,"aqi":71,"pm10":33.8,"pm2_5":30.6,"mosquito_risk":3,"arthritis_risk":5,"migraine_risk":7,"frizz_risk":1,"updated_at":"2026-04-16T04:15:16.511627+05:30"},{"city":"Silchar","state":"Assam","latitude":24.8333,"longitude":92.7789,"temp":22.4,"humidity":93,"rain":0.0,"pressure":1005.9,"uv_index":8.7,"wind_gusts":26.6,"aqi":116,"pm10":55.3,"pm2_5":33.4,"mosquito_risk":3,"arthritis_risk":5,"migraine_risk":4,"frizz_risk":1,"updated_at":"2026-04-16T04:15:16.511634+05:30"},{"city":"Dibrugarh","state":"Assam","latitude":27.4728,"longitude":94.912,"temp":20.0,"humidity":91,"rain":0.0,"pressure":997.1,"uv_index":8.55,"wind_gusts":9.4,"aqi":147,"pm10":60.3,"pm2_5":41.9,"mosquito_risk":3,"arthritis_risk":5,"migraine_risk":7,"frizz_risk":1,"updated_at":"2026-04-16T04:15:16.511640+05:30"}]