[{"city":"Delhi","state":"Delhi","latitude":28.6139,"longitude":77.209,"temp":32.4,"humidity":62,"rain":0.0,"pressure":974.5,"uv_index":7.7,"wind_gusts":18.7,"aqi":152,"pm10":74.5,"pm2_5":35.6,"no2":9.5,"co":645.0,"o3":200.0,"so2":20.1,"mosquito_risk":3,"arthritis_risk":5,"migraine_risk":7,"frizz_risk":1,"updated_at":"2026-07-02T17:06:00.666993+05:30"},{"city":"Mumbai","state":"Maharashtra","latitude":19.076,"longitude":72.8777,"temp":26.9,"humidity":90,"rain":0.3,"pressure":1003.2,"uv_index":1.05,"wind_gusts":45.0,"aqi":38,"pm10":15.7,"pm2_5":9.0,"no2":7.7,"co":224.0,"o3":56.0,"so2":5.2,"mosquito_risk":10,"arthritis_risk":5,"migraine_risk":0,"frizz_risk":1,"updated_at":"2026-07-02T17:06:00.667034+05:30"},{"city":"Bangalore","state":"Karnataka","latitude":12.9716,"longitude":77.5946,"temp":26.3,"humidity":63,"rain":0.0,"pressure":909.5,"uv_index":4.75,"wind_gusts":59.4,"aqi":26,"pm10":2.6,"pm2_5":2.3,"no2":7.6,"co":432.0,"o3":56.0,"so2":2.3,"mosquito_risk":7,"arthritis_risk":5,"migraine_risk":3,"frizz_risk":1,"updated_at":"2026-07-02T17:06:00.667047+05:30"},{"city":"Hyderabad","state":"Telangana","latitude":17.385,"longitude":78.4867,"temp":27.8,"humidity":69,"rain":0.0,"pressure":947.8,"uv_index":6.6,"wind_gusts":55.4,"aqi":26,"pm10":14.1,"pm2_5":9.5,"no2":9.1,"co":251.0,"o3":64.0,"so2":4.5,"mosquito_risk":7,"arthritis_risk":5,"migraine_risk":7,"frizz_risk":1,"updated_at":"2026-07-02T17:06:00.667056+05:30"},{"city":"Chennai","state":"Tamil Nadu","latitude":13.0827,"longitude":80.2707,"temp":34.9,"humidity":47,"rain":0.1,"pressure":1001.8,"uv_index":6.5,"wind_gusts":45.0,"aqi":42,"pm10":17.4,"pm2_5":13.2,"no2":6.1,"co":256.0,"o3":106.0,"so2":5.0,"mosquito_risk":3,"arthritis_risk":5,"migraine_risk":4,"frizz_risk":1,"updated_at":"2026-07-02T17:06:00.667063+05:30"},{"city":"Kolkata","state":"West Bengal","latitude":22.5726,"longitude":88.3639,"temp":30.7,"humidity":77,"rain":0.1,"pressure":995.9,"uv_index":7.9,"wind_gusts":32.0,"aqi":65,"pm10":12.4,"pm2_5":11.7,"no2":6.7,"co":538.0,"o3":86.0,"so2":7.0,"mosquito_risk":6,"arthritis_risk":5,"migraine_risk":7,"frizz_risk":1,"updated_at":"2026-07-02T17:06:00.667069+05:30"},{"city":"Pune","state":"Maharashtra","latitude":18.5204,"longitude":73.8567,"temp":24.1,"humidity":91,"rain":0.1,"pressure":943.1,"uv_index":0.95,"wind_gusts":44.6,"aqi":20,"pm10":6.2,"pm2_5":4.4,"no2":8.1,"co":192.0,"o3":45.0,"so2":4.2,"mosquito_risk":6,"arthritis_risk":5,"migraine_risk":3,"frizz_risk":1,"updated_at":"2026-07-02T17:06:00.667075+05:30"},{"city":"Ahmedabad","state":"Gujarat","latitude":23.0225,"longitude":72.5714,"temp":29.9,"humidity":73,"rain":0.3,"pressure":994.6,"uv_index":6.75,"wind_gusts":50.8,"aqi":56,"pm10":33.3,"pm2_5":16.1,"no2":5.8,"co":170.0,"o3":87.0,"so2":5.1,"mosquito_risk":10,"arthritis_risk":5,"migraine_risk":7,"frizz_risk":1,"updated_at":"2026-07-02T17:06:00.667080+05:30"},{"city":"Jaipur","state":"Rajasthan","latitude":26.9124,"longitude":75.7873,"temp":32.0,"humidity":66,"rain":0.0,"pressure":951.6,"uv_index":8.2,"wind_gusts":30.2,"aqi":115,"pm10":202.6,"pm2_5":54.9,"no2":3.9,"co":192.0,"o3":105.0,"so2":4.0,"mosquito_risk":3,"arthritis_risk":5,"migraine_risk":7,"frizz_risk":1,"updated_at":"2026-07-02T17:06:00.667086+05:30"},{"city":"Lucknow","state":"Uttar Pradesh","latitude":26.8467,"longitude":80.9462,"temp":31.6,"humidity":75,"rain":0.1,"pressure":984.4,"uv_index":7.0,"wind_gusts":25.9,"aqi":117,"pm10":22.1,"pm2_5":21.5,"no2":2.5,"co":376.0,"o3":168.0,"so2":6.4,"mosquito_risk":6,"arthritis_risk":5,"migraine_risk":7,"frizz_risk":1,"updated_at":"2026-07-02T17:06:00.667095+05:30"},{"city":"Kanpur","state":"Uttar Pradesh","latitude":26.4499,"longitude":80.3319,"temp":31.2,"humidity":77,"rain":0.0,"pressure":982.6,"uv_index":7.3,"wind_gusts":19.4,"aqi":106,"pm10":32.5,"pm2_5":23.7,"no2":2.7,"co":256.0,"o3":167.0,"so2":7.2,"mosquito_risk":3,"arthritis_risk":5,"migraine_risk":7,"frizz_risk":1,"updated_at":"2026-07-02T17:06:00.667103+05:30"},{"city":"Chandigarh","state":"Chandigarh","latitude":30.7333,"longitude":76.7794,"temp":30.7,"humidity":73,"rain":0.0,"pressure":961.0,"uv_index":6.8,"wind_gusts":36.7,"aqi":133,"pm10":54.2,"pm2_5":25.2,"no2":0.3,"co":372.0,"o3":180.0,"so2":7.6,"mosquito_risk":3,"arthritis_risk":5,"migraine_risk":7,"frizz_risk":1,"updated_at":"2026-07-02T17:06:00.667108+05:30"},{"city":"Srinagar","state":"Jammu and Kashmir","latitude":34.0837,"longitude":74.7973,"temp":26.4,"humidity":56,"rain":0.0,"pressure":838.9,"uv_index":9.1,"wind_gusts":19.1,"aqi":99,"pm10":29.6,"pm2_5":20.2,"no2":1.8,"co":240.0,"o3":151.0,"so2":2.6,"mosquito_risk":4,"arthritis_risk":5,"migraine_risk":7,"frizz_risk":1,"updated_at":"2026-07-02T17:06:00.667113+05:30"},{"city":"Jammu","state":"Jammu and Kashmir","latitude":32.7266,"longitude":74.857,"temp":34.1,"humidity":51,"rain":0.0,"pressure":964.8,"uv_index":8.55,"wind_gusts":32.4,"aqi":132,"pm10":129.5,"pm2_5":47.6,"no2":0.3,"co":267.0,"o3":173.0,"so2":4.0,"mosquito_risk":0,"arthritis_risk":5,"migraine_risk":7,"frizz_risk":1,"updated_at":"2026-07-02T17:06:00.667118+05:30"},{"city":"Amritsar","state":"Punjab","latitude":31.634,"longitude":74.8723,"temp":33.6,"humidity":59,"rain":0.0,"pressure":972.3,"uv_index":8.45,"wind_gusts":28.8,"aqi":193,"pm10":270.1,"pm2_5":89.4,"no2":1.2,"co":259.0,"o3":156.0,"so2":5.3,"mosquito_risk":0,"arthritis_risk":5,"migraine_risk":7,"frizz_risk":1,"updated_at":"2026-07-02T17:06:00.667123+05:30"},{"city":"Ludhiana","state":"Punjab","latitude":30.901,"longitude":75.8573,"temp":32.8,"humidity":63,"rain":0.0,"pressure":970.3,"uv_index":2.25,"wind_gusts":28.8,"aqi":153,"pm10":158.3,"pm2_5":58.6,"no2":1.0,"co":289.0,"o3":163.0,"so2":8.4,"mosquito_risk":3,"arthritis_risk":5,"migraine_risk":3,"frizz_risk":1,"updated_at":"2026-07-02T17:06:00.667128+05:30"},{"city":"Jalandhar","state":"Punjab","latitude":31.326,"longitude":75.5762,"temp":33.8,"humidity":58,"rain":0.0,"pressure":971.2,"uv_index":2.2,"wind_gusts":31.3,"aqi":159,"pm10":207.7,"pm2_5":75.9,"no2":0.4,"co":305.0,"o3":168.0,"so2":6.4,"mosquito_risk":0,"arthritis_risk":5,"migraine_risk":3,"frizz_risk":1,"updated_at":"2026-07-02T17:06:00.667133+05:30"},{"city":"Dehradun","state":"Uttarakhand","latitude":30.6284,"longitude":78.0322,"temp":21.2,"humidity":92,"rain":0.0,"pressure":826.9,"uv_index":4.95,"wind_gusts":25.2,"aqi":92,"pm10":3.4,"pm2_5":2.9,"no2":1.1,"co":212.0,"o3":138.0,"so2":1.5,"mosquito_risk":3,"arthritis_risk":5,"migraine_risk":3,"frizz_risk":1,"updated_at":"2026-07-02T17:06:00.667138+05:30"},{"city":"Shimla","state":"Himachal Pradesh","latitude":31.1048,"longitude":77.1734,"temp":18.8,"humidity":94,"rain":0.1,"pressure":781.7,"uv_index":4.9,"wind_gusts":24.8,"aqi":84,"pm10":35.0,"pm2_5":17.8,"no2":2.0,"co":212.0,"o3":147.0,"so2":3.4,"mosquito_risk":6,"arthritis_risk":10,"migraine_risk":3,"frizz_risk":1,"updated_at":"2026-07-02T17:06:00.667143+05:30"},{"city":"Manali","state":"Himachal Pradesh","latitude":32.2396,"longitude":77.1887,"temp":24.1,"humidity":68,"rain":0.0,"pressure":817.2,"uv_index":3.4,"wind_gusts":42.5,"aqi":108,"pm10":27.2,"pm2_5":26.3,"no2":29.7,"co":169.0,"o3":143.0,"so2":0.9,"mosquito_risk":3,"arthritis_risk":5,"migraine_risk":3,"frizz_risk":1,"updated_at":"2026-07-02T17:06:00.667150+05:30"},{"city":"Gurgaon","state":"Haryana","latitude":28.4595,"longitude":77.0266,"temp":32.2,"humidity":61,"rain":0.0,"pressure":972.9,"uv_index":7.8,"wind_gusts":23.4,"aqi":157,"pm10":152.3,"pm2_5":63.1,"no2":10.2,"co":493.0,"o3":251.0,"so2":31.1,"mosquito_risk":3,"arthritis_risk":5,"migraine_risk":7,"frizz_risk":1,"updated_at":"2026-07-02T17:06:00.667157+05:30"},{"city":"Noida","state":"Uttar Pradesh","latitude":28.5355,"longitude":77.391,"temp":33.6,"humidity":57,"rain":0.0,"pressure":975.7,"uv_index":7.45,"wind_gusts":21.2,"aqi":157,"pm10":152.3,"pm2_5":63.1,"no2":10.2,"co":458.0,"o3":251.0,"so2":31.1,"mosquito_risk":0,"arthritis_risk":5,"migraine_risk":7,"frizz_risk":1,"updated_at":"2026-07-02T17:06:00.667162+05:30"},{"city":"Ghaziabad","state":"Uttar Pradesh","latitude":28.6692,"longitude":77.4538,"temp":33.2,"humidity":58,"rain":0.0,"pressure":974.0,"uv_index":7.15,"wind_gusts":20.5,"aqi":115,"pm10":27.7,"pm2_5":19.6,"no2":5.0,"co":322.0,"o3":173.0,"so2":12.3,"mosquito_risk":0,"arthritis_risk":5,"migraine_risk":7,"frizz_risk":1,"updated_at":"2026-07-02T17:06:00.667167+05:30"},{"city":"Faridabad","state":"Haryana","latitude":28.4089,"longitude":77.3178,"temp":32.6,"humidity":63,"rain":0.0,"pressure":975.0,"uv_index":7.4,"wind_gusts":25.6,"aqi":157,"pm10":152.3,"pm2_5":63.1,"no2":10.2,"co":450.0,"o3":251.0,"so2":31.1,"mosquito_risk":3,"arthritis_risk":5,"migraine_risk":7,"frizz_risk":1,"updated_at":"2026-07-02T17:06:00.667171+05:30"},{"city":"Meerut","state":"Uttar Pradesh","latitude":28.9845,"longitude":77.7064,"temp":31.9,"humidity":66,"rain":0.0,"pressure":973.0,"uv_index":7.4,"wind_gusts":24.1,"aqi":115,"pm10":27.7,"pm2_5":19.6,"no2":5.0,"co":334.0,"o3":173.0,"so2":12.3,"mosquito_risk":3,"arthritis_risk":5,"migraine_risk":7,"frizz_risk":1,"updated_at":"2026-07-02T17:06:00.667176+05:30"},{"city":"Agra","state":"Uttar Pradesh","latitude":27.1767,"longitude":78.0081,"temp":32.3,"humidity":64,"rain":0.0,"pressure":978.8,"uv_index":7.4,"wind_gusts":30.6,"aqi":116,"pm10":184.9,"pm2_5":51.6,"no2":4.8,"co":269.0,"o3":153.0,"so2":6.8,"mosquito_risk":3,"arthritis_risk":5,"migraine_risk":7,"frizz_risk":1,"updated_at":"2026-07-02T17:06:00.667181+05:30"},{"city":"Varanasi","state":"Uttar Pradesh","latitude":25.3176,"longitude":82.9739,"temp":30.5,"humidity":79,"rain":0.0,"pressure":988.6,"uv_index":5.5,"wind_gusts":31.0,"aqi":106,"pm10":32.1,"pm2_5":32.0,"no2":5.7,"co":419.0,"o3":147.0,"so2":8.3,"mosquito_risk":3,"arthritis_risk":5,"migraine_risk":3,"frizz_risk":1,"updated_at":"2026-07-02T17:06:00.667186+05:30"},{"city":"Prayagraj","state":"Uttar Pradesh","latitude":25.4358,"longitude":81.8463,"temp":31.1,"humidity":75,"rain":0.2,"pressure":986.8,"uv_index":6.95,"wind_gusts":23.4,"aqi":100,"pm10":29.3,"pm2_5":29.0,"no2":4.2,"co":378.0,"o3":151.0,"so2":6.0,"mosquito_risk":6,"arthritis_risk":5,"migraine_risk":7,"frizz_risk":1,"updated_at":"2026-07-02T17:06:00.667191+05:30"},{"city":"Gorakhpur","state":"Uttar Pradesh","latitude":26.7606,"longitude":83.3732,"temp":30.3,"humidity":80,"rain":0.1,"pressure":988.4,"uv_index":7.6,"wind_gusts":30.6,"aqi":135,"pm10":19.1,"pm2_5":19.0,"no2":6.5,"co":321.0,"o3":114.0,"so2":3.7,"mosquito_risk":6,"arthritis_risk":5,"migraine_risk":7,"frizz_risk":1,"updated_at":"2026-07-02T17:06:00.667197+05:30"},{"city":"Bareilly","state":"Uttar Pradesh","latitude":28.367,"longitude":79.4304,"temp":31.1,"humidity":73,"rain":0.0,"pressure":978.3,"uv_index":7.3,"wind_gusts":32.8,"aqi":116,"pm10":32.7,"pm2_5":30.6,"no2":3.1,"co":300.0,"o3":160.0,"so2":9.3,"mosquito_risk":3,"arthritis_risk":5,"migraine_risk":7,"frizz_risk":1,"updated_at":"2026-07-02T17:06:00.667203+05:30"},{"city":"Aligarh","state":"Uttar Pradesh","latitude":27.8974,"longitude":78.088,"temp":32.3,"humidity":64,"rain":0.0,"pressure":976.7,"uv_index":6.3,"wind_gusts":29.5,"aqi":128,"pm10":104.3,"pm2_5":41.8,"no2":3.8,"co":293.0,"o3":184.0,"so2":16.3,"mosquito_risk":3,"arthritis_risk":5,"migraine_risk":7,"frizz_risk":1,"updated_at":"2026-07-02T17:06:00.667208+05:30"},{"city":"Moradabad","state":"Uttar Pradesh","latitude":28.8386,"longitude":78.7733,"temp":31.0,"humidity":72,"rain":0.0,"pressure":975.3,"uv_index":6.75,"wind_gusts":33.1,"aqi":95,"pm10":38.9,"pm2_5":31.3,"no2":3.7,"co":299.0,"o3":166.0,"so2":11.5,"mosquito_risk":3,"arthritis_risk":5,"migraine_risk":7,"frizz_risk":1,"updated_at":"2026-07-02T17:06:00.667213+05:30"},{"city":"Saharanpur","state":"Uttar Pradesh","latitude":29.9637,"longitude":77.546,"temp":30.6,"humidity":73,"rain":0.1,"pressure":967.8,"uv_index":2.6,"wind_gusts":37.1,"aqi":121,"pm10":26.2,"pm2_5":22.5,"no2":1.9,"co":368.0,"o3":142.0,"so2":2.7,"mosquito_risk":6,"arthritis_risk":5,"migraine_risk":3,"frizz_risk":1,"updated_at":"2026-07-02T17:06:00.667218+05:30"},{"city":"Jhansi","state":"Uttar Pradesh","latitude":25.4484,"longitude":78.5685,"temp":31.5,"humidity":66,"rain":0.0,"pressure":969.7,"uv_index":8.15,"wind_gusts":32.4,"aqi":97,"pm10":77.3,"pm2_5":32.9,"no2":1.5,"co":159.0,"o3":123.0,"so2":5.4,"mosquito_risk":3,"arthritis_risk":5,"migraine_risk":7,"frizz_risk":1,"updated_at":"2026-07-02T17:06:03.991063+05:30"},{"city":"Surat","state":"Gujarat","latitude":21.1702,"longitude":72.8311,"temp":27.9,"humidity":90,"rain":0.1,"pressure":999.7,"uv_index":0.5,"wind_gusts":31.3,"aqi":58,"pm10":18.0,"pm2_5":16.5,"no2":32.9,"co":427.0,"o3":23.0,"so2":46.9,"mosquito_risk":10,"arthritis_risk":5,"migraine_risk":3,"frizz_risk":1,"updated_at":"2026-07-02T17:06:03.991094+05:30"},{"city":"Vadodara","state":"Gujarat","latitude":22.3072,"longitude":73.1812,"temp":31.2,"humidity":68,"rain":0.0,"pressure":996.7,"uv_index":7.1,"wind_gusts":42.1,"aqi":49,"pm10":14.5,"pm2_5":11.2,"no2":8.9,"co":185.0,"o3":84.0,"so2":5.5,"mosquito_risk":3,"arthritis_risk":5,"migraine_risk":7,"frizz_risk":1,"updated_at":"2026-07-02T17:06:03.991102+05:30"},{"city":"Rajkot","state":"Gujarat","latitude":22.3039,"longitude":70.8022,"temp":29.5,"humidity":75,"rain":0.0,"pressure":987.2,"uv_index":4.45,"wind_gusts":41.0,"aqi":61,"pm10":20.8,"pm2_5":10.1,"no2":2.9,"co":136.0,"o3":72.0,"so2":3.2,"mosquito_risk":7,"arthritis_risk":5,"migraine_risk":3,"frizz_risk":1,"updated_at":"2026-07-02T17:06:03.991109+05:30"},{"city":"Thane","state":"Maharashtra","latitude":19.2183,"longitude":72.9781,"temp":26.1,"humidity":95,"rain":0.2,"pressure":1002.6,"uv_index":0.95,"wind_gusts":36.7,"aqi":38,"pm10":15.7,"pm2_5":9.0,"no2":7.7,"co":259.0,"o3":56.0,"so2":5.2,"mosquito_risk":10,"arthritis_risk":5,"migraine_risk":0,"frizz_risk":1,"updated_at":"2026-07-02T17:06:03.991116+05:30"},{"city":"Nagpur","state":"Maharashtra","latitude":21.1458,"longitude":79.0882,"temp":27.1,"humidity":94,"rain":0.2,"pressure":965.9,"uv_index":0.95,"wind_gusts":34.2,"aqi":68,"pm10":10.0,"pm2_5":9.6,"no2":16.1,"co":241.0,"o3":70.0,"so2":20.3,"mosquito_risk":10,"arthritis_risk":5,"migraine_risk":3,"frizz_risk":1,"updated_at":"2026-07-02T17:06:03.991122+05:30"},{"city":"Nashik","state":"Maharashtra","latitude":19.9975,"longitude":73.7898,"temp":24.1,"humidity":91,"rain":0.1,"pressure":939.3,"uv_index":2.8,"wind_gusts":55.8,"aqi":21,"pm10":1.9,"pm2_5":1.8,"no2":7.0,"co":160.0,"o3":44.0,"so2":2.1,"mosquito_risk":6,"arthritis_risk":5,"migraine_risk":3,"frizz_risk":1,"updated_at":"2026-07-02T17:06:03.991128+05:30"},{"city":"Aurangabad","state":"Maharashtra","latitude":19.8762,"longitude":75.3433,"temp":27.1,"humidity":71,"rain":0.1,"pressure":938.2,"uv_index":4.2,"wind_gusts":54.7,"aqi":27,"pm10":4.6,"pm2_5":3.7,"no2":4.6,"co":174.0,"o3":59.0,"so2":4.4,"mosquito_risk":10,"arthritis_risk":5,"migraine_risk":3,"frizz_risk":1,"updated_at":"2026-07-02T17:06:03.991134+05:30"},{"city":"Solapur","state":"Maharashtra","latitude":17.6599,"longitude":75.9064,"temp":28.1,"humidity":67,"rain":0.0,"pressure":952.5,"uv_index":6.05,"wind_gusts":54.4,"aqi":28,"pm10":7.4,"pm2_5":4.8,"no2":2.7,"co":118.0,"o3":61.0,"so2":1.7,"mosquito_risk":7,"arthritis_risk":5,"migraine_risk":7,"frizz_risk":1,"updated_at":"2026-07-02T17:06:03.991139+05:30"},{"city":"Kolhapur","state":"Maharashtra","latitude":16.705,"longitude":74.2433,"temp":23.4,"humidity":92,"rain":0.1,"pressure":944.6,"uv_index":1.85,"wind_gusts":50.8,"aqi":22,"pm10":5.1,"pm2_5":4.2,"no2":6.3,"co":163.0,"o3":46.0,"so2":1.8,"mosquito_risk":6,"arthritis_risk":5,"migraine_risk":3,"frizz_risk":1,"updated_at":"2026-07-02T17:06:03.991146+05:30"},{"city":"Goa","state":"Goa","latitude":15.2993,"longitude":74.124,"temp":25.0,"humidity":97,"rain":0.3,"pressure":996.5,"uv_index":4.85,"wind_gusts":28.8,"aqi":39,"pm10":16.0,"pm2_5":8.5,"no2":2.3,"co":172.0,"o3":54.0,"so2":0.7,"mosquito_risk":10,"arthritis_risk":5,"migraine_risk":3,"frizz_risk":1,"updated_at":"2026-07-02T17:06:03.991151+05:30"},{"city":"Jodhpur","state":"Rajasthan","latitude":26.2389,"longitude":73.0243,"temp":38.9,"humidity":34,"rain":0.0,"pressure":973.5,"uv_index":8.45,"wind_gusts":29.9,"aqi":118,"pm10":146.2,"pm2_5":38.4,"no2":0.2,"co":115.0,"o3":96.0,"so2":2.0,"mosquito_risk":0,"arthritis_risk":5,"migraine_risk":10,"frizz_risk":1,"updated_at":"2026-07-02T17:06:03.991157+05:30"},{"city":"Udaipur","state":"Rajasthan","latitude":24.5854,"longitude":73.7125,"temp":31.7,"humidity":53,"rain":0.1,"pressure":939.4,"uv_index":7.95,"wind_gusts":28.1,"aqi":63,"pm10":44.9,"pm2_5":22.5,"no2":1.6,"co":161.0,"o3":92.0,"so2":2.6,"mosquito_risk":3,"arthritis_risk":5,"migraine_risk":7,"frizz_risk":1,"updated_at":"2026-07-02T17:06:03.991164+05:30"},{"city":"Kota","state":"Rajasthan","latitude":25.2138,"longitude":75.8648,"temp":33.3,"humidity":58,"rain":0.0,"pressure":970.6,"uv_index":7.6,"wind_gusts":32.8,"aqi":74,"pm10":56.2,"pm2_5":27.0,"no2":2.1,"co":175.0,"o3":112.0,"so2":4.9,"mosquito_risk":0,"arthritis_risk":5,"migraine_risk":7,"frizz_risk":1,"updated_at":"2026-07-02T17:06:03.991170+05:30"},{"city":"Bikaner","state":"Rajasthan","latitude":28.0229,"longitude":73.3119,"temp":41.0,"humidity":30,"rain":0.0,"pressure":971.6,"uv_index":8.45,"wind_gusts":39.6,"aqi":146,"pm10":273.8,"pm2_5":67.5,"no2":0.4,"co":119.0,"o3":82.0,"so2":1.8,"mosquito_risk":0,"arthritis_risk":5,"migraine_risk":10,"frizz_risk":1,"updated_at":"2026-07-02T17:06:03.991176+05:30"},{"city":"Ajmer","state":"Rajasthan","latitude":26.4499,"longitude":74.6399,"temp":35.3,"humidity":43,"rain":0.0,"pressure":946.6,"uv_index":8.2,"wind_gusts":50.0,"aqi":91,"pm10":103.1,"pm2_5":37.5,"no2":1.3,"co":157.0,"o3":98.0,"so2":1.5,"mosquito_risk":0,"arthritis_risk":5,"migraine_risk":10,"frizz_risk":1,"updated_at":"2026-07-02T17:06:03.991182+05:30"},{"city":"Gwalior","state":"Madhya Pradesh","latitude":26.2183,"longitude":78.1828,"temp":31.7,"humidity":66,"rain":0.0,"pressure":974.6,"uv_index":8.15,"wind_gusts":39.6,"aqi":100,"pm10":97.1,"pm2_5":35.4,"no2":1.3,"co":198.0,"o3":138.0,"so2":2.5,"mosquito_risk":3,"arthritis_risk":5,"migraine_risk":7,"frizz_risk":1,"updated_at":"2026-07-02T17:06:03.991188+05:30"},{"city":"Indore","state":"Madhya Pradesh","latitude":22.7196,"longitude":75.8577,"temp":25.6,"humidity":91,"rain":0.3,"pressure":941.6,"uv_index":5.35,"wind_gusts":40.3,"aqi":63,"pm10":25.5,"pm2_5":16.9,"no2":4.6,"co":379.0,"o3":100.0,"so2":2.5,"mosquito_risk":10,"arthritis_risk":5,"migraine_risk":3,"frizz_risk":1,"updated_at":"2026-07-02T17:06:03.991193+05:30"},{"city":"Bhopal","state":"Madhya Pradesh","latitude":23.2599,"longitude":77.4126,"temp":25.7,"humidity":91,"rain":0.1,"pressure":946.7,"uv_index":6.2,"wind_gusts":37.4,"aqi":72,"pm10":34.7,"pm2_5":20.2,"no2":2.0,"co":259.0,"o3":115.0,"so2":2.9,"mosquito_risk":10,"arthritis_risk":5,"migraine_risk":7,"frizz_risk":1,"updated_at":"2026-07-02T17:06:03.991199+05:30"},{"city":"Jabalpur","state":"Madhya Pradesh","latitude":23.1815,"longitude":79.9864,"temp":28.7,"humidity":76,"rain":0.1,"pressure":953.4,"uv_index":4.3,"wind_gusts":28.4,"aqi":69,"pm10":33.4,"pm2_5":19.5,"no2":4.2,"co":189.0,"o3":91.0,"so2":2.8,"mosquito_risk":10,"arthritis_risk":5,"migraine_risk":3,"frizz_risk":1,"updated_at":"2026-07-02T17:06:03.991204+05:30"},{"city":"Ujjain","state":"Madhya Pradesh","latitude":23.1765,"longitude":75.7885,"temp":25.7,"humidity":91,"rain":0.3,"pressure":947.1,"uv_index":8.15,"wind_gusts":39.6,"aqi":58,"pm10":26.4,"pm2_5":17.2,"no2":2.0,"co":209.0,"o3":99.0,"so2":2.8,"mosquito_risk":10,"arthritis_risk":5,"migraine_risk":7,"frizz_risk":1,"updated_at":"2026-07-02T17:06:03.991210+05:30"},{"city":"Visakhapatnam","state":"Andhra Pradesh","latitude":17.6868,"longitude":83.2185,"temp":31.9,"humidity":62,"rain":0.0,"pressure":994.0,"uv_index":2.65,"wind_gusts":41.8,"aqi":56,"pm10":10.0,"pm2_5":9.7,"no2":15.3,"co":298.0,"o3":80.0,"so2":34.0,"mosquito_risk":3,"arthritis_risk":5,"migraine_risk":3,"frizz_risk":1,"updated_at":"2026-07-02T17:06:03.991215+05:30"},{"city":"Vijayawada","state":"Andhra Pradesh","latitude":16.5062,"longitude":80.648,"temp":33.5,"humidity":47,"rain":0.0,"pressure":995.7,"uv_index":6.5,"wind_gusts":59.8,"aqi":40,"pm10":15.9,"pm2_5":10.4,"no2":3.4,"co":137.0,"o3":84.0,"so2":4.4,"mosquito_risk":0,"arthritis_risk":5,"migraine_risk":7,"frizz_risk":1,"updated_at":"2026-07-02T17:06:03.991221+05:30"},{"city":"Guntur","state":"Andhra Pradesh","latitude":16.3067,"longitude":80.4365,"temp":34.7,"humidity":45,"rain":0.0,"pressure":996.8,"uv_index":6.2,"wind_gusts":55.1,"aqi":34,"pm10":15.3,"pm2_5":9.7,"no2":4.2,"co":166.0,"o3":77.0,"so2":4.0,"mosquito_risk":0,"arthritis_risk":5,"migraine_risk":7,"frizz_risk":1,"updated_at":"2026-07-02T17:06:03.991227+05:30"},{"city":"Nellore","state":"Andhra Pradesh","latitude":14.4426,"longitude":79.9865,"temp":35.9,"humidity":41,"rain":0.0,"pressure":999.6,"uv_index":8.4,"wind_gusts":54.0,"aqi":34,"pm10":11.8,"pm2_5":7.5,"no2":5.3,"co":114.0,"o3":79.0,"so2":3.3,"mosquito_risk":0,"arthritis_risk":5,"migraine_risk":10,"frizz_risk":1,"updated_at":"2026-07-02T17:06:03.991234+05:30"},{"city":"Kurnool","state":"Andhra Pradesh","latitude":15.8281,"longitude":78.0373,"temp":29.5,"humidity":65,"rain":0.0,"pressure":972.2,"uv_index":7.1,"wind_gusts":57.2,"aqi":32,"pm10":9.4,"pm2_5":5.2,"no2":2.1,"co":120.0,"o3":71.0,"so2":1.2,"mosquito_risk":7,"arthritis_risk":5,"migraine_risk":7,"frizz_risk":1,"updated_at":"2026-07-02T17:06:03.991241+05:30"},{"city":"Kakinada","state":"Andhra Pradesh","latitude":16.9891,"longitude":82.2475,"temp":31.8,"humidity":62,"rain":0.0,"pressure":999.3,"uv_index":7.85,"wind_gusts":64.4,"aqi":43,"pm10":10.4,"pm2_5":7.9,"no2":5.6,"co":195.0,"o3":76.0,"so2":4.8,"mosquito_risk":3,"arthritis_risk":5,"migraine_risk":7,"frizz_risk":1,"updated_at":"2026-07-02T17:06:03.991246+05:30"},{"city":"Tirupati","state":"Andhra Pradesh","latitude":13.6288,"longitude":79.4192,"temp":33.7,"humidity":46,"rain":0.0,"pressure":986.1,"uv_index":7.55,"wind_gusts":48.6,"aqi":31,"pm10":5.5,"pm2_5":4.1,"no2":4.4,"co":127.0,"o3":66.0,"so2":1.1,"mosquito_risk":0,"arthritis_risk":5,"migraine_risk":7,"frizz_risk":1,"updated_at":"2026-07-02T17:06:03.991252+05:30"},{"city":"Warangal","state":"Telangana","latitude":17.9689,"longitude":79.5941,"temp":29.2,"humidity":70,"rain":0.0,"pressure":972.5,"uv_index":3.55,"wind_gusts":52.2,"aqi":30,"pm10":10.4,"pm2_5":7.9,"no2":6.0,"co":184.0,"o3":51.0,"so2":2.4,"mosquito_risk":7,"arthritis_risk":5,"migraine_risk":3,"frizz_risk":1,"updated_at":"2026-07-02T17:06:03.991257+05:30"},{"city":"Nizamabad","state":"Telangana","latitude":18.6725,"longitude":78.0941,"temp":25.6,"humidity":94,"rain":0.0,"pressure":958.9,"uv_index":1.25,"wind_gusts":44.3,"aqi":28,"pm10":12.4,"pm2_5":10.3,"no2":7.4,"co":139.0,"o3":55.0,"so2":5.3,"mosquito_risk":7,"arthritis_risk":5,"migraine_risk":3,"frizz_risk":1,"updated_at":"2026-07-02T17:06:03.991263+05:30"},{"city":"Mysore","state":"Karnataka","latitude":12.2958,"longitude":76.6396,"temp":26.2,"humidity":67,"rain":0.0,"pressure":926.7,"uv_index":8.35,"wind_gusts":58.7,"aqi":26,"pm10":2.7,"pm2_5":2.1,"no2":4.0,"co":138.0,"o3":55.0,"so2":1.3,"mosquito_risk":7,"arthritis_risk":5,"migraine_risk":7,"frizz_risk":1,"updated_at":"2026-07-02T17:06:03.991268+05:30"},{"city":"Mangalore","state":"Karnataka","latitude":12.9141,"longitude":74.856,"temp":25.6,"humidity":93,"rain":0.2,"pressure":1006.2,"uv_index":5.1,"wind_gusts":43.2,"aqi":24,"pm10":13.1,"pm2_5":7.1,"no2":3.3,"co":136.0,"o3":53.0,"so2":1.3,"mosquito_risk":10,"arthritis_risk":5,"migraine_risk":0,"frizz_risk":1,"updated_at":"2026-07-02T17:06:03.991274+05:30"},{"city":"Hubli-Dharwad","state":"Karnataka","latitude":15.3647,"longitude":75.124,"temp":23.0,"humidity":94,"rain":0.1,"pressure":938.1,"uv_index":7.1,"wind_gusts":58.0,"aqi":24,"pm10":1.9,"pm2_5":1.6,"no2":5.7,"co":118.0,"o3":47.0,"so2":0.8,"mosquito_risk":6,"arthritis_risk":5,"migraine_risk":7,"frizz_risk":1,"updated_at":"2026-07-02T17:06:03.991279+05:30"},{"city":"Belgaum","state":"Karnataka","latitude":15.8497,"longitude":74.4977,"temp":22.3,"humidity":93,"rain":0.1,"pressure":922.9,"uv_index":6.95,"wind_gusts":54.4,"aqi":23,"pm10":2.3,"pm2_5":2.0,"no2":5.5,"co":139.0,"o3":46.0,"so2":1.2,"mosquito_risk":6,"arthritis_risk":5,"migraine_risk":7,"frizz_risk":1,"updated_at":"2026-07-02T17:06:07.318268+05:30"},{"city":"Coimbatore","state":"Tamil Nadu","latitude":11.0168,"longitude":76.9558,"temp":27.7,"humidity":68,"rain":0.0,"pressure":959.6,"uv_index":8.45,"wind_gusts":59.4,"aqi":25,"pm10":4.1,"pm2_5":2.8,"no2":3.1,"co":182.0,"o3":58.0,"so2":1.6,"mosquito_risk":7,"arthritis_risk":5,"migraine_risk":7,"frizz_risk":1,"updated_at":"2026-07-02T17:06:07.318299+05:30"},{"city":"Madurai","state":"Tamil Nadu","latitude":9.9252,"longitude":78.1198,"temp":35.2,"humidity":41,"rain":0.0,"pressure":989.1,"uv_index":8.65,"wind_gusts":56.9,"aqi":46,"pm10":11.0,"pm2_5":6.3,"no2":2.8,"co":157.0,"o3":85.0,"so2":1.7,"mosquito_risk":0,"arthritis_risk":5,"migraine_risk":10,"frizz_risk":1,"updated_at":"2026-07-02T17:06:07.318308+05:30"},{"city":"Trichy","state":"Tamil Nadu","latitude":10.7905,"longitude":78.7047,"temp":34.4,"humidity":43,"rain":0.0,"pressure":995.9,"uv_index":8.8,"wind_gusts":65.5,"aqi":32,"pm10":6.6,"pm2_5":4.3,"no2":2.2,"co":114.0,"o3":73.0,"so2":1.5,"mosquito_risk":0,"arthritis_risk":5,"migraine_risk":7,"frizz_risk":1,"updated_at":"2026-07-02T17:06:07.318315+05:30"},{"city":"Salem","state":"Tamil Nadu","latitude":11.6643,"longitude":78.146,"temp":33.5,"humidity":44,"rain":0.0,"pressure":973.8,"uv_index":8.65,"wind_gusts":39.6,"aqi":39,"pm10":6.3,"pm2_5":5.2,"no2":4.0,"co":248.0,"o3":84.0,"so2":5.2,"mosquito_risk":0,"arthritis_risk":5,"migraine_risk":7,"frizz_risk":1,"updated_at":"2026-07-02T17:06:07.318322+05:30"},{"city":"Tirunelveli","state":"Tamil Nadu","latitude":8.7139,"longitude":77.7567,"temp":33.9,"humidity":45,"rain":0.0,"pressure":1000.3,"uv_index":8.65,"wind_gusts":50.4,"aqi":30,"pm10":8.1,"pm2_5":5.5,"no2":2.2,"co":111.0,"o3":66.0,"so2":1.3,"mosquito_risk":0,"arthritis_risk":5,"migraine_risk":4,"frizz_risk":1,"updated_at":"2026-07-02T17:06:07.318328+05:30"},{"city":"Vellore","state":"Tamil Nadu","latitude":12.9165,"longitude":79.1325,"temp":34.0,"humidity":44,"rain":0.0,"pressure":979.5,"uv_index":7.65,"wind_gusts":46.1,"aqi":31,"pm10":4.1,"pm2_5":3.7,"no2":4.9,"co":165.0,"o3":71.0,"so2":2.1,"mosquito_risk":0,"arthritis_risk":5,"migraine_risk":7,"frizz_risk":1,"updated_at":"2026-07-02T17:06:07.318334+05:30"},{"city":"Erode","state":"Tamil Nadu","latitude":11.341,"longitude":77.7172,"temp":32.6,"humidity":49,"rain":0.0,"pressure":985.5,"uv_index":8.65,"wind_gusts":52.9,"aqi":31,"pm10":6.9,"pm2_5":5.1,"no2":3.1,"co":178.0,"o3":80.0,"so2":1.8,"mosquito_risk":0,"arthritis_risk":5,"migraine_risk":7,"frizz_risk":1,"updated_at":"2026-07-02T17:06:07.318340+05:30"},{"city":"Kochi","state":"Kerala","latitude":9.9312,"longitude":76.2673,"temp":27.7,"humidity":78,"rain":0.0,"pressure":1008.4,"uv_index":8.5,"wind_gusts":42.1,"aqi":52,"pm10":9.8,"pm2_5":6.6,"no2":2.7,"co":124.0,"o3":60.0,"so2":2.3,"mosquito_risk":7,"arthritis_risk":0,"migraine_risk":4,"frizz_risk":1,"updated_at":"2026-07-02T17:06:07.318347+05:30"},{"city":"Thiruvananthapuram","state":"Kerala","latitude":8.5241,"longitude":76.9366,"temp":27.6,"humidity":80,"rain":0.0,"pressure":1007.5,"uv_index":8.4,"wind_gusts":46.4,"aqi":47,"pm10":15.4,"pm2_5":8.2,"no2":1.6,"co":105.0,"o3":53.0,"so2":0.9,"mosquito_risk":7,"arthritis_risk":5,"migraine_risk":4,"frizz_risk":1,"updated_at":"2026-07-02T17:06:07.318352+05:30"},{"city":"Kozhikode","state":"Kerala","latitude":11.2588,"longitude":75.7804,"temp":26.3,"humidity":85,"rain":0.1,"pressure":1007.6,"uv_index":8.35,"wind_gusts":36.0,"aqi":25,"pm10":7.7,"pm2_5":4.3,"no2":0.8,"co":126.0,"o3":57.0,"so2":0.6,"mosquito_risk":10,"arthritis_risk":5,"migraine_risk":4,"frizz_risk":1,"updated_at":"2026-07-02T17:06:07.318358+05:30"},{"city":"Thrissur","state":"Kerala","latitude":10.5276,"longitude":76.2144,"temp":27.0,"humidity":82,"rain":0.0,"pressure":1006.8,"uv_index":8.55,"wind_gusts":39.2,"aqi":48,"pm10":6.9,"pm2_5":4.9,"no2":3.0,"co":150.0,"o3":53.0,"so2":1.5,"mosquito_risk":7,"arthritis_risk":5,"migraine_risk":4,"frizz_risk":1,"updated_at":"2026-07-02T17:06:07.318364+05:30"},{"city":"Kannur","state":"Kerala","latitude":11.8745,"longitude":75.3704,"temp":25.9,"humidity":94,"rain":0.1,"pressure":1006.9,"uv_index":8.55,"wind_gusts":42.1,"aqi":22,"pm10":9.1,"pm2_5":5.0,"no2":4.5,"co":119.0,"o3":46.0,"so2":0.9,"mosquito_risk":10,"arthritis_risk":5,"migraine_risk":4,"frizz_risk":1,"updated_at":"2026-07-02T17:06:07.318370+05:30"},{"city":"Patna","state":"Bihar","latitude":25.5941,"longitude":85.1376,"temp":30.6,"humidity":81,"rain":0.0,"pressure":991.3,"uv_index":6.25,"wind_gusts":32.0,"aqi":128,"pm10":29.0,"pm2_5":28.6,"no2":7.6,"co":314.0,"o3":143.0,"so2":10.3,"mosquito_risk":3,"arthritis_risk":5,"migraine_risk":7,"frizz_risk":1,"updated_at":"2026-07-02T17:06:07.318376+05:30"},{"city":"Gaya","state":"Bihar","latitude":24.7914,"longitude":85.0002,"temp":28.9,"humidity":88,"rain":0.0,"pressure":984.5,"uv_index":6.45,"wind_gusts":32.8,"aqi":102,"pm10":22.8,"pm2_5":22.4,"no2":4.7,"co":315.0,"o3":124.0,"so2":5.6,"mosquito_risk":7,"arthritis_risk":5,"migraine_risk":7,"frizz_risk":1,"updated_at":"2026-07-02T17:06:07.318382+05:30"},{"city":"Muzaffarpur","state":"Bihar","latitude":26.1209,"longitude":85.3647,"temp":30.6,"humidity":79,"rain":0.0,"pressure":991.7,"uv_index":6.55,"wind_gusts":35.3,"aqi":122,"pm10":28.0,"pm2_5":27.7,"no2":8.3,"co":309.0,"o3":132.0,"so2":9.0,"mosquito_risk":3,"arthritis_risk":5,"migraine_risk":7,"frizz_risk":1,"updated_at":"2026-07-02T17:06:07.318387+05:30"},{"city":"Bhagalpur","state":"Bihar","latitude":25.2425,"longitude":87.0117,"temp":30.0,"humidity":84,"rain":0.1,"pressure":992.2,"uv_index":6.0,"wind_gusts":35.3,"aqi":93,"pm10":19.6,"pm2_5":19.1,"no2":6.8,"co":248.0,"o3":127.0,"so2":11.9,"mosquito_risk":10,"arthritis_risk":5,"migraine_risk":3,"frizz_risk":1,"updated_at":"2026-07-02T17:06:07.318392+05:30"},{"city":"Ranchi","state":"Jharkhand","latitude":23.3441,"longitude":85.3096,"temp":25.7,"humidity":91,"rain":0.1,"pressure":929.1,"uv_index":6.8,"wind_gusts":32.0,"aqi":90,"pm10":20.7,"pm2_5":20.5,"no2":7.3,"co":903.0,"o3":109.0,"so2":13.8,"mosquito_risk":10,"arthritis_risk":5,"migraine_risk":7,"frizz_risk":1,"updated_at":"2026-07-02T17:06:07.318398+05:30"},{"city":"Jamshedpur","state":"Jharkhand","latitude":22.8046,"longitude":86.2029,"temp":28.0,"humidity":89,"rain":0.0,"pressure":981.0,"uv_index":7.1,"wind_gusts":31.3,"aqi":103,"pm10":13.7,"pm2_5":13.4,"no2":6.0,"co":309.0,"o3":96.0,"so2":6.0,"mosquito_risk":7,"arthritis_risk":5,"migraine_risk":7,"frizz_risk":1,"updated_at":"2026-07-02T17:06:07.318403+05:30"},{"city":"Dhanbad","state":"Jharkhand","latitude":23.7957,"longitude":86.4304,"temp":26.3,"humidity":97,"rain":0.4,"pressure":971.2,"uv_index":7.8,"wind_gusts":42.1,"aqi":131,"pm10":27.6,"pm2_5":27.4,"no2":18.2,"co":318.0,"o3":130.0,"so2":59.3,"mosquito_risk":10,"arthritis_risk":5,"migraine_risk":7,"frizz_risk":1,"updated_at":"2026-07-02T17:06:07.318408+05:30"},{"city":"Bokaro","state":"Jharkhand","latitude":23.6693,"longitude":86.1511,"temp":28.0,"humidity":86,"rain":0.2,"pressure":974.6,"uv_index":7.0,"wind_gusts":35.3,"aqi":134,"pm10":28.9,"pm2_5":28.7,"no2":21.3,"co":432.0,"o3":126.0,"so2":71.4,"mosquito_risk":10,"arthritis_risk":5,"migraine_risk":7,"frizz_risk":1,"updated_at":"2026-07-02T17:06:07.318414+05:30"},{"city":"Bhubaneswar","state":"Odisha","latitude":20.2961,"longitude":85.8245,"temp":27.9,"humidity":91,"rain":0.2,"pressure":992.0,"uv_index":8.55,"wind_gusts":24.1,"aqi":89,"pm10":15.9,"pm2_5":15.7,"no2":8.2,"co":298.0,"o3":129.0,"so2":12.2,"mosquito_risk":10,"arthritis_risk":5,"migraine_risk":7,"frizz_risk":1,"updated_at":"2026-07-02T17:06:07.318419+05:30"},{"city":"Cuttack","state":"Odisha","latitude":20.4625,"longitude":85.8828,"temp":28.8,"humidity":88,"rain":0.0,"pressure":993.7,"uv_index":7.7,"wind_gusts":27.4,"aqi":89,"pm10":15.9,"pm2_5":15.7,"no2":8.2,"co":270.0,"o3":129.0,"so2":12.2,"mosquito_risk":7,"arthritis_risk":5,"migraine_risk":7,"frizz_risk":1,"updated_at":"2026-07-02T17:06:07.318423+05:30"},{"city":"Rourkela","state":"Odisha","latitude":22.2604,"longitude":84.8536,"temp":28.6,"humidity":85,"rain":0.1,"pressure":974.9,"uv_index":6.95,"wind_gusts":36.0,"aqi":118,"pm10":34.2,"pm2_5":33.6,"no2":8.4,"co":657.0,"o3":131.0,"so2":16.7,"mosquito_risk":10,"arthritis_risk":5,"migraine_risk":7,"frizz_risk":1,"updated_at":"2026-07-02T17:06:07.318428+05:30"},{"city":"Raipur","state":"Chhattisgarh","latitude":21.2514,"longitude":81.6296,"temp":27.1,"humidity":89,"rain":0.2,"pressure":966.0,"uv_index":4.55,"wind_gusts":39.2,"aqi":86,"pm10":23.5,"pm2_5":21.1,"no2":23.4,"co":190.0,"o3":84.0,"so2":41.5,"mosquito_risk":10,"arthritis_risk":5,"migraine_risk":3,"frizz_risk":1,"updated_at":"2026-07-02T17:06:07.318434+05:30"},{"city":"Bhilai","state":"Chhattisgarh","latitude":21.1938,"longitude":81.3509,"temp":27.8,"humidity":89,"rain":0.2,"pressure":966.5,"uv_index":4.7,"wind_gusts":34.2,"aqi":76,"pm10":22.2,"pm2_5":20.0,"no2":18.9,"co":916.0,"o3":81.0,"so2":34.8,"mosquito_risk":10,"arthritis_risk":5,"migraine_risk":3,"frizz_risk":1,"updated_at":"2026-07-02T17:06:07.318439+05:30"},{"city":"Guwahati","state":"Assam","latitude":26.1158,"longitude":91.7086,"temp":29.9,"humidity":85,"rain":0.0,"pressure":993.3,"uv_index":7.8,"wind_gusts":22.7,"aqi":46,"pm10":7.3,"pm2_5":7.1,"no2":2.5,"co":212.0,"o3":97.0,"so2":1.1,"mosquito_risk":7,"arthritis_risk":5,"migraine_risk":7,"frizz_risk":1,"updated_at":"2026-07-02T17:06:07.318443+05:30"},{"city":"Agartala","state":"Tripura","latitude":23.8315,"longitude":91.2868,"temp":29.9,"humidity":81,"rain":0.1,"pressure":997.8,"uv_index":7.9,"wind_gusts":28.4,"aqi":57,"pm10":9.5,"pm2_5":9.1,"no2":7.3,"co":200.0,"o3":96.0,"so2":1.9,"mosquito_risk":10,"arthritis_risk":5,"migraine_risk":7,"frizz_risk":1,"updated_at":"2026-07-02T17:06:07.318448+05:30"},{"city":"Shillong","state":"Meghalaya","latitude":25.5788,"longitude":91.8933,"temp":23.3,"humidity":85,"rain":0.0,"pressure":853.3,"uv_index":8.55,"wind_gusts":25.2,"aqi":41,"pm10":6.7,"pm2_5":6.5,"no2":3.7,"co":196.0,"o3":82.0,"so2":1.3,"mosquito_risk":3,"arthritis_risk":5,"migraine_risk":7,"frizz_risk":1,"updated_at":"2026-07-02T17:06:07.318452+05:30"},{"city":"Imphal","state":"Manipur","latitude":24.817,"longitude":93.9368,"temp":27.2,"humidity":77,"rain":0.0,"pressure":917.4,"uv_index":8.85,"wind_gusts":25.9,"aqi":50,"pm10":4.7,"pm2_5":4.6,"no2":2.9,"co":250.0,"o3":72.0,"so2":1.0,"mosquito_risk":7,"arthritis_risk":5,"migraine_risk":7,"frizz_risk":1,"updated_at":"2026-07-02T17:06:07.318457+05:30"},{"city":"Aizawl","state":"Mizoram","latitude":23.7271,"longitude":92.7176,"temp":22.9,"humidity":95,"rain":0.1,"pressure":886.5,"uv_index":8.9,"wind_gusts":22.3,"aqi":42,"pm10":5.8,"pm2_5":5.6,"no2":4.6,"co":157.0,"o3":58.0,"so2":0.6,"mosquito_risk":6,"arthritis_risk":5,"migraine_risk":7,"frizz_risk":1,"updated_at":"2026-07-02T17:06:07.318462+05:30"},{"city":"Kohima","state":"Nagaland","latitude":25.6701,"longitude":94.1077,"temp":23.1,"humidity":95,"rain":0.0,"pressure":851.2,"uv_index":8.1,"wind_gusts":25.9,"aqi":36,"pm10":5.0,"pm2_5":5.0,"no2":4.0,"co":165.0,"o3":67.0,"so2":0.6,"mosquito_risk":3,"arthritis_risk":5,"migraine_risk":7,"frizz_risk":1,"updated_at":"2026-07-02T17:06:07.318467+05:30"},{"city":"Gangtok","state":"Sikkim","latitude":27.3314,"longitude":88.6138,"temp":21.7,"humidity":90,"rain":0.1,"pressure":834.3,"uv_index":8.9,"wind_gusts":30.6,"aqi":51,"pm10":3.8,"pm2_5":3.7,"no2":4.2,"co":234.0,"o3":103.0,"so2":0.7,"mosquito_risk":6,"arthritis_risk":5,"migraine_risk":7,"frizz_risk":1,"updated_at":"2026-07-02T17:06:07.318472+05:30"},{"city":"Siliguri","state":"West Bengal","latitude":26.7271,"longitude":88.3953,"temp":31.3,"humidity":74,"rain":0.0,"pressure":984.7,"uv_index":8.3,"wind_gusts":27.7,"aqi":83,"pm10":12.1,"pm2_5":12.0,"no2":4.3,"co":371.0,"o3":116.0,"so2":1.9,"mosquito_risk":3,"arthritis_risk":5,"migraine_risk":7,"frizz_risk":1,"updated_at":"2026-07-02T17:06:10.684382+05:30"},{"city":"Durgapur","state":"West Bengal","latitude":23.5204,"longitude":87.3119,"temp":29.7,"humidity":82,"rain":0.1,"pressure":985.4,"uv_index":7.3,"wind_gusts":38.2,"aqi":125,"pm10":22.7,"pm2_5":22.2,"no2":13.9,"co":282.0,"o3":132.0,"so2":31.7,"mosquito_risk":10,"arthritis_risk":5,"migraine_risk":7,"frizz_risk":1,"updated_at":"2026-07-02T17:06:10.684415+05:30"},{"city":"Asansol","state":"West Bengal","latitude":23.6739,"longitude":86.9524,"temp":29.1,"humidity":85,"rain":0.2,"pressure":984.3,"uv_index":7.05,"wind_gusts":38.5,"aqi":114,"pm10":24.9,"pm2_5":24.5,"no2":13.6,"co":327.0,"o3":139.0,"so2":35.1,"mosquito_risk":10,"arthritis_risk":5,"migraine_risk":7,"frizz_risk":1,"updated_at":"2026-07-02T17:06:10.684424+05:30"},{"city":"Pondicherry","state":"Puducherry","latitude":11.9139,"longitude":79.8145,"temp":34.0,"humidity":48,"rain":0.0,"pressure":1003.6,"uv_index":8.45,"wind_gusts":29.9,"aqi":55,"pm10":14.3,"pm2_5":13.3,"no2":8.3,"co":165.0,"o3":122.0,"so2":8.0,"mosquito_risk":0,"arthritis_risk":5,"migraine_risk":4,"frizz_risk":1,"updated_at":"2026-07-02T17:06:10.684431+05:30"},{"city":"Port Blair","state":"Andaman and Nicobar Islands","latitude":11.6234,"longitude":92.7265,"temp":26.4,"humidity":92,"rain":0.0,"pressure":1003.9,"uv_index":3.4,"wind_gusts":47.9,"aqi":39,"pm10":18.0,"pm2_5":9.6,"no2":0.6,"co":105.0,"o3":59.0,"so2":0.5,"mosquito_risk":7,"arthritis_risk":5,"migraine_risk":0,"frizz_risk":1,"updated_at":"2026-07-02T17:06:10.684439+05:30"},{"city":"Haridwar","state":"Uttarakhand","latitude":29.9457,"longitude":78.1642,"temp":31.1,"humidity":69,"rain":0.0,"pressure":966.4,"uv_index":5.3,"wind_gusts":29.5,"aqi":90,"pm10":27.6,"pm2_5":22.8,"no2":1.6,"co":308.0,"o3":139.0,"so2":4.0,"mosquito_risk":3,"arthritis_risk":5,"migraine_risk":3,"frizz_risk":1,"updated_at":"2026-07-02T17:06:10.684446+05:30"},{"city":"Rishikesh","state":"Uttarakhand","latitude":30.0869,"longitude":78.2676,"temp":29.7,"humidity":75,"rain":0.0,"pressure":959.4,"uv_index":4.95,"wind_gusts":27.7,"aqi":56,"pm10":18.8,"pm2_5":15.8,"no2":1.0,"co":249.0,"o3":131.0,"so2":2.3,"mosquito_risk":7,"arthritis_risk":5,"migraine_risk":3,"frizz_risk":1,"updated_at":"2026-07-02T17:06:10.684451+05:30"},{"city":"Nainital","state":"Uttarakhand","latitude":29.3919,"longitude":79.4542,"temp":20.6,"humidity":82,"rain":0.0,"pressure":802.6,"uv_index":7.05,"wind_gusts":20.5,"aqi":93,"pm10":30.7,"pm2_5":27.7,"no2":0.9,"co":280.0,"o3":136.0,"so2":2.1,"mosquito_risk":3,"arthritis_risk":5,"migraine_risk":7,"frizz_risk":1,"updated_at":"2026-07-02T17:06:10.684457+05:30"},{"city":"Mussoorie","state":"Uttarakhand","latitude":30.4599,"longitude":78.0664,"temp":20.0,"humidity":88,"rain":0.0,"pressure":800.1,"uv_index":4.45,"wind_gusts":27.0,"aqi":91,"pm10":13.0,"pm2_5":10.3,"no2":1.3,"co":240.0,"o3":141.0,"so2":2.8,"mosquito_risk":3,"arthritis_risk":5,"migraine_risk":3,"frizz_risk":1,"updated_at":"2026-07-02T17:06:10.684463+05:30"},{"city":"Dharamshala","state":"Himachal Pradesh","latitude":32.219,"longitude":76.3234,"temp":25.3,"humidity":71,"rain":0.0,"pressure":865.2,"uv_index":7.25,"wind_gusts":31.3,"aqi":64,"pm10":20.9,"pm2_5":12.0,"no2":1.8,"co":192.0,"o3":124.0,"so2":1.0,"mosquito_risk":7,"arthritis_risk":5,"migraine_risk":7,"frizz_risk":1,"updated_at":"2026-07-02T17:06:10.684470+05:30"},{"city":"Dalhousie","state":"Himachal Pradesh","latitude":32.5387,"longitude":75.971,"temp":21.5,"humidity":79,"rain":0.0,"pressure":802.5,"uv_index":3.4,"wind_gusts":30.2,"aqi":109,"pm10":75.9,"pm2_5":32.7,"no2":1.4,"co":198.0,"o3":169.0,"so2":3.6,"mosquito_risk":3,"arthritis_risk":5,"migraine_risk":3,"frizz_risk":1,"updated_at":"2026-07-02T17:06:10.684476+05:30"},{"city":"Patiala","state":"Punjab","latitude":30.3398,"longitude":76.3869,"temp":31.4,"humidity":71,"rain":0.0,"pressure":969.8,"uv_index":7.2,"wind_gusts":26.3,"aqi":151,"pm10":59.5,"pm2_5":32.0,"no2":1.9,"co":274.0,"o3":168.0,"so2":8.8,"mosquito_risk":3,"arthritis_risk":5,"migraine_risk":7,"frizz_risk":1,"updated_at":"2026-07-02T17:06:10.684482+05:30"},{"city":"Bhatinda","state":"Punjab","latitude":30.211,"longitude":74.9455,"temp":36.0,"humidity":47,"rain":0.0,"pressure":974.4,"uv_index":7.65,"wind_gusts":46.4,"aqi":512,"pm10":409.8,"pm2_5":90.1,"no2":2.9,"co":199.0,"o3":164.0,"so2":12.7,"mosquito_risk":0,"arthritis_risk":5,"migraine_risk":10,"frizz_risk":1,"updated_at":"2026-07-02T17:06:10.684487+05:30"},{"city":"Rohtak","state":"Haryana","latitude":28.8955,"longitude":76.6066,"temp":33.6,"humidity":59,"rain":0.0,"pressure":972.9,"uv_index":7.55,"wind_gusts":31.3,"aqi":178,"pm10":296.2,"pm2_5":67.3,"no2":4.3,"co":257.0,"o3":194.0,"so2":13.2,"mosquito_risk":0,"arthritis_risk":5,"migraine_risk":7,"frizz_risk":1,"updated_at":"2026-07-02T17:06:10.684493+05:30"},{"city":"Panipat","state":"Haryana","latitude":29.3909,"longitude":76.9635,"temp":32.6,"humidity":61,"rain":0.0,"pressure":971.8,"uv_index":6.75,"wind_gusts":22.3,"aqi":155,"pm10":210.9,"pm2_5":42.0,"no2":5.3,"co":307.0,"o3":172.0,"so2":15.4,"mosquito_risk":3,"arthritis_risk":5,"migraine_risk":7,"frizz_risk":1,"updated_at":"2026-07-02T17:06:10.684498+05:30"},{"city":"Mathura","state":"Uttar Pradesh","latitude":27.4924,"longitude":77.6737,"temp":34.0,"humidity":53,"rain":0.0,"pressure":977.7,"uv_index":7.85,"wind_gusts":28.1,"aqi":115,"pm10":144.8,"pm2_5":51.7,"no2":2.0,"co":304.0,"o3":173.0,"so2":7.1,"mosquito_risk":0,"arthritis_risk":5,"migraine_risk":7,"frizz_risk":1,"updated_at":"2026-07-02T17:06:10.684504+05:30"},{"city":"Vrindavan","state":"Uttar Pradesh","latitude":27.5823,"longitude":77.7027,"temp":34.2,"humidity":53,"rain":0.0,"pressure":978.1,"uv_index":7.8,"wind_gusts":26.3,"aqi":115,"pm10":144.8,"pm2_5":51.7,"no2":2.0,"co":296.0,"o3":173.0,"so2":7.1,"mosquito_risk":0,"arthritis_risk":5,"migraine_risk":7,"frizz_risk":1,"updated_at":"2026-07-02T17:06:10.684509+05:30"},{"city":"Ayodhya","state":"Uttar Pradesh","latitude":26.7922,"longitude":82.1998,"temp":30.6,"humidity":81,"rain":0.1,"pressure":986.6,"uv_index":6.85,"wind_gusts":25.9,"aqi":125,"pm10":29.7,"pm2_5":29.5,"no2":4.2,"co":354.0,"o3":138.0,"so2":3.3,"mosquito_risk":6,"arthritis_risk":5,"migraine_risk":7,"frizz_risk":1,"updated_at":"2026-07-02T17:06:10.684515+05:30"},{"city":"Ratlam","state":"Madhya Pradesh","latitude":23.3315,"longitude":75.0367,"temp":25.8,"humidity":92,"rain":0.7,"pressure":948.2,"uv_index":6.7,"wind_gusts":32.0,"aqi":55,"pm10":24.9,"pm2_5":16.8,"no2":1.5,"co":156.0,"o3":99.0,"so2":2.7,"mosquito_risk":10,"arthritis_risk":5,"migraine_risk":7,"frizz_risk":1,"updated_at":"2026-07-02T17:06:10.684520+05:30"},{"city":"Sagar","state":"Madhya Pradesh","latitude":23.8388,"longitude":78.7378,"temp":26.4,"humidity":91,"rain":0.1,"pressure":942.6,"uv_index":1.45,"wind_gusts":34.6,"aqi":72,"pm10":41.4,"pm2_5":22.1,"no2":1.9,"co":175.0,"o3":110.0,"so2":4.8,"mosquito_risk":10,"arthritis_risk":5,"migraine_risk":3,"frizz_risk":1,"updated_at":"2026-07-02T17:06:10.684526+05:30"},{"city":"Satna","state":"Madhya Pradesh","latitude":24.6005,"longitude":80.8322,"temp":28.5,"humidity":84,"rain":0.1,"pressure":962.8,"uv_index":8.2,"wind_gusts":33.5,"aqi":83,"pm10":41.7,"pm2_5":20.2,"no2":1.5,"co":176.0,"o3":129.0,"so2":2.5,"mosquito_risk":10,"arthritis_risk":5,"migraine_risk":7,"frizz_risk":1,"updated_at":"2026-07-02T17:06:10.684531+05:30"},{"city":"Akola","state":"Maharashtra","latitude":20.7002,"longitude":77.0082,"temp":28.2,"humidity":81,"rain":0.2,"pressure":968.5,"uv_index":5.35,"wind_gusts":37.8,"aqi":31,"pm10":7.5,"pm2_5":6.4,"no2":4.1,"co":160.0,"o3":76.0,"so2":5.1,"mosquito_risk":10,"arthritis_risk":5,"migraine_risk":3,"frizz_risk":1,"updated_at":"2026-07-02T17:06:10.684537+05:30"},{"city":"Amravati","state":"Maharashtra","latitude":20.9374,"longitude":77.7796,"temp":27.5,"humidity":81,"rain":0.0,"pressure":960.7,"uv_index":3.7,"wind_gusts":40.0,"aqi":36,"pm10":6.6,"pm2_5":5.8,"no2":4.9,"co":153.0,"o3":76.0,"so2":6.2,"mosquito_risk":7,"arthritis_risk":5,"migraine_risk":3,"frizz_risk":1,"updated_at":"2026-07-02T17:06:10.684543+05:30"},{"city":"Latur","state":"Maharashtra","latitude":18.4088,"longitude":76.5604,"temp":27.5,"humidity":66,"rain":0.0,"pressure":934.8,"uv_index":1.15,"wind_gusts":51.1,"aqi":26,"pm10":6.9,"pm2_5":4.8,"no2":3.3,"co":134.0,"o3":58.0,"so2":1.8,"mosquito_risk":7,"arthritis_risk":5,"migraine_risk":3,"frizz_risk":1,"updated_at":"2026-07-02T17:06:10.684549+05:30"},{"city":"Nanded","state":"Maharashtra","latitude":19.1383,"longitude":77.3091,"temp":27.8,"humidity":84,"rain":0.1,"pressure":962.6,"uv_index":2.0,"wind_gusts":45.0,"aqi":26,"pm10":10.5,"pm2_5":7.4,"no2":5.7,"co":155.0,"o3":59.0,"so2":2.8,"mosquito_risk":10,"arthritis_risk":5,"migraine_risk":3,"frizz_risk":1,"updated_at":"2026-07-02T17:06:10.684554+05:30"},{"city":"Gulbarga","state":"Karnataka","latitude":17.3297,"longitude":76.8343,"temp":29.8,"humidity":56,"rain":0.0,"pressure":953.7,"uv_index":4.7,"wind_gusts":55.8,"aqi":28,"pm10":7.3,"pm2_5":4.9,"no2":5.2,"co":141.0,"o3":63.0,"so2":2.3,"mosquito_risk":4,"arthritis_risk":5,"migraine_risk":3,"frizz_risk":1,"updated_at":"2026-07-02T17:06:10.684559+05:30"},{"city":"Bidar","state":"Karnataka","latitude":17.9104,"longitude":77.5199,"temp":27.8,"humidity":65,"rain":0.0,"pressure":930.5,"uv_index":1.85,"wind_gusts":50.0,"aqi":24,"pm10":10.1,"pm2_5":7.1,"no2":6.7,"co":152.0,"o3":59.0,"so2":1.9,"mosquito_risk":7,"arthritis_risk":5,"migraine_risk":3,"frizz_risk":1,"updated_at":"2026-07-02T17:06:10.684565+05:30"},{"city":"Hospet","state":"Karnataka","latitude":15.2689,"longitude":76.3909,"temp":27.6,"humidity":66,"rain":0.0,"pressure":952.6,"uv_index":5.45,"wind_gusts":59.8,"aqi":24,"pm10":3.6,"pm2_5":2.3,"no2":3.6,"co":110.0,"o3":54.0,"so2":1.4,"mosquito_risk":7,"arthritis_risk":5,"migraine_risk":3,"frizz_risk":1,"updated_at":"2026-07-02T17:06:10.684570+05:30"},{"city":"Tirupur","state":"Tamil Nadu","latitude":11.1085,"longitude":77.3411,"temp":30.0,"humidity":60,"rain":0.0,"pressure":972.5,"uv_index":8.65,"wind_gusts":62.3,"aqi":34,"pm10":6.3,"pm2_5":4.6,"no2":3.2,"co":157.0,"o3":73.0,"so2":2.1,"mosquito_risk":4,"arthritis_risk":5,"migraine_risk":7,"frizz_risk":1,"updated_at":"2026-07-02T17:06:10.684575+05:30"},{"city":"Alappuzha","state":"Kerala","latitude":9.4981,"longitude":76.3388,"temp":28.3,"humidity":77,"rain":0.0,"pressure":1008.4,"uv_index":8.4,"wind_gusts":43.9,"aqi":49,"pm10":12.3,"pm2_5":7.6,"no2":3.3,"co":90.0,"o3":59.0,"so2":1.7,"mosquito_risk":7,"arthritis_risk":0,"migraine_risk":4,"frizz_risk":1,"updated_at":"2026-07-02T17:06:10.684581+05:30"},{"city":"Munnar","state":"Kerala","latitude":10.0889,"longitude":77.0595,"temp":17.8,"humidity":98,"rain":0.2,"pressure":855.9,"uv_index":7.85,"wind_gusts":41.8,"aqi":27,"pm10":5.3,"pm2_5":3.7,"no2":2.6,"co":103.0,"o3":59.0,"so2":1.2,"mosquito_risk":6,"arthritis_risk":10,"migraine_risk":7,"frizz_risk":1,"updated_at":"2026-07-02T17:06:10.684587+05:30"},{"city":"Silchar","state":"Assam","latitude":24.8333,"longitude":92.7789,"temp":32.0,"humidity":74,"rain":0.0,"pressure":996.4,"uv_index":8.7,"wind_gusts":26.3,"aqi":73,"pm10":11.4,"pm2_5":11.1,"no2":4.1,"co":221.0,"o3":111.0,"so2":4.2,"mosquito_risk":3,"arthritis_risk":5,"migraine_risk":7,"frizz_risk":1,"updated_at":"2026-07-02T17:06:10.684592+05:30"},{"city":"Dibrugarh","state":"Assam","latitude":27.4728,"longitude":94.912,"temp":33.3,"humidity":69,"rain":0.0,"pressure":986.6,"uv_index":8.85,"wind_gusts":15.1,"aqi":53,"pm10":6.2,"pm2_5":6.1,"no2":3.8,"co":229.0,"o3":98.0,"so2":1.3,"mosquito_risk":3,"arthritis_risk":5,"migraine_risk":7,"frizz_risk":1,"updated_at":"2026-07-02T17:06:10.684598+05:30"}]