[{"city":"Delhi","state":"Delhi","latitude":28.6139,"longitude":77.209,"temp":15.4,"humidity":100,"rain":0.0,"pressure":987.8,"uv_index":6.3,"wind_gusts":28.1,"aqi":151,"pm10":118.0,"pm2_5":106.6,"mosquito_risk":3,"arthritis_risk":10,"migraine_risk":7,"frizz_risk":0,"updated_at":"2026-03-21T04:02:30.710305+05:30"},{"city":"Mumbai","state":"Maharashtra","latitude":19.076,"longitude":72.8777,"temp":26.3,"humidity":76,"rain":0.0,"pressure":1009.4,"uv_index":7.85,"wind_gusts":28.4,"aqi":81,"pm10":48.0,"pm2_5":21.1,"mosquito_risk":7,"arthritis_risk":0,"migraine_risk":4,"frizz_risk":1,"updated_at":"2026-03-21T04:02:30.710343+05:30"},{"city":"Bangalore","state":"Karnataka","latitude":12.9716,"longitude":77.5946,"temp":22.0,"humidity":81,"rain":0.0,"pressure":910.5,"uv_index":9.4,"wind_gusts":22.0,"aqi":82,"pm10":37.6,"pm2_5":33.2,"mosquito_risk":3,"arthritis_risk":5,"migraine_risk":7,"frizz_risk":1,"updated_at":"2026-03-21T04:02:30.710358+05:30"},{"city":"Hyderabad","state":"Telangana","latitude":17.385,"longitude":78.4867,"temp":23.2,"humidity":78,"rain":0.0,"pressure":952.7,"uv_index":8.75,"wind_gusts":21.6,"aqi":88,"pm10":27.8,"pm2_5":22.7,"mosquito_risk":3,"arthritis_risk":5,"migraine_risk":7,"frizz_risk":1,"updated_at":"2026-03-21T04:02:30.710368+05:30"},{"city":"Chennai","state":"Tamil Nadu","latitude":13.0827,"longitude":80.2707,"temp":26.3,"humidity":88,"rain":0.0,"pressure":1007.3,"uv_index":9.15,"wind_gusts":35.3,"aqi":36,"pm10":12.9,"pm2_5":9.3,"mosquito_risk":7,"arthritis_risk":5,"migraine_risk":4,"frizz_risk":1,"updated_at":"2026-03-21T04:02:30.710376+05:30"},{"city":"Kolkata","state":"West Bengal","latitude":22.5726,"longitude":88.3639,"temp":21.9,"humidity":91,"rain":0.0,"pressure":1008.8,"uv_index":3.9,"wind_gusts":21.6,"aqi":76,"pm10":9.1,"pm2_5":7.5,"mosquito_risk":3,"arthritis_risk":0,"migraine_risk":0,"frizz_risk":1,"updated_at":"2026-03-21T04:02:30.710385+05:30"},{"city":"Pune","state":"Maharashtra","latitude":18.5204,"longitude":73.8567,"temp":20.1,"humidity":89,"rain":0.0,"pressure":948.4,"uv_index":8.45,"wind_gusts":24.1,"aqi":81,"pm10":61.5,"pm2_5":45.5,"mosquito_risk":3,"arthritis_risk":5,"migraine_risk":7,"frizz_risk":1,"updated_at":"2026-03-21T04:02:30.710396+05:30"},{"city":"Ahmedabad","state":"Gujarat","latitude":23.0225,"longitude":72.5714,"temp":19.9,"humidity":74,"rain":0.0,"pressure":1004.4,"uv_index":7.5,"wind_gusts":19.8,"aqi":76,"pm10":25.8,"pm2_5":19.2,"mosquito_risk":3,"arthritis_risk":5,"migraine_risk":4,"frizz_risk":0,"updated_at":"2026-03-21T04:02:30.710404+05:30"},{"city":"Jaipur","state":"Rajasthan","latitude":26.9124,"longitude":75.7873,"temp":16.4,"humidity":90,"rain":0.0,"pressure":962.8,"uv_index":6.65,"wind_gusts":28.8,"aqi":72,"pm10":50.2,"pm2_5":24.5,"mosquito_risk":3,"arthritis_risk":10,"migraine_risk":7,"frizz_risk":0,"updated_at":"2026-03-21T04:02:30.710411+05:30"},{"city":"Lucknow","state":"Uttar Pradesh","latitude":26.8467,"longitude":80.9462,"temp":19.2,"humidity":90,"rain":0.1,"pressure":997.9,"uv_index":6.8,"wind_gusts":27.4,"aqi":119,"pm10":61.5,"pm2_5":43.3,"mosquito_risk":6,"arthritis_risk":10,"migraine_risk":7,"frizz_risk":1,"updated_at":"2026-03-21T04:02:30.710422+05:30"},{"city":"Kanpur","state":"Uttar Pradesh","latitude":26.4499,"longitude":80.3319,"temp":18.3,"humidity":93,"rain":0.0,"pressure":996.2,"uv_index":6.15,"wind_gusts":25.6,"aqi":127,"pm10":74.0,"pm2_5":40.4,"mosquito_risk":3,"arthritis_risk":10,"migraine_risk":7,"frizz_risk":1,"updated_at":"2026-03-21T04:02:30.710428+05:30"},{"city":"Chandigarh","state":"Chandigarh","latitude":30.7333,"longitude":76.7794,"temp":12.3,"humidity":99,"rain":0.0,"pressure":973.0,"uv_index":6.35,"wind_gusts":28.1,"aqi":81,"pm10":21.7,"pm2_5":20.5,"mosquito_risk":3,"arthritis_risk":10,"migraine_risk":7,"frizz_risk":0,"updated_at":"2026-03-21T04:02:30.710436+05:30"},{"city":"Srinagar","state":"Jammu and Kashmir","latitude":34.0837,"longitude":74.7973,"temp":4.6,"humidity":87,"rain":0.0,"pressure":838.5,"uv_index":6.6,"wind_gusts":13.7,"aqi":66,"pm10":8.7,"pm2_5":8.3,"mosquito_risk":3,"arthritis_risk":10,"migraine_risk":7,"frizz_risk":0,"updated_at":"2026-03-21T04:02:30.710442+05:30"},{"city":"Jammu","state":"Jammu and Kashmir","latitude":32.7266,"longitude":74.857,"temp":13.8,"humidity":93,"rain":0.0,"pressure":977.1,"uv_index":6.35,"wind_gusts":24.8,"aqi":84,"pm10":66.4,"pm2_5":46.8,"mosquito_risk":3,"arthritis_risk":10,"migraine_risk":7,"frizz_risk":0,"updated_at":"2026-03-21T04:02:30.710449+05:30"},{"city":"Amritsar","state":"Punjab","latitude":31.634,"longitude":74.8723,"temp":13.0,"humidity":96,"rain":0.0,"pressure":985.4,"uv_index":6.15,"wind_gusts":19.8,"aqi":94,"pm10":56.9,"pm2_5":41.9,"mosquito_risk":3,"arthritis_risk":10,"migraine_risk":7,"frizz_risk":0,"updated_at":"2026-03-21T04:02:30.710456+05:30"},{"city":"Ludhiana","state":"Punjab","latitude":30.901,"longitude":75.8573,"temp":13.8,"humidity":100,"rain":0.0,"pressure":983.5,"uv_index":5.5,"wind_gusts":25.2,"aqi":114,"pm10":67.8,"pm2_5":59.1,"mosquito_risk":3,"arthritis_risk":10,"migraine_risk":3,"frizz_risk":0,"updated_at":"2026-03-21T04:02:30.710462+05:30"},{"city":"Jalandhar","state":"Punjab","latitude":31.326,"longitude":75.5762,"temp":13.8,"humidity":97,"rain":0.0,"pressure":984.7,"uv_index":6.3,"wind_gusts":23.4,"aqi":97,"pm10":56.6,"pm2_5":49.6,"mosquito_risk":3,"arthritis_risk":10,"migraine_risk":7,"frizz_risk":0,"updated_at":"2026-03-21T04:02:30.710486+05:30"},{"city":"Dehradun","state":"Uttarakhand","latitude":30.6284,"longitude":78.0322,"temp":6.4,"humidity":84,"rain":0.0,"pressure":827.3,"uv_index":6.2,"wind_gusts":23.4,"aqi":44,"pm10":4.4,"pm2_5":4.1,"mosquito_risk":3,"arthritis_risk":10,"migraine_risk":7,"frizz_risk":0,"updated_at":"2026-03-21T04:02:30.710494+05:30"},{"city":"Shimla","state":"Himachal Pradesh","latitude":31.1048,"longitude":77.1734,"temp":3.5,"humidity":86,"rain":0.0,"pressure":779.5,"uv_index":6.2,"wind_gusts":32.8,"aqi":40,"pm10":7.1,"pm2_5":6.2,"mosquito_risk":3,"arthritis_risk":10,"migraine_risk":7,"frizz_risk":0,"updated_at":"2026-03-21T04:02:30.710500+05:30"},{"city":"Manali","state":"Himachal Pradesh","latitude":32.2396,"longitude":77.1887,"temp":7.4,"humidity":63,"rain":0.0,"pressure":813.5,"uv_index":8.75,"wind_gusts":29.2,"aqi":37,"pm10":7.1,"pm2_5":7.1,"mosquito_risk":3,"arthritis_risk":5,"migraine_risk":7,"frizz_risk":0,"updated_at":"2026-03-21T04:02:30.710507+05:30"},{"city":"Gurgaon","state":"Haryana","latitude":28.4595,"longitude":77.0266,"temp":14.3,"humidity":100,"rain":0.0,"pressure":986.4,"uv_index":6.25,"wind_gusts":23.8,"aqi":153,"pm10":124.8,"pm2_5":111.1,"mosquito_risk":3,"arthritis_risk":10,"migraine_risk":7,"frizz_risk":0,"updated_at":"2026-03-21T04:02:30.710513+05:30"},{"city":"Noida","state":"Uttar Pradesh","latitude":28.5355,"longitude":77.391,"temp":15.2,"humidity":100,"rain":0.0,"pressure":989.3,"uv_index":6.1,"wind_gusts":27.4,"aqi":153,"pm10":124.8,"pm2_5":111.1,"mosquito_risk":3,"arthritis_risk":10,"migraine_risk":7,"frizz_risk":0,"updated_at":"2026-03-21T04:02:30.710520+05:30"},{"city":"Ghaziabad","state":"Uttar Pradesh","latitude":28.6692,"longitude":77.4538,"temp":14.8,"humidity":100,"rain":0.0,"pressure":987.8,"uv_index":6.3,"wind_gusts":26.3,"aqi":152,"pm10":122.5,"pm2_5":109.2,"mosquito_risk":3,"arthritis_risk":10,"migraine_risk":7,"frizz_risk":0,"updated_at":"2026-03-21T04:02:30.710526+05:30"},{"city":"Faridabad","state":"Haryana","latitude":28.4089,"longitude":77.3178,"temp":14.1,"humidity":100,"rain":0.0,"pressure":988.3,"uv_index":6.05,"wind_gusts":26.3,"aqi":153,"pm10":124.8,"pm2_5":111.1,"mosquito_risk":3,"arthritis_risk":10,"migraine_risk":7,"frizz_risk":0,"updated_at":"2026-03-21T04:02:30.710532+05:30"},{"city":"Meerut","state":"Uttar Pradesh","latitude":28.9845,"longitude":77.7064,"temp":14.7,"humidity":100,"rain":0.0,"pressure":986.3,"uv_index":6.25,"wind_gusts":26.6,"aqi":152,"pm10":122.5,"pm2_5":109.2,"mosquito_risk":3,"arthritis_risk":10,"migraine_risk":7,"frizz_risk":0,"updated_at":"2026-03-21T04:02:30.710539+05:30"},{"city":"Agra","state":"Uttar Pradesh","latitude":27.1767,"longitude":78.0081,"temp":14.0,"humidity":99,"rain":0.0,"pressure":992.5,"uv_index":6.8,"wind_gusts":31.3,"aqi":153,"pm10":117.3,"pm2_5":73.8,"mosquito_risk":3,"arthritis_risk":10,"migraine_risk":7,"frizz_risk":0,"updated_at":"2026-03-21T04:02:30.710546+05:30"},{"city":"Varanasi","state":"Uttar Pradesh","latitude":25.3176,"longitude":82.9739,"temp":19.8,"humidity":93,"rain":0.0,"pressure":1001.0,"uv_index":6.9,"wind_gusts":25.9,"aqi":98,"pm10":54.4,"pm2_5":40.3,"mosquito_risk":3,"arthritis_risk":10,"migraine_risk":4,"frizz_risk":1,"updated_at":"2026-03-21T04:02:30.710555+05:30"},{"city":"Prayagraj","state":"Uttar Pradesh","latitude":25.4358,"longitude":81.8463,"temp":19.5,"humidity":93,"rain":0.0,"pressure":1000.0,"uv_index":6.85,"wind_gusts":27.0,"aqi":94,"pm10":52.9,"pm2_5":37.4,"mosquito_risk":3,"arthritis_risk":10,"migraine_risk":4,"frizz_risk":1,"updated_at":"2026-03-21T04:02:30.710564+05:30"},{"city":"Gorakhpur","state":"Uttar Pradesh","latitude":26.7606,"longitude":83.3732,"temp":17.6,"humidity":89,"rain":0.0,"pressure":1001.0,"uv_index":5.65,"wind_gusts":25.2,"aqi":136,"pm10":59.4,"pm2_5":44.8,"mosquito_risk":3,"arthritis_risk":10,"migraine_risk":0,"frizz_risk":0,"updated_at":"2026-03-21T04:02:30.710571+05:30"},{"city":"Bareilly","state":"Uttar Pradesh","latitude":28.367,"longitude":79.4304,"temp":16.4,"humidity":99,"rain":0.0,"pressure":991.2,"uv_index":6.6,"wind_gusts":23.0,"aqi":117,"pm10":99.4,"pm2_5":71.2,"mosquito_risk":3,"arthritis_risk":10,"migraine_risk":7,"frizz_risk":1,"updated_at":"2026-03-21T04:02:30.710577+05:30"},{"city":"Aligarh","state":"Uttar Pradesh","latitude":27.8974,"longitude":78.088,"temp":14.3,"humidity":100,"rain":0.0,"pressure":990.1,"uv_index":6.55,"wind_gusts":27.7,"aqi":143,"pm10":136.4,"pm2_5":121.5,"mosquito_risk":3,"arthritis_risk":10,"migraine_risk":7,"frizz_risk":0,"updated_at":"2026-03-21T04:02:30.710583+05:30"},{"city":"Moradabad","state":"Uttar Pradesh","latitude":28.8386,"longitude":78.7733,"temp":15.8,"humidity":99,"rain":0.0,"pressure":988.1,"uv_index":6.45,"wind_gusts":23.8,"aqi":126,"pm10":100.6,"pm2_5":80.6,"mosquito_risk":3,"arthritis_risk":10,"migraine_risk":7,"frizz_risk":0,"updated_at":"2026-03-21T04:02:30.710589+05:30"},{"city":"Saharanpur","state":"Uttar Pradesh","latitude":29.9637,"longitude":77.546,"temp":13.2,"humidity":100,"rain":0.0,"pressure":980.4,"uv_index":5.95,"wind_gusts":32.4,"aqi":145,"pm10":95.7,"pm2_5":87.3,"mosquito_risk":3,"arthritis_risk":10,"migraine_risk":3,"frizz_risk":0,"updated_at":"2026-03-21T04:02:30.710594+05:30"},{"city":"Jhansi","state":"Uttar Pradesh","latitude":25.4484,"longitude":78.5685,"temp":17.1,"humidity":96,"rain":0.0,"pressure":982.1,"uv_index":7.4,"wind_gusts":29.2,"aqi":117,"pm10":70.8,"pm2_5":39.7,"mosquito_risk":3,"arthritis_risk":10,"migraine_risk":7,"frizz_risk":1,"updated_at":"2026-03-21T04:02:33.947537+05:30"},{"city":"Surat","state":"Gujarat","latitude":21.1702,"longitude":72.8311,"temp":23.4,"humidity":94,"rain":0.0,"pressure":1008.4,"uv_index":7.55,"wind_gusts":27.0,"aqi":110,"pm10":61.2,"pm2_5":42.4,"mosquito_risk":3,"arthritis_risk":0,"migraine_risk":4,"frizz_risk":1,"updated_at":"2026-03-21T04:02:33.947566+05:30"},{"city":"Vadodara","state":"Gujarat","latitude":22.3072,"longitude":73.1812,"temp":21.6,"humidity":63,"rain":0.0,"pressure":1006.5,"uv_index":7.55,"wind_gusts":14.0,"aqi":78,"pm10":24.6,"pm2_5":17.9,"mosquito_risk":3,"arthritis_risk":5,"migraine_risk":4,"frizz_risk":0,"updated_at":"2026-03-21T04:02:33.947576+05:30"},{"city":"Rajkot","state":"Gujarat","latitude":22.3039,"longitude":70.8022,"temp":21.3,"humidity":85,"rain":0.0,"pressure":996.1,"uv_index":7.3,"wind_gusts":14.8,"aqi":75,"pm10":30.3,"pm2_5":17.1,"mosquito_risk":3,"arthritis_risk":5,"migraine_risk":7,"frizz_risk":1,"updated_at":"2026-03-21T04:02:33.947583+05:30"},{"city":"Thane","state":"Maharashtra","latitude":19.2183,"longitude":72.9781,"temp":23.5,"humidity":75,"rain":0.0,"pressure":1008.9,"uv_index":7.85,"wind_gusts":42.8,"aqi":81,"pm10":48.0,"pm2_5":21.1,"mosquito_risk":3,"arthritis_risk":0,"migraine_risk":4,"frizz_risk":1,"updated_at":"2026-03-21T04:02:33.947590+05:30"},{"city":"Nagpur","state":"Maharashtra","latitude":21.1458,"longitude":79.0882,"temp":22.3,"humidity":75,"rain":0.0,"pressure":975.0,"uv_index":8.3,"wind_gusts":24.5,"aqi":73,"pm10":36.8,"pm2_5":21.7,"mosquito_risk":3,"arthritis_risk":5,"migraine_risk":7,"frizz_risk":1,"updated_at":"2026-03-21T04:02:33.947597+05:30"},{"city":"Nashik","state":"Maharashtra","latitude":19.9975,"longitude":73.7898,"temp":20.2,"humidity":81,"rain":0.0,"pressure":946.2,"uv_index":8.05,"wind_gusts":20.9,"aqi":59,"pm10":47.7,"pm2_5":27.4,"mosquito_risk":3,"arthritis_risk":5,"migraine_risk":7,"frizz_risk":1,"updated_at":"2026-03-21T04:02:33.947604+05:30"},{"city":"Aurangabad","state":"Maharashtra","latitude":19.8762,"longitude":75.3433,"temp":21.7,"humidity":67,"rain":0.0,"pressure":945.0,"uv_index":8.6,"wind_gusts":23.4,"aqi":67,"pm10":31.8,"pm2_5":18.9,"mosquito_risk":3,"arthritis_risk":5,"migraine_risk":7,"frizz_risk":0,"updated_at":"2026-03-21T04:02:33.947610+05:30"},{"city":"Solapur","state":"Maharashtra","latitude":17.6599,"longitude":75.9064,"temp":23.6,"humidity":52,"rain":0.0,"pressure":957.3,"uv_index":8.75,"wind_gusts":30.2,"aqi":74,"pm10":27.0,"pm2_5":19.8,"mosquito_risk":0,"arthritis_risk":5,"migraine_risk":7,"frizz_risk":0,"updated_at":"2026-03-21T04:02:33.947618+05:30"},{"city":"Kolhapur","state":"Maharashtra","latitude":16.705,"longitude":74.2433,"temp":16.6,"humidity":86,"rain":0.0,"pressure":946.9,"uv_index":8.85,"wind_gusts":33.1,"aqi":78,"pm10":37.1,"pm2_5":31.5,"mosquito_risk":3,"arthritis_risk":10,"migraine_risk":7,"frizz_risk":0,"updated_at":"2026-03-21T04:02:33.947625+05:30"},{"city":"Goa","state":"Goa","latitude":15.2993,"longitude":74.124,"temp":24.3,"humidity":87,"rain":0.0,"pressure":997.4,"uv_index":8.85,"wind_gusts":35.6,"aqi":67,"pm10":48.3,"pm2_5":30.0,"mosquito_risk":3,"arthritis_risk":5,"migraine_risk":7,"frizz_risk":1,"updated_at":"2026-03-21T04:02:33.947632+05:30"},{"city":"Jodhpur","state":"Rajasthan","latitude":26.2389,"longitude":73.0243,"temp":21.5,"humidity":65,"rain":0.0,"pressure":985.5,"uv_index":6.8,"wind_gusts":24.1,"aqi":65,"pm10":50.2,"pm2_5":25.1,"mosquito_risk":3,"arthritis_risk":5,"migraine_risk":7,"frizz_risk":0,"updated_at":"2026-03-21T04:02:33.947639+05:30"},{"city":"Udaipur","state":"Rajasthan","latitude":24.5854,"longitude":73.7125,"temp":16.4,"humidity":69,"rain":0.0,"pressure":948.1,"uv_index":7.4,"wind_gusts":13.0,"aqi":56,"pm10":30.9,"pm2_5":14.2,"mosquito_risk":3,"arthritis_risk":5,"migraine_risk":7,"frizz_risk":0,"updated_at":"2026-03-21T04:02:33.947646+05:30"},{"city":"Kota","state":"Rajasthan","latitude":25.2138,"longitude":75.8648,"temp":17.9,"humidity":88,"rain":0.0,"pressure":982.3,"uv_index":7.35,"wind_gusts":19.1,"aqi":71,"pm10":58.9,"pm2_5":35.4,"mosquito_risk":3,"arthritis_risk":10,"migraine_risk":7,"frizz_risk":0,"updated_at":"2026-03-21T04:02:33.947653+05:30"},{"city":"Bikaner","state":"Rajasthan","latitude":28.0229,"longitude":73.3119,"temp":21.1,"humidity":58,"rain":0.0,"pressure":984.0,"uv_index":6.8,"wind_gusts":24.8,"aqi":57,"pm10":21.6,"pm2_5":15.7,"mosquito_risk":0,"arthritis_risk":5,"migraine_risk":7,"frizz_risk":0,"updated_at":"2026-03-21T04:02:33.947659+05:30"},{"city":"Ajmer","state":"Rajasthan","latitude":26.4499,"longitude":74.6399,"temp":19.0,"humidity":71,"rain":0.0,"pressure":957.0,"uv_index":7.1,"wind_gusts":22.3,"aqi":61,"pm10":49.7,"pm2_5":26.0,"mosquito_risk":3,"arthritis_risk":5,"migraine_risk":7,"frizz_risk":0,"updated_at":"2026-03-21T04:02:33.947666+05:30"},{"city":"Gwalior","state":"Madhya Pradesh","latitude":26.2183,"longitude":78.1828,"temp":17.0,"humidity":96,"rain":0.0,"pressure":987.5,"uv_index":7.1,"wind_gusts":27.7,"aqi":100,"pm10":57.6,"pm2_5":27.9,"mosquito_risk":3,"arthritis_risk":10,"migraine_risk":7,"frizz_risk":1,"updated_at":"2026-03-21T04:02:33.947672+05:30"},{"city":"Indore","state":"Madhya Pradesh","latitude":22.7196,"longitude":75.8577,"temp":17.1,"humidity":82,"rain":0.0,"pressure":949.4,"uv_index":8.0,"wind_gusts":23.8,"aqi":66,"pm10":25.3,"pm2_5":18.5,"mosquito_risk":3,"arthritis_risk":10,"migraine_risk":7,"frizz_risk":0,"updated_at":"2026-03-21T04:02:33.947678+05:30"},{"city":"Bhopal","state":"Madhya Pradesh","latitude":23.2599,"longitude":77.4126,"temp":17.4,"humidity":87,"rain":0.0,"pressure":955.6,"uv_index":7.9,"wind_gusts":25.2,"aqi":68,"pm10":51.7,"pm2_5":29.5,"mosquito_risk":3,"arthritis_risk":10,"migraine_risk":7,"frizz_risk":0,"updated_at":"2026-03-21T04:02:33.947684+05:30"},{"city":"Jabalpur","state":"Madhya Pradesh","latitude":23.1815,"longitude":79.9864,"temp":18.7,"humidity":87,"rain":0.0,"pressure":963.9,"uv_index":8.0,"wind_gusts":33.5,"aqi":58,"pm10":39.6,"pm2_5":26.3,"mosquito_risk":3,"arthritis_risk":10,"migraine_risk":7,"frizz_risk":1,"updated_at":"2026-03-21T04:02:33.947690+05:30"},{"city":"Ujjain","state":"Madhya Pradesh","latitude":23.1765,"longitude":75.7885,"temp":17.4,"humidity":86,"rain":0.0,"pressure":955.5,"uv_index":7.85,"wind_gusts":19.8,"aqi":66,"pm10":28.3,"pm2_5":19.9,"mosquito_risk":3,"arthritis_risk":10,"migraine_risk":7,"frizz_risk":0,"updated_at":"2026-03-21T04:02:33.947697+05:30"},{"city":"Visakhapatnam","state":"Andhra Pradesh","latitude":17.6868,"longitude":83.2185,"temp":21.8,"humidity":91,"rain":0.0,"pressure":1004.7,"uv_index":8.8,"wind_gusts":36.0,"aqi":67,"pm10":34.7,"pm2_5":30.7,"mosquito_risk":3,"arthritis_risk":5,"migraine_risk":4,"frizz_risk":1,"updated_at":"2026-03-21T04:02:33.947704+05:30"},{"city":"Vijayawada","state":"Andhra Pradesh","latitude":16.5062,"longitude":80.648,"temp":24.2,"humidity":90,"rain":0.0,"pressure":1003.0,"uv_index":8.9,"wind_gusts":28.4,"aqi":62,"pm10":17.2,"pm2_5":15.7,"mosquito_risk":3,"arthritis_risk":5,"migraine_risk":4,"frizz_risk":1,"updated_at":"2026-03-21T04:02:33.947710+05:30"},{"city":"Guntur","state":"Andhra Pradesh","latitude":16.3067,"longitude":80.4365,"temp":24.3,"humidity":95,"rain":0.0,"pressure":1004.2,"uv_index":8.9,"wind_gusts":21.2,"aqi":58,"pm10":12.3,"pm2_5":11.1,"mosquito_risk":3,"arthritis_risk":5,"migraine_risk":4,"frizz_risk":1,"updated_at":"2026-03-21T04:02:33.947717+05:30"},{"city":"Nellore","state":"Andhra Pradesh","latitude":14.4426,"longitude":79.9865,"temp":25.7,"humidity":90,"rain":0.0,"pressure":1005.8,"uv_index":9.05,"wind_gusts":37.1,"aqi":33,"pm10":9.1,"pm2_5":6.8,"mosquito_risk":7,"arthritis_risk":5,"migraine_risk":4,"frizz_risk":1,"updated_at":"2026-03-21T04:02:33.947724+05:30"},{"city":"Kurnool","state":"Andhra Pradesh","latitude":15.8281,"longitude":78.0373,"temp":25.8,"humidity":70,"rain":0.0,"pressure":976.1,"uv_index":8.9,"wind_gusts":26.6,"aqi":70,"pm10":35.5,"pm2_5":28.9,"mosquito_risk":7,"arthritis_risk":5,"migraine_risk":7,"frizz_risk":1,"updated_at":"2026-03-21T04:02:33.947731+05:30"},{"city":"Kakinada","state":"Andhra Pradesh","latitude":16.9891,"longitude":82.2475,"temp":21.8,"humidity":95,"rain":0.0,"pressure":1008.3,"uv_index":8.8,"wind_gusts":29.2,"aqi":48,"pm10":15.8,"pm2_5":12.7,"mosquito_risk":3,"arthritis_risk":0,"migraine_risk":4,"frizz_risk":1,"updated_at":"2026-03-21T04:02:33.947737+05:30"},{"city":"Tirupati","state":"Andhra Pradesh","latitude":13.6288,"longitude":79.4192,"temp":24.2,"humidity":89,"rain":0.0,"pressure":992.0,"uv_index":9.15,"wind_gusts":28.1,"aqi":61,"pm10":30.6,"pm2_5":28.6,"mosquito_risk":3,"arthritis_risk":5,"migraine_risk":7,"frizz_risk":1,"updated_at":"2026-03-21T04:02:33.947743+05:30"},{"city":"Warangal","state":"Telangana","latitude":17.9689,"longitude":79.5941,"temp":23.5,"humidity":75,"rain":0.0,"pressure":979.2,"uv_index":8.7,"wind_gusts":24.1,"aqi":109,"pm10":45.6,"pm2_5":42.3,"mosquito_risk":3,"arthritis_risk":5,"migraine_risk":7,"frizz_risk":1,"updated_at":"2026-03-21T04:02:33.947750+05:30"},{"city":"Nizamabad","state":"Telangana","latitude":18.6725,"longitude":78.0941,"temp":24.0,"humidity":77,"rain":0.0,"pressure":965.2,"uv_index":8.6,"wind_gusts":24.8,"aqi":94,"pm10":54.2,"pm2_5":48.2,"mosquito_risk":3,"arthritis_risk":5,"migraine_risk":7,"frizz_risk":1,"updated_at":"2026-03-21T04:02:33.947756+05:30"},{"city":"Mysore","state":"Karnataka","latitude":12.2958,"longitude":76.6396,"temp":21.2,"humidity":90,"rain":0.0,"pressure":927.2,"uv_index":9.4,"wind_gusts":36.4,"aqi":79,"pm10":33.5,"pm2_5":29.7,"mosquito_risk":3,"arthritis_risk":5,"migraine_risk":7,"frizz_risk":1,"updated_at":"2026-03-21T04:02:33.947763+05:30"},{"city":"Mangalore","state":"Karnataka","latitude":12.9141,"longitude":74.856,"temp":28.7,"humidity":78,"rain":0.0,"pressure":1005.6,"uv_index":9.05,"wind_gusts":29.5,"aqi":67,"pm10":27.6,"pm2_5":22.2,"mosquito_risk":7,"arthritis_risk":5,"migraine_risk":4,"frizz_risk":1,"updated_at":"2026-03-21T04:02:33.947769+05:30"},{"city":"Hubli-Dharwad","state":"Karnataka","latitude":15.3647,"longitude":75.124,"temp":20.4,"humidity":82,"rain":0.0,"pressure":939.8,"uv_index":9.05,"wind_gusts":35.6,"aqi":67,"pm10":22.9,"pm2_5":17.7,"mosquito_risk":3,"arthritis_risk":5,"migraine_risk":7,"frizz_risk":1,"updated_at":"2026-03-21T04:02:33.947775+05:30"},{"city":"Belgaum","state":"Karnataka","latitude":15.8497,"longitude":74.4977,"temp":19.3,"humidity":76,"rain":0.0,"pressure":924.4,"uv_index":9.1,"wind_gusts":36.0,"aqi":67,"pm10":36.9,"pm2_5":25.0,"mosquito_risk":3,"arthritis_risk":5,"migraine_risk":7,"frizz_risk":0,"updated_at":"2026-03-21T04:02:37.171717+05:30"},{"city":"Coimbatore","state":"Tamil Nadu","latitude":11.0168,"longitude":76.9558,"temp":22.2,"humidity":93,"rain":0.0,"pressure":960.8,"uv_index":9.4,"wind_gusts":40.3,"aqi":70,"pm10":33.5,"pm2_5":28.9,"mosquito_risk":3,"arthritis_risk":5,"migraine_risk":7,"frizz_risk":1,"updated_at":"2026-03-21T04:02:37.171752+05:30"},{"city":"Madurai","state":"Tamil Nadu","latitude":9.9252,"longitude":78.1198,"temp":24.0,"humidity":89,"rain":0.0,"pressure":992.5,"uv_index":9.35,"wind_gusts":37.4,"aqi":61,"pm10":34.2,"pm2_5":31.4,"mosquito_risk":3,"arthritis_risk":5,"migraine_risk":7,"frizz_risk":1,"updated_at":"2026-03-21T04:02:37.171765+05:30"},{"city":"Trichy","state":"Tamil Nadu","latitude":10.7905,"longitude":78.7047,"temp":24.9,"humidity":94,"rain":0.0,"pressure":999.4,"uv_index":8.45,"wind_gusts":30.2,"aqi":60,"pm10":19.1,"pm2_5":17.9,"mosquito_risk":3,"arthritis_risk":5,"migraine_risk":7,"frizz_risk":1,"updated_at":"2026-03-21T04:02:37.171774+05:30"},{"city":"Salem","state":"Tamil Nadu","latitude":11.6643,"longitude":78.146,"temp":24.9,"humidity":90,"rain":0.0,"pressure":976.9,"uv_index":9.2,"wind_gusts":23.0,"aqi":76,"pm10":35.0,"pm2_5":31.7,"mosquito_risk":3,"arthritis_risk":5,"migraine_risk":7,"frizz_risk":1,"updated_at":"2026-03-21T04:02:37.171784+05:30"},{"city":"Tirunelveli","state":"Tamil Nadu","latitude":8.7139,"longitude":77.7567,"temp":23.8,"humidity":89,"rain":0.0,"pressure":1002.7,"uv_index":9.3,"wind_gusts":40.7,"aqi":75,"pm10":58.2,"pm2_5":51.5,"mosquito_risk":3,"arthritis_risk":5,"migraine_risk":4,"frizz_risk":1,"updated_at":"2026-03-21T04:02:37.171793+05:30"},{"city":"Vellore","state":"Tamil Nadu","latitude":12.9165,"longitude":79.1325,"temp":22.8,"humidity":95,"rain":0.0,"pressure":984.8,"uv_index":9.25,"wind_gusts":32.8,"aqi":75,"pm10":54.1,"pm2_5":52.0,"mosquito_risk":3,"arthritis_risk":5,"migraine_risk":7,"frizz_risk":1,"updated_at":"2026-03-21T04:02:37.171801+05:30"},{"city":"Erode","state":"Tamil Nadu","latitude":11.341,"longitude":77.7172,"temp":25.8,"humidity":86,"rain":0.0,"pressure":988.5,"uv_index":9.3,"wind_gusts":28.8,"aqi":65,"pm10":14.9,"pm2_5":13.9,"mosquito_risk":7,"arthritis_risk":5,"migraine_risk":7,"frizz_risk":1,"updated_at":"2026-03-21T04:02:37.171809+05:30"},{"city":"Kochi","state":"Kerala","latitude":9.9312,"longitude":76.2673,"temp":28.7,"humidity":72,"rain":0.0,"pressure":1007.4,"uv_index":9.15,"wind_gusts":30.6,"aqi":72,"pm10":36.4,"pm2_5":34.3,"mosquito_risk":7,"arthritis_risk":5,"migraine_risk":4,"frizz_risk":1,"updated_at":"2026-03-21T04:02:37.171817+05:30"},{"city":"Thiruvananthapuram","state":"Kerala","latitude":8.5241,"longitude":76.9366,"temp":27.9,"humidity":82,"rain":0.0,"pressure":1006.9,"uv_index":8.05,"wind_gusts":24.8,"aqi":59,"pm10":29.6,"pm2_5":23.9,"mosquito_risk":7,"arthritis_risk":5,"migraine_risk":4,"frizz_risk":1,"updated_at":"2026-03-21T04:02:37.171825+05:30"},{"city":"Kozhikode","state":"Kerala","latitude":11.2588,"longitude":75.7804,"temp":28.1,"humidity":82,"rain":0.0,"pressure":1006.9,"uv_index":9.1,"wind_gusts":29.5,"aqi":57,"pm10":22.8,"pm2_5":16.5,"mosquito_risk":7,"arthritis_risk":5,"migraine_risk":4,"frizz_risk":1,"updated_at":"2026-03-21T04:02:37.171833+05:30"},{"city":"Thrissur","state":"Kerala","latitude":10.5276,"longitude":76.2144,"temp":26.4,"humidity":85,"rain":0.0,"pressure":1006.0,"uv_index":9.1,"wind_gusts":34.6,"aqi":71,"pm10":38.5,"pm2_5":35.9,"mosquito_risk":7,"arthritis_risk":5,"migraine_risk":4,"frizz_risk":1,"updated_at":"2026-03-21T04:02:37.171842+05:30"},{"city":"Kannur","state":"Kerala","latitude":11.8745,"longitude":75.3704,"temp":27.6,"humidity":82,"rain":0.0,"pressure":1006.0,"uv_index":9.1,"wind_gusts":32.8,"aqi":62,"pm10":27.8,"pm2_5":24.2,"mosquito_risk":7,"arthritis_risk":5,"migraine_risk":4,"frizz_risk":1,"updated_at":"2026-03-21T04:02:37.171850+05:30"},{"city":"Patna","state":"Bihar","latitude":25.5941,"longitude":85.1376,"temp":20.8,"humidity":87,"rain":0.0,"pressure":1004.1,"uv_index":3.0,"wind_gusts":29.2,"aqi":152,"pm10":65.0,"pm2_5":56.9,"mosquito_risk":3,"arthritis_risk":5,"migraine_risk":0,"frizz_risk":1,"updated_at":"2026-03-21T04:02:37.171857+05:30"},{"city":"Gaya","state":"Bihar","latitude":24.7914,"longitude":85.0002,"temp":20.5,"humidity":89,"rain":0.0,"pressure":996.8,"uv_index":6.95,"wind_gusts":25.9,"aqi":111,"pm10":56.9,"pm2_5":47.6,"mosquito_risk":3,"arthritis_risk":5,"migraine_risk":7,"frizz_risk":1,"updated_at":"2026-03-21T04:02:37.171865+05:30"},{"city":"Muzaffarpur","state":"Bihar","latitude":26.1209,"longitude":85.3647,"temp":20.0,"humidity":90,"rain":0.0,"pressure":1004.1,"uv_index":2.6,"wind_gusts":28.1,"aqi":154,"pm10":63.8,"pm2_5":57.2,"mosquito_risk":3,"arthritis_risk":5,"migraine_risk":0,"frizz_risk":1,"updated_at":"2026-03-21T04:02:37.171872+05:30"},{"city":"Bhagalpur","state":"Bihar","latitude":25.2425,"longitude":87.0117,"temp":20.4,"humidity":93,"rain":0.0,"pressure":1004.2,"uv_index":3.3,"wind_gusts":27.4,"aqi":139,"pm10":51.5,"pm2_5":49.6,"mosquito_risk":3,"arthritis_risk":5,"migraine_risk":0,"frizz_risk":1,"updated_at":"2026-03-21T04:02:37.171880+05:30"},{"city":"Ranchi","state":"Jharkhand","latitude":23.3441,"longitude":85.3096,"temp":17.9,"humidity":89,"rain":0.0,"pressure":938.8,"uv_index":7.6,"wind_gusts":38.2,"aqi":91,"pm10":51.9,"pm2_5":39.1,"mosquito_risk":3,"arthritis_risk":10,"migraine_risk":7,"frizz_risk":0,"updated_at":"2026-03-21T04:02:37.171888+05:30"},{"city":"Jamshedpur","state":"Jharkhand","latitude":22.8046,"longitude":86.2029,"temp":22.2,"humidity":83,"rain":0.0,"pressure":993.5,"uv_index":7.65,"wind_gusts":30.6,"aqi":136,"pm10":75.0,"pm2_5":69.6,"mosquito_risk":3,"arthritis_risk":5,"migraine_risk":7,"frizz_risk":1,"updated_at":"2026-03-21T04:02:37.171896+05:30"},{"city":"Dhanbad","state":"Jharkhand","latitude":23.7957,"longitude":86.4304,"temp":21.2,"humidity":85,"rain":0.0,"pressure":982.1,"uv_index":6.3,"wind_gusts":29.2,"aqi":154,"pm10":72.2,"pm2_5":63.8,"mosquito_risk":3,"arthritis_risk":5,"migraine_risk":7,"frizz_risk":1,"updated_at":"2026-03-21T04:02:37.171903+05:30"},{"city":"Bokaro","state":"Jharkhand","latitude":23.6693,"longitude":86.1511,"temp":20.9,"humidity":86,"rain":0.0,"pressure":986.4,"uv_index":7.35,"wind_gusts":34.2,"aqi":141,"pm10":69.8,"pm2_5":59.6,"mosquito_risk":3,"arthritis_risk":5,"migraine_risk":7,"frizz_risk":1,"updated_at":"2026-03-21T04:02:37.171911+05:30"},{"city":"Bhubaneswar","state":"Odisha","latitude":20.2961,"longitude":85.8245,"temp":23.3,"humidity":90,"rain":0.0,"pressure":1004.1,"uv_index":8.55,"wind_gusts":29.5,"aqi":62,"pm10":25.6,"pm2_5":23.5,"mosquito_risk":3,"arthritis_risk":5,"migraine_risk":4,"frizz_risk":1,"updated_at":"2026-03-21T04:02:37.171919+05:30"},{"city":"Cuttack","state":"Odisha","latitude":20.4625,"longitude":85.8828,"temp":22.3,"humidity":88,"rain":0.0,"pressure":1006.1,"uv_index":8.6,"wind_gusts":24.8,"aqi":62,"pm10":25.6,"pm2_5":23.5,"mosquito_risk":3,"arthritis_risk":5,"migraine_risk":4,"frizz_risk":1,"updated_at":"2026-03-21T04:02:37.171927+05:30"},{"city":"Rourkela","state":"Odisha","latitude":22.2604,"longitude":84.8536,"temp":21.1,"humidity":78,"rain":0.0,"pressure":987.8,"uv_index":8.2,"wind_gusts":37.1,"aqi":112,"pm10":49.7,"pm2_5":41.0,"mosquito_risk":3,"arthritis_risk":5,"migraine_risk":7,"frizz_risk":1,"updated_at":"2026-03-21T04:02:37.171934+05:30"},{"city":"Raipur","state":"Chhattisgarh","latitude":21.2514,"longitude":81.6296,"temp":20.8,"humidity":82,"rain":0.0,"pressure":976.2,"uv_index":8.35,"wind_gusts":31.7,"aqi":109,"pm10":77.1,"pm2_5":69.4,"mosquito_risk":3,"arthritis_risk":5,"migraine_risk":7,"frizz_risk":1,"updated_at":"2026-03-21T04:02:37.171942+05:30"},{"city":"Bhilai","state":"Chhattisgarh","latitude":21.1938,"longitude":81.3509,"temp":20.5,"humidity":80,"rain":0.0,"pressure":976.6,"uv_index":8.35,"wind_gusts":30.2,"aqi":100,"pm10":76.6,"pm2_5":66.1,"mosquito_risk":3,"arthritis_risk":5,"migraine_risk":7,"frizz_risk":1,"updated_at":"2026-03-21T04:02:37.171950+05:30"},{"city":"Guwahati","state":"Assam","latitude":26.1158,"longitude":91.7086,"temp":21.9,"humidity":90,"rain":0.0,"pressure":1005.7,"uv_index":5.9,"wind_gusts":19.1,"aqi":95,"pm10":37.4,"pm2_5":30.9,"mosquito_risk":3,"arthritis_risk":5,"migraine_risk":0,"frizz_risk":1,"updated_at":"2026-03-21T04:02:37.171957+05:30"},{"city":"Agartala","state":"Tripura","latitude":23.8315,"longitude":91.2868,"temp":20.1,"humidity":95,"rain":0.0,"pressure":1009.4,"uv_index":7.05,"wind_gusts":25.2,"aqi":100,"pm10":44.9,"pm2_5":39.3,"mosquito_risk":3,"arthritis_risk":0,"migraine_risk":4,"frizz_risk":1,"updated_at":"2026-03-21T04:02:37.171965+05:30"},{"city":"Shillong","state":"Meghalaya","latitude":25.5788,"longitude":91.8933,"temp":10.8,"humidity":76,"rain":0.0,"pressure":855.9,"uv_index":5.45,"wind_gusts":21.6,"aqi":77,"pm10":24.7,"pm2_5":20.1,"mosquito_risk":3,"arthritis_risk":5,"migraine_risk":3,"frizz_risk":0,"updated_at":"2026-03-21T04:02:37.171973+05:30"},{"city":"Imphal","state":"Manipur","latitude":24.817,"longitude":93.9368,"temp":14.8,"humidity":68,"rain":0.0,"pressure":924.8,"uv_index":7.6,"wind_gusts":28.8,"aqi":86,"pm10":50.4,"pm2_5":36.4,"mosquito_risk":3,"arthritis_risk":5,"migraine_risk":7,"frizz_risk":0,"updated_at":"2026-03-21T04:02:37.171980+05:30"},{"city":"Aizawl","state":"Mizoram","latitude":23.7271,"longitude":92.7176,"temp":12.9,"humidity":90,"rain":0.0,"pressure":892.3,"uv_index":6.85,"wind_gusts":33.8,"aqi":96,"pm10":49.5,"pm2_5":42.7,"mosquito_risk":3,"arthritis_risk":10,"migraine_risk":7,"frizz_risk":0,"updated_at":"2026-03-21T04:02:37.171988+05:30"},{"city":"Kohima","state":"Nagaland","latitude":25.6701,"longitude":94.1077,"temp":13.4,"humidity":59,"rain":0.0,"pressure":855.6,"uv_index":6.65,"wind_gusts":59.8,"aqi":73,"pm10":34.0,"pm2_5":23.9,"mosquito_risk":0,"arthritis_risk":5,"migraine_risk":7,"frizz_risk":0,"updated_at":"2026-03-21T04:02:37.171995+05:30"},{"city":"Gangtok","state":"Sikkim","latitude":27.3314,"longitude":88.6138,"temp":11.3,"humidity":93,"rain":0.8,"pressure":837.9,"uv_index":4.2,"wind_gusts":16.6,"aqi":72,"pm10":10.3,"pm2_5":8.9,"mosquito_risk":6,"arthritis_risk":10,"migraine_risk":3,"frizz_risk":0,"updated_at":"2026-03-21T04:02:37.172003+05:30"},{"city":"Siliguri","state":"West Bengal","latitude":26.7271,"longitude":88.3953,"temp":18.1,"humidity":80,"rain":0.3,"pressure":998.0,"uv_index":6.65,"wind_gusts":30.6,"aqi":109,"pm10":20.9,"pm2_5":18.5,"mosquito_risk":6,"arthritis_risk":5,"migraine_risk":7,"frizz_risk":0,"updated_at":"2026-03-21T04:02:40.394334+05:30"},{"city":"Durgapur","state":"West Bengal","latitude":23.5204,"longitude":87.3119,"temp":21.5,"humidity":89,"rain":0.0,"pressure":997.5,"uv_index":6.2,"wind_gusts":21.2,"aqi":152,"pm10":64.3,"pm2_5":60.1,"mosquito_risk":3,"arthritis_risk":5,"migraine_risk":7,"frizz_risk":1,"updated_at":"2026-03-21T04:02:40.394365+05:30"},{"city":"Asansol","state":"West Bengal","latitude":23.6739,"longitude":86.9524,"temp":21.8,"humidity":87,"rain":0.0,"pressure":996.1,"uv_index":5.8,"wind_gusts":22.3,"aqi":152,"pm10":68.0,"pm2_5":60.8,"mosquito_risk":3,"arthritis_risk":5,"migraine_risk":3,"frizz_risk":1,"updated_at":"2026-03-21T04:02:40.394375+05:30"},{"city":"Pondicherry","state":"Puducherry","latitude":11.9139,"longitude":79.8145,"temp":24.8,"humidity":98,"rain":0.0,"pressure":1008.5,"uv_index":9.15,"wind_gusts":28.4,"aqi":49,"pm10":9.8,"pm2_5":6.5,"mosquito_risk":3,"arthritis_risk":0,"migraine_risk":4,"frizz_risk":1,"updated_at":"2026-03-21T04:02:40.394383+05:30"},{"city":"Port Blair","state":"Andaman and Nicobar Islands","latitude":11.6234,"longitude":92.7265,"temp":28.0,"humidity":77,"rain":0.0,"pressure":1007.3,"uv_index":9.1,"wind_gusts":15.5,"aqi":49,"pm10":22.4,"pm2_5":16.4,"mosquito_risk":7,"arthritis_risk":5,"migraine_risk":4,"frizz_risk":1,"updated_at":"2026-03-21T04:02:40.394391+05:30"},{"city":"Haridwar","state":"Uttarakhand","latitude":29.9457,"longitude":78.1642,"temp":14.5,"humidity":97,"rain":0.0,"pressure":978.4,"uv_index":6.2,"wind_gusts":28.4,"aqi":89,"pm10":48.5,"pm2_5":40.9,"mosquito_risk":3,"arthritis_risk":10,"migraine_risk":7,"frizz_risk":0,"updated_at":"2026-03-21T04:02:40.394398+05:30"},{"city":"Rishikesh","state":"Uttarakhand","latitude":30.0869,"longitude":78.2676,"temp":14.2,"humidity":87,"rain":0.0,"pressure":970.6,"uv_index":6.25,"wind_gusts":25.2,"aqi":63,"pm10":27.5,"pm2_5":18.5,"mosquito_risk":3,"arthritis_risk":10,"migraine_risk":7,"frizz_risk":0,"updated_at":"2026-03-21T04:02:40.394405+05:30"},{"city":"Nainital","state":"Uttarakhand","latitude":29.3919,"longitude":79.4542,"temp":10.8,"humidity":88,"rain":0.0,"pressure":803.7,"uv_index":6.05,"wind_gusts":40.3,"aqi":74,"pm10":21.4,"pm2_5":14.7,"mosquito_risk":3,"arthritis_risk":10,"migraine_risk":7,"frizz_risk":0,"updated_at":"2026-03-21T04:02:40.394413+05:30"},{"city":"Mussoorie","state":"Uttarakhand","latitude":30.4599,"longitude":78.0664,"temp":7.7,"humidity":77,"rain":0.0,"pressure":799.6,"uv_index":6.2,"wind_gusts":25.6,"aqi":61,"pm10":15.2,"pm2_5":14.2,"mosquito_risk":3,"arthritis_risk":5,"migraine_risk":7,"frizz_risk":0,"updated_at":"2026-03-21T04:02:40.394420+05:30"},{"city":"Dharamshala","state":"Himachal Pradesh","latitude":32.219,"longitude":76.3234,"temp":10.9,"humidity":60,"rain":0.0,"pressure":867.9,"uv_index":6.1,"wind_gusts":20.5,"aqi":38,"pm10":3.7,"pm2_5":3.4,"mosquito_risk":0,"arthritis_risk":5,"migraine_risk":7,"frizz_risk":0,"updated_at":"2026-03-21T04:02:40.394426+05:30"},{"city":"Dalhousie","state":"Himachal Pradesh","latitude":32.5387,"longitude":75.971,"temp":7.1,"humidity":73,"rain":0.0,"pressure":800.3,"uv_index":6.4,"wind_gusts":21.2,"aqi":64,"pm10":45.9,"pm2_5":30.7,"mosquito_risk":3,"arthritis_risk":5,"migraine_risk":7,"frizz_risk":0,"updated_at":"2026-03-21T04:02:40.394434+05:30"},{"city":"Patiala","state":"Punjab","latitude":30.3398,"longitude":76.3869,"temp":13.3,"humidity":100,"rain":0.0,"pressure":983.1,"uv_index":6.2,"wind_gusts":25.6,"aqi":107,"pm10":63.3,"pm2_5":53.4,"mosquito_risk":3,"arthritis_risk":10,"migraine_risk":7,"frizz_risk":0,"updated_at":"2026-03-21T04:02:40.394441+05:30"},{"city":"Bhatinda","state":"Punjab","latitude":30.211,"longitude":74.9455,"temp":14.1,"humidity":96,"rain":0.0,"pressure":988.2,"uv_index":6.05,"wind_gusts":20.2,"aqi":132,"pm10":69.8,"pm2_5":50.3,"mosquito_risk":3,"arthritis_risk":10,"migraine_risk":7,"frizz_risk":0,"updated_at":"2026-03-21T04:02:40.394448+05:30"},{"city":"Rohtak","state":"Haryana","latitude":28.8955,"longitude":76.6066,"temp":14.2,"humidity":100,"rain":0.0,"pressure":986.8,"uv_index":6.1,"wind_gusts":24.5,"aqi":142,"pm10":126.7,"pm2_5":110.8,"mosquito_risk":3,"arthritis_risk":10,"migraine_risk":7,"frizz_risk":0,"updated_at":"2026-03-21T04:02:40.394455+05:30"},{"city":"Panipat","state":"Haryana","latitude":29.3909,"longitude":76.9635,"temp":13.9,"humidity":100,"rain":0.0,"pressure":985.7,"uv_index":6.1,"wind_gusts":25.6,"aqi":146,"pm10":129.0,"pm2_5":112.9,"mosquito_risk":3,"arthritis_risk":10,"migraine_risk":7,"frizz_risk":0,"updated_at":"2026-03-21T04:02:40.394461+05:30"},{"city":"Mathura","state":"Uttar Pradesh","latitude":27.4924,"longitude":77.6737,"temp":14.1,"humidity":100,"rain":0.0,"pressure":991.5,"uv_index":6.7,"wind_gusts":27.4,"aqi":106,"pm10":99.2,"pm2_5":88.7,"mosquito_risk":3,"arthritis_risk":10,"migraine_risk":7,"frizz_risk":0,"updated_at":"2026-03-21T04:02:40.394491+05:30"},{"city":"Vrindavan","state":"Uttar Pradesh","latitude":27.5823,"longitude":77.7027,"temp":13.9,"humidity":100,"rain":0.0,"pressure":992.1,"uv_index":6.65,"wind_gusts":29.2,"aqi":106,"pm10":99.2,"pm2_5":88.7,"mosquito_risk":3,"arthritis_risk":10,"migraine_risk":7,"frizz_risk":0,"updated_at":"2026-03-21T04:02:40.394500+05:30"},{"city":"Ayodhya","state":"Uttar Pradesh","latitude":26.7922,"longitude":82.1998,"temp":18.9,"humidity":93,"rain":0.0,"pressure":999.2,"uv_index":6.8,"wind_gusts":22.0,"aqi":119,"pm10":43.8,"pm2_5":32.2,"mosquito_risk":3,"arthritis_risk":10,"migraine_risk":7,"frizz_risk":1,"updated_at":"2026-03-21T04:02:40.394507+05:30"},{"city":"Ratlam","state":"Madhya Pradesh","latitude":23.3315,"longitude":75.0367,"temp":19.0,"humidity":74,"rain":0.0,"pressure":956.1,"uv_index":7.5,"wind_gusts":23.4,"aqi":63,"pm10":29.8,"pm2_5":19.2,"mosquito_risk":3,"arthritis_risk":5,"migraine_risk":7,"frizz_risk":0,"updated_at":"2026-03-21T04:02:40.394513+05:30"},{"city":"Sagar","state":"Madhya Pradesh","latitude":23.8388,"longitude":78.7378,"temp":17.3,"humidity":95,"rain":0.0,"pressure":952.4,"uv_index":7.85,"wind_gusts":29.2,"aqi":76,"pm10":67.3,"pm2_5":42.5,"mosquito_risk":3,"arthritis_risk":10,"migraine_risk":7,"frizz_risk":1,"updated_at":"2026-03-21T04:02:40.394519+05:30"},{"city":"Satna","state":"Madhya Pradesh","latitude":24.6005,"longitude":80.8322,"temp":18.8,"humidity":91,"rain":0.0,"pressure":974.5,"uv_index":7.8,"wind_gusts":32.8,"aqi":73,"pm10":49.7,"pm2_5":27.9,"mosquito_risk":3,"arthritis_risk":10,"migraine_risk":7,"frizz_risk":1,"updated_at":"2026-03-21T04:02:40.394526+05:30"},{"city":"Akola","state":"Maharashtra","latitude":20.7002,"longitude":77.0082,"temp":22.2,"humidity":68,"rain":0.0,"pressure":976.8,"uv_index":8.25,"wind_gusts":21.6,"aqi":66,"pm10":35.7,"pm2_5":16.6,"mosquito_risk":3,"arthritis_risk":5,"migraine_risk":7,"frizz_risk":0,"updated_at":"2026-03-21T04:02:40.394533+05:30"},{"city":"Amravati","state":"Maharashtra","latitude":20.9374,"longitude":77.7796,"temp":22.2,"humidity":63,"rain":0.0,"pressure":968.6,"uv_index":8.25,"wind_gusts":23.4,"aqi":67,"pm10":37.0,"pm2_5":17.2,"mosquito_risk":3,"arthritis_risk":5,"migraine_risk":7,"frizz_risk":0,"updated_at":"2026-03-21T04:02:40.394540+05:30"},{"city":"Latur","state":"Maharashtra","latitude":18.4088,"longitude":76.5604,"temp":21.7,"humidity":59,"rain":0.0,"pressure":940.0,"uv_index":8.7,"wind_gusts":33.8,"aqi":84,"pm10":25.7,"pm2_5":19.2,"mosquito_risk":0,"arthritis_risk":5,"migraine_risk":7,"frizz_risk":0,"updated_at":"2026-03-21T04:02:40.394547+05:30"},{"city":"Nanded","state":"Maharashtra","latitude":19.1383,"longitude":77.3091,"temp":24.4,"humidity":58,"rain":0.0,"pressure":970.0,"uv_index":8.5,"wind_gusts":25.9,"aqi":69,"pm10":32.1,"pm2_5":20.0,"mosquito_risk":0,"arthritis_risk":5,"migraine_risk":7,"frizz_risk":0,"updated_at":"2026-03-21T04:02:40.394553+05:30"},{"city":"Gulbarga","state":"Karnataka","latitude":17.3297,"longitude":76.8343,"temp":24.8,"humidity":48,"rain":0.0,"pressure":958.3,"uv_index":8.75,"wind_gusts":43.9,"aqi":70,"pm10":23.1,"pm2_5":18.6,"mosquito_risk":0,"arthritis_risk":5,"migraine_risk":7,"frizz_risk":0,"updated_at":"2026-03-21T04:02:40.394560+05:30"},{"city":"Bidar","state":"Karnataka","latitude":17.9104,"longitude":77.5199,"temp":24.5,"humidity":47,"rain":0.0,"pressure":934.7,"uv_index":8.75,"wind_gusts":34.6,"aqi":81,"pm10":39.6,"pm2_5":32.4,"mosquito_risk":0,"arthritis_risk":5,"migraine_risk":7,"frizz_risk":0,"updated_at":"2026-03-21T04:02:40.394569+05:30"},{"city":"Hospet","state":"Karnataka","latitude":15.2689,"longitude":76.3909,"temp":24.1,"humidity":66,"rain":0.0,"pressure":955.4,"uv_index":9.0,"wind_gusts":20.2,"aqi":71,"pm10":43.2,"pm2_5":38.9,"mosquito_risk":3,"arthritis_risk":5,"migraine_risk":7,"frizz_risk":1,"updated_at":"2026-03-21T04:02:40.394575+05:30"},{"city":"Tirupur","state":"Tamil Nadu","latitude":11.1085,"longitude":77.3411,"temp":24.4,"humidity":77,"rain":0.0,"pressure":974.7,"uv_index":9.4,"wind_gusts":33.8,"aqi":77,"pm10":32.7,"pm2_5":29.6,"mosquito_risk":3,"arthritis_risk":5,"migraine_risk":7,"frizz_risk":1,"updated_at":"2026-03-21T04:02:40.394581+05:30"},{"city":"Alappuzha","state":"Kerala","latitude":9.4981,"longitude":76.3388,"temp":28.5,"humidity":74,"rain":0.0,"pressure":1007.5,"uv_index":9.15,"wind_gusts":27.4,"aqi":71,"pm10":36.9,"pm2_5":31.7,"mosquito_risk":7,"arthritis_risk":5,"migraine_risk":4,"frizz_risk":1,"updated_at":"2026-03-21T04:02:40.394587+05:30"},{"city":"Munnar","state":"Kerala","latitude":10.0889,"longitude":77.0595,"temp":17.8,"humidity":91,"rain":0.0,"pressure":854.4,"uv_index":9.6,"wind_gusts":26.3,"aqi":59,"pm10":26.8,"pm2_5":24.4,"mosquito_risk":3,"arthritis_risk":10,"migraine_risk":7,"frizz_risk":1,"updated_at":"2026-03-21T04:02:40.394593+05:30"},{"city":"Silchar","state":"Assam","latitude":24.8333,"longitude":92.7789,"temp":21.2,"humidity":77,"rain":0.0,"pressure":1008.0,"uv_index":7.15,"wind_gusts":22.7,"aqi":91,"pm10":31.9,"pm2_5":27.9,"mosquito_risk":3,"arthritis_risk":0,"migraine_risk":4,"frizz_risk":1,"updated_at":"2026-03-21T04:02:40.394622+05:30"},{"city":"Dibrugarh","state":"Assam","latitude":27.4728,"longitude":94.912,"temp":21.0,"humidity":87,"rain":0.0,"pressure":1000.2,"uv_index":6.65,"wind_gusts":17.3,"aqi":95,"pm10":28.8,"pm2_5":23.4,"mosquito_risk":3,"arthritis_risk":5,"migraine_risk":4,"frizz_risk":1,"updated_at":"2026-03-21T04:02:40.394630+05:30"}]