[{"city":"Delhi","state":"Delhi","latitude":28.6139,"longitude":77.209,"temp":34.2,"humidity":36,"rain":0.0,"pressure":978.6,"uv_index":7.75,"wind_gusts":32.4,"aqi":167,"pm10":418.2,"pm2_5":116.6,"no2":76.8,"co":787.0,"o3":21.0,"so2":28.2,"mosquito_risk":0,"arthritis_risk":5,"migraine_risk":7,"frizz_risk":1,"updated_at":"2026-06-06T23:38:48.378261+05:30"},{"city":"Mumbai","state":"Maharashtra","latitude":19.076,"longitude":72.8777,"temp":30.5,"humidity":72,"rain":0.1,"pressure":1007.7,"uv_index":7.2,"wind_gusts":39.6,"aqi":74,"pm10":39.9,"pm2_5":17.8,"no2":7.9,"co":166.0,"o3":46.0,"so2":6.0,"mosquito_risk":6,"arthritis_risk":5,"migraine_risk":4,"frizz_risk":1,"updated_at":"2026-06-06T23:38:48.378299+05:30"},{"city":"Bangalore","state":"Karnataka","latitude":12.9716,"longitude":77.5946,"temp":21.8,"humidity":91,"rain":0.0,"pressure":912.3,"uv_index":8.4,"wind_gusts":51.5,"aqi":22,"pm10":7.5,"pm2_5":7.5,"no2":19.3,"co":419.0,"o3":29.0,"so2":4.3,"mosquito_risk":3,"arthritis_risk":5,"migraine_risk":7,"frizz_risk":1,"updated_at":"2026-06-06T23:38:48.378315+05:30"},{"city":"Hyderabad","state":"Telangana","latitude":17.385,"longitude":78.4867,"temp":29.2,"humidity":60,"rain":0.0,"pressure":952.3,"uv_index":9.05,"wind_gusts":37.8,"aqi":93,"pm10":70.5,"pm2_5":52.5,"no2":39.2,"co":309.0,"o3":33.0,"so2":13.3,"mosquito_risk":4,"arthritis_risk":5,"migraine_risk":7,"frizz_risk":1,"updated_at":"2026-06-06T23:38:48.378325+05:30"},{"city":"Chennai","state":"Tamil Nadu","latitude":13.0827,"longitude":80.2707,"temp":32.8,"humidity":56,"rain":0.0,"pressure":1006.0,"uv_index":8.5,"wind_gusts":42.1,"aqi":55,"pm10":13.7,"pm2_5":12.3,"no2":18.9,"co":337.0,"o3":55.0,"so2":11.2,"mosquito_risk":0,"arthritis_risk":5,"migraine_risk":4,"frizz_risk":1,"updated_at":"2026-06-06T23:38:48.378333+05:30"},{"city":"Kolkata","state":"West Bengal","latitude":22.5726,"longitude":88.3639,"temp":28.8,"humidity":89,"rain":0.0,"pressure":1002.7,"uv_index":9.0,"wind_gusts":29.5,"aqi":121,"pm10":38.8,"pm2_5":35.0,"no2":13.4,"co":365.0,"o3":72.0,"so2":8.7,"mosquito_risk":7,"arthritis_risk":5,"migraine_risk":4,"frizz_risk":1,"updated_at":"2026-06-06T23:38:48.378340+05:30"},{"city":"Pune","state":"Maharashtra","latitude":18.5204,"longitude":73.8567,"temp":25.5,"humidity":84,"rain":0.0,"pressure":947.9,"uv_index":8.35,"wind_gusts":46.8,"aqi":51,"pm10":18.7,"pm2_5":10.9,"no2":10.2,"co":154.0,"o3":43.0,"so2":7.9,"mosquito_risk":7,"arthritis_risk":5,"migraine_risk":7,"frizz_risk":1,"updated_at":"2026-06-06T23:38:48.378347+05:30"},{"city":"Ahmedabad","state":"Gujarat","latitude":23.0225,"longitude":72.5714,"temp":32.5,"humidity":66,"rain":0.0,"pressure":999.3,"uv_index":8.1,"wind_gusts":34.2,"aqi":90,"pm10":43.8,"pm2_5":27.0,"no2":13.8,"co":188.0,"o3":45.0,"so2":7.9,"mosquito_risk":3,"arthritis_risk":5,"migraine_risk":7,"frizz_risk":1,"updated_at":"2026-06-06T23:38:48.378354+05:30"},{"city":"Jaipur","state":"Rajasthan","latitude":26.9124,"longitude":75.7873,"temp":29.6,"humidity":56,"rain":0.0,"pressure":956.3,"uv_index":8.25,"wind_gusts":32.8,"aqi":117,"pm10":330.6,"pm2_5":76.1,"no2":11.9,"co":288.0,"o3":71.0,"so2":6.5,"mosquito_risk":4,"arthritis_risk":5,"migraine_risk":7,"frizz_risk":1,"updated_at":"2026-06-06T23:38:48.378365+05:30"},{"city":"Lucknow","state":"Uttar Pradesh","latitude":26.8467,"longitude":80.9462,"temp":31.2,"humidity":59,"rain":0.0,"pressure":989.5,"uv_index":8.3,"wind_gusts":27.7,"aqi":157,"pm10":70.8,"pm2_5":65.4,"no2":37.4,"co":416.0,"o3":53.0,"so2":15.1,"mosquito_risk":0,"arthritis_risk":5,"migraine_risk":7,"frizz_risk":1,"updated_at":"2026-06-06T23:38:48.378372+05:30"},{"city":"Kanpur","state":"Uttar Pradesh","latitude":26.4499,"longitude":80.3319,"temp":33.2,"humidity":42,"rain":0.0,"pressure":987.9,"uv_index":8.3,"wind_gusts":36.0,"aqi":207,"pm10":228.2,"pm2_5":86.8,"no2":48.3,"co":506.0,"o3":41.0,"so2":16.7,"mosquito_risk":0,"arthritis_risk":5,"migraine_risk":7,"frizz_risk":1,"updated_at":"2026-06-06T23:38:48.378379+05:30"},{"city":"Chandigarh","state":"Chandigarh","latitude":30.7333,"longitude":76.7794,"temp":27.5,"humidity":48,"rain":0.0,"pressure":963.6,"uv_index":7.8,"wind_gusts":31.3,"aqi":109,"pm10":33.3,"pm2_5":28.7,"no2":25.2,"co":880.0,"o3":81.0,"so2":10.8,"mosquito_risk":4,"arthritis_risk":5,"migraine_risk":7,"frizz_risk":0,"updated_at":"2026-06-06T23:38:48.378386+05:30"},{"city":"Srinagar","state":"Jammu and Kashmir","latitude":34.0837,"longitude":74.7973,"temp":16.0,"humidity":81,"rain":0.0,"pressure":840.1,"uv_index":9.0,"wind_gusts":25.9,"aqi":66,"pm10":39.2,"pm2_5":37.6,"no2":39.5,"co":1173.0,"o3":24.0,"so2":2.2,"mosquito_risk":3,"arthritis_risk":10,"migraine_risk":7,"frizz_risk":0,"updated_at":"2026-06-06T23:38:48.378393+05:30"},{"city":"Jammu","state":"Jammu and Kashmir","latitude":32.7266,"longitude":74.857,"temp":26.4,"humidity":51,"rain":0.0,"pressure":967.3,"uv_index":8.6,"wind_gusts":29.5,"aqi":76,"pm10":38.0,"pm2_5":35.0,"no2":47.5,"co":525.0,"o3":26.0,"so2":4.9,"mosquito_risk":4,"arthritis_risk":5,"migraine_risk":7,"frizz_risk":0,"updated_at":"2026-06-06T23:38:48.378399+05:30"},{"city":"Amritsar","state":"Punjab","latitude":31.634,"longitude":74.8723,"temp":31.2,"humidity":42,"rain":0.0,"pressure":975.7,"uv_index":8.45,"wind_gusts":22.0,"aqi":139,"pm10":73.1,"pm2_5":66.1,"no2":52.1,"co":988.0,"o3":33.0,"so2":9.3,"mosquito_risk":0,"arthritis_risk":5,"migraine_risk":7,"frizz_risk":1,"updated_at":"2026-06-06T23:38:48.378405+05:30"},{"city":"Ludhiana","state":"Punjab","latitude":30.901,"longitude":75.8573,"temp":31.5,"humidity":37,"rain":0.0,"pressure":973.8,"uv_index":8.05,"wind_gusts":30.6,"aqi":152,"pm10":64.0,"pm2_5":47.7,"no2":33.0,"co":1031.0,"o3":74.0,"so2":9.4,"mosquito_risk":0,"arthritis_risk":5,"migraine_risk":7,"frizz_risk":0,"updated_at":"2026-06-06T23:38:48.378414+05:30"},{"city":"Jalandhar","state":"Punjab","latitude":31.326,"longitude":75.5762,"temp":30.7,"humidity":49,"rain":0.0,"pressure":974.4,"uv_index":8.25,"wind_gusts":24.5,"aqi":142,"pm10":62.6,"pm2_5":55.6,"no2":42.7,"co":699.0,"o3":62.0,"so2":10.4,"mosquito_risk":0,"arthritis_risk":5,"migraine_risk":7,"frizz_risk":1,"updated_at":"2026-06-06T23:38:48.378420+05:30"},{"city":"Dehradun","state":"Uttarakhand","latitude":30.6284,"longitude":78.0322,"temp":15.9,"humidity":67,"rain":0.0,"pressure":827.2,"uv_index":8.25,"wind_gusts":33.1,"aqi":79,"pm10":25.5,"pm2_5":19.8,"no2":35.0,"co":208.0,"o3":49.0,"so2":2.2,"mosquito_risk":3,"arthritis_risk":5,"migraine_risk":7,"frizz_risk":0,"updated_at":"2026-06-06T23:38:48.378426+05:30"},{"city":"Shimla","state":"Himachal Pradesh","latitude":31.1048,"longitude":77.1734,"temp":15.5,"humidity":48,"rain":0.0,"pressure":782.6,"uv_index":8.35,"wind_gusts":41.8,"aqi":82,"pm10":24.9,"pm2_5":16.6,"no2":22.8,"co":275.0,"o3":74.0,"so2":2.6,"mosquito_risk":0,"arthritis_risk":5,"migraine_risk":7,"frizz_risk":0,"updated_at":"2026-06-06T23:38:48.378434+05:30"},{"city":"Manali","state":"Himachal Pradesh","latitude":32.2396,"longitude":77.1887,"temp":13.6,"humidity":61,"rain":0.0,"pressure":815.2,"uv_index":9.9,"wind_gusts":37.1,"aqi":67,"pm10":6.1,"pm2_5":5.3,"no2":68.6,"co":332.0,"o3":58.0,"so2":0.0,"mosquito_risk":3,"arthritis_risk":5,"migraine_risk":7,"frizz_risk":0,"updated_at":"2026-06-06T23:38:48.378443+05:30"},{"city":"Gurgaon","state":"Haryana","latitude":28.4595,"longitude":77.0266,"temp":30.8,"humidity":49,"rain":0.0,"pressure":976.7,"uv_index":7.85,"wind_gusts":32.8,"aqi":257,"pm10":384.6,"pm2_5":121.1,"no2":92.0,"co":1074.0,"o3":6.0,"so2":30.1,"mosquito_risk":0,"arthritis_risk":5,"migraine_risk":7,"frizz_risk":1,"updated_at":"2026-06-06T23:38:48.378450+05:30"},{"city":"Noida","state":"Uttar Pradesh","latitude":28.5355,"longitude":77.391,"temp":29.7,"humidity":58,"rain":0.0,"pressure":979.7,"uv_index":7.8,"wind_gusts":19.8,"aqi":257,"pm10":384.6,"pm2_5":121.1,"no2":92.0,"co":1120.0,"o3":6.0,"so2":30.1,"mosquito_risk":4,"arthritis_risk":5,"migraine_risk":7,"frizz_risk":1,"updated_at":"2026-06-06T23:38:48.378456+05:30"},{"city":"Ghaziabad","state":"Uttar Pradesh","latitude":28.6692,"longitude":77.4538,"temp":29.2,"humidity":60,"rain":0.0,"pressure":977.9,"uv_index":7.8,"wind_gusts":28.8,"aqi":169,"pm10":350.2,"pm2_5":115.0,"no2":67.1,"co":1042.0,"o3":33.0,"so2":27.2,"mosquito_risk":4,"arthritis_risk":5,"migraine_risk":7,"frizz_risk":1,"updated_at":"2026-06-06T23:38:48.378462+05:30"},{"city":"Faridabad","state":"Haryana","latitude":28.4089,"longitude":77.3178,"temp":32.4,"humidity":40,"rain":0.0,"pressure":979.2,"uv_index":7.85,"wind_gusts":23.8,"aqi":257,"pm10":384.6,"pm2_5":121.1,"no2":92.0,"co":928.0,"o3":6.0,"so2":30.1,"mosquito_risk":0,"arthritis_risk":5,"migraine_risk":7,"frizz_risk":1,"updated_at":"2026-06-06T23:38:48.378468+05:30"},{"city":"Meerut","state":"Uttar Pradesh","latitude":28.9845,"longitude":77.7064,"temp":29.8,"humidity":57,"rain":0.0,"pressure":976.7,"uv_index":7.7,"wind_gusts":25.9,"aqi":169,"pm10":350.2,"pm2_5":115.0,"no2":67.1,"co":506.0,"o3":33.0,"so2":27.2,"mosquito_risk":4,"arthritis_risk":5,"migraine_risk":7,"frizz_risk":1,"updated_at":"2026-06-06T23:38:48.378474+05:30"},{"city":"Agra","state":"Uttar Pradesh","latitude":27.1767,"longitude":78.0081,"temp":31.7,"humidity":46,"rain":0.0,"pressure":983.7,"uv_index":8.1,"wind_gusts":31.0,"aqi":382,"pm10":342.7,"pm2_5":105.5,"no2":67.9,"co":577.0,"o3":19.0,"so2":20.5,"mosquito_risk":0,"arthritis_risk":5,"migraine_risk":7,"frizz_risk":1,"updated_at":"2026-06-06T23:38:48.378481+05:30"},{"city":"Varanasi","state":"Uttar Pradesh","latitude":25.3176,"longitude":82.9739,"temp":32.0,"humidity":57,"rain":0.0,"pressure":993.7,"uv_index":8.8,"wind_gusts":32.0,"aqi":157,"pm10":114.6,"pm2_5":87.5,"no2":49.2,"co":945.0,"o3":36.0,"so2":18.0,"mosquito_risk":0,"arthritis_risk":5,"migraine_risk":7,"frizz_risk":1,"updated_at":"2026-06-06T23:38:48.378487+05:30"},{"city":"Prayagraj","state":"Uttar Pradesh","latitude":25.4358,"longitude":81.8463,"temp":32.0,"humidity":60,"rain":0.0,"pressure":992.0,"uv_index":8.7,"wind_gusts":40.3,"aqi":153,"pm10":181.1,"pm2_5":98.5,"no2":52.9,"co":637.0,"o3":37.0,"so2":23.0,"mosquito_risk":0,"arthritis_risk":5,"migraine_risk":7,"frizz_risk":1,"updated_at":"2026-06-06T23:38:48.378494+05:30"},{"city":"Gorakhpur","state":"Uttar Pradesh","latitude":26.7606,"longitude":83.3732,"temp":29.0,"humidity":72,"rain":0.0,"pressure":993.6,"uv_index":8.7,"wind_gusts":36.7,"aqi":161,"pm10":72.2,"pm2_5":58.3,"no2":23.1,"co":522.0,"o3":63.0,"so2":9.5,"mosquito_risk":7,"arthritis_risk":5,"migraine_risk":7,"frizz_risk":1,"updated_at":"2026-06-06T23:38:48.378502+05:30"},{"city":"Bareilly","state":"Uttar Pradesh","latitude":28.367,"longitude":79.4304,"temp":28.9,"humidity":68,"rain":0.0,"pressure":982.5,"uv_index":8.1,"wind_gusts":25.9,"aqi":151,"pm10":48.5,"pm2_5":42.6,"no2":19.0,"co":592.0,"o3":73.0,"so2":6.4,"mosquito_risk":7,"arthritis_risk":5,"migraine_risk":7,"frizz_risk":1,"updated_at":"2026-06-06T23:38:48.378508+05:30"},{"city":"Aligarh","state":"Uttar Pradesh","latitude":27.8974,"longitude":78.088,"temp":30.4,"humidity":61,"rain":0.0,"pressure":981.2,"uv_index":7.95,"wind_gusts":26.3,"aqi":208,"pm10":351.1,"pm2_5":122.9,"no2":72.7,"co":754.0,"o3":33.0,"so2":22.5,"mosquito_risk":3,"arthritis_risk":5,"migraine_risk":7,"frizz_risk":1,"updated_at":"2026-06-06T23:38:48.378514+05:30"},{"city":"Moradabad","state":"Uttar Pradesh","latitude":28.8386,"longitude":78.7733,"temp":29.3,"humidity":63,"rain":0.0,"pressure":979.1,"uv_index":7.9,"wind_gusts":28.8,"aqi":161,"pm10":195.6,"pm2_5":109.9,"no2":73.6,"co":765.0,"o3":27.0,"so2":23.1,"mosquito_risk":7,"arthritis_risk":5,"migraine_risk":7,"frizz_risk":1,"updated_at":"2026-06-06T23:38:48.378520+05:30"},{"city":"Saharanpur","state":"Uttar Pradesh","latitude":29.9637,"longitude":77.546,"temp":27.9,"humidity":55,"rain":0.0,"pressure":970.9,"uv_index":7.5,"wind_gusts":28.1,"aqi":141,"pm10":145.8,"pm2_5":59.8,"no2":28.4,"co":418.0,"o3":87.0,"so2":14.9,"mosquito_risk":4,"arthritis_risk":5,"migraine_risk":7,"frizz_risk":1,"updated_at":"2026-06-06T23:38:48.378527+05:30"},{"city":"Jhansi","state":"Uttar Pradesh","latitude":25.4484,"longitude":78.5685,"temp":31.0,"humidity":48,"rain":0.0,"pressure":974.5,"uv_index":8.45,"wind_gusts":35.3,"aqi":77,"pm10":53.7,"pm2_5":30.7,"no2":14.7,"co":211.0,"o3":46.0,"so2":5.2,"mosquito_risk":0,"arthritis_risk":5,"migraine_risk":7,"frizz_risk":1,"updated_at":"2026-06-06T23:38:51.787320+05:30"},{"city":"Surat","state":"Gujarat","latitude":21.1702,"longitude":72.8311,"temp":30.4,"humidity":79,"rain":0.0,"pressure":1005.0,"uv_index":7.6,"wind_gusts":44.6,"aqi":88,"pm10":40.9,"pm2_5":21.0,"no2":14.0,"co":191.0,"o3":38.0,"so2":23.5,"mosquito_risk":3,"arthritis_risk":5,"migraine_risk":4,"frizz_risk":1,"updated_at":"2026-06-06T23:38:51.787351+05:30"},{"city":"Vadodara","state":"Gujarat","latitude":22.3072,"longitude":73.1812,"temp":30.7,"humidity":74,"rain":0.0,"pressure":1001.9,"uv_index":8.0,"wind_gusts":40.7,"aqi":89,"pm10":43.1,"pm2_5":24.7,"no2":19.4,"co":213.0,"o3":30.0,"so2":22.6,"mosquito_risk":3,"arthritis_risk":5,"migraine_risk":4,"frizz_risk":1,"updated_at":"2026-06-06T23:38:51.787362+05:30"},{"city":"Rajkot","state":"Gujarat","latitude":22.3039,"longitude":70.8022,"temp":30.7,"humidity":64,"rain":0.0,"pressure":992.1,"uv_index":7.55,"wind_gusts":46.1,"aqi":79,"pm10":36.8,"pm2_5":17.5,"no2":5.0,"co":121.0,"o3":47.0,"so2":4.7,"mosquito_risk":3,"arthritis_risk":5,"migraine_risk":7,"frizz_risk":1,"updated_at":"2026-06-06T23:38:51.787371+05:30"},{"city":"Thane","state":"Maharashtra","latitude":19.2183,"longitude":72.9781,"temp":30.1,"humidity":76,"rain":0.0,"pressure":1007.1,"uv_index":7.6,"wind_gusts":40.3,"aqi":74,"pm10":39.9,"pm2_5":17.8,"no2":7.9,"co":173.0,"o3":46.0,"so2":6.0,"mosquito_risk":3,"arthritis_risk":5,"migraine_risk":4,"frizz_risk":1,"updated_at":"2026-06-06T23:38:51.787379+05:30"},{"city":"Nagpur","state":"Maharashtra","latitude":21.1458,"longitude":79.0882,"temp":33.0,"humidity":44,"rain":0.0,"pressure":970.8,"uv_index":8.35,"wind_gusts":42.8,"aqi":69,"pm10":43.1,"pm2_5":26.7,"no2":16.2,"co":244.0,"o3":66.0,"so2":10.1,"mosquito_risk":0,"arthritis_risk":5,"migraine_risk":7,"frizz_risk":1,"updated_at":"2026-06-06T23:38:51.787387+05:30"},{"city":"Nashik","state":"Maharashtra","latitude":19.9975,"longitude":73.7898,"temp":25.7,"humidity":82,"rain":0.0,"pressure":945.3,"uv_index":8.05,"wind_gusts":41.0,"aqi":62,"pm10":29.7,"pm2_5":14.7,"no2":5.0,"co":134.0,"o3":48.0,"so2":2.5,"mosquito_risk":7,"arthritis_risk":5,"migraine_risk":7,"frizz_risk":1,"updated_at":"2026-06-06T23:38:51.787396+05:30"},{"city":"Aurangabad","state":"Maharashtra","latitude":19.8762,"longitude":75.3433,"temp":29.3,"humidity":60,"rain":0.0,"pressure":943.5,"uv_index":8.95,"wind_gusts":41.0,"aqi":65,"pm10":35.0,"pm2_5":20.1,"no2":5.5,"co":133.0,"o3":64.0,"so2":4.8,"mosquito_risk":4,"arthritis_risk":5,"migraine_risk":7,"frizz_risk":1,"updated_at":"2026-06-06T23:38:51.787404+05:30"},{"city":"Solapur","state":"Maharashtra","latitude":17.6599,"longitude":75.9064,"temp":27.9,"humidity":68,"rain":0.0,"pressure":956.7,"uv_index":8.95,"wind_gusts":47.2,"aqi":62,"pm10":12.1,"pm2_5":10.1,"no2":8.6,"co":160.0,"o3":54.0,"so2":2.5,"mosquito_risk":7,"arthritis_risk":5,"migraine_risk":7,"frizz_risk":1,"updated_at":"2026-06-06T23:38:51.787411+05:30"},{"city":"Kolhapur","state":"Maharashtra","latitude":16.705,"longitude":74.2433,"temp":24.3,"humidity":90,"rain":0.0,"pressure":948.1,"uv_index":7.95,"wind_gusts":47.2,"aqi":37,"pm10":9.1,"pm2_5":7.0,"no2":6.1,"co":138.0,"o3":45.0,"so2":2.0,"mosquito_risk":3,"arthritis_risk":5,"migraine_risk":7,"frizz_risk":1,"updated_at":"2026-06-06T23:38:51.787419+05:30"},{"city":"Goa","state":"Goa","latitude":15.2993,"longitude":74.124,"temp":25.8,"humidity":95,"rain":0.0,"pressure":998.5,"uv_index":7.0,"wind_gusts":29.5,"aqi":34,"pm10":19.1,"pm2_5":13.8,"no2":6.8,"co":306.0,"o3":44.0,"so2":1.4,"mosquito_risk":7,"arthritis_risk":5,"migraine_risk":7,"frizz_risk":1,"updated_at":"2026-06-06T23:38:51.787427+05:30"},{"city":"Jodhpur","state":"Rajasthan","latitude":26.2389,"longitude":73.0243,"temp":30.8,"humidity":57,"rain":0.0,"pressure":979.0,"uv_index":8.45,"wind_gusts":33.8,"aqi":128,"pm10":160.7,"pm2_5":45.4,"no2":8.2,"co":246.0,"o3":61.0,"so2":2.5,"mosquito_risk":0,"arthritis_risk":5,"migraine_risk":7,"frizz_risk":1,"updated_at":"2026-06-06T23:38:51.787435+05:30"},{"city":"Udaipur","state":"Rajasthan","latitude":24.5854,"longitude":73.7125,"temp":30.3,"humidity":54,"rain":0.0,"pressure":944.3,"uv_index":8.85,"wind_gusts":32.4,"aqi":93,"pm10":60.1,"pm2_5":31.5,"no2":5.0,"co":192.0,"o3":87.0,"so2":6.1,"mosquito_risk":0,"arthritis_risk":5,"migraine_risk":7,"frizz_risk":1,"updated_at":"2026-06-06T23:38:51.787444+05:30"},{"city":"Kota","state":"Rajasthan","latitude":25.2138,"longitude":75.8648,"temp":28.4,"humidity":69,"rain":0.0,"pressure":976.2,"uv_index":8.4,"wind_gusts":42.5,"aqi":90,"pm10":102.0,"pm2_5":56.9,"no2":27.3,"co":476.0,"o3":41.0,"so2":7.9,"mosquito_risk":7,"arthritis_risk":5,"migraine_risk":7,"frizz_risk":1,"updated_at":"2026-06-06T23:38:51.787451+05:30"},{"city":"Bikaner","state":"Rajasthan","latitude":28.0229,"longitude":73.3119,"temp":33.7,"humidity":39,"rain":0.0,"pressure":976.8,"uv_index":8.5,"wind_gusts":28.4,"aqi":107,"pm10":78.0,"pm2_5":34.2,"no2":4.1,"co":150.0,"o3":78.0,"so2":4.7,"mosquito_risk":0,"arthritis_risk":5,"migraine_risk":7,"frizz_risk":1,"updated_at":"2026-06-06T23:38:51.787459+05:30"},{"city":"Ajmer","state":"Rajasthan","latitude":26.4499,"longitude":74.6399,"temp":30.4,"humidity":48,"rain":0.0,"pressure":951.3,"uv_index":8.35,"wind_gusts":36.0,"aqi":105,"pm10":87.8,"pm2_5":34.7,"no2":4.7,"co":177.0,"o3":73.0,"so2":2.4,"mosquito_risk":0,"arthritis_risk":5,"migraine_risk":7,"frizz_risk":1,"updated_at":"2026-06-06T23:38:51.787467+05:30"},{"city":"Gwalior","state":"Madhya Pradesh","latitude":26.2183,"longitude":78.1828,"temp":31.2,"humidity":50,"rain":0.0,"pressure":979.7,"uv_index":8.25,"wind_gusts":32.4,"aqi":135,"pm10":149.9,"pm2_5":50.9,"no2":22.7,"co":296.0,"o3":57.0,"so2":8.4,"mosquito_risk":0,"arthritis_risk":5,"migraine_risk":7,"frizz_risk":1,"updated_at":"2026-06-06T23:38:51.787475+05:30"},{"city":"Indore","state":"Madhya Pradesh","latitude":22.7196,"longitude":75.8577,"temp":29.9,"humidity":57,"rain":0.0,"pressure":946.3,"uv_index":8.6,"wind_gusts":33.8,"aqi":91,"pm10":58.9,"pm2_5":39.0,"no2":15.8,"co":478.0,"o3":58.0,"so2":7.8,"mosquito_risk":4,"arthritis_risk":5,"migraine_risk":7,"frizz_risk":1,"updated_at":"2026-06-06T23:38:51.787482+05:30"},{"city":"Bhopal","state":"Madhya Pradesh","latitude":23.2599,"longitude":77.4126,"temp":27.2,"humidity":72,"rain":0.0,"pressure":951.5,"uv_index":8.7,"wind_gusts":38.9,"aqi":89,"pm10":48.8,"pm2_5":31.3,"no2":11.7,"co":489.0,"o3":58.0,"so2":5.2,"mosquito_risk":7,"arthritis_risk":5,"migraine_risk":7,"frizz_risk":1,"updated_at":"2026-06-06T23:38:51.787490+05:30"},{"city":"Jabalpur","state":"Madhya Pradesh","latitude":23.1815,"longitude":79.9864,"temp":28.7,"humidity":61,"rain":0.0,"pressure":958.6,"uv_index":8.35,"wind_gusts":39.6,"aqi":99,"pm10":141.6,"pm2_5":56.5,"no2":31.7,"co":387.0,"o3":60.0,"so2":9.0,"mosquito_risk":7,"arthritis_risk":5,"migraine_risk":7,"frizz_risk":1,"updated_at":"2026-06-06T23:38:51.787497+05:30"},{"city":"Ujjain","state":"Madhya Pradesh","latitude":23.1765,"longitude":75.7885,"temp":29.4,"humidity":58,"rain":0.0,"pressure":951.6,"uv_index":8.6,"wind_gusts":33.5,"aqi":88,"pm10":56.6,"pm2_5":34.2,"no2":4.5,"co":303.0,"o3":79.0,"so2":5.2,"mosquito_risk":4,"arthritis_risk":5,"migraine_risk":7,"frizz_risk":1,"updated_at":"2026-06-06T23:38:51.787506+05:30"},{"city":"Visakhapatnam","state":"Andhra Pradesh","latitude":17.6868,"longitude":83.2185,"temp":30.6,"humidity":85,"rain":0.0,"pressure":1000.5,"uv_index":8.6,"wind_gusts":35.6,"aqi":111,"pm10":35.9,"pm2_5":28.8,"no2":22.5,"co":325.0,"o3":83.0,"so2":31.5,"mosquito_risk":3,"arthritis_risk":5,"migraine_risk":4,"frizz_risk":1,"updated_at":"2026-06-06T23:38:51.787514+05:30"},{"city":"Vijayawada","state":"Andhra Pradesh","latitude":16.5062,"longitude":80.648,"temp":32.2,"humidity":58,"rain":0.0,"pressure":1000.3,"uv_index":8.8,"wind_gusts":33.1,"aqi":87,"pm10":22.6,"pm2_5":18.6,"no2":5.8,"co":208.0,"o3":100.0,"so2":4.9,"mosquito_risk":0,"arthritis_risk":5,"migraine_risk":4,"frizz_risk":1,"updated_at":"2026-06-06T23:38:51.787522+05:30"},{"city":"Guntur","state":"Andhra Pradesh","latitude":16.3067,"longitude":80.4365,"temp":31.3,"humidity":63,"rain":0.0,"pressure":1001.6,"uv_index":9.0,"wind_gusts":32.8,"aqi":85,"pm10":26.8,"pm2_5":22.2,"no2":7.9,"co":196.0,"o3":89.0,"so2":3.5,"mosquito_risk":3,"arthritis_risk":5,"migraine_risk":4,"frizz_risk":1,"updated_at":"2026-06-06T23:38:51.787530+05:30"},{"city":"Nellore","state":"Andhra Pradesh","latitude":14.4426,"longitude":79.9865,"temp":27.4,"humidity":87,"rain":0.0,"pressure":1004.9,"uv_index":8.45,"wind_gusts":37.8,"aqi":54,"pm10":17.3,"pm2_5":14.2,"no2":5.9,"co":163.0,"o3":80.0,"so2":2.5,"mosquito_risk":7,"arthritis_risk":5,"migraine_risk":4,"frizz_risk":1,"updated_at":"2026-06-06T23:38:51.787539+05:30"},{"city":"Kurnool","state":"Andhra Pradesh","latitude":15.8281,"longitude":78.0373,"temp":28.5,"humidity":72,"rain":0.0,"pressure":977.0,"uv_index":5.95,"wind_gusts":44.6,"aqi":65,"pm10":25.0,"pm2_5":18.7,"no2":8.7,"co":180.0,"o3":87.0,"so2":5.3,"mosquito_risk":7,"arthritis_risk":5,"migraine_risk":3,"frizz_risk":1,"updated_at":"2026-06-06T23:38:51.787547+05:30"},{"city":"Kakinada","state":"Andhra Pradesh","latitude":16.9891,"longitude":82.2475,"temp":30.6,"humidity":77,"rain":0.0,"pressure":1004.6,"uv_index":8.7,"wind_gusts":38.5,"aqi":78,"pm10":28.1,"pm2_5":19.8,"no2":2.5,"co":212.0,"o3":107.0,"so2":2.9,"mosquito_risk":3,"arthritis_risk":5,"migraine_risk":4,"frizz_risk":1,"updated_at":"2026-06-06T23:38:51.787559+05:30"},{"city":"Tirupati","state":"Andhra Pradesh","latitude":13.6288,"longitude":79.4192,"temp":27.6,"humidity":79,"rain":0.0,"pressure":990.6,"uv_index":8.6,"wind_gusts":35.3,"aqi":40,"pm10":9.8,"pm2_5":9.5,"no2":16.8,"co":226.0,"o3":38.0,"so2":2.0,"mosquito_risk":7,"arthritis_risk":5,"migraine_risk":7,"frizz_risk":1,"updated_at":"2026-06-06T23:38:51.787569+05:30"},{"city":"Warangal","state":"Telangana","latitude":17.9689,"longitude":79.5941,"temp":31.8,"humidity":54,"rain":0.0,"pressure":976.5,"uv_index":9.05,"wind_gusts":44.6,"aqi":99,"pm10":74.5,"pm2_5":56.6,"no2":33.2,"co":558.0,"o3":32.0,"so2":7.5,"mosquito_risk":0,"arthritis_risk":5,"migraine_risk":7,"frizz_risk":1,"updated_at":"2026-06-06T23:38:51.787576+05:30"},{"city":"Nizamabad","state":"Telangana","latitude":18.6725,"longitude":78.0941,"temp":30.6,"humidity":52,"rain":0.0,"pressure":962.8,"uv_index":9.05,"wind_gusts":42.5,"aqi":87,"pm10":58.4,"pm2_5":41.9,"no2":23.9,"co":311.0,"o3":45.0,"so2":5.1,"mosquito_risk":0,"arthritis_risk":5,"migraine_risk":7,"frizz_risk":1,"updated_at":"2026-06-06T23:38:51.787585+05:30"},{"city":"Mysore","state":"Karnataka","latitude":12.2958,"longitude":76.6396,"temp":21.4,"humidity":96,"rain":0.0,"pressure":928.9,"uv_index":6.45,"wind_gusts":55.1,"aqi":23,"pm10":3.8,"pm2_5":3.8,"no2":10.7,"co":201.0,"o3":38.0,"so2":1.9,"mosquito_risk":3,"arthritis_risk":5,"migraine_risk":7,"frizz_risk":1,"updated_at":"2026-06-06T23:38:51.787592+05:30"},{"city":"Mangalore","state":"Karnataka","latitude":12.9141,"longitude":74.856,"temp":24.5,"humidity":98,"rain":0.0,"pressure":1008.1,"uv_index":1.45,"wind_gusts":27.4,"aqi":24,"pm10":8.8,"pm2_5":7.7,"no2":11.8,"co":255.0,"o3":38.0,"so2":2.4,"mosquito_risk":3,"arthritis_risk":0,"migraine_risk":0,"frizz_risk":1,"updated_at":"2026-06-06T23:38:51.787602+05:30"},{"city":"Hubli-Dharwad","state":"Karnataka","latitude":15.3647,"longitude":75.124,"temp":23.5,"humidity":92,"rain":0.0,"pressure":941.2,"uv_index":8.4,"wind_gusts":37.8,"aqi":28,"pm10":3.5,"pm2_5":2.6,"no2":4.1,"co":133.0,"o3":49.0,"so2":0.9,"mosquito_risk":3,"arthritis_risk":5,"migraine_risk":7,"frizz_risk":1,"updated_at":"2026-06-06T23:38:51.787612+05:30"},{"city":"Belgaum","state":"Karnataka","latitude":15.8497,"longitude":74.4977,"temp":22.8,"humidity":96,"rain":0.0,"pressure":926.0,"uv_index":8.95,"wind_gusts":42.5,"aqi":29,"pm10":4.8,"pm2_5":3.8,"no2":4.1,"co":125.0,"o3":48.0,"so2":1.1,"mosquito_risk":3,"arthritis_risk":5,"migraine_risk":7,"frizz_risk":1,"updated_at":"2026-06-06T23:38:55.155639+05:30"},{"city":"Coimbatore","state":"Tamil Nadu","latitude":11.0168,"longitude":76.9558,"temp":24.0,"humidity":85,"rain":0.0,"pressure":962.7,"uv_index":8.9,"wind_gusts":47.5,"aqi":19,"pm10":2.1,"pm2_5":1.9,"no2":5.9,"co":216.0,"o3":37.0,"so2":2.0,"mosquito_risk":3,"arthritis_risk":5,"migraine_risk":7,"frizz_risk":1,"updated_at":"2026-06-06T23:38:55.155671+05:30"},{"city":"Madurai","state":"Tamil Nadu","latitude":9.9252,"longitude":78.1198,"temp":29.5,"humidity":60,"rain":0.0,"pressure":994.3,"uv_index":8.75,"wind_gusts":67.7,"aqi":28,"pm10":6.4,"pm2_5":4.8,"no2":7.2,"co":135.0,"o3":41.0,"so2":2.6,"mosquito_risk":4,"arthritis_risk":5,"migraine_risk":7,"frizz_risk":1,"updated_at":"2026-06-06T23:38:55.155683+05:30"},{"city":"Trichy","state":"Tamil Nadu","latitude":10.7905,"longitude":78.7047,"temp":29.3,"humidity":62,"rain":0.0,"pressure":1000.5,"uv_index":8.85,"wind_gusts":60.5,"aqi":29,"pm10":4.9,"pm2_5":3.5,"no2":6.1,"co":133.0,"o3":35.0,"so2":2.4,"mosquito_risk":7,"arthritis_risk":5,"migraine_risk":4,"frizz_risk":1,"updated_at":"2026-06-06T23:38:55.155692+05:30"},{"city":"Salem","state":"Tamil Nadu","latitude":11.6643,"longitude":78.146,"temp":26.7,"humidity":73,"rain":0.0,"pressure":978.6,"uv_index":8.65,"wind_gusts":54.0,"aqi":35,"pm10":8.7,"pm2_5":8.1,"no2":15.8,"co":214.0,"o3":32.0,"so2":6.0,"mosquito_risk":7,"arthritis_risk":5,"migraine_risk":7,"frizz_risk":1,"updated_at":"2026-06-06T23:38:55.155701+05:30"},{"city":"Tirunelveli","state":"Tamil Nadu","latitude":8.7139,"longitude":77.7567,"temp":28.5,"humidity":69,"rain":0.0,"pressure":1005.4,"uv_index":8.7,"wind_gusts":46.8,"aqi":22,"pm10":4.5,"pm2_5":3.4,"no2":5.6,"co":163.0,"o3":37.0,"so2":1.2,"mosquito_risk":7,"arthritis_risk":5,"migraine_risk":4,"frizz_risk":1,"updated_at":"2026-06-06T23:38:55.155710+05:30"},{"city":"Vellore","state":"Tamil Nadu","latitude":12.9165,"longitude":79.1325,"temp":29.6,"humidity":56,"rain":0.0,"pressure":984.2,"uv_index":8.95,"wind_gusts":39.6,"aqi":30,"pm10":9.9,"pm2_5":9.5,"no2":14.6,"co":248.0,"o3":42.0,"so2":4.1,"mosquito_risk":4,"arthritis_risk":5,"migraine_risk":7,"frizz_risk":1,"updated_at":"2026-06-06T23:38:55.155718+05:30"},{"city":"Erode","state":"Tamil Nadu","latitude":11.341,"longitude":77.7172,"temp":25.9,"humidity":79,"rain":0.0,"pressure":990.2,"uv_index":8.8,"wind_gusts":60.5,"aqi":25,"pm10":5.3,"pm2_5":4.8,"no2":10.3,"co":166.0,"o3":33.0,"so2":2.9,"mosquito_risk":7,"arthritis_risk":5,"migraine_risk":7,"frizz_risk":1,"updated_at":"2026-06-06T23:38:55.155726+05:30"},{"city":"Kochi","state":"Kerala","latitude":9.9312,"longitude":76.2673,"temp":25.6,"humidity":93,"rain":0.1,"pressure":1011.5,"uv_index":7.85,"wind_gusts":44.3,"aqi":39,"pm10":16.0,"pm2_5":11.1,"no2":14.2,"co":110.0,"o3":25.0,"so2":3.5,"mosquito_risk":10,"arthritis_risk":0,"migraine_risk":4,"frizz_risk":1,"updated_at":"2026-06-06T23:38:55.155733+05:30"},{"city":"Thiruvananthapuram","state":"Kerala","latitude":8.5241,"longitude":76.9366,"temp":24.6,"humidity":96,"rain":0.1,"pressure":1011.4,"uv_index":8.3,"wind_gusts":46.1,"aqi":25,"pm10":13.4,"pm2_5":6.2,"no2":1.9,"co":93.0,"o3":44.0,"so2":0.5,"mosquito_risk":6,"arthritis_risk":0,"migraine_risk":4,"frizz_risk":1,"updated_at":"2026-06-06T23:38:55.155741+05:30"},{"city":"Kozhikode","state":"Kerala","latitude":11.2588,"longitude":75.7804,"temp":24.5,"humidity":98,"rain":0.8,"pressure":1010.4,"uv_index":2.0,"wind_gusts":28.4,"aqi":26,"pm10":8.0,"pm2_5":4.2,"no2":1.1,"co":144.0,"o3":57.0,"so2":0.3,"mosquito_risk":6,"arthritis_risk":0,"migraine_risk":0,"frizz_risk":1,"updated_at":"2026-06-06T23:38:55.155748+05:30"},{"city":"Thrissur","state":"Kerala","latitude":10.5276,"longitude":76.2144,"temp":24.2,"humidity":98,"rain":0.1,"pressure":1009.9,"uv_index":6.8,"wind_gusts":34.9,"aqi":37,"pm10":14.5,"pm2_5":11.2,"no2":11.9,"co":354.0,"o3":28.0,"so2":3.1,"mosquito_risk":6,"arthritis_risk":0,"migraine_risk":4,"frizz_risk":1,"updated_at":"2026-06-06T23:38:55.155756+05:30"},{"city":"Kannur","state":"Kerala","latitude":11.8745,"longitude":75.3704,"temp":25.1,"humidity":95,"rain":0.2,"pressure":1008.8,"uv_index":0.8,"wind_gusts":31.7,"aqi":21,"pm10":5.4,"pm2_5":4.5,"no2":10.3,"co":212.0,"o3":38.0,"so2":1.5,"mosquito_risk":10,"arthritis_risk":0,"migraine_risk":0,"frizz_risk":1,"updated_at":"2026-06-06T23:38:55.155763+05:30"},{"city":"Patna","state":"Bihar","latitude":25.5941,"longitude":85.1376,"temp":29.8,"humidity":84,"rain":0.0,"pressure":997.1,"uv_index":8.9,"wind_gusts":27.4,"aqi":161,"pm10":74.3,"pm2_5":66.6,"no2":14.3,"co":477.0,"o3":118.0,"so2":9.4,"mosquito_risk":7,"arthritis_risk":5,"migraine_risk":7,"frizz_risk":1,"updated_at":"2026-06-06T23:38:55.155770+05:30"},{"city":"Gaya","state":"Bihar","latitude":24.7914,"longitude":85.0002,"temp":29.2,"humidity":69,"rain":0.0,"pressure":990.7,"uv_index":8.7,"wind_gusts":22.0,"aqi":154,"pm10":68.5,"pm2_5":59.1,"no2":10.1,"co":466.0,"o3":118.0,"so2":6.3,"mosquito_risk":7,"arthritis_risk":5,"migraine_risk":7,"frizz_risk":1,"updated_at":"2026-06-06T23:38:55.155777+05:30"},{"city":"Muzaffarpur","state":"Bihar","latitude":26.1209,"longitude":85.3647,"temp":27.8,"humidity":79,"rain":0.0,"pressure":997.4,"uv_index":8.9,"wind_gusts":39.6,"aqi":159,"pm10":82.9,"pm2_5":76.8,"no2":19.3,"co":578.0,"o3":97.0,"so2":12.0,"mosquito_risk":7,"arthritis_risk":5,"migraine_risk":7,"frizz_risk":1,"updated_at":"2026-06-06T23:38:55.155784+05:30"},{"city":"Bhagalpur","state":"Bihar","latitude":25.2425,"longitude":87.0117,"temp":27.8,"humidity":89,"rain":0.0,"pressure":998.3,"uv_index":8.75,"wind_gusts":31.7,"aqi":154,"pm10":65.0,"pm2_5":59.4,"no2":11.2,"co":399.0,"o3":132.0,"so2":15.2,"mosquito_risk":7,"arthritis_risk":5,"migraine_risk":7,"frizz_risk":1,"updated_at":"2026-06-06T23:38:55.155791+05:30"},{"city":"Ranchi","state":"Jharkhand","latitude":23.3441,"longitude":85.3096,"temp":24.1,"humidity":91,"rain":0.0,"pressure":935.0,"uv_index":9.3,"wind_gusts":33.1,"aqi":140,"pm10":76.8,"pm2_5":65.9,"no2":26.8,"co":371.0,"o3":50.0,"so2":7.5,"mosquito_risk":3,"arthritis_risk":5,"migraine_risk":7,"frizz_risk":1,"updated_at":"2026-06-06T23:38:55.155799+05:30"},{"city":"Jamshedpur","state":"Jharkhand","latitude":22.8046,"longitude":86.2029,"temp":28.5,"humidity":91,"rain":0.0,"pressure":987.8,"uv_index":9.1,"wind_gusts":34.9,"aqi":158,"pm10":103.6,"pm2_5":90.1,"no2":35.5,"co":705.0,"o3":73.0,"so2":45.3,"mosquito_risk":7,"arthritis_risk":5,"migraine_risk":7,"frizz_risk":1,"updated_at":"2026-06-06T23:38:55.155806+05:30"},{"city":"Dhanbad","state":"Jharkhand","latitude":23.7957,"longitude":86.4304,"temp":29.0,"humidity":83,"rain":0.0,"pressure":977.0,"uv_index":8.65,"wind_gusts":27.4,"aqi":173,"pm10":120.1,"pm2_5":109.9,"no2":54.6,"co":455.0,"o3":69.0,"so2":136.7,"mosquito_risk":7,"arthritis_risk":5,"migraine_risk":7,"frizz_risk":1,"updated_at":"2026-06-06T23:38:55.155813+05:30"},{"city":"Bokaro","state":"Jharkhand","latitude":23.6693,"longitude":86.1511,"temp":28.2,"humidity":90,"rain":0.0,"pressure":980.9,"uv_index":8.5,"wind_gusts":30.6,"aqi":163,"pm10":122.9,"pm2_5":108.5,"no2":51.4,"co":354.0,"o3":73.0,"so2":126.4,"mosquito_risk":7,"arthritis_risk":5,"migraine_risk":7,"frizz_risk":1,"updated_at":"2026-06-06T23:38:55.155820+05:30"},{"city":"Bhubaneswar","state":"Odisha","latitude":20.2961,"longitude":85.8245,"temp":30.0,"humidity":81,"rain":0.0,"pressure":998.4,"uv_index":8.9,"wind_gusts":29.5,"aqi":144,"pm10":42.8,"pm2_5":38.0,"no2":12.5,"co":557.0,"o3":103.0,"so2":8.1,"mosquito_risk":7,"arthritis_risk":5,"migraine_risk":7,"frizz_risk":1,"updated_at":"2026-06-06T23:38:55.155827+05:30"},{"city":"Cuttack","state":"Odisha","latitude":20.4625,"longitude":85.8828,"temp":30.4,"humidity":86,"rain":0.0,"pressure":1000.5,"uv_index":8.95,"wind_gusts":36.0,"aqi":144,"pm10":42.8,"pm2_5":38.0,"no2":12.5,"co":674.0,"o3":103.0,"so2":8.1,"mosquito_risk":3,"arthritis_risk":5,"migraine_risk":4,"frizz_risk":1,"updated_at":"2026-06-06T23:38:55.155834+05:30"},{"city":"Rourkela","state":"Odisha","latitude":22.2604,"longitude":84.8536,"temp":27.4,"humidity":87,"rain":0.0,"pressure":982.0,"uv_index":8.4,"wind_gusts":43.9,"aqi":154,"pm10":86.4,"pm2_5":68.7,"no2":15.7,"co":490.0,"o3":97.0,"so2":17.4,"mosquito_risk":7,"arthritis_risk":5,"migraine_risk":7,"frizz_risk":1,"updated_at":"2026-06-06T23:38:55.155841+05:30"},{"city":"Raipur","state":"Chhattisgarh","latitude":21.2514,"longitude":81.6296,"temp":31.9,"humidity":43,"rain":0.0,"pressure":971.9,"uv_index":8.8,"wind_gusts":33.5,"aqi":116,"pm10":65.0,"pm2_5":52.0,"no2":56.8,"co":326.0,"o3":19.0,"so2":53.1,"mosquito_risk":0,"arthritis_risk":5,"migraine_risk":7,"frizz_risk":1,"updated_at":"2026-06-06T23:38:55.155848+05:30"},{"city":"Bhilai","state":"Chhattisgarh","latitude":21.1938,"longitude":81.3509,"temp":30.9,"humidity":48,"rain":0.0,"pressure":972.4,"uv_index":8.95,"wind_gusts":43.6,"aqi":105,"pm10":64.0,"pm2_5":46.6,"no2":46.3,"co":331.0,"o3":27.0,"so2":42.2,"mosquito_risk":0,"arthritis_risk":5,"migraine_risk":7,"frizz_risk":1,"updated_at":"2026-06-06T23:38:55.155855+05:30"},{"city":"Guwahati","state":"Assam","latitude":26.1158,"longitude":91.7086,"temp":26.6,"humidity":93,"rain":0.0,"pressure":998.1,"uv_index":8.7,"wind_gusts":26.6,"aqi":87,"pm10":36.1,"pm2_5":34.3,"no2":14.9,"co":415.0,"o3":38.0,"so2":2.0,"mosquito_risk":7,"arthritis_risk":5,"migraine_risk":7,"frizz_risk":1,"updated_at":"2026-06-06T23:38:55.155862+05:30"},{"city":"Agartala","state":"Tripura","latitude":23.8315,"longitude":91.2868,"temp":28.6,"humidity":84,"rain":0.0,"pressure":1003.2,"uv_index":8.8,"wind_gusts":19.4,"aqi":152,"pm10":30.0,"pm2_5":28.0,"no2":12.0,"co":239.0,"o3":78.0,"so2":3.6,"mosquito_risk":7,"arthritis_risk":5,"migraine_risk":4,"frizz_risk":1,"updated_at":"2026-06-06T23:38:55.155869+05:30"},{"city":"Shillong","state":"Meghalaya","latitude":25.5788,"longitude":91.8933,"temp":18.6,"humidity":94,"rain":0.0,"pressure":855.1,"uv_index":8.65,"wind_gusts":20.5,"aqi":71,"pm10":30.0,"pm2_5":28.3,"no2":8.0,"co":256.0,"o3":82.0,"so2":3.1,"mosquito_risk":3,"arthritis_risk":10,"migraine_risk":7,"frizz_risk":1,"updated_at":"2026-06-06T23:38:55.155876+05:30"},{"city":"Imphal","state":"Manipur","latitude":24.817,"longitude":93.9368,"temp":22.8,"humidity":93,"rain":0.0,"pressure":920.5,"uv_index":9.05,"wind_gusts":27.7,"aqi":114,"pm10":53.7,"pm2_5":51.7,"no2":24.2,"co":713.0,"o3":18.0,"so2":2.6,"mosquito_risk":3,"arthritis_risk":5,"migraine_risk":7,"frizz_risk":1,"updated_at":"2026-06-06T23:38:55.155883+05:30"},{"city":"Aizawl","state":"Mizoram","latitude":23.7271,"longitude":92.7176,"temp":21.0,"humidity":90,"rain":0.0,"pressure":890.6,"uv_index":8.45,"wind_gusts":22.3,"aqi":110,"pm10":32.4,"pm2_5":29.2,"no2":5.5,"co":233.0,"o3":68.0,"so2":3.1,"mosquito_risk":3,"arthritis_risk":5,"migraine_risk":7,"frizz_risk":1,"updated_at":"2026-06-06T23:38:55.155890+05:30"},{"city":"Kohima","state":"Nagaland","latitude":25.6701,"longitude":94.1077,"temp":18.4,"humidity":98,"rain":0.1,"pressure":853.0,"uv_index":9.2,"wind_gusts":25.9,"aqi":70,"pm10":30.5,"pm2_5":27.9,"no2":12.3,"co":392.0,"o3":34.0,"so2":0.9,"mosquito_risk":6,"arthritis_risk":10,"migraine_risk":7,"frizz_risk":1,"updated_at":"2026-06-06T23:38:55.155897+05:30"},{"city":"Gangtok","state":"Sikkim","latitude":27.3314,"longitude":88.6138,"temp":17.1,"humidity":93,"rain":0.2,"pressure":836.6,"uv_index":9.1,"wind_gusts":33.8,"aqi":84,"pm10":18.4,"pm2_5":15.6,"no2":8.8,"co":480.0,"o3":116.0,"so2":3.0,"mosquito_risk":6,"arthritis_risk":10,"migraine_risk":7,"frizz_risk":0,"updated_at":"2026-06-06T23:38:55.155905+05:30"},{"city":"Siliguri","state":"West Bengal","latitude":26.7271,"longitude":88.3953,"temp":26.2,"humidity":90,"rain":0.1,"pressure":990.3,"uv_index":8.75,"wind_gusts":21.2,"aqi":95,"pm10":49.4,"pm2_5":42.5,"no2":15.5,"co":666.0,"o3":107.0,"so2":6.2,"mosquito_risk":10,"arthritis_risk":5,"migraine_risk":7,"frizz_risk":1,"updated_at":"2026-06-06T23:38:58.533448+05:30"},{"city":"Durgapur","state":"West Bengal","latitude":23.5204,"longitude":87.3119,"temp":27.8,"humidity":91,"rain":0.0,"pressure":991.9,"uv_index":9.05,"wind_gusts":36.7,"aqi":166,"pm10":92.2,"pm2_5":86.1,"no2":31.0,"co":764.0,"o3":78.0,"so2":30.8,"mosquito_risk":7,"arthritis_risk":5,"migraine_risk":7,"frizz_risk":1,"updated_at":"2026-06-06T23:38:58.533481+05:30"},{"city":"Asansol","state":"West Bengal","latitude":23.6739,"longitude":86.9524,"temp":28.5,"humidity":88,"rain":0.0,"pressure":990.5,"uv_index":9.05,"wind_gusts":27.4,"aqi":166,"pm10":89.6,"pm2_5":82.9,"no2":31.5,"co":1096.0,"o3":80.0,"so2":36.8,"mosquito_risk":7,"arthritis_risk":5,"migraine_risk":7,"frizz_risk":1,"updated_at":"2026-06-06T23:38:58.533493+05:30"},{"city":"Pondicherry","state":"Puducherry","latitude":11.9139,"longitude":79.8145,"temp":30.9,"humidity":50,"rain":0.0,"pressure":1007.9,"uv_index":8.7,"wind_gusts":50.4,"aqi":59,"pm10":17.2,"pm2_5":13.8,"no2":17.0,"co":194.0,"o3":44.0,"so2":6.4,"mosquito_risk":0,"arthritis_risk":5,"migraine_risk":4,"frizz_risk":1,"updated_at":"2026-06-06T23:38:58.533502+05:30"},{"city":"Port Blair","state":"Andaman and Nicobar Islands","latitude":11.6234,"longitude":92.7265,"temp":25.2,"humidity":97,"rain":0.0,"pressure":1008.0,"uv_index":7.85,"wind_gusts":42.1,"aqi":27,"pm10":9.6,"pm2_5":5.8,"no2":0.3,"co":93.0,"o3":60.0,"so2":0.5,"mosquito_risk":7,"arthritis_risk":0,"migraine_risk":4,"frizz_risk":1,"updated_at":"2026-06-06T23:38:58.533512+05:30"},{"city":"Haridwar","state":"Uttarakhand","latitude":29.9457,"longitude":78.1642,"temp":27.8,"humidity":60,"rain":0.0,"pressure":969.4,"uv_index":7.6,"wind_gusts":26.3,"aqi":116,"pm10":70.5,"pm2_5":57.9,"no2":40.9,"co":493.0,"o3":58.0,"so2":15.4,"mosquito_risk":4,"arthritis_risk":5,"migraine_risk":7,"frizz_risk":1,"updated_at":"2026-06-06T23:38:58.533520+05:30"},{"city":"Rishikesh","state":"Uttarakhand","latitude":30.0869,"longitude":78.2676,"temp":23.7,"humidity":73,"rain":0.0,"pressure":961.8,"uv_index":7.7,"wind_gusts":26.3,"aqi":123,"pm10":42.7,"pm2_5":33.6,"no2":20.9,"co":374.0,"o3":92.0,"so2":7.9,"mosquito_risk":3,"arthritis_risk":5,"migraine_risk":7,"frizz_risk":1,"updated_at":"2026-06-06T23:38:58.533528+05:30"},{"city":"Nainital","state":"Uttarakhand","latitude":29.3919,"longitude":79.4542,"temp":15.3,"humidity":77,"rain":0.0,"pressure":803.4,"uv_index":8.3,"wind_gusts":25.9,"aqi":94,"pm10":55.3,"pm2_5":39.8,"no2":27.0,"co":347.0,"o3":55.0,"so2":3.7,"mosquito_risk":3,"arthritis_risk":5,"migraine_risk":7,"frizz_risk":0,"updated_at":"2026-06-06T23:38:58.533536+05:30"},{"city":"Mussoorie","state":"Uttarakhand","latitude":30.4599,"longitude":78.0664,"temp":14.8,"humidity":65,"rain":0.0,"pressure":799.9,"uv_index":8.1,"wind_gusts":40.3,"aqi":109,"pm10":51.0,"pm2_5":41.7,"no2":44.8,"co":308.0,"o3":55.0,"so2":11.5,"mosquito_risk":3,"arthritis_risk":5,"migraine_risk":7,"frizz_risk":0,"updated_at":"2026-06-06T23:38:58.533544+05:30"},{"city":"Dharamshala","state":"Himachal Pradesh","latitude":32.219,"longitude":76.3234,"temp":22.1,"humidity":46,"rain":0.0,"pressure":866.6,"uv_index":8.5,"wind_gusts":42.8,"aqi":49,"pm10":13.2,"pm2_5":11.9,"no2":17.3,"co":219.0,"o3":34.0,"so2":0.2,"mosquito_risk":0,"arthritis_risk":5,"migraine_risk":7,"frizz_risk":0,"updated_at":"2026-06-06T23:38:58.533552+05:30"},{"city":"Dalhousie","state":"Himachal Pradesh","latitude":32.5387,"longitude":75.971,"temp":14.0,"humidity":63,"rain":0.0,"pressure":800.7,"uv_index":8.75,"wind_gusts":31.3,"aqi":92,"pm10":35.9,"pm2_5":30.9,"no2":47.5,"co":478.0,"o3":42.0,"so2":3.2,"mosquito_risk":3,"arthritis_risk":5,"migraine_risk":7,"frizz_risk":0,"updated_at":"2026-06-06T23:38:58.533561+05:30"},{"city":"Patiala","state":"Punjab","latitude":30.3398,"longitude":76.3869,"temp":30.6,"humidity":53,"rain":0.0,"pressure":973.1,"uv_index":7.7,"wind_gusts":33.1,"aqi":169,"pm10":99.4,"pm2_5":55.3,"no2":24.0,"co":890.0,"o3":60.0,"so2":8.4,"mosquito_risk":0,"arthritis_risk":5,"migraine_risk":7,"frizz_risk":1,"updated_at":"2026-06-06T23:38:58.533568+05:30"},{"city":"Bhatinda","state":"Punjab","latitude":30.211,"longitude":74.9455,"temp":32.7,"humidity":36,"rain":0.0,"pressure":978.7,"uv_index":8.35,"wind_gusts":29.5,"aqi":154,"pm10":89.2,"pm2_5":58.7,"no2":33.8,"co":516.0,"o3":69.0,"so2":13.4,"mosquito_risk":0,"arthritis_risk":5,"migraine_risk":7,"frizz_risk":0,"updated_at":"2026-06-06T23:38:58.533577+05:30"},{"city":"Rohtak","state":"Haryana","latitude":28.8955,"longitude":76.6066,"temp":30.3,"humidity":53,"rain":0.0,"pressure":976.8,"uv_index":7.8,"wind_gusts":18.7,"aqi":189,"pm10":424.7,"pm2_5":117.3,"no2":84.8,"co":597.0,"o3":13.0,"so2":20.1,"mosquito_risk":0,"arthritis_risk":5,"migraine_risk":7,"frizz_risk":1,"updated_at":"2026-06-06T23:38:58.533584+05:30"},{"city":"Panipat","state":"Haryana","latitude":29.3909,"longitude":76.9635,"temp":30.1,"humidity":56,"rain":0.0,"pressure":975.6,"uv_index":7.65,"wind_gusts":24.1,"aqi":337,"pm10":504.8,"pm2_5":117.6,"no2":38.6,"co":525.0,"o3":46.0,"so2":8.6,"mosquito_risk":0,"arthritis_risk":5,"migraine_risk":7,"frizz_risk":1,"updated_at":"2026-06-06T23:38:58.533592+05:30"},{"city":"Mathura","state":"Uttar Pradesh","latitude":27.4924,"longitude":77.6737,"temp":29.5,"humidity":59,"rain":0.0,"pressure":982.5,"uv_index":8.05,"wind_gusts":24.5,"aqi":220,"pm10":315.7,"pm2_5":90.6,"no2":55.4,"co":476.0,"o3":26.0,"so2":8.7,"mosquito_risk":4,"arthritis_risk":5,"migraine_risk":7,"frizz_risk":1,"updated_at":"2026-06-06T23:38:58.533599+05:30"},{"city":"Vrindavan","state":"Uttar Pradesh","latitude":27.5823,"longitude":77.7027,"temp":29.9,"humidity":57,"rain":0.0,"pressure":982.9,"uv_index":8.05,"wind_gusts":24.5,"aqi":220,"pm10":315.7,"pm2_5":90.6,"no2":55.4,"co":428.0,"o3":26.0,"so2":8.7,"mosquito_risk":4,"arthritis_risk":5,"migraine_risk":7,"frizz_risk":1,"updated_at":"2026-06-06T23:38:58.533607+05:30"},{"city":"Ayodhya","state":"Uttar Pradesh","latitude":26.7922,"longitude":82.1998,"temp":29.0,"humidity":77,"rain":0.0,"pressure":991.5,"uv_index":8.45,"wind_gusts":26.6,"aqi":153,"pm10":117.3,"pm2_5":73.1,"no2":34.1,"co":596.0,"o3":49.0,"so2":10.4,"mosquito_risk":7,"arthritis_risk":5,"migraine_risk":7,"frizz_risk":1,"updated_at":"2026-06-06T23:38:58.533614+05:30"},{"city":"Ratlam","state":"Madhya Pradesh","latitude":23.3315,"longitude":75.0367,"temp":29.8,"humidity":57,"rain":0.0,"pressure":952.6,"uv_index":8.5,"wind_gusts":38.2,"aqi":87,"pm10":55.9,"pm2_5":34.3,"no2":4.5,"co":221.0,"o3":74.0,"so2":4.7,"mosquito_risk":4,"arthritis_risk":5,"migraine_risk":7,"frizz_risk":1,"updated_at":"2026-06-06T23:38:58.533622+05:30"},{"city":"Sagar","state":"Madhya Pradesh","latitude":23.8388,"longitude":78.7378,"temp":29.6,"humidity":46,"rain":0.0,"pressure":947.6,"uv_index":8.7,"wind_gusts":41.4,"aqi":66,"pm10":48.2,"pm2_5":27.7,"no2":20.8,"co":228.0,"o3":50.0,"so2":4.5,"mosquito_risk":4,"arthritis_risk":5,"migraine_risk":7,"frizz_risk":1,"updated_at":"2026-06-06T23:38:58.533629+05:30"},{"city":"Satna","state":"Madhya Pradesh","latitude":24.6005,"longitude":80.8322,"temp":31.0,"humidity":44,"rain":0.0,"pressure":968.1,"uv_index":8.8,"wind_gusts":33.5,"aqi":136,"pm10":216.1,"pm2_5":67.8,"no2":26.5,"co":505.0,"o3":78.0,"so2":6.8,"mosquito_risk":0,"arthritis_risk":5,"migraine_risk":7,"frizz_risk":1,"updated_at":"2026-06-06T23:38:58.533637+05:30"},{"city":"Akola","state":"Maharashtra","latitude":20.7002,"longitude":77.0082,"temp":30.6,"humidity":65,"rain":0.0,"pressure":973.0,"uv_index":8.8,"wind_gusts":57.6,"aqi":81,"pm10":69.4,"pm2_5":42.1,"no2":33.0,"co":397.0,"o3":46.0,"so2":7.4,"mosquito_risk":3,"arthritis_risk":5,"migraine_risk":7,"frizz_risk":1,"updated_at":"2026-06-06T23:38:58.533645+05:30"},{"city":"Amravati","state":"Maharashtra","latitude":20.9374,"longitude":77.7796,"temp":31.8,"humidity":48,"rain":0.0,"pressure":965.4,"uv_index":8.85,"wind_gusts":43.6,"aqi":82,"pm10":65.4,"pm2_5":39.9,"no2":30.8,"co":258.0,"o3":46.0,"so2":7.3,"mosquito_risk":0,"arthritis_risk":5,"migraine_risk":7,"frizz_risk":1,"updated_at":"2026-06-06T23:38:58.533654+05:30"},{"city":"Latur","state":"Maharashtra","latitude":18.4088,"longitude":76.5604,"temp":27.5,"humidity":63,"rain":0.0,"pressure":939.2,"uv_index":8.75,"wind_gusts":37.4,"aqi":73,"pm10":29.0,"pm2_5":19.2,"no2":6.7,"co":187.0,"o3":76.0,"so2":3.1,"mosquito_risk":7,"arthritis_risk":5,"migraine_risk":7,"frizz_risk":1,"updated_at":"2026-06-06T23:38:58.533662+05:30"},{"city":"Nanded","state":"Maharashtra","latitude":19.1383,"longitude":77.3091,"temp":31.8,"humidity":44,"rain":0.0,"pressure":966.6,"uv_index":8.9,"wind_gusts":32.8,"aqi":80,"pm10":69.4,"pm2_5":45.4,"no2":34.8,"co":385.0,"o3":33.0,"so2":6.0,"mosquito_risk":0,"arthritis_risk":5,"migraine_risk":7,"frizz_risk":1,"updated_at":"2026-06-06T23:38:58.533669+05:30"},{"city":"Gulbarga","state":"Karnataka","latitude":17.3297,"longitude":76.8343,"temp":27.3,"humidity":68,"rain":0.0,"pressure":958.3,"uv_index":8.95,"wind_gusts":40.7,"aqi":65,"pm10":12.1,"pm2_5":10.0,"no2":8.8,"co":204.0,"o3":70.0,"so2":2.3,"mosquito_risk":7,"arthritis_risk":5,"migraine_risk":7,"frizz_risk":1,"updated_at":"2026-06-06T23:38:58.533677+05:30"},{"city":"Bidar","state":"Karnataka","latitude":17.9104,"longitude":77.5199,"temp":28.0,"humidity":58,"rain":0.0,"pressure":934.7,"uv_index":8.35,"wind_gusts":35.3,"aqi":86,"pm10":52.4,"pm2_5":38.2,"no2":32.2,"co":262.0,"o3":39.0,"so2":5.0,"mosquito_risk":4,"arthritis_risk":5,"migraine_risk":7,"frizz_risk":1,"updated_at":"2026-06-06T23:38:58.533685+05:30"},{"city":"Hospet","state":"Karnataka","latitude":15.2689,"longitude":76.3909,"temp":25.0,"humidity":87,"rain":0.1,"pressure":956.3,"uv_index":8.9,"wind_gusts":35.3,"aqi":34,"pm10":3.1,"pm2_5":2.9,"no2":6.2,"co":186.0,"o3":51.0,"so2":1.4,"mosquito_risk":10,"arthritis_risk":5,"migraine_risk":7,"frizz_risk":1,"updated_at":"2026-06-06T23:38:58.533692+05:30"},{"city":"Tirupur","state":"Tamil Nadu","latitude":11.1085,"longitude":77.3411,"temp":24.7,"humidity":85,"rain":0.0,"pressure":976.2,"uv_index":8.95,"wind_gusts":63.4,"aqi":28,"pm10":5.7,"pm2_5":5.4,"no2":11.4,"co":159.0,"o3":32.0,"so2":3.5,"mosquito_risk":3,"arthritis_risk":5,"migraine_risk":7,"frizz_risk":1,"updated_at":"2026-06-06T23:38:58.533700+05:30"},{"city":"Alappuzha","state":"Kerala","latitude":9.4981,"longitude":76.3388,"temp":26.0,"humidity":93,"rain":0.1,"pressure":1011.5,"uv_index":8.15,"wind_gusts":43.9,"aqi":35,"pm10":13.8,"pm2_5":7.4,"no2":5.1,"co":83.0,"o3":43.0,"so2":1.2,"mosquito_risk":10,"arthritis_risk":0,"migraine_risk":4,"frizz_risk":1,"updated_at":"2026-06-06T23:38:58.533707+05:30"},{"city":"Munnar","state":"Kerala","latitude":10.0889,"longitude":77.0595,"temp":17.3,"humidity":100,"rain":0.4,"pressure":858.0,"uv_index":8.75,"wind_gusts":47.5,"aqi":21,"pm10":2.6,"pm2_5":2.4,"no2":7.3,"co":98.0,"o3":32.0,"so2":1.8,"mosquito_risk":6,"arthritis_risk":10,"migraine_risk":7,"frizz_risk":1,"updated_at":"2026-06-06T23:38:58.533715+05:30"},{"city":"Silchar","state":"Assam","latitude":24.8333,"longitude":92.7789,"temp":28.0,"humidity":88,"rain":0.0,"pressure":1001.1,"uv_index":8.9,"wind_gusts":20.5,"aqi":148,"pm10":74.0,"pm2_5":67.1,"no2":16.9,"co":660.0,"o3":94.0,"so2":8.1,"mosquito_risk":7,"arthritis_risk":5,"migraine_risk":4,"frizz_risk":1,"updated_at":"2026-06-06T23:38:58.533723+05:30"},{"city":"Dibrugarh","state":"Assam","latitude":27.4728,"longitude":94.912,"temp":25.5,"humidity":93,"rain":0.0,"pressure":991.8,"uv_index":8.95,"wind_gusts":35.6,"aqi":117,"pm10":36.6,"pm2_5":34.7,"no2":19.4,"co":347.0,"o3":46.0,"so2":2.3,"mosquito_risk":7,"arthritis_risk":5,"migraine_risk":7,"frizz_risk":1,"updated_at":"2026-06-06T23:38:58.533731+05:30"}]