[{"city":"Delhi","state":"Delhi","latitude":28.6139,"longitude":77.209,"temp":34.0,"humidity":26,"rain":0.0,"pressure":979.9,"uv_index":7.7,"wind_gusts":42.1,"aqi":466,"pm10":909.0,"pm2_5":187.2,"no2":35.4,"co":576.0,"o3":52.0,"so2":16.6,"mosquito_risk":0,"arthritis_risk":5,"migraine_risk":7,"frizz_risk":0,"updated_at":"2026-05-16T23:27:02.995576+05:30"},{"city":"Mumbai","state":"Maharashtra","latitude":19.076,"longitude":72.8777,"temp":29.1,"humidity":81,"rain":0.0,"pressure":1005.9,"uv_index":7.85,"wind_gusts":50.0,"aqi":59,"pm10":39.5,"pm2_5":16.4,"no2":8.5,"co":216.0,"o3":52.0,"so2":5.1,"mosquito_risk":7,"arthritis_risk":5,"migraine_risk":4,"frizz_risk":1,"updated_at":"2026-05-16T23:27:02.995614+05:30"},{"city":"Bangalore","state":"Karnataka","latitude":12.9716,"longitude":77.5946,"temp":23.3,"humidity":84,"rain":0.0,"pressure":909.4,"uv_index":8.8,"wind_gusts":41.0,"aqi":154,"pm10":134.1,"pm2_5":98.0,"no2":94.5,"co":669.0,"o3":16.0,"so2":26.9,"mosquito_risk":3,"arthritis_risk":5,"migraine_risk":7,"frizz_risk":1,"updated_at":"2026-05-16T23:27:02.995629+05:30"},{"city":"Hyderabad","state":"Telangana","latitude":17.385,"longitude":78.4867,"temp":30.4,"humidity":56,"rain":0.0,"pressure":951.3,"uv_index":9.3,"wind_gusts":41.0,"aqi":145,"pm10":48.9,"pm2_5":35.4,"no2":13.9,"co":460.0,"o3":74.0,"so2":5.7,"mosquito_risk":0,"arthritis_risk":5,"migraine_risk":7,"frizz_risk":1,"updated_at":"2026-05-16T23:27:02.995639+05:30"},{"city":"Chennai","state":"Tamil Nadu","latitude":13.0827,"longitude":80.2707,"temp":29.2,"humidity":80,"rain":0.0,"pressure":1004.2,"uv_index":8.85,"wind_gusts":33.5,"aqi":40,"pm10":11.3,"pm2_5":8.5,"no2":8.6,"co":248.0,"o3":77.0,"so2":5.8,"mosquito_risk":7,"arthritis_risk":5,"migraine_risk":4,"frizz_risk":1,"updated_at":"2026-05-16T23:27:02.995647+05:30"},{"city":"Kolkata","state":"West Bengal","latitude":22.5726,"longitude":88.3639,"temp":28.4,"humidity":88,"rain":0.0,"pressure":1003.5,"uv_index":9.0,"wind_gusts":33.5,"aqi":57,"pm10":21.1,"pm2_5":14.3,"no2":6.8,"co":227.0,"o3":40.0,"so2":4.1,"mosquito_risk":7,"arthritis_risk":5,"migraine_risk":4,"frizz_risk":1,"updated_at":"2026-05-16T23:27:02.995655+05:30"},{"city":"Pune","state":"Maharashtra","latitude":18.5204,"longitude":73.8567,"temp":28.2,"humidity":73,"rain":0.0,"pressure":946.0,"uv_index":8.5,"wind_gusts":40.3,"aqi":92,"pm10":33.1,"pm2_5":23.2,"no2":15.4,"co":254.0,"o3":93.0,"so2":19.7,"mosquito_risk":7,"arthritis_risk":5,"migraine_risk":7,"frizz_risk":1,"updated_at":"2026-05-16T23:27:02.995662+05:30"},{"city":"Ahmedabad","state":"Gujarat","latitude":23.0225,"longitude":72.5714,"temp":35.4,"humidity":27,"rain":0.0,"pressure":998.8,"uv_index":8.15,"wind_gusts":32.4,"aqi":59,"pm10":46.4,"pm2_5":23.4,"no2":15.5,"co":296.0,"o3":51.0,"so2":5.5,"mosquito_risk":0,"arthritis_risk":5,"migraine_risk":10,"frizz_risk":0,"updated_at":"2026-05-16T23:27:02.995668+05:30"},{"city":"Jaipur","state":"Rajasthan","latitude":26.9124,"longitude":75.7873,"temp":32.5,"humidity":27,"rain":0.0,"pressure":957.7,"uv_index":8.25,"wind_gusts":35.6,"aqi":162,"pm10":170.9,"pm2_5":51.6,"no2":28.6,"co":348.0,"o3":48.0,"so2":9.7,"mosquito_risk":0,"arthritis_risk":5,"migraine_risk":7,"frizz_risk":0,"updated_at":"2026-05-16T23:27:02.995679+05:30"},{"city":"Lucknow","state":"Uttar Pradesh","latitude":26.8467,"longitude":80.9462,"temp":32.3,"humidity":36,"rain":0.0,"pressure":989.6,"uv_index":8.2,"wind_gusts":35.6,"aqi":155,"pm10":204.9,"pm2_5":66.6,"no2":23.9,"co":350.0,"o3":63.0,"so2":12.8,"mosquito_risk":0,"arthritis_risk":5,"migraine_risk":7,"frizz_risk":0,"updated_at":"2026-05-16T23:27:02.995686+05:30"},{"city":"Kanpur","state":"Uttar Pradesh","latitude":26.4499,"longitude":80.3319,"temp":32.8,"humidity":31,"rain":0.0,"pressure":988.1,"uv_index":8.2,"wind_gusts":36.0,"aqi":153,"pm10":284.1,"pm2_5":75.7,"no2":22.8,"co":351.0,"o3":59.0,"so2":11.3,"mosquito_risk":0,"arthritis_risk":5,"migraine_risk":7,"frizz_risk":0,"updated_at":"2026-05-16T23:27:02.995692+05:30"},{"city":"Chandigarh","state":"Chandigarh","latitude":30.7333,"longitude":76.7794,"temp":26.8,"humidity":45,"rain":0.0,"pressure":965.1,"uv_index":7.7,"wind_gusts":36.7,"aqi":98,"pm10":42.0,"pm2_5":30.2,"no2":20.8,"co":609.0,"o3":85.0,"so2":10.5,"mosquito_risk":4,"arthritis_risk":5,"migraine_risk":7,"frizz_risk":0,"updated_at":"2026-05-16T23:27:02.995699+05:30"},{"city":"Srinagar","state":"Jammu and Kashmir","latitude":34.0837,"longitude":74.7973,"temp":14.6,"humidity":84,"rain":0.0,"pressure":841.7,"uv_index":8.9,"wind_gusts":27.4,"aqi":90,"pm10":35.3,"pm2_5":30.5,"no2":32.3,"co":1145.0,"o3":45.0,"so2":3.8,"mosquito_risk":3,"arthritis_risk":10,"migraine_risk":7,"frizz_risk":0,"updated_at":"2026-05-16T23:27:02.995706+05:30"},{"city":"Jammu","state":"Jammu and Kashmir","latitude":32.7266,"longitude":74.857,"temp":23.2,"humidity":68,"rain":0.0,"pressure":969.1,"uv_index":8.45,"wind_gusts":28.4,"aqi":86,"pm10":41.3,"pm2_5":37.0,"no2":49.0,"co":570.0,"o3":23.0,"so2":5.5,"mosquito_risk":3,"arthritis_risk":5,"migraine_risk":7,"frizz_risk":1,"updated_at":"2026-05-16T23:27:02.995712+05:30"},{"city":"Amritsar","state":"Punjab","latitude":31.634,"longitude":74.8723,"temp":28.1,"humidity":50,"rain":0.0,"pressure":977.4,"uv_index":8.35,"wind_gusts":28.4,"aqi":108,"pm10":82.9,"pm2_5":60.1,"no2":58.0,"co":601.0,"o3":31.0,"so2":12.1,"mosquito_risk":4,"arthritis_risk":5,"migraine_risk":7,"frizz_risk":1,"updated_at":"2026-05-16T23:27:02.995718+05:30"},{"city":"Ludhiana","state":"Punjab","latitude":30.901,"longitude":75.8573,"temp":29.0,"humidity":39,"rain":0.0,"pressure":975.4,"uv_index":7.95,"wind_gusts":42.8,"aqi":111,"pm10":63.3,"pm2_5":39.1,"no2":18.4,"co":654.0,"o3":83.0,"so2":8.2,"mosquito_risk":4,"arthritis_risk":5,"migraine_risk":7,"frizz_risk":0,"updated_at":"2026-05-16T23:27:02.995724+05:30"},{"city":"Jalandhar","state":"Punjab","latitude":31.326,"longitude":75.5762,"temp":27.2,"humidity":54,"rain":0.0,"pressure":976.3,"uv_index":8.15,"wind_gusts":36.4,"aqi":128,"pm10":61.7,"pm2_5":48.0,"no2":28.5,"co":1681.0,"o3":67.0,"so2":9.5,"mosquito_risk":4,"arthritis_risk":5,"migraine_risk":7,"frizz_risk":1,"updated_at":"2026-05-16T23:27:02.995730+05:30"},{"city":"Dehradun","state":"Uttarakhand","latitude":30.6284,"longitude":78.0322,"temp":14.7,"humidity":72,"rain":0.0,"pressure":826.4,"uv_index":8.1,"wind_gusts":37.4,"aqi":54,"pm10":46.9,"pm2_5":23.7,"no2":38.9,"co":192.0,"o3":43.0,"so2":2.0,"mosquito_risk":3,"arthritis_risk":5,"migraine_risk":7,"frizz_risk":0,"updated_at":"2026-05-16T23:27:02.995736+05:30"},{"city":"Shimla","state":"Himachal Pradesh","latitude":31.1048,"longitude":77.1734,"temp":14.7,"humidity":50,"rain":0.0,"pressure":782.8,"uv_index":8.2,"wind_gusts":45.0,"aqi":79,"pm10":57.9,"pm2_5":24.2,"no2":21.0,"co":271.0,"o3":83.0,"so2":2.9,"mosquito_risk":0,"arthritis_risk":5,"migraine_risk":7,"frizz_risk":0,"updated_at":"2026-05-16T23:27:02.995745+05:30"},{"city":"Manali","state":"Himachal Pradesh","latitude":32.2396,"longitude":77.1887,"temp":8.4,"humidity":71,"rain":0.0,"pressure":812.5,"uv_index":9.9,"wind_gusts":38.2,"aqi":95,"pm10":12.5,"pm2_5":9.9,"no2":58.3,"co":378.0,"o3":70.0,"so2":0.1,"mosquito_risk":3,"arthritis_risk":5,"migraine_risk":7,"frizz_risk":0,"updated_at":"2026-05-16T23:27:02.995751+05:30"},{"city":"Gurgaon","state":"Haryana","latitude":28.4595,"longitude":77.0266,"temp":30.0,"humidity":38,"rain":0.0,"pressure":978.3,"uv_index":7.8,"wind_gusts":41.0,"aqi":680,"pm10":935.0,"pm2_5":173.2,"no2":44.6,"co":761.0,"o3":44.0,"so2":19.3,"mosquito_risk":4,"arthritis_risk":5,"migraine_risk":7,"frizz_risk":0,"updated_at":"2026-05-16T23:27:02.995758+05:30"},{"city":"Noida","state":"Uttar Pradesh","latitude":28.5355,"longitude":77.391,"temp":31.2,"humidity":36,"rain":0.0,"pressure":981.1,"uv_index":7.7,"wind_gusts":31.3,"aqi":680,"pm10":935.0,"pm2_5":173.2,"no2":44.6,"co":748.0,"o3":44.0,"so2":19.3,"mosquito_risk":0,"arthritis_risk":5,"migraine_risk":7,"frizz_risk":0,"updated_at":"2026-05-16T23:27:02.995764+05:30"},{"city":"Ghaziabad","state":"Uttar Pradesh","latitude":28.6692,"longitude":77.4538,"temp":29.2,"humidity":42,"rain":0.0,"pressure":979.3,"uv_index":7.7,"wind_gusts":38.9,"aqi":260,"pm10":752.5,"pm2_5":162.5,"no2":28.0,"co":403.0,"o3":59.0,"so2":16.4,"mosquito_risk":4,"arthritis_risk":5,"migraine_risk":7,"frizz_risk":0,"updated_at":"2026-05-16T23:27:02.995770+05:30"},{"city":"Faridabad","state":"Haryana","latitude":28.4089,"longitude":77.3178,"temp":33.3,"humidity":27,"rain":0.0,"pressure":980.7,"uv_index":7.75,"wind_gusts":41.0,"aqi":680,"pm10":935.0,"pm2_5":173.2,"no2":44.6,"co":714.0,"o3":44.0,"so2":19.3,"mosquito_risk":0,"arthritis_risk":5,"migraine_risk":7,"frizz_risk":0,"updated_at":"2026-05-16T23:27:02.995778+05:30"},{"city":"Meerut","state":"Uttar Pradesh","latitude":28.9845,"longitude":77.7064,"temp":30.0,"humidity":35,"rain":0.0,"pressure":978.0,"uv_index":7.6,"wind_gusts":41.4,"aqi":260,"pm10":752.5,"pm2_5":162.5,"no2":28.0,"co":368.0,"o3":59.0,"so2":16.4,"mosquito_risk":4,"arthritis_risk":5,"migraine_risk":7,"frizz_risk":0,"updated_at":"2026-05-16T23:27:02.995785+05:30"},{"city":"Agra","state":"Uttar Pradesh","latitude":27.1767,"longitude":78.0081,"temp":32.0,"humidity":32,"rain":0.0,"pressure":984.6,"uv_index":8.05,"wind_gusts":32.4,"aqi":464,"pm10":707.8,"pm2_5":134.6,"no2":24.7,"co":367.0,"o3":65.0,"so2":12.9,"mosquito_risk":0,"arthritis_risk":5,"migraine_risk":7,"frizz_risk":0,"updated_at":"2026-05-16T23:27:02.995791+05:30"},{"city":"Varanasi","state":"Uttar Pradesh","latitude":25.3176,"longitude":82.9739,"temp":32.8,"humidity":34,"rain":0.0,"pressure":994.0,"uv_index":8.7,"wind_gusts":40.3,"aqi":157,"pm10":194.6,"pm2_5":90.1,"no2":53.5,"co":534.0,"o3":54.0,"so2":24.2,"mosquito_risk":0,"arthritis_risk":5,"migraine_risk":7,"frizz_risk":0,"updated_at":"2026-05-16T23:27:02.995798+05:30"},{"city":"Prayagraj","state":"Uttar Pradesh","latitude":25.4358,"longitude":81.8463,"temp":33.0,"humidity":35,"rain":0.0,"pressure":992.2,"uv_index":8.6,"wind_gusts":38.5,"aqi":154,"pm10":127.1,"pm2_5":64.5,"no2":37.1,"co":435.0,"o3":45.0,"so2":15.7,"mosquito_risk":0,"arthritis_risk":5,"migraine_risk":7,"frizz_risk":0,"updated_at":"2026-05-16T23:27:02.995805+05:30"},{"city":"Gorakhpur","state":"Uttar Pradesh","latitude":26.7606,"longitude":83.3732,"temp":28.5,"humidity":62,"rain":0.0,"pressure":993.1,"uv_index":8.6,"wind_gusts":31.3,"aqi":151,"pm10":123.9,"pm2_5":66.8,"no2":37.0,"co":556.0,"o3":60.0,"so2":17.3,"mosquito_risk":7,"arthritis_risk":5,"migraine_risk":7,"frizz_risk":1,"updated_at":"2026-05-16T23:27:02.995813+05:30"},{"city":"Bareilly","state":"Uttar Pradesh","latitude":28.367,"longitude":79.4304,"temp":28.3,"humidity":45,"rain":0.0,"pressure":982.6,"uv_index":8.0,"wind_gusts":29.2,"aqi":140,"pm10":79.6,"pm2_5":54.6,"no2":24.7,"co":329.0,"o3":74.0,"so2":13.5,"mosquito_risk":4,"arthritis_risk":5,"migraine_risk":7,"frizz_risk":0,"updated_at":"2026-05-16T23:27:02.995820+05:30"},{"city":"Aligarh","state":"Uttar Pradesh","latitude":27.8974,"longitude":78.088,"temp":29.4,"humidity":40,"rain":0.0,"pressure":982.2,"uv_index":7.85,"wind_gusts":35.6,"aqi":324,"pm10":631.4,"pm2_5":143.9,"no2":32.2,"co":447.0,"o3":54.0,"so2":13.6,"mosquito_risk":4,"arthritis_risk":5,"migraine_risk":7,"frizz_risk":0,"updated_at":"2026-05-16T23:27:02.995828+05:30"},{"city":"Moradabad","state":"Uttar Pradesh","latitude":28.8386,"longitude":78.7733,"temp":28.9,"humidity":47,"rain":0.0,"pressure":979.8,"uv_index":7.85,"wind_gusts":46.8,"aqi":154,"pm10":157.9,"pm2_5":85.2,"no2":47.2,"co":490.0,"o3":32.0,"so2":14.0,"mosquito_risk":4,"arthritis_risk":5,"migraine_risk":7,"frizz_risk":1,"updated_at":"2026-05-16T23:27:02.995834+05:30"},{"city":"Saharanpur","state":"Uttar Pradesh","latitude":29.9637,"longitude":77.546,"temp":28.4,"humidity":40,"rain":0.0,"pressure":971.8,"uv_index":7.4,"wind_gusts":40.7,"aqi":137,"pm10":60.1,"pm2_5":32.1,"no2":13.4,"co":318.0,"o3":96.0,"so2":9.9,"mosquito_risk":4,"arthritis_risk":5,"migraine_risk":7,"frizz_risk":0,"updated_at":"2026-05-16T23:27:02.995841+05:30"},{"city":"Jhansi","state":"Uttar Pradesh","latitude":25.4484,"longitude":78.5685,"temp":33.7,"humidity":27,"rain":0.0,"pressure":974.5,"uv_index":8.5,"wind_gusts":23.0,"aqi":90,"pm10":75.2,"pm2_5":32.2,"no2":11.8,"co":267.0,"o3":75.0,"so2":7.5,"mosquito_risk":0,"arthritis_risk":5,"migraine_risk":7,"frizz_risk":0,"updated_at":"2026-05-16T23:27:06.275291+05:30"},{"city":"Surat","state":"Gujarat","latitude":21.1702,"longitude":72.8311,"temp":30.5,"humidity":78,"rain":0.0,"pressure":1003.5,"uv_index":7.75,"wind_gusts":36.7,"aqi":84,"pm10":28.9,"pm2_5":20.7,"no2":28.6,"co":379.0,"o3":33.0,"so2":43.3,"mosquito_risk":3,"arthritis_risk":5,"migraine_risk":4,"frizz_risk":1,"updated_at":"2026-05-16T23:27:06.275322+05:30"},{"city":"Vadodara","state":"Gujarat","latitude":22.3072,"longitude":73.1812,"temp":33.0,"humidity":43,"rain":0.0,"pressure":1001.0,"uv_index":8.1,"wind_gusts":31.7,"aqi":68,"pm10":54.4,"pm2_5":29.7,"no2":26.0,"co":273.0,"o3":53.0,"so2":12.7,"mosquito_risk":0,"arthritis_risk":5,"migraine_risk":4,"frizz_risk":1,"updated_at":"2026-05-16T23:27:06.275335+05:30"},{"city":"Rajkot","state":"Gujarat","latitude":22.3039,"longitude":70.8022,"temp":28.6,"humidity":75,"rain":0.0,"pressure":992.1,"uv_index":7.75,"wind_gusts":38.5,"aqi":53,"pm10":31.3,"pm2_5":14.0,"no2":7.3,"co":151.0,"o3":52.0,"so2":5.5,"mosquito_risk":7,"arthritis_risk":5,"migraine_risk":7,"frizz_risk":1,"updated_at":"2026-05-16T23:27:06.275345+05:30"},{"city":"Thane","state":"Maharashtra","latitude":19.2183,"longitude":72.9781,"temp":28.7,"humidity":83,"rain":0.0,"pressure":1005.2,"uv_index":7.9,"wind_gusts":44.3,"aqi":59,"pm10":39.5,"pm2_5":16.4,"no2":8.5,"co":200.0,"o3":52.0,"so2":5.1,"mosquito_risk":7,"arthritis_risk":5,"migraine_risk":4,"frizz_risk":1,"updated_at":"2026-05-16T23:27:06.275354+05:30"},{"city":"Nagpur","state":"Maharashtra","latitude":21.1458,"longitude":79.0882,"temp":34.4,"humidity":37,"rain":0.0,"pressure":970.2,"uv_index":8.95,"wind_gusts":38.2,"aqi":106,"pm10":87.3,"pm2_5":62.6,"no2":44.9,"co":289.0,"o3":66.0,"so2":24.8,"mosquito_risk":0,"arthritis_risk":5,"migraine_risk":7,"frizz_risk":1,"updated_at":"2026-05-16T23:27:06.275362+05:30"},{"city":"Nashik","state":"Maharashtra","latitude":19.9975,"longitude":73.7898,"temp":29.5,"humidity":43,"rain":0.0,"pressure":943.4,"uv_index":8.2,"wind_gusts":37.4,"aqi":59,"pm10":39.6,"pm2_5":22.3,"no2":16.1,"co":258.0,"o3":64.0,"so2":5.2,"mosquito_risk":4,"arthritis_risk":5,"migraine_risk":7,"frizz_risk":0,"updated_at":"2026-05-16T23:27:06.275371+05:30"},{"city":"Aurangabad","state":"Maharashtra","latitude":19.8762,"longitude":75.3433,"temp":33.2,"humidity":28,"rain":0.0,"pressure":941.8,"uv_index":9.1,"wind_gusts":37.1,"aqi":55,"pm10":29.0,"pm2_5":19.6,"no2":9.6,"co":277.0,"o3":84.0,"so2":4.7,"mosquito_risk":0,"arthritis_risk":5,"migraine_risk":7,"frizz_risk":0,"updated_at":"2026-05-16T23:27:06.275379+05:30"},{"city":"Solapur","state":"Maharashtra","latitude":17.6599,"longitude":75.9064,"temp":33.3,"humidity":35,"rain":0.0,"pressure":954.4,"uv_index":8.45,"wind_gusts":36.4,"aqi":75,"pm10":53.4,"pm2_5":44.8,"no2":48.8,"co":400.0,"o3":38.0,"so2":10.7,"mosquito_risk":0,"arthritis_risk":5,"migraine_risk":7,"frizz_risk":0,"updated_at":"2026-05-16T23:27:06.275388+05:30"},{"city":"Kolhapur","state":"Maharashtra","latitude":16.705,"longitude":74.2433,"temp":25.5,"humidity":88,"rain":0.0,"pressure":945.7,"uv_index":8.55,"wind_gusts":42.1,"aqi":82,"pm10":26.4,"pm2_5":20.0,"no2":9.0,"co":211.0,"o3":71.0,"so2":6.6,"mosquito_risk":7,"arthritis_risk":5,"migraine_risk":7,"frizz_risk":1,"updated_at":"2026-05-16T23:27:06.275396+05:30"},{"city":"Goa","state":"Goa","latitude":15.2993,"longitude":74.124,"temp":29.4,"humidity":81,"rain":0.0,"pressure":996.0,"uv_index":8.9,"wind_gusts":36.4,"aqi":64,"pm10":28.8,"pm2_5":16.2,"no2":4.1,"co":243.0,"o3":44.0,"so2":1.2,"mosquito_risk":7,"arthritis_risk":5,"migraine_risk":7,"frizz_risk":1,"updated_at":"2026-05-16T23:27:06.275404+05:30"},{"city":"Jodhpur","state":"Rajasthan","latitude":26.2389,"longitude":73.0243,"temp":34.7,"humidity":28,"rain":0.0,"pressure":980.2,"uv_index":8.4,"wind_gusts":31.0,"aqi":114,"pm10":122.9,"pm2_5":29.7,"no2":10.7,"co":263.0,"o3":65.0,"so2":4.0,"mosquito_risk":0,"arthritis_risk":5,"migraine_risk":7,"frizz_risk":0,"updated_at":"2026-05-16T23:27:06.275412+05:30"},{"city":"Udaipur","state":"Rajasthan","latitude":24.5854,"longitude":73.7125,"temp":31.8,"humidity":33,"rain":0.0,"pressure":944.5,"uv_index":8.85,"wind_gusts":31.3,"aqi":54,"pm10":35.5,"pm2_5":16.9,"no2":5.2,"co":210.0,"o3":66.0,"so2":3.1,"mosquito_risk":0,"arthritis_risk":5,"migraine_risk":7,"frizz_risk":0,"updated_at":"2026-05-16T23:27:06.275420+05:30"},{"city":"Kota","state":"Rajasthan","latitude":25.2138,"longitude":75.8648,"temp":34.2,"humidity":26,"rain":0.0,"pressure":975.5,"uv_index":8.45,"wind_gusts":29.5,"aqi":69,"pm10":102.9,"pm2_5":41.1,"no2":18.4,"co":349.0,"o3":61.0,"so2":6.1,"mosquito_risk":0,"arthritis_risk":5,"migraine_risk":7,"frizz_risk":0,"updated_at":"2026-05-16T23:27:06.275428+05:30"},{"city":"Bikaner","state":"Rajasthan","latitude":28.0229,"longitude":73.3119,"temp":33.6,"humidity":25,"rain":0.0,"pressure":979.4,"uv_index":8.4,"wind_gusts":25.9,"aqi":101,"pm10":115.3,"pm2_5":35.0,"no2":7.1,"co":297.0,"o3":56.0,"so2":2.4,"mosquito_risk":0,"arthritis_risk":5,"migraine_risk":7,"frizz_risk":0,"updated_at":"2026-05-16T23:27:06.275435+05:30"},{"city":"Ajmer","state":"Rajasthan","latitude":26.4499,"longitude":74.6399,"temp":32.0,"humidity":30,"rain":0.0,"pressure":952.7,"uv_index":8.4,"wind_gusts":34.2,"aqi":81,"pm10":121.1,"pm2_5":45.4,"no2":24.2,"co":293.0,"o3":50.0,"so2":5.9,"mosquito_risk":0,"arthritis_risk":5,"migraine_risk":7,"frizz_risk":0,"updated_at":"2026-05-16T23:27:06.275443+05:30"},{"city":"Gwalior","state":"Madhya Pradesh","latitude":26.2183,"longitude":78.1828,"temp":33.2,"humidity":26,"rain":0.0,"pressure":980.0,"uv_index":8.25,"wind_gusts":36.7,"aqi":116,"pm10":228.6,"pm2_5":60.3,"no2":15.0,"co":322.0,"o3":72.0,"so2":8.9,"mosquito_risk":0,"arthritis_risk":5,"migraine_risk":7,"frizz_risk":0,"updated_at":"2026-05-16T23:27:06.275451+05:30"},{"city":"Indore","state":"Madhya Pradesh","latitude":22.7196,"longitude":75.8577,"temp":31.9,"humidity":29,"rain":0.0,"pressure":946.1,"uv_index":8.7,"wind_gusts":37.4,"aqi":57,"pm10":25.4,"pm2_5":16.0,"no2":6.0,"co":277.0,"o3":84.0,"so2":4.0,"mosquito_risk":0,"arthritis_risk":5,"migraine_risk":7,"frizz_risk":0,"updated_at":"2026-05-16T23:27:06.275459+05:30"},{"city":"Bhopal","state":"Madhya Pradesh","latitude":23.2599,"longitude":77.4126,"temp":33.9,"humidity":22,"rain":0.0,"pressure":950.9,"uv_index":8.7,"wind_gusts":39.6,"aqi":54,"pm10":36.8,"pm2_5":24.1,"no2":13.1,"co":483.0,"o3":63.0,"so2":6.0,"mosquito_risk":0,"arthritis_risk":5,"migraine_risk":7,"frizz_risk":0,"updated_at":"2026-05-16T23:27:06.275467+05:30"},{"city":"Jabalpur","state":"Madhya Pradesh","latitude":23.1815,"longitude":79.9864,"temp":31.6,"humidity":37,"rain":0.0,"pressure":958.5,"uv_index":8.9,"wind_gusts":37.8,"aqi":108,"pm10":60.1,"pm2_5":38.1,"no2":27.5,"co":270.0,"o3":61.0,"so2":8.4,"mosquito_risk":0,"arthritis_risk":5,"migraine_risk":7,"frizz_risk":0,"updated_at":"2026-05-16T23:27:06.275475+05:30"},{"city":"Ujjain","state":"Madhya Pradesh","latitude":23.1765,"longitude":75.7885,"temp":31.6,"humidity":28,"rain":0.0,"pressure":951.5,"uv_index":8.65,"wind_gusts":38.2,"aqi":51,"pm10":27.2,"pm2_5":16.5,"no2":3.5,"co":220.0,"o3":84.0,"so2":3.1,"mosquito_risk":0,"arthritis_risk":5,"migraine_risk":7,"frizz_risk":0,"updated_at":"2026-05-16T23:27:06.275483+05:30"},{"city":"Visakhapatnam","state":"Andhra Pradesh","latitude":17.6868,"longitude":83.2185,"temp":29.1,"humidity":85,"rain":0.0,"pressure":1001.9,"uv_index":9.15,"wind_gusts":39.6,"aqi":61,"pm10":19.3,"pm2_5":15.2,"no2":25.0,"co":258.0,"o3":44.0,"so2":41.3,"mosquito_risk":7,"arthritis_risk":5,"migraine_risk":4,"frizz_risk":1,"updated_at":"2026-05-16T23:27:06.275492+05:30"},{"city":"Vijayawada","state":"Andhra Pradesh","latitude":16.5062,"longitude":80.648,"temp":30.1,"humidity":79,"rain":0.0,"pressure":1000.2,"uv_index":8.85,"wind_gusts":32.4,"aqi":48,"pm10":11.9,"pm2_5":10.0,"no2":8.2,"co":168.0,"o3":52.0,"so2":6.3,"mosquito_risk":3,"arthritis_risk":5,"migraine_risk":4,"frizz_risk":1,"updated_at":"2026-05-16T23:27:06.275500+05:30"},{"city":"Guntur","state":"Andhra Pradesh","latitude":16.3067,"longitude":80.4365,"temp":29.8,"humidity":82,"rain":0.0,"pressure":1001.3,"uv_index":8.85,"wind_gusts":40.7,"aqi":49,"pm10":10.8,"pm2_5":9.2,"no2":6.8,"co":154.0,"o3":51.0,"so2":2.9,"mosquito_risk":7,"arthritis_risk":5,"migraine_risk":4,"frizz_risk":1,"updated_at":"2026-05-16T23:27:06.275507+05:30"},{"city":"Nellore","state":"Andhra Pradesh","latitude":14.4426,"longitude":79.9865,"temp":29.3,"humidity":81,"rain":0.0,"pressure":1003.2,"uv_index":8.25,"wind_gusts":33.8,"aqi":45,"pm10":14.1,"pm2_5":9.6,"no2":2.7,"co":207.0,"o3":78.0,"so2":1.7,"mosquito_risk":7,"arthritis_risk":5,"migraine_risk":4,"frizz_risk":1,"updated_at":"2026-05-16T23:27:06.275516+05:30"},{"city":"Kurnool","state":"Andhra Pradesh","latitude":15.8281,"longitude":78.0373,"temp":30.4,"humidity":60,"rain":0.0,"pressure":974.2,"uv_index":8.95,"wind_gusts":51.8,"aqi":124,"pm10":32.9,"pm2_5":22.0,"no2":5.5,"co":277.0,"o3":78.0,"so2":2.9,"mosquito_risk":0,"arthritis_risk":5,"migraine_risk":7,"frizz_risk":1,"updated_at":"2026-05-16T23:27:06.275525+05:30"},{"city":"Kakinada","state":"Andhra Pradesh","latitude":16.9891,"longitude":82.2475,"temp":29.2,"humidity":83,"rain":0.0,"pressure":1005.6,"uv_index":9.15,"wind_gusts":40.3,"aqi":34,"pm10":9.0,"pm2_5":5.9,"no2":1.9,"co":197.0,"o3":67.0,"so2":1.3,"mosquito_risk":7,"arthritis_risk":5,"migraine_risk":4,"frizz_risk":1,"updated_at":"2026-05-16T23:27:06.275534+05:30"},{"city":"Tirupati","state":"Andhra Pradesh","latitude":13.6288,"longitude":79.4192,"temp":28.2,"humidity":79,"rain":0.0,"pressure":988.8,"uv_index":9.25,"wind_gusts":33.1,"aqi":56,"pm10":17.1,"pm2_5":15.4,"no2":23.1,"co":278.0,"o3":56.0,"so2":17.4,"mosquito_risk":7,"arthritis_risk":5,"migraine_risk":7,"frizz_risk":1,"updated_at":"2026-05-16T23:27:06.275543+05:30"},{"city":"Warangal","state":"Telangana","latitude":17.9689,"longitude":79.5941,"temp":29.3,"humidity":71,"rain":0.0,"pressure":976.1,"uv_index":9.15,"wind_gusts":49.3,"aqi":101,"pm10":37.1,"pm2_5":29.6,"no2":10.5,"co":290.0,"o3":82.0,"so2":9.0,"mosquito_risk":7,"arthritis_risk":5,"migraine_risk":7,"frizz_risk":1,"updated_at":"2026-05-16T23:27:06.275551+05:30"},{"city":"Nizamabad","state":"Telangana","latitude":18.6725,"longitude":78.0941,"temp":31.4,"humidity":51,"rain":0.0,"pressure":961.3,"uv_index":9.05,"wind_gusts":33.1,"aqi":93,"pm10":68.9,"pm2_5":55.9,"no2":36.0,"co":304.0,"o3":56.0,"so2":8.6,"mosquito_risk":0,"arthritis_risk":5,"migraine_risk":7,"frizz_risk":1,"updated_at":"2026-05-16T23:27:06.275559+05:30"},{"city":"Mysore","state":"Karnataka","latitude":12.2958,"longitude":76.6396,"temp":22.5,"humidity":90,"rain":0.0,"pressure":926.3,"uv_index":7.2,"wind_gusts":40.0,"aqi":113,"pm10":55.2,"pm2_5":41.3,"no2":21.4,"co":449.0,"o3":80.0,"so2":5.7,"mosquito_risk":3,"arthritis_risk":5,"migraine_risk":7,"frizz_risk":1,"updated_at":"2026-05-16T23:27:06.275567+05:30"},{"city":"Mangalore","state":"Karnataka","latitude":12.9141,"longitude":74.856,"temp":26.2,"humidity":97,"rain":0.0,"pressure":1004.8,"uv_index":7.95,"wind_gusts":35.6,"aqi":61,"pm10":31.9,"pm2_5":22.8,"no2":12.7,"co":495.0,"o3":33.0,"so2":3.3,"mosquito_risk":7,"arthritis_risk":5,"migraine_risk":4,"frizz_risk":1,"updated_at":"2026-05-16T23:27:06.275575+05:30"},{"city":"Hubli-Dharwad","state":"Karnataka","latitude":15.3647,"longitude":75.124,"temp":24.6,"humidity":93,"rain":0.0,"pressure":938.8,"uv_index":7.8,"wind_gusts":46.1,"aqi":78,"pm10":17.2,"pm2_5":13.1,"no2":8.6,"co":211.0,"o3":53.0,"so2":2.4,"mosquito_risk":3,"arthritis_risk":5,"migraine_risk":7,"frizz_risk":1,"updated_at":"2026-05-16T23:27:06.275584+05:30"},{"city":"Belgaum","state":"Karnataka","latitude":15.8497,"longitude":74.4977,"temp":24.3,"humidity":91,"rain":0.0,"pressure":924.5,"uv_index":9.2,"wind_gusts":40.7,"aqi":68,"pm10":19.9,"pm2_5":15.3,"no2":10.1,"co":158.0,"o3":48.0,"so2":3.0,"mosquito_risk":3,"arthritis_risk":5,"migraine_risk":7,"frizz_risk":1,"updated_at":"2026-05-16T23:27:09.553965+05:30"},{"city":"Coimbatore","state":"Tamil Nadu","latitude":11.0168,"longitude":76.9558,"temp":24.1,"humidity":89,"rain":0.0,"pressure":959.3,"uv_index":9.0,"wind_gusts":45.7,"aqi":93,"pm10":39.5,"pm2_5":31.8,"no2":11.8,"co":306.0,"o3":76.0,"so2":5.3,"mosquito_risk":3,"arthritis_risk":5,"migraine_risk":7,"frizz_risk":1,"updated_at":"2026-05-16T23:27:09.553998+05:30"},{"city":"Madurai","state":"Tamil Nadu","latitude":9.9252,"longitude":78.1198,"temp":28.5,"humidity":69,"rain":0.0,"pressure":990.6,"uv_index":8.75,"wind_gusts":26.3,"aqi":79,"pm10":35.4,"pm2_5":32.4,"no2":46.0,"co":736.0,"o3":30.0,"so2":9.6,"mosquito_risk":7,"arthritis_risk":5,"migraine_risk":7,"frizz_risk":1,"updated_at":"2026-05-16T23:27:09.554010+05:30"},{"city":"Trichy","state":"Tamil Nadu","latitude":10.7905,"longitude":78.7047,"temp":27.0,"humidity":85,"rain":0.0,"pressure":997.2,"uv_index":3.75,"wind_gusts":28.8,"aqi":81,"pm10":27.2,"pm2_5":25.5,"no2":28.2,"co":406.0,"o3":44.0,"so2":5.8,"mosquito_risk":7,"arthritis_risk":5,"migraine_risk":3,"frizz_risk":1,"updated_at":"2026-05-16T23:27:09.554025+05:30"},{"city":"Salem","state":"Tamil Nadu","latitude":11.6643,"longitude":78.146,"temp":27.7,"humidity":71,"rain":0.0,"pressure":974.9,"uv_index":8.95,"wind_gusts":27.0,"aqi":136,"pm10":90.8,"pm2_5":61.9,"no2":43.4,"co":369.0,"o3":61.0,"so2":20.9,"mosquito_risk":7,"arthritis_risk":5,"migraine_risk":7,"frizz_risk":1,"updated_at":"2026-05-16T23:27:09.554033+05:30"},{"city":"Tirunelveli","state":"Tamil Nadu","latitude":8.7139,"longitude":77.7567,"temp":28.5,"humidity":67,"rain":0.0,"pressure":1000.4,"uv_index":8.6,"wind_gusts":33.1,"aqi":54,"pm10":13.1,"pm2_5":11.3,"no2":8.6,"co":282.0,"o3":69.0,"so2":1.9,"mosquito_risk":7,"arthritis_risk":5,"migraine_risk":4,"frizz_risk":1,"updated_at":"2026-05-16T23:27:09.554041+05:30"},{"city":"Vellore","state":"Tamil Nadu","latitude":12.9165,"longitude":79.1325,"temp":27.4,"humidity":85,"rain":0.0,"pressure":981.9,"uv_index":9.25,"wind_gusts":28.8,"aqi":79,"pm10":18.3,"pm2_5":16.5,"no2":17.6,"co":353.0,"o3":53.0,"so2":5.1,"mosquito_risk":7,"arthritis_risk":5,"migraine_risk":7,"frizz_risk":1,"updated_at":"2026-05-16T23:27:09.554049+05:30"},{"city":"Erode","state":"Tamil Nadu","latitude":11.341,"longitude":77.7172,"temp":26.8,"humidity":79,"rain":0.0,"pressure":986.5,"uv_index":4.5,"wind_gusts":37.4,"aqi":102,"pm10":95.2,"pm2_5":64.7,"no2":67.8,"co":421.0,"o3":23.0,"so2":9.8,"mosquito_risk":7,"arthritis_risk":5,"migraine_risk":3,"frizz_risk":1,"updated_at":"2026-05-16T23:27:09.554057+05:30"},{"city":"Kochi","state":"Kerala","latitude":9.9312,"longitude":76.2673,"temp":25.7,"humidity":93,"rain":0.0,"pressure":1006.9,"uv_index":5.5,"wind_gusts":32.4,"aqi":68,"pm10":22.8,"pm2_5":20.1,"no2":33.5,"co":378.0,"o3":20.0,"so2":7.7,"mosquito_risk":7,"arthritis_risk":5,"migraine_risk":0,"frizz_risk":1,"updated_at":"2026-05-16T23:27:09.554064+05:30"},{"city":"Thiruvananthapuram","state":"Kerala","latitude":8.5241,"longitude":76.9366,"temp":24.8,"humidity":94,"rain":0.0,"pressure":1006.3,"uv_index":8.2,"wind_gusts":50.4,"aqi":48,"pm10":15.9,"pm2_5":10.2,"no2":5.5,"co":357.0,"o3":90.0,"so2":2.5,"mosquito_risk":3,"arthritis_risk":5,"migraine_risk":4,"frizz_risk":1,"updated_at":"2026-05-16T23:27:09.554071+05:30"},{"city":"Kozhikode","state":"Kerala","latitude":11.2588,"longitude":75.7804,"temp":24.6,"humidity":96,"rain":0.0,"pressure":1005.8,"uv_index":7.55,"wind_gusts":46.4,"aqi":62,"pm10":26.1,"pm2_5":16.4,"no2":2.5,"co":347.0,"o3":81.0,"so2":1.4,"mosquito_risk":3,"arthritis_risk":5,"migraine_risk":4,"frizz_risk":1,"updated_at":"2026-05-16T23:27:09.554078+05:30"},{"city":"Thrissur","state":"Kerala","latitude":10.5276,"longitude":76.2144,"temp":24.9,"humidity":91,"rain":0.0,"pressure":1005.1,"uv_index":8.0,"wind_gusts":33.1,"aqi":75,"pm10":29.7,"pm2_5":25.3,"no2":27.0,"co":421.0,"o3":32.0,"so2":6.2,"mosquito_risk":3,"arthritis_risk":5,"migraine_risk":4,"frizz_risk":1,"updated_at":"2026-05-16T23:27:09.554086+05:30"},{"city":"Kannur","state":"Kerala","latitude":11.8745,"longitude":75.3704,"temp":24.9,"humidity":98,"rain":0.0,"pressure":1005.4,"uv_index":8.7,"wind_gusts":36.4,"aqi":63,"pm10":27.0,"pm2_5":22.1,"no2":16.7,"co":354.0,"o3":47.0,"so2":3.1,"mosquito_risk":3,"arthritis_risk":5,"migraine_risk":4,"frizz_risk":1,"updated_at":"2026-05-16T23:27:09.554093+05:30"},{"city":"Patna","state":"Bihar","latitude":25.5941,"longitude":85.1376,"temp":29.6,"humidity":73,"rain":0.0,"pressure":996.6,"uv_index":8.8,"wind_gusts":23.4,"aqi":152,"pm10":116.2,"pm2_5":85.0,"no2":57.6,"co":499.0,"o3":44.0,"so2":24.3,"mosquito_risk":7,"arthritis_risk":5,"migraine_risk":7,"frizz_risk":1,"updated_at":"2026-05-16T23:27:09.554100+05:30"},{"city":"Gaya","state":"Bihar","latitude":24.7914,"longitude":85.0002,"temp":28.5,"humidity":61,"rain":0.0,"pressure":990.2,"uv_index":8.85,"wind_gusts":35.6,"aqi":151,"pm10":146.7,"pm2_5":69.2,"no2":36.8,"co":658.0,"o3":59.0,"so2":15.2,"mosquito_risk":7,"arthritis_risk":5,"migraine_risk":7,"frizz_risk":1,"updated_at":"2026-05-16T23:27:09.554107+05:30"},{"city":"Muzaffarpur","state":"Bihar","latitude":26.1209,"longitude":85.3647,"temp":28.5,"humidity":74,"rain":0.0,"pressure":996.8,"uv_index":8.8,"wind_gusts":33.5,"aqi":152,"pm10":81.7,"pm2_5":71.0,"no2":29.9,"co":603.0,"o3":77.0,"so2":17.1,"mosquito_risk":7,"arthritis_risk":5,"migraine_risk":7,"frizz_risk":1,"updated_at":"2026-05-16T23:27:09.554113+05:30"},{"city":"Bhagalpur","state":"Bihar","latitude":25.2425,"longitude":87.0117,"temp":28.6,"humidity":81,"rain":0.0,"pressure":997.8,"uv_index":8.8,"wind_gusts":29.9,"aqi":147,"pm10":51.6,"pm2_5":46.4,"no2":11.9,"co":432.0,"o3":108.0,"so2":10.8,"mosquito_risk":7,"arthritis_risk":5,"migraine_risk":7,"frizz_risk":1,"updated_at":"2026-05-16T23:27:09.554120+05:30"},{"city":"Ranchi","state":"Jharkhand","latitude":23.3441,"longitude":85.3096,"temp":26.4,"humidity":61,"rain":0.0,"pressure":935.4,"uv_index":9.25,"wind_gusts":36.7,"aqi":136,"pm10":85.0,"pm2_5":59.1,"no2":32.1,"co":388.0,"o3":63.0,"so2":11.4,"mosquito_risk":7,"arthritis_risk":5,"migraine_risk":7,"frizz_risk":1,"updated_at":"2026-05-16T23:27:09.554127+05:30"},{"city":"Jamshedpur","state":"Jharkhand","latitude":22.8046,"longitude":86.2029,"temp":28.5,"humidity":78,"rain":0.0,"pressure":988.4,"uv_index":9.1,"wind_gusts":28.1,"aqi":134,"pm10":54.5,"pm2_5":41.7,"no2":15.8,"co":494.0,"o3":82.0,"so2":20.4,"mosquito_risk":7,"arthritis_risk":5,"migraine_risk":7,"frizz_risk":1,"updated_at":"2026-05-16T23:27:09.554134+05:30"},{"city":"Dhanbad","state":"Jharkhand","latitude":23.7957,"longitude":86.4304,"temp":28.1,"humidity":75,"rain":0.0,"pressure":976.9,"uv_index":9.05,"wind_gusts":22.7,"aqi":162,"pm10":88.0,"pm2_5":73.1,"no2":74.9,"co":659.0,"o3":28.0,"so2":132.4,"mosquito_risk":7,"arthritis_risk":5,"migraine_risk":7,"frizz_risk":1,"updated_at":"2026-05-16T23:27:09.554141+05:30"},{"city":"Bokaro","state":"Jharkhand","latitude":23.6693,"longitude":86.1511,"temp":28.1,"humidity":67,"rain":0.0,"pressure":980.5,"uv_index":9.05,"wind_gusts":31.7,"aqi":158,"pm10":111.5,"pm2_5":76.1,"no2":68.2,"co":1635.0,"o3":26.0,"so2":114.1,"mosquito_risk":7,"arthritis_risk":5,"migraine_risk":7,"frizz_risk":1,"updated_at":"2026-05-16T23:27:09.554148+05:30"},{"city":"Bhubaneswar","state":"Odisha","latitude":20.2961,"longitude":85.8245,"temp":28.9,"humidity":85,"rain":0.0,"pressure":1000.7,"uv_index":9.2,"wind_gusts":43.6,"aqi":42,"pm10":13.7,"pm2_5":9.4,"no2":6.3,"co":189.0,"o3":41.0,"so2":2.5,"mosquito_risk":7,"arthritis_risk":5,"migraine_risk":4,"frizz_risk":1,"updated_at":"2026-05-16T23:27:09.554155+05:30"},{"city":"Cuttack","state":"Odisha","latitude":20.4625,"longitude":85.8828,"temp":29.1,"humidity":84,"rain":0.0,"pressure":1002.5,"uv_index":9.2,"wind_gusts":42.8,"aqi":42,"pm10":13.7,"pm2_5":9.4,"no2":6.3,"co":202.0,"o3":41.0,"so2":2.5,"mosquito_risk":7,"arthritis_risk":5,"migraine_risk":4,"frizz_risk":1,"updated_at":"2026-05-16T23:27:09.554162+05:30"},{"city":"Rourkela","state":"Odisha","latitude":22.2604,"longitude":84.8536,"temp":29.0,"humidity":72,"rain":0.0,"pressure":982.8,"uv_index":8.4,"wind_gusts":36.4,"aqi":153,"pm10":71.7,"pm2_5":54.2,"no2":18.3,"co":384.0,"o3":113.0,"so2":15.7,"mosquito_risk":7,"arthritis_risk":5,"migraine_risk":7,"frizz_risk":1,"updated_at":"2026-05-16T23:27:09.554169+05:30"},{"city":"Raipur","state":"Chhattisgarh","latitude":21.2514,"longitude":81.6296,"temp":30.0,"humidity":64,"rain":0.0,"pressure":972.5,"uv_index":9.05,"wind_gusts":28.4,"aqi":158,"pm10":63.1,"pm2_5":51.8,"no2":23.5,"co":380.0,"o3":86.0,"so2":29.9,"mosquito_risk":7,"arthritis_risk":5,"migraine_risk":7,"frizz_risk":1,"updated_at":"2026-05-16T23:27:09.554176+05:30"},{"city":"Bhilai","state":"Chhattisgarh","latitude":21.1938,"longitude":81.3509,"temp":29.2,"humidity":64,"rain":0.0,"pressure":972.8,"uv_index":9.05,"wind_gusts":36.4,"aqi":158,"pm10":66.1,"pm2_5":55.1,"no2":35.1,"co":301.0,"o3":75.0,"so2":44.4,"mosquito_risk":7,"arthritis_risk":5,"migraine_risk":7,"frizz_risk":1,"updated_at":"2026-05-16T23:27:09.554182+05:30"},{"city":"Guwahati","state":"Assam","latitude":26.1158,"longitude":91.7086,"temp":23.0,"humidity":99,"rain":0.0,"pressure":999.7,"uv_index":8.5,"wind_gusts":26.3,"aqi":69,"pm10":25.2,"pm2_5":22.2,"no2":12.7,"co":364.0,"o3":52.0,"so2":3.5,"mosquito_risk":3,"arthritis_risk":5,"migraine_risk":7,"frizz_risk":1,"updated_at":"2026-05-16T23:27:09.554189+05:30"},{"city":"Agartala","state":"Tripura","latitude":23.8315,"longitude":91.2868,"temp":26.1,"humidity":96,"rain":0.0,"pressure":1004.2,"uv_index":6.8,"wind_gusts":32.0,"aqi":70,"pm10":28.1,"pm2_5":22.1,"no2":18.5,"co":260.0,"o3":29.0,"so2":3.2,"mosquito_risk":7,"arthritis_risk":5,"migraine_risk":4,"frizz_risk":1,"updated_at":"2026-05-16T23:27:09.554196+05:30"},{"city":"Shillong","state":"Meghalaya","latitude":25.5788,"longitude":91.8933,"temp":17.5,"humidity":95,"rain":0.0,"pressure":854.9,"uv_index":8.05,"wind_gusts":40.3,"aqi":48,"pm10":11.7,"pm2_5":9.7,"no2":8.1,"co":264.0,"o3":69.0,"so2":3.4,"mosquito_risk":3,"arthritis_risk":10,"migraine_risk":7,"frizz_risk":1,"updated_at":"2026-05-16T23:27:09.554203+05:30"},{"city":"Imphal","state":"Manipur","latitude":24.817,"longitude":93.9368,"temp":20.9,"humidity":95,"rain":0.0,"pressure":921.4,"uv_index":8.75,"wind_gusts":31.7,"aqi":83,"pm10":44.5,"pm2_5":36.3,"no2":23.5,"co":626.0,"o3":35.0,"so2":4.2,"mosquito_risk":3,"arthritis_risk":5,"migraine_risk":7,"frizz_risk":1,"updated_at":"2026-05-16T23:27:09.554210+05:30"},{"city":"Aizawl","state":"Mizoram","latitude":23.7271,"longitude":92.7176,"temp":19.2,"humidity":94,"rain":0.0,"pressure":890.8,"uv_index":9.15,"wind_gusts":29.2,"aqi":57,"pm10":15.8,"pm2_5":10.0,"no2":4.8,"co":179.0,"o3":66.0,"so2":2.4,"mosquito_risk":3,"arthritis_risk":10,"migraine_risk":7,"frizz_risk":1,"updated_at":"2026-05-16T23:27:09.554217+05:30"},{"city":"Kohima","state":"Nagaland","latitude":25.6701,"longitude":94.1077,"temp":15.3,"humidity":96,"rain":0.0,"pressure":851.7,"uv_index":9.2,"wind_gusts":25.9,"aqi":57,"pm10":24.4,"pm2_5":17.7,"no2":15.7,"co":345.0,"o3":32.0,"so2":1.8,"mosquito_risk":3,"arthritis_risk":10,"migraine_risk":7,"frizz_risk":0,"updated_at":"2026-05-16T23:27:09.554224+05:30"},{"city":"Gangtok","state":"Sikkim","latitude":27.3314,"longitude":88.6138,"temp":14.1,"humidity":100,"rain":0.2,"pressure":834.6,"uv_index":9.1,"wind_gusts":36.4,"aqi":64,"pm10":15.4,"pm2_5":13.6,"no2":13.4,"co":647.0,"o3":97.0,"so2":2.0,"mosquito_risk":6,"arthritis_risk":10,"migraine_risk":7,"frizz_risk":0,"updated_at":"2026-05-16T23:27:09.554231+05:30"},{"city":"Siliguri","state":"West Bengal","latitude":26.7271,"longitude":88.3953,"temp":22.4,"humidity":97,"rain":0.1,"pressure":991.2,"uv_index":8.65,"wind_gusts":27.7,"aqi":78,"pm10":25.7,"pm2_5":21.1,"no2":16.4,"co":515.0,"o3":95.0,"so2":3.6,"mosquito_risk":6,"arthritis_risk":5,"migraine_risk":7,"frizz_risk":1,"updated_at":"2026-05-16T23:27:12.832130+05:30"},{"city":"Durgapur","state":"West Bengal","latitude":23.5204,"longitude":87.3119,"temp":28.0,"humidity":90,"rain":0.0,"pressure":992.1,"uv_index":9.0,"wind_gusts":33.8,"aqi":153,"pm10":35.7,"pm2_5":32.8,"no2":22.1,"co":339.0,"o3":70.0,"so2":32.5,"mosquito_risk":7,"arthritis_risk":5,"migraine_risk":7,"frizz_risk":1,"updated_at":"2026-05-16T23:27:12.832159+05:30"},{"city":"Asansol","state":"West Bengal","latitude":23.6739,"longitude":86.9524,"temp":28.5,"humidity":86,"rain":0.0,"pressure":990.5,"uv_index":9.05,"wind_gusts":32.0,"aqi":154,"pm10":45.2,"pm2_5":39.7,"no2":33.6,"co":388.0,"o3":60.0,"so2":27.5,"mosquito_risk":7,"arthritis_risk":5,"migraine_risk":7,"frizz_risk":1,"updated_at":"2026-05-16T23:27:12.832170+05:30"},{"city":"Pondicherry","state":"Puducherry","latitude":11.9139,"longitude":79.8145,"temp":28.8,"humidity":84,"rain":0.0,"pressure":1005.3,"uv_index":9.05,"wind_gusts":32.4,"aqi":69,"pm10":20.7,"pm2_5":15.3,"no2":5.6,"co":367.0,"o3":106.0,"so2":5.3,"mosquito_risk":7,"arthritis_risk":5,"migraine_risk":4,"frizz_risk":1,"updated_at":"2026-05-16T23:27:12.832179+05:30"},{"city":"Port Blair","state":"Andaman and Nicobar Islands","latitude":11.6234,"longitude":92.7265,"temp":27.9,"humidity":84,"rain":0.0,"pressure":1006.0,"uv_index":6.6,"wind_gusts":39.6,"aqi":26,"pm10":10.5,"pm2_5":6.3,"no2":0.3,"co":112.0,"o3":53.0,"so2":0.3,"mosquito_risk":7,"arthritis_risk":5,"migraine_risk":4,"frizz_risk":1,"updated_at":"2026-05-16T23:27:12.832187+05:30"},{"city":"Haridwar","state":"Uttarakhand","latitude":29.9457,"longitude":78.1642,"temp":25.8,"humidity":59,"rain":0.0,"pressure":969.8,"uv_index":7.5,"wind_gusts":35.6,"aqi":100,"pm10":49.8,"pm2_5":37.6,"no2":22.9,"co":471.0,"o3":78.0,"so2":12.1,"mosquito_risk":4,"arthritis_risk":5,"migraine_risk":7,"frizz_risk":1,"updated_at":"2026-05-16T23:27:12.832195+05:30"},{"city":"Rishikesh","state":"Uttarakhand","latitude":30.0869,"longitude":78.2676,"temp":24.8,"humidity":51,"rain":0.0,"pressure":962.6,"uv_index":7.6,"wind_gusts":29.9,"aqi":112,"pm10":57.6,"pm2_5":37.1,"no2":16.9,"co":367.0,"o3":107.0,"so2":9.1,"mosquito_risk":0,"arthritis_risk":5,"migraine_risk":7,"frizz_risk":0,"updated_at":"2026-05-16T23:27:12.832203+05:30"},{"city":"Nainital","state":"Uttarakhand","latitude":29.3919,"longitude":79.4542,"temp":14.8,"humidity":61,"rain":0.0,"pressure":802.8,"uv_index":8.45,"wind_gusts":47.2,"aqi":96,"pm10":52.2,"pm2_5":31.2,"no2":12.0,"co":310.0,"o3":110.0,"so2":6.8,"mosquito_risk":3,"arthritis_risk":5,"migraine_risk":7,"frizz_risk":0,"updated_at":"2026-05-16T23:27:12.832210+05:30"},{"city":"Mussoorie","state":"Uttarakhand","latitude":30.4599,"longitude":78.0664,"temp":15.9,"humidity":57,"rain":0.0,"pressure":800.5,"uv_index":8.0,"wind_gusts":45.7,"aqi":102,"pm10":64.0,"pm2_5":42.8,"no2":39.5,"co":318.0,"o3":68.0,"so2":11.5,"mosquito_risk":0,"arthritis_risk":5,"migraine_risk":7,"frizz_risk":0,"updated_at":"2026-05-16T23:27:12.832218+05:30"},{"city":"Dharamshala","state":"Himachal Pradesh","latitude":32.219,"longitude":76.3234,"temp":21.1,"humidity":51,"rain":0.0,"pressure":867.5,"uv_index":8.35,"wind_gusts":42.5,"aqi":50,"pm10":25.0,"pm2_5":16.4,"no2":16.3,"co":270.0,"o3":50.0,"so2":0.7,"mosquito_risk":0,"arthritis_risk":5,"migraine_risk":7,"frizz_risk":0,"updated_at":"2026-05-16T23:27:12.832225+05:30"},{"city":"Dalhousie","state":"Himachal Pradesh","latitude":32.5387,"longitude":75.971,"temp":12.1,"humidity":71,"rain":0.0,"pressure":800.6,"uv_index":8.6,"wind_gusts":41.0,"aqi":79,"pm10":46.8,"pm2_5":30.6,"no2":45.2,"co":438.0,"o3":49.0,"so2":2.8,"mosquito_risk":3,"arthritis_risk":5,"migraine_risk":7,"frizz_risk":0,"updated_at":"2026-05-16T23:27:12.832233+05:30"},{"city":"Patiala","state":"Punjab","latitude":30.3398,"longitude":76.3869,"temp":29.1,"humidity":36,"rain":0.0,"pressure":974.9,"uv_index":7.6,"wind_gusts":45.4,"aqi":336,"pm10":542.0,"pm2_5":100.4,"no2":12.1,"co":434.0,"o3":86.0,"so2":7.2,"mosquito_risk":4,"arthritis_risk":5,"migraine_risk":7,"frizz_risk":0,"updated_at":"2026-05-16T23:27:12.832240+05:30"},{"city":"Bhatinda","state":"Punjab","latitude":30.211,"longitude":74.9455,"temp":29.8,"humidity":44,"rain":0.0,"pressure":980.6,"uv_index":8.25,"wind_gusts":33.5,"aqi":100,"pm10":59.3,"pm2_5":32.0,"no2":11.4,"co":384.0,"o3":76.0,"so2":6.2,"mosquito_risk":4,"arthritis_risk":5,"migraine_risk":7,"frizz_risk":1,"updated_at":"2026-05-16T23:27:12.832247+05:30"},{"city":"Rohtak","state":"Haryana","latitude":28.8955,"longitude":76.6066,"temp":29.6,"humidity":41,"rain":0.0,"pressure":978.5,"uv_index":7.75,"wind_gusts":38.5,"aqi":578,"pm10":901.5,"pm2_5":171.8,"no2":26.5,"co":425.0,"o3":58.0,"so2":8.1,"mosquito_risk":4,"arthritis_risk":5,"migraine_risk":7,"frizz_risk":0,"updated_at":"2026-05-16T23:27:12.832254+05:30"},{"city":"Panipat","state":"Haryana","latitude":29.3909,"longitude":76.9635,"temp":29.5,"humidity":39,"rain":0.0,"pressure":977.0,"uv_index":7.55,"wind_gusts":41.4,"aqi":1135,"pm10":1560.9,"pm2_5":264.5,"no2":16.1,"co":466.0,"o3":73.0,"so2":7.8,"mosquito_risk":4,"arthritis_risk":5,"migraine_risk":7,"frizz_risk":0,"updated_at":"2026-05-16T23:27:12.832261+05:30"},{"city":"Mathura","state":"Uttar Pradesh","latitude":27.4924,"longitude":77.6737,"temp":31.4,"humidity":32,"rain":0.0,"pressure":983.5,"uv_index":8.0,"wind_gusts":36.4,"aqi":465,"pm10":581.1,"pm2_5":122.9,"no2":24.9,"co":334.0,"o3":60.0,"so2":7.2,"mosquito_risk":0,"arthritis_risk":5,"migraine_risk":7,"frizz_risk":0,"updated_at":"2026-05-16T23:27:12.832268+05:30"},{"city":"Vrindavan","state":"Uttar Pradesh","latitude":27.5823,"longitude":77.7027,"temp":30.7,"humidity":35,"rain":0.0,"pressure":984.0,"uv_index":7.95,"wind_gusts":34.9,"aqi":465,"pm10":581.1,"pm2_5":122.9,"no2":24.9,"co":317.0,"o3":60.0,"so2":7.2,"mosquito_risk":0,"arthritis_risk":5,"migraine_risk":7,"frizz_risk":0,"updated_at":"2026-05-16T23:27:12.832275+05:30"},{"city":"Ayodhya","state":"Uttar Pradesh","latitude":26.7922,"longitude":82.1998,"temp":28.9,"humidity":54,"rain":0.0,"pressure":991.2,"uv_index":8.35,"wind_gusts":33.5,"aqi":158,"pm10":131.3,"pm2_5":58.2,"no2":19.8,"co":388.0,"o3":75.0,"so2":12.1,"mosquito_risk":4,"arthritis_risk":5,"migraine_risk":7,"frizz_risk":1,"updated_at":"2026-05-16T23:27:12.832282+05:30"},{"city":"Ratlam","state":"Madhya Pradesh","latitude":23.3315,"longitude":75.0367,"temp":30.2,"humidity":26,"rain":0.0,"pressure":952.3,"uv_index":8.55,"wind_gusts":33.5,"aqi":53,"pm10":30.6,"pm2_5":17.6,"no2":3.4,"co":189.0,"o3":79.0,"so2":2.9,"mosquito_risk":0,"arthritis_risk":5,"migraine_risk":7,"frizz_risk":0,"updated_at":"2026-05-16T23:27:12.832290+05:30"},{"city":"Sagar","state":"Madhya Pradesh","latitude":23.8388,"longitude":78.7378,"temp":32.5,"humidity":29,"rain":0.0,"pressure":947.4,"uv_index":8.75,"wind_gusts":33.8,"aqi":76,"pm10":33.2,"pm2_5":19.7,"no2":17.7,"co":266.0,"o3":56.0,"so2":4.3,"mosquito_risk":0,"arthritis_risk":5,"migraine_risk":7,"frizz_risk":0,"updated_at":"2026-05-16T23:27:12.832298+05:30"},{"city":"Satna","state":"Madhya Pradesh","latitude":24.6005,"longitude":80.8322,"temp":32.5,"humidity":33,"rain":0.0,"pressure":968.1,"uv_index":8.75,"wind_gusts":33.1,"aqi":118,"pm10":69.4,"pm2_5":32.0,"no2":18.0,"co":342.0,"o3":72.0,"so2":5.2,"mosquito_risk":0,"arthritis_risk":5,"migraine_risk":7,"frizz_risk":0,"updated_at":"2026-05-16T23:27:12.832305+05:30"},{"city":"Akola","state":"Maharashtra","latitude":20.7002,"longitude":77.0082,"temp":35.8,"humidity":24,"rain":0.0,"pressure":971.5,"uv_index":8.2,"wind_gusts":42.1,"aqi":63,"pm10":25.1,"pm2_5":18.9,"no2":11.9,"co":248.0,"o3":76.0,"so2":5.5,"mosquito_risk":0,"arthritis_risk":5,"migraine_risk":10,"frizz_risk":0,"updated_at":"2026-05-16T23:27:12.832313+05:30"},{"city":"Amravati","state":"Maharashtra","latitude":20.9374,"longitude":77.7796,"temp":35.0,"humidity":24,"rain":0.0,"pressure":963.9,"uv_index":8.9,"wind_gusts":36.7,"aqi":58,"pm10":29.3,"pm2_5":22.7,"no2":21.9,"co":303.0,"o3":58.0,"so2":5.9,"mosquito_risk":0,"arthritis_risk":5,"migraine_risk":7,"frizz_risk":0,"updated_at":"2026-05-16T23:27:12.832321+05:30"},{"city":"Latur","state":"Maharashtra","latitude":18.4088,"longitude":76.5604,"temp":31.4,"humidity":31,"rain":0.0,"pressure":936.8,"uv_index":8.8,"wind_gusts":38.2,"aqi":89,"pm10":32.8,"pm2_5":23.9,"no2":18.0,"co":438.0,"o3":83.0,"so2":10.9,"mosquito_risk":0,"arthritis_risk":5,"migraine_risk":7,"frizz_risk":0,"updated_at":"2026-05-16T23:27:12.832329+05:30"},{"city":"Nanded","state":"Maharashtra","latitude":19.1383,"longitude":77.3091,"temp":32.3,"humidity":38,"rain":0.0,"pressure":964.7,"uv_index":8.25,"wind_gusts":30.6,"aqi":71,"pm10":51.5,"pm2_5":39.9,"no2":38.1,"co":716.0,"o3":49.0,"so2":9.8,"mosquito_risk":0,"arthritis_risk":5,"migraine_risk":7,"frizz_risk":1,"updated_at":"2026-05-16T23:27:12.832337+05:30"},{"city":"Gulbarga","state":"Karnataka","latitude":17.3297,"longitude":76.8343,"temp":29.2,"humidity":58,"rain":0.0,"pressure":956.5,"uv_index":8.6,"wind_gusts":46.8,"aqi":87,"pm10":45.2,"pm2_5":34.6,"no2":18.4,"co":328.0,"o3":83.0,"so2":10.7,"mosquito_risk":4,"arthritis_risk":5,"migraine_risk":7,"frizz_risk":1,"updated_at":"2026-05-16T23:27:12.832343+05:30"},{"city":"Bidar","state":"Karnataka","latitude":17.9104,"longitude":77.5199,"temp":29.0,"humidity":58,"rain":0.0,"pressure":933.3,"uv_index":8.9,"wind_gusts":33.5,"aqi":96,"pm10":42.3,"pm2_5":34.8,"no2":27.7,"co":375.0,"o3":70.0,"so2":6.6,"mosquito_risk":4,"arthritis_risk":5,"migraine_risk":7,"frizz_risk":1,"updated_at":"2026-05-16T23:27:12.832351+05:30"},{"city":"Hospet","state":"Karnataka","latitude":15.2689,"longitude":76.3909,"temp":27.0,"humidity":74,"rain":0.0,"pressure":954.0,"uv_index":8.6,"wind_gusts":48.6,"aqi":116,"pm10":36.0,"pm2_5":30.2,"no2":15.3,"co":283.0,"o3":89.0,"so2":7.5,"mosquito_risk":7,"arthritis_risk":5,"migraine_risk":7,"frizz_risk":1,"updated_at":"2026-05-16T23:27:12.832357+05:30"},{"city":"Tirupur","state":"Tamil Nadu","latitude":11.1085,"longitude":77.3411,"temp":25.0,"humidity":85,"rain":0.0,"pressure":972.6,"uv_index":7.6,"wind_gusts":42.8,"aqi":109,"pm10":72.2,"pm2_5":51.1,"no2":40.5,"co":295.0,"o3":61.0,"so2":8.4,"mosquito_risk":7,"arthritis_risk":5,"migraine_risk":7,"frizz_risk":1,"updated_at":"2026-05-16T23:27:12.832364+05:30"},{"city":"Alappuzha","state":"Kerala","latitude":9.4981,"longitude":76.3388,"temp":26.0,"humidity":97,"rain":0.0,"pressure":1007.1,"uv_index":7.9,"wind_gusts":38.9,"aqi":60,"pm10":27.7,"pm2_5":19.6,"no2":16.8,"co":257.0,"o3":71.0,"so2":5.7,"mosquito_risk":7,"arthritis_risk":5,"migraine_risk":4,"frizz_risk":1,"updated_at":"2026-05-16T23:27:12.832371+05:30"},{"city":"Munnar","state":"Kerala","latitude":10.0889,"longitude":77.0595,"temp":18.0,"humidity":95,"rain":0.0,"pressure":854.6,"uv_index":3.75,"wind_gusts":28.4,"aqi":65,"pm10":29.5,"pm2_5":23.7,"no2":18.3,"co":365.0,"o3":29.0,"so2":2.4,"mosquito_risk":3,"arthritis_risk":10,"migraine_risk":3,"frizz_risk":1,"updated_at":"2026-05-16T23:27:12.832378+05:30"},{"city":"Silchar","state":"Assam","latitude":24.8333,"longitude":92.7789,"temp":24.8,"humidity":96,"rain":0.0,"pressure":1003.7,"uv_index":8.75,"wind_gusts":28.4,"aqi":74,"pm10":35.2,"pm2_5":24.4,"no2":10.4,"co":318.0,"o3":79.0,"so2":5.4,"mosquito_risk":3,"arthritis_risk":5,"migraine_risk":4,"frizz_risk":1,"updated_at":"2026-05-16T23:27:12.832385+05:30"},{"city":"Dibrugarh","state":"Assam","latitude":27.4728,"longitude":94.912,"temp":22.6,"humidity":96,"rain":0.3,"pressure":993.6,"uv_index":8.9,"wind_gusts":22.3,"aqi":83,"pm10":23.4,"pm2_5":20.5,"no2":19.1,"co":284.0,"o3":25.0,"so2":1.6,"mosquito_risk":6,"arthritis_risk":5,"migraine_risk":7,"frizz_risk":1,"updated_at":"2026-05-16T23:27:12.832392+05:30"}]