[{"city":"Delhi","state":"Delhi","latitude":28.6139,"longitude":77.209,"temp":32.6,"humidity":43,"rain":0.0,"pressure":979.0,"uv_index":7.8,"wind_gusts":52.9,"aqi":185,"pm10":486.2,"pm2_5":121.1,"no2":35.5,"co":418.0,"o3":61.0,"so2":20.4,"mosquito_risk":0,"arthritis_risk":5,"migraine_risk":7,"frizz_risk":1,"updated_at":"2026-06-19T01:01:17.038387+05:30"},{"city":"Mumbai","state":"Maharashtra","latitude":19.076,"longitude":72.8777,"temp":30.0,"humidity":65,"rain":0.0,"pressure":1008.0,"uv_index":7.7,"wind_gusts":45.0,"aqi":63,"pm10":29.7,"pm2_5":15.4,"no2":6.6,"co":138.0,"o3":45.0,"so2":6.1,"mosquito_risk":7,"arthritis_risk":0,"migraine_risk":4,"frizz_risk":1,"updated_at":"2026-06-19T01:01:17.038439+05:30"},{"city":"Bangalore","state":"Karnataka","latitude":12.9716,"longitude":77.5946,"temp":21.3,"humidity":92,"rain":0.0,"pressure":911.4,"uv_index":7.9,"wind_gusts":33.8,"aqi":53,"pm10":16.6,"pm2_5":12.3,"no2":21.4,"co":609.0,"o3":39.0,"so2":6.4,"mosquito_risk":3,"arthritis_risk":5,"migraine_risk":7,"frizz_risk":1,"updated_at":"2026-06-19T01:01:17.038456+05:30"},{"city":"Hyderabad","state":"Telangana","latitude":17.385,"longitude":78.4867,"temp":30.0,"humidity":54,"rain":0.0,"pressure":951.7,"uv_index":8.4,"wind_gusts":36.0,"aqi":76,"pm10":46.2,"pm2_5":35.7,"no2":35.1,"co":532.0,"o3":41.0,"so2":9.2,"mosquito_risk":4,"arthritis_risk":5,"migraine_risk":7,"frizz_risk":1,"updated_at":"2026-06-19T01:01:17.038467+05:30"},{"city":"Chennai","state":"Tamil Nadu","latitude":13.0827,"longitude":80.2707,"temp":27.7,"humidity":80,"rain":0.0,"pressure":1006.2,"uv_index":8.4,"wind_gusts":32.4,"aqi":104,"pm10":19.0,"pm2_5":15.0,"no2":12.8,"co":336.0,"o3":85.0,"so2":8.4,"mosquito_risk":7,"arthritis_risk":5,"migraine_risk":4,"frizz_risk":1,"updated_at":"2026-06-19T01:01:17.038476+05:30"},{"city":"Kolkata","state":"West Bengal","latitude":22.5726,"longitude":88.3639,"temp":27.2,"humidity":93,"rain":0.0,"pressure":1003.0,"uv_index":9.0,"wind_gusts":35.3,"aqi":129,"pm10":43.0,"pm2_5":37.1,"no2":10.7,"co":420.0,"o3":81.0,"so2":8.1,"mosquito_risk":7,"arthritis_risk":5,"migraine_risk":4,"frizz_risk":1,"updated_at":"2026-06-19T01:01:17.038484+05:30"},{"city":"Pune","state":"Maharashtra","latitude":18.5204,"longitude":73.8567,"temp":23.8,"humidity":85,"rain":0.0,"pressure":948.1,"uv_index":8.35,"wind_gusts":42.8,"aqi":52,"pm10":26.4,"pm2_5":16.1,"no2":8.0,"co":156.0,"o3":42.0,"so2":6.8,"mosquito_risk":3,"arthritis_risk":5,"migraine_risk":7,"frizz_risk":1,"updated_at":"2026-06-19T01:01:17.038492+05:30"},{"city":"Ahmedabad","state":"Gujarat","latitude":23.0225,"longitude":72.5714,"temp":28.3,"humidity":76,"rain":0.1,"pressure":1000.3,"uv_index":7.9,"wind_gusts":44.6,"aqi":65,"pm10":28.0,"pm2_5":17.0,"no2":7.9,"co":241.0,"o3":49.0,"so2":4.7,"mosquito_risk":10,"arthritis_risk":5,"migraine_risk":4,"frizz_risk":1,"updated_at":"2026-06-19T01:01:17.038500+05:30"},{"city":"Jaipur","state":"Rajasthan","latitude":26.9124,"longitude":75.7873,"temp":28.7,"humidity":61,"rain":0.0,"pressure":956.6,"uv_index":8.25,"wind_gusts":31.0,"aqi":121,"pm10":90.6,"pm2_5":41.7,"no2":12.6,"co":207.0,"o3":48.0,"so2":5.7,"mosquito_risk":7,"arthritis_risk":5,"migraine_risk":7,"frizz_risk":1,"updated_at":"2026-06-19T01:01:17.038508+05:30"},{"city":"Lucknow","state":"Uttar Pradesh","latitude":26.8467,"longitude":80.9462,"temp":32.0,"humidity":50,"rain":0.0,"pressure":988.8,"uv_index":8.35,"wind_gusts":34.6,"aqi":157,"pm10":205.4,"pm2_5":75.2,"no2":33.7,"co":482.0,"o3":50.0,"so2":12.5,"mosquito_risk":0,"arthritis_risk":5,"migraine_risk":7,"frizz_risk":1,"updated_at":"2026-06-19T01:01:17.038520+05:30"},{"city":"Kanpur","state":"Uttar Pradesh","latitude":26.4499,"longitude":80.3319,"temp":34.1,"humidity":38,"rain":0.0,"pressure":987.2,"uv_index":8.3,"wind_gusts":36.0,"aqi":156,"pm10":276.6,"pm2_5":85.0,"no2":44.3,"co":499.0,"o3":34.0,"so2":13.1,"mosquito_risk":0,"arthritis_risk":5,"migraine_risk":7,"frizz_risk":1,"updated_at":"2026-06-19T01:01:17.038527+05:30"},{"city":"Chandigarh","state":"Chandigarh","latitude":30.7333,"longitude":76.7794,"temp":27.0,"humidity":69,"rain":0.0,"pressure":963.9,"uv_index":7.8,"wind_gusts":42.8,"aqi":134,"pm10":66.4,"pm2_5":60.1,"no2":45.0,"co":556.0,"o3":36.0,"so2":9.0,"mosquito_risk":7,"arthritis_risk":5,"migraine_risk":7,"frizz_risk":1,"updated_at":"2026-06-19T01:01:17.038536+05:30"},{"city":"Srinagar","state":"Jammu and Kashmir","latitude":34.0837,"longitude":74.7973,"temp":16.9,"humidity":91,"rain":0.0,"pressure":840.6,"uv_index":8.55,"wind_gusts":30.2,"aqi":76,"pm10":33.8,"pm2_5":33.2,"no2":34.1,"co":1062.0,"o3":0.0,"so2":0.1,"mosquito_risk":3,"arthritis_risk":10,"migraine_risk":7,"frizz_risk":0,"updated_at":"2026-06-19T01:01:17.038544+05:30"},{"city":"Jammu","state":"Jammu and Kashmir","latitude":32.7266,"longitude":74.857,"temp":28.3,"humidity":53,"rain":0.0,"pressure":967.9,"uv_index":8.45,"wind_gusts":58.3,"aqi":83,"pm10":52.4,"pm2_5":44.6,"no2":65.2,"co":397.0,"o3":19.0,"so2":7.4,"mosquito_risk":4,"arthritis_risk":5,"migraine_risk":7,"frizz_risk":1,"updated_at":"2026-06-19T01:01:17.038551+05:30"},{"city":"Amritsar","state":"Punjab","latitude":31.634,"longitude":74.8723,"temp":28.4,"humidity":65,"rain":0.0,"pressure":975.7,"uv_index":8.5,"wind_gusts":60.5,"aqi":153,"pm10":62.6,"pm2_5":51.1,"no2":45.1,"co":435.0,"o3":59.0,"so2":13.2,"mosquito_risk":7,"arthritis_risk":5,"migraine_risk":7,"frizz_risk":1,"updated_at":"2026-06-19T01:01:17.038558+05:30"},{"city":"Ludhiana","state":"Punjab","latitude":30.901,"longitude":75.8573,"temp":29.4,"humidity":62,"rain":0.0,"pressure":973.8,"uv_index":8.05,"wind_gusts":79.2,"aqi":152,"pm10":62.9,"pm2_5":58.7,"no2":33.5,"co":905.0,"o3":54.0,"so2":9.0,"mosquito_risk":7,"arthritis_risk":5,"migraine_risk":7,"frizz_risk":1,"updated_at":"2026-06-19T01:01:17.038565+05:30"},{"city":"Jalandhar","state":"Punjab","latitude":31.326,"longitude":75.5762,"temp":29.2,"humidity":68,"rain":0.0,"pressure":974.8,"uv_index":8.25,"wind_gusts":74.2,"aqi":152,"pm10":81.0,"pm2_5":72.4,"no2":39.6,"co":809.0,"o3":55.0,"so2":11.0,"mosquito_risk":7,"arthritis_risk":5,"migraine_risk":7,"frizz_risk":1,"updated_at":"2026-06-19T01:01:17.038572+05:30"},{"city":"Dehradun","state":"Uttarakhand","latitude":30.6284,"longitude":78.0322,"temp":15.5,"humidity":98,"rain":0.0,"pressure":827.2,"uv_index":7.7,"wind_gusts":34.2,"aqi":66,"pm10":34.2,"pm2_5":20.3,"no2":24.2,"co":230.0,"o3":49.0,"so2":0.5,"mosquito_risk":3,"arthritis_risk":10,"migraine_risk":7,"frizz_risk":0,"updated_at":"2026-06-19T01:01:17.038579+05:30"},{"city":"Shimla","state":"Himachal Pradesh","latitude":31.1048,"longitude":77.1734,"temp":14.8,"humidity":76,"rain":0.0,"pressure":782.4,"uv_index":7.75,"wind_gusts":40.0,"aqi":83,"pm10":41.8,"pm2_5":27.2,"no2":14.3,"co":313.0,"o3":80.0,"so2":0.0,"mosquito_risk":3,"arthritis_risk":5,"migraine_risk":7,"frizz_risk":0,"updated_at":"2026-06-19T01:01:17.038586+05:30"},{"city":"Manali","state":"Himachal Pradesh","latitude":32.2396,"longitude":77.1887,"temp":12.3,"humidity":93,"rain":0.0,"pressure":814.5,"uv_index":9.2,"wind_gusts":39.6,"aqi":40,"pm10":4.4,"pm2_5":4.4,"no2":29.2,"co":257.0,"o3":85.0,"so2":0.0,"mosquito_risk":3,"arthritis_risk":10,"migraine_risk":7,"frizz_risk":0,"updated_at":"2026-06-19T01:01:17.038598+05:30"},{"city":"Gurgaon","state":"Haryana","latitude":28.4595,"longitude":77.0266,"temp":30.0,"humidity":53,"rain":0.0,"pressure":977.4,"uv_index":7.9,"wind_gusts":48.6,"aqi":223,"pm10":437.7,"pm2_5":111.8,"no2":59.9,"co":360.0,"o3":41.0,"so2":30.3,"mosquito_risk":4,"arthritis_risk":5,"migraine_risk":7,"frizz_risk":1,"updated_at":"2026-06-19T01:01:17.038604+05:30"},{"city":"Noida","state":"Uttar Pradesh","latitude":28.5355,"longitude":77.391,"temp":30.9,"humidity":53,"rain":0.0,"pressure":980.2,"uv_index":7.85,"wind_gusts":33.8,"aqi":223,"pm10":437.7,"pm2_5":111.8,"no2":59.9,"co":551.0,"o3":41.0,"so2":30.3,"mosquito_risk":0,"arthritis_risk":5,"migraine_risk":7,"frizz_risk":1,"updated_at":"2026-06-19T01:01:17.038611+05:30"},{"city":"Ghaziabad","state":"Uttar Pradesh","latitude":28.6692,"longitude":77.4538,"temp":30.7,"humidity":52,"rain":0.0,"pressure":978.5,"uv_index":7.8,"wind_gusts":40.3,"aqi":179,"pm10":357.6,"pm2_5":114.1,"no2":45.9,"co":616.0,"o3":49.0,"so2":21.1,"mosquito_risk":0,"arthritis_risk":5,"migraine_risk":7,"frizz_risk":1,"updated_at":"2026-06-19T01:01:17.038618+05:30"},{"city":"Faridabad","state":"Haryana","latitude":28.4089,"longitude":77.3178,"temp":32.1,"humidity":44,"rain":0.0,"pressure":979.6,"uv_index":7.85,"wind_gusts":34.6,"aqi":223,"pm10":437.7,"pm2_5":111.8,"no2":59.9,"co":463.0,"o3":41.0,"so2":30.3,"mosquito_risk":0,"arthritis_risk":5,"migraine_risk":7,"frizz_risk":1,"updated_at":"2026-06-19T01:01:17.038624+05:30"},{"city":"Meerut","state":"Uttar Pradesh","latitude":28.9845,"longitude":77.7064,"temp":30.5,"humidity":51,"rain":0.0,"pressure":977.3,"uv_index":7.7,"wind_gusts":28.8,"aqi":179,"pm10":357.6,"pm2_5":114.1,"no2":45.9,"co":659.0,"o3":49.0,"so2":21.1,"mosquito_risk":0,"arthritis_risk":5,"migraine_risk":7,"frizz_risk":1,"updated_at":"2026-06-19T01:01:17.038631+05:30"},{"city":"Agra","state":"Uttar Pradesh","latitude":27.1767,"longitude":78.0081,"temp":32.6,"humidity":44,"rain":0.0,"pressure":983.8,"uv_index":8.15,"wind_gusts":29.9,"aqi":199,"pm10":213.7,"pm2_5":84.5,"no2":65.8,"co":214.0,"o3":9.0,"so2":19.3,"mosquito_risk":0,"arthritis_risk":5,"migraine_risk":7,"frizz_risk":1,"updated_at":"2026-06-19T01:01:17.038637+05:30"},{"city":"Varanasi","state":"Uttar Pradesh","latitude":25.3176,"longitude":82.9739,"temp":33.2,"humidity":51,"rain":0.0,"pressure":993.1,"uv_index":8.8,"wind_gusts":38.5,"aqi":124,"pm10":37.3,"pm2_5":30.0,"no2":17.9,"co":537.0,"o3":64.0,"so2":8.6,"mosquito_risk":0,"arthritis_risk":5,"migraine_risk":7,"frizz_risk":1,"updated_at":"2026-06-19T01:01:17.038644+05:30"},{"city":"Prayagraj","state":"Uttar Pradesh","latitude":25.4358,"longitude":81.8463,"temp":32.9,"humidity":49,"rain":0.0,"pressure":991.6,"uv_index":8.75,"wind_gusts":34.6,"aqi":113,"pm10":48.4,"pm2_5":32.1,"no2":17.5,"co":252.0,"o3":59.0,"so2":7.1,"mosquito_risk":0,"arthritis_risk":5,"migraine_risk":7,"frizz_risk":1,"updated_at":"2026-06-19T01:01:17.038651+05:30"},{"city":"Gorakhpur","state":"Uttar Pradesh","latitude":26.7606,"longitude":83.3732,"temp":30.1,"humidity":72,"rain":0.0,"pressure":992.6,"uv_index":8.7,"wind_gusts":25.2,"aqi":151,"pm10":116.2,"pm2_5":68.9,"no2":31.2,"co":438.0,"o3":53.0,"so2":13.2,"mosquito_risk":3,"arthritis_risk":5,"migraine_risk":7,"frizz_risk":1,"updated_at":"2026-06-19T01:01:17.038658+05:30"},{"city":"Bareilly","state":"Uttar Pradesh","latitude":28.367,"longitude":79.4304,"temp":29.3,"humidity":66,"rain":0.0,"pressure":982.1,"uv_index":8.15,"wind_gusts":30.6,"aqi":157,"pm10":98.3,"pm2_5":67.3,"no2":37.3,"co":463.0,"o3":50.0,"so2":14.5,"mosquito_risk":7,"arthritis_risk":5,"migraine_risk":7,"frizz_risk":1,"updated_at":"2026-06-19T01:01:17.038666+05:30"},{"city":"Aligarh","state":"Uttar Pradesh","latitude":27.8974,"longitude":78.088,"temp":30.0,"humidity":57,"rain":0.0,"pressure":981.5,"uv_index":8.0,"wind_gusts":29.2,"aqi":220,"pm10":345.5,"pm2_5":136.9,"no2":95.2,"co":628.0,"o3":1.0,"so2":25.2,"mosquito_risk":4,"arthritis_risk":5,"migraine_risk":7,"frizz_risk":1,"updated_at":"2026-06-19T01:01:17.038674+05:30"},{"city":"Moradabad","state":"Uttar Pradesh","latitude":28.8386,"longitude":78.7733,"temp":30.3,"humidity":57,"rain":0.0,"pressure":979.2,"uv_index":7.95,"wind_gusts":33.5,"aqi":165,"pm10":154.6,"pm2_5":114.6,"no2":75.8,"co":612.0,"o3":9.0,"so2":19.9,"mosquito_risk":0,"arthritis_risk":5,"migraine_risk":7,"frizz_risk":1,"updated_at":"2026-06-19T01:01:17.038681+05:30"},{"city":"Saharanpur","state":"Uttar Pradesh","latitude":29.9637,"longitude":77.546,"temp":28.4,"humidity":66,"rain":0.0,"pressure":971.0,"uv_index":7.4,"wind_gusts":42.5,"aqi":162,"pm10":104.1,"pm2_5":75.0,"no2":44.3,"co":566.0,"o3":33.0,"so2":13.3,"mosquito_risk":7,"arthritis_risk":5,"migraine_risk":7,"frizz_risk":1,"updated_at":"2026-06-19T01:01:17.038687+05:30"},{"city":"Jhansi","state":"Uttar Pradesh","latitude":25.4484,"longitude":78.5685,"temp":31.8,"humidity":46,"rain":0.0,"pressure":974.4,"uv_index":8.5,"wind_gusts":33.8,"aqi":82,"pm10":38.1,"pm2_5":24.9,"no2":7.1,"co":172.0,"o3":73.0,"so2":10.3,"mosquito_risk":0,"arthritis_risk":5,"migraine_risk":7,"frizz_risk":1,"updated_at":"2026-06-19T01:01:20.275595+05:30"},{"city":"Surat","state":"Gujarat","latitude":21.1702,"longitude":72.8311,"temp":29.0,"humidity":78,"rain":0.0,"pressure":1005.5,"uv_index":7.6,"wind_gusts":46.4,"aqi":71,"pm10":30.2,"pm2_5":19.6,"no2":19.8,"co":285.0,"o3":28.0,"so2":33.3,"mosquito_risk":7,"arthritis_risk":5,"migraine_risk":4,"frizz_risk":1,"updated_at":"2026-06-19T01:01:20.275630+05:30"},{"city":"Vadodara","state":"Gujarat","latitude":22.3072,"longitude":73.1812,"temp":29.5,"humidity":76,"rain":0.0,"pressure":1002.5,"uv_index":7.9,"wind_gusts":41.8,"aqi":64,"pm10":26.0,"pm2_5":17.0,"no2":15.8,"co":125.0,"o3":30.0,"so2":11.3,"mosquito_risk":7,"arthritis_risk":5,"migraine_risk":4,"frizz_risk":1,"updated_at":"2026-06-19T01:01:20.275641+05:30"},{"city":"Rajkot","state":"Gujarat","latitude":22.3039,"longitude":70.8022,"temp":28.8,"humidity":71,"rain":0.0,"pressure":992.4,"uv_index":7.55,"wind_gusts":44.3,"aqi":57,"pm10":24.8,"pm2_5":12.4,"no2":5.9,"co":111.0,"o3":38.0,"so2":5.1,"mosquito_risk":7,"arthritis_risk":5,"migraine_risk":7,"frizz_risk":1,"updated_at":"2026-06-19T01:01:20.275650+05:30"},{"city":"Thane","state":"Maharashtra","latitude":19.2183,"longitude":72.9781,"temp":29.7,"humidity":67,"rain":0.0,"pressure":1007.4,"uv_index":7.7,"wind_gusts":40.3,"aqi":63,"pm10":29.7,"pm2_5":15.4,"no2":6.6,"co":145.0,"o3":45.0,"so2":6.1,"mosquito_risk":7,"arthritis_risk":5,"migraine_risk":4,"frizz_risk":1,"updated_at":"2026-06-19T01:01:20.275658+05:30"},{"city":"Nagpur","state":"Maharashtra","latitude":21.1458,"longitude":79.0882,"temp":30.7,"humidity":60,"rain":0.0,"pressure":970.6,"uv_index":8.65,"wind_gusts":40.0,"aqi":82,"pm10":63.8,"pm2_5":43.5,"no2":41.5,"co":282.0,"o3":28.0,"so2":21.3,"mosquito_risk":0,"arthritis_risk":5,"migraine_risk":7,"frizz_risk":1,"updated_at":"2026-06-19T01:01:20.275665+05:30"},{"city":"Nashik","state":"Maharashtra","latitude":19.9975,"longitude":73.7898,"temp":24.5,"humidity":83,"rain":0.0,"pressure":945.2,"uv_index":8.0,"wind_gusts":43.2,"aqi":52,"pm10":24.8,"pm2_5":14.1,"no2":6.9,"co":124.0,"o3":42.0,"so2":4.8,"mosquito_risk":3,"arthritis_risk":5,"migraine_risk":7,"frizz_risk":1,"updated_at":"2026-06-19T01:01:20.275673+05:30"},{"city":"Aurangabad","state":"Maharashtra","latitude":19.8762,"longitude":75.3433,"temp":27.7,"humidity":55,"rain":0.0,"pressure":943.6,"uv_index":8.5,"wind_gusts":41.4,"aqi":53,"pm10":23.1,"pm2_5":14.3,"no2":5.7,"co":133.0,"o3":54.0,"so2":5.0,"mosquito_risk":4,"arthritis_risk":5,"migraine_risk":7,"frizz_risk":1,"updated_at":"2026-06-19T01:01:20.275680+05:30"},{"city":"Solapur","state":"Maharashtra","latitude":17.6599,"longitude":75.9064,"temp":29.6,"humidity":47,"rain":0.0,"pressure":956.6,"uv_index":8.55,"wind_gusts":42.8,"aqi":56,"pm10":21.8,"pm2_5":15.4,"no2":7.5,"co":142.0,"o3":63.0,"so2":3.4,"mosquito_risk":4,"arthritis_risk":5,"migraine_risk":7,"frizz_risk":1,"updated_at":"2026-06-19T01:01:20.275687+05:30"},{"city":"Kolhapur","state":"Maharashtra","latitude":16.705,"longitude":74.2433,"temp":23.7,"humidity":86,"rain":0.0,"pressure":948.1,"uv_index":8.55,"wind_gusts":53.3,"aqi":54,"pm10":25.6,"pm2_5":16.2,"no2":6.5,"co":150.0,"o3":43.0,"so2":3.1,"mosquito_risk":3,"arthritis_risk":5,"migraine_risk":7,"frizz_risk":1,"updated_at":"2026-06-19T01:01:20.275693+05:30"},{"city":"Goa","state":"Goa","latitude":15.2993,"longitude":74.124,"temp":27.1,"humidity":86,"rain":0.0,"pressure":998.6,"uv_index":8.7,"wind_gusts":30.2,"aqi":62,"pm10":40.3,"pm2_5":20.4,"no2":4.7,"co":420.0,"o3":45.0,"so2":2.0,"mosquito_risk":7,"arthritis_risk":5,"migraine_risk":7,"frizz_risk":1,"updated_at":"2026-06-19T01:01:20.275701+05:30"},{"city":"Jodhpur","state":"Rajasthan","latitude":26.2389,"longitude":73.0243,"temp":31.5,"humidity":55,"rain":0.0,"pressure":979.4,"uv_index":8.45,"wind_gusts":39.2,"aqi":106,"pm10":141.6,"pm2_5":36.6,"no2":6.6,"co":151.0,"o3":51.0,"so2":2.3,"mosquito_risk":0,"arthritis_risk":5,"migraine_risk":7,"frizz_risk":1,"updated_at":"2026-06-19T01:01:20.275708+05:30"},{"city":"Udaipur","state":"Rajasthan","latitude":24.5854,"longitude":73.7125,"temp":26.3,"humidity":67,"rain":0.0,"pressure":944.7,"uv_index":8.8,"wind_gusts":36.7,"aqi":64,"pm10":38.9,"pm2_5":21.5,"no2":11.3,"co":150.0,"o3":42.0,"so2":5.0,"mosquito_risk":7,"arthritis_risk":5,"migraine_risk":7,"frizz_risk":1,"updated_at":"2026-06-19T01:01:20.275714+05:30"},{"city":"Kota","state":"Rajasthan","latitude":25.2138,"longitude":75.8648,"temp":31.7,"humidity":51,"rain":0.0,"pressure":976.0,"uv_index":8.35,"wind_gusts":33.1,"aqi":74,"pm10":23.3,"pm2_5":16.7,"no2":8.2,"co":210.0,"o3":62.0,"so2":5.2,"mosquito_risk":0,"arthritis_risk":5,"migraine_risk":7,"frizz_risk":1,"updated_at":"2026-06-19T01:01:20.275721+05:30"},{"city":"Bikaner","state":"Rajasthan","latitude":28.0229,"longitude":73.3119,"temp":31.8,"humidity":52,"rain":0.0,"pressure":977.4,"uv_index":8.5,"wind_gusts":58.0,"aqi":123,"pm10":104.8,"pm2_5":33.2,"no2":3.7,"co":235.0,"o3":58.0,"so2":2.7,"mosquito_risk":0,"arthritis_risk":5,"migraine_risk":7,"frizz_risk":1,"updated_at":"2026-06-19T01:01:20.275729+05:30"},{"city":"Ajmer","state":"Rajasthan","latitude":26.4499,"longitude":74.6399,"temp":28.7,"humidity":59,"rain":0.0,"pressure":951.9,"uv_index":8.35,"wind_gusts":42.1,"aqi":84,"pm10":26.8,"pm2_5":17.8,"no2":7.4,"co":198.0,"o3":58.0,"so2":4.3,"mosquito_risk":4,"arthritis_risk":5,"migraine_risk":7,"frizz_risk":1,"updated_at":"2026-06-19T01:01:20.275736+05:30"},{"city":"Gwalior","state":"Madhya Pradesh","latitude":26.2183,"longitude":78.1828,"temp":32.8,"humidity":45,"rain":0.0,"pressure":979.5,"uv_index":8.3,"wind_gusts":33.8,"aqi":96,"pm10":38.0,"pm2_5":24.3,"no2":6.2,"co":146.0,"o3":65.0,"so2":5.5,"mosquito_risk":0,"arthritis_risk":5,"migraine_risk":7,"frizz_risk":1,"updated_at":"2026-06-19T01:01:20.275742+05:30"},{"city":"Indore","state":"Madhya Pradesh","latitude":22.7196,"longitude":75.8577,"temp":27.6,"humidity":58,"rain":0.0,"pressure":946.9,"uv_index":8.6,"wind_gusts":42.8,"aqi":68,"pm10":32.6,"pm2_5":24.5,"no2":13.3,"co":261.0,"o3":51.0,"so2":7.1,"mosquito_risk":4,"arthritis_risk":5,"migraine_risk":7,"frizz_risk":1,"updated_at":"2026-06-19T01:01:20.275749+05:30"},{"city":"Bhopal","state":"Madhya Pradesh","latitude":23.2599,"longitude":77.4126,"temp":27.7,"humidity":67,"rain":0.0,"pressure":951.6,"uv_index":8.7,"wind_gusts":30.2,"aqi":74,"pm10":25.9,"pm2_5":20.4,"no2":6.5,"co":283.0,"o3":65.0,"so2":3.3,"mosquito_risk":7,"arthritis_risk":5,"migraine_risk":7,"frizz_risk":1,"updated_at":"2026-06-19T01:01:20.275755+05:30"},{"city":"Jabalpur","state":"Madhya Pradesh","latitude":23.1815,"longitude":79.9864,"temp":28.0,"humidity":76,"rain":0.0,"pressure":958.6,"uv_index":5.05,"wind_gusts":30.2,"aqi":71,"pm10":33.8,"pm2_5":28.2,"no2":21.0,"co":276.0,"o3":49.0,"so2":5.2,"mosquito_risk":7,"arthritis_risk":5,"migraine_risk":3,"frizz_risk":1,"updated_at":"2026-06-19T01:01:20.275762+05:30"},{"city":"Ujjain","state":"Madhya Pradesh","latitude":23.1765,"longitude":75.7885,"temp":27.7,"humidity":59,"rain":0.0,"pressure":952.4,"uv_index":8.35,"wind_gusts":41.0,"aqi":66,"pm10":36.3,"pm2_5":25.1,"no2":8.5,"co":293.0,"o3":56.0,"so2":6.0,"mosquito_risk":4,"arthritis_risk":5,"migraine_risk":7,"frizz_risk":1,"updated_at":"2026-06-19T01:01:20.275769+05:30"},{"city":"Visakhapatnam","state":"Andhra Pradesh","latitude":17.6868,"longitude":83.2185,"temp":28.7,"humidity":94,"rain":0.0,"pressure":1001.3,"uv_index":4.0,"wind_gusts":42.1,"aqi":111,"pm10":45.1,"pm2_5":33.1,"no2":24.8,"co":300.0,"o3":94.0,"so2":39.6,"mosquito_risk":7,"arthritis_risk":5,"migraine_risk":0,"frizz_risk":1,"updated_at":"2026-06-19T01:01:20.275776+05:30"},{"city":"Vijayawada","state":"Andhra Pradesh","latitude":16.5062,"longitude":80.648,"temp":30.5,"humidity":77,"rain":0.0,"pressure":1000.1,"uv_index":7.75,"wind_gusts":25.2,"aqi":94,"pm10":45.2,"pm2_5":40.0,"no2":19.3,"co":358.0,"o3":64.0,"so2":8.8,"mosquito_risk":3,"arthritis_risk":5,"migraine_risk":4,"frizz_risk":1,"updated_at":"2026-06-19T01:01:20.275782+05:30"},{"city":"Guntur","state":"Andhra Pradesh","latitude":16.3067,"longitude":80.4365,"temp":29.3,"humidity":82,"rain":0.0,"pressure":1001.2,"uv_index":6.2,"wind_gusts":25.9,"aqi":95,"pm10":49.9,"pm2_5":44.5,"no2":23.1,"co":301.0,"o3":58.0,"so2":9.0,"mosquito_risk":7,"arthritis_risk":5,"migraine_risk":4,"frizz_risk":1,"updated_at":"2026-06-19T01:01:20.275790+05:30"},{"city":"Nellore","state":"Andhra Pradesh","latitude":14.4426,"longitude":79.9865,"temp":28.2,"humidity":86,"rain":0.0,"pressure":1004.0,"uv_index":8.3,"wind_gusts":29.5,"aqi":78,"pm10":30.7,"pm2_5":25.3,"no2":10.1,"co":302.0,"o3":100.0,"so2":8.5,"mosquito_risk":7,"arthritis_risk":5,"migraine_risk":4,"frizz_risk":1,"updated_at":"2026-06-19T01:01:20.275797+05:30"},{"city":"Kurnool","state":"Andhra Pradesh","latitude":15.8281,"longitude":78.0373,"temp":28.9,"humidity":62,"rain":0.0,"pressure":975.3,"uv_index":1.55,"wind_gusts":37.8,"aqi":69,"pm10":31.2,"pm2_5":24.3,"no2":9.9,"co":356.0,"o3":75.0,"so2":5.0,"mosquito_risk":7,"arthritis_risk":5,"migraine_risk":3,"frizz_risk":1,"updated_at":"2026-06-19T01:01:20.275805+05:30"},{"city":"Kakinada","state":"Andhra Pradesh","latitude":16.9891,"longitude":82.2475,"temp":29.6,"humidity":82,"rain":0.0,"pressure":1005.1,"uv_index":8.0,"wind_gusts":40.7,"aqi":91,"pm10":32.8,"pm2_5":20.4,"no2":3.4,"co":328.0,"o3":104.0,"so2":3.1,"mosquito_risk":7,"arthritis_risk":5,"migraine_risk":4,"frizz_risk":1,"updated_at":"2026-06-19T01:01:20.275813+05:30"},{"city":"Tirupati","state":"Andhra Pradesh","latitude":13.6288,"longitude":79.4192,"temp":26.1,"humidity":80,"rain":0.0,"pressure":990.4,"uv_index":8.8,"wind_gusts":34.2,"aqi":74,"pm10":21.9,"pm2_5":18.7,"no2":17.0,"co":187.0,"o3":51.0,"so2":3.7,"mosquito_risk":7,"arthritis_risk":5,"migraine_risk":7,"frizz_risk":1,"updated_at":"2026-06-19T01:01:20.275836+05:30"},{"city":"Warangal","state":"Telangana","latitude":17.9689,"longitude":79.5941,"temp":30.3,"humidity":60,"rain":0.0,"pressure":976.5,"uv_index":8.85,"wind_gusts":33.1,"aqi":109,"pm10":37.7,"pm2_5":32.9,"no2":10.4,"co":393.0,"o3":88.0,"so2":7.0,"mosquito_risk":0,"arthritis_risk":5,"migraine_risk":7,"frizz_risk":1,"updated_at":"2026-06-19T01:01:20.275842+05:30"},{"city":"Nizamabad","state":"Telangana","latitude":18.6725,"longitude":78.0941,"temp":28.7,"humidity":64,"rain":0.0,"pressure":962.4,"uv_index":8.95,"wind_gusts":31.0,"aqi":85,"pm10":66.6,"pm2_5":49.1,"no2":39.8,"co":342.0,"o3":27.0,"so2":7.6,"mosquito_risk":7,"arthritis_risk":5,"migraine_risk":7,"frizz_risk":1,"updated_at":"2026-06-19T01:01:20.275849+05:30"},{"city":"Mysore","state":"Karnataka","latitude":12.2958,"longitude":76.6396,"temp":21.9,"humidity":98,"rain":0.0,"pressure":928.7,"uv_index":6.2,"wind_gusts":42.5,"aqi":49,"pm10":25.3,"pm2_5":19.0,"no2":25.0,"co":253.0,"o3":32.0,"so2":3.9,"mosquito_risk":3,"arthritis_risk":5,"migraine_risk":7,"frizz_risk":1,"updated_at":"2026-06-19T01:01:20.275856+05:30"},{"city":"Mangalore","state":"Karnataka","latitude":12.9141,"longitude":74.856,"temp":25.0,"humidity":97,"rain":0.1,"pressure":1007.9,"uv_index":8.45,"wind_gusts":31.7,"aqi":68,"pm10":43.5,"pm2_5":27.0,"no2":15.6,"co":398.0,"o3":29.0,"so2":5.4,"mosquito_risk":10,"arthritis_risk":5,"migraine_risk":4,"frizz_risk":1,"updated_at":"2026-06-19T01:01:20.275863+05:30"},{"city":"Hubli-Dharwad","state":"Karnataka","latitude":15.3647,"longitude":75.124,"temp":23.9,"humidity":87,"rain":0.0,"pressure":941.1,"uv_index":8.25,"wind_gusts":42.8,"aqi":51,"pm10":20.7,"pm2_5":12.2,"no2":5.5,"co":143.0,"o3":43.0,"so2":2.1,"mosquito_risk":3,"arthritis_risk":5,"migraine_risk":7,"frizz_risk":1,"updated_at":"2026-06-19T01:01:20.275869+05:30"},{"city":"Belgaum","state":"Karnataka","latitude":15.8497,"longitude":74.4977,"temp":21.8,"humidity":95,"rain":0.0,"pressure":925.7,"uv_index":8.95,"wind_gusts":42.5,"aqi":56,"pm10":24.8,"pm2_5":15.1,"no2":7.7,"co":132.0,"o3":37.0,"so2":2.0,"mosquito_risk":3,"arthritis_risk":5,"migraine_risk":7,"frizz_risk":1,"updated_at":"2026-06-19T01:01:23.515418+05:30"},{"city":"Coimbatore","state":"Tamil Nadu","latitude":11.0168,"longitude":76.9558,"temp":23.3,"humidity":99,"rain":0.1,"pressure":962.1,"uv_index":3.65,"wind_gusts":32.8,"aqi":41,"pm10":12.1,"pm2_5":10.3,"no2":18.4,"co":281.0,"o3":30.0,"so2":4.6,"mosquito_risk":6,"arthritis_risk":5,"migraine_risk":3,"frizz_risk":1,"updated_at":"2026-06-19T01:01:23.515455+05:30"},{"city":"Madurai","state":"Tamil Nadu","latitude":9.9252,"longitude":78.1198,"temp":27.1,"humidity":83,"rain":0.0,"pressure":993.2,"uv_index":4.6,"wind_gusts":28.8,"aqi":61,"pm10":28.4,"pm2_5":22.1,"no2":24.8,"co":420.0,"o3":43.0,"so2":5.4,"mosquito_risk":7,"arthritis_risk":5,"migraine_risk":3,"frizz_risk":1,"updated_at":"2026-06-19T01:01:23.515467+05:30"},{"city":"Trichy","state":"Tamil Nadu","latitude":10.7905,"longitude":78.7047,"temp":26.1,"humidity":90,"rain":0.0,"pressure":999.7,"uv_index":6.8,"wind_gusts":37.4,"aqi":54,"pm10":17.6,"pm2_5":15.4,"no2":16.6,"co":192.0,"o3":60.0,"so2":5.2,"mosquito_risk":7,"arthritis_risk":5,"migraine_risk":7,"frizz_risk":1,"updated_at":"2026-06-19T01:01:23.515477+05:30"},{"city":"Salem","state":"Tamil Nadu","latitude":11.6643,"longitude":78.146,"temp":25.1,"humidity":90,"rain":0.0,"pressure":977.9,"uv_index":4.9,"wind_gusts":27.4,"aqi":55,"pm10":20.8,"pm2_5":17.1,"no2":19.2,"co":394.0,"o3":55.0,"so2":7.7,"mosquito_risk":7,"arthritis_risk":5,"migraine_risk":3,"frizz_risk":1,"updated_at":"2026-06-19T01:01:23.515485+05:30"},{"city":"Tirunelveli","state":"Tamil Nadu","latitude":8.7139,"longitude":77.7567,"temp":28.4,"humidity":65,"rain":0.0,"pressure":1003.4,"uv_index":7.05,"wind_gusts":32.8,"aqi":52,"pm10":15.8,"pm2_5":12.1,"no2":10.2,"co":300.0,"o3":38.0,"so2":3.1,"mosquito_risk":7,"arthritis_risk":5,"migraine_risk":4,"frizz_risk":1,"updated_at":"2026-06-19T01:01:23.515494+05:30"},{"city":"Vellore","state":"Tamil Nadu","latitude":12.9165,"longitude":79.1325,"temp":25.4,"humidity":97,"rain":0.0,"pressure":983.6,"uv_index":8.2,"wind_gusts":33.5,"aqi":60,"pm10":15.8,"pm2_5":13.4,"no2":14.2,"co":240.0,"o3":54.0,"so2":4.3,"mosquito_risk":7,"arthritis_risk":5,"migraine_risk":7,"frizz_risk":1,"updated_at":"2026-06-19T01:01:23.515502+05:30"},{"city":"Erode","state":"Tamil Nadu","latitude":11.341,"longitude":77.7172,"temp":24.9,"humidity":93,"rain":0.0,"pressure":989.6,"uv_index":4.65,"wind_gusts":36.0,"aqi":52,"pm10":19.2,"pm2_5":16.2,"no2":22.2,"co":362.0,"o3":40.0,"so2":4.5,"mosquito_risk":3,"arthritis_risk":5,"migraine_risk":3,"frizz_risk":1,"updated_at":"2026-06-19T01:01:23.515510+05:30"},{"city":"Kochi","state":"Kerala","latitude":9.9312,"longitude":76.2673,"temp":26.0,"humidity":92,"rain":0.1,"pressure":1009.9,"uv_index":4.75,"wind_gusts":26.3,"aqi":72,"pm10":31.5,"pm2_5":28.1,"no2":32.9,"co":446.0,"o3":5.0,"so2":8.6,"mosquito_risk":10,"arthritis_risk":0,"migraine_risk":0,"frizz_risk":1,"updated_at":"2026-06-19T01:01:23.515517+05:30"},{"city":"Thiruvananthapuram","state":"Kerala","latitude":8.5241,"longitude":76.9366,"temp":24.7,"humidity":98,"rain":0.0,"pressure":1009.1,"uv_index":7.85,"wind_gusts":38.5,"aqi":55,"pm10":22.3,"pm2_5":11.6,"no2":5.2,"co":359.0,"o3":48.0,"so2":2.5,"mosquito_risk":3,"arthritis_risk":0,"migraine_risk":4,"frizz_risk":1,"updated_at":"2026-06-19T01:01:23.515524+05:30"},{"city":"Kozhikode","state":"Kerala","latitude":11.2588,"longitude":75.7804,"temp":25.0,"humidity":98,"rain":0.0,"pressure":1008.9,"uv_index":8.3,"wind_gusts":34.2,"aqi":53,"pm10":31.7,"pm2_5":14.7,"no2":2.6,"co":854.0,"o3":58.0,"so2":1.6,"mosquito_risk":7,"arthritis_risk":0,"migraine_risk":4,"frizz_risk":1,"updated_at":"2026-06-19T01:01:23.515530+05:30"},{"city":"Thrissur","state":"Kerala","latitude":10.5276,"longitude":76.2144,"temp":24.8,"humidity":99,"rain":0.2,"pressure":1008.1,"uv_index":7.75,"wind_gusts":29.2,"aqi":82,"pm10":25.2,"pm2_5":22.9,"no2":23.6,"co":399.0,"o3":12.0,"so2":5.7,"mosquito_risk":6,"arthritis_risk":0,"migraine_risk":4,"frizz_risk":1,"updated_at":"2026-06-19T01:01:23.515537+05:30"},{"city":"Kannur","state":"Kerala","latitude":11.8745,"longitude":75.3704,"temp":26.0,"humidity":93,"rain":0.0,"pressure":1008.1,"uv_index":8.45,"wind_gusts":36.0,"aqi":60,"pm10":51.2,"pm2_5":35.3,"no2":35.1,"co":531.0,"o3":19.0,"so2":7.7,"mosquito_risk":7,"arthritis_risk":0,"migraine_risk":4,"frizz_risk":1,"updated_at":"2026-06-19T01:01:23.515544+05:30"},{"city":"Patna","state":"Bihar","latitude":25.5941,"longitude":85.1376,"temp":30.9,"humidity":64,"rain":0.0,"pressure":996.0,"uv_index":8.75,"wind_gusts":24.5,"aqi":158,"pm10":133.2,"pm2_5":88.9,"no2":67.3,"co":526.0,"o3":22.0,"so2":23.8,"mosquito_risk":3,"arthritis_risk":5,"migraine_risk":7,"frizz_risk":1,"updated_at":"2026-06-19T01:01:23.515551+05:30"},{"city":"Gaya","state":"Bihar","latitude":24.7914,"longitude":85.0002,"temp":30.1,"humidity":67,"rain":0.0,"pressure":989.7,"uv_index":8.65,"wind_gusts":23.4,"aqi":157,"pm10":59.6,"pm2_5":45.2,"no2":8.2,"co":270.0,"o3":98.0,"so2":10.4,"mosquito_risk":3,"arthritis_risk":5,"migraine_risk":7,"frizz_risk":1,"updated_at":"2026-06-19T01:01:23.515558+05:30"},{"city":"Muzaffarpur","state":"Bihar","latitude":26.1209,"longitude":85.3647,"temp":28.8,"humidity":81,"rain":0.1,"pressure":996.7,"uv_index":8.9,"wind_gusts":30.2,"aqi":158,"pm10":121.5,"pm2_5":85.9,"no2":54.2,"co":613.0,"o3":34.0,"so2":19.0,"mosquito_risk":10,"arthritis_risk":5,"migraine_risk":7,"frizz_risk":1,"updated_at":"2026-06-19T01:01:23.515565+05:30"},{"city":"Bhagalpur","state":"Bihar","latitude":25.2425,"longitude":87.0117,"temp":27.8,"humidity":82,"rain":0.1,"pressure":997.8,"uv_index":8.7,"wind_gusts":31.3,"aqi":153,"pm10":89.6,"pm2_5":76.6,"no2":15.5,"co":592.0,"o3":100.0,"so2":20.9,"mosquito_risk":10,"arthritis_risk":5,"migraine_risk":7,"frizz_risk":1,"updated_at":"2026-06-19T01:01:23.515572+05:30"},{"city":"Ranchi","state":"Jharkhand","latitude":23.3441,"longitude":85.3096,"temp":26.0,"humidity":79,"rain":0.0,"pressure":935.2,"uv_index":8.0,"wind_gusts":32.4,"aqi":151,"pm10":70.8,"pm2_5":58.6,"no2":10.3,"co":301.0,"o3":112.0,"so2":9.7,"mosquito_risk":7,"arthritis_risk":5,"migraine_risk":7,"frizz_risk":1,"updated_at":"2026-06-19T01:01:23.515580+05:30"},{"city":"Jamshedpur","state":"Jharkhand","latitude":22.8046,"longitude":86.2029,"temp":29.5,"humidity":69,"rain":0.0,"pressure":987.6,"uv_index":7.85,"wind_gusts":34.9,"aqi":155,"pm10":93.1,"pm2_5":75.2,"no2":27.7,"co":376.0,"o3":72.0,"so2":32.7,"mosquito_risk":7,"arthritis_risk":5,"migraine_risk":7,"frizz_risk":1,"updated_at":"2026-06-19T01:01:23.515587+05:30"},{"city":"Dhanbad","state":"Jharkhand","latitude":23.7957,"longitude":86.4304,"temp":29.1,"humidity":66,"rain":0.0,"pressure":976.8,"uv_index":8.65,"wind_gusts":42.1,"aqi":172,"pm10":128.5,"pm2_5":105.2,"no2":59.7,"co":365.0,"o3":43.0,"so2":174.3,"mosquito_risk":7,"arthritis_risk":5,"migraine_risk":7,"frizz_risk":1,"updated_at":"2026-06-19T01:01:23.515594+05:30"},{"city":"Bokaro","state":"Jharkhand","latitude":23.6693,"longitude":86.1511,"temp":28.9,"humidity":70,"rain":0.0,"pressure":980.4,"uv_index":5.4,"wind_gusts":36.4,"aqi":169,"pm10":115.9,"pm2_5":97.1,"no2":45.6,"co":297.0,"o3":53.0,"so2":133.9,"mosquito_risk":7,"arthritis_risk":5,"migraine_risk":3,"frizz_risk":1,"updated_at":"2026-06-19T01:01:23.515601+05:30"},{"city":"Bhubaneswar","state":"Odisha","latitude":20.2961,"longitude":85.8245,"temp":29.8,"humidity":88,"rain":0.0,"pressure":999.4,"uv_index":9.05,"wind_gusts":40.7,"aqi":123,"pm10":38.6,"pm2_5":33.5,"no2":7.7,"co":319.0,"o3":126.0,"so2":9.4,"mosquito_risk":7,"arthritis_risk":5,"migraine_risk":7,"frizz_risk":1,"updated_at":"2026-06-19T01:01:23.515608+05:30"},{"city":"Cuttack","state":"Odisha","latitude":20.4625,"longitude":85.8828,"temp":29.9,"humidity":88,"rain":0.0,"pressure":1001.2,"uv_index":9.15,"wind_gusts":35.6,"aqi":123,"pm10":38.6,"pm2_5":33.5,"no2":7.7,"co":328.0,"o3":126.0,"so2":9.4,"mosquito_risk":7,"arthritis_risk":5,"migraine_risk":4,"frizz_risk":1,"updated_at":"2026-06-19T01:01:23.515615+05:30"},{"city":"Rourkela","state":"Odisha","latitude":22.2604,"longitude":84.8536,"temp":29.1,"humidity":82,"rain":0.0,"pressure":981.7,"uv_index":9.05,"wind_gusts":48.2,"aqi":147,"pm10":76.1,"pm2_5":60.1,"no2":10.8,"co":474.0,"o3":106.0,"so2":6.4,"mosquito_risk":7,"arthritis_risk":5,"migraine_risk":7,"frizz_risk":1,"updated_at":"2026-06-19T01:01:23.515622+05:30"},{"city":"Raipur","state":"Chhattisgarh","latitude":21.2514,"longitude":81.6296,"temp":30.4,"humidity":63,"rain":0.0,"pressure":971.7,"uv_index":7.55,"wind_gusts":40.3,"aqi":112,"pm10":57.4,"pm2_5":50.3,"no2":63.1,"co":780.0,"o3":21.0,"so2":87.4,"mosquito_risk":3,"arthritis_risk":5,"migraine_risk":7,"frizz_risk":1,"updated_at":"2026-06-19T01:01:23.515629+05:30"},{"city":"Bhilai","state":"Chhattisgarh","latitude":21.1938,"longitude":81.3509,"temp":29.1,"humidity":71,"rain":0.0,"pressure":972.1,"uv_index":8.7,"wind_gusts":46.8,"aqi":104,"pm10":51.2,"pm2_5":44.9,"no2":52.1,"co":965.0,"o3":29.0,"so2":66.2,"mosquito_risk":7,"arthritis_risk":5,"migraine_risk":7,"frizz_risk":1,"updated_at":"2026-06-19T01:01:23.515635+05:30"},{"city":"Guwahati","state":"Assam","latitude":26.1158,"longitude":91.7086,"temp":25.5,"humidity":95,"rain":0.1,"pressure":999.2,"uv_index":8.65,"wind_gusts":33.8,"aqi":85,"pm10":25.4,"pm2_5":22.8,"no2":8.6,"co":397.0,"o3":69.0,"so2":3.3,"mosquito_risk":10,"arthritis_risk":5,"migraine_risk":7,"frizz_risk":1,"updated_at":"2026-06-19T01:01:23.515642+05:30"},{"city":"Agartala","state":"Tripura","latitude":23.8315,"longitude":91.2868,"temp":26.6,"humidity":87,"rain":0.0,"pressure":1004.0,"uv_index":8.4,"wind_gusts":31.0,"aqi":80,"pm10":25.7,"pm2_5":20.5,"no2":8.4,"co":213.0,"o3":68.0,"so2":2.4,"mosquito_risk":7,"arthritis_risk":5,"migraine_risk":4,"frizz_risk":1,"updated_at":"2026-06-19T01:01:23.515648+05:30"},{"city":"Shillong","state":"Meghalaya","latitude":25.5788,"longitude":91.8933,"temp":19.1,"humidity":92,"rain":0.0,"pressure":856.0,"uv_index":8.45,"wind_gusts":23.8,"aqi":68,"pm10":8.4,"pm2_5":7.2,"no2":5.1,"co":267.0,"o3":90.0,"so2":3.5,"mosquito_risk":3,"arthritis_risk":10,"migraine_risk":7,"frizz_risk":1,"updated_at":"2026-06-19T01:01:23.515655+05:30"},{"city":"Imphal","state":"Manipur","latitude":24.817,"longitude":93.9368,"temp":22.6,"humidity":95,"rain":0.0,"pressure":921.3,"uv_index":8.15,"wind_gusts":27.7,"aqi":76,"pm10":21.8,"pm2_5":19.4,"no2":8.9,"co":370.0,"o3":48.0,"so2":2.4,"mosquito_risk":3,"arthritis_risk":5,"migraine_risk":7,"frizz_risk":1,"updated_at":"2026-06-19T01:01:23.515662+05:30"},{"city":"Aizawl","state":"Mizoram","latitude":23.7271,"longitude":92.7176,"temp":19.4,"humidity":95,"rain":0.0,"pressure":890.8,"uv_index":8.9,"wind_gusts":30.6,"aqi":48,"pm10":10.7,"pm2_5":8.8,"no2":3.3,"co":192.0,"o3":56.0,"so2":0.8,"mosquito_risk":3,"arthritis_risk":10,"migraine_risk":7,"frizz_risk":1,"updated_at":"2026-06-19T01:01:23.515669+05:30"},{"city":"Kohima","state":"Nagaland","latitude":25.6701,"longitude":94.1077,"temp":20.0,"humidity":96,"rain":0.1,"pressure":854.2,"uv_index":8.4,"wind_gusts":24.5,"aqi":64,"pm10":12.9,"pm2_5":10.8,"no2":6.1,"co":361.0,"o3":53.0,"so2":1.3,"mosquito_risk":6,"arthritis_risk":5,"migraine_risk":7,"frizz_risk":1,"updated_at":"2026-06-19T01:01:23.515676+05:30"},{"city":"Gangtok","state":"Sikkim","latitude":27.3314,"longitude":88.6138,"temp":18.1,"humidity":94,"rain":0.3,"pressure":836.5,"uv_index":9.0,"wind_gusts":33.8,"aqi":84,"pm10":9.7,"pm2_5":8.6,"no2":7.4,"co":453.0,"o3":112.0,"so2":4.0,"mosquito_risk":6,"arthritis_risk":10,"migraine_risk":7,"frizz_risk":1,"updated_at":"2026-06-19T01:01:23.515682+05:30"},{"city":"Siliguri","state":"West Bengal","latitude":26.7271,"longitude":88.3953,"temp":24.0,"humidity":99,"rain":0.2,"pressure":991.1,"uv_index":8.0,"wind_gusts":23.0,"aqi":88,"pm10":30.2,"pm2_5":25.0,"no2":8.9,"co":547.0,"o3":117.0,"so2":4.0,"mosquito_risk":6,"arthritis_risk":5,"migraine_risk":7,"frizz_risk":1,"updated_at":"2026-06-19T01:01:26.763246+05:30"},{"city":"Durgapur","state":"West Bengal","latitude":23.5204,"longitude":87.3119,"temp":26.7,"humidity":86,"rain":0.0,"pressure":991.8,"uv_index":9.05,"wind_gusts":36.7,"aqi":171,"pm10":102.2,"pm2_5":90.1,"no2":44.3,"co":809.0,"o3":51.0,"so2":65.5,"mosquito_risk":7,"arthritis_risk":5,"migraine_risk":7,"frizz_risk":1,"updated_at":"2026-06-19T01:01:26.763284+05:30"},{"city":"Asansol","state":"West Bengal","latitude":23.6739,"longitude":86.9524,"temp":27.6,"humidity":81,"rain":0.0,"pressure":990.4,"uv_index":9.05,"wind_gusts":38.5,"aqi":169,"pm10":100.1,"pm2_5":82.0,"no2":47.7,"co":558.0,"o3":47.0,"so2":75.2,"mosquito_risk":7,"arthritis_risk":5,"migraine_risk":7,"frizz_risk":1,"updated_at":"2026-06-19T01:01:26.763296+05:30"},{"city":"Pondicherry","state":"Puducherry","latitude":11.9139,"longitude":79.8145,"temp":26.5,"humidity":86,"rain":0.0,"pressure":1008.0,"uv_index":7.4,"wind_gusts":53.3,"aqi":66,"pm10":18.2,"pm2_5":15.5,"no2":13.2,"co":340.0,"o3":86.0,"so2":13.3,"mosquito_risk":7,"arthritis_risk":0,"migraine_risk":4,"frizz_risk":1,"updated_at":"2026-06-19T01:01:26.763305+05:30"},{"city":"Port Blair","state":"Andaman and Nicobar Islands","latitude":11.6234,"longitude":92.7265,"temp":24.9,"humidity":97,"rain":0.1,"pressure":1007.5,"uv_index":8.5,"wind_gusts":34.6,"aqi":20,"pm10":6.3,"pm2_5":3.5,"no2":0.3,"co":94.0,"o3":44.0,"so2":0.3,"mosquito_risk":6,"arthritis_risk":5,"migraine_risk":4,"frizz_risk":1,"updated_at":"2026-06-19T01:01:26.763314+05:30"},{"city":"Haridwar","state":"Uttarakhand","latitude":29.9457,"longitude":78.1642,"temp":27.6,"humidity":74,"rain":0.0,"pressure":969.4,"uv_index":7.65,"wind_gusts":23.8,"aqi":126,"pm10":68.2,"pm2_5":52.3,"no2":27.1,"co":376.0,"o3":50.0,"so2":9.1,"mosquito_risk":7,"arthritis_risk":5,"migraine_risk":7,"frizz_risk":1,"updated_at":"2026-06-19T01:01:26.763321+05:30"},{"city":"Rishikesh","state":"Uttarakhand","latitude":30.0869,"longitude":78.2676,"temp":25.4,"humidity":75,"rain":0.0,"pressure":962.1,"uv_index":7.75,"wind_gusts":25.9,"aqi":113,"pm10":74.7,"pm2_5":40.9,"no2":13.4,"co":395.0,"o3":107.0,"so2":7.7,"mosquito_risk":7,"arthritis_risk":5,"migraine_risk":7,"frizz_risk":1,"updated_at":"2026-06-19T01:01:26.763329+05:30"},{"city":"Nainital","state":"Uttarakhand","latitude":29.3919,"longitude":79.4542,"temp":16.3,"humidity":91,"rain":0.0,"pressure":803.8,"uv_index":6.9,"wind_gusts":29.9,"aqi":113,"pm10":58.8,"pm2_5":33.8,"no2":17.3,"co":359.0,"o3":80.0,"so2":4.5,"mosquito_risk":3,"arthritis_risk":10,"migraine_risk":7,"frizz_risk":0,"updated_at":"2026-06-19T01:01:26.763336+05:30"},{"city":"Mussoorie","state":"Uttarakhand","latitude":30.4599,"longitude":78.0664,"temp":16.2,"humidity":82,"rain":0.0,"pressure":801.1,"uv_index":7.6,"wind_gusts":42.8,"aqi":99,"pm10":48.9,"pm2_5":33.8,"no2":26.5,"co":314.0,"o3":55.0,"so2":5.1,"mosquito_risk":3,"arthritis_risk":10,"migraine_risk":7,"frizz_risk":0,"updated_at":"2026-06-19T01:01:26.763344+05:30"},{"city":"Dharamshala","state":"Himachal Pradesh","latitude":32.219,"longitude":76.3234,"temp":21.7,"humidity":67,"rain":0.0,"pressure":866.9,"uv_index":8.55,"wind_gusts":44.3,"aqi":52,"pm10":17.6,"pm2_5":15.0,"no2":18.3,"co":290.0,"o3":33.0,"so2":0.1,"mosquito_risk":3,"arthritis_risk":5,"migraine_risk":7,"frizz_risk":0,"updated_at":"2026-06-19T01:01:26.763351+05:30"},{"city":"Dalhousie","state":"Himachal Pradesh","latitude":32.5387,"longitude":75.971,"temp":14.1,"humidity":87,"rain":0.0,"pressure":801.4,"uv_index":8.8,"wind_gusts":38.5,"aqi":75,"pm10":47.0,"pm2_5":38.5,"no2":40.6,"co":495.0,"o3":30.0,"so2":1.2,"mosquito_risk":3,"arthritis_risk":10,"migraine_risk":7,"frizz_risk":0,"updated_at":"2026-06-19T01:01:26.763359+05:30"},{"city":"Patiala","state":"Punjab","latitude":30.3398,"longitude":76.3869,"temp":29.8,"humidity":60,"rain":0.0,"pressure":973.5,"uv_index":7.7,"wind_gusts":68.8,"aqi":157,"pm10":121.5,"pm2_5":66.8,"no2":23.6,"co":654.0,"o3":62.0,"so2":8.8,"mosquito_risk":4,"arthritis_risk":5,"migraine_risk":7,"frizz_risk":1,"updated_at":"2026-06-19T01:01:26.763366+05:30"},{"city":"Bhatinda","state":"Punjab","latitude":30.211,"longitude":74.9455,"temp":30.3,"humidity":54,"rain":0.0,"pressure":978.9,"uv_index":8.3,"wind_gusts":73.8,"aqi":138,"pm10":61.7,"pm2_5":48.9,"no2":30.0,"co":425.0,"o3":56.0,"so2":8.4,"mosquito_risk":0,"arthritis_risk":5,"migraine_risk":7,"frizz_risk":1,"updated_at":"2026-06-19T01:01:26.763374+05:30"},{"city":"Rohtak","state":"Haryana","latitude":28.8955,"longitude":76.6066,"temp":29.4,"humidity":58,"rain":0.0,"pressure":977.4,"uv_index":7.8,"wind_gusts":59.0,"aqi":192,"pm10":523.4,"pm2_5":124.3,"no2":33.6,"co":383.0,"o3":63.0,"so2":11.2,"mosquito_risk":4,"arthritis_risk":5,"migraine_risk":7,"frizz_risk":1,"updated_at":"2026-06-19T01:01:26.763381+05:30"},{"city":"Panipat","state":"Haryana","latitude":29.3909,"longitude":76.9635,"temp":29.4,"humidity":56,"rain":0.0,"pressure":976.0,"uv_index":7.65,"wind_gusts":49.7,"aqi":468,"pm10":601.6,"pm2_5":141.1,"no2":24.0,"co":755.0,"o3":75.0,"so2":8.9,"mosquito_risk":4,"arthritis_risk":5,"migraine_risk":7,"frizz_risk":1,"updated_at":"2026-06-19T01:01:26.763389+05:30"},{"city":"Mathura","state":"Uttar Pradesh","latitude":27.4924,"longitude":77.6737,"temp":30.3,"humidity":53,"rain":0.0,"pressure":982.8,"uv_index":8.1,"wind_gusts":27.7,"aqi":179,"pm10":124.3,"pm2_5":63.8,"no2":66.2,"co":623.0,"o3":3.0,"so2":9.7,"mosquito_risk":0,"arthritis_risk":5,"migraine_risk":7,"frizz_risk":1,"updated_at":"2026-06-19T01:01:26.763397+05:30"},{"city":"Vrindavan","state":"Uttar Pradesh","latitude":27.5823,"longitude":77.7027,"temp":30.2,"humidity":52,"rain":0.0,"pressure":983.2,"uv_index":8.1,"wind_gusts":27.0,"aqi":179,"pm10":124.3,"pm2_5":63.8,"no2":66.2,"co":526.0,"o3":3.0,"so2":9.7,"mosquito_risk":0,"arthritis_risk":5,"migraine_risk":7,"frizz_risk":1,"updated_at":"2026-06-19T01:01:26.763405+05:30"},{"city":"Ayodhya","state":"Uttar Pradesh","latitude":26.7922,"longitude":82.1998,"temp":30.1,"humidity":69,"rain":0.0,"pressure":990.5,"uv_index":8.45,"wind_gusts":29.9,"aqi":154,"pm10":149.9,"pm2_5":73.3,"no2":32.9,"co":536.0,"o3":50.0,"so2":12.1,"mosquito_risk":3,"arthritis_risk":5,"migraine_risk":7,"frizz_risk":1,"updated_at":"2026-06-19T01:01:26.763412+05:30"},{"city":"Ratlam","state":"Madhya Pradesh","latitude":23.3315,"longitude":75.0367,"temp":27.1,"humidity":64,"rain":0.0,"pressure":953.4,"uv_index":8.15,"wind_gusts":38.9,"aqi":65,"pm10":36.3,"pm2_5":23.2,"no2":6.3,"co":137.0,"o3":62.0,"so2":6.9,"mosquito_risk":7,"arthritis_risk":5,"migraine_risk":7,"frizz_risk":1,"updated_at":"2026-06-19T01:01:26.763420+05:30"},{"city":"Sagar","state":"Madhya Pradesh","latitude":23.8388,"longitude":78.7378,"temp":27.9,"humidity":66,"rain":0.0,"pressure":947.8,"uv_index":8.75,"wind_gusts":30.6,"aqi":68,"pm10":30.9,"pm2_5":21.6,"no2":8.3,"co":176.0,"o3":65.0,"so2":2.7,"mosquito_risk":7,"arthritis_risk":5,"migraine_risk":7,"frizz_risk":1,"updated_at":"2026-06-19T01:01:26.763428+05:30"},{"city":"Satna","state":"Madhya Pradesh","latitude":24.6005,"longitude":80.8322,"temp":29.9,"humidity":58,"rain":0.0,"pressure":968.0,"uv_index":8.35,"wind_gusts":37.8,"aqi":83,"pm10":34.6,"pm2_5":23.1,"no2":14.2,"co":184.0,"o3":53.0,"so2":3.6,"mosquito_risk":4,"arthritis_risk":5,"migraine_risk":7,"frizz_risk":1,"updated_at":"2026-06-19T01:01:26.763435+05:30"},{"city":"Akola","state":"Maharashtra","latitude":20.7002,"longitude":77.0082,"temp":31.7,"humidity":43,"rain":0.0,"pressure":973.6,"uv_index":8.8,"wind_gusts":42.5,"aqi":64,"pm10":30.7,"pm2_5":19.3,"no2":10.9,"co":146.0,"o3":69.0,"so2":8.2,"mosquito_risk":0,"arthritis_risk":5,"migraine_risk":7,"frizz_risk":1,"updated_at":"2026-06-19T01:01:26.763442+05:30"},{"city":"Amravati","state":"Maharashtra","latitude":20.9374,"longitude":77.7796,"temp":30.9,"humidity":40,"rain":0.0,"pressure":965.2,"uv_index":8.7,"wind_gusts":39.6,"aqi":69,"pm10":36.9,"pm2_5":22.2,"no2":15.6,"co":199.0,"o3":56.0,"so2":6.8,"mosquito_risk":0,"arthritis_risk":5,"migraine_risk":7,"frizz_risk":0,"updated_at":"2026-06-19T01:01:26.763450+05:30"},{"city":"Latur","state":"Maharashtra","latitude":18.4088,"longitude":76.5604,"temp":29.3,"humidity":42,"rain":0.0,"pressure":938.6,"uv_index":8.85,"wind_gusts":29.5,"aqi":65,"pm10":35.6,"pm2_5":27.7,"no2":23.3,"co":163.0,"o3":59.0,"so2":6.4,"mosquito_risk":4,"arthritis_risk":5,"migraine_risk":7,"frizz_risk":0,"updated_at":"2026-06-19T01:01:26.763458+05:30"},{"city":"Nanded","state":"Maharashtra","latitude":19.1383,"longitude":77.3091,"temp":31.5,"humidity":38,"rain":0.0,"pressure":966.5,"uv_index":8.85,"wind_gusts":35.6,"aqi":65,"pm10":54.2,"pm2_5":35.7,"no2":29.7,"co":283.0,"o3":37.0,"so2":7.2,"mosquito_risk":0,"arthritis_risk":5,"migraine_risk":7,"frizz_risk":0,"updated_at":"2026-06-19T01:01:26.763465+05:30"},{"city":"Gulbarga","state":"Karnataka","latitude":17.3297,"longitude":76.8343,"temp":30.3,"humidity":43,"rain":0.0,"pressure":957.3,"uv_index":8.85,"wind_gusts":39.6,"aqi":64,"pm10":44.4,"pm2_5":32.5,"no2":41.9,"co":168.0,"o3":33.0,"so2":7.1,"mosquito_risk":0,"arthritis_risk":5,"migraine_risk":7,"frizz_risk":1,"updated_at":"2026-06-19T01:01:26.763471+05:30"},{"city":"Bidar","state":"Karnataka","latitude":17.9104,"longitude":77.5199,"temp":28.8,"humidity":55,"rain":0.0,"pressure":933.9,"uv_index":8.55,"wind_gusts":32.4,"aqi":71,"pm10":49.4,"pm2_5":35.0,"no2":35.6,"co":495.0,"o3":35.0,"so2":5.2,"mosquito_risk":4,"arthritis_risk":5,"migraine_risk":7,"frizz_risk":1,"updated_at":"2026-06-19T01:01:26.763479+05:30"},{"city":"Hospet","state":"Karnataka","latitude":15.2689,"longitude":76.3909,"temp":25.6,"humidity":80,"rain":0.0,"pressure":955.7,"uv_index":8.95,"wind_gusts":36.7,"aqi":52,"pm10":22.8,"pm2_5":14.8,"no2":7.1,"co":156.0,"o3":51.0,"so2":2.2,"mosquito_risk":7,"arthritis_risk":5,"migraine_risk":7,"frizz_risk":1,"updated_at":"2026-06-19T01:01:26.763485+05:30"},{"city":"Tirupur","state":"Tamil Nadu","latitude":11.1085,"longitude":77.3411,"temp":24.2,"humidity":95,"rain":0.0,"pressure":975.7,"uv_index":5.05,"wind_gusts":32.8,"aqi":53,"pm10":20.5,"pm2_5":17.7,"no2":26.8,"co":190.0,"o3":26.0,"so2":6.1,"mosquito_risk":3,"arthritis_risk":5,"migraine_risk":3,"frizz_risk":1,"updated_at":"2026-06-19T01:01:26.763492+05:30"},{"city":"Alappuzha","state":"Kerala","latitude":9.4981,"longitude":76.3388,"temp":26.1,"humidity":93,"rain":0.0,"pressure":1010.0,"uv_index":6.85,"wind_gusts":32.0,"aqi":62,"pm10":29.5,"pm2_5":21.0,"no2":18.5,"co":288.0,"o3":33.0,"so2":6.0,"mosquito_risk":7,"arthritis_risk":0,"migraine_risk":4,"frizz_risk":1,"updated_at":"2026-06-19T01:01:26.763499+05:30"},{"city":"Munnar","state":"Kerala","latitude":10.0889,"longitude":77.0595,"temp":16.5,"humidity":100,"rain":0.0,"pressure":856.6,"uv_index":3.85,"wind_gusts":23.4,"aqi":28,"pm10":4.4,"pm2_5":4.0,"no2":11.4,"co":148.0,"o3":26.0,"so2":2.0,"mosquito_risk":3,"arthritis_risk":10,"migraine_risk":3,"frizz_risk":1,"updated_at":"2026-06-19T01:01:26.763506+05:30"},{"city":"Silchar","state":"Assam","latitude":24.8333,"longitude":92.7789,"temp":25.4,"humidity":95,"rain":0.1,"pressure":1003.4,"uv_index":8.85,"wind_gusts":31.3,"aqi":92,"pm10":25.8,"pm2_5":21.2,"no2":8.1,"co":291.0,"o3":70.0,"so2":3.9,"mosquito_risk":10,"arthritis_risk":5,"migraine_risk":4,"frizz_risk":1,"updated_at":"2026-06-19T01:01:26.763513+05:30"},{"city":"Dibrugarh","state":"Assam","latitude":27.4728,"longitude":94.912,"temp":25.2,"humidity":97,"rain":0.1,"pressure":992.7,"uv_index":8.65,"wind_gusts":22.0,"aqi":67,"pm10":15.3,"pm2_5":13.4,"no2":7.7,"co":311.0,"o3":86.0,"so2":1.4,"mosquito_risk":10,"arthritis_risk":5,"migraine_risk":7,"frizz_risk":1,"updated_at":"2026-06-19T01:01:26.763520+05:30"}]