[{"city":"Delhi","state":"Delhi","latitude":28.6139,"longitude":77.209,"temp":29.9,"humidity":45,"rain":0.0,"pressure":983.5,"uv_index":7.6,"wind_gusts":32.0,"aqi":183,"pm10":233.3,"pm2_5":68.7,"no2":24.0,"co":614.0,"o3":120.0,"so2":23.2,"mosquito_risk":4,"arthritis_risk":5,"migraine_risk":7,"frizz_risk":1,"updated_at":"2026-05-10T22:35:51.482301+05:30"},{"city":"Mumbai","state":"Maharashtra","latitude":19.076,"longitude":72.8777,"temp":31.2,"humidity":60,"rain":0.0,"pressure":1005.2,"uv_index":7.9,"wind_gusts":46.8,"aqi":91,"pm10":49.1,"pm2_5":24.4,"no2":14.7,"co":382.0,"o3":89.0,"so2":11.0,"mosquito_risk":0,"arthritis_risk":5,"migraine_risk":4,"frizz_risk":1,"updated_at":"2026-05-10T22:35:51.482342+05:30"},{"city":"Bangalore","state":"Karnataka","latitude":12.9716,"longitude":77.5946,"temp":24.5,"humidity":71,"rain":0.0,"pressure":911.6,"uv_index":9.5,"wind_gusts":43.9,"aqi":63,"pm10":20.7,"pm2_5":18.3,"no2":31.1,"co":327.0,"o3":58.0,"so2":10.0,"mosquito_risk":3,"arthritis_risk":5,"migraine_risk":7,"frizz_risk":1,"updated_at":"2026-05-10T22:35:51.482358+05:30"},{"city":"Hyderabad","state":"Telangana","latitude":17.385,"longitude":78.4867,"temp":31.1,"humidity":41,"rain":0.0,"pressure":953.1,"uv_index":9.25,"wind_gusts":38.9,"aqi":92,"pm10":32.8,"pm2_5":23.8,"no2":10.4,"co":297.0,"o3":92.0,"so2":7.1,"mosquito_risk":0,"arthritis_risk":5,"migraine_risk":7,"frizz_risk":1,"updated_at":"2026-05-10T22:35:51.482368+05:30"},{"city":"Chennai","state":"Tamil Nadu","latitude":13.0827,"longitude":80.2707,"temp":28.8,"humidity":75,"rain":0.0,"pressure":1006.9,"uv_index":9.0,"wind_gusts":40.0,"aqi":22,"pm10":6.7,"pm2_5":5.1,"no2":7.9,"co":207.0,"o3":40.0,"so2":2.5,"mosquito_risk":7,"arthritis_risk":5,"migraine_risk":4,"frizz_risk":1,"updated_at":"2026-05-10T22:35:51.482383+05:30"},{"city":"Kolkata","state":"West Bengal","latitude":22.5726,"longitude":88.3639,"temp":25.3,"humidity":88,"rain":0.0,"pressure":1008.8,"uv_index":8.5,"wind_gusts":19.1,"aqi":155,"pm10":78.9,"pm2_5":74.0,"no2":32.0,"co":594.0,"o3":48.0,"so2":17.7,"mosquito_risk":7,"arthritis_risk":0,"migraine_risk":4,"frizz_risk":1,"updated_at":"2026-05-10T22:35:51.482392+05:30"},{"city":"Pune","state":"Maharashtra","latitude":18.5204,"longitude":73.8567,"temp":32.0,"humidity":32,"rain":0.0,"pressure":946.5,"uv_index":8.5,"wind_gusts":36.4,"aqi":95,"pm10":26.5,"pm2_5":21.0,"no2":16.9,"co":437.0,"o3":106.0,"so2":13.0,"mosquito_risk":0,"arthritis_risk":5,"migraine_risk":7,"frizz_risk":0,"updated_at":"2026-05-10T22:35:51.482400+05:30"},{"city":"Ahmedabad","state":"Gujarat","latitude":23.0225,"longitude":72.5714,"temp":38.3,"humidity":16,"rain":0.0,"pressure":998.9,"uv_index":8.1,"wind_gusts":34.2,"aqi":63,"pm10":68.7,"pm2_5":27.6,"no2":16.5,"co":230.0,"o3":71.0,"so2":7.7,"mosquito_risk":0,"arthritis_risk":5,"migraine_risk":10,"frizz_risk":0,"updated_at":"2026-05-10T22:35:51.482411+05:30"},{"city":"Jaipur","state":"Rajasthan","latitude":26.9124,"longitude":75.7873,"temp":30.8,"humidity":40,"rain":0.0,"pressure":959.7,"uv_index":8.15,"wind_gusts":28.4,"aqi":178,"pm10":338.1,"pm2_5":71.0,"no2":18.5,"co":421.0,"o3":96.0,"so2":9.7,"mosquito_risk":0,"arthritis_risk":5,"migraine_risk":7,"frizz_risk":0,"updated_at":"2026-05-10T22:35:51.482419+05:30"},{"city":"Lucknow","state":"Uttar Pradesh","latitude":26.8467,"longitude":80.9462,"temp":28.6,"humidity":51,"rain":0.0,"pressure":995.1,"uv_index":8.05,"wind_gusts":35.3,"aqi":130,"pm10":56.1,"pm2_5":42.1,"no2":15.1,"co":495.0,"o3":105.0,"so2":12.4,"mosquito_risk":4,"arthritis_risk":5,"migraine_risk":7,"frizz_risk":1,"updated_at":"2026-05-10T22:35:51.482427+05:30"},{"city":"Kanpur","state":"Uttar Pradesh","latitude":26.4499,"longitude":80.3319,"temp":29.4,"humidity":48,"rain":0.0,"pressure":992.9,"uv_index":8.1,"wind_gusts":33.8,"aqi":146,"pm10":216.5,"pm2_5":51.5,"no2":11.3,"co":398.0,"o3":109.0,"so2":9.8,"mosquito_risk":4,"arthritis_risk":5,"migraine_risk":7,"frizz_risk":1,"updated_at":"2026-05-10T22:35:51.482434+05:30"},{"city":"Chandigarh","state":"Chandigarh","latitude":30.7333,"longitude":76.7794,"temp":25.8,"humidity":63,"rain":0.0,"pressure":968.9,"uv_index":7.7,"wind_gusts":39.2,"aqi":152,"pm10":125.7,"pm2_5":74.3,"no2":41.5,"co":790.0,"o3":68.0,"so2":12.7,"mosquito_risk":7,"arthritis_risk":5,"migraine_risk":7,"frizz_risk":1,"updated_at":"2026-05-10T22:35:51.482442+05:30"},{"city":"Srinagar","state":"Jammu and Kashmir","latitude":34.0837,"longitude":74.7973,"temp":15.1,"humidity":75,"rain":0.0,"pressure":840.2,"uv_index":8.25,"wind_gusts":18.0,"aqi":105,"pm10":93.6,"pm2_5":58.7,"no2":38.4,"co":1021.0,"o3":62.0,"so2":8.9,"mosquito_risk":3,"arthritis_risk":5,"migraine_risk":7,"frizz_risk":0,"updated_at":"2026-05-10T22:35:51.482451+05:30"},{"city":"Jammu","state":"Jammu and Kashmir","latitude":32.7266,"longitude":74.857,"temp":28.8,"humidity":53,"rain":0.0,"pressure":972.3,"uv_index":8.2,"wind_gusts":33.8,"aqi":157,"pm10":162.5,"pm2_5":69.6,"no2":30.5,"co":637.0,"o3":71.0,"so2":10.3,"mosquito_risk":4,"arthritis_risk":5,"migraine_risk":7,"frizz_risk":1,"updated_at":"2026-05-10T22:35:51.482458+05:30"},{"city":"Amritsar","state":"Punjab","latitude":31.634,"longitude":74.8723,"temp":29.8,"humidity":50,"rain":0.0,"pressure":980.0,"uv_index":8.35,"wind_gusts":29.9,"aqi":167,"pm10":207.2,"pm2_5":74.7,"no2":8.4,"co":584.0,"o3":119.0,"so2":10.8,"mosquito_risk":4,"arthritis_risk":5,"migraine_risk":7,"frizz_risk":1,"updated_at":"2026-05-10T22:35:51.482466+05:30"},{"city":"Ludhiana","state":"Punjab","latitude":30.901,"longitude":75.8573,"temp":28.7,"humidity":55,"rain":0.0,"pressure":978.2,"uv_index":7.95,"wind_gusts":34.9,"aqi":173,"pm10":190.5,"pm2_5":73.1,"no2":14.2,"co":730.0,"o3":112.0,"so2":13.5,"mosquito_risk":4,"arthritis_risk":5,"migraine_risk":7,"frizz_risk":1,"updated_at":"2026-05-10T22:35:51.482473+05:30"},{"city":"Jalandhar","state":"Punjab","latitude":31.326,"longitude":75.5762,"temp":27.9,"humidity":62,"rain":0.0,"pressure":979.0,"uv_index":8.15,"wind_gusts":33.5,"aqi":169,"pm10":195.6,"pm2_5":75.7,"no2":18.5,"co":812.0,"o3":104.0,"so2":17.0,"mosquito_risk":7,"arthritis_risk":5,"migraine_risk":7,"frizz_risk":1,"updated_at":"2026-05-10T22:35:51.482481+05:30"},{"city":"Dehradun","state":"Uttarakhand","latitude":30.6284,"longitude":78.0322,"temp":14.1,"humidity":92,"rain":0.0,"pressure":830.7,"uv_index":8.05,"wind_gusts":26.6,"aqi":124,"pm10":85.7,"pm2_5":47.6,"no2":24.6,"co":317.0,"o3":100.0,"so2":3.8,"mosquito_risk":3,"arthritis_risk":10,"migraine_risk":7,"frizz_risk":0,"updated_at":"2026-05-10T22:35:51.482491+05:30"},{"city":"Shimla","state":"Himachal Pradesh","latitude":31.1048,"longitude":77.1734,"temp":12.9,"humidity":83,"rain":0.0,"pressure":784.7,"uv_index":8.05,"wind_gusts":39.2,"aqi":157,"pm10":152.3,"pm2_5":74.0,"no2":22.5,"co":439.0,"o3":118.0,"so2":13.8,"mosquito_risk":3,"arthritis_risk":10,"migraine_risk":7,"frizz_risk":0,"updated_at":"2026-05-10T22:35:51.482498+05:30"},{"city":"Manali","state":"Himachal Pradesh","latitude":32.2396,"longitude":77.1887,"temp":12.6,"humidity":93,"rain":0.0,"pressure":817.7,"uv_index":9.75,"wind_gusts":46.8,"aqi":151,"pm10":44.2,"pm2_5":21.8,"no2":50.7,"co":430.0,"o3":109.0,"so2":1.6,"mosquito_risk":3,"arthritis_risk":10,"migraine_risk":7,"frizz_risk":0,"updated_at":"2026-05-10T22:35:51.482505+05:30"},{"city":"Gurgaon","state":"Haryana","latitude":28.4595,"longitude":77.0266,"temp":28.8,"humidity":47,"rain":0.0,"pressure":981.7,"uv_index":7.7,"wind_gusts":32.0,"aqi":628,"pm10":1210.7,"pm2_5":160.2,"no2":25.4,"co":602.0,"o3":114.0,"so2":20.8,"mosquito_risk":4,"arthritis_risk":5,"migraine_risk":7,"frizz_risk":1,"updated_at":"2026-05-10T22:35:51.482512+05:30"},{"city":"Noida","state":"Uttar Pradesh","latitude":28.5355,"longitude":77.391,"temp":26.4,"humidity":58,"rain":0.0,"pressure":984.9,"uv_index":7.65,"wind_gusts":31.3,"aqi":628,"pm10":1210.7,"pm2_5":160.2,"no2":25.4,"co":599.0,"o3":114.0,"so2":20.8,"mosquito_risk":4,"arthritis_risk":5,"migraine_risk":7,"frizz_risk":1,"updated_at":"2026-05-10T22:35:51.482521+05:30"},{"city":"Ghaziabad","state":"Uttar Pradesh","latitude":28.6692,"longitude":77.4538,"temp":27.2,"humidity":57,"rain":0.0,"pressure":983.3,"uv_index":7.6,"wind_gusts":34.2,"aqi":144,"pm10":139.7,"pm2_5":58.4,"no2":11.0,"co":482.0,"o3":124.0,"so2":12.6,"mosquito_risk":4,"arthritis_risk":5,"migraine_risk":7,"frizz_risk":1,"updated_at":"2026-05-10T22:35:51.482528+05:30"},{"city":"Faridabad","state":"Haryana","latitude":28.4089,"longitude":77.3178,"temp":28.2,"humidity":51,"rain":0.0,"pressure":984.4,"uv_index":7.65,"wind_gusts":33.8,"aqi":628,"pm10":1210.7,"pm2_5":160.2,"no2":25.4,"co":623.0,"o3":114.0,"so2":20.8,"mosquito_risk":4,"arthritis_risk":5,"migraine_risk":7,"frizz_risk":1,"updated_at":"2026-05-10T22:35:51.482535+05:30"},{"city":"Meerut","state":"Uttar Pradesh","latitude":28.9845,"longitude":77.7064,"temp":25.5,"humidity":68,"rain":0.0,"pressure":981.9,"uv_index":7.55,"wind_gusts":34.6,"aqi":144,"pm10":139.7,"pm2_5":58.4,"no2":11.0,"co":567.0,"o3":124.0,"so2":12.6,"mosquito_risk":7,"arthritis_risk":5,"migraine_risk":7,"frizz_risk":1,"updated_at":"2026-05-10T22:35:51.482541+05:30"},{"city":"Agra","state":"Uttar Pradesh","latitude":27.1767,"longitude":78.0081,"temp":29.1,"humidity":49,"rain":0.0,"pressure":988.2,"uv_index":7.95,"wind_gusts":24.1,"aqi":427,"pm10":702.2,"pm2_5":103.1,"no2":15.7,"co":450.0,"o3":98.0,"so2":15.5,"mosquito_risk":4,"arthritis_risk":5,"migraine_risk":7,"frizz_risk":1,"updated_at":"2026-05-10T22:35:51.482548+05:30"},{"city":"Varanasi","state":"Uttar Pradesh","latitude":25.3176,"longitude":82.9739,"temp":28.1,"humidity":49,"rain":0.0,"pressure":999.2,"uv_index":8.55,"wind_gusts":29.9,"aqi":156,"pm10":55.6,"pm2_5":45.9,"no2":15.8,"co":445.0,"o3":124.0,"so2":17.3,"mosquito_risk":4,"arthritis_risk":5,"migraine_risk":7,"frizz_risk":1,"updated_at":"2026-05-10T22:35:51.482555+05:30"},{"city":"Prayagraj","state":"Uttar Pradesh","latitude":25.4358,"longitude":81.8463,"temp":29.1,"humidity":42,"rain":0.0,"pressure":997.0,"uv_index":8.45,"wind_gusts":32.8,"aqi":138,"pm10":53.1,"pm2_5":43.8,"no2":19.8,"co":446.0,"o3":95.0,"so2":13.2,"mosquito_risk":4,"arthritis_risk":5,"migraine_risk":7,"frizz_risk":0,"updated_at":"2026-05-10T22:35:51.482565+05:30"},{"city":"Gorakhpur","state":"Uttar Pradesh","latitude":26.7606,"longitude":83.3732,"temp":26.4,"humidity":64,"rain":0.0,"pressure":999.8,"uv_index":8.4,"wind_gusts":33.8,"aqi":100,"pm10":47.8,"pm2_5":42.7,"no2":17.6,"co":440.0,"o3":93.0,"so2":10.7,"mosquito_risk":7,"arthritis_risk":5,"migraine_risk":7,"frizz_risk":1,"updated_at":"2026-05-10T22:35:51.482571+05:30"},{"city":"Bareilly","state":"Uttar Pradesh","latitude":28.367,"longitude":79.4304,"temp":25.6,"humidity":64,"rain":0.0,"pressure":987.9,"uv_index":7.9,"wind_gusts":29.5,"aqi":114,"pm10":50.3,"pm2_5":40.6,"no2":17.2,"co":456.0,"o3":80.0,"so2":5.7,"mosquito_risk":7,"arthritis_risk":5,"migraine_risk":7,"frizz_risk":1,"updated_at":"2026-05-10T22:35:51.482578+05:30"},{"city":"Aligarh","state":"Uttar Pradesh","latitude":27.8974,"longitude":78.088,"temp":27.6,"humidity":55,"rain":0.0,"pressure":986.0,"uv_index":7.75,"wind_gusts":31.7,"aqi":203,"pm10":305.5,"pm2_5":70.1,"no2":13.9,"co":439.0,"o3":104.0,"so2":14.6,"mosquito_risk":4,"arthritis_risk":5,"migraine_risk":7,"frizz_risk":1,"updated_at":"2026-05-10T22:35:51.482585+05:30"},{"city":"Moradabad","state":"Uttar Pradesh","latitude":28.8386,"longitude":78.7733,"temp":25.7,"humidity":68,"rain":0.0,"pressure":984.4,"uv_index":7.75,"wind_gusts":32.4,"aqi":136,"pm10":75.2,"pm2_5":61.0,"no2":24.9,"co":715.0,"o3":96.0,"so2":14.8,"mosquito_risk":7,"arthritis_risk":5,"migraine_risk":7,"frizz_risk":1,"updated_at":"2026-05-10T22:35:51.482592+05:30"},{"city":"Saharanpur","state":"Uttar Pradesh","latitude":29.9637,"longitude":77.546,"temp":25.6,"humidity":63,"rain":0.0,"pressure":976.2,"uv_index":7.35,"wind_gusts":31.7,"aqi":146,"pm10":117.8,"pm2_5":82.2,"no2":35.0,"co":810.0,"o3":63.0,"so2":15.4,"mosquito_risk":7,"arthritis_risk":5,"migraine_risk":7,"frizz_risk":1,"updated_at":"2026-05-10T22:35:51.482598+05:30"},{"city":"Jhansi","state":"Uttar Pradesh","latitude":25.4484,"longitude":78.5685,"temp":29.4,"humidity":43,"rain":0.0,"pressure":977.9,"uv_index":8.4,"wind_gusts":27.0,"aqi":136,"pm10":106.9,"pm2_5":40.0,"no2":5.8,"co":349.0,"o3":107.0,"so2":8.4,"mosquito_risk":4,"arthritis_risk":5,"migraine_risk":7,"frizz_risk":0,"updated_at":"2026-05-10T22:35:54.745020+05:30"},{"city":"Surat","state":"Gujarat","latitude":21.1702,"longitude":72.8311,"temp":31.5,"humidity":62,"rain":0.0,"pressure":1003.5,"uv_index":7.75,"wind_gusts":34.9,"aqi":98,"pm10":52.3,"pm2_5":40.6,"no2":50.8,"co":442.0,"o3":66.0,"so2":68.6,"mosquito_risk":3,"arthritis_risk":5,"migraine_risk":4,"frizz_risk":1,"updated_at":"2026-05-10T22:35:54.745049+05:30"},{"city":"Vadodara","state":"Gujarat","latitude":22.3072,"longitude":73.1812,"temp":36.7,"humidity":19,"rain":0.0,"pressure":1000.8,"uv_index":8.1,"wind_gusts":29.5,"aqi":104,"pm10":57.3,"pm2_5":33.5,"no2":28.1,"co":590.0,"o3":90.0,"so2":19.7,"mosquito_risk":0,"arthritis_risk":5,"migraine_risk":7,"frizz_risk":0,"updated_at":"2026-05-10T22:35:54.745060+05:30"},{"city":"Rajkot","state":"Gujarat","latitude":22.3039,"longitude":70.8022,"temp":29.6,"humidity":55,"rain":0.0,"pressure":993.0,"uv_index":7.7,"wind_gusts":38.9,"aqi":53,"pm10":40.3,"pm2_5":13.8,"no2":6.4,"co":184.0,"o3":67.0,"so2":7.1,"mosquito_risk":4,"arthritis_risk":5,"migraine_risk":7,"frizz_risk":1,"updated_at":"2026-05-10T22:35:54.745068+05:30"},{"city":"Thane","state":"Maharashtra","latitude":19.2183,"longitude":72.9781,"temp":31.6,"humidity":50,"rain":0.0,"pressure":1004.6,"uv_index":7.9,"wind_gusts":45.4,"aqi":91,"pm10":49.1,"pm2_5":24.4,"no2":14.7,"co":283.0,"o3":89.0,"so2":11.0,"mosquito_risk":0,"arthritis_risk":5,"migraine_risk":4,"frizz_risk":1,"updated_at":"2026-05-10T22:35:54.745076+05:30"},{"city":"Nagpur","state":"Maharashtra","latitude":21.1458,"longitude":79.0882,"temp":32.2,"humidity":34,"rain":0.0,"pressure":971.5,"uv_index":8.9,"wind_gusts":29.2,"aqi":136,"pm10":63.1,"pm2_5":41.0,"no2":22.7,"co":398.0,"o3":101.0,"so2":19.2,"mosquito_risk":0,"arthritis_risk":5,"migraine_risk":7,"frizz_risk":0,"updated_at":"2026-05-10T22:35:54.745084+05:30"},{"city":"Nashik","state":"Maharashtra","latitude":19.9975,"longitude":73.7898,"temp":31.4,"humidity":32,"rain":0.0,"pressure":944.0,"uv_index":8.2,"wind_gusts":45.7,"aqi":129,"pm10":35.2,"pm2_5":23.6,"no2":13.5,"co":266.0,"o3":121.0,"so2":19.9,"mosquito_risk":0,"arthritis_risk":5,"migraine_risk":7,"frizz_risk":0,"updated_at":"2026-05-10T22:35:54.745091+05:30"},{"city":"Aurangabad","state":"Maharashtra","latitude":19.8762,"longitude":75.3433,"temp":32.8,"humidity":21,"rain":0.0,"pressure":942.4,"uv_index":9.05,"wind_gusts":45.0,"aqi":82,"pm10":50.5,"pm2_5":26.6,"no2":20.0,"co":314.0,"o3":82.0,"so2":6.9,"mosquito_risk":0,"arthritis_risk":5,"migraine_risk":7,"frizz_risk":0,"updated_at":"2026-05-10T22:35:54.745098+05:30"},{"city":"Solapur","state":"Maharashtra","latitude":17.6599,"longitude":75.9064,"temp":33.7,"humidity":27,"rain":0.0,"pressure":955.5,"uv_index":9.05,"wind_gusts":38.5,"aqi":103,"pm10":33.9,"pm2_5":25.0,"no2":14.5,"co":358.0,"o3":87.0,"so2":7.9,"mosquito_risk":0,"arthritis_risk":5,"migraine_risk":7,"frizz_risk":0,"updated_at":"2026-05-10T22:35:54.745106+05:30"},{"city":"Kolhapur","state":"Maharashtra","latitude":16.705,"longitude":74.2433,"temp":27.7,"humidity":70,"rain":0.0,"pressure":946.5,"uv_index":8.95,"wind_gusts":44.3,"aqi":122,"pm10":36.1,"pm2_5":28.2,"no2":15.4,"co":242.0,"o3":97.0,"so2":10.3,"mosquito_risk":7,"arthritis_risk":5,"migraine_risk":7,"frizz_risk":1,"updated_at":"2026-05-10T22:35:54.745113+05:30"},{"city":"Goa","state":"Goa","latitude":15.2993,"longitude":74.124,"temp":29.6,"humidity":82,"rain":0.0,"pressure":996.3,"uv_index":6.85,"wind_gusts":48.6,"aqi":83,"pm10":46.2,"pm2_5":28.6,"no2":10.0,"co":337.0,"o3":75.0,"so2":4.9,"mosquito_risk":7,"arthritis_risk":5,"migraine_risk":7,"frizz_risk":1,"updated_at":"2026-05-10T22:35:54.745121+05:30"},{"city":"Jodhpur","state":"Rajasthan","latitude":26.2389,"longitude":73.0243,"temp":37.0,"humidity":13,"rain":0.0,"pressure":980.4,"uv_index":8.4,"wind_gusts":35.3,"aqi":76,"pm10":71.5,"pm2_5":28.9,"no2":29.4,"co":245.0,"o3":62.0,"so2":7.6,"mosquito_risk":0,"arthritis_risk":5,"migraine_risk":10,"frizz_risk":0,"updated_at":"2026-05-10T22:35:54.745128+05:30"},{"city":"Udaipur","state":"Rajasthan","latitude":24.5854,"longitude":73.7125,"temp":33.1,"humidity":17,"rain":0.0,"pressure":945.3,"uv_index":8.8,"wind_gusts":38.5,"aqi":65,"pm10":32.2,"pm2_5":14.9,"no2":8.4,"co":214.0,"o3":63.0,"so2":3.9,"mosquito_risk":0,"arthritis_risk":5,"migraine_risk":7,"frizz_risk":0,"updated_at":"2026-05-10T22:35:54.745136+05:30"},{"city":"Kota","state":"Rajasthan","latitude":25.2138,"longitude":75.8648,"temp":31.5,"humidity":33,"rain":0.0,"pressure":977.4,"uv_index":8.35,"wind_gusts":35.6,"aqi":110,"pm10":128.1,"pm2_5":45.2,"no2":10.0,"co":390.0,"o3":98.0,"so2":10.0,"mosquito_risk":0,"arthritis_risk":5,"migraine_risk":7,"frizz_risk":0,"updated_at":"2026-05-10T22:35:54.745144+05:30"},{"city":"Bikaner","state":"Rajasthan","latitude":28.0229,"longitude":73.3119,"temp":34.8,"humidity":27,"rain":0.0,"pressure":979.4,"uv_index":8.3,"wind_gusts":32.0,"aqi":110,"pm10":66.4,"pm2_5":28.9,"no2":5.6,"co":334.0,"o3":97.0,"so2":8.6,"mosquito_risk":0,"arthritis_risk":5,"migraine_risk":7,"frizz_risk":0,"updated_at":"2026-05-10T22:35:54.745151+05:30"},{"city":"Ajmer","state":"Rajasthan","latitude":26.4499,"longitude":74.6399,"temp":31.8,"humidity":33,"rain":0.0,"pressure":953.8,"uv_index":8.3,"wind_gusts":32.4,"aqi":100,"pm10":117.8,"pm2_5":42.7,"no2":11.5,"co":440.0,"o3":88.0,"so2":7.4,"mosquito_risk":0,"arthritis_risk":5,"migraine_risk":7,"frizz_risk":0,"updated_at":"2026-05-10T22:35:54.745158+05:30"},{"city":"Gwalior","state":"Madhya Pradesh","latitude":26.2183,"longitude":78.1828,"temp":29.4,"humidity":45,"rain":0.0,"pressure":983.4,"uv_index":8.15,"wind_gusts":24.1,"aqi":130,"pm10":170.4,"pm2_5":48.2,"no2":6.9,"co":436.0,"o3":108.0,"so2":8.4,"mosquito_risk":4,"arthritis_risk":5,"migraine_risk":7,"frizz_risk":1,"updated_at":"2026-05-10T22:35:54.745165+05:30"},{"city":"Indore","state":"Madhya Pradesh","latitude":22.7196,"longitude":75.8577,"temp":33.3,"humidity":18,"rain":0.0,"pressure":947.1,"uv_index":8.65,"wind_gusts":47.5,"aqi":106,"pm10":56.7,"pm2_5":30.0,"no2":7.4,"co":371.0,"o3":123.0,"so2":12.9,"mosquito_risk":0,"arthritis_risk":5,"migraine_risk":7,"frizz_risk":0,"updated_at":"2026-05-10T22:35:54.745172+05:30"},{"city":"Bhopal","state":"Madhya Pradesh","latitude":23.2599,"longitude":77.4126,"temp":31.1,"humidity":22,"rain":0.0,"pressure":953.0,"uv_index":8.65,"wind_gusts":46.1,"aqi":94,"pm10":68.5,"pm2_5":27.3,"no2":4.7,"co":345.0,"o3":107.0,"so2":4.2,"mosquito_risk":0,"arthritis_risk":5,"migraine_risk":7,"frizz_risk":0,"updated_at":"2026-05-10T22:35:54.745179+05:30"},{"city":"Jabalpur","state":"Madhya Pradesh","latitude":23.1815,"longitude":79.9864,"temp":30.4,"humidity":35,"rain":0.0,"pressure":961.0,"uv_index":8.8,"wind_gusts":32.8,"aqi":106,"pm10":64.7,"pm2_5":29.6,"no2":10.9,"co":273.0,"o3":103.0,"so2":6.2,"mosquito_risk":0,"arthritis_risk":5,"migraine_risk":7,"frizz_risk":0,"updated_at":"2026-05-10T22:35:54.745185+05:30"},{"city":"Ujjain","state":"Madhya Pradesh","latitude":23.1765,"longitude":75.7885,"temp":32.2,"humidity":20,"rain":0.0,"pressure":952.4,"uv_index":8.6,"wind_gusts":40.7,"aqi":95,"pm10":54.7,"pm2_5":33.4,"no2":8.9,"co":314.0,"o3":98.0,"so2":10.1,"mosquito_risk":0,"arthritis_risk":5,"migraine_risk":7,"frizz_risk":0,"updated_at":"2026-05-10T22:35:54.745193+05:30"},{"city":"Visakhapatnam","state":"Andhra Pradesh","latitude":17.6868,"longitude":83.2185,"temp":27.8,"humidity":77,"rain":0.0,"pressure":1005.3,"uv_index":9.1,"wind_gusts":36.4,"aqi":70,"pm10":31.4,"pm2_5":28.1,"no2":22.8,"co":489.0,"o3":31.0,"so2":11.9,"mosquito_risk":7,"arthritis_risk":5,"migraine_risk":4,"frizz_risk":1,"updated_at":"2026-05-10T22:35:54.745200+05:30"},{"city":"Vijayawada","state":"Andhra Pradesh","latitude":16.5062,"longitude":80.648,"temp":29.5,"humidity":70,"rain":0.0,"pressure":1003.1,"uv_index":9.1,"wind_gusts":37.8,"aqi":47,"pm10":8.7,"pm2_5":7.5,"no2":6.5,"co":152.0,"o3":42.0,"so2":5.7,"mosquito_risk":7,"arthritis_risk":5,"migraine_risk":4,"frizz_risk":1,"updated_at":"2026-05-10T22:35:54.745206+05:30"},{"city":"Guntur","state":"Andhra Pradesh","latitude":16.3067,"longitude":80.4365,"temp":29.3,"humidity":70,"rain":0.0,"pressure":1004.4,"uv_index":8.9,"wind_gusts":45.4,"aqi":48,"pm10":7.5,"pm2_5":6.4,"no2":6.7,"co":152.0,"o3":43.0,"so2":6.9,"mosquito_risk":7,"arthritis_risk":5,"migraine_risk":4,"frizz_risk":1,"updated_at":"2026-05-10T22:35:54.745214+05:30"},{"city":"Nellore","state":"Andhra Pradesh","latitude":14.4426,"longitude":79.9865,"temp":28.5,"humidity":77,"rain":0.0,"pressure":1006.1,"uv_index":9.15,"wind_gusts":39.2,"aqi":24,"pm10":6.2,"pm2_5":4.3,"no2":3.0,"co":176.0,"o3":45.0,"so2":2.0,"mosquito_risk":7,"arthritis_risk":5,"migraine_risk":4,"frizz_risk":1,"updated_at":"2026-05-10T22:35:54.745221+05:30"},{"city":"Kurnool","state":"Andhra Pradesh","latitude":15.8281,"longitude":78.0373,"temp":32.5,"humidity":40,"rain":0.0,"pressure":976.4,"uv_index":9.1,"wind_gusts":49.7,"aqi":65,"pm10":22.8,"pm2_5":16.9,"no2":4.2,"co":173.0,"o3":84.0,"so2":2.1,"mosquito_risk":0,"arthritis_risk":5,"migraine_risk":7,"frizz_risk":1,"updated_at":"2026-05-10T22:35:54.745229+05:30"},{"city":"Kakinada","state":"Andhra Pradesh","latitude":16.9891,"longitude":82.2475,"temp":27.1,"humidity":83,"rain":0.0,"pressure":1008.7,"uv_index":9.05,"wind_gusts":37.8,"aqi":29,"pm10":8.5,"pm2_5":5.6,"no2":0.8,"co":149.0,"o3":59.0,"so2":0.3,"mosquito_risk":7,"arthritis_risk":0,"migraine_risk":4,"frizz_risk":1,"updated_at":"2026-05-10T22:35:54.745236+05:30"},{"city":"Tirupati","state":"Andhra Pradesh","latitude":13.6288,"longitude":79.4192,"temp":26.4,"humidity":79,"rain":0.0,"pressure":991.6,"uv_index":9.25,"wind_gusts":42.8,"aqi":55,"pm10":9.3,"pm2_5":8.3,"no2":13.6,"co":286.0,"o3":26.0,"so2":5.3,"mosquito_risk":7,"arthritis_risk":5,"migraine_risk":7,"frizz_risk":1,"updated_at":"2026-05-10T22:35:54.745242+05:30"},{"city":"Warangal","state":"Telangana","latitude":17.9689,"longitude":79.5941,"temp":30.3,"humidity":54,"rain":0.0,"pressure":978.7,"uv_index":9.15,"wind_gusts":40.0,"aqi":87,"pm10":36.0,"pm2_5":28.2,"no2":8.7,"co":252.0,"o3":93.0,"so2":9.8,"mosquito_risk":0,"arthritis_risk":5,"migraine_risk":7,"frizz_risk":1,"updated_at":"2026-05-10T22:35:54.745249+05:30"},{"city":"Nizamabad","state":"Telangana","latitude":18.6725,"longitude":78.0941,"temp":30.5,"humidity":41,"rain":0.0,"pressure":963.1,"uv_index":9.1,"wind_gusts":29.9,"aqi":85,"pm10":44.0,"pm2_5":31.9,"no2":16.5,"co":303.0,"o3":82.0,"so2":8.2,"mosquito_risk":0,"arthritis_risk":5,"migraine_risk":7,"frizz_risk":0,"updated_at":"2026-05-10T22:35:54.745256+05:30"},{"city":"Mysore","state":"Karnataka","latitude":12.2958,"longitude":76.6396,"temp":24.9,"humidity":62,"rain":0.0,"pressure":927.6,"uv_index":9.3,"wind_gusts":34.6,"aqi":70,"pm10":31.2,"pm2_5":23.3,"no2":27.7,"co":377.0,"o3":65.0,"so2":7.2,"mosquito_risk":3,"arthritis_risk":5,"migraine_risk":7,"frizz_risk":1,"updated_at":"2026-05-10T22:35:54.745263+05:30"},{"city":"Mangalore","state":"Karnataka","latitude":12.9141,"longitude":74.856,"temp":28.2,"humidity":90,"rain":0.0,"pressure":1005.6,"uv_index":8.85,"wind_gusts":37.1,"aqi":62,"pm10":37.0,"pm2_5":29.2,"no2":13.0,"co":523.0,"o3":70.0,"so2":5.5,"mosquito_risk":7,"arthritis_risk":5,"migraine_risk":4,"frizz_risk":1,"updated_at":"2026-05-10T22:35:54.745270+05:30"},{"city":"Hubli-Dharwad","state":"Karnataka","latitude":15.3647,"longitude":75.124,"temp":27.2,"humidity":73,"rain":0.0,"pressure":940.0,"uv_index":8.1,"wind_gusts":40.0,"aqi":92,"pm10":46.3,"pm2_5":29.1,"no2":20.0,"co":268.0,"o3":75.0,"so2":5.0,"mosquito_risk":7,"arthritis_risk":5,"migraine_risk":7,"frizz_risk":1,"updated_at":"2026-05-10T22:35:54.745277+05:30"},{"city":"Belgaum","state":"Karnataka","latitude":15.8497,"longitude":74.4977,"temp":26.2,"humidity":62,"rain":0.0,"pressure":925.0,"uv_index":8.35,"wind_gusts":41.8,"aqi":111,"pm10":33.2,"pm2_5":24.7,"no2":18.0,"co":235.0,"o3":66.0,"so2":7.5,"mosquito_risk":7,"arthritis_risk":5,"migraine_risk":7,"frizz_risk":1,"updated_at":"2026-05-10T22:35:58.014862+05:30"},{"city":"Coimbatore","state":"Tamil Nadu","latitude":11.0168,"longitude":76.9558,"temp":25.6,"humidity":81,"rain":0.0,"pressure":961.2,"uv_index":9.1,"wind_gusts":30.6,"aqi":56,"pm10":32.4,"pm2_5":28.5,"no2":26.7,"co":384.0,"o3":52.0,"so2":9.2,"mosquito_risk":7,"arthritis_risk":5,"migraine_risk":7,"frizz_risk":1,"updated_at":"2026-05-10T22:35:58.014894+05:30"},{"city":"Madurai","state":"Tamil Nadu","latitude":9.9252,"longitude":78.1198,"temp":26.8,"humidity":84,"rain":0.0,"pressure":992.6,"uv_index":5.15,"wind_gusts":29.5,"aqi":55,"pm10":24.4,"pm2_5":23.5,"no2":21.1,"co":367.0,"o3":57.0,"so2":8.0,"mosquito_risk":7,"arthritis_risk":5,"migraine_risk":3,"frizz_risk":1,"updated_at":"2026-05-10T22:35:58.014905+05:30"},{"city":"Trichy","state":"Tamil Nadu","latitude":10.7905,"longitude":78.7047,"temp":25.7,"humidity":91,"rain":0.0,"pressure":999.2,"uv_index":2.45,"wind_gusts":37.1,"aqi":51,"pm10":29.8,"pm2_5":29.2,"no2":36.0,"co":473.0,"o3":23.0,"so2":11.2,"mosquito_risk":7,"arthritis_risk":5,"migraine_risk":3,"frizz_risk":1,"updated_at":"2026-05-10T22:35:58.014914+05:30"},{"city":"Salem","state":"Tamil Nadu","latitude":11.6643,"longitude":78.146,"temp":25.7,"humidity":81,"rain":0.0,"pressure":977.0,"uv_index":8.95,"wind_gusts":24.5,"aqi":58,"pm10":24.2,"pm2_5":22.6,"no2":22.2,"co":364.0,"o3":58.0,"so2":10.4,"mosquito_risk":7,"arthritis_risk":5,"migraine_risk":7,"frizz_risk":1,"updated_at":"2026-05-10T22:35:58.014922+05:30"},{"city":"Tirunelveli","state":"Tamil Nadu","latitude":8.7139,"longitude":77.7567,"temp":25.8,"humidity":95,"rain":0.2,"pressure":1003.4,"uv_index":4.3,"wind_gusts":26.6,"aqi":52,"pm10":13.8,"pm2_5":13.5,"no2":13.2,"co":358.0,"o3":55.0,"so2":3.4,"mosquito_risk":10,"arthritis_risk":5,"migraine_risk":0,"frizz_risk":1,"updated_at":"2026-05-10T22:35:58.014930+05:30"},{"city":"Vellore","state":"Tamil Nadu","latitude":12.9165,"longitude":79.1325,"temp":25.9,"humidity":83,"rain":0.0,"pressure":984.7,"uv_index":9.25,"wind_gusts":36.0,"aqi":64,"pm10":15.9,"pm2_5":14.6,"no2":18.7,"co":256.0,"o3":32.0,"so2":6.6,"mosquito_risk":7,"arthritis_risk":5,"migraine_risk":7,"frizz_risk":1,"updated_at":"2026-05-10T22:35:58.014938+05:30"},{"city":"Erode","state":"Tamil Nadu","latitude":11.341,"longitude":77.7172,"temp":25.5,"humidity":88,"rain":0.0,"pressure":988.6,"uv_index":8.65,"wind_gusts":29.2,"aqi":61,"pm10":22.1,"pm2_5":20.7,"no2":19.2,"co":342.0,"o3":64.0,"so2":9.6,"mosquito_risk":7,"arthritis_risk":5,"migraine_risk":7,"frizz_risk":1,"updated_at":"2026-05-10T22:35:58.014946+05:30"},{"city":"Kochi","state":"Kerala","latitude":9.9312,"longitude":76.2673,"temp":27.2,"humidity":95,"rain":0.0,"pressure":1007.8,"uv_index":8.75,"wind_gusts":25.9,"aqi":69,"pm10":20.7,"pm2_5":20.2,"no2":17.8,"co":348.0,"o3":57.0,"so2":5.5,"mosquito_risk":7,"arthritis_risk":5,"migraine_risk":4,"frizz_risk":1,"updated_at":"2026-05-10T22:35:58.014953+05:30"},{"city":"Thiruvananthapuram","state":"Kerala","latitude":8.5241,"longitude":76.9366,"temp":25.2,"humidity":95,"rain":0.0,"pressure":1007.5,"uv_index":5.4,"wind_gusts":21.2,"aqi":53,"pm10":7.7,"pm2_5":7.1,"no2":6.3,"co":704.0,"o3":93.0,"so2":3.0,"mosquito_risk":7,"arthritis_risk":5,"migraine_risk":0,"frizz_risk":1,"updated_at":"2026-05-10T22:35:58.014960+05:30"},{"city":"Kozhikode","state":"Kerala","latitude":11.2588,"longitude":75.7804,"temp":26.3,"humidity":94,"rain":0.0,"pressure":1006.9,"uv_index":8.7,"wind_gusts":33.5,"aqi":53,"pm10":17.9,"pm2_5":11.1,"no2":2.6,"co":351.0,"o3":105.0,"so2":1.7,"mosquito_risk":7,"arthritis_risk":5,"migraine_risk":4,"frizz_risk":1,"updated_at":"2026-05-10T22:35:58.014967+05:30"},{"city":"Thrissur","state":"Kerala","latitude":10.5276,"longitude":76.2144,"temp":26.3,"humidity":95,"rain":0.0,"pressure":1006.2,"uv_index":9.0,"wind_gusts":30.2,"aqi":68,"pm10":20.8,"pm2_5":20.1,"no2":14.3,"co":404.0,"o3":69.0,"so2":4.1,"mosquito_risk":7,"arthritis_risk":5,"migraine_risk":4,"frizz_risk":1,"updated_at":"2026-05-10T22:35:58.014975+05:30"},{"city":"Kannur","state":"Kerala","latitude":11.8745,"longitude":75.3704,"temp":27.2,"humidity":88,"rain":0.0,"pressure":1006.0,"uv_index":8.1,"wind_gusts":39.6,"aqi":53,"pm10":20.1,"pm2_5":15.7,"no2":12.7,"co":337.0,"o3":76.0,"so2":3.4,"mosquito_risk":7,"arthritis_risk":5,"migraine_risk":4,"frizz_risk":1,"updated_at":"2026-05-10T22:35:58.014982+05:30"},{"city":"Patna","state":"Bihar","latitude":25.5941,"longitude":85.1376,"temp":25.8,"humidity":69,"rain":0.0,"pressure":1003.3,"uv_index":8.65,"wind_gusts":29.5,"aqi":146,"pm10":53.0,"pm2_5":46.0,"no2":15.9,"co":464.0,"o3":114.0,"so2":15.2,"mosquito_risk":7,"arthritis_risk":5,"migraine_risk":4,"frizz_risk":1,"updated_at":"2026-05-10T22:35:58.014989+05:30"},{"city":"Gaya","state":"Bihar","latitude":24.7914,"longitude":85.0002,"temp":25.9,"humidity":60,"rain":0.0,"pressure":996.0,"uv_index":8.7,"wind_gusts":21.6,"aqi":166,"pm10":59.0,"pm2_5":49.2,"no2":8.9,"co":401.0,"o3":142.0,"so2":16.3,"mosquito_risk":4,"arthritis_risk":5,"migraine_risk":7,"frizz_risk":1,"updated_at":"2026-05-10T22:35:58.014996+05:30"},{"city":"Muzaffarpur","state":"Bihar","latitude":26.1209,"longitude":85.3647,"temp":24.5,"humidity":71,"rain":0.0,"pressure":1003.6,"uv_index":8.65,"wind_gusts":34.2,"aqi":126,"pm10":55.4,"pm2_5":47.6,"no2":19.0,"co":481.0,"o3":95.0,"so2":13.4,"mosquito_risk":3,"arthritis_risk":5,"migraine_risk":4,"frizz_risk":1,"updated_at":"2026-05-10T22:35:58.015004+05:30"},{"city":"Bhagalpur","state":"Bihar","latitude":25.2425,"longitude":87.0117,"temp":25.7,"humidity":66,"rain":0.0,"pressure":1004.5,"uv_index":8.6,"wind_gusts":24.5,"aqi":144,"pm10":67.3,"pm2_5":59.6,"no2":23.1,"co":471.0,"o3":99.0,"so2":16.1,"mosquito_risk":7,"arthritis_risk":5,"migraine_risk":4,"frizz_risk":1,"updated_at":"2026-05-10T22:35:58.015011+05:30"},{"city":"Ranchi","state":"Jharkhand","latitude":23.3441,"longitude":85.3096,"temp":21.6,"humidity":82,"rain":0.0,"pressure":939.7,"uv_index":9.15,"wind_gusts":38.2,"aqi":138,"pm10":44.8,"pm2_5":33.5,"no2":7.8,"co":299.0,"o3":124.0,"so2":14.5,"mosquito_risk":3,"arthritis_risk":5,"migraine_risk":7,"frizz_risk":1,"updated_at":"2026-05-10T22:35:58.015018+05:30"},{"city":"Jamshedpur","state":"Jharkhand","latitude":22.8046,"longitude":86.2029,"temp":23.8,"humidity":83,"rain":0.0,"pressure":993.7,"uv_index":8.95,"wind_gusts":49.3,"aqi":152,"pm10":53.8,"pm2_5":44.1,"no2":18.8,"co":254.0,"o3":94.0,"so2":23.9,"mosquito_risk":3,"arthritis_risk":5,"migraine_risk":7,"frizz_risk":1,"updated_at":"2026-05-10T22:35:58.015024+05:30"},{"city":"Dhanbad","state":"Jharkhand","latitude":23.7957,"longitude":86.4304,"temp":24.7,"humidity":80,"rain":0.0,"pressure":982.8,"uv_index":8.9,"wind_gusts":30.2,"aqi":176,"pm10":97.6,"pm2_5":89.2,"no2":55.0,"co":565.0,"o3":78.0,"so2":84.3,"mosquito_risk":3,"arthritis_risk":5,"migraine_risk":7,"frizz_risk":1,"updated_at":"2026-05-10T22:35:58.015031+05:30"},{"city":"Bokaro","state":"Jharkhand","latitude":23.6693,"longitude":86.1511,"temp":24.5,"humidity":82,"rain":0.0,"pressure":986.6,"uv_index":8.9,"wind_gusts":50.4,"aqi":173,"pm10":89.9,"pm2_5":78.7,"no2":46.9,"co":1552.0,"o3":88.0,"so2":74.6,"mosquito_risk":3,"arthritis_risk":5,"migraine_risk":7,"frizz_risk":1,"updated_at":"2026-05-10T22:35:58.015038+05:30"},{"city":"Bhubaneswar","state":"Odisha","latitude":20.2961,"longitude":85.8245,"temp":26.0,"humidity":86,"rain":0.0,"pressure":1005.2,"uv_index":9.05,"wind_gusts":35.6,"aqi":63,"pm10":42.4,"pm2_5":36.9,"no2":26.2,"co":379.0,"o3":42.0,"so2":10.5,"mosquito_risk":7,"arthritis_risk":5,"migraine_risk":4,"frizz_risk":1,"updated_at":"2026-05-10T22:35:58.015045+05:30"},{"city":"Cuttack","state":"Odisha","latitude":20.4625,"longitude":85.8828,"temp":25.5,"humidity":91,"rain":0.0,"pressure":1007.1,"uv_index":9.1,"wind_gusts":47.2,"aqi":63,"pm10":42.4,"pm2_5":36.9,"no2":26.2,"co":363.0,"o3":42.0,"so2":10.5,"mosquito_risk":7,"arthritis_risk":5,"migraine_risk":4,"frizz_risk":1,"updated_at":"2026-05-10T22:35:58.015052+05:30"},{"city":"Rourkela","state":"Odisha","latitude":22.2604,"longitude":84.8536,"temp":26.1,"humidity":71,"rain":0.0,"pressure":987.1,"uv_index":8.9,"wind_gusts":25.9,"aqi":146,"pm10":56.5,"pm2_5":40.9,"no2":12.3,"co":441.0,"o3":116.0,"so2":42.8,"mosquito_risk":7,"arthritis_risk":5,"migraine_risk":7,"frizz_risk":1,"updated_at":"2026-05-10T22:35:58.015060+05:30"},{"city":"Raipur","state":"Chhattisgarh","latitude":21.2514,"longitude":81.6296,"temp":30.8,"humidity":39,"rain":0.0,"pressure":973.9,"uv_index":8.9,"wind_gusts":27.0,"aqi":176,"pm10":61.0,"pm2_5":40.2,"no2":20.0,"co":333.0,"o3":105.0,"so2":6.7,"mosquito_risk":0,"arthritis_risk":5,"migraine_risk":7,"frizz_risk":0,"updated_at":"2026-05-10T22:35:58.015067+05:30"},{"city":"Bhilai","state":"Chhattisgarh","latitude":21.1938,"longitude":81.3509,"temp":29.9,"humidity":49,"rain":0.0,"pressure":974.2,"uv_index":8.95,"wind_gusts":23.8,"aqi":146,"pm10":65.0,"pm2_5":46.1,"no2":37.9,"co":397.0,"o3":93.0,"so2":8.9,"mosquito_risk":4,"arthritis_risk":5,"migraine_risk":7,"frizz_risk":1,"updated_at":"2026-05-10T22:35:58.015074+05:30"},{"city":"Guwahati","state":"Assam","latitude":26.1158,"longitude":91.7086,"temp":23.5,"humidity":87,"rain":0.0,"pressure":1005.2,"uv_index":8.65,"wind_gusts":27.7,"aqi":98,"pm10":48.9,"pm2_5":41.8,"no2":15.8,"co":447.0,"o3":46.0,"so2":2.9,"mosquito_risk":3,"arthritis_risk":5,"migraine_risk":4,"frizz_risk":1,"updated_at":"2026-05-10T22:35:58.015080+05:30"},{"city":"Agartala","state":"Tripura","latitude":23.8315,"longitude":91.2868,"temp":24.0,"humidity":94,"rain":0.0,"pressure":1009.5,"uv_index":8.25,"wind_gusts":40.3,"aqi":141,"pm10":62.2,"pm2_5":57.9,"no2":18.0,"co":466.0,"o3":102.0,"so2":9.9,"mosquito_risk":3,"arthritis_risk":0,"migraine_risk":4,"frizz_risk":1,"updated_at":"2026-05-10T22:35:58.015087+05:30"},{"city":"Shillong","state":"Meghalaya","latitude":25.5788,"longitude":91.8933,"temp":15.5,"humidity":82,"rain":0.0,"pressure":858.7,"uv_index":8.45,"wind_gusts":24.5,"aqi":88,"pm10":38.1,"pm2_5":30.6,"no2":13.1,"co":430.0,"o3":80.0,"so2":4.5,"mosquito_risk":3,"arthritis_risk":10,"migraine_risk":7,"frizz_risk":0,"updated_at":"2026-05-10T22:35:58.015094+05:30"},{"city":"Imphal","state":"Manipur","latitude":24.817,"longitude":93.9368,"temp":20.1,"humidity":90,"rain":0.0,"pressure":925.8,"uv_index":7.85,"wind_gusts":23.4,"aqi":98,"pm10":62.9,"pm2_5":54.9,"no2":50.2,"co":1086.0,"o3":21.0,"so2":8.6,"mosquito_risk":3,"arthritis_risk":5,"migraine_risk":7,"frizz_risk":1,"updated_at":"2026-05-10T22:35:58.015101+05:30"},{"city":"Aizawl","state":"Mizoram","latitude":23.7271,"longitude":92.7176,"temp":16.9,"humidity":99,"rain":0.0,"pressure":894.2,"uv_index":6.35,"wind_gusts":14.8,"aqi":104,"pm10":46.3,"pm2_5":39.2,"no2":14.6,"co":402.0,"o3":25.0,"so2":1.0,"mosquito_risk":3,"arthritis_risk":10,"migraine_risk":7,"frizz_risk":1,"updated_at":"2026-05-10T22:35:58.015108+05:30"},{"city":"Kohima","state":"Nagaland","latitude":25.6701,"longitude":94.1077,"temp":15.9,"humidity":97,"rain":0.1,"pressure":856.7,"uv_index":8.35,"wind_gusts":26.3,"aqi":69,"pm10":32.1,"pm2_5":24.3,"no2":15.3,"co":347.0,"o3":29.0,"so2":1.5,"mosquito_risk":6,"arthritis_risk":10,"migraine_risk":7,"frizz_risk":0,"updated_at":"2026-05-10T22:35:58.015116+05:30"},{"city":"Gangtok","state":"Sikkim","latitude":27.3314,"longitude":88.6138,"temp":13.2,"humidity":85,"rain":0.0,"pressure":840.1,"uv_index":7.7,"wind_gusts":32.4,"aqi":53,"pm10":21.1,"pm2_5":16.6,"no2":14.3,"co":419.0,"o3":81.0,"so2":1.6,"mosquito_risk":3,"arthritis_risk":10,"migraine_risk":7,"frizz_risk":0,"updated_at":"2026-05-10T22:35:58.015123+05:30"},{"city":"Siliguri","state":"West Bengal","latitude":26.7271,"longitude":88.3953,"temp":22.0,"humidity":73,"rain":0.0,"pressure":996.9,"uv_index":8.05,"wind_gusts":26.6,"aqi":94,"pm10":61.5,"pm2_5":45.9,"no2":35.6,"co":560.0,"o3":71.0,"so2":7.6,"mosquito_risk":3,"arthritis_risk":5,"migraine_risk":7,"frizz_risk":1,"updated_at":"2026-05-10T22:36:01.291416+05:30"},{"city":"Durgapur","state":"West Bengal","latitude":23.5204,"longitude":87.3119,"temp":24.0,"humidity":87,"rain":0.0,"pressure":998.2,"uv_index":8.9,"wind_gusts":23.4,"aqi":169,"pm10":162.5,"pm2_5":148.5,"no2":54.0,"co":694.0,"o3":78.0,"so2":81.5,"mosquito_risk":3,"arthritis_risk":5,"migraine_risk":7,"frizz_risk":1,"updated_at":"2026-05-10T22:36:01.291449+05:30"},{"city":"Asansol","state":"West Bengal","latitude":23.6739,"longitude":86.9524,"temp":24.4,"humidity":85,"rain":0.0,"pressure":996.7,"uv_index":8.9,"wind_gusts":29.2,"aqi":165,"pm10":117.3,"pm2_5":106.9,"no2":46.2,"co":1431.0,"o3":82.0,"so2":81.4,"mosquito_risk":3,"arthritis_risk":5,"migraine_risk":7,"frizz_risk":1,"updated_at":"2026-05-10T22:36:01.291460+05:30"},{"city":"Pondicherry","state":"Puducherry","latitude":11.9139,"longitude":79.8145,"temp":27.4,"humidity":88,"rain":0.0,"pressure":1008.0,"uv_index":8.85,"wind_gusts":41.8,"aqi":24,"pm10":6.3,"pm2_5":4.2,"no2":2.5,"co":427.0,"o3":48.0,"so2":0.3,"mosquito_risk":7,"arthritis_risk":0,"migraine_risk":4,"frizz_risk":1,"updated_at":"2026-05-10T22:36:01.291469+05:30"},{"city":"Port Blair","state":"Andaman and Nicobar Islands","latitude":11.6234,"longitude":92.7265,"temp":27.0,"humidity":89,"rain":0.0,"pressure":1007.6,"uv_index":8.1,"wind_gusts":27.0,"aqi":26,"pm10":3.9,"pm2_5":2.7,"no2":0.3,"co":147.0,"o3":63.0,"so2":0.1,"mosquito_risk":7,"arthritis_risk":5,"migraine_risk":4,"frizz_risk":1,"updated_at":"2026-05-10T22:36:01.291477+05:30"},{"city":"Haridwar","state":"Uttarakhand","latitude":29.9457,"longitude":78.1642,"temp":22.6,"humidity":81,"rain":0.0,"pressure":974.5,"uv_index":7.5,"wind_gusts":26.3,"aqi":134,"pm10":106.2,"pm2_5":71.7,"no2":28.1,"co":437.0,"o3":74.0,"so2":10.4,"mosquito_risk":3,"arthritis_risk":5,"migraine_risk":7,"frizz_risk":1,"updated_at":"2026-05-10T22:36:01.291486+05:30"},{"city":"Rishikesh","state":"Uttarakhand","latitude":30.0869,"longitude":78.2676,"temp":21.3,"humidity":80,"rain":0.0,"pressure":967.4,"uv_index":7.55,"wind_gusts":25.2,"aqi":140,"pm10":86.6,"pm2_5":49.5,"no2":10.9,"co":425.0,"o3":122.0,"so2":5.0,"mosquito_risk":3,"arthritis_risk":5,"migraine_risk":7,"frizz_risk":1,"updated_at":"2026-05-10T22:36:01.291495+05:30"},{"city":"Nainital","state":"Uttarakhand","latitude":29.3919,"longitude":79.4542,"temp":12.8,"humidity":87,"rain":0.0,"pressure":806.1,"uv_index":7.4,"wind_gusts":28.8,"aqi":131,"pm10":57.9,"pm2_5":44.5,"no2":18.9,"co":331.0,"o3":103.0,"so2":7.2,"mosquito_risk":3,"arthritis_risk":10,"migraine_risk":7,"frizz_risk":0,"updated_at":"2026-05-10T22:36:01.291503+05:30"},{"city":"Mussoorie","state":"Uttarakhand","latitude":30.4599,"longitude":78.0664,"temp":13.6,"humidity":91,"rain":0.0,"pressure":803.6,"uv_index":7.95,"wind_gusts":37.8,"aqi":131,"pm10":100.6,"pm2_5":60.8,"no2":28.8,"co":411.0,"o3":95.0,"so2":14.7,"mosquito_risk":3,"arthritis_risk":10,"migraine_risk":7,"frizz_risk":0,"updated_at":"2026-05-10T22:36:01.291511+05:30"},{"city":"Dharamshala","state":"Himachal Pradesh","latitude":32.219,"longitude":76.3234,"temp":20.1,"humidity":70,"rain":0.0,"pressure":869.8,"uv_index":7.7,"wind_gusts":35.6,"aqi":113,"pm10":111.5,"pm2_5":50.1,"no2":14.3,"co":383.0,"o3":91.0,"so2":3.6,"mosquito_risk":3,"arthritis_risk":5,"migraine_risk":7,"frizz_risk":0,"updated_at":"2026-05-10T22:36:01.291519+05:30"},{"city":"Dalhousie","state":"Himachal Pradesh","latitude":32.5387,"longitude":75.971,"temp":13.3,"humidity":90,"rain":0.0,"pressure":803.9,"uv_index":7.95,"wind_gusts":37.1,"aqi":151,"pm10":186.7,"pm2_5":76.8,"no2":41.5,"co":760.0,"o3":67.0,"so2":6.4,"mosquito_risk":3,"arthritis_risk":10,"migraine_risk":7,"frizz_risk":0,"updated_at":"2026-05-10T22:36:01.291528+05:30"},{"city":"Patiala","state":"Punjab","latitude":30.3398,"longitude":76.3869,"temp":27.6,"humidity":58,"rain":0.0,"pressure":978.2,"uv_index":7.55,"wind_gusts":34.9,"aqi":405,"pm10":597.9,"pm2_5":101.7,"no2":10.8,"co":476.0,"o3":121.0,"so2":8.8,"mosquito_risk":4,"arthritis_risk":5,"migraine_risk":7,"frizz_risk":1,"updated_at":"2026-05-10T22:36:01.291536+05:30"},{"city":"Bhatinda","state":"Punjab","latitude":30.211,"longitude":74.9455,"temp":31.3,"humidity":41,"rain":0.0,"pressure":982.7,"uv_index":8.25,"wind_gusts":30.2,"aqi":410,"pm10":519.7,"pm2_5":109.2,"no2":9.5,"co":511.0,"o3":114.0,"so2":12.2,"mosquito_risk":0,"arthritis_risk":5,"migraine_risk":7,"frizz_risk":1,"updated_at":"2026-05-10T22:36:01.291544+05:30"},{"city":"Rohtak","state":"Haryana","latitude":28.8955,"longitude":76.6066,"temp":28.3,"humidity":52,"rain":0.0,"pressure":982.0,"uv_index":7.65,"wind_gusts":30.6,"aqi":332,"pm10":573.7,"pm2_5":99.0,"no2":23.3,"co":445.0,"o3":122.0,"so2":28.0,"mosquito_risk":4,"arthritis_risk":5,"migraine_risk":7,"frizz_risk":1,"updated_at":"2026-05-10T22:36:01.291551+05:30"},{"city":"Panipat","state":"Haryana","latitude":29.3909,"longitude":76.9635,"temp":26.5,"humidity":62,"rain":0.0,"pressure":980.7,"uv_index":7.5,"wind_gusts":32.8,"aqi":584,"pm10":979.8,"pm2_5":133.6,"no2":12.4,"co":500.0,"o3":117.0,"so2":10.1,"mosquito_risk":7,"arthritis_risk":5,"migraine_risk":7,"frizz_risk":1,"updated_at":"2026-05-10T22:36:01.291559+05:30"},{"city":"Mathura","state":"Uttar Pradesh","latitude":27.4924,"longitude":77.6737,"temp":28.4,"humidity":52,"rain":0.0,"pressure":987.1,"uv_index":7.9,"wind_gusts":27.4,"aqi":414,"pm10":698.5,"pm2_5":100.4,"no2":16.2,"co":466.0,"o3":104.0,"so2":12.0,"mosquito_risk":4,"arthritis_risk":5,"migraine_risk":7,"frizz_risk":1,"updated_at":"2026-05-10T22:36:01.291566+05:30"},{"city":"Vrindavan","state":"Uttar Pradesh","latitude":27.5823,"longitude":77.7027,"temp":28.7,"humidity":50,"rain":0.0,"pressure":987.6,"uv_index":7.9,"wind_gusts":27.7,"aqi":414,"pm10":698.5,"pm2_5":100.4,"no2":16.2,"co":494.0,"o3":104.0,"so2":12.0,"mosquito_risk":4,"arthritis_risk":5,"migraine_risk":7,"frizz_risk":1,"updated_at":"2026-05-10T22:36:01.291573+05:30"},{"city":"Ayodhya","state":"Uttar Pradesh","latitude":26.7922,"longitude":82.1998,"temp":26.5,"humidity":58,"rain":0.0,"pressure":997.5,"uv_index":8.2,"wind_gusts":37.1,"aqi":112,"pm10":61.5,"pm2_5":53.7,"no2":29.7,"co":400.0,"o3":75.0,"so2":10.8,"mosquito_risk":4,"arthritis_risk":5,"migraine_risk":7,"frizz_risk":1,"updated_at":"2026-05-10T22:36:01.291581+05:30"},{"city":"Ratlam","state":"Madhya Pradesh","latitude":23.3315,"longitude":75.0367,"temp":32.3,"humidity":20,"rain":0.0,"pressure":953.1,"uv_index":8.5,"wind_gusts":38.2,"aqi":109,"pm10":46.0,"pm2_5":27.6,"no2":6.0,"co":318.0,"o3":96.0,"so2":7.2,"mosquito_risk":0,"arthritis_risk":5,"migraine_risk":7,"frizz_risk":0,"updated_at":"2026-05-10T22:36:01.291589+05:30"},{"city":"Sagar","state":"Madhya Pradesh","latitude":23.8388,"longitude":78.7378,"temp":29.2,"humidity":40,"rain":0.0,"pressure":950.0,"uv_index":8.65,"wind_gusts":37.1,"aqi":117,"pm10":79.6,"pm2_5":32.6,"no2":4.8,"co":316.0,"o3":125.0,"so2":6.3,"mosquito_risk":4,"arthritis_risk":5,"migraine_risk":7,"frizz_risk":0,"updated_at":"2026-05-10T22:36:01.291596+05:30"},{"city":"Satna","state":"Madhya Pradesh","latitude":24.6005,"longitude":80.8322,"temp":28.5,"humidity":41,"rain":0.0,"pressure":971.8,"uv_index":8.65,"wind_gusts":37.1,"aqi":175,"pm10":45.2,"pm2_5":32.4,"no2":7.2,"co":344.0,"o3":150.0,"so2":11.0,"mosquito_risk":4,"arthritis_risk":5,"migraine_risk":7,"frizz_risk":0,"updated_at":"2026-05-10T22:36:01.291604+05:30"},{"city":"Akola","state":"Maharashtra","latitude":20.7002,"longitude":77.0082,"temp":33.2,"humidity":21,"rain":0.0,"pressure":972.0,"uv_index":8.85,"wind_gusts":42.1,"aqi":86,"pm10":72.2,"pm2_5":44.7,"no2":40.1,"co":286.0,"o3":49.0,"so2":10.8,"mosquito_risk":0,"arthritis_risk":5,"migraine_risk":7,"frizz_risk":0,"updated_at":"2026-05-10T22:36:01.291613+05:30"},{"city":"Amravati","state":"Maharashtra","latitude":20.9374,"longitude":77.7796,"temp":32.0,"humidity":26,"rain":0.0,"pressure":965.3,"uv_index":8.85,"wind_gusts":40.3,"aqi":91,"pm10":71.9,"pm2_5":43.2,"no2":40.1,"co":274.0,"o3":48.0,"so2":8.4,"mosquito_risk":0,"arthritis_risk":5,"migraine_risk":7,"frizz_risk":0,"updated_at":"2026-05-10T22:36:01.291621+05:30"},{"city":"Latur","state":"Maharashtra","latitude":18.4088,"longitude":76.5604,"temp":30.8,"humidity":32,"rain":0.0,"pressure":938.6,"uv_index":9.05,"wind_gusts":41.0,"aqi":101,"pm10":54.1,"pm2_5":39.8,"no2":24.5,"co":303.0,"o3":78.0,"so2":11.5,"mosquito_risk":0,"arthritis_risk":5,"migraine_risk":7,"frizz_risk":0,"updated_at":"2026-05-10T22:36:01.291629+05:30"},{"city":"Nanded","state":"Maharashtra","latitude":19.1383,"longitude":77.3091,"temp":31.2,"humidity":37,"rain":0.0,"pressure":966.8,"uv_index":9.0,"wind_gusts":36.7,"aqi":95,"pm10":53.4,"pm2_5":35.3,"no2":21.7,"co":348.0,"o3":70.0,"so2":6.7,"mosquito_risk":0,"arthritis_risk":5,"migraine_risk":7,"frizz_risk":0,"updated_at":"2026-05-10T22:36:01.291656+05:30"},{"city":"Gulbarga","state":"Karnataka","latitude":17.3297,"longitude":76.8343,"temp":31.5,"humidity":37,"rain":0.0,"pressure":957.4,"uv_index":9.1,"wind_gusts":31.7,"aqi":102,"pm10":36.2,"pm2_5":22.9,"no2":14.4,"co":313.0,"o3":93.0,"so2":7.9,"mosquito_risk":0,"arthritis_risk":5,"migraine_risk":7,"frizz_risk":0,"updated_at":"2026-05-10T22:36:01.291665+05:30"},{"city":"Bidar","state":"Karnataka","latitude":17.9104,"longitude":77.5199,"temp":29.5,"humidity":38,"rain":0.0,"pressure":934.5,"uv_index":9.1,"wind_gusts":32.4,"aqi":92,"pm10":48.0,"pm2_5":33.2,"no2":19.4,"co":283.0,"o3":83.0,"so2":6.7,"mosquito_risk":4,"arthritis_risk":5,"migraine_risk":7,"frizz_risk":0,"updated_at":"2026-05-10T22:36:01.291673+05:30"},{"city":"Hospet","state":"Karnataka","latitude":15.2689,"longitude":76.3909,"temp":29.2,"humidity":45,"rain":0.0,"pressure":955.0,"uv_index":8.85,"wind_gusts":35.3,"aqi":93,"pm10":49.4,"pm2_5":29.0,"no2":17.2,"co":310.0,"o3":91.0,"so2":11.2,"mosquito_risk":4,"arthritis_risk":5,"migraine_risk":7,"frizz_risk":0,"updated_at":"2026-05-10T22:36:01.291680+05:30"},{"city":"Tirupur","state":"Tamil Nadu","latitude":11.1085,"longitude":77.3411,"temp":25.9,"humidity":81,"rain":0.0,"pressure":974.6,"uv_index":9.15,"wind_gusts":24.8,"aqi":67,"pm10":31.8,"pm2_5":29.0,"no2":28.8,"co":345.0,"o3":64.0,"so2":11.4,"mosquito_risk":7,"arthritis_risk":5,"migraine_risk":7,"frizz_risk":1,"updated_at":"2026-05-10T22:36:01.291687+05:30"},{"city":"Alappuzha","state":"Kerala","latitude":9.4981,"longitude":76.3388,"temp":26.6,"humidity":96,"rain":0.0,"pressure":1008.0,"uv_index":7.8,"wind_gusts":23.8,"aqi":58,"pm10":18.0,"pm2_5":16.1,"no2":17.4,"co":245.0,"o3":63.0,"so2":5.4,"mosquito_risk":7,"arthritis_risk":0,"migraine_risk":4,"frizz_risk":1,"updated_at":"2026-05-10T22:36:01.291695+05:30"},{"city":"Munnar","state":"Kerala","latitude":10.0889,"longitude":77.0595,"temp":17.9,"humidity":86,"rain":0.0,"pressure":855.9,"uv_index":9.2,"wind_gusts":23.4,"aqi":37,"pm10":14.4,"pm2_5":13.4,"no2":10.0,"co":315.0,"o3":64.0,"so2":3.1,"mosquito_risk":3,"arthritis_risk":10,"migraine_risk":7,"frizz_risk":0,"updated_at":"2026-05-10T22:36:01.291703+05:30"},{"city":"Silchar","state":"Assam","latitude":24.8333,"longitude":92.7789,"temp":25.0,"humidity":88,"rain":0.0,"pressure":1008.2,"uv_index":7.95,"wind_gusts":19.1,"aqi":150,"pm10":95.2,"pm2_5":82.9,"no2":21.9,"co":607.0,"o3":65.0,"so2":14.0,"mosquito_risk":7,"arthritis_risk":0,"migraine_risk":4,"frizz_risk":1,"updated_at":"2026-05-10T22:36:01.291711+05:30"},{"city":"Dibrugarh","state":"Assam","latitude":27.4728,"longitude":94.912,"temp":23.0,"humidity":91,"rain":0.1,"pressure":998.7,"uv_index":8.8,"wind_gusts":38.2,"aqi":87,"pm10":28.2,"pm2_5":24.9,"no2":15.3,"co":372.0,"o3":56.0,"so2":2.1,"mosquito_risk":6,"arthritis_risk":5,"migraine_risk":7,"frizz_risk":1,"updated_at":"2026-05-10T22:36:01.291718+05:30"}]