[{"city":"Delhi","state":"Delhi","latitude":28.6139,"longitude":77.209,"temp":26.4,"humidity":82,"rain":0.0,"pressure":981.0,"uv_index":7.75,"wind_gusts":27.4,"aqi":188,"pm10":192.3,"pm2_5":61.5,"no2":32.9,"co":615.0,"o3":66.0,"so2":23.2,"mosquito_risk":7,"arthritis_risk":5,"migraine_risk":7,"frizz_risk":1,"updated_at":"2026-06-13T00:37:32.601164+05:30"},{"city":"Mumbai","state":"Maharashtra","latitude":19.076,"longitude":72.8777,"temp":30.4,"humidity":73,"rain":0.0,"pressure":1008.1,"uv_index":6.4,"wind_gusts":51.5,"aqi":80,"pm10":48.8,"pm2_5":22.7,"no2":4.4,"co":139.0,"o3":51.0,"so2":4.0,"mosquito_risk":3,"arthritis_risk":0,"migraine_risk":4,"frizz_risk":1,"updated_at":"2026-06-13T00:37:32.601205+05:30"},{"city":"Bangalore","state":"Karnataka","latitude":12.9716,"longitude":77.5946,"temp":21.4,"humidity":94,"rain":0.0,"pressure":912.8,"uv_index":7.5,"wind_gusts":39.6,"aqi":43,"pm10":8.1,"pm2_5":7.1,"no2":17.7,"co":329.0,"o3":35.0,"so2":5.4,"mosquito_risk":3,"arthritis_risk":5,"migraine_risk":7,"frizz_risk":1,"updated_at":"2026-06-13T00:37:32.601220+05:30"},{"city":"Hyderabad","state":"Telangana","latitude":17.385,"longitude":78.4867,"temp":28.4,"humidity":62,"rain":0.0,"pressure":952.0,"uv_index":8.4,"wind_gusts":49.7,"aqi":78,"pm10":43.9,"pm2_5":28.5,"no2":20.1,"co":372.0,"o3":61.0,"so2":7.9,"mosquito_risk":7,"arthritis_risk":5,"migraine_risk":7,"frizz_risk":1,"updated_at":"2026-06-13T00:37:32.601230+05:30"},{"city":"Chennai","state":"Tamil Nadu","latitude":13.0827,"longitude":80.2707,"temp":27.5,"humidity":79,"rain":0.0,"pressure":1007.4,"uv_index":5.4,"wind_gusts":33.5,"aqi":66,"pm10":24.5,"pm2_5":19.2,"no2":19.3,"co":285.0,"o3":58.0,"so2":11.4,"mosquito_risk":7,"arthritis_risk":5,"migraine_risk":0,"frizz_risk":1,"updated_at":"2026-06-13T00:37:32.601237+05:30"},{"city":"Kolkata","state":"West Bengal","latitude":22.5726,"longitude":88.3639,"temp":28.2,"humidity":88,"rain":0.0,"pressure":1004.2,"uv_index":8.0,"wind_gusts":44.3,"aqi":158,"pm10":43.3,"pm2_5":34.8,"no2":13.1,"co":325.0,"o3":74.0,"so2":6.3,"mosquito_risk":7,"arthritis_risk":5,"migraine_risk":4,"frizz_risk":1,"updated_at":"2026-06-13T00:37:32.601245+05:30"},{"city":"Pune","state":"Maharashtra","latitude":18.5204,"longitude":73.8567,"temp":25.2,"humidity":86,"rain":0.0,"pressure":948.3,"uv_index":7.75,"wind_gusts":47.9,"aqi":65,"pm10":31.1,"pm2_5":16.6,"no2":8.4,"co":136.0,"o3":40.0,"so2":6.6,"mosquito_risk":7,"arthritis_risk":5,"migraine_risk":7,"frizz_risk":1,"updated_at":"2026-06-13T00:37:32.601252+05:30"},{"city":"Ahmedabad","state":"Gujarat","latitude":23.0225,"longitude":72.5714,"temp":31.9,"humidity":73,"rain":0.0,"pressure":999.1,"uv_index":8.05,"wind_gusts":45.0,"aqi":71,"pm10":42.3,"pm2_5":20.3,"no2":5.2,"co":187.0,"o3":60.0,"so2":4.8,"mosquito_risk":3,"arthritis_risk":5,"migraine_risk":7,"frizz_risk":1,"updated_at":"2026-06-13T00:37:32.601259+05:30"},{"city":"Jaipur","state":"Rajasthan","latitude":26.9124,"longitude":75.7873,"temp":24.5,"humidity":88,"rain":0.0,"pressure":957.2,"uv_index":8.2,"wind_gusts":39.2,"aqi":154,"pm10":108.7,"pm2_5":45.4,"no2":9.1,"co":230.0,"o3":83.0,"so2":6.3,"mosquito_risk":3,"arthritis_risk":5,"migraine_risk":7,"frizz_risk":1,"updated_at":"2026-06-13T00:37:32.601280+05:30"},{"city":"Lucknow","state":"Uttar Pradesh","latitude":26.8467,"longitude":80.9462,"temp":28.2,"humidity":74,"rain":0.0,"pressure":992.2,"uv_index":8.3,"wind_gusts":46.1,"aqi":116,"pm10":74.5,"pm2_5":55.3,"no2":33.3,"co":393.0,"o3":56.0,"so2":13.2,"mosquito_risk":7,"arthritis_risk":5,"migraine_risk":7,"frizz_risk":1,"updated_at":"2026-06-13T00:37:32.601289+05:30"},{"city":"Kanpur","state":"Uttar Pradesh","latitude":26.4499,"longitude":80.3319,"temp":30.2,"humidity":66,"rain":0.0,"pressure":990.3,"uv_index":8.3,"wind_gusts":51.1,"aqi":142,"pm10":88.7,"pm2_5":57.3,"no2":26.3,"co":406.0,"o3":74.0,"so2":14.0,"mosquito_risk":3,"arthritis_risk":5,"migraine_risk":7,"frizz_risk":1,"updated_at":"2026-06-13T00:37:32.601295+05:30"},{"city":"Chandigarh","state":"Chandigarh","latitude":30.7333,"longitude":76.7794,"temp":24.3,"humidity":85,"rain":0.0,"pressure":967.8,"uv_index":7.8,"wind_gusts":27.0,"aqi":103,"pm10":73.3,"pm2_5":55.2,"no2":48.9,"co":1410.0,"o3":28.0,"so2":9.8,"mosquito_risk":3,"arthritis_risk":5,"migraine_risk":7,"frizz_risk":1,"updated_at":"2026-06-13T00:37:32.601304+05:30"},{"city":"Srinagar","state":"Jammu and Kashmir","latitude":34.0837,"longitude":74.7973,"temp":15.7,"humidity":95,"rain":0.0,"pressure":841.6,"uv_index":9.05,"wind_gusts":31.7,"aqi":85,"pm10":59.5,"pm2_5":54.0,"no2":36.5,"co":795.0,"o3":31.0,"so2":0.0,"mosquito_risk":3,"arthritis_risk":10,"migraine_risk":7,"frizz_risk":0,"updated_at":"2026-06-13T00:37:32.601312+05:30"},{"city":"Jammu","state":"Jammu and Kashmir","latitude":32.7266,"longitude":74.857,"temp":26.5,"humidity":62,"rain":0.0,"pressure":971.7,"uv_index":8.6,"wind_gusts":27.0,"aqi":111,"pm10":82.2,"pm2_5":56.1,"no2":59.0,"co":639.0,"o3":16.0,"so2":6.6,"mosquito_risk":7,"arthritis_risk":5,"migraine_risk":7,"frizz_risk":1,"updated_at":"2026-06-13T00:37:32.601318+05:30"},{"city":"Amritsar","state":"Punjab","latitude":31.634,"longitude":74.8723,"temp":27.6,"humidity":63,"rain":0.0,"pressure":979.1,"uv_index":8.45,"wind_gusts":23.4,"aqi":229,"pm10":462.9,"pm2_5":136.4,"no2":39.4,"co":646.0,"o3":40.0,"so2":8.9,"mosquito_risk":7,"arthritis_risk":5,"migraine_risk":7,"frizz_risk":1,"updated_at":"2026-06-13T00:37:32.601325+05:30"},{"city":"Ludhiana","state":"Punjab","latitude":30.901,"longitude":75.8573,"temp":27.2,"humidity":71,"rain":0.0,"pressure":977.5,"uv_index":8.0,"wind_gusts":27.0,"aqi":631,"pm10":514.1,"pm2_5":119.7,"no2":16.5,"co":709.0,"o3":73.0,"so2":10.1,"mosquito_risk":7,"arthritis_risk":5,"migraine_risk":7,"frizz_risk":1,"updated_at":"2026-06-13T00:37:32.601331+05:30"},{"city":"Jalandhar","state":"Punjab","latitude":31.326,"longitude":75.5762,"temp":26.9,"humidity":69,"rain":0.0,"pressure":978.3,"uv_index":8.25,"wind_gusts":22.7,"aqi":350,"pm10":586.7,"pm2_5":130.4,"no2":31.7,"co":974.0,"o3":50.0,"so2":9.8,"mosquito_risk":7,"arthritis_risk":5,"migraine_risk":7,"frizz_risk":1,"updated_at":"2026-06-13T00:37:32.601337+05:30"},{"city":"Dehradun","state":"Uttarakhand","latitude":30.6284,"longitude":78.0322,"temp":14.3,"humidity":97,"rain":0.0,"pressure":829.1,"uv_index":7.7,"wind_gusts":33.8,"aqi":67,"pm10":40.3,"pm2_5":22.1,"no2":33.9,"co":192.0,"o3":32.0,"so2":0.8,"mosquito_risk":3,"arthritis_risk":10,"migraine_risk":7,"frizz_risk":0,"updated_at":"2026-06-13T00:37:32.601344+05:30"},{"city":"Shimla","state":"Himachal Pradesh","latitude":31.1048,"longitude":77.1734,"temp":12.7,"humidity":83,"rain":0.0,"pressure":783.4,"uv_index":8.35,"wind_gusts":37.8,"aqi":86,"pm10":65.4,"pm2_5":51.9,"no2":40.8,"co":331.0,"o3":54.0,"so2":3.8,"mosquito_risk":3,"arthritis_risk":10,"migraine_risk":7,"frizz_risk":0,"updated_at":"2026-06-13T00:37:32.601353+05:30"},{"city":"Manali","state":"Himachal Pradesh","latitude":32.2396,"longitude":77.1887,"temp":14.9,"humidity":82,"rain":0.0,"pressure":817.8,"uv_index":9.15,"wind_gusts":38.5,"aqi":59,"pm10":3.5,"pm2_5":3.3,"no2":43.8,"co":324.0,"o3":84.0,"so2":0.0,"mosquito_risk":3,"arthritis_risk":10,"migraine_risk":7,"frizz_risk":0,"updated_at":"2026-06-13T00:37:32.601359+05:30"},{"city":"Gurgaon","state":"Haryana","latitude":28.4595,"longitude":77.0266,"temp":25.9,"humidity":82,"rain":0.0,"pressure":979.3,"uv_index":7.85,"wind_gusts":59.4,"aqi":1273,"pm10":940.6,"pm2_5":158.3,"no2":34.5,"co":564.0,"o3":70.0,"so2":22.2,"mosquito_risk":7,"arthritis_risk":5,"migraine_risk":7,"frizz_risk":1,"updated_at":"2026-06-13T00:37:32.601368+05:30"},{"city":"Noida","state":"Uttar Pradesh","latitude":28.5355,"longitude":77.391,"temp":27.0,"humidity":81,"rain":0.0,"pressure":982.3,"uv_index":7.8,"wind_gusts":24.1,"aqi":1273,"pm10":940.6,"pm2_5":158.3,"no2":34.5,"co":472.0,"o3":70.0,"so2":22.2,"mosquito_risk":7,"arthritis_risk":5,"migraine_risk":7,"frizz_risk":1,"updated_at":"2026-06-13T00:37:32.601374+05:30"},{"city":"Ghaziabad","state":"Uttar Pradesh","latitude":28.6692,"longitude":77.4538,"temp":27.2,"humidity":79,"rain":0.0,"pressure":980.8,"uv_index":7.8,"wind_gusts":21.6,"aqi":111,"pm10":137.8,"pm2_5":52.3,"no2":22.5,"co":402.0,"o3":70.0,"so2":9.3,"mosquito_risk":7,"arthritis_risk":5,"migraine_risk":7,"frizz_risk":1,"updated_at":"2026-06-13T00:37:32.601381+05:30"},{"city":"Faridabad","state":"Haryana","latitude":28.4089,"longitude":77.3178,"temp":26.8,"humidity":80,"rain":0.0,"pressure":981.5,"uv_index":7.85,"wind_gusts":30.6,"aqi":1273,"pm10":940.6,"pm2_5":158.3,"no2":34.5,"co":432.0,"o3":70.0,"so2":22.2,"mosquito_risk":7,"arthritis_risk":5,"migraine_risk":7,"frizz_risk":1,"updated_at":"2026-06-13T00:37:32.601388+05:30"},{"city":"Meerut","state":"Uttar Pradesh","latitude":28.9845,"longitude":77.7064,"temp":26.7,"humidity":82,"rain":0.0,"pressure":979.9,"uv_index":7.7,"wind_gusts":21.2,"aqi":111,"pm10":137.8,"pm2_5":52.3,"no2":22.5,"co":391.0,"o3":70.0,"so2":9.3,"mosquito_risk":7,"arthritis_risk":5,"migraine_risk":7,"frizz_risk":1,"updated_at":"2026-06-13T00:37:32.601395+05:30"},{"city":"Agra","state":"Uttar Pradesh","latitude":27.1767,"longitude":78.0081,"temp":25.0,"humidity":92,"rain":1.4,"pressure":986.3,"uv_index":8.1,"wind_gusts":41.8,"aqi":628,"pm10":382.8,"pm2_5":88.9,"no2":21.3,"co":294.0,"o3":74.0,"so2":11.1,"mosquito_risk":10,"arthritis_risk":5,"migraine_risk":7,"frizz_risk":1,"updated_at":"2026-06-13T00:37:32.601402+05:30"},{"city":"Varanasi","state":"Uttar Pradesh","latitude":25.3176,"longitude":82.9739,"temp":30.2,"humidity":74,"rain":0.0,"pressure":995.7,"uv_index":8.8,"wind_gusts":46.8,"aqi":152,"pm10":86.4,"pm2_5":76.6,"no2":23.3,"co":630.0,"o3":83.0,"so2":18.7,"mosquito_risk":3,"arthritis_risk":5,"migraine_risk":7,"frizz_risk":1,"updated_at":"2026-06-13T00:37:32.601409+05:30"},{"city":"Prayagraj","state":"Uttar Pradesh","latitude":25.4358,"longitude":81.8463,"temp":30.8,"humidity":67,"rain":0.0,"pressure":993.9,"uv_index":8.7,"wind_gusts":55.4,"aqi":150,"pm10":89.2,"pm2_5":76.8,"no2":24.6,"co":569.0,"o3":79.0,"so2":17.4,"mosquito_risk":3,"arthritis_risk":5,"migraine_risk":7,"frizz_risk":1,"updated_at":"2026-06-13T00:37:32.601416+05:30"},{"city":"Gorakhpur","state":"Uttar Pradesh","latitude":26.7606,"longitude":83.3732,"temp":28.3,"humidity":75,"rain":0.0,"pressure":996.4,"uv_index":8.65,"wind_gusts":23.0,"aqi":97,"pm10":60.8,"pm2_5":48.4,"no2":19.5,"co":473.0,"o3":82.0,"so2":11.7,"mosquito_risk":7,"arthritis_risk":5,"migraine_risk":7,"frizz_risk":1,"updated_at":"2026-06-13T00:37:32.601424+05:30"},{"city":"Bareilly","state":"Uttar Pradesh","latitude":28.367,"longitude":79.4304,"temp":26.0,"humidity":87,"rain":0.0,"pressure":986.0,"uv_index":8.1,"wind_gusts":20.9,"aqi":103,"pm10":140.2,"pm2_5":86.4,"no2":69.9,"co":603.0,"o3":16.0,"so2":13.4,"mosquito_risk":7,"arthritis_risk":5,"migraine_risk":7,"frizz_risk":1,"updated_at":"2026-06-13T00:37:32.601431+05:30"},{"city":"Aligarh","state":"Uttar Pradesh","latitude":27.8974,"longitude":78.088,"temp":28.1,"humidity":70,"rain":0.0,"pressure":983.1,"uv_index":7.95,"wind_gusts":29.5,"aqi":163,"pm10":361.4,"pm2_5":82.2,"no2":20.1,"co":350.0,"o3":85.0,"so2":12.7,"mosquito_risk":7,"arthritis_risk":5,"migraine_risk":7,"frizz_risk":1,"updated_at":"2026-06-13T00:37:32.601438+05:30"},{"city":"Moradabad","state":"Uttar Pradesh","latitude":28.8386,"longitude":78.7733,"temp":26.2,"humidity":87,"rain":0.0,"pressure":982.5,"uv_index":7.95,"wind_gusts":24.1,"aqi":111,"pm10":121.5,"pm2_5":81.7,"no2":55.4,"co":569.0,"o3":25.0,"so2":16.0,"mosquito_risk":7,"arthritis_risk":5,"migraine_risk":7,"frizz_risk":1,"updated_at":"2026-06-13T00:37:32.601444+05:30"},{"city":"Saharanpur","state":"Uttar Pradesh","latitude":29.9637,"longitude":77.546,"temp":26.1,"humidity":82,"rain":0.0,"pressure":974.7,"uv_index":7.55,"wind_gusts":20.5,"aqi":127,"pm10":131.8,"pm2_5":84.8,"no2":60.7,"co":814.0,"o3":21.0,"so2":15.6,"mosquito_risk":7,"arthritis_risk":5,"migraine_risk":7,"frizz_risk":1,"updated_at":"2026-06-13T00:37:32.601451+05:30"},{"city":"Jhansi","state":"Uttar Pradesh","latitude":25.4484,"longitude":78.5685,"temp":25.1,"humidity":92,"rain":0.2,"pressure":976.4,"uv_index":8.5,"wind_gusts":47.2,"aqi":106,"pm10":68.0,"pm2_5":42.3,"no2":12.5,"co":257.0,"o3":78.0,"so2":8.4,"mosquito_risk":10,"arthritis_risk":5,"migraine_risk":7,"frizz_risk":1,"updated_at":"2026-06-13T00:37:35.843613+05:30"},{"city":"Surat","state":"Gujarat","latitude":21.1702,"longitude":72.8311,"temp":30.1,"humidity":78,"rain":0.0,"pressure":1005.3,"uv_index":7.6,"wind_gusts":53.6,"aqi":80,"pm10":39.3,"pm2_5":21.0,"no2":11.3,"co":200.0,"o3":42.0,"so2":19.8,"mosquito_risk":3,"arthritis_risk":5,"migraine_risk":4,"frizz_risk":1,"updated_at":"2026-06-13T00:37:35.843649+05:30"},{"city":"Vadodara","state":"Gujarat","latitude":22.3072,"longitude":73.1812,"temp":30.5,"humidity":75,"rain":0.0,"pressure":1002.0,"uv_index":8.0,"wind_gusts":50.0,"aqi":76,"pm10":31.5,"pm2_5":19.3,"no2":12.2,"co":131.0,"o3":37.0,"so2":13.5,"mosquito_risk":3,"arthritis_risk":5,"migraine_risk":4,"frizz_risk":1,"updated_at":"2026-06-13T00:37:35.843660+05:30"},{"city":"Rajkot","state":"Gujarat","latitude":22.3039,"longitude":70.8022,"temp":29.1,"humidity":74,"rain":0.0,"pressure":991.6,"uv_index":7.55,"wind_gusts":54.0,"aqi":62,"pm10":42.0,"pm2_5":19.1,"no2":3.7,"co":103.0,"o3":52.0,"so2":4.1,"mosquito_risk":7,"arthritis_risk":5,"migraine_risk":7,"frizz_risk":1,"updated_at":"2026-06-13T00:37:35.843670+05:30"},{"city":"Thane","state":"Maharashtra","latitude":19.2183,"longitude":72.9781,"temp":30.7,"humidity":69,"rain":0.0,"pressure":1007.5,"uv_index":6.3,"wind_gusts":46.1,"aqi":80,"pm10":48.8,"pm2_5":22.7,"no2":4.4,"co":138.0,"o3":51.0,"so2":4.0,"mosquito_risk":3,"arthritis_risk":5,"migraine_risk":4,"frizz_risk":1,"updated_at":"2026-06-13T00:37:35.843678+05:30"},{"city":"Nagpur","state":"Maharashtra","latitude":21.1458,"longitude":79.0882,"temp":30.2,"humidity":60,"rain":0.0,"pressure":971.4,"uv_index":8.65,"wind_gusts":38.9,"aqi":103,"pm10":58.3,"pm2_5":36.6,"no2":18.9,"co":253.0,"o3":65.0,"so2":14.2,"mosquito_risk":0,"arthritis_risk":5,"migraine_risk":7,"frizz_risk":1,"updated_at":"2026-06-13T00:37:35.843687+05:30"},{"city":"Nashik","state":"Maharashtra","latitude":19.9975,"longitude":73.7898,"temp":25.3,"humidity":84,"rain":0.0,"pressure":945.3,"uv_index":8.05,"wind_gusts":50.0,"aqi":69,"pm10":25.4,"pm2_5":14.5,"no2":8.3,"co":137.0,"o3":40.0,"so2":6.3,"mosquito_risk":7,"arthritis_risk":5,"migraine_risk":7,"frizz_risk":1,"updated_at":"2026-06-13T00:37:35.843696+05:30"},{"city":"Aurangabad","state":"Maharashtra","latitude":19.8762,"longitude":75.3433,"temp":27.7,"humidity":65,"rain":0.0,"pressure":943.6,"uv_index":8.95,"wind_gusts":49.3,"aqi":76,"pm10":42.0,"pm2_5":23.3,"no2":8.4,"co":148.0,"o3":56.0,"so2":10.0,"mosquito_risk":7,"arthritis_risk":5,"migraine_risk":7,"frizz_risk":1,"updated_at":"2026-06-13T00:37:35.843704+05:30"},{"city":"Solapur","state":"Maharashtra","latitude":17.6599,"longitude":75.9064,"temp":29.1,"humidity":66,"rain":0.0,"pressure":957.1,"uv_index":8.7,"wind_gusts":54.4,"aqi":63,"pm10":27.1,"pm2_5":16.1,"no2":6.0,"co":131.0,"o3":52.0,"so2":2.5,"mosquito_risk":7,"arthritis_risk":5,"migraine_risk":7,"frizz_risk":1,"updated_at":"2026-06-13T00:37:35.843712+05:30"},{"city":"Kolhapur","state":"Maharashtra","latitude":16.705,"longitude":74.2433,"temp":24.4,"humidity":90,"rain":0.0,"pressure":948.8,"uv_index":7.55,"wind_gusts":46.1,"aqi":57,"pm10":20.6,"pm2_5":12.5,"no2":7.3,"co":151.0,"o3":39.0,"so2":3.3,"mosquito_risk":3,"arthritis_risk":5,"migraine_risk":7,"frizz_risk":1,"updated_at":"2026-06-13T00:37:35.843721+05:30"},{"city":"Goa","state":"Goa","latitude":15.2993,"longitude":74.124,"temp":26.1,"humidity":95,"rain":0.0,"pressure":999.5,"uv_index":6.65,"wind_gusts":35.3,"aqi":64,"pm10":32.0,"pm2_5":14.6,"no2":4.3,"co":201.0,"o3":47.0,"so2":1.4,"mosquito_risk":7,"arthritis_risk":5,"migraine_risk":7,"frizz_risk":1,"updated_at":"2026-06-13T00:37:35.843730+05:30"},{"city":"Jodhpur","state":"Rajasthan","latitude":26.2389,"longitude":73.0243,"temp":34.3,"humidity":44,"rain":0.0,"pressure":978.3,"uv_index":8.4,"wind_gusts":46.8,"aqi":150,"pm10":131.8,"pm2_5":42.3,"no2":9.3,"co":178.0,"o3":55.0,"so2":3.5,"mosquito_risk":0,"arthritis_risk":5,"migraine_risk":7,"frizz_risk":1,"updated_at":"2026-06-13T00:37:35.843739+05:30"},{"city":"Udaipur","state":"Rajasthan","latitude":24.5854,"longitude":73.7125,"temp":29.4,"humidity":60,"rain":0.1,"pressure":944.2,"uv_index":8.85,"wind_gusts":42.1,"aqi":78,"pm10":48.9,"pm2_5":24.4,"no2":5.1,"co":137.0,"o3":68.0,"so2":3.7,"mosquito_risk":7,"arthritis_risk":5,"migraine_risk":7,"frizz_risk":1,"updated_at":"2026-06-13T00:37:35.843747+05:30"},{"city":"Kota","state":"Rajasthan","latitude":25.2138,"longitude":75.8648,"temp":30.1,"humidity":56,"rain":0.0,"pressure":976.0,"uv_index":8.35,"wind_gusts":59.8,"aqi":93,"pm10":52.0,"pm2_5":27.7,"no2":5.9,"co":220.0,"o3":89.0,"so2":6.3,"mosquito_risk":0,"arthritis_risk":5,"migraine_risk":7,"frizz_risk":1,"updated_at":"2026-06-13T00:37:35.843756+05:30"},{"city":"Bikaner","state":"Rajasthan","latitude":28.0229,"longitude":73.3119,"temp":30.2,"humidity":57,"rain":0.0,"pressure":977.7,"uv_index":8.45,"wind_gusts":46.1,"aqi":150,"pm10":114.8,"pm2_5":48.9,"no2":4.6,"co":161.0,"o3":83.0,"so2":4.3,"mosquito_risk":0,"arthritis_risk":5,"migraine_risk":7,"frizz_risk":1,"updated_at":"2026-06-13T00:37:35.843764+05:30"},{"city":"Ajmer","state":"Rajasthan","latitude":26.4499,"longitude":74.6399,"temp":24.8,"humidity":80,"rain":0.0,"pressure":952.5,"uv_index":8.35,"wind_gusts":62.6,"aqi":94,"pm10":58.9,"pm2_5":34.5,"no2":5.8,"co":174.0,"o3":88.0,"so2":3.9,"mosquito_risk":3,"arthritis_risk":5,"migraine_risk":7,"frizz_risk":1,"updated_at":"2026-06-13T00:37:35.843772+05:30"},{"city":"Gwalior","state":"Madhya Pradesh","latitude":26.2183,"longitude":78.1828,"temp":25.7,"humidity":90,"rain":0.1,"pressure":982.7,"uv_index":8.3,"wind_gusts":43.6,"aqi":137,"pm10":109.9,"pm2_5":55.1,"no2":19.1,"co":273.0,"o3":64.0,"so2":9.1,"mosquito_risk":10,"arthritis_risk":5,"migraine_risk":7,"frizz_risk":1,"updated_at":"2026-06-13T00:37:35.843780+05:30"},{"city":"Indore","state":"Madhya Pradesh","latitude":22.7196,"longitude":75.8577,"temp":30.0,"humidity":58,"rain":0.0,"pressure":946.6,"uv_index":8.65,"wind_gusts":45.0,"aqi":86,"pm10":40.2,"pm2_5":26.4,"no2":5.1,"co":217.0,"o3":90.0,"so2":9.3,"mosquito_risk":4,"arthritis_risk":5,"migraine_risk":7,"frizz_risk":1,"updated_at":"2026-06-13T00:37:35.843788+05:30"},{"city":"Bhopal","state":"Madhya Pradesh","latitude":23.2599,"longitude":77.4126,"temp":25.4,"humidity":88,"rain":0.2,"pressure":951.6,"uv_index":8.45,"wind_gusts":41.4,"aqi":90,"pm10":87.1,"pm2_5":40.3,"no2":9.3,"co":445.0,"o3":64.0,"so2":3.7,"mosquito_risk":10,"arthritis_risk":5,"migraine_risk":7,"frizz_risk":1,"updated_at":"2026-06-13T00:37:35.843796+05:30"},{"city":"Jabalpur","state":"Madhya Pradesh","latitude":23.1815,"longitude":79.9864,"temp":28.8,"humidity":73,"rain":0.0,"pressure":959.8,"uv_index":8.35,"wind_gusts":34.2,"aqi":92,"pm10":52.2,"pm2_5":28.8,"no2":7.1,"co":217.0,"o3":85.0,"so2":3.5,"mosquito_risk":7,"arthritis_risk":5,"migraine_risk":7,"frizz_risk":1,"updated_at":"2026-06-13T00:37:35.843804+05:30"},{"city":"Ujjain","state":"Madhya Pradesh","latitude":23.1765,"longitude":75.7885,"temp":30.4,"humidity":57,"rain":0.0,"pressure":952.1,"uv_index":8.6,"wind_gusts":41.0,"aqi":85,"pm10":37.1,"pm2_5":24.7,"no2":4.2,"co":170.0,"o3":83.0,"so2":8.3,"mosquito_risk":0,"arthritis_risk":5,"migraine_risk":7,"frizz_risk":1,"updated_at":"2026-06-13T00:37:35.843813+05:30"},{"city":"Visakhapatnam","state":"Andhra Pradesh","latitude":17.6868,"longitude":83.2185,"temp":30.4,"humidity":85,"rain":0.0,"pressure":1001.6,"uv_index":8.6,"wind_gusts":46.4,"aqi":95,"pm10":44.6,"pm2_5":34.5,"no2":27.2,"co":347.0,"o3":89.0,"so2":40.9,"mosquito_risk":3,"arthritis_risk":5,"migraine_risk":4,"frizz_risk":1,"updated_at":"2026-06-13T00:37:35.843821+05:30"},{"city":"Vijayawada","state":"Andhra Pradesh","latitude":16.5062,"longitude":80.648,"temp":30.5,"humidity":67,"rain":0.0,"pressure":1000.8,"uv_index":7.5,"wind_gusts":47.5,"aqi":86,"pm10":22.5,"pm2_5":17.9,"no2":5.4,"co":212.0,"o3":103.0,"so2":4.5,"mosquito_risk":3,"arthritis_risk":5,"migraine_risk":4,"frizz_risk":1,"updated_at":"2026-06-13T00:37:35.843830+05:30"},{"city":"Guntur","state":"Andhra Pradesh","latitude":16.3067,"longitude":80.4365,"temp":30.3,"humidity":74,"rain":0.0,"pressure":1002.1,"uv_index":6.1,"wind_gusts":40.3,"aqi":85,"pm10":21.2,"pm2_5":17.6,"no2":4.9,"co":194.0,"o3":102.0,"so2":3.7,"mosquito_risk":3,"arthritis_risk":5,"migraine_risk":4,"frizz_risk":1,"updated_at":"2026-06-13T00:37:35.843839+05:30"},{"city":"Nellore","state":"Andhra Pradesh","latitude":14.4426,"longitude":79.9865,"temp":30.6,"humidity":65,"rain":0.0,"pressure":1005.1,"uv_index":7.7,"wind_gusts":38.2,"aqi":69,"pm10":17.5,"pm2_5":12.7,"no2":6.5,"co":243.0,"o3":70.0,"so2":1.9,"mosquito_risk":3,"arthritis_risk":5,"migraine_risk":4,"frizz_risk":1,"updated_at":"2026-06-13T00:37:35.843848+05:30"},{"city":"Kurnool","state":"Andhra Pradesh","latitude":15.8281,"longitude":78.0373,"temp":29.2,"humidity":58,"rain":0.0,"pressure":976.6,"uv_index":8.25,"wind_gusts":54.0,"aqi":72,"pm10":19.2,"pm2_5":13.7,"no2":8.3,"co":130.0,"o3":70.0,"so2":5.4,"mosquito_risk":4,"arthritis_risk":5,"migraine_risk":7,"frizz_risk":1,"updated_at":"2026-06-13T00:37:35.843857+05:30"},{"city":"Kakinada","state":"Andhra Pradesh","latitude":16.9891,"longitude":82.2475,"temp":29.9,"humidity":74,"rain":0.0,"pressure":1005.3,"uv_index":8.85,"wind_gusts":40.3,"aqi":77,"pm10":35.9,"pm2_5":25.3,"no2":3.0,"co":375.0,"o3":112.0,"so2":3.1,"mosquito_risk":7,"arthritis_risk":5,"migraine_risk":4,"frizz_risk":1,"updated_at":"2026-06-13T00:37:35.843865+05:30"},{"city":"Tirupati","state":"Andhra Pradesh","latitude":13.6288,"longitude":79.4192,"temp":26.6,"humidity":84,"rain":0.0,"pressure":991.4,"uv_index":5.3,"wind_gusts":33.1,"aqi":63,"pm10":16.6,"pm2_5":14.3,"no2":17.0,"co":213.0,"o3":42.0,"so2":2.3,"mosquito_risk":7,"arthritis_risk":5,"migraine_risk":3,"frizz_risk":1,"updated_at":"2026-06-13T00:37:35.843893+05:30"},{"city":"Warangal","state":"Telangana","latitude":17.9689,"longitude":79.5941,"temp":29.5,"humidity":63,"rain":0.0,"pressure":976.7,"uv_index":8.8,"wind_gusts":41.4,"aqi":107,"pm10":54.7,"pm2_5":41.8,"no2":19.9,"co":461.0,"o3":50.0,"so2":5.7,"mosquito_risk":7,"arthritis_risk":5,"migraine_risk":7,"frizz_risk":1,"updated_at":"2026-06-13T00:37:35.843903+05:30"},{"city":"Nizamabad","state":"Telangana","latitude":18.6725,"longitude":78.0941,"temp":31.4,"humidity":48,"rain":0.0,"pressure":962.9,"uv_index":4.6,"wind_gusts":38.5,"aqi":93,"pm10":51.1,"pm2_5":36.7,"no2":21.1,"co":230.0,"o3":50.0,"so2":5.7,"mosquito_risk":0,"arthritis_risk":5,"migraine_risk":3,"frizz_risk":1,"updated_at":"2026-06-13T00:37:35.843912+05:30"},{"city":"Mysore","state":"Karnataka","latitude":12.2958,"longitude":76.6396,"temp":21.7,"humidity":90,"rain":0.0,"pressure":930.3,"uv_index":7.75,"wind_gusts":40.7,"aqi":30,"pm10":5.8,"pm2_5":4.7,"no2":9.4,"co":161.0,"o3":38.0,"so2":2.3,"mosquito_risk":3,"arthritis_risk":5,"migraine_risk":7,"frizz_risk":1,"updated_at":"2026-06-13T00:37:35.843920+05:30"},{"city":"Mangalore","state":"Karnataka","latitude":12.9141,"longitude":74.856,"temp":24.2,"humidity":97,"rain":0.0,"pressure":1009.7,"uv_index":8.65,"wind_gusts":32.4,"aqi":41,"pm10":19.7,"pm2_5":12.3,"no2":11.7,"co":283.0,"o3":39.0,"so2":3.4,"mosquito_risk":3,"arthritis_risk":0,"migraine_risk":4,"frizz_risk":1,"updated_at":"2026-06-13T00:37:35.843928+05:30"},{"city":"Hubli-Dharwad","state":"Karnataka","latitude":15.3647,"longitude":75.124,"temp":23.6,"humidity":93,"rain":0.0,"pressure":942.1,"uv_index":7.45,"wind_gusts":51.8,"aqi":28,"pm10":4.9,"pm2_5":3.2,"no2":3.8,"co":131.0,"o3":47.0,"so2":1.3,"mosquito_risk":3,"arthritis_risk":5,"migraine_risk":7,"frizz_risk":1,"updated_at":"2026-06-13T00:37:35.843936+05:30"},{"city":"Belgaum","state":"Karnataka","latitude":15.8497,"longitude":74.4977,"temp":22.5,"humidity":95,"rain":0.0,"pressure":926.8,"uv_index":5.95,"wind_gusts":44.6,"aqi":52,"pm10":8.1,"pm2_5":4.9,"no2":4.8,"co":133.0,"o3":42.0,"so2":1.5,"mosquito_risk":3,"arthritis_risk":5,"migraine_risk":3,"frizz_risk":1,"updated_at":"2026-06-13T00:37:39.079324+05:30"},{"city":"Coimbatore","state":"Tamil Nadu","latitude":11.0168,"longitude":76.9558,"temp":23.4,"humidity":89,"rain":0.0,"pressure":963.7,"uv_index":8.15,"wind_gusts":47.2,"aqi":30,"pm10":4.5,"pm2_5":3.8,"no2":6.8,"co":154.0,"o3":41.0,"so2":2.6,"mosquito_risk":3,"arthritis_risk":5,"migraine_risk":7,"frizz_risk":1,"updated_at":"2026-06-13T00:37:39.079358+05:30"},{"city":"Madurai","state":"Tamil Nadu","latitude":9.9252,"longitude":78.1198,"temp":29.2,"humidity":53,"rain":0.0,"pressure":995.0,"uv_index":8.7,"wind_gusts":37.1,"aqi":45,"pm10":20.7,"pm2_5":17.8,"no2":31.1,"co":203.0,"o3":17.0,"so2":6.5,"mosquito_risk":4,"arthritis_risk":5,"migraine_risk":7,"frizz_risk":1,"updated_at":"2026-06-13T00:37:39.079370+05:30"},{"city":"Trichy","state":"Tamil Nadu","latitude":10.7905,"longitude":78.7047,"temp":29.5,"humidity":55,"rain":0.0,"pressure":1001.5,"uv_index":7.85,"wind_gusts":43.9,"aqi":35,"pm10":11.5,"pm2_5":8.2,"no2":10.4,"co":144.0,"o3":39.0,"so2":3.8,"mosquito_risk":4,"arthritis_risk":5,"migraine_risk":4,"frizz_risk":1,"updated_at":"2026-06-13T00:37:39.079380+05:30"},{"city":"Salem","state":"Tamil Nadu","latitude":11.6643,"longitude":78.146,"temp":25.0,"humidity":90,"rain":0.0,"pressure":979.2,"uv_index":7.5,"wind_gusts":31.0,"aqi":57,"pm10":18.5,"pm2_5":15.3,"no2":22.8,"co":284.0,"o3":33.0,"so2":7.9,"mosquito_risk":7,"arthritis_risk":5,"migraine_risk":7,"frizz_risk":1,"updated_at":"2026-06-13T00:37:39.079388+05:30"},{"city":"Tirunelveli","state":"Tamil Nadu","latitude":8.7139,"longitude":77.7567,"temp":27.6,"humidity":71,"rain":0.0,"pressure":1006.6,"uv_index":8.55,"wind_gusts":41.8,"aqi":23,"pm10":5.1,"pm2_5":4.3,"no2":7.9,"co":172.0,"o3":37.0,"so2":2.0,"mosquito_risk":7,"arthritis_risk":5,"migraine_risk":4,"frizz_risk":1,"updated_at":"2026-06-13T00:37:39.079397+05:30"},{"city":"Vellore","state":"Tamil Nadu","latitude":12.9165,"longitude":79.1325,"temp":26.5,"humidity":80,"rain":0.0,"pressure":985.2,"uv_index":7.75,"wind_gusts":39.6,"aqi":61,"pm10":10.2,"pm2_5":8.5,"no2":11.8,"co":233.0,"o3":52.0,"so2":2.9,"mosquito_risk":7,"arthritis_risk":5,"migraine_risk":7,"frizz_risk":1,"updated_at":"2026-06-13T00:37:39.079407+05:30"},{"city":"Erode","state":"Tamil Nadu","latitude":11.341,"longitude":77.7172,"temp":26.7,"humidity":73,"rain":0.0,"pressure":991.1,"uv_index":8.25,"wind_gusts":35.6,"aqi":46,"pm10":10.5,"pm2_5":8.6,"no2":14.1,"co":189.0,"o3":39.0,"so2":4.2,"mosquito_risk":7,"arthritis_risk":5,"migraine_risk":7,"frizz_risk":1,"updated_at":"2026-06-13T00:37:39.079416+05:30"},{"city":"Kochi","state":"Kerala","latitude":9.9312,"longitude":76.2673,"temp":26.1,"humidity":92,"rain":0.0,"pressure":1012.1,"uv_index":7.7,"wind_gusts":31.7,"aqi":48,"pm10":17.3,"pm2_5":14.1,"no2":19.9,"co":260.0,"o3":21.0,"so2":5.0,"mosquito_risk":7,"arthritis_risk":0,"migraine_risk":4,"frizz_risk":1,"updated_at":"2026-06-13T00:37:39.079425+05:30"},{"city":"Thiruvananthapuram","state":"Kerala","latitude":8.5241,"longitude":76.9366,"temp":24.2,"humidity":95,"rain":0.2,"pressure":1012.7,"uv_index":7.4,"wind_gusts":39.6,"aqi":27,"pm10":15.0,"pm2_5":6.6,"no2":1.9,"co":136.0,"o3":58.0,"so2":0.7,"mosquito_risk":6,"arthritis_risk":0,"migraine_risk":4,"frizz_risk":1,"updated_at":"2026-06-13T00:37:39.079434+05:30"},{"city":"Kozhikode","state":"Kerala","latitude":11.2588,"longitude":75.7804,"temp":24.6,"humidity":97,"rain":0.0,"pressure":1011.0,"uv_index":5.95,"wind_gusts":30.6,"aqi":29,"pm10":10.4,"pm2_5":5.3,"no2":2.5,"co":108.0,"o3":65.0,"so2":1.4,"mosquito_risk":3,"arthritis_risk":0,"migraine_risk":0,"frizz_risk":1,"updated_at":"2026-06-13T00:37:39.079442+05:30"},{"city":"Thrissur","state":"Kerala","latitude":10.5276,"longitude":76.2144,"temp":25.4,"humidity":85,"rain":0.0,"pressure":1010.2,"uv_index":7.45,"wind_gusts":32.4,"aqi":51,"pm10":13.0,"pm2_5":12.0,"no2":18.5,"co":314.0,"o3":19.0,"so2":5.5,"mosquito_risk":7,"arthritis_risk":0,"migraine_risk":4,"frizz_risk":1,"updated_at":"2026-06-13T00:37:39.079451+05:30"},{"city":"Kannur","state":"Kerala","latitude":11.8745,"longitude":75.3704,"temp":24.1,"humidity":99,"rain":0.1,"pressure":1010.5,"uv_index":7.45,"wind_gusts":28.4,"aqi":33,"pm10":9.7,"pm2_5":6.0,"no2":10.0,"co":191.0,"o3":38.0,"so2":2.6,"mosquito_risk":6,"arthritis_risk":0,"migraine_risk":4,"frizz_risk":1,"updated_at":"2026-06-13T00:37:39.079459+05:30"},{"city":"Patna","state":"Bihar","latitude":25.5941,"longitude":85.1376,"temp":27.5,"humidity":83,"rain":0.0,"pressure":999.0,"uv_index":8.6,"wind_gusts":22.3,"aqi":157,"pm10":89.6,"pm2_5":73.8,"no2":17.4,"co":474.0,"o3":96.0,"so2":18.8,"mosquito_risk":7,"arthritis_risk":5,"migraine_risk":7,"frizz_risk":1,"updated_at":"2026-06-13T00:37:39.079467+05:30"},{"city":"Gaya","state":"Bihar","latitude":24.7914,"longitude":85.0002,"temp":29.4,"humidity":69,"rain":0.0,"pressure":991.9,"uv_index":8.95,"wind_gusts":20.5,"aqi":157,"pm10":84.8,"pm2_5":74.3,"no2":24.9,"co":349.0,"o3":64.0,"so2":15.9,"mosquito_risk":7,"arthritis_risk":5,"migraine_risk":7,"frizz_risk":1,"updated_at":"2026-06-13T00:37:39.079475+05:30"},{"city":"Muzaffarpur","state":"Bihar","latitude":26.1209,"longitude":85.3647,"temp":27.0,"humidity":85,"rain":0.0,"pressure":999.4,"uv_index":8.6,"wind_gusts":27.7,"aqi":154,"pm10":85.2,"pm2_5":67.1,"no2":15.0,"co":437.0,"o3":98.0,"so2":15.2,"mosquito_risk":7,"arthritis_risk":5,"migraine_risk":7,"frizz_risk":1,"updated_at":"2026-06-13T00:37:39.079482+05:30"},{"city":"Bhagalpur","state":"Bihar","latitude":25.2425,"longitude":87.0117,"temp":27.9,"humidity":83,"rain":0.0,"pressure":999.5,"uv_index":7.8,"wind_gusts":24.8,"aqi":161,"pm10":95.2,"pm2_5":78.0,"no2":15.7,"co":423.0,"o3":96.0,"so2":13.6,"mosquito_risk":7,"arthritis_risk":5,"migraine_risk":7,"frizz_risk":1,"updated_at":"2026-06-13T00:37:39.079490+05:30"},{"city":"Ranchi","state":"Jharkhand","latitude":23.3441,"longitude":85.3096,"temp":25.5,"humidity":77,"rain":0.0,"pressure":936.7,"uv_index":9.3,"wind_gusts":29.5,"aqi":151,"pm10":67.5,"pm2_5":55.4,"no2":12.7,"co":290.0,"o3":90.0,"so2":8.3,"mosquito_risk":7,"arthritis_risk":5,"migraine_risk":7,"frizz_risk":1,"updated_at":"2026-06-13T00:37:39.079498+05:30"},{"city":"Jamshedpur","state":"Jharkhand","latitude":22.8046,"longitude":86.2029,"temp":27.0,"humidity":92,"rain":0.0,"pressure":989.3,"uv_index":9.1,"wind_gusts":31.7,"aqi":166,"pm10":89.2,"pm2_5":74.3,"no2":24.5,"co":744.0,"o3":70.0,"so2":23.2,"mosquito_risk":7,"arthritis_risk":5,"migraine_risk":7,"frizz_risk":1,"updated_at":"2026-06-13T00:37:39.079506+05:30"},{"city":"Dhanbad","state":"Jharkhand","latitude":23.7957,"longitude":86.4304,"temp":26.5,"humidity":91,"rain":0.0,"pressure":978.5,"uv_index":9.05,"wind_gusts":33.8,"aqi":178,"pm10":141.6,"pm2_5":127.1,"no2":66.3,"co":1281.0,"o3":41.0,"so2":170.8,"mosquito_risk":7,"arthritis_risk":5,"migraine_risk":7,"frizz_risk":1,"updated_at":"2026-06-13T00:37:39.079514+05:30"},{"city":"Bokaro","state":"Jharkhand","latitude":23.6693,"longitude":86.1511,"temp":26.9,"humidity":91,"rain":0.0,"pressure":982.3,"uv_index":9.1,"wind_gusts":33.8,"aqi":176,"pm10":125.7,"pm2_5":110.1,"no2":56.0,"co":1534.0,"o3":58.0,"so2":126.7,"mosquito_risk":7,"arthritis_risk":5,"migraine_risk":7,"frizz_risk":1,"updated_at":"2026-06-13T00:37:39.079522+05:30"},{"city":"Bhubaneswar","state":"Odisha","latitude":20.2961,"longitude":85.8245,"temp":26.4,"humidity":95,"rain":0.0,"pressure":1001.2,"uv_index":9.05,"wind_gusts":43.6,"aqi":136,"pm10":53.2,"pm2_5":44.4,"no2":17.5,"co":877.0,"o3":69.0,"so2":8.1,"mosquito_risk":7,"arthritis_risk":5,"migraine_risk":4,"frizz_risk":1,"updated_at":"2026-06-13T00:37:39.079530+05:30"},{"city":"Cuttack","state":"Odisha","latitude":20.4625,"longitude":85.8828,"temp":26.5,"humidity":95,"rain":0.0,"pressure":1003.1,"uv_index":9.15,"wind_gusts":47.2,"aqi":136,"pm10":53.2,"pm2_5":44.4,"no2":17.5,"co":618.0,"o3":69.0,"so2":8.1,"mosquito_risk":7,"arthritis_risk":5,"migraine_risk":4,"frizz_risk":1,"updated_at":"2026-06-13T00:37:39.079538+05:30"},{"city":"Rourkela","state":"Odisha","latitude":22.2604,"longitude":84.8536,"temp":27.4,"humidity":79,"rain":0.0,"pressure":983.5,"uv_index":9.05,"wind_gusts":46.4,"aqi":158,"pm10":87.3,"pm2_5":74.0,"no2":21.7,"co":444.0,"o3":92.0,"so2":27.5,"mosquito_risk":7,"arthritis_risk":5,"migraine_risk":7,"frizz_risk":1,"updated_at":"2026-06-13T00:37:39.079547+05:30"},{"city":"Raipur","state":"Chhattisgarh","latitude":21.2514,"longitude":81.6296,"temp":29.7,"humidity":58,"rain":0.0,"pressure":972.5,"uv_index":9.0,"wind_gusts":35.3,"aqi":119,"pm10":51.7,"pm2_5":39.3,"no2":30.7,"co":227.0,"o3":68.0,"so2":41.3,"mosquito_risk":4,"arthritis_risk":5,"migraine_risk":7,"frizz_risk":1,"updated_at":"2026-06-13T00:37:39.079554+05:30"},{"city":"Bhilai","state":"Chhattisgarh","latitude":21.1938,"longitude":81.3509,"temp":29.6,"humidity":58,"rain":0.0,"pressure":972.9,"uv_index":9.0,"wind_gusts":46.1,"aqi":118,"pm10":58.8,"pm2_5":42.8,"no2":33.9,"co":398.0,"o3":75.0,"so2":52.1,"mosquito_risk":4,"arthritis_risk":5,"migraine_risk":7,"frizz_risk":1,"updated_at":"2026-06-13T00:37:39.079562+05:30"},{"city":"Guwahati","state":"Assam","latitude":26.1158,"longitude":91.7086,"temp":25.6,"humidity":97,"rain":0.0,"pressure":1000.4,"uv_index":7.6,"wind_gusts":31.0,"aqi":88,"pm10":37.5,"pm2_5":35.2,"no2":16.8,"co":640.0,"o3":23.0,"so2":1.3,"mosquito_risk":7,"arthritis_risk":5,"migraine_risk":4,"frizz_risk":1,"updated_at":"2026-06-13T00:37:39.079569+05:30"},{"city":"Agartala","state":"Tripura","latitude":23.8315,"longitude":91.2868,"temp":25.5,"humidity":99,"rain":0.1,"pressure":1005.4,"uv_index":3.6,"wind_gusts":28.1,"aqi":102,"pm10":29.3,"pm2_5":23.7,"no2":12.0,"co":195.0,"o3":54.0,"so2":2.9,"mosquito_risk":10,"arthritis_risk":5,"migraine_risk":0,"frizz_risk":1,"updated_at":"2026-06-13T00:37:39.079577+05:30"},{"city":"Shillong","state":"Meghalaya","latitude":25.5788,"longitude":91.8933,"temp":18.7,"humidity":97,"rain":0.0,"pressure":856.6,"uv_index":5.7,"wind_gusts":20.9,"aqi":74,"pm10":21.0,"pm2_5":17.1,"no2":6.4,"co":382.0,"o3":70.0,"so2":1.9,"mosquito_risk":3,"arthritis_risk":10,"migraine_risk":3,"frizz_risk":1,"updated_at":"2026-06-13T00:37:39.079585+05:30"},{"city":"Imphal","state":"Manipur","latitude":24.817,"longitude":93.9368,"temp":22.3,"humidity":97,"rain":0.1,"pressure":922.4,"uv_index":5.25,"wind_gusts":20.2,"aqi":47,"pm10":9.7,"pm2_5":9.5,"no2":10.1,"co":334.0,"o3":42.0,"so2":1.7,"mosquito_risk":6,"arthritis_risk":5,"migraine_risk":3,"frizz_risk":1,"updated_at":"2026-06-13T00:37:39.079593+05:30"},{"city":"Aizawl","state":"Mizoram","latitude":23.7271,"longitude":92.7176,"temp":19.6,"humidity":98,"rain":0.1,"pressure":891.5,"uv_index":3.95,"wind_gusts":23.8,"aqi":63,"pm10":4.6,"pm2_5":4.4,"no2":7.0,"co":179.0,"o3":36.0,"so2":0.5,"mosquito_risk":6,"arthritis_risk":10,"migraine_risk":3,"frizz_risk":1,"updated_at":"2026-06-13T00:37:39.079602+05:30"},{"city":"Kohima","state":"Nagaland","latitude":25.6701,"longitude":94.1077,"temp":19.3,"humidity":99,"rain":0.4,"pressure":855.0,"uv_index":2.7,"wind_gusts":20.2,"aqi":57,"pm10":6.5,"pm2_5":5.8,"no2":4.6,"co":212.0,"o3":60.0,"so2":0.7,"mosquito_risk":6,"arthritis_risk":10,"migraine_risk":3,"frizz_risk":1,"updated_at":"2026-06-13T00:37:39.079611+05:30"},{"city":"Gangtok","state":"Sikkim","latitude":27.3314,"longitude":88.6138,"temp":16.3,"humidity":93,"rain":0.1,"pressure":837.5,"uv_index":9.2,"wind_gusts":38.5,"aqi":53,"pm10":15.3,"pm2_5":13.0,"no2":19.3,"co":433.0,"o3":78.0,"so2":2.3,"mosquito_risk":6,"arthritis_risk":10,"migraine_risk":7,"frizz_risk":0,"updated_at":"2026-06-13T00:37:39.079619+05:30"},{"city":"Siliguri","state":"West Bengal","latitude":26.7271,"longitude":88.3953,"temp":24.3,"humidity":97,"rain":0.0,"pressure":992.5,"uv_index":8.75,"wind_gusts":20.9,"aqi":93,"pm10":35.9,"pm2_5":28.2,"no2":22.4,"co":704.0,"o3":66.0,"so2":3.7,"mosquito_risk":3,"arthritis_risk":5,"migraine_risk":7,"frizz_risk":1,"updated_at":"2026-06-13T00:37:42.320837+05:30"},{"city":"Durgapur","state":"West Bengal","latitude":23.5204,"longitude":87.3119,"temp":26.8,"humidity":90,"rain":0.0,"pressure":993.4,"uv_index":9.0,"wind_gusts":49.7,"aqi":174,"pm10":95.9,"pm2_5":87.8,"no2":31.6,"co":835.0,"o3":65.0,"so2":41.7,"mosquito_risk":7,"arthritis_risk":5,"migraine_risk":7,"frizz_risk":1,"updated_at":"2026-06-13T00:37:42.320891+05:30"},{"city":"Asansol","state":"West Bengal","latitude":23.6739,"longitude":86.9524,"temp":26.2,"humidity":93,"rain":0.0,"pressure":992.0,"uv_index":8.9,"wind_gusts":60.5,"aqi":170,"pm10":88.7,"pm2_5":79.4,"no2":34.1,"co":359.0,"o3":56.0,"so2":44.9,"mosquito_risk":7,"arthritis_risk":5,"migraine_risk":7,"frizz_risk":1,"updated_at":"2026-06-13T00:37:42.320904+05:30"},{"city":"Pondicherry","state":"Puducherry","latitude":11.9139,"longitude":79.8145,"temp":26.1,"humidity":95,"rain":0.1,"pressure":1009.5,"uv_index":8.3,"wind_gusts":33.1,"aqi":61,"pm10":17.9,"pm2_5":13.7,"no2":15.0,"co":275.0,"o3":54.0,"so2":12.3,"mosquito_risk":10,"arthritis_risk":0,"migraine_risk":4,"frizz_risk":1,"updated_at":"2026-06-13T00:37:42.320914+05:30"},{"city":"Port Blair","state":"Andaman and Nicobar Islands","latitude":11.6234,"longitude":92.7265,"temp":25.5,"humidity":96,"rain":0.0,"pressure":1009.7,"uv_index":8.65,"wind_gusts":42.8,"aqi":23,"pm10":5.0,"pm2_5":2.9,"no2":0.3,"co":85.0,"o3":43.0,"so2":0.3,"mosquito_risk":7,"arthritis_risk":0,"migraine_risk":4,"frizz_risk":1,"updated_at":"2026-06-13T00:37:42.320923+05:30"},{"city":"Haridwar","state":"Uttarakhand","latitude":29.9457,"longitude":78.1642,"temp":25.5,"humidity":82,"rain":0.0,"pressure":972.7,"uv_index":7.6,"wind_gusts":18.0,"aqi":111,"pm10":105.5,"pm2_5":64.7,"no2":40.4,"co":348.0,"o3":51.0,"so2":11.5,"mosquito_risk":7,"arthritis_risk":5,"migraine_risk":7,"frizz_risk":1,"updated_at":"2026-06-13T00:37:42.320932+05:30"},{"city":"Rishikesh","state":"Uttarakhand","latitude":30.0869,"longitude":78.2676,"temp":24.4,"humidity":84,"rain":0.0,"pressure":965.7,"uv_index":7.7,"wind_gusts":22.0,"aqi":87,"pm10":66.8,"pm2_5":32.2,"no2":14.6,"co":420.0,"o3":84.0,"so2":3.9,"mosquito_risk":3,"arthritis_risk":5,"migraine_risk":7,"frizz_risk":1,"updated_at":"2026-06-13T00:37:42.320940+05:30"},{"city":"Nainital","state":"Uttarakhand","latitude":29.3919,"longitude":79.4542,"temp":13.3,"humidity":100,"rain":0.0,"pressure":804.5,"uv_index":8.05,"wind_gusts":32.0,"aqi":78,"pm10":71.9,"pm2_5":40.4,"no2":33.7,"co":285.0,"o3":36.0,"so2":4.4,"mosquito_risk":3,"arthritis_risk":10,"migraine_risk":7,"frizz_risk":0,"updated_at":"2026-06-13T00:37:42.320949+05:30"},{"city":"Mussoorie","state":"Uttarakhand","latitude":30.4599,"longitude":78.0664,"temp":13.6,"humidity":89,"rain":0.0,"pressure":801.8,"uv_index":8.1,"wind_gusts":40.0,"aqi":85,"pm10":68.0,"pm2_5":35.5,"no2":30.3,"co":265.0,"o3":59.0,"so2":6.4,"mosquito_risk":3,"arthritis_risk":10,"migraine_risk":7,"frizz_risk":0,"updated_at":"2026-06-13T00:37:42.320957+05:30"},{"city":"Dharamshala","state":"Himachal Pradesh","latitude":32.219,"longitude":76.3234,"temp":19.4,"humidity":66,"rain":0.0,"pressure":868.7,"uv_index":8.45,"wind_gusts":41.0,"aqi":55,"pm10":15.2,"pm2_5":12.0,"no2":19.2,"co":339.0,"o3":36.0,"so2":0.2,"mosquito_risk":3,"arthritis_risk":5,"migraine_risk":7,"frizz_risk":0,"updated_at":"2026-06-13T00:37:42.320966+05:30"},{"city":"Dalhousie","state":"Himachal Pradesh","latitude":32.5387,"longitude":75.971,"temp":12.8,"humidity":90,"rain":0.0,"pressure":802.8,"uv_index":8.7,"wind_gusts":32.4,"aqi":95,"pm10":62.4,"pm2_5":43.3,"no2":43.6,"co":519.0,"o3":51.0,"so2":3.4,"mosquito_risk":3,"arthritis_risk":10,"migraine_risk":7,"frizz_risk":0,"updated_at":"2026-06-13T00:37:42.320975+05:30"},{"city":"Patiala","state":"Punjab","latitude":30.3398,"longitude":76.3869,"temp":27.0,"humidity":75,"rain":0.0,"pressure":977.0,"uv_index":7.7,"wind_gusts":32.0,"aqi":1876,"pm10":473.1,"pm2_5":96.6,"no2":12.4,"co":481.0,"o3":79.0,"so2":11.1,"mosquito_risk":7,"arthritis_risk":5,"migraine_risk":7,"frizz_risk":1,"updated_at":"2026-06-13T00:37:42.320983+05:30"},{"city":"Bhatinda","state":"Punjab","latitude":30.211,"longitude":74.9455,"temp":27.7,"humidity":72,"rain":0.0,"pressure":981.5,"uv_index":8.35,"wind_gusts":32.4,"aqi":1599,"pm10":1180.9,"pm2_5":268.2,"no2":12.9,"co":298.0,"o3":83.0,"so2":8.2,"mosquito_risk":7,"arthritis_risk":5,"migraine_risk":7,"frizz_risk":1,"updated_at":"2026-06-13T00:37:42.320991+05:30"},{"city":"Rohtak","state":"Haryana","latitude":28.8955,"longitude":76.6066,"temp":26.4,"humidity":81,"rain":0.0,"pressure":980.1,"uv_index":7.8,"wind_gusts":45.0,"aqi":999,"pm10":545.8,"pm2_5":108.7,"no2":32.5,"co":386.0,"o3":71.0,"so2":29.0,"mosquito_risk":7,"arthritis_risk":5,"migraine_risk":7,"frizz_risk":1,"updated_at":"2026-06-13T00:37:42.320999+05:30"},{"city":"Panipat","state":"Haryana","latitude":29.3909,"longitude":76.9635,"temp":27.1,"humidity":78,"rain":0.0,"pressure":978.8,"uv_index":7.65,"wind_gusts":25.2,"aqi":1374,"pm10":808.4,"pm2_5":140.2,"no2":21.0,"co":372.0,"o3":75.0,"so2":11.7,"mosquito_risk":7,"arthritis_risk":5,"migraine_risk":7,"frizz_risk":1,"updated_at":"2026-06-13T00:37:42.321008+05:30"},{"city":"Mathura","state":"Uttar Pradesh","latitude":27.4924,"longitude":77.6737,"temp":24.9,"humidity":89,"rain":0.2,"pressure":983.7,"uv_index":8.05,"wind_gusts":49.0,"aqi":863,"pm10":406.1,"pm2_5":90.6,"no2":22.9,"co":299.0,"o3":78.0,"so2":10.0,"mosquito_risk":6,"arthritis_risk":5,"migraine_risk":7,"frizz_risk":1,"updated_at":"2026-06-13T00:37:42.321016+05:30"},{"city":"Vrindavan","state":"Uttar Pradesh","latitude":27.5823,"longitude":77.7027,"temp":25.2,"humidity":87,"rain":0.1,"pressure":983.8,"uv_index":8.05,"wind_gusts":47.2,"aqi":863,"pm10":406.1,"pm2_5":90.6,"no2":22.9,"co":294.0,"o3":78.0,"so2":10.0,"mosquito_risk":10,"arthritis_risk":5,"migraine_risk":7,"frizz_risk":1,"updated_at":"2026-06-13T00:37:42.321024+05:30"},{"city":"Ayodhya","state":"Uttar Pradesh","latitude":26.7922,"longitude":82.1998,"temp":28.2,"humidity":74,"rain":0.0,"pressure":994.4,"uv_index":8.4,"wind_gusts":41.8,"aqi":100,"pm10":44.8,"pm2_5":38.5,"no2":20.4,"co":508.0,"o3":76.0,"so2":9.7,"mosquito_risk":7,"arthritis_risk":5,"migraine_risk":7,"frizz_risk":1,"updated_at":"2026-06-13T00:37:42.321032+05:30"},{"city":"Ratlam","state":"Madhya Pradesh","latitude":23.3315,"longitude":75.0367,"temp":29.1,"humidity":69,"rain":0.0,"pressure":953.2,"uv_index":8.5,"wind_gusts":40.7,"aqi":82,"pm10":34.1,"pm2_5":22.0,"no2":4.1,"co":130.0,"o3":77.0,"so2":9.2,"mosquito_risk":7,"arthritis_risk":5,"migraine_risk":7,"frizz_risk":1,"updated_at":"2026-06-13T00:37:42.321040+05:30"},{"city":"Sagar","state":"Madhya Pradesh","latitude":23.8388,"longitude":78.7378,"temp":27.3,"humidity":73,"rain":0.0,"pressure":948.5,"uv_index":8.75,"wind_gusts":40.0,"aqi":89,"pm10":54.0,"pm2_5":31.4,"no2":7.3,"co":224.0,"o3":74.0,"so2":3.1,"mosquito_risk":7,"arthritis_risk":5,"migraine_risk":7,"frizz_risk":1,"updated_at":"2026-06-13T00:37:42.321047+05:30"},{"city":"Satna","state":"Madhya Pradesh","latitude":24.6005,"longitude":80.8322,"temp":27.4,"humidity":75,"rain":0.0,"pressure":968.7,"uv_index":8.45,"wind_gusts":29.5,"aqi":105,"pm10":55.1,"pm2_5":36.8,"no2":12.9,"co":263.0,"o3":69.0,"so2":6.3,"mosquito_risk":7,"arthritis_risk":5,"migraine_risk":7,"frizz_risk":1,"updated_at":"2026-06-13T00:37:42.321055+05:30"},{"city":"Akola","state":"Maharashtra","latitude":20.7002,"longitude":77.0082,"temp":33.4,"humidity":48,"rain":0.0,"pressure":973.2,"uv_index":8.8,"wind_gusts":50.4,"aqi":83,"pm10":48.8,"pm2_5":26.5,"no2":9.6,"co":122.0,"o3":73.0,"so2":8.1,"mosquito_risk":0,"arthritis_risk":5,"migraine_risk":7,"frizz_risk":1,"updated_at":"2026-06-13T00:37:42.321063+05:30"},{"city":"Amravati","state":"Maharashtra","latitude":20.9374,"longitude":77.7796,"temp":33.9,"humidity":37,"rain":0.0,"pressure":965.2,"uv_index":8.8,"wind_gusts":45.4,"aqi":85,"pm10":57.6,"pm2_5":30.7,"no2":15.2,"co":245.0,"o3":66.0,"so2":8.2,"mosquito_risk":0,"arthritis_risk":5,"migraine_risk":7,"frizz_risk":1,"updated_at":"2026-06-13T00:37:42.321072+05:30"},{"city":"Latur","state":"Maharashtra","latitude":18.4088,"longitude":76.5604,"temp":28.0,"humidity":69,"rain":0.0,"pressure":939.0,"uv_index":8.5,"wind_gusts":44.6,"aqi":71,"pm10":42.7,"pm2_5":24.6,"no2":5.6,"co":154.0,"o3":69.0,"so2":3.6,"mosquito_risk":7,"arthritis_risk":5,"migraine_risk":7,"frizz_risk":1,"updated_at":"2026-06-13T00:37:42.321079+05:30"},{"city":"Nanded","state":"Maharashtra","latitude":19.1383,"longitude":77.3091,"temp":32.9,"humidity":37,"rain":0.0,"pressure":966.7,"uv_index":8.85,"wind_gusts":39.6,"aqi":88,"pm10":57.9,"pm2_5":33.4,"no2":16.8,"co":178.0,"o3":60.0,"so2":5.2,"mosquito_risk":0,"arthritis_risk":5,"migraine_risk":7,"frizz_risk":1,"updated_at":"2026-06-13T00:37:42.321087+05:30"},{"city":"Gulbarga","state":"Karnataka","latitude":17.3297,"longitude":76.8343,"temp":28.7,"humidity":67,"rain":0.0,"pressure":958.2,"uv_index":4.15,"wind_gusts":61.6,"aqi":65,"pm10":23.3,"pm2_5":15.4,"no2":7.8,"co":116.0,"o3":54.0,"so2":2.8,"mosquito_risk":7,"arthritis_risk":5,"migraine_risk":3,"frizz_risk":1,"updated_at":"2026-06-13T00:37:42.321095+05:30"},{"city":"Bidar","state":"Karnataka","latitude":17.9104,"longitude":77.5199,"temp":28.6,"humidity":54,"rain":0.0,"pressure":934.6,"uv_index":7.25,"wind_gusts":47.5,"aqi":74,"pm10":39.1,"pm2_5":24.7,"no2":15.9,"co":169.0,"o3":62.0,"so2":4.2,"mosquito_risk":4,"arthritis_risk":5,"migraine_risk":7,"frizz_risk":1,"updated_at":"2026-06-13T00:37:42.321102+05:30"},{"city":"Hospet","state":"Karnataka","latitude":15.2689,"longitude":76.3909,"temp":25.4,"humidity":86,"rain":0.0,"pressure":956.9,"uv_index":2.6,"wind_gusts":53.6,"aqi":33,"pm10":5.9,"pm2_5":4.3,"no2":5.5,"co":141.0,"o3":45.0,"so2":1.6,"mosquito_risk":7,"arthritis_risk":5,"migraine_risk":3,"frizz_risk":1,"updated_at":"2026-06-13T00:37:42.321110+05:30"},{"city":"Tirupur","state":"Tamil Nadu","latitude":11.1085,"longitude":77.3411,"temp":24.5,"humidity":83,"rain":0.0,"pressure":977.2,"uv_index":8.2,"wind_gusts":47.5,"aqi":50,"pm10":12.7,"pm2_5":10.6,"no2":16.4,"co":148.0,"o3":36.0,"so2":5.4,"mosquito_risk":3,"arthritis_risk":5,"migraine_risk":7,"frizz_risk":1,"updated_at":"2026-06-13T00:37:42.321117+05:30"},{"city":"Alappuzha","state":"Kerala","latitude":9.4981,"longitude":76.3388,"temp":25.6,"humidity":94,"rain":0.0,"pressure":1012.4,"uv_index":7.8,"wind_gusts":34.6,"aqi":29,"pm10":17.5,"pm2_5":9.5,"no2":9.9,"co":94.0,"o3":45.0,"so2":2.7,"mosquito_risk":7,"arthritis_risk":0,"migraine_risk":4,"frizz_risk":1,"updated_at":"2026-06-13T00:37:42.321124+05:30"},{"city":"Munnar","state":"Kerala","latitude":10.0889,"longitude":77.0595,"temp":15.7,"humidity":91,"rain":0.0,"pressure":858.1,"uv_index":8.1,"wind_gusts":34.9,"aqi":24,"pm10":4.3,"pm2_5":3.7,"no2":6.6,"co":113.0,"o3":35.0,"so2":1.6,"mosquito_risk":3,"arthritis_risk":10,"migraine_risk":7,"frizz_risk":0,"updated_at":"2026-06-13T00:37:42.321132+05:30"},{"city":"Silchar","state":"Assam","latitude":24.8333,"longitude":92.7789,"temp":25.7,"humidity":96,"rain":0.1,"pressure":1004.4,"uv_index":2.65,"wind_gusts":20.2,"aqi":125,"pm10":15.0,"pm2_5":13.6,"no2":5.6,"co":276.0,"o3":76.0,"so2":2.0,"mosquito_risk":10,"arthritis_risk":5,"migraine_risk":0,"frizz_risk":1,"updated_at":"2026-06-13T00:37:42.321140+05:30"},{"city":"Dibrugarh","state":"Assam","latitude":27.4728,"longitude":94.912,"temp":26.1,"humidity":89,"rain":0.0,"pressure":993.9,"uv_index":3.4,"wind_gusts":21.2,"aqi":83,"pm10":42.7,"pm2_5":40.9,"no2":36.1,"co":398.0,"o3":12.0,"so2":3.6,"mosquito_risk":7,"arthritis_risk":5,"migraine_risk":3,"frizz_risk":1,"updated_at":"2026-06-13T00:37:42.321147+05:30"}]