[{"city":"Delhi","state":"Delhi","latitude":28.6139,"longitude":77.209,"temp":36.2,"humidity":25,"rain":0.0,"pressure":981.5,"uv_index":7.55,"wind_gusts":34.2,"aqi":168,"pm10":265.4,"pm2_5":52.9,"no2":5.8,"co":430.0,"o3":226.0,"so2":21.9,"mosquito_risk":0,"arthritis_risk":5,"migraine_risk":10,"frizz_risk":0,"updated_at":"2026-05-09T16:29:27.874310+05:30"},{"city":"Mumbai","state":"Maharashtra","latitude":19.076,"longitude":72.8777,"temp":35.0,"humidity":43,"rain":0.0,"pressure":1003.9,"uv_index":7.85,"wind_gusts":47.9,"aqi":106,"pm10":49.2,"pm2_5":25.6,"no2":9.4,"co":283.0,"o3":141.0,"so2":8.5,"mosquito_risk":0,"arthritis_risk":5,"migraine_risk":4,"frizz_risk":1,"updated_at":"2026-05-09T16:29:27.874356+05:30"},{"city":"Bangalore","state":"Karnataka","latitude":12.9716,"longitude":77.5946,"temp":31.4,"humidity":38,"rain":0.1,"pressure":908.9,"uv_index":9.5,"wind_gusts":44.3,"aqi":48,"pm10":14.3,"pm2_5":12.5,"no2":7.7,"co":294.0,"o3":84.0,"so2":3.6,"mosquito_risk":3,"arthritis_risk":5,"migraine_risk":7,"frizz_risk":0,"updated_at":"2026-05-09T16:29:27.874378+05:30"},{"city":"Hyderabad","state":"Telangana","latitude":17.385,"longitude":78.4867,"temp":35.8,"humidity":23,"rain":0.0,"pressure":951.0,"uv_index":9.1,"wind_gusts":33.8,"aqi":54,"pm10":18.0,"pm2_5":12.1,"no2":2.2,"co":275.0,"o3":155.0,"so2":3.9,"mosquito_risk":0,"arthritis_risk":5,"migraine_risk":10,"frizz_risk":0,"updated_at":"2026-05-09T16:29:27.874389+05:30"},{"city":"Chennai","state":"Tamil Nadu","latitude":13.0827,"longitude":80.2707,"temp":28.2,"humidity":79,"rain":0.0,"pressure":1004.9,"uv_index":8.2,"wind_gusts":39.6,"aqi":25,"pm10":5.6,"pm2_5":3.9,"no2":3.0,"co":136.0,"o3":51.0,"so2":4.1,"mosquito_risk":7,"arthritis_risk":5,"migraine_risk":4,"frizz_risk":1,"updated_at":"2026-05-09T16:29:27.874398+05:30"},{"city":"Kolkata","state":"West Bengal","latitude":22.5726,"longitude":88.3639,"temp":28.7,"humidity":75,"rain":0.0,"pressure":1004.9,"uv_index":8.9,"wind_gusts":22.0,"aqi":201,"pm10":48.8,"pm2_5":40.4,"no2":4.9,"co":571.0,"o3":201.0,"so2":14.5,"mosquito_risk":7,"arthritis_risk":5,"migraine_risk":4,"frizz_risk":1,"updated_at":"2026-05-09T16:29:27.874407+05:30"},{"city":"Pune","state":"Maharashtra","latitude":18.5204,"longitude":73.8567,"temp":37.4,"humidity":19,"rain":0.0,"pressure":945.5,"uv_index":8.5,"wind_gusts":35.6,"aqi":118,"pm10":49.9,"pm2_5":27.9,"no2":1.6,"co":229.0,"o3":171.0,"so2":5.2,"mosquito_risk":0,"arthritis_risk":5,"migraine_risk":10,"frizz_risk":0,"updated_at":"2026-05-09T16:29:27.874414+05:30"},{"city":"Ahmedabad","state":"Gujarat","latitude":23.0225,"longitude":72.5714,"temp":43.0,"humidity":11,"rain":0.0,"pressure":997.9,"uv_index":8.1,"wind_gusts":33.8,"aqi":68,"pm10":31.4,"pm2_5":11.6,"no2":1.2,"co":176.0,"o3":135.0,"so2":2.4,"mosquito_risk":0,"arthritis_risk":5,"migraine_risk":10,"frizz_risk":0,"updated_at":"2026-05-09T16:29:27.874425+05:30"},{"city":"Jaipur","state":"Rajasthan","latitude":26.9124,"longitude":75.7873,"temp":37.5,"humidity":20,"rain":0.0,"pressure":957.8,"uv_index":8.15,"wind_gusts":28.8,"aqi":167,"pm10":156.9,"pm2_5":33.9,"no2":0.8,"co":240.0,"o3":176.0,"so2":6.2,"mosquito_risk":0,"arthritis_risk":5,"migraine_risk":10,"frizz_risk":0,"updated_at":"2026-05-09T16:29:27.874433+05:30"},{"city":"Lucknow","state":"Uttar Pradesh","latitude":26.8467,"longitude":80.9462,"temp":32.2,"humidity":40,"rain":0.0,"pressure":992.4,"uv_index":7.95,"wind_gusts":36.4,"aqi":145,"pm10":62.4,"pm2_5":33.6,"no2":2.0,"co":302.0,"o3":181.0,"so2":8.8,"mosquito_risk":0,"arthritis_risk":5,"migraine_risk":7,"frizz_risk":1,"updated_at":"2026-05-09T16:29:27.874441+05:30"},{"city":"Kanpur","state":"Uttar Pradesh","latitude":26.4499,"longitude":80.3319,"temp":32.6,"humidity":36,"rain":0.0,"pressure":990.4,"uv_index":8.05,"wind_gusts":38.5,"aqi":189,"pm10":178.3,"pm2_5":43.5,"no2":2.2,"co":293.0,"o3":182.0,"so2":9.3,"mosquito_risk":0,"arthritis_risk":5,"migraine_risk":7,"frizz_risk":0,"updated_at":"2026-05-09T16:29:27.874448+05:30"},{"city":"Chandigarh","state":"Chandigarh","latitude":30.7333,"longitude":76.7794,"temp":35.0,"humidity":27,"rain":0.0,"pressure":967.9,"uv_index":7.6,"wind_gusts":31.7,"aqi":168,"pm10":129.5,"pm2_5":33.8,"no2":1.4,"co":277.0,"o3":199.0,"so2":7.7,"mosquito_risk":0,"arthritis_risk":5,"migraine_risk":7,"frizz_risk":0,"updated_at":"2026-05-09T16:29:27.874458+05:30"},{"city":"Srinagar","state":"Jammu and Kashmir","latitude":34.0837,"longitude":74.7973,"temp":27.6,"humidity":30,"rain":0.0,"pressure":843.5,"uv_index":8.9,"wind_gusts":18.0,"aqi":98,"pm10":35.4,"pm2_5":8.7,"no2":1.3,"co":294.0,"o3":155.0,"so2":1.0,"mosquito_risk":4,"arthritis_risk":5,"migraine_risk":7,"frizz_risk":0,"updated_at":"2026-05-09T16:29:27.874467+05:30"},{"city":"Jammu","state":"Jammu and Kashmir","latitude":32.7266,"longitude":74.857,"temp":34.6,"humidity":28,"rain":0.0,"pressure":971.9,"uv_index":8.4,"wind_gusts":29.9,"aqi":164,"pm10":129.9,"pm2_5":43.4,"no2":0.8,"co":299.0,"o3":187.0,"so2":7.0,"mosquito_risk":0,"arthritis_risk":5,"migraine_risk":7,"frizz_risk":0,"updated_at":"2026-05-09T16:29:27.874475+05:30"},{"city":"Amritsar","state":"Punjab","latitude":31.634,"longitude":74.8723,"temp":37.0,"humidity":27,"rain":0.0,"pressure":979.3,"uv_index":8.3,"wind_gusts":24.8,"aqi":156,"pm10":326.0,"pm2_5":67.1,"no2":1.2,"co":294.0,"o3":202.0,"so2":11.3,"mosquito_risk":0,"arthritis_risk":5,"migraine_risk":10,"frizz_risk":0,"updated_at":"2026-05-09T16:29:27.874482+05:30"},{"city":"Ludhiana","state":"Punjab","latitude":30.901,"longitude":75.8573,"temp":36.1,"humidity":27,"rain":0.0,"pressure":977.6,"uv_index":7.9,"wind_gusts":32.4,"aqi":155,"pm10":334.3,"pm2_5":56.5,"no2":1.2,"co":294.0,"o3":184.0,"so2":3.7,"mosquito_risk":0,"arthritis_risk":5,"migraine_risk":10,"frizz_risk":0,"updated_at":"2026-05-09T16:29:27.874490+05:30"},{"city":"Jalandhar","state":"Punjab","latitude":31.326,"longitude":75.5762,"temp":35.2,"humidity":31,"rain":0.0,"pressure":978.7,"uv_index":8.05,"wind_gusts":25.9,"aqi":153,"pm10":275.7,"pm2_5":54.0,"no2":0.7,"co":311.0,"o3":186.0,"so2":7.4,"mosquito_risk":0,"arthritis_risk":5,"migraine_risk":10,"frizz_risk":0,"updated_at":"2026-05-09T16:29:27.874497+05:30"},{"city":"Dehradun","state":"Uttarakhand","latitude":30.6284,"longitude":78.0322,"temp":20.0,"humidity":63,"rain":0.0,"pressure":832.1,"uv_index":8.0,"wind_gusts":28.1,"aqi":116,"pm10":43.7,"pm2_5":16.8,"no2":0.9,"co":225.0,"o3":161.0,"so2":2.7,"mosquito_risk":3,"arthritis_risk":5,"migraine_risk":7,"frizz_risk":0,"updated_at":"2026-05-09T16:29:27.874507+05:30"},{"city":"Shimla","state":"Himachal Pradesh","latitude":31.1048,"longitude":77.1734,"temp":19.1,"humidity":52,"rain":0.0,"pressure":787.1,"uv_index":8.05,"wind_gusts":34.2,"aqi":135,"pm10":69.2,"pm2_5":23.6,"no2":1.0,"co":235.0,"o3":181.0,"so2":7.6,"mosquito_risk":0,"arthritis_risk":5,"migraine_risk":7,"frizz_risk":0,"updated_at":"2026-05-09T16:29:27.874515+05:30"},{"city":"Manali","state":"Himachal Pradesh","latitude":32.2396,"longitude":77.1887,"temp":19.2,"humidity":59,"rain":0.0,"pressure":819.4,"uv_index":10.15,"wind_gusts":39.2,"aqi":119,"pm10":34.8,"pm2_5":7.0,"no2":0.5,"co":172.0,"o3":167.0,"so2":0.2,"mosquito_risk":0,"arthritis_risk":5,"migraine_risk":7,"frizz_risk":0,"updated_at":"2026-05-09T16:29:27.874522+05:30"},{"city":"Gurgaon","state":"Haryana","latitude":28.4595,"longitude":77.0266,"temp":35.2,"humidity":28,"rain":0.0,"pressure":980.0,"uv_index":7.65,"wind_gusts":27.4,"aqi":1026,"pm10":760.0,"pm2_5":92.4,"no2":4.8,"co":385.0,"o3":213.0,"so2":17.5,"mosquito_risk":0,"arthritis_risk":5,"migraine_risk":10,"frizz_risk":0,"updated_at":"2026-05-09T16:29:27.874529+05:30"},{"city":"Noida","state":"Uttar Pradesh","latitude":28.5355,"longitude":77.391,"temp":34.3,"humidity":34,"rain":0.0,"pressure":983.1,"uv_index":7.6,"wind_gusts":29.5,"aqi":1026,"pm10":760.0,"pm2_5":92.4,"no2":4.8,"co":357.0,"o3":213.0,"so2":17.5,"mosquito_risk":0,"arthritis_risk":5,"migraine_risk":7,"frizz_risk":0,"updated_at":"2026-05-09T16:29:27.874536+05:30"},{"city":"Ghaziabad","state":"Uttar Pradesh","latitude":28.6692,"longitude":77.4538,"temp":34.1,"humidity":32,"rain":0.0,"pressure":981.7,"uv_index":7.55,"wind_gusts":27.4,"aqi":139,"pm10":187.7,"pm2_5":37.5,"no2":2.6,"co":285.0,"o3":185.0,"so2":7.9,"mosquito_risk":0,"arthritis_risk":5,"migraine_risk":7,"frizz_risk":0,"updated_at":"2026-05-09T16:29:27.874558+05:30"},{"city":"Faridabad","state":"Haryana","latitude":28.4089,"longitude":77.3178,"temp":35.0,"humidity":28,"rain":0.0,"pressure":982.2,"uv_index":7.6,"wind_gusts":37.1,"aqi":1026,"pm10":760.0,"pm2_5":92.4,"no2":4.8,"co":335.0,"o3":213.0,"so2":17.5,"mosquito_risk":0,"arthritis_risk":5,"migraine_risk":7,"frizz_risk":0,"updated_at":"2026-05-09T16:29:27.874565+05:30"},{"city":"Meerut","state":"Uttar Pradesh","latitude":28.9845,"longitude":77.7064,"temp":32.2,"humidity":42,"rain":0.0,"pressure":981.1,"uv_index":7.45,"wind_gusts":27.7,"aqi":139,"pm10":187.7,"pm2_5":37.5,"no2":2.6,"co":286.0,"o3":185.0,"so2":7.9,"mosquito_risk":0,"arthritis_risk":5,"migraine_risk":7,"frizz_risk":1,"updated_at":"2026-05-09T16:29:27.874572+05:30"},{"city":"Agra","state":"Uttar Pradesh","latitude":27.1767,"longitude":78.0081,"temp":33.8,"humidity":33,"rain":0.0,"pressure":985.9,"uv_index":7.9,"wind_gusts":28.8,"aqi":895,"pm10":687.3,"pm2_5":83.4,"no2":2.0,"co":279.0,"o3":179.0,"so2":8.6,"mosquito_risk":0,"arthritis_risk":5,"migraine_risk":7,"frizz_risk":0,"updated_at":"2026-05-09T16:29:27.874579+05:30"},{"city":"Varanasi","state":"Uttar Pradesh","latitude":25.3176,"longitude":82.9739,"temp":30.1,"humidity":51,"rain":0.0,"pressure":996.5,"uv_index":8.35,"wind_gusts":36.4,"aqi":184,"pm10":69.6,"pm2_5":42.0,"no2":3.2,"co":371.0,"o3":211.0,"so2":17.3,"mosquito_risk":0,"arthritis_risk":5,"migraine_risk":7,"frizz_risk":1,"updated_at":"2026-05-09T16:29:27.874586+05:30"},{"city":"Prayagraj","state":"Uttar Pradesh","latitude":25.4358,"longitude":81.8463,"temp":30.6,"humidity":47,"rain":0.0,"pressure":994.4,"uv_index":8.3,"wind_gusts":46.4,"aqi":175,"pm10":66.8,"pm2_5":41.8,"no2":2.9,"co":401.0,"o3":210.0,"so2":13.7,"mosquito_risk":0,"arthritis_risk":5,"migraine_risk":7,"frizz_risk":1,"updated_at":"2026-05-09T16:29:27.874596+05:30"},{"city":"Gorakhpur","state":"Uttar Pradesh","latitude":26.7606,"longitude":83.3732,"temp":30.5,"humidity":45,"rain":0.0,"pressure":997.1,"uv_index":8.4,"wind_gusts":37.4,"aqi":153,"pm10":65.0,"pm2_5":39.6,"no2":1.7,"co":359.0,"o3":190.0,"so2":7.8,"mosquito_risk":0,"arthritis_risk":5,"migraine_risk":7,"frizz_risk":1,"updated_at":"2026-05-09T16:29:27.874602+05:30"},{"city":"Bareilly","state":"Uttar Pradesh","latitude":28.367,"longitude":79.4304,"temp":32.0,"humidity":41,"rain":0.0,"pressure":986.0,"uv_index":7.55,"wind_gusts":33.5,"aqi":144,"pm10":137.4,"pm2_5":33.1,"no2":1.3,"co":266.0,"o3":177.0,"so2":7.9,"mosquito_risk":0,"arthritis_risk":5,"migraine_risk":7,"frizz_risk":1,"updated_at":"2026-05-09T16:29:27.874609+05:30"},{"city":"Aligarh","state":"Uttar Pradesh","latitude":27.8974,"longitude":78.088,"temp":33.0,"humidity":38,"rain":0.0,"pressure":984.4,"uv_index":7.7,"wind_gusts":29.2,"aqi":484,"pm10":459.1,"pm2_5":63.3,"no2":2.1,"co":287.0,"o3":183.0,"so2":10.9,"mosquito_risk":0,"arthritis_risk":5,"migraine_risk":7,"frizz_risk":1,"updated_at":"2026-05-09T16:29:27.874616+05:30"},{"city":"Moradabad","state":"Uttar Pradesh","latitude":28.8386,"longitude":78.7733,"temp":31.8,"humidity":42,"rain":0.0,"pressure":983.4,"uv_index":7.65,"wind_gusts":32.8,"aqi":154,"pm10":115.5,"pm2_5":34.9,"no2":2.3,"co":282.0,"o3":193.0,"so2":13.1,"mosquito_risk":0,"arthritis_risk":5,"migraine_risk":7,"frizz_risk":1,"updated_at":"2026-05-09T16:29:27.874623+05:30"},{"city":"Saharanpur","state":"Uttar Pradesh","latitude":29.9637,"longitude":77.546,"temp":31.9,"humidity":39,"rain":0.0,"pressure":975.4,"uv_index":7.3,"wind_gusts":31.0,"aqi":154,"pm10":55.2,"pm2_5":23.6,"no2":1.7,"co":274.0,"o3":180.0,"so2":8.1,"mosquito_risk":0,"arthritis_risk":5,"migraine_risk":7,"frizz_risk":1,"updated_at":"2026-05-09T16:29:27.874629+05:30"},{"city":"Jhansi","state":"Uttar Pradesh","latitude":25.4484,"longitude":78.5685,"temp":33.9,"humidity":33,"rain":0.0,"pressure":975.7,"uv_index":8.3,"wind_gusts":52.2,"aqi":152,"pm10":104.5,"pm2_5":30.0,"no2":1.3,"co":253.0,"o3":180.0,"so2":14.0,"mosquito_risk":0,"arthritis_risk":5,"migraine_risk":7,"frizz_risk":0,"updated_at":"2026-05-09T16:29:31.107379+05:30"},{"city":"Surat","state":"Gujarat","latitude":21.1702,"longitude":72.8311,"temp":41.4,"humidity":13,"rain":0.0,"pressure":1002.5,"uv_index":7.7,"wind_gusts":34.9,"aqi":104,"pm10":69.2,"pm2_5":46.0,"no2":52.4,"co":159.0,"o3":89.0,"so2":103.3,"mosquito_risk":0,"arthritis_risk":5,"migraine_risk":7,"frizz_risk":0,"updated_at":"2026-05-09T16:29:31.107411+05:30"},{"city":"Vadodara","state":"Gujarat","latitude":22.3072,"longitude":73.1812,"temp":42.9,"humidity":11,"rain":0.0,"pressure":999.7,"uv_index":8.05,"wind_gusts":31.0,"aqi":82,"pm10":34.8,"pm2_5":15.6,"no2":1.4,"co":182.0,"o3":169.0,"so2":8.6,"mosquito_risk":0,"arthritis_risk":5,"migraine_risk":10,"frizz_risk":0,"updated_at":"2026-05-09T16:29:31.107422+05:30"},{"city":"Rajkot","state":"Gujarat","latitude":22.3039,"longitude":70.8022,"temp":40.4,"humidity":17,"rain":0.0,"pressure":991.4,"uv_index":7.7,"wind_gusts":45.4,"aqi":54,"pm10":41.3,"pm2_5":14.0,"no2":1.0,"co":144.0,"o3":139.0,"so2":5.3,"mosquito_risk":0,"arthritis_risk":5,"migraine_risk":10,"frizz_risk":0,"updated_at":"2026-05-09T16:29:31.107431+05:30"},{"city":"Thane","state":"Maharashtra","latitude":19.2183,"longitude":72.9781,"temp":38.0,"humidity":33,"rain":0.0,"pressure":1002.8,"uv_index":7.85,"wind_gusts":43.2,"aqi":106,"pm10":49.2,"pm2_5":25.6,"no2":9.4,"co":238.0,"o3":141.0,"so2":8.5,"mosquito_risk":0,"arthritis_risk":5,"migraine_risk":7,"frizz_risk":1,"updated_at":"2026-05-09T16:29:31.107438+05:30"},{"city":"Nagpur","state":"Maharashtra","latitude":21.1458,"longitude":79.0882,"temp":37.8,"humidity":21,"rain":0.0,"pressure":970.6,"uv_index":8.9,"wind_gusts":47.9,"aqi":145,"pm10":49.0,"pm2_5":21.3,"no2":4.7,"co":220.0,"o3":178.0,"so2":17.5,"mosquito_risk":0,"arthritis_risk":5,"migraine_risk":10,"frizz_risk":0,"updated_at":"2026-05-09T16:29:31.107445+05:30"},{"city":"Nashik","state":"Maharashtra","latitude":19.9975,"longitude":73.7898,"temp":37.7,"humidity":15,"rain":0.0,"pressure":942.8,"uv_index":8.15,"wind_gusts":51.5,"aqi":93,"pm10":45.2,"pm2_5":18.2,"no2":1.3,"co":191.0,"o3":151.0,"so2":5.2,"mosquito_risk":0,"arthritis_risk":5,"migraine_risk":10,"frizz_risk":0,"updated_at":"2026-05-09T16:29:31.107452+05:30"},{"city":"Aurangabad","state":"Maharashtra","latitude":19.8762,"longitude":75.3433,"temp":38.3,"humidity":12,"rain":0.0,"pressure":941.2,"uv_index":9.05,"wind_gusts":31.0,"aqi":131,"pm10":35.2,"pm2_5":15.6,"no2":1.1,"co":202.0,"o3":159.0,"so2":5.2,"mosquito_risk":0,"arthritis_risk":5,"migraine_risk":10,"frizz_risk":0,"updated_at":"2026-05-09T16:29:31.107458+05:30"},{"city":"Solapur","state":"Maharashtra","latitude":17.6599,"longitude":75.9064,"temp":38.6,"humidity":21,"rain":0.0,"pressure":953.8,"uv_index":9.05,"wind_gusts":31.3,"aqi":91,"pm10":32.9,"pm2_5":20.6,"no2":1.3,"co":207.0,"o3":167.0,"so2":4.6,"mosquito_risk":0,"arthritis_risk":5,"migraine_risk":10,"frizz_risk":0,"updated_at":"2026-05-09T16:29:31.107464+05:30"},{"city":"Kolhapur","state":"Maharashtra","latitude":16.705,"longitude":74.2433,"temp":37.3,"humidity":22,"rain":0.0,"pressure":944.5,"uv_index":8.85,"wind_gusts":37.8,"aqi":129,"pm10":29.8,"pm2_5":20.2,"no2":2.0,"co":216.0,"o3":157.0,"so2":3.5,"mosquito_risk":0,"arthritis_risk":5,"migraine_risk":10,"frizz_risk":0,"updated_at":"2026-05-09T16:29:31.107470+05:30"},{"city":"Goa","state":"Goa","latitude":15.2993,"longitude":74.124,"temp":36.2,"humidity":44,"rain":0.0,"pressure":992.9,"uv_index":8.65,"wind_gusts":51.1,"aqi":84,"pm10":39.7,"pm2_5":21.4,"no2":1.4,"co":228.0,"o3":126.0,"so2":3.2,"mosquito_risk":0,"arthritis_risk":5,"migraine_risk":10,"frizz_risk":1,"updated_at":"2026-05-09T16:29:31.107477+05:30"},{"city":"Jodhpur","state":"Rajasthan","latitude":26.2389,"longitude":73.0243,"temp":41.7,"humidity":14,"rain":0.0,"pressure":979.9,"uv_index":8.35,"wind_gusts":41.4,"aqi":99,"pm10":118.3,"pm2_5":24.9,"no2":0.2,"co":149.0,"o3":150.0,"so2":3.6,"mosquito_risk":0,"arthritis_risk":5,"migraine_risk":10,"frizz_risk":0,"updated_at":"2026-05-09T16:29:31.107483+05:30"},{"city":"Udaipur","state":"Rajasthan","latitude":24.5854,"longitude":73.7125,"temp":37.8,"humidity":15,"rain":0.0,"pressure":945.1,"uv_index":8.8,"wind_gusts":44.3,"aqi":54,"pm10":46.3,"pm2_5":10.4,"no2":0.4,"co":146.0,"o3":127.0,"so2":2.8,"mosquito_risk":0,"arthritis_risk":5,"migraine_risk":10,"frizz_risk":0,"updated_at":"2026-05-09T16:29:31.107489+05:30"},{"city":"Kota","state":"Rajasthan","latitude":25.2138,"longitude":75.8648,"temp":39.1,"humidity":18,"rain":0.0,"pressure":975.4,"uv_index":8.35,"wind_gusts":45.4,"aqi":96,"pm10":62.6,"pm2_5":20.5,"no2":1.1,"co":229.0,"o3":164.0,"so2":4.8,"mosquito_risk":0,"arthritis_risk":5,"migraine_risk":10,"frizz_risk":0,"updated_at":"2026-05-09T16:29:31.107495+05:30"},{"city":"Bikaner","state":"Rajasthan","latitude":28.0229,"longitude":73.3119,"temp":40.8,"humidity":13,"rain":0.0,"pressure":979.4,"uv_index":8.3,"wind_gusts":25.9,"aqi":127,"pm10":189.5,"pm2_5":44.2,"no2":0.3,"co":246.0,"o3":170.0,"so2":9.2,"mosquito_risk":0,"arthritis_risk":5,"migraine_risk":10,"frizz_risk":0,"updated_at":"2026-05-09T16:29:31.107502+05:30"},{"city":"Ajmer","state":"Rajasthan","latitude":26.4499,"longitude":74.6399,"temp":38.0,"humidity":15,"rain":0.0,"pressure":952.8,"uv_index":8.3,"wind_gusts":47.2,"aqi":107,"pm10":91.0,"pm2_5":26.4,"no2":0.6,"co":236.0,"o3":166.0,"so2":3.9,"mosquito_risk":0,"arthritis_risk":5,"migraine_risk":10,"frizz_risk":0,"updated_at":"2026-05-09T16:29:31.107508+05:30"},{"city":"Gwalior","state":"Madhya Pradesh","latitude":26.2183,"longitude":78.1828,"temp":35.7,"humidity":25,"rain":0.0,"pressure":980.6,"uv_index":8.1,"wind_gusts":28.8,"aqi":142,"pm10":216.1,"pm2_5":46.1,"no2":0.8,"co":265.0,"o3":176.0,"so2":7.6,"mosquito_risk":0,"arthritis_risk":5,"migraine_risk":10,"frizz_risk":0,"updated_at":"2026-05-09T16:29:31.107514+05:30"},{"city":"Indore","state":"Madhya Pradesh","latitude":22.7196,"longitude":75.8577,"temp":40.0,"humidity":9,"rain":0.0,"pressure":945.3,"uv_index":8.65,"wind_gusts":50.4,"aqi":87,"pm10":48.7,"pm2_5":10.4,"no2":1.1,"co":182.0,"o3":136.0,"so2":2.1,"mosquito_risk":0,"arthritis_risk":5,"migraine_risk":10,"frizz_risk":0,"updated_at":"2026-05-09T16:29:31.107520+05:30"},{"city":"Bhopal","state":"Madhya Pradesh","latitude":23.2599,"longitude":77.4126,"temp":38.2,"humidity":12,"rain":0.0,"pressure":951.1,"uv_index":8.65,"wind_gusts":45.4,"aqi":109,"pm10":53.0,"pm2_5":11.4,"no2":0.6,"co":171.0,"o3":138.0,"so2":2.9,"mosquito_risk":0,"arthritis_risk":5,"migraine_risk":10,"frizz_risk":0,"updated_at":"2026-05-09T16:29:31.107526+05:30"},{"city":"Jabalpur","state":"Madhya Pradesh","latitude":23.1815,"longitude":79.9864,"temp":36.7,"humidity":19,"rain":0.0,"pressure":958.4,"uv_index":8.8,"wind_gusts":38.2,"aqi":147,"pm10":40.9,"pm2_5":16.3,"no2":2.7,"co":179.0,"o3":157.0,"so2":5.6,"mosquito_risk":0,"arthritis_risk":5,"migraine_risk":10,"frizz_risk":0,"updated_at":"2026-05-09T16:29:31.107533+05:30"},{"city":"Ujjain","state":"Madhya Pradesh","latitude":23.1765,"longitude":75.7885,"temp":39.2,"humidity":11,"rain":0.0,"pressure":951.2,"uv_index":8.55,"wind_gusts":48.6,"aqi":75,"pm10":44.8,"pm2_5":10.0,"no2":0.7,"co":152.0,"o3":132.0,"so2":2.4,"mosquito_risk":0,"arthritis_risk":5,"migraine_risk":10,"frizz_risk":0,"updated_at":"2026-05-09T16:29:31.107556+05:30"},{"city":"Visakhapatnam","state":"Andhra Pradesh","latitude":17.6868,"longitude":83.2185,"temp":31.3,"humidity":61,"rain":0.0,"pressure":1001.7,"uv_index":9.15,"wind_gusts":35.3,"aqi":76,"pm10":16.6,"pm2_5":13.4,"no2":17.4,"co":527.0,"o3":53.0,"so2":19.3,"mosquito_risk":3,"arthritis_risk":5,"migraine_risk":4,"frizz_risk":1,"updated_at":"2026-05-09T16:29:31.107563+05:30"},{"city":"Vijayawada","state":"Andhra Pradesh","latitude":16.5062,"longitude":80.648,"temp":35.1,"humidity":44,"rain":0.0,"pressure":999.4,"uv_index":9.2,"wind_gusts":38.9,"aqi":45,"pm10":10.5,"pm2_5":8.2,"no2":1.8,"co":143.0,"o3":89.0,"so2":4.6,"mosquito_risk":0,"arthritis_risk":5,"migraine_risk":10,"frizz_risk":1,"updated_at":"2026-05-09T16:29:31.107569+05:30"},{"city":"Guntur","state":"Andhra Pradesh","latitude":16.3067,"longitude":80.4365,"temp":35.2,"humidity":40,"rain":0.0,"pressure":1000.6,"uv_index":9.2,"wind_gusts":33.1,"aqi":44,"pm10":12.0,"pm2_5":9.5,"no2":1.6,"co":155.0,"o3":105.0,"so2":4.0,"mosquito_risk":0,"arthritis_risk":5,"migraine_risk":7,"frizz_risk":1,"updated_at":"2026-05-09T16:29:31.107576+05:30"},{"city":"Nellore","state":"Andhra Pradesh","latitude":14.4426,"longitude":79.9865,"temp":32.3,"humidity":59,"rain":0.0,"pressure":1002.7,"uv_index":9.2,"wind_gusts":40.0,"aqi":28,"pm10":6.1,"pm2_5":4.2,"no2":1.2,"co":121.0,"o3":57.0,"so2":1.6,"mosquito_risk":0,"arthritis_risk":5,"migraine_risk":4,"frizz_risk":1,"updated_at":"2026-05-09T16:29:31.107582+05:30"},{"city":"Kurnool","state":"Andhra Pradesh","latitude":15.8281,"longitude":78.0373,"temp":38.7,"humidity":22,"rain":0.0,"pressure":972.8,"uv_index":9.15,"wind_gusts":38.5,"aqi":37,"pm10":11.8,"pm2_5":7.5,"no2":0.7,"co":167.0,"o3":120.0,"so2":1.0,"mosquito_risk":0,"arthritis_risk":5,"migraine_risk":10,"frizz_risk":0,"updated_at":"2026-05-09T16:29:31.107590+05:30"},{"city":"Kakinada","state":"Andhra Pradesh","latitude":16.9891,"longitude":82.2475,"temp":30.8,"humidity":66,"rain":0.0,"pressure":1005.3,"uv_index":9.15,"wind_gusts":36.4,"aqi":27,"pm10":6.0,"pm2_5":4.0,"no2":0.7,"co":139.0,"o3":52.0,"so2":0.5,"mosquito_risk":3,"arthritis_risk":5,"migraine_risk":4,"frizz_risk":1,"updated_at":"2026-05-09T16:29:31.107596+05:30"},{"city":"Tirupati","state":"Andhra Pradesh","latitude":13.6288,"longitude":79.4192,"temp":30.4,"humidity":60,"rain":0.0,"pressure":988.5,"uv_index":7.35,"wind_gusts":39.2,"aqi":26,"pm10":4.5,"pm2_5":3.4,"no2":1.7,"co":132.0,"o3":58.0,"so2":0.6,"mosquito_risk":0,"arthritis_risk":5,"migraine_risk":7,"frizz_risk":1,"updated_at":"2026-05-09T16:29:31.107603+05:30"},{"city":"Warangal","state":"Telangana","latitude":17.9689,"longitude":79.5941,"temp":36.5,"humidity":29,"rain":0.0,"pressure":976.0,"uv_index":9.15,"wind_gusts":32.4,"aqi":52,"pm10":22.8,"pm2_5":14.7,"no2":1.2,"co":229.0,"o3":152.0,"so2":5.2,"mosquito_risk":0,"arthritis_risk":5,"migraine_risk":10,"frizz_risk":0,"updated_at":"2026-05-09T16:29:31.107609+05:30"},{"city":"Nizamabad","state":"Telangana","latitude":18.6725,"longitude":78.0941,"temp":36.3,"humidity":25,"rain":0.0,"pressure":962.4,"uv_index":9.15,"wind_gusts":35.6,"aqi":93,"pm10":33.6,"pm2_5":18.6,"no2":0.5,"co":214.0,"o3":165.0,"so2":3.2,"mosquito_risk":0,"arthritis_risk":5,"migraine_risk":10,"frizz_risk":0,"updated_at":"2026-05-09T16:29:31.107615+05:30"},{"city":"Mysore","state":"Karnataka","latitude":12.2958,"longitude":76.6396,"temp":31.5,"humidity":42,"rain":0.0,"pressure":925.0,"uv_index":9.4,"wind_gusts":38.9,"aqi":58,"pm10":14.9,"pm2_5":12.8,"no2":3.3,"co":189.0,"o3":103.0,"so2":3.1,"mosquito_risk":0,"arthritis_risk":5,"migraine_risk":7,"frizz_risk":1,"updated_at":"2026-05-09T16:29:31.107621+05:30"},{"city":"Mangalore","state":"Karnataka","latitude":12.9141,"longitude":74.856,"temp":30.5,"humidity":74,"rain":0.0,"pressure":1002.2,"uv_index":7.9,"wind_gusts":38.2,"aqi":78,"pm10":25.3,"pm2_5":15.0,"no2":1.1,"co":172.0,"o3":114.0,"so2":1.4,"mosquito_risk":3,"arthritis_risk":5,"migraine_risk":4,"frizz_risk":1,"updated_at":"2026-05-09T16:29:31.107628+05:30"},{"city":"Hubli-Dharwad","state":"Karnataka","latitude":15.3647,"longitude":75.124,"temp":37.3,"humidity":19,"rain":0.0,"pressure":937.5,"uv_index":9.2,"wind_gusts":43.6,"aqi":56,"pm10":15.1,"pm2_5":10.3,"no2":1.4,"co":180.0,"o3":157.0,"so2":2.6,"mosquito_risk":0,"arthritis_risk":5,"migraine_risk":10,"frizz_risk":0,"updated_at":"2026-05-09T16:29:31.107634+05:30"},{"city":"Belgaum","state":"Karnataka","latitude":15.8497,"longitude":74.4977,"temp":36.3,"humidity":20,"rain":0.0,"pressure":923.1,"uv_index":9.15,"wind_gusts":41.4,"aqi":78,"pm10":27.1,"pm2_5":17.6,"no2":1.5,"co":198.0,"o3":164.0,"so2":3.4,"mosquito_risk":0,"arthritis_risk":5,"migraine_risk":10,"frizz_risk":0,"updated_at":"2026-05-09T16:29:34.338896+05:30"},{"city":"Coimbatore","state":"Tamil Nadu","latitude":11.0168,"longitude":76.9558,"temp":28.2,"humidity":70,"rain":0.0,"pressure":958.4,"uv_index":7.75,"wind_gusts":24.8,"aqi":64,"pm10":17.7,"pm2_5":15.8,"no2":3.7,"co":201.0,"o3":116.0,"so2":4.9,"mosquito_risk":7,"arthritis_risk":5,"migraine_risk":7,"frizz_risk":1,"updated_at":"2026-05-09T16:29:34.338931+05:30"},{"city":"Madurai","state":"Tamil Nadu","latitude":9.9252,"longitude":78.1198,"temp":28.0,"humidity":80,"rain":0.0,"pressure":989.5,"uv_index":5.5,"wind_gusts":40.3,"aqi":67,"pm10":11.1,"pm2_5":10.9,"no2":4.6,"co":254.0,"o3":92.0,"so2":8.0,"mosquito_risk":7,"arthritis_risk":5,"migraine_risk":3,"frizz_risk":1,"updated_at":"2026-05-09T16:29:34.338942+05:30"},{"city":"Trichy","state":"Tamil Nadu","latitude":10.7905,"longitude":78.7047,"temp":28.1,"humidity":80,"rain":0.1,"pressure":996.2,"uv_index":3.2,"wind_gusts":33.8,"aqi":38,"pm10":9.6,"pm2_5":9.5,"no2":9.6,"co":182.0,"o3":79.0,"so2":21.2,"mosquito_risk":10,"arthritis_risk":5,"migraine_risk":3,"frizz_risk":1,"updated_at":"2026-05-09T16:29:34.338951+05:30"},{"city":"Salem","state":"Tamil Nadu","latitude":11.6643,"longitude":78.146,"temp":27.7,"humidity":76,"rain":0.1,"pressure":973.9,"uv_index":8.25,"wind_gusts":31.7,"aqi":49,"pm10":8.5,"pm2_5":8.1,"no2":5.6,"co":168.0,"o3":87.0,"so2":8.4,"mosquito_risk":10,"arthritis_risk":5,"migraine_risk":7,"frizz_risk":1,"updated_at":"2026-05-09T16:29:34.338958+05:30"},{"city":"Tirunelveli","state":"Tamil Nadu","latitude":8.7139,"longitude":77.7567,"temp":27.7,"humidity":84,"rain":0.2,"pressure":999.7,"uv_index":4.35,"wind_gusts":25.2,"aqi":57,"pm10":12.8,"pm2_5":12.1,"no2":4.1,"co":186.0,"o3":92.0,"so2":4.2,"mosquito_risk":10,"arthritis_risk":5,"migraine_risk":3,"frizz_risk":1,"updated_at":"2026-05-09T16:29:34.338965+05:30"},{"city":"Vellore","state":"Tamil Nadu","latitude":12.9165,"longitude":79.1325,"temp":27.5,"humidity":76,"rain":0.1,"pressure":981.8,"uv_index":6.85,"wind_gusts":48.2,"aqi":44,"pm10":9.7,"pm2_5":9.5,"no2":4.2,"co":156.0,"o3":78.0,"so2":5.6,"mosquito_risk":10,"arthritis_risk":5,"migraine_risk":7,"frizz_risk":1,"updated_at":"2026-05-09T16:29:34.338972+05:30"},{"city":"Erode","state":"Tamil Nadu","latitude":11.341,"longitude":77.7172,"temp":29.5,"humidity":67,"rain":0.0,"pressure":985.4,"uv_index":8.1,"wind_gusts":36.4,"aqi":61,"pm10":14.2,"pm2_5":13.6,"no2":5.6,"co":193.0,"o3":100.0,"so2":5.8,"mosquito_risk":7,"arthritis_risk":5,"migraine_risk":7,"frizz_risk":1,"updated_at":"2026-05-09T16:29:34.338979+05:30"},{"city":"Kochi","state":"Kerala","latitude":9.9312,"longitude":76.2673,"temp":28.5,"humidity":81,"rain":0.0,"pressure":1004.7,"uv_index":8.1,"wind_gusts":32.0,"aqi":86,"pm10":22.1,"pm2_5":20.4,"no2":6.0,"co":273.0,"o3":124.0,"so2":2.4,"mosquito_risk":7,"arthritis_risk":5,"migraine_risk":4,"frizz_risk":1,"updated_at":"2026-05-09T16:29:34.338986+05:30"},{"city":"Thiruvananthapuram","state":"Kerala","latitude":8.5241,"longitude":76.9366,"temp":28.0,"humidity":80,"rain":0.0,"pressure":1004.0,"uv_index":4.85,"wind_gusts":28.4,"aqi":50,"pm10":11.0,"pm2_5":8.1,"no2":1.6,"co":208.0,"o3":123.0,"so2":1.1,"mosquito_risk":7,"arthritis_risk":5,"migraine_risk":0,"frizz_risk":1,"updated_at":"2026-05-09T16:29:34.338993+05:30"},{"city":"Kozhikode","state":"Kerala","latitude":11.2588,"longitude":75.7804,"temp":29.1,"humidity":80,"rain":0.1,"pressure":1004.1,"uv_index":8.3,"wind_gusts":37.4,"aqi":63,"pm10":10.5,"pm2_5":6.7,"no2":0.5,"co":267.0,"o3":114.0,"so2":0.6,"mosquito_risk":10,"arthritis_risk":5,"migraine_risk":4,"frizz_risk":1,"updated_at":"2026-05-09T16:29:34.338999+05:30"},{"city":"Thrissur","state":"Kerala","latitude":10.5276,"longitude":76.2144,"temp":28.8,"humidity":80,"rain":0.0,"pressure":1003.1,"uv_index":8.15,"wind_gusts":34.6,"aqi":75,"pm10":21.5,"pm2_5":20.3,"no2":3.1,"co":299.0,"o3":123.0,"so2":2.3,"mosquito_risk":7,"arthritis_risk":5,"migraine_risk":4,"frizz_risk":1,"updated_at":"2026-05-09T16:29:34.339007+05:30"},{"city":"Kannur","state":"Kerala","latitude":11.8745,"longitude":75.3704,"temp":29.9,"humidity":74,"rain":0.1,"pressure":1003.2,"uv_index":8.65,"wind_gusts":39.2,"aqi":70,"pm10":15.9,"pm2_5":11.4,"no2":0.9,"co":210.0,"o3":117.0,"so2":1.0,"mosquito_risk":10,"arthritis_risk":5,"migraine_risk":4,"frizz_risk":1,"updated_at":"2026-05-09T16:29:34.339014+05:30"},{"city":"Patna","state":"Bihar","latitude":25.5941,"longitude":85.1376,"temp":29.9,"humidity":58,"rain":0.0,"pressure":999.8,"uv_index":8.4,"wind_gusts":32.0,"aqi":182,"pm10":65.9,"pm2_5":49.6,"no2":4.7,"co":380.0,"o3":214.0,"so2":18.4,"mosquito_risk":4,"arthritis_risk":5,"migraine_risk":7,"frizz_risk":1,"updated_at":"2026-05-09T16:29:34.339021+05:30"},{"city":"Gaya","state":"Bihar","latitude":24.7914,"longitude":85.0002,"temp":30.1,"humidity":54,"rain":0.0,"pressure":993.0,"uv_index":8.5,"wind_gusts":33.5,"aqi":180,"pm10":70.3,"pm2_5":41.2,"no2":2.9,"co":351.0,"o3":206.0,"so2":17.9,"mosquito_risk":0,"arthritis_risk":5,"migraine_risk":7,"frizz_risk":1,"updated_at":"2026-05-09T16:29:34.339028+05:30"},{"city":"Muzaffarpur","state":"Bihar","latitude":26.1209,"longitude":85.3647,"temp":29.4,"humidity":57,"rain":0.0,"pressure":1000.2,"uv_index":8.65,"wind_gusts":34.9,"aqi":172,"pm10":65.9,"pm2_5":50.9,"no2":4.8,"co":343.0,"o3":202.0,"so2":16.1,"mosquito_risk":4,"arthritis_risk":5,"migraine_risk":4,"frizz_risk":1,"updated_at":"2026-05-09T16:29:34.339034+05:30"},{"city":"Bhagalpur","state":"Bihar","latitude":25.2425,"longitude":87.0117,"temp":30.1,"humidity":58,"rain":0.0,"pressure":1000.1,"uv_index":8.7,"wind_gusts":30.6,"aqi":187,"pm10":70.1,"pm2_5":52.0,"no2":5.2,"co":351.0,"o3":217.0,"so2":13.5,"mosquito_risk":0,"arthritis_risk":5,"migraine_risk":4,"frizz_risk":1,"updated_at":"2026-05-09T16:29:34.339040+05:30"},{"city":"Ranchi","state":"Jharkhand","latitude":23.3441,"longitude":85.3096,"temp":22.0,"humidity":82,"rain":0.5,"pressure":937.1,"uv_index":9.2,"wind_gusts":29.2,"aqi":159,"pm10":69.2,"pm2_5":34.0,"no2":1.5,"co":229.0,"o3":166.0,"so2":8.3,"mosquito_risk":6,"arthritis_risk":5,"migraine_risk":7,"frizz_risk":1,"updated_at":"2026-05-09T16:29:34.339047+05:30"},{"city":"Jamshedpur","state":"Jharkhand","latitude":22.8046,"longitude":86.2029,"temp":28.0,"humidity":66,"rain":0.0,"pressure":990.2,"uv_index":8.85,"wind_gusts":31.7,"aqi":150,"pm10":54.7,"pm2_5":37.5,"no2":3.3,"co":482.0,"o3":207.0,"so2":20.3,"mosquito_risk":7,"arthritis_risk":5,"migraine_risk":7,"frizz_risk":1,"updated_at":"2026-05-09T16:29:34.339054+05:30"},{"city":"Dhanbad","state":"Jharkhand","latitude":23.7957,"longitude":86.4304,"temp":25.0,"humidity":75,"rain":0.0,"pressure":979.2,"uv_index":8.95,"wind_gusts":35.6,"aqi":149,"pm10":78.2,"pm2_5":60.5,"no2":14.8,"co":457.0,"o3":224.0,"so2":53.2,"mosquito_risk":7,"arthritis_risk":5,"migraine_risk":7,"frizz_risk":1,"updated_at":"2026-05-09T16:29:34.339060+05:30"},{"city":"Bokaro","state":"Jharkhand","latitude":23.6693,"longitude":86.1511,"temp":26.9,"humidity":68,"rain":0.0,"pressure":983.3,"uv_index":8.95,"wind_gusts":38.2,"aqi":154,"pm10":106.2,"pm2_5":69.2,"no2":12.5,"co":937.0,"o3":228.0,"so2":47.9,"mosquito_risk":7,"arthritis_risk":5,"migraine_risk":7,"frizz_risk":1,"updated_at":"2026-05-09T16:29:34.339067+05:30"},{"city":"Bhubaneswar","state":"Odisha","latitude":20.2961,"longitude":85.8245,"temp":31.8,"humidity":53,"rain":0.0,"pressure":1001.2,"uv_index":9.1,"wind_gusts":31.7,"aqi":49,"pm10":19.9,"pm2_5":10.9,"no2":2.1,"co":201.0,"o3":109.0,"so2":3.7,"mosquito_risk":0,"arthritis_risk":5,"migraine_risk":4,"frizz_risk":1,"updated_at":"2026-05-09T16:29:34.339074+05:30"},{"city":"Cuttack","state":"Odisha","latitude":20.4625,"longitude":85.8828,"temp":31.0,"humidity":63,"rain":0.0,"pressure":1003.1,"uv_index":9.15,"wind_gusts":43.2,"aqi":49,"pm10":19.9,"pm2_5":10.9,"no2":2.1,"co":210.0,"o3":109.0,"so2":3.7,"mosquito_risk":3,"arthritis_risk":5,"migraine_risk":4,"frizz_risk":1,"updated_at":"2026-05-09T16:29:34.339080+05:30"},{"city":"Rourkela","state":"Odisha","latitude":22.2604,"longitude":84.8536,"temp":33.4,"humidity":42,"rain":0.0,"pressure":983.3,"uv_index":8.9,"wind_gusts":49.3,"aqi":176,"pm10":61.9,"pm2_5":30.5,"no2":2.1,"co":255.0,"o3":191.0,"so2":23.4,"mosquito_risk":0,"arthritis_risk":5,"migraine_risk":7,"frizz_risk":1,"updated_at":"2026-05-09T16:29:34.339087+05:30"},{"city":"Raipur","state":"Chhattisgarh","latitude":21.2514,"longitude":81.6296,"temp":37.5,"humidity":20,"rain":0.0,"pressure":971.9,"uv_index":8.95,"wind_gusts":60.5,"aqi":167,"pm10":34.5,"pm2_5":18.2,"no2":6.0,"co":308.0,"o3":193.0,"so2":4.2,"mosquito_risk":0,"arthritis_risk":5,"migraine_risk":10,"frizz_risk":0,"updated_at":"2026-05-09T16:29:34.339093+05:30"},{"city":"Bhilai","state":"Chhattisgarh","latitude":21.1938,"longitude":81.3509,"temp":37.2,"humidity":21,"rain":0.0,"pressure":972.4,"uv_index":8.95,"wind_gusts":42.8,"aqi":137,"pm10":31.3,"pm2_5":16.1,"no2":6.3,"co":372.0,"o3":174.0,"so2":3.6,"mosquito_risk":0,"arthritis_risk":5,"migraine_risk":10,"frizz_risk":0,"updated_at":"2026-05-09T16:29:34.339099+05:30"},{"city":"Guwahati","state":"Assam","latitude":26.1158,"longitude":91.7086,"temp":27.7,"humidity":72,"rain":0.0,"pressure":1000.6,"uv_index":8.65,"wind_gusts":25.2,"aqi":109,"pm10":35.5,"pm2_5":25.1,"no2":2.1,"co":324.0,"o3":136.0,"so2":1.8,"mosquito_risk":7,"arthritis_risk":5,"migraine_risk":4,"frizz_risk":1,"updated_at":"2026-05-09T16:29:34.339105+05:30"},{"city":"Agartala","state":"Tripura","latitude":23.8315,"longitude":91.2868,"temp":31.2,"humidity":57,"rain":0.0,"pressure":1004.0,"uv_index":8.8,"wind_gusts":20.2,"aqi":192,"pm10":61.0,"pm2_5":46.4,"no2":7.2,"co":362.0,"o3":208.0,"so2":5.4,"mosquito_risk":0,"arthritis_risk":5,"migraine_risk":4,"frizz_risk":1,"updated_at":"2026-05-09T16:29:34.339111+05:30"},{"city":"Shillong","state":"Meghalaya","latitude":25.5788,"longitude":91.8933,"temp":20.7,"humidity":66,"rain":0.0,"pressure":857.5,"uv_index":8.4,"wind_gusts":24.5,"aqi":111,"pm10":42.3,"pm2_5":26.9,"no2":2.1,"co":268.0,"o3":145.0,"so2":2.7,"mosquito_risk":3,"arthritis_risk":5,"migraine_risk":7,"frizz_risk":0,"updated_at":"2026-05-09T16:29:34.339117+05:30"},{"city":"Imphal","state":"Manipur","latitude":24.817,"longitude":93.9368,"temp":27.9,"humidity":52,"rain":0.0,"pressure":922.3,"uv_index":9.2,"wind_gusts":28.1,"aqi":116,"pm10":34.5,"pm2_5":18.9,"no2":2.7,"co":275.0,"o3":128.0,"so2":2.1,"mosquito_risk":4,"arthritis_risk":5,"migraine_risk":7,"frizz_risk":1,"updated_at":"2026-05-09T16:29:34.339124+05:30"},{"city":"Aizawl","state":"Mizoram","latitude":23.7271,"longitude":92.7176,"temp":26.2,"humidity":44,"rain":0.0,"pressure":892.1,"uv_index":9.0,"wind_gusts":24.8,"aqi":125,"pm10":51.2,"pm2_5":26.0,"no2":1.8,"co":236.0,"o3":142.0,"so2":4.6,"mosquito_risk":4,"arthritis_risk":5,"migraine_risk":7,"frizz_risk":0,"updated_at":"2026-05-09T16:29:34.339130+05:30"},{"city":"Kohima","state":"Nagaland","latitude":25.6701,"longitude":94.1077,"temp":20.3,"humidity":79,"rain":0.0,"pressure":855.8,"uv_index":9.15,"wind_gusts":28.8,"aqi":99,"pm10":30.0,"pm2_5":18.2,"no2":1.7,"co":277.0,"o3":134.0,"so2":1.3,"mosquito_risk":3,"arthritis_risk":5,"migraine_risk":7,"frizz_risk":1,"updated_at":"2026-05-09T16:29:34.339136+05:30"},{"city":"Gangtok","state":"Sikkim","latitude":27.3314,"longitude":88.6138,"temp":17.6,"humidity":64,"rain":0.0,"pressure":838.1,"uv_index":8.95,"wind_gusts":35.3,"aqi":92,"pm10":25.8,"pm2_5":13.8,"no2":2.1,"co":223.0,"o3":133.0,"so2":1.3,"mosquito_risk":3,"arthritis_risk":5,"migraine_risk":7,"frizz_risk":0,"updated_at":"2026-05-09T16:29:34.339142+05:30"},{"city":"Siliguri","state":"West Bengal","latitude":26.7271,"longitude":88.3953,"temp":28.7,"humidity":57,"rain":0.0,"pressure":992.9,"uv_index":8.55,"wind_gusts":26.3,"aqi":118,"pm10":38.9,"pm2_5":23.5,"no2":2.7,"co":522.0,"o3":151.0,"so2":2.1,"mosquito_risk":4,"arthritis_risk":5,"migraine_risk":7,"frizz_risk":1,"updated_at":"2026-05-09T16:29:37.578446+05:30"},{"city":"Durgapur","state":"West Bengal","latitude":23.5204,"longitude":87.3119,"temp":30.5,"humidity":64,"rain":0.0,"pressure":993.7,"uv_index":8.9,"wind_gusts":42.8,"aqi":144,"pm10":52.9,"pm2_5":44.1,"no2":12.5,"co":376.0,"o3":182.0,"so2":40.0,"mosquito_risk":3,"arthritis_risk":5,"migraine_risk":7,"frizz_risk":1,"updated_at":"2026-05-09T16:29:37.578479+05:30"},{"city":"Asansol","state":"West Bengal","latitude":23.6739,"longitude":86.9524,"temp":30.9,"humidity":59,"rain":0.0,"pressure":992.3,"uv_index":8.95,"wind_gusts":47.2,"aqi":130,"pm10":55.4,"pm2_5":44.7,"no2":12.7,"co":489.0,"o3":181.0,"so2":42.5,"mosquito_risk":0,"arthritis_risk":5,"migraine_risk":7,"frizz_risk":1,"updated_at":"2026-05-09T16:29:37.578490+05:30"},{"city":"Pondicherry","state":"Puducherry","latitude":11.9139,"longitude":79.8145,"temp":27.1,"humidity":85,"rain":0.1,"pressure":1005.7,"uv_index":3.25,"wind_gusts":38.2,"aqi":27,"pm10":4.4,"pm2_5":3.1,"no2":2.2,"co":132.0,"o3":53.0,"so2":0.6,"mosquito_risk":10,"arthritis_risk":5,"migraine_risk":0,"frizz_risk":1,"updated_at":"2026-05-09T16:29:37.578499+05:30"},{"city":"Port Blair","state":"Andaman and Nicobar Islands","latitude":11.6234,"longitude":92.7265,"temp":26.7,"humidity":85,"rain":0.0,"pressure":1004.5,"uv_index":8.1,"wind_gusts":43.6,"aqi":27,"pm10":3.0,"pm2_5":2.1,"no2":0.5,"co":151.0,"o3":57.0,"so2":0.1,"mosquito_risk":7,"arthritis_risk":5,"migraine_risk":4,"frizz_risk":1,"updated_at":"2026-05-09T16:29:37.578507+05:30"},{"city":"Haridwar","state":"Uttarakhand","latitude":29.9457,"longitude":78.1642,"temp":31.4,"humidity":41,"rain":0.0,"pressure":973.6,"uv_index":7.4,"wind_gusts":28.1,"aqi":158,"pm10":61.0,"pm2_5":26.2,"no2":0.9,"co":262.0,"o3":180.0,"so2":7.2,"mosquito_risk":0,"arthritis_risk":5,"migraine_risk":7,"frizz_risk":1,"updated_at":"2026-05-09T16:29:37.578514+05:30"},{"city":"Rishikesh","state":"Uttarakhand","latitude":30.0869,"longitude":78.2676,"temp":30.3,"humidity":44,"rain":0.0,"pressure":966.3,"uv_index":7.5,"wind_gusts":26.6,"aqi":160,"pm10":59.6,"pm2_5":25.1,"no2":0.9,"co":240.0,"o3":179.0,"so2":6.9,"mosquito_risk":0,"arthritis_risk":5,"migraine_risk":7,"frizz_risk":1,"updated_at":"2026-05-09T16:29:37.578522+05:30"},{"city":"Nainital","state":"Uttarakhand","latitude":29.3919,"longitude":79.4542,"temp":17.2,"humidity":70,"rain":0.1,"pressure":806.7,"uv_index":7.95,"wind_gusts":30.2,"aqi":130,"pm10":39.5,"pm2_5":19.3,"no2":0.6,"co":244.0,"o3":162.0,"so2":3.4,"mosquito_risk":6,"arthritis_risk":5,"migraine_risk":7,"frizz_risk":0,"updated_at":"2026-05-09T16:29:37.578529+05:30"},{"city":"Mussoorie","state":"Uttarakhand","latitude":30.4599,"longitude":78.0664,"temp":18.5,"humidity":64,"rain":0.0,"pressure":804.7,"uv_index":7.85,"wind_gusts":40.0,"aqi":145,"pm10":55.3,"pm2_5":24.3,"no2":1.3,"co":241.0,"o3":177.0,"so2":6.7,"mosquito_risk":3,"arthritis_risk":5,"migraine_risk":7,"frizz_risk":0,"updated_at":"2026-05-09T16:29:37.578536+05:30"},{"city":"Dharamshala","state":"Himachal Pradesh","latitude":32.219,"longitude":76.3234,"temp":23.8,"humidity":57,"rain":0.0,"pressure":870.5,"uv_index":8.25,"wind_gusts":37.4,"aqi":133,"pm10":63.8,"pm2_5":29.8,"no2":0.4,"co":265.0,"o3":171.0,"so2":4.1,"mosquito_risk":0,"arthritis_risk":5,"migraine_risk":7,"frizz_risk":0,"updated_at":"2026-05-09T16:29:37.578580+05:30"},{"city":"Dalhousie","state":"Himachal Pradesh","latitude":32.5387,"longitude":75.971,"temp":21.1,"humidity":51,"rain":0.0,"pressure":807.4,"uv_index":8.55,"wind_gusts":34.6,"aqi":158,"pm10":91.7,"pm2_5":39.7,"no2":0.9,"co":246.0,"o3":187.0,"so2":6.6,"mosquito_risk":0,"arthritis_risk":5,"migraine_risk":7,"frizz_risk":0,"updated_at":"2026-05-09T16:29:37.578587+05:30"},{"city":"Patiala","state":"Punjab","latitude":30.3398,"longitude":76.3869,"temp":34.7,"humidity":28,"rain":0.0,"pressure":977.3,"uv_index":7.5,"wind_gusts":29.2,"aqi":252,"pm10":351.1,"pm2_5":56.0,"no2":2.0,"co":252.0,"o3":191.0,"so2":7.7,"mosquito_risk":0,"arthritis_risk":5,"migraine_risk":7,"frizz_risk":0,"updated_at":"2026-05-09T16:29:37.578595+05:30"},{"city":"Bhatinda","state":"Punjab","latitude":30.211,"longitude":74.9455,"temp":37.5,"humidity":24,"rain":0.0,"pressure":982.1,"uv_index":8.2,"wind_gusts":25.6,"aqi":513,"pm10":451.7,"pm2_5":84.5,"no2":1.9,"co":273.0,"o3":214.0,"so2":19.9,"mosquito_risk":0,"arthritis_risk":5,"migraine_risk":10,"frizz_risk":0,"updated_at":"2026-05-09T16:29:37.578601+05:30"},{"city":"Rohtak","state":"Haryana","latitude":28.8955,"longitude":76.6066,"temp":35.5,"humidity":27,"rain":0.0,"pressure":980.4,"uv_index":7.6,"wind_gusts":27.0,"aqi":380,"pm10":364.1,"pm2_5":64.5,"no2":3.1,"co":317.0,"o3":233.0,"so2":17.7,"mosquito_risk":0,"arthritis_risk":5,"migraine_risk":10,"frizz_risk":0,"updated_at":"2026-05-09T16:29:37.578608+05:30"},{"city":"Panipat","state":"Haryana","latitude":29.3909,"longitude":76.9635,"temp":34.3,"humidity":31,"rain":0.0,"pressure":979.7,"uv_index":7.45,"wind_gusts":31.0,"aqi":603,"pm10":540.2,"pm2_5":72.2,"no2":3.6,"co":273.0,"o3":218.0,"so2":19.8,"mosquito_risk":0,"arthritis_risk":5,"migraine_risk":7,"frizz_risk":0,"updated_at":"2026-05-09T16:29:37.578616+05:30"},{"city":"Mathura","state":"Uttar Pradesh","latitude":27.4924,"longitude":77.6737,"temp":34.4,"humidity":33,"rain":0.0,"pressure":985.2,"uv_index":7.85,"wind_gusts":27.0,"aqi":783,"pm10":657.5,"pm2_5":78.9,"no2":1.8,"co":293.0,"o3":179.0,"so2":7.5,"mosquito_risk":0,"arthritis_risk":5,"migraine_risk":7,"frizz_risk":0,"updated_at":"2026-05-09T16:29:37.578622+05:30"},{"city":"Vrindavan","state":"Uttar Pradesh","latitude":27.5823,"longitude":77.7027,"temp":34.6,"humidity":31,"rain":0.0,"pressure":985.6,"uv_index":7.8,"wind_gusts":27.4,"aqi":783,"pm10":657.5,"pm2_5":78.9,"no2":1.8,"co":287.0,"o3":179.0,"so2":7.5,"mosquito_risk":0,"arthritis_risk":5,"migraine_risk":7,"frizz_risk":0,"updated_at":"2026-05-09T16:29:37.578630+05:30"},{"city":"Ayodhya","state":"Uttar Pradesh","latitude":26.7922,"longitude":82.1998,"temp":30.2,"humidity":48,"rain":0.0,"pressure":994.6,"uv_index":8.15,"wind_gusts":38.9,"aqi":126,"pm10":64.0,"pm2_5":32.9,"no2":1.3,"co":325.0,"o3":176.0,"so2":7.0,"mosquito_risk":0,"arthritis_risk":5,"migraine_risk":7,"frizz_risk":1,"updated_at":"2026-05-09T16:29:37.578637+05:30"},{"city":"Ratlam","state":"Madhya Pradesh","latitude":23.3315,"longitude":75.0367,"temp":38.6,"humidity":13,"rain":0.0,"pressure":952.8,"uv_index":8.5,"wind_gusts":40.7,"aqi":77,"pm10":37.7,"pm2_5":9.1,"no2":0.5,"co":148.0,"o3":132.0,"so2":2.0,"mosquito_risk":0,"arthritis_risk":5,"migraine_risk":10,"frizz_risk":0,"updated_at":"2026-05-09T16:29:37.578644+05:30"},{"city":"Sagar","state":"Madhya Pradesh","latitude":23.8388,"longitude":78.7378,"temp":38.2,"humidity":14,"rain":0.0,"pressure":947.0,"uv_index":8.6,"wind_gusts":44.6,"aqi":126,"pm10":51.2,"pm2_5":14.9,"no2":0.7,"co":166.0,"o3":150.0,"so2":6.1,"mosquito_risk":0,"arthritis_risk":5,"migraine_risk":10,"frizz_risk":0,"updated_at":"2026-05-09T16:29:37.578651+05:30"},{"city":"Satna","state":"Madhya Pradesh","latitude":24.6005,"longitude":80.8322,"temp":35.8,"humidity":22,"rain":0.0,"pressure":968.6,"uv_index":8.65,"wind_gusts":38.5,"aqi":157,"pm10":58.0,"pm2_5":22.7,"no2":1.5,"co":202.0,"o3":186.0,"so2":7.5,"mosquito_risk":0,"arthritis_risk":5,"migraine_risk":10,"frizz_risk":0,"updated_at":"2026-05-09T16:29:37.578657+05:30"},{"city":"Akola","state":"Maharashtra","latitude":20.7002,"longitude":77.0082,"temp":39.8,"humidity":12,"rain":0.0,"pressure":971.7,"uv_index":8.85,"wind_gusts":38.2,"aqi":117,"pm10":65.4,"pm2_5":20.2,"no2":1.0,"co":198.0,"o3":169.0,"so2":11.3,"mosquito_risk":0,"arthritis_risk":5,"migraine_risk":10,"frizz_risk":0,"updated_at":"2026-05-09T16:29:37.578665+05:30"},{"city":"Amravati","state":"Maharashtra","latitude":20.9374,"longitude":77.7796,"temp":39.2,"humidity":17,"rain":0.0,"pressure":964.3,"uv_index":8.85,"wind_gusts":34.6,"aqi":112,"pm10":64.7,"pm2_5":20.0,"no2":1.1,"co":207.0,"o3":168.0,"so2":6.6,"mosquito_risk":0,"arthritis_risk":5,"migraine_risk":10,"frizz_risk":0,"updated_at":"2026-05-09T16:29:37.578672+05:30"},{"city":"Latur","state":"Maharashtra","latitude":18.4088,"longitude":76.5604,"temp":37.0,"humidity":21,"rain":0.0,"pressure":937.8,"uv_index":9.05,"wind_gusts":46.8,"aqi":100,"pm10":45.6,"pm2_5":27.2,"no2":1.1,"co":205.0,"o3":170.0,"so2":11.2,"mosquito_risk":0,"arthritis_risk":5,"migraine_risk":10,"frizz_risk":0,"updated_at":"2026-05-09T16:29:37.578679+05:30"},{"city":"Nanded","state":"Maharashtra","latitude":19.1383,"longitude":77.3091,"temp":38.2,"humidity":18,"rain":0.0,"pressure":965.8,"uv_index":9.0,"wind_gusts":31.3,"aqi":108,"pm10":49.1,"pm2_5":25.0,"no2":1.3,"co":218.0,"o3":166.0,"so2":5.3,"mosquito_risk":0,"arthritis_risk":5,"migraine_risk":10,"frizz_risk":0,"updated_at":"2026-05-09T16:29:37.578686+05:30"},{"city":"Gulbarga","state":"Karnataka","latitude":17.3297,"longitude":76.8343,"temp":38.2,"humidity":21,"rain":0.0,"pressure":955.6,"uv_index":8.8,"wind_gusts":34.6,"aqi":69,"pm10":20.8,"pm2_5":13.2,"no2":1.7,"co":208.0,"o3":161.0,"so2":3.1,"mosquito_risk":0,"arthritis_risk":5,"migraine_risk":10,"frizz_risk":0,"updated_at":"2026-05-09T16:29:37.578692+05:30"},{"city":"Bidar","state":"Karnataka","latitude":17.9104,"longitude":77.5199,"temp":35.6,"humidity":26,"rain":0.0,"pressure":933.7,"uv_index":8.85,"wind_gusts":34.6,"aqi":79,"pm10":24.7,"pm2_5":15.0,"no2":1.1,"co":204.0,"o3":160.0,"so2":2.8,"mosquito_risk":0,"arthritis_risk":5,"migraine_risk":10,"frizz_risk":0,"updated_at":"2026-05-09T16:29:37.578698+05:30"},{"city":"Hospet","state":"Karnataka","latitude":15.2689,"longitude":76.3909,"temp":36.5,"humidity":23,"rain":0.0,"pressure":952.0,"uv_index":9.2,"wind_gusts":36.0,"aqi":43,"pm10":13.8,"pm2_5":9.9,"no2":2.4,"co":193.0,"o3":153.0,"so2":5.5,"mosquito_risk":0,"arthritis_risk":5,"migraine_risk":10,"frizz_risk":0,"updated_at":"2026-05-09T16:29:37.578705+05:30"},{"city":"Tirupur","state":"Tamil Nadu","latitude":11.1085,"longitude":77.3411,"temp":29.7,"humidity":68,"rain":0.0,"pressure":971.3,"uv_index":8.05,"wind_gusts":29.9,"aqi":77,"pm10":19.1,"pm2_5":17.8,"no2":4.1,"co":203.0,"o3":132.0,"so2":7.1,"mosquito_risk":7,"arthritis_risk":5,"migraine_risk":7,"frizz_risk":1,"updated_at":"2026-05-09T16:29:37.578711+05:30"},{"city":"Alappuzha","state":"Kerala","latitude":9.4981,"longitude":76.3388,"temp":28.6,"humidity":79,"rain":0.0,"pressure":1004.9,"uv_index":8.15,"wind_gusts":31.0,"aqi":94,"pm10":16.4,"pm2_5":14.8,"no2":4.7,"co":184.0,"o3":143.0,"so2":3.3,"mosquito_risk":7,"arthritis_risk":5,"migraine_risk":4,"frizz_risk":1,"updated_at":"2026-05-09T16:29:37.578717+05:30"},{"city":"Munnar","state":"Kerala","latitude":10.0889,"longitude":77.0595,"temp":19.8,"humidity":91,"rain":0.1,"pressure":854.3,"uv_index":4.95,"wind_gusts":24.1,"aqi":52,"pm10":12.1,"pm2_5":11.1,"no2":3.4,"co":173.0,"o3":81.0,"so2":1.6,"mosquito_risk":6,"arthritis_risk":10,"migraine_risk":3,"frizz_risk":1,"updated_at":"2026-05-09T16:29:37.578725+05:30"},{"city":"Silchar","state":"Assam","latitude":24.8333,"longitude":92.7789,"temp":32.0,"humidity":57,"rain":0.0,"pressure":1002.2,"uv_index":8.7,"wind_gusts":16.9,"aqi":134,"pm10":57.2,"pm2_5":29.9,"no2":2.8,"co":311.0,"o3":155.0,"so2":6.5,"mosquito_risk":0,"arthritis_risk":5,"migraine_risk":4,"frizz_risk":1,"updated_at":"2026-05-09T16:29:37.578731+05:30"},{"city":"Dibrugarh","state":"Assam","latitude":27.4728,"longitude":94.912,"temp":30.6,"humidity":59,"rain":0.0,"pressure":994.0,"uv_index":8.7,"wind_gusts":19.4,"aqi":118,"pm10":29.6,"pm2_5":20.7,"no2":3.7,"co":275.0,"o3":146.0,"so2":1.8,"mosquito_risk":0,"arthritis_risk":5,"migraine_risk":7,"frizz_risk":1,"updated_at":"2026-05-09T16:29:37.578737+05:30"}]