[{"city":"Delhi","state":"Delhi","latitude":28.6139,"longitude":77.209,"temp":20.4,"humidity":67,"rain":0.0,"pressure":986.1,"uv_index":5.4,"aqi":165,"mosquito_risk":3,"arthritis_risk":5,"migraine_risk":3,"frizz_risk":0,"updated_at":"2026-02-23T22:31:59.738852+05:30"},{"city":"Mumbai","state":"Maharashtra","latitude":19.076,"longitude":72.8777,"temp":27.0,"humidity":81,"rain":0.0,"pressure":1007.5,"uv_index":7.25,"aqi":186,"mosquito_risk":7,"arthritis_risk":5,"migraine_risk":4,"frizz_risk":1,"updated_at":"2026-02-23T22:31:59.738895+05:30"},{"city":"Bangalore","state":"Karnataka","latitude":12.9716,"longitude":77.5946,"temp":23.1,"humidity":52,"rain":0.0,"pressure":910.5,"uv_index":8.9,"aqi":66,"mosquito_risk":0,"arthritis_risk":5,"migraine_risk":7,"frizz_risk":0,"updated_at":"2026-02-23T22:31:59.738910+05:30"},{"city":"Hyderabad","state":"Telangana","latitude":17.385,"longitude":78.4867,"temp":22.0,"humidity":84,"rain":0.0,"pressure":954.3,"uv_index":7.2,"aqi":113,"mosquito_risk":3,"arthritis_risk":5,"migraine_risk":7,"frizz_risk":1,"updated_at":"2026-02-23T22:31:59.738919+05:30"},{"city":"Chennai","state":"Tamil Nadu","latitude":13.0827,"longitude":80.2707,"temp":25.8,"humidity":80,"rain":0.0,"pressure":1007.6,"uv_index":8.25,"aqi":31,"mosquito_risk":7,"arthritis_risk":5,"migraine_risk":4,"frizz_risk":1,"updated_at":"2026-02-23T22:31:59.738928+05:30"},{"city":"Kolkata","state":"West Bengal","latitude":22.5726,"longitude":88.3639,"temp":24.2,"humidity":79,"rain":0.0,"pressure":1007.8,"uv_index":7.25,"aqi":156,"mosquito_risk":3,"arthritis_risk":5,"migraine_risk":4,"frizz_risk":1,"updated_at":"2026-02-23T22:31:59.738935+05:30"},{"city":"Pune","state":"Maharashtra","latitude":18.5204,"longitude":73.8567,"temp":23.5,"humidity":51,"rain":0.0,"pressure":947.8,"uv_index":7.75,"aqi":140,"mosquito_risk":0,"arthritis_risk":5,"migraine_risk":7,"frizz_risk":0,"updated_at":"2026-02-23T22:31:59.738942+05:30"},{"city":"Ahmedabad","state":"Gujarat","latitude":23.0225,"longitude":72.5714,"temp":23.5,"humidity":50,"rain":0.0,"pressure":1002.8,"uv_index":6.65,"aqi":90,"mosquito_risk":0,"arthritis_risk":5,"migraine_risk":4,"frizz_risk":0,"updated_at":"2026-02-23T22:31:59.738949+05:30"},{"city":"Jaipur","state":"Rajasthan","latitude":26.9124,"longitude":75.7873,"temp":20.8,"humidity":52,"rain":0.0,"pressure":961.3,"uv_index":6.2,"aqi":123,"mosquito_risk":0,"arthritis_risk":5,"migraine_risk":7,"frizz_risk":0,"updated_at":"2026-02-23T22:31:59.738956+05:30"},{"city":"Lucknow","state":"Uttar Pradesh","latitude":26.8467,"longitude":80.9462,"temp":20.5,"humidity":64,"rain":0.0,"pressure":997.0,"uv_index":5.85,"aqi":157,"mosquito_risk":3,"arthritis_risk":5,"migraine_risk":3,"frizz_risk":0,"updated_at":"2026-02-23T22:31:59.738966+05:30"},{"city":"Kanpur","state":"Uttar Pradesh","latitude":26.4499,"longitude":80.3319,"temp":20.6,"humidity":64,"rain":0.0,"pressure":995.0,"uv_index":5.85,"aqi":154,"mosquito_risk":3,"arthritis_risk":5,"migraine_risk":3,"frizz_risk":0,"updated_at":"2026-02-23T22:31:59.738973+05:30"},{"city":"Chandigarh","state":"Chandigarh","latitude":30.7333,"longitude":76.7794,"temp":17.6,"humidity":77,"rain":0.0,"pressure":971.5,"uv_index":5.25,"aqi":156,"mosquito_risk":3,"arthritis_risk":5,"migraine_risk":3,"frizz_risk":0,"updated_at":"2026-02-23T22:31:59.738981+05:30"},{"city":"Srinagar","state":"Jammu and Kashmir","latitude":34.0837,"longitude":74.7973,"temp":3.3,"humidity":74,"rain":0.0,"pressure":836.4,"uv_index":6.1,"aqi":154,"mosquito_risk":3,"arthritis_risk":5,"migraine_risk":7,"frizz_risk":1,"updated_at":"2026-02-23T22:31:59.738988+05:30"},{"city":"Jammu","state":"Jammu and Kashmir","latitude":32.7266,"longitude":74.857,"temp":18.6,"humidity":81,"rain":0.0,"pressure":975.6,"uv_index":5.8,"aqi":155,"mosquito_risk":3,"arthritis_risk":10,"migraine_risk":3,"frizz_risk":0,"updated_at":"2026-02-23T22:31:59.738994+05:30"},{"city":"Amritsar","state":"Punjab","latitude":31.634,"longitude":74.8723,"temp":18.2,"humidity":75,"rain":0.0,"pressure":983.9,"uv_index":5.8,"aqi":175,"mosquito_risk":3,"arthritis_risk":5,"migraine_risk":3,"frizz_risk":0,"updated_at":"2026-02-23T22:31:59.739001+05:30"},{"city":"Ludhiana","state":"Punjab","latitude":30.901,"longitude":75.8573,"temp":18.7,"humidity":71,"rain":0.0,"pressure":981.9,"uv_index":5.5,"aqi":194,"mosquito_risk":3,"arthritis_risk":5,"migraine_risk":3,"frizz_risk":0,"updated_at":"2026-02-23T22:31:59.739010+05:30"},{"city":"Jalandhar","state":"Punjab","latitude":31.326,"longitude":75.5762,"temp":17.0,"humidity":81,"rain":0.0,"pressure":983.1,"uv_index":5.65,"aqi":187,"mosquito_risk":3,"arthritis_risk":10,"migraine_risk":3,"frizz_risk":0,"updated_at":"2026-02-23T22:31:59.739017+05:30"},{"city":"Dehradun","state":"Uttarakhand","latitude":30.6284,"longitude":78.0322,"temp":9.2,"humidity":89,"rain":0.0,"pressure":828.4,"uv_index":5.55,"aqi":88,"mosquito_risk":3,"arthritis_risk":10,"migraine_risk":3,"frizz_risk":0,"updated_at":"2026-02-23T22:31:59.739023+05:30"},{"city":"Shimla","state":"Himachal Pradesh","latitude":31.1048,"longitude":77.1734,"temp":7.8,"humidity":83,"rain":0.0,"pressure":781.8,"uv_index":5.65,"aqi":124,"mosquito_risk":3,"arthritis_risk":10,"migraine_risk":3,"frizz_risk":0,"updated_at":"2026-02-23T22:31:59.739029+05:30"},{"city":"Manali","state":"Himachal Pradesh","latitude":32.2396,"longitude":77.1887,"temp":11.3,"humidity":43,"rain":0.0,"pressure":816.8,"uv_index":7.2,"aqi":84,"mosquito_risk":0,"arthritis_risk":5,"migraine_risk":7,"frizz_risk":1,"updated_at":"2026-02-23T22:31:59.739038+05:30"},{"city":"Gurgaon","state":"Haryana","latitude":28.4595,"longitude":77.0266,"temp":18.1,"humidity":75,"rain":0.0,"pressure":984.3,"uv_index":5.5,"aqi":167,"mosquito_risk":3,"arthritis_risk":5,"migraine_risk":3,"frizz_risk":0,"updated_at":"2026-02-23T22:31:59.739044+05:30"},{"city":"Noida","state":"Uttar Pradesh","latitude":28.5355,"longitude":77.391,"temp":20.1,"humidity":67,"rain":0.0,"pressure":987.7,"uv_index":5.4,"aqi":167,"mosquito_risk":3,"arthritis_risk":5,"migraine_risk":3,"frizz_risk":0,"updated_at":"2026-02-23T22:31:59.739051+05:30"},{"city":"Ghaziabad","state":"Uttar Pradesh","latitude":28.6692,"longitude":77.4538,"temp":19.1,"humidity":72,"rain":0.0,"pressure":985.9,"uv_index":5.35,"aqi":163,"mosquito_risk":3,"arthritis_risk":5,"migraine_risk":3,"frizz_risk":0,"updated_at":"2026-02-23T22:31:59.739058+05:30"},{"city":"Faridabad","state":"Haryana","latitude":28.4089,"longitude":77.3178,"temp":19.0,"humidity":71,"rain":0.0,"pressure":986.9,"uv_index":5.4,"aqi":167,"mosquito_risk":3,"arthritis_risk":5,"migraine_risk":3,"frizz_risk":0,"updated_at":"2026-02-23T22:31:59.739064+05:30"},{"city":"Meerut","state":"Uttar Pradesh","latitude":28.9845,"longitude":77.7064,"temp":16.9,"humidity":81,"rain":0.0,"pressure":984.4,"uv_index":5.25,"aqi":163,"mosquito_risk":3,"arthritis_risk":10,"migraine_risk":3,"frizz_risk":0,"updated_at":"2026-02-23T22:31:59.739070+05:30"},{"city":"Agra","state":"Uttar Pradesh","latitude":27.1767,"longitude":78.0081,"temp":19.8,"humidity":76,"rain":0.0,"pressure":990.8,"uv_index":5.7,"aqi":160,"mosquito_risk":3,"arthritis_risk":5,"migraine_risk":3,"frizz_risk":0,"updated_at":"2026-02-23T22:31:59.739076+05:30"},{"city":"Varanasi","state":"Uttar Pradesh","latitude":25.3176,"longitude":82.9739,"temp":19.0,"humidity":72,"rain":0.0,"pressure":1000.7,"uv_index":6.5,"aqi":159,"mosquito_risk":3,"arthritis_risk":5,"migraine_risk":4,"frizz_risk":0,"updated_at":"2026-02-23T22:31:59.739083+05:30"},{"city":"Prayagraj","state":"Uttar Pradesh","latitude":25.4358,"longitude":81.8463,"temp":20.4,"humidity":66,"rain":0.0,"pressure":999.3,"uv_index":6.35,"aqi":156,"mosquito_risk":3,"arthritis_risk":5,"migraine_risk":7,"frizz_risk":0,"updated_at":"2026-02-23T22:31:59.739090+05:30"},{"city":"Gorakhpur","state":"Uttar Pradesh","latitude":26.7606,"longitude":83.3732,"temp":17.7,"humidity":72,"rain":0.0,"pressure":1000.5,"uv_index":6.2,"aqi":153,"mosquito_risk":3,"arthritis_risk":5,"migraine_risk":4,"frizz_risk":0,"updated_at":"2026-02-23T22:31:59.739096+05:30"},{"city":"Bareilly","state":"Uttar Pradesh","latitude":28.367,"longitude":79.4304,"temp":17.2,"humidity":82,"rain":0.0,"pressure":990.0,"uv_index":5.5,"aqi":162,"mosquito_risk":3,"arthritis_risk":10,"migraine_risk":3,"frizz_risk":0,"updated_at":"2026-02-23T22:31:59.739105+05:30"},{"city":"Aligarh","state":"Uttar Pradesh","latitude":27.8974,"longitude":78.088,"temp":18.3,"humidity":71,"rain":0.0,"pressure":988.6,"uv_index":5.5,"aqi":168,"mosquito_risk":3,"arthritis_risk":5,"migraine_risk":3,"frizz_risk":0,"updated_at":"2026-02-23T22:31:59.739111+05:30"},{"city":"Moradabad","state":"Uttar Pradesh","latitude":28.8386,"longitude":78.7733,"temp":16.9,"humidity":78,"rain":0.0,"pressure":986.7,"uv_index":5.35,"aqi":167,"mosquito_risk":3,"arthritis_risk":5,"migraine_risk":3,"frizz_risk":0,"updated_at":"2026-02-23T22:31:59.739118+05:30"},{"city":"Saharanpur","state":"Uttar Pradesh","latitude":29.9637,"longitude":77.546,"temp":17.3,"humidity":80,"rain":0.0,"pressure":978.7,"uv_index":5.0,"aqi":166,"mosquito_risk":3,"arthritis_risk":5,"migraine_risk":3,"frizz_risk":0,"updated_at":"2026-02-23T22:31:59.739123+05:30"},{"city":"Jhansi","state":"Uttar Pradesh","latitude":25.4484,"longitude":78.5685,"temp":19.3,"humidity":83,"rain":0.0,"pressure":980.6,"uv_index":6.35,"aqi":130,"mosquito_risk":3,"arthritis_risk":10,"migraine_risk":7,"frizz_risk":1,"updated_at":"2026-02-23T22:32:03.043468+05:30"},{"city":"Surat","state":"Gujarat","latitude":21.1702,"longitude":72.8311,"temp":26.1,"humidity":66,"rain":0.0,"pressure":1006.3,"uv_index":6.95,"aqi":154,"mosquito_risk":7,"arthritis_risk":5,"migraine_risk":4,"frizz_risk":1,"updated_at":"2026-02-23T22:32:03.043498+05:30"},{"city":"Vadodara","state":"Gujarat","latitude":22.3072,"longitude":73.1812,"temp":25.7,"humidity":40,"rain":0.0,"pressure":1004.7,"uv_index":5.65,"aqi":89,"mosquito_risk":4,"arthritis_risk":5,"migraine_risk":0,"frizz_risk":0,"updated_at":"2026-02-23T22:32:03.043508+05:30"},{"city":"Rajkot","state":"Gujarat","latitude":22.3039,"longitude":70.8022,"temp":24.6,"humidity":49,"rain":0.0,"pressure":994.5,"uv_index":6.9,"aqi":76,"mosquito_risk":0,"arthritis_risk":5,"migraine_risk":7,"frizz_risk":0,"updated_at":"2026-02-23T22:32:03.043515+05:30"},{"city":"Thane","state":"Maharashtra","latitude":19.2183,"longitude":72.9781,"temp":24.8,"humidity":86,"rain":0.0,"pressure":1007.0,"uv_index":7.25,"aqi":186,"mosquito_risk":3,"arthritis_risk":5,"migraine_risk":4,"frizz_risk":1,"updated_at":"2026-02-23T22:32:03.043523+05:30"},{"city":"Nagpur","state":"Maharashtra","latitude":21.1458,"longitude":79.0882,"temp":21.9,"humidity":85,"rain":0.0,"pressure":974.8,"uv_index":7.35,"aqi":162,"mosquito_risk":3,"arthritis_risk":5,"migraine_risk":7,"frizz_risk":1,"updated_at":"2026-02-23T22:32:03.043529+05:30"},{"city":"Nashik","state":"Maharashtra","latitude":19.9975,"longitude":73.7898,"temp":22.5,"humidity":42,"rain":0.0,"pressure":945.2,"uv_index":6.95,"aqi":97,"mosquito_risk":0,"arthritis_risk":5,"migraine_risk":7,"frizz_risk":0,"updated_at":"2026-02-23T22:32:03.043536+05:30"},{"city":"Aurangabad","state":"Maharashtra","latitude":19.8762,"longitude":75.3433,"temp":22.9,"humidity":46,"rain":0.0,"pressure":943.4,"uv_index":7.7,"aqi":85,"mosquito_risk":0,"arthritis_risk":5,"migraine_risk":7,"frizz_risk":0,"updated_at":"2026-02-23T22:32:03.043542+05:30"},{"city":"Solapur","state":"Maharashtra","latitude":17.6599,"longitude":75.9064,"temp":24.5,"humidity":68,"rain":0.0,"pressure":956.4,"uv_index":7.85,"aqi":113,"mosquito_risk":3,"arthritis_risk":5,"migraine_risk":7,"frizz_risk":1,"updated_at":"2026-02-23T22:32:03.043549+05:30"},{"city":"Kolhapur","state":"Maharashtra","latitude":16.705,"longitude":74.2433,"temp":22.2,"humidity":91,"rain":0.0,"pressure":946.9,"uv_index":7.45,"aqi":154,"mosquito_risk":3,"arthritis_risk":5,"migraine_risk":7,"frizz_risk":1,"updated_at":"2026-02-23T22:32:03.043555+05:30"},{"city":"Goa","state":"Goa","latitude":15.2993,"longitude":74.124,"temp":27.1,"humidity":82,"rain":0.0,"pressure":997.0,"uv_index":8.25,"aqi":154,"mosquito_risk":7,"arthritis_risk":5,"migraine_risk":7,"frizz_risk":1,"updated_at":"2026-02-23T22:32:03.043562+05:30"},{"city":"Jodhpur","state":"Rajasthan","latitude":26.2389,"longitude":73.0243,"temp":24.1,"humidity":28,"rain":0.0,"pressure":984.1,"uv_index":6.5,"aqi":68,"mosquito_risk":0,"arthritis_risk":5,"migraine_risk":7,"frizz_risk":0,"updated_at":"2026-02-23T22:32:03.043570+05:30"},{"city":"Udaipur","state":"Rajasthan","latitude":24.5854,"longitude":73.7125,"temp":19.0,"humidity":48,"rain":0.0,"pressure":947.4,"uv_index":7.1,"aqi":54,"mosquito_risk":0,"arthritis_risk":5,"migraine_risk":7,"frizz_risk":0,"updated_at":"2026-02-23T22:32:03.043618+05:30"},{"city":"Kota","state":"Rajasthan","latitude":25.2138,"longitude":75.8648,"temp":20.3,"humidity":71,"rain":0.0,"pressure":980.5,"uv_index":6.55,"aqi":130,"mosquito_risk":3,"arthritis_risk":5,"migraine_risk":7,"frizz_risk":0,"updated_at":"2026-02-23T22:32:03.043626+05:30"},{"city":"Bikaner","state":"Rajasthan","latitude":28.0229,"longitude":73.3119,"temp":23.7,"humidity":37,"rain":0.0,"pressure":982.9,"uv_index":6.1,"aqi":98,"mosquito_risk":0,"arthritis_risk":5,"migraine_risk":7,"frizz_risk":0,"updated_at":"2026-02-23T22:32:03.043633+05:30"},{"city":"Ajmer","state":"Rajasthan","latitude":26.4499,"longitude":74.6399,"temp":20.6,"humidity":39,"rain":0.0,"pressure":955.5,"uv_index":6.5,"aqi":104,"mosquito_risk":0,"arthritis_risk":5,"migraine_risk":7,"frizz_risk":0,"updated_at":"2026-02-23T22:32:03.043639+05:30"},{"city":"Gwalior","state":"Madhya Pradesh","latitude":26.2183,"longitude":78.1828,"temp":21.9,"humidity":58,"rain":0.0,"pressure":986.1,"uv_index":6.05,"aqi":114,"mosquito_risk":0,"arthritis_risk":5,"migraine_risk":7,"frizz_risk":0,"updated_at":"2026-02-23T22:32:03.043646+05:30"},{"city":"Indore","state":"Madhya Pradesh","latitude":22.7196,"longitude":75.8577,"temp":21.4,"humidity":51,"rain":0.0,"pressure":948.6,"uv_index":7.1,"aqi":82,"mosquito_risk":0,"arthritis_risk":5,"migraine_risk":7,"frizz_risk":0,"updated_at":"2026-02-23T22:32:03.043651+05:30"},{"city":"Bhopal","state":"Madhya Pradesh","latitude":23.2599,"longitude":77.4126,"temp":19.9,"humidity":62,"rain":0.0,"pressure":954.3,"uv_index":6.9,"aqi":98,"mosquito_risk":3,"arthritis_risk":5,"migraine_risk":7,"frizz_risk":0,"updated_at":"2026-02-23T22:32:03.043657+05:30"},{"city":"Jabalpur","state":"Madhya Pradesh","latitude":23.1815,"longitude":79.9864,"temp":22.7,"humidity":49,"rain":0.0,"pressure":962.7,"uv_index":6.95,"aqi":126,"mosquito_risk":0,"arthritis_risk":5,"migraine_risk":7,"frizz_risk":0,"updated_at":"2026-02-23T22:32:03.043663+05:30"},{"city":"Ujjain","state":"Madhya Pradesh","latitude":23.1765,"longitude":75.7885,"temp":20.6,"humidity":59,"rain":0.0,"pressure":954.3,"uv_index":7.0,"aqi":93,"mosquito_risk":0,"arthritis_risk":5,"migraine_risk":7,"frizz_risk":0,"updated_at":"2026-02-23T22:32:03.043670+05:30"},{"city":"Visakhapatnam","state":"Andhra Pradesh","latitude":17.6868,"longitude":83.2185,"temp":25.1,"humidity":77,"rain":0.0,"pressure":1005.6,"uv_index":8.05,"aqi":88,"mosquito_risk":7,"arthritis_risk":5,"migraine_risk":4,"frizz_risk":1,"updated_at":"2026-02-23T22:32:03.043677+05:30"},{"city":"Vijayawada","state":"Andhra Pradesh","latitude":16.5062,"longitude":80.648,"temp":26.0,"humidity":74,"rain":0.0,"pressure":1004.0,"uv_index":8.15,"aqi":73,"mosquito_risk":7,"arthritis_risk":5,"migraine_risk":4,"frizz_risk":1,"updated_at":"2026-02-23T22:32:03.043683+05:30"},{"city":"Guntur","state":"Andhra Pradesh","latitude":16.3067,"longitude":80.4365,"temp":25.2,"humidity":83,"rain":0.0,"pressure":1005.0,"uv_index":8.15,"aqi":76,"mosquito_risk":7,"arthritis_risk":5,"migraine_risk":4,"frizz_risk":1,"updated_at":"2026-02-23T22:32:03.043690+05:30"},{"city":"Nellore","state":"Andhra Pradesh","latitude":14.4426,"longitude":79.9865,"temp":24.7,"humidity":86,"rain":0.0,"pressure":1006.8,"uv_index":8.4,"aqi":45,"mosquito_risk":3,"arthritis_risk":5,"migraine_risk":4,"frizz_risk":1,"updated_at":"2026-02-23T22:32:03.043697+05:30"},{"city":"Kurnool","state":"Andhra Pradesh","latitude":15.8281,"longitude":78.0373,"temp":26.6,"humidity":62,"rain":0.0,"pressure":976.7,"uv_index":8.2,"aqi":68,"mosquito_risk":7,"arthritis_risk":5,"migraine_risk":7,"frizz_risk":1,"updated_at":"2026-02-23T22:32:03.043704+05:30"},{"city":"Kakinada","state":"Andhra Pradesh","latitude":16.9891,"longitude":82.2475,"temp":23.6,"humidity":89,"rain":0.0,"pressure":1009.2,"uv_index":8.05,"aqi":39,"mosquito_risk":3,"arthritis_risk":0,"migraine_risk":4,"frizz_risk":1,"updated_at":"2026-02-23T22:32:03.043711+05:30"},{"city":"Tirupati","state":"Andhra Pradesh","latitude":13.6288,"longitude":79.4192,"temp":23.0,"humidity":83,"rain":0.0,"pressure":992.2,"uv_index":8.55,"aqi":60,"mosquito_risk":3,"arthritis_risk":5,"migraine_risk":7,"frizz_risk":1,"updated_at":"2026-02-23T22:32:03.043718+05:30"},{"city":"Warangal","state":"Telangana","latitude":17.9689,"longitude":79.5941,"temp":24.3,"humidity":84,"rain":0.0,"pressure":979.7,"uv_index":7.85,"aqi":105,"mosquito_risk":3,"arthritis_risk":5,"migraine_risk":7,"frizz_risk":1,"updated_at":"2026-02-23T22:32:03.043724+05:30"},{"city":"Nizamabad","state":"Telangana","latitude":18.6725,"longitude":78.0941,"temp":22.3,"humidity":84,"rain":0.0,"pressure":965.5,"uv_index":7.55,"aqi":151,"mosquito_risk":3,"arthritis_risk":5,"migraine_risk":7,"frizz_risk":1,"updated_at":"2026-02-23T22:32:03.043730+05:30"},{"city":"Mysore","state":"Karnataka","latitude":12.2958,"longitude":76.6396,"temp":23.1,"humidity":84,"rain":0.0,"pressure":927.2,"uv_index":8.95,"aqi":67,"mosquito_risk":3,"arthritis_risk":5,"migraine_risk":7,"frizz_risk":1,"updated_at":"2026-02-23T22:32:03.043736+05:30"},{"city":"Mangalore","state":"Karnataka","latitude":12.9141,"longitude":74.856,"temp":29.3,"humidity":76,"rain":0.0,"pressure":1005.5,"uv_index":8.5,"aqi":138,"mosquito_risk":7,"arthritis_risk":5,"migraine_risk":4,"frizz_risk":1,"updated_at":"2026-02-23T22:32:03.043742+05:30"},{"city":"Hubli-Dharwad","state":"Karnataka","latitude":15.3647,"longitude":75.124,"temp":23.5,"humidity":79,"rain":0.0,"pressure":939.9,"uv_index":8.2,"aqi":106,"mosquito_risk":3,"arthritis_risk":5,"migraine_risk":7,"frizz_risk":1,"updated_at":"2026-02-23T22:32:03.043748+05:30"},{"city":"Belgaum","state":"Karnataka","latitude":15.8497,"longitude":74.4977,"temp":21.6,"humidity":94,"rain":0.0,"pressure":924.5,"uv_index":8.4,"aqi":130,"mosquito_risk":3,"arthritis_risk":5,"migraine_risk":7,"frizz_risk":1,"updated_at":"2026-02-23T22:32:06.344765+05:30"},{"city":"Coimbatore","state":"Tamil Nadu","latitude":11.0168,"longitude":76.9558,"temp":24.8,"humidity":84,"rain":0.0,"pressure":960.9,"uv_index":8.95,"aqi":72,"mosquito_risk":3,"arthritis_risk":5,"migraine_risk":7,"frizz_risk":1,"updated_at":"2026-02-23T22:32:06.344795+05:30"},{"city":"Madurai","state":"Tamil Nadu","latitude":9.9252,"longitude":78.1198,"temp":26.8,"humidity":81,"rain":0.0,"pressure":993.0,"uv_index":8.9,"aqi":70,"mosquito_risk":7,"arthritis_risk":5,"migraine_risk":7,"frizz_risk":1,"updated_at":"2026-02-23T22:32:06.344806+05:30"},{"city":"Trichy","state":"Tamil Nadu","latitude":10.7905,"longitude":78.7047,"temp":26.1,"humidity":83,"rain":0.0,"pressure":999.6,"uv_index":8.8,"aqi":56,"mosquito_risk":7,"arthritis_risk":5,"migraine_risk":7,"frizz_risk":1,"updated_at":"2026-02-23T22:32:06.344814+05:30"},{"city":"Salem","state":"Tamil Nadu","latitude":11.6643,"longitude":78.146,"temp":27.0,"humidity":70,"rain":0.0,"pressure":976.4,"uv_index":8.6,"aqi":69,"mosquito_risk":7,"arthritis_risk":5,"migraine_risk":7,"frizz_risk":1,"updated_at":"2026-02-23T22:32:06.344821+05:30"},{"city":"Tirunelveli","state":"Tamil Nadu","latitude":8.7139,"longitude":77.7567,"temp":26.9,"humidity":84,"rain":0.0,"pressure":1002.7,"uv_index":8.95,"aqi":58,"mosquito_risk":7,"arthritis_risk":5,"migraine_risk":4,"frizz_risk":1,"updated_at":"2026-02-23T22:32:06.344828+05:30"},{"city":"Vellore","state":"Tamil Nadu","latitude":12.9165,"longitude":79.1325,"temp":24.5,"humidity":78,"rain":0.0,"pressure":985.0,"uv_index":8.65,"aqi":63,"mosquito_risk":3,"arthritis_risk":5,"migraine_risk":7,"frizz_risk":1,"updated_at":"2026-02-23T22:32:06.344835+05:30"},{"city":"Erode","state":"Tamil Nadu","latitude":11.341,"longitude":77.7172,"temp":28.6,"humidity":62,"rain":0.0,"pressure":987.9,"uv_index":8.85,"aqi":72,"mosquito_risk":7,"arthritis_risk":5,"migraine_risk":7,"frizz_risk":1,"updated_at":"2026-02-23T22:32:06.344841+05:30"},{"city":"Kochi","state":"Kerala","latitude":9.9312,"longitude":76.2673,"temp":28.5,"humidity":79,"rain":0.0,"pressure":1007.6,"uv_index":8.55,"aqi":69,"mosquito_risk":7,"arthritis_risk":5,"migraine_risk":4,"frizz_risk":1,"updated_at":"2026-02-23T22:32:06.344847+05:30"},{"city":"Thiruvananthapuram","state":"Kerala","latitude":8.5241,"longitude":76.9366,"temp":28.3,"humidity":79,"rain":0.0,"pressure":1007.0,"uv_index":7.65,"aqi":93,"mosquito_risk":7,"arthritis_risk":5,"migraine_risk":4,"frizz_risk":1,"updated_at":"2026-02-23T22:32:06.344854+05:30"},{"city":"Kozhikode","state":"Kerala","latitude":11.2588,"longitude":75.7804,"temp":29.0,"humidity":78,"rain":0.0,"pressure":1006.7,"uv_index":8.65,"aqi":59,"mosquito_risk":7,"arthritis_risk":5,"migraine_risk":4,"frizz_risk":1,"updated_at":"2026-02-23T22:32:06.344859+05:30"},{"city":"Thrissur","state":"Kerala","latitude":10.5276,"longitude":76.2144,"temp":27.6,"humidity":86,"rain":0.0,"pressure":1005.9,"uv_index":8.75,"aqi":69,"mosquito_risk":7,"arthritis_risk":5,"migraine_risk":4,"frizz_risk":1,"updated_at":"2026-02-23T22:32:06.344867+05:30"},{"city":"Kannur","state":"Kerala","latitude":11.8745,"longitude":75.3704,"temp":28.4,"humidity":81,"rain":0.0,"pressure":1006.0,"uv_index":8.6,"aqi":81,"mosquito_risk":7,"arthritis_risk":5,"migraine_risk":4,"frizz_risk":1,"updated_at":"2026-02-23T22:32:06.344874+05:30"},{"city":"Patna","state":"Bihar","latitude":25.5941,"longitude":85.1376,"temp":22.2,"humidity":56,"rain":0.0,"pressure":1003.5,"uv_index":6.7,"aqi":159,"mosquito_risk":0,"arthritis_risk":5,"migraine_risk":4,"frizz_risk":0,"updated_at":"2026-02-23T22:32:06.344880+05:30"},{"city":"Gaya","state":"Bihar","latitude":24.7914,"longitude":85.0002,"temp":21.3,"humidity":66,"rain":0.0,"pressure":996.7,"uv_index":6.8,"aqi":153,"mosquito_risk":3,"arthritis_risk":5,"migraine_risk":7,"frizz_risk":0,"updated_at":"2026-02-23T22:32:06.344887+05:30"},{"city":"Muzaffarpur","state":"Bihar","latitude":26.1209,"longitude":85.3647,"temp":19.2,"humidity":68,"rain":0.0,"pressure":1003.6,"uv_index":6.65,"aqi":159,"mosquito_risk":3,"arthritis_risk":5,"migraine_risk":4,"frizz_risk":0,"updated_at":"2026-02-23T22:32:06.344893+05:30"},{"city":"Bhagalpur","state":"Bihar","latitude":25.2425,"longitude":87.0117,"temp":20.7,"humidity":62,"rain":0.0,"pressure":1004.3,"uv_index":6.75,"aqi":153,"mosquito_risk":3,"arthritis_risk":5,"migraine_risk":4,"frizz_risk":0,"updated_at":"2026-02-23T22:32:06.344900+05:30"},{"city":"Ranchi","state":"Jharkhand","latitude":23.3441,"longitude":85.3096,"temp":19.2,"humidity":59,"rain":0.0,"pressure":939.2,"uv_index":7.4,"aqi":128,"mosquito_risk":0,"arthritis_risk":5,"migraine_risk":7,"frizz_risk":0,"updated_at":"2026-02-23T22:32:06.344906+05:30"},{"city":"Jamshedpur","state":"Jharkhand","latitude":22.8046,"longitude":86.2029,"temp":24.2,"humidity":61,"rain":0.0,"pressure":992.3,"uv_index":7.3,"aqi":155,"mosquito_risk":3,"arthritis_risk":5,"migraine_risk":7,"frizz_risk":1,"updated_at":"2026-02-23T22:32:06.344912+05:30"},{"city":"Dhanbad","state":"Jharkhand","latitude":23.7957,"longitude":86.4304,"temp":23.4,"humidity":45,"rain":0.0,"pressure":982.3,"uv_index":7.2,"aqi":156,"mosquito_risk":0,"arthritis_risk":5,"migraine_risk":7,"frizz_risk":0,"updated_at":"2026-02-23T22:32:06.344918+05:30"},{"city":"Bokaro","state":"Jharkhand","latitude":23.6693,"longitude":86.1511,"temp":22.8,"humidity":51,"rain":0.0,"pressure":986.4,"uv_index":7.2,"aqi":157,"mosquito_risk":0,"arthritis_risk":5,"migraine_risk":7,"frizz_risk":0,"updated_at":"2026-02-23T22:32:06.344924+05:30"},{"city":"Bhubaneswar","state":"Odisha","latitude":20.2961,"longitude":85.8245,"temp":24.8,"humidity":87,"rain":0.0,"pressure":1004.8,"uv_index":7.75,"aqi":84,"mosquito_risk":3,"arthritis_risk":5,"migraine_risk":4,"frizz_risk":1,"updated_at":"2026-02-23T22:32:06.344930+05:30"},{"city":"Cuttack","state":"Odisha","latitude":20.4625,"longitude":85.8828,"temp":25.5,"humidity":82,"rain":0.0,"pressure":1006.9,"uv_index":7.8,"aqi":84,"mosquito_risk":7,"arthritis_risk":5,"migraine_risk":4,"frizz_risk":1,"updated_at":"2026-02-23T22:32:06.344936+05:30"},{"city":"Rourkela","state":"Odisha","latitude":22.2604,"longitude":84.8536,"temp":24.3,"humidity":62,"rain":0.0,"pressure":986.2,"uv_index":7.25,"aqi":129,"mosquito_risk":3,"arthritis_risk":5,"migraine_risk":7,"frizz_risk":1,"updated_at":"2026-02-23T22:32:06.344942+05:30"},{"city":"Raipur","state":"Chhattisgarh","latitude":21.2514,"longitude":81.6296,"temp":21.7,"humidity":73,"rain":0.0,"pressure":975.9,"uv_index":7.4,"aqi":170,"mosquito_risk":3,"arthritis_risk":5,"migraine_risk":7,"frizz_risk":1,"updated_at":"2026-02-23T22:32:06.344948+05:30"},{"city":"Bhilai","state":"Chhattisgarh","latitude":21.1938,"longitude":81.3509,"temp":19.4,"humidity":88,"rain":0.0,"pressure":976.1,"uv_index":4.6,"aqi":172,"mosquito_risk":3,"arthritis_risk":10,"migraine_risk":3,"frizz_risk":1,"updated_at":"2026-02-23T22:32:06.344954+05:30"},{"city":"Guwahati","state":"Assam","latitude":26.1158,"longitude":91.7086,"temp":21.9,"humidity":81,"rain":0.0,"pressure":1004.6,"uv_index":6.7,"aqi":129,"mosquito_risk":3,"arthritis_risk":5,"migraine_risk":4,"frizz_risk":1,"updated_at":"2026-02-23T22:32:06.344960+05:30"},{"city":"Agartala","state":"Tripura","latitude":23.8315,"longitude":91.2868,"temp":20.6,"humidity":81,"rain":0.0,"pressure":1008.5,"uv_index":7.05,"aqi":170,"mosquito_risk":3,"arthritis_risk":0,"migraine_risk":4,"frizz_risk":1,"updated_at":"2026-02-23T22:32:06.344966+05:30"},{"city":"Shillong","state":"Meghalaya","latitude":25.5788,"longitude":91.8933,"temp":7.6,"humidity":94,"rain":0.0,"pressure":854.2,"uv_index":7.05,"aqi":135,"mosquito_risk":3,"arthritis_risk":10,"migraine_risk":7,"frizz_risk":0,"updated_at":"2026-02-23T22:32:06.344972+05:30"},{"city":"Imphal","state":"Manipur","latitude":24.817,"longitude":93.9368,"temp":13.6,"humidity":71,"rain":0.0,"pressure":924.4,"uv_index":7.25,"aqi":154,"mosquito_risk":3,"arthritis_risk":5,"migraine_risk":7,"frizz_risk":0,"updated_at":"2026-02-23T22:32:06.344979+05:30"},{"city":"Aizawl","state":"Mizoram","latitude":23.7271,"longitude":92.7176,"temp":15.4,"humidity":58,"rain":0.0,"pressure":892.8,"uv_index":7.2,"aqi":150,"mosquito_risk":0,"arthritis_risk":5,"migraine_risk":7,"frizz_risk":0,"updated_at":"2026-02-23T22:32:06.344985+05:30"},{"city":"Kohima","state":"Nagaland","latitude":25.6701,"longitude":94.1077,"temp":12.0,"humidity":59,"rain":0.0,"pressure":854.8,"uv_index":7.1,"aqi":127,"mosquito_risk":0,"arthritis_risk":5,"migraine_risk":7,"frizz_risk":0,"updated_at":"2026-02-23T22:32:06.344991+05:30"},{"city":"Gangtok","state":"Sikkim","latitude":27.3314,"longitude":88.6138,"temp":10.8,"humidity":84,"rain":0.0,"pressure":836.6,"uv_index":6.9,"aqi":102,"mosquito_risk":3,"arthritis_risk":10,"migraine_risk":7,"frizz_risk":0,"updated_at":"2026-02-23T22:32:06.344997+05:30"},{"city":"Siliguri","state":"West Bengal","latitude":26.7271,"longitude":88.3953,"temp":18.8,"humidity":65,"rain":0.0,"pressure":997.0,"uv_index":6.65,"aqi":152,"mosquito_risk":3,"arthritis_risk":5,"migraine_risk":7,"frizz_risk":0,"updated_at":"2026-02-23T22:32:09.645548+05:30"},{"city":"Durgapur","state":"West Bengal","latitude":23.5204,"longitude":87.3119,"temp":23.9,"humidity":60,"rain":0.0,"pressure":997.3,"uv_index":7.2,"aqi":151,"mosquito_risk":0,"arthritis_risk":5,"migraine_risk":7,"frizz_risk":0,"updated_at":"2026-02-23T22:32:09.645619+05:30"},{"city":"Asansol","state":"West Bengal","latitude":23.6739,"longitude":86.9524,"temp":23.8,"humidity":54,"rain":0.0,"pressure":996.0,"uv_index":7.2,"aqi":141,"mosquito_risk":0,"arthritis_risk":5,"migraine_risk":7,"frizz_risk":0,"updated_at":"2026-02-23T22:32:09.645631+05:30"},{"city":"Pondicherry","state":"Puducherry","latitude":11.9139,"longitude":79.8145,"temp":25.0,"humidity":94,"rain":0.0,"pressure":1008.5,"uv_index":8.25,"aqi":32,"mosquito_risk":7,"arthritis_risk":0,"migraine_risk":4,"frizz_risk":1,"updated_at":"2026-02-23T22:32:09.645640+05:30"},{"city":"Port Blair","state":"Andaman and Nicobar Islands","latitude":11.6234,"longitude":92.7265,"temp":27.2,"humidity":81,"rain":0.0,"pressure":1006.9,"uv_index":7.05,"aqi":69,"mosquito_risk":7,"arthritis_risk":5,"migraine_risk":4,"frizz_risk":1,"updated_at":"2026-02-23T22:32:09.645647+05:30"},{"city":"Haridwar","state":"Uttarakhand","latitude":29.9457,"longitude":78.1642,"temp":16.9,"humidity":87,"rain":0.0,"pressure":977.3,"uv_index":5.1,"aqi":146,"mosquito_risk":3,"arthritis_risk":10,"migraine_risk":3,"frizz_risk":0,"updated_at":"2026-02-23T22:32:09.645654+05:30"},{"city":"Rishikesh","state":"Uttarakhand","latitude":30.0869,"longitude":78.2676,"temp":16.5,"humidity":79,"rain":0.0,"pressure":969.9,"uv_index":5.15,"aqi":124,"mosquito_risk":3,"arthritis_risk":5,"migraine_risk":3,"frizz_risk":0,"updated_at":"2026-02-23T22:32:09.645661+05:30"},{"city":"Nainital","state":"Uttarakhand","latitude":29.3919,"longitude":79.4542,"temp":12.9,"humidity":72,"rain":0.0,"pressure":805.2,"uv_index":5.95,"aqi":146,"mosquito_risk":3,"arthritis_risk":5,"migraine_risk":3,"frizz_risk":0,"updated_at":"2026-02-23T22:32:09.645668+05:30"},{"city":"Mussoorie","state":"Uttarakhand","latitude":30.4599,"longitude":78.0664,"temp":10.8,"humidity":76,"rain":0.0,"pressure":801.2,"uv_index":5.5,"aqi":125,"mosquito_risk":3,"arthritis_risk":5,"migraine_risk":3,"frizz_risk":0,"updated_at":"2026-02-23T22:32:09.645675+05:30"},{"city":"Dharamshala","state":"Himachal Pradesh","latitude":32.219,"longitude":76.3234,"temp":15.1,"humidity":66,"rain":0.0,"pressure":869.1,"uv_index":5.7,"aqi":113,"mosquito_risk":3,"arthritis_risk":5,"migraine_risk":3,"frizz_risk":0,"updated_at":"2026-02-23T22:32:09.645681+05:30"},{"city":"Dalhousie","state":"Himachal Pradesh","latitude":32.5387,"longitude":75.971,"temp":11.4,"humidity":74,"rain":0.0,"pressure":802.3,"uv_index":5.9,"aqi":144,"mosquito_risk":3,"arthritis_risk":5,"migraine_risk":3,"frizz_risk":0,"updated_at":"2026-02-23T22:32:09.645688+05:30"},{"city":"Patiala","state":"Punjab","latitude":30.3398,"longitude":76.3869,"temp":16.4,"humidity":81,"rain":0.0,"pressure":981.1,"uv_index":5.2,"aqi":187,"mosquito_risk":3,"arthritis_risk":10,"migraine_risk":3,"frizz_risk":0,"updated_at":"2026-02-23T22:32:09.645695+05:30"},{"city":"Bhatinda","state":"Punjab","latitude":30.211,"longitude":74.9455,"temp":17.8,"humidity":76,"rain":0.0,"pressure":986.6,"uv_index":5.85,"aqi":156,"mosquito_risk":3,"arthritis_risk":5,"migraine_risk":3,"frizz_risk":0,"updated_at":"2026-02-23T22:32:09.645701+05:30"},{"city":"Rohtak","state":"Haryana","latitude":28.8955,"longitude":76.6066,"temp":18.0,"humidity":79,"rain":0.0,"pressure":984.8,"uv_index":5.4,"aqi":169,"mosquito_risk":3,"arthritis_risk":5,"migraine_risk":3,"frizz_risk":0,"updated_at":"2026-02-23T22:32:09.645708+05:30"},{"city":"Panipat","state":"Haryana","latitude":29.3909,"longitude":76.9635,"temp":17.2,"humidity":81,"rain":0.0,"pressure":983.3,"uv_index":5.2,"aqi":169,"mosquito_risk":3,"arthritis_risk":10,"migraine_risk":3,"frizz_risk":0,"updated_at":"2026-02-23T22:32:09.645714+05:30"},{"city":"Mathura","state":"Uttar Pradesh","latitude":27.4924,"longitude":77.6737,"temp":18.8,"humidity":75,"rain":0.0,"pressure":989.8,"uv_index":5.65,"aqi":163,"mosquito_risk":3,"arthritis_risk":5,"migraine_risk":3,"frizz_risk":0,"updated_at":"2026-02-23T22:32:09.645720+05:30"},{"city":"Vrindavan","state":"Uttar Pradesh","latitude":27.5823,"longitude":77.7027,"temp":19.2,"humidity":73,"rain":0.0,"pressure":990.3,"uv_index":5.6,"aqi":163,"mosquito_risk":3,"arthritis_risk":5,"migraine_risk":3,"frizz_risk":0,"updated_at":"2026-02-23T22:32:09.645731+05:30"},{"city":"Ayodhya","state":"Uttar Pradesh","latitude":26.7922,"longitude":82.1998,"temp":19.1,"humidity":68,"rain":0.0,"pressure":998.8,"uv_index":6.0,"aqi":156,"mosquito_risk":3,"arthritis_risk":5,"migraine_risk":3,"frizz_risk":0,"updated_at":"2026-02-23T22:32:09.645737+05:30"},{"city":"Ratlam","state":"Madhya Pradesh","latitude":23.3315,"longitude":75.0367,"temp":18.0,"humidity":81,"rain":0.0,"pressure":954.7,"uv_index":6.95,"aqi":79,"mosquito_risk":3,"arthritis_risk":10,"migraine_risk":7,"frizz_risk":0,"updated_at":"2026-02-23T22:32:09.645745+05:30"},{"city":"Sagar","state":"Madhya Pradesh","latitude":23.8388,"longitude":78.7378,"temp":20.1,"humidity":70,"rain":0.0,"pressure":951.6,"uv_index":6.85,"aqi":107,"mosquito_risk":3,"arthritis_risk":5,"migraine_risk":7,"frizz_risk":0,"updated_at":"2026-02-23T22:32:09.645751+05:30"},{"city":"Satna","state":"Madhya Pradesh","latitude":24.6005,"longitude":80.8322,"temp":20.4,"humidity":69,"rain":0.0,"pressure":973.8,"uv_index":6.75,"aqi":121,"mosquito_risk":3,"arthritis_risk":5,"migraine_risk":7,"frizz_risk":0,"updated_at":"2026-02-23T22:32:09.645757+05:30"},{"city":"Akola","state":"Maharashtra","latitude":20.7002,"longitude":77.0082,"temp":24.2,"humidity":47,"rain":0.0,"pressure":975.3,"uv_index":7.4,"aqi":131,"mosquito_risk":0,"arthritis_risk":5,"migraine_risk":7,"frizz_risk":0,"updated_at":"2026-02-23T22:32:09.645765+05:30"},{"city":"Amravati","state":"Maharashtra","latitude":20.9374,"longitude":77.7796,"temp":23.9,"humidity":74,"rain":0.0,"pressure":968.0,"uv_index":7.35,"aqi":152,"mosquito_risk":3,"arthritis_risk":5,"migraine_risk":7,"frizz_risk":1,"updated_at":"2026-02-23T22:32:09.645772+05:30"},{"city":"Latur","state":"Maharashtra","latitude":18.4088,"longitude":76.5604,"temp":21.4,"humidity":83,"rain":0.0,"pressure":939.3,"uv_index":7.75,"aqi":146,"mosquito_risk":3,"arthritis_risk":5,"migraine_risk":7,"frizz_risk":1,"updated_at":"2026-02-23T22:32:09.645778+05:30"},{"city":"Nanded","state":"Maharashtra","latitude":19.1383,"longitude":77.3091,"temp":22.3,"humidity":89,"rain":0.0,"pressure":969.1,"uv_index":7.65,"aqi":154,"mosquito_risk":3,"arthritis_risk":5,"migraine_risk":7,"frizz_risk":1,"updated_at":"2026-02-23T22:32:09.645784+05:30"},{"city":"Gulbarga","state":"Karnataka","latitude":17.3297,"longitude":76.8343,"temp":24.4,"humidity":67,"rain":0.0,"pressure":958.6,"uv_index":7.95,"aqi":105,"mosquito_risk":3,"arthritis_risk":5,"migraine_risk":7,"frizz_risk":1,"updated_at":"2026-02-23T22:32:09.645790+05:30"},{"city":"Bidar","state":"Karnataka","latitude":17.9104,"longitude":77.5199,"temp":21.8,"humidity":76,"rain":0.0,"pressure":935.5,"uv_index":7.5,"aqi":138,"mosquito_risk":3,"arthritis_risk":5,"migraine_risk":7,"frizz_risk":1,"updated_at":"2026-02-23T22:32:09.645796+05:30"},{"city":"Hospet","state":"Karnataka","latitude":15.2689,"longitude":76.3909,"temp":27.2,"humidity":52,"rain":0.0,"pressure":955.1,"uv_index":8.0,"aqi":84,"mosquito_risk":4,"arthritis_risk":5,"migraine_risk":7,"frizz_risk":1,"updated_at":"2026-02-23T22:32:09.645802+05:30"},{"city":"Tirupur","state":"Tamil Nadu","latitude":11.1085,"longitude":77.3411,"temp":27.4,"humidity":73,"rain":0.0,"pressure":974.4,"uv_index":8.95,"aqi":75,"mosquito_risk":7,"arthritis_risk":5,"migraine_risk":7,"frizz_risk":1,"updated_at":"2026-02-23T22:32:09.645809+05:30"},{"city":"Alappuzha","state":"Kerala","latitude":9.4981,"longitude":76.3388,"temp":28.5,"humidity":81,"rain":0.0,"pressure":1007.6,"uv_index":8.6,"aqi":83,"mosquito_risk":7,"arthritis_risk":5,"migraine_risk":4,"frizz_risk":1,"updated_at":"2026-02-23T22:32:09.645815+05:30"},{"city":"Munnar","state":"Kerala","latitude":10.0889,"longitude":77.0595,"temp":19.6,"humidity":82,"rain":0.0,"pressure":855.2,"uv_index":7.75,"aqi":67,"mosquito_risk":3,"arthritis_risk":10,"migraine_risk":7,"frizz_risk":1,"updated_at":"2026-02-23T22:32:09.645821+05:30"},{"city":"Silchar","state":"Assam","latitude":24.8333,"longitude":92.7789,"temp":20.8,"humidity":71,"rain":0.0,"pressure":1007.4,"uv_index":7.0,"aqi":156,"mosquito_risk":3,"arthritis_risk":5,"migraine_risk":4,"frizz_risk":0,"updated_at":"2026-02-23T22:32:09.645827+05:30"},{"city":"Dibrugarh","state":"Assam","latitude":27.4728,"longitude":94.912,"temp":21.2,"humidity":82,"rain":0.0,"pressure":999.0,"uv_index":6.7,"aqi":134,"mosquito_risk":3,"arthritis_risk":5,"migraine_risk":7,"frizz_risk":1,"updated_at":"2026-02-23T22:32:09.645833+05:30"}]