[{"city":"Delhi","state":"Delhi","latitude":28.6139,"longitude":77.209,"temp":22.8,"humidity":56,"rain":0.0,"pressure":984.6,"uv_index":6.15,"wind_gusts":38.9,"aqi":170,"pm10":149.9,"pm2_5":40.3,"mosquito_risk":0,"arthritis_risk":5,"migraine_risk":7,"frizz_risk":0,"updated_at":"2026-04-07T00:35:39.163680+05:30"},{"city":"Mumbai","state":"Maharashtra","latitude":19.076,"longitude":72.8777,"temp":27.6,"humidity":70,"rain":0.0,"pressure":1011.5,"uv_index":7.95,"wind_gusts":22.0,"aqi":62,"pm10":30.3,"pm2_5":16.1,"mosquito_risk":7,"arthritis_risk":0,"migraine_risk":4,"frizz_risk":1,"updated_at":"2026-04-07T00:35:39.163723+05:30"},{"city":"Bangalore","state":"Karnataka","latitude":12.9716,"longitude":77.5946,"temp":25.1,"humidity":59,"rain":0.0,"pressure":913.1,"uv_index":9.6,"wind_gusts":28.1,"aqi":62,"pm10":17.6,"pm2_5":15.5,"mosquito_risk":4,"arthritis_risk":5,"migraine_risk":7,"frizz_risk":1,"updated_at":"2026-04-07T00:35:39.163738+05:30"},{"city":"Hyderabad","state":"Telangana","latitude":17.385,"longitude":78.4867,"temp":26.9,"humidity":77,"rain":0.0,"pressure":953.8,"uv_index":9.2,"wind_gusts":32.8,"aqi":91,"pm10":30.2,"pm2_5":25.2,"mosquito_risk":7,"arthritis_risk":5,"migraine_risk":7,"frizz_risk":1,"updated_at":"2026-04-07T00:35:39.163748+05:30"},{"city":"Chennai","state":"Tamil Nadu","latitude":13.0827,"longitude":80.2707,"temp":28.3,"humidity":90,"rain":0.0,"pressure":1008.1,"uv_index":9.35,"wind_gusts":34.9,"aqi":67,"pm10":22.9,"pm2_5":17.3,"mosquito_risk":7,"arthritis_risk":0,"migraine_risk":4,"frizz_risk":1,"updated_at":"2026-04-07T00:35:39.163757+05:30"},{"city":"Kolkata","state":"West Bengal","latitude":22.5726,"longitude":88.3639,"temp":24.8,"humidity":88,"rain":0.0,"pressure":1007.4,"uv_index":8.45,"wind_gusts":20.5,"aqi":149,"pm10":55.6,"pm2_5":53.0,"mosquito_risk":3,"arthritis_risk":5,"migraine_risk":4,"frizz_risk":1,"updated_at":"2026-04-07T00:35:39.163765+05:30"},{"city":"Pune","state":"Maharashtra","latitude":18.5204,"longitude":73.8567,"temp":21.7,"humidity":87,"rain":0.0,"pressure":950.5,"uv_index":8.55,"wind_gusts":37.4,"aqi":127,"pm10":25.5,"pm2_5":21.2,"mosquito_risk":3,"arthritis_risk":5,"migraine_risk":7,"frizz_risk":1,"updated_at":"2026-04-07T00:35:39.163777+05:30"},{"city":"Ahmedabad","state":"Gujarat","latitude":23.0225,"longitude":72.5714,"temp":26.4,"humidity":47,"rain":0.0,"pressure":1004.1,"uv_index":7.9,"wind_gusts":45.7,"aqi":58,"pm10":38.6,"pm2_5":16.6,"mosquito_risk":4,"arthritis_risk":5,"migraine_risk":4,"frizz_risk":0,"updated_at":"2026-04-07T00:35:39.163786+05:30"},{"city":"Jaipur","state":"Rajasthan","latitude":26.9124,"longitude":75.7873,"temp":22.0,"humidity":55,"rain":0.0,"pressure":960.1,"uv_index":4.6,"wind_gusts":43.2,"aqi":109,"pm10":238.4,"pm2_5":44.8,"mosquito_risk":0,"arthritis_risk":5,"migraine_risk":3,"frizz_risk":0,"updated_at":"2026-04-07T00:35:39.163793+05:30"},{"city":"Lucknow","state":"Uttar Pradesh","latitude":26.8467,"longitude":80.9462,"temp":23.6,"humidity":54,"rain":0.0,"pressure":995.0,"uv_index":7.4,"wind_gusts":24.8,"aqi":99,"pm10":209.5,"pm2_5":46.6,"mosquito_risk":0,"arthritis_risk":5,"migraine_risk":7,"frizz_risk":0,"updated_at":"2026-04-07T00:35:39.163801+05:30"},{"city":"Kanpur","state":"Uttar Pradesh","latitude":26.4499,"longitude":80.3319,"temp":22.5,"humidity":69,"rain":0.0,"pressure":993.1,"uv_index":7.25,"wind_gusts":19.4,"aqi":139,"pm10":240.3,"pm2_5":52.7,"mosquito_risk":3,"arthritis_risk":5,"migraine_risk":7,"frizz_risk":1,"updated_at":"2026-04-07T00:35:39.163809+05:30"},{"city":"Chandigarh","state":"Chandigarh","latitude":30.7333,"longitude":76.7794,"temp":21.3,"humidity":54,"rain":0.0,"pressure":969.5,"uv_index":6.65,"wind_gusts":52.2,"aqi":62,"pm10":20.5,"pm2_5":19.5,"mosquito_risk":0,"arthritis_risk":5,"migraine_risk":7,"frizz_risk":0,"updated_at":"2026-04-07T00:35:39.163816+05:30"},{"city":"Srinagar","state":"Jammu and Kashmir","latitude":34.0837,"longitude":74.7973,"temp":8.2,"humidity":87,"rain":0.0,"pressure":837.6,"uv_index":7.7,"wind_gusts":28.4,"aqi":89,"pm10":62.6,"pm2_5":58.8,"mosquito_risk":3,"arthritis_risk":10,"migraine_risk":7,"frizz_risk":0,"updated_at":"2026-04-07T00:35:39.163824+05:30"},{"city":"Jammu","state":"Jammu and Kashmir","latitude":32.7266,"longitude":74.857,"temp":20.0,"humidity":65,"rain":0.0,"pressure":973.0,"uv_index":7.05,"wind_gusts":51.1,"aqi":79,"pm10":36.8,"pm2_5":34.2,"mosquito_risk":3,"arthritis_risk":5,"migraine_risk":7,"frizz_risk":0,"updated_at":"2026-04-07T00:35:39.163831+05:30"},{"city":"Amritsar","state":"Punjab","latitude":31.634,"longitude":74.8723,"temp":20.6,"humidity":66,"rain":0.0,"pressure":981.1,"uv_index":5.85,"wind_gusts":47.9,"aqi":99,"pm10":42.0,"pm2_5":37.4,"mosquito_risk":3,"arthritis_risk":5,"migraine_risk":3,"frizz_risk":0,"updated_at":"2026-04-07T00:35:39.163838+05:30"},{"city":"Ludhiana","state":"Punjab","latitude":30.901,"longitude":75.8573,"temp":22.9,"humidity":49,"rain":0.0,"pressure":979.3,"uv_index":6.15,"wind_gusts":55.8,"aqi":105,"pm10":44.9,"pm2_5":42.4,"mosquito_risk":0,"arthritis_risk":5,"migraine_risk":7,"frizz_risk":0,"updated_at":"2026-04-07T00:35:39.163844+05:30"},{"city":"Jalandhar","state":"Punjab","latitude":31.326,"longitude":75.5762,"temp":20.7,"humidity":62,"rain":0.0,"pressure":980.3,"uv_index":6.5,"wind_gusts":61.9,"aqi":93,"pm10":68.5,"pm2_5":58.3,"mosquito_risk":3,"arthritis_risk":5,"migraine_risk":7,"frizz_risk":0,"updated_at":"2026-04-07T00:35:39.163852+05:30"},{"city":"Dehradun","state":"Uttarakhand","latitude":30.6284,"longitude":78.0322,"temp":11.1,"humidity":77,"rain":0.0,"pressure":829.3,"uv_index":6.75,"wind_gusts":34.9,"aqi":47,"pm10":19.0,"pm2_5":13.2,"mosquito_risk":3,"arthritis_risk":5,"migraine_risk":7,"frizz_risk":0,"updated_at":"2026-04-07T00:35:39.163859+05:30"},{"city":"Shimla","state":"Himachal Pradesh","latitude":31.1048,"longitude":77.1734,"temp":10.0,"humidity":67,"rain":0.0,"pressure":782.6,"uv_index":6.75,"wind_gusts":57.2,"aqi":62,"pm10":14.3,"pm2_5":10.7,"mosquito_risk":3,"arthritis_risk":5,"migraine_risk":7,"frizz_risk":0,"updated_at":"2026-04-07T00:35:39.163866+05:30"},{"city":"Manali","state":"Himachal Pradesh","latitude":32.2396,"longitude":77.1887,"temp":11.0,"humidity":81,"rain":0.0,"pressure":817.1,"uv_index":9.4,"wind_gusts":31.0,"aqi":76,"pm10":11.6,"pm2_5":10.1,"mosquito_risk":3,"arthritis_risk":10,"migraine_risk":7,"frizz_risk":0,"updated_at":"2026-04-07T00:35:39.163873+05:30"},{"city":"Gurgaon","state":"Haryana","latitude":28.4595,"longitude":77.0266,"temp":21.1,"humidity":63,"rain":0.0,"pressure":983.1,"uv_index":5.7,"wind_gusts":40.3,"aqi":473,"pm10":192.3,"pm2_5":56.2,"mosquito_risk":3,"arthritis_risk":5,"migraine_risk":3,"frizz_risk":0,"updated_at":"2026-04-07T00:35:39.163882+05:30"},{"city":"Noida","state":"Uttar Pradesh","latitude":28.5355,"longitude":77.391,"temp":23.2,"humidity":51,"rain":0.0,"pressure":986.2,"uv_index":6.25,"wind_gusts":40.7,"aqi":473,"pm10":192.3,"pm2_5":56.2,"mosquito_risk":0,"arthritis_risk":5,"migraine_risk":7,"frizz_risk":0,"updated_at":"2026-04-07T00:35:39.163888+05:30"},{"city":"Ghaziabad","state":"Uttar Pradesh","latitude":28.6692,"longitude":77.4538,"temp":21.9,"humidity":61,"rain":0.0,"pressure":984.5,"uv_index":6.05,"wind_gusts":41.4,"aqi":150,"pm10":208.6,"pm2_5":53.2,"mosquito_risk":3,"arthritis_risk":5,"migraine_risk":7,"frizz_risk":0,"updated_at":"2026-04-07T00:35:39.163894+05:30"},{"city":"Faridabad","state":"Haryana","latitude":28.4089,"longitude":77.3178,"temp":22.2,"humidity":56,"rain":0.0,"pressure":985.3,"uv_index":6.6,"wind_gusts":37.8,"aqi":473,"pm10":192.3,"pm2_5":56.2,"mosquito_risk":0,"arthritis_risk":5,"migraine_risk":7,"frizz_risk":0,"updated_at":"2026-04-07T00:35:39.163901+05:30"},{"city":"Meerut","state":"Uttar Pradesh","latitude":28.9845,"longitude":77.7064,"temp":20.6,"humidity":65,"rain":0.0,"pressure":982.7,"uv_index":6.15,"wind_gusts":41.0,"aqi":150,"pm10":208.6,"pm2_5":53.2,"mosquito_risk":3,"arthritis_risk":5,"migraine_risk":7,"frizz_risk":0,"updated_at":"2026-04-07T00:35:39.163907+05:30"},{"city":"Agra","state":"Uttar Pradesh","latitude":27.1767,"longitude":78.0081,"temp":21.2,"humidity":70,"rain":0.0,"pressure":989.1,"uv_index":6.3,"wind_gusts":32.4,"aqi":345,"pm10":400.5,"pm2_5":70.8,"mosquito_risk":3,"arthritis_risk":5,"migraine_risk":7,"frizz_risk":0,"updated_at":"2026-04-07T00:35:39.163913+05:30"},{"city":"Varanasi","state":"Uttar Pradesh","latitude":25.3176,"longitude":82.9739,"temp":23.1,"humidity":54,"rain":0.0,"pressure":998.9,"uv_index":8.05,"wind_gusts":28.4,"aqi":85,"pm10":68.0,"pm2_5":34.2,"mosquito_risk":0,"arthritis_risk":5,"migraine_risk":7,"frizz_risk":0,"updated_at":"2026-04-07T00:35:39.163922+05:30"},{"city":"Prayagraj","state":"Uttar Pradesh","latitude":25.4358,"longitude":81.8463,"temp":24.6,"humidity":52,"rain":0.0,"pressure":997.5,"uv_index":7.9,"wind_gusts":22.7,"aqi":85,"pm10":90.6,"pm2_5":44.1,"mosquito_risk":0,"arthritis_risk":5,"migraine_risk":7,"frizz_risk":0,"updated_at":"2026-04-07T00:35:39.163929+05:30"},{"city":"Gorakhpur","state":"Uttar Pradesh","latitude":26.7606,"longitude":83.3732,"temp":22.8,"humidity":58,"rain":0.0,"pressure":998.8,"uv_index":7.85,"wind_gusts":23.4,"aqi":72,"pm10":45.9,"pm2_5":26.4,"mosquito_risk":0,"arthritis_risk":5,"migraine_risk":7,"frizz_risk":0,"updated_at":"2026-04-07T00:35:39.163937+05:30"},{"city":"Bareilly","state":"Uttar Pradesh","latitude":28.367,"longitude":79.4304,"temp":20.3,"humidity":66,"rain":0.0,"pressure":988.7,"uv_index":7.2,"wind_gusts":28.8,"aqi":86,"pm10":137.8,"pm2_5":51.1,"mosquito_risk":3,"arthritis_risk":5,"migraine_risk":7,"frizz_risk":0,"updated_at":"2026-04-07T00:35:39.163943+05:30"},{"city":"Aligarh","state":"Uttar Pradesh","latitude":27.8974,"longitude":78.088,"temp":20.8,"humidity":64,"rain":0.0,"pressure":987.1,"uv_index":6.6,"wind_gusts":45.0,"aqi":318,"pm10":324.1,"pm2_5":61.2,"mosquito_risk":3,"arthritis_risk":5,"migraine_risk":7,"frizz_risk":0,"updated_at":"2026-04-07T00:35:39.163950+05:30"},{"city":"Moradabad","state":"Uttar Pradesh","latitude":28.8386,"longitude":78.7733,"temp":22.2,"humidity":61,"rain":0.0,"pressure":985.4,"uv_index":7.0,"wind_gusts":42.5,"aqi":115,"pm10":147.1,"pm2_5":71.9,"mosquito_risk":3,"arthritis_risk":5,"migraine_risk":7,"frizz_risk":0,"updated_at":"2026-04-07T00:35:39.163956+05:30"},{"city":"Saharanpur","state":"Uttar Pradesh","latitude":29.9637,"longitude":77.546,"temp":20.2,"humidity":65,"rain":0.0,"pressure":977.1,"uv_index":6.45,"wind_gusts":47.2,"aqi":101,"pm10":126.7,"pm2_5":60.5,"mosquito_risk":3,"arthritis_risk":5,"migraine_risk":7,"frizz_risk":0,"updated_at":"2026-04-07T00:35:39.163962+05:30"},{"city":"Jhansi","state":"Uttar Pradesh","latitude":25.4484,"longitude":78.5685,"temp":21.3,"humidity":67,"rain":0.0,"pressure":979.2,"uv_index":7.8,"wind_gusts":39.2,"aqi":79,"pm10":73.3,"pm2_5":28.9,"mosquito_risk":3,"arthritis_risk":5,"migraine_risk":7,"frizz_risk":0,"updated_at":"2026-04-07T00:35:42.392601+05:30"},{"city":"Surat","state":"Gujarat","latitude":21.1702,"longitude":72.8311,"temp":26.6,"humidity":72,"rain":0.0,"pressure":1009.3,"uv_index":7.75,"wind_gusts":38.2,"aqi":73,"pm10":25.8,"pm2_5":17.8,"mosquito_risk":7,"arthritis_risk":0,"migraine_risk":4,"frizz_risk":1,"updated_at":"2026-04-07T00:35:42.392630+05:30"},{"city":"Vadodara","state":"Gujarat","latitude":22.3072,"longitude":73.1812,"temp":26.7,"humidity":63,"rain":0.0,"pressure":1006.2,"uv_index":8.0,"wind_gusts":41.4,"aqi":63,"pm10":18.0,"pm2_5":12.6,"mosquito_risk":7,"arthritis_risk":5,"migraine_risk":4,"frizz_risk":1,"updated_at":"2026-04-07T00:35:42.392640+05:30"},{"city":"Rajkot","state":"Gujarat","latitude":22.3039,"longitude":70.8022,"temp":24.2,"humidity":74,"rain":0.0,"pressure":996.8,"uv_index":7.7,"wind_gusts":51.1,"aqi":53,"pm10":28.8,"pm2_5":15.2,"mosquito_risk":3,"arthritis_risk":5,"migraine_risk":7,"frizz_risk":1,"updated_at":"2026-04-07T00:35:42.392648+05:30"},{"city":"Thane","state":"Maharashtra","latitude":19.2183,"longitude":72.9781,"temp":26.2,"humidity":74,"rain":0.0,"pressure":1011.0,"uv_index":7.95,"wind_gusts":37.8,"aqi":62,"pm10":30.3,"pm2_5":16.1,"mosquito_risk":7,"arthritis_risk":0,"migraine_risk":4,"frizz_risk":1,"updated_at":"2026-04-07T00:35:42.392655+05:30"},{"city":"Nagpur","state":"Maharashtra","latitude":21.1458,"longitude":79.0882,"temp":25.1,"humidity":50,"rain":0.0,"pressure":972.7,"uv_index":8.75,"wind_gusts":24.8,"aqi":55,"pm10":20.9,"pm2_5":18.2,"mosquito_risk":4,"arthritis_risk":5,"migraine_risk":7,"frizz_risk":0,"updated_at":"2026-04-07T00:35:42.392663+05:30"},{"city":"Nashik","state":"Maharashtra","latitude":19.9975,"longitude":73.7898,"temp":20.7,"humidity":79,"rain":0.0,"pressure":947.5,"uv_index":8.2,"wind_gusts":38.9,"aqi":62,"pm10":23.3,"pm2_5":12.8,"mosquito_risk":3,"arthritis_risk":5,"migraine_risk":7,"frizz_risk":1,"updated_at":"2026-04-07T00:35:42.392670+05:30"},{"city":"Aurangabad","state":"Maharashtra","latitude":19.8762,"longitude":75.3433,"temp":24.5,"humidity":56,"rain":0.0,"pressure":945.5,"uv_index":8.9,"wind_gusts":36.4,"aqi":65,"pm10":20.6,"pm2_5":16.4,"mosquito_risk":0,"arthritis_risk":5,"migraine_risk":7,"frizz_risk":0,"updated_at":"2026-04-07T00:35:42.392676+05:30"},{"city":"Solapur","state":"Maharashtra","latitude":17.6599,"longitude":75.9064,"temp":26.5,"humidity":45,"rain":0.0,"pressure":958.5,"uv_index":9.0,"wind_gusts":25.2,"aqi":51,"pm10":15.5,"pm2_5":13.6,"mosquito_risk":4,"arthritis_risk":5,"migraine_risk":7,"frizz_risk":0,"updated_at":"2026-04-07T00:35:42.392684+05:30"},{"city":"Kolhapur","state":"Maharashtra","latitude":16.705,"longitude":74.2433,"temp":18.5,"humidity":90,"rain":0.0,"pressure":949.6,"uv_index":9.05,"wind_gusts":39.6,"aqi":62,"pm10":21.0,"pm2_5":17.6,"mosquito_risk":3,"arthritis_risk":10,"migraine_risk":7,"frizz_risk":1,"updated_at":"2026-04-07T00:35:42.392691+05:30"},{"city":"Goa","state":"Goa","latitude":15.2993,"longitude":74.124,"temp":26.3,"humidity":74,"rain":0.0,"pressure":1000.9,"uv_index":9.0,"wind_gusts":34.2,"aqi":63,"pm10":28.3,"pm2_5":19.8,"mosquito_risk":7,"arthritis_risk":5,"migraine_risk":4,"frizz_risk":1,"updated_at":"2026-04-07T00:35:42.392698+05:30"},{"city":"Jodhpur","state":"Rajasthan","latitude":26.2389,"longitude":73.0243,"temp":23.5,"humidity":46,"rain":0.0,"pressure":982.9,"uv_index":7.9,"wind_gusts":61.9,"aqi":91,"pm10":142.5,"pm2_5":24.7,"mosquito_risk":0,"arthritis_risk":5,"migraine_risk":7,"frizz_risk":0,"updated_at":"2026-04-07T00:35:42.392704+05:30"},{"city":"Udaipur","state":"Rajasthan","latitude":24.5854,"longitude":73.7125,"temp":21.8,"humidity":47,"rain":0.0,"pressure":947.1,"uv_index":8.5,"wind_gusts":56.5,"aqi":64,"pm10":24.2,"pm2_5":10.1,"mosquito_risk":0,"arthritis_risk":5,"migraine_risk":7,"frizz_risk":0,"updated_at":"2026-04-07T00:35:42.392710+05:30"},{"city":"Kota","state":"Rajasthan","latitude":25.2138,"longitude":75.8648,"temp":25.7,"humidity":45,"rain":0.0,"pressure":979.6,"uv_index":7.15,"wind_gusts":46.1,"aqi":70,"pm10":87.5,"pm2_5":44.1,"mosquito_risk":4,"arthritis_risk":5,"migraine_risk":7,"frizz_risk":0,"updated_at":"2026-04-07T00:35:42.392717+05:30"},{"city":"Bikaner","state":"Rajasthan","latitude":28.0229,"longitude":73.3119,"temp":23.4,"humidity":51,"rain":0.0,"pressure":981.2,"uv_index":7.65,"wind_gusts":40.3,"aqi":58,"pm10":200.7,"pm2_5":43.2,"mosquito_risk":0,"arthritis_risk":5,"migraine_risk":7,"frizz_risk":0,"updated_at":"2026-04-07T00:35:42.392724+05:30"},{"city":"Ajmer","state":"Rajasthan","latitude":26.4499,"longitude":74.6399,"temp":23.4,"humidity":46,"rain":0.0,"pressure":954.8,"uv_index":7.25,"wind_gusts":54.4,"aqi":59,"pm10":43.2,"pm2_5":22.4,"mosquito_risk":0,"arthritis_risk":5,"migraine_risk":7,"frizz_risk":0,"updated_at":"2026-04-07T00:35:42.392730+05:30"},{"city":"Gwalior","state":"Madhya Pradesh","latitude":26.2183,"longitude":78.1828,"temp":21.5,"humidity":72,"rain":0.0,"pressure":984.5,"uv_index":7.25,"wind_gusts":47.5,"aqi":81,"pm10":246.8,"pm2_5":47.8,"mosquito_risk":3,"arthritis_risk":5,"migraine_risk":7,"frizz_risk":1,"updated_at":"2026-04-07T00:35:42.392736+05:30"},{"city":"Indore","state":"Madhya Pradesh","latitude":22.7196,"longitude":75.8577,"temp":22.5,"humidity":51,"rain":0.0,"pressure":948.8,"uv_index":8.4,"wind_gusts":39.6,"aqi":57,"pm10":22.3,"pm2_5":18.9,"mosquito_risk":0,"arthritis_risk":5,"migraine_risk":7,"frizz_risk":0,"updated_at":"2026-04-07T00:35:42.392743+05:30"},{"city":"Bhopal","state":"Madhya Pradesh","latitude":23.2599,"longitude":77.4126,"temp":24.3,"humidity":38,"rain":0.0,"pressure":954.2,"uv_index":8.4,"wind_gusts":38.2,"aqi":50,"pm10":37.6,"pm2_5":23.2,"mosquito_risk":0,"arthritis_risk":5,"migraine_risk":7,"frizz_risk":0,"updated_at":"2026-04-07T00:35:42.392749+05:30"},{"city":"Jabalpur","state":"Madhya Pradesh","latitude":23.1815,"longitude":79.9864,"temp":25.6,"humidity":44,"rain":0.0,"pressure":961.7,"uv_index":8.5,"wind_gusts":36.7,"aqi":57,"pm10":43.3,"pm2_5":31.7,"mosquito_risk":4,"arthritis_risk":5,"migraine_risk":7,"frizz_risk":0,"updated_at":"2026-04-07T00:35:42.392756+05:30"},{"city":"Ujjain","state":"Madhya Pradesh","latitude":23.1765,"longitude":75.7885,"temp":22.8,"humidity":50,"rain":0.0,"pressure":954.6,"uv_index":8.3,"wind_gusts":40.0,"aqi":51,"pm10":19.9,"pm2_5":16.1,"mosquito_risk":0,"arthritis_risk":5,"migraine_risk":7,"frizz_risk":0,"updated_at":"2026-04-07T00:35:42.392763+05:30"},{"city":"Visakhapatnam","state":"Andhra Pradesh","latitude":17.6868,"longitude":83.2185,"temp":26.8,"humidity":89,"rain":0.0,"pressure":1004.7,"uv_index":9.1,"wind_gusts":37.8,"aqi":98,"pm10":32.6,"pm2_5":28.5,"mosquito_risk":7,"arthritis_risk":5,"migraine_risk":4,"frizz_risk":1,"updated_at":"2026-04-07T00:35:42.392769+05:30"},{"city":"Vijayawada","state":"Andhra Pradesh","latitude":16.5062,"longitude":80.648,"temp":27.3,"humidity":88,"rain":0.0,"pressure":1003.4,"uv_index":9.2,"wind_gusts":33.1,"aqi":69,"pm10":21.0,"pm2_5":18.9,"mosquito_risk":7,"arthritis_risk":5,"migraine_risk":4,"frizz_risk":1,"updated_at":"2026-04-07T00:35:42.392775+05:30"},{"city":"Guntur","state":"Andhra Pradesh","latitude":16.3067,"longitude":80.4365,"temp":27.4,"humidity":90,"rain":0.0,"pressure":1004.7,"uv_index":9.2,"wind_gusts":29.9,"aqi":80,"pm10":22.2,"pm2_5":20.3,"mosquito_risk":7,"arthritis_risk":5,"migraine_risk":4,"frizz_risk":1,"updated_at":"2026-04-07T00:35:42.392782+05:30"},{"city":"Nellore","state":"Andhra Pradesh","latitude":14.4426,"longitude":79.9865,"temp":28.0,"humidity":89,"rain":0.0,"pressure":1006.7,"uv_index":9.3,"wind_gusts":37.8,"aqi":85,"pm10":21.2,"pm2_5":17.5,"mosquito_risk":7,"arthritis_risk":5,"migraine_risk":4,"frizz_risk":1,"updated_at":"2026-04-07T00:35:42.392789+05:30"},{"city":"Kurnool","state":"Andhra Pradesh","latitude":15.8281,"longitude":78.0373,"temp":29.4,"humidity":32,"rain":0.0,"pressure":976.6,"uv_index":9.2,"wind_gusts":25.2,"aqi":74,"pm10":28.2,"pm2_5":21.9,"mosquito_risk":4,"arthritis_risk":5,"migraine_risk":7,"frizz_risk":0,"updated_at":"2026-04-07T00:35:42.392796+05:30"},{"city":"Kakinada","state":"Andhra Pradesh","latitude":16.9891,"longitude":82.2475,"temp":26.5,"humidity":93,"rain":0.0,"pressure":1008.3,"uv_index":9.15,"wind_gusts":28.1,"aqi":57,"pm10":20.2,"pm2_5":15.3,"mosquito_risk":7,"arthritis_risk":0,"migraine_risk":4,"frizz_risk":1,"updated_at":"2026-04-07T00:35:42.392803+05:30"},{"city":"Tirupati","state":"Andhra Pradesh","latitude":13.6288,"longitude":79.4192,"temp":27.2,"humidity":89,"rain":0.0,"pressure":993.0,"uv_index":9.4,"wind_gusts":29.2,"aqi":96,"pm10":33.3,"pm2_5":31.8,"mosquito_risk":7,"arthritis_risk":5,"migraine_risk":7,"frizz_risk":1,"updated_at":"2026-04-07T00:35:42.392809+05:30"},{"city":"Warangal","state":"Telangana","latitude":17.9689,"longitude":79.5941,"temp":27.8,"humidity":80,"rain":0.0,"pressure":979.3,"uv_index":9.05,"wind_gusts":29.5,"aqi":114,"pm10":59.3,"pm2_5":53.3,"mosquito_risk":7,"arthritis_risk":5,"migraine_risk":7,"frizz_risk":1,"updated_at":"2026-04-07T00:35:42.392816+05:30"},{"city":"Nizamabad","state":"Telangana","latitude":18.6725,"longitude":78.0941,"temp":27.3,"humidity":47,"rain":0.0,"pressure":965.2,"uv_index":9.0,"wind_gusts":29.9,"aqi":70,"pm10":24.3,"pm2_5":20.0,"mosquito_risk":4,"arthritis_risk":5,"migraine_risk":7,"frizz_risk":0,"updated_at":"2026-04-07T00:35:42.392823+05:30"},{"city":"Mysore","state":"Karnataka","latitude":12.2958,"longitude":76.6396,"temp":22.8,"humidity":86,"rain":0.0,"pressure":930.1,"uv_index":9.55,"wind_gusts":38.5,"aqi":63,"pm10":18.3,"pm2_5":15.4,"mosquito_risk":3,"arthritis_risk":5,"migraine_risk":7,"frizz_risk":1,"updated_at":"2026-04-07T00:35:42.392829+05:30"},{"city":"Mangalore","state":"Karnataka","latitude":12.9141,"longitude":74.856,"temp":29.0,"humidity":73,"rain":0.0,"pressure":1009.4,"uv_index":9.15,"wind_gusts":34.6,"aqi":60,"pm10":31.5,"pm2_5":17.3,"mosquito_risk":7,"arthritis_risk":0,"migraine_risk":4,"frizz_risk":1,"updated_at":"2026-04-07T00:35:42.392836+05:30"},{"city":"Hubli-Dharwad","state":"Karnataka","latitude":15.3647,"longitude":75.124,"temp":20.8,"humidity":80,"rain":0.0,"pressure":942.4,"uv_index":9.2,"wind_gusts":36.7,"aqi":46,"pm10":21.6,"pm2_5":14.1,"mosquito_risk":3,"arthritis_risk":5,"migraine_risk":7,"frizz_risk":1,"updated_at":"2026-04-07T00:35:42.392842+05:30"},{"city":"Belgaum","state":"Karnataka","latitude":15.8497,"longitude":74.4977,"temp":18.6,"humidity":89,"rain":0.0,"pressure":926.9,"uv_index":9.25,"wind_gusts":33.5,"aqi":57,"pm10":23.0,"pm2_5":18.6,"mosquito_risk":3,"arthritis_risk":10,"migraine_risk":7,"frizz_risk":1,"updated_at":"2026-04-07T00:35:45.624439+05:30"},{"city":"Coimbatore","state":"Tamil Nadu","latitude":11.0168,"longitude":76.9558,"temp":25.0,"humidity":77,"rain":0.0,"pressure":963.5,"uv_index":9.35,"wind_gusts":56.5,"aqi":68,"pm10":28.3,"pm2_5":22.3,"mosquito_risk":7,"arthritis_risk":5,"migraine_risk":7,"frizz_risk":1,"updated_at":"2026-04-07T00:35:45.624468+05:30"},{"city":"Madurai","state":"Tamil Nadu","latitude":9.9252,"longitude":78.1198,"temp":28.1,"humidity":86,"rain":0.0,"pressure":994.7,"uv_index":8.05,"wind_gusts":31.0,"aqi":88,"pm10":28.7,"pm2_5":27.0,"mosquito_risk":7,"arthritis_risk":5,"migraine_risk":7,"frizz_risk":1,"updated_at":"2026-04-07T00:35:45.624478+05:30"},{"city":"Trichy","state":"Tamil Nadu","latitude":10.7905,"longitude":78.7047,"temp":28.3,"humidity":86,"rain":0.0,"pressure":1001.3,"uv_index":9.05,"wind_gusts":30.2,"aqi":85,"pm10":36.2,"pm2_5":34.2,"mosquito_risk":7,"arthritis_risk":5,"migraine_risk":4,"frizz_risk":1,"updated_at":"2026-04-07T00:35:45.624486+05:30"},{"city":"Salem","state":"Tamil Nadu","latitude":11.6643,"longitude":78.146,"temp":28.4,"humidity":71,"rain":0.0,"pressure":979.1,"uv_index":9.45,"wind_gusts":32.0,"aqi":82,"pm10":25.8,"pm2_5":23.1,"mosquito_risk":7,"arthritis_risk":5,"migraine_risk":7,"frizz_risk":1,"updated_at":"2026-04-07T00:35:45.624493+05:30"},{"city":"Tirunelveli","state":"Tamil Nadu","latitude":8.7139,"longitude":77.7567,"temp":28.1,"humidity":76,"rain":0.0,"pressure":1004.8,"uv_index":8.75,"wind_gusts":24.1,"aqi":58,"pm10":27.7,"pm2_5":21.8,"mosquito_risk":7,"arthritis_risk":5,"migraine_risk":4,"frizz_risk":1,"updated_at":"2026-04-07T00:35:45.624500+05:30"},{"city":"Vellore","state":"Tamil Nadu","latitude":12.9165,"longitude":79.1325,"temp":27.5,"humidity":80,"rain":0.0,"pressure":985.9,"uv_index":9.45,"wind_gusts":28.8,"aqi":107,"pm10":43.2,"pm2_5":41.1,"mosquito_risk":7,"arthritis_risk":5,"migraine_risk":7,"frizz_risk":1,"updated_at":"2026-04-07T00:35:45.624507+05:30"},{"city":"Erode","state":"Tamil Nadu","latitude":11.341,"longitude":77.7172,"temp":29.3,"humidity":63,"rain":0.0,"pressure":990.5,"uv_index":9.45,"wind_gusts":38.9,"aqi":66,"pm10":22.9,"pm2_5":18.8,"mosquito_risk":7,"arthritis_risk":5,"migraine_risk":7,"frizz_risk":1,"updated_at":"2026-04-07T00:35:45.624513+05:30"},{"city":"Kochi","state":"Kerala","latitude":9.9312,"longitude":76.2673,"temp":29.5,"humidity":75,"rain":0.0,"pressure":1011.1,"uv_index":8.9,"wind_gusts":42.1,"aqi":68,"pm10":31.3,"pm2_5":22.6,"mosquito_risk":7,"arthritis_risk":0,"migraine_risk":4,"frizz_risk":1,"updated_at":"2026-04-07T00:35:45.624519+05:30"},{"city":"Thiruvananthapuram","state":"Kerala","latitude":8.5241,"longitude":76.9366,"temp":29.7,"humidity":76,"rain":0.0,"pressure":1010.1,"uv_index":8.8,"wind_gusts":52.9,"aqi":60,"pm10":31.8,"pm2_5":18.5,"mosquito_risk":7,"arthritis_risk":0,"migraine_risk":4,"frizz_risk":1,"updated_at":"2026-04-07T00:35:45.624526+05:30"},{"city":"Kozhikode","state":"Kerala","latitude":11.2588,"longitude":75.7804,"temp":29.3,"humidity":72,"rain":0.0,"pressure":1010.4,"uv_index":9.15,"wind_gusts":38.2,"aqi":61,"pm10":27.9,"pm2_5":15.5,"mosquito_risk":7,"arthritis_risk":0,"migraine_risk":4,"frizz_risk":1,"updated_at":"2026-04-07T00:35:45.624533+05:30"},{"city":"Thrissur","state":"Kerala","latitude":10.5276,"longitude":76.2144,"temp":27.7,"humidity":81,"rain":0.0,"pressure":1009.5,"uv_index":9.2,"wind_gusts":41.8,"aqi":69,"pm10":32.1,"pm2_5":21.8,"mosquito_risk":7,"arthritis_risk":0,"migraine_risk":4,"frizz_risk":1,"updated_at":"2026-04-07T00:35:45.624539+05:30"},{"city":"Kannur","state":"Kerala","latitude":11.8745,"longitude":75.3704,"temp":28.0,"humidity":76,"rain":0.0,"pressure":1009.8,"uv_index":9.15,"wind_gusts":40.3,"aqi":58,"pm10":24.0,"pm2_5":14.3,"mosquito_risk":7,"arthritis_risk":0,"migraine_risk":4,"frizz_risk":1,"updated_at":"2026-04-07T00:35:45.624546+05:30"},{"city":"Patna","state":"Bihar","latitude":25.5941,"longitude":85.1376,"temp":25.0,"humidity":57,"rain":0.0,"pressure":1002.1,"uv_index":8.2,"wind_gusts":24.5,"aqi":71,"pm10":41.8,"pm2_5":32.7,"mosquito_risk":4,"arthritis_risk":5,"migraine_risk":4,"frizz_risk":0,"updated_at":"2026-04-07T00:35:45.624552+05:30"},{"city":"Gaya","state":"Bihar","latitude":24.7914,"longitude":85.0002,"temp":23.8,"humidity":71,"rain":0.0,"pressure":995.4,"uv_index":8.3,"wind_gusts":23.4,"aqi":67,"pm10":45.8,"pm2_5":36.1,"mosquito_risk":3,"arthritis_risk":5,"migraine_risk":7,"frizz_risk":1,"updated_at":"2026-04-07T00:35:45.624559+05:30"},{"city":"Muzaffarpur","state":"Bihar","latitude":26.1209,"longitude":85.3647,"temp":23.4,"humidity":62,"rain":0.0,"pressure":1001.8,"uv_index":8.15,"wind_gusts":22.0,"aqi":75,"pm10":47.3,"pm2_5":38.1,"mosquito_risk":3,"arthritis_risk":5,"migraine_risk":4,"frizz_risk":0,"updated_at":"2026-04-07T00:35:45.624565+05:30"},{"city":"Bhagalpur","state":"Bihar","latitude":25.2425,"longitude":87.0117,"temp":23.5,"humidity":70,"rain":0.0,"pressure":1003.0,"uv_index":8.05,"wind_gusts":25.2,"aqi":63,"pm10":26.7,"pm2_5":20.5,"mosquito_risk":3,"arthritis_risk":5,"migraine_risk":4,"frizz_risk":1,"updated_at":"2026-04-07T00:35:45.624572+05:30"},{"city":"Ranchi","state":"Jharkhand","latitude":23.3441,"longitude":85.3096,"temp":20.3,"humidity":82,"rain":0.0,"pressure":938.9,"uv_index":8.9,"wind_gusts":36.0,"aqi":76,"pm10":32.1,"pm2_5":22.5,"mosquito_risk":3,"arthritis_risk":5,"migraine_risk":7,"frizz_risk":1,"updated_at":"2026-04-07T00:35:45.624579+05:30"},{"city":"Jamshedpur","state":"Jharkhand","latitude":22.8046,"longitude":86.2029,"temp":23.2,"humidity":86,"rain":0.0,"pressure":992.8,"uv_index":8.75,"wind_gusts":25.2,"aqi":111,"pm10":43.7,"pm2_5":37.3,"mosquito_risk":3,"arthritis_risk":5,"migraine_risk":7,"frizz_risk":1,"updated_at":"2026-04-07T00:35:45.624585+05:30"},{"city":"Dhanbad","state":"Jharkhand","latitude":23.7957,"longitude":86.4304,"temp":24.0,"humidity":69,"rain":0.0,"pressure":981.5,"uv_index":8.65,"wind_gusts":32.8,"aqi":123,"pm10":85.4,"pm2_5":76.1,"mosquito_risk":3,"arthritis_risk":5,"migraine_risk":7,"frizz_risk":1,"updated_at":"2026-04-07T00:35:45.624591+05:30"},{"city":"Bokaro","state":"Jharkhand","latitude":23.6693,"longitude":86.1511,"temp":23.5,"humidity":77,"rain":0.0,"pressure":985.6,"uv_index":8.65,"wind_gusts":33.1,"aqi":108,"pm10":66.8,"pm2_5":56.8,"mosquito_risk":3,"arthritis_risk":5,"migraine_risk":7,"frizz_risk":1,"updated_at":"2026-04-07T00:35:45.624597+05:30"},{"city":"Bhubaneswar","state":"Odisha","latitude":20.2961,"longitude":85.8245,"temp":24.6,"humidity":94,"rain":0.0,"pressure":1004.0,"uv_index":8.95,"wind_gusts":39.6,"aqi":72,"pm10":42.1,"pm2_5":39.5,"mosquito_risk":3,"arthritis_risk":5,"migraine_risk":4,"frizz_risk":1,"updated_at":"2026-04-07T00:35:45.624603+05:30"},{"city":"Cuttack","state":"Odisha","latitude":20.4625,"longitude":85.8828,"temp":24.4,"humidity":93,"rain":0.0,"pressure":1005.9,"uv_index":9.0,"wind_gusts":34.9,"aqi":72,"pm10":42.1,"pm2_5":39.5,"mosquito_risk":3,"arthritis_risk":5,"migraine_risk":4,"frizz_risk":1,"updated_at":"2026-04-07T00:35:45.624610+05:30"},{"city":"Rourkela","state":"Odisha","latitude":22.2604,"longitude":84.8536,"temp":22.0,"humidity":85,"rain":0.0,"pressure":987.4,"uv_index":8.7,"wind_gusts":25.2,"aqi":108,"pm10":43.4,"pm2_5":38.1,"mosquito_risk":3,"arthritis_risk":5,"migraine_risk":7,"frizz_risk":1,"updated_at":"2026-04-07T00:35:45.624615+05:30"},{"city":"Raipur","state":"Chhattisgarh","latitude":21.2514,"longitude":81.6296,"temp":26.3,"humidity":69,"rain":0.0,"pressure":974.5,"uv_index":8.8,"wind_gusts":26.3,"aqi":115,"pm10":55.6,"pm2_5":49.2,"mosquito_risk":7,"arthritis_risk":5,"migraine_risk":7,"frizz_risk":1,"updated_at":"2026-04-07T00:35:45.624621+05:30"},{"city":"Bhilai","state":"Chhattisgarh","latitude":21.1938,"longitude":81.3509,"temp":26.5,"humidity":72,"rain":0.0,"pressure":974.8,"uv_index":8.8,"wind_gusts":24.1,"aqi":116,"pm10":55.1,"pm2_5":50.1,"mosquito_risk":7,"arthritis_risk":5,"migraine_risk":7,"frizz_risk":1,"updated_at":"2026-04-07T00:35:45.624627+05:30"},{"city":"Guwahati","state":"Assam","latitude":26.1158,"longitude":91.7086,"temp":24.7,"humidity":83,"rain":0.0,"pressure":1002.4,"uv_index":6.8,"wind_gusts":29.2,"aqi":96,"pm10":50.5,"pm2_5":47.7,"mosquito_risk":3,"arthritis_risk":5,"migraine_risk":4,"frizz_risk":1,"updated_at":"2026-04-07T00:35:45.624632+05:30"},{"city":"Agartala","state":"Tripura","latitude":23.8315,"longitude":91.2868,"temp":26.6,"humidity":78,"rain":0.0,"pressure":1006.5,"uv_index":8.0,"wind_gusts":30.2,"aqi":159,"pm10":114.6,"pm2_5":108.5,"mosquito_risk":7,"arthritis_risk":5,"migraine_risk":4,"frizz_risk":1,"updated_at":"2026-04-07T00:35:45.624638+05:30"},{"city":"Shillong","state":"Meghalaya","latitude":25.5788,"longitude":91.8933,"temp":13.9,"humidity":84,"rain":0.0,"pressure":856.2,"uv_index":5.0,"wind_gusts":36.7,"aqi":88,"pm10":48.7,"pm2_5":44.6,"mosquito_risk":3,"arthritis_risk":10,"migraine_risk":3,"frizz_risk":0,"updated_at":"2026-04-07T00:35:45.624644+05:30"},{"city":"Imphal","state":"Manipur","latitude":24.817,"longitude":93.9368,"temp":18.1,"humidity":77,"rain":0.0,"pressure":923.8,"uv_index":3.6,"wind_gusts":42.5,"aqi":121,"pm10":55.4,"pm2_5":50.3,"mosquito_risk":3,"arthritis_risk":5,"migraine_risk":3,"frizz_risk":0,"updated_at":"2026-04-07T00:35:45.624651+05:30"},{"city":"Aizawl","state":"Mizoram","latitude":23.7271,"longitude":92.7176,"temp":18.9,"humidity":78,"rain":0.0,"pressure":892.7,"uv_index":5.35,"wind_gusts":52.2,"aqi":131,"pm10":60.3,"pm2_5":53.9,"mosquito_risk":3,"arthritis_risk":5,"migraine_risk":3,"frizz_risk":0,"updated_at":"2026-04-07T00:35:45.624657+05:30"},{"city":"Kohima","state":"Nagaland","latitude":25.6701,"longitude":94.1077,"temp":16.7,"humidity":66,"rain":0.0,"pressure":855.4,"uv_index":3.8,"wind_gusts":61.6,"aqi":86,"pm10":38.5,"pm2_5":33.3,"mosquito_risk":3,"arthritis_risk":5,"migraine_risk":3,"frizz_risk":0,"updated_at":"2026-04-07T00:35:45.624663+05:30"},{"city":"Gangtok","state":"Sikkim","latitude":27.3314,"longitude":88.6138,"temp":12.2,"humidity":75,"rain":0.0,"pressure":837.3,"uv_index":8.45,"wind_gusts":24.1,"aqi":58,"pm10":26.5,"pm2_5":22.6,"mosquito_risk":3,"arthritis_risk":5,"migraine_risk":7,"frizz_risk":0,"updated_at":"2026-04-07T00:35:45.624669+05:30"},{"city":"Siliguri","state":"West Bengal","latitude":26.7271,"longitude":88.3953,"temp":21.5,"humidity":63,"rain":0.0,"pressure":995.8,"uv_index":8.1,"wind_gusts":24.1,"aqi":79,"pm10":43.5,"pm2_5":38.6,"mosquito_risk":3,"arthritis_risk":5,"migraine_risk":7,"frizz_risk":0,"updated_at":"2026-04-07T00:35:48.861388+05:30"},{"city":"Durgapur","state":"West Bengal","latitude":23.5204,"longitude":87.3119,"temp":24.8,"humidity":81,"rain":0.0,"pressure":996.8,"uv_index":8.6,"wind_gusts":28.4,"aqi":127,"pm10":72.4,"pm2_5":64.0,"mosquito_risk":3,"arthritis_risk":5,"migraine_risk":7,"frizz_risk":1,"updated_at":"2026-04-07T00:35:48.861422+05:30"},{"city":"Asansol","state":"West Bengal","latitude":23.6739,"longitude":86.9524,"temp":25.3,"humidity":80,"rain":0.0,"pressure":995.4,"uv_index":8.65,"wind_gusts":14.8,"aqi":119,"pm10":69.4,"pm2_5":61.0,"mosquito_risk":7,"arthritis_risk":5,"migraine_risk":7,"frizz_risk":1,"updated_at":"2026-04-07T00:35:48.861433+05:30"},{"city":"Pondicherry","state":"Puducherry","latitude":11.9139,"longitude":79.8145,"temp":26.5,"humidity":92,"rain":0.0,"pressure":1009.9,"uv_index":8.85,"wind_gusts":26.6,"aqi":75,"pm10":25.3,"pm2_5":20.1,"mosquito_risk":7,"arthritis_risk":0,"migraine_risk":4,"frizz_risk":1,"updated_at":"2026-04-07T00:35:48.861443+05:30"},{"city":"Port Blair","state":"Andaman and Nicobar Islands","latitude":11.6234,"longitude":92.7265,"temp":28.7,"humidity":71,"rain":0.0,"pressure":1008.5,"uv_index":9.2,"wind_gusts":13.3,"aqi":28,"pm10":9.3,"pm2_5":5.9,"mosquito_risk":7,"arthritis_risk":0,"migraine_risk":4,"frizz_risk":1,"updated_at":"2026-04-07T00:35:48.861452+05:30"},{"city":"Haridwar","state":"Uttarakhand","latitude":29.9457,"longitude":78.1642,"temp":19.8,"humidity":68,"rain":0.0,"pressure":976.2,"uv_index":6.2,"wind_gusts":44.6,"aqi":66,"pm10":38.2,"pm2_5":31.3,"mosquito_risk":3,"arthritis_risk":5,"migraine_risk":7,"frizz_risk":0,"updated_at":"2026-04-07T00:35:48.861461+05:30"},{"city":"Rishikesh","state":"Uttarakhand","latitude":30.0869,"longitude":78.2676,"temp":19.8,"humidity":62,"rain":0.0,"pressure":968.9,"uv_index":6.25,"wind_gusts":31.0,"aqi":52,"pm10":27.8,"pm2_5":19.4,"mosquito_risk":3,"arthritis_risk":5,"migraine_risk":7,"frizz_risk":0,"updated_at":"2026-04-07T00:35:48.861469+05:30"},{"city":"Nainital","state":"Uttarakhand","latitude":29.3919,"longitude":79.4542,"temp":15.2,"humidity":57,"rain":0.0,"pressure":806.0,"uv_index":5.9,"wind_gusts":34.6,"aqi":55,"pm10":17.5,"pm2_5":13.0,"mosquito_risk":0,"arthritis_risk":5,"migraine_risk":3,"frizz_risk":0,"updated_at":"2026-04-07T00:35:48.861478+05:30"},{"city":"Mussoorie","state":"Uttarakhand","latitude":30.4599,"longitude":78.0664,"temp":13.5,"humidity":60,"rain":0.0,"pressure":802.2,"uv_index":6.6,"wind_gusts":38.9,"aqi":60,"pm10":33.4,"pm2_5":26.9,"mosquito_risk":0,"arthritis_risk":5,"migraine_risk":7,"frizz_risk":0,"updated_at":"2026-04-07T00:35:48.861485+05:30"},{"city":"Dharamshala","state":"Himachal Pradesh","latitude":32.219,"longitude":76.3234,"temp":16.6,"humidity":54,"rain":0.0,"pressure":868.5,"uv_index":7.4,"wind_gusts":43.2,"aqi":50,"pm10":9.2,"pm2_5":7.6,"mosquito_risk":0,"arthritis_risk":5,"migraine_risk":7,"frizz_risk":0,"updated_at":"2026-04-07T00:35:48.861492+05:30"},{"city":"Dalhousie","state":"Himachal Pradesh","latitude":32.5387,"longitude":75.971,"temp":12.9,"humidity":62,"rain":0.0,"pressure":801.9,"uv_index":5.85,"wind_gusts":43.2,"aqi":61,"pm10":27.5,"pm2_5":25.8,"mosquito_risk":3,"arthritis_risk":5,"migraine_risk":3,"frizz_risk":0,"updated_at":"2026-04-07T00:35:48.861499+05:30"},{"city":"Patiala","state":"Punjab","latitude":30.3398,"longitude":76.3869,"temp":20.7,"humidity":55,"rain":0.0,"pressure":979.1,"uv_index":5.9,"wind_gusts":47.5,"aqi":108,"pm10":46.7,"pm2_5":43.9,"mosquito_risk":0,"arthritis_risk":5,"migraine_risk":3,"frizz_risk":0,"updated_at":"2026-04-07T00:35:48.861506+05:30"},{"city":"Bhatinda","state":"Punjab","latitude":30.211,"longitude":74.9455,"temp":20.6,"humidity":69,"rain":0.0,"pressure":984.3,"uv_index":6.3,"wind_gusts":63.7,"aqi":90,"pm10":39.6,"pm2_5":32.5,"mosquito_risk":3,"arthritis_risk":5,"migraine_risk":7,"frizz_risk":0,"updated_at":"2026-04-07T00:35:48.861512+05:30"},{"city":"Rohtak","state":"Haryana","latitude":28.8955,"longitude":76.6066,"temp":20.3,"humidity":66,"rain":0.0,"pressure":983.5,"uv_index":5.0,"wind_gusts":45.4,"aqi":195,"pm10":140.2,"pm2_5":42.0,"mosquito_risk":3,"arthritis_risk":5,"migraine_risk":3,"frizz_risk":0,"updated_at":"2026-04-07T00:35:48.861519+05:30"},{"city":"Panipat","state":"Haryana","latitude":29.3909,"longitude":76.9635,"temp":20.3,"humidity":60,"rain":0.0,"pressure":981.8,"uv_index":5.85,"wind_gusts":42.8,"aqi":327,"pm10":601.6,"pm2_5":82.4,"mosquito_risk":0,"arthritis_risk":5,"migraine_risk":3,"frizz_risk":0,"updated_at":"2026-04-07T00:35:48.861525+05:30"},{"city":"Mathura","state":"Uttar Pradesh","latitude":27.4924,"longitude":77.6737,"temp":21.5,"humidity":64,"rain":0.0,"pressure":988.2,"uv_index":6.1,"wind_gusts":36.7,"aqi":353,"pm10":177.0,"pm2_5":50.3,"mosquito_risk":3,"arthritis_risk":5,"migraine_risk":7,"frizz_risk":0,"updated_at":"2026-04-07T00:35:48.861532+05:30"},{"city":"Vrindavan","state":"Uttar Pradesh","latitude":27.5823,"longitude":77.7027,"temp":21.2,"humidity":67,"rain":0.0,"pressure":988.7,"uv_index":5.7,"wind_gusts":36.0,"aqi":353,"pm10":177.0,"pm2_5":50.3,"mosquito_risk":3,"arthritis_risk":5,"migraine_risk":3,"frizz_risk":0,"updated_at":"2026-04-07T00:35:48.861538+05:30"},{"city":"Ayodhya","state":"Uttar Pradesh","latitude":26.7922,"longitude":82.1998,"temp":23.2,"humidity":51,"rain":0.0,"pressure":997.1,"uv_index":7.6,"wind_gusts":26.6,"aqi":83,"pm10":132.7,"pm2_5":33.5,"mosquito_risk":0,"arthritis_risk":5,"migraine_risk":7,"frizz_risk":0,"updated_at":"2026-04-07T00:35:48.861544+05:30"},{"city":"Ratlam","state":"Madhya Pradesh","latitude":23.3315,"longitude":75.0367,"temp":24.9,"humidity":48,"rain":0.0,"pressure":955.4,"uv_index":8.25,"wind_gusts":41.8,"aqi":73,"pm10":17.8,"pm2_5":13.0,"mosquito_risk":0,"arthritis_risk":5,"migraine_risk":7,"frizz_risk":0,"updated_at":"2026-04-07T00:35:48.861550+05:30"},{"city":"Sagar","state":"Madhya Pradesh","latitude":23.8388,"longitude":78.7378,"temp":23.4,"humidity":59,"rain":0.0,"pressure":950.6,"uv_index":8.35,"wind_gusts":33.8,"aqi":50,"pm10":34.9,"pm2_5":15.2,"mosquito_risk":0,"arthritis_risk":5,"migraine_risk":7,"frizz_risk":0,"updated_at":"2026-04-07T00:35:48.861556+05:30"},{"city":"Satna","state":"Madhya Pradesh","latitude":24.6005,"longitude":80.8322,"temp":24.5,"humidity":48,"rain":0.0,"pressure":972.7,"uv_index":8.0,"wind_gusts":18.7,"aqi":71,"pm10":71.7,"pm2_5":24.3,"mosquito_risk":0,"arthritis_risk":5,"migraine_risk":7,"frizz_risk":0,"updated_at":"2026-04-07T00:35:48.861563+05:30"},{"city":"Akola","state":"Maharashtra","latitude":20.7002,"longitude":77.0082,"temp":26.5,"humidity":43,"rain":0.0,"pressure":975.9,"uv_index":8.7,"wind_gusts":31.0,"aqi":85,"pm10":24.3,"pm2_5":19.5,"mosquito_risk":4,"arthritis_risk":5,"migraine_risk":7,"frizz_risk":0,"updated_at":"2026-04-07T00:35:48.861570+05:30"},{"city":"Amravati","state":"Maharashtra","latitude":20.9374,"longitude":77.7796,"temp":25.8,"humidity":52,"rain":0.0,"pressure":967.5,"uv_index":8.7,"wind_gusts":28.8,"aqi":82,"pm10":24.0,"pm2_5":19.4,"mosquito_risk":4,"arthritis_risk":5,"migraine_risk":7,"frizz_risk":0,"updated_at":"2026-04-07T00:35:48.861577+05:30"},{"city":"Latur","state":"Maharashtra","latitude":18.4088,"longitude":76.5604,"temp":24.0,"humidity":49,"rain":0.0,"pressure":940.2,"uv_index":9.0,"wind_gusts":27.4,"aqi":58,"pm10":29.3,"pm2_5":23.2,"mosquito_risk":0,"arthritis_risk":5,"migraine_risk":7,"frizz_risk":0,"updated_at":"2026-04-07T00:35:48.861583+05:30"},{"city":"Nanded","state":"Maharashtra","latitude":19.1383,"longitude":77.3091,"temp":25.2,"humidity":49,"rain":0.0,"pressure":968.9,"uv_index":8.85,"wind_gusts":24.8,"aqi":58,"pm10":27.8,"pm2_5":22.9,"mosquito_risk":4,"arthritis_risk":5,"migraine_risk":7,"frizz_risk":0,"updated_at":"2026-04-07T00:35:48.861589+05:30"},{"city":"Gulbarga","state":"Karnataka","latitude":17.3297,"longitude":76.8343,"temp":28.3,"humidity":30,"rain":0.0,"pressure":959.2,"uv_index":9.05,"wind_gusts":28.1,"aqi":50,"pm10":12.9,"pm2_5":10.7,"mosquito_risk":4,"arthritis_risk":5,"migraine_risk":7,"frizz_risk":0,"updated_at":"2026-04-07T00:35:48.861595+05:30"},{"city":"Bidar","state":"Karnataka","latitude":17.9104,"longitude":77.5199,"temp":26.4,"humidity":34,"rain":0.0,"pressure":936.0,"uv_index":9.05,"wind_gusts":33.1,"aqi":68,"pm10":25.9,"pm2_5":21.8,"mosquito_risk":4,"arthritis_risk":5,"migraine_risk":7,"frizz_risk":0,"updated_at":"2026-04-07T00:35:48.861601+05:30"},{"city":"Hospet","state":"Karnataka","latitude":15.2689,"longitude":76.3909,"temp":26.5,"humidity":63,"rain":0.0,"pressure":957.5,"uv_index":9.25,"wind_gusts":29.5,"aqi":46,"pm10":15.8,"pm2_5":11.4,"mosquito_risk":7,"arthritis_risk":5,"migraine_risk":7,"frizz_risk":1,"updated_at":"2026-04-07T00:35:48.861607+05:30"},{"city":"Tirupur","state":"Tamil Nadu","latitude":11.1085,"longitude":77.3411,"temp":26.7,"humidity":73,"rain":0.0,"pressure":976.7,"uv_index":9.5,"wind_gusts":47.5,"aqi":71,"pm10":26.4,"pm2_5":22.2,"mosquito_risk":7,"arthritis_risk":5,"migraine_risk":7,"frizz_risk":1,"updated_at":"2026-04-07T00:35:48.861613+05:30"},{"city":"Alappuzha","state":"Kerala","latitude":9.4981,"longitude":76.3388,"temp":29.7,"humidity":75,"rain":0.0,"pressure":1011.1,"uv_index":8.65,"wind_gusts":41.8,"aqi":68,"pm10":32.6,"pm2_5":20.4,"mosquito_risk":7,"arthritis_risk":0,"migraine_risk":4,"frizz_risk":1,"updated_at":"2026-04-07T00:35:48.861619+05:30"},{"city":"Munnar","state":"Kerala","latitude":10.0889,"longitude":77.0595,"temp":20.7,"humidity":98,"rain":0.0,"pressure":858.7,"uv_index":9.75,"wind_gusts":39.2,"aqi":60,"pm10":29.7,"pm2_5":23.6,"mosquito_risk":3,"arthritis_risk":5,"migraine_risk":7,"frizz_risk":1,"updated_at":"2026-04-07T00:35:48.861626+05:30"},{"city":"Silchar","state":"Assam","latitude":24.8333,"longitude":92.7789,"temp":24.3,"humidity":84,"rain":0.0,"pressure":1005.6,"uv_index":6.7,"wind_gusts":27.4,"aqi":154,"pm10":78.0,"pm2_5":69.8,"mosquito_risk":3,"arthritis_risk":5,"migraine_risk":4,"frizz_risk":1,"updated_at":"2026-04-07T00:35:48.861632+05:30"},{"city":"Dibrugarh","state":"Assam","latitude":27.4728,"longitude":94.912,"temp":22.5,"humidity":81,"rain":0.0,"pressure":996.1,"uv_index":5.55,"wind_gusts":25.2,"aqi":91,"pm10":15.2,"pm2_5":13.6,"mosquito_risk":3,"arthritis_risk":5,"migraine_risk":3,"frizz_risk":1,"updated_at":"2026-04-07T00:35:48.861638+05:30"}]