[{"city":"Delhi","state":"Delhi","latitude":28.6139,"longitude":77.209,"temp":31.1,"humidity":30,"rain":0.0,"pressure":978.8,"uv_index":7.7,"wind_gusts":47.9,"aqi":501,"pm10":732.0,"pm2_5":174.2,"no2":30.0,"co":509.0,"o3":52.0,"so2":14.8,"mosquito_risk":0,"arthritis_risk":5,"migraine_risk":7,"frizz_risk":0,"updated_at":"2026-05-17T02:22:54.859503+05:30"},{"city":"Mumbai","state":"Maharashtra","latitude":19.076,"longitude":72.8777,"temp":29.0,"humidity":82,"rain":0.0,"pressure":1004.9,"uv_index":7.85,"wind_gusts":46.4,"aqi":59,"pm10":36.4,"pm2_5":14.7,"no2":6.2,"co":163.0,"o3":51.0,"so2":3.6,"mosquito_risk":7,"arthritis_risk":5,"migraine_risk":4,"frizz_risk":1,"updated_at":"2026-05-17T02:22:54.859544+05:30"},{"city":"Bangalore","state":"Karnataka","latitude":12.9716,"longitude":77.5946,"temp":22.2,"humidity":91,"rain":0.0,"pressure":907.9,"uv_index":9.35,"wind_gusts":43.6,"aqi":156,"pm10":134.1,"pm2_5":99.7,"no2":87.9,"co":561.0,"o3":18.0,"so2":25.6,"mosquito_risk":3,"arthritis_risk":5,"migraine_risk":7,"frizz_risk":1,"updated_at":"2026-05-17T02:22:54.859562+05:30"},{"city":"Hyderabad","state":"Telangana","latitude":17.385,"longitude":78.4867,"temp":29.0,"humidity":55,"rain":0.0,"pressure":949.3,"uv_index":9.3,"wind_gusts":27.0,"aqi":126,"pm10":27.0,"pm2_5":19.3,"no2":10.8,"co":307.0,"o3":61.0,"so2":4.1,"mosquito_risk":4,"arthritis_risk":5,"migraine_risk":7,"frizz_risk":1,"updated_at":"2026-05-17T02:22:54.859573+05:30"},{"city":"Chennai","state":"Tamil Nadu","latitude":13.0827,"longitude":80.2707,"temp":28.6,"humidity":82,"rain":0.0,"pressure":1002.9,"uv_index":9.15,"wind_gusts":39.2,"aqi":37,"pm10":14.0,"pm2_5":10.9,"no2":9.9,"co":228.0,"o3":74.0,"so2":7.1,"mosquito_risk":7,"arthritis_risk":5,"migraine_risk":4,"frizz_risk":1,"updated_at":"2026-05-17T02:22:54.859582+05:30"},{"city":"Kolkata","state":"West Bengal","latitude":22.5726,"longitude":88.3639,"temp":28.1,"humidity":91,"rain":0.0,"pressure":1001.9,"uv_index":8.95,"wind_gusts":34.2,"aqi":57,"pm10":18.6,"pm2_5":12.3,"no2":6.7,"co":191.0,"o3":41.0,"so2":4.0,"mosquito_risk":7,"arthritis_risk":5,"migraine_risk":4,"frizz_risk":1,"updated_at":"2026-05-17T02:22:54.859612+05:30"},{"city":"Pune","state":"Maharashtra","latitude":18.5204,"longitude":73.8567,"temp":26.9,"humidity":77,"rain":0.0,"pressure":944.7,"uv_index":8.5,"wind_gusts":43.2,"aqi":68,"pm10":34.8,"pm2_5":24.5,"no2":20.7,"co":219.0,"o3":61.0,"so2":22.4,"mosquito_risk":7,"arthritis_risk":5,"migraine_risk":7,"frizz_risk":1,"updated_at":"2026-05-17T02:22:54.859620+05:30"},{"city":"Ahmedabad","state":"Gujarat","latitude":23.0225,"longitude":72.5714,"temp":32.3,"humidity":47,"rain":0.0,"pressure":998.0,"uv_index":8.15,"wind_gusts":31.3,"aqi":61,"pm10":28.6,"pm2_5":15.8,"no2":7.9,"co":191.0,"o3":52.0,"so2":3.7,"mosquito_risk":0,"arthritis_risk":5,"migraine_risk":7,"frizz_risk":1,"updated_at":"2026-05-17T02:22:54.859627+05:30"},{"city":"Jaipur","state":"Rajasthan","latitude":26.9124,"longitude":75.7873,"temp":29.9,"humidity":30,"rain":0.0,"pressure":956.3,"uv_index":8.25,"wind_gusts":33.5,"aqi":161,"pm10":198.4,"pm2_5":52.5,"no2":16.5,"co":296.0,"o3":54.0,"so2":7.7,"mosquito_risk":4,"arthritis_risk":5,"migraine_risk":7,"frizz_risk":0,"updated_at":"2026-05-17T02:22:54.859638+05:30"},{"city":"Lucknow","state":"Uttar Pradesh","latitude":26.8467,"longitude":80.9462,"temp":29.9,"humidity":45,"rain":0.0,"pressure":988.5,"uv_index":8.2,"wind_gusts":45.4,"aqi":154,"pm10":232.4,"pm2_5":74.3,"no2":29.7,"co":362.0,"o3":51.0,"so2":14.3,"mosquito_risk":4,"arthritis_risk":5,"migraine_risk":7,"frizz_risk":1,"updated_at":"2026-05-17T02:22:54.859646+05:30"},{"city":"Kanpur","state":"Uttar Pradesh","latitude":26.4499,"longitude":80.3319,"temp":30.8,"humidity":38,"rain":0.0,"pressure":987.1,"uv_index":8.2,"wind_gusts":42.8,"aqi":154,"pm10":310.1,"pm2_5":83.1,"no2":30.6,"co":403.0,"o3":42.0,"so2":13.1,"mosquito_risk":0,"arthritis_risk":5,"migraine_risk":7,"frizz_risk":0,"updated_at":"2026-05-17T02:22:54.859653+05:30"},{"city":"Chandigarh","state":"Chandigarh","latitude":30.7333,"longitude":76.7794,"temp":25.4,"humidity":45,"rain":0.0,"pressure":964.3,"uv_index":7.7,"wind_gusts":46.8,"aqi":82,"pm10":37.0,"pm2_5":28.7,"no2":19.6,"co":375.0,"o3":63.0,"so2":8.4,"mosquito_risk":4,"arthritis_risk":5,"migraine_risk":7,"frizz_risk":0,"updated_at":"2026-05-17T02:22:54.859661+05:30"},{"city":"Srinagar","state":"Jammu and Kashmir","latitude":34.0837,"longitude":74.7973,"temp":11.4,"humidity":100,"rain":0.0,"pressure":840.3,"uv_index":8.9,"wind_gusts":16.2,"aqi":84,"pm10":48.9,"pm2_5":44.9,"no2":35.3,"co":689.0,"o3":24.0,"so2":1.9,"mosquito_risk":3,"arthritis_risk":10,"migraine_risk":7,"frizz_risk":0,"updated_at":"2026-05-17T02:22:54.859668+05:30"},{"city":"Jammu","state":"Jammu and Kashmir","latitude":32.7266,"longitude":74.857,"temp":23.2,"humidity":54,"rain":0.0,"pressure":968.6,"uv_index":8.55,"wind_gusts":40.7,"aqi":80,"pm10":29.2,"pm2_5":26.7,"no2":32.9,"co":340.0,"o3":21.0,"so2":2.4,"mosquito_risk":0,"arthritis_risk":5,"migraine_risk":7,"frizz_risk":0,"updated_at":"2026-05-17T02:22:54.859675+05:30"},{"city":"Amritsar","state":"Punjab","latitude":31.634,"longitude":74.8723,"temp":26.4,"humidity":48,"rain":0.0,"pressure":976.8,"uv_index":8.4,"wind_gusts":32.4,"aqi":105,"pm10":79.2,"pm2_5":59.6,"no2":56.6,"co":577.0,"o3":17.0,"so2":10.4,"mosquito_risk":4,"arthritis_risk":5,"migraine_risk":7,"frizz_risk":0,"updated_at":"2026-05-17T02:22:54.859682+05:30"},{"city":"Ludhiana","state":"Punjab","latitude":30.901,"longitude":75.8573,"temp":26.8,"humidity":47,"rain":0.0,"pressure":974.7,"uv_index":8.0,"wind_gusts":38.2,"aqi":107,"pm10":64.0,"pm2_5":39.9,"no2":16.0,"co":540.0,"o3":69.0,"so2":7.9,"mosquito_risk":4,"arthritis_risk":5,"migraine_risk":7,"frizz_risk":0,"updated_at":"2026-05-17T02:22:54.859689+05:30"},{"city":"Jalandhar","state":"Punjab","latitude":31.326,"longitude":75.5762,"temp":25.1,"humidity":54,"rain":0.0,"pressure":975.7,"uv_index":8.15,"wind_gusts":35.6,"aqi":122,"pm10":84.5,"pm2_5":54.7,"no2":30.5,"co":869.0,"o3":42.0,"so2":9.4,"mosquito_risk":4,"arthritis_risk":5,"migraine_risk":7,"frizz_risk":0,"updated_at":"2026-05-17T02:22:54.859696+05:30"},{"city":"Dehradun","state":"Uttarakhand","latitude":30.6284,"longitude":78.0322,"temp":12.8,"humidity":85,"rain":0.0,"pressure":825.1,"uv_index":8.2,"wind_gusts":44.3,"aqi":55,"pm10":33.4,"pm2_5":17.2,"no2":35.3,"co":172.0,"o3":13.0,"so2":0.4,"mosquito_risk":3,"arthritis_risk":10,"migraine_risk":7,"frizz_risk":0,"updated_at":"2026-05-17T02:22:54.859703+05:30"},{"city":"Shimla","state":"Himachal Pradesh","latitude":31.1048,"longitude":77.1734,"temp":12.8,"humidity":55,"rain":0.0,"pressure":781.0,"uv_index":8.25,"wind_gusts":52.6,"aqi":66,"pm10":43.0,"pm2_5":21.7,"no2":23.5,"co":211.0,"o3":48.0,"so2":1.6,"mosquito_risk":0,"arthritis_risk":5,"migraine_risk":7,"frizz_risk":0,"updated_at":"2026-05-17T02:22:54.859713+05:30"},{"city":"Manali","state":"Himachal Pradesh","latitude":32.2396,"longitude":77.1887,"temp":6.7,"humidity":67,"rain":0.0,"pressure":810.9,"uv_index":9.65,"wind_gusts":33.8,"aqi":47,"pm10":9.2,"pm2_5":7.1,"no2":30.4,"co":285.0,"o3":100.0,"so2":0.0,"mosquito_risk":3,"arthritis_risk":5,"migraine_risk":7,"frizz_risk":0,"updated_at":"2026-05-17T02:22:54.859720+05:30"},{"city":"Gurgaon","state":"Haryana","latitude":28.4595,"longitude":77.0266,"temp":28.6,"humidity":37,"rain":0.0,"pressure":977.1,"uv_index":7.8,"wind_gusts":46.4,"aqi":713,"pm10":827.0,"pm2_5":173.2,"no2":36.2,"co":576.0,"o3":43.0,"so2":18.4,"mosquito_risk":4,"arthritis_risk":5,"migraine_risk":7,"frizz_risk":0,"updated_at":"2026-05-17T02:22:54.859727+05:30"},{"city":"Noida","state":"Uttar Pradesh","latitude":28.5355,"longitude":77.391,"temp":29.5,"humidity":39,"rain":0.0,"pressure":980.0,"uv_index":7.75,"wind_gusts":37.8,"aqi":713,"pm10":827.0,"pm2_5":173.2,"no2":36.2,"co":706.0,"o3":43.0,"so2":18.4,"mosquito_risk":4,"arthritis_risk":5,"migraine_risk":7,"frizz_risk":0,"updated_at":"2026-05-17T02:22:54.859734+05:30"},{"city":"Ghaziabad","state":"Uttar Pradesh","latitude":28.6692,"longitude":77.4538,"temp":27.6,"humidity":43,"rain":0.0,"pressure":978.2,"uv_index":7.7,"wind_gusts":43.2,"aqi":337,"pm10":622.1,"pm2_5":154.1,"no2":23.8,"co":451.0,"o3":59.0,"so2":14.8,"mosquito_risk":4,"arthritis_risk":5,"migraine_risk":7,"frizz_risk":0,"updated_at":"2026-05-17T02:22:54.859740+05:30"},{"city":"Faridabad","state":"Haryana","latitude":28.4089,"longitude":77.3178,"temp":31.4,"humidity":29,"rain":0.0,"pressure":979.4,"uv_index":7.75,"wind_gusts":47.9,"aqi":713,"pm10":827.0,"pm2_5":173.2,"no2":36.2,"co":585.0,"o3":43.0,"so2":18.4,"mosquito_risk":0,"arthritis_risk":5,"migraine_risk":7,"frizz_risk":0,"updated_at":"2026-05-17T02:22:54.859759+05:30"},{"city":"Meerut","state":"Uttar Pradesh","latitude":28.9845,"longitude":77.7064,"temp":28.5,"humidity":37,"rain":0.0,"pressure":976.9,"uv_index":7.65,"wind_gusts":49.3,"aqi":337,"pm10":622.1,"pm2_5":154.1,"no2":23.8,"co":376.0,"o3":59.0,"so2":14.8,"mosquito_risk":4,"arthritis_risk":5,"migraine_risk":7,"frizz_risk":0,"updated_at":"2026-05-17T02:22:54.859767+05:30"},{"city":"Agra","state":"Uttar Pradesh","latitude":27.1767,"longitude":78.0081,"temp":30.5,"humidity":35,"rain":0.0,"pressure":983.2,"uv_index":8.05,"wind_gusts":39.2,"aqi":458,"pm10":644.5,"pm2_5":125.7,"no2":19.9,"co":353.0,"o3":53.0,"so2":10.9,"mosquito_risk":0,"arthritis_risk":5,"migraine_risk":7,"frizz_risk":0,"updated_at":"2026-05-17T02:22:54.859773+05:30"},{"city":"Varanasi","state":"Uttar Pradesh","latitude":25.3176,"longitude":82.9739,"temp":30.8,"humidity":42,"rain":0.0,"pressure":992.4,"uv_index":8.7,"wind_gusts":49.7,"aqi":157,"pm10":198.8,"pm2_5":92.0,"no2":62.8,"co":646.0,"o3":30.0,"so2":22.0,"mosquito_risk":0,"arthritis_risk":5,"migraine_risk":7,"frizz_risk":1,"updated_at":"2026-05-17T02:22:54.859781+05:30"},{"city":"Prayagraj","state":"Uttar Pradesh","latitude":25.4358,"longitude":81.8463,"temp":30.8,"humidity":45,"rain":0.0,"pressure":991.1,"uv_index":8.6,"wind_gusts":39.6,"aqi":154,"pm10":160.2,"pm2_5":74.3,"no2":54.0,"co":441.0,"o3":23.0,"so2":16.3,"mosquito_risk":0,"arthritis_risk":5,"migraine_risk":7,"frizz_risk":1,"updated_at":"2026-05-17T02:22:54.859788+05:30"},{"city":"Gorakhpur","state":"Uttar Pradesh","latitude":26.7606,"longitude":83.3732,"temp":25.6,"humidity":83,"rain":0.0,"pressure":992.0,"uv_index":8.6,"wind_gusts":40.0,"aqi":147,"pm10":114.8,"pm2_5":75.0,"no2":46.2,"co":613.0,"o3":29.0,"so2":13.5,"mosquito_risk":7,"arthritis_risk":5,"migraine_risk":7,"frizz_risk":1,"updated_at":"2026-05-17T02:22:54.859797+05:30"},{"city":"Bareilly","state":"Uttar Pradesh","latitude":28.367,"longitude":79.4304,"temp":25.8,"humidity":54,"rain":0.0,"pressure":981.8,"uv_index":8.0,"wind_gusts":43.2,"aqi":138,"pm10":97.3,"pm2_5":57.0,"no2":26.3,"co":383.0,"o3":57.0,"so2":12.2,"mosquito_risk":4,"arthritis_risk":5,"migraine_risk":7,"frizz_risk":0,"updated_at":"2026-05-17T02:22:54.859803+05:30"},{"city":"Aligarh","state":"Uttar Pradesh","latitude":27.8974,"longitude":78.088,"temp":27.2,"humidity":40,"rain":0.0,"pressure":980.8,"uv_index":7.85,"wind_gusts":44.6,"aqi":398,"pm10":832.6,"pm2_5":164.4,"no2":29.7,"co":477.0,"o3":42.0,"so2":16.5,"mosquito_risk":4,"arthritis_risk":5,"migraine_risk":7,"frizz_risk":0,"updated_at":"2026-05-17T02:22:54.859810+05:30"},{"city":"Moradabad","state":"Uttar Pradesh","latitude":28.8386,"longitude":78.7733,"temp":26.9,"humidity":42,"rain":0.0,"pressure":978.9,"uv_index":7.85,"wind_gusts":48.6,"aqi":154,"pm10":203.0,"pm2_5":86.8,"no2":39.9,"co":420.0,"o3":26.0,"so2":11.2,"mosquito_risk":4,"arthritis_risk":5,"migraine_risk":7,"frizz_risk":0,"updated_at":"2026-05-17T02:22:54.859817+05:30"},{"city":"Saharanpur","state":"Uttar Pradesh","latitude":29.9637,"longitude":77.546,"temp":27.0,"humidity":44,"rain":0.0,"pressure":971.1,"uv_index":7.35,"wind_gusts":51.5,"aqi":127,"pm10":60.5,"pm2_5":34.7,"no2":18.7,"co":357.0,"o3":77.0,"so2":10.3,"mosquito_risk":4,"arthritis_risk":5,"migraine_risk":7,"frizz_risk":0,"updated_at":"2026-05-17T02:22:54.859823+05:30"},{"city":"Jhansi","state":"Uttar Pradesh","latitude":25.4484,"longitude":78.5685,"temp":31.3,"humidity":34,"rain":0.0,"pressure":973.7,"uv_index":8.5,"wind_gusts":32.4,"aqi":91,"pm10":98.0,"pm2_5":37.5,"no2":11.5,"co":254.0,"o3":68.0,"so2":7.2,"mosquito_risk":0,"arthritis_risk":5,"migraine_risk":7,"frizz_risk":0,"updated_at":"2026-05-17T02:22:58.236531+05:30"},{"city":"Surat","state":"Gujarat","latitude":21.1702,"longitude":72.8311,"temp":29.2,"humidity":86,"rain":0.0,"pressure":1002.5,"uv_index":7.75,"wind_gusts":40.0,"aqi":86,"pm10":28.7,"pm2_5":18.9,"no2":28.1,"co":329.0,"o3":27.0,"so2":42.5,"mosquito_risk":7,"arthritis_risk":5,"migraine_risk":4,"frizz_risk":1,"updated_at":"2026-05-17T02:22:58.236562+05:30"},{"city":"Vadodara","state":"Gujarat","latitude":22.3072,"longitude":73.1812,"temp":30.9,"humidity":60,"rain":0.0,"pressure":1000.0,"uv_index":8.1,"wind_gusts":30.6,"aqi":71,"pm10":40.6,"pm2_5":26.5,"no2":24.7,"co":215.0,"o3":31.0,"so2":15.4,"mosquito_risk":0,"arthritis_risk":5,"migraine_risk":4,"frizz_risk":1,"updated_at":"2026-05-17T02:22:58.236572+05:30"},{"city":"Rajkot","state":"Gujarat","latitude":22.3039,"longitude":70.8022,"temp":26.9,"humidity":87,"rain":0.0,"pressure":991.3,"uv_index":7.55,"wind_gusts":39.6,"aqi":53,"pm10":22.9,"pm2_5":9.4,"no2":7.4,"co":131.0,"o3":39.0,"so2":4.6,"mosquito_risk":7,"arthritis_risk":5,"migraine_risk":7,"frizz_risk":1,"updated_at":"2026-05-17T02:22:58.236581+05:30"},{"city":"Thane","state":"Maharashtra","latitude":19.2183,"longitude":72.9781,"temp":28.5,"humidity":86,"rain":0.0,"pressure":1004.3,"uv_index":7.8,"wind_gusts":40.7,"aqi":59,"pm10":36.4,"pm2_5":14.7,"no2":6.2,"co":151.0,"o3":51.0,"so2":3.6,"mosquito_risk":7,"arthritis_risk":5,"migraine_risk":4,"frizz_risk":1,"updated_at":"2026-05-17T02:22:58.236611+05:30"},{"city":"Nagpur","state":"Maharashtra","latitude":21.1458,"longitude":79.0882,"temp":32.0,"humidity":46,"rain":0.0,"pressure":969.3,"uv_index":9.0,"wind_gusts":31.7,"aqi":116,"pm10":56.6,"pm2_5":47.5,"no2":20.3,"co":248.0,"o3":87.0,"so2":25.3,"mosquito_risk":0,"arthritis_risk":5,"migraine_risk":7,"frizz_risk":1,"updated_at":"2026-05-17T02:22:58.236622+05:30"},{"city":"Nashik","state":"Maharashtra","latitude":19.9975,"longitude":73.7898,"temp":26.5,"humidity":46,"rain":0.0,"pressure":942.2,"uv_index":8.2,"wind_gusts":40.0,"aqi":56,"pm10":40.5,"pm2_5":21.4,"no2":16.6,"co":259.0,"o3":43.0,"so2":3.5,"mosquito_risk":4,"arthritis_risk":5,"migraine_risk":7,"frizz_risk":0,"updated_at":"2026-05-17T02:22:58.236630+05:30"},{"city":"Aurangabad","state":"Maharashtra","latitude":19.8762,"longitude":75.3433,"temp":31.1,"humidity":27,"rain":0.0,"pressure":940.6,"uv_index":9.1,"wind_gusts":33.5,"aqi":55,"pm10":30.9,"pm2_5":18.6,"no2":8.3,"co":189.0,"o3":90.0,"so2":5.6,"mosquito_risk":0,"arthritis_risk":5,"migraine_risk":7,"frizz_risk":0,"updated_at":"2026-05-17T02:22:58.236638+05:30"},{"city":"Solapur","state":"Maharashtra","latitude":17.6599,"longitude":75.9064,"temp":30.0,"humidity":45,"rain":0.0,"pressure":953.0,"uv_index":9.1,"wind_gusts":36.4,"aqi":72,"pm10":39.2,"pm2_5":34.0,"no2":34.8,"co":348.0,"o3":41.0,"so2":9.5,"mosquito_risk":4,"arthritis_risk":5,"migraine_risk":7,"frizz_risk":1,"updated_at":"2026-05-17T02:22:58.236645+05:30"},{"city":"Kolhapur","state":"Maharashtra","latitude":16.705,"longitude":74.2433,"temp":24.7,"humidity":94,"rain":0.0,"pressure":944.5,"uv_index":8.95,"wind_gusts":45.0,"aqi":68,"pm10":20.7,"pm2_5":15.7,"no2":9.6,"co":174.0,"o3":55.0,"so2":4.8,"mosquito_risk":3,"arthritis_risk":5,"migraine_risk":7,"frizz_risk":1,"updated_at":"2026-05-17T02:22:58.236653+05:30"},{"city":"Goa","state":"Goa","latitude":15.2993,"longitude":74.124,"temp":28.5,"humidity":85,"rain":0.0,"pressure":994.1,"uv_index":8.9,"wind_gusts":35.3,"aqi":63,"pm10":34.8,"pm2_5":20.6,"no2":6.3,"co":285.0,"o3":44.0,"so2":1.5,"mosquito_risk":7,"arthritis_risk":5,"migraine_risk":7,"frizz_risk":1,"updated_at":"2026-05-17T02:22:58.236661+05:30"},{"city":"Jodhpur","state":"Rajasthan","latitude":26.2389,"longitude":73.0243,"temp":33.2,"humidity":29,"rain":0.0,"pressure":979.2,"uv_index":8.45,"wind_gusts":32.4,"aqi":111,"pm10":142.0,"pm2_5":31.8,"no2":7.0,"co":209.0,"o3":63.0,"so2":3.5,"mosquito_risk":0,"arthritis_risk":5,"migraine_risk":7,"frizz_risk":0,"updated_at":"2026-05-17T02:22:58.236669+05:30"},{"city":"Udaipur","state":"Rajasthan","latitude":24.5854,"longitude":73.7125,"temp":30.5,"humidity":33,"rain":0.0,"pressure":943.3,"uv_index":8.85,"wind_gusts":29.9,"aqi":57,"pm10":37.6,"pm2_5":17.1,"no2":5.4,"co":183.0,"o3":50.0,"so2":2.9,"mosquito_risk":0,"arthritis_risk":5,"migraine_risk":7,"frizz_risk":0,"updated_at":"2026-05-17T02:22:58.236677+05:30"},{"city":"Kota","state":"Rajasthan","latitude":25.2138,"longitude":75.8648,"temp":31.6,"humidity":30,"rain":0.0,"pressure":974.7,"uv_index":8.4,"wind_gusts":30.2,"aqi":74,"pm10":97.3,"pm2_5":36.7,"no2":13.7,"co":288.0,"o3":52.0,"so2":4.7,"mosquito_risk":0,"arthritis_risk":5,"migraine_risk":7,"frizz_risk":0,"updated_at":"2026-05-17T02:22:58.236684+05:30"},{"city":"Bikaner","state":"Rajasthan","latitude":28.0229,"longitude":73.3119,"temp":31.0,"humidity":27,"rain":0.0,"pressure":977.8,"uv_index":8.4,"wind_gusts":34.2,"aqi":102,"pm10":104.8,"pm2_5":32.5,"no2":4.6,"co":292.0,"o3":49.0,"so2":1.8,"mosquito_risk":0,"arthritis_risk":5,"migraine_risk":7,"frizz_risk":0,"updated_at":"2026-05-17T02:22:58.236691+05:30"},{"city":"Ajmer","state":"Rajasthan","latitude":26.4499,"longitude":74.6399,"temp":31.3,"humidity":26,"rain":0.0,"pressure":951.7,"uv_index":8.4,"wind_gusts":33.1,"aqi":87,"pm10":89.2,"pm2_5":35.2,"no2":14.9,"co":209.0,"o3":44.0,"so2":4.6,"mosquito_risk":0,"arthritis_risk":5,"migraine_risk":7,"frizz_risk":0,"updated_at":"2026-05-17T02:22:58.236699+05:30"},{"city":"Gwalior","state":"Madhya Pradesh","latitude":26.2183,"longitude":78.1828,"temp":30.7,"humidity":38,"rain":0.0,"pressure":979.1,"uv_index":8.25,"wind_gusts":41.0,"aqi":123,"pm10":422.8,"pm2_5":87.1,"no2":14.1,"co":329.0,"o3":66.0,"so2":9.7,"mosquito_risk":0,"arthritis_risk":5,"migraine_risk":7,"frizz_risk":0,"updated_at":"2026-05-17T02:22:58.236706+05:30"},{"city":"Indore","state":"Madhya Pradesh","latitude":22.7196,"longitude":75.8577,"temp":30.0,"humidity":32,"rain":0.0,"pressure":944.8,"uv_index":8.7,"wind_gusts":34.2,"aqi":52,"pm10":27.7,"pm2_5":16.8,"no2":5.0,"co":257.0,"o3":76.0,"so2":3.6,"mosquito_risk":4,"arthritis_risk":5,"migraine_risk":7,"frizz_risk":0,"updated_at":"2026-05-17T02:22:58.236713+05:30"},{"city":"Bhopal","state":"Madhya Pradesh","latitude":23.2599,"longitude":77.4126,"temp":31.4,"humidity":27,"rain":0.0,"pressure":949.9,"uv_index":8.75,"wind_gusts":33.5,"aqi":55,"pm10":33.8,"pm2_5":24.9,"no2":11.7,"co":260.0,"o3":52.0,"so2":5.4,"mosquito_risk":0,"arthritis_risk":5,"migraine_risk":7,"frizz_risk":0,"updated_at":"2026-05-17T02:22:58.236720+05:30"},{"city":"Jabalpur","state":"Madhya Pradesh","latitude":23.1815,"longitude":79.9864,"temp":31.1,"humidity":43,"rain":0.0,"pressure":957.6,"uv_index":8.9,"wind_gusts":33.1,"aqi":109,"pm10":63.1,"pm2_5":41.4,"no2":35.6,"co":248.0,"o3":44.0,"so2":9.2,"mosquito_risk":0,"arthritis_risk":5,"migraine_risk":7,"frizz_risk":1,"updated_at":"2026-05-17T02:22:58.236728+05:30"},{"city":"Ujjain","state":"Madhya Pradesh","latitude":23.1765,"longitude":75.7885,"temp":29.6,"humidity":33,"rain":0.0,"pressure":950.1,"uv_index":8.65,"wind_gusts":40.3,"aqi":53,"pm10":30.6,"pm2_5":17.9,"no2":3.6,"co":245.0,"o3":77.0,"so2":3.2,"mosquito_risk":4,"arthritis_risk":5,"migraine_risk":7,"frizz_risk":0,"updated_at":"2026-05-17T02:22:58.236735+05:30"},{"city":"Visakhapatnam","state":"Andhra Pradesh","latitude":17.6868,"longitude":83.2185,"temp":28.4,"humidity":87,"rain":0.0,"pressure":1000.4,"uv_index":8.65,"wind_gusts":41.0,"aqi":60,"pm10":16.6,"pm2_5":13.0,"no2":20.8,"co":267.0,"o3":46.0,"so2":35.4,"mosquito_risk":7,"arthritis_risk":5,"migraine_risk":4,"frizz_risk":1,"updated_at":"2026-05-17T02:22:58.236743+05:30"},{"city":"Vijayawada","state":"Andhra Pradesh","latitude":16.5062,"longitude":80.648,"temp":29.0,"humidity":84,"rain":0.0,"pressure":998.8,"uv_index":9.2,"wind_gusts":36.7,"aqi":46,"pm10":13.5,"pm2_5":11.7,"no2":9.0,"co":196.0,"o3":53.0,"so2":5.5,"mosquito_risk":7,"arthritis_risk":5,"migraine_risk":7,"frizz_risk":1,"updated_at":"2026-05-17T02:22:58.236750+05:30"},{"city":"Guntur","state":"Andhra Pradesh","latitude":16.3067,"longitude":80.4365,"temp":28.9,"humidity":85,"rain":0.0,"pressure":999.9,"uv_index":9.25,"wind_gusts":33.1,"aqi":47,"pm10":11.8,"pm2_5":10.1,"no2":7.6,"co":186.0,"o3":53.0,"so2":2.9,"mosquito_risk":7,"arthritis_risk":5,"migraine_risk":7,"frizz_risk":1,"updated_at":"2026-05-17T02:22:58.236757+05:30"},{"city":"Nellore","state":"Andhra Pradesh","latitude":14.4426,"longitude":79.9865,"temp":28.4,"humidity":87,"rain":0.0,"pressure":1001.8,"uv_index":9.2,"wind_gusts":37.4,"aqi":39,"pm10":12.9,"pm2_5":9.2,"no2":3.7,"co":211.0,"o3":78.0,"so2":2.1,"mosquito_risk":7,"arthritis_risk":5,"migraine_risk":4,"frizz_risk":1,"updated_at":"2026-05-17T02:22:58.236765+05:30"},{"city":"Kurnool","state":"Andhra Pradesh","latitude":15.8281,"longitude":78.0373,"temp":29.7,"humidity":66,"rain":0.0,"pressure":972.6,"uv_index":9.2,"wind_gusts":37.1,"aqi":110,"pm10":17.4,"pm2_5":11.1,"no2":5.4,"co":175.0,"o3":65.0,"so2":2.4,"mosquito_risk":7,"arthritis_risk":5,"migraine_risk":7,"frizz_risk":1,"updated_at":"2026-05-17T02:22:58.236773+05:30"},{"city":"Kakinada","state":"Andhra Pradesh","latitude":16.9891,"longitude":82.2475,"temp":28.5,"humidity":87,"rain":0.0,"pressure":1003.9,"uv_index":9.15,"wind_gusts":41.4,"aqi":32,"pm10":8.8,"pm2_5":5.8,"no2":2.0,"co":246.0,"o3":71.0,"so2":1.5,"mosquito_risk":7,"arthritis_risk":5,"migraine_risk":4,"frizz_risk":1,"updated_at":"2026-05-17T02:22:58.236781+05:30"},{"city":"Tirupati","state":"Andhra Pradesh","latitude":13.6288,"longitude":79.4192,"temp":27.0,"humidity":85,"rain":0.0,"pressure":987.3,"uv_index":9.2,"wind_gusts":29.9,"aqi":52,"pm10":20.1,"pm2_5":17.6,"no2":28.3,"co":317.0,"o3":29.0,"so2":14.9,"mosquito_risk":7,"arthritis_risk":5,"migraine_risk":7,"frizz_risk":1,"updated_at":"2026-05-17T02:22:58.236788+05:30"},{"city":"Warangal","state":"Telangana","latitude":17.9689,"longitude":79.5941,"temp":29.0,"humidity":67,"rain":0.0,"pressure":974.6,"uv_index":9.05,"wind_gusts":28.8,"aqi":88,"pm10":20.4,"pm2_5":17.3,"no2":10.9,"co":240.0,"o3":59.0,"so2":8.5,"mosquito_risk":7,"arthritis_risk":5,"migraine_risk":7,"frizz_risk":1,"updated_at":"2026-05-17T02:22:58.236795+05:30"},{"city":"Nizamabad","state":"Telangana","latitude":18.6725,"longitude":78.0941,"temp":29.5,"humidity":55,"rain":0.0,"pressure":960.6,"uv_index":9.1,"wind_gusts":34.6,"aqi":91,"pm10":50.2,"pm2_5":41.4,"no2":20.1,"co":314.0,"o3":64.0,"so2":7.4,"mosquito_risk":4,"arthritis_risk":5,"migraine_risk":7,"frizz_risk":1,"updated_at":"2026-05-17T02:22:58.236801+05:30"},{"city":"Mysore","state":"Karnataka","latitude":12.2958,"longitude":76.6396,"temp":21.7,"humidity":97,"rain":0.0,"pressure":924.7,"uv_index":9.3,"wind_gusts":40.3,"aqi":114,"pm10":39.5,"pm2_5":31.8,"no2":15.9,"co":398.0,"o3":72.0,"so2":4.0,"mosquito_risk":3,"arthritis_risk":5,"migraine_risk":7,"frizz_risk":1,"updated_at":"2026-05-17T02:22:58.236808+05:30"},{"city":"Mangalore","state":"Karnataka","latitude":12.9141,"longitude":74.856,"temp":25.5,"humidity":99,"rain":0.0,"pressure":1003.2,"uv_index":8.5,"wind_gusts":36.7,"aqi":62,"pm10":26.8,"pm2_5":19.0,"no2":10.7,"co":418.0,"o3":31.0,"so2":2.7,"mosquito_risk":7,"arthritis_risk":5,"migraine_risk":4,"frizz_risk":1,"updated_at":"2026-05-17T02:22:58.236816+05:30"},{"city":"Hubli-Dharwad","state":"Karnataka","latitude":15.3647,"longitude":75.124,"temp":24.1,"humidity":94,"rain":0.0,"pressure":937.2,"uv_index":9.15,"wind_gusts":42.1,"aqi":61,"pm10":14.3,"pm2_5":10.0,"no2":6.5,"co":175.0,"o3":41.0,"so2":1.7,"mosquito_risk":3,"arthritis_risk":5,"migraine_risk":7,"frizz_risk":1,"updated_at":"2026-05-17T02:22:58.236823+05:30"},{"city":"Belgaum","state":"Karnataka","latitude":15.8497,"longitude":74.4977,"temp":23.1,"humidity":96,"rain":0.0,"pressure":922.0,"uv_index":9.15,"wind_gusts":44.6,"aqi":67,"pm10":19.6,"pm2_5":14.5,"no2":10.7,"co":167.0,"o3":34.0,"so2":2.2,"mosquito_risk":3,"arthritis_risk":5,"migraine_risk":7,"frizz_risk":1,"updated_at":"2026-05-17T02:23:01.629140+05:30"},{"city":"Coimbatore","state":"Tamil Nadu","latitude":11.0168,"longitude":76.9558,"temp":23.5,"humidity":97,"rain":0.0,"pressure":957.7,"uv_index":9.05,"wind_gusts":49.3,"aqi":94,"pm10":36.0,"pm2_5":28.2,"no2":7.9,"co":289.0,"o3":78.0,"so2":5.1,"mosquito_risk":3,"arthritis_risk":5,"migraine_risk":7,"frizz_risk":1,"updated_at":"2026-05-17T02:23:01.629173+05:30"},{"city":"Madurai","state":"Tamil Nadu","latitude":9.9252,"longitude":78.1198,"temp":27.5,"humidity":84,"rain":0.0,"pressure":989.0,"uv_index":8.4,"wind_gusts":40.0,"aqi":81,"pm10":57.2,"pm2_5":52.7,"no2":48.5,"co":774.0,"o3":24.0,"so2":7.3,"mosquito_risk":7,"arthritis_risk":5,"migraine_risk":7,"frizz_risk":1,"updated_at":"2026-05-17T02:23:01.629185+05:30"},{"city":"Trichy","state":"Tamil Nadu","latitude":10.7905,"longitude":78.7047,"temp":26.8,"humidity":88,"rain":0.0,"pressure":995.6,"uv_index":8.1,"wind_gusts":29.9,"aqi":80,"pm10":35.7,"pm2_5":31.0,"no2":30.0,"co":373.0,"o3":41.0,"so2":6.6,"mosquito_risk":7,"arthritis_risk":5,"migraine_risk":7,"frizz_risk":1,"updated_at":"2026-05-17T02:23:01.629195+05:30"},{"city":"Salem","state":"Tamil Nadu","latitude":11.6643,"longitude":78.146,"temp":27.0,"humidity":81,"rain":0.0,"pressure":973.3,"uv_index":8.6,"wind_gusts":25.2,"aqi":137,"pm10":71.5,"pm2_5":51.1,"no2":31.2,"co":409.0,"o3":50.0,"so2":15.1,"mosquito_risk":7,"arthritis_risk":5,"migraine_risk":7,"frizz_risk":1,"updated_at":"2026-05-17T02:23:01.629203+05:30"},{"city":"Tirunelveli","state":"Tamil Nadu","latitude":8.7139,"longitude":77.7567,"temp":27.5,"humidity":76,"rain":0.0,"pressure":998.9,"uv_index":8.75,"wind_gusts":29.9,"aqi":53,"pm10":11.5,"pm2_5":10.2,"no2":7.4,"co":323.0,"o3":61.0,"so2":1.8,"mosquito_risk":7,"arthritis_risk":5,"migraine_risk":7,"frizz_risk":1,"updated_at":"2026-05-17T02:23:01.629212+05:30"},{"city":"Vellore","state":"Tamil Nadu","latitude":12.9165,"longitude":79.1325,"temp":26.6,"humidity":88,"rain":0.0,"pressure":980.4,"uv_index":8.75,"wind_gusts":25.9,"aqi":75,"pm10":26.7,"pm2_5":24.5,"no2":19.0,"co":362.0,"o3":42.0,"so2":6.0,"mosquito_risk":7,"arthritis_risk":5,"migraine_risk":7,"frizz_risk":1,"updated_at":"2026-05-17T02:23:01.629220+05:30"},{"city":"Erode","state":"Tamil Nadu","latitude":11.341,"longitude":77.7172,"temp":26.2,"humidity":85,"rain":0.0,"pressure":984.9,"uv_index":8.55,"wind_gusts":31.7,"aqi":112,"pm10":70.3,"pm2_5":51.0,"no2":57.6,"co":367.0,"o3":17.0,"so2":7.2,"mosquito_risk":7,"arthritis_risk":5,"migraine_risk":7,"frizz_risk":1,"updated_at":"2026-05-17T02:23:01.629228+05:30"},{"city":"Kochi","state":"Kerala","latitude":9.9312,"longitude":76.2673,"temp":26.0,"humidity":94,"rain":0.0,"pressure":1005.3,"uv_index":8.55,"wind_gusts":33.8,"aqi":67,"pm10":28.2,"pm2_5":24.4,"no2":28.2,"co":330.0,"o3":13.0,"so2":6.2,"mosquito_risk":7,"arthritis_risk":5,"migraine_risk":4,"frizz_risk":1,"updated_at":"2026-05-17T02:23:01.629235+05:30"},{"city":"Thiruvananthapuram","state":"Kerala","latitude":8.5241,"longitude":76.9366,"temp":24.6,"humidity":97,"rain":0.0,"pressure":1004.8,"uv_index":8.5,"wind_gusts":33.8,"aqi":47,"pm10":18.9,"pm2_5":12.6,"no2":5.9,"co":281.0,"o3":86.0,"so2":3.4,"mosquito_risk":3,"arthritis_risk":5,"migraine_risk":4,"frizz_risk":1,"updated_at":"2026-05-17T02:23:01.629243+05:30"},{"city":"Kozhikode","state":"Kerala","latitude":11.2588,"longitude":75.7804,"temp":24.2,"humidity":100,"rain":0.0,"pressure":1004.2,"uv_index":8.9,"wind_gusts":32.0,"aqi":60,"pm10":22.8,"pm2_5":15.5,"no2":2.9,"co":477.0,"o3":77.0,"so2":1.8,"mosquito_risk":3,"arthritis_risk":5,"migraine_risk":4,"frizz_risk":1,"updated_at":"2026-05-17T02:23:01.629250+05:30"},{"city":"Thrissur","state":"Kerala","latitude":10.5276,"longitude":76.2144,"temp":24.5,"humidity":100,"rain":0.0,"pressure":1003.6,"uv_index":8.85,"wind_gusts":33.1,"aqi":74,"pm10":33.8,"pm2_5":27.6,"no2":23.4,"co":380.0,"o3":26.0,"so2":5.2,"mosquito_risk":3,"arthritis_risk":5,"migraine_risk":4,"frizz_risk":1,"updated_at":"2026-05-17T02:23:01.629258+05:30"},{"city":"Kannur","state":"Kerala","latitude":11.8745,"longitude":75.3704,"temp":24.4,"humidity":100,"rain":0.0,"pressure":1003.4,"uv_index":8.6,"wind_gusts":37.4,"aqi":63,"pm10":26.8,"pm2_5":22.6,"no2":16.3,"co":416.0,"o3":37.0,"so2":2.9,"mosquito_risk":3,"arthritis_risk":5,"migraine_risk":4,"frizz_risk":1,"updated_at":"2026-05-17T02:23:01.629266+05:30"},{"city":"Patna","state":"Bihar","latitude":25.5941,"longitude":85.1376,"temp":27.9,"humidity":80,"rain":0.0,"pressure":995.7,"uv_index":8.8,"wind_gusts":38.9,"aqi":154,"pm10":76.1,"pm2_5":67.3,"no2":34.4,"co":479.0,"o3":55.0,"so2":17.8,"mosquito_risk":7,"arthritis_risk":5,"migraine_risk":7,"frizz_risk":1,"updated_at":"2026-05-17T02:23:01.629273+05:30"},{"city":"Gaya","state":"Bihar","latitude":24.7914,"longitude":85.0002,"temp":27.5,"humidity":63,"rain":0.0,"pressure":989.0,"uv_index":8.85,"wind_gusts":45.0,"aqi":152,"pm10":172.3,"pm2_5":75.2,"no2":43.5,"co":578.0,"o3":46.0,"so2":14.7,"mosquito_risk":7,"arthritis_risk":5,"migraine_risk":7,"frizz_risk":1,"updated_at":"2026-05-17T02:23:01.629281+05:30"},{"city":"Muzaffarpur","state":"Bihar","latitude":26.1209,"longitude":85.3647,"temp":27.0,"humidity":79,"rain":0.0,"pressure":995.9,"uv_index":8.8,"wind_gusts":28.4,"aqi":152,"pm10":61.2,"pm2_5":55.9,"no2":17.6,"co":536.0,"o3":77.0,"so2":13.1,"mosquito_risk":7,"arthritis_risk":5,"migraine_risk":7,"frizz_risk":1,"updated_at":"2026-05-17T02:23:01.629288+05:30"},{"city":"Bhagalpur","state":"Bihar","latitude":25.2425,"longitude":87.0117,"temp":27.1,"humidity":84,"rain":0.0,"pressure":996.2,"uv_index":8.8,"wind_gusts":25.2,"aqi":144,"pm10":54.5,"pm2_5":49.9,"no2":15.9,"co":436.0,"o3":76.0,"so2":12.7,"mosquito_risk":7,"arthritis_risk":5,"migraine_risk":7,"frizz_risk":1,"updated_at":"2026-05-17T02:23:01.629296+05:30"},{"city":"Ranchi","state":"Jharkhand","latitude":23.3441,"longitude":85.3096,"temp":24.6,"humidity":68,"rain":0.0,"pressure":934.7,"uv_index":9.3,"wind_gusts":34.2,"aqi":136,"pm10":78.9,"pm2_5":61.7,"no2":26.9,"co":312.0,"o3":68.0,"so2":15.2,"mosquito_risk":3,"arthritis_risk":5,"migraine_risk":7,"frizz_risk":1,"updated_at":"2026-05-17T02:23:01.629303+05:30"},{"city":"Jamshedpur","state":"Jharkhand","latitude":22.8046,"longitude":86.2029,"temp":27.8,"humidity":75,"rain":0.0,"pressure":987.1,"uv_index":9.1,"wind_gusts":24.8,"aqi":128,"pm10":36.6,"pm2_5":30.3,"no2":15.4,"co":305.0,"o3":69.0,"so2":19.9,"mosquito_risk":7,"arthritis_risk":5,"migraine_risk":7,"frizz_risk":1,"updated_at":"2026-05-17T02:23:01.629310+05:30"},{"city":"Dhanbad","state":"Jharkhand","latitude":23.7957,"longitude":86.4304,"temp":27.1,"humidity":74,"rain":0.0,"pressure":975.6,"uv_index":9.05,"wind_gusts":33.5,"aqi":161,"pm10":86.6,"pm2_5":72.9,"no2":64.3,"co":1153.0,"o3":31.0,"so2":116.5,"mosquito_risk":7,"arthritis_risk":5,"migraine_risk":7,"frizz_risk":1,"updated_at":"2026-05-17T02:23:01.629317+05:30"},{"city":"Bokaro","state":"Jharkhand","latitude":23.6693,"longitude":86.1511,"temp":28.0,"humidity":57,"rain":0.0,"pressure":979.5,"uv_index":9.05,"wind_gusts":34.9,"aqi":158,"pm10":122.9,"pm2_5":84.1,"no2":64.3,"co":875.0,"o3":17.0,"so2":76.1,"mosquito_risk":4,"arthritis_risk":5,"migraine_risk":7,"frizz_risk":1,"updated_at":"2026-05-17T02:23:01.629325+05:30"},{"city":"Bhubaneswar","state":"Odisha","latitude":20.2961,"longitude":85.8245,"temp":28.3,"humidity":90,"rain":0.0,"pressure":999.3,"uv_index":9.15,"wind_gusts":40.0,"aqi":42,"pm10":12.0,"pm2_5":8.0,"no2":4.9,"co":168.0,"o3":48.0,"so2":2.0,"mosquito_risk":7,"arthritis_risk":5,"migraine_risk":7,"frizz_risk":1,"updated_at":"2026-05-17T02:23:01.629332+05:30"},{"city":"Cuttack","state":"Odisha","latitude":20.4625,"longitude":85.8828,"temp":28.5,"humidity":89,"rain":0.0,"pressure":1001.1,"uv_index":9.2,"wind_gusts":42.8,"aqi":42,"pm10":12.0,"pm2_5":8.0,"no2":4.9,"co":182.0,"o3":48.0,"so2":2.0,"mosquito_risk":7,"arthritis_risk":5,"migraine_risk":4,"frizz_risk":1,"updated_at":"2026-05-17T02:23:01.629339+05:30"},{"city":"Rourkela","state":"Odisha","latitude":22.2604,"longitude":84.8536,"temp":27.4,"humidity":84,"rain":0.0,"pressure":982.0,"uv_index":9.05,"wind_gusts":38.2,"aqi":151,"pm10":51.6,"pm2_5":40.0,"no2":13.1,"co":222.0,"o3":82.0,"so2":18.8,"mosquito_risk":7,"arthritis_risk":5,"migraine_risk":7,"frizz_risk":1,"updated_at":"2026-05-17T02:23:01.629346+05:30"},{"city":"Raipur","state":"Chhattisgarh","latitude":21.2514,"longitude":81.6296,"temp":28.6,"humidity":64,"rain":0.0,"pressure":971.0,"uv_index":9.0,"wind_gusts":29.9,"aqi":156,"pm10":50.1,"pm2_5":41.8,"no2":17.7,"co":293.0,"o3":71.0,"so2":25.0,"mosquito_risk":7,"arthritis_risk":5,"migraine_risk":7,"frizz_risk":1,"updated_at":"2026-05-17T02:23:01.629352+05:30"},{"city":"Bhilai","state":"Chhattisgarh","latitude":21.1938,"longitude":81.3509,"temp":28.3,"humidity":69,"rain":0.0,"pressure":971.5,"uv_index":9.05,"wind_gusts":30.2,"aqi":156,"pm10":51.7,"pm2_5":43.1,"no2":23.2,"co":346.0,"o3":69.0,"so2":38.7,"mosquito_risk":7,"arthritis_risk":5,"migraine_risk":7,"frizz_risk":1,"updated_at":"2026-05-17T02:23:01.629359+05:30"},{"city":"Guwahati","state":"Assam","latitude":26.1158,"longitude":91.7086,"temp":22.2,"humidity":98,"rain":0.2,"pressure":998.9,"uv_index":8.75,"wind_gusts":30.6,"aqi":63,"pm10":21.2,"pm2_5":17.2,"no2":6.7,"co":334.0,"o3":81.0,"so2":2.9,"mosquito_risk":6,"arthritis_risk":5,"migraine_risk":7,"frizz_risk":1,"updated_at":"2026-05-17T02:23:01.629367+05:30"},{"city":"Agartala","state":"Tripura","latitude":23.8315,"longitude":91.2868,"temp":25.8,"humidity":95,"rain":0.0,"pressure":1002.7,"uv_index":8.9,"wind_gusts":38.2,"aqi":67,"pm10":21.1,"pm2_5":14.9,"no2":11.9,"co":176.0,"o3":21.0,"so2":2.1,"mosquito_risk":7,"arthritis_risk":5,"migraine_risk":4,"frizz_risk":1,"updated_at":"2026-05-17T02:23:01.629374+05:30"},{"city":"Shillong","state":"Meghalaya","latitude":25.5788,"longitude":91.8933,"temp":18.6,"humidity":92,"rain":0.1,"pressure":853.8,"uv_index":9.1,"wind_gusts":37.4,"aqi":46,"pm10":13.1,"pm2_5":9.4,"no2":5.5,"co":254.0,"o3":83.0,"so2":3.1,"mosquito_risk":6,"arthritis_risk":10,"migraine_risk":7,"frizz_risk":1,"updated_at":"2026-05-17T02:23:01.629381+05:30"},{"city":"Imphal","state":"Manipur","latitude":24.817,"longitude":93.9368,"temp":20.4,"humidity":100,"rain":0.0,"pressure":920.5,"uv_index":9.0,"wind_gusts":36.4,"aqi":77,"pm10":16.6,"pm2_5":13.3,"no2":13.1,"co":356.0,"o3":43.0,"so2":2.6,"mosquito_risk":3,"arthritis_risk":5,"migraine_risk":7,"frizz_risk":1,"updated_at":"2026-05-17T02:23:01.629388+05:30"},{"city":"Aizawl","state":"Mizoram","latitude":23.7271,"longitude":92.7176,"temp":20.0,"humidity":86,"rain":0.0,"pressure":890.1,"uv_index":9.05,"wind_gusts":34.2,"aqi":54,"pm10":6.8,"pm2_5":4.3,"no2":3.9,"co":152.0,"o3":54.0,"so2":2.1,"mosquito_risk":3,"arthritis_risk":5,"migraine_risk":7,"frizz_risk":1,"updated_at":"2026-05-17T02:23:01.629396+05:30"},{"city":"Kohima","state":"Nagaland","latitude":25.6701,"longitude":94.1077,"temp":15.1,"humidity":97,"rain":0.0,"pressure":850.5,"uv_index":9.2,"wind_gusts":32.4,"aqi":56,"pm10":15.0,"pm2_5":10.7,"no2":8.1,"co":249.0,"o3":45.0,"so2":1.3,"mosquito_risk":3,"arthritis_risk":10,"migraine_risk":7,"frizz_risk":0,"updated_at":"2026-05-17T02:23:01.629405+05:30"},{"city":"Gangtok","state":"Sikkim","latitude":27.3314,"longitude":88.6138,"temp":13.9,"humidity":97,"rain":0.0,"pressure":832.8,"uv_index":8.65,"wind_gusts":39.6,"aqi":53,"pm10":16.8,"pm2_5":15.4,"no2":16.5,"co":631.0,"o3":73.0,"so2":2.0,"mosquito_risk":3,"arthritis_risk":10,"migraine_risk":7,"frizz_risk":0,"updated_at":"2026-05-17T02:23:01.629412+05:30"},{"city":"Siliguri","state":"West Bengal","latitude":26.7271,"longitude":88.3953,"temp":21.5,"humidity":100,"rain":0.2,"pressure":989.6,"uv_index":8.7,"wind_gusts":24.5,"aqi":76,"pm10":28.5,"pm2_5":22.9,"no2":12.5,"co":340.0,"o3":103.0,"so2":3.2,"mosquito_risk":6,"arthritis_risk":5,"migraine_risk":7,"frizz_risk":1,"updated_at":"2026-05-17T02:23:05.017457+05:30"},{"city":"Durgapur","state":"West Bengal","latitude":23.5204,"longitude":87.3119,"temp":27.8,"humidity":86,"rain":0.0,"pressure":990.7,"uv_index":8.95,"wind_gusts":31.7,"aqi":152,"pm10":31.8,"pm2_5":28.2,"no2":23.8,"co":467.0,"o3":42.0,"so2":28.6,"mosquito_risk":7,"arthritis_risk":5,"migraine_risk":7,"frizz_risk":1,"updated_at":"2026-05-17T02:23:05.017487+05:30"},{"city":"Asansol","state":"West Bengal","latitude":23.6739,"longitude":86.9524,"temp":27.6,"humidity":88,"rain":0.0,"pressure":989.3,"uv_index":9.0,"wind_gusts":32.4,"aqi":152,"pm10":44.8,"pm2_5":39.6,"no2":32.1,"co":291.0,"o3":49.0,"so2":43.9,"mosquito_risk":7,"arthritis_risk":5,"migraine_risk":7,"frizz_risk":1,"updated_at":"2026-05-17T02:23:05.017498+05:30"},{"city":"Pondicherry","state":"Puducherry","latitude":11.9139,"longitude":79.8145,"temp":27.6,"humidity":85,"rain":0.0,"pressure":1004.0,"uv_index":8.75,"wind_gusts":43.6,"aqi":67,"pm10":22.8,"pm2_5":16.9,"no2":10.2,"co":354.0,"o3":86.0,"so2":8.9,"mosquito_risk":7,"arthritis_risk":5,"migraine_risk":4,"frizz_risk":1,"updated_at":"2026-05-17T02:23:05.017507+05:30"},{"city":"Port Blair","state":"Andaman and Nicobar Islands","latitude":11.6234,"longitude":92.7265,"temp":25.4,"humidity":93,"rain":0.5,"pressure":1005.0,"uv_index":1.25,"wind_gusts":42.8,"aqi":27,"pm10":13.3,"pm2_5":7.9,"no2":0.2,"co":108.0,"o3":52.0,"so2":0.2,"mosquito_risk":10,"arthritis_risk":5,"migraine_risk":0,"frizz_risk":1,"updated_at":"2026-05-17T02:23:05.017516+05:30"},{"city":"Haridwar","state":"Uttarakhand","latitude":29.9457,"longitude":78.1642,"temp":22.6,"humidity":71,"rain":0.0,"pressure":968.8,"uv_index":7.55,"wind_gusts":42.1,"aqi":90,"pm10":59.8,"pm2_5":48.8,"no2":36.7,"co":396.0,"o3":35.0,"so2":9.1,"mosquito_risk":3,"arthritis_risk":5,"migraine_risk":7,"frizz_risk":1,"updated_at":"2026-05-17T02:23:05.017524+05:30"},{"city":"Rishikesh","state":"Uttarakhand","latitude":30.0869,"longitude":78.2676,"temp":20.0,"humidity":79,"rain":0.0,"pressure":961.3,"uv_index":7.65,"wind_gusts":35.6,"aqi":80,"pm10":57.0,"pm2_5":38.9,"no2":20.8,"co":345.0,"o3":76.0,"so2":6.6,"mosquito_risk":3,"arthritis_risk":5,"migraine_risk":7,"frizz_risk":1,"updated_at":"2026-05-17T02:23:05.017532+05:30"},{"city":"Nainital","state":"Uttarakhand","latitude":29.3919,"longitude":79.4542,"temp":13.6,"humidity":66,"rain":0.0,"pressure":801.2,"uv_index":8.5,"wind_gusts":37.8,"aqi":83,"pm10":48.1,"pm2_5":29.9,"no2":14.5,"co":259.0,"o3":97.0,"so2":5.7,"mosquito_risk":3,"arthritis_risk":5,"migraine_risk":7,"frizz_risk":0,"updated_at":"2026-05-17T02:23:05.017539+05:30"},{"city":"Mussoorie","state":"Uttarakhand","latitude":30.4599,"longitude":78.0664,"temp":15.6,"humidity":57,"rain":0.0,"pressure":799.8,"uv_index":8.05,"wind_gusts":54.0,"aqi":81,"pm10":61.0,"pm2_5":43.2,"no2":47.6,"co":219.0,"o3":29.0,"so2":7.7,"mosquito_risk":0,"arthritis_risk":5,"migraine_risk":7,"frizz_risk":0,"updated_at":"2026-05-17T02:23:05.017547+05:30"},{"city":"Dharamshala","state":"Himachal Pradesh","latitude":32.219,"longitude":76.3234,"temp":20.1,"humidity":44,"rain":0.0,"pressure":866.3,"uv_index":8.4,"wind_gusts":45.7,"aqi":48,"pm10":16.3,"pm2_5":12.1,"no2":15.0,"co":206.0,"o3":34.0,"so2":0.2,"mosquito_risk":0,"arthritis_risk":5,"migraine_risk":7,"frizz_risk":0,"updated_at":"2026-05-17T02:23:05.017554+05:30"},{"city":"Dalhousie","state":"Himachal Pradesh","latitude":32.5387,"longitude":75.971,"temp":11.1,"humidity":73,"rain":0.0,"pressure":799.3,"uv_index":8.65,"wind_gusts":38.9,"aqi":68,"pm10":35.2,"pm2_5":26.9,"no2":44.4,"co":313.0,"o3":12.0,"so2":1.7,"mosquito_risk":3,"arthritis_risk":5,"migraine_risk":7,"frizz_risk":0,"updated_at":"2026-05-17T02:23:05.017562+05:30"},{"city":"Patiala","state":"Punjab","latitude":30.3398,"longitude":76.3869,"temp":27.0,"humidity":44,"rain":0.0,"pressure":974.0,"uv_index":7.6,"wind_gusts":46.8,"aqi":377,"pm10":590.5,"pm2_5":105.5,"no2":11.7,"co":509.0,"o3":77.0,"so2":7.3,"mosquito_risk":4,"arthritis_risk":5,"migraine_risk":7,"frizz_risk":0,"updated_at":"2026-05-17T02:23:05.017569+05:30"},{"city":"Bhatinda","state":"Punjab","latitude":30.211,"longitude":74.9455,"temp":28.4,"humidity":46,"rain":0.0,"pressure":979.6,"uv_index":8.25,"wind_gusts":39.6,"aqi":96,"pm10":67.1,"pm2_5":32.7,"no2":8.7,"co":391.0,"o3":80.0,"so2":6.7,"mosquito_risk":4,"arthritis_risk":5,"migraine_risk":7,"frizz_risk":0,"updated_at":"2026-05-17T02:23:05.017577+05:30"},{"city":"Rohtak","state":"Haryana","latitude":28.8955,"longitude":76.6066,"temp":27.4,"humidity":42,"rain":0.0,"pressure":977.4,"uv_index":7.75,"wind_gusts":44.6,"aqi":589,"pm10":789.8,"pm2_5":164.8,"no2":24.2,"co":384.0,"o3":53.0,"so2":7.7,"mosquito_risk":4,"arthritis_risk":5,"migraine_risk":7,"frizz_risk":0,"updated_at":"2026-05-17T02:23:05.017584+05:30"},{"city":"Panipat","state":"Haryana","latitude":29.3909,"longitude":76.9635,"temp":27.5,"humidity":41,"rain":0.0,"pressure":975.7,"uv_index":7.6,"wind_gusts":54.4,"aqi":1216,"pm10":1367.2,"pm2_5":241.2,"no2":13.9,"co":381.0,"o3":71.0,"so2":7.3,"mosquito_risk":4,"arthritis_risk":5,"migraine_risk":7,"frizz_risk":0,"updated_at":"2026-05-17T02:23:05.017612+05:30"},{"city":"Mathura","state":"Uttar Pradesh","latitude":27.4924,"longitude":77.6737,"temp":29.1,"humidity":37,"rain":0.0,"pressure":982.2,"uv_index":8.0,"wind_gusts":41.4,"aqi":479,"pm10":737.6,"pm2_5":135.5,"no2":20.6,"co":318.0,"o3":52.0,"so2":9.6,"mosquito_risk":4,"arthritis_risk":5,"migraine_risk":7,"frizz_risk":0,"updated_at":"2026-05-17T02:23:05.017621+05:30"},{"city":"Vrindavan","state":"Uttar Pradesh","latitude":27.5823,"longitude":77.7027,"temp":28.0,"humidity":41,"rain":0.0,"pressure":982.5,"uv_index":7.95,"wind_gusts":39.6,"aqi":479,"pm10":737.6,"pm2_5":135.5,"no2":20.6,"co":330.0,"o3":52.0,"so2":9.6,"mosquito_risk":4,"arthritis_risk":5,"migraine_risk":7,"frizz_risk":0,"updated_at":"2026-05-17T02:23:05.017627+05:30"},{"city":"Ayodhya","state":"Uttar Pradesh","latitude":26.7922,"longitude":82.1998,"temp":27.2,"humidity":57,"rain":0.0,"pressure":990.0,"uv_index":8.35,"wind_gusts":41.8,"aqi":156,"pm10":145.3,"pm2_5":61.0,"no2":25.4,"co":366.0,"o3":51.0,"so2":11.3,"mosquito_risk":4,"arthritis_risk":5,"migraine_risk":7,"frizz_risk":1,"updated_at":"2026-05-17T02:23:05.017635+05:30"},{"city":"Ratlam","state":"Madhya Pradesh","latitude":23.3315,"longitude":75.0367,"temp":28.5,"humidity":37,"rain":0.0,"pressure":950.9,"uv_index":8.55,"wind_gusts":31.0,"aqi":56,"pm10":35.3,"pm2_5":19.3,"no2":3.5,"co":177.0,"o3":78.0,"so2":3.4,"mosquito_risk":4,"arthritis_risk":5,"migraine_risk":7,"frizz_risk":0,"updated_at":"2026-05-17T02:23:05.017642+05:30"},{"city":"Sagar","state":"Madhya Pradesh","latitude":23.8388,"longitude":78.7378,"temp":30.6,"humidity":32,"rain":0.0,"pressure":946.3,"uv_index":8.75,"wind_gusts":37.8,"aqi":74,"pm10":38.6,"pm2_5":21.2,"no2":22.8,"co":241.0,"o3":45.0,"so2":4.3,"mosquito_risk":0,"arthritis_risk":5,"migraine_risk":7,"frizz_risk":0,"updated_at":"2026-05-17T02:23:05.017648+05:30"},{"city":"Satna","state":"Madhya Pradesh","latitude":24.6005,"longitude":80.8322,"temp":29.6,"humidity":37,"rain":0.0,"pressure":967.1,"uv_index":8.8,"wind_gusts":46.4,"aqi":113,"pm10":88.7,"pm2_5":35.7,"no2":24.1,"co":423.0,"o3":65.0,"so2":5.2,"mosquito_risk":4,"arthritis_risk":5,"migraine_risk":7,"frizz_risk":0,"updated_at":"2026-05-17T02:23:05.017655+05:30"},{"city":"Akola","state":"Maharashtra","latitude":20.7002,"longitude":77.0082,"temp":32.9,"humidity":27,"rain":0.0,"pressure":970.5,"uv_index":8.9,"wind_gusts":31.3,"aqi":54,"pm10":24.3,"pm2_5":17.9,"no2":10.3,"co":249.0,"o3":70.0,"so2":5.8,"mosquito_risk":0,"arthritis_risk":5,"migraine_risk":7,"frizz_risk":0,"updated_at":"2026-05-17T02:23:05.017663+05:30"},{"city":"Amravati","state":"Maharashtra","latitude":20.9374,"longitude":77.7796,"temp":32.8,"humidity":36,"rain":0.0,"pressure":962.9,"uv_index":8.95,"wind_gusts":32.8,"aqi":53,"pm10":24.3,"pm2_5":18.8,"no2":13.6,"co":292.0,"o3":64.0,"so2":4.7,"mosquito_risk":0,"arthritis_risk":5,"migraine_risk":7,"frizz_risk":0,"updated_at":"2026-05-17T02:23:05.017672+05:30"},{"city":"Latur","state":"Maharashtra","latitude":18.4088,"longitude":76.5604,"temp":28.8,"humidity":50,"rain":0.0,"pressure":936.2,"uv_index":9.1,"wind_gusts":36.7,"aqi":63,"pm10":38.1,"pm2_5":26.3,"no2":26.6,"co":533.0,"o3":73.0,"so2":13.7,"mosquito_risk":4,"arthritis_risk":5,"migraine_risk":7,"frizz_risk":1,"updated_at":"2026-05-17T02:23:05.017679+05:30"},{"city":"Nanded","state":"Maharashtra","latitude":19.1383,"longitude":77.3091,"temp":29.4,"humidity":45,"rain":0.0,"pressure":964.2,"uv_index":9.05,"wind_gusts":34.6,"aqi":72,"pm10":35.4,"pm2_5":28.8,"no2":28.0,"co":698.0,"o3":43.0,"so2":7.0,"mosquito_risk":4,"arthritis_risk":5,"migraine_risk":7,"frizz_risk":1,"updated_at":"2026-05-17T02:23:05.017686+05:30"},{"city":"Gulbarga","state":"Karnataka","latitude":17.3297,"longitude":76.8343,"temp":28.4,"humidity":58,"rain":0.0,"pressure":954.8,"uv_index":9.15,"wind_gusts":32.8,"aqi":82,"pm10":54.0,"pm2_5":41.1,"no2":13.9,"co":316.0,"o3":73.0,"so2":12.6,"mosquito_risk":4,"arthritis_risk":5,"migraine_risk":7,"frizz_risk":1,"updated_at":"2026-05-17T02:23:05.017693+05:30"},{"city":"Bidar","state":"Karnataka","latitude":17.9104,"longitude":77.5199,"temp":27.2,"humidity":61,"rain":0.0,"pressure":931.8,"uv_index":9.15,"wind_gusts":37.1,"aqi":89,"pm10":49.6,"pm2_5":39.3,"no2":14.2,"co":336.0,"o3":75.0,"so2":5.4,"mosquito_risk":7,"arthritis_risk":5,"migraine_risk":7,"frizz_risk":1,"updated_at":"2026-05-17T02:23:05.017700+05:30"},{"city":"Hospet","state":"Karnataka","latitude":15.2689,"longitude":76.3909,"temp":25.9,"humidity":87,"rain":0.0,"pressure":952.4,"uv_index":9.2,"wind_gusts":41.4,"aqi":95,"pm10":15.4,"pm2_5":13.2,"no2":10.5,"co":284.0,"o3":62.0,"so2":2.6,"mosquito_risk":7,"arthritis_risk":5,"migraine_risk":7,"frizz_risk":1,"updated_at":"2026-05-17T02:23:05.017706+05:30"},{"city":"Tirupur","state":"Tamil Nadu","latitude":11.1085,"longitude":77.3411,"temp":24.6,"humidity":90,"rain":0.0,"pressure":971.2,"uv_index":8.65,"wind_gusts":49.3,"aqi":115,"pm10":55.2,"pm2_5":41.3,"no2":34.2,"co":252.0,"o3":56.0,"so2":7.3,"mosquito_risk":3,"arthritis_risk":5,"migraine_risk":7,"frizz_risk":1,"updated_at":"2026-05-17T02:23:05.017714+05:30"},{"city":"Alappuzha","state":"Kerala","latitude":9.4981,"longitude":76.3388,"temp":25.8,"humidity":99,"rain":0.0,"pressure":1005.5,"uv_index":8.3,"wind_gusts":27.4,"aqi":59,"pm10":25.9,"pm2_5":18.9,"no2":15.2,"co":294.0,"o3":64.0,"so2":6.8,"mosquito_risk":7,"arthritis_risk":5,"migraine_risk":4,"frizz_risk":1,"updated_at":"2026-05-17T02:23:05.017720+05:30"},{"city":"Munnar","state":"Kerala","latitude":10.0889,"longitude":77.0595,"temp":17.8,"humidity":99,"rain":0.0,"pressure":853.1,"uv_index":7.3,"wind_gusts":23.8,"aqi":66,"pm10":25.7,"pm2_5":20.1,"no2":17.4,"co":287.0,"o3":16.0,"so2":1.5,"mosquito_risk":3,"arthritis_risk":10,"migraine_risk":7,"frizz_risk":1,"updated_at":"2026-05-17T02:23:05.017728+05:30"},{"city":"Silchar","state":"Assam","latitude":24.8333,"longitude":92.7789,"temp":23.8,"humidity":98,"rain":0.2,"pressure":1002.6,"uv_index":8.9,"wind_gusts":28.8,"aqi":70,"pm10":24.7,"pm2_5":16.6,"no2":4.0,"co":226.0,"o3":89.0,"so2":2.6,"mosquito_risk":6,"arthritis_risk":5,"migraine_risk":4,"frizz_risk":1,"updated_at":"2026-05-17T02:23:05.017735+05:30"},{"city":"Dibrugarh","state":"Assam","latitude":27.4728,"longitude":94.912,"temp":21.9,"humidity":96,"rain":0.3,"pressure":993.0,"uv_index":8.4,"wind_gusts":22.7,"aqi":72,"pm10":16.4,"pm2_5":12.8,"no2":10.9,"co":258.0,"o3":56.0,"so2":0.8,"mosquito_risk":6,"arthritis_risk":5,"migraine_risk":7,"frizz_risk":1,"updated_at":"2026-05-17T02:23:05.017742+05:30"}]