[{"city":"Delhi","state":"Delhi","latitude":28.6139,"longitude":77.209,"temp":38.4,"humidity":21,"rain":0.0,"pressure":976.4,"uv_index":7.7,"wind_gusts":33.1,"aqi":196,"pm10":254.3,"pm2_5":75.2,"no2":6.4,"co":339.0,"o3":235.0,"so2":27.7,"mosquito_risk":0,"arthritis_risk":5,"migraine_risk":10,"frizz_risk":0,"updated_at":"2026-05-14T15:51:31.227813+05:30"},{"city":"Mumbai","state":"Maharashtra","latitude":19.076,"longitude":72.8777,"temp":32.8,"humidity":61,"rain":0.0,"pressure":1002.5,"uv_index":7.9,"wind_gusts":45.7,"aqi":80,"pm10":26.7,"pm2_5":18.5,"no2":7.3,"co":223.0,"o3":105.0,"so2":4.5,"mosquito_risk":3,"arthritis_risk":5,"migraine_risk":4,"frizz_risk":1,"updated_at":"2026-05-14T15:51:31.227854+05:30"},{"city":"Bangalore","state":"Karnataka","latitude":12.9716,"longitude":77.5946,"temp":34.8,"humidity":25,"rain":0.0,"pressure":907.3,"uv_index":8.45,"wind_gusts":41.8,"aqi":89,"pm10":58.4,"pm2_5":25.5,"no2":8.8,"co":297.0,"o3":119.0,"so2":5.4,"mosquito_risk":0,"arthritis_risk":5,"migraine_risk":7,"frizz_risk":0,"updated_at":"2026-05-14T15:51:31.227870+05:30"},{"city":"Hyderabad","state":"Telangana","latitude":17.385,"longitude":78.4867,"temp":38.6,"humidity":25,"rain":0.0,"pressure":947.2,"uv_index":8.05,"wind_gusts":25.6,"aqi":85,"pm10":62.2,"pm2_5":33.4,"no2":2.8,"co":294.0,"o3":167.0,"so2":6.8,"mosquito_risk":0,"arthritis_risk":5,"migraine_risk":10,"frizz_risk":0,"updated_at":"2026-05-14T15:51:31.227879+05:30"},{"city":"Chennai","state":"Tamil Nadu","latitude":13.0827,"longitude":80.2707,"temp":32.8,"humidity":61,"rain":0.0,"pressure":1000.3,"uv_index":8.8,"wind_gusts":42.8,"aqi":27,"pm10":12.9,"pm2_5":7.1,"no2":2.5,"co":160.0,"o3":58.0,"so2":4.6,"mosquito_risk":3,"arthritis_risk":5,"migraine_risk":4,"frizz_risk":1,"updated_at":"2026-05-14T15:51:31.227887+05:30"},{"city":"Kolkata","state":"West Bengal","latitude":22.5726,"longitude":88.3639,"temp":32.2,"humidity":66,"rain":0.1,"pressure":998.8,"uv_index":8.95,"wind_gusts":37.8,"aqi":47,"pm10":17.7,"pm2_5":11.2,"no2":3.3,"co":231.0,"o3":75.0,"so2":4.7,"mosquito_risk":6,"arthritis_risk":5,"migraine_risk":7,"frizz_risk":1,"updated_at":"2026-05-14T15:51:31.227896+05:30"},{"city":"Pune","state":"Maharashtra","latitude":18.5204,"longitude":73.8567,"temp":37.2,"humidity":23,"rain":0.1,"pressure":942.9,"uv_index":4.25,"wind_gusts":44.3,"aqi":84,"pm10":61.2,"pm2_5":32.6,"no2":3.0,"co":243.0,"o3":167.0,"so2":12.0,"mosquito_risk":3,"arthritis_risk":5,"migraine_risk":6,"frizz_risk":0,"updated_at":"2026-05-14T15:51:31.227903+05:30"},{"city":"Ahmedabad","state":"Gujarat","latitude":23.0225,"longitude":72.5714,"temp":43.5,"humidity":14,"rain":0.0,"pressure":993.7,"uv_index":8.15,"wind_gusts":44.6,"aqi":66,"pm10":41.1,"pm2_5":11.7,"no2":1.4,"co":166.0,"o3":108.0,"so2":1.9,"mosquito_risk":0,"arthritis_risk":5,"migraine_risk":10,"frizz_risk":0,"updated_at":"2026-05-14T15:51:31.227910+05:30"},{"city":"Jaipur","state":"Rajasthan","latitude":26.9124,"longitude":75.7873,"temp":39.6,"humidity":18,"rain":0.0,"pressure":953.7,"uv_index":8.25,"wind_gusts":30.6,"aqi":116,"pm10":150.4,"pm2_5":32.0,"no2":0.1,"co":167.0,"o3":136.0,"so2":2.6,"mosquito_risk":0,"arthritis_risk":5,"migraine_risk":10,"frizz_risk":0,"updated_at":"2026-05-14T15:51:31.227921+05:30"},{"city":"Lucknow","state":"Uttar Pradesh","latitude":26.8467,"longitude":80.9462,"temp":37.2,"humidity":36,"rain":0.0,"pressure":986.2,"uv_index":8.2,"wind_gusts":24.8,"aqi":154,"pm10":168.1,"pm2_5":55.6,"no2":3.1,"co":352.0,"o3":192.0,"so2":13.3,"mosquito_risk":0,"arthritis_risk":5,"migraine_risk":10,"frizz_risk":1,"updated_at":"2026-05-14T15:51:31.227929+05:30"},{"city":"Kanpur","state":"Uttar Pradesh","latitude":26.4499,"longitude":80.3319,"temp":39.2,"humidity":25,"rain":0.0,"pressure":984.2,"uv_index":8.2,"wind_gusts":27.4,"aqi":155,"pm10":339.9,"pm2_5":67.1,"no2":2.3,"co":287.0,"o3":168.0,"so2":10.4,"mosquito_risk":0,"arthritis_risk":5,"migraine_risk":10,"frizz_risk":0,"updated_at":"2026-05-14T15:51:31.227935+05:30"},{"city":"Chandigarh","state":"Chandigarh","latitude":30.7333,"longitude":76.7794,"temp":36.8,"humidity":22,"rain":0.0,"pressure":962.6,"uv_index":7.65,"wind_gusts":30.2,"aqi":121,"pm10":42.0,"pm2_5":21.8,"no2":2.8,"co":253.0,"o3":158.0,"so2":8.9,"mosquito_risk":0,"arthritis_risk":5,"migraine_risk":10,"frizz_risk":0,"updated_at":"2026-05-14T15:51:31.227942+05:30"},{"city":"Srinagar","state":"Jammu and Kashmir","latitude":34.0837,"longitude":74.7973,"temp":22.4,"humidity":41,"rain":0.0,"pressure":841.5,"uv_index":8.5,"wind_gusts":20.5,"aqi":70,"pm10":15.0,"pm2_5":7.4,"no2":1.6,"co":287.0,"o3":133.0,"so2":1.9,"mosquito_risk":0,"arthritis_risk":5,"migraine_risk":7,"frizz_risk":0,"updated_at":"2026-05-14T15:51:31.227949+05:30"},{"city":"Jammu","state":"Jammu and Kashmir","latitude":32.7266,"longitude":74.857,"temp":35.2,"humidity":23,"rain":0.0,"pressure":966.9,"uv_index":8.4,"wind_gusts":31.7,"aqi":80,"pm10":39.9,"pm2_5":17.8,"no2":1.3,"co":225.0,"o3":142.0,"so2":2.3,"mosquito_risk":0,"arthritis_risk":5,"migraine_risk":10,"frizz_risk":0,"updated_at":"2026-05-14T15:51:31.227955+05:30"},{"city":"Amritsar","state":"Punjab","latitude":31.634,"longitude":74.8723,"temp":37.2,"humidity":21,"rain":0.0,"pressure":974.4,"uv_index":8.3,"wind_gusts":32.8,"aqi":113,"pm10":65.9,"pm2_5":28.2,"no2":1.3,"co":234.0,"o3":171.0,"so2":5.5,"mosquito_risk":0,"arthritis_risk":5,"migraine_risk":10,"frizz_risk":0,"updated_at":"2026-05-14T15:51:31.227961+05:30"},{"city":"Ludhiana","state":"Punjab","latitude":30.901,"longitude":75.8573,"temp":37.8,"humidity":21,"rain":0.0,"pressure":972.0,"uv_index":7.9,"wind_gusts":46.8,"aqi":153,"pm10":76.6,"pm2_5":31.9,"no2":1.6,"co":230.0,"o3":153.0,"so2":4.1,"mosquito_risk":0,"arthritis_risk":5,"migraine_risk":10,"frizz_risk":0,"updated_at":"2026-05-14T15:51:31.227968+05:30"},{"city":"Jalandhar","state":"Punjab","latitude":31.326,"longitude":75.5762,"temp":36.8,"humidity":23,"rain":0.0,"pressure":973.2,"uv_index":8.1,"wind_gusts":36.4,"aqi":115,"pm10":79.4,"pm2_5":30.3,"no2":1.6,"co":311.0,"o3":151.0,"so2":3.2,"mosquito_risk":0,"arthritis_risk":5,"migraine_risk":10,"frizz_risk":0,"updated_at":"2026-05-14T15:51:31.227974+05:30"},{"city":"Dehradun","state":"Uttarakhand","latitude":30.6284,"longitude":78.0322,"temp":23.4,"humidity":52,"rain":0.0,"pressure":829.3,"uv_index":8.1,"wind_gusts":40.7,"aqi":98,"pm10":22.7,"pm2_5":13.1,"no2":0.3,"co":272.0,"o3":153.0,"so2":3.6,"mosquito_risk":0,"arthritis_risk":5,"migraine_risk":7,"frizz_risk":0,"updated_at":"2026-05-14T15:51:31.227981+05:30"},{"city":"Shimla","state":"Himachal Pradesh","latitude":31.1048,"longitude":77.1734,"temp":20.8,"humidity":35,"rain":0.0,"pressure":784.0,"uv_index":8.15,"wind_gusts":51.5,"aqi":94,"pm10":18.3,"pm2_5":9.2,"no2":0.7,"co":167.0,"o3":137.0,"so2":3.0,"mosquito_risk":0,"arthritis_risk":5,"migraine_risk":7,"frizz_risk":0,"updated_at":"2026-05-14T15:51:31.227989+05:30"},{"city":"Manali","state":"Himachal Pradesh","latitude":32.2396,"longitude":77.1887,"temp":19.8,"humidity":42,"rain":0.0,"pressure":816.8,"uv_index":9.95,"wind_gusts":43.6,"aqi":100,"pm10":18.2,"pm2_5":7.7,"no2":0.6,"co":145.0,"o3":149.0,"so2":0.5,"mosquito_risk":0,"arthritis_risk":5,"migraine_risk":7,"frizz_risk":0,"updated_at":"2026-05-14T15:51:31.227996+05:30"},{"city":"Gurgaon","state":"Haryana","latitude":28.4595,"longitude":77.0266,"temp":38.3,"humidity":21,"rain":0.0,"pressure":975.0,"uv_index":7.8,"wind_gusts":36.0,"aqi":455,"pm10":445.2,"pm2_5":96.9,"no2":8.0,"co":280.0,"o3":220.0,"so2":26.1,"mosquito_risk":0,"arthritis_risk":5,"migraine_risk":10,"frizz_risk":0,"updated_at":"2026-05-14T15:51:31.228002+05:30"},{"city":"Noida","state":"Uttar Pradesh","latitude":28.5355,"longitude":77.391,"temp":36.8,"humidity":30,"rain":0.0,"pressure":977.6,"uv_index":7.7,"wind_gusts":27.7,"aqi":455,"pm10":445.2,"pm2_5":96.9,"no2":8.0,"co":370.0,"o3":220.0,"so2":26.1,"mosquito_risk":0,"arthritis_risk":5,"migraine_risk":10,"frizz_risk":1,"updated_at":"2026-05-14T15:51:31.228009+05:30"},{"city":"Ghaziabad","state":"Uttar Pradesh","latitude":28.6692,"longitude":77.4538,"temp":37.1,"humidity":30,"rain":0.0,"pressure":976.0,"uv_index":7.7,"wind_gusts":27.7,"aqi":185,"pm10":240.3,"pm2_5":70.3,"no2":4.2,"co":456.0,"o3":225.0,"so2":26.6,"mosquito_risk":0,"arthritis_risk":5,"migraine_risk":10,"frizz_risk":1,"updated_at":"2026-05-14T15:51:31.228015+05:30"},{"city":"Faridabad","state":"Haryana","latitude":28.4089,"longitude":77.3178,"temp":37.7,"humidity":23,"rain":0.0,"pressure":977.1,"uv_index":7.75,"wind_gusts":36.0,"aqi":455,"pm10":445.2,"pm2_5":96.9,"no2":8.0,"co":288.0,"o3":220.0,"so2":26.1,"mosquito_risk":0,"arthritis_risk":5,"migraine_risk":10,"frizz_risk":0,"updated_at":"2026-05-14T15:51:31.228022+05:30"},{"city":"Meerut","state":"Uttar Pradesh","latitude":28.9845,"longitude":77.7064,"temp":37.0,"humidity":28,"rain":0.0,"pressure":975.4,"uv_index":7.6,"wind_gusts":23.0,"aqi":185,"pm10":240.3,"pm2_5":70.3,"no2":4.2,"co":368.0,"o3":225.0,"so2":26.6,"mosquito_risk":0,"arthritis_risk":5,"migraine_risk":10,"frizz_risk":0,"updated_at":"2026-05-14T15:51:31.228030+05:30"},{"city":"Agra","state":"Uttar Pradesh","latitude":27.1767,"longitude":78.0081,"temp":39.7,"humidity":23,"rain":0.0,"pressure":980.7,"uv_index":8.05,"wind_gusts":28.8,"aqi":217,"pm10":403.3,"pm2_5":61.0,"no2":4.4,"co":262.0,"o3":143.0,"so2":5.8,"mosquito_risk":0,"arthritis_risk":5,"migraine_risk":10,"frizz_risk":0,"updated_at":"2026-05-14T15:51:31.228037+05:30"},{"city":"Varanasi","state":"Uttar Pradesh","latitude":25.3176,"longitude":82.9739,"temp":38.0,"humidity":33,"rain":0.0,"pressure":989.2,"uv_index":8.75,"wind_gusts":26.6,"aqi":155,"pm10":140.6,"pm2_5":47.6,"no2":2.7,"co":311.0,"o3":186.0,"so2":12.3,"mosquito_risk":0,"arthritis_risk":5,"migraine_risk":10,"frizz_risk":1,"updated_at":"2026-05-14T15:51:31.228044+05:30"},{"city":"Prayagraj","state":"Uttar Pradesh","latitude":25.4358,"longitude":81.8463,"temp":40.0,"humidity":25,"rain":0.0,"pressure":987.5,"uv_index":8.6,"wind_gusts":27.4,"aqi":158,"pm10":126.7,"pm2_5":44.9,"no2":2.6,"co":270.0,"o3":182.0,"so2":12.3,"mosquito_risk":0,"arthritis_risk":5,"migraine_risk":10,"frizz_risk":1,"updated_at":"2026-05-14T15:51:31.228051+05:30"},{"city":"Gorakhpur","state":"Uttar Pradesh","latitude":26.7606,"longitude":83.3732,"temp":33.2,"humidity":51,"rain":0.0,"pressure":990.0,"uv_index":8.6,"wind_gusts":34.6,"aqi":126,"pm10":76.4,"pm2_5":43.3,"no2":1.7,"co":359.0,"o3":177.0,"so2":10.2,"mosquito_risk":0,"arthritis_risk":5,"migraine_risk":7,"frizz_risk":1,"updated_at":"2026-05-14T15:51:31.228059+05:30"},{"city":"Bareilly","state":"Uttar Pradesh","latitude":28.367,"longitude":79.4304,"temp":34.5,"humidity":45,"rain":0.0,"pressure":980.4,"uv_index":8.0,"wind_gusts":34.9,"aqi":158,"pm10":213.3,"pm2_5":70.3,"no2":2.1,"co":366.0,"o3":189.0,"so2":14.9,"mosquito_risk":0,"arthritis_risk":5,"migraine_risk":7,"frizz_risk":1,"updated_at":"2026-05-14T15:51:31.228065+05:30"},{"city":"Aligarh","state":"Uttar Pradesh","latitude":27.8974,"longitude":78.088,"temp":37.3,"humidity":31,"rain":0.0,"pressure":979.0,"uv_index":7.85,"wind_gusts":48.6,"aqi":168,"pm10":366.0,"pm2_5":73.6,"no2":3.3,"co":312.0,"o3":169.0,"so2":13.5,"mosquito_risk":0,"arthritis_risk":5,"migraine_risk":10,"frizz_risk":1,"updated_at":"2026-05-14T15:51:31.228071+05:30"},{"city":"Moradabad","state":"Uttar Pradesh","latitude":28.8386,"longitude":78.7733,"temp":34.8,"humidity":41,"rain":0.0,"pressure":977.5,"uv_index":7.8,"wind_gusts":53.3,"aqi":169,"pm10":180.7,"pm2_5":68.2,"no2":3.7,"co":380.0,"o3":198.0,"so2":18.0,"mosquito_risk":0,"arthritis_risk":5,"migraine_risk":7,"frizz_risk":1,"updated_at":"2026-05-14T15:51:31.228077+05:30"},{"city":"Saharanpur","state":"Uttar Pradesh","latitude":29.9637,"longitude":77.546,"temp":34.2,"humidity":43,"rain":0.0,"pressure":969.8,"uv_index":7.3,"wind_gusts":28.4,"aqi":150,"pm10":67.8,"pm2_5":34.8,"no2":5.1,"co":347.0,"o3":177.0,"so2":12.0,"mosquito_risk":0,"arthritis_risk":5,"migraine_risk":7,"frizz_risk":1,"updated_at":"2026-05-14T15:51:31.228085+05:30"},{"city":"Jhansi","state":"Uttar Pradesh","latitude":25.4484,"longitude":78.5685,"temp":39.8,"humidity":19,"rain":0.0,"pressure":971.2,"uv_index":8.5,"wind_gusts":32.4,"aqi":84,"pm10":56.8,"pm2_5":19.6,"no2":1.1,"co":157.0,"o3":132.0,"so2":4.8,"mosquito_risk":0,"arthritis_risk":5,"migraine_risk":10,"frizz_risk":0,"updated_at":"2026-05-14T15:51:34.457247+05:30"},{"city":"Surat","state":"Gujarat","latitude":21.1702,"longitude":72.8311,"temp":37.8,"humidity":36,"rain":0.0,"pressure":999.2,"uv_index":7.75,"wind_gusts":43.2,"aqi":89,"pm10":38.4,"pm2_5":31.1,"no2":24.1,"co":539.0,"o3":102.0,"so2":58.8,"mosquito_risk":0,"arthritis_risk":5,"migraine_risk":10,"frizz_risk":1,"updated_at":"2026-05-14T15:51:34.457278+05:30"},{"city":"Vadodara","state":"Gujarat","latitude":22.3072,"longitude":73.1812,"temp":43.8,"humidity":13,"rain":0.0,"pressure":995.5,"uv_index":8.15,"wind_gusts":38.5,"aqi":79,"pm10":48.7,"pm2_5":19.1,"no2":1.8,"co":193.0,"o3":147.0,"so2":7.7,"mosquito_risk":0,"arthritis_risk":5,"migraine_risk":10,"frizz_risk":0,"updated_at":"2026-05-14T15:51:34.457289+05:30"},{"city":"Rajkot","state":"Gujarat","latitude":22.3039,"longitude":70.8022,"temp":39.2,"humidity":18,"rain":0.0,"pressure":988.2,"uv_index":7.8,"wind_gusts":58.7,"aqi":56,"pm10":20.2,"pm2_5":10.5,"no2":1.2,"co":146.0,"o3":114.0,"so2":3.5,"mosquito_risk":0,"arthritis_risk":5,"migraine_risk":10,"frizz_risk":0,"updated_at":"2026-05-14T15:51:34.457297+05:30"},{"city":"Thane","state":"Maharashtra","latitude":19.2183,"longitude":72.9781,"temp":36.0,"humidity":42,"rain":0.0,"pressure":1001.4,"uv_index":7.95,"wind_gusts":40.7,"aqi":80,"pm10":26.7,"pm2_5":18.5,"no2":7.3,"co":191.0,"o3":105.0,"so2":4.5,"mosquito_risk":0,"arthritis_risk":5,"migraine_risk":7,"frizz_risk":1,"updated_at":"2026-05-14T15:51:34.457305+05:30"},{"city":"Nagpur","state":"Maharashtra","latitude":21.1458,"longitude":79.0882,"temp":43.2,"humidity":17,"rain":0.0,"pressure":965.2,"uv_index":8.95,"wind_gusts":34.9,"aqi":136,"pm10":67.8,"pm2_5":37.1,"no2":4.5,"co":226.0,"o3":183.0,"so2":22.3,"mosquito_risk":0,"arthritis_risk":5,"migraine_risk":10,"frizz_risk":0,"updated_at":"2026-05-14T15:51:34.457312+05:30"},{"city":"Nashik","state":"Maharashtra","latitude":19.9975,"longitude":73.7898,"temp":38.0,"humidity":22,"rain":0.0,"pressure":940.8,"uv_index":8.25,"wind_gusts":42.8,"aqi":74,"pm10":41.3,"pm2_5":15.5,"no2":1.2,"co":174.0,"o3":122.0,"so2":1.9,"mosquito_risk":0,"arthritis_risk":5,"migraine_risk":10,"frizz_risk":0,"updated_at":"2026-05-14T15:51:34.457320+05:30"},{"city":"Aurangabad","state":"Maharashtra","latitude":19.8762,"longitude":75.3433,"temp":40.0,"humidity":17,"rain":0.0,"pressure":938.6,"uv_index":9.1,"wind_gusts":38.5,"aqi":78,"pm10":70.1,"pm2_5":31.5,"no2":0.8,"co":186.0,"o3":139.0,"so2":3.8,"mosquito_risk":0,"arthritis_risk":5,"migraine_risk":10,"frizz_risk":0,"updated_at":"2026-05-14T15:51:34.457327+05:30"},{"city":"Solapur","state":"Maharashtra","latitude":17.6599,"longitude":75.9064,"temp":39.2,"humidity":24,"rain":0.0,"pressure":950.7,"uv_index":8.65,"wind_gusts":31.7,"aqi":113,"pm10":75.0,"pm2_5":36.7,"no2":1.4,"co":206.0,"o3":154.0,"so2":6.6,"mosquito_risk":0,"arthritis_risk":5,"migraine_risk":10,"frizz_risk":0,"updated_at":"2026-05-14T15:51:34.457335+05:30"},{"city":"Kolhapur","state":"Maharashtra","latitude":16.705,"longitude":74.2433,"temp":33.3,"humidity":46,"rain":0.0,"pressure":942.4,"uv_index":8.95,"wind_gusts":42.8,"aqi":84,"pm10":73.1,"pm2_5":37.4,"no2":2.5,"co":199.0,"o3":150.0,"so2":4.7,"mosquito_risk":0,"arthritis_risk":5,"migraine_risk":7,"frizz_risk":1,"updated_at":"2026-05-14T15:51:34.457342+05:30"},{"city":"Goa","state":"Goa","latitude":15.2993,"longitude":74.124,"temp":34.3,"humidity":61,"rain":0.0,"pressure":991.3,"uv_index":6.1,"wind_gusts":36.0,"aqi":85,"pm10":46.8,"pm2_5":22.1,"no2":0.9,"co":146.0,"o3":88.0,"so2":1.1,"mosquito_risk":3,"arthritis_risk":5,"migraine_risk":7,"frizz_risk":1,"updated_at":"2026-05-14T15:51:34.457350+05:30"},{"city":"Jodhpur","state":"Rajasthan","latitude":26.2389,"longitude":73.0243,"temp":42.1,"humidity":17,"rain":0.0,"pressure":974.6,"uv_index":8.4,"wind_gusts":32.8,"aqi":112,"pm10":165.3,"pm2_5":37.1,"no2":0.4,"co":151.0,"o3":131.0,"so2":3.9,"mosquito_risk":0,"arthritis_risk":5,"migraine_risk":10,"frizz_risk":0,"updated_at":"2026-05-14T15:51:34.457357+05:30"},{"city":"Udaipur","state":"Rajasthan","latitude":24.5854,"longitude":73.7125,"temp":39.3,"humidity":16,"rain":0.0,"pressure":940.4,"uv_index":8.85,"wind_gusts":37.4,"aqi":74,"pm10":43.5,"pm2_5":17.1,"no2":0.5,"co":140.0,"o3":121.0,"so2":2.8,"mosquito_risk":0,"arthritis_risk":5,"migraine_risk":10,"frizz_risk":0,"updated_at":"2026-05-14T15:51:34.457365+05:30"},{"city":"Kota","state":"Rajasthan","latitude":25.2138,"longitude":75.8648,"temp":42.8,"humidity":14,"rain":0.0,"pressure":970.7,"uv_index":8.4,"wind_gusts":33.8,"aqi":77,"pm10":63.6,"pm2_5":27.4,"no2":0.5,"co":173.0,"o3":141.0,"so2":5.1,"mosquito_risk":0,"arthritis_risk":5,"migraine_risk":10,"frizz_risk":0,"updated_at":"2026-05-14T15:51:34.457372+05:30"},{"city":"Bikaner","state":"Rajasthan","latitude":28.0229,"longitude":73.3119,"temp":42.7,"humidity":13,"rain":0.0,"pressure":973.4,"uv_index":8.35,"wind_gusts":50.8,"aqi":89,"pm10":92.7,"pm2_5":26.8,"no2":0.3,"co":194.0,"o3":110.0,"so2":2.9,"mosquito_risk":0,"arthritis_risk":5,"migraine_risk":10,"frizz_risk":0,"updated_at":"2026-05-14T15:51:34.457379+05:30"},{"city":"Ajmer","state":"Rajasthan","latitude":26.4499,"longitude":74.6399,"temp":38.6,"humidity":19,"rain":0.0,"pressure":948.5,"uv_index":8.4,"wind_gusts":34.2,"aqi":77,"pm10":42.5,"pm2_5":19.2,"no2":0.4,"co":148.0,"o3":131.0,"so2":2.4,"mosquito_risk":0,"arthritis_risk":5,"migraine_risk":10,"frizz_risk":0,"updated_at":"2026-05-14T15:51:34.457387+05:30"},{"city":"Gwalior","state":"Madhya Pradesh","latitude":26.2183,"longitude":78.1828,"temp":40.0,"humidity":18,"rain":0.0,"pressure":976.2,"uv_index":8.25,"wind_gusts":30.6,"aqi":103,"pm10":78.2,"pm2_5":23.3,"no2":0.6,"co":170.0,"o3":124.0,"so2":3.0,"mosquito_risk":0,"arthritis_risk":5,"migraine_risk":10,"frizz_risk":0,"updated_at":"2026-05-14T15:51:34.457394+05:30"},{"city":"Indore","state":"Madhya Pradesh","latitude":22.7196,"longitude":75.8577,"temp":40.8,"humidity":14,"rain":0.0,"pressure":942.1,"uv_index":8.75,"wind_gusts":41.4,"aqi":87,"pm10":60.5,"pm2_5":28.3,"no2":1.2,"co":209.0,"o3":138.0,"so2":5.2,"mosquito_risk":0,"arthritis_risk":5,"migraine_risk":10,"frizz_risk":0,"updated_at":"2026-05-14T15:51:34.457402+05:30"},{"city":"Bhopal","state":"Madhya Pradesh","latitude":23.2599,"longitude":77.4126,"temp":41.3,"humidity":15,"rain":0.0,"pressure":947.2,"uv_index":8.75,"wind_gusts":34.9,"aqi":85,"pm10":51.1,"pm2_5":26.2,"no2":0.9,"co":187.0,"o3":144.0,"so2":5.1,"mosquito_risk":0,"arthritis_risk":5,"migraine_risk":10,"frizz_risk":0,"updated_at":"2026-05-14T15:51:34.457409+05:30"},{"city":"Jabalpur","state":"Madhya Pradesh","latitude":23.1815,"longitude":79.9864,"temp":40.8,"humidity":17,"rain":0.0,"pressure":954.7,"uv_index":8.9,"wind_gusts":40.0,"aqi":105,"pm10":50.2,"pm2_5":22.0,"no2":0.6,"co":179.0,"o3":140.0,"so2":3.9,"mosquito_risk":0,"arthritis_risk":5,"migraine_risk":10,"frizz_risk":0,"updated_at":"2026-05-14T15:51:34.457416+05:30"},{"city":"Ujjain","state":"Madhya Pradesh","latitude":23.1765,"longitude":75.7885,"temp":40.8,"humidity":14,"rain":0.0,"pressure":947.6,"uv_index":8.65,"wind_gusts":42.8,"aqi":81,"pm10":61.5,"pm2_5":27.3,"no2":0.7,"co":187.0,"o3":129.0,"so2":4.1,"mosquito_risk":0,"arthritis_risk":5,"migraine_risk":10,"frizz_risk":0,"updated_at":"2026-05-14T15:51:34.457424+05:30"},{"city":"Visakhapatnam","state":"Andhra Pradesh","latitude":17.6868,"longitude":83.2185,"temp":31.9,"humidity":64,"rain":0.0,"pressure":997.6,"uv_index":8.65,"wind_gusts":42.5,"aqi":71,"pm10":16.7,"pm2_5":12.9,"no2":15.4,"co":355.0,"o3":44.0,"so2":39.1,"mosquito_risk":3,"arthritis_risk":5,"migraine_risk":7,"frizz_risk":1,"updated_at":"2026-05-14T15:51:34.457431+05:30"},{"city":"Vijayawada","state":"Andhra Pradesh","latitude":16.5062,"longitude":80.648,"temp":36.5,"humidity":48,"rain":0.0,"pressure":995.1,"uv_index":8.35,"wind_gusts":34.2,"aqi":55,"pm10":35.2,"pm2_5":23.2,"no2":3.0,"co":243.0,"o3":131.0,"so2":9.6,"mosquito_risk":0,"arthritis_risk":5,"migraine_risk":10,"frizz_risk":1,"updated_at":"2026-05-14T15:51:34.457438+05:30"},{"city":"Guntur","state":"Andhra Pradesh","latitude":16.3067,"longitude":80.4365,"temp":36.2,"humidity":50,"rain":0.0,"pressure":996.4,"uv_index":8.7,"wind_gusts":36.7,"aqi":55,"pm10":39.9,"pm2_5":25.6,"no2":3.0,"co":233.0,"o3":143.0,"so2":9.1,"mosquito_risk":0,"arthritis_risk":5,"migraine_risk":10,"frizz_risk":1,"updated_at":"2026-05-14T15:51:34.457445+05:30"},{"city":"Nellore","state":"Andhra Pradesh","latitude":14.4426,"longitude":79.9865,"temp":35.2,"humidity":50,"rain":0.0,"pressure":998.8,"uv_index":9.15,"wind_gusts":39.2,"aqi":32,"pm10":15.8,"pm2_5":8.8,"no2":1.3,"co":138.0,"o3":68.0,"so2":2.7,"mosquito_risk":0,"arthritis_risk":5,"migraine_risk":10,"frizz_risk":1,"updated_at":"2026-05-14T15:51:34.457453+05:30"},{"city":"Kurnool","state":"Andhra Pradesh","latitude":15.8281,"longitude":78.0373,"temp":40.1,"humidity":23,"rain":0.0,"pressure":969.6,"uv_index":8.95,"wind_gusts":33.5,"aqi":71,"pm10":61.5,"pm2_5":33.1,"no2":1.2,"co":192.0,"o3":157.0,"so2":9.9,"mosquito_risk":0,"arthritis_risk":5,"migraine_risk":10,"frizz_risk":0,"updated_at":"2026-05-14T15:51:34.457461+05:30"},{"city":"Kakinada","state":"Andhra Pradesh","latitude":16.9891,"longitude":82.2475,"temp":32.8,"humidity":61,"rain":0.0,"pressure":1000.9,"uv_index":6.5,"wind_gusts":42.5,"aqi":25,"pm10":9.3,"pm2_5":5.8,"no2":1.0,"co":142.0,"o3":56.0,"so2":1.4,"mosquito_risk":3,"arthritis_risk":5,"migraine_risk":4,"frizz_risk":1,"updated_at":"2026-05-14T15:51:34.457469+05:30"},{"city":"Tirupati","state":"Andhra Pradesh","latitude":13.6288,"longitude":79.4192,"temp":35.5,"humidity":40,"rain":0.0,"pressure":984.3,"uv_index":9.2,"wind_gusts":38.9,"aqi":57,"pm10":32.1,"pm2_5":15.4,"no2":1.9,"co":191.0,"o3":113.0,"so2":3.5,"mosquito_risk":0,"arthritis_risk":5,"migraine_risk":10,"frizz_risk":1,"updated_at":"2026-05-14T15:51:34.457476+05:30"},{"city":"Warangal","state":"Telangana","latitude":17.9689,"longitude":79.5941,"temp":38.8,"humidity":31,"rain":0.0,"pressure":971.8,"uv_index":8.4,"wind_gusts":42.5,"aqi":71,"pm10":51.9,"pm2_5":27.8,"no2":2.0,"co":209.0,"o3":149.0,"so2":5.4,"mosquito_risk":0,"arthritis_risk":5,"migraine_risk":10,"frizz_risk":1,"updated_at":"2026-05-14T15:51:34.457484+05:30"},{"city":"Nizamabad","state":"Telangana","latitude":18.6725,"longitude":78.0941,"temp":40.3,"humidity":22,"rain":0.0,"pressure":958.0,"uv_index":9.15,"wind_gusts":34.2,"aqi":121,"pm10":102.2,"pm2_5":48.3,"no2":0.7,"co":217.0,"o3":152.0,"so2":5.4,"mosquito_risk":0,"arthritis_risk":5,"migraine_risk":10,"frizz_risk":0,"updated_at":"2026-05-14T15:51:34.457490+05:30"},{"city":"Mysore","state":"Karnataka","latitude":12.2958,"longitude":76.6396,"temp":33.7,"humidity":35,"rain":0.0,"pressure":923.3,"uv_index":8.9,"wind_gusts":48.2,"aqi":90,"pm10":59.8,"pm2_5":27.3,"no2":6.0,"co":226.0,"o3":128.0,"so2":4.5,"mosquito_risk":0,"arthritis_risk":5,"migraine_risk":7,"frizz_risk":0,"updated_at":"2026-05-14T15:51:34.457497+05:30"},{"city":"Mangalore","state":"Karnataka","latitude":12.9141,"longitude":74.856,"temp":32.3,"humidity":67,"rain":0.0,"pressure":1000.2,"uv_index":9.0,"wind_gusts":42.8,"aqi":81,"pm10":61.5,"pm2_5":29.5,"no2":1.7,"co":160.0,"o3":101.0,"so2":2.0,"mosquito_risk":3,"arthritis_risk":5,"migraine_risk":4,"frizz_risk":1,"updated_at":"2026-05-14T15:51:34.457504+05:30"},{"city":"Hubli-Dharwad","state":"Karnataka","latitude":15.3647,"longitude":75.124,"temp":32.9,"humidity":42,"rain":0.2,"pressure":934.8,"uv_index":8.7,"wind_gusts":40.7,"aqi":79,"pm10":66.8,"pm2_5":32.9,"no2":2.8,"co":220.0,"o3":149.0,"so2":3.5,"mosquito_risk":3,"arthritis_risk":5,"migraine_risk":7,"frizz_risk":1,"updated_at":"2026-05-14T15:51:34.457512+05:30"},{"city":"Belgaum","state":"Karnataka","latitude":15.8497,"longitude":74.4977,"temp":33.5,"humidity":37,"rain":0.0,"pressure":921.0,"uv_index":8.75,"wind_gusts":49.7,"aqi":83,"pm10":64.3,"pm2_5":32.8,"no2":2.3,"co":205.0,"o3":140.0,"so2":3.2,"mosquito_risk":0,"arthritis_risk":5,"migraine_risk":7,"frizz_risk":1,"updated_at":"2026-05-14T15:51:37.687014+05:30"},{"city":"Coimbatore","state":"Tamil Nadu","latitude":11.0168,"longitude":76.9558,"temp":30.4,"humidity":60,"rain":0.2,"pressure":956.1,"uv_index":9.15,"wind_gusts":39.2,"aqi":83,"pm10":53.6,"pm2_5":27.8,"no2":3.2,"co":244.0,"o3":140.0,"so2":4.6,"mosquito_risk":3,"arthritis_risk":5,"migraine_risk":7,"frizz_risk":1,"updated_at":"2026-05-14T15:51:37.687045+05:30"},{"city":"Madurai","state":"Tamil Nadu","latitude":9.9252,"longitude":78.1198,"temp":33.5,"humidity":51,"rain":0.0,"pressure":986.5,"uv_index":6.2,"wind_gusts":14.0,"aqi":109,"pm10":47.4,"pm2_5":29.8,"no2":8.2,"co":237.0,"o3":158.0,"so2":5.4,"mosquito_risk":0,"arthritis_risk":5,"migraine_risk":7,"frizz_risk":1,"updated_at":"2026-05-14T15:51:37.687057+05:30"},{"city":"Trichy","state":"Tamil Nadu","latitude":10.7905,"longitude":78.7047,"temp":32.7,"humidity":60,"rain":0.0,"pressure":993.0,"uv_index":8.6,"wind_gusts":27.4,"aqi":82,"pm10":45.1,"pm2_5":31.4,"no2":9.3,"co":254.0,"o3":153.0,"so2":11.6,"mosquito_risk":0,"arthritis_risk":5,"migraine_risk":7,"frizz_risk":1,"updated_at":"2026-05-14T15:51:37.687065+05:30"},{"city":"Salem","state":"Tamil Nadu","latitude":11.6643,"longitude":78.146,"temp":37.1,"humidity":28,"rain":0.0,"pressure":970.5,"uv_index":8.95,"wind_gusts":35.3,"aqi":113,"pm10":64.0,"pm2_5":33.9,"no2":5.6,"co":251.0,"o3":188.0,"so2":14.7,"mosquito_risk":0,"arthritis_risk":5,"migraine_risk":10,"frizz_risk":0,"updated_at":"2026-05-14T15:51:37.687074+05:30"},{"city":"Tirunelveli","state":"Tamil Nadu","latitude":8.7139,"longitude":77.7567,"temp":35.2,"humidity":46,"rain":0.0,"pressure":996.3,"uv_index":5.15,"wind_gusts":23.4,"aqi":65,"pm10":26.6,"pm2_5":17.6,"no2":2.4,"co":203.0,"o3":115.0,"so2":1.9,"mosquito_risk":0,"arthritis_risk":5,"migraine_risk":6,"frizz_risk":1,"updated_at":"2026-05-14T15:51:37.687082+05:30"},{"city":"Vellore","state":"Tamil Nadu","latitude":12.9165,"longitude":79.1325,"temp":35.2,"humidity":41,"rain":0.0,"pressure":977.9,"uv_index":8.0,"wind_gusts":35.6,"aqi":74,"pm10":39.2,"pm2_5":21.8,"no2":2.2,"co":224.0,"o3":143.0,"so2":6.5,"mosquito_risk":0,"arthritis_risk":5,"migraine_risk":10,"frizz_risk":1,"updated_at":"2026-05-14T15:51:37.687090+05:30"},{"city":"Erode","state":"Tamil Nadu","latitude":11.341,"longitude":77.7172,"temp":35.7,"humidity":43,"rain":0.0,"pressure":982.0,"uv_index":8.85,"wind_gusts":37.8,"aqi":86,"pm10":54.8,"pm2_5":30.4,"no2":4.5,"co":293.0,"o3":167.0,"so2":4.8,"mosquito_risk":0,"arthritis_risk":5,"migraine_risk":10,"frizz_risk":1,"updated_at":"2026-05-14T15:51:37.687097+05:30"},{"city":"Kochi","state":"Kerala","latitude":9.9312,"longitude":76.2673,"temp":26.4,"humidity":88,"rain":0.2,"pressure":1004.2,"uv_index":8.35,"wind_gusts":33.8,"aqi":88,"pm10":28.5,"pm2_5":17.1,"no2":5.4,"co":171.0,"o3":93.0,"so2":3.6,"mosquito_risk":10,"arthritis_risk":5,"migraine_risk":4,"frizz_risk":1,"updated_at":"2026-05-14T15:51:37.687105+05:30"},{"city":"Thiruvananthapuram","state":"Kerala","latitude":8.5241,"longitude":76.9366,"temp":26.7,"humidity":90,"rain":0.2,"pressure":1003.6,"uv_index":7.5,"wind_gusts":37.8,"aqi":60,"pm10":19.7,"pm2_5":11.8,"no2":1.2,"co":153.0,"o3":106.0,"so2":0.8,"mosquito_risk":10,"arthritis_risk":5,"migraine_risk":4,"frizz_risk":1,"updated_at":"2026-05-14T15:51:37.687114+05:30"},{"city":"Kozhikode","state":"Kerala","latitude":11.2588,"longitude":75.7804,"temp":26.9,"humidity":89,"rain":0.1,"pressure":1002.5,"uv_index":8.35,"wind_gusts":42.1,"aqi":73,"pm10":48.0,"pm2_5":23.0,"no2":0.8,"co":167.0,"o3":95.0,"so2":1.0,"mosquito_risk":10,"arthritis_risk":5,"migraine_risk":4,"frizz_risk":1,"updated_at":"2026-05-14T15:51:37.687121+05:30"},{"city":"Thrissur","state":"Kerala","latitude":10.5276,"longitude":76.2144,"temp":29.5,"humidity":78,"rain":0.1,"pressure":1001.7,"uv_index":8.9,"wind_gusts":37.4,"aqi":88,"pm10":30.4,"pm2_5":18.0,"no2":3.1,"co":172.0,"o3":100.0,"so2":2.2,"mosquito_risk":10,"arthritis_risk":5,"migraine_risk":4,"frizz_risk":1,"updated_at":"2026-05-14T15:51:37.687129+05:30"},{"city":"Kannur","state":"Kerala","latitude":11.8745,"longitude":75.3704,"temp":27.6,"humidity":93,"rain":0.4,"pressure":1001.5,"uv_index":8.95,"wind_gusts":47.9,"aqi":84,"pm10":62.6,"pm2_5":30.4,"no2":2.9,"co":164.0,"o3":103.0,"so2":2.0,"mosquito_risk":10,"arthritis_risk":5,"migraine_risk":4,"frizz_risk":1,"updated_at":"2026-05-14T15:51:37.687136+05:30"},{"city":"Patna","state":"Bihar","latitude":25.5941,"longitude":85.1376,"temp":33.0,"humidity":55,"rain":0.0,"pressure":992.9,"uv_index":8.8,"wind_gusts":30.2,"aqi":128,"pm10":65.9,"pm2_5":48.5,"no2":4.0,"co":377.0,"o3":193.0,"so2":20.0,"mosquito_risk":0,"arthritis_risk":5,"migraine_risk":7,"frizz_risk":1,"updated_at":"2026-05-14T15:51:37.687144+05:30"},{"city":"Gaya","state":"Bihar","latitude":24.7914,"longitude":85.0002,"temp":35.5,"humidity":44,"rain":0.0,"pressure":986.0,"uv_index":8.85,"wind_gusts":21.2,"aqi":141,"pm10":83.4,"pm2_5":45.8,"no2":3.1,"co":341.0,"o3":193.0,"so2":14.2,"mosquito_risk":0,"arthritis_risk":5,"migraine_risk":10,"frizz_risk":1,"updated_at":"2026-05-14T15:51:37.687151+05:30"},{"city":"Muzaffarpur","state":"Bihar","latitude":26.1209,"longitude":85.3647,"temp":32.2,"humidity":59,"rain":0.0,"pressure":993.1,"uv_index":8.85,"wind_gusts":34.2,"aqi":122,"pm10":67.1,"pm2_5":46.8,"no2":5.2,"co":363.0,"o3":174.0,"so2":17.6,"mosquito_risk":0,"arthritis_risk":5,"migraine_risk":7,"frizz_risk":1,"updated_at":"2026-05-14T15:51:37.687158+05:30"},{"city":"Bhagalpur","state":"Bihar","latitude":25.2425,"longitude":87.0117,"temp":32.9,"humidity":53,"rain":0.0,"pressure":993.8,"uv_index":8.75,"wind_gusts":26.6,"aqi":91,"pm10":62.2,"pm2_5":36.0,"no2":5.0,"co":326.0,"o3":182.0,"so2":23.5,"mosquito_risk":0,"arthritis_risk":5,"migraine_risk":7,"frizz_risk":1,"updated_at":"2026-05-14T15:51:37.687165+05:30"},{"city":"Ranchi","state":"Jharkhand","latitude":23.3441,"longitude":85.3096,"temp":34.6,"humidity":27,"rain":0.0,"pressure":931.9,"uv_index":9.3,"wind_gusts":36.4,"aqi":124,"pm10":98.3,"pm2_5":31.2,"no2":2.1,"co":237.0,"o3":154.0,"so2":8.6,"mosquito_risk":0,"arthritis_risk":5,"migraine_risk":7,"frizz_risk":0,"updated_at":"2026-05-14T15:51:37.687171+05:30"},{"city":"Jamshedpur","state":"Jharkhand","latitude":22.8046,"longitude":86.2029,"temp":38.0,"humidity":31,"rain":0.0,"pressure":982.7,"uv_index":9.15,"wind_gusts":30.6,"aqi":107,"pm10":71.7,"pm2_5":32.9,"no2":5.7,"co":238.0,"o3":169.0,"so2":19.1,"mosquito_risk":0,"arthritis_risk":5,"migraine_risk":10,"frizz_risk":1,"updated_at":"2026-05-14T15:51:37.687178+05:30"},{"city":"Dhanbad","state":"Jharkhand","latitude":23.7957,"longitude":86.4304,"temp":36.7,"humidity":34,"rain":0.0,"pressure":972.2,"uv_index":9.05,"wind_gusts":22.0,"aqi":120,"pm10":62.6,"pm2_5":32.6,"no2":11.2,"co":249.0,"o3":157.0,"so2":33.8,"mosquito_risk":0,"arthritis_risk":5,"migraine_risk":10,"frizz_risk":1,"updated_at":"2026-05-14T15:51:37.687185+05:30"},{"city":"Bokaro","state":"Jharkhand","latitude":23.6693,"longitude":86.1511,"temp":37.7,"humidity":28,"rain":0.0,"pressure":975.6,"uv_index":9.1,"wind_gusts":29.9,"aqi":128,"pm10":74.7,"pm2_5":35.3,"no2":9.7,"co":239.0,"o3":165.0,"so2":39.1,"mosquito_risk":0,"arthritis_risk":5,"migraine_risk":10,"frizz_risk":0,"updated_at":"2026-05-14T15:51:37.687191+05:30"},{"city":"Bhubaneswar","state":"Odisha","latitude":20.2961,"longitude":85.8245,"temp":32.2,"humidity":64,"rain":0.0,"pressure":996.0,"uv_index":9.15,"wind_gusts":46.8,"aqi":35,"pm10":12.7,"pm2_5":7.9,"no2":2.2,"co":165.0,"o3":68.0,"so2":2.6,"mosquito_risk":3,"arthritis_risk":5,"migraine_risk":7,"frizz_risk":1,"updated_at":"2026-05-14T15:51:37.687198+05:30"},{"city":"Cuttack","state":"Odisha","latitude":20.4625,"longitude":85.8828,"temp":34.3,"humidity":56,"rain":0.0,"pressure":997.1,"uv_index":9.2,"wind_gusts":43.6,"aqi":35,"pm10":12.7,"pm2_5":7.9,"no2":2.2,"co":176.0,"o3":68.0,"so2":2.6,"mosquito_risk":0,"arthritis_risk":5,"migraine_risk":7,"frizz_risk":1,"updated_at":"2026-05-14T15:51:37.687204+05:30"},{"city":"Rourkela","state":"Odisha","latitude":22.2604,"longitude":84.8536,"temp":37.3,"humidity":38,"rain":0.0,"pressure":977.6,"uv_index":9.05,"wind_gusts":56.9,"aqi":104,"pm10":74.3,"pm2_5":31.8,"no2":3.6,"co":248.0,"o3":170.0,"so2":11.2,"mosquito_risk":0,"arthritis_risk":5,"migraine_risk":10,"frizz_risk":1,"updated_at":"2026-05-14T15:51:37.687211+05:30"},{"city":"Raipur","state":"Chhattisgarh","latitude":21.2514,"longitude":81.6296,"temp":40.7,"humidity":22,"rain":0.0,"pressure":967.3,"uv_index":9.05,"wind_gusts":39.2,"aqi":130,"pm10":95.7,"pm2_5":49.8,"no2":7.2,"co":192.0,"o3":177.0,"so2":30.6,"mosquito_risk":0,"arthritis_risk":5,"migraine_risk":10,"frizz_risk":0,"updated_at":"2026-05-14T15:51:37.687218+05:30"},{"city":"Bhilai","state":"Chhattisgarh","latitude":21.1938,"longitude":81.3509,"temp":39.8,"humidity":22,"rain":0.0,"pressure":967.7,"uv_index":9.1,"wind_gusts":37.8,"aqi":122,"pm10":96.9,"pm2_5":47.6,"no2":8.0,"co":235.0,"o3":159.0,"so2":28.6,"mosquito_risk":0,"arthritis_risk":5,"migraine_risk":10,"frizz_risk":0,"updated_at":"2026-05-14T15:51:37.687224+05:30"},{"city":"Guwahati","state":"Assam","latitude":26.1158,"longitude":91.7086,"temp":29.2,"humidity":66,"rain":0.0,"pressure":994.2,"uv_index":8.7,"wind_gusts":29.9,"aqi":70,"pm10":10.5,"pm2_5":9.0,"no2":2.8,"co":269.0,"o3":108.0,"so2":2.0,"mosquito_risk":7,"arthritis_risk":5,"migraine_risk":7,"frizz_risk":1,"updated_at":"2026-05-14T15:51:37.687231+05:30"},{"city":"Agartala","state":"Tripura","latitude":23.8315,"longitude":91.2868,"temp":30.2,"humidity":69,"rain":0.1,"pressure":999.4,"uv_index":8.8,"wind_gusts":29.2,"aqi":69,"pm10":24.9,"pm2_5":14.8,"no2":5.4,"co":176.0,"o3":108.0,"so2":2.7,"mosquito_risk":6,"arthritis_risk":5,"migraine_risk":7,"frizz_risk":1,"updated_at":"2026-05-14T15:51:37.687238+05:30"},{"city":"Shillong","state":"Meghalaya","latitude":25.5788,"longitude":91.8933,"temp":23.2,"humidity":60,"rain":0.0,"pressure":852.9,"uv_index":8.4,"wind_gusts":29.9,"aqi":58,"pm10":8.2,"pm2_5":6.7,"no2":3.4,"co":235.0,"o3":100.0,"so2":1.7,"mosquito_risk":0,"arthritis_risk":5,"migraine_risk":7,"frizz_risk":0,"updated_at":"2026-05-14T15:51:37.687245+05:30"},{"city":"Imphal","state":"Manipur","latitude":24.817,"longitude":93.9368,"temp":27.9,"humidity":55,"rain":0.0,"pressure":917.9,"uv_index":9.25,"wind_gusts":29.9,"aqi":102,"pm10":24.4,"pm2_5":14.8,"no2":2.0,"co":199.0,"o3":99.0,"so2":2.4,"mosquito_risk":4,"arthritis_risk":5,"migraine_risk":7,"frizz_risk":1,"updated_at":"2026-05-14T15:51:37.687252+05:30"},{"city":"Aizawl","state":"Mizoram","latitude":23.7271,"longitude":92.7176,"temp":27.1,"humidity":44,"rain":0.0,"pressure":888.4,"uv_index":8.5,"wind_gusts":28.1,"aqi":59,"pm10":16.0,"pm2_5":9.0,"no2":2.0,"co":167.0,"o3":84.0,"so2":1.3,"mosquito_risk":4,"arthritis_risk":5,"migraine_risk":7,"frizz_risk":0,"updated_at":"2026-05-14T15:51:37.687259+05:30"},{"city":"Kohima","state":"Nagaland","latitude":25.6701,"longitude":94.1077,"temp":21.6,"humidity":86,"rain":0.0,"pressure":851.1,"uv_index":8.65,"wind_gusts":29.9,"aqi":68,"pm10":29.6,"pm2_5":17.8,"no2":2.2,"co":207.0,"o3":100.0,"so2":2.0,"mosquito_risk":3,"arthritis_risk":5,"migraine_risk":7,"frizz_risk":1,"updated_at":"2026-05-14T15:51:37.687266+05:30"},{"city":"Gangtok","state":"Sikkim","latitude":27.3314,"longitude":88.6138,"temp":17.7,"humidity":92,"rain":0.1,"pressure":832.4,"uv_index":9.0,"wind_gusts":40.3,"aqi":75,"pm10":12.6,"pm2_5":10.7,"no2":1.9,"co":282.0,"o3":125.0,"so2":1.8,"mosquito_risk":6,"arthritis_risk":10,"migraine_risk":7,"frizz_risk":1,"updated_at":"2026-05-14T15:51:37.687273+05:30"},{"city":"Siliguri","state":"West Bengal","latitude":26.7271,"longitude":88.3953,"temp":27.6,"humidity":73,"rain":0.0,"pressure":986.5,"uv_index":8.7,"wind_gusts":26.3,"aqi":87,"pm10":22.5,"pm2_5":18.1,"no2":3.0,"co":432.0,"o3":131.0,"so2":3.3,"mosquito_risk":7,"arthritis_risk":5,"migraine_risk":7,"frizz_risk":1,"updated_at":"2026-05-14T15:51:40.921146+05:30"},{"city":"Durgapur","state":"West Bengal","latitude":23.5204,"longitude":87.3119,"temp":35.4,"humidity":48,"rain":0.1,"pressure":987.2,"uv_index":9.0,"wind_gusts":35.3,"aqi":96,"pm10":95.9,"pm2_5":67.8,"no2":15.1,"co":423.0,"o3":230.0,"so2":58.6,"mosquito_risk":3,"arthritis_risk":5,"migraine_risk":10,"frizz_risk":1,"updated_at":"2026-05-14T15:51:40.921178+05:30"},{"city":"Asansol","state":"West Bengal","latitude":23.6739,"longitude":86.9524,"temp":35.7,"humidity":44,"rain":0.0,"pressure":985.7,"uv_index":9.05,"wind_gusts":38.2,"aqi":100,"pm10":77.5,"pm2_5":44.9,"no2":13.6,"co":609.0,"o3":176.0,"so2":32.8,"mosquito_risk":0,"arthritis_risk":5,"migraine_risk":10,"frizz_risk":1,"updated_at":"2026-05-14T15:51:40.921189+05:30"},{"city":"Pondicherry","state":"Puducherry","latitude":11.9139,"longitude":79.8145,"temp":29.9,"humidity":78,"rain":0.0,"pressure":1001.9,"uv_index":8.45,"wind_gusts":34.9,"aqi":51,"pm10":28.9,"pm2_5":21.2,"no2":6.1,"co":263.0,"o3":101.0,"so2":12.4,"mosquito_risk":7,"arthritis_risk":5,"migraine_risk":4,"frizz_risk":1,"updated_at":"2026-05-14T15:51:40.921198+05:30"},{"city":"Port Blair","state":"Andaman and Nicobar Islands","latitude":11.6234,"longitude":92.7265,"temp":28.1,"humidity":83,"rain":0.0,"pressure":1002.1,"uv_index":7.7,"wind_gusts":36.4,"aqi":28,"pm10":5.2,"pm2_5":3.5,"no2":0.5,"co":137.0,"o3":59.0,"so2":0.2,"mosquito_risk":7,"arthritis_risk":5,"migraine_risk":4,"frizz_risk":1,"updated_at":"2026-05-14T15:51:40.921207+05:30"},{"city":"Haridwar","state":"Uttarakhand","latitude":29.9457,"longitude":78.1642,"temp":34.2,"humidity":41,"rain":0.0,"pressure":968.1,"uv_index":7.5,"wind_gusts":41.4,"aqi":151,"pm10":59.5,"pm2_5":32.8,"no2":1.7,"co":360.0,"o3":184.0,"so2":9.1,"mosquito_risk":0,"arthritis_risk":5,"migraine_risk":7,"frizz_risk":1,"updated_at":"2026-05-14T15:51:40.921214+05:30"},{"city":"Rishikesh","state":"Uttarakhand","latitude":30.0869,"longitude":78.2676,"temp":33.2,"humidity":42,"rain":0.0,"pressure":961.1,"uv_index":7.6,"wind_gusts":37.1,"aqi":139,"pm10":65.9,"pm2_5":34.1,"no2":0.7,"co":297.0,"o3":182.0,"so2":8.9,"mosquito_risk":0,"arthritis_risk":5,"migraine_risk":7,"frizz_risk":1,"updated_at":"2026-05-14T15:51:40.921222+05:30"},{"city":"Nainital","state":"Uttarakhand","latitude":29.3919,"longitude":79.4542,"temp":21.5,"humidity":54,"rain":0.0,"pressure":804.4,"uv_index":8.45,"wind_gusts":39.2,"aqi":131,"pm10":83.4,"pm2_5":42.4,"no2":1.5,"co":257.0,"o3":183.0,"so2":13.7,"mosquito_risk":0,"arthritis_risk":5,"migraine_risk":7,"frizz_risk":0,"updated_at":"2026-05-14T15:51:40.921229+05:30"},{"city":"Mussoorie","state":"Uttarakhand","latitude":30.4599,"longitude":78.0664,"temp":22.3,"humidity":43,"rain":0.0,"pressure":802.3,"uv_index":7.95,"wind_gusts":52.6,"aqi":142,"pm10":54.8,"pm2_5":33.4,"no2":1.3,"co":281.0,"o3":192.0,"so2":10.2,"mosquito_risk":0,"arthritis_risk":5,"migraine_risk":7,"frizz_risk":0,"updated_at":"2026-05-14T15:51:40.921237+05:30"},{"city":"Dharamshala","state":"Himachal Pradesh","latitude":32.219,"longitude":76.3234,"temp":25.9,"humidity":36,"rain":0.0,"pressure":866.7,"uv_index":8.35,"wind_gusts":39.2,"aqi":79,"pm10":16.5,"pm2_5":7.3,"no2":0.2,"co":206.0,"o3":135.0,"so2":0.9,"mosquito_risk":4,"arthritis_risk":5,"migraine_risk":7,"frizz_risk":0,"updated_at":"2026-05-14T15:51:40.921244+05:30"},{"city":"Dalhousie","state":"Himachal Pradesh","latitude":32.5387,"longitude":75.971,"temp":21.9,"humidity":33,"rain":0.1,"pressure":804.1,"uv_index":8.55,"wind_gusts":37.1,"aqi":93,"pm10":29.0,"pm2_5":14.3,"no2":0.7,"co":186.0,"o3":149.0,"so2":1.3,"mosquito_risk":3,"arthritis_risk":5,"migraine_risk":7,"frizz_risk":0,"updated_at":"2026-05-14T15:51:40.921252+05:30"},{"city":"Patiala","state":"Punjab","latitude":30.3398,"longitude":76.3869,"temp":38.3,"humidity":18,"rain":0.0,"pressure":971.7,"uv_index":7.6,"wind_gusts":41.0,"aqi":155,"pm10":397.7,"pm2_5":64.7,"no2":1.9,"co":248.0,"o3":158.0,"so2":7.0,"mosquito_risk":0,"arthritis_risk":5,"migraine_risk":10,"frizz_risk":0,"updated_at":"2026-05-14T15:51:40.921260+05:30"},{"city":"Bhatinda","state":"Punjab","latitude":30.211,"longitude":74.9455,"temp":38.2,"humidity":24,"rain":0.0,"pressure":976.9,"uv_index":8.25,"wind_gusts":73.8,"aqi":153,"pm10":128.5,"pm2_5":47.0,"no2":2.3,"co":273.0,"o3":179.0,"so2":15.3,"mosquito_risk":0,"arthritis_risk":5,"migraine_risk":10,"frizz_risk":0,"updated_at":"2026-05-14T15:51:40.921267+05:30"},{"city":"Rohtak","state":"Haryana","latitude":28.8955,"longitude":76.6066,"temp":37.2,"humidity":27,"rain":0.0,"pressure":975.7,"uv_index":7.75,"wind_gusts":60.8,"aqi":230,"pm10":302.7,"pm2_5":77.3,"no2":2.5,"co":271.0,"o3":213.0,"so2":16.7,"mosquito_risk":0,"arthritis_risk":5,"migraine_risk":10,"frizz_risk":0,"updated_at":"2026-05-14T15:51:40.921274+05:30"},{"city":"Panipat","state":"Haryana","latitude":29.3909,"longitude":76.9635,"temp":36.8,"humidity":29,"rain":0.1,"pressure":974.1,"uv_index":7.55,"wind_gusts":65.9,"aqi":222,"pm10":418.2,"pm2_5":75.7,"no2":2.8,"co":291.0,"o3":174.0,"so2":16.9,"mosquito_risk":3,"arthritis_risk":5,"migraine_risk":10,"frizz_risk":0,"updated_at":"2026-05-14T15:51:40.921282+05:30"},{"city":"Mathura","state":"Uttar Pradesh","latitude":27.4924,"longitude":77.6737,"temp":38.3,"humidity":24,"rain":0.0,"pressure":980.1,"uv_index":7.95,"wind_gusts":31.7,"aqi":191,"pm10":308.3,"pm2_5":51.9,"no2":3.5,"co":268.0,"o3":136.0,"so2":4.7,"mosquito_risk":0,"arthritis_risk":5,"migraine_risk":10,"frizz_risk":0,"updated_at":"2026-05-14T15:51:40.921289+05:30"},{"city":"Vrindavan","state":"Uttar Pradesh","latitude":27.5823,"longitude":77.7027,"temp":38.0,"humidity":24,"rain":0.0,"pressure":980.6,"uv_index":7.95,"wind_gusts":34.6,"aqi":191,"pm10":308.3,"pm2_5":51.9,"no2":3.5,"co":269.0,"o3":136.0,"so2":4.7,"mosquito_risk":0,"arthritis_risk":5,"migraine_risk":10,"frizz_risk":0,"updated_at":"2026-05-14T15:51:40.921296+05:30"},{"city":"Ayodhya","state":"Uttar Pradesh","latitude":26.7922,"longitude":82.1998,"temp":34.5,"humidity":47,"rain":0.0,"pressure":988.1,"uv_index":8.35,"wind_gusts":32.0,"aqi":138,"pm10":114.6,"pm2_5":45.4,"no2":1.8,"co":364.0,"o3":175.0,"so2":11.0,"mosquito_risk":0,"arthritis_risk":5,"migraine_risk":7,"frizz_risk":1,"updated_at":"2026-05-14T15:51:40.921303+05:30"},{"city":"Ratlam","state":"Madhya Pradesh","latitude":23.3315,"longitude":75.0367,"temp":39.5,"humidity":21,"rain":0.0,"pressure":948.8,"uv_index":8.6,"wind_gusts":38.5,"aqi":79,"pm10":65.9,"pm2_5":27.0,"no2":0.5,"co":173.0,"o3":126.0,"so2":4.2,"mosquito_risk":0,"arthritis_risk":5,"migraine_risk":10,"frizz_risk":0,"updated_at":"2026-05-14T15:51:40.921311+05:30"},{"city":"Sagar","state":"Madhya Pradesh","latitude":23.8388,"longitude":78.7378,"temp":40.5,"humidity":15,"rain":0.0,"pressure":944.1,"uv_index":8.8,"wind_gusts":33.8,"aqi":87,"pm10":42.7,"pm2_5":19.5,"no2":0.4,"co":172.0,"o3":142.0,"so2":3.7,"mosquito_risk":0,"arthritis_risk":5,"migraine_risk":10,"frizz_risk":0,"updated_at":"2026-05-14T15:51:40.921318+05:30"},{"city":"Satna","state":"Madhya Pradesh","latitude":24.6005,"longitude":80.8322,"temp":40.9,"humidity":16,"rain":0.0,"pressure":963.8,"uv_index":8.8,"wind_gusts":39.6,"aqi":87,"pm10":60.1,"pm2_5":19.6,"no2":0.8,"co":190.0,"o3":130.0,"so2":2.9,"mosquito_risk":0,"arthritis_risk":5,"migraine_risk":10,"frizz_risk":0,"updated_at":"2026-05-14T15:51:40.921325+05:30"},{"city":"Akola","state":"Maharashtra","latitude":20.7002,"longitude":77.0082,"temp":43.6,"humidity":15,"rain":0.0,"pressure":967.0,"uv_index":8.95,"wind_gusts":42.8,"aqi":121,"pm10":47.6,"pm2_5":23.3,"no2":1.3,"co":195.0,"o3":150.0,"so2":7.9,"mosquito_risk":0,"arthritis_risk":5,"migraine_risk":10,"frizz_risk":0,"updated_at":"2026-05-14T15:51:40.921333+05:30"},{"city":"Amravati","state":"Maharashtra","latitude":20.9374,"longitude":77.7796,"temp":43.4,"humidity":14,"rain":0.0,"pressure":959.5,"uv_index":9.0,"wind_gusts":45.0,"aqi":120,"pm10":44.6,"pm2_5":23.5,"no2":1.4,"co":208.0,"o3":159.0,"so2":9.6,"mosquito_risk":0,"arthritis_risk":5,"migraine_risk":10,"frizz_risk":0,"updated_at":"2026-05-14T15:51:40.921341+05:30"},{"city":"Latur","state":"Maharashtra","latitude":18.4088,"longitude":76.5604,"temp":39.3,"humidity":22,"rain":0.0,"pressure":934.4,"uv_index":8.6,"wind_gusts":34.6,"aqi":125,"pm10":75.4,"pm2_5":38.0,"no2":1.2,"co":207.0,"o3":155.0,"so2":7.2,"mosquito_risk":0,"arthritis_risk":5,"migraine_risk":10,"frizz_risk":0,"updated_at":"2026-05-14T15:51:40.921348+05:30"},{"city":"Nanded","state":"Maharashtra","latitude":19.1383,"longitude":77.3091,"temp":40.7,"humidity":22,"rain":0.0,"pressure":961.5,"uv_index":9.1,"wind_gusts":32.0,"aqi":126,"pm10":69.8,"pm2_5":34.0,"no2":0.6,"co":217.0,"o3":151.0,"so2":5.7,"mosquito_risk":0,"arthritis_risk":5,"migraine_risk":10,"frizz_risk":0,"updated_at":"2026-05-14T15:51:40.921354+05:30"},{"city":"Gulbarga","state":"Karnataka","latitude":17.3297,"longitude":76.8343,"temp":39.7,"humidity":25,"rain":0.0,"pressure":952.0,"uv_index":8.4,"wind_gusts":36.7,"aqi":130,"pm10":84.3,"pm2_5":43.3,"no2":2.3,"co":228.0,"o3":164.0,"so2":6.2,"mosquito_risk":0,"arthritis_risk":5,"migraine_risk":10,"frizz_risk":0,"updated_at":"2026-05-14T15:51:40.921361+05:30"},{"city":"Bidar","state":"Karnataka","latitude":17.9104,"longitude":77.5199,"temp":38.1,"humidity":26,"rain":0.0,"pressure":930.3,"uv_index":8.95,"wind_gusts":26.3,"aqi":118,"pm10":98.3,"pm2_5":48.3,"no2":1.6,"co":225.0,"o3":158.0,"so2":5.5,"mosquito_risk":0,"arthritis_risk":5,"migraine_risk":10,"frizz_risk":0,"updated_at":"2026-05-14T15:51:40.921367+05:30"},{"city":"Hospet","state":"Karnataka","latitude":15.2689,"longitude":76.3909,"temp":35.5,"humidity":39,"rain":0.1,"pressure":949.4,"uv_index":9.1,"wind_gusts":42.5,"aqi":90,"pm10":68.5,"pm2_5":35.5,"no2":5.7,"co":237.0,"o3":149.0,"so2":8.7,"mosquito_risk":3,"arthritis_risk":5,"migraine_risk":10,"frizz_risk":1,"updated_at":"2026-05-14T15:51:40.921374+05:30"},{"city":"Tirupur","state":"Tamil Nadu","latitude":11.1085,"longitude":77.3411,"temp":35.2,"humidity":35,"rain":0.0,"pressure":968.9,"uv_index":8.9,"wind_gusts":40.3,"aqi":90,"pm10":55.6,"pm2_5":29.4,"no2":4.3,"co":233.0,"o3":157.0,"so2":4.7,"mosquito_risk":0,"arthritis_risk":5,"migraine_risk":10,"frizz_risk":1,"updated_at":"2026-05-14T15:51:40.921381+05:30"},{"city":"Alappuzha","state":"Kerala","latitude":9.4981,"longitude":76.3388,"temp":25.4,"humidity":94,"rain":0.2,"pressure":1004.6,"uv_index":7.5,"wind_gusts":34.2,"aqi":72,"pm10":27.5,"pm2_5":16.1,"no2":3.8,"co":149.0,"o3":111.0,"so2":2.5,"mosquito_risk":10,"arthritis_risk":5,"migraine_risk":4,"frizz_risk":1,"updated_at":"2026-05-14T15:51:40.921388+05:30"},{"city":"Munnar","state":"Kerala","latitude":10.0889,"longitude":77.0595,"temp":19.0,"humidity":98,"rain":0.1,"pressure":852.7,"uv_index":8.75,"wind_gusts":26.3,"aqi":65,"pm10":41.0,"pm2_5":22.4,"no2":4.3,"co":181.0,"o3":100.0,"so2":2.0,"mosquito_risk":6,"arthritis_risk":10,"migraine_risk":7,"frizz_risk":1,"updated_at":"2026-05-14T15:51:40.921396+05:30"},{"city":"Silchar","state":"Assam","latitude":24.8333,"longitude":92.7789,"temp":31.8,"humidity":61,"rain":0.0,"pressure":997.8,"uv_index":8.9,"wind_gusts":45.4,"aqi":110,"pm10":24.3,"pm2_5":16.2,"no2":2.6,"co":208.0,"o3":104.0,"so2":3.7,"mosquito_risk":3,"arthritis_risk":5,"migraine_risk":7,"frizz_risk":1,"updated_at":"2026-05-14T15:51:40.921402+05:30"},{"city":"Dibrugarh","state":"Assam","latitude":27.4728,"longitude":94.912,"temp":29.1,"humidity":63,"rain":0.0,"pressure":989.0,"uv_index":7.75,"wind_gusts":24.5,"aqi":96,"pm10":32.0,"pm2_5":25.7,"no2":2.5,"co":262.0,"o3":131.0,"so2":1.9,"mosquito_risk":7,"arthritis_risk":5,"migraine_risk":7,"frizz_risk":1,"updated_at":"2026-05-14T15:51:40.921409+05:30"}]