[{"city":"Delhi","state":"Delhi","latitude":28.6139,"longitude":77.209,"temp":31.6,"humidity":32,"rain":0.0,"pressure":985.9,"uv_index":5.85,"wind_gusts":32.8,"aqi":285,"pm10":633.3,"pm2_5":93.4,"mosquito_risk":0,"arthritis_risk":5,"migraine_risk":3,"frizz_risk":0,"updated_at":"2026-03-04T17:03:42.276575+05:30"},{"city":"Mumbai","state":"Maharashtra","latitude":19.076,"longitude":72.8777,"temp":28.3,"humidity":66,"rain":0.0,"pressure":1008.4,"uv_index":7.35,"wind_gusts":24.5,"aqi":191,"pm10":51.3,"pm2_5":48.3,"mosquito_risk":7,"arthritis_risk":0,"migraine_risk":4,"frizz_risk":1,"updated_at":"2026-03-04T17:03:42.276621+05:30"},{"city":"Bangalore","state":"Karnataka","latitude":12.9716,"longitude":77.5946,"temp":30.9,"humidity":25,"rain":0.0,"pressure":912.6,"uv_index":9.1,"wind_gusts":35.3,"aqi":108,"pm10":27.0,"pm2_5":25.9,"mosquito_risk":0,"arthritis_risk":5,"migraine_risk":7,"frizz_risk":0,"updated_at":"2026-03-04T17:03:42.276637+05:30"},{"city":"Hyderabad","state":"Telangana","latitude":17.385,"longitude":78.4867,"temp":33.5,"humidity":26,"rain":0.0,"pressure":954.7,"uv_index":8.4,"wind_gusts":25.6,"aqi":148,"pm10":16.7,"pm2_5":14.6,"mosquito_risk":0,"arthritis_risk":5,"migraine_risk":7,"frizz_risk":0,"updated_at":"2026-03-04T17:03:42.276648+05:30"},{"city":"Chennai","state":"Tamil Nadu","latitude":13.0827,"longitude":80.2707,"temp":30.5,"humidity":48,"rain":0.0,"pressure":1008.6,"uv_index":8.8,"wind_gusts":29.5,"aqi":108,"pm10":18.1,"pm2_5":15.7,"mosquito_risk":0,"arthritis_risk":0,"migraine_risk":4,"frizz_risk":1,"updated_at":"2026-03-04T17:03:42.276657+05:30"},{"city":"Kolkata","state":"West Bengal","latitude":22.5726,"longitude":88.3639,"temp":29.3,"humidity":39,"rain":0.0,"pressure":1006.8,"uv_index":7.75,"wind_gusts":18.7,"aqi":167,"pm10":84.1,"pm2_5":53.2,"mosquito_risk":4,"arthritis_risk":5,"migraine_risk":4,"frizz_risk":0,"updated_at":"2026-03-04T17:03:42.276666+05:30"},{"city":"Pune","state":"Maharashtra","latitude":18.5204,"longitude":73.8567,"temp":36.2,"humidity":22,"rain":0.0,"pressure":949.5,"uv_index":7.95,"wind_gusts":30.2,"aqi":114,"pm10":17.1,"pm2_5":16.4,"mosquito_risk":0,"arthritis_risk":5,"migraine_risk":10,"frizz_risk":0,"updated_at":"2026-03-04T17:03:42.276678+05:30"},{"city":"Ahmedabad","state":"Gujarat","latitude":23.0225,"longitude":72.5714,"temp":37.4,"humidity":17,"rain":0.0,"pressure":1004.3,"uv_index":7.2,"wind_gusts":19.8,"aqi":79,"pm10":19.2,"pm2_5":14.4,"mosquito_risk":0,"arthritis_risk":5,"migraine_risk":7,"frizz_risk":0,"updated_at":"2026-03-04T17:03:42.276686+05:30"},{"city":"Jaipur","state":"Rajasthan","latitude":26.9124,"longitude":75.7873,"temp":34.6,"humidity":13,"rain":0.0,"pressure":963.6,"uv_index":6.6,"wind_gusts":32.0,"aqi":90,"pm10":130.9,"pm2_5":26.3,"mosquito_risk":0,"arthritis_risk":5,"migraine_risk":7,"frizz_risk":0,"updated_at":"2026-03-04T17:03:42.276694+05:30"},{"city":"Lucknow","state":"Uttar Pradesh","latitude":26.8467,"longitude":80.9462,"temp":30.5,"humidity":38,"rain":0.0,"pressure":995.9,"uv_index":6.35,"wind_gusts":24.8,"aqi":166,"pm10":145.3,"pm2_5":54.0,"mosquito_risk":0,"arthritis_risk":5,"migraine_risk":7,"frizz_risk":0,"updated_at":"2026-03-04T17:03:42.276701+05:30"},{"city":"Kanpur","state":"Uttar Pradesh","latitude":26.4499,"longitude":80.3319,"temp":30.5,"humidity":35,"rain":0.0,"pressure":994.3,"uv_index":6.35,"wind_gusts":27.0,"aqi":179,"pm10":298.0,"pm2_5":66.4,"mosquito_risk":0,"arthritis_risk":5,"migraine_risk":7,"frizz_risk":0,"updated_at":"2026-03-04T17:03:42.276709+05:30"},{"city":"Chandigarh","state":"Chandigarh","latitude":30.7333,"longitude":76.7794,"temp":28.9,"humidity":40,"rain":0.0,"pressure":971.7,"uv_index":5.75,"wind_gusts":34.9,"aqi":103,"pm10":34.7,"pm2_5":29.0,"mosquito_risk":4,"arthritis_risk":5,"migraine_risk":3,"frizz_risk":0,"updated_at":"2026-03-04T17:03:42.276717+05:30"},{"city":"Srinagar","state":"Jammu and Kashmir","latitude":34.0837,"longitude":74.7973,"temp":20.5,"humidity":30,"rain":0.0,"pressure":847.5,"uv_index":6.15,"wind_gusts":15.5,"aqi":144,"pm10":45.2,"pm2_5":24.0,"mosquito_risk":0,"arthritis_risk":5,"migraine_risk":7,"frizz_risk":0,"updated_at":"2026-03-04T17:03:42.276724+05:30"},{"city":"Jammu","state":"Jammu and Kashmir","latitude":32.7266,"longitude":74.857,"temp":30.0,"humidity":41,"rain":0.0,"pressure":976.2,"uv_index":6.35,"wind_gusts":22.3,"aqi":98,"pm10":37.4,"pm2_5":28.7,"mosquito_risk":4,"arthritis_risk":5,"migraine_risk":7,"frizz_risk":0,"updated_at":"2026-03-04T17:03:42.276731+05:30"},{"city":"Amritsar","state":"Punjab","latitude":31.634,"longitude":74.8723,"temp":29.7,"humidity":46,"rain":0.0,"pressure":984.6,"uv_index":6.3,"wind_gusts":22.0,"aqi":146,"pm10":53.9,"pm2_5":35.4,"mosquito_risk":4,"arthritis_risk":5,"migraine_risk":7,"frizz_risk":1,"updated_at":"2026-03-04T17:03:42.276737+05:30"},{"city":"Ludhiana","state":"Punjab","latitude":30.901,"longitude":75.8573,"temp":30.3,"humidity":44,"rain":0.0,"pressure":982.1,"uv_index":5.95,"wind_gusts":28.8,"aqi":152,"pm10":80.8,"pm2_5":47.3,"mosquito_risk":0,"arthritis_risk":5,"migraine_risk":3,"frizz_risk":1,"updated_at":"2026-03-04T17:03:42.276743+05:30"},{"city":"Jalandhar","state":"Punjab","latitude":31.326,"longitude":75.5762,"temp":30.2,"humidity":41,"rain":0.0,"pressure":983.3,"uv_index":6.15,"wind_gusts":27.0,"aqi":153,"pm10":85.2,"pm2_5":42.1,"mosquito_risk":0,"arthritis_risk":5,"migraine_risk":7,"frizz_risk":0,"updated_at":"2026-03-04T17:03:42.276752+05:30"},{"city":"Dehradun","state":"Uttarakhand","latitude":30.6284,"longitude":78.0322,"temp":20.0,"humidity":50,"rain":0.0,"pressure":833.2,"uv_index":6.1,"wind_gusts":29.2,"aqi":57,"pm10":18.7,"pm2_5":9.4,"mosquito_risk":0,"arthritis_risk":5,"migraine_risk":7,"frizz_risk":0,"updated_at":"2026-03-04T17:03:42.276758+05:30"},{"city":"Shimla","state":"Himachal Pradesh","latitude":31.1048,"longitude":77.1734,"temp":19.6,"humidity":40,"rain":0.0,"pressure":789.4,"uv_index":6.15,"wind_gusts":50.4,"aqi":70,"pm10":18.9,"pm2_5":10.1,"mosquito_risk":0,"arthritis_risk":5,"migraine_risk":7,"frizz_risk":0,"updated_at":"2026-03-04T17:03:42.276764+05:30"},{"city":"Manali","state":"Himachal Pradesh","latitude":32.2396,"longitude":77.1887,"temp":23.7,"humidity":33,"rain":0.0,"pressure":825.7,"uv_index":7.75,"wind_gusts":32.8,"aqi":77,"pm10":20.6,"pm2_5":8.8,"mosquito_risk":0,"arthritis_risk":5,"migraine_risk":7,"frizz_risk":0,"updated_at":"2026-03-04T17:03:42.276771+05:30"},{"city":"Gurgaon","state":"Haryana","latitude":28.4595,"longitude":77.0266,"temp":30.6,"humidity":37,"rain":0.0,"pressure":984.5,"uv_index":5.95,"wind_gusts":31.0,"aqi":1134,"pm10":1974.4,"pm2_5":212.8,"mosquito_risk":0,"arthritis_risk":5,"migraine_risk":3,"frizz_risk":0,"updated_at":"2026-03-04T17:03:42.276777+05:30"},{"city":"Noida","state":"Uttar Pradesh","latitude":28.5355,"longitude":77.391,"temp":31.9,"humidity":31,"rain":0.0,"pressure":987.3,"uv_index":5.85,"wind_gusts":32.0,"aqi":1134,"pm10":1974.4,"pm2_5":212.8,"mosquito_risk":0,"arthritis_risk":5,"migraine_risk":3,"frizz_risk":0,"updated_at":"2026-03-04T17:03:42.276784+05:30"},{"city":"Ghaziabad","state":"Uttar Pradesh","latitude":28.6692,"longitude":77.4538,"temp":31.1,"humidity":36,"rain":0.0,"pressure":985.4,"uv_index":5.8,"wind_gusts":29.5,"aqi":200,"pm10":482.4,"pm2_5":79.2,"mosquito_risk":0,"arthritis_risk":5,"migraine_risk":3,"frizz_risk":0,"updated_at":"2026-03-04T17:03:42.276792+05:30"},{"city":"Faridabad","state":"Haryana","latitude":28.4089,"longitude":77.3178,"temp":30.7,"humidity":34,"rain":0.0,"pressure":986.7,"uv_index":5.9,"wind_gusts":29.9,"aqi":1134,"pm10":1974.4,"pm2_5":212.8,"mosquito_risk":0,"arthritis_risk":5,"migraine_risk":3,"frizz_risk":0,"updated_at":"2026-03-04T17:03:42.276800+05:30"},{"city":"Meerut","state":"Uttar Pradesh","latitude":28.9845,"longitude":77.7064,"temp":30.6,"humidity":38,"rain":0.0,"pressure":983.9,"uv_index":5.7,"wind_gusts":32.0,"aqi":200,"pm10":482.4,"pm2_5":79.2,"mosquito_risk":0,"arthritis_risk":5,"migraine_risk":3,"frizz_risk":0,"updated_at":"2026-03-04T17:03:42.276806+05:30"},{"city":"Agra","state":"Uttar Pradesh","latitude":27.1767,"longitude":78.0081,"temp":32.4,"humidity":27,"rain":0.0,"pressure":990.7,"uv_index":6.2,"wind_gusts":32.8,"aqi":375,"pm10":864.3,"pm2_5":99.0,"mosquito_risk":0,"arthritis_risk":5,"migraine_risk":7,"frizz_risk":0,"updated_at":"2026-03-04T17:03:42.276812+05:30"},{"city":"Varanasi","state":"Uttar Pradesh","latitude":25.3176,"longitude":82.9739,"temp":29.1,"humidity":44,"rain":0.0,"pressure":999.9,"uv_index":7.0,"wind_gusts":18.4,"aqi":151,"pm10":167.2,"pm2_5":51.9,"mosquito_risk":4,"arthritis_risk":5,"migraine_risk":7,"frizz_risk":0,"updated_at":"2026-03-04T17:03:42.276821+05:30"},{"city":"Prayagraj","state":"Uttar Pradesh","latitude":25.4358,"longitude":81.8463,"temp":29.7,"humidity":40,"rain":0.0,"pressure":998.5,"uv_index":6.85,"wind_gusts":23.4,"aqi":153,"pm10":135.0,"pm2_5":50.8,"mosquito_risk":4,"arthritis_risk":5,"migraine_risk":7,"frizz_risk":0,"updated_at":"2026-03-04T17:03:42.276827+05:30"},{"city":"Gorakhpur","state":"Uttar Pradesh","latitude":26.7606,"longitude":83.3732,"temp":28.3,"humidity":51,"rain":0.0,"pressure":999.7,"uv_index":6.7,"wind_gusts":12.2,"aqi":164,"pm10":106.2,"pm2_5":58.6,"mosquito_risk":4,"arthritis_risk":5,"migraine_risk":7,"frizz_risk":1,"updated_at":"2026-03-04T17:03:42.276834+05:30"},{"city":"Bareilly","state":"Uttar Pradesh","latitude":28.367,"longitude":79.4304,"temp":28.5,"humidity":46,"rain":0.0,"pressure":989.4,"uv_index":6.05,"wind_gusts":20.5,"aqi":163,"pm10":82.9,"pm2_5":48.1,"mosquito_risk":4,"arthritis_risk":5,"migraine_risk":7,"frizz_risk":0,"updated_at":"2026-03-04T17:03:42.276843+05:30"},{"city":"Aligarh","state":"Uttar Pradesh","latitude":27.8974,"longitude":78.088,"temp":31.2,"humidity":34,"rain":0.0,"pressure":988.2,"uv_index":5.95,"wind_gusts":28.8,"aqi":599,"pm10":1043.1,"pm2_5":140.2,"mosquito_risk":0,"arthritis_risk":5,"migraine_risk":3,"frizz_risk":0,"updated_at":"2026-03-04T17:03:42.276849+05:30"},{"city":"Moradabad","state":"Uttar Pradesh","latitude":28.8386,"longitude":78.7733,"temp":29.3,"humidity":44,"rain":0.0,"pressure":986.0,"uv_index":5.85,"wind_gusts":23.4,"aqi":156,"pm10":73.1,"pm2_5":47.8,"mosquito_risk":4,"arthritis_risk":5,"migraine_risk":3,"frizz_risk":0,"updated_at":"2026-03-04T17:03:42.276855+05:30"},{"city":"Saharanpur","state":"Uttar Pradesh","latitude":29.9637,"longitude":77.546,"temp":29.4,"humidity":36,"rain":0.0,"pressure":977.6,"uv_index":5.5,"wind_gusts":39.2,"aqi":150,"pm10":155.5,"pm2_5":42.8,"mosquito_risk":4,"arthritis_risk":5,"migraine_risk":3,"frizz_risk":0,"updated_at":"2026-03-04T17:03:42.276861+05:30"},{"city":"Jhansi","state":"Uttar Pradesh","latitude":25.4484,"longitude":78.5685,"temp":33.3,"humidity":22,"rain":0.0,"pressure":981.2,"uv_index":6.8,"wind_gusts":31.7,"aqi":69,"pm10":27.8,"pm2_5":16.7,"mosquito_risk":0,"arthritis_risk":5,"migraine_risk":7,"frizz_risk":0,"updated_at":"2026-03-04T17:03:45.615807+05:30"},{"city":"Surat","state":"Gujarat","latitude":21.1702,"longitude":72.8311,"temp":34.0,"humidity":34,"rain":0.0,"pressure":1008.3,"uv_index":7.05,"wind_gusts":27.7,"aqi":150,"pm10":38.4,"pm2_5":35.5,"mosquito_risk":0,"arthritis_risk":0,"migraine_risk":4,"frizz_risk":0,"updated_at":"2026-03-04T17:03:45.615834+05:30"},{"city":"Vadodara","state":"Gujarat","latitude":22.3072,"longitude":73.1812,"temp":38.1,"humidity":20,"rain":0.0,"pressure":1005.9,"uv_index":7.2,"wind_gusts":18.7,"aqi":150,"pm10":22.4,"pm2_5":16.9,"mosquito_risk":0,"arthritis_risk":5,"migraine_risk":7,"frizz_risk":0,"updated_at":"2026-03-04T17:03:45.615842+05:30"},{"city":"Rajkot","state":"Gujarat","latitude":22.3039,"longitude":70.8022,"temp":36.1,"humidity":20,"rain":0.0,"pressure":996.8,"uv_index":7.0,"wind_gusts":25.9,"aqi":74,"pm10":26.6,"pm2_5":24.0,"mosquito_risk":0,"arthritis_risk":5,"migraine_risk":10,"frizz_risk":0,"updated_at":"2026-03-04T17:03:45.615850+05:30"},{"city":"Thane","state":"Maharashtra","latitude":19.2183,"longitude":72.9781,"temp":32.9,"humidity":41,"rain":0.0,"pressure":1008.4,"uv_index":7.35,"wind_gusts":35.3,"aqi":191,"pm10":51.3,"pm2_5":48.3,"mosquito_risk":0,"arthritis_risk":0,"migraine_risk":4,"frizz_risk":1,"updated_at":"2026-03-04T17:03:45.615857+05:30"},{"city":"Nagpur","state":"Maharashtra","latitude":21.1458,"longitude":79.0882,"temp":34.8,"humidity":22,"rain":0.0,"pressure":974.9,"uv_index":7.75,"wind_gusts":23.0,"aqi":88,"pm10":21.2,"pm2_5":15.3,"mosquito_risk":0,"arthritis_risk":5,"migraine_risk":7,"frizz_risk":0,"updated_at":"2026-03-04T17:03:45.615864+05:30"},{"city":"Nashik","state":"Maharashtra","latitude":19.9975,"longitude":73.7898,"temp":35.1,"humidity":19,"rain":0.0,"pressure":947.3,"uv_index":7.55,"wind_gusts":23.4,"aqi":116,"pm10":16.3,"pm2_5":15.7,"mosquito_risk":0,"arthritis_risk":5,"migraine_risk":10,"frizz_risk":0,"updated_at":"2026-03-04T17:03:45.615870+05:30"},{"city":"Aurangabad","state":"Maharashtra","latitude":19.8762,"longitude":75.3433,"temp":34.8,"humidity":22,"rain":0.0,"pressure":945.9,"uv_index":8.05,"wind_gusts":22.7,"aqi":121,"pm10":17.9,"pm2_5":16.8,"mosquito_risk":0,"arthritis_risk":5,"migraine_risk":7,"frizz_risk":0,"updated_at":"2026-03-04T17:03:45.615876+05:30"},{"city":"Solapur","state":"Maharashtra","latitude":17.6599,"longitude":75.9064,"temp":34.4,"humidity":25,"rain":0.0,"pressure":958.2,"uv_index":8.3,"wind_gusts":18.0,"aqi":125,"pm10":16.4,"pm2_5":15.0,"mosquito_risk":0,"arthritis_risk":5,"migraine_risk":7,"frizz_risk":0,"updated_at":"2026-03-04T17:03:45.615883+05:30"},{"city":"Kolhapur","state":"Maharashtra","latitude":16.705,"longitude":74.2433,"temp":34.0,"humidity":25,"rain":0.0,"pressure":948.7,"uv_index":8.45,"wind_gusts":37.8,"aqi":158,"pm10":25.6,"pm2_5":24.8,"mosquito_risk":0,"arthritis_risk":5,"migraine_risk":7,"frizz_risk":0,"updated_at":"2026-03-04T17:03:45.615890+05:30"},{"city":"Goa","state":"Goa","latitude":15.2993,"longitude":74.124,"temp":29.7,"humidity":72,"rain":0.0,"pressure":998.0,"uv_index":8.5,"wind_gusts":35.6,"aqi":116,"pm10":40.6,"pm2_5":37.1,"mosquito_risk":7,"arthritis_risk":5,"migraine_risk":7,"frizz_risk":1,"updated_at":"2026-03-04T17:03:45.615896+05:30"},{"city":"Jodhpur","state":"Rajasthan","latitude":26.2389,"longitude":73.0243,"temp":35.8,"humidity":18,"rain":0.0,"pressure":986.8,"uv_index":6.9,"wind_gusts":18.0,"aqi":80,"pm10":74.7,"pm2_5":20.2,"mosquito_risk":0,"arthritis_risk":5,"migraine_risk":10,"frizz_risk":0,"updated_at":"2026-03-04T17:03:45.615902+05:30"},{"city":"Udaipur","state":"Rajasthan","latitude":24.5854,"longitude":73.7125,"temp":33.4,"humidity":21,"rain":0.0,"pressure":950.4,"uv_index":7.5,"wind_gusts":23.8,"aqi":74,"pm10":29.5,"pm2_5":13.7,"mosquito_risk":0,"arthritis_risk":5,"migraine_risk":7,"frizz_risk":0,"updated_at":"2026-03-04T17:03:45.615908+05:30"},{"city":"Kota","state":"Rajasthan","latitude":25.2138,"longitude":75.8648,"temp":35.0,"humidity":17,"rain":0.0,"pressure":982.1,"uv_index":6.9,"wind_gusts":17.6,"aqi":81,"pm10":29.3,"pm2_5":14.6,"mosquito_risk":0,"arthritis_risk":5,"migraine_risk":7,"frizz_risk":0,"updated_at":"2026-03-04T17:03:45.615914+05:30"},{"city":"Bikaner","state":"Rajasthan","latitude":28.0229,"longitude":73.3119,"temp":34.7,"humidity":19,"rain":0.0,"pressure":985.9,"uv_index":6.55,"wind_gusts":23.8,"aqi":67,"pm10":79.2,"pm2_5":19.7,"mosquito_risk":0,"arthritis_risk":5,"migraine_risk":7,"frizz_risk":0,"updated_at":"2026-03-04T17:03:45.615921+05:30"},{"city":"Ajmer","state":"Rajasthan","latitude":26.4499,"longitude":74.6399,"temp":33.7,"humidity":18,"rain":0.0,"pressure":958.6,"uv_index":6.85,"wind_gusts":23.4,"aqi":69,"pm10":45.4,"pm2_5":15.8,"mosquito_risk":0,"arthritis_risk":5,"migraine_risk":7,"frizz_risk":0,"updated_at":"2026-03-04T17:03:45.615927+05:30"},{"city":"Gwalior","state":"Madhya Pradesh","latitude":26.2183,"longitude":78.1828,"temp":31.4,"humidity":33,"rain":0.0,"pressure":986.5,"uv_index":6.5,"wind_gusts":29.2,"aqi":78,"pm10":38.5,"pm2_5":20.3,"mosquito_risk":0,"arthritis_risk":5,"migraine_risk":7,"frizz_risk":0,"updated_at":"2026-03-04T17:03:45.615933+05:30"},{"city":"Indore","state":"Madhya Pradesh","latitude":22.7196,"longitude":75.8577,"temp":32.3,"humidity":25,"rain":0.0,"pressure":951.3,"uv_index":7.45,"wind_gusts":20.5,"aqi":80,"pm10":22.2,"pm2_5":14.1,"mosquito_risk":0,"arthritis_risk":5,"migraine_risk":7,"frizz_risk":0,"updated_at":"2026-03-04T17:03:45.615938+05:30"},{"city":"Bhopal","state":"Madhya Pradesh","latitude":23.2599,"longitude":77.4126,"temp":32.2,"humidity":22,"rain":0.0,"pressure":956.9,"uv_index":7.3,"wind_gusts":23.0,"aqi":70,"pm10":12.3,"pm2_5":7.0,"mosquito_risk":0,"arthritis_risk":5,"migraine_risk":7,"frizz_risk":0,"updated_at":"2026-03-04T17:03:45.615944+05:30"},{"city":"Jabalpur","state":"Madhya Pradesh","latitude":23.1815,"longitude":79.9864,"temp":32.4,"humidity":21,"rain":0.0,"pressure":964.2,"uv_index":7.45,"wind_gusts":23.4,"aqi":70,"pm10":21.0,"pm2_5":11.8,"mosquito_risk":0,"arthritis_risk":5,"migraine_risk":7,"frizz_risk":0,"updated_at":"2026-03-04T17:03:45.615950+05:30"},{"city":"Ujjain","state":"Madhya Pradesh","latitude":23.1765,"longitude":75.7885,"temp":32.4,"humidity":26,"rain":0.0,"pressure":957.0,"uv_index":7.35,"wind_gusts":19.4,"aqi":105,"pm10":25.9,"pm2_5":16.4,"mosquito_risk":0,"arthritis_risk":5,"migraine_risk":7,"frizz_risk":0,"updated_at":"2026-03-04T17:03:45.615956+05:30"},{"city":"Visakhapatnam","state":"Andhra Pradesh","latitude":17.6868,"longitude":83.2185,"temp":29.8,"humidity":52,"rain":0.0,"pressure":1004.5,"uv_index":8.4,"wind_gusts":36.7,"aqi":137,"pm10":38.6,"pm2_5":34.8,"mosquito_risk":4,"arthritis_risk":5,"migraine_risk":4,"frizz_risk":1,"updated_at":"2026-03-04T17:03:45.615962+05:30"},{"city":"Vijayawada","state":"Andhra Pradesh","latitude":16.5062,"longitude":80.648,"temp":33.8,"humidity":39,"rain":0.0,"pressure":1003.1,"uv_index":8.45,"wind_gusts":22.0,"aqi":126,"pm10":40.5,"pm2_5":38.0,"mosquito_risk":0,"arthritis_risk":5,"migraine_risk":4,"frizz_risk":1,"updated_at":"2026-03-04T17:03:45.615967+05:30"},{"city":"Guntur","state":"Andhra Pradesh","latitude":16.3067,"longitude":80.4365,"temp":33.8,"humidity":37,"rain":0.0,"pressure":1004.4,"uv_index":8.45,"wind_gusts":25.6,"aqi":115,"pm10":32.8,"pm2_5":30.6,"mosquito_risk":0,"arthritis_risk":5,"migraine_risk":4,"frizz_risk":1,"updated_at":"2026-03-04T17:03:45.615973+05:30"},{"city":"Nellore","state":"Andhra Pradesh","latitude":14.4426,"longitude":79.9865,"temp":32.0,"humidity":41,"rain":0.0,"pressure":1007.0,"uv_index":8.65,"wind_gusts":29.9,"aqi":111,"pm10":26.1,"pm2_5":23.7,"mosquito_risk":0,"arthritis_risk":5,"migraine_risk":4,"frizz_risk":1,"updated_at":"2026-03-04T17:03:45.615980+05:30"},{"city":"Kurnool","state":"Andhra Pradesh","latitude":15.8281,"longitude":78.0373,"temp":35.4,"humidity":27,"rain":0.0,"pressure":977.4,"uv_index":8.45,"wind_gusts":27.0,"aqi":113,"pm10":20.0,"pm2_5":18.9,"mosquito_risk":0,"arthritis_risk":5,"migraine_risk":10,"frizz_risk":0,"updated_at":"2026-03-04T17:03:45.615987+05:30"},{"city":"Kakinada","state":"Andhra Pradesh","latitude":16.9891,"longitude":82.2475,"temp":32.2,"humidity":40,"rain":0.0,"pressure":1007.8,"uv_index":8.4,"wind_gusts":33.8,"aqi":102,"pm10":31.7,"pm2_5":27.2,"mosquito_risk":0,"arthritis_risk":5,"migraine_risk":4,"frizz_risk":1,"updated_at":"2026-03-04T17:03:45.615992+05:30"},{"city":"Tirupati","state":"Andhra Pradesh","latitude":13.6288,"longitude":79.4192,"temp":33.4,"humidity":27,"rain":0.0,"pressure":992.2,"uv_index":8.8,"wind_gusts":34.6,"aqi":144,"pm10":31.2,"pm2_5":29.7,"mosquito_risk":0,"arthritis_risk":5,"migraine_risk":7,"frizz_risk":0,"updated_at":"2026-03-04T17:03:45.615998+05:30"},{"city":"Warangal","state":"Telangana","latitude":17.9689,"longitude":79.5941,"temp":33.9,"humidity":26,"rain":0.0,"pressure":980.1,"uv_index":8.2,"wind_gusts":20.5,"aqi":123,"pm10":23.9,"pm2_5":20.4,"mosquito_risk":0,"arthritis_risk":5,"migraine_risk":7,"frizz_risk":0,"updated_at":"2026-03-04T17:03:45.616003+05:30"},{"city":"Nizamabad","state":"Telangana","latitude":18.6725,"longitude":78.0941,"temp":34.0,"humidity":25,"rain":0.0,"pressure":966.4,"uv_index":8.1,"wind_gusts":26.3,"aqi":119,"pm10":20.5,"pm2_5":17.1,"mosquito_risk":0,"arthritis_risk":5,"migraine_risk":7,"frizz_risk":0,"updated_at":"2026-03-04T17:03:45.616009+05:30"},{"city":"Mysore","state":"Karnataka","latitude":12.2958,"longitude":76.6396,"temp":32.4,"humidity":21,"rain":0.0,"pressure":928.6,"uv_index":9.15,"wind_gusts":40.3,"aqi":107,"pm10":25.7,"pm2_5":24.5,"mosquito_risk":0,"arthritis_risk":5,"migraine_risk":7,"frizz_risk":0,"updated_at":"2026-03-04T17:03:45.616015+05:30"},{"city":"Mangalore","state":"Karnataka","latitude":12.9141,"longitude":74.856,"temp":28.5,"humidity":83,"rain":0.0,"pressure":1006.1,"uv_index":8.75,"wind_gusts":29.2,"aqi":105,"pm10":38.5,"pm2_5":34.0,"mosquito_risk":7,"arthritis_risk":5,"migraine_risk":4,"frizz_risk":1,"updated_at":"2026-03-04T17:03:45.616020+05:30"},{"city":"Hubli-Dharwad","state":"Karnataka","latitude":15.3647,"longitude":75.124,"temp":34.0,"humidity":25,"rain":0.0,"pressure":941.4,"uv_index":8.65,"wind_gusts":25.6,"aqi":131,"pm10":21.0,"pm2_5":20.3,"mosquito_risk":0,"arthritis_risk":5,"migraine_risk":7,"frizz_risk":0,"updated_at":"2026-03-04T17:03:45.616026+05:30"},{"city":"Belgaum","state":"Karnataka","latitude":15.8497,"longitude":74.4977,"temp":33.6,"humidity":26,"rain":0.0,"pressure":926.5,"uv_index":8.7,"wind_gusts":32.4,"aqi":148,"pm10":24.7,"pm2_5":23.9,"mosquito_risk":0,"arthritis_risk":5,"migraine_risk":7,"frizz_risk":0,"updated_at":"2026-03-04T17:03:48.955779+05:30"},{"city":"Coimbatore","state":"Tamil Nadu","latitude":11.0168,"longitude":76.9558,"temp":32.9,"humidity":24,"rain":0.0,"pressure":961.8,"uv_index":9.15,"wind_gusts":43.2,"aqi":114,"pm10":25.6,"pm2_5":24.3,"mosquito_risk":0,"arthritis_risk":5,"migraine_risk":7,"frizz_risk":0,"updated_at":"2026-03-04T17:03:48.955813+05:30"},{"city":"Madurai","state":"Tamil Nadu","latitude":9.9252,"longitude":78.1198,"temp":34.8,"humidity":26,"rain":0.0,"pressure":992.5,"uv_index":9.1,"wind_gusts":25.9,"aqi":91,"pm10":14.2,"pm2_5":13.3,"mosquito_risk":0,"arthritis_risk":5,"migraine_risk":7,"frizz_risk":0,"updated_at":"2026-03-04T17:03:48.955823+05:30"},{"city":"Trichy","state":"Tamil Nadu","latitude":10.7905,"longitude":78.7047,"temp":33.8,"humidity":31,"rain":0.0,"pressure":999.8,"uv_index":9.0,"wind_gusts":31.0,"aqi":98,"pm10":18.4,"pm2_5":17.5,"mosquito_risk":0,"arthritis_risk":5,"migraine_risk":7,"frizz_risk":0,"updated_at":"2026-03-04T17:03:48.955831+05:30"},{"city":"Salem","state":"Tamil Nadu","latitude":11.6643,"longitude":78.146,"temp":34.8,"humidity":23,"rain":0.0,"pressure":977.2,"uv_index":9.0,"wind_gusts":37.8,"aqi":113,"pm10":17.2,"pm2_5":16.1,"mosquito_risk":0,"arthritis_risk":5,"migraine_risk":7,"frizz_risk":0,"updated_at":"2026-03-04T17:03:48.955839+05:30"},{"city":"Tirunelveli","state":"Tamil Nadu","latitude":8.7139,"longitude":77.7567,"temp":34.8,"humidity":32,"rain":0.0,"pressure":1002.5,"uv_index":9.15,"wind_gusts":41.4,"aqi":83,"pm10":11.9,"pm2_5":11.0,"mosquito_risk":0,"arthritis_risk":5,"migraine_risk":4,"frizz_risk":0,"updated_at":"2026-03-04T17:03:48.955846+05:30"},{"city":"Vellore","state":"Tamil Nadu","latitude":12.9165,"longitude":79.1325,"temp":32.7,"humidity":30,"rain":0.0,"pressure":985.2,"uv_index":8.85,"wind_gusts":38.9,"aqi":134,"pm10":21.1,"pm2_5":19.7,"mosquito_risk":0,"arthritis_risk":5,"migraine_risk":7,"frizz_risk":0,"updated_at":"2026-03-04T17:03:48.955853+05:30"},{"city":"Erode","state":"Tamil Nadu","latitude":11.341,"longitude":77.7172,"temp":36.2,"humidity":20,"rain":0.0,"pressure":988.3,"uv_index":9.05,"wind_gusts":31.0,"aqi":112,"pm10":22.5,"pm2_5":21.5,"mosquito_risk":0,"arthritis_risk":5,"migraine_risk":10,"frizz_risk":0,"updated_at":"2026-03-04T17:03:48.955860+05:30"},{"city":"Kochi","state":"Kerala","latitude":9.9312,"longitude":76.2673,"temp":28.5,"humidity":77,"rain":0.0,"pressure":1007.8,"uv_index":8.95,"wind_gusts":34.6,"aqi":105,"pm10":31.4,"pm2_5":29.8,"mosquito_risk":7,"arthritis_risk":5,"migraine_risk":4,"frizz_risk":1,"updated_at":"2026-03-04T17:03:48.955867+05:30"},{"city":"Thiruvananthapuram","state":"Kerala","latitude":8.5241,"longitude":76.9366,"temp":28.5,"humidity":67,"rain":0.0,"pressure":1008.1,"uv_index":9.0,"wind_gusts":27.4,"aqi":124,"pm10":30.3,"pm2_5":27.9,"mosquito_risk":7,"arthritis_risk":0,"migraine_risk":4,"frizz_risk":1,"updated_at":"2026-03-04T17:03:48.955875+05:30"},{"city":"Kozhikode","state":"Kerala","latitude":11.2588,"longitude":75.7804,"temp":29.3,"humidity":75,"rain":0.0,"pressure":1007.3,"uv_index":8.85,"wind_gusts":31.0,"aqi":92,"pm10":34.8,"pm2_5":30.6,"mosquito_risk":7,"arthritis_risk":5,"migraine_risk":4,"frizz_risk":1,"updated_at":"2026-03-04T17:03:48.955881+05:30"},{"city":"Thrissur","state":"Kerala","latitude":10.5276,"longitude":76.2144,"temp":30.3,"humidity":68,"rain":0.0,"pressure":1006.3,"uv_index":8.9,"wind_gusts":37.8,"aqi":120,"pm10":29.7,"pm2_5":28.4,"mosquito_risk":3,"arthritis_risk":5,"migraine_risk":4,"frizz_risk":1,"updated_at":"2026-03-04T17:03:48.955888+05:30"},{"city":"Kannur","state":"Kerala","latitude":11.8745,"longitude":75.3704,"temp":29.6,"humidity":72,"rain":0.0,"pressure":1007.0,"uv_index":8.8,"wind_gusts":33.5,"aqi":91,"pm10":38.5,"pm2_5":34.0,"mosquito_risk":7,"arthritis_risk":5,"migraine_risk":4,"frizz_risk":1,"updated_at":"2026-03-04T17:03:48.955894+05:30"},{"city":"Patna","state":"Bihar","latitude":25.5941,"longitude":85.1376,"temp":29.5,"humidity":37,"rain":0.0,"pressure":1002.8,"uv_index":7.2,"wind_gusts":15.5,"aqi":169,"pm10":99.7,"pm2_5":55.9,"mosquito_risk":4,"arthritis_risk":5,"migraine_risk":4,"frizz_risk":0,"updated_at":"2026-03-04T17:03:48.955901+05:30"},{"city":"Gaya","state":"Bihar","latitude":24.7914,"longitude":85.0002,"temp":27.4,"humidity":54,"rain":0.0,"pressure":996.1,"uv_index":7.25,"wind_gusts":17.6,"aqi":147,"pm10":162.1,"pm2_5":51.9,"mosquito_risk":4,"arthritis_risk":5,"migraine_risk":7,"frizz_risk":1,"updated_at":"2026-03-04T17:03:48.955907+05:30"},{"city":"Muzaffarpur","state":"Bihar","latitude":26.1209,"longitude":85.3647,"temp":29.2,"humidity":41,"rain":0.0,"pressure":1002.7,"uv_index":7.15,"wind_gusts":14.0,"aqi":166,"pm10":89.9,"pm2_5":58.0,"mosquito_risk":4,"arthritis_risk":5,"migraine_risk":4,"frizz_risk":0,"updated_at":"2026-03-04T17:03:48.955913+05:30"},{"city":"Bhagalpur","state":"Bihar","latitude":25.2425,"longitude":87.0117,"temp":27.7,"humidity":50,"rain":0.0,"pressure":1003.6,"uv_index":7.2,"wind_gusts":8.3,"aqi":165,"pm10":84.8,"pm2_5":51.1,"mosquito_risk":4,"arthritis_risk":5,"migraine_risk":4,"frizz_risk":1,"updated_at":"2026-03-04T17:03:48.955919+05:30"},{"city":"Ranchi","state":"Jharkhand","latitude":23.3441,"longitude":85.3096,"temp":27.6,"humidity":23,"rain":0.0,"pressure":939.4,"uv_index":7.9,"wind_gusts":30.6,"aqi":119,"pm10":89.4,"pm2_5":25.6,"mosquito_risk":4,"arthritis_risk":5,"migraine_risk":7,"frizz_risk":0,"updated_at":"2026-03-04T17:03:48.955925+05:30"},{"city":"Jamshedpur","state":"Jharkhand","latitude":22.8046,"longitude":86.2029,"temp":31.4,"humidity":26,"rain":0.0,"pressure":991.8,"uv_index":7.85,"wind_gusts":19.1,"aqi":129,"pm10":95.0,"pm2_5":37.4,"mosquito_risk":0,"arthritis_risk":5,"migraine_risk":7,"frizz_risk":0,"updated_at":"2026-03-04T17:03:48.955931+05:30"},{"city":"Dhanbad","state":"Jharkhand","latitude":23.7957,"longitude":86.4304,"temp":31.1,"humidity":23,"rain":0.0,"pressure":981.2,"uv_index":7.7,"wind_gusts":23.4,"aqi":138,"pm10":122.0,"pm2_5":42.7,"mosquito_risk":0,"arthritis_risk":5,"migraine_risk":7,"frizz_risk":0,"updated_at":"2026-03-04T17:03:48.955937+05:30"},{"city":"Bokaro","state":"Jharkhand","latitude":23.6693,"longitude":86.1511,"temp":30.7,"humidity":25,"rain":0.0,"pressure":985.2,"uv_index":7.7,"wind_gusts":23.8,"aqi":146,"pm10":136.0,"pm2_5":43.4,"mosquito_risk":0,"arthritis_risk":5,"migraine_risk":7,"frizz_risk":0,"updated_at":"2026-03-04T17:03:48.955943+05:30"},{"city":"Bhubaneswar","state":"Odisha","latitude":20.2961,"longitude":85.8245,"temp":35.2,"humidity":17,"rain":0.0,"pressure":1002.3,"uv_index":8.15,"wind_gusts":26.6,"aqi":169,"pm10":59.8,"pm2_5":43.4,"mosquito_risk":0,"arthritis_risk":5,"migraine_risk":7,"frizz_risk":0,"updated_at":"2026-03-04T17:03:48.955950+05:30"},{"city":"Cuttack","state":"Odisha","latitude":20.4625,"longitude":85.8828,"temp":34.7,"humidity":20,"rain":0.0,"pressure":1004.2,"uv_index":8.15,"wind_gusts":27.0,"aqi":169,"pm10":59.8,"pm2_5":43.4,"mosquito_risk":0,"arthritis_risk":5,"migraine_risk":4,"frizz_risk":0,"updated_at":"2026-03-04T17:03:48.955955+05:30"},{"city":"Rourkela","state":"Odisha","latitude":22.2604,"longitude":84.8536,"temp":33.5,"humidity":25,"rain":0.0,"pressure":985.7,"uv_index":7.75,"wind_gusts":21.2,"aqi":125,"pm10":47.8,"pm2_5":21.2,"mosquito_risk":0,"arthritis_risk":5,"migraine_risk":7,"frizz_risk":0,"updated_at":"2026-03-04T17:03:48.955961+05:30"},{"city":"Raipur","state":"Chhattisgarh","latitude":21.2514,"longitude":81.6296,"temp":34.6,"humidity":22,"rain":0.0,"pressure":976.1,"uv_index":7.8,"wind_gusts":19.8,"aqi":129,"pm10":23.6,"pm2_5":14.2,"mosquito_risk":0,"arthritis_risk":5,"migraine_risk":7,"frizz_risk":0,"updated_at":"2026-03-04T17:03:48.955966+05:30"},{"city":"Bhilai","state":"Chhattisgarh","latitude":21.1938,"longitude":81.3509,"temp":35.0,"humidity":22,"rain":0.0,"pressure":976.4,"uv_index":7.8,"wind_gusts":16.9,"aqi":114,"pm10":23.2,"pm2_5":14.4,"mosquito_risk":0,"arthritis_risk":5,"migraine_risk":7,"frizz_risk":0,"updated_at":"2026-03-04T17:03:48.955972+05:30"},{"city":"Guwahati","state":"Assam","latitude":26.1158,"longitude":91.7086,"temp":28.1,"humidity":54,"rain":0.0,"pressure":1002.7,"uv_index":7.1,"wind_gusts":18.4,"aqi":151,"pm10":45.2,"pm2_5":37.8,"mosquito_risk":4,"arthritis_risk":5,"migraine_risk":4,"frizz_risk":1,"updated_at":"2026-03-04T17:03:48.955978+05:30"},{"city":"Agartala","state":"Tripura","latitude":23.8315,"longitude":91.2868,"temp":27.1,"humidity":54,"rain":0.0,"pressure":1007.2,"uv_index":7.5,"wind_gusts":20.9,"aqi":167,"pm10":73.1,"pm2_5":54.8,"mosquito_risk":4,"arthritis_risk":5,"migraine_risk":4,"frizz_risk":1,"updated_at":"2026-03-04T17:03:48.955984+05:30"},{"city":"Shillong","state":"Meghalaya","latitude":25.5788,"longitude":91.8933,"temp":15.6,"humidity":66,"rain":0.0,"pressure":856.7,"uv_index":7.5,"wind_gusts":29.9,"aqi":138,"pm10":48.4,"pm2_5":38.5,"mosquito_risk":3,"arthritis_risk":5,"migraine_risk":7,"frizz_risk":0,"updated_at":"2026-03-04T17:03:48.955990+05:30"},{"city":"Imphal","state":"Manipur","latitude":24.817,"longitude":93.9368,"temp":20.4,"humidity":54,"rain":0.0,"pressure":923.5,"uv_index":7.7,"wind_gusts":21.2,"aqi":130,"pm10":46.3,"pm2_5":39.5,"mosquito_risk":0,"arthritis_risk":5,"migraine_risk":7,"frizz_risk":0,"updated_at":"2026-03-04T17:03:48.955996+05:30"},{"city":"Aizawl","state":"Mizoram","latitude":23.7271,"longitude":92.7176,"temp":20.3,"humidity":57,"rain":0.0,"pressure":892.9,"uv_index":7.7,"wind_gusts":22.0,"aqi":158,"pm10":74.0,"pm2_5":60.1,"mosquito_risk":0,"arthritis_risk":5,"migraine_risk":7,"frizz_risk":0,"updated_at":"2026-03-04T17:03:48.956002+05:30"},{"city":"Kohima","state":"Nagaland","latitude":25.6701,"longitude":94.1077,"temp":15.4,"humidity":81,"rain":0.0,"pressure":855.1,"uv_index":7.55,"wind_gusts":38.5,"aqi":147,"pm10":61.0,"pm2_5":51.7,"mosquito_risk":3,"arthritis_risk":10,"migraine_risk":7,"frizz_risk":0,"updated_at":"2026-03-04T17:03:48.956008+05:30"},{"city":"Gangtok","state":"Sikkim","latitude":27.3314,"longitude":88.6138,"temp":17.8,"humidity":61,"rain":0.0,"pressure":839.3,"uv_index":7.45,"wind_gusts":22.7,"aqi":141,"pm10":48.2,"pm2_5":36.7,"mosquito_risk":3,"arthritis_risk":5,"migraine_risk":7,"frizz_risk":0,"updated_at":"2026-03-04T17:03:48.956015+05:30"},{"city":"Siliguri","state":"West Bengal","latitude":26.7271,"longitude":88.3953,"temp":23.5,"humidity":64,"rain":0.0,"pressure":996.1,"uv_index":7.1,"wind_gusts":19.8,"aqi":158,"pm10":54.0,"pm2_5":38.9,"mosquito_risk":3,"arthritis_risk":5,"migraine_risk":7,"frizz_risk":1,"updated_at":"2026-03-04T17:03:52.292367+05:30"},{"city":"Durgapur","state":"West Bengal","latitude":23.5204,"longitude":87.3119,"temp":31.0,"humidity":23,"rain":0.0,"pressure":996.4,"uv_index":7.7,"wind_gusts":20.5,"aqi":128,"pm10":94.8,"pm2_5":41.6,"mosquito_risk":0,"arthritis_risk":5,"migraine_risk":7,"frizz_risk":0,"updated_at":"2026-03-04T17:03:52.292394+05:30"},{"city":"Asansol","state":"West Bengal","latitude":23.6739,"longitude":86.9524,"temp":30.6,"humidity":24,"rain":0.0,"pressure":995.2,"uv_index":7.7,"wind_gusts":20.9,"aqi":127,"pm10":108.5,"pm2_5":42.6,"mosquito_risk":0,"arthritis_risk":5,"migraine_risk":7,"frizz_risk":0,"updated_at":"2026-03-04T17:03:52.292403+05:30"},{"city":"Pondicherry","state":"Puducherry","latitude":11.9139,"longitude":79.8145,"temp":30.9,"humidity":46,"rain":0.0,"pressure":1009.3,"uv_index":8.85,"wind_gusts":29.2,"aqi":95,"pm10":19.8,"pm2_5":16.9,"mosquito_risk":0,"arthritis_risk":0,"migraine_risk":4,"frizz_risk":1,"updated_at":"2026-03-04T17:03:52.292445+05:30"},{"city":"Port Blair","state":"Andaman and Nicobar Islands","latitude":11.6234,"longitude":92.7265,"temp":27.4,"humidity":71,"rain":0.0,"pressure":1007.3,"uv_index":8.8,"wind_gusts":25.6,"aqi":95,"pm10":43.1,"pm2_5":35.9,"mosquito_risk":7,"arthritis_risk":5,"migraine_risk":4,"frizz_risk":1,"updated_at":"2026-03-04T17:03:52.292454+05:30"},{"city":"Haridwar","state":"Uttarakhand","latitude":29.9457,"longitude":78.1642,"temp":29.3,"humidity":50,"rain":0.0,"pressure":976.6,"uv_index":5.6,"wind_gusts":19.8,"aqi":127,"pm10":61.2,"pm2_5":31.8,"mosquito_risk":4,"arthritis_risk":5,"migraine_risk":3,"frizz_risk":1,"updated_at":"2026-03-04T17:03:52.292461+05:30"},{"city":"Rishikesh","state":"Uttarakhand","latitude":30.0869,"longitude":78.2676,"temp":27.8,"humidity":44,"rain":0.0,"pressure":969.6,"uv_index":5.65,"wind_gusts":22.7,"aqi":120,"pm10":37.6,"pm2_5":28.5,"mosquito_risk":4,"arthritis_risk":5,"migraine_risk":3,"frizz_risk":0,"updated_at":"2026-03-04T17:03:52.292468+05:30"},{"city":"Nainital","state":"Uttarakhand","latitude":29.3919,"longitude":79.4542,"temp":19.0,"humidity":70,"rain":0.0,"pressure":808.3,"uv_index":6.45,"wind_gusts":57.2,"aqi":138,"pm10":78.0,"pm2_5":48.3,"mosquito_risk":3,"arthritis_risk":5,"migraine_risk":7,"frizz_risk":0,"updated_at":"2026-03-04T17:03:52.292473+05:30"},{"city":"Mussoorie","state":"Uttarakhand","latitude":30.4599,"longitude":78.0664,"temp":19.7,"humidity":51,"rain":0.0,"pressure":805.7,"uv_index":6.0,"wind_gusts":35.6,"aqi":124,"pm10":36.3,"pm2_5":28.8,"mosquito_risk":0,"arthritis_risk":5,"migraine_risk":3,"frizz_risk":0,"updated_at":"2026-03-04T17:03:52.292479+05:30"},{"city":"Dharamshala","state":"Himachal Pradesh","latitude":32.219,"longitude":76.3234,"temp":24.7,"humidity":44,"rain":0.0,"pressure":873.4,"uv_index":6.25,"wind_gusts":27.7,"aqi":68,"pm10":18.3,"pm2_5":9.4,"mosquito_risk":0,"arthritis_risk":5,"migraine_risk":7,"frizz_risk":0,"updated_at":"2026-03-04T17:03:52.292485+05:30"},{"city":"Dalhousie","state":"Himachal Pradesh","latitude":32.5387,"longitude":75.971,"temp":23.5,"humidity":39,"rain":0.0,"pressure":809.1,"uv_index":6.45,"wind_gusts":22.0,"aqi":82,"pm10":25.2,"pm2_5":17.8,"mosquito_risk":0,"arthritis_risk":5,"migraine_risk":7,"frizz_risk":0,"updated_at":"2026-03-04T17:03:52.292492+05:30"},{"city":"Patiala","state":"Punjab","latitude":30.3398,"longitude":76.3869,"temp":30.0,"humidity":43,"rain":0.0,"pressure":981.2,"uv_index":5.65,"wind_gusts":30.6,"aqi":178,"pm10":583.0,"pm2_5":91.7,"mosquito_risk":4,"arthritis_risk":5,"migraine_risk":3,"frizz_risk":0,"updated_at":"2026-03-04T17:03:52.292499+05:30"},{"city":"Bhatinda","state":"Punjab","latitude":30.211,"longitude":74.9455,"temp":30.8,"humidity":46,"rain":0.0,"pressure":987.4,"uv_index":6.3,"wind_gusts":22.7,"aqi":152,"pm10":61.7,"pm2_5":34.7,"mosquito_risk":0,"arthritis_risk":5,"migraine_risk":7,"frizz_risk":1,"updated_at":"2026-03-04T17:03:52.292504+05:30"},{"city":"Rohtak","state":"Haryana","latitude":28.8955,"longitude":76.6066,"temp":30.5,"humidity":39,"rain":0.0,"pressure":985.0,"uv_index":5.85,"wind_gusts":31.0,"aqi":381,"pm10":855.0,"pm2_5":106.4,"mosquito_risk":0,"arthritis_risk":5,"migraine_risk":3,"frizz_risk":0,"updated_at":"2026-03-04T17:03:52.292510+05:30"},{"city":"Panipat","state":"Haryana","latitude":29.3909,"longitude":76.9635,"temp":30.3,"humidity":39,"rain":0.0,"pressure":983.2,"uv_index":5.65,"wind_gusts":31.0,"aqi":917,"pm10":1546.0,"pm2_5":169.5,"mosquito_risk":0,"arthritis_risk":5,"migraine_risk":3,"frizz_risk":0,"updated_at":"2026-03-04T17:03:52.292516+05:30"},{"city":"Mathura","state":"Uttar Pradesh","latitude":27.4924,"longitude":77.6737,"temp":32.1,"humidity":30,"rain":0.0,"pressure":989.9,"uv_index":6.1,"wind_gusts":29.9,"aqi":440,"pm10":1031.9,"pm2_5":119.2,"mosquito_risk":0,"arthritis_risk":5,"migraine_risk":7,"frizz_risk":0,"updated_at":"2026-03-04T17:03:52.292522+05:30"},{"city":"Vrindavan","state":"Uttar Pradesh","latitude":27.5823,"longitude":77.7027,"temp":31.7,"humidity":31,"rain":0.0,"pressure":990.2,"uv_index":6.1,"wind_gusts":31.7,"aqi":440,"pm10":1031.9,"pm2_5":119.2,"mosquito_risk":0,"arthritis_risk":5,"migraine_risk":7,"frizz_risk":0,"updated_at":"2026-03-04T17:03:52.292528+05:30"},{"city":"Ayodhya","state":"Uttar Pradesh","latitude":26.7922,"longitude":82.1998,"temp":29.3,"humidity":43,"rain":0.0,"pressure":997.8,"uv_index":6.5,"wind_gusts":9.7,"aqi":161,"pm10":219.8,"pm2_5":67.1,"mosquito_risk":4,"arthritis_risk":5,"migraine_risk":7,"frizz_risk":0,"updated_at":"2026-03-04T17:03:52.292533+05:30"},{"city":"Ratlam","state":"Madhya Pradesh","latitude":23.3315,"longitude":75.0367,"temp":33.4,"humidity":26,"rain":0.0,"pressure":957.8,"uv_index":7.3,"wind_gusts":21.2,"aqi":103,"pm10":24.6,"pm2_5":16.3,"mosquito_risk":0,"arthritis_risk":5,"migraine_risk":7,"frizz_risk":0,"updated_at":"2026-03-04T17:03:52.292539+05:30"},{"city":"Sagar","state":"Madhya Pradesh","latitude":23.8388,"longitude":78.7378,"temp":31.8,"humidity":24,"rain":0.0,"pressure":953.3,"uv_index":7.25,"wind_gusts":25.6,"aqi":76,"pm10":19.4,"pm2_5":10.3,"mosquito_risk":0,"arthritis_risk":5,"migraine_risk":7,"frizz_risk":0,"updated_at":"2026-03-04T17:03:52.292545+05:30"},{"city":"Satna","state":"Madhya Pradesh","latitude":24.6005,"longitude":80.8322,"temp":32.4,"humidity":22,"rain":0.0,"pressure":973.9,"uv_index":7.25,"wind_gusts":34.9,"aqi":92,"pm10":45.1,"pm2_5":24.8,"mosquito_risk":0,"arthritis_risk":5,"migraine_risk":7,"frizz_risk":0,"updated_at":"2026-03-04T17:03:52.292550+05:30"},{"city":"Akola","state":"Maharashtra","latitude":20.7002,"longitude":77.0082,"temp":36.3,"humidity":21,"rain":0.0,"pressure":976.6,"uv_index":7.8,"wind_gusts":18.7,"aqi":96,"pm10":20.5,"pm2_5":17.2,"mosquito_risk":0,"arthritis_risk":5,"migraine_risk":10,"frizz_risk":0,"updated_at":"2026-03-04T17:03:52.292557+05:30"},{"city":"Amravati","state":"Maharashtra","latitude":20.9374,"longitude":77.7796,"temp":35.9,"humidity":25,"rain":0.0,"pressure":968.7,"uv_index":7.75,"wind_gusts":16.2,"aqi":96,"pm10":19.6,"pm2_5":15.8,"mosquito_risk":0,"arthritis_risk":5,"migraine_risk":10,"frizz_risk":0,"updated_at":"2026-03-04T17:03:52.292563+05:30"},{"city":"Latur","state":"Maharashtra","latitude":18.4088,"longitude":76.5604,"temp":33.4,"humidity":23,"rain":0.0,"pressure":941.5,"uv_index":8.25,"wind_gusts":19.8,"aqi":120,"pm10":21.2,"pm2_5":19.0,"mosquito_risk":0,"arthritis_risk":5,"migraine_risk":7,"frizz_risk":0,"updated_at":"2026-03-04T17:03:52.292569+05:30"},{"city":"Nanded","state":"Maharashtra","latitude":19.1383,"longitude":77.3091,"temp":35.5,"humidity":25,"rain":0.0,"pressure":969.9,"uv_index":8.0,"wind_gusts":13.0,"aqi":108,"pm10":17.6,"pm2_5":14.9,"mosquito_risk":0,"arthritis_risk":5,"migraine_risk":10,"frizz_risk":0,"updated_at":"2026-03-04T17:03:52.292575+05:30"},{"city":"Gulbarga","state":"Karnataka","latitude":17.3297,"longitude":76.8343,"temp":36.0,"humidity":20,"rain":0.0,"pressure":959.6,"uv_index":8.35,"wind_gusts":23.0,"aqi":135,"pm10":15.2,"pm2_5":13.6,"mosquito_risk":0,"arthritis_risk":5,"migraine_risk":10,"frizz_risk":0,"updated_at":"2026-03-04T17:03:52.292581+05:30"},{"city":"Bidar","state":"Karnataka","latitude":17.9104,"longitude":77.5199,"temp":33.6,"humidity":21,"rain":0.0,"pressure":937.2,"uv_index":8.3,"wind_gusts":25.9,"aqi":130,"pm10":18.8,"pm2_5":16.1,"mosquito_risk":0,"arthritis_risk":5,"migraine_risk":7,"frizz_risk":0,"updated_at":"2026-03-04T17:03:52.292586+05:30"},{"city":"Hospet","state":"Karnataka","latitude":15.2689,"longitude":76.3909,"temp":34.6,"humidity":25,"rain":0.0,"pressure":956.4,"uv_index":8.6,"wind_gusts":25.9,"aqi":145,"pm10":27.3,"pm2_5":26.5,"mosquito_risk":0,"arthritis_risk":5,"migraine_risk":7,"frizz_risk":0,"updated_at":"2026-03-04T17:03:52.292591+05:30"},{"city":"Tirupur","state":"Tamil Nadu","latitude":11.1085,"longitude":77.3411,"temp":34.4,"humidity":24,"rain":0.0,"pressure":975.1,"uv_index":9.15,"wind_gusts":32.4,"aqi":129,"pm10":30.9,"pm2_5":29.6,"mosquito_risk":0,"arthritis_risk":5,"migraine_risk":7,"frizz_risk":0,"updated_at":"2026-03-04T17:03:52.292597+05:30"},{"city":"Alappuzha","state":"Kerala","latitude":9.4981,"longitude":76.3388,"temp":28.5,"humidity":75,"rain":0.0,"pressure":1008.1,"uv_index":8.95,"wind_gusts":30.2,"aqi":105,"pm10":30.5,"pm2_5":28.3,"mosquito_risk":7,"arthritis_risk":0,"migraine_risk":4,"frizz_risk":1,"updated_at":"2026-03-04T17:03:52.292602+05:30"},{"city":"Munnar","state":"Kerala","latitude":10.0889,"longitude":77.0595,"temp":28.8,"humidity":32,"rain":0.0,"pressure":858.6,"uv_index":9.45,"wind_gusts":24.5,"aqi":93,"pm10":14.8,"pm2_5":14.2,"mosquito_risk":4,"arthritis_risk":5,"migraine_risk":7,"frizz_risk":0,"updated_at":"2026-03-04T17:03:52.292608+05:30"},{"city":"Silchar","state":"Assam","latitude":24.8333,"longitude":92.7789,"temp":28.5,"humidity":46,"rain":0.0,"pressure":1005.3,"uv_index":7.45,"wind_gusts":14.4,"aqi":150,"pm10":61.0,"pm2_5":51.5,"mosquito_risk":4,"arthritis_risk":5,"migraine_risk":4,"frizz_risk":0,"updated_at":"2026-03-04T17:03:52.292614+05:30"},{"city":"Dibrugarh","state":"Assam","latitude":27.4728,"longitude":94.912,"temp":26.9,"humidity":55,"rain":0.0,"pressure":996.5,"uv_index":7.15,"wind_gusts":9.0,"aqi":130,"pm10":56.9,"pm2_5":45.6,"mosquito_risk":4,"arthritis_risk":5,"migraine_risk":7,"frizz_risk":1,"updated_at":"2026-03-04T17:03:52.292620+05:30"}]