[{"city":"Delhi","state":"Delhi","latitude":28.6139,"longitude":77.209,"temp":15.6,"humidity":85,"rain":0.0,"pressure":986.5,"uv_index":5.75,"wind_gusts":36.0,"aqi":180,"pm10":240.3,"pm2_5":85.2,"mosquito_risk":3,"arthritis_risk":10,"migraine_risk":3,"frizz_risk":0,"updated_at":"2026-03-02T07:56:53.352521+05:30"},{"city":"Mumbai","state":"Maharashtra","latitude":19.076,"longitude":72.8777,"temp":25.2,"humidity":84,"rain":0.0,"pressure":1011.4,"uv_index":7.35,"wind_gusts":25.2,"aqi":84,"pm10":53.2,"pm2_5":33.6,"mosquito_risk":7,"arthritis_risk":0,"migraine_risk":4,"frizz_risk":1,"updated_at":"2026-03-02T07:56:53.352564+05:30"},{"city":"Bangalore","state":"Karnataka","latitude":12.9716,"longitude":77.5946,"temp":20.5,"humidity":80,"rain":0.0,"pressure":913.5,"uv_index":9.05,"wind_gusts":27.4,"aqi":142,"pm10":65.2,"pm2_5":63.1,"mosquito_risk":3,"arthritis_risk":5,"migraine_risk":7,"frizz_risk":1,"updated_at":"2026-03-02T07:56:53.352579+05:30"},{"city":"Hyderabad","state":"Telangana","latitude":17.385,"longitude":78.4867,"temp":22.6,"humidity":81,"rain":0.0,"pressure":955.2,"uv_index":8.3,"wind_gusts":16.9,"aqi":147,"pm10":61.5,"pm2_5":60.1,"mosquito_risk":3,"arthritis_risk":5,"migraine_risk":7,"frizz_risk":1,"updated_at":"2026-03-02T07:56:53.352590+05:30"},{"city":"Chennai","state":"Tamil Nadu","latitude":13.0827,"longitude":80.2707,"temp":23.8,"humidity":85,"rain":0.0,"pressure":1010.4,"uv_index":8.8,"wind_gusts":27.7,"aqi":134,"pm10":58.4,"pm2_5":54.1,"mosquito_risk":3,"arthritis_risk":0,"migraine_risk":4,"frizz_risk":1,"updated_at":"2026-03-02T07:56:53.352598+05:30"},{"city":"Kolkata","state":"West Bengal","latitude":22.5726,"longitude":88.3639,"temp":25.2,"humidity":92,"rain":0.0,"pressure":1008.8,"uv_index":7.65,"wind_gusts":20.9,"aqi":130,"pm10":61.5,"pm2_5":59.3,"mosquito_risk":7,"arthritis_risk":0,"migraine_risk":4,"frizz_risk":1,"updated_at":"2026-03-02T07:56:53.352607+05:30"},{"city":"Pune","state":"Maharashtra","latitude":18.5204,"longitude":73.8567,"temp":18.5,"humidity":87,"rain":0.0,"pressure":949.9,"uv_index":7.85,"wind_gusts":27.7,"aqi":91,"pm10":67.5,"pm2_5":59.0,"mosquito_risk":3,"arthritis_risk":10,"migraine_risk":7,"frizz_risk":1,"updated_at":"2026-03-02T07:56:53.352620+05:30"},{"city":"Ahmedabad","state":"Gujarat","latitude":23.0225,"longitude":72.5714,"temp":20.2,"humidity":72,"rain":0.0,"pressure":1005.9,"uv_index":7.1,"wind_gusts":16.2,"aqi":95,"pm10":74.7,"pm2_5":59.6,"mosquito_risk":3,"arthritis_risk":5,"migraine_risk":4,"frizz_risk":0,"updated_at":"2026-03-02T07:56:53.352628+05:30"},{"city":"Jaipur","state":"Rajasthan","latitude":26.9124,"longitude":75.7873,"temp":19.6,"humidity":46,"rain":0.0,"pressure":963.4,"uv_index":6.55,"wind_gusts":27.0,"aqi":91,"pm10":159.7,"pm2_5":47.8,"mosquito_risk":0,"arthritis_risk":5,"migraine_risk":7,"frizz_risk":0,"updated_at":"2026-03-02T07:56:53.352636+05:30"},{"city":"Lucknow","state":"Uttar Pradesh","latitude":26.8467,"longitude":80.9462,"temp":16.9,"humidity":66,"rain":0.0,"pressure":996.7,"uv_index":6.25,"wind_gusts":38.2,"aqi":115,"pm10":222.6,"pm2_5":69.6,"mosquito_risk":3,"arthritis_risk":5,"migraine_risk":7,"frizz_risk":0,"updated_at":"2026-03-02T07:56:53.352644+05:30"},{"city":"Kanpur","state":"Uttar Pradesh","latitude":26.4499,"longitude":80.3319,"temp":15.9,"humidity":78,"rain":0.0,"pressure":995.3,"uv_index":6.25,"wind_gusts":32.0,"aqi":133,"pm10":338.1,"pm2_5":71.5,"mosquito_risk":3,"arthritis_risk":5,"migraine_risk":7,"frizz_risk":0,"updated_at":"2026-03-02T07:56:53.352652+05:30"},{"city":"Chandigarh","state":"Chandigarh","latitude":30.7333,"longitude":76.7794,"temp":15.2,"humidity":64,"rain":0.0,"pressure":971.3,"uv_index":5.6,"wind_gusts":38.9,"aqi":86,"pm10":41.2,"pm2_5":33.3,"mosquito_risk":3,"arthritis_risk":5,"migraine_risk":3,"frizz_risk":0,"updated_at":"2026-03-02T07:56:53.352659+05:30"},{"city":"Srinagar","state":"Jammu and Kashmir","latitude":34.0837,"longitude":74.7973,"temp":3.8,"humidity":85,"rain":0.0,"pressure":839.6,"uv_index":6.55,"wind_gusts":18.0,"aqi":141,"pm10":75.7,"pm2_5":59.8,"mosquito_risk":3,"arthritis_risk":10,"migraine_risk":7,"frizz_risk":0,"updated_at":"2026-03-02T07:56:53.352667+05:30"},{"city":"Jammu","state":"Jammu and Kashmir","latitude":32.7266,"longitude":74.857,"temp":14.0,"humidity":78,"rain":0.0,"pressure":975.5,"uv_index":6.25,"wind_gusts":30.2,"aqi":103,"pm10":46.2,"pm2_5":42.0,"mosquito_risk":3,"arthritis_risk":5,"migraine_risk":7,"frizz_risk":0,"updated_at":"2026-03-02T07:56:53.352674+05:30"},{"city":"Amritsar","state":"Punjab","latitude":31.634,"longitude":74.8723,"temp":16.3,"humidity":78,"rain":0.0,"pressure":984.1,"uv_index":6.0,"wind_gusts":28.8,"aqi":138,"pm10":96.2,"pm2_5":75.0,"mosquito_risk":3,"arthritis_risk":5,"migraine_risk":3,"frizz_risk":0,"updated_at":"2026-03-02T07:56:53.352681+05:30"},{"city":"Ludhiana","state":"Punjab","latitude":30.901,"longitude":75.8573,"temp":16.3,"humidity":73,"rain":0.0,"pressure":981.8,"uv_index":5.85,"wind_gusts":34.2,"aqi":159,"pm10":97.1,"pm2_5":85.7,"mosquito_risk":3,"arthritis_risk":5,"migraine_risk":3,"frizz_risk":0,"updated_at":"2026-03-02T07:56:53.352690+05:30"},{"city":"Jalandhar","state":"Punjab","latitude":31.326,"longitude":75.5762,"temp":15.5,"humidity":81,"rain":0.0,"pressure":983.0,"uv_index":6.05,"wind_gusts":33.5,"aqi":160,"pm10":110.1,"pm2_5":95.5,"mosquito_risk":3,"arthritis_risk":10,"migraine_risk":7,"frizz_risk":0,"updated_at":"2026-03-02T07:56:53.352698+05:30"},{"city":"Dehradun","state":"Uttarakhand","latitude":30.6284,"longitude":78.0322,"temp":9.8,"humidity":64,"rain":0.0,"pressure":828.0,"uv_index":6.0,"wind_gusts":27.0,"aqi":59,"pm10":14.5,"pm2_5":12.3,"mosquito_risk":3,"arthritis_risk":5,"migraine_risk":3,"frizz_risk":0,"updated_at":"2026-03-02T07:56:53.352706+05:30"},{"city":"Shimla","state":"Himachal Pradesh","latitude":31.1048,"longitude":77.1734,"temp":7.0,"humidity":70,"rain":0.0,"pressure":781.1,"uv_index":6.05,"wind_gusts":56.2,"aqi":71,"pm10":39.3,"pm2_5":30.9,"mosquito_risk":3,"arthritis_risk":5,"migraine_risk":7,"frizz_risk":0,"updated_at":"2026-03-02T07:56:53.352713+05:30"},{"city":"Manali","state":"Himachal Pradesh","latitude":32.2396,"longitude":77.1887,"temp":11.7,"humidity":14,"rain":0.0,"pressure":817.1,"uv_index":7.45,"wind_gusts":34.2,"aqi":55,"pm10":20.3,"pm2_5":15.1,"mosquito_risk":0,"arthritis_risk":5,"migraine_risk":7,"frizz_risk":1,"updated_at":"2026-03-02T07:56:53.352720+05:30"},{"city":"Gurgaon","state":"Haryana","latitude":28.4595,"longitude":77.0266,"temp":13.8,"humidity":89,"rain":0.0,"pressure":985.0,"uv_index":5.85,"wind_gusts":33.1,"aqi":689,"pm10":871.7,"pm2_5":143.9,"mosquito_risk":3,"arthritis_risk":10,"migraine_risk":3,"frizz_risk":0,"updated_at":"2026-03-02T07:56:53.352726+05:30"},{"city":"Noida","state":"Uttar Pradesh","latitude":28.5355,"longitude":77.391,"temp":16.2,"humidity":82,"rain":0.0,"pressure":988.0,"uv_index":5.75,"wind_gusts":35.6,"aqi":689,"pm10":871.7,"pm2_5":143.9,"mosquito_risk":3,"arthritis_risk":10,"migraine_risk":3,"frizz_risk":0,"updated_at":"2026-03-02T07:56:53.352733+05:30"},{"city":"Ghaziabad","state":"Uttar Pradesh","latitude":28.6692,"longitude":77.4538,"temp":15.8,"humidity":83,"rain":0.0,"pressure":986.0,"uv_index":5.75,"wind_gusts":35.6,"aqi":158,"pm10":227.2,"pm2_5":81.5,"mosquito_risk":3,"arthritis_risk":10,"migraine_risk":3,"frizz_risk":0,"updated_at":"2026-03-02T07:56:53.352739+05:30"},{"city":"Faridabad","state":"Haryana","latitude":28.4089,"longitude":77.3178,"temp":15.9,"humidity":83,"rain":0.0,"pressure":987.3,"uv_index":5.8,"wind_gusts":31.3,"aqi":689,"pm10":871.7,"pm2_5":143.9,"mosquito_risk":3,"arthritis_risk":10,"migraine_risk":3,"frizz_risk":0,"updated_at":"2026-03-02T07:56:53.352747+05:30"},{"city":"Meerut","state":"Uttar Pradesh","latitude":28.9845,"longitude":77.7064,"temp":14.6,"humidity":80,"rain":0.0,"pressure":984.5,"uv_index":5.6,"wind_gusts":38.9,"aqi":158,"pm10":227.2,"pm2_5":81.5,"mosquito_risk":3,"arthritis_risk":5,"migraine_risk":3,"frizz_risk":0,"updated_at":"2026-03-02T07:56:53.352753+05:30"},{"city":"Agra","state":"Uttar Pradesh","latitude":27.1767,"longitude":78.0081,"temp":15.1,"humidity":83,"rain":0.0,"pressure":991.7,"uv_index":6.1,"wind_gusts":28.8,"aqi":312,"pm10":399.5,"pm2_5":82.7,"mosquito_risk":3,"arthritis_risk":10,"migraine_risk":7,"frizz_risk":0,"updated_at":"2026-03-02T07:56:53.352761+05:30"},{"city":"Varanasi","state":"Uttar Pradesh","latitude":25.3176,"longitude":82.9739,"temp":17.6,"humidity":77,"rain":0.0,"pressure":1001.1,"uv_index":6.9,"wind_gusts":31.7,"aqi":104,"pm10":54.4,"pm2_5":28.5,"mosquito_risk":3,"arthritis_risk":5,"migraine_risk":4,"frizz_risk":0,"updated_at":"2026-03-02T07:56:53.352770+05:30"},{"city":"Prayagraj","state":"Uttar Pradesh","latitude":25.4358,"longitude":81.8463,"temp":17.2,"humidity":75,"rain":0.0,"pressure":999.9,"uv_index":6.8,"wind_gusts":28.1,"aqi":109,"pm10":74.0,"pm2_5":33.2,"mosquito_risk":3,"arthritis_risk":5,"migraine_risk":7,"frizz_risk":0,"updated_at":"2026-03-02T07:56:53.352777+05:30"},{"city":"Gorakhpur","state":"Uttar Pradesh","latitude":26.7606,"longitude":83.3732,"temp":16.0,"humidity":76,"rain":0.0,"pressure":1000.2,"uv_index":6.6,"wind_gusts":27.7,"aqi":105,"pm10":115.9,"pm2_5":51.5,"mosquito_risk":3,"arthritis_risk":5,"migraine_risk":4,"frizz_risk":0,"updated_at":"2026-03-02T07:56:53.352783+05:30"},{"city":"Bareilly","state":"Uttar Pradesh","latitude":28.367,"longitude":79.4304,"temp":14.4,"humidity":80,"rain":0.0,"pressure":989.3,"uv_index":5.9,"wind_gusts":34.2,"aqi":127,"pm10":77.1,"pm2_5":59.5,"mosquito_risk":3,"arthritis_risk":5,"migraine_risk":3,"frizz_risk":0,"updated_at":"2026-03-02T07:56:53.352789+05:30"},{"city":"Aligarh","state":"Uttar Pradesh","latitude":27.8974,"longitude":78.088,"temp":15.4,"humidity":84,"rain":0.0,"pressure":989.1,"uv_index":5.85,"wind_gusts":33.1,"aqi":402,"pm10":506.6,"pm2_5":115.7,"mosquito_risk":3,"arthritis_risk":10,"migraine_risk":3,"frizz_risk":0,"updated_at":"2026-03-02T07:56:53.352796+05:30"},{"city":"Moradabad","state":"Uttar Pradesh","latitude":28.8386,"longitude":78.7733,"temp":14.1,"humidity":78,"rain":0.0,"pressure":986.2,"uv_index":5.75,"wind_gusts":35.6,"aqi":139,"pm10":75.0,"pm2_5":59.5,"mosquito_risk":3,"arthritis_risk":5,"migraine_risk":3,"frizz_risk":0,"updated_at":"2026-03-02T07:56:53.352802+05:30"},{"city":"Saharanpur","state":"Uttar Pradesh","latitude":29.9637,"longitude":77.546,"temp":13.7,"humidity":73,"rain":0.0,"pressure":978.1,"uv_index":5.4,"wind_gusts":51.5,"aqi":123,"pm10":70.8,"pm2_5":58.4,"mosquito_risk":3,"arthritis_risk":5,"migraine_risk":3,"frizz_risk":0,"updated_at":"2026-03-02T07:56:53.352808+05:30"},{"city":"Jhansi","state":"Uttar Pradesh","latitude":25.4484,"longitude":78.5685,"temp":16.8,"humidity":75,"rain":0.0,"pressure":981.7,"uv_index":6.7,"wind_gusts":23.0,"aqi":80,"pm10":35.9,"pm2_5":26.5,"mosquito_risk":3,"arthritis_risk":5,"migraine_risk":7,"frizz_risk":0,"updated_at":"2026-03-02T07:56:56.602953+05:30"},{"city":"Surat","state":"Gujarat","latitude":21.1702,"longitude":72.8311,"temp":22.4,"humidity":95,"rain":0.0,"pressure":1009.9,"uv_index":7.0,"wind_gusts":22.3,"aqi":130,"pm10":78.0,"pm2_5":61.0,"mosquito_risk":3,"arthritis_risk":0,"migraine_risk":4,"frizz_risk":1,"updated_at":"2026-03-02T07:56:56.603054+05:30"},{"city":"Vadodara","state":"Gujarat","latitude":22.3072,"longitude":73.1812,"temp":21.0,"humidity":81,"rain":0.0,"pressure":1007.9,"uv_index":7.1,"wind_gusts":14.4,"aqi":131,"pm10":96.2,"pm2_5":83.8,"mosquito_risk":3,"arthritis_risk":5,"migraine_risk":4,"frizz_risk":1,"updated_at":"2026-03-02T07:56:56.603072+05:30"},{"city":"Rajkot","state":"Gujarat","latitude":22.3039,"longitude":70.8022,"temp":20.0,"humidity":96,"rain":0.0,"pressure":998.0,"uv_index":6.95,"wind_gusts":19.4,"aqi":69,"pm10":56.3,"pm2_5":21.2,"mosquito_risk":3,"arthritis_risk":5,"migraine_risk":7,"frizz_risk":1,"updated_at":"2026-03-02T07:56:56.603081+05:30"},{"city":"Thane","state":"Maharashtra","latitude":19.2183,"longitude":72.9781,"temp":21.0,"humidity":97,"rain":0.0,"pressure":1011.0,"uv_index":7.3,"wind_gusts":35.3,"aqi":84,"pm10":53.2,"pm2_5":33.6,"mosquito_risk":3,"arthritis_risk":0,"migraine_risk":4,"frizz_risk":1,"updated_at":"2026-03-02T07:56:56.603088+05:30"},{"city":"Nagpur","state":"Maharashtra","latitude":21.1458,"longitude":79.0882,"temp":21.2,"humidity":68,"rain":0.0,"pressure":976.0,"uv_index":7.7,"wind_gusts":23.8,"aqi":65,"pm10":25.1,"pm2_5":21.4,"mosquito_risk":3,"arthritis_risk":5,"migraine_risk":7,"frizz_risk":0,"updated_at":"2026-03-02T07:56:56.603096+05:30"},{"city":"Nashik","state":"Maharashtra","latitude":19.9975,"longitude":73.7898,"temp":18.3,"humidity":92,"rain":0.0,"pressure":947.2,"uv_index":7.5,"wind_gusts":26.6,"aqi":85,"pm10":56.1,"pm2_5":50.9,"mosquito_risk":3,"arthritis_risk":10,"migraine_risk":7,"frizz_risk":1,"updated_at":"2026-03-02T07:56:56.603103+05:30"},{"city":"Aurangabad","state":"Maharashtra","latitude":19.8762,"longitude":75.3433,"temp":20.3,"humidity":63,"rain":0.0,"pressure":946.1,"uv_index":8.0,"wind_gusts":20.9,"aqi":74,"pm10":35.5,"pm2_5":33.6,"mosquito_risk":3,"arthritis_risk":5,"migraine_risk":7,"frizz_risk":0,"updated_at":"2026-03-02T07:56:56.603110+05:30"},{"city":"Solapur","state":"Maharashtra","latitude":17.6599,"longitude":75.9064,"temp":21.5,"humidity":68,"rain":0.0,"pressure":958.9,"uv_index":8.25,"wind_gusts":19.4,"aqi":102,"pm10":54.4,"pm2_5":53.9,"mosquito_risk":3,"arthritis_risk":5,"migraine_risk":7,"frizz_risk":0,"updated_at":"2026-03-02T07:56:56.603117+05:30"},{"city":"Kolhapur","state":"Maharashtra","latitude":16.705,"longitude":74.2433,"temp":17.2,"humidity":83,"rain":0.0,"pressure":948.9,"uv_index":8.35,"wind_gusts":35.6,"aqi":83,"pm10":65.0,"pm2_5":58.2,"mosquito_risk":3,"arthritis_risk":10,"migraine_risk":7,"frizz_risk":0,"updated_at":"2026-03-02T07:56:56.603125+05:30"},{"city":"Goa","state":"Goa","latitude":15.2993,"longitude":74.124,"temp":22.3,"humidity":90,"rain":0.0,"pressure":1000.2,"uv_index":8.45,"wind_gusts":31.7,"aqi":65,"pm10":42.0,"pm2_5":34.9,"mosquito_risk":3,"arthritis_risk":5,"migraine_risk":4,"frizz_risk":1,"updated_at":"2026-03-02T07:56:56.603136+05:30"},{"city":"Jodhpur","state":"Rajasthan","latitude":26.2389,"longitude":73.0243,"temp":16.4,"humidity":75,"rain":0.0,"pressure":986.6,"uv_index":6.8,"wind_gusts":11.5,"aqi":80,"pm10":107.6,"pm2_5":34.9,"mosquito_risk":3,"arthritis_risk":5,"migraine_risk":7,"frizz_risk":0,"updated_at":"2026-03-02T07:56:56.603143+05:30"},{"city":"Udaipur","state":"Rajasthan","latitude":24.5854,"longitude":73.7125,"temp":16.7,"humidity":57,"rain":0.0,"pressure":949.2,"uv_index":7.4,"wind_gusts":17.3,"aqi":64,"pm10":32.5,"pm2_5":21.0,"mosquito_risk":0,"arthritis_risk":5,"migraine_risk":7,"frizz_risk":0,"updated_at":"2026-03-02T07:56:56.603150+05:30"},{"city":"Kota","state":"Rajasthan","latitude":25.2138,"longitude":75.8648,"temp":17.3,"humidity":81,"rain":0.0,"pressure":982.4,"uv_index":6.8,"wind_gusts":13.7,"aqi":85,"pm10":47.5,"pm2_5":37.1,"mosquito_risk":3,"arthritis_risk":10,"migraine_risk":7,"frizz_risk":0,"updated_at":"2026-03-02T07:56:56.603157+05:30"},{"city":"Bikaner","state":"Rajasthan","latitude":28.0229,"longitude":73.3119,"temp":20.2,"humidity":51,"rain":0.0,"pressure":985.5,"uv_index":6.5,"wind_gusts":22.0,"aqi":67,"pm10":39.3,"pm2_5":21.6,"mosquito_risk":0,"arthritis_risk":5,"migraine_risk":7,"frizz_risk":0,"updated_at":"2026-03-02T07:56:56.603164+05:30"},{"city":"Ajmer","state":"Rajasthan","latitude":26.4499,"longitude":74.6399,"temp":19.2,"humidity":43,"rain":0.0,"pressure":957.5,"uv_index":6.75,"wind_gusts":24.8,"aqi":80,"pm10":58.8,"pm2_5":36.6,"mosquito_risk":0,"arthritis_risk":5,"migraine_risk":7,"frizz_risk":0,"updated_at":"2026-03-02T07:56:56.603170+05:30"},{"city":"Gwalior","state":"Madhya Pradesh","latitude":26.2183,"longitude":78.1828,"temp":18.6,"humidity":66,"rain":0.0,"pressure":987.2,"uv_index":6.45,"wind_gusts":28.4,"aqi":94,"pm10":170.9,"pm2_5":38.6,"mosquito_risk":3,"arthritis_risk":5,"migraine_risk":7,"frizz_risk":0,"updated_at":"2026-03-02T07:56:56.603176+05:30"},{"city":"Indore","state":"Madhya Pradesh","latitude":22.7196,"longitude":75.8577,"temp":16.8,"humidity":76,"rain":0.0,"pressure":950.1,"uv_index":7.4,"wind_gusts":13.3,"aqi":88,"pm10":59.0,"pm2_5":50.3,"mosquito_risk":3,"arthritis_risk":5,"migraine_risk":7,"frizz_risk":0,"updated_at":"2026-03-02T07:56:56.603182+05:30"},{"city":"Bhopal","state":"Madhya Pradesh","latitude":23.2599,"longitude":77.4126,"temp":18.7,"humidity":59,"rain":0.0,"pressure":956.4,"uv_index":7.25,"wind_gusts":17.3,"aqi":78,"pm10":44.6,"pm2_5":39.7,"mosquito_risk":0,"arthritis_risk":5,"migraine_risk":7,"frizz_risk":0,"updated_at":"2026-03-02T07:56:56.603189+05:30"},{"city":"Jabalpur","state":"Madhya Pradesh","latitude":23.1815,"longitude":79.9864,"temp":19.9,"humidity":67,"rain":0.0,"pressure":964.7,"uv_index":7.35,"wind_gusts":18.4,"aqi":69,"pm10":47.0,"pm2_5":33.9,"mosquito_risk":3,"arthritis_risk":5,"migraine_risk":7,"frizz_risk":0,"updated_at":"2026-03-02T07:56:56.603195+05:30"},{"city":"Ujjain","state":"Madhya Pradesh","latitude":23.1765,"longitude":75.7885,"temp":17.4,"humidity":78,"rain":0.0,"pressure":956.2,"uv_index":7.3,"wind_gusts":14.0,"aqi":105,"pm10":81.5,"pm2_5":73.3,"mosquito_risk":3,"arthritis_risk":5,"migraine_risk":7,"frizz_risk":0,"updated_at":"2026-03-02T07:56:56.603202+05:30"},{"city":"Visakhapatnam","state":"Andhra Pradesh","latitude":17.6868,"longitude":83.2185,"temp":26.0,"humidity":65,"rain":0.0,"pressure":1006.6,"uv_index":8.35,"wind_gusts":40.3,"aqi":151,"pm10":63.3,"pm2_5":61.2,"mosquito_risk":7,"arthritis_risk":5,"migraine_risk":4,"frizz_risk":1,"updated_at":"2026-03-02T07:56:56.603209+05:30"},{"city":"Vijayawada","state":"Andhra Pradesh","latitude":16.5062,"longitude":80.648,"temp":24.3,"humidity":91,"rain":0.0,"pressure":1005.8,"uv_index":8.4,"wind_gusts":24.5,"aqi":144,"pm10":79.4,"pm2_5":75.9,"mosquito_risk":3,"arthritis_risk":5,"migraine_risk":4,"frizz_risk":1,"updated_at":"2026-03-02T07:56:56.603216+05:30"},{"city":"Guntur","state":"Andhra Pradesh","latitude":16.3067,"longitude":80.4365,"temp":24.4,"humidity":91,"rain":0.0,"pressure":1007.0,"uv_index":8.45,"wind_gusts":29.5,"aqi":136,"pm10":69.4,"pm2_5":66.4,"mosquito_risk":3,"arthritis_risk":5,"migraine_risk":4,"frizz_risk":1,"updated_at":"2026-03-02T07:56:56.603223+05:30"},{"city":"Nellore","state":"Andhra Pradesh","latitude":14.4426,"longitude":79.9865,"temp":24.1,"humidity":81,"rain":0.0,"pressure":1008.8,"uv_index":8.65,"wind_gusts":28.4,"aqi":131,"pm10":55.1,"pm2_5":52.9,"mosquito_risk":3,"arthritis_risk":0,"migraine_risk":4,"frizz_risk":1,"updated_at":"2026-03-02T07:56:56.603230+05:30"},{"city":"Kurnool","state":"Andhra Pradesh","latitude":15.8281,"longitude":78.0373,"temp":25.5,"humidity":64,"rain":0.0,"pressure":979.3,"uv_index":8.45,"wind_gusts":23.4,"aqi":123,"pm10":48.9,"pm2_5":47.7,"mosquito_risk":7,"arthritis_risk":5,"migraine_risk":7,"frizz_risk":1,"updated_at":"2026-03-02T07:56:56.603238+05:30"},{"city":"Kakinada","state":"Andhra Pradesh","latitude":16.9891,"longitude":82.2475,"temp":25.0,"humidity":83,"rain":0.0,"pressure":1010.7,"uv_index":8.35,"wind_gusts":29.5,"aqi":150,"pm10":64.7,"pm2_5":60.3,"mosquito_risk":7,"arthritis_risk":0,"migraine_risk":4,"frizz_risk":1,"updated_at":"2026-03-02T07:56:56.603244+05:30"},{"city":"Tirupati","state":"Andhra Pradesh","latitude":13.6288,"longitude":79.4192,"temp":21.6,"humidity":78,"rain":0.0,"pressure":994.5,"uv_index":8.75,"wind_gusts":24.8,"aqi":138,"pm10":61.2,"pm2_5":59.3,"mosquito_risk":3,"arthritis_risk":5,"migraine_risk":7,"frizz_risk":1,"updated_at":"2026-03-02T07:56:56.603251+05:30"},{"city":"Warangal","state":"Telangana","latitude":17.9689,"longitude":79.5941,"temp":23.2,"humidity":80,"rain":0.0,"pressure":981.3,"uv_index":8.15,"wind_gusts":18.7,"aqi":146,"pm10":48.3,"pm2_5":47.3,"mosquito_risk":3,"arthritis_risk":5,"migraine_risk":7,"frizz_risk":1,"updated_at":"2026-03-02T07:56:56.603257+05:30"},{"city":"Nizamabad","state":"Telangana","latitude":18.6725,"longitude":78.0941,"temp":22.9,"humidity":74,"rain":0.0,"pressure":967.1,"uv_index":8.05,"wind_gusts":29.2,"aqi":121,"pm10":79.9,"pm2_5":79.6,"mosquito_risk":3,"arthritis_risk":5,"migraine_risk":7,"frizz_risk":1,"updated_at":"2026-03-02T07:56:56.603263+05:30"},{"city":"Mysore","state":"Karnataka","latitude":12.2958,"longitude":76.6396,"temp":20.8,"humidity":93,"rain":0.0,"pressure":930.4,"uv_index":9.1,"wind_gusts":25.9,"aqi":151,"pm10":71.5,"pm2_5":70.3,"mosquito_risk":3,"arthritis_risk":5,"migraine_risk":7,"frizz_risk":1,"updated_at":"2026-03-02T07:56:56.603270+05:30"},{"city":"Mangalore","state":"Karnataka","latitude":12.9141,"longitude":74.856,"temp":27.5,"humidity":79,"rain":0.0,"pressure":1009.4,"uv_index":8.65,"wind_gusts":28.4,"aqi":51,"pm10":22.3,"pm2_5":19.8,"mosquito_risk":7,"arthritis_risk":0,"migraine_risk":4,"frizz_risk":1,"updated_at":"2026-03-02T07:56:56.603276+05:30"},{"city":"Hubli-Dharwad","state":"Karnataka","latitude":15.3647,"longitude":75.124,"temp":19.6,"humidity":90,"rain":0.0,"pressure":942.4,"uv_index":8.65,"wind_gusts":28.4,"aqi":62,"pm10":29.7,"pm2_5":28.5,"mosquito_risk":3,"arthritis_risk":10,"migraine_risk":7,"frizz_risk":1,"updated_at":"2026-03-02T07:56:56.603283+05:30"},{"city":"Belgaum","state":"Karnataka","latitude":15.8497,"longitude":74.4977,"temp":18.7,"humidity":78,"rain":0.0,"pressure":926.3,"uv_index":8.65,"wind_gusts":38.5,"aqi":66,"pm10":41.2,"pm2_5":36.3,"mosquito_risk":3,"arthritis_risk":5,"migraine_risk":7,"frizz_risk":0,"updated_at":"2026-03-02T07:56:59.848698+05:30"},{"city":"Coimbatore","state":"Tamil Nadu","latitude":11.0168,"longitude":76.9558,"temp":22.2,"humidity":83,"rain":0.0,"pressure":964.5,"uv_index":9.1,"wind_gusts":28.1,"aqi":150,"pm10":71.2,"pm2_5":70.5,"mosquito_risk":3,"arthritis_risk":5,"migraine_risk":7,"frizz_risk":1,"updated_at":"2026-03-02T07:56:59.848729+05:30"},{"city":"Madurai","state":"Tamil Nadu","latitude":9.9252,"longitude":78.1198,"temp":22.8,"humidity":85,"rain":0.0,"pressure":996.2,"uv_index":9.05,"wind_gusts":24.8,"aqi":132,"pm10":52.5,"pm2_5":50.8,"mosquito_risk":3,"arthritis_risk":5,"migraine_risk":7,"frizz_risk":1,"updated_at":"2026-03-02T07:56:59.848739+05:30"},{"city":"Trichy","state":"Tamil Nadu","latitude":10.7905,"longitude":78.7047,"temp":23.0,"humidity":93,"rain":0.0,"pressure":1003.1,"uv_index":8.95,"wind_gusts":29.5,"aqi":138,"pm10":67.5,"pm2_5":64.7,"mosquito_risk":3,"arthritis_risk":5,"migraine_risk":4,"frizz_risk":1,"updated_at":"2026-03-02T07:56:59.848747+05:30"},{"city":"Salem","state":"Tamil Nadu","latitude":11.6643,"longitude":78.146,"temp":23.7,"humidity":85,"rain":0.0,"pressure":980.4,"uv_index":9.0,"wind_gusts":28.8,"aqi":139,"pm10":66.8,"pm2_5":64.5,"mosquito_risk":3,"arthritis_risk":5,"migraine_risk":7,"frizz_risk":1,"updated_at":"2026-03-02T07:56:59.848755+05:30"},{"city":"Tirunelveli","state":"Tamil Nadu","latitude":8.7139,"longitude":77.7567,"temp":21.8,"humidity":75,"rain":0.0,"pressure":1006.4,"uv_index":9.1,"wind_gusts":40.3,"aqi":139,"pm10":73.6,"pm2_5":71.7,"mosquito_risk":3,"arthritis_risk":5,"migraine_risk":4,"frizz_risk":1,"updated_at":"2026-03-02T07:56:59.848762+05:30"},{"city":"Vellore","state":"Tamil Nadu","latitude":12.9165,"longitude":79.1325,"temp":22.2,"humidity":81,"rain":0.0,"pressure":987.5,"uv_index":8.85,"wind_gusts":32.0,"aqi":150,"pm10":72.2,"pm2_5":70.1,"mosquito_risk":3,"arthritis_risk":5,"migraine_risk":7,"frizz_risk":1,"updated_at":"2026-03-02T07:56:59.848770+05:30"},{"city":"Erode","state":"Tamil Nadu","latitude":11.341,"longitude":77.7172,"temp":24.7,"humidity":84,"rain":0.0,"pressure":992.3,"uv_index":9.0,"wind_gusts":28.4,"aqi":128,"pm10":54.8,"pm2_5":52.4,"mosquito_risk":3,"arthritis_risk":5,"migraine_risk":7,"frizz_risk":1,"updated_at":"2026-03-02T07:56:59.848777+05:30"},{"city":"Kochi","state":"Kerala","latitude":9.9312,"longitude":76.2673,"temp":26.6,"humidity":80,"rain":0.0,"pressure":1011.6,"uv_index":8.9,"wind_gusts":29.9,"aqi":91,"pm10":41.8,"pm2_5":41.2,"mosquito_risk":7,"arthritis_risk":0,"migraine_risk":4,"frizz_risk":1,"updated_at":"2026-03-02T07:56:59.848784+05:30"},{"city":"Thiruvananthapuram","state":"Kerala","latitude":8.5241,"longitude":76.9366,"temp":26.7,"humidity":82,"rain":0.0,"pressure":1010.7,"uv_index":8.95,"wind_gusts":30.6,"aqi":66,"pm10":21.7,"pm2_5":20.9,"mosquito_risk":7,"arthritis_risk":0,"migraine_risk":4,"frizz_risk":1,"updated_at":"2026-03-02T07:56:59.848792+05:30"},{"city":"Kozhikode","state":"Kerala","latitude":11.2588,"longitude":75.7804,"temp":27.3,"humidity":80,"rain":0.0,"pressure":1010.6,"uv_index":8.8,"wind_gusts":30.2,"aqi":56,"pm10":22.9,"pm2_5":18.7,"mosquito_risk":7,"arthritis_risk":0,"migraine_risk":4,"frizz_risk":1,"updated_at":"2026-03-02T07:56:59.848799+05:30"},{"city":"Thrissur","state":"Kerala","latitude":10.5276,"longitude":76.2144,"temp":24.9,"humidity":90,"rain":0.0,"pressure":1010.0,"uv_index":8.85,"wind_gusts":33.8,"aqi":100,"pm10":41.0,"pm2_5":39.9,"mosquito_risk":3,"arthritis_risk":0,"migraine_risk":4,"frizz_risk":1,"updated_at":"2026-03-02T07:56:59.848806+05:30"},{"city":"Kannur","state":"Kerala","latitude":11.8745,"longitude":75.3704,"temp":26.7,"humidity":75,"rain":0.0,"pressure":1009.7,"uv_index":8.75,"wind_gusts":32.0,"aqi":52,"pm10":20.0,"pm2_5":18.1,"mosquito_risk":7,"arthritis_risk":0,"migraine_risk":4,"frizz_risk":1,"updated_at":"2026-03-02T07:56:59.848813+05:30"},{"city":"Patna","state":"Bihar","latitude":25.5941,"longitude":85.1376,"temp":19.3,"humidity":74,"rain":0.0,"pressure":1003.6,"uv_index":7.05,"wind_gusts":27.0,"aqi":136,"pm10":62.2,"pm2_5":44.5,"mosquito_risk":3,"arthritis_risk":5,"migraine_risk":4,"frizz_risk":0,"updated_at":"2026-03-02T07:56:59.848820+05:30"},{"city":"Gaya","state":"Bihar","latitude":24.7914,"longitude":85.0002,"temp":21.0,"humidity":71,"rain":0.0,"pressure":997.4,"uv_index":7.15,"wind_gusts":23.8,"aqi":132,"pm10":61.9,"pm2_5":44.2,"mosquito_risk":3,"arthritis_risk":5,"migraine_risk":7,"frizz_risk":0,"updated_at":"2026-03-02T07:56:59.848826+05:30"},{"city":"Muzaffarpur","state":"Bihar","latitude":26.1209,"longitude":85.3647,"temp":17.9,"humidity":76,"rain":0.0,"pressure":1003.5,"uv_index":7.0,"wind_gusts":26.3,"aqi":126,"pm10":72.2,"pm2_5":54.1,"mosquito_risk":3,"arthritis_risk":5,"migraine_risk":4,"frizz_risk":0,"updated_at":"2026-03-02T07:56:59.848833+05:30"},{"city":"Bhagalpur","state":"Bihar","latitude":25.2425,"longitude":87.0117,"temp":21.1,"humidity":83,"rain":0.0,"pressure":1004.7,"uv_index":7.1,"wind_gusts":21.6,"aqi":144,"pm10":118.5,"pm2_5":82.4,"mosquito_risk":3,"arthritis_risk":5,"migraine_risk":4,"frizz_risk":1,"updated_at":"2026-03-02T07:56:59.848839+05:30"},{"city":"Ranchi","state":"Jharkhand","latitude":23.3441,"longitude":85.3096,"temp":21.0,"humidity":58,"rain":0.0,"pressure":940.2,"uv_index":7.8,"wind_gusts":43.2,"aqi":99,"pm10":61.9,"pm2_5":35.0,"mosquito_risk":0,"arthritis_risk":5,"migraine_risk":7,"frizz_risk":0,"updated_at":"2026-03-02T07:56:59.848846+05:30"},{"city":"Jamshedpur","state":"Jharkhand","latitude":22.8046,"longitude":86.2029,"temp":23.7,"humidity":75,"rain":0.0,"pressure":993.8,"uv_index":7.75,"wind_gusts":22.0,"aqi":154,"pm10":94.3,"pm2_5":67.3,"mosquito_risk":3,"arthritis_risk":5,"migraine_risk":7,"frizz_risk":1,"updated_at":"2026-03-02T07:56:59.848852+05:30"},{"city":"Dhanbad","state":"Jharkhand","latitude":23.7957,"longitude":86.4304,"temp":23.9,"humidity":54,"rain":0.0,"pressure":982.9,"uv_index":7.6,"wind_gusts":36.7,"aqi":145,"pm10":96.6,"pm2_5":72.2,"mosquito_risk":0,"arthritis_risk":5,"migraine_risk":7,"frizz_risk":0,"updated_at":"2026-03-02T07:56:59.848859+05:30"},{"city":"Bokaro","state":"Jharkhand","latitude":23.6693,"longitude":86.1511,"temp":23.1,"humidity":60,"rain":0.0,"pressure":987.2,"uv_index":7.6,"wind_gusts":40.0,"aqi":150,"pm10":95.9,"pm2_5":73.8,"mosquito_risk":0,"arthritis_risk":5,"migraine_risk":7,"frizz_risk":0,"updated_at":"2026-03-02T07:56:59.848866+05:30"},{"city":"Bhubaneswar","state":"Odisha","latitude":20.2961,"longitude":85.8245,"temp":25.4,"humidity":81,"rain":0.0,"pressure":1004.9,"uv_index":8.05,"wind_gusts":29.5,"aqi":131,"pm10":58.1,"pm2_5":57.2,"mosquito_risk":7,"arthritis_risk":5,"migraine_risk":4,"frizz_risk":1,"updated_at":"2026-03-02T07:56:59.848873+05:30"},{"city":"Cuttack","state":"Odisha","latitude":20.4625,"longitude":85.8828,"temp":24.8,"humidity":87,"rain":0.0,"pressure":1007.1,"uv_index":8.1,"wind_gusts":22.3,"aqi":131,"pm10":58.1,"pm2_5":57.2,"mosquito_risk":3,"arthritis_risk":5,"migraine_risk":4,"frizz_risk":1,"updated_at":"2026-03-02T07:56:59.848879+05:30"},{"city":"Rourkela","state":"Odisha","latitude":22.2604,"longitude":84.8536,"temp":25.0,"humidity":57,"rain":0.0,"pressure":988.2,"uv_index":7.65,"wind_gusts":19.1,"aqi":152,"pm10":58.8,"pm2_5":39.5,"mosquito_risk":4,"arthritis_risk":5,"migraine_risk":7,"frizz_risk":0,"updated_at":"2026-03-02T07:56:59.848886+05:30"},{"city":"Raipur","state":"Chhattisgarh","latitude":21.2514,"longitude":81.6296,"temp":23.7,"humidity":54,"rain":0.0,"pressure":977.8,"uv_index":7.75,"wind_gusts":24.8,"aqi":121,"pm10":35.0,"pm2_5":32.0,"mosquito_risk":0,"arthritis_risk":5,"migraine_risk":7,"frizz_risk":0,"updated_at":"2026-03-02T07:56:59.848892+05:30"},{"city":"Bhilai","state":"Chhattisgarh","latitude":21.1938,"longitude":81.3509,"temp":23.8,"humidity":55,"rain":0.0,"pressure":978.2,"uv_index":7.8,"wind_gusts":23.4,"aqi":100,"pm10":36.0,"pm2_5":34.0,"mosquito_risk":0,"arthritis_risk":5,"migraine_risk":7,"frizz_risk":0,"updated_at":"2026-03-02T07:56:59.848899+05:30"},{"city":"Guwahati","state":"Assam","latitude":26.1158,"longitude":91.7086,"temp":20.4,"humidity":84,"rain":0.0,"pressure":1006.1,"uv_index":7.0,"wind_gusts":29.5,"aqi":156,"pm10":66.8,"pm2_5":58.1,"mosquito_risk":3,"arthritis_risk":5,"migraine_risk":4,"frizz_risk":1,"updated_at":"2026-03-02T07:56:59.848905+05:30"},{"city":"Agartala","state":"Tripura","latitude":23.8315,"longitude":91.2868,"temp":22.1,"humidity":89,"rain":0.0,"pressure":1010.1,"uv_index":7.3,"wind_gusts":28.1,"aqi":107,"pm10":41.9,"pm2_5":39.1,"mosquito_risk":3,"arthritis_risk":0,"migraine_risk":4,"frizz_risk":1,"updated_at":"2026-03-02T07:56:59.848912+05:30"},{"city":"Shillong","state":"Meghalaya","latitude":25.5788,"longitude":91.8933,"temp":13.9,"humidity":56,"rain":0.0,"pressure":857.1,"uv_index":7.25,"wind_gusts":61.2,"aqi":119,"pm10":55.6,"pm2_5":41.4,"mosquito_risk":0,"arthritis_risk":5,"migraine_risk":7,"frizz_risk":0,"updated_at":"2026-03-02T07:56:59.848918+05:30"},{"city":"Imphal","state":"Manipur","latitude":24.817,"longitude":93.9368,"temp":16.6,"humidity":67,"rain":0.0,"pressure":925.6,"uv_index":7.45,"wind_gusts":79.2,"aqi":150,"pm10":94.1,"pm2_5":79.9,"mosquito_risk":3,"arthritis_risk":5,"migraine_risk":7,"frizz_risk":0,"updated_at":"2026-03-02T07:56:59.848925+05:30"},{"city":"Aizawl","state":"Mizoram","latitude":23.7271,"longitude":92.7176,"temp":16.8,"humidity":75,"rain":0.0,"pressure":894.7,"uv_index":6.75,"wind_gusts":41.8,"aqi":123,"pm10":56.3,"pm2_5":51.6,"mosquito_risk":3,"arthritis_risk":5,"migraine_risk":7,"frizz_risk":0,"updated_at":"2026-03-02T07:56:59.848931+05:30"},{"city":"Kohima","state":"Nagaland","latitude":25.6701,"longitude":94.1077,"temp":14.5,"humidity":61,"rain":0.0,"pressure":856.2,"uv_index":7.45,"wind_gusts":84.2,"aqi":151,"pm10":66.8,"pm2_5":56.2,"mosquito_risk":3,"arthritis_risk":5,"migraine_risk":7,"frizz_risk":0,"updated_at":"2026-03-02T07:56:59.848938+05:30"},{"city":"Gangtok","state":"Sikkim","latitude":27.3314,"longitude":88.6138,"temp":11.4,"humidity":75,"rain":0.0,"pressure":836.4,"uv_index":5.1,"wind_gusts":18.0,"aqi":135,"pm10":57.9,"pm2_5":43.7,"mosquito_risk":3,"arthritis_risk":5,"migraine_risk":3,"frizz_risk":0,"updated_at":"2026-03-02T07:56:59.848944+05:30"},{"city":"Siliguri","state":"West Bengal","latitude":26.7271,"longitude":88.3953,"temp":18.9,"humidity":70,"rain":0.0,"pressure":997.2,"uv_index":7.0,"wind_gusts":19.4,"aqi":173,"pm10":130.4,"pm2_5":103.6,"mosquito_risk":3,"arthritis_risk":5,"migraine_risk":7,"frizz_risk":0,"updated_at":"2026-03-02T07:57:03.092500+05:30"},{"city":"Durgapur","state":"West Bengal","latitude":23.5204,"longitude":87.3119,"temp":23.7,"humidity":79,"rain":0.0,"pressure":997.9,"uv_index":7.6,"wind_gusts":32.0,"aqi":145,"pm10":92.4,"pm2_5":68.0,"mosquito_risk":3,"arthritis_risk":5,"migraine_risk":7,"frizz_risk":1,"updated_at":"2026-03-02T07:57:03.092532+05:30"},{"city":"Asansol","state":"West Bengal","latitude":23.6739,"longitude":86.9524,"temp":24.6,"humidity":60,"rain":0.0,"pressure":996.5,"uv_index":7.6,"wind_gusts":34.9,"aqi":121,"pm10":71.7,"pm2_5":48.7,"mosquito_risk":0,"arthritis_risk":5,"migraine_risk":7,"frizz_risk":1,"updated_at":"2026-03-02T07:57:03.092544+05:30"},{"city":"Pondicherry","state":"Puducherry","latitude":11.9139,"longitude":79.8145,"temp":22.5,"humidity":98,"rain":0.0,"pressure":1011.8,"uv_index":8.8,"wind_gusts":27.4,"aqi":129,"pm10":58.4,"pm2_5":54.6,"mosquito_risk":3,"arthritis_risk":0,"migraine_risk":4,"frizz_risk":1,"updated_at":"2026-03-02T07:57:03.092554+05:30"},{"city":"Port Blair","state":"Andaman and Nicobar Islands","latitude":11.6234,"longitude":92.7265,"temp":27.1,"humidity":73,"rain":0.0,"pressure":1009.4,"uv_index":8.8,"wind_gusts":18.4,"aqi":72,"pm10":28.9,"pm2_5":24.0,"mosquito_risk":7,"arthritis_risk":0,"migraine_risk":4,"frizz_risk":1,"updated_at":"2026-03-02T07:57:03.092564+05:30"},{"city":"Haridwar","state":"Uttarakhand","latitude":29.9457,"longitude":78.1642,"temp":15.1,"humidity":83,"rain":0.0,"pressure":976.5,"uv_index":5.55,"wind_gusts":41.4,"aqi":97,"pm10":43.9,"pm2_5":42.7,"mosquito_risk":3,"arthritis_risk":10,"migraine_risk":3,"frizz_risk":0,"updated_at":"2026-03-02T07:57:03.092573+05:30"},{"city":"Rishikesh","state":"Uttarakhand","latitude":30.0869,"longitude":78.2676,"temp":15.8,"humidity":75,"rain":0.0,"pressure":968.9,"uv_index":5.6,"wind_gusts":32.4,"aqi":79,"pm10":32.5,"pm2_5":30.2,"mosquito_risk":3,"arthritis_risk":5,"migraine_risk":3,"frizz_risk":0,"updated_at":"2026-03-02T07:57:03.092582+05:30"},{"city":"Nainital","state":"Uttarakhand","latitude":29.3919,"longitude":79.4542,"temp":14.5,"humidity":57,"rain":0.0,"pressure":804.6,"uv_index":6.4,"wind_gusts":42.8,"aqi":81,"pm10":31.7,"pm2_5":29.3,"mosquito_risk":0,"arthritis_risk":5,"migraine_risk":7,"frizz_risk":0,"updated_at":"2026-03-02T07:57:03.092591+05:30"},{"city":"Mussoorie","state":"Uttarakhand","latitude":30.4599,"longitude":78.0664,"temp":12.1,"humidity":55,"rain":0.0,"pressure":801.0,"uv_index":5.9,"wind_gusts":34.2,"aqi":82,"pm10":27.5,"pm2_5":25.6,"mosquito_risk":0,"arthritis_risk":5,"migraine_risk":3,"frizz_risk":0,"updated_at":"2026-03-02T07:57:03.092599+05:30"},{"city":"Dharamshala","state":"Himachal Pradesh","latitude":32.219,"longitude":76.3234,"temp":15.8,"humidity":49,"rain":0.0,"pressure":869.3,"uv_index":6.15,"wind_gusts":26.6,"aqi":58,"pm10":15.3,"pm2_5":11.0,"mosquito_risk":0,"arthritis_risk":5,"migraine_risk":7,"frizz_risk":0,"updated_at":"2026-03-02T07:57:03.092607+05:30"},{"city":"Dalhousie","state":"Himachal Pradesh","latitude":32.5387,"longitude":75.971,"temp":12.4,"humidity":38,"rain":0.0,"pressure":802.7,"uv_index":6.35,"wind_gusts":23.8,"aqi":100,"pm10":33.5,"pm2_5":29.9,"mosquito_risk":0,"arthritis_risk":5,"migraine_risk":7,"frizz_risk":1,"updated_at":"2026-03-02T07:57:03.092617+05:30"},{"city":"Patiala","state":"Punjab","latitude":30.3398,"longitude":76.3869,"temp":15.3,"humidity":78,"rain":0.0,"pressure":981.2,"uv_index":5.55,"wind_gusts":36.4,"aqi":157,"pm10":82.7,"pm2_5":72.6,"mosquito_risk":3,"arthritis_risk":5,"migraine_risk":3,"frizz_risk":0,"updated_at":"2026-03-02T07:57:03.092625+05:30"},{"city":"Bhatinda","state":"Punjab","latitude":30.211,"longitude":74.9455,"temp":17.0,"humidity":77,"rain":0.0,"pressure":987.3,"uv_index":6.2,"wind_gusts":26.3,"aqi":157,"pm10":118.7,"pm2_5":92.2,"mosquito_risk":3,"arthritis_risk":5,"migraine_risk":7,"frizz_risk":0,"updated_at":"2026-03-02T07:57:03.092633+05:30"},{"city":"Rohtak","state":"Haryana","latitude":28.8955,"longitude":76.6066,"temp":14.7,"humidity":88,"rain":0.0,"pressure":985.4,"uv_index":5.75,"wind_gusts":33.5,"aqi":195,"pm10":224.4,"pm2_5":80.8,"mosquito_risk":3,"arthritis_risk":10,"migraine_risk":3,"frizz_risk":0,"updated_at":"2026-03-02T07:57:03.092641+05:30"},{"city":"Panipat","state":"Haryana","latitude":29.3909,"longitude":76.9635,"temp":14.8,"humidity":81,"rain":0.0,"pressure":983.5,"uv_index":5.55,"wind_gusts":34.9,"aqi":472,"pm10":558.8,"pm2_5":114.3,"mosquito_risk":3,"arthritis_risk":10,"migraine_risk":3,"frizz_risk":0,"updated_at":"2026-03-02T07:57:03.092650+05:30"},{"city":"Mathura","state":"Uttar Pradesh","latitude":27.4924,"longitude":77.6737,"temp":15.1,"humidity":83,"rain":0.0,"pressure":990.7,"uv_index":6.0,"wind_gusts":26.6,"aqi":336,"pm10":345.5,"pm2_5":79.6,"mosquito_risk":3,"arthritis_risk":10,"migraine_risk":3,"frizz_risk":0,"updated_at":"2026-03-02T07:57:03.092658+05:30"},{"city":"Vrindavan","state":"Uttar Pradesh","latitude":27.5823,"longitude":77.7027,"temp":15.5,"humidity":84,"rain":0.0,"pressure":991.2,"uv_index":6.0,"wind_gusts":30.2,"aqi":336,"pm10":345.5,"pm2_5":79.6,"mosquito_risk":3,"arthritis_risk":10,"migraine_risk":3,"frizz_risk":0,"updated_at":"2026-03-02T07:57:03.092666+05:30"},{"city":"Ayodhya","state":"Uttar Pradesh","latitude":26.7922,"longitude":82.1998,"temp":16.3,"humidity":74,"rain":0.0,"pressure":998.4,"uv_index":6.4,"wind_gusts":37.1,"aqi":103,"pm10":156.5,"pm2_5":55.4,"mosquito_risk":3,"arthritis_risk":5,"migraine_risk":7,"frizz_risk":0,"updated_at":"2026-03-02T07:57:03.092675+05:30"},{"city":"Ratlam","state":"Madhya Pradesh","latitude":23.3315,"longitude":75.0367,"temp":18.4,"humidity":71,"rain":0.0,"pressure":956.9,"uv_index":7.25,"wind_gusts":7.9,"aqi":98,"pm10":72.2,"pm2_5":65.9,"mosquito_risk":3,"arthritis_risk":5,"migraine_risk":7,"frizz_risk":0,"updated_at":"2026-03-02T07:57:03.092683+05:30"},{"city":"Sagar","state":"Madhya Pradesh","latitude":23.8388,"longitude":78.7378,"temp":19.6,"humidity":61,"rain":0.0,"pressure":952.9,"uv_index":7.2,"wind_gusts":20.2,"aqi":64,"pm10":36.6,"pm2_5":26.7,"mosquito_risk":3,"arthritis_risk":5,"migraine_risk":7,"frizz_risk":0,"updated_at":"2026-03-02T07:57:03.092691+05:30"},{"city":"Satna","state":"Madhya Pradesh","latitude":24.6005,"longitude":80.8322,"temp":19.6,"humidity":47,"rain":0.0,"pressure":974.8,"uv_index":7.15,"wind_gusts":31.3,"aqi":67,"pm10":32.9,"pm2_5":19.0,"mosquito_risk":0,"arthritis_risk":5,"migraine_risk":7,"frizz_risk":0,"updated_at":"2026-03-02T07:57:03.092698+05:30"},{"city":"Akola","state":"Maharashtra","latitude":20.7002,"longitude":77.0082,"temp":21.1,"humidity":69,"rain":0.0,"pressure":977.9,"uv_index":7.75,"wind_gusts":25.6,"aqi":67,"pm10":30.2,"pm2_5":29.5,"mosquito_risk":3,"arthritis_risk":5,"migraine_risk":7,"frizz_risk":0,"updated_at":"2026-03-02T07:57:03.092708+05:30"},{"city":"Amravati","state":"Maharashtra","latitude":20.9374,"longitude":77.7796,"temp":21.3,"humidity":64,"rain":0.0,"pressure":970.0,"uv_index":7.7,"wind_gusts":24.8,"aqi":65,"pm10":34.3,"pm2_5":33.1,"mosquito_risk":3,"arthritis_risk":5,"migraine_risk":7,"frizz_risk":0,"updated_at":"2026-03-02T07:57:03.092716+05:30"},{"city":"Latur","state":"Maharashtra","latitude":18.4088,"longitude":76.5604,"temp":21.2,"humidity":66,"rain":0.0,"pressure":941.6,"uv_index":8.15,"wind_gusts":27.7,"aqi":76,"pm10":35.0,"pm2_5":34.7,"mosquito_risk":3,"arthritis_risk":5,"migraine_risk":7,"frizz_risk":0,"updated_at":"2026-03-02T07:57:03.092723+05:30"},{"city":"Nanded","state":"Maharashtra","latitude":19.1383,"longitude":77.3091,"temp":21.2,"humidity":71,"rain":0.0,"pressure":971.6,"uv_index":7.95,"wind_gusts":19.4,"aqi":76,"pm10":39.9,"pm2_5":39.3,"mosquito_risk":3,"arthritis_risk":5,"migraine_risk":7,"frizz_risk":0,"updated_at":"2026-03-02T07:57:03.092730+05:30"},{"city":"Gulbarga","state":"Karnataka","latitude":17.3297,"longitude":76.8343,"temp":24.5,"humidity":70,"rain":0.0,"pressure":960.8,"uv_index":8.25,"wind_gusts":14.0,"aqi":115,"pm10":62.4,"pm2_5":61.9,"mosquito_risk":3,"arthritis_risk":5,"migraine_risk":7,"frizz_risk":1,"updated_at":"2026-03-02T07:57:03.092736+05:30"},{"city":"Bidar","state":"Karnataka","latitude":17.9104,"longitude":77.5199,"temp":23.2,"humidity":73,"rain":0.0,"pressure":937.2,"uv_index":8.2,"wind_gusts":16.9,"aqi":144,"pm10":82.2,"pm2_5":81.5,"mosquito_risk":3,"arthritis_risk":5,"migraine_risk":7,"frizz_risk":1,"updated_at":"2026-03-02T07:57:03.092742+05:30"},{"city":"Hospet","state":"Karnataka","latitude":15.2689,"longitude":76.3909,"temp":23.1,"humidity":77,"rain":0.0,"pressure":958.0,"uv_index":8.6,"wind_gusts":21.2,"aqi":109,"pm10":38.8,"pm2_5":38.4,"mosquito_risk":3,"arthritis_risk":5,"migraine_risk":7,"frizz_risk":1,"updated_at":"2026-03-02T07:57:03.092748+05:30"},{"city":"Tirupur","state":"Tamil Nadu","latitude":11.1085,"longitude":77.3411,"temp":24.0,"humidity":86,"rain":0.0,"pressure":978.2,"uv_index":9.1,"wind_gusts":23.8,"aqi":151,"pm10":76.6,"pm2_5":75.0,"mosquito_risk":3,"arthritis_risk":5,"migraine_risk":7,"frizz_risk":1,"updated_at":"2026-03-02T07:57:03.092754+05:30"},{"city":"Alappuzha","state":"Kerala","latitude":9.4981,"longitude":76.3388,"temp":26.5,"humidity":83,"rain":0.0,"pressure":1011.7,"uv_index":8.9,"wind_gusts":28.1,"aqi":88,"pm10":40.3,"pm2_5":39.2,"mosquito_risk":7,"arthritis_risk":0,"migraine_risk":4,"frizz_risk":1,"updated_at":"2026-03-02T07:57:03.092761+05:30"},{"city":"Munnar","state":"Kerala","latitude":10.0889,"longitude":77.0595,"temp":18.9,"humidity":73,"rain":0.0,"pressure":857.8,"uv_index":9.4,"wind_gusts":29.2,"aqi":135,"pm10":52.7,"pm2_5":51.3,"mosquito_risk":3,"arthritis_risk":5,"migraine_risk":7,"frizz_risk":0,"updated_at":"2026-03-02T07:57:03.092771+05:30"},{"city":"Silchar","state":"Assam","latitude":24.8333,"longitude":92.7789,"temp":20.5,"humidity":80,"rain":0.0,"pressure":1009.4,"uv_index":7.35,"wind_gusts":33.5,"aqi":153,"pm10":74.0,"pm2_5":63.8,"mosquito_risk":3,"arthritis_risk":0,"migraine_risk":4,"frizz_risk":1,"updated_at":"2026-03-02T07:57:03.092778+05:30"},{"city":"Dibrugarh","state":"Assam","latitude":27.4728,"longitude":94.912,"temp":19.6,"humidity":86,"rain":0.0,"pressure":1000.6,"uv_index":7.05,"wind_gusts":11.9,"aqi":153,"pm10":39.9,"pm2_5":35.2,"mosquito_risk":3,"arthritis_risk":10,"migraine_risk":4,"frizz_risk":1,"updated_at":"2026-03-02T07:57:03.092784+05:30"}]