[{"city":"Delhi","state":"Delhi","latitude":28.6139,"longitude":77.209,"temp":28.4,"humidity":76,"rain":0.0,"pressure":976.5,"uv_index":7.7,"wind_gusts":24.1,"aqi":191,"pm10":127.1,"pm2_5":58.9,"no2":28.6,"co":345.0,"o3":40.0,"so2":18.1,"mosquito_risk":7,"arthritis_risk":5,"migraine_risk":7,"frizz_risk":1,"updated_at":"2026-07-15T04:35:51.623379+05:30"},{"city":"Mumbai","state":"Maharashtra","latitude":19.076,"longitude":72.8777,"temp":26.3,"humidity":82,"rain":0.1,"pressure":1006.8,"uv_index":7.6,"wind_gusts":46.1,"aqi":73,"pm10":41.3,"pm2_5":17.6,"no2":4.5,"co":122.0,"o3":48.0,"so2":3.8,"mosquito_risk":10,"arthritis_risk":5,"migraine_risk":4,"frizz_risk":1,"updated_at":"2026-07-15T04:35:51.623431+05:30"},{"city":"Bangalore","state":"Karnataka","latitude":12.9716,"longitude":77.5946,"temp":19.7,"humidity":93,"rain":0.0,"pressure":910.3,"uv_index":8.9,"wind_gusts":42.1,"aqi":61,"pm10":19.5,"pm2_5":14.5,"no2":14.7,"co":188.0,"o3":34.0,"so2":5.3,"mosquito_risk":3,"arthritis_risk":10,"migraine_risk":7,"frizz_risk":1,"updated_at":"2026-07-15T04:35:51.623448+05:30"},{"city":"Hyderabad","state":"Telangana","latitude":17.385,"longitude":78.4867,"temp":26.4,"humidity":60,"rain":0.0,"pressure":950.7,"uv_index":9.05,"wind_gusts":44.6,"aqi":73,"pm10":22.6,"pm2_5":17.9,"no2":11.2,"co":154.0,"o3":44.0,"so2":5.8,"mosquito_risk":4,"arthritis_risk":5,"migraine_risk":7,"frizz_risk":1,"updated_at":"2026-07-15T04:35:51.623459+05:30"},{"city":"Chennai","state":"Tamil Nadu","latitude":13.0827,"longitude":80.2707,"temp":29.1,"humidity":74,"rain":0.0,"pressure":1003.9,"uv_index":8.9,"wind_gusts":36.0,"aqi":85,"pm10":31.5,"pm2_5":21.8,"no2":13.0,"co":222.0,"o3":59.0,"so2":12.6,"mosquito_risk":7,"arthritis_risk":5,"migraine_risk":4,"frizz_risk":1,"updated_at":"2026-07-15T04:35:51.623468+05:30"},{"city":"Kolkata","state":"West Bengal","latitude":22.5726,"longitude":88.3639,"temp":26.8,"humidity":96,"rain":0.0,"pressure":998.7,"uv_index":8.2,"wind_gusts":36.0,"aqi":147,"pm10":54.0,"pm2_5":50.4,"no2":36.4,"co":625.0,"o3":13.0,"so2":18.3,"mosquito_risk":7,"arthritis_risk":5,"migraine_risk":7,"frizz_risk":1,"updated_at":"2026-07-15T04:35:51.623476+05:30"},{"city":"Pune","state":"Maharashtra","latitude":18.5204,"longitude":73.8567,"temp":22.8,"humidity":89,"rain":0.0,"pressure":946.2,"uv_index":8.35,"wind_gusts":48.2,"aqi":59,"pm10":9.6,"pm2_5":5.2,"no2":7.0,"co":111.0,"o3":34.0,"so2":5.8,"mosquito_risk":3,"arthritis_risk":5,"migraine_risk":7,"frizz_risk":1,"updated_at":"2026-07-15T04:35:51.623484+05:30"},{"city":"Ahmedabad","state":"Gujarat","latitude":23.0225,"longitude":72.5714,"temp":27.6,"humidity":80,"rain":0.0,"pressure":998.7,"uv_index":8.1,"wind_gusts":40.3,"aqi":69,"pm10":19.4,"pm2_5":11.4,"no2":8.3,"co":120.0,"o3":30.0,"so2":4.5,"mosquito_risk":7,"arthritis_risk":5,"migraine_risk":7,"frizz_risk":1,"updated_at":"2026-07-15T04:35:51.623491+05:30"},{"city":"Jaipur","state":"Rajasthan","latitude":26.9124,"longitude":75.7873,"temp":28.4,"humidity":60,"rain":0.0,"pressure":954.9,"uv_index":8.05,"wind_gusts":38.5,"aqi":425,"pm10":644.5,"pm2_5":115.9,"no2":8.0,"co":177.0,"o3":46.0,"so2":4.1,"mosquito_risk":4,"arthritis_risk":5,"migraine_risk":7,"frizz_risk":1,"updated_at":"2026-07-15T04:35:51.623498+05:30"},{"city":"Lucknow","state":"Uttar Pradesh","latitude":26.8467,"longitude":80.9462,"temp":28.8,"humidity":76,"rain":0.0,"pressure":986.8,"uv_index":8.2,"wind_gusts":21.2,"aqi":166,"pm10":127.1,"pm2_5":69.4,"no2":22.3,"co":235.0,"o3":35.0,"so2":7.8,"mosquito_risk":7,"arthritis_risk":5,"migraine_risk":7,"frizz_risk":1,"updated_at":"2026-07-15T04:35:51.623510+05:30"},{"city":"Kanpur","state":"Uttar Pradesh","latitude":26.4499,"longitude":80.3319,"temp":29.0,"humidity":74,"rain":0.0,"pressure":985.4,"uv_index":7.6,"wind_gusts":27.7,"aqi":155,"pm10":122.5,"pm2_5":61.5,"no2":16.8,"co":163.0,"o3":44.0,"so2":6.0,"mosquito_risk":7,"arthritis_risk":5,"migraine_risk":7,"frizz_risk":1,"updated_at":"2026-07-15T04:35:51.623517+05:30"},{"city":"Chandigarh","state":"Chandigarh","latitude":30.7333,"longitude":76.7794,"temp":26.3,"humidity":85,"rain":0.0,"pressure":962.5,"uv_index":7.7,"wind_gusts":26.6,"aqi":172,"pm10":87.5,"pm2_5":74.7,"no2":42.9,"co":849.0,"o3":15.0,"so2":7.4,"mosquito_risk":7,"arthritis_risk":5,"migraine_risk":7,"frizz_risk":1,"updated_at":"2026-07-15T04:35:51.623524+05:30"},{"city":"Srinagar","state":"Jammu and Kashmir","latitude":34.0837,"longitude":74.7973,"temp":17.8,"humidity":88,"rain":0.0,"pressure":837.2,"uv_index":8.95,"wind_gusts":16.6,"aqi":82,"pm10":40.2,"pm2_5":36.4,"no2":24.3,"co":382.0,"o3":1.0,"so2":1.5,"mosquito_risk":3,"arthritis_risk":10,"migraine_risk":7,"frizz_risk":0,"updated_at":"2026-07-15T04:35:51.623531+05:30"},{"city":"Jammu","state":"Jammu and Kashmir","latitude":32.7266,"longitude":74.857,"temp":25.5,"humidity":84,"rain":0.0,"pressure":966.0,"uv_index":8.55,"wind_gusts":23.8,"aqi":154,"pm10":76.4,"pm2_5":63.8,"no2":42.6,"co":519.0,"o3":0.0,"so2":2.4,"mosquito_risk":7,"arthritis_risk":5,"migraine_risk":7,"frizz_risk":1,"updated_at":"2026-07-15T04:35:51.623538+05:30"},{"city":"Amritsar","state":"Punjab","latitude":31.634,"longitude":74.8723,"temp":27.6,"humidity":89,"rain":0.0,"pressure":974.1,"uv_index":8.4,"wind_gusts":20.2,"aqi":192,"pm10":217.0,"pm2_5":173.2,"no2":75.6,"co":1548.0,"o3":4.0,"so2":12.6,"mosquito_risk":7,"arthritis_risk":5,"migraine_risk":7,"frizz_risk":1,"updated_at":"2026-07-15T04:35:51.623544+05:30"},{"city":"Ludhiana","state":"Punjab","latitude":30.901,"longitude":75.8573,"temp":27.8,"humidity":91,"rain":0.0,"pressure":971.8,"uv_index":7.95,"wind_gusts":23.0,"aqi":187,"pm10":200.7,"pm2_5":167.2,"no2":85.8,"co":1492.0,"o3":0.0,"so2":15.8,"mosquito_risk":7,"arthritis_risk":5,"migraine_risk":7,"frizz_risk":1,"updated_at":"2026-07-15T04:35:51.623549+05:30"},{"city":"Jalandhar","state":"Punjab","latitude":31.326,"longitude":75.5762,"temp":26.8,"humidity":94,"rain":0.0,"pressure":972.9,"uv_index":8.15,"wind_gusts":22.3,"aqi":196,"pm10":217.0,"pm2_5":172.8,"no2":77.2,"co":1588.0,"o3":1.0,"so2":12.3,"mosquito_risk":7,"arthritis_risk":5,"migraine_risk":7,"frizz_risk":1,"updated_at":"2026-07-15T04:35:51.623555+05:30"},{"city":"Dehradun","state":"Uttarakhand","latitude":30.6284,"longitude":78.0322,"temp":16.8,"humidity":100,"rain":0.0,"pressure":826.1,"uv_index":7.7,"wind_gusts":27.4,"aqi":115,"pm10":59.8,"pm2_5":32.4,"no2":23.6,"co":257.0,"o3":46.0,"so2":1.4,"mosquito_risk":3,"arthritis_risk":10,"migraine_risk":7,"frizz_risk":1,"updated_at":"2026-07-15T04:35:51.623562+05:30"},{"city":"Shimla","state":"Himachal Pradesh","latitude":31.1048,"longitude":77.1734,"temp":12.9,"humidity":100,"rain":0.0,"pressure":779.3,"uv_index":8.2,"wind_gusts":38.2,"aqi":124,"pm10":49.4,"pm2_5":29.7,"no2":10.6,"co":354.0,"o3":78.0,"so2":1.3,"mosquito_risk":3,"arthritis_risk":10,"migraine_risk":7,"frizz_risk":0,"updated_at":"2026-07-15T04:35:51.623568+05:30"},{"city":"Manali","state":"Himachal Pradesh","latitude":32.2396,"longitude":77.1887,"temp":17.0,"humidity":76,"rain":0.0,"pressure":814.4,"uv_index":9.25,"wind_gusts":32.0,"aqi":53,"pm10":4.1,"pm2_5":3.4,"no2":8.9,"co":185.0,"o3":100.0,"so2":0.0,"mosquito_risk":3,"arthritis_risk":5,"migraine_risk":7,"frizz_risk":0,"updated_at":"2026-07-15T04:35:51.623577+05:30"},{"city":"Gurgaon","state":"Haryana","latitude":28.4595,"longitude":77.0266,"temp":29.0,"humidity":72,"rain":0.0,"pressure":975.1,"uv_index":7.75,"wind_gusts":29.5,"aqi":190,"pm10":124.8,"pm2_5":53.6,"no2":19.2,"co":367.0,"o3":46.0,"so2":8.4,"mosquito_risk":7,"arthritis_risk":5,"migraine_risk":7,"frizz_risk":1,"updated_at":"2026-07-15T04:35:51.623583+05:30"},{"city":"Noida","state":"Uttar Pradesh","latitude":28.5355,"longitude":77.391,"temp":28.3,"humidity":78,"rain":0.0,"pressure":977.9,"uv_index":7.7,"wind_gusts":20.2,"aqi":190,"pm10":124.8,"pm2_5":53.6,"no2":19.2,"co":403.0,"o3":46.0,"so2":8.4,"mosquito_risk":7,"arthritis_risk":5,"migraine_risk":7,"frizz_risk":1,"updated_at":"2026-07-15T04:35:51.623593+05:30"},{"city":"Ghaziabad","state":"Uttar Pradesh","latitude":28.6692,"longitude":77.4538,"temp":28.3,"humidity":78,"rain":0.0,"pressure":976.2,"uv_index":7.7,"wind_gusts":19.1,"aqi":180,"pm10":122.9,"pm2_5":58.3,"no2":27.8,"co":455.0,"o3":42.0,"so2":17.7,"mosquito_risk":7,"arthritis_risk":5,"migraine_risk":7,"frizz_risk":1,"updated_at":"2026-07-15T04:35:51.623602+05:30"},{"city":"Faridabad","state":"Haryana","latitude":28.4089,"longitude":77.3178,"temp":28.7,"humidity":74,"rain":0.0,"pressure":977.2,"uv_index":7.75,"wind_gusts":23.8,"aqi":190,"pm10":124.8,"pm2_5":53.6,"no2":19.2,"co":372.0,"o3":46.0,"so2":8.4,"mosquito_risk":7,"arthritis_risk":5,"migraine_risk":7,"frizz_risk":1,"updated_at":"2026-07-15T04:35:51.623608+05:30"},{"city":"Meerut","state":"Uttar Pradesh","latitude":28.9845,"longitude":77.7064,"temp":27.3,"humidity":85,"rain":0.0,"pressure":975.2,"uv_index":7.6,"wind_gusts":22.7,"aqi":180,"pm10":122.9,"pm2_5":58.3,"no2":27.8,"co":390.0,"o3":42.0,"so2":17.7,"mosquito_risk":7,"arthritis_risk":5,"migraine_risk":7,"frizz_risk":1,"updated_at":"2026-07-15T04:35:51.623615+05:30"},{"city":"Agra","state":"Uttar Pradesh","latitude":27.1767,"longitude":78.0081,"temp":24.0,"humidity":94,"rain":0.9,"pressure":982.2,"uv_index":5.35,"wind_gusts":34.6,"aqi":151,"pm10":68.9,"pm2_5":33.4,"no2":15.7,"co":163.0,"o3":52.0,"so2":3.4,"mosquito_risk":6,"arthritis_risk":5,"migraine_risk":3,"frizz_risk":1,"updated_at":"2026-07-15T04:35:51.623621+05:30"},{"city":"Varanasi","state":"Uttar Pradesh","latitude":25.3176,"longitude":82.9739,"temp":28.6,"humidity":86,"rain":0.0,"pressure":991.3,"uv_index":7.5,"wind_gusts":28.1,"aqi":167,"pm10":156.9,"pm2_5":82.7,"no2":30.6,"co":422.0,"o3":28.0,"so2":11.7,"mosquito_risk":7,"arthritis_risk":5,"migraine_risk":7,"frizz_risk":1,"updated_at":"2026-07-15T04:35:51.623627+05:30"},{"city":"Prayagraj","state":"Uttar Pradesh","latitude":25.4358,"longitude":81.8463,"temp":29.2,"humidity":73,"rain":0.0,"pressure":989.6,"uv_index":8.6,"wind_gusts":27.0,"aqi":163,"pm10":118.3,"pm2_5":66.1,"no2":20.8,"co":219.0,"o3":38.0,"so2":8.8,"mosquito_risk":7,"arthritis_risk":5,"migraine_risk":7,"frizz_risk":1,"updated_at":"2026-07-15T04:35:51.623634+05:30"},{"city":"Gorakhpur","state":"Uttar Pradesh","latitude":26.7606,"longitude":83.3732,"temp":26.4,"humidity":95,"rain":0.0,"pressure":991.3,"uv_index":8.25,"wind_gusts":27.0,"aqi":161,"pm10":97.3,"pm2_5":50.8,"no2":13.2,"co":524.0,"o3":81.0,"so2":6.7,"mosquito_risk":7,"arthritis_risk":5,"migraine_risk":7,"frizz_risk":1,"updated_at":"2026-07-15T04:35:51.623640+05:30"},{"city":"Bareilly","state":"Uttar Pradesh","latitude":28.367,"longitude":79.4304,"temp":26.8,"humidity":78,"rain":0.0,"pressure":980.5,"uv_index":7.9,"wind_gusts":20.2,"aqi":175,"pm10":135.0,"pm2_5":77.3,"no2":30.5,"co":472.0,"o3":39.0,"so2":10.0,"mosquito_risk":7,"arthritis_risk":5,"migraine_risk":7,"frizz_risk":1,"updated_at":"2026-07-15T04:35:51.623653+05:30"},{"city":"Aligarh","state":"Uttar Pradesh","latitude":27.8974,"longitude":78.088,"temp":26.2,"humidity":88,"rain":0.0,"pressure":979.5,"uv_index":7.55,"wind_gusts":34.2,"aqi":168,"pm10":116.4,"pm2_5":47.3,"no2":12.0,"co":192.0,"o3":64.0,"so2":3.5,"mosquito_risk":7,"arthritis_risk":5,"migraine_risk":7,"frizz_risk":1,"updated_at":"2026-07-15T04:35:51.623660+05:30"},{"city":"Moradabad","state":"Uttar Pradesh","latitude":28.8386,"longitude":78.7733,"temp":27.0,"humidity":86,"rain":0.0,"pressure":977.6,"uv_index":7.8,"wind_gusts":22.3,"aqi":180,"pm10":183.0,"pm2_5":88.2,"no2":36.4,"co":545.0,"o3":34.0,"so2":12.9,"mosquito_risk":7,"arthritis_risk":5,"migraine_risk":7,"frizz_risk":1,"updated_at":"2026-07-15T04:35:51.623666+05:30"},{"city":"Saharanpur","state":"Uttar Pradesh","latitude":29.9637,"longitude":77.546,"temp":26.5,"humidity":88,"rain":0.0,"pressure":969.3,"uv_index":7.35,"wind_gusts":24.8,"aqi":190,"pm10":188.6,"pm2_5":109.0,"no2":39.4,"co":996.0,"o3":15.0,"so2":14.3,"mosquito_risk":7,"arthritis_risk":5,"migraine_risk":7,"frizz_risk":1,"updated_at":"2026-07-15T04:35:51.623672+05:30"},{"city":"Jhansi","state":"Uttar Pradesh","latitude":25.4484,"longitude":78.5685,"temp":29.0,"humidity":65,"rain":0.0,"pressure":972.7,"uv_index":7.35,"wind_gusts":37.4,"aqi":117,"pm10":46.0,"pm2_5":29.0,"no2":11.4,"co":159.0,"o3":48.0,"so2":9.5,"mosquito_risk":7,"arthritis_risk":5,"migraine_risk":7,"frizz_risk":1,"updated_at":"2026-07-15T04:35:54.912628+05:30"},{"city":"Surat","state":"Gujarat","latitude":21.1702,"longitude":72.8311,"temp":24.8,"humidity":95,"rain":0.1,"pressure":1004.1,"uv_index":7.75,"wind_gusts":47.2,"aqi":73,"pm10":24.3,"pm2_5":15.9,"no2":20.3,"co":219.0,"o3":27.0,"so2":32.7,"mosquito_risk":6,"arthritis_risk":5,"migraine_risk":4,"frizz_risk":1,"updated_at":"2026-07-15T04:35:54.912667+05:30"},{"city":"Vadodara","state":"Gujarat","latitude":22.3072,"longitude":73.1812,"temp":27.1,"humidity":85,"rain":0.0,"pressure":1001.3,"uv_index":7.0,"wind_gusts":42.1,"aqi":67,"pm10":16.9,"pm2_5":10.7,"no2":8.4,"co":124.0,"o3":30.0,"so2":4.6,"mosquito_risk":7,"arthritis_risk":5,"migraine_risk":4,"frizz_risk":1,"updated_at":"2026-07-15T04:35:54.912678+05:30"},{"city":"Rajkot","state":"Gujarat","latitude":22.3039,"longitude":70.8022,"temp":26.1,"humidity":91,"rain":0.0,"pressure":990.4,"uv_index":7.25,"wind_gusts":40.7,"aqi":55,"pm10":13.1,"pm2_5":7.2,"no2":4.4,"co":96.0,"o3":37.0,"so2":3.0,"mosquito_risk":7,"arthritis_risk":5,"migraine_risk":7,"frizz_risk":1,"updated_at":"2026-07-15T04:35:54.912686+05:30"},{"city":"Thane","state":"Maharashtra","latitude":19.2183,"longitude":72.9781,"temp":24.5,"humidity":94,"rain":0.1,"pressure":1006.2,"uv_index":7.25,"wind_gusts":36.0,"aqi":73,"pm10":41.3,"pm2_5":17.6,"no2":4.5,"co":139.0,"o3":48.0,"so2":3.8,"mosquito_risk":6,"arthritis_risk":5,"migraine_risk":4,"frizz_risk":1,"updated_at":"2026-07-15T04:35:54.912695+05:30"},{"city":"Nagpur","state":"Maharashtra","latitude":21.1458,"longitude":79.0882,"temp":26.8,"humidity":67,"rain":0.0,"pressure":969.7,"uv_index":8.8,"wind_gusts":51.5,"aqi":88,"pm10":42.0,"pm2_5":29.7,"no2":12.7,"co":214.0,"o3":45.0,"so2":7.7,"mosquito_risk":7,"arthritis_risk":5,"migraine_risk":7,"frizz_risk":1,"updated_at":"2026-07-15T04:35:54.912702+05:30"},{"city":"Nashik","state":"Maharashtra","latitude":19.9975,"longitude":73.7898,"temp":22.3,"humidity":95,"rain":0.0,"pressure":943.0,"uv_index":7.9,"wind_gusts":43.9,"aqi":60,"pm10":9.2,"pm2_5":4.8,"no2":6.8,"co":110.0,"o3":35.0,"so2":6.5,"mosquito_risk":3,"arthritis_risk":5,"migraine_risk":7,"frizz_risk":1,"updated_at":"2026-07-15T04:35:54.912709+05:30"},{"city":"Aurangabad","state":"Maharashtra","latitude":19.8762,"longitude":75.3433,"temp":22.9,"humidity":88,"rain":0.0,"pressure":941.9,"uv_index":8.4,"wind_gusts":45.4,"aqi":63,"pm10":14.8,"pm2_5":8.1,"no2":9.7,"co":151.0,"o3":32.0,"so2":11.3,"mosquito_risk":3,"arthritis_risk":5,"migraine_risk":7,"frizz_risk":1,"updated_at":"2026-07-15T04:35:54.912716+05:30"},{"city":"Solapur","state":"Maharashtra","latitude":17.6599,"longitude":75.9064,"temp":24.1,"humidity":79,"rain":0.0,"pressure":955.8,"uv_index":8.5,"wind_gusts":67.3,"aqi":61,"pm10":23.7,"pm2_5":15.1,"no2":7.6,"co":143.0,"o3":33.0,"so2":2.8,"mosquito_risk":3,"arthritis_risk":5,"migraine_risk":7,"frizz_risk":1,"updated_at":"2026-07-15T04:35:54.912724+05:30"},{"city":"Kolhapur","state":"Maharashtra","latitude":16.705,"longitude":74.2433,"temp":22.4,"humidity":93,"rain":0.0,"pressure":946.9,"uv_index":8.35,"wind_gusts":51.8,"aqi":57,"pm10":14.6,"pm2_5":7.6,"no2":3.4,"co":115.0,"o3":40.0,"so2":2.2,"mosquito_risk":3,"arthritis_risk":5,"migraine_risk":7,"frizz_risk":1,"updated_at":"2026-07-15T04:35:54.912730+05:30"},{"city":"Goa","state":"Goa","latitude":15.2993,"longitude":74.124,"temp":24.3,"humidity":98,"rain":0.0,"pressure":998.0,"uv_index":8.05,"wind_gusts":33.5,"aqi":73,"pm10":58.7,"pm2_5":33.8,"no2":8.4,"co":419.0,"o3":39.0,"so2":2.5,"mosquito_risk":3,"arthritis_risk":5,"migraine_risk":7,"frizz_risk":1,"updated_at":"2026-07-15T04:35:54.912737+05:30"},{"city":"Jodhpur","state":"Rajasthan","latitude":26.2389,"longitude":73.0243,"temp":28.6,"humidity":65,"rain":0.0,"pressure":978.3,"uv_index":8.15,"wind_gusts":38.9,"aqi":174,"pm10":353.0,"pm2_5":85.7,"no2":4.0,"co":109.0,"o3":46.0,"so2":2.5,"mosquito_risk":7,"arthritis_risk":5,"migraine_risk":7,"frizz_risk":1,"updated_at":"2026-07-15T04:35:54.912744+05:30"},{"city":"Udaipur","state":"Rajasthan","latitude":24.5854,"longitude":73.7125,"temp":23.9,"humidity":85,"rain":0.0,"pressure":942.5,"uv_index":8.8,"wind_gusts":34.9,"aqi":75,"pm10":28.9,"pm2_5":15.1,"no2":5.8,"co":109.0,"o3":41.0,"so2":3.6,"mosquito_risk":3,"arthritis_risk":5,"migraine_risk":7,"frizz_risk":1,"updated_at":"2026-07-15T04:35:54.912751+05:30"},{"city":"Kota","state":"Rajasthan","latitude":25.2138,"longitude":75.8648,"temp":27.8,"humidity":71,"rain":0.0,"pressure":974.4,"uv_index":8.3,"wind_gusts":34.9,"aqi":93,"pm10":46.0,"pm2_5":27.3,"no2":9.5,"co":175.0,"o3":48.0,"so2":7.2,"mosquito_risk":7,"arthritis_risk":5,"migraine_risk":7,"frizz_risk":1,"updated_at":"2026-07-15T04:35:54.912759+05:30"},{"city":"Bikaner","state":"Rajasthan","latitude":28.0229,"longitude":73.3119,"temp":30.3,"humidity":54,"rain":0.0,"pressure":976.0,"uv_index":8.4,"wind_gusts":38.5,"aqi":169,"pm10":151.8,"pm2_5":59.3,"no2":3.3,"co":114.0,"o3":50.0,"so2":4.4,"mosquito_risk":0,"arthritis_risk":5,"migraine_risk":7,"frizz_risk":1,"updated_at":"2026-07-15T04:35:54.912766+05:30"},{"city":"Ajmer","state":"Rajasthan","latitude":26.4499,"longitude":74.6399,"temp":26.4,"humidity":72,"rain":0.0,"pressure":950.2,"uv_index":8.3,"wind_gusts":46.8,"aqi":103,"pm10":48.8,"pm2_5":24.7,"no2":6.5,"co":121.0,"o3":48.0,"so2":3.7,"mosquito_risk":7,"arthritis_risk":5,"migraine_risk":7,"frizz_risk":1,"updated_at":"2026-07-15T04:35:54.912773+05:30"},{"city":"Gwalior","state":"Madhya Pradesh","latitude":26.2183,"longitude":78.1828,"temp":28.3,"humidity":73,"rain":0.0,"pressure":977.7,"uv_index":2.05,"wind_gusts":41.0,"aqi":125,"pm10":100.8,"pm2_5":41.6,"no2":13.0,"co":151.0,"o3":49.0,"so2":2.7,"mosquito_risk":7,"arthritis_risk":5,"migraine_risk":3,"frizz_risk":1,"updated_at":"2026-07-15T04:35:54.912781+05:30"},{"city":"Indore","state":"Madhya Pradesh","latitude":22.7196,"longitude":75.8577,"temp":24.2,"humidity":89,"rain":0.0,"pressure":945.4,"uv_index":8.6,"wind_gusts":38.9,"aqi":72,"pm10":23.6,"pm2_5":14.9,"no2":9.6,"co":182.0,"o3":32.0,"so2":10.0,"mosquito_risk":3,"arthritis_risk":5,"migraine_risk":7,"frizz_risk":1,"updated_at":"2026-07-15T04:35:54.912787+05:30"},{"city":"Bhopal","state":"Madhya Pradesh","latitude":23.2599,"longitude":77.4126,"temp":24.8,"humidity":81,"rain":0.0,"pressure":950.2,"uv_index":7.55,"wind_gusts":43.6,"aqi":82,"pm10":36.6,"pm2_5":25.6,"no2":8.7,"co":233.0,"o3":52.0,"so2":6.3,"mosquito_risk":3,"arthritis_risk":5,"migraine_risk":7,"frizz_risk":1,"updated_at":"2026-07-15T04:35:54.912794+05:30"},{"city":"Jabalpur","state":"Madhya Pradesh","latitude":23.1815,"longitude":79.9864,"temp":25.7,"humidity":76,"rain":0.0,"pressure":957.2,"uv_index":8.8,"wind_gusts":32.4,"aqi":100,"pm10":41.9,"pm2_5":29.2,"no2":8.5,"co":237.0,"o3":52.0,"so2":4.0,"mosquito_risk":7,"arthritis_risk":5,"migraine_risk":7,"frizz_risk":1,"updated_at":"2026-07-15T04:35:54.912801+05:30"},{"city":"Ujjain","state":"Madhya Pradesh","latitude":23.1765,"longitude":75.7885,"temp":24.0,"humidity":90,"rain":0.1,"pressure":950.9,"uv_index":8.45,"wind_gusts":38.2,"aqi":72,"pm10":26.3,"pm2_5":16.2,"no2":9.9,"co":190.0,"o3":32.0,"so2":10.0,"mosquito_risk":6,"arthritis_risk":5,"migraine_risk":7,"frizz_risk":1,"updated_at":"2026-07-15T04:35:54.912824+05:30"},{"city":"Visakhapatnam","state":"Andhra Pradesh","latitude":17.6868,"longitude":83.2185,"temp":29.4,"humidity":72,"rain":0.0,"pressure":997.2,"uv_index":1.55,"wind_gusts":26.3,"aqi":141,"pm10":59.3,"pm2_5":40.2,"no2":35.5,"co":316.0,"o3":38.0,"so2":52.5,"mosquito_risk":7,"arthritis_risk":5,"migraine_risk":3,"frizz_risk":1,"updated_at":"2026-07-15T04:35:54.912832+05:30"},{"city":"Vijayawada","state":"Andhra Pradesh","latitude":16.5062,"longitude":80.648,"temp":29.7,"humidity":59,"rain":0.0,"pressure":998.0,"uv_index":6.2,"wind_gusts":45.4,"aqi":88,"pm10":45.3,"pm2_5":34.8,"no2":16.1,"co":216.0,"o3":39.0,"so2":8.9,"mosquito_risk":4,"arthritis_risk":5,"migraine_risk":7,"frizz_risk":1,"updated_at":"2026-07-15T04:35:54.912839+05:30"},{"city":"Guntur","state":"Andhra Pradesh","latitude":16.3067,"longitude":80.4365,"temp":29.8,"humidity":56,"rain":0.0,"pressure":999.3,"uv_index":6.85,"wind_gusts":48.2,"aqi":84,"pm10":41.2,"pm2_5":31.5,"no2":16.5,"co":226.0,"o3":39.0,"so2":8.3,"mosquito_risk":4,"arthritis_risk":5,"migraine_risk":7,"frizz_risk":1,"updated_at":"2026-07-15T04:35:54.912846+05:30"},{"city":"Nellore","state":"Andhra Pradesh","latitude":14.4426,"longitude":79.9865,"temp":30.4,"humidity":51,"rain":0.0,"pressure":1002.2,"uv_index":8.25,"wind_gusts":49.7,"aqi":78,"pm10":54.5,"pm2_5":41.3,"no2":17.1,"co":162.0,"o3":52.0,"so2":6.8,"mosquito_risk":0,"arthritis_risk":5,"migraine_risk":4,"frizz_risk":1,"updated_at":"2026-07-15T04:35:54.912855+05:30"},{"city":"Kurnool","state":"Andhra Pradesh","latitude":15.8281,"longitude":78.0373,"temp":27.8,"humidity":61,"rain":0.0,"pressure":974.9,"uv_index":8.8,"wind_gusts":64.1,"aqi":62,"pm10":19.7,"pm2_5":14.4,"no2":9.2,"co":133.0,"o3":42.0,"so2":4.2,"mosquito_risk":7,"arthritis_risk":5,"migraine_risk":7,"frizz_risk":1,"updated_at":"2026-07-15T04:35:54.912862+05:30"},{"city":"Kakinada","state":"Andhra Pradesh","latitude":16.9891,"longitude":82.2475,"temp":29.1,"humidity":70,"rain":0.0,"pressure":1001.9,"uv_index":5.75,"wind_gusts":52.2,"aqi":96,"pm10":55.3,"pm2_5":38.6,"no2":9.9,"co":203.0,"o3":60.0,"so2":7.9,"mosquito_risk":7,"arthritis_risk":5,"migraine_risk":0,"frizz_risk":1,"updated_at":"2026-07-15T04:35:54.912869+05:30"},{"city":"Tirupati","state":"Andhra Pradesh","latitude":13.6288,"longitude":79.4192,"temp":29.0,"humidity":51,"rain":0.0,"pressure":987.9,"uv_index":8.9,"wind_gusts":35.6,"aqi":81,"pm10":32.9,"pm2_5":28.4,"no2":36.7,"co":131.0,"o3":9.0,"so2":3.3,"mosquito_risk":4,"arthritis_risk":5,"migraine_risk":7,"frizz_risk":1,"updated_at":"2026-07-15T04:35:54.912876+05:30"},{"city":"Warangal","state":"Telangana","latitude":17.9689,"longitude":79.5941,"temp":27.8,"humidity":64,"rain":0.0,"pressure":975.0,"uv_index":9.0,"wind_gusts":45.0,"aqi":85,"pm10":46.3,"pm2_5":33.8,"no2":11.3,"co":186.0,"o3":44.0,"so2":5.8,"mosquito_risk":7,"arthritis_risk":5,"migraine_risk":7,"frizz_risk":1,"updated_at":"2026-07-15T04:35:54.912883+05:30"},{"city":"Nizamabad","state":"Telangana","latitude":18.6725,"longitude":78.0941,"temp":26.0,"humidity":61,"rain":0.0,"pressure":962.4,"uv_index":8.9,"wind_gusts":42.8,"aqi":80,"pm10":29.9,"pm2_5":21.9,"no2":7.7,"co":173.0,"o3":67.0,"so2":7.8,"mosquito_risk":7,"arthritis_risk":5,"migraine_risk":7,"frizz_risk":1,"updated_at":"2026-07-15T04:35:54.912890+05:30"},{"city":"Mysore","state":"Karnataka","latitude":12.2958,"longitude":76.6396,"temp":20.0,"humidity":95,"rain":0.0,"pressure":927.8,"uv_index":8.8,"wind_gusts":44.3,"aqi":58,"pm10":21.8,"pm2_5":15.1,"no2":8.2,"co":135.0,"o3":40.0,"so2":2.7,"mosquito_risk":3,"arthritis_risk":5,"migraine_risk":7,"frizz_risk":1,"updated_at":"2026-07-15T04:35:54.912897+05:30"},{"city":"Mangalore","state":"Karnataka","latitude":12.9141,"longitude":74.856,"temp":25.6,"humidity":89,"rain":0.0,"pressure":1007.4,"uv_index":8.75,"wind_gusts":38.2,"aqi":64,"pm10":33.6,"pm2_5":21.3,"no2":11.8,"co":135.0,"o3":22.0,"so2":3.4,"mosquito_risk":7,"arthritis_risk":5,"migraine_risk":4,"frizz_risk":1,"updated_at":"2026-07-15T04:35:54.912904+05:30"},{"city":"Hubli-Dharwad","state":"Karnataka","latitude":15.3647,"longitude":75.124,"temp":21.5,"humidity":94,"rain":0.0,"pressure":940.2,"uv_index":7.0,"wind_gusts":51.8,"aqi":54,"pm10":16.6,"pm2_5":9.3,"no2":3.4,"co":115.0,"o3":39.0,"so2":1.8,"mosquito_risk":3,"arthritis_risk":5,"migraine_risk":7,"frizz_risk":1,"updated_at":"2026-07-15T04:35:54.912910+05:30"},{"city":"Belgaum","state":"Karnataka","latitude":15.8497,"longitude":74.4977,"temp":20.5,"humidity":98,"rain":0.0,"pressure":924.7,"uv_index":6.8,"wind_gusts":51.5,"aqi":55,"pm10":21.7,"pm2_5":10.2,"no2":3.1,"co":107.0,"o3":42.0,"so2":2.1,"mosquito_risk":3,"arthritis_risk":5,"migraine_risk":7,"frizz_risk":1,"updated_at":"2026-07-15T04:35:58.203752+05:30"},{"city":"Coimbatore","state":"Tamil Nadu","latitude":11.0168,"longitude":76.9558,"temp":23.4,"humidity":94,"rain":0.0,"pressure":960.8,"uv_index":6.8,"wind_gusts":51.5,"aqi":59,"pm10":16.0,"pm2_5":10.4,"no2":5.0,"co":158.0,"o3":43.0,"so2":3.7,"mosquito_risk":3,"arthritis_risk":5,"migraine_risk":7,"frizz_risk":1,"updated_at":"2026-07-15T04:35:58.203790+05:30"},{"city":"Madurai","state":"Tamil Nadu","latitude":9.9252,"longitude":78.1198,"temp":27.9,"humidity":70,"rain":0.0,"pressure":991.7,"uv_index":8.8,"wind_gusts":33.5,"aqi":78,"pm10":40.3,"pm2_5":33.2,"no2":45.0,"co":113.0,"o3":1.0,"so2":7.5,"mosquito_risk":7,"arthritis_risk":5,"migraine_risk":7,"frizz_risk":1,"updated_at":"2026-07-15T04:35:58.203801+05:30"},{"city":"Trichy","state":"Tamil Nadu","latitude":10.7905,"longitude":78.7047,"temp":28.2,"humidity":66,"rain":0.0,"pressure":998.4,"uv_index":8.8,"wind_gusts":47.5,"aqi":69,"pm10":27.9,"pm2_5":20.0,"no2":14.0,"co":107.0,"o3":35.0,"so2":5.1,"mosquito_risk":7,"arthritis_risk":5,"migraine_risk":7,"frizz_risk":1,"updated_at":"2026-07-15T04:35:58.203826+05:30"},{"city":"Salem","state":"Tamil Nadu","latitude":11.6643,"longitude":78.146,"temp":25.0,"humidity":88,"rain":0.0,"pressure":976.2,"uv_index":7.35,"wind_gusts":21.6,"aqi":75,"pm10":32.7,"pm2_5":25.7,"no2":24.5,"co":290.0,"o3":17.0,"so2":6.8,"mosquito_risk":7,"arthritis_risk":5,"migraine_risk":7,"frizz_risk":1,"updated_at":"2026-07-15T04:35:58.203835+05:30"},{"city":"Tirunelveli","state":"Tamil Nadu","latitude":8.7139,"longitude":77.7567,"temp":28.3,"humidity":67,"rain":0.0,"pressure":1001.9,"uv_index":8.55,"wind_gusts":44.3,"aqi":54,"pm10":14.9,"pm2_5":10.3,"no2":6.1,"co":129.0,"o3":34.0,"so2":2.6,"mosquito_risk":7,"arthritis_risk":5,"migraine_risk":4,"frizz_risk":1,"updated_at":"2026-07-15T04:35:58.203843+05:30"},{"city":"Vellore","state":"Tamil Nadu","latitude":12.9165,"longitude":79.1325,"temp":28.1,"humidity":48,"rain":0.0,"pressure":981.9,"uv_index":8.75,"wind_gusts":39.2,"aqi":86,"pm10":46.7,"pm2_5":38.9,"no2":42.3,"co":184.0,"o3":6.0,"so2":8.8,"mosquito_risk":4,"arthritis_risk":5,"migraine_risk":7,"frizz_risk":0,"updated_at":"2026-07-15T04:35:58.203850+05:30"},{"city":"Erode","state":"Tamil Nadu","latitude":11.341,"longitude":77.7172,"temp":25.8,"humidity":81,"rain":0.0,"pressure":988.1,"uv_index":8.35,"wind_gusts":45.7,"aqi":64,"pm10":19.7,"pm2_5":14.4,"no2":10.1,"co":168.0,"o3":33.0,"so2":4.0,"mosquito_risk":7,"arthritis_risk":5,"migraine_risk":7,"frizz_risk":1,"updated_at":"2026-07-15T04:35:58.203858+05:30"},{"city":"Kochi","state":"Kerala","latitude":9.9312,"longitude":76.2673,"temp":26.8,"humidity":88,"rain":0.1,"pressure":1009.6,"uv_index":8.6,"wind_gusts":41.8,"aqi":61,"pm10":25.7,"pm2_5":16.1,"no2":8.4,"co":102.0,"o3":31.0,"so2":3.7,"mosquito_risk":10,"arthritis_risk":0,"migraine_risk":4,"frizz_risk":1,"updated_at":"2026-07-15T04:35:58.203866+05:30"},{"city":"Thiruvananthapuram","state":"Kerala","latitude":8.5241,"longitude":76.9366,"temp":25.3,"humidity":94,"rain":0.0,"pressure":1008.9,"uv_index":8.45,"wind_gusts":47.9,"aqi":58,"pm10":23.5,"pm2_5":12.6,"no2":3.0,"co":119.0,"o3":47.0,"so2":1.2,"mosquito_risk":7,"arthritis_risk":0,"migraine_risk":4,"frizz_risk":1,"updated_at":"2026-07-15T04:35:58.203873+05:30"},{"city":"Kozhikode","state":"Kerala","latitude":11.2588,"longitude":75.7804,"temp":24.4,"humidity":96,"rain":0.0,"pressure":1008.7,"uv_index":7.4,"wind_gusts":40.7,"aqi":58,"pm10":28.6,"pm2_5":14.7,"no2":2.4,"co":187.0,"o3":50.0,"so2":1.8,"mosquito_risk":3,"arthritis_risk":0,"migraine_risk":4,"frizz_risk":1,"updated_at":"2026-07-15T04:35:58.203880+05:30"},{"city":"Thrissur","state":"Kerala","latitude":10.5276,"longitude":76.2144,"temp":25.4,"humidity":91,"rain":0.0,"pressure":1008.0,"uv_index":8.3,"wind_gusts":38.9,"aqi":59,"pm10":21.9,"pm2_5":14.0,"no2":6.1,"co":118.0,"o3":31.0,"so2":2.7,"mosquito_risk":7,"arthritis_risk":0,"migraine_risk":4,"frizz_risk":1,"updated_at":"2026-07-15T04:35:58.203888+05:30"},{"city":"Kannur","state":"Kerala","latitude":11.8745,"longitude":75.3704,"temp":24.7,"humidity":94,"rain":0.0,"pressure":1008.0,"uv_index":8.7,"wind_gusts":40.3,"aqi":60,"pm10":25.3,"pm2_5":16.3,"no2":10.0,"co":228.0,"o3":23.0,"so2":2.7,"mosquito_risk":3,"arthritis_risk":0,"migraine_risk":4,"frizz_risk":1,"updated_at":"2026-07-15T04:35:58.203894+05:30"},{"city":"Patna","state":"Bihar","latitude":25.5941,"longitude":85.1376,"temp":28.6,"humidity":93,"rain":0.0,"pressure":994.0,"uv_index":8.3,"wind_gusts":25.6,"aqi":158,"pm10":107.1,"pm2_5":78.9,"no2":26.4,"co":516.0,"o3":50.0,"so2":12.7,"mosquito_risk":7,"arthritis_risk":5,"migraine_risk":7,"frizz_risk":1,"updated_at":"2026-07-15T04:35:58.203901+05:30"},{"city":"Gaya","state":"Bihar","latitude":24.7914,"longitude":85.0002,"temp":27.6,"humidity":93,"rain":0.0,"pressure":987.5,"uv_index":7.65,"wind_gusts":27.0,"aqi":160,"pm10":119.7,"pm2_5":86.8,"no2":32.3,"co":401.0,"o3":34.0,"so2":10.0,"mosquito_risk":7,"arthritis_risk":5,"migraine_risk":7,"frizz_risk":1,"updated_at":"2026-07-15T04:35:58.203909+05:30"},{"city":"Muzaffarpur","state":"Bihar","latitude":26.1209,"longitude":85.3647,"temp":27.5,"humidity":93,"rain":0.1,"pressure":994.4,"uv_index":7.0,"wind_gusts":22.3,"aqi":156,"pm10":95.0,"pm2_5":74.5,"no2":27.0,"co":576.0,"o3":48.0,"so2":11.3,"mosquito_risk":10,"arthritis_risk":5,"migraine_risk":7,"frizz_risk":1,"updated_at":"2026-07-15T04:35:58.203916+05:30"},{"city":"Bhagalpur","state":"Bihar","latitude":25.2425,"longitude":87.0117,"temp":27.0,"humidity":97,"rain":0.0,"pressure":994.8,"uv_index":6.85,"wind_gusts":23.4,"aqi":94,"pm10":31.4,"pm2_5":30.2,"no2":13.7,"co":306.0,"o3":67.0,"so2":11.0,"mosquito_risk":7,"arthritis_risk":5,"migraine_risk":7,"frizz_risk":1,"updated_at":"2026-07-15T04:35:58.203923+05:30"},{"city":"Ranchi","state":"Jharkhand","latitude":23.3441,"longitude":85.3096,"temp":24.0,"humidity":89,"rain":0.0,"pressure":931.8,"uv_index":7.65,"wind_gusts":31.7,"aqi":153,"pm10":147.6,"pm2_5":97.8,"no2":42.5,"co":273.0,"o3":26.0,"so2":13.4,"mosquito_risk":3,"arthritis_risk":5,"migraine_risk":7,"frizz_risk":1,"updated_at":"2026-07-15T04:35:58.203930+05:30"},{"city":"Jamshedpur","state":"Jharkhand","latitude":22.8046,"longitude":86.2029,"temp":25.7,"humidity":98,"rain":0.1,"pressure":984.7,"uv_index":7.15,"wind_gusts":24.8,"aqi":166,"pm10":163.0,"pm2_5":142.0,"no2":72.3,"co":474.0,"o3":14.0,"so2":48.1,"mosquito_risk":10,"arthritis_risk":5,"migraine_risk":7,"frizz_risk":1,"updated_at":"2026-07-15T04:35:58.203937+05:30"},{"city":"Dhanbad","state":"Jharkhand","latitude":23.7957,"longitude":86.4304,"temp":25.5,"humidity":98,"rain":0.1,"pressure":973.9,"uv_index":8.3,"wind_gusts":23.4,"aqi":184,"pm10":250.5,"pm2_5":222.6,"no2":70.6,"co":424.0,"o3":9.0,"so2":207.9,"mosquito_risk":10,"arthritis_risk":5,"migraine_risk":7,"frizz_risk":1,"updated_at":"2026-07-15T04:35:58.203944+05:30"},{"city":"Bokaro","state":"Jharkhand","latitude":23.6693,"longitude":86.1511,"temp":25.7,"humidity":98,"rain":0.0,"pressure":977.7,"uv_index":7.75,"wind_gusts":28.8,"aqi":184,"pm10":272.9,"pm2_5":228.6,"no2":58.4,"co":258.0,"o3":13.0,"so2":174.1,"mosquito_risk":7,"arthritis_risk":5,"migraine_risk":7,"frizz_risk":1,"updated_at":"2026-07-15T04:35:58.203951+05:30"},{"city":"Bhubaneswar","state":"Odisha","latitude":20.2961,"longitude":85.8245,"temp":26.3,"humidity":92,"rain":0.0,"pressure":995.6,"uv_index":7.2,"wind_gusts":38.5,"aqi":132,"pm10":59.5,"pm2_5":41.8,"no2":16.2,"co":296.0,"o3":52.0,"so2":12.1,"mosquito_risk":7,"arthritis_risk":5,"migraine_risk":7,"frizz_risk":1,"updated_at":"2026-07-15T04:35:58.203958+05:30"},{"city":"Cuttack","state":"Odisha","latitude":20.4625,"longitude":85.8828,"temp":25.7,"humidity":92,"rain":0.0,"pressure":997.8,"uv_index":7.55,"wind_gusts":37.1,"aqi":132,"pm10":59.5,"pm2_5":41.8,"no2":16.2,"co":234.0,"o3":52.0,"so2":12.1,"mosquito_risk":7,"arthritis_risk":5,"migraine_risk":7,"frizz_risk":1,"updated_at":"2026-07-15T04:35:58.203964+05:30"},{"city":"Rourkela","state":"Odisha","latitude":22.2604,"longitude":84.8536,"temp":26.6,"humidity":95,"rain":0.0,"pressure":978.6,"uv_index":7.65,"wind_gusts":42.8,"aqi":152,"pm10":124.8,"pm2_5":70.3,"no2":18.5,"co":985.0,"o3":58.0,"so2":8.9,"mosquito_risk":7,"arthritis_risk":5,"migraine_risk":7,"frizz_risk":1,"updated_at":"2026-07-15T04:35:58.203970+05:30"},{"city":"Raipur","state":"Chhattisgarh","latitude":21.2514,"longitude":81.6296,"temp":26.8,"humidity":81,"rain":0.0,"pressure":969.7,"uv_index":8.35,"wind_gusts":34.2,"aqi":140,"pm10":71.5,"pm2_5":49.9,"no2":34.6,"co":347.0,"o3":33.0,"so2":56.6,"mosquito_risk":7,"arthritis_risk":5,"migraine_risk":7,"frizz_risk":1,"updated_at":"2026-07-15T04:35:58.203977+05:30"},{"city":"Bhilai","state":"Chhattisgarh","latitude":21.1938,"longitude":81.3509,"temp":26.5,"humidity":80,"rain":0.0,"pressure":970.2,"uv_index":7.8,"wind_gusts":33.5,"aqi":121,"pm10":61.0,"pm2_5":43.3,"no2":24.8,"co":581.0,"o3":44.0,"so2":41.8,"mosquito_risk":7,"arthritis_risk":5,"migraine_risk":7,"frizz_risk":1,"updated_at":"2026-07-15T04:35:58.203984+05:30"},{"city":"Guwahati","state":"Assam","latitude":26.1158,"longitude":91.7086,"temp":26.3,"humidity":98,"rain":0.1,"pressure":995.6,"uv_index":4.65,"wind_gusts":27.4,"aqi":51,"pm10":5.5,"pm2_5":5.1,"no2":5.5,"co":290.0,"o3":54.0,"so2":0.9,"mosquito_risk":10,"arthritis_risk":5,"migraine_risk":3,"frizz_risk":1,"updated_at":"2026-07-15T04:35:58.203990+05:30"},{"city":"Agartala","state":"Tripura","latitude":23.8315,"longitude":91.2868,"temp":26.1,"humidity":92,"rain":0.0,"pressure":1000.1,"uv_index":7.25,"wind_gusts":40.0,"aqi":78,"pm10":21.8,"pm2_5":20.8,"no2":19.1,"co":228.0,"o3":21.0,"so2":2.5,"mosquito_risk":7,"arthritis_risk":5,"migraine_risk":4,"frizz_risk":1,"updated_at":"2026-07-15T04:35:58.203997+05:30"},{"city":"Shillong","state":"Meghalaya","latitude":25.5788,"longitude":91.8933,"temp":19.1,"humidity":97,"rain":0.0,"pressure":853.1,"uv_index":5.45,"wind_gusts":29.5,"aqi":51,"pm10":5.0,"pm2_5":4.6,"no2":3.6,"co":244.0,"o3":80.0,"so2":2.6,"mosquito_risk":3,"arthritis_risk":10,"migraine_risk":3,"frizz_risk":1,"updated_at":"2026-07-15T04:35:58.204003+05:30"},{"city":"Imphal","state":"Manipur","latitude":24.817,"longitude":93.9368,"temp":23.0,"humidity":97,"rain":0.1,"pressure":919.5,"uv_index":9.1,"wind_gusts":29.2,"aqi":56,"pm10":16.2,"pm2_5":15.3,"no2":9.6,"co":234.0,"o3":24.0,"so2":2.2,"mosquito_risk":6,"arthritis_risk":5,"migraine_risk":7,"frizz_risk":1,"updated_at":"2026-07-15T04:35:58.204010+05:30"},{"city":"Aizawl","state":"Mizoram","latitude":23.7271,"longitude":92.7176,"temp":19.3,"humidity":99,"rain":0.0,"pressure":886.9,"uv_index":8.35,"wind_gusts":36.0,"aqi":43,"pm10":8.6,"pm2_5":7.5,"no2":6.9,"co":181.0,"o3":18.0,"so2":0.6,"mosquito_risk":3,"arthritis_risk":10,"migraine_risk":7,"frizz_risk":1,"updated_at":"2026-07-15T04:35:58.204016+05:30"},{"city":"Kohima","state":"Nagaland","latitude":25.6701,"longitude":94.1077,"temp":19.0,"humidity":96,"rain":0.0,"pressure":851.2,"uv_index":6.9,"wind_gusts":24.1,"aqi":51,"pm10":11.4,"pm2_5":10.2,"no2":6.8,"co":189.0,"o3":33.0,"so2":1.1,"mosquito_risk":3,"arthritis_risk":10,"migraine_risk":7,"frizz_risk":1,"updated_at":"2026-07-15T04:35:58.204023+05:30"},{"city":"Gangtok","state":"Sikkim","latitude":27.3314,"longitude":88.6138,"temp":17.7,"humidity":89,"rain":0.0,"pressure":834.1,"uv_index":5.95,"wind_gusts":32.8,"aqi":40,"pm10":13.6,"pm2_5":12.7,"no2":7.2,"co":381.0,"o3":72.0,"so2":2.6,"mosquito_risk":3,"arthritis_risk":10,"migraine_risk":3,"frizz_risk":0,"updated_at":"2026-07-15T04:35:58.204030+05:30"},{"city":"Siliguri","state":"West Bengal","latitude":26.7271,"longitude":88.3953,"temp":25.8,"humidity":97,"rain":0.1,"pressure":987.0,"uv_index":4.4,"wind_gusts":20.5,"aqi":70,"pm10":34.2,"pm2_5":33.1,"no2":18.7,"co":502.0,"o3":57.0,"so2":5.9,"mosquito_risk":10,"arthritis_risk":5,"migraine_risk":3,"frizz_risk":1,"updated_at":"2026-07-15T04:36:01.513677+05:30"},{"city":"Durgapur","state":"West Bengal","latitude":23.5204,"longitude":87.3119,"temp":25.7,"humidity":98,"rain":0.0,"pressure":988.5,"uv_index":8.65,"wind_gusts":33.1,"aqi":162,"pm10":64.3,"pm2_5":58.2,"no2":37.1,"co":417.0,"o3":44.0,"so2":36.2,"mosquito_risk":7,"arthritis_risk":5,"migraine_risk":7,"frizz_risk":1,"updated_at":"2026-07-15T04:36:01.513717+05:30"},{"city":"Asansol","state":"West Bengal","latitude":23.6739,"longitude":86.9524,"temp":25.4,"humidity":96,"rain":0.0,"pressure":987.3,"uv_index":8.25,"wind_gusts":21.6,"aqi":159,"pm10":95.0,"pm2_5":84.3,"no2":54.0,"co":643.0,"o3":25.0,"so2":49.1,"mosquito_risk":7,"arthritis_risk":5,"migraine_risk":7,"frizz_risk":1,"updated_at":"2026-07-15T04:36:01.513729+05:30"},{"city":"Pondicherry","state":"Puducherry","latitude":11.9139,"longitude":79.8145,"temp":28.0,"humidity":84,"rain":0.0,"pressure":1005.8,"uv_index":7.4,"wind_gusts":46.1,"aqi":78,"pm10":16.2,"pm2_5":11.5,"no2":7.1,"co":158.0,"o3":61.0,"so2":6.0,"mosquito_risk":7,"arthritis_risk":5,"migraine_risk":4,"frizz_risk":1,"updated_at":"2026-07-15T04:36:01.513738+05:30"},{"city":"Port Blair","state":"Andaman and Nicobar Islands","latitude":11.6234,"longitude":92.7265,"temp":25.0,"humidity":96,"rain":0.1,"pressure":1005.6,"uv_index":8.45,"wind_gusts":56.2,"aqi":48,"pm10":15.1,"pm2_5":7.1,"no2":0.3,"co":88.0,"o3":44.0,"so2":0.3,"mosquito_risk":10,"arthritis_risk":5,"migraine_risk":4,"frizz_risk":1,"updated_at":"2026-07-15T04:36:01.513746+05:30"},{"city":"Haridwar","state":"Uttarakhand","latitude":29.9457,"longitude":78.1642,"temp":25.3,"humidity":96,"rain":0.0,"pressure":967.7,"uv_index":7.5,"wind_gusts":24.5,"aqi":177,"pm10":176.5,"pm2_5":95.5,"no2":24.3,"co":373.0,"o3":46.0,"so2":12.4,"mosquito_risk":7,"arthritis_risk":5,"migraine_risk":7,"frizz_risk":1,"updated_at":"2026-07-15T04:36:01.513755+05:30"},{"city":"Rishikesh","state":"Uttarakhand","latitude":30.0869,"longitude":78.2676,"temp":24.5,"humidity":95,"rain":0.0,"pressure":960.6,"uv_index":7.6,"wind_gusts":24.5,"aqi":166,"pm10":184.4,"pm2_5":82.0,"no2":10.1,"co":405.0,"o3":101.0,"so2":10.9,"mosquito_risk":3,"arthritis_risk":5,"migraine_risk":7,"frizz_risk":1,"updated_at":"2026-07-15T04:36:01.513763+05:30"},{"city":"Nainital","state":"Uttarakhand","latitude":29.3919,"longitude":79.4542,"temp":15.3,"humidity":100,"rain":0.0,"pressure":801.3,"uv_index":7.7,"wind_gusts":24.8,"aqi":169,"pm10":195.1,"pm2_5":83.6,"no2":28.1,"co":361.0,"o3":39.0,"so2":7.3,"mosquito_risk":3,"arthritis_risk":10,"migraine_risk":7,"frizz_risk":0,"updated_at":"2026-07-15T04:36:01.513771+05:30"},{"city":"Mussoorie","state":"Uttarakhand","latitude":30.4599,"longitude":78.0664,"temp":15.9,"humidity":99,"rain":0.0,"pressure":799.0,"uv_index":7.75,"wind_gusts":32.8,"aqi":160,"pm10":121.5,"pm2_5":60.8,"no2":25.5,"co":324.0,"o3":65.0,"so2":8.5,"mosquito_risk":3,"arthritis_risk":10,"migraine_risk":7,"frizz_risk":0,"updated_at":"2026-07-15T04:36:01.513779+05:30"},{"city":"Dharamshala","state":"Himachal Pradesh","latitude":32.219,"longitude":76.3234,"temp":21.8,"humidity":82,"rain":0.0,"pressure":865.2,"uv_index":8.25,"wind_gusts":33.1,"aqi":72,"pm10":6.0,"pm2_5":4.0,"no2":10.5,"co":286.0,"o3":37.0,"so2":0.2,"mosquito_risk":3,"arthritis_risk":5,"migraine_risk":7,"frizz_risk":1,"updated_at":"2026-07-15T04:36:01.513786+05:30"},{"city":"Dalhousie","state":"Himachal Pradesh","latitude":32.5387,"longitude":75.971,"temp":15.1,"humidity":92,"rain":0.0,"pressure":800.1,"uv_index":8.4,"wind_gusts":30.2,"aqi":156,"pm10":77.8,"pm2_5":50.1,"no2":48.2,"co":276.0,"o3":12.0,"so2":2.8,"mosquito_risk":3,"arthritis_risk":10,"migraine_risk":7,"frizz_risk":0,"updated_at":"2026-07-15T04:36:01.513793+05:30"},{"city":"Patiala","state":"Punjab","latitude":30.3398,"longitude":76.3869,"temp":27.8,"humidity":89,"rain":0.0,"pressure":971.5,"uv_index":7.6,"wind_gusts":24.5,"aqi":194,"pm10":271.9,"pm2_5":177.4,"no2":77.1,"co":1253.0,"o3":0.0,"so2":13.1,"mosquito_risk":7,"arthritis_risk":5,"migraine_risk":7,"frizz_risk":1,"updated_at":"2026-07-15T04:36:01.513801+05:30"},{"city":"Bhatinda","state":"Punjab","latitude":30.211,"longitude":74.9455,"temp":30.5,"humidity":65,"rain":0.0,"pressure":977.1,"uv_index":8.25,"wind_gusts":24.5,"aqi":176,"pm10":176.5,"pm2_5":96.6,"no2":36.7,"co":525.0,"o3":35.0,"so2":7.7,"mosquito_risk":3,"arthritis_risk":5,"migraine_risk":7,"frizz_risk":1,"updated_at":"2026-07-15T04:36:01.513823+05:30"},{"city":"Rohtak","state":"Haryana","latitude":28.8955,"longitude":76.6066,"temp":28.6,"humidity":76,"rain":0.0,"pressure":975.3,"uv_index":7.65,"wind_gusts":25.6,"aqi":322,"pm10":119.2,"pm2_5":56.0,"no2":23.8,"co":365.0,"o3":35.0,"so2":7.1,"mosquito_risk":7,"arthritis_risk":5,"migraine_risk":7,"frizz_risk":1,"updated_at":"2026-07-15T04:36:01.513830+05:30"},{"city":"Panipat","state":"Haryana","latitude":29.3909,"longitude":76.9635,"temp":27.9,"humidity":83,"rain":0.0,"pressure":973.8,"uv_index":7.55,"wind_gusts":24.5,"aqi":627,"pm10":106.9,"pm2_5":60.3,"no2":26.5,"co":577.0,"o3":26.0,"so2":5.3,"mosquito_risk":7,"arthritis_risk":5,"migraine_risk":7,"frizz_risk":1,"updated_at":"2026-07-15T04:36:01.513837+05:30"},{"city":"Mathura","state":"Uttar Pradesh","latitude":27.4924,"longitude":77.6737,"temp":25.8,"humidity":87,"rain":0.0,"pressure":980.8,"uv_index":7.85,"wind_gusts":35.3,"aqi":220,"pm10":129.0,"pm2_5":49.1,"no2":14.0,"co":173.0,"o3":55.0,"so2":3.3,"mosquito_risk":7,"arthritis_risk":5,"migraine_risk":7,"frizz_risk":1,"updated_at":"2026-07-15T04:36:01.513844+05:30"},{"city":"Vrindavan","state":"Uttar Pradesh","latitude":27.5823,"longitude":77.7027,"temp":26.4,"humidity":83,"rain":0.0,"pressure":981.2,"uv_index":7.9,"wind_gusts":30.6,"aqi":220,"pm10":129.0,"pm2_5":49.1,"no2":14.0,"co":171.0,"o3":55.0,"so2":3.3,"mosquito_risk":7,"arthritis_risk":5,"migraine_risk":7,"frizz_risk":1,"updated_at":"2026-07-15T04:36:01.513851+05:30"},{"city":"Ayodhya","state":"Uttar Pradesh","latitude":26.7922,"longitude":82.1998,"temp":25.4,"humidity":96,"rain":0.2,"pressure":988.9,"uv_index":8.35,"wind_gusts":33.5,"aqi":180,"pm10":124.8,"pm2_5":71.0,"no2":17.6,"co":829.0,"o3":67.0,"so2":6.6,"mosquito_risk":10,"arthritis_risk":5,"migraine_risk":7,"frizz_risk":1,"updated_at":"2026-07-15T04:36:01.513858+05:30"},{"city":"Ratlam","state":"Madhya Pradesh","latitude":23.3315,"longitude":75.0367,"temp":24.0,"humidity":94,"rain":0.1,"pressure":951.7,"uv_index":8.45,"wind_gusts":36.4,"aqi":69,"pm10":23.5,"pm2_5":14.2,"no2":9.6,"co":148.0,"o3":32.0,"so2":9.5,"mosquito_risk":6,"arthritis_risk":5,"migraine_risk":7,"frizz_risk":1,"updated_at":"2026-07-15T04:36:01.513865+05:30"},{"city":"Sagar","state":"Madhya Pradesh","latitude":23.8388,"longitude":78.7378,"temp":25.6,"humidity":74,"rain":0.0,"pressure":946.3,"uv_index":7.8,"wind_gusts":38.2,"aqi":94,"pm10":44.8,"pm2_5":27.6,"no2":6.4,"co":236.0,"o3":66.0,"so2":5.1,"mosquito_risk":7,"arthritis_risk":5,"migraine_risk":7,"frizz_risk":1,"updated_at":"2026-07-15T04:36:01.513872+05:30"},{"city":"Satna","state":"Madhya Pradesh","latitude":24.6005,"longitude":80.8322,"temp":27.1,"humidity":73,"rain":0.0,"pressure":966.1,"uv_index":8.75,"wind_gusts":36.7,"aqi":125,"pm10":65.2,"pm2_5":38.8,"no2":7.2,"co":165.0,"o3":56.0,"so2":4.2,"mosquito_risk":7,"arthritis_risk":5,"migraine_risk":7,"frizz_risk":1,"updated_at":"2026-07-15T04:36:01.513879+05:30"},{"city":"Akola","state":"Maharashtra","latitude":20.7002,"longitude":77.0082,"temp":26.2,"humidity":75,"rain":0.0,"pressure":972.8,"uv_index":7.2,"wind_gusts":42.5,"aqi":69,"pm10":28.5,"pm2_5":17.2,"no2":8.5,"co":136.0,"o3":35.0,"so2":7.5,"mosquito_risk":7,"arthritis_risk":5,"migraine_risk":7,"frizz_risk":1,"updated_at":"2026-07-15T04:36:01.513887+05:30"},{"city":"Amravati","state":"Maharashtra","latitude":20.9374,"longitude":77.7796,"temp":25.7,"humidity":75,"rain":0.0,"pressure":964.7,"uv_index":8.0,"wind_gusts":44.3,"aqi":70,"pm10":31.0,"pm2_5":18.0,"no2":9.0,"co":126.0,"o3":37.0,"so2":8.8,"mosquito_risk":7,"arthritis_risk":5,"migraine_risk":7,"frizz_risk":1,"updated_at":"2026-07-15T04:36:01.513895+05:30"},{"city":"Latur","state":"Maharashtra","latitude":18.4088,"longitude":76.5604,"temp":23.3,"humidity":82,"rain":0.0,"pressure":937.7,"uv_index":8.75,"wind_gusts":42.1,"aqi":63,"pm10":26.5,"pm2_5":15.8,"no2":7.8,"co":129.0,"o3":36.0,"so2":4.4,"mosquito_risk":3,"arthritis_risk":5,"migraine_risk":7,"frizz_risk":1,"updated_at":"2026-07-15T04:36:01.513902+05:30"},{"city":"Nanded","state":"Maharashtra","latitude":19.1383,"longitude":77.3091,"temp":25.5,"humidity":72,"rain":0.0,"pressure":966.5,"uv_index":8.8,"wind_gusts":38.2,"aqi":74,"pm10":31.5,"pm2_5":21.2,"no2":6.8,"co":154.0,"o3":63.0,"so2":7.8,"mosquito_risk":7,"arthritis_risk":5,"migraine_risk":7,"frizz_risk":1,"updated_at":"2026-07-15T04:36:01.513909+05:30"},{"city":"Gulbarga","state":"Karnataka","latitude":17.3297,"longitude":76.8343,"temp":24.7,"humidity":74,"rain":0.0,"pressure":957.1,"uv_index":8.8,"wind_gusts":45.0,"aqi":62,"pm10":22.5,"pm2_5":14.7,"no2":6.9,"co":124.0,"o3":39.0,"so2":3.3,"mosquito_risk":3,"arthritis_risk":5,"migraine_risk":7,"frizz_risk":1,"updated_at":"2026-07-15T04:36:01.513916+05:30"},{"city":"Bidar","state":"Karnataka","latitude":17.9104,"longitude":77.5199,"temp":23.3,"humidity":73,"rain":0.0,"pressure":933.1,"uv_index":8.95,"wind_gusts":41.0,"aqi":72,"pm10":24.8,"pm2_5":17.3,"no2":6.6,"co":131.0,"o3":52.0,"so2":4.2,"mosquito_risk":3,"arthritis_risk":5,"migraine_risk":7,"frizz_risk":1,"updated_at":"2026-07-15T04:36:01.513922+05:30"},{"city":"Hospet","state":"Karnataka","latitude":15.2689,"longitude":76.3909,"temp":22.1,"humidity":93,"rain":0.0,"pressure":955.1,"uv_index":8.75,"wind_gusts":42.5,"aqi":56,"pm10":12.5,"pm2_5":8.4,"no2":4.6,"co":113.0,"o3":38.0,"so2":1.9,"mosquito_risk":3,"arthritis_risk":5,"migraine_risk":7,"frizz_risk":1,"updated_at":"2026-07-15T04:36:01.513929+05:30"},{"city":"Tirupur","state":"Tamil Nadu","latitude":11.1085,"longitude":77.3411,"temp":24.1,"humidity":90,"rain":0.0,"pressure":974.4,"uv_index":8.35,"wind_gusts":57.2,"aqi":66,"pm10":19.7,"pm2_5":14.3,"no2":11.3,"co":152.0,"o3":30.0,"so2":4.4,"mosquito_risk":3,"arthritis_risk":5,"migraine_risk":7,"frizz_risk":1,"updated_at":"2026-07-15T04:36:01.513936+05:30"},{"city":"Alappuzha","state":"Kerala","latitude":9.4981,"longitude":76.3388,"temp":26.8,"humidity":89,"rain":0.0,"pressure":1009.6,"uv_index":8.35,"wind_gusts":43.2,"aqi":61,"pm10":26.6,"pm2_5":14.9,"no2":5.0,"co":86.0,"o3":43.0,"so2":3.0,"mosquito_risk":7,"arthritis_risk":0,"migraine_risk":4,"frizz_risk":1,"updated_at":"2026-07-15T04:36:01.513943+05:30"},{"city":"Munnar","state":"Kerala","latitude":10.0889,"longitude":77.0595,"temp":16.3,"humidity":97,"rain":0.0,"pressure":856.6,"uv_index":9.05,"wind_gusts":36.7,"aqi":53,"pm10":7.8,"pm2_5":5.8,"no2":5.9,"co":99.0,"o3":24.0,"so2":2.5,"mosquito_risk":3,"arthritis_risk":10,"migraine_risk":7,"frizz_risk":0,"updated_at":"2026-07-15T04:36:01.513950+05:30"},{"city":"Silchar","state":"Assam","latitude":24.8333,"longitude":92.7789,"temp":25.8,"humidity":98,"rain":0.1,"pressure":999.6,"uv_index":8.8,"wind_gusts":29.5,"aqi":65,"pm10":15.3,"pm2_5":14.3,"no2":7.3,"co":209.0,"o3":63.0,"so2":3.4,"mosquito_risk":10,"arthritis_risk":5,"migraine_risk":7,"frizz_risk":1,"updated_at":"2026-07-15T04:36:01.513957+05:30"},{"city":"Dibrugarh","state":"Assam","latitude":27.4728,"longitude":94.912,"temp":26.0,"humidity":99,"rain":0.1,"pressure":990.9,"uv_index":7.5,"wind_gusts":28.1,"aqi":67,"pm10":9.8,"pm2_5":9.7,"no2":10.2,"co":200.0,"o3":34.0,"so2":0.8,"mosquito_risk":10,"arthritis_risk":5,"migraine_risk":7,"frizz_risk":1,"updated_at":"2026-07-15T04:36:01.513964+05:30"}]