[{"city":"Delhi","state":"Delhi","latitude":28.6139,"longitude":77.209,"temp":27.9,"humidity":83,"rain":0.0,"pressure":979.3,"uv_index":5.1,"wind_gusts":28.1,"aqi":120,"pm10":19.4,"pm2_5":19.2,"no2":22.6,"co":709.0,"o3":65.0,"so2":26.8,"mosquito_risk":7,"arthritis_risk":5,"migraine_risk":3,"frizz_risk":1,"updated_at":"2026-07-21T09:03:00.851250+05:30"},{"city":"Mumbai","state":"Maharashtra","latitude":19.076,"longitude":72.8777,"temp":27.3,"humidity":83,"rain":0.0,"pressure":1006.3,"uv_index":6.85,"wind_gusts":50.4,"aqi":61,"pm10":44.9,"pm2_5":20.7,"no2":11.0,"co":369.0,"o3":42.0,"so2":6.8,"mosquito_risk":7,"arthritis_risk":5,"migraine_risk":4,"frizz_risk":1,"updated_at":"2026-07-21T09:03:00.851302+05:30"},{"city":"Bangalore","state":"Karnataka","latitude":12.9716,"longitude":77.5946,"temp":23.6,"humidity":74,"rain":0.0,"pressure":912.7,"uv_index":8.5,"wind_gusts":45.7,"aqi":35,"pm10":12.6,"pm2_5":7.6,"no2":9.8,"co":360.0,"o3":31.0,"so2":4.5,"mosquito_risk":3,"arthritis_risk":5,"migraine_risk":7,"frizz_risk":1,"updated_at":"2026-07-21T09:03:00.851317+05:30"},{"city":"Hyderabad","state":"Telangana","latitude":17.385,"longitude":78.4867,"temp":24.2,"humidity":83,"rain":0.0,"pressure":952.2,"uv_index":3.85,"wind_gusts":46.1,"aqi":32,"pm10":13.4,"pm2_5":8.3,"no2":6.9,"co":328.0,"o3":37.0,"so2":4.9,"mosquito_risk":3,"arthritis_risk":5,"migraine_risk":3,"frizz_risk":1,"updated_at":"2026-07-21T09:03:00.851327+05:30"},{"city":"Chennai","state":"Tamil Nadu","latitude":13.0827,"longitude":80.2707,"temp":30.4,"humidity":66,"rain":0.0,"pressure":1007.7,"uv_index":7.85,"wind_gusts":30.2,"aqi":72,"pm10":17.5,"pm2_5":14.5,"no2":17.1,"co":640.0,"o3":34.0,"so2":11.5,"mosquito_risk":3,"arthritis_risk":5,"migraine_risk":4,"frizz_risk":1,"updated_at":"2026-07-21T09:03:00.851336+05:30"},{"city":"Kolkata","state":"West Bengal","latitude":22.5726,"longitude":88.3639,"temp":25.7,"humidity":96,"rain":0.8,"pressure":1003.2,"uv_index":6.3,"wind_gusts":25.9,"aqi":67,"pm10":14.0,"pm2_5":13.0,"no2":10.6,"co":280.0,"o3":69.0,"so2":9.8,"mosquito_risk":10,"arthritis_risk":5,"migraine_risk":4,"frizz_risk":1,"updated_at":"2026-07-21T09:03:00.851344+05:30"},{"city":"Pune","state":"Maharashtra","latitude":18.5204,"longitude":73.8567,"temp":24.3,"humidity":83,"rain":0.0,"pressure":946.0,"uv_index":2.65,"wind_gusts":53.6,"aqi":23,"pm10":6.5,"pm2_5":3.8,"no2":4.6,"co":190.0,"o3":43.0,"so2":3.8,"mosquito_risk":3,"arthritis_risk":5,"migraine_risk":3,"frizz_risk":1,"updated_at":"2026-07-21T09:03:00.851351+05:30"},{"city":"Ahmedabad","state":"Gujarat","latitude":23.0225,"longitude":72.5714,"temp":28.7,"humidity":75,"rain":0.0,"pressure":997.8,"uv_index":5.9,"wind_gusts":38.5,"aqi":62,"pm10":20.0,"pm2_5":12.2,"no2":11.1,"co":188.0,"o3":32.0,"so2":6.3,"mosquito_risk":7,"arthritis_risk":5,"migraine_risk":3,"frizz_risk":1,"updated_at":"2026-07-21T09:03:00.851358+05:30"},{"city":"Jaipur","state":"Rajasthan","latitude":26.9124,"longitude":75.7873,"temp":27.5,"humidity":84,"rain":0.0,"pressure":955.9,"uv_index":2.5,"wind_gusts":23.4,"aqi":81,"pm10":15.3,"pm2_5":11.5,"no2":11.8,"co":254.0,"o3":60.0,"so2":6.6,"mosquito_risk":7,"arthritis_risk":5,"migraine_risk":3,"frizz_risk":1,"updated_at":"2026-07-21T09:03:00.851365+05:30"},{"city":"Lucknow","state":"Uttar Pradesh","latitude":26.8467,"longitude":80.9462,"temp":27.4,"humidity":86,"rain":0.0,"pressure":990.9,"uv_index":6.15,"wind_gusts":33.1,"aqi":71,"pm10":9.3,"pm2_5":9.3,"no2":8.4,"co":400.0,"o3":82.0,"so2":8.2,"mosquito_risk":7,"arthritis_risk":5,"migraine_risk":7,"frizz_risk":1,"updated_at":"2026-07-21T09:03:00.851375+05:30"},{"city":"Kanpur","state":"Uttar Pradesh","latitude":26.4499,"longitude":80.3319,"temp":26.6,"humidity":89,"rain":0.1,"pressure":988.8,"uv_index":6.85,"wind_gusts":32.0,"aqi":72,"pm10":13.6,"pm2_5":12.2,"no2":8.8,"co":245.0,"o3":92.0,"so2":8.0,"mosquito_risk":10,"arthritis_risk":5,"migraine_risk":7,"frizz_risk":1,"updated_at":"2026-07-21T09:03:00.851382+05:30"},{"city":"Chandigarh","state":"Chandigarh","latitude":30.7333,"longitude":76.7794,"temp":25.3,"humidity":97,"rain":0.5,"pressure":966.4,"uv_index":3.05,"wind_gusts":33.1,"aqi":83,"pm10":12.0,"pm2_5":11.6,"no2":17.8,"co":584.0,"o3":76.0,"so2":4.1,"mosquito_risk":10,"arthritis_risk":5,"migraine_risk":3,"frizz_risk":1,"updated_at":"2026-07-21T09:03:00.851389+05:30"},{"city":"Srinagar","state":"Jammu and Kashmir","latitude":34.0837,"longitude":74.7973,"temp":21.0,"humidity":96,"rain":0.1,"pressure":839.8,"uv_index":8.25,"wind_gusts":20.9,"aqi":54,"pm10":10.0,"pm2_5":9.3,"no2":20.5,"co":412.0,"o3":60.0,"so2":4.2,"mosquito_risk":6,"arthritis_risk":5,"migraine_risk":7,"frizz_risk":1,"updated_at":"2026-07-21T09:03:00.851395+05:30"},{"city":"Jammu","state":"Jammu and Kashmir","latitude":32.7266,"longitude":74.857,"temp":25.3,"humidity":95,"rain":0.2,"pressure":969.2,"uv_index":4.85,"wind_gusts":34.9,"aqi":99,"pm10":18.6,"pm2_5":12.6,"no2":14.0,"co":293.0,"o3":74.0,"so2":3.4,"mosquito_risk":10,"arthritis_risk":5,"migraine_risk":3,"frizz_risk":1,"updated_at":"2026-07-21T09:03:00.851402+05:30"},{"city":"Amritsar","state":"Punjab","latitude":31.634,"longitude":74.8723,"temp":25.7,"humidity":97,"rain":0.3,"pressure":977.3,"uv_index":8.25,"wind_gusts":33.5,"aqi":153,"pm10":61.2,"pm2_5":33.2,"no2":14.9,"co":383.0,"o3":57.0,"so2":9.7,"mosquito_risk":10,"arthritis_risk":5,"migraine_risk":7,"frizz_risk":1,"updated_at":"2026-07-21T09:03:00.851408+05:30"},{"city":"Ludhiana","state":"Punjab","latitude":30.901,"longitude":75.8573,"temp":27.1,"humidity":88,"rain":0.1,"pressure":975.7,"uv_index":6.75,"wind_gusts":36.4,"aqi":99,"pm10":25.0,"pm2_5":18.3,"no2":13.2,"co":447.0,"o3":76.0,"so2":6.7,"mosquito_risk":10,"arthritis_risk":5,"migraine_risk":7,"frizz_risk":1,"updated_at":"2026-07-21T09:03:00.851414+05:30"},{"city":"Jalandhar","state":"Punjab","latitude":31.326,"longitude":75.5762,"temp":26.6,"humidity":93,"rain":0.0,"pressure":976.9,"uv_index":7.6,"wind_gusts":37.8,"aqi":118,"pm10":33.5,"pm2_5":22.2,"no2":13.3,"co":449.0,"o3":70.0,"so2":7.1,"mosquito_risk":7,"arthritis_risk":5,"migraine_risk":7,"frizz_risk":1,"updated_at":"2026-07-21T09:03:00.851420+05:30"},{"city":"Dehradun","state":"Uttarakhand","latitude":30.6284,"longitude":78.0322,"temp":18.6,"humidity":98,"rain":0.3,"pressure":829.8,"uv_index":0.75,"wind_gusts":24.8,"aqi":49,"pm10":1.2,"pm2_5":1.1,"no2":4.7,"co":217.0,"o3":111.0,"so2":1.2,"mosquito_risk":6,"arthritis_risk":10,"migraine_risk":3,"frizz_risk":1,"updated_at":"2026-07-21T09:03:00.851427+05:30"},{"city":"Shimla","state":"Himachal Pradesh","latitude":31.1048,"longitude":77.1734,"temp":16.0,"humidity":99,"rain":0.3,"pressure":783.6,"uv_index":0.7,"wind_gusts":21.2,"aqi":58,"pm10":2.7,"pm2_5":2.4,"no2":8.7,"co":301.0,"o3":98.0,"so2":0.5,"mosquito_risk":6,"arthritis_risk":10,"migraine_risk":3,"frizz_risk":0,"updated_at":"2026-07-21T09:03:00.851433+05:30"},{"city":"Manali","state":"Himachal Pradesh","latitude":32.2396,"longitude":77.1887,"temp":21.7,"humidity":91,"rain":0.0,"pressure":819.5,"uv_index":7.75,"wind_gusts":22.7,"aqi":29,"pm10":3.0,"pm2_5":2.8,"no2":11.0,"co":220.0,"o3":81.0,"so2":0.9,"mosquito_risk":3,"arthritis_risk":5,"migraine_risk":7,"frizz_risk":1,"updated_at":"2026-07-21T09:03:00.851440+05:30"},{"city":"Gurgaon","state":"Haryana","latitude":28.4595,"longitude":77.0266,"temp":27.6,"humidity":86,"rain":0.0,"pressure":977.7,"uv_index":5.85,"wind_gusts":23.8,"aqi":106,"pm10":23.5,"pm2_5":22.6,"no2":27.8,"co":650.0,"o3":53.0,"so2":25.6,"mosquito_risk":7,"arthritis_risk":5,"migraine_risk":3,"frizz_risk":1,"updated_at":"2026-07-21T09:03:00.851447+05:30"},{"city":"Noida","state":"Uttar Pradesh","latitude":28.5355,"longitude":77.391,"temp":28.0,"humidity":82,"rain":0.0,"pressure":980.7,"uv_index":6.15,"wind_gusts":27.0,"aqi":106,"pm10":23.5,"pm2_5":22.6,"no2":27.8,"co":489.0,"o3":53.0,"so2":25.6,"mosquito_risk":7,"arthritis_risk":5,"migraine_risk":7,"frizz_risk":1,"updated_at":"2026-07-21T09:03:00.851453+05:30"},{"city":"Ghaziabad","state":"Uttar Pradesh","latitude":28.6692,"longitude":77.4538,"temp":27.3,"humidity":86,"rain":0.0,"pressure":979.2,"uv_index":5.95,"wind_gusts":33.1,"aqi":101,"pm10":14.0,"pm2_5":13.4,"no2":9.5,"co":304.0,"o3":79.0,"so2":12.3,"mosquito_risk":7,"arthritis_risk":5,"migraine_risk":3,"frizz_risk":1,"updated_at":"2026-07-21T09:03:00.851461+05:30"},{"city":"Faridabad","state":"Haryana","latitude":28.4089,"longitude":77.3178,"temp":27.8,"humidity":82,"rain":0.0,"pressure":979.9,"uv_index":5.85,"wind_gusts":28.8,"aqi":106,"pm10":23.5,"pm2_5":22.6,"no2":27.8,"co":487.0,"o3":53.0,"so2":25.6,"mosquito_risk":7,"arthritis_risk":5,"migraine_risk":3,"frizz_risk":1,"updated_at":"2026-07-21T09:03:00.851467+05:30"},{"city":"Meerut","state":"Uttar Pradesh","latitude":28.9845,"longitude":77.7064,"temp":27.3,"humidity":85,"rain":0.0,"pressure":978.5,"uv_index":6.75,"wind_gusts":42.8,"aqi":101,"pm10":14.0,"pm2_5":13.4,"no2":9.5,"co":384.0,"o3":79.0,"so2":12.3,"mosquito_risk":7,"arthritis_risk":5,"migraine_risk":7,"frizz_risk":1,"updated_at":"2026-07-21T09:03:00.851473+05:30"},{"city":"Agra","state":"Uttar Pradesh","latitude":27.1767,"longitude":78.0081,"temp":25.8,"humidity":91,"rain":0.0,"pressure":984.3,"uv_index":6.65,"wind_gusts":21.6,"aqi":69,"pm10":28.6,"pm2_5":18.9,"no2":18.6,"co":270.0,"o3":51.0,"so2":7.0,"mosquito_risk":7,"arthritis_risk":5,"migraine_risk":7,"frizz_risk":1,"updated_at":"2026-07-21T09:03:00.851480+05:30"},{"city":"Varanasi","state":"Uttar Pradesh","latitude":25.3176,"longitude":82.9739,"temp":28.2,"humidity":84,"rain":0.0,"pressure":994.5,"uv_index":6.4,"wind_gusts":35.3,"aqi":72,"pm10":17.0,"pm2_5":16.8,"no2":8.6,"co":747.0,"o3":93.0,"so2":16.1,"mosquito_risk":7,"arthritis_risk":5,"migraine_risk":7,"frizz_risk":1,"updated_at":"2026-07-21T09:03:00.851486+05:30"},{"city":"Prayagraj","state":"Uttar Pradesh","latitude":25.4358,"longitude":81.8463,"temp":27.1,"humidity":90,"rain":0.0,"pressure":992.7,"uv_index":2.75,"wind_gusts":35.3,"aqi":69,"pm10":12.1,"pm2_5":12.0,"no2":7.8,"co":376.0,"o3":87.0,"so2":9.4,"mosquito_risk":7,"arthritis_risk":5,"migraine_risk":3,"frizz_risk":1,"updated_at":"2026-07-21T09:03:00.851493+05:30"},{"city":"Gorakhpur","state":"Uttar Pradesh","latitude":26.7606,"longitude":83.3732,"temp":28.4,"humidity":79,"rain":0.0,"pressure":995.5,"uv_index":5.25,"wind_gusts":40.0,"aqi":63,"pm10":18.0,"pm2_5":17.5,"no2":7.0,"co":306.0,"o3":77.0,"so2":9.8,"mosquito_risk":7,"arthritis_risk":5,"migraine_risk":3,"frizz_risk":1,"updated_at":"2026-07-21T09:03:00.851498+05:30"},{"city":"Bareilly","state":"Uttar Pradesh","latitude":28.367,"longitude":79.4304,"temp":26.4,"humidity":91,"rain":0.1,"pressure":984.4,"uv_index":3.7,"wind_gusts":38.5,"aqi":63,"pm10":9.3,"pm2_5":9.3,"no2":7.2,"co":361.0,"o3":85.0,"so2":7.6,"mosquito_risk":10,"arthritis_risk":5,"migraine_risk":3,"frizz_risk":1,"updated_at":"2026-07-21T09:03:00.851506+05:30"},{"city":"Aligarh","state":"Uttar Pradesh","latitude":27.8974,"longitude":78.088,"temp":27.6,"humidity":85,"rain":0.0,"pressure":982.2,"uv_index":6.25,"wind_gusts":25.9,"aqi":92,"pm10":23.2,"pm2_5":18.1,"no2":13.8,"co":276.0,"o3":63.0,"so2":12.7,"mosquito_risk":7,"arthritis_risk":5,"migraine_risk":7,"frizz_risk":1,"updated_at":"2026-07-21T09:03:00.851512+05:30"},{"city":"Moradabad","state":"Uttar Pradesh","latitude":28.8386,"longitude":78.7733,"temp":26.6,"humidity":89,"rain":0.1,"pressure":980.9,"uv_index":5.6,"wind_gusts":45.4,"aqi":67,"pm10":10.2,"pm2_5":10.2,"no2":7.8,"co":329.0,"o3":91.0,"so2":7.1,"mosquito_risk":10,"arthritis_risk":5,"migraine_risk":3,"frizz_risk":1,"updated_at":"2026-07-21T09:03:00.851517+05:30"},{"city":"Saharanpur","state":"Uttar Pradesh","latitude":29.9637,"longitude":77.546,"temp":26.8,"humidity":89,"rain":0.0,"pressure":973.3,"uv_index":6.65,"wind_gusts":50.8,"aqi":80,"pm10":25.6,"pm2_5":24.7,"no2":8.8,"co":342.0,"o3":104.0,"so2":9.3,"mosquito_risk":7,"arthritis_risk":5,"migraine_risk":7,"frizz_risk":1,"updated_at":"2026-07-21T09:03:00.851523+05:30"},{"city":"Jhansi","state":"Uttar Pradesh","latitude":25.4484,"longitude":78.5685,"temp":28.5,"humidity":75,"rain":0.0,"pressure":974.5,"uv_index":4.5,"wind_gusts":15.1,"aqi":65,"pm10":23.7,"pm2_5":15.3,"no2":9.6,"co":187.0,"o3":66.0,"so2":7.7,"mosquito_risk":7,"arthritis_risk":5,"migraine_risk":3,"frizz_risk":1,"updated_at":"2026-07-21T09:03:04.192212+05:30"},{"city":"Surat","state":"Gujarat","latitude":21.1702,"longitude":72.8311,"temp":26.5,"humidity":93,"rain":0.1,"pressure":1003.2,"uv_index":6.2,"wind_gusts":48.2,"aqi":66,"pm10":27.9,"pm2_5":22.2,"no2":24.1,"co":476.0,"o3":20.0,"so2":48.4,"mosquito_risk":10,"arthritis_risk":5,"migraine_risk":4,"frizz_risk":1,"updated_at":"2026-07-21T09:03:04.192243+05:30"},{"city":"Vadodara","state":"Gujarat","latitude":22.3072,"longitude":73.1812,"temp":27.5,"humidity":86,"rain":0.1,"pressure":1000.4,"uv_index":6.35,"wind_gusts":33.1,"aqi":58,"pm10":20.6,"pm2_5":13.4,"no2":12.5,"co":244.0,"o3":29.0,"so2":6.5,"mosquito_risk":10,"arthritis_risk":5,"migraine_risk":4,"frizz_risk":1,"updated_at":"2026-07-21T09:03:04.192252+05:30"},{"city":"Rajkot","state":"Gujarat","latitude":22.3039,"longitude":70.8022,"temp":28.0,"humidity":79,"rain":0.0,"pressure":989.6,"uv_index":6.65,"wind_gusts":45.0,"aqi":62,"pm10":19.7,"pm2_5":9.5,"no2":3.8,"co":112.0,"o3":46.0,"so2":4.1,"mosquito_risk":7,"arthritis_risk":5,"migraine_risk":7,"frizz_risk":1,"updated_at":"2026-07-21T09:03:04.192260+05:30"},{"city":"Thane","state":"Maharashtra","latitude":19.2183,"longitude":72.9781,"temp":26.3,"humidity":91,"rain":0.1,"pressure":1005.8,"uv_index":7.05,"wind_gusts":41.0,"aqi":61,"pm10":44.9,"pm2_5":20.7,"no2":11.0,"co":280.0,"o3":42.0,"so2":6.8,"mosquito_risk":10,"arthritis_risk":5,"migraine_risk":4,"frizz_risk":1,"updated_at":"2026-07-21T09:03:04.192268+05:30"},{"city":"Nagpur","state":"Maharashtra","latitude":21.1458,"longitude":79.0882,"temp":26.0,"humidity":88,"rain":0.1,"pressure":970.1,"uv_index":1.85,"wind_gusts":33.8,"aqi":56,"pm10":8.6,"pm2_5":7.1,"no2":12.2,"co":225.0,"o3":30.0,"so2":13.2,"mosquito_risk":10,"arthritis_risk":5,"migraine_risk":3,"frizz_risk":1,"updated_at":"2026-07-21T09:03:04.192276+05:30"},{"city":"Nashik","state":"Maharashtra","latitude":19.9975,"longitude":73.7898,"temp":22.7,"humidity":96,"rain":0.3,"pressure":942.5,"uv_index":4.65,"wind_gusts":50.4,"aqi":22,"pm10":5.2,"pm2_5":3.0,"no2":5.4,"co":152.0,"o3":41.0,"so2":4.1,"mosquito_risk":6,"arthritis_risk":5,"migraine_risk":3,"frizz_risk":1,"updated_at":"2026-07-21T09:03:04.192284+05:30"},{"city":"Aurangabad","state":"Maharashtra","latitude":19.8762,"longitude":75.3433,"temp":24.8,"humidity":83,"rain":0.0,"pressure":941.7,"uv_index":5.65,"wind_gusts":54.0,"aqi":28,"pm10":4.7,"pm2_5":3.4,"no2":5.8,"co":151.0,"o3":39.0,"so2":7.4,"mosquito_risk":3,"arthritis_risk":5,"migraine_risk":3,"frizz_risk":1,"updated_at":"2026-07-21T09:03:04.192292+05:30"},{"city":"Solapur","state":"Maharashtra","latitude":17.6599,"longitude":75.9064,"temp":27.2,"humidity":68,"rain":0.0,"pressure":956.6,"uv_index":6.25,"wind_gusts":57.2,"aqi":27,"pm10":10.3,"pm2_5":5.7,"no2":3.0,"co":123.0,"o3":45.0,"so2":2.3,"mosquito_risk":7,"arthritis_risk":5,"migraine_risk":7,"frizz_risk":1,"updated_at":"2026-07-21T09:03:04.192300+05:30"},{"city":"Kolhapur","state":"Maharashtra","latitude":16.705,"longitude":74.2433,"temp":24.1,"humidity":83,"rain":0.1,"pressure":947.6,"uv_index":8.05,"wind_gusts":59.8,"aqi":27,"pm10":7.6,"pm2_5":4.8,"no2":3.5,"co":144.0,"o3":41.0,"so2":2.0,"mosquito_risk":6,"arthritis_risk":5,"migraine_risk":7,"frizz_risk":1,"updated_at":"2026-07-21T09:03:04.192308+05:30"},{"city":"Goa","state":"Goa","latitude":15.2993,"longitude":74.124,"temp":25.9,"humidity":90,"rain":0.1,"pressure":999.4,"uv_index":7.45,"wind_gusts":36.4,"aqi":58,"pm10":22.4,"pm2_5":12.0,"no2":2.4,"co":192.0,"o3":45.0,"so2":1.2,"mosquito_risk":10,"arthritis_risk":5,"migraine_risk":7,"frizz_risk":1,"updated_at":"2026-07-21T09:03:04.192315+05:30"},{"city":"Jodhpur","state":"Rajasthan","latitude":26.2389,"longitude":73.0243,"temp":31.3,"humidity":60,"rain":0.0,"pressure":978.2,"uv_index":7.9,"wind_gusts":35.6,"aqi":82,"pm10":203.0,"pm2_5":49.7,"no2":3.5,"co":126.0,"o3":55.0,"so2":3.2,"mosquito_risk":0,"arthritis_risk":5,"migraine_risk":7,"frizz_risk":1,"updated_at":"2026-07-21T09:03:04.192322+05:30"},{"city":"Udaipur","state":"Rajasthan","latitude":24.5854,"longitude":73.7125,"temp":25.2,"humidity":85,"rain":0.1,"pressure":942.2,"uv_index":7.45,"wind_gusts":28.4,"aqi":58,"pm10":28.8,"pm2_5":12.5,"no2":5.1,"co":132.0,"o3":48.0,"so2":4.7,"mosquito_risk":10,"arthritis_risk":5,"migraine_risk":7,"frizz_risk":1,"updated_at":"2026-07-21T09:03:04.192329+05:30"},{"city":"Kota","state":"Rajasthan","latitude":25.2138,"longitude":75.8648,"temp":28.4,"humidity":81,"rain":0.0,"pressure":974.6,"uv_index":1.2,"wind_gusts":30.6,"aqi":67,"pm10":14.6,"pm2_5":12.3,"no2":9.8,"co":221.0,"o3":58.0,"so2":7.7,"mosquito_risk":7,"arthritis_risk":5,"migraine_risk":3,"frizz_risk":1,"updated_at":"2026-07-21T09:03:04.192337+05:30"},{"city":"Bikaner","state":"Rajasthan","latitude":28.0229,"longitude":73.3119,"temp":33.2,"humidity":53,"rain":0.0,"pressure":976.6,"uv_index":8.4,"wind_gusts":45.0,"aqi":87,"pm10":74.0,"pm2_5":24.4,"no2":2.0,"co":130.0,"o3":60.0,"so2":4.7,"mosquito_risk":0,"arthritis_risk":5,"migraine_risk":7,"frizz_risk":1,"updated_at":"2026-07-21T09:03:04.192344+05:30"},{"city":"Ajmer","state":"Rajasthan","latitude":26.4499,"longitude":74.6399,"temp":26.5,"humidity":85,"rain":0.1,"pressure":950.6,"uv_index":5.15,"wind_gusts":27.4,"aqi":59,"pm10":17.0,"pm2_5":12.2,"no2":7.9,"co":141.0,"o3":58.0,"so2":5.3,"mosquito_risk":10,"arthritis_risk":5,"migraine_risk":3,"frizz_risk":1,"updated_at":"2026-07-21T09:03:04.192352+05:30"},{"city":"Gwalior","state":"Madhya Pradesh","latitude":26.2183,"longitude":78.1828,"temp":28.1,"humidity":73,"rain":0.0,"pressure":979.7,"uv_index":5.15,"wind_gusts":27.4,"aqi":62,"pm10":23.8,"pm2_5":14.0,"no2":7.0,"co":187.0,"o3":72.0,"so2":3.5,"mosquito_risk":7,"arthritis_risk":5,"migraine_risk":3,"frizz_risk":1,"updated_at":"2026-07-21T09:03:04.192359+05:30"},{"city":"Indore","state":"Madhya Pradesh","latitude":22.7196,"longitude":75.8577,"temp":24.1,"humidity":92,"rain":0.3,"pressure":944.3,"uv_index":4.6,"wind_gusts":33.1,"aqi":52,"pm10":10.0,"pm2_5":7.9,"no2":10.6,"co":290.0,"o3":33.0,"so2":8.8,"mosquito_risk":6,"arthritis_risk":5,"migraine_risk":3,"frizz_risk":1,"updated_at":"2026-07-21T09:03:04.192366+05:30"},{"city":"Bhopal","state":"Madhya Pradesh","latitude":23.2599,"longitude":77.4126,"temp":24.1,"humidity":96,"rain":0.9,"pressure":949.8,"uv_index":3.25,"wind_gusts":27.4,"aqi":61,"pm10":9.3,"pm2_5":8.5,"no2":7.9,"co":289.0,"o3":50.0,"so2":2.9,"mosquito_risk":6,"arthritis_risk":5,"migraine_risk":3,"frizz_risk":1,"updated_at":"2026-07-21T09:03:04.192373+05:30"},{"city":"Jabalpur","state":"Madhya Pradesh","latitude":23.1815,"longitude":79.9864,"temp":24.4,"humidity":95,"rain":0.0,"pressure":957.9,"uv_index":1.65,"wind_gusts":31.7,"aqi":57,"pm10":8.7,"pm2_5":8.4,"no2":9.3,"co":224.0,"o3":50.0,"so2":2.4,"mosquito_risk":3,"arthritis_risk":5,"migraine_risk":3,"frizz_risk":1,"updated_at":"2026-07-21T09:03:04.192381+05:30"},{"city":"Ujjain","state":"Madhya Pradesh","latitude":23.1765,"longitude":75.7885,"temp":24.1,"humidity":94,"rain":0.1,"pressure":950.0,"uv_index":1.5,"wind_gusts":29.5,"aqi":52,"pm10":12.8,"pm2_5":9.3,"no2":8.4,"co":231.0,"o3":37.0,"so2":7.3,"mosquito_risk":6,"arthritis_risk":5,"migraine_risk":3,"frizz_risk":1,"updated_at":"2026-07-21T09:03:04.192388+05:30"},{"city":"Visakhapatnam","state":"Andhra Pradesh","latitude":17.6868,"longitude":83.2185,"temp":29.0,"humidity":77,"rain":0.0,"pressure":1000.4,"uv_index":7.05,"wind_gusts":41.4,"aqi":73,"pm10":16.5,"pm2_5":15.0,"no2":19.3,"co":385.0,"o3":52.0,"so2":45.8,"mosquito_risk":7,"arthritis_risk":5,"migraine_risk":4,"frizz_risk":1,"updated_at":"2026-07-21T09:03:04.192395+05:30"},{"city":"Vijayawada","state":"Andhra Pradesh","latitude":16.5062,"longitude":80.648,"temp":28.7,"humidity":74,"rain":0.0,"pressure":1002.0,"uv_index":3.95,"wind_gusts":47.2,"aqi":56,"pm10":13.6,"pm2_5":9.5,"no2":7.0,"co":191.0,"o3":43.0,"so2":7.8,"mosquito_risk":7,"arthritis_risk":5,"migraine_risk":0,"frizz_risk":1,"updated_at":"2026-07-21T09:03:04.192402+05:30"},{"city":"Guntur","state":"Andhra Pradesh","latitude":16.3067,"longitude":80.4365,"temp":30.6,"humidity":61,"rain":0.0,"pressure":1003.1,"uv_index":6.9,"wind_gusts":47.2,"aqi":53,"pm10":15.0,"pm2_5":9.7,"no2":6.6,"co":190.0,"o3":41.0,"so2":7.8,"mosquito_risk":3,"arthritis_risk":5,"migraine_risk":4,"frizz_risk":1,"updated_at":"2026-07-21T09:03:04.192410+05:30"},{"city":"Nellore","state":"Andhra Pradesh","latitude":14.4426,"longitude":79.9865,"temp":31.0,"humidity":60,"rain":0.0,"pressure":1006.2,"uv_index":5.85,"wind_gusts":46.8,"aqi":55,"pm10":15.9,"pm2_5":8.1,"no2":5.3,"co":131.0,"o3":39.0,"so2":5.4,"mosquito_risk":0,"arthritis_risk":5,"migraine_risk":0,"frizz_risk":1,"updated_at":"2026-07-21T09:03:04.192418+05:30"},{"city":"Kurnool","state":"Andhra Pradesh","latitude":15.8281,"longitude":78.0373,"temp":27.8,"humidity":68,"rain":0.0,"pressure":977.4,"uv_index":8.05,"wind_gusts":51.8,"aqi":41,"pm10":13.1,"pm2_5":8.2,"no2":5.4,"co":130.0,"o3":36.0,"so2":3.5,"mosquito_risk":7,"arthritis_risk":5,"migraine_risk":7,"frizz_risk":1,"updated_at":"2026-07-21T09:03:04.192425+05:30"},{"city":"Kakinada","state":"Andhra Pradesh","latitude":16.9891,"longitude":82.2475,"temp":28.7,"humidity":75,"rain":0.0,"pressure":1005.7,"uv_index":8.05,"wind_gusts":52.2,"aqi":61,"pm10":10.4,"pm2_5":8.5,"no2":5.9,"co":195.0,"o3":61.0,"so2":5.3,"mosquito_risk":7,"arthritis_risk":5,"migraine_risk":4,"frizz_risk":1,"updated_at":"2026-07-21T09:03:04.192432+05:30"},{"city":"Tirupati","state":"Andhra Pradesh","latitude":13.6288,"longitude":79.4192,"temp":29.5,"humidity":62,"rain":0.0,"pressure":991.7,"uv_index":8.4,"wind_gusts":31.7,"aqi":54,"pm10":16.2,"pm2_5":9.6,"no2":6.2,"co":137.0,"o3":44.0,"so2":2.4,"mosquito_risk":7,"arthritis_risk":5,"migraine_risk":7,"frizz_risk":1,"updated_at":"2026-07-21T09:03:04.192440+05:30"},{"city":"Warangal","state":"Telangana","latitude":17.9689,"longitude":79.5941,"temp":25.2,"humidity":91,"rain":0.2,"pressure":977.5,"uv_index":4.1,"wind_gusts":28.8,"aqi":38,"pm10":10.9,"pm2_5":8.1,"no2":6.4,"co":160.0,"o3":34.0,"so2":2.9,"mosquito_risk":10,"arthritis_risk":5,"migraine_risk":3,"frizz_risk":1,"updated_at":"2026-07-21T09:03:04.192447+05:30"},{"city":"Nizamabad","state":"Telangana","latitude":18.6725,"longitude":78.0941,"temp":24.2,"humidity":95,"rain":0.2,"pressure":963.2,"uv_index":4.3,"wind_gusts":34.9,"aqi":36,"pm10":8.2,"pm2_5":6.3,"no2":8.2,"co":171.0,"o3":30.0,"so2":5.3,"mosquito_risk":6,"arthritis_risk":5,"migraine_risk":3,"frizz_risk":1,"updated_at":"2026-07-21T09:03:04.192453+05:30"},{"city":"Mysore","state":"Karnataka","latitude":12.2958,"longitude":76.6396,"temp":24.9,"humidity":70,"rain":0.0,"pressure":930.1,"uv_index":8.3,"wind_gusts":45.0,"aqi":26,"pm10":8.8,"pm2_5":5.1,"no2":4.9,"co":131.0,"o3":36.0,"so2":2.2,"mosquito_risk":3,"arthritis_risk":5,"migraine_risk":7,"frizz_risk":1,"updated_at":"2026-07-21T09:03:04.192460+05:30"},{"city":"Mangalore","state":"Karnataka","latitude":12.9141,"longitude":74.856,"temp":25.8,"humidity":89,"rain":0.0,"pressure":1009.2,"uv_index":8.0,"wind_gusts":31.0,"aqi":52,"pm10":15.3,"pm2_5":10.0,"no2":5.7,"co":172.0,"o3":36.0,"so2":3.7,"mosquito_risk":7,"arthritis_risk":0,"migraine_risk":4,"frizz_risk":1,"updated_at":"2026-07-21T09:03:04.192467+05:30"},{"city":"Hubli-Dharwad","state":"Karnataka","latitude":15.3647,"longitude":75.124,"temp":24.3,"humidity":80,"rain":0.0,"pressure":941.6,"uv_index":5.85,"wind_gusts":58.0,"aqi":18,"pm10":2.5,"pm2_5":1.9,"no2":4.3,"co":114.0,"o3":37.0,"so2":1.3,"mosquito_risk":3,"arthritis_risk":5,"migraine_risk":3,"frizz_risk":1,"updated_at":"2026-07-21T09:03:04.192475+05:30"},{"city":"Belgaum","state":"Karnataka","latitude":15.8497,"longitude":74.4977,"temp":22.8,"humidity":87,"rain":0.0,"pressure":926.0,"uv_index":8.8,"wind_gusts":58.7,"aqi":20,"pm10":5.5,"pm2_5":3.5,"no2":3.8,"co":118.0,"o3":38.0,"so2":2.0,"mosquito_risk":3,"arthritis_risk":5,"migraine_risk":7,"frizz_risk":1,"updated_at":"2026-07-21T09:03:07.512404+05:30"},{"city":"Coimbatore","state":"Tamil Nadu","latitude":11.0168,"longitude":76.9558,"temp":26.6,"humidity":74,"rain":0.0,"pressure":963.2,"uv_index":8.45,"wind_gusts":51.1,"aqi":33,"pm10":15.0,"pm2_5":8.1,"no2":4.3,"co":198.0,"o3":49.0,"so2":3.4,"mosquito_risk":7,"arthritis_risk":5,"migraine_risk":7,"frizz_risk":1,"updated_at":"2026-07-21T09:03:07.512438+05:30"},{"city":"Madurai","state":"Tamil Nadu","latitude":9.9252,"longitude":78.1198,"temp":31.3,"humidity":49,"rain":0.0,"pressure":994.4,"uv_index":8.6,"wind_gusts":26.3,"aqi":55,"pm10":16.8,"pm2_5":11.0,"no2":11.2,"co":184.0,"o3":36.0,"so2":6.6,"mosquito_risk":0,"arthritis_risk":5,"migraine_risk":7,"frizz_risk":1,"updated_at":"2026-07-21T09:03:07.512449+05:30"},{"city":"Trichy","state":"Tamil Nadu","latitude":10.7905,"longitude":78.7047,"temp":31.5,"humidity":55,"rain":0.0,"pressure":1000.9,"uv_index":8.55,"wind_gusts":45.0,"aqi":39,"pm10":10.3,"pm2_5":7.1,"no2":6.5,"co":136.0,"o3":36.0,"so2":4.5,"mosquito_risk":0,"arthritis_risk":5,"migraine_risk":4,"frizz_risk":1,"updated_at":"2026-07-21T09:03:07.512460+05:30"},{"city":"Salem","state":"Tamil Nadu","latitude":11.6643,"longitude":78.146,"temp":27.4,"humidity":74,"rain":0.0,"pressure":979.0,"uv_index":8.15,"wind_gusts":27.7,"aqi":57,"pm10":16.8,"pm2_5":13.0,"no2":11.7,"co":257.0,"o3":44.0,"so2":13.3,"mosquito_risk":7,"arthritis_risk":5,"migraine_risk":7,"frizz_risk":1,"updated_at":"2026-07-21T09:03:07.512469+05:30"},{"city":"Tirunelveli","state":"Tamil Nadu","latitude":8.7139,"longitude":77.7567,"temp":32.7,"humidity":46,"rain":0.0,"pressure":1004.8,"uv_index":8.2,"wind_gusts":42.8,"aqi":36,"pm10":6.9,"pm2_5":4.8,"no2":4.1,"co":139.0,"o3":42.0,"so2":2.8,"mosquito_risk":0,"arthritis_risk":5,"migraine_risk":4,"frizz_risk":1,"updated_at":"2026-07-21T09:03:07.512478+05:30"},{"city":"Vellore","state":"Tamil Nadu","latitude":12.9165,"longitude":79.1325,"temp":29.8,"humidity":57,"rain":0.0,"pressure":985.2,"uv_index":8.1,"wind_gusts":34.9,"aqi":58,"pm10":11.4,"pm2_5":7.9,"no2":7.4,"co":155.0,"o3":42.0,"so2":4.8,"mosquito_risk":4,"arthritis_risk":5,"migraine_risk":7,"frizz_risk":1,"updated_at":"2026-07-21T09:03:07.512488+05:30"},{"city":"Erode","state":"Tamil Nadu","latitude":11.341,"longitude":77.7172,"temp":29.9,"humidity":59,"rain":0.0,"pressure":990.6,"uv_index":8.35,"wind_gusts":36.4,"aqi":50,"pm10":13.6,"pm2_5":9.9,"no2":8.6,"co":197.0,"o3":39.0,"so2":5.0,"mosquito_risk":4,"arthritis_risk":5,"migraine_risk":7,"frizz_risk":1,"updated_at":"2026-07-21T09:03:07.512497+05:30"},{"city":"Kochi","state":"Kerala","latitude":9.9312,"longitude":76.2673,"temp":27.7,"humidity":84,"rain":0.0,"pressure":1011.3,"uv_index":8.55,"wind_gusts":30.6,"aqi":55,"pm10":15.1,"pm2_5":12.0,"no2":10.7,"co":218.0,"o3":41.0,"so2":7.8,"mosquito_risk":7,"arthritis_risk":0,"migraine_risk":4,"frizz_risk":1,"updated_at":"2026-07-21T09:03:07.512506+05:30"},{"city":"Thiruvananthapuram","state":"Kerala","latitude":8.5241,"longitude":76.9366,"temp":27.7,"humidity":80,"rain":0.0,"pressure":1010.8,"uv_index":7.65,"wind_gusts":37.4,"aqi":50,"pm10":16.5,"pm2_5":12.5,"no2":9.4,"co":173.0,"o3":35.0,"so2":4.9,"mosquito_risk":7,"arthritis_risk":0,"migraine_risk":4,"frizz_risk":1,"updated_at":"2026-07-21T09:03:07.512515+05:30"},{"city":"Kozhikode","state":"Kerala","latitude":11.2588,"longitude":75.7804,"temp":26.5,"humidity":90,"rain":0.0,"pressure":1010.6,"uv_index":8.0,"wind_gusts":31.0,"aqi":34,"pm10":8.8,"pm2_5":4.8,"no2":1.7,"co":217.0,"o3":43.0,"so2":1.9,"mosquito_risk":7,"arthritis_risk":0,"migraine_risk":4,"frizz_risk":1,"updated_at":"2026-07-21T09:03:07.512524+05:30"},{"city":"Thrissur","state":"Kerala","latitude":10.5276,"longitude":76.2144,"temp":27.9,"humidity":82,"rain":0.0,"pressure":1009.6,"uv_index":8.3,"wind_gusts":33.5,"aqi":51,"pm10":13.9,"pm2_5":10.8,"no2":6.1,"co":196.0,"o3":49.0,"so2":4.7,"mosquito_risk":7,"arthritis_risk":0,"migraine_risk":4,"frizz_risk":1,"updated_at":"2026-07-21T09:03:07.512538+05:30"},{"city":"Kannur","state":"Kerala","latitude":11.8745,"longitude":75.3704,"temp":26.0,"humidity":91,"rain":0.1,"pressure":1009.9,"uv_index":7.95,"wind_gusts":34.2,"aqi":42,"pm10":12.2,"pm2_5":7.3,"no2":4.5,"co":208.0,"o3":39.0,"so2":2.7,"mosquito_risk":10,"arthritis_risk":0,"migraine_risk":4,"frizz_risk":1,"updated_at":"2026-07-21T09:03:07.512547+05:30"},{"city":"Patna","state":"Bihar","latitude":25.5941,"longitude":85.1376,"temp":27.7,"humidity":88,"rain":0.0,"pressure":998.5,"uv_index":8.7,"wind_gusts":42.1,"aqi":73,"pm10":16.9,"pm2_5":15.8,"no2":12.9,"co":285.0,"o3":60.0,"so2":14.5,"mosquito_risk":7,"arthritis_risk":5,"migraine_risk":7,"frizz_risk":1,"updated_at":"2026-07-21T09:03:07.512556+05:30"},{"city":"Gaya","state":"Bihar","latitude":24.7914,"longitude":85.0002,"temp":27.9,"humidity":83,"rain":0.0,"pressure":991.3,"uv_index":8.05,"wind_gusts":33.5,"aqi":71,"pm10":15.3,"pm2_5":14.4,"no2":7.6,"co":551.0,"o3":77.0,"so2":11.5,"mosquito_risk":7,"arthritis_risk":5,"migraine_risk":7,"frizz_risk":1,"updated_at":"2026-07-21T09:03:07.512564+05:30"},{"city":"Muzaffarpur","state":"Bihar","latitude":26.1209,"longitude":85.3647,"temp":28.4,"humidity":81,"rain":0.0,"pressure":999.1,"uv_index":8.3,"wind_gusts":45.0,"aqi":69,"pm10":16.9,"pm2_5":16.2,"no2":10.0,"co":264.0,"o3":64.0,"so2":9.4,"mosquito_risk":7,"arthritis_risk":5,"migraine_risk":7,"frizz_risk":1,"updated_at":"2026-07-21T09:03:07.512573+05:30"},{"city":"Bhagalpur","state":"Bihar","latitude":25.2425,"longitude":87.0117,"temp":26.8,"humidity":91,"rain":0.0,"pressure":999.8,"uv_index":5.75,"wind_gusts":37.4,"aqi":62,"pm10":8.7,"pm2_5":8.5,"no2":12.9,"co":270.0,"o3":46.0,"so2":9.2,"mosquito_risk":7,"arthritis_risk":5,"migraine_risk":3,"frizz_risk":1,"updated_at":"2026-07-21T09:03:07.512582+05:30"},{"city":"Ranchi","state":"Jharkhand","latitude":23.3441,"longitude":85.3096,"temp":23.7,"humidity":93,"rain":0.1,"pressure":934.5,"uv_index":3.15,"wind_gusts":31.7,"aqi":71,"pm10":12.7,"pm2_5":12.2,"no2":13.9,"co":381.0,"o3":74.0,"so2":26.6,"mosquito_risk":6,"arthritis_risk":5,"migraine_risk":3,"frizz_risk":1,"updated_at":"2026-07-21T09:03:07.512591+05:30"},{"city":"Jamshedpur","state":"Jharkhand","latitude":22.8046,"longitude":86.2029,"temp":26.2,"humidity":95,"rain":0.0,"pressure":987.6,"uv_index":2.8,"wind_gusts":27.0,"aqi":83,"pm10":7.7,"pm2_5":7.4,"no2":8.9,"co":509.0,"o3":68.0,"so2":11.0,"mosquito_risk":7,"arthritis_risk":5,"migraine_risk":3,"frizz_risk":1,"updated_at":"2026-07-21T09:03:07.512600+05:30"},{"city":"Dhanbad","state":"Jharkhand","latitude":23.7957,"longitude":86.4304,"temp":26.1,"humidity":89,"rain":0.0,"pressure":977.4,"uv_index":6.6,"wind_gusts":35.3,"aqi":125,"pm10":16.3,"pm2_5":16.1,"no2":24.9,"co":278.0,"o3":42.0,"so2":66.3,"mosquito_risk":7,"arthritis_risk":5,"migraine_risk":7,"frizz_risk":1,"updated_at":"2026-07-21T09:03:07.512608+05:30"},{"city":"Bokaro","state":"Jharkhand","latitude":23.6693,"longitude":86.1511,"temp":26.0,"humidity":93,"rain":0.0,"pressure":981.1,"uv_index":6.4,"wind_gusts":38.9,"aqi":125,"pm10":17.3,"pm2_5":17.1,"no2":25.2,"co":1131.0,"o3":39.0,"so2":67.9,"mosquito_risk":7,"arthritis_risk":5,"migraine_risk":7,"frizz_risk":1,"updated_at":"2026-07-21T09:03:07.512615+05:30"},{"city":"Bhubaneswar","state":"Odisha","latitude":20.2961,"longitude":85.8245,"temp":26.1,"humidity":94,"rain":0.2,"pressure":999.6,"uv_index":5.8,"wind_gusts":32.8,"aqi":85,"pm10":29.2,"pm2_5":25.6,"no2":10.5,"co":281.0,"o3":81.0,"so2":9.2,"mosquito_risk":10,"arthritis_risk":5,"migraine_risk":3,"frizz_risk":1,"updated_at":"2026-07-21T09:03:07.512623+05:30"},{"city":"Cuttack","state":"Odisha","latitude":20.4625,"longitude":85.8828,"temp":26.5,"humidity":94,"rain":0.3,"pressure":1001.4,"uv_index":6.8,"wind_gusts":31.3,"aqi":85,"pm10":29.2,"pm2_5":25.6,"no2":10.5,"co":261.0,"o3":81.0,"so2":9.2,"mosquito_risk":10,"arthritis_risk":5,"migraine_risk":4,"frizz_risk":1,"updated_at":"2026-07-21T09:03:07.512631+05:30"},{"city":"Rourkela","state":"Odisha","latitude":22.2604,"longitude":84.8536,"temp":25.4,"humidity":98,"rain":0.8,"pressure":981.4,"uv_index":1.05,"wind_gusts":19.1,"aqi":107,"pm10":16.2,"pm2_5":14.7,"no2":11.7,"co":346.0,"o3":86.0,"so2":17.7,"mosquito_risk":10,"arthritis_risk":5,"migraine_risk":3,"frizz_risk":1,"updated_at":"2026-07-21T09:03:07.512639+05:30"},{"city":"Raipur","state":"Chhattisgarh","latitude":21.2514,"longitude":81.6296,"temp":25.4,"humidity":93,"rain":0.1,"pressure":971.1,"uv_index":1.0,"wind_gusts":34.6,"aqi":87,"pm10":18.6,"pm2_5":17.8,"no2":27.4,"co":587.0,"o3":34.0,"so2":54.4,"mosquito_risk":10,"arthritis_risk":5,"migraine_risk":3,"frizz_risk":1,"updated_at":"2026-07-21T09:03:07.512646+05:30"},{"city":"Bhilai","state":"Chhattisgarh","latitude":21.1938,"longitude":81.3509,"temp":25.0,"humidity":96,"rain":0.1,"pressure":971.7,"uv_index":1.05,"wind_gusts":35.6,"aqi":79,"pm10":14.4,"pm2_5":13.5,"no2":19.7,"co":800.0,"o3":42.0,"so2":44.0,"mosquito_risk":10,"arthritis_risk":5,"migraine_risk":3,"frizz_risk":1,"updated_at":"2026-07-21T09:03:07.512653+05:30"},{"city":"Guwahati","state":"Assam","latitude":26.1158,"longitude":91.7086,"temp":26.8,"humidity":90,"rain":0.0,"pressure":1001.7,"uv_index":7.25,"wind_gusts":25.2,"aqi":42,"pm10":10.6,"pm2_5":10.3,"no2":4.3,"co":338.0,"o3":69.0,"so2":3.0,"mosquito_risk":7,"arthritis_risk":5,"migraine_risk":4,"frizz_risk":1,"updated_at":"2026-07-21T09:03:07.512660+05:30"},{"city":"Agartala","state":"Tripura","latitude":23.8315,"longitude":91.2868,"temp":28.1,"humidity":88,"rain":0.0,"pressure":1005.7,"uv_index":8.4,"wind_gusts":29.9,"aqi":51,"pm10":8.4,"pm2_5":7.8,"no2":8.1,"co":155.0,"o3":46.0,"so2":1.8,"mosquito_risk":7,"arthritis_risk":5,"migraine_risk":4,"frizz_risk":1,"updated_at":"2026-07-21T09:03:07.512667+05:30"},{"city":"Shillong","state":"Meghalaya","latitude":25.5788,"longitude":91.8933,"temp":22.6,"humidity":80,"rain":0.0,"pressure":858.9,"uv_index":6.15,"wind_gusts":19.4,"aqi":19,"pm10":1.8,"pm2_5":1.7,"no2":3.2,"co":282.0,"o3":56.0,"so2":1.8,"mosquito_risk":3,"arthritis_risk":5,"migraine_risk":7,"frizz_risk":1,"updated_at":"2026-07-21T09:03:07.512675+05:30"},{"city":"Imphal","state":"Manipur","latitude":24.817,"longitude":93.9368,"temp":26.2,"humidity":77,"rain":0.0,"pressure":924.0,"uv_index":7.8,"wind_gusts":20.5,"aqi":58,"pm10":6.2,"pm2_5":5.7,"no2":3.1,"co":181.0,"o3":73.0,"so2":2.1,"mosquito_risk":7,"arthritis_risk":5,"migraine_risk":7,"frizz_risk":1,"updated_at":"2026-07-21T09:03:07.512682+05:30"},{"city":"Aizawl","state":"Mizoram","latitude":23.7271,"longitude":92.7176,"temp":21.2,"humidity":93,"rain":0.0,"pressure":892.6,"uv_index":3.1,"wind_gusts":21.6,"aqi":25,"pm10":5.3,"pm2_5":4.6,"no2":2.1,"co":133.0,"o3":69.0,"so2":0.8,"mosquito_risk":3,"arthritis_risk":5,"migraine_risk":3,"frizz_risk":1,"updated_at":"2026-07-21T09:03:07.512689+05:30"},{"city":"Kohima","state":"Nagaland","latitude":25.6701,"longitude":94.1077,"temp":23.2,"humidity":80,"rain":0.0,"pressure":857.2,"uv_index":8.3,"wind_gusts":22.3,"aqi":23,"pm10":4.0,"pm2_5":3.8,"no2":1.4,"co":184.0,"o3":77.0,"so2":0.9,"mosquito_risk":3,"arthritis_risk":5,"migraine_risk":7,"frizz_risk":1,"updated_at":"2026-07-21T09:03:07.512697+05:30"},{"city":"Gangtok","state":"Sikkim","latitude":27.3314,"longitude":88.6138,"temp":18.5,"humidity":98,"rain":0.1,"pressure":839.1,"uv_index":8.75,"wind_gusts":25.6,"aqi":29,"pm10":2.5,"pm2_5":2.4,"no2":2.5,"co":269.0,"o3":72.0,"so2":0.8,"mosquito_risk":6,"arthritis_risk":10,"migraine_risk":7,"frizz_risk":1,"updated_at":"2026-07-21T09:03:07.512705+05:30"},{"city":"Siliguri","state":"West Bengal","latitude":26.7271,"longitude":88.3953,"temp":27.1,"humidity":86,"rain":0.0,"pressure":993.3,"uv_index":7.9,"wind_gusts":32.8,"aqi":48,"pm10":4.8,"pm2_5":4.7,"no2":4.4,"co":362.0,"o3":73.0,"so2":2.4,"mosquito_risk":7,"arthritis_risk":5,"migraine_risk":7,"frizz_risk":1,"updated_at":"2026-07-21T09:03:10.823838+05:30"},{"city":"Durgapur","state":"West Bengal","latitude":23.5204,"longitude":87.3119,"temp":26.9,"humidity":89,"rain":0.0,"pressure":992.6,"uv_index":7.3,"wind_gusts":32.0,"aqi":96,"pm10":10.7,"pm2_5":10.5,"no2":17.8,"co":240.0,"o3":53.0,"so2":31.2,"mosquito_risk":7,"arthritis_risk":5,"migraine_risk":7,"frizz_risk":1,"updated_at":"2026-07-21T09:03:10.823872+05:30"},{"city":"Asansol","state":"West Bengal","latitude":23.6739,"longitude":86.9524,"temp":26.3,"humidity":91,"rain":0.1,"pressure":991.2,"uv_index":7.05,"wind_gusts":37.4,"aqi":97,"pm10":10.4,"pm2_5":10.2,"no2":20.2,"co":252.0,"o3":50.0,"so2":36.9,"mosquito_risk":10,"arthritis_risk":5,"migraine_risk":7,"frizz_risk":1,"updated_at":"2026-07-21T09:03:10.823884+05:30"},{"city":"Pondicherry","state":"Puducherry","latitude":11.9139,"longitude":79.8145,"temp":31.4,"humidity":56,"rain":0.0,"pressure":1009.2,"uv_index":7.85,"wind_gusts":36.0,"aqi":83,"pm10":32.5,"pm2_5":26.1,"no2":18.8,"co":216.0,"o3":45.0,"so2":8.6,"mosquito_risk":0,"arthritis_risk":0,"migraine_risk":4,"frizz_risk":1,"updated_at":"2026-07-21T09:03:10.823895+05:30"},{"city":"Port Blair","state":"Andaman and Nicobar Islands","latitude":11.6234,"longitude":92.7265,"temp":29.4,"humidity":74,"rain":0.0,"pressure":1008.7,"uv_index":8.75,"wind_gusts":43.2,"aqi":59,"pm10":15.7,"pm2_5":9.1,"no2":0.3,"co":95.0,"o3":52.0,"so2":0.5,"mosquito_risk":7,"arthritis_risk":0,"migraine_risk":4,"frizz_risk":1,"updated_at":"2026-07-21T09:03:10.823905+05:30"},{"city":"Haridwar","state":"Uttarakhand","latitude":29.9457,"longitude":78.1642,"temp":27.5,"humidity":87,"rain":0.0,"pressure":972.0,"uv_index":6.55,"wind_gusts":35.3,"aqi":81,"pm10":16.9,"pm2_5":16.2,"no2":5.3,"co":323.0,"o3":112.0,"so2":6.4,"mosquito_risk":7,"arthritis_risk":5,"migraine_risk":7,"frizz_risk":1,"updated_at":"2026-07-21T09:03:10.823915+05:30"},{"city":"Rishikesh","state":"Uttarakhand","latitude":30.0869,"longitude":78.2676,"temp":25.9,"humidity":93,"rain":0.1,"pressure":964.7,"uv_index":5.15,"wind_gusts":17.6,"aqi":59,"pm10":8.4,"pm2_5":8.1,"no2":3.3,"co":296.0,"o3":112.0,"so2":3.1,"mosquito_risk":10,"arthritis_risk":5,"migraine_risk":3,"frizz_risk":1,"updated_at":"2026-07-21T09:03:10.823925+05:30"},{"city":"Nainital","state":"Uttarakhand","latitude":29.3919,"longitude":79.4542,"temp":19.1,"humidity":83,"rain":0.1,"pressure":805.9,"uv_index":6.8,"wind_gusts":37.8,"aqi":42,"pm10":4.6,"pm2_5":4.6,"no2":2.7,"co":249.0,"o3":98.0,"so2":1.9,"mosquito_risk":6,"arthritis_risk":10,"migraine_risk":7,"frizz_risk":1,"updated_at":"2026-07-21T09:03:10.823934+05:30"},{"city":"Mussoorie","state":"Uttarakhand","latitude":30.4599,"longitude":78.0664,"temp":17.7,"humidity":98,"rain":0.1,"pressure":802.9,"uv_index":1.05,"wind_gusts":31.7,"aqi":53,"pm10":8.2,"pm2_5":7.5,"no2":5.4,"co":258.0,"o3":121.0,"so2":5.8,"mosquito_risk":6,"arthritis_risk":10,"migraine_risk":3,"frizz_risk":1,"updated_at":"2026-07-21T09:03:10.823943+05:30"},{"city":"Dharamshala","state":"Himachal Pradesh","latitude":32.219,"longitude":76.3234,"temp":20.5,"humidity":98,"rain":0.5,"pressure":867.9,"uv_index":4.0,"wind_gusts":25.6,"aqi":35,"pm10":4.3,"pm2_5":2.6,"no2":5.9,"co":274.0,"o3":75.0,"so2":1.0,"mosquito_risk":6,"arthritis_risk":5,"migraine_risk":3,"frizz_risk":1,"updated_at":"2026-07-21T09:03:10.823952+05:30"},{"city":"Dalhousie","state":"Himachal Pradesh","latitude":32.5387,"longitude":75.971,"temp":17.6,"humidity":100,"rain":0.1,"pressure":803.9,"uv_index":1.65,"wind_gusts":24.5,"aqi":80,"pm10":12.5,"pm2_5":6.9,"no2":8.2,"co":342.0,"o3":88.0,"so2":4.0,"mosquito_risk":6,"arthritis_risk":10,"migraine_risk":3,"frizz_risk":1,"updated_at":"2026-07-21T09:03:10.823962+05:30"},{"city":"Patiala","state":"Punjab","latitude":30.3398,"longitude":76.3869,"temp":26.1,"humidity":92,"rain":0.2,"pressure":975.3,"uv_index":2.8,"wind_gusts":32.8,"aqi":90,"pm10":20.2,"pm2_5":18.5,"no2":14.7,"co":420.0,"o3":69.0,"so2":5.7,"mosquito_risk":10,"arthritis_risk":5,"migraine_risk":3,"frizz_risk":1,"updated_at":"2026-07-21T09:03:10.823970+05:30"},{"city":"Bhatinda","state":"Punjab","latitude":30.211,"longitude":74.9455,"temp":26.6,"humidity":93,"rain":0.3,"pressure":979.7,"uv_index":7.5,"wind_gusts":40.0,"aqi":244,"pm10":165.3,"pm2_5":56.3,"no2":9.8,"co":300.0,"o3":71.0,"so2":7.7,"mosquito_risk":10,"arthritis_risk":5,"migraine_risk":7,"frizz_risk":1,"updated_at":"2026-07-21T09:03:10.823977+05:30"},{"city":"Rohtak","state":"Haryana","latitude":28.8955,"longitude":76.6066,"temp":27.4,"humidity":87,"rain":0.0,"pressure":978.1,"uv_index":5.25,"wind_gusts":27.7,"aqi":128,"pm10":18.3,"pm2_5":17.6,"no2":24.6,"co":371.0,"o3":60.0,"so2":26.4,"mosquito_risk":7,"arthritis_risk":5,"migraine_risk":3,"frizz_risk":1,"updated_at":"2026-07-21T09:03:10.823985+05:30"},{"city":"Panipat","state":"Haryana","latitude":29.3909,"longitude":76.9635,"temp":27.0,"humidity":89,"rain":0.0,"pressure":977.3,"uv_index":4.65,"wind_gusts":35.6,"aqi":135,"pm10":27.1,"pm2_5":26.7,"no2":16.4,"co":405.0,"o3":64.0,"so2":11.9,"mosquito_risk":7,"arthritis_risk":5,"migraine_risk":3,"frizz_risk":1,"updated_at":"2026-07-21T09:03:10.824009+05:30"},{"city":"Mathura","state":"Uttar Pradesh","latitude":27.4924,"longitude":77.6737,"temp":26.9,"humidity":87,"rain":0.0,"pressure":983.3,"uv_index":7.0,"wind_gusts":30.2,"aqi":81,"pm10":23.3,"pm2_5":15.9,"no2":18.8,"co":284.0,"o3":49.0,"so2":3.4,"mosquito_risk":7,"arthritis_risk":5,"migraine_risk":7,"frizz_risk":1,"updated_at":"2026-07-21T09:03:10.824017+05:30"},{"city":"Vrindavan","state":"Uttar Pradesh","latitude":27.5823,"longitude":77.7027,"temp":26.9,"humidity":89,"rain":0.0,"pressure":983.6,"uv_index":6.9,"wind_gusts":29.5,"aqi":81,"pm10":23.3,"pm2_5":15.9,"no2":18.8,"co":301.0,"o3":49.0,"so2":3.4,"mosquito_risk":7,"arthritis_risk":5,"migraine_risk":7,"frizz_risk":1,"updated_at":"2026-07-21T09:03:10.824024+05:30"},{"city":"Ayodhya","state":"Uttar Pradesh","latitude":26.7922,"longitude":82.1998,"temp":26.8,"humidity":90,"rain":0.0,"pressure":993.1,"uv_index":5.3,"wind_gusts":38.5,"aqi":64,"pm10":12.0,"pm2_5":11.9,"no2":7.5,"co":318.0,"o3":73.0,"so2":9.1,"mosquito_risk":7,"arthritis_risk":5,"migraine_risk":3,"frizz_risk":1,"updated_at":"2026-07-21T09:03:10.824031+05:30"},{"city":"Ratlam","state":"Madhya Pradesh","latitude":23.3315,"longitude":75.0367,"temp":24.1,"humidity":95,"rain":0.0,"pressure":950.9,"uv_index":1.0,"wind_gusts":32.0,"aqi":51,"pm10":15.9,"pm2_5":10.6,"no2":8.0,"co":145.0,"o3":36.0,"so2":7.4,"mosquito_risk":3,"arthritis_risk":5,"migraine_risk":3,"frizz_risk":1,"updated_at":"2026-07-21T09:03:10.824039+05:30"},{"city":"Sagar","state":"Madhya Pradesh","latitude":23.8388,"longitude":78.7378,"temp":25.3,"humidity":86,"rain":0.0,"pressure":946.3,"uv_index":1.2,"wind_gusts":18.4,"aqi":51,"pm10":6.2,"pm2_5":5.3,"no2":5.3,"co":169.0,"o3":67.0,"so2":1.7,"mosquito_risk":7,"arthritis_risk":5,"migraine_risk":3,"frizz_risk":1,"updated_at":"2026-07-21T09:03:10.824047+05:30"},{"city":"Satna","state":"Madhya Pradesh","latitude":24.6005,"longitude":80.8322,"temp":25.8,"humidity":93,"rain":0.0,"pressure":967.7,"uv_index":3.85,"wind_gusts":19.8,"aqi":57,"pm10":12.0,"pm2_5":10.2,"no2":5.9,"co":217.0,"o3":74.0,"so2":3.6,"mosquito_risk":7,"arthritis_risk":5,"migraine_risk":3,"frizz_risk":1,"updated_at":"2026-07-21T09:03:10.824054+05:30"},{"city":"Akola","state":"Maharashtra","latitude":20.7002,"longitude":77.0082,"temp":26.5,"humidity":86,"rain":0.0,"pressure":972.5,"uv_index":2.65,"wind_gusts":40.0,"aqi":37,"pm10":8.3,"pm2_5":5.1,"no2":6.9,"co":146.0,"o3":39.0,"so2":7.4,"mosquito_risk":7,"arthritis_risk":5,"migraine_risk":3,"frizz_risk":1,"updated_at":"2026-07-21T09:03:10.824062+05:30"},{"city":"Amravati","state":"Maharashtra","latitude":20.9374,"longitude":77.7796,"temp":25.7,"humidity":86,"rain":0.0,"pressure":964.6,"uv_index":2.0,"wind_gusts":52.6,"aqi":41,"pm10":8.5,"pm2_5":5.2,"no2":7.4,"co":154.0,"o3":38.0,"so2":8.4,"mosquito_risk":7,"arthritis_risk":5,"migraine_risk":3,"frizz_risk":1,"updated_at":"2026-07-21T09:03:10.824071+05:30"},{"city":"Latur","state":"Maharashtra","latitude":18.4088,"longitude":76.5604,"temp":26.0,"humidity":70,"rain":0.0,"pressure":938.5,"uv_index":5.1,"wind_gusts":52.2,"aqi":30,"pm10":7.8,"pm2_5":5.0,"no2":3.6,"co":126.0,"o3":40.0,"so2":2.3,"mosquito_risk":7,"arthritis_risk":5,"migraine_risk":3,"frizz_risk":1,"updated_at":"2026-07-21T09:03:10.824078+05:30"},{"city":"Nanded","state":"Maharashtra","latitude":19.1383,"longitude":77.3091,"temp":26.0,"humidity":82,"rain":0.1,"pressure":967.1,"uv_index":2.9,"wind_gusts":43.6,"aqi":35,"pm10":8.4,"pm2_5":6.3,"no2":6.9,"co":147.0,"o3":33.0,"so2":3.7,"mosquito_risk":10,"arthritis_risk":5,"migraine_risk":3,"frizz_risk":1,"updated_at":"2026-07-21T09:03:10.824085+05:30"},{"city":"Gulbarga","state":"Karnataka","latitude":17.3297,"longitude":76.8343,"temp":26.9,"humidity":68,"rain":0.0,"pressure":958.3,"uv_index":4.95,"wind_gusts":55.1,"aqi":28,"pm10":12.9,"pm2_5":7.4,"no2":4.0,"co":141.0,"o3":42.0,"so2":3.1,"mosquito_risk":7,"arthritis_risk":5,"migraine_risk":3,"frizz_risk":1,"updated_at":"2026-07-21T09:03:10.824092+05:30"},{"city":"Bidar","state":"Karnataka","latitude":17.9104,"longitude":77.5199,"temp":25.2,"humidity":75,"rain":0.0,"pressure":934.4,"uv_index":5.75,"wind_gusts":50.8,"aqi":30,"pm10":8.9,"pm2_5":5.9,"no2":5.4,"co":140.0,"o3":38.0,"so2":2.3,"mosquito_risk":7,"arthritis_risk":5,"migraine_risk":3,"frizz_risk":1,"updated_at":"2026-07-21T09:03:10.824100+05:30"},{"city":"Hospet","state":"Karnataka","latitude":15.2689,"longitude":76.3909,"temp":25.8,"humidity":74,"rain":0.0,"pressure":956.6,"uv_index":7.8,"wind_gusts":50.8,"aqi":23,"pm10":4.8,"pm2_5":3.0,"no2":3.7,"co":111.0,"o3":39.0,"so2":2.0,"mosquito_risk":7,"arthritis_risk":5,"migraine_risk":7,"frizz_risk":1,"updated_at":"2026-07-21T09:03:10.824107+05:30"},{"city":"Tirupur","state":"Tamil Nadu","latitude":11.1085,"longitude":77.3411,"temp":28.1,"humidity":66,"rain":0.0,"pressure":976.8,"uv_index":8.7,"wind_gusts":51.1,"aqi":52,"pm10":15.9,"pm2_5":11.6,"no2":9.0,"co":172.0,"o3":44.0,"so2":6.1,"mosquito_risk":7,"arthritis_risk":5,"migraine_risk":7,"frizz_risk":1,"updated_at":"2026-07-21T09:03:10.824114+05:30"},{"city":"Alappuzha","state":"Kerala","latitude":9.4981,"longitude":76.3388,"temp":28.1,"humidity":80,"rain":0.0,"pressure":1011.4,"uv_index":8.1,"wind_gusts":31.0,"aqi":52,"pm10":13.3,"pm2_5":9.9,"no2":8.7,"co":107.0,"o3":40.0,"so2":5.8,"mosquito_risk":7,"arthritis_risk":0,"migraine_risk":4,"frizz_risk":1,"updated_at":"2026-07-21T09:03:10.824121+05:30"},{"city":"Munnar","state":"Kerala","latitude":10.0889,"longitude":77.0595,"temp":20.0,"humidity":77,"rain":0.0,"pressure":859.4,"uv_index":9.05,"wind_gusts":33.5,"aqi":30,"pm10":9.4,"pm2_5":5.5,"no2":3.5,"co":102.0,"o3":40.0,"so2":1.3,"mosquito_risk":3,"arthritis_risk":5,"migraine_risk":7,"frizz_risk":0,"updated_at":"2026-07-21T09:03:10.824129+05:30"},{"city":"Silchar","state":"Assam","latitude":24.8333,"longitude":92.7789,"temp":29.0,"humidity":77,"rain":0.0,"pressure":1004.6,"uv_index":7.8,"wind_gusts":22.0,"aqi":66,"pm10":12.7,"pm2_5":11.7,"no2":5.9,"co":241.0,"o3":56.0,"so2":4.0,"mosquito_risk":7,"arthritis_risk":5,"migraine_risk":4,"frizz_risk":1,"updated_at":"2026-07-21T09:03:10.824136+05:30"},{"city":"Dibrugarh","state":"Assam","latitude":27.4728,"longitude":94.912,"temp":31.1,"humidity":72,"rain":0.0,"pressure":994.5,"uv_index":8.6,"wind_gusts":22.0,"aqi":73,"pm10":17.3,"pm2_5":16.4,"no2":2.6,"co":162.0,"o3":116.0,"so2":2.5,"mosquito_risk":3,"arthritis_risk":5,"migraine_risk":7,"frizz_risk":1,"updated_at":"2026-07-21T09:03:10.824143+05:30"}]