[{"city":"Delhi","state":"Delhi","latitude":28.6139,"longitude":77.209,"temp":28.6,"humidity":75,"rain":0.0,"pressure":976.1,"uv_index":7.7,"wind_gusts":24.1,"aqi":203,"pm10":115.5,"pm2_5":58.8,"no2":32.0,"co":463.0,"o3":45.0,"so2":19.5,"mosquito_risk":7,"arthritis_risk":5,"migraine_risk":7,"frizz_risk":1,"updated_at":"2026-07-15T03:29:51.517757+05:30"},{"city":"Mumbai","state":"Maharashtra","latitude":19.076,"longitude":72.8777,"temp":27.8,"humidity":77,"rain":0.1,"pressure":1006.3,"uv_index":7.6,"wind_gusts":46.1,"aqi":73,"pm10":38.8,"pm2_5":16.9,"no2":5.0,"co":121.0,"o3":45.0,"so2":4.4,"mosquito_risk":10,"arthritis_risk":5,"migraine_risk":4,"frizz_risk":1,"updated_at":"2026-07-15T03:29:51.517803+05:30"},{"city":"Bangalore","state":"Karnataka","latitude":12.9716,"longitude":77.5946,"temp":20.3,"humidity":85,"rain":0.0,"pressure":910.3,"uv_index":8.9,"wind_gusts":42.1,"aqi":61,"pm10":19.0,"pm2_5":14.8,"no2":18.5,"co":198.0,"o3":35.0,"so2":5.6,"mosquito_risk":3,"arthritis_risk":5,"migraine_risk":7,"frizz_risk":1,"updated_at":"2026-07-15T03:29:51.517820+05:30"},{"city":"Hyderabad","state":"Telangana","latitude":17.385,"longitude":78.4867,"temp":27.1,"humidity":59,"rain":0.0,"pressure":950.3,"uv_index":9.05,"wind_gusts":44.6,"aqi":71,"pm10":33.2,"pm2_5":24.0,"no2":13.5,"co":204.0,"o3":49.0,"so2":6.8,"mosquito_risk":4,"arthritis_risk":5,"migraine_risk":7,"frizz_risk":1,"updated_at":"2026-07-15T03:29:51.517830+05:30"},{"city":"Chennai","state":"Tamil Nadu","latitude":13.0827,"longitude":80.2707,"temp":29.3,"humidity":79,"rain":0.0,"pressure":1003.7,"uv_index":8.9,"wind_gusts":36.0,"aqi":84,"pm10":36.0,"pm2_5":24.4,"no2":10.2,"co":228.0,"o3":75.0,"so2":8.0,"mosquito_risk":7,"arthritis_risk":5,"migraine_risk":4,"frizz_risk":1,"updated_at":"2026-07-15T03:29:51.517839+05:30"},{"city":"Kolkata","state":"West Bengal","latitude":22.5726,"longitude":88.3639,"temp":26.9,"humidity":96,"rain":0.0,"pressure":998.7,"uv_index":8.2,"wind_gusts":36.0,"aqi":142,"pm10":75.0,"pm2_5":71.5,"no2":50.0,"co":1051.0,"o3":8.0,"so2":22.1,"mosquito_risk":7,"arthritis_risk":5,"migraine_risk":7,"frizz_risk":1,"updated_at":"2026-07-15T03:29:51.517848+05:30"},{"city":"Pune","state":"Maharashtra","latitude":18.5204,"longitude":73.8567,"temp":23.2,"humidity":88,"rain":0.0,"pressure":946.3,"uv_index":8.35,"wind_gusts":48.2,"aqi":59,"pm10":14.0,"pm2_5":7.2,"no2":7.1,"co":117.0,"o3":37.0,"so2":6.2,"mosquito_risk":3,"arthritis_risk":5,"migraine_risk":7,"frizz_risk":1,"updated_at":"2026-07-15T03:29:51.517855+05:30"},{"city":"Ahmedabad","state":"Gujarat","latitude":23.0225,"longitude":72.5714,"temp":28.1,"humidity":77,"rain":0.0,"pressure":998.4,"uv_index":8.1,"wind_gusts":40.3,"aqi":69,"pm10":20.0,"pm2_5":11.7,"no2":6.8,"co":120.0,"o3":35.0,"so2":4.2,"mosquito_risk":7,"arthritis_risk":5,"migraine_risk":7,"frizz_risk":1,"updated_at":"2026-07-15T03:29:51.517861+05:30"},{"city":"Jaipur","state":"Rajasthan","latitude":26.9124,"longitude":75.7873,"temp":28.6,"humidity":60,"rain":0.0,"pressure":954.6,"uv_index":8.05,"wind_gusts":38.5,"aqi":414,"pm10":700.4,"pm2_5":126.2,"no2":7.7,"co":196.0,"o3":49.0,"so2":3.9,"mosquito_risk":4,"arthritis_risk":5,"migraine_risk":7,"frizz_risk":1,"updated_at":"2026-07-15T03:29:51.517868+05:30"},{"city":"Lucknow","state":"Uttar Pradesh","latitude":26.8467,"longitude":80.9462,"temp":29.1,"humidity":77,"rain":0.0,"pressure":986.4,"uv_index":8.2,"wind_gusts":21.2,"aqi":165,"pm10":142.5,"pm2_5":72.9,"no2":21.1,"co":234.0,"o3":42.0,"so2":8.0,"mosquito_risk":7,"arthritis_risk":5,"migraine_risk":7,"frizz_risk":1,"updated_at":"2026-07-15T03:29:51.517878+05:30"},{"city":"Kanpur","state":"Uttar Pradesh","latitude":26.4499,"longitude":80.3319,"temp":29.1,"humidity":74,"rain":0.0,"pressure":984.8,"uv_index":7.6,"wind_gusts":27.7,"aqi":154,"pm10":129.9,"pm2_5":63.1,"no2":14.0,"co":146.0,"o3":52.0,"so2":5.9,"mosquito_risk":7,"arthritis_risk":5,"migraine_risk":7,"frizz_risk":1,"updated_at":"2026-07-15T03:29:51.517885+05:30"},{"city":"Chandigarh","state":"Chandigarh","latitude":30.7333,"longitude":76.7794,"temp":26.4,"humidity":86,"rain":0.0,"pressure":962.0,"uv_index":7.7,"wind_gusts":26.6,"aqi":173,"pm10":100.8,"pm2_5":86.4,"no2":50.2,"co":941.0,"o3":18.0,"so2":9.4,"mosquito_risk":7,"arthritis_risk":5,"migraine_risk":7,"frizz_risk":1,"updated_at":"2026-07-15T03:29:51.517892+05:30"},{"city":"Srinagar","state":"Jammu and Kashmir","latitude":34.0837,"longitude":74.7973,"temp":18.7,"humidity":86,"rain":0.0,"pressure":837.2,"uv_index":8.95,"wind_gusts":16.6,"aqi":83,"pm10":41.4,"pm2_5":36.9,"no2":28.9,"co":544.0,"o3":17.0,"so2":2.9,"mosquito_risk":3,"arthritis_risk":10,"migraine_risk":7,"frizz_risk":1,"updated_at":"2026-07-15T03:29:51.517899+05:30"},{"city":"Jammu","state":"Jammu and Kashmir","latitude":32.7266,"longitude":74.857,"temp":25.5,"humidity":88,"rain":0.0,"pressure":965.8,"uv_index":8.55,"wind_gusts":23.8,"aqi":154,"pm10":82.7,"pm2_5":68.7,"no2":50.9,"co":695.0,"o3":0.0,"so2":3.4,"mosquito_risk":7,"arthritis_risk":5,"migraine_risk":7,"frizz_risk":1,"updated_at":"2026-07-15T03:29:51.517905+05:30"},{"city":"Amritsar","state":"Punjab","latitude":31.634,"longitude":74.8723,"temp":27.8,"humidity":87,"rain":0.0,"pressure":973.8,"uv_index":8.4,"wind_gusts":20.2,"aqi":190,"pm10":212.3,"pm2_5":169.0,"no2":81.9,"co":1582.0,"o3":9.0,"so2":14.7,"mosquito_risk":7,"arthritis_risk":5,"migraine_risk":7,"frizz_risk":1,"updated_at":"2026-07-15T03:29:51.517911+05:30"},{"city":"Ludhiana","state":"Punjab","latitude":30.901,"longitude":75.8573,"temp":28.0,"humidity":90,"rain":0.0,"pressure":971.7,"uv_index":7.95,"wind_gusts":23.0,"aqi":187,"pm10":189.1,"pm2_5":159.3,"no2":85.2,"co":1757.0,"o3":2.0,"so2":14.3,"mosquito_risk":7,"arthritis_risk":5,"migraine_risk":7,"frizz_risk":1,"updated_at":"2026-07-15T03:29:51.517917+05:30"},{"city":"Jalandhar","state":"Punjab","latitude":31.326,"longitude":75.5762,"temp":27.0,"humidity":92,"rain":0.0,"pressure":972.7,"uv_index":8.15,"wind_gusts":22.3,"aqi":197,"pm10":235.2,"pm2_5":183.9,"no2":85.2,"co":1524.0,"o3":7.0,"so2":13.8,"mosquito_risk":7,"arthritis_risk":5,"migraine_risk":7,"frizz_risk":1,"updated_at":"2026-07-15T03:29:51.517923+05:30"},{"city":"Dehradun","state":"Uttarakhand","latitude":30.6284,"longitude":78.0322,"temp":17.2,"humidity":100,"rain":0.0,"pressure":826.1,"uv_index":7.7,"wind_gusts":27.4,"aqi":116,"pm10":68.7,"pm2_5":36.3,"no2":25.4,"co":272.0,"o3":56.0,"so2":2.0,"mosquito_risk":3,"arthritis_risk":10,"migraine_risk":7,"frizz_risk":1,"updated_at":"2026-07-15T03:29:51.517931+05:30"},{"city":"Shimla","state":"Himachal Pradesh","latitude":31.1048,"longitude":77.1734,"temp":13.4,"humidity":100,"rain":0.0,"pressure":779.3,"uv_index":8.2,"wind_gusts":38.2,"aqi":134,"pm10":53.4,"pm2_5":32.8,"no2":10.3,"co":404.0,"o3":92.0,"so2":1.7,"mosquito_risk":3,"arthritis_risk":10,"migraine_risk":7,"frizz_risk":0,"updated_at":"2026-07-15T03:29:51.517938+05:30"},{"city":"Manali","state":"Himachal Pradesh","latitude":32.2396,"longitude":77.1887,"temp":17.8,"humidity":83,"rain":0.0,"pressure":815.5,"uv_index":9.25,"wind_gusts":32.0,"aqi":54,"pm10":6.9,"pm2_5":4.7,"no2":13.8,"co":232.0,"o3":110.0,"so2":0.1,"mosquito_risk":3,"arthritis_risk":10,"migraine_risk":7,"frizz_risk":0,"updated_at":"2026-07-15T03:29:51.517962+05:30"},{"city":"Gurgaon","state":"Haryana","latitude":28.4595,"longitude":77.0266,"temp":29.0,"humidity":72,"rain":0.0,"pressure":974.6,"uv_index":7.75,"wind_gusts":29.5,"aqi":241,"pm10":108.0,"pm2_5":51.1,"no2":22.0,"co":389.0,"o3":49.0,"so2":9.1,"mosquito_risk":7,"arthritis_risk":5,"migraine_risk":7,"frizz_risk":1,"updated_at":"2026-07-15T03:29:51.517969+05:30"},{"city":"Noida","state":"Uttar Pradesh","latitude":28.5355,"longitude":77.391,"temp":28.3,"humidity":78,"rain":0.0,"pressure":977.5,"uv_index":7.7,"wind_gusts":20.2,"aqi":241,"pm10":108.0,"pm2_5":51.1,"no2":22.0,"co":638.0,"o3":49.0,"so2":9.1,"mosquito_risk":7,"arthritis_risk":5,"migraine_risk":7,"frizz_risk":1,"updated_at":"2026-07-15T03:29:51.517976+05:30"},{"city":"Ghaziabad","state":"Uttar Pradesh","latitude":28.6692,"longitude":77.4538,"temp":28.5,"humidity":78,"rain":0.0,"pressure":975.8,"uv_index":7.7,"wind_gusts":19.1,"aqi":183,"pm10":105.5,"pm2_5":56.9,"no2":28.2,"co":445.0,"o3":47.0,"so2":16.9,"mosquito_risk":7,"arthritis_risk":5,"migraine_risk":7,"frizz_risk":1,"updated_at":"2026-07-15T03:29:51.517982+05:30"},{"city":"Faridabad","state":"Haryana","latitude":28.4089,"longitude":77.3178,"temp":28.7,"humidity":74,"rain":0.0,"pressure":976.8,"uv_index":7.75,"wind_gusts":23.8,"aqi":241,"pm10":108.0,"pm2_5":51.1,"no2":22.0,"co":541.0,"o3":49.0,"so2":9.1,"mosquito_risk":7,"arthritis_risk":5,"migraine_risk":7,"frizz_risk":1,"updated_at":"2026-07-15T03:29:51.517991+05:30"},{"city":"Meerut","state":"Uttar Pradesh","latitude":28.9845,"longitude":77.7064,"temp":27.8,"humidity":82,"rain":0.0,"pressure":974.7,"uv_index":7.6,"wind_gusts":22.7,"aqi":183,"pm10":105.5,"pm2_5":56.9,"no2":28.2,"co":343.0,"o3":47.0,"so2":16.9,"mosquito_risk":7,"arthritis_risk":5,"migraine_risk":7,"frizz_risk":1,"updated_at":"2026-07-15T03:29:51.517997+05:30"},{"city":"Agra","state":"Uttar Pradesh","latitude":27.1767,"longitude":78.0081,"temp":25.8,"humidity":84,"rain":0.1,"pressure":981.6,"uv_index":5.35,"wind_gusts":34.6,"aqi":153,"pm10":103.1,"pm2_5":38.6,"no2":12.9,"co":154.0,"o3":66.0,"so2":3.6,"mosquito_risk":10,"arthritis_risk":5,"migraine_risk":3,"frizz_risk":1,"updated_at":"2026-07-15T03:29:51.518003+05:30"},{"city":"Varanasi","state":"Uttar Pradesh","latitude":25.3176,"longitude":82.9739,"temp":28.7,"humidity":90,"rain":0.0,"pressure":990.7,"uv_index":7.5,"wind_gusts":28.1,"aqi":165,"pm10":173.2,"pm2_5":90.8,"no2":29.5,"co":611.0,"o3":40.0,"so2":13.5,"mosquito_risk":7,"arthritis_risk":5,"migraine_risk":7,"frizz_risk":1,"updated_at":"2026-07-15T03:29:51.518010+05:30"},{"city":"Prayagraj","state":"Uttar Pradesh","latitude":25.4358,"longitude":81.8463,"temp":29.7,"humidity":72,"rain":0.0,"pressure":989.3,"uv_index":8.6,"wind_gusts":27.0,"aqi":161,"pm10":136.4,"pm2_5":73.1,"no2":21.7,"co":214.0,"o3":44.0,"so2":9.5,"mosquito_risk":7,"arthritis_risk":5,"migraine_risk":7,"frizz_risk":1,"updated_at":"2026-07-15T03:29:51.518016+05:30"},{"city":"Gorakhpur","state":"Uttar Pradesh","latitude":26.7606,"longitude":83.3732,"temp":26.6,"humidity":94,"rain":0.0,"pressure":991.0,"uv_index":8.25,"wind_gusts":27.0,"aqi":162,"pm10":108.0,"pm2_5":55.2,"no2":12.5,"co":620.0,"o3":85.0,"so2":6.0,"mosquito_risk":7,"arthritis_risk":5,"migraine_risk":7,"frizz_risk":1,"updated_at":"2026-07-15T03:29:51.518023+05:30"},{"city":"Bareilly","state":"Uttar Pradesh","latitude":28.367,"longitude":79.4304,"temp":27.4,"humidity":77,"rain":0.0,"pressure":979.8,"uv_index":7.9,"wind_gusts":20.2,"aqi":175,"pm10":137.4,"pm2_5":74.5,"no2":27.4,"co":323.0,"o3":53.0,"so2":9.3,"mosquito_risk":7,"arthritis_risk":5,"migraine_risk":7,"frizz_risk":1,"updated_at":"2026-07-15T03:29:51.518031+05:30"},{"city":"Aligarh","state":"Uttar Pradesh","latitude":27.8974,"longitude":78.088,"temp":25.6,"humidity":88,"rain":0.3,"pressure":978.6,"uv_index":7.55,"wind_gusts":34.2,"aqi":184,"pm10":115.9,"pm2_5":51.0,"no2":13.3,"co":161.0,"o3":65.0,"so2":3.7,"mosquito_risk":10,"arthritis_risk":5,"migraine_risk":7,"frizz_risk":1,"updated_at":"2026-07-15T03:29:51.518037+05:30"},{"city":"Moradabad","state":"Uttar Pradesh","latitude":28.8386,"longitude":78.7733,"temp":27.3,"humidity":81,"rain":0.1,"pressure":977.3,"uv_index":7.8,"wind_gusts":22.3,"aqi":183,"pm10":153.7,"pm2_5":73.1,"no2":21.8,"co":484.0,"o3":59.0,"so2":10.9,"mosquito_risk":10,"arthritis_risk":5,"migraine_risk":7,"frizz_risk":1,"updated_at":"2026-07-15T03:29:51.518043+05:30"},{"city":"Saharanpur","state":"Uttar Pradesh","latitude":29.9637,"longitude":77.546,"temp":27.3,"humidity":88,"rain":0.0,"pressure":969.3,"uv_index":7.35,"wind_gusts":24.8,"aqi":192,"pm10":173.2,"pm2_5":111.5,"no2":41.4,"co":926.0,"o3":33.0,"so2":16.6,"mosquito_risk":7,"arthritis_risk":5,"migraine_risk":7,"frizz_risk":1,"updated_at":"2026-07-15T03:29:51.518049+05:30"},{"city":"Jhansi","state":"Uttar Pradesh","latitude":25.4484,"longitude":78.5685,"temp":28.9,"humidity":65,"rain":0.0,"pressure":972.4,"uv_index":7.35,"wind_gusts":37.4,"aqi":116,"pm10":59.0,"pm2_5":35.3,"no2":11.2,"co":155.0,"o3":48.0,"so2":9.3,"mosquito_risk":7,"arthritis_risk":5,"migraine_risk":7,"frizz_risk":1,"updated_at":"2026-07-15T03:29:54.773847+05:30"},{"city":"Surat","state":"Gujarat","latitude":21.1702,"longitude":72.8311,"temp":25.1,"humidity":96,"rain":0.2,"pressure":1003.9,"uv_index":7.75,"wind_gusts":47.2,"aqi":73,"pm10":24.4,"pm2_5":16.3,"no2":19.1,"co":330.0,"o3":28.0,"so2":31.7,"mosquito_risk":10,"arthritis_risk":5,"migraine_risk":4,"frizz_risk":1,"updated_at":"2026-07-15T03:29:54.773883+05:30"},{"city":"Vadodara","state":"Gujarat","latitude":22.3072,"longitude":73.1812,"temp":27.3,"humidity":83,"rain":0.0,"pressure":1000.9,"uv_index":7.0,"wind_gusts":42.1,"aqi":68,"pm10":19.8,"pm2_5":12.6,"no2":8.4,"co":127.0,"o3":33.0,"so2":5.2,"mosquito_risk":7,"arthritis_risk":5,"migraine_risk":4,"frizz_risk":1,"updated_at":"2026-07-15T03:29:54.773894+05:30"},{"city":"Rajkot","state":"Gujarat","latitude":22.3039,"longitude":70.8022,"temp":26.2,"humidity":90,"rain":0.0,"pressure":990.2,"uv_index":7.25,"wind_gusts":40.7,"aqi":56,"pm10":14.0,"pm2_5":7.8,"no2":4.3,"co":98.0,"o3":39.0,"so2":3.1,"mosquito_risk":7,"arthritis_risk":5,"migraine_risk":7,"frizz_risk":1,"updated_at":"2026-07-15T03:29:54.773903+05:30"},{"city":"Thane","state":"Maharashtra","latitude":19.2183,"longitude":72.9781,"temp":26.0,"humidity":88,"rain":0.1,"pressure":1005.7,"uv_index":7.25,"wind_gusts":36.0,"aqi":73,"pm10":38.8,"pm2_5":16.9,"no2":5.0,"co":168.0,"o3":45.0,"so2":4.4,"mosquito_risk":10,"arthritis_risk":5,"migraine_risk":4,"frizz_risk":1,"updated_at":"2026-07-15T03:29:54.773911+05:30"},{"city":"Nagpur","state":"Maharashtra","latitude":21.1458,"longitude":79.0882,"temp":27.1,"humidity":66,"rain":0.0,"pressure":969.3,"uv_index":8.8,"wind_gusts":51.5,"aqi":86,"pm10":46.4,"pm2_5":32.2,"no2":14.1,"co":239.0,"o3":42.0,"so2":8.0,"mosquito_risk":7,"arthritis_risk":5,"migraine_risk":7,"frizz_risk":1,"updated_at":"2026-07-15T03:29:54.773918+05:30"},{"city":"Nashik","state":"Maharashtra","latitude":19.9975,"longitude":73.7898,"temp":22.6,"humidity":94,"rain":0.0,"pressure":942.7,"uv_index":7.9,"wind_gusts":43.9,"aqi":60,"pm10":18.7,"pm2_5":9.3,"no2":8.5,"co":107.0,"o3":33.0,"so2":7.7,"mosquito_risk":3,"arthritis_risk":5,"migraine_risk":7,"frizz_risk":1,"updated_at":"2026-07-15T03:29:54.773925+05:30"},{"city":"Aurangabad","state":"Maharashtra","latitude":19.8762,"longitude":75.3433,"temp":23.0,"humidity":88,"rain":0.0,"pressure":942.0,"uv_index":8.4,"wind_gusts":45.4,"aqi":63,"pm10":18.3,"pm2_5":10.6,"no2":9.4,"co":156.0,"o3":40.0,"so2":11.6,"mosquito_risk":3,"arthritis_risk":5,"migraine_risk":7,"frizz_risk":1,"updated_at":"2026-07-15T03:29:54.773932+05:30"},{"city":"Solapur","state":"Maharashtra","latitude":17.6599,"longitude":75.9064,"temp":24.6,"humidity":77,"rain":0.0,"pressure":955.7,"uv_index":8.5,"wind_gusts":67.3,"aqi":60,"pm10":24.6,"pm2_5":16.1,"no2":6.8,"co":138.0,"o3":40.0,"so2":2.7,"mosquito_risk":3,"arthritis_risk":5,"migraine_risk":7,"frizz_risk":1,"updated_at":"2026-07-15T03:29:54.773939+05:30"},{"city":"Kolhapur","state":"Maharashtra","latitude":16.705,"longitude":74.2433,"temp":22.0,"humidity":94,"rain":0.0,"pressure":946.9,"uv_index":8.35,"wind_gusts":51.8,"aqi":56,"pm10":17.1,"pm2_5":9.4,"no2":4.2,"co":118.0,"o3":40.0,"so2":2.3,"mosquito_risk":3,"arthritis_risk":5,"migraine_risk":7,"frizz_risk":1,"updated_at":"2026-07-15T03:29:54.773963+05:30"},{"city":"Goa","state":"Goa","latitude":15.2993,"longitude":74.124,"temp":24.5,"humidity":98,"rain":0.0,"pressure":997.9,"uv_index":8.05,"wind_gusts":33.5,"aqi":72,"pm10":53.7,"pm2_5":30.4,"no2":7.5,"co":692.0,"o3":41.0,"so2":2.3,"mosquito_risk":3,"arthritis_risk":5,"migraine_risk":7,"frizz_risk":1,"updated_at":"2026-07-15T03:29:54.773970+05:30"},{"city":"Jodhpur","state":"Rajasthan","latitude":26.2389,"longitude":73.0243,"temp":29.3,"humidity":61,"rain":0.0,"pressure":977.6,"uv_index":8.15,"wind_gusts":38.9,"aqi":183,"pm10":251.5,"pm2_5":62.4,"no2":4.8,"co":115.0,"o3":50.0,"so2":2.1,"mosquito_risk":7,"arthritis_risk":5,"migraine_risk":7,"frizz_risk":1,"updated_at":"2026-07-15T03:29:54.773978+05:30"},{"city":"Udaipur","state":"Rajasthan","latitude":24.5854,"longitude":73.7125,"temp":24.5,"humidity":81,"rain":0.0,"pressure":942.2,"uv_index":8.8,"wind_gusts":34.9,"aqi":74,"pm10":51.3,"pm2_5":25.6,"no2":7.0,"co":115.0,"o3":46.0,"so2":3.8,"mosquito_risk":3,"arthritis_risk":5,"migraine_risk":7,"frizz_risk":1,"updated_at":"2026-07-15T03:29:54.773985+05:30"},{"city":"Kota","state":"Rajasthan","latitude":25.2138,"longitude":75.8648,"temp":28.2,"humidity":67,"rain":0.0,"pressure":974.2,"uv_index":8.3,"wind_gusts":34.9,"aqi":92,"pm10":51.2,"pm2_5":27.8,"no2":7.4,"co":181.0,"o3":59.0,"so2":6.0,"mosquito_risk":7,"arthritis_risk":5,"migraine_risk":7,"frizz_risk":1,"updated_at":"2026-07-15T03:29:54.773992+05:30"},{"city":"Bikaner","state":"Rajasthan","latitude":28.0229,"longitude":73.3119,"temp":30.8,"humidity":53,"rain":0.0,"pressure":975.6,"uv_index":8.4,"wind_gusts":38.5,"aqi":171,"pm10":210.0,"pm2_5":70.1,"no2":3.0,"co":121.0,"o3":56.0,"so2":3.7,"mosquito_risk":0,"arthritis_risk":5,"migraine_risk":7,"frizz_risk":1,"updated_at":"2026-07-15T03:29:54.773999+05:30"},{"city":"Ajmer","state":"Rajasthan","latitude":26.4499,"longitude":74.6399,"temp":26.6,"humidity":71,"rain":0.0,"pressure":949.6,"uv_index":8.3,"wind_gusts":46.8,"aqi":104,"pm10":52.0,"pm2_5":26.8,"no2":6.6,"co":128.0,"o3":52.0,"so2":3.7,"mosquito_risk":7,"arthritis_risk":5,"migraine_risk":7,"frizz_risk":1,"updated_at":"2026-07-15T03:29:54.774006+05:30"},{"city":"Gwalior","state":"Madhya Pradesh","latitude":26.2183,"longitude":78.1828,"temp":28.7,"humidity":72,"rain":0.0,"pressure":977.1,"uv_index":2.05,"wind_gusts":41.0,"aqi":121,"pm10":117.1,"pm2_5":51.2,"no2":16.6,"co":141.0,"o3":42.0,"so2":3.8,"mosquito_risk":7,"arthritis_risk":5,"migraine_risk":3,"frizz_risk":1,"updated_at":"2026-07-15T03:29:54.774013+05:30"},{"city":"Indore","state":"Madhya Pradesh","latitude":22.7196,"longitude":75.8577,"temp":24.1,"humidity":89,"rain":0.0,"pressure":945.1,"uv_index":8.6,"wind_gusts":38.9,"aqi":71,"pm10":27.0,"pm2_5":16.9,"no2":8.8,"co":192.0,"o3":42.0,"so2":9.7,"mosquito_risk":3,"arthritis_risk":5,"migraine_risk":7,"frizz_risk":1,"updated_at":"2026-07-15T03:29:54.774020+05:30"},{"city":"Bhopal","state":"Madhya Pradesh","latitude":23.2599,"longitude":77.4126,"temp":25.1,"humidity":75,"rain":0.0,"pressure":949.9,"uv_index":7.55,"wind_gusts":43.6,"aqi":81,"pm10":39.6,"pm2_5":27.7,"no2":8.8,"co":285.0,"o3":57.0,"so2":4.8,"mosquito_risk":7,"arthritis_risk":5,"migraine_risk":7,"frizz_risk":1,"updated_at":"2026-07-15T03:29:54.774027+05:30"},{"city":"Jabalpur","state":"Madhya Pradesh","latitude":23.1815,"longitude":79.9864,"temp":25.9,"humidity":76,"rain":0.0,"pressure":956.8,"uv_index":8.8,"wind_gusts":32.4,"aqi":100,"pm10":48.7,"pm2_5":32.7,"no2":7.6,"co":240.0,"o3":57.0,"so2":3.9,"mosquito_risk":7,"arthritis_risk":5,"migraine_risk":7,"frizz_risk":1,"updated_at":"2026-07-15T03:29:54.774033+05:30"},{"city":"Ujjain","state":"Madhya Pradesh","latitude":23.1765,"longitude":75.7885,"temp":24.7,"humidity":88,"rain":0.0,"pressure":950.6,"uv_index":8.45,"wind_gusts":38.2,"aqi":71,"pm10":30.0,"pm2_5":17.9,"no2":8.8,"co":199.0,"o3":39.0,"so2":9.9,"mosquito_risk":3,"arthritis_risk":5,"migraine_risk":7,"frizz_risk":1,"updated_at":"2026-07-15T03:29:54.774041+05:30"},{"city":"Visakhapatnam","state":"Andhra Pradesh","latitude":17.6868,"longitude":83.2185,"temp":29.4,"humidity":72,"rain":0.0,"pressure":996.5,"uv_index":1.55,"wind_gusts":26.3,"aqi":143,"pm10":57.9,"pm2_5":40.2,"no2":38.4,"co":323.0,"o3":37.0,"so2":53.4,"mosquito_risk":7,"arthritis_risk":5,"migraine_risk":3,"frizz_risk":1,"updated_at":"2026-07-15T03:29:54.774048+05:30"},{"city":"Vijayawada","state":"Andhra Pradesh","latitude":16.5062,"longitude":80.648,"temp":29.9,"humidity":59,"rain":0.0,"pressure":997.6,"uv_index":6.2,"wind_gusts":45.4,"aqi":86,"pm10":48.7,"pm2_5":37.4,"no2":15.3,"co":201.0,"o3":46.0,"so2":8.8,"mosquito_risk":4,"arthritis_risk":5,"migraine_risk":7,"frizz_risk":1,"updated_at":"2026-07-15T03:29:54.774054+05:30"},{"city":"Guntur","state":"Andhra Pradesh","latitude":16.3067,"longitude":80.4365,"temp":30.0,"humidity":56,"rain":0.0,"pressure":999.0,"uv_index":6.85,"wind_gusts":48.2,"aqi":81,"pm10":45.2,"pm2_5":34.8,"no2":16.7,"co":208.0,"o3":43.0,"so2":8.4,"mosquito_risk":4,"arthritis_risk":5,"migraine_risk":7,"frizz_risk":1,"updated_at":"2026-07-15T03:29:54.774061+05:30"},{"city":"Nellore","state":"Andhra Pradesh","latitude":14.4426,"longitude":79.9865,"temp":30.2,"humidity":49,"rain":0.0,"pressure":1001.9,"uv_index":8.25,"wind_gusts":49.7,"aqi":74,"pm10":53.7,"pm2_5":40.4,"no2":13.0,"co":242.0,"o3":74.0,"so2":7.3,"mosquito_risk":0,"arthritis_risk":5,"migraine_risk":4,"frizz_risk":1,"updated_at":"2026-07-15T03:29:54.774068+05:30"},{"city":"Kurnool","state":"Andhra Pradesh","latitude":15.8281,"longitude":78.0373,"temp":28.9,"humidity":57,"rain":0.0,"pressure":974.6,"uv_index":8.8,"wind_gusts":64.1,"aqi":62,"pm10":22.1,"pm2_5":15.5,"no2":8.4,"co":138.0,"o3":52.0,"so2":4.4,"mosquito_risk":4,"arthritis_risk":5,"migraine_risk":7,"frizz_risk":1,"updated_at":"2026-07-15T03:29:54.774076+05:30"},{"city":"Kakinada","state":"Andhra Pradesh","latitude":16.9891,"longitude":82.2475,"temp":29.5,"humidity":68,"rain":0.0,"pressure":1001.7,"uv_index":5.75,"wind_gusts":52.2,"aqi":96,"pm10":59.8,"pm2_5":39.2,"no2":9.0,"co":209.0,"o3":70.0,"so2":8.4,"mosquito_risk":7,"arthritis_risk":5,"migraine_risk":0,"frizz_risk":1,"updated_at":"2026-07-15T03:29:54.774082+05:30"},{"city":"Tirupati","state":"Andhra Pradesh","latitude":13.6288,"longitude":79.4192,"temp":29.1,"humidity":47,"rain":0.0,"pressure":987.8,"uv_index":8.9,"wind_gusts":35.6,"aqi":78,"pm10":42.8,"pm2_5":36.9,"no2":46.6,"co":142.0,"o3":5.0,"so2":4.5,"mosquito_risk":4,"arthritis_risk":5,"migraine_risk":7,"frizz_risk":1,"updated_at":"2026-07-15T03:29:54.774089+05:30"},{"city":"Warangal","state":"Telangana","latitude":17.9689,"longitude":79.5941,"temp":27.7,"humidity":66,"rain":0.0,"pressure":974.5,"uv_index":9.0,"wind_gusts":45.0,"aqi":82,"pm10":49.7,"pm2_5":35.7,"no2":11.3,"co":192.0,"o3":49.0,"so2":5.7,"mosquito_risk":7,"arthritis_risk":5,"migraine_risk":7,"frizz_risk":1,"updated_at":"2026-07-15T03:29:54.774096+05:30"},{"city":"Nizamabad","state":"Telangana","latitude":18.6725,"longitude":78.0941,"temp":27.0,"humidity":56,"rain":0.0,"pressure":962.0,"uv_index":8.9,"wind_gusts":42.8,"aqi":79,"pm10":34.3,"pm2_5":26.5,"no2":9.1,"co":208.0,"o3":63.0,"so2":6.9,"mosquito_risk":4,"arthritis_risk":5,"migraine_risk":7,"frizz_risk":1,"updated_at":"2026-07-15T03:29:54.774103+05:30"},{"city":"Mysore","state":"Karnataka","latitude":12.2958,"longitude":76.6396,"temp":20.1,"humidity":96,"rain":0.0,"pressure":927.7,"uv_index":8.8,"wind_gusts":44.3,"aqi":58,"pm10":22.4,"pm2_5":16.2,"no2":11.1,"co":154.0,"o3":43.0,"so2":2.8,"mosquito_risk":3,"arthritis_risk":5,"migraine_risk":7,"frizz_risk":1,"updated_at":"2026-07-15T03:29:54.774109+05:30"},{"city":"Mangalore","state":"Karnataka","latitude":12.9141,"longitude":74.856,"temp":25.9,"humidity":88,"rain":0.0,"pressure":1007.3,"uv_index":8.75,"wind_gusts":38.2,"aqi":63,"pm10":31.8,"pm2_5":19.4,"no2":9.4,"co":151.0,"o3":30.0,"so2":3.1,"mosquito_risk":7,"arthritis_risk":5,"migraine_risk":4,"frizz_risk":1,"updated_at":"2026-07-15T03:29:54.774116+05:30"},{"city":"Hubli-Dharwad","state":"Karnataka","latitude":15.3647,"longitude":75.124,"temp":21.5,"humidity":95,"rain":0.0,"pressure":940.1,"uv_index":7.0,"wind_gusts":51.8,"aqi":54,"pm10":14.3,"pm2_5":8.8,"no2":4.6,"co":123.0,"o3":38.0,"so2":1.9,"mosquito_risk":3,"arthritis_risk":5,"migraine_risk":7,"frizz_risk":1,"updated_at":"2026-07-15T03:29:54.774122+05:30"},{"city":"Belgaum","state":"Karnataka","latitude":15.8497,"longitude":74.4977,"temp":20.6,"humidity":97,"rain":0.0,"pressure":924.7,"uv_index":6.8,"wind_gusts":51.5,"aqi":54,"pm10":19.2,"pm2_5":10.5,"no2":4.5,"co":110.0,"o3":38.0,"so2":2.2,"mosquito_risk":3,"arthritis_risk":5,"migraine_risk":7,"frizz_risk":1,"updated_at":"2026-07-15T03:29:58.022564+05:30"},{"city":"Coimbatore","state":"Tamil Nadu","latitude":11.0168,"longitude":76.9558,"temp":23.7,"humidity":92,"rain":0.0,"pressure":960.7,"uv_index":6.8,"wind_gusts":51.5,"aqi":58,"pm10":20.3,"pm2_5":13.8,"no2":6.4,"co":176.0,"o3":44.0,"so2":3.9,"mosquito_risk":3,"arthritis_risk":5,"migraine_risk":7,"frizz_risk":1,"updated_at":"2026-07-15T03:29:58.022600+05:30"},{"city":"Madurai","state":"Tamil Nadu","latitude":9.9252,"longitude":78.1198,"temp":28.6,"humidity":68,"rain":0.0,"pressure":991.4,"uv_index":8.8,"wind_gusts":33.5,"aqi":77,"pm10":44.7,"pm2_5":36.0,"no2":45.5,"co":140.0,"o3":12.0,"so2":8.6,"mosquito_risk":7,"arthritis_risk":5,"migraine_risk":7,"frizz_risk":1,"updated_at":"2026-07-15T03:29:58.022611+05:30"},{"city":"Trichy","state":"Tamil Nadu","latitude":10.7905,"longitude":78.7047,"temp":28.8,"humidity":65,"rain":0.0,"pressure":998.1,"uv_index":8.8,"wind_gusts":47.5,"aqi":67,"pm10":30.6,"pm2_5":22.5,"no2":17.2,"co":127.0,"o3":38.0,"so2":5.0,"mosquito_risk":7,"arthritis_risk":5,"migraine_risk":7,"frizz_risk":1,"updated_at":"2026-07-15T03:29:58.022620+05:30"},{"city":"Salem","state":"Tamil Nadu","latitude":11.6643,"longitude":78.146,"temp":25.4,"humidity":86,"rain":0.0,"pressure":976.1,"uv_index":7.35,"wind_gusts":21.6,"aqi":74,"pm10":33.1,"pm2_5":25.7,"no2":23.9,"co":277.0,"o3":28.0,"so2":7.3,"mosquito_risk":7,"arthritis_risk":5,"migraine_risk":7,"frizz_risk":1,"updated_at":"2026-07-15T03:29:58.022628+05:30"},{"city":"Tirunelveli","state":"Tamil Nadu","latitude":8.7139,"longitude":77.7567,"temp":28.5,"humidity":65,"rain":0.0,"pressure":1001.6,"uv_index":8.55,"wind_gusts":44.3,"aqi":54,"pm10":17.5,"pm2_5":12.2,"no2":7.5,"co":133.0,"o3":34.0,"so2":2.8,"mosquito_risk":7,"arthritis_risk":5,"migraine_risk":4,"frizz_risk":1,"updated_at":"2026-07-15T03:29:58.022636+05:30"},{"city":"Vellore","state":"Tamil Nadu","latitude":12.9165,"longitude":79.1325,"temp":28.8,"humidity":45,"rain":0.0,"pressure":981.9,"uv_index":8.75,"wind_gusts":39.2,"aqi":81,"pm10":57.5,"pm2_5":47.1,"no2":44.4,"co":253.0,"o3":15.0,"so2":10.5,"mosquito_risk":4,"arthritis_risk":5,"migraine_risk":7,"frizz_risk":0,"updated_at":"2026-07-15T03:29:58.022644+05:30"},{"city":"Erode","state":"Tamil Nadu","latitude":11.341,"longitude":77.7172,"temp":26.5,"humidity":77,"rain":0.0,"pressure":987.9,"uv_index":8.35,"wind_gusts":45.7,"aqi":64,"pm10":23.7,"pm2_5":17.5,"no2":12.7,"co":170.0,"o3":35.0,"so2":4.4,"mosquito_risk":7,"arthritis_risk":5,"migraine_risk":7,"frizz_risk":1,"updated_at":"2026-07-15T03:29:58.022651+05:30"},{"city":"Kochi","state":"Kerala","latitude":9.9312,"longitude":76.2673,"temp":26.9,"humidity":89,"rain":0.0,"pressure":1009.5,"uv_index":8.6,"wind_gusts":41.8,"aqi":61,"pm10":25.7,"pm2_5":16.8,"no2":9.9,"co":96.0,"o3":29.0,"so2":3.7,"mosquito_risk":7,"arthritis_risk":0,"migraine_risk":4,"frizz_risk":1,"updated_at":"2026-07-15T03:29:58.022659+05:30"},{"city":"Thiruvananthapuram","state":"Kerala","latitude":8.5241,"longitude":76.9366,"temp":25.9,"humidity":91,"rain":0.0,"pressure":1008.9,"uv_index":8.45,"wind_gusts":47.9,"aqi":57,"pm10":26.2,"pm2_5":14.0,"no2":3.3,"co":155.0,"o3":48.0,"so2":1.2,"mosquito_risk":7,"arthritis_risk":0,"migraine_risk":4,"frizz_risk":1,"updated_at":"2026-07-15T03:29:58.022666+05:30"},{"city":"Kozhikode","state":"Kerala","latitude":11.2588,"longitude":75.7804,"temp":24.6,"humidity":94,"rain":0.0,"pressure":1008.6,"uv_index":7.4,"wind_gusts":40.7,"aqi":57,"pm10":29.6,"pm2_5":15.0,"no2":2.2,"co":195.0,"o3":51.0,"so2":1.6,"mosquito_risk":3,"arthritis_risk":0,"migraine_risk":4,"frizz_risk":1,"updated_at":"2026-07-15T03:29:58.022674+05:30"},{"city":"Thrissur","state":"Kerala","latitude":10.5276,"longitude":76.2144,"temp":25.6,"humidity":90,"rain":0.0,"pressure":1007.9,"uv_index":8.3,"wind_gusts":38.9,"aqi":59,"pm10":21.1,"pm2_5":13.5,"no2":6.1,"co":134.0,"o3":33.0,"so2":2.5,"mosquito_risk":7,"arthritis_risk":5,"migraine_risk":4,"frizz_risk":1,"updated_at":"2026-07-15T03:29:58.022681+05:30"},{"city":"Kannur","state":"Kerala","latitude":11.8745,"longitude":75.3704,"temp":25.1,"humidity":93,"rain":0.0,"pressure":1007.9,"uv_index":8.7,"wind_gusts":40.3,"aqi":60,"pm10":25.3,"pm2_5":15.7,"no2":9.2,"co":221.0,"o3":29.0,"so2":2.6,"mosquito_risk":7,"arthritis_risk":5,"migraine_risk":4,"frizz_risk":1,"updated_at":"2026-07-15T03:29:58.022688+05:30"},{"city":"Patna","state":"Bihar","latitude":25.5941,"longitude":85.1376,"temp":28.8,"humidity":93,"rain":0.0,"pressure":993.9,"uv_index":8.3,"wind_gusts":25.6,"aqi":157,"pm10":107.8,"pm2_5":83.6,"no2":31.7,"co":481.0,"o3":48.0,"so2":16.7,"mosquito_risk":7,"arthritis_risk":5,"migraine_risk":7,"frizz_risk":1,"updated_at":"2026-07-15T03:29:58.022695+05:30"},{"city":"Gaya","state":"Bihar","latitude":24.7914,"longitude":85.0002,"temp":27.7,"humidity":94,"rain":0.0,"pressure":987.1,"uv_index":7.65,"wind_gusts":27.0,"aqi":160,"pm10":114.6,"pm2_5":80.1,"no2":31.9,"co":379.0,"o3":36.0,"so2":10.0,"mosquito_risk":7,"arthritis_risk":5,"migraine_risk":7,"frizz_risk":1,"updated_at":"2026-07-15T03:29:58.022702+05:30"},{"city":"Muzaffarpur","state":"Bihar","latitude":26.1209,"longitude":85.3647,"temp":27.9,"humidity":96,"rain":0.0,"pressure":993.9,"uv_index":7.0,"wind_gusts":22.3,"aqi":155,"pm10":97.1,"pm2_5":81.7,"no2":30.9,"co":527.0,"o3":45.0,"so2":14.2,"mosquito_risk":7,"arthritis_risk":5,"migraine_risk":7,"frizz_risk":1,"updated_at":"2026-07-15T03:29:58.022708+05:30"},{"city":"Bhagalpur","state":"Bihar","latitude":25.2425,"longitude":87.0117,"temp":27.1,"humidity":97,"rain":0.1,"pressure":994.5,"uv_index":6.85,"wind_gusts":23.4,"aqi":96,"pm10":28.2,"pm2_5":27.1,"no2":12.6,"co":360.0,"o3":74.0,"so2":9.6,"mosquito_risk":10,"arthritis_risk":5,"migraine_risk":7,"frizz_risk":1,"updated_at":"2026-07-15T03:29:58.022715+05:30"},{"city":"Ranchi","state":"Jharkhand","latitude":23.3441,"longitude":85.3096,"temp":24.2,"humidity":88,"rain":0.0,"pressure":931.6,"uv_index":7.65,"wind_gusts":31.7,"aqi":152,"pm10":148.5,"pm2_5":99.0,"no2":45.5,"co":277.0,"o3":32.0,"so2":16.5,"mosquito_risk":3,"arthritis_risk":5,"migraine_risk":7,"frizz_risk":1,"updated_at":"2026-07-15T03:29:58.022722+05:30"},{"city":"Jamshedpur","state":"Jharkhand","latitude":22.8046,"longitude":86.2029,"temp":26.3,"humidity":95,"rain":0.1,"pressure":984.4,"uv_index":7.15,"wind_gusts":24.8,"aqi":163,"pm10":163.9,"pm2_5":141.6,"no2":87.5,"co":966.0,"o3":7.0,"so2":55.3,"mosquito_risk":10,"arthritis_risk":5,"migraine_risk":7,"frizz_risk":1,"updated_at":"2026-07-15T03:29:58.022729+05:30"},{"city":"Dhanbad","state":"Jharkhand","latitude":23.7957,"longitude":86.4304,"temp":25.5,"humidity":100,"rain":0.1,"pressure":973.5,"uv_index":8.3,"wind_gusts":23.4,"aqi":178,"pm10":238.0,"pm2_5":207.2,"no2":75.7,"co":755.0,"o3":13.0,"so2":276.3,"mosquito_risk":10,"arthritis_risk":5,"migraine_risk":7,"frizz_risk":1,"updated_at":"2026-07-15T03:29:58.022735+05:30"},{"city":"Bokaro","state":"Jharkhand","latitude":23.6693,"longitude":86.1511,"temp":25.9,"humidity":97,"rain":0.0,"pressure":977.4,"uv_index":7.75,"wind_gusts":28.8,"aqi":178,"pm10":247.7,"pm2_5":204.9,"no2":71.0,"co":246.0,"o3":1.0,"so2":235.7,"mosquito_risk":7,"arthritis_risk":5,"migraine_risk":7,"frizz_risk":1,"updated_at":"2026-07-15T03:29:58.022742+05:30"},{"city":"Bhubaneswar","state":"Odisha","latitude":20.2961,"longitude":85.8245,"temp":26.8,"humidity":90,"rain":0.0,"pressure":994.9,"uv_index":7.2,"wind_gusts":38.5,"aqi":128,"pm10":94.8,"pm2_5":63.8,"no2":24.4,"co":226.0,"o3":41.0,"so2":17.0,"mosquito_risk":7,"arthritis_risk":5,"migraine_risk":7,"frizz_risk":1,"updated_at":"2026-07-15T03:29:58.022749+05:30"},{"city":"Cuttack","state":"Odisha","latitude":20.4625,"longitude":85.8828,"temp":26.4,"humidity":89,"rain":0.1,"pressure":996.6,"uv_index":7.55,"wind_gusts":37.1,"aqi":128,"pm10":94.8,"pm2_5":63.8,"no2":24.4,"co":217.0,"o3":41.0,"so2":17.0,"mosquito_risk":10,"arthritis_risk":5,"migraine_risk":7,"frizz_risk":1,"updated_at":"2026-07-15T03:29:58.022755+05:30"},{"city":"Rourkela","state":"Odisha","latitude":22.2604,"longitude":84.8536,"temp":26.8,"humidity":94,"rain":0.0,"pressure":978.5,"uv_index":7.65,"wind_gusts":42.8,"aqi":152,"pm10":121.5,"pm2_5":70.1,"no2":19.1,"co":1000.0,"o3":66.0,"so2":9.5,"mosquito_risk":7,"arthritis_risk":5,"migraine_risk":7,"frizz_risk":1,"updated_at":"2026-07-15T03:29:58.022762+05:30"},{"city":"Raipur","state":"Chhattisgarh","latitude":21.2514,"longitude":81.6296,"temp":27.3,"humidity":79,"rain":0.1,"pressure":969.3,"uv_index":8.35,"wind_gusts":34.2,"aqi":139,"pm10":82.9,"pm2_5":52.9,"no2":31.3,"co":583.0,"o3":38.0,"so2":52.9,"mosquito_risk":10,"arthritis_risk":5,"migraine_risk":7,"frizz_risk":1,"updated_at":"2026-07-15T03:29:58.022769+05:30"},{"city":"Bhilai","state":"Chhattisgarh","latitude":21.1938,"longitude":81.3509,"temp":26.9,"humidity":80,"rain":0.1,"pressure":969.9,"uv_index":7.8,"wind_gusts":33.5,"aqi":121,"pm10":72.2,"pm2_5":46.9,"no2":21.1,"co":832.0,"o3":50.0,"so2":37.0,"mosquito_risk":10,"arthritis_risk":5,"migraine_risk":7,"frizz_risk":1,"updated_at":"2026-07-15T03:29:58.022776+05:30"},{"city":"Guwahati","state":"Assam","latitude":26.1158,"longitude":91.7086,"temp":26.3,"humidity":98,"rain":0.0,"pressure":995.3,"uv_index":4.65,"wind_gusts":27.4,"aqi":52,"pm10":7.0,"pm2_5":6.6,"no2":7.3,"co":270.0,"o3":44.0,"so2":1.0,"mosquito_risk":7,"arthritis_risk":5,"migraine_risk":3,"frizz_risk":1,"updated_at":"2026-07-15T03:29:58.022783+05:30"},{"city":"Agartala","state":"Tripura","latitude":23.8315,"longitude":91.2868,"temp":26.3,"humidity":90,"rain":0.0,"pressure":999.9,"uv_index":7.25,"wind_gusts":40.0,"aqi":77,"pm10":30.6,"pm2_5":29.2,"no2":28.8,"co":233.0,"o3":12.0,"so2":3.0,"mosquito_risk":7,"arthritis_risk":5,"migraine_risk":7,"frizz_risk":1,"updated_at":"2026-07-15T03:29:58.022790+05:30"},{"city":"Shillong","state":"Meghalaya","latitude":25.5788,"longitude":91.8933,"temp":18.7,"humidity":98,"rain":0.0,"pressure":852.7,"uv_index":5.45,"wind_gusts":29.5,"aqi":53,"pm10":5.6,"pm2_5":5.2,"no2":4.2,"co":249.0,"o3":80.0,"so2":2.3,"mosquito_risk":3,"arthritis_risk":10,"migraine_risk":3,"frizz_risk":1,"updated_at":"2026-07-15T03:29:58.022796+05:30"},{"city":"Imphal","state":"Manipur","latitude":24.817,"longitude":93.9368,"temp":23.1,"humidity":97,"rain":0.2,"pressure":919.5,"uv_index":9.1,"wind_gusts":29.2,"aqi":54,"pm10":21.8,"pm2_5":20.1,"no2":11.8,"co":219.0,"o3":24.0,"so2":2.2,"mosquito_risk":6,"arthritis_risk":5,"migraine_risk":7,"frizz_risk":1,"updated_at":"2026-07-15T03:29:58.022803+05:30"},{"city":"Aizawl","state":"Mizoram","latitude":23.7271,"longitude":92.7176,"temp":19.5,"humidity":100,"rain":0.0,"pressure":887.1,"uv_index":8.35,"wind_gusts":36.0,"aqi":45,"pm10":7.9,"pm2_5":7.0,"no2":8.4,"co":158.0,"o3":18.0,"so2":0.6,"mosquito_risk":3,"arthritis_risk":10,"migraine_risk":7,"frizz_risk":1,"updated_at":"2026-07-15T03:29:58.022810+05:30"},{"city":"Kohima","state":"Nagaland","latitude":25.6701,"longitude":94.1077,"temp":19.0,"humidity":96,"rain":0.0,"pressure":850.8,"uv_index":6.9,"wind_gusts":24.1,"aqi":50,"pm10":12.7,"pm2_5":11.5,"no2":8.3,"co":214.0,"o3":32.0,"so2":1.0,"mosquito_risk":3,"arthritis_risk":10,"migraine_risk":7,"frizz_risk":1,"updated_at":"2026-07-15T03:29:58.022817+05:30"},{"city":"Gangtok","state":"Sikkim","latitude":27.3314,"longitude":88.6138,"temp":17.8,"humidity":90,"rain":0.0,"pressure":833.7,"uv_index":5.95,"wind_gusts":32.8,"aqi":40,"pm10":11.2,"pm2_5":10.3,"no2":6.8,"co":368.0,"o3":74.0,"so2":1.9,"mosquito_risk":3,"arthritis_risk":10,"migraine_risk":3,"frizz_risk":1,"updated_at":"2026-07-15T03:29:58.022824+05:30"},{"city":"Siliguri","state":"West Bengal","latitude":26.7271,"longitude":88.3953,"temp":26.4,"humidity":94,"rain":0.2,"pressure":987.0,"uv_index":4.4,"wind_gusts":20.5,"aqi":70,"pm10":34.6,"pm2_5":33.3,"no2":19.0,"co":573.0,"o3":58.0,"so2":5.8,"mosquito_risk":10,"arthritis_risk":5,"migraine_risk":3,"frizz_risk":1,"updated_at":"2026-07-15T03:30:05.758593+05:30"},{"city":"Durgapur","state":"West Bengal","latitude":23.5204,"longitude":87.3119,"temp":25.6,"humidity":98,"rain":0.0,"pressure":988.3,"uv_index":8.65,"wind_gusts":33.1,"aqi":163,"pm10":82.4,"pm2_5":74.5,"no2":40.8,"co":477.0,"o3":37.0,"so2":35.6,"mosquito_risk":7,"arthritis_risk":5,"migraine_risk":7,"frizz_risk":1,"updated_at":"2026-07-15T03:30:05.758630+05:30"},{"city":"Asansol","state":"West Bengal","latitude":23.6739,"longitude":86.9524,"temp":25.8,"humidity":98,"rain":0.1,"pressure":987.2,"uv_index":8.25,"wind_gusts":21.6,"aqi":159,"pm10":109.2,"pm2_5":95.2,"no2":57.1,"co":729.0,"o3":22.0,"so2":47.6,"mosquito_risk":10,"arthritis_risk":5,"migraine_risk":7,"frizz_risk":1,"updated_at":"2026-07-15T03:30:05.758643+05:30"},{"city":"Pondicherry","state":"Puducherry","latitude":11.9139,"longitude":79.8145,"temp":28.1,"humidity":84,"rain":0.0,"pressure":1005.8,"uv_index":7.4,"wind_gusts":46.1,"aqi":78,"pm10":17.7,"pm2_5":12.1,"no2":7.1,"co":152.0,"o3":64.0,"so2":5.8,"mosquito_risk":7,"arthritis_risk":5,"migraine_risk":4,"frizz_risk":1,"updated_at":"2026-07-15T03:30:05.758652+05:30"},{"city":"Port Blair","state":"Andaman and Nicobar Islands","latitude":11.6234,"longitude":92.7265,"temp":24.1,"humidity":96,"rain":0.4,"pressure":1005.4,"uv_index":8.45,"wind_gusts":56.2,"aqi":49,"pm10":18.3,"pm2_5":8.5,"no2":0.2,"co":86.0,"o3":48.0,"so2":0.3,"mosquito_risk":6,"arthritis_risk":5,"migraine_risk":4,"frizz_risk":1,"updated_at":"2026-07-15T03:30:05.758659+05:30"},{"city":"Haridwar","state":"Uttarakhand","latitude":29.9457,"longitude":78.1642,"temp":25.5,"humidity":96,"rain":0.1,"pressure":967.3,"uv_index":7.5,"wind_gusts":24.5,"aqi":178,"pm10":170.9,"pm2_5":93.8,"no2":22.8,"co":377.0,"o3":54.0,"so2":12.8,"mosquito_risk":10,"arthritis_risk":5,"migraine_risk":7,"frizz_risk":1,"updated_at":"2026-07-15T03:30:05.758667+05:30"},{"city":"Rishikesh","state":"Uttarakhand","latitude":30.0869,"longitude":78.2676,"temp":24.6,"humidity":96,"rain":0.0,"pressure":960.3,"uv_index":7.6,"wind_gusts":24.5,"aqi":166,"pm10":190.0,"pm2_5":85.4,"no2":10.0,"co":416.0,"o3":104.0,"so2":11.3,"mosquito_risk":3,"arthritis_risk":5,"migraine_risk":7,"frizz_risk":1,"updated_at":"2026-07-15T03:30:05.758675+05:30"},{"city":"Nainital","state":"Uttarakhand","latitude":29.3919,"longitude":79.4542,"temp":15.4,"humidity":100,"rain":0.0,"pressure":801.2,"uv_index":7.7,"wind_gusts":24.8,"aqi":168,"pm10":185.8,"pm2_5":79.4,"no2":23.0,"co":359.0,"o3":53.0,"so2":7.7,"mosquito_risk":3,"arthritis_risk":10,"migraine_risk":7,"frizz_risk":0,"updated_at":"2026-07-15T03:30:05.758684+05:30"},{"city":"Mussoorie","state":"Uttarakhand","latitude":30.4599,"longitude":78.0664,"temp":16.3,"humidity":100,"rain":0.0,"pressure":799.0,"uv_index":7.75,"wind_gusts":32.8,"aqi":161,"pm10":123.4,"pm2_5":62.2,"no2":26.0,"co":332.0,"o3":70.0,"so2":9.1,"mosquito_risk":3,"arthritis_risk":10,"migraine_risk":7,"frizz_risk":1,"updated_at":"2026-07-15T03:30:05.758691+05:30"},{"city":"Dharamshala","state":"Himachal Pradesh","latitude":32.219,"longitude":76.3234,"temp":21.8,"humidity":82,"rain":0.0,"pressure":865.0,"uv_index":8.25,"wind_gusts":33.1,"aqi":73,"pm10":7.1,"pm2_5":4.4,"no2":11.3,"co":325.0,"o3":37.0,"so2":0.2,"mosquito_risk":3,"arthritis_risk":5,"migraine_risk":7,"frizz_risk":1,"updated_at":"2026-07-15T03:30:05.758698+05:30"},{"city":"Dalhousie","state":"Himachal Pradesh","latitude":32.5387,"longitude":75.971,"temp":15.4,"humidity":93,"rain":0.1,"pressure":799.8,"uv_index":8.4,"wind_gusts":30.2,"aqi":156,"pm10":88.7,"pm2_5":56.9,"no2":53.4,"co":307.0,"o3":14.0,"so2":3.4,"mosquito_risk":6,"arthritis_risk":10,"migraine_risk":7,"frizz_risk":0,"updated_at":"2026-07-15T03:30:05.758706+05:30"},{"city":"Patiala","state":"Punjab","latitude":30.3398,"longitude":76.3869,"temp":28.0,"humidity":87,"rain":0.0,"pressure":971.2,"uv_index":7.6,"wind_gusts":24.5,"aqi":194,"pm10":255.2,"pm2_5":164.4,"no2":73.9,"co":1164.0,"o3":5.0,"so2":13.6,"mosquito_risk":7,"arthritis_risk":5,"migraine_risk":7,"frizz_risk":1,"updated_at":"2026-07-15T03:30:05.758714+05:30"},{"city":"Bhatinda","state":"Punjab","latitude":30.211,"longitude":74.9455,"temp":31.1,"humidity":62,"rain":0.0,"pressure":977.1,"uv_index":8.25,"wind_gusts":24.5,"aqi":177,"pm10":178.3,"pm2_5":104.8,"no2":51.5,"co":547.0,"o3":22.0,"so2":7.7,"mosquito_risk":3,"arthritis_risk":5,"migraine_risk":7,"frizz_risk":1,"updated_at":"2026-07-15T03:30:05.758721+05:30"},{"city":"Rohtak","state":"Haryana","latitude":28.8955,"longitude":76.6066,"temp":28.7,"humidity":77,"rain":0.0,"pressure":974.9,"uv_index":7.65,"wind_gusts":25.6,"aqi":362,"pm10":119.0,"pm2_5":56.5,"no2":25.1,"co":417.0,"o3":37.0,"so2":7.7,"mosquito_risk":7,"arthritis_risk":5,"migraine_risk":7,"frizz_risk":1,"updated_at":"2026-07-15T03:30:05.758728+05:30"},{"city":"Panipat","state":"Haryana","latitude":29.3909,"longitude":76.9635,"temp":28.0,"humidity":84,"rain":0.0,"pressure":973.5,"uv_index":7.55,"wind_gusts":24.5,"aqi":643,"pm10":125.7,"pm2_5":66.8,"no2":26.2,"co":554.0,"o3":27.0,"so2":4.6,"mosquito_risk":7,"arthritis_risk":5,"migraine_risk":7,"frizz_risk":1,"updated_at":"2026-07-15T03:30:05.758736+05:30"},{"city":"Mathura","state":"Uttar Pradesh","latitude":27.4924,"longitude":77.6737,"temp":25.4,"humidity":88,"rain":0.1,"pressure":980.5,"uv_index":7.85,"wind_gusts":35.3,"aqi":286,"pm10":129.5,"pm2_5":48.5,"no2":13.9,"co":174.0,"o3":60.0,"so2":2.9,"mosquito_risk":10,"arthritis_risk":5,"migraine_risk":7,"frizz_risk":1,"updated_at":"2026-07-15T03:30:05.758743+05:30"},{"city":"Vrindavan","state":"Uttar Pradesh","latitude":27.5823,"longitude":77.7027,"temp":25.8,"humidity":85,"rain":0.0,"pressure":980.9,"uv_index":7.9,"wind_gusts":30.6,"aqi":286,"pm10":129.5,"pm2_5":48.5,"no2":13.9,"co":180.0,"o3":60.0,"so2":2.9,"mosquito_risk":7,"arthritis_risk":5,"migraine_risk":7,"frizz_risk":1,"updated_at":"2026-07-15T03:30:05.758749+05:30"},{"city":"Ayodhya","state":"Uttar Pradesh","latitude":26.7922,"longitude":82.1998,"temp":24.0,"humidity":96,"rain":0.4,"pressure":989.0,"uv_index":8.35,"wind_gusts":33.5,"aqi":179,"pm10":136.0,"pm2_5":77.5,"no2":16.7,"co":711.0,"o3":72.0,"so2":6.9,"mosquito_risk":6,"arthritis_risk":5,"migraine_risk":7,"frizz_risk":1,"updated_at":"2026-07-15T03:30:05.758756+05:30"},{"city":"Ratlam","state":"Madhya Pradesh","latitude":23.3315,"longitude":75.0367,"temp":24.2,"humidity":94,"rain":0.1,"pressure":951.3,"uv_index":8.45,"wind_gusts":36.4,"aqi":69,"pm10":29.3,"pm2_5":16.7,"no2":9.9,"co":149.0,"o3":32.0,"so2":10.6,"mosquito_risk":6,"arthritis_risk":5,"migraine_risk":7,"frizz_risk":1,"updated_at":"2026-07-15T03:30:05.758763+05:30"},{"city":"Sagar","state":"Madhya Pradesh","latitude":23.8388,"longitude":78.7378,"temp":25.7,"humidity":73,"rain":0.0,"pressure":945.9,"uv_index":7.8,"wind_gusts":38.2,"aqi":94,"pm10":40.5,"pm2_5":26.5,"no2":6.5,"co":231.0,"o3":64.0,"so2":4.7,"mosquito_risk":7,"arthritis_risk":5,"migraine_risk":7,"frizz_risk":1,"updated_at":"2026-07-15T03:30:05.758769+05:30"},{"city":"Satna","state":"Madhya Pradesh","latitude":24.6005,"longitude":80.8322,"temp":27.5,"humidity":72,"rain":0.0,"pressure":965.5,"uv_index":8.75,"wind_gusts":36.7,"aqi":124,"pm10":78.2,"pm2_5":43.3,"no2":6.7,"co":169.0,"o3":59.0,"so2":4.0,"mosquito_risk":7,"arthritis_risk":5,"migraine_risk":7,"frizz_risk":1,"updated_at":"2026-07-15T03:30:05.758776+05:30"},{"city":"Akola","state":"Maharashtra","latitude":20.7002,"longitude":77.0082,"temp":26.4,"humidity":74,"rain":0.0,"pressure":972.5,"uv_index":7.2,"wind_gusts":42.5,"aqi":68,"pm10":31.2,"pm2_5":18.5,"no2":8.4,"co":151.0,"o3":37.0,"so2":7.9,"mosquito_risk":7,"arthritis_risk":5,"migraine_risk":7,"frizz_risk":1,"updated_at":"2026-07-15T03:30:05.758783+05:30"},{"city":"Amravati","state":"Maharashtra","latitude":20.9374,"longitude":77.7796,"temp":26.0,"humidity":70,"rain":0.0,"pressure":964.5,"uv_index":8.0,"wind_gusts":44.3,"aqi":70,"pm10":32.0,"pm2_5":18.9,"no2":9.0,"co":134.0,"o3":42.0,"so2":9.2,"mosquito_risk":7,"arthritis_risk":5,"migraine_risk":7,"frizz_risk":1,"updated_at":"2026-07-15T03:30:05.758791+05:30"},{"city":"Latur","state":"Maharashtra","latitude":18.4088,"longitude":76.5604,"temp":23.5,"humidity":80,"rain":0.0,"pressure":937.6,"uv_index":8.75,"wind_gusts":42.1,"aqi":62,"pm10":28.3,"pm2_5":17.5,"no2":7.3,"co":138.0,"o3":42.0,"so2":4.4,"mosquito_risk":3,"arthritis_risk":5,"migraine_risk":7,"frizz_risk":1,"updated_at":"2026-07-15T03:30:05.758797+05:30"},{"city":"Nanded","state":"Maharashtra","latitude":19.1383,"longitude":77.3091,"temp":25.8,"humidity":69,"rain":0.0,"pressure":966.3,"uv_index":8.8,"wind_gusts":38.2,"aqi":74,"pm10":31.4,"pm2_5":21.3,"no2":6.0,"co":151.0,"o3":72.0,"so2":7.4,"mosquito_risk":7,"arthritis_risk":5,"migraine_risk":7,"frizz_risk":1,"updated_at":"2026-07-15T03:30:05.758804+05:30"},{"city":"Gulbarga","state":"Karnataka","latitude":17.3297,"longitude":76.8343,"temp":25.4,"humidity":71,"rain":0.0,"pressure":956.9,"uv_index":8.8,"wind_gusts":45.0,"aqi":62,"pm10":22.1,"pm2_5":14.9,"no2":6.5,"co":124.0,"o3":42.0,"so2":3.2,"mosquito_risk":7,"arthritis_risk":5,"migraine_risk":7,"frizz_risk":1,"updated_at":"2026-07-15T03:30:05.758810+05:30"},{"city":"Bidar","state":"Karnataka","latitude":17.9104,"longitude":77.5199,"temp":24.0,"humidity":66,"rain":0.0,"pressure":933.0,"uv_index":8.95,"wind_gusts":41.0,"aqi":72,"pm10":23.7,"pm2_5":17.3,"no2":5.8,"co":143.0,"o3":59.0,"so2":4.0,"mosquito_risk":3,"arthritis_risk":5,"migraine_risk":7,"frizz_risk":1,"updated_at":"2026-07-15T03:30:05.758816+05:30"},{"city":"Hospet","state":"Karnataka","latitude":15.2689,"longitude":76.3909,"temp":22.5,"humidity":91,"rain":0.0,"pressure":955.0,"uv_index":8.75,"wind_gusts":42.5,"aqi":56,"pm10":13.3,"pm2_5":9.0,"no2":4.8,"co":117.0,"o3":39.0,"so2":2.0,"mosquito_risk":3,"arthritis_risk":5,"migraine_risk":7,"frizz_risk":1,"updated_at":"2026-07-15T03:30:05.758822+05:30"},{"city":"Tirupur","state":"Tamil Nadu","latitude":11.1085,"longitude":77.3411,"temp":24.4,"humidity":89,"rain":0.0,"pressure":974.2,"uv_index":8.35,"wind_gusts":57.2,"aqi":66,"pm10":23.1,"pm2_5":16.9,"no2":12.5,"co":155.0,"o3":30.0,"so2":4.5,"mosquito_risk":3,"arthritis_risk":5,"migraine_risk":7,"frizz_risk":1,"updated_at":"2026-07-15T03:30:05.758829+05:30"},{"city":"Alappuzha","state":"Kerala","latitude":9.4981,"longitude":76.3388,"temp":26.9,"humidity":89,"rain":0.0,"pressure":1009.6,"uv_index":8.35,"wind_gusts":43.2,"aqi":60,"pm10":27.0,"pm2_5":15.1,"no2":5.3,"co":87.0,"o3":43.0,"so2":2.9,"mosquito_risk":7,"arthritis_risk":0,"migraine_risk":4,"frizz_risk":1,"updated_at":"2026-07-15T03:30:05.758835+05:30"},{"city":"Munnar","state":"Kerala","latitude":10.0889,"longitude":77.0595,"temp":16.9,"humidity":97,"rain":0.0,"pressure":856.6,"uv_index":9.05,"wind_gusts":36.7,"aqi":53,"pm10":9.7,"pm2_5":7.2,"no2":6.0,"co":102.0,"o3":27.0,"so2":2.4,"mosquito_risk":3,"arthritis_risk":10,"migraine_risk":7,"frizz_risk":1,"updated_at":"2026-07-15T03:30:05.758841+05:30"},{"city":"Silchar","state":"Assam","latitude":24.8333,"longitude":92.7789,"temp":25.9,"humidity":97,"rain":0.1,"pressure":999.8,"uv_index":8.8,"wind_gusts":29.5,"aqi":66,"pm10":13.3,"pm2_5":12.2,"no2":5.9,"co":190.0,"o3":73.0,"so2":3.0,"mosquito_risk":10,"arthritis_risk":5,"migraine_risk":7,"frizz_risk":1,"updated_at":"2026-07-15T03:30:05.758848+05:30"},{"city":"Dibrugarh","state":"Assam","latitude":27.4728,"longitude":94.912,"temp":26.0,"humidity":99,"rain":0.2,"pressure":990.3,"uv_index":7.5,"wind_gusts":28.1,"aqi":69,"pm10":12.5,"pm2_5":12.3,"no2":11.8,"co":220.0,"o3":32.0,"so2":0.9,"mosquito_risk":10,"arthritis_risk":5,"migraine_risk":7,"frizz_risk":1,"updated_at":"2026-07-15T03:30:05.758854+05:30"}]