[{"city":"Delhi","state":"Delhi","latitude":28.6139,"longitude":77.209,"temp":31.1,"humidity":36,"rain":0.0,"pressure":976.7,"uv_index":7.25,"wind_gusts":42.5,"aqi":409,"pm10":909.0,"pm2_5":151.8,"mosquito_risk":0,"arthritis_risk":5,"migraine_risk":7,"frizz_risk":0,"updated_at":"2026-04-28T01:39:51.148668+05:30"},{"city":"Mumbai","state":"Maharashtra","latitude":19.076,"longitude":72.8777,"temp":27.5,"humidity":88,"rain":0.0,"pressure":1005.5,"uv_index":8.05,"wind_gusts":38.9,"aqi":84,"pm10":50.2,"pm2_5":24.6,"mosquito_risk":7,"arthritis_risk":5,"migraine_risk":4,"frizz_risk":1,"updated_at":"2026-04-28T01:39:51.148711+05:30"},{"city":"Bangalore","state":"Karnataka","latitude":12.9716,"longitude":77.5946,"temp":26.0,"humidity":46,"rain":0.0,"pressure":910.3,"uv_index":9.05,"wind_gusts":40.3,"aqi":87,"pm10":33.6,"pm2_5":30.0,"mosquito_risk":4,"arthritis_risk":5,"migraine_risk":7,"frizz_risk":0,"updated_at":"2026-04-28T01:39:51.148727+05:30"},{"city":"Hyderabad","state":"Telangana","latitude":17.385,"longitude":78.4867,"temp":31.1,"humidity":38,"rain":0.0,"pressure":949.7,"uv_index":7.2,"wind_gusts":49.3,"aqi":98,"pm10":48.7,"pm2_5":42.0,"mosquito_risk":0,"arthritis_risk":5,"migraine_risk":7,"frizz_risk":0,"updated_at":"2026-04-28T01:39:51.148737+05:30"},{"city":"Chennai","state":"Tamil Nadu","latitude":13.0827,"longitude":80.2707,"temp":28.6,"humidity":87,"rain":0.0,"pressure":1004.8,"uv_index":7.55,"wind_gusts":56.5,"aqi":55,"pm10":14.0,"pm2_5":9.5,"mosquito_risk":7,"arthritis_risk":5,"migraine_risk":4,"frizz_risk":1,"updated_at":"2026-04-28T01:39:51.148745+05:30"},{"city":"Kolkata","state":"West Bengal","latitude":22.5726,"longitude":88.3639,"temp":27.9,"humidity":85,"rain":0.0,"pressure":999.9,"uv_index":8.85,"wind_gusts":63.4,"aqi":54,"pm10":17.8,"pm2_5":14.4,"mosquito_risk":7,"arthritis_risk":5,"migraine_risk":7,"frizz_risk":1,"updated_at":"2026-04-28T01:39:51.148755+05:30"},{"city":"Pune","state":"Maharashtra","latitude":18.5204,"longitude":73.8567,"temp":26.6,"humidity":65,"rain":0.0,"pressure":944.9,"uv_index":8.6,"wind_gusts":41.0,"aqi":68,"pm10":32.5,"pm2_5":18.6,"mosquito_risk":7,"arthritis_risk":5,"migraine_risk":7,"frizz_risk":1,"updated_at":"2026-04-28T01:39:51.148767+05:30"},{"city":"Ahmedabad","state":"Gujarat","latitude":23.0225,"longitude":72.5714,"temp":32.2,"humidity":30,"rain":0.0,"pressure":998.1,"uv_index":8.2,"wind_gusts":47.9,"aqi":43,"pm10":31.2,"pm2_5":12.4,"mosquito_risk":0,"arthritis_risk":5,"migraine_risk":7,"frizz_risk":0,"updated_at":"2026-04-28T01:39:51.148775+05:30"},{"city":"Jaipur","state":"Rajasthan","latitude":26.9124,"longitude":75.7873,"temp":30.0,"humidity":31,"rain":0.0,"pressure":954.6,"uv_index":8.05,"wind_gusts":39.6,"aqi":125,"pm10":165.8,"pm2_5":33.9,"mosquito_risk":4,"arthritis_risk":5,"migraine_risk":7,"frizz_risk":0,"updated_at":"2026-04-28T01:39:51.148783+05:30"},{"city":"Lucknow","state":"Uttar Pradesh","latitude":26.8467,"longitude":80.9462,"temp":29.4,"humidity":44,"rain":0.0,"pressure":987.2,"uv_index":7.9,"wind_gusts":40.0,"aqi":144,"pm10":333.4,"pm2_5":67.8,"mosquito_risk":4,"arthritis_risk":5,"migraine_risk":7,"frizz_risk":0,"updated_at":"2026-04-28T01:39:51.148791+05:30"},{"city":"Kanpur","state":"Uttar Pradesh","latitude":26.4499,"longitude":80.3319,"temp":32.9,"humidity":20,"rain":0.0,"pressure":984.7,"uv_index":7.95,"wind_gusts":43.9,"aqi":270,"pm10":497.3,"pm2_5":77.5,"mosquito_risk":0,"arthritis_risk":5,"migraine_risk":7,"frizz_risk":0,"updated_at":"2026-04-28T01:39:51.148798+05:30"},{"city":"Chandigarh","state":"Chandigarh","latitude":30.7333,"longitude":76.7794,"temp":26.8,"humidity":31,"rain":0.0,"pressure":963.2,"uv_index":6.6,"wind_gusts":53.3,"aqi":61,"pm10":16.5,"pm2_5":15.8,"mosquito_risk":4,"arthritis_risk":5,"migraine_risk":7,"frizz_risk":0,"updated_at":"2026-04-28T01:39:51.148806+05:30"},{"city":"Srinagar","state":"Jammu and Kashmir","latitude":34.0837,"longitude":74.7973,"temp":10.2,"humidity":91,"rain":0.0,"pressure":836.1,"uv_index":6.25,"wind_gusts":31.7,"aqi":69,"pm10":45.6,"pm2_5":38.5,"mosquito_risk":3,"arthritis_risk":10,"migraine_risk":7,"frizz_risk":0,"updated_at":"2026-04-28T01:39:51.148814+05:30"},{"city":"Jammu","state":"Jammu and Kashmir","latitude":32.7266,"longitude":74.857,"temp":24.5,"humidity":38,"rain":0.0,"pressure":965.6,"uv_index":7.2,"wind_gusts":44.3,"aqi":56,"pm10":20.4,"pm2_5":19.0,"mosquito_risk":0,"arthritis_risk":5,"migraine_risk":7,"frizz_risk":0,"updated_at":"2026-04-28T01:39:51.148822+05:30"},{"city":"Amritsar","state":"Punjab","latitude":31.634,"longitude":74.8723,"temp":27.8,"humidity":41,"rain":0.0,"pressure":973.9,"uv_index":5.65,"wind_gusts":48.6,"aqi":65,"pm10":48.8,"pm2_5":25.1,"mosquito_risk":4,"arthritis_risk":5,"migraine_risk":3,"frizz_risk":0,"updated_at":"2026-04-28T01:39:51.148828+05:30"},{"city":"Ludhiana","state":"Punjab","latitude":30.901,"longitude":75.8573,"temp":28.1,"humidity":34,"rain":0.0,"pressure":972.8,"uv_index":6.45,"wind_gusts":32.4,"aqi":66,"pm10":67.8,"pm2_5":29.3,"mosquito_risk":4,"arthritis_risk":5,"migraine_risk":7,"frizz_risk":0,"updated_at":"2026-04-28T01:39:51.148835+05:30"},{"city":"Jalandhar","state":"Punjab","latitude":31.326,"longitude":75.5762,"temp":26.7,"humidity":39,"rain":0.0,"pressure":973.6,"uv_index":5.6,"wind_gusts":36.0,"aqi":77,"pm10":78.7,"pm2_5":34.1,"mosquito_risk":4,"arthritis_risk":5,"migraine_risk":3,"frizz_risk":0,"updated_at":"2026-04-28T01:39:51.148844+05:30"},{"city":"Dehradun","state":"Uttarakhand","latitude":30.6284,"longitude":78.0322,"temp":14.6,"humidity":46,"rain":0.0,"pressure":824.4,"uv_index":5.75,"wind_gusts":53.3,"aqi":57,"pm10":16.0,"pm2_5":12.5,"mosquito_risk":0,"arthritis_risk":5,"migraine_risk":3,"frizz_risk":0,"updated_at":"2026-04-28T01:39:51.148851+05:30"},{"city":"Shimla","state":"Himachal Pradesh","latitude":31.1048,"longitude":77.1734,"temp":15.0,"humidity":35,"rain":0.0,"pressure":780.7,"uv_index":7.45,"wind_gusts":47.9,"aqi":73,"pm10":15.8,"pm2_5":10.9,"mosquito_risk":0,"arthritis_risk":5,"migraine_risk":7,"frizz_risk":1,"updated_at":"2026-04-28T01:39:51.148857+05:30"},{"city":"Manali","state":"Himachal Pradesh","latitude":32.2396,"longitude":77.1887,"temp":8.5,"humidity":64,"rain":0.0,"pressure":811.8,"uv_index":8.7,"wind_gusts":40.0,"aqi":61,"pm10":29.6,"pm2_5":22.0,"mosquito_risk":3,"arthritis_risk":5,"migraine_risk":7,"frizz_risk":0,"updated_at":"2026-04-28T01:39:51.148864+05:30"},{"city":"Gurgaon","state":"Haryana","latitude":28.4595,"longitude":77.0266,"temp":29.0,"humidity":41,"rain":0.0,"pressure":974.9,"uv_index":7.25,"wind_gusts":48.6,"aqi":841,"pm10":1855.2,"pm2_5":221.7,"mosquito_risk":4,"arthritis_risk":5,"migraine_risk":7,"frizz_risk":0,"updated_at":"2026-04-28T01:39:51.148871+05:30"},{"city":"Noida","state":"Uttar Pradesh","latitude":28.5355,"longitude":77.391,"temp":31.6,"humidity":32,"rain":0.0,"pressure":978.2,"uv_index":7.4,"wind_gusts":42.1,"aqi":841,"pm10":1855.2,"pm2_5":221.7,"mosquito_risk":0,"arthritis_risk":5,"migraine_risk":7,"frizz_risk":0,"updated_at":"2026-04-28T01:39:51.148878+05:30"},{"city":"Ghaziabad","state":"Uttar Pradesh","latitude":28.6692,"longitude":77.4538,"temp":30.5,"humidity":33,"rain":0.0,"pressure":976.6,"uv_index":7.35,"wind_gusts":59.8,"aqi":311,"pm10":719.0,"pm2_5":126.2,"mosquito_risk":0,"arthritis_risk":5,"migraine_risk":7,"frizz_risk":0,"updated_at":"2026-04-28T01:39:51.148885+05:30"},{"city":"Faridabad","state":"Haryana","latitude":28.4089,"longitude":77.3178,"temp":32.7,"humidity":27,"rain":0.0,"pressure":977.4,"uv_index":7.4,"wind_gusts":47.5,"aqi":841,"pm10":1855.2,"pm2_5":221.7,"mosquito_risk":0,"arthritis_risk":5,"migraine_risk":7,"frizz_risk":0,"updated_at":"2026-04-28T01:39:51.148891+05:30"},{"city":"Meerut","state":"Uttar Pradesh","latitude":28.9845,"longitude":77.7064,"temp":29.7,"humidity":34,"rain":0.0,"pressure":975.7,"uv_index":7.15,"wind_gusts":52.6,"aqi":311,"pm10":719.0,"pm2_5":126.2,"mosquito_risk":4,"arthritis_risk":5,"migraine_risk":7,"frizz_risk":0,"updated_at":"2026-04-28T01:39:51.148897+05:30"},{"city":"Agra","state":"Uttar Pradesh","latitude":27.1767,"longitude":78.0081,"temp":33.4,"humidity":24,"rain":0.0,"pressure":981.3,"uv_index":7.8,"wind_gusts":41.0,"aqi":496,"pm10":530.9,"pm2_5":71.5,"mosquito_risk":0,"arthritis_risk":5,"migraine_risk":7,"frizz_risk":0,"updated_at":"2026-04-28T01:39:51.148906+05:30"},{"city":"Varanasi","state":"Uttar Pradesh","latitude":25.3176,"longitude":82.9739,"temp":28.6,"humidity":64,"rain":0.0,"pressure":991.9,"uv_index":8.5,"wind_gusts":40.7,"aqi":135,"pm10":82.9,"pm2_5":59.6,"mosquito_risk":7,"arthritis_risk":5,"migraine_risk":7,"frizz_risk":1,"updated_at":"2026-04-28T01:39:51.148915+05:30"},{"city":"Prayagraj","state":"Uttar Pradesh","latitude":25.4358,"longitude":81.8463,"temp":30.0,"humidity":53,"rain":0.0,"pressure":989.2,"uv_index":8.4,"wind_gusts":37.4,"aqi":125,"pm10":101.5,"pm2_5":60.1,"mosquito_risk":4,"arthritis_risk":5,"migraine_risk":7,"frizz_risk":1,"updated_at":"2026-04-28T01:39:51.148922+05:30"},{"city":"Gorakhpur","state":"Uttar Pradesh","latitude":26.7606,"longitude":83.3732,"temp":25.4,"humidity":74,"rain":0.0,"pressure":992.9,"uv_index":8.3,"wind_gusts":35.3,"aqi":136,"pm10":71.0,"pm2_5":54.8,"mosquito_risk":7,"arthritis_risk":5,"migraine_risk":7,"frizz_risk":1,"updated_at":"2026-04-28T01:39:51.148928+05:30"},{"city":"Bareilly","state":"Uttar Pradesh","latitude":28.367,"longitude":79.4304,"temp":27.4,"humidity":47,"rain":0.0,"pressure":980.9,"uv_index":7.65,"wind_gusts":50.4,"aqi":100,"pm10":116.9,"pm2_5":42.1,"mosquito_risk":4,"arthritis_risk":5,"migraine_risk":7,"frizz_risk":0,"updated_at":"2026-04-28T01:39:51.148935+05:30"},{"city":"Aligarh","state":"Uttar Pradesh","latitude":27.8974,"longitude":78.088,"temp":34.2,"humidity":21,"rain":0.0,"pressure":980.0,"uv_index":7.5,"wind_gusts":59.0,"aqi":620,"pm10":622.1,"pm2_5":106.2,"mosquito_risk":0,"arthritis_risk":5,"migraine_risk":7,"frizz_risk":0,"updated_at":"2026-04-28T01:39:51.148941+05:30"},{"city":"Moradabad","state":"Uttar Pradesh","latitude":28.8386,"longitude":78.7733,"temp":29.4,"humidity":30,"rain":0.0,"pressure":977.8,"uv_index":7.3,"wind_gusts":48.2,"aqi":122,"pm10":280.3,"pm2_5":66.1,"mosquito_risk":4,"arthritis_risk":5,"migraine_risk":7,"frizz_risk":0,"updated_at":"2026-04-28T01:39:51.148947+05:30"},{"city":"Saharanpur","state":"Uttar Pradesh","latitude":29.9637,"longitude":77.546,"temp":29.9,"humidity":27,"rain":0.0,"pressure":969.9,"uv_index":6.55,"wind_gusts":42.1,"aqi":82,"pm10":100.1,"pm2_5":30.7,"mosquito_risk":4,"arthritis_risk":5,"migraine_risk":7,"frizz_risk":0,"updated_at":"2026-04-28T01:39:51.148956+05:30"},{"city":"Jhansi","state":"Uttar Pradesh","latitude":25.4484,"longitude":78.5685,"temp":34.2,"humidity":19,"rain":0.0,"pressure":971.3,"uv_index":8.3,"wind_gusts":42.8,"aqi":60,"pm10":38.6,"pm2_5":20.0,"mosquito_risk":0,"arthritis_risk":5,"migraine_risk":7,"frizz_risk":0,"updated_at":"2026-04-28T01:39:54.399851+05:30"},{"city":"Surat","state":"Gujarat","latitude":21.1702,"longitude":72.8311,"temp":28.5,"humidity":74,"rain":0.0,"pressure":1003.1,"uv_index":7.9,"wind_gusts":44.3,"aqi":84,"pm10":36.6,"pm2_5":21.8,"mosquito_risk":7,"arthritis_risk":5,"migraine_risk":4,"frizz_risk":1,"updated_at":"2026-04-28T01:39:54.399885+05:30"},{"city":"Vadodara","state":"Gujarat","latitude":22.3072,"longitude":73.1812,"temp":29.5,"humidity":54,"rain":0.0,"pressure":1000.4,"uv_index":8.15,"wind_gusts":48.6,"aqi":67,"pm10":27.9,"pm2_5":19.6,"mosquito_risk":4,"arthritis_risk":5,"migraine_risk":4,"frizz_risk":1,"updated_at":"2026-04-28T01:39:54.399897+05:30"},{"city":"Rajkot","state":"Gujarat","latitude":22.3039,"longitude":70.8022,"temp":27.8,"humidity":42,"rain":0.0,"pressure":990.7,"uv_index":7.9,"wind_gusts":53.3,"aqi":51,"pm10":22.5,"pm2_5":11.2,"mosquito_risk":4,"arthritis_risk":5,"migraine_risk":7,"frizz_risk":0,"updated_at":"2026-04-28T01:39:54.399908+05:30"},{"city":"Thane","state":"Maharashtra","latitude":19.2183,"longitude":72.9781,"temp":27.1,"humidity":93,"rain":0.0,"pressure":1004.9,"uv_index":8.05,"wind_gusts":36.4,"aqi":84,"pm10":50.2,"pm2_5":24.6,"mosquito_risk":7,"arthritis_risk":5,"migraine_risk":4,"frizz_risk":1,"updated_at":"2026-04-28T01:39:54.399916+05:30"},{"city":"Nagpur","state":"Maharashtra","latitude":21.1458,"longitude":79.0882,"temp":35.1,"humidity":17,"rain":0.0,"pressure":968.6,"uv_index":8.85,"wind_gusts":50.8,"aqi":90,"pm10":26.9,"pm2_5":21.8,"mosquito_risk":0,"arthritis_risk":5,"migraine_risk":10,"frizz_risk":0,"updated_at":"2026-04-28T01:39:54.399924+05:30"},{"city":"Nashik","state":"Maharashtra","latitude":19.9975,"longitude":73.7898,"temp":26.0,"humidity":67,"rain":0.0,"pressure":942.9,"uv_index":8.3,"wind_gusts":43.6,"aqi":76,"pm10":35.5,"pm2_5":22.2,"mosquito_risk":7,"arthritis_risk":5,"migraine_risk":7,"frizz_risk":1,"updated_at":"2026-04-28T01:39:54.399931+05:30"},{"city":"Aurangabad","state":"Maharashtra","latitude":19.8762,"longitude":75.3433,"temp":30.2,"humidity":34,"rain":0.0,"pressure":940.9,"uv_index":9.0,"wind_gusts":43.6,"aqi":69,"pm10":29.7,"pm2_5":24.4,"mosquito_risk":0,"arthritis_risk":5,"migraine_risk":7,"frizz_risk":0,"updated_at":"2026-04-28T01:39:54.399938+05:30"},{"city":"Solapur","state":"Maharashtra","latitude":17.6599,"longitude":75.9064,"temp":30.5,"humidity":40,"rain":0.0,"pressure":954.1,"uv_index":9.1,"wind_gusts":40.7,"aqi":75,"pm10":28.1,"pm2_5":22.0,"mosquito_risk":0,"arthritis_risk":5,"migraine_risk":7,"frizz_risk":0,"updated_at":"2026-04-28T01:39:54.399946+05:30"},{"city":"Kolhapur","state":"Maharashtra","latitude":16.705,"longitude":74.2433,"temp":24.0,"humidity":90,"rain":0.0,"pressure":945.5,"uv_index":9.0,"wind_gusts":50.8,"aqi":72,"pm10":40.4,"pm2_5":18.9,"mosquito_risk":3,"arthritis_risk":5,"migraine_risk":7,"frizz_risk":1,"updated_at":"2026-04-28T01:39:54.399954+05:30"},{"city":"Goa","state":"Goa","latitude":15.2993,"longitude":74.124,"temp":28.0,"humidity":83,"rain":0.0,"pressure":995.5,"uv_index":9.0,"wind_gusts":35.3,"aqi":69,"pm10":57.7,"pm2_5":24.1,"mosquito_risk":7,"arthritis_risk":5,"migraine_risk":7,"frizz_risk":1,"updated_at":"2026-04-28T01:39:54.399961+05:30"},{"city":"Jodhpur","state":"Rajasthan","latitude":26.2389,"longitude":73.0243,"temp":30.5,"humidity":28,"rain":0.0,"pressure":977.6,"uv_index":8.3,"wind_gusts":46.8,"aqi":128,"pm10":222.6,"pm2_5":34.8,"mosquito_risk":0,"arthritis_risk":5,"migraine_risk":7,"frizz_risk":0,"updated_at":"2026-04-28T01:39:54.399968+05:30"},{"city":"Udaipur","state":"Rajasthan","latitude":24.5854,"longitude":73.7125,"temp":29.0,"humidity":23,"rain":0.0,"pressure":942.8,"uv_index":8.75,"wind_gusts":49.3,"aqi":50,"pm10":19.2,"pm2_5":9.4,"mosquito_risk":4,"arthritis_risk":5,"migraine_risk":7,"frizz_risk":0,"updated_at":"2026-04-28T01:39:54.399975+05:30"},{"city":"Kota","state":"Rajasthan","latitude":25.2138,"longitude":75.8648,"temp":30.1,"humidity":26,"rain":0.0,"pressure":974.1,"uv_index":8.3,"wind_gusts":38.5,"aqi":55,"pm10":12.1,"pm2_5":8.9,"mosquito_risk":0,"arthritis_risk":5,"migraine_risk":7,"frizz_risk":0,"updated_at":"2026-04-28T01:39:54.399982+05:30"},{"city":"Bikaner","state":"Rajasthan","latitude":28.0229,"longitude":73.3119,"temp":29.6,"humidity":37,"rain":0.0,"pressure":975.9,"uv_index":8.15,"wind_gusts":59.0,"aqi":63,"pm10":58.2,"pm2_5":19.6,"mosquito_risk":4,"arthritis_risk":5,"migraine_risk":7,"frizz_risk":0,"updated_at":"2026-04-28T01:39:54.399989+05:30"},{"city":"Ajmer","state":"Rajasthan","latitude":26.4499,"longitude":74.6399,"temp":27.6,"humidity":39,"rain":0.0,"pressure":949.5,"uv_index":8.25,"wind_gusts":43.6,"aqi":59,"pm10":10.0,"pm2_5":7.6,"mosquito_risk":4,"arthritis_risk":5,"migraine_risk":7,"frizz_risk":0,"updated_at":"2026-04-28T01:39:54.399996+05:30"},{"city":"Gwalior","state":"Madhya Pradesh","latitude":26.2183,"longitude":78.1828,"temp":32.3,"humidity":26,"rain":0.0,"pressure":977.2,"uv_index":8.05,"wind_gusts":43.9,"aqi":78,"pm10":81.0,"pm2_5":22.7,"mosquito_risk":0,"arthritis_risk":5,"migraine_risk":7,"frizz_risk":0,"updated_at":"2026-04-28T01:39:54.400002+05:30"},{"city":"Indore","state":"Madhya Pradesh","latitude":22.7196,"longitude":75.8577,"temp":30.9,"humidity":20,"rain":0.0,"pressure":944.7,"uv_index":8.6,"wind_gusts":54.7,"aqi":64,"pm10":21.6,"pm2_5":17.0,"mosquito_risk":0,"arthritis_risk":5,"migraine_risk":7,"frizz_risk":0,"updated_at":"2026-04-28T01:39:54.400009+05:30"},{"city":"Bhopal","state":"Madhya Pradesh","latitude":23.2599,"longitude":77.4126,"temp":32.2,"humidity":16,"rain":0.0,"pressure":949.8,"uv_index":8.6,"wind_gusts":46.4,"aqi":52,"pm10":14.0,"pm2_5":11.0,"mosquito_risk":0,"arthritis_risk":5,"migraine_risk":7,"frizz_risk":0,"updated_at":"2026-04-28T01:39:54.400016+05:30"},{"city":"Jabalpur","state":"Madhya Pradesh","latitude":23.1815,"longitude":79.9864,"temp":28.8,"humidity":39,"rain":0.0,"pressure":956.1,"uv_index":8.75,"wind_gusts":42.5,"aqi":68,"pm10":33.8,"pm2_5":18.9,"mosquito_risk":4,"arthritis_risk":5,"migraine_risk":7,"frizz_risk":0,"updated_at":"2026-04-28T01:39:54.400023+05:30"},{"city":"Ujjain","state":"Madhya Pradesh","latitude":23.1765,"longitude":75.7885,"temp":30.1,"humidity":22,"rain":0.0,"pressure":950.2,"uv_index":8.55,"wind_gusts":56.9,"aqi":64,"pm10":20.9,"pm2_5":16.4,"mosquito_risk":0,"arthritis_risk":5,"migraine_risk":7,"frizz_risk":0,"updated_at":"2026-04-28T01:39:54.400030+05:30"},{"city":"Visakhapatnam","state":"Andhra Pradesh","latitude":17.6868,"longitude":83.2185,"temp":27.8,"humidity":90,"rain":0.0,"pressure":1001.0,"uv_index":9.2,"wind_gusts":58.3,"aqi":60,"pm10":22.4,"pm2_5":16.7,"mosquito_risk":7,"arthritis_risk":5,"migraine_risk":4,"frizz_risk":1,"updated_at":"2026-04-28T01:39:54.400037+05:30"},{"city":"Vijayawada","state":"Andhra Pradesh","latitude":16.5062,"longitude":80.648,"temp":28.4,"humidity":86,"rain":0.0,"pressure":1000.0,"uv_index":8.75,"wind_gusts":41.4,"aqi":61,"pm10":18.7,"pm2_5":14.2,"mosquito_risk":7,"arthritis_risk":5,"migraine_risk":4,"frizz_risk":1,"updated_at":"2026-04-28T01:39:54.400044+05:30"},{"city":"Guntur","state":"Andhra Pradesh","latitude":16.3067,"longitude":80.4365,"temp":28.5,"humidity":87,"rain":0.0,"pressure":1001.2,"uv_index":9.25,"wind_gusts":45.4,"aqi":62,"pm10":18.5,"pm2_5":14.3,"mosquito_risk":7,"arthritis_risk":5,"migraine_risk":4,"frizz_risk":1,"updated_at":"2026-04-28T01:39:54.400050+05:30"},{"city":"Nellore","state":"Andhra Pradesh","latitude":14.4426,"longitude":79.9865,"temp":28.0,"humidity":83,"rain":0.0,"pressure":1002.9,"uv_index":9.25,"wind_gusts":48.2,"aqi":62,"pm10":15.3,"pm2_5":12.5,"mosquito_risk":7,"arthritis_risk":5,"migraine_risk":4,"frizz_risk":1,"updated_at":"2026-04-28T01:39:54.400058+05:30"},{"city":"Kurnool","state":"Andhra Pradesh","latitude":15.8281,"longitude":78.0373,"temp":32.7,"humidity":39,"rain":0.0,"pressure":973.3,"uv_index":9.2,"wind_gusts":40.7,"aqi":92,"pm10":36.2,"pm2_5":31.8,"mosquito_risk":0,"arthritis_risk":5,"migraine_risk":7,"frizz_risk":1,"updated_at":"2026-04-28T01:39:54.400066+05:30"},{"city":"Kakinada","state":"Andhra Pradesh","latitude":16.9891,"longitude":82.2475,"temp":28.0,"humidity":89,"rain":0.0,"pressure":1005.2,"uv_index":9.2,"wind_gusts":45.7,"aqi":56,"pm10":22.6,"pm2_5":14.6,"mosquito_risk":7,"arthritis_risk":5,"migraine_risk":4,"frizz_risk":1,"updated_at":"2026-04-28T01:39:54.400073+05:30"},{"city":"Tirupati","state":"Andhra Pradesh","latitude":13.6288,"longitude":79.4192,"temp":27.5,"humidity":76,"rain":0.0,"pressure":989.3,"uv_index":9.2,"wind_gusts":38.2,"aqi":72,"pm10":16.3,"pm2_5":13.9,"mosquito_risk":7,"arthritis_risk":5,"migraine_risk":7,"frizz_risk":1,"updated_at":"2026-04-28T01:39:54.400079+05:30"},{"city":"Warangal","state":"Telangana","latitude":17.9689,"longitude":79.5941,"temp":28.8,"humidity":69,"rain":0.0,"pressure":975.2,"uv_index":8.75,"wind_gusts":38.2,"aqi":90,"pm10":24.8,"pm2_5":22.9,"mosquito_risk":7,"arthritis_risk":5,"migraine_risk":7,"frizz_risk":1,"updated_at":"2026-04-28T01:39:54.400086+05:30"},{"city":"Nizamabad","state":"Telangana","latitude":18.6725,"longitude":78.0941,"temp":31.0,"humidity":36,"rain":0.0,"pressure":960.3,"uv_index":9.1,"wind_gusts":36.0,"aqi":94,"pm10":37.0,"pm2_5":30.5,"mosquito_risk":0,"arthritis_risk":5,"migraine_risk":7,"frizz_risk":0,"updated_at":"2026-04-28T01:39:54.400093+05:30"},{"city":"Mysore","state":"Karnataka","latitude":12.2958,"longitude":76.6396,"temp":23.8,"humidity":92,"rain":0.0,"pressure":926.6,"uv_index":8.8,"wind_gusts":40.7,"aqi":93,"pm10":28.6,"pm2_5":27.0,"mosquito_risk":3,"arthritis_risk":5,"migraine_risk":7,"frizz_risk":1,"updated_at":"2026-04-28T01:39:54.400099+05:30"},{"city":"Mangalore","state":"Karnataka","latitude":12.9141,"longitude":74.856,"temp":29.1,"humidity":79,"rain":0.0,"pressure":1004.5,"uv_index":8.0,"wind_gusts":37.4,"aqi":77,"pm10":36.8,"pm2_5":29.8,"mosquito_risk":7,"arthritis_risk":5,"migraine_risk":4,"frizz_risk":1,"updated_at":"2026-04-28T01:39:54.400106+05:30"},{"city":"Hubli-Dharwad","state":"Karnataka","latitude":15.3647,"longitude":75.124,"temp":24.5,"humidity":93,"rain":0.0,"pressure":938.4,"uv_index":9.2,"wind_gusts":40.3,"aqi":82,"pm10":18.2,"pm2_5":14.0,"mosquito_risk":3,"arthritis_risk":5,"migraine_risk":7,"frizz_risk":1,"updated_at":"2026-04-28T01:39:54.400113+05:30"},{"city":"Belgaum","state":"Karnataka","latitude":15.8497,"longitude":74.4977,"temp":23.2,"humidity":94,"rain":0.0,"pressure":923.6,"uv_index":9.2,"wind_gusts":47.9,"aqi":78,"pm10":34.7,"pm2_5":17.9,"mosquito_risk":3,"arthritis_risk":5,"migraine_risk":7,"frizz_risk":1,"updated_at":"2026-04-28T01:39:57.641831+05:30"},{"city":"Coimbatore","state":"Tamil Nadu","latitude":11.0168,"longitude":76.9558,"temp":26.4,"humidity":85,"rain":0.0,"pressure":959.7,"uv_index":8.2,"wind_gusts":49.0,"aqi":67,"pm10":24.2,"pm2_5":21.6,"mosquito_risk":7,"arthritis_risk":5,"migraine_risk":7,"frizz_risk":1,"updated_at":"2026-04-28T01:39:57.641863+05:30"},{"city":"Madurai","state":"Tamil Nadu","latitude":9.9252,"longitude":78.1198,"temp":28.9,"humidity":69,"rain":0.0,"pressure":991.5,"uv_index":8.7,"wind_gusts":50.8,"aqi":49,"pm10":13.4,"pm2_5":13.0,"mosquito_risk":7,"arthritis_risk":5,"migraine_risk":7,"frizz_risk":1,"updated_at":"2026-04-28T01:39:57.641873+05:30"},{"city":"Trichy","state":"Tamil Nadu","latitude":10.7905,"longitude":78.7047,"temp":28.2,"humidity":76,"rain":0.0,"pressure":998.2,"uv_index":8.75,"wind_gusts":45.7,"aqi":53,"pm10":8.6,"pm2_5":7.6,"mosquito_risk":7,"arthritis_risk":5,"migraine_risk":7,"frizz_risk":1,"updated_at":"2026-04-28T01:39:57.641881+05:30"},{"city":"Salem","state":"Tamil Nadu","latitude":11.6643,"longitude":78.146,"temp":28.7,"humidity":58,"rain":0.0,"pressure":975.6,"uv_index":7.35,"wind_gusts":31.7,"aqi":65,"pm10":12.0,"pm2_5":11.5,"mosquito_risk":4,"arthritis_risk":5,"migraine_risk":7,"frizz_risk":1,"updated_at":"2026-04-28T01:39:57.641889+05:30"},{"city":"Tirunelveli","state":"Tamil Nadu","latitude":8.7139,"longitude":77.7567,"temp":27.7,"humidity":76,"rain":0.0,"pressure":1001.5,"uv_index":9.15,"wind_gusts":45.0,"aqi":60,"pm10":21.5,"pm2_5":20.1,"mosquito_risk":7,"arthritis_risk":5,"migraine_risk":4,"frizz_risk":1,"updated_at":"2026-04-28T01:39:57.641897+05:30"},{"city":"Vellore","state":"Tamil Nadu","latitude":12.9165,"longitude":79.1325,"temp":27.0,"humidity":77,"rain":0.0,"pressure":982.4,"uv_index":8.8,"wind_gusts":38.9,"aqi":86,"pm10":24.0,"pm2_5":22.1,"mosquito_risk":7,"arthritis_risk":5,"migraine_risk":7,"frizz_risk":1,"updated_at":"2026-04-28T01:39:57.641904+05:30"},{"city":"Erode","state":"Tamil Nadu","latitude":11.341,"longitude":77.7172,"temp":29.5,"humidity":64,"rain":0.0,"pressure":986.8,"uv_index":8.4,"wind_gusts":50.0,"aqi":66,"pm10":18.2,"pm2_5":17.3,"mosquito_risk":7,"arthritis_risk":5,"migraine_risk":7,"frizz_risk":1,"updated_at":"2026-04-28T01:39:57.641911+05:30"},{"city":"Kochi","state":"Kerala","latitude":9.9312,"longitude":76.2673,"temp":26.8,"humidity":89,"rain":0.0,"pressure":1007.4,"uv_index":7.1,"wind_gusts":36.4,"aqi":77,"pm10":24.9,"pm2_5":21.6,"mosquito_risk":7,"arthritis_risk":5,"migraine_risk":4,"frizz_risk":1,"updated_at":"2026-04-28T01:39:57.641919+05:30"},{"city":"Thiruvananthapuram","state":"Kerala","latitude":8.5241,"longitude":76.9366,"temp":24.9,"humidity":98,"rain":0.0,"pressure":1007.2,"uv_index":8.15,"wind_gusts":36.4,"aqi":56,"pm10":17.1,"pm2_5":13.9,"mosquito_risk":3,"arthritis_risk":5,"migraine_risk":4,"frizz_risk":1,"updated_at":"2026-04-28T01:39:57.641926+05:30"},{"city":"Kozhikode","state":"Kerala","latitude":11.2588,"longitude":75.7804,"temp":26.7,"humidity":93,"rain":0.0,"pressure":1005.8,"uv_index":7.5,"wind_gusts":36.0,"aqi":62,"pm10":29.3,"pm2_5":22.2,"mosquito_risk":7,"arthritis_risk":5,"migraine_risk":4,"frizz_risk":1,"updated_at":"2026-04-28T01:39:57.641933+05:30"},{"city":"Thrissur","state":"Kerala","latitude":10.5276,"longitude":76.2144,"temp":25.1,"humidity":99,"rain":0.1,"pressure":1005.9,"uv_index":7.9,"wind_gusts":36.7,"aqi":71,"pm10":23.2,"pm2_5":20.9,"mosquito_risk":10,"arthritis_risk":5,"migraine_risk":4,"frizz_risk":1,"updated_at":"2026-04-28T01:39:57.641941+05:30"},{"city":"Kannur","state":"Kerala","latitude":11.8745,"longitude":75.3704,"temp":29.0,"humidity":81,"rain":0.0,"pressure":1005.0,"uv_index":7.7,"wind_gusts":37.8,"aqi":76,"pm10":36.2,"pm2_5":32.1,"mosquito_risk":7,"arthritis_risk":5,"migraine_risk":4,"frizz_risk":1,"updated_at":"2026-04-28T01:39:57.641949+05:30"},{"city":"Patna","state":"Bihar","latitude":25.5941,"longitude":85.1376,"temp":23.2,"humidity":86,"rain":0.0,"pressure":996.1,"uv_index":8.6,"wind_gusts":33.8,"aqi":128,"pm10":46.4,"pm2_5":37.0,"mosquito_risk":3,"arthritis_risk":5,"migraine_risk":7,"frizz_risk":1,"updated_at":"2026-04-28T01:39:57.641956+05:30"},{"city":"Gaya","state":"Bihar","latitude":24.7914,"longitude":85.0002,"temp":25.4,"humidity":81,"rain":0.0,"pressure":988.6,"uv_index":8.7,"wind_gusts":35.3,"aqi":133,"pm10":50.8,"pm2_5":43.5,"mosquito_risk":7,"arthritis_risk":5,"migraine_risk":7,"frizz_risk":1,"updated_at":"2026-04-28T01:39:57.641963+05:30"},{"city":"Muzaffarpur","state":"Bihar","latitude":26.1209,"longitude":85.3647,"temp":22.8,"humidity":85,"rain":0.0,"pressure":996.6,"uv_index":8.1,"wind_gusts":36.7,"aqi":132,"pm10":40.0,"pm2_5":33.9,"mosquito_risk":3,"arthritis_risk":5,"migraine_risk":7,"frizz_risk":1,"updated_at":"2026-04-28T01:39:57.641969+05:30"},{"city":"Bhagalpur","state":"Bihar","latitude":25.2425,"longitude":87.0117,"temp":22.4,"humidity":90,"rain":0.0,"pressure":997.3,"uv_index":8.6,"wind_gusts":31.7,"aqi":102,"pm10":27.2,"pm2_5":24.7,"mosquito_risk":3,"arthritis_risk":5,"migraine_risk":7,"frizz_risk":1,"updated_at":"2026-04-28T01:39:57.641976+05:30"},{"city":"Ranchi","state":"Jharkhand","latitude":23.3441,"longitude":85.3096,"temp":24.5,"humidity":64,"rain":0.0,"pressure":931.6,"uv_index":8.95,"wind_gusts":47.2,"aqi":86,"pm10":39.8,"pm2_5":23.9,"mosquito_risk":3,"arthritis_risk":5,"migraine_risk":7,"frizz_risk":1,"updated_at":"2026-04-28T01:39:57.641983+05:30"},{"city":"Jamshedpur","state":"Jharkhand","latitude":22.8046,"longitude":86.2029,"temp":29.0,"humidity":64,"rain":0.0,"pressure":984.4,"uv_index":8.85,"wind_gusts":55.4,"aqi":97,"pm10":53.2,"pm2_5":40.7,"mosquito_risk":7,"arthritis_risk":5,"migraine_risk":7,"frizz_risk":1,"updated_at":"2026-04-28T01:39:57.641989+05:30"},{"city":"Dhanbad","state":"Jharkhand","latitude":23.7957,"longitude":86.4304,"temp":25.2,"humidity":83,"rain":0.0,"pressure":974.5,"uv_index":8.95,"wind_gusts":37.8,"aqi":140,"pm10":88.2,"pm2_5":78.5,"mosquito_risk":7,"arthritis_risk":5,"migraine_risk":7,"frizz_risk":1,"updated_at":"2026-04-28T01:39:57.641996+05:30"},{"city":"Bokaro","state":"Jharkhand","latitude":23.6693,"longitude":86.1511,"temp":26.2,"humidity":84,"rain":0.0,"pressure":978.1,"uv_index":8.95,"wind_gusts":36.4,"aqi":138,"pm10":88.7,"pm2_5":76.1,"mosquito_risk":7,"arthritis_risk":5,"migraine_risk":7,"frizz_risk":1,"updated_at":"2026-04-28T01:39:57.642003+05:30"},{"city":"Bhubaneswar","state":"Odisha","latitude":20.2961,"longitude":85.8245,"temp":27.6,"humidity":84,"rain":0.0,"pressure":997.1,"uv_index":9.1,"wind_gusts":48.6,"aqi":53,"pm10":16.9,"pm2_5":13.8,"mosquito_risk":7,"arthritis_risk":5,"migraine_risk":7,"frizz_risk":1,"updated_at":"2026-04-28T01:39:57.642010+05:30"},{"city":"Cuttack","state":"Odisha","latitude":20.4625,"longitude":85.8828,"temp":27.8,"humidity":84,"rain":0.0,"pressure":998.7,"uv_index":9.15,"wind_gusts":42.8,"aqi":53,"pm10":16.9,"pm2_5":13.8,"mosquito_risk":7,"arthritis_risk":5,"migraine_risk":7,"frizz_risk":1,"updated_at":"2026-04-28T01:39:57.642017+05:30"},{"city":"Rourkela","state":"Odisha","latitude":22.2604,"longitude":84.8536,"temp":28.4,"humidity":73,"rain":0.0,"pressure":978.9,"uv_index":8.9,"wind_gusts":64.1,"aqi":97,"pm10":52.9,"pm2_5":33.9,"mosquito_risk":7,"arthritis_risk":5,"migraine_risk":7,"frizz_risk":1,"updated_at":"2026-04-28T01:39:57.642024+05:30"},{"city":"Raipur","state":"Chhattisgarh","latitude":21.2514,"longitude":81.6296,"temp":30.9,"humidity":34,"rain":0.0,"pressure":968.9,"uv_index":8.9,"wind_gusts":46.8,"aqi":102,"pm10":61.5,"pm2_5":44.1,"mosquito_risk":0,"arthritis_risk":5,"migraine_risk":7,"frizz_risk":0,"updated_at":"2026-04-28T01:39:57.642031+05:30"},{"city":"Bhilai","state":"Chhattisgarh","latitude":21.1938,"longitude":81.3509,"temp":31.2,"humidity":36,"rain":0.0,"pressure":969.3,"uv_index":8.95,"wind_gusts":46.1,"aqi":92,"pm10":51.3,"pm2_5":33.8,"mosquito_risk":0,"arthritis_risk":5,"migraine_risk":7,"frizz_risk":0,"updated_at":"2026-04-28T01:39:57.642037+05:30"},{"city":"Guwahati","state":"Assam","latitude":26.1158,"longitude":91.7086,"temp":20.5,"humidity":89,"rain":0.0,"pressure":999.1,"uv_index":7.9,"wind_gusts":32.8,"aqi":98,"pm10":40.3,"pm2_5":32.0,"mosquito_risk":3,"arthritis_risk":5,"migraine_risk":7,"frizz_risk":1,"updated_at":"2026-04-28T01:39:57.642044+05:30"},{"city":"Agartala","state":"Tripura","latitude":23.8315,"longitude":91.2868,"temp":26.0,"humidity":85,"rain":0.0,"pressure":1001.8,"uv_index":7.1,"wind_gusts":44.6,"aqi":69,"pm10":16.9,"pm2_5":14.1,"mosquito_risk":7,"arthritis_risk":5,"migraine_risk":4,"frizz_risk":1,"updated_at":"2026-04-28T01:39:57.642051+05:30"},{"city":"Shillong","state":"Meghalaya","latitude":25.5788,"longitude":91.8933,"temp":15.4,"humidity":100,"rain":0.0,"pressure":852.8,"uv_index":8.7,"wind_gusts":28.4,"aqi":68,"pm10":9.8,"pm2_5":4.5,"mosquito_risk":3,"arthritis_risk":10,"migraine_risk":7,"frizz_risk":0,"updated_at":"2026-04-28T01:39:57.642058+05:30"},{"city":"Imphal","state":"Manipur","latitude":24.817,"longitude":93.9368,"temp":17.9,"humidity":98,"rain":0.0,"pressure":919.6,"uv_index":8.9,"wind_gusts":20.9,"aqi":125,"pm10":29.9,"pm2_5":22.7,"mosquito_risk":3,"arthritis_risk":10,"migraine_risk":7,"frizz_risk":1,"updated_at":"2026-04-28T01:39:57.642065+05:30"},{"city":"Aizawl","state":"Mizoram","latitude":23.7271,"longitude":92.7176,"temp":18.1,"humidity":85,"rain":0.0,"pressure":888.7,"uv_index":7.75,"wind_gusts":74.5,"aqi":73,"pm10":26.3,"pm2_5":15.4,"mosquito_risk":3,"arthritis_risk":10,"migraine_risk":7,"frizz_risk":0,"updated_at":"2026-04-28T01:39:57.642071+05:30"},{"city":"Kohima","state":"Nagaland","latitude":25.6701,"longitude":94.1077,"temp":15.8,"humidity":98,"rain":0.2,"pressure":851.3,"uv_index":6.65,"wind_gusts":29.9,"aqi":107,"pm10":7.7,"pm2_5":4.7,"mosquito_risk":6,"arthritis_risk":10,"migraine_risk":7,"frizz_risk":0,"updated_at":"2026-04-28T01:39:57.642078+05:30"},{"city":"Gangtok","state":"Sikkim","latitude":27.3314,"longitude":88.6138,"temp":12.2,"humidity":96,"rain":0.0,"pressure":832.1,"uv_index":8.2,"wind_gusts":42.5,"aqi":71,"pm10":43.3,"pm2_5":34.0,"mosquito_risk":3,"arthritis_risk":10,"migraine_risk":7,"frizz_risk":0,"updated_at":"2026-04-28T01:39:57.642085+05:30"},{"city":"Siliguri","state":"West Bengal","latitude":26.7271,"longitude":88.3953,"temp":21.8,"humidity":82,"rain":0.0,"pressure":990.3,"uv_index":7.6,"wind_gusts":28.4,"aqi":94,"pm10":26.1,"pm2_5":22.9,"mosquito_risk":3,"arthritis_risk":5,"migraine_risk":7,"frizz_risk":1,"updated_at":"2026-04-28T01:40:20.835158+05:30"},{"city":"Durgapur","state":"West Bengal","latitude":23.5204,"longitude":87.3119,"temp":25.5,"humidity":91,"rain":0.0,"pressure":989.0,"uv_index":8.85,"wind_gusts":37.1,"aqi":118,"pm10":49.7,"pm2_5":46.7,"mosquito_risk":7,"arthritis_risk":5,"migraine_risk":7,"frizz_risk":1,"updated_at":"2026-04-28T01:40:20.835189+05:30"},{"city":"Asansol","state":"West Bengal","latitude":23.6739,"longitude":86.9524,"temp":24.9,"humidity":87,"rain":0.0,"pressure":987.8,"uv_index":8.9,"wind_gusts":32.8,"aqi":115,"pm10":55.1,"pm2_5":51.9,"mosquito_risk":3,"arthritis_risk":5,"migraine_risk":7,"frizz_risk":1,"updated_at":"2026-04-28T01:40:20.835200+05:30"},{"city":"Pondicherry","state":"Puducherry","latitude":11.9139,"longitude":79.8145,"temp":29.0,"humidity":82,"rain":0.0,"pressure":1006.3,"uv_index":8.8,"wind_gusts":46.8,"aqi":51,"pm10":12.0,"pm2_5":8.1,"mosquito_risk":7,"arthritis_risk":5,"migraine_risk":4,"frizz_risk":1,"updated_at":"2026-04-28T01:40:20.835208+05:30"},{"city":"Port Blair","state":"Andaman and Nicobar Islands","latitude":11.6234,"longitude":92.7265,"temp":27.7,"humidity":85,"rain":0.0,"pressure":1005.1,"uv_index":9.05,"wind_gusts":27.0,"aqi":39,"pm10":9.7,"pm2_5":7.2,"mosquito_risk":7,"arthritis_risk":5,"migraine_risk":4,"frizz_risk":1,"updated_at":"2026-04-28T01:40:20.835215+05:30"},{"city":"Haridwar","state":"Uttarakhand","latitude":29.9457,"longitude":78.1642,"temp":24.4,"humidity":45,"rain":0.0,"pressure":967.9,"uv_index":6.6,"wind_gusts":28.1,"aqi":58,"pm10":19.3,"pm2_5":16.1,"mosquito_risk":0,"arthritis_risk":5,"migraine_risk":7,"frizz_risk":0,"updated_at":"2026-04-28T01:40:20.835223+05:30"},{"city":"Rishikesh","state":"Uttarakhand","latitude":30.0869,"longitude":78.2676,"temp":20.5,"humidity":54,"rain":0.0,"pressure":960.6,"uv_index":6.3,"wind_gusts":29.5,"aqi":82,"pm10":34.5,"pm2_5":17.2,"mosquito_risk":0,"arthritis_risk":5,"migraine_risk":7,"frizz_risk":0,"updated_at":"2026-04-28T01:40:20.835230+05:30"},{"city":"Nainital","state":"Uttarakhand","latitude":29.3919,"longitude":79.4542,"temp":16.7,"humidity":32,"rain":0.0,"pressure":802.0,"uv_index":7.45,"wind_gusts":54.4,"aqi":96,"pm10":54.4,"pm2_5":16.7,"mosquito_risk":0,"arthritis_risk":5,"migraine_risk":7,"frizz_risk":1,"updated_at":"2026-04-28T01:40:20.835237+05:30"},{"city":"Mussoorie","state":"Uttarakhand","latitude":30.4599,"longitude":78.0664,"temp":17.7,"humidity":31,"rain":0.0,"pressure":799.7,"uv_index":5.25,"wind_gusts":51.8,"aqi":66,"pm10":20.8,"pm2_5":18.6,"mosquito_risk":0,"arthritis_risk":5,"migraine_risk":3,"frizz_risk":0,"updated_at":"2026-04-28T01:40:20.835244+05:30"},{"city":"Dharamshala","state":"Himachal Pradesh","latitude":32.219,"longitude":76.3234,"temp":23.3,"humidity":28,"rain":0.0,"pressure":865.9,"uv_index":7.5,"wind_gusts":53.3,"aqi":58,"pm10":13.2,"pm2_5":10.5,"mosquito_risk":0,"arthritis_risk":5,"migraine_risk":7,"frizz_risk":0,"updated_at":"2026-04-28T01:40:20.835251+05:30"},{"city":"Dalhousie","state":"Himachal Pradesh","latitude":32.5387,"longitude":75.971,"temp":11.1,"humidity":62,"rain":0.0,"pressure":797.6,"uv_index":6.15,"wind_gusts":36.7,"aqi":46,"pm10":15.5,"pm2_5":14.7,"mosquito_risk":3,"arthritis_risk":5,"migraine_risk":7,"frizz_risk":0,"updated_at":"2026-04-28T01:40:20.835259+05:30"},{"city":"Patiala","state":"Punjab","latitude":30.3398,"longitude":76.3869,"temp":30.5,"humidity":30,"rain":0.0,"pressure":972.5,"uv_index":6.15,"wind_gusts":49.3,"aqi":353,"pm10":597.9,"pm2_5":84.1,"mosquito_risk":0,"arthritis_risk":5,"migraine_risk":7,"frizz_risk":0,"updated_at":"2026-04-28T01:40:20.835267+05:30"},{"city":"Bhatinda","state":"Punjab","latitude":30.211,"longitude":74.9455,"temp":29.1,"humidity":36,"rain":0.0,"pressure":977.4,"uv_index":7.45,"wind_gusts":44.6,"aqi":69,"pm10":71.2,"pm2_5":29.7,"mosquito_risk":4,"arthritis_risk":5,"migraine_risk":7,"frizz_risk":0,"updated_at":"2026-04-28T01:40:20.835274+05:30"},{"city":"Rohtak","state":"Haryana","latitude":28.8955,"longitude":76.6066,"temp":28.5,"humidity":43,"rain":0.0,"pressure":975.5,"uv_index":7.25,"wind_gusts":53.3,"aqi":563,"pm10":1188.4,"pm2_5":172.3,"mosquito_risk":4,"arthritis_risk":5,"migraine_risk":7,"frizz_risk":0,"updated_at":"2026-04-28T01:40:20.835281+05:30"},{"city":"Panipat","state":"Haryana","latitude":29.3909,"longitude":76.9635,"temp":30.3,"humidity":33,"rain":0.0,"pressure":974.5,"uv_index":6.95,"wind_gusts":56.2,"aqi":1121,"pm10":2019.1,"pm2_5":251.5,"mosquito_risk":0,"arthritis_risk":5,"migraine_risk":7,"frizz_risk":0,"updated_at":"2026-04-28T01:40:20.835288+05:30"},{"city":"Mathura","state":"Uttar Pradesh","latitude":27.4924,"longitude":77.6737,"temp":34.5,"humidity":20,"rain":0.0,"pressure":980.3,"uv_index":7.75,"wind_gusts":63.7,"aqi":659,"pm10":461.9,"pm2_5":83.6,"mosquito_risk":0,"arthritis_risk":5,"migraine_risk":7,"frizz_risk":0,"updated_at":"2026-04-28T01:40:20.835295+05:30"},{"city":"Vrindavan","state":"Uttar Pradesh","latitude":27.5823,"longitude":77.7027,"temp":33.8,"humidity":22,"rain":0.0,"pressure":980.7,"uv_index":7.75,"wind_gusts":67.3,"aqi":659,"pm10":461.9,"pm2_5":83.6,"mosquito_risk":0,"arthritis_risk":5,"migraine_risk":7,"frizz_risk":0,"updated_at":"2026-04-28T01:40:20.835302+05:30"},{"city":"Ayodhya","state":"Uttar Pradesh","latitude":26.7922,"longitude":82.1998,"temp":27.1,"humidity":64,"rain":0.0,"pressure":990.1,"uv_index":8.1,"wind_gusts":52.2,"aqi":138,"pm10":94.3,"pm2_5":65.2,"mosquito_risk":7,"arthritis_risk":5,"migraine_risk":7,"frizz_risk":1,"updated_at":"2026-04-28T01:40:20.835309+05:30"},{"city":"Ratlam","state":"Madhya Pradesh","latitude":23.3315,"longitude":75.0367,"temp":29.7,"humidity":24,"rain":0.0,"pressure":951.6,"uv_index":8.45,"wind_gusts":51.1,"aqi":71,"pm10":23.3,"pm2_5":17.7,"mosquito_risk":4,"arthritis_risk":5,"migraine_risk":7,"frizz_risk":0,"updated_at":"2026-04-28T01:40:20.835315+05:30"},{"city":"Sagar","state":"Madhya Pradesh","latitude":23.8388,"longitude":78.7378,"temp":28.5,"humidity":33,"rain":0.0,"pressure":945.4,"uv_index":8.6,"wind_gusts":45.4,"aqi":53,"pm10":15.0,"pm2_5":10.7,"mosquito_risk":4,"arthritis_risk":5,"migraine_risk":7,"frizz_risk":0,"updated_at":"2026-04-28T01:40:20.835321+05:30"},{"city":"Satna","state":"Madhya Pradesh","latitude":24.6005,"longitude":80.8322,"temp":30.5,"humidity":31,"rain":0.0,"pressure":964.6,"uv_index":8.2,"wind_gusts":46.8,"aqi":58,"pm10":20.7,"pm2_5":12.0,"mosquito_risk":0,"arthritis_risk":5,"migraine_risk":7,"frizz_risk":0,"updated_at":"2026-04-28T01:40:20.835328+05:30"},{"city":"Akola","state":"Maharashtra","latitude":20.7002,"longitude":77.0082,"temp":32.2,"humidity":21,"rain":0.0,"pressure":970.6,"uv_index":8.4,"wind_gusts":42.8,"aqi":83,"pm10":23.7,"pm2_5":20.1,"mosquito_risk":0,"arthritis_risk":5,"migraine_risk":7,"frizz_risk":0,"updated_at":"2026-04-28T01:40:20.835335+05:30"},{"city":"Amravati","state":"Maharashtra","latitude":20.9374,"longitude":77.7796,"temp":33.7,"humidity":18,"rain":0.0,"pressure":962.9,"uv_index":8.2,"wind_gusts":46.8,"aqi":78,"pm10":23.6,"pm2_5":20.1,"mosquito_risk":0,"arthritis_risk":5,"migraine_risk":7,"frizz_risk":0,"updated_at":"2026-04-28T01:40:20.835343+05:30"},{"city":"Latur","state":"Maharashtra","latitude":18.4088,"longitude":76.5604,"temp":30.9,"humidity":32,"rain":0.0,"pressure":936.4,"uv_index":9.1,"wind_gusts":36.4,"aqi":82,"pm10":36.8,"pm2_5":26.8,"mosquito_risk":0,"arthritis_risk":5,"migraine_risk":7,"frizz_risk":0,"updated_at":"2026-04-28T01:40:20.835349+05:30"},{"city":"Nanded","state":"Maharashtra","latitude":19.1383,"longitude":77.3091,"temp":30.6,"humidity":28,"rain":0.0,"pressure":964.2,"uv_index":8.95,"wind_gusts":31.0,"aqi":76,"pm10":29.3,"pm2_5":24.8,"mosquito_risk":0,"arthritis_risk":5,"migraine_risk":7,"frizz_risk":0,"updated_at":"2026-04-28T01:40:20.835356+05:30"},{"city":"Gulbarga","state":"Karnataka","latitude":17.3297,"longitude":76.8343,"temp":31.2,"humidity":35,"rain":0.0,"pressure":955.1,"uv_index":9.0,"wind_gusts":35.6,"aqi":87,"pm10":38.2,"pm2_5":34.7,"mosquito_risk":0,"arthritis_risk":5,"migraine_risk":7,"frizz_risk":0,"updated_at":"2026-04-28T01:40:20.835362+05:30"},{"city":"Bidar","state":"Karnataka","latitude":17.9104,"longitude":77.5199,"temp":29.1,"humidity":40,"rain":0.0,"pressure":931.6,"uv_index":8.1,"wind_gusts":34.6,"aqi":87,"pm10":44.2,"pm2_5":38.3,"mosquito_risk":4,"arthritis_risk":5,"migraine_risk":7,"frizz_risk":0,"updated_at":"2026-04-28T01:40:20.835369+05:30"},{"city":"Hospet","state":"Karnataka","latitude":15.2689,"longitude":76.3909,"temp":28.1,"humidity":71,"rain":0.0,"pressure":953.0,"uv_index":9.25,"wind_gusts":34.2,"aqi":93,"pm10":29.1,"pm2_5":26.9,"mosquito_risk":7,"arthritis_risk":5,"migraine_risk":7,"frizz_risk":1,"updated_at":"2026-04-28T01:40:20.835375+05:30"},{"city":"Tirupur","state":"Tamil Nadu","latitude":11.1085,"longitude":77.3411,"temp":27.2,"humidity":84,"rain":0.0,"pressure":973.0,"uv_index":8.3,"wind_gusts":33.8,"aqi":74,"pm10":23.9,"pm2_5":22.3,"mosquito_risk":7,"arthritis_risk":5,"migraine_risk":7,"frizz_risk":1,"updated_at":"2026-04-28T01:40:20.835382+05:30"},{"city":"Alappuzha","state":"Kerala","latitude":9.4981,"longitude":76.3388,"temp":26.1,"humidity":95,"rain":0.0,"pressure":1007.4,"uv_index":7.5,"wind_gusts":36.0,"aqi":73,"pm10":26.8,"pm2_5":22.6,"mosquito_risk":7,"arthritis_risk":5,"migraine_risk":4,"frizz_risk":1,"updated_at":"2026-04-28T01:40:20.835389+05:30"},{"city":"Munnar","state":"Kerala","latitude":10.0889,"longitude":77.0595,"temp":18.3,"humidity":77,"rain":0.0,"pressure":855.6,"uv_index":8.65,"wind_gusts":26.6,"aqi":72,"pm10":23.0,"pm2_5":21.8,"mosquito_risk":3,"arthritis_risk":5,"migraine_risk":7,"frizz_risk":0,"updated_at":"2026-04-28T01:40:20.835396+05:30"},{"city":"Silchar","state":"Assam","latitude":24.8333,"longitude":92.7789,"temp":21.5,"humidity":95,"rain":0.1,"pressure":1001.8,"uv_index":7.95,"wind_gusts":34.2,"aqi":141,"pm10":15.4,"pm2_5":10.9,"mosquito_risk":6,"arthritis_risk":5,"migraine_risk":4,"frizz_risk":1,"updated_at":"2026-04-28T01:40:20.835402+05:30"},{"city":"Dibrugarh","state":"Assam","latitude":27.4728,"longitude":94.912,"temp":20.9,"humidity":95,"rain":0.0,"pressure":993.8,"uv_index":8.25,"wind_gusts":18.0,"aqi":99,"pm10":39.2,"pm2_5":32.2,"mosquito_risk":3,"arthritis_risk":5,"migraine_risk":7,"frizz_risk":1,"updated_at":"2026-04-28T01:40:20.835409+05:30"}]