[{"city":"Delhi","state":"Delhi","latitude":28.6139,"longitude":77.209,"temp":37.4,"humidity":25,"rain":0.0,"pressure":978.9,"uv_index":7.75,"wind_gusts":43.6,"aqi":293,"pm10":895.9,"pm2_5":160.2,"no2":11.7,"co":361.0,"o3":94.0,"so2":12.1,"mosquito_risk":0,"arthritis_risk":5,"migraine_risk":10,"frizz_risk":0,"updated_at":"2026-05-21T09:31:51.539460+05:30"},{"city":"Mumbai","state":"Maharashtra","latitude":19.076,"longitude":72.8777,"temp":32.2,"humidity":60,"rain":0.0,"pressure":1008.2,"uv_index":6.2,"wind_gusts":40.7,"aqi":55,"pm10":22.2,"pm2_5":13.6,"no2":8.1,"co":240.0,"o3":66.0,"so2":8.3,"mosquito_risk":0,"arthritis_risk":0,"migraine_risk":4,"frizz_risk":1,"updated_at":"2026-05-21T09:31:51.539494+05:30"},{"city":"Bangalore","state":"Karnataka","latitude":12.9716,"longitude":77.5946,"temp":26.5,"humidity":72,"rain":0.0,"pressure":912.8,"uv_index":9.35,"wind_gusts":38.2,"aqi":40,"pm10":8.6,"pm2_5":7.5,"no2":8.4,"co":497.0,"o3":73.0,"so2":4.9,"mosquito_risk":7,"arthritis_risk":5,"migraine_risk":7,"frizz_risk":1,"updated_at":"2026-05-21T09:31:51.539509+05:30"},{"city":"Hyderabad","state":"Telangana","latitude":17.385,"longitude":78.4867,"temp":34.8,"humidity":39,"rain":0.0,"pressure":952.8,"uv_index":8.6,"wind_gusts":34.2,"aqi":95,"pm10":37.7,"pm2_5":27.8,"no2":6.1,"co":338.0,"o3":110.0,"so2":8.7,"mosquito_risk":0,"arthritis_risk":5,"migraine_risk":7,"frizz_risk":1,"updated_at":"2026-05-21T09:31:51.539518+05:30"},{"city":"Chennai","state":"Tamil Nadu","latitude":13.0827,"longitude":80.2707,"temp":36.2,"humidity":45,"rain":0.0,"pressure":1004.5,"uv_index":8.65,"wind_gusts":44.3,"aqi":63,"pm10":18.9,"pm2_5":16.2,"no2":12.5,"co":345.0,"o3":104.0,"so2":9.8,"mosquito_risk":0,"arthritis_risk":5,"migraine_risk":7,"frizz_risk":1,"updated_at":"2026-05-21T09:31:51.539527+05:30"},{"city":"Kolkata","state":"West Bengal","latitude":22.5726,"longitude":88.3639,"temp":33.3,"humidity":70,"rain":0.0,"pressure":1002.7,"uv_index":8.95,"wind_gusts":29.9,"aqi":109,"pm10":73.3,"pm2_5":41.9,"no2":3.1,"co":463.0,"o3":127.0,"so2":8.9,"mosquito_risk":3,"arthritis_risk":5,"migraine_risk":4,"frizz_risk":1,"updated_at":"2026-05-21T09:31:51.539534+05:30"},{"city":"Pune","state":"Maharashtra","latitude":18.5204,"longitude":73.8567,"temp":30.1,"humidity":55,"rain":0.0,"pressure":948.6,"uv_index":7.7,"wind_gusts":57.6,"aqi":58,"pm10":22.4,"pm2_5":13.6,"no2":5.6,"co":180.0,"o3":73.0,"so2":9.1,"mosquito_risk":0,"arthritis_risk":5,"migraine_risk":7,"frizz_risk":1,"updated_at":"2026-05-21T09:31:51.539541+05:30"},{"city":"Ahmedabad","state":"Gujarat","latitude":23.0225,"longitude":72.5714,"temp":32.5,"humidity":53,"rain":0.0,"pressure":1001.8,"uv_index":8.15,"wind_gusts":32.4,"aqi":69,"pm10":64.7,"pm2_5":23.6,"no2":3.9,"co":188.0,"o3":75.0,"so2":4.4,"mosquito_risk":0,"arthritis_risk":5,"migraine_risk":4,"frizz_risk":1,"updated_at":"2026-05-21T09:31:51.539547+05:30"},{"city":"Jaipur","state":"Rajasthan","latitude":26.9124,"longitude":75.7873,"temp":35.8,"humidity":17,"rain":0.0,"pressure":958.2,"uv_index":8.25,"wind_gusts":46.4,"aqi":166,"pm10":476.8,"pm2_5":88.7,"no2":2.8,"co":173.0,"o3":91.0,"so2":4.9,"mosquito_risk":0,"arthritis_risk":5,"migraine_risk":10,"frizz_risk":0,"updated_at":"2026-05-21T09:31:51.539554+05:30"},{"city":"Lucknow","state":"Uttar Pradesh","latitude":26.8467,"longitude":80.9462,"temp":38.2,"humidity":24,"rain":0.0,"pressure":989.6,"uv_index":8.25,"wind_gusts":33.1,"aqi":156,"pm10":265.4,"pm2_5":76.6,"no2":10.4,"co":255.0,"o3":151.0,"so2":14.2,"mosquito_risk":0,"arthritis_risk":5,"migraine_risk":10,"frizz_risk":0,"updated_at":"2026-05-21T09:31:51.539561+05:30"},{"city":"Kanpur","state":"Uttar Pradesh","latitude":26.4499,"longitude":80.3319,"temp":38.0,"humidity":24,"rain":0.0,"pressure":988.2,"uv_index":8.25,"wind_gusts":38.9,"aqi":195,"pm10":370.7,"pm2_5":70.1,"no2":5.2,"co":176.0,"o3":116.0,"so2":6.4,"mosquito_risk":0,"arthritis_risk":5,"migraine_risk":10,"frizz_risk":0,"updated_at":"2026-05-21T09:31:51.539572+05:30"},{"city":"Chandigarh","state":"Chandigarh","latitude":30.7333,"longitude":76.7794,"temp":37.2,"humidity":21,"rain":0.0,"pressure":964.7,"uv_index":7.75,"wind_gusts":33.5,"aqi":97,"pm10":88.9,"pm2_5":37.6,"no2":9.0,"co":625.0,"o3":172.0,"so2":18.7,"mosquito_risk":0,"arthritis_risk":5,"migraine_risk":10,"frizz_risk":0,"updated_at":"2026-05-21T09:31:51.539579+05:30"},{"city":"Srinagar","state":"Jammu and Kashmir","latitude":34.0837,"longitude":74.7973,"temp":15.9,"humidity":89,"rain":0.1,"pressure":845.3,"uv_index":8.9,"wind_gusts":32.4,"aqi":74,"pm10":46.9,"pm2_5":20.5,"no2":8.5,"co":330.0,"o3":99.0,"so2":4.2,"mosquito_risk":6,"arthritis_risk":10,"migraine_risk":7,"frizz_risk":0,"updated_at":"2026-05-21T09:31:51.539586+05:30"},{"city":"Jammu","state":"Jammu and Kashmir","latitude":32.7266,"longitude":74.857,"temp":29.8,"humidity":40,"rain":0.1,"pressure":969.1,"uv_index":8.55,"wind_gusts":44.6,"aqi":85,"pm10":40.9,"pm2_5":21.5,"no2":11.7,"co":258.0,"o3":89.0,"so2":3.7,"mosquito_risk":7,"arthritis_risk":5,"migraine_risk":7,"frizz_risk":0,"updated_at":"2026-05-21T09:31:51.539593+05:30"},{"city":"Amritsar","state":"Punjab","latitude":31.634,"longitude":74.8723,"temp":35.0,"humidity":25,"rain":0.0,"pressure":976.9,"uv_index":8.4,"wind_gusts":49.0,"aqi":96,"pm10":57.4,"pm2_5":31.4,"no2":13.9,"co":369.0,"o3":105.0,"so2":7.3,"mosquito_risk":0,"arthritis_risk":5,"migraine_risk":7,"frizz_risk":0,"updated_at":"2026-05-21T09:31:51.539600+05:30"},{"city":"Ludhiana","state":"Punjab","latitude":30.901,"longitude":75.8573,"temp":34.5,"humidity":29,"rain":0.0,"pressure":974.4,"uv_index":8.05,"wind_gusts":34.2,"aqi":143,"pm10":109.9,"pm2_5":50.9,"no2":13.6,"co":580.0,"o3":138.0,"so2":17.9,"mosquito_risk":0,"arthritis_risk":5,"migraine_risk":7,"frizz_risk":0,"updated_at":"2026-05-21T09:31:51.539609+05:30"},{"city":"Jalandhar","state":"Punjab","latitude":31.326,"longitude":75.5762,"temp":34.5,"humidity":29,"rain":0.0,"pressure":975.9,"uv_index":8.2,"wind_gusts":38.5,"aqi":104,"pm10":111.1,"pm2_5":45.4,"no2":11.9,"co":747.0,"o3":141.0,"so2":10.4,"mosquito_risk":0,"arthritis_risk":5,"migraine_risk":7,"frizz_risk":0,"updated_at":"2026-05-21T09:31:51.539631+05:30"},{"city":"Dehradun","state":"Uttarakhand","latitude":30.6284,"longitude":78.0322,"temp":27.2,"humidity":27,"rain":0.0,"pressure":832.7,"uv_index":8.15,"wind_gusts":44.6,"aqi":69,"pm10":56.7,"pm2_5":20.0,"no2":0.8,"co":169.0,"o3":154.0,"so2":6.0,"mosquito_risk":4,"arthritis_risk":5,"migraine_risk":7,"frizz_risk":0,"updated_at":"2026-05-21T09:31:51.539637+05:30"},{"city":"Shimla","state":"Himachal Pradesh","latitude":31.1048,"longitude":77.1734,"temp":25.5,"humidity":19,"rain":0.0,"pressure":788.4,"uv_index":8.3,"wind_gusts":47.9,"aqi":69,"pm10":59.0,"pm2_5":19.0,"no2":0.9,"co":181.0,"o3":154.0,"so2":4.8,"mosquito_risk":4,"arthritis_risk":5,"migraine_risk":7,"frizz_risk":0,"updated_at":"2026-05-21T09:31:51.539643+05:30"},{"city":"Manali","state":"Himachal Pradesh","latitude":32.2396,"longitude":77.1887,"temp":25.2,"humidity":27,"rain":0.0,"pressure":821.8,"uv_index":9.65,"wind_gusts":42.8,"aqi":54,"pm10":18.8,"pm2_5":5.9,"no2":7.3,"co":160.0,"o3":121.0,"so2":0.4,"mosquito_risk":4,"arthritis_risk":5,"migraine_risk":7,"frizz_risk":0,"updated_at":"2026-05-21T09:31:51.539650+05:30"},{"city":"Gurgaon","state":"Haryana","latitude":28.4595,"longitude":77.0266,"temp":37.0,"humidity":26,"rain":0.0,"pressure":977.8,"uv_index":7.85,"wind_gusts":47.5,"aqi":1244,"pm10":3248.5,"pm2_5":434.9,"no2":10.6,"co":274.0,"o3":94.0,"so2":10.8,"mosquito_risk":0,"arthritis_risk":5,"migraine_risk":10,"frizz_risk":0,"updated_at":"2026-05-21T09:31:51.539658+05:30"},{"city":"Noida","state":"Uttar Pradesh","latitude":28.5355,"longitude":77.391,"temp":37.5,"humidity":26,"rain":0.0,"pressure":980.1,"uv_index":7.75,"wind_gusts":39.2,"aqi":1244,"pm10":3248.5,"pm2_5":434.9,"no2":10.6,"co":418.0,"o3":94.0,"so2":10.8,"mosquito_risk":0,"arthritis_risk":5,"migraine_risk":10,"frizz_risk":0,"updated_at":"2026-05-21T09:31:51.539664+05:30"},{"city":"Ghaziabad","state":"Uttar Pradesh","latitude":28.6692,"longitude":77.4538,"temp":37.5,"humidity":25,"rain":0.0,"pressure":978.3,"uv_index":7.75,"wind_gusts":40.7,"aqi":283,"pm10":707.8,"pm2_5":131.8,"no2":9.9,"co":298.0,"o3":109.0,"so2":15.8,"mosquito_risk":0,"arthritis_risk":5,"migraine_risk":10,"frizz_risk":0,"updated_at":"2026-05-21T09:31:51.539671+05:30"},{"city":"Faridabad","state":"Haryana","latitude":28.4089,"longitude":77.3178,"temp":37.2,"humidity":26,"rain":0.0,"pressure":979.6,"uv_index":7.8,"wind_gusts":46.8,"aqi":1244,"pm10":3248.5,"pm2_5":434.9,"no2":10.6,"co":304.0,"o3":94.0,"so2":10.8,"mosquito_risk":0,"arthritis_risk":5,"migraine_risk":10,"frizz_risk":0,"updated_at":"2026-05-21T09:31:51.539677+05:30"},{"city":"Meerut","state":"Uttar Pradesh","latitude":28.9845,"longitude":77.7064,"temp":36.1,"humidity":29,"rain":0.0,"pressure":977.2,"uv_index":7.65,"wind_gusts":33.1,"aqi":283,"pm10":707.8,"pm2_5":131.8,"no2":9.9,"co":287.0,"o3":109.0,"so2":15.8,"mosquito_risk":0,"arthritis_risk":5,"migraine_risk":10,"frizz_risk":0,"updated_at":"2026-05-21T09:31:51.539683+05:30"},{"city":"Agra","state":"Uttar Pradesh","latitude":27.1767,"longitude":78.0081,"temp":37.2,"humidity":24,"rain":0.0,"pressure":984.4,"uv_index":8.1,"wind_gusts":43.6,"aqi":759,"pm10":1031.9,"pm2_5":129.0,"no2":5.3,"co":219.0,"o3":100.0,"so2":6.7,"mosquito_risk":0,"arthritis_risk":5,"migraine_risk":10,"frizz_risk":0,"updated_at":"2026-05-21T09:31:51.539689+05:30"},{"city":"Varanasi","state":"Uttar Pradesh","latitude":25.3176,"longitude":82.9739,"temp":39.3,"humidity":37,"rain":0.0,"pressure":993.3,"uv_index":8.75,"wind_gusts":41.8,"aqi":153,"pm10":122.5,"pm2_5":55.4,"no2":12.4,"co":487.0,"o3":153.0,"so2":25.2,"mosquito_risk":0,"arthritis_risk":5,"migraine_risk":10,"frizz_risk":1,"updated_at":"2026-05-21T09:31:51.539696+05:30"},{"city":"Prayagraj","state":"Uttar Pradesh","latitude":25.4358,"longitude":81.8463,"temp":38.8,"humidity":28,"rain":0.0,"pressure":992.0,"uv_index":8.65,"wind_gusts":36.7,"aqi":154,"pm10":139.2,"pm2_5":72.6,"no2":13.1,"co":292.0,"o3":156.0,"so2":19.4,"mosquito_risk":0,"arthritis_risk":5,"migraine_risk":10,"frizz_risk":1,"updated_at":"2026-05-21T09:31:51.539703+05:30"},{"city":"Gorakhpur","state":"Uttar Pradesh","latitude":26.7606,"longitude":83.3732,"temp":34.2,"humidity":58,"rain":0.0,"pressure":994.0,"uv_index":8.65,"wind_gusts":29.2,"aqi":157,"pm10":96.2,"pm2_5":74.0,"no2":6.1,"co":434.0,"o3":163.0,"so2":16.6,"mosquito_risk":0,"arthritis_risk":5,"migraine_risk":7,"frizz_risk":1,"updated_at":"2026-05-21T09:31:51.539709+05:30"},{"city":"Bareilly","state":"Uttar Pradesh","latitude":28.367,"longitude":79.4304,"temp":34.2,"humidity":34,"rain":0.0,"pressure":982.6,"uv_index":8.05,"wind_gusts":23.8,"aqi":157,"pm10":388.4,"pm2_5":106.2,"no2":9.4,"co":369.0,"o3":132.0,"so2":11.4,"mosquito_risk":0,"arthritis_risk":5,"migraine_risk":7,"frizz_risk":1,"updated_at":"2026-05-21T09:31:51.539715+05:30"},{"city":"Aligarh","state":"Uttar Pradesh","latitude":27.8974,"longitude":78.088,"temp":36.5,"humidity":31,"rain":0.0,"pressure":981.6,"uv_index":7.9,"wind_gusts":40.0,"aqi":685,"pm10":1303.9,"pm2_5":207.7,"no2":7.0,"co":220.0,"o3":101.0,"so2":9.6,"mosquito_risk":0,"arthritis_risk":5,"migraine_risk":10,"frizz_risk":1,"updated_at":"2026-05-21T09:31:51.539723+05:30"},{"city":"Moradabad","state":"Uttar Pradesh","latitude":28.8386,"longitude":78.7733,"temp":35.2,"humidity":33,"rain":0.0,"pressure":979.4,"uv_index":7.75,"wind_gusts":25.2,"aqi":170,"pm10":398.6,"pm2_5":124.3,"no2":23.1,"co":507.0,"o3":150.0,"so2":20.9,"mosquito_risk":0,"arthritis_risk":5,"migraine_risk":10,"frizz_risk":1,"updated_at":"2026-05-21T09:31:51.539729+05:30"},{"city":"Saharanpur","state":"Uttar Pradesh","latitude":29.9637,"longitude":77.546,"temp":34.6,"humidity":36,"rain":0.0,"pressure":971.4,"uv_index":7.1,"wind_gusts":29.5,"aqi":160,"pm10":236.1,"pm2_5":85.9,"no2":20.9,"co":519.0,"o3":167.0,"so2":11.6,"mosquito_risk":0,"arthritis_risk":5,"migraine_risk":7,"frizz_risk":1,"updated_at":"2026-05-21T09:31:51.539735+05:30"},{"city":"Jhansi","state":"Uttar Pradesh","latitude":25.4484,"longitude":78.5685,"temp":37.5,"humidity":21,"rain":0.0,"pressure":975.9,"uv_index":8.5,"wind_gusts":45.7,"aqi":51,"pm10":50.3,"pm2_5":20.0,"no2":2.2,"co":164.0,"o3":86.0,"so2":3.5,"mosquito_risk":0,"arthritis_risk":5,"migraine_risk":10,"frizz_risk":0,"updated_at":"2026-05-21T09:32:05.301857+05:30"},{"city":"Surat","state":"Gujarat","latitude":21.1702,"longitude":72.8311,"temp":32.9,"humidity":59,"rain":0.0,"pressure":1006.4,"uv_index":7.75,"wind_gusts":36.7,"aqi":66,"pm10":45.9,"pm2_5":22.9,"no2":19.9,"co":438.0,"o3":44.0,"so2":58.6,"mosquito_risk":0,"arthritis_risk":5,"migraine_risk":4,"frizz_risk":1,"updated_at":"2026-05-21T09:32:05.301884+05:30"},{"city":"Vadodara","state":"Gujarat","latitude":22.3072,"longitude":73.1812,"temp":34.0,"humidity":43,"rain":0.0,"pressure":1003.9,"uv_index":8.15,"wind_gusts":36.4,"aqi":66,"pm10":64.0,"pm2_5":25.8,"no2":5.7,"co":215.0,"o3":75.0,"so2":10.0,"mosquito_risk":0,"arthritis_risk":5,"migraine_risk":4,"frizz_risk":1,"updated_at":"2026-05-21T09:32:05.301895+05:30"},{"city":"Rajkot","state":"Gujarat","latitude":22.3039,"longitude":70.8022,"temp":31.5,"humidity":59,"rain":0.0,"pressure":993.9,"uv_index":7.75,"wind_gusts":47.9,"aqi":65,"pm10":54.6,"pm2_5":19.3,"no2":3.1,"co":135.0,"o3":68.0,"so2":6.5,"mosquito_risk":0,"arthritis_risk":5,"migraine_risk":7,"frizz_risk":1,"updated_at":"2026-05-21T09:32:05.301903+05:30"},{"city":"Thane","state":"Maharashtra","latitude":19.2183,"longitude":72.9781,"temp":33.7,"humidity":53,"rain":0.0,"pressure":1007.5,"uv_index":6.95,"wind_gusts":38.9,"aqi":55,"pm10":22.2,"pm2_5":13.6,"no2":8.1,"co":210.0,"o3":66.0,"so2":8.3,"mosquito_risk":0,"arthritis_risk":5,"migraine_risk":4,"frizz_risk":1,"updated_at":"2026-05-21T09:32:05.301910+05:30"},{"city":"Nagpur","state":"Maharashtra","latitude":21.1458,"longitude":79.0882,"temp":39.2,"humidity":18,"rain":0.0,"pressure":971.5,"uv_index":8.95,"wind_gusts":42.1,"aqi":63,"pm10":35.4,"pm2_5":17.2,"no2":6.1,"co":191.0,"o3":113.0,"so2":14.5,"mosquito_risk":0,"arthritis_risk":5,"migraine_risk":10,"frizz_risk":0,"updated_at":"2026-05-21T09:32:05.301917+05:30"},{"city":"Nashik","state":"Maharashtra","latitude":19.9975,"longitude":73.7898,"temp":30.3,"humidity":53,"rain":0.0,"pressure":946.0,"uv_index":6.15,"wind_gusts":36.7,"aqi":52,"pm10":24.3,"pm2_5":11.4,"no2":2.9,"co":139.0,"o3":61.0,"so2":2.7,"mosquito_risk":0,"arthritis_risk":5,"migraine_risk":7,"frizz_risk":1,"updated_at":"2026-05-21T09:32:05.301924+05:30"},{"city":"Aurangabad","state":"Maharashtra","latitude":19.8762,"longitude":75.3433,"temp":33.0,"humidity":38,"rain":0.0,"pressure":944.5,"uv_index":9.0,"wind_gusts":38.2,"aqi":64,"pm10":30.9,"pm2_5":14.7,"no2":4.2,"co":147.0,"o3":73.0,"so2":5.5,"mosquito_risk":0,"arthritis_risk":5,"migraine_risk":7,"frizz_risk":1,"updated_at":"2026-05-21T09:32:05.301931+05:30"},{"city":"Solapur","state":"Maharashtra","latitude":17.6599,"longitude":75.9064,"temp":32.5,"humidity":48,"rain":0.0,"pressure":957.7,"uv_index":9.05,"wind_gusts":39.2,"aqi":76,"pm10":28.4,"pm2_5":17.7,"no2":3.7,"co":159.0,"o3":86.0,"so2":4.5,"mosquito_risk":0,"arthritis_risk":5,"migraine_risk":7,"frizz_risk":1,"updated_at":"2026-05-21T09:32:05.301938+05:30"},{"city":"Kolhapur","state":"Maharashtra","latitude":16.705,"longitude":74.2433,"temp":29.0,"humidity":63,"rain":0.0,"pressure":948.8,"uv_index":8.9,"wind_gusts":42.8,"aqi":64,"pm10":27.3,"pm2_5":16.0,"no2":3.8,"co":168.0,"o3":79.0,"so2":3.0,"mosquito_risk":7,"arthritis_risk":5,"migraine_risk":7,"frizz_risk":1,"updated_at":"2026-05-21T09:32:05.301945+05:30"},{"city":"Goa","state":"Goa","latitude":15.2993,"longitude":74.124,"temp":30.1,"humidity":73,"rain":0.1,"pressure":998.6,"uv_index":4.55,"wind_gusts":28.8,"aqi":45,"pm10":8.7,"pm2_5":6.2,"no2":1.2,"co":178.0,"o3":81.0,"so2":1.3,"mosquito_risk":6,"arthritis_risk":5,"migraine_risk":3,"frizz_risk":1,"updated_at":"2026-05-21T09:32:05.301953+05:30"},{"city":"Jodhpur","state":"Rajasthan","latitude":26.2389,"longitude":73.0243,"temp":33.5,"humidity":31,"rain":0.0,"pressure":981.4,"uv_index":8.45,"wind_gusts":46.1,"aqi":166,"pm10":248.7,"pm2_5":53.3,"no2":2.6,"co":149.0,"o3":84.0,"so2":5.0,"mosquito_risk":0,"arthritis_risk":5,"migraine_risk":7,"frizz_risk":0,"updated_at":"2026-05-21T09:32:05.301960+05:30"},{"city":"Udaipur","state":"Rajasthan","latitude":24.5854,"longitude":73.7125,"temp":33.2,"humidity":18,"rain":0.0,"pressure":946.7,"uv_index":8.85,"wind_gusts":40.0,"aqi":69,"pm10":94.5,"pm2_5":27.8,"no2":1.4,"co":136.0,"o3":89.0,"so2":4.1,"mosquito_risk":0,"arthritis_risk":5,"migraine_risk":7,"frizz_risk":0,"updated_at":"2026-05-21T09:32:05.301967+05:30"},{"city":"Kota","state":"Rajasthan","latitude":25.2138,"longitude":75.8648,"temp":37.2,"humidity":19,"rain":0.0,"pressure":977.6,"uv_index":8.45,"wind_gusts":44.3,"aqi":61,"pm10":68.0,"pm2_5":26.8,"no2":2.5,"co":152.0,"o3":86.0,"so2":4.6,"mosquito_risk":0,"arthritis_risk":5,"migraine_risk":10,"frizz_risk":0,"updated_at":"2026-05-21T09:32:05.301974+05:30"},{"city":"Bikaner","state":"Rajasthan","latitude":28.0229,"longitude":73.3119,"temp":34.0,"humidity":23,"rain":0.0,"pressure":979.6,"uv_index":8.4,"wind_gusts":31.3,"aqi":154,"pm10":284.1,"pm2_5":108.5,"no2":1.2,"co":153.0,"o3":100.0,"so2":4.3,"mosquito_risk":0,"arthritis_risk":5,"migraine_risk":7,"frizz_risk":0,"updated_at":"2026-05-21T09:32:05.301980+05:30"},{"city":"Ajmer","state":"Rajasthan","latitude":26.4499,"longitude":74.6399,"temp":33.0,"humidity":23,"rain":0.0,"pressure":953.9,"uv_index":8.4,"wind_gusts":54.0,"aqi":78,"pm10":117.6,"pm2_5":40.3,"no2":2.2,"co":150.0,"o3":88.0,"so2":4.9,"mosquito_risk":0,"arthritis_risk":5,"migraine_risk":7,"frizz_risk":0,"updated_at":"2026-05-21T09:32:05.301987+05:30"},{"city":"Gwalior","state":"Madhya Pradesh","latitude":26.2183,"longitude":78.1828,"temp":37.5,"humidity":20,"rain":0.0,"pressure":980.6,"uv_index":8.25,"wind_gusts":54.0,"aqi":56,"pm10":60.8,"pm2_5":24.8,"no2":1.8,"co":151.0,"o3":87.0,"so2":3.5,"mosquito_risk":0,"arthritis_risk":5,"migraine_risk":10,"frizz_risk":0,"updated_at":"2026-05-21T09:32:05.301994+05:30"},{"city":"Indore","state":"Madhya Pradesh","latitude":22.7196,"longitude":75.8577,"temp":33.8,"humidity":36,"rain":0.0,"pressure":948.3,"uv_index":8.7,"wind_gusts":39.6,"aqi":66,"pm10":50.2,"pm2_5":22.7,"no2":4.3,"co":221.0,"o3":76.0,"so2":9.7,"mosquito_risk":0,"arthritis_risk":5,"migraine_risk":7,"frizz_risk":1,"updated_at":"2026-05-21T09:32:05.302001+05:30"},{"city":"Bhopal","state":"Madhya Pradesh","latitude":23.2599,"longitude":77.4126,"temp":36.2,"humidity":23,"rain":0.0,"pressure":953.2,"uv_index":8.7,"wind_gusts":42.5,"aqi":60,"pm10":39.0,"pm2_5":20.1,"no2":2.9,"co":191.0,"o3":96.0,"so2":8.3,"mosquito_risk":0,"arthritis_risk":5,"migraine_risk":10,"frizz_risk":0,"updated_at":"2026-05-21T09:32:05.302007+05:30"},{"city":"Jabalpur","state":"Madhya Pradesh","latitude":23.1815,"longitude":79.9864,"temp":38.0,"humidity":18,"rain":0.0,"pressure":960.7,"uv_index":8.9,"wind_gusts":33.1,"aqi":69,"pm10":34.7,"pm2_5":15.3,"no2":2.3,"co":162.0,"o3":105.0,"so2":4.3,"mosquito_risk":0,"arthritis_risk":5,"migraine_risk":10,"frizz_risk":0,"updated_at":"2026-05-21T09:32:05.302015+05:30"},{"city":"Ujjain","state":"Madhya Pradesh","latitude":23.1765,"longitude":75.7885,"temp":34.0,"humidity":36,"rain":0.0,"pressure":953.9,"uv_index":8.65,"wind_gusts":36.0,"aqi":66,"pm10":50.1,"pm2_5":22.4,"no2":3.9,"co":184.0,"o3":72.0,"so2":10.5,"mosquito_risk":0,"arthritis_risk":5,"migraine_risk":7,"frizz_risk":1,"updated_at":"2026-05-21T09:32:05.302022+05:30"},{"city":"Visakhapatnam","state":"Andhra Pradesh","latitude":17.6868,"longitude":83.2185,"temp":38.0,"humidity":43,"rain":0.0,"pressure":999.2,"uv_index":9.05,"wind_gusts":37.4,"aqi":113,"pm10":65.7,"pm2_5":56.0,"no2":20.0,"co":570.0,"o3":142.0,"so2":52.2,"mosquito_risk":0,"arthritis_risk":5,"migraine_risk":10,"frizz_risk":1,"updated_at":"2026-05-21T09:32:05.302029+05:30"},{"city":"Vijayawada","state":"Andhra Pradesh","latitude":16.5062,"longitude":80.648,"temp":38.6,"humidity":35,"rain":0.0,"pressure":999.0,"uv_index":9.15,"wind_gusts":39.6,"aqi":137,"pm10":40.3,"pm2_5":31.4,"no2":6.1,"co":236.0,"o3":126.0,"so2":12.4,"mosquito_risk":0,"arthritis_risk":5,"migraine_risk":10,"frizz_risk":1,"updated_at":"2026-05-21T09:32:05.302036+05:30"},{"city":"Guntur","state":"Andhra Pradesh","latitude":16.3067,"longitude":80.4365,"temp":38.8,"humidity":35,"rain":0.0,"pressure":1000.3,"uv_index":9.15,"wind_gusts":41.4,"aqi":117,"pm10":39.7,"pm2_5":29.5,"no2":5.3,"co":237.0,"o3":118.0,"so2":10.0,"mosquito_risk":0,"arthritis_risk":5,"migraine_risk":7,"frizz_risk":1,"updated_at":"2026-05-21T09:32:05.302043+05:30"},{"city":"Nellore","state":"Andhra Pradesh","latitude":14.4426,"longitude":79.9865,"temp":37.2,"humidity":42,"rain":0.0,"pressure":1003.1,"uv_index":9.1,"wind_gusts":45.4,"aqi":78,"pm10":13.1,"pm2_5":10.4,"no2":4.1,"co":169.0,"o3":105.0,"so2":6.7,"mosquito_risk":0,"arthritis_risk":5,"migraine_risk":7,"frizz_risk":1,"updated_at":"2026-05-21T09:32:05.302050+05:30"},{"city":"Kurnool","state":"Andhra Pradesh","latitude":15.8281,"longitude":78.0373,"temp":34.0,"humidity":51,"rain":0.0,"pressure":976.7,"uv_index":8.8,"wind_gusts":47.2,"aqi":73,"pm10":26.9,"pm2_5":17.5,"no2":4.9,"co":177.0,"o3":93.0,"so2":7.7,"mosquito_risk":0,"arthritis_risk":5,"migraine_risk":7,"frizz_risk":1,"updated_at":"2026-05-21T09:32:05.302058+05:30"},{"city":"Kakinada","state":"Andhra Pradesh","latitude":16.9891,"longitude":82.2475,"temp":37.8,"humidity":46,"rain":0.0,"pressure":1003.3,"uv_index":9.1,"wind_gusts":36.4,"aqi":93,"pm10":47.5,"pm2_5":39.2,"no2":5.3,"co":319.0,"o3":149.0,"so2":7.8,"mosquito_risk":0,"arthritis_risk":5,"migraine_risk":7,"frizz_risk":1,"updated_at":"2026-05-21T09:32:05.302064+05:30"},{"city":"Tirupati","state":"Andhra Pradesh","latitude":13.6288,"longitude":79.4192,"temp":36.2,"humidity":41,"rain":0.0,"pressure":989.0,"uv_index":9.15,"wind_gusts":42.8,"aqi":58,"pm10":11.4,"pm2_5":9.4,"no2":3.4,"co":194.0,"o3":108.0,"so2":2.5,"mosquito_risk":0,"arthritis_risk":5,"migraine_risk":10,"frizz_risk":1,"updated_at":"2026-05-21T09:32:05.302071+05:30"},{"city":"Warangal","state":"Telangana","latitude":17.9689,"longitude":79.5941,"temp":37.5,"humidity":30,"rain":0.0,"pressure":976.4,"uv_index":9.0,"wind_gusts":41.4,"aqi":124,"pm10":45.4,"pm2_5":36.2,"no2":4.8,"co":279.0,"o3":128.0,"so2":9.5,"mosquito_risk":0,"arthritis_risk":5,"migraine_risk":10,"frizz_risk":1,"updated_at":"2026-05-21T09:32:05.302077+05:30"},{"city":"Nizamabad","state":"Telangana","latitude":18.6725,"longitude":78.0941,"temp":37.1,"humidity":31,"rain":0.0,"pressure":964.0,"uv_index":9.1,"wind_gusts":34.2,"aqi":93,"pm10":29.9,"pm2_5":19.4,"no2":3.7,"co":188.0,"o3":113.0,"so2":8.2,"mosquito_risk":0,"arthritis_risk":5,"migraine_risk":10,"frizz_risk":1,"updated_at":"2026-05-21T09:32:05.302084+05:30"},{"city":"Mysore","state":"Karnataka","latitude":12.2958,"longitude":76.6396,"temp":29.0,"humidity":58,"rain":0.0,"pressure":930.0,"uv_index":5.9,"wind_gusts":47.2,"aqi":31,"pm10":5.5,"pm2_5":4.6,"no2":3.9,"co":163.0,"o3":68.0,"so2":1.9,"mosquito_risk":4,"arthritis_risk":5,"migraine_risk":3,"frizz_risk":1,"updated_at":"2026-05-21T09:32:05.302091+05:30"},{"city":"Mangalore","state":"Karnataka","latitude":12.9141,"longitude":74.856,"temp":29.5,"humidity":79,"rain":0.0,"pressure":1007.7,"uv_index":8.85,"wind_gusts":31.3,"aqi":54,"pm10":10.0,"pm2_5":7.9,"no2":4.0,"co":250.0,"o3":67.0,"so2":2.9,"mosquito_risk":7,"arthritis_risk":5,"migraine_risk":4,"frizz_risk":1,"updated_at":"2026-05-21T09:32:05.302098+05:30"},{"city":"Hubli-Dharwad","state":"Karnataka","latitude":15.3647,"longitude":75.124,"temp":28.5,"humidity":64,"rain":0.0,"pressure":942.1,"uv_index":7.95,"wind_gusts":47.5,"aqi":25,"pm10":4.0,"pm2_5":3.2,"no2":3.0,"co":156.0,"o3":69.0,"so2":0.9,"mosquito_risk":7,"arthritis_risk":5,"migraine_risk":7,"frizz_risk":1,"updated_at":"2026-05-21T09:32:05.302105+05:30"},{"city":"Belgaum","state":"Karnataka","latitude":15.8497,"longitude":74.4977,"temp":27.6,"humidity":65,"rain":0.0,"pressure":927.0,"uv_index":6.55,"wind_gusts":41.8,"aqi":61,"pm10":20.3,"pm2_5":11.8,"no2":2.8,"co":139.0,"o3":78.0,"so2":2.3,"mosquito_risk":7,"arthritis_risk":5,"migraine_risk":7,"frizz_risk":1,"updated_at":"2026-05-21T09:32:17.388374+05:30"},{"city":"Coimbatore","state":"Tamil Nadu","latitude":11.0168,"longitude":76.9558,"temp":30.5,"humidity":62,"rain":0.0,"pressure":962.4,"uv_index":9.1,"wind_gusts":55.4,"aqi":26,"pm10":4.5,"pm2_5":3.7,"no2":2.8,"co":169.0,"o3":65.0,"so2":2.3,"mosquito_risk":3,"arthritis_risk":5,"migraine_risk":7,"frizz_risk":1,"updated_at":"2026-05-21T09:32:17.388402+05:30"},{"city":"Madurai","state":"Tamil Nadu","latitude":9.9252,"longitude":78.1198,"temp":32.9,"humidity":56,"rain":0.0,"pressure":992.8,"uv_index":9.0,"wind_gusts":46.8,"aqi":69,"pm10":13.0,"pm2_5":10.9,"no2":7.5,"co":181.0,"o3":90.0,"so2":5.0,"mosquito_risk":0,"arthritis_risk":5,"migraine_risk":7,"frizz_risk":1,"updated_at":"2026-05-21T09:32:17.388412+05:30"},{"city":"Trichy","state":"Tamil Nadu","latitude":10.7905,"longitude":78.7047,"temp":32.2,"humidity":63,"rain":0.0,"pressure":998.9,"uv_index":9.0,"wind_gusts":44.3,"aqi":36,"pm10":9.1,"pm2_5":7.2,"no2":4.2,"co":143.0,"o3":67.0,"so2":3.8,"mosquito_risk":3,"arthritis_risk":5,"migraine_risk":7,"frizz_risk":1,"updated_at":"2026-05-21T09:32:17.388420+05:30"},{"city":"Salem","state":"Tamil Nadu","latitude":11.6643,"longitude":78.146,"temp":31.5,"humidity":56,"rain":0.0,"pressure":977.7,"uv_index":9.1,"wind_gusts":51.5,"aqi":53,"pm10":15.1,"pm2_5":13.3,"no2":8.0,"co":194.0,"o3":94.0,"so2":14.8,"mosquito_risk":0,"arthritis_risk":5,"migraine_risk":7,"frizz_risk":1,"updated_at":"2026-05-21T09:32:17.388427+05:30"},{"city":"Tirunelveli","state":"Tamil Nadu","latitude":8.7139,"longitude":77.7567,"temp":33.8,"humidity":52,"rain":0.0,"pressure":1003.2,"uv_index":8.9,"wind_gusts":43.6,"aqi":24,"pm10":3.3,"pm2_5":2.7,"no2":1.8,"co":148.0,"o3":59.0,"so2":1.0,"mosquito_risk":0,"arthritis_risk":5,"migraine_risk":4,"frizz_risk":1,"updated_at":"2026-05-21T09:32:17.388435+05:30"},{"city":"Vellore","state":"Tamil Nadu","latitude":12.9165,"longitude":79.1325,"temp":34.0,"humidity":49,"rain":0.0,"pressure":982.8,"uv_index":8.65,"wind_gusts":45.0,"aqi":44,"pm10":10.3,"pm2_5":9.3,"no2":4.9,"co":225.0,"o3":104.0,"so2":4.4,"mosquito_risk":0,"arthritis_risk":5,"migraine_risk":7,"frizz_risk":1,"updated_at":"2026-05-21T09:32:17.388442+05:30"},{"city":"Erode","state":"Tamil Nadu","latitude":11.341,"longitude":77.7172,"temp":33.0,"humidity":47,"rain":0.0,"pressure":989.2,"uv_index":9.05,"wind_gusts":57.2,"aqi":43,"pm10":9.3,"pm2_5":7.9,"no2":5.3,"co":202.0,"o3":77.0,"so2":3.2,"mosquito_risk":0,"arthritis_risk":5,"migraine_risk":7,"frizz_risk":1,"updated_at":"2026-05-21T09:32:17.388449+05:30"},{"city":"Kochi","state":"Kerala","latitude":9.9312,"longitude":76.2673,"temp":29.1,"humidity":82,"rain":0.0,"pressure":1009.9,"uv_index":7.65,"wind_gusts":43.9,"aqi":60,"pm10":10.2,"pm2_5":8.3,"no2":5.8,"co":186.0,"o3":60.0,"so2":3.9,"mosquito_risk":7,"arthritis_risk":0,"migraine_risk":4,"frizz_risk":1,"updated_at":"2026-05-21T09:32:17.388456+05:30"},{"city":"Thiruvananthapuram","state":"Kerala","latitude":8.5241,"longitude":76.9366,"temp":28.4,"humidity":82,"rain":0.0,"pressure":1009.7,"uv_index":7.2,"wind_gusts":54.4,"aqi":24,"pm10":10.1,"pm2_5":5.8,"no2":1.4,"co":107.0,"o3":52.0,"so2":0.5,"mosquito_risk":7,"arthritis_risk":0,"migraine_risk":4,"frizz_risk":1,"updated_at":"2026-05-21T09:32:17.388463+05:30"},{"city":"Kozhikode","state":"Kerala","latitude":11.2588,"longitude":75.7804,"temp":29.1,"humidity":82,"rain":0.0,"pressure":1009.2,"uv_index":8.8,"wind_gusts":27.4,"aqi":26,"pm10":4.5,"pm2_5":2.9,"no2":0.9,"co":172.0,"o3":58.0,"so2":0.6,"mosquito_risk":7,"arthritis_risk":0,"migraine_risk":4,"frizz_risk":1,"updated_at":"2026-05-21T09:32:17.388470+05:30"},{"city":"Thrissur","state":"Kerala","latitude":10.5276,"longitude":76.2144,"temp":29.4,"humidity":79,"rain":0.0,"pressure":1008.3,"uv_index":8.65,"wind_gusts":34.2,"aqi":55,"pm10":8.8,"pm2_5":7.5,"no2":4.3,"co":235.0,"o3":64.0,"so2":4.0,"mosquito_risk":7,"arthritis_risk":0,"migraine_risk":4,"frizz_risk":1,"updated_at":"2026-05-21T09:32:17.388478+05:30"},{"city":"Kannur","state":"Kerala","latitude":11.8745,"longitude":75.3704,"temp":29.5,"humidity":77,"rain":0.0,"pressure":1008.3,"uv_index":8.85,"wind_gusts":24.8,"aqi":34,"pm10":5.4,"pm2_5":4.2,"no2":2.4,"co":177.0,"o3":64.0,"so2":1.9,"mosquito_risk":7,"arthritis_risk":0,"migraine_risk":4,"frizz_risk":1,"updated_at":"2026-05-21T09:32:17.388485+05:30"},{"city":"Patna","state":"Bihar","latitude":25.5941,"longitude":85.1376,"temp":34.6,"humidity":62,"rain":0.0,"pressure":997.0,"uv_index":8.9,"wind_gusts":29.2,"aqi":158,"pm10":83.1,"pm2_5":67.1,"no2":7.2,"co":446.0,"o3":167.0,"so2":25.1,"mosquito_risk":3,"arthritis_risk":5,"migraine_risk":7,"frizz_risk":1,"updated_at":"2026-05-21T09:32:17.388492+05:30"},{"city":"Gaya","state":"Bihar","latitude":24.7914,"longitude":85.0002,"temp":37.0,"humidity":44,"rain":0.0,"pressure":990.2,"uv_index":8.9,"wind_gusts":29.2,"aqi":159,"pm10":121.1,"pm2_5":74.7,"no2":6.2,"co":411.0,"o3":167.0,"so2":24.1,"mosquito_risk":0,"arthritis_risk":5,"migraine_risk":10,"frizz_risk":1,"updated_at":"2026-05-21T09:32:17.388499+05:30"},{"city":"Muzaffarpur","state":"Bihar","latitude":26.1209,"longitude":85.3647,"temp":33.0,"humidity":67,"rain":0.0,"pressure":997.5,"uv_index":8.9,"wind_gusts":29.2,"aqi":158,"pm10":71.5,"pm2_5":59.8,"no2":6.5,"co":427.0,"o3":162.0,"so2":20.5,"mosquito_risk":3,"arthritis_risk":5,"migraine_risk":7,"frizz_risk":1,"updated_at":"2026-05-21T09:32:17.388506+05:30"},{"city":"Bhagalpur","state":"Bihar","latitude":25.2425,"longitude":87.0117,"temp":32.2,"humidity":67,"rain":0.0,"pressure":998.4,"uv_index":8.85,"wind_gusts":33.5,"aqi":148,"pm10":65.9,"pm2_5":51.5,"no2":9.5,"co":414.0,"o3":134.0,"so2":25.1,"mosquito_risk":3,"arthritis_risk":5,"migraine_risk":7,"frizz_risk":1,"updated_at":"2026-05-21T09:32:17.388513+05:30"},{"city":"Ranchi","state":"Jharkhand","latitude":23.3441,"longitude":85.3096,"temp":34.0,"humidity":40,"rain":0.0,"pressure":936.7,"uv_index":9.3,"wind_gusts":38.5,"aqi":143,"pm10":132.2,"pm2_5":52.3,"no2":2.6,"co":309.0,"o3":159.0,"so2":23.6,"mosquito_risk":0,"arthritis_risk":5,"migraine_risk":7,"frizz_risk":1,"updated_at":"2026-05-21T09:32:17.388520+05:30"},{"city":"Jamshedpur","state":"Jharkhand","latitude":22.8046,"longitude":86.2029,"temp":35.6,"humidity":51,"rain":0.0,"pressure":987.7,"uv_index":9.1,"wind_gusts":33.1,"aqi":152,"pm10":105.7,"pm2_5":62.4,"no2":11.7,"co":788.0,"o3":160.0,"so2":42.4,"mosquito_risk":0,"arthritis_risk":5,"migraine_risk":10,"frizz_risk":1,"updated_at":"2026-05-21T09:32:17.388527+05:30"},{"city":"Dhanbad","state":"Jharkhand","latitude":23.7957,"longitude":86.4304,"temp":35.7,"humidity":52,"rain":0.0,"pressure":977.0,"uv_index":9.1,"wind_gusts":32.0,"aqi":167,"pm10":109.2,"pm2_5":77.5,"no2":37.7,"co":1136.0,"o3":114.0,"so2":113.2,"mosquito_risk":0,"arthritis_risk":5,"migraine_risk":10,"frizz_risk":1,"updated_at":"2026-05-21T09:32:17.388534+05:30"},{"city":"Bokaro","state":"Jharkhand","latitude":23.6693,"longitude":86.1511,"temp":36.0,"humidity":51,"rain":0.0,"pressure":980.7,"uv_index":9.1,"wind_gusts":31.0,"aqi":167,"pm10":128.5,"pm2_5":86.4,"no2":35.8,"co":1213.0,"o3":125.0,"so2":110.9,"mosquito_risk":0,"arthritis_risk":5,"migraine_risk":10,"frizz_risk":1,"updated_at":"2026-05-21T09:32:17.388541+05:30"},{"city":"Bhubaneswar","state":"Odisha","latitude":20.2961,"longitude":85.8245,"temp":36.8,"humidity":55,"rain":0.0,"pressure":998.2,"uv_index":9.15,"wind_gusts":34.6,"aqi":117,"pm10":58.0,"pm2_5":45.4,"no2":4.2,"co":474.0,"o3":144.0,"so2":13.7,"mosquito_risk":0,"arthritis_risk":5,"migraine_risk":10,"frizz_risk":1,"updated_at":"2026-05-21T09:32:17.388548+05:30"},{"city":"Cuttack","state":"Odisha","latitude":20.4625,"longitude":85.8828,"temp":35.2,"humidity":64,"rain":0.0,"pressure":1000.0,"uv_index":9.2,"wind_gusts":36.0,"aqi":117,"pm10":58.0,"pm2_5":45.4,"no2":4.2,"co":526.0,"o3":144.0,"so2":13.7,"mosquito_risk":3,"arthritis_risk":5,"migraine_risk":7,"frizz_risk":1,"updated_at":"2026-05-21T09:32:17.388555+05:30"},{"city":"Rourkela","state":"Odisha","latitude":22.2604,"longitude":84.8536,"temp":36.3,"humidity":41,"rain":0.0,"pressure":982.0,"uv_index":9.0,"wind_gusts":28.1,"aqi":141,"pm10":152.7,"pm2_5":63.8,"no2":11.1,"co":500.0,"o3":159.0,"so2":25.7,"mosquito_risk":0,"arthritis_risk":5,"migraine_risk":10,"frizz_risk":1,"updated_at":"2026-05-21T09:32:17.388562+05:30"},{"city":"Raipur","state":"Chhattisgarh","latitude":21.2514,"longitude":81.6296,"temp":38.5,"humidity":27,"rain":0.0,"pressure":971.5,"uv_index":9.0,"wind_gusts":38.9,"aqi":153,"pm10":50.4,"pm2_5":40.5,"no2":23.9,"co":561.0,"o3":113.0,"so2":56.5,"mosquito_risk":0,"arthritis_risk":5,"migraine_risk":10,"frizz_risk":1,"updated_at":"2026-05-21T09:32:17.388569+05:30"},{"city":"Bhilai","state":"Chhattisgarh","latitude":21.1938,"longitude":81.3509,"temp":38.0,"humidity":26,"rain":0.0,"pressure":971.9,"uv_index":9.0,"wind_gusts":39.2,"aqi":151,"pm10":29.3,"pm2_5":23.4,"no2":17.5,"co":783.0,"o3":105.0,"so2":45.0,"mosquito_risk":0,"arthritis_risk":5,"migraine_risk":10,"frizz_risk":0,"updated_at":"2026-05-21T09:32:17.388576+05:30"},{"city":"Guwahati","state":"Assam","latitude":26.1158,"longitude":91.7086,"temp":29.9,"humidity":74,"rain":0.0,"pressure":1000.5,"uv_index":8.8,"wind_gusts":25.9,"aqi":114,"pm10":52.9,"pm2_5":37.5,"no2":2.4,"co":360.0,"o3":127.0,"so2":4.8,"mosquito_risk":7,"arthritis_risk":5,"migraine_risk":4,"frizz_risk":1,"updated_at":"2026-05-21T09:32:17.388583+05:30"},{"city":"Agartala","state":"Tripura","latitude":23.8315,"longitude":91.2868,"temp":31.7,"humidity":74,"rain":0.0,"pressure":1004.2,"uv_index":8.9,"wind_gusts":24.8,"aqi":91,"pm10":39.6,"pm2_5":25.6,"no2":4.9,"co":224.0,"o3":97.0,"so2":3.6,"mosquito_risk":3,"arthritis_risk":5,"migraine_risk":4,"frizz_risk":1,"updated_at":"2026-05-21T09:32:17.388590+05:30"},{"city":"Shillong","state":"Meghalaya","latitude":25.5788,"longitude":91.8933,"temp":24.6,"humidity":69,"rain":0.0,"pressure":858.6,"uv_index":8.65,"wind_gusts":20.2,"aqi":85,"pm10":40.5,"pm2_5":24.9,"no2":1.2,"co":230.0,"o3":122.0,"so2":3.7,"mosquito_risk":3,"arthritis_risk":5,"migraine_risk":7,"frizz_risk":1,"updated_at":"2026-05-21T09:32:17.388597+05:30"},{"city":"Imphal","state":"Manipur","latitude":24.817,"longitude":93.9368,"temp":29.1,"humidity":62,"rain":0.0,"pressure":923.0,"uv_index":9.3,"wind_gusts":30.6,"aqi":126,"pm10":65.7,"pm2_5":34.3,"no2":0.2,"co":253.0,"o3":129.0,"so2":3.9,"mosquito_risk":7,"arthritis_risk":5,"migraine_risk":7,"frizz_risk":1,"updated_at":"2026-05-21T09:32:17.388604+05:30"},{"city":"Aizawl","state":"Mizoram","latitude":23.7271,"longitude":92.7176,"temp":27.5,"humidity":61,"rain":0.0,"pressure":893.1,"uv_index":8.5,"wind_gusts":29.5,"aqi":97,"pm10":36.1,"pm2_5":21.6,"no2":0.3,"co":171.0,"o3":115.0,"so2":2.6,"mosquito_risk":7,"arthritis_risk":5,"migraine_risk":7,"frizz_risk":1,"updated_at":"2026-05-21T09:32:17.388611+05:30"},{"city":"Kohima","state":"Nagaland","latitude":25.6701,"longitude":94.1077,"temp":25.4,"humidity":72,"rain":0.0,"pressure":857.0,"uv_index":9.15,"wind_gusts":24.5,"aqi":92,"pm10":61.9,"pm2_5":33.9,"no2":0.2,"co":222.0,"o3":120.0,"so2":3.3,"mosquito_risk":7,"arthritis_risk":5,"migraine_risk":7,"frizz_risk":1,"updated_at":"2026-05-21T09:32:17.388617+05:30"},{"city":"Gangtok","state":"Sikkim","latitude":27.3314,"longitude":88.6138,"temp":22.6,"humidity":68,"rain":0.0,"pressure":839.2,"uv_index":9.2,"wind_gusts":34.9,"aqi":84,"pm10":44.9,"pm2_5":26.3,"no2":0.8,"co":332.0,"o3":133.0,"so2":3.4,"mosquito_risk":3,"arthritis_risk":5,"migraine_risk":7,"frizz_risk":1,"updated_at":"2026-05-21T09:32:17.388624+05:30"},{"city":"Siliguri","state":"West Bengal","latitude":26.7271,"longitude":88.3953,"temp":29.5,"humidity":73,"rain":0.0,"pressure":991.6,"uv_index":8.75,"wind_gusts":31.3,"aqi":150,"pm10":79.4,"pm2_5":49.5,"no2":1.3,"co":355.0,"o3":161.0,"so2":6.5,"mosquito_risk":7,"arthritis_risk":5,"migraine_risk":7,"frizz_risk":1,"updated_at":"2026-05-21T09:32:29.022921+05:30"},{"city":"Durgapur","state":"West Bengal","latitude":23.5204,"longitude":87.3119,"temp":34.2,"humidity":68,"rain":0.0,"pressure":991.7,"uv_index":9.0,"wind_gusts":25.6,"aqi":164,"pm10":77.3,"pm2_5":57.0,"no2":21.6,"co":812.0,"o3":124.0,"so2":66.4,"mosquito_risk":3,"arthritis_risk":5,"migraine_risk":7,"frizz_risk":1,"updated_at":"2026-05-21T09:32:29.022951+05:30"},{"city":"Asansol","state":"West Bengal","latitude":23.6739,"longitude":86.9524,"temp":34.6,"humidity":65,"rain":0.0,"pressure":990.3,"uv_index":9.05,"wind_gusts":24.5,"aqi":163,"pm10":78.2,"pm2_5":57.0,"no2":21.9,"co":542.0,"o3":120.0,"so2":64.7,"mosquito_risk":3,"arthritis_risk":5,"migraine_risk":7,"frizz_risk":1,"updated_at":"2026-05-21T09:32:29.022962+05:30"},{"city":"Pondicherry","state":"Puducherry","latitude":11.9139,"longitude":79.8145,"temp":32.7,"humidity":62,"rain":0.0,"pressure":1006.2,"uv_index":7.55,"wind_gusts":43.2,"aqi":67,"pm10":21.0,"pm2_5":18.1,"no2":10.4,"co":314.0,"o3":96.0,"so2":9.8,"mosquito_risk":3,"arthritis_risk":5,"migraine_risk":4,"frizz_risk":1,"updated_at":"2026-05-21T09:32:29.022971+05:30"},{"city":"Port Blair","state":"Andaman and Nicobar Islands","latitude":11.6234,"longitude":92.7265,"temp":28.7,"humidity":81,"rain":0.1,"pressure":1007.0,"uv_index":8.9,"wind_gusts":35.6,"aqi":29,"pm10":6.9,"pm2_5":4.6,"no2":0.4,"co":108.0,"o3":68.0,"so2":0.4,"mosquito_risk":10,"arthritis_risk":5,"migraine_risk":4,"frizz_risk":1,"updated_at":"2026-05-21T09:32:29.022980+05:30"},{"city":"Haridwar","state":"Uttarakhand","latitude":29.9457,"longitude":78.1642,"temp":35.1,"humidity":32,"rain":0.0,"pressure":969.9,"uv_index":7.3,"wind_gusts":25.9,"aqi":121,"pm10":200.2,"pm2_5":52.2,"no2":3.8,"co":281.0,"o3":175.0,"so2":9.4,"mosquito_risk":0,"arthritis_risk":5,"migraine_risk":10,"frizz_risk":1,"updated_at":"2026-05-21T09:32:29.022988+05:30"},{"city":"Rishikesh","state":"Uttarakhand","latitude":30.0869,"longitude":78.2676,"temp":35.2,"humidity":29,"rain":0.0,"pressure":962.8,"uv_index":7.5,"wind_gusts":28.8,"aqi":89,"pm10":212.3,"pm2_5":42.4,"no2":1.5,"co":246.0,"o3":159.0,"so2":6.7,"mosquito_risk":0,"arthritis_risk":5,"migraine_risk":10,"frizz_risk":0,"updated_at":"2026-05-21T09:32:29.022997+05:30"},{"city":"Nainital","state":"Uttarakhand","latitude":29.3919,"longitude":79.4542,"temp":26.2,"humidity":28,"rain":0.0,"pressure":808.8,"uv_index":8.5,"wind_gusts":34.2,"aqi":96,"pm10":244.9,"pm2_5":46.0,"no2":0.9,"co":177.0,"o3":153.0,"so2":5.3,"mosquito_risk":4,"arthritis_risk":5,"migraine_risk":7,"frizz_risk":0,"updated_at":"2026-05-21T09:32:29.023005+05:30"},{"city":"Mussoorie","state":"Uttarakhand","latitude":30.4599,"longitude":78.0664,"temp":25.8,"humidity":25,"rain":0.0,"pressure":806.1,"uv_index":7.9,"wind_gusts":50.0,"aqi":96,"pm10":109.7,"pm2_5":31.2,"no2":3.1,"co":172.0,"o3":176.0,"so2":7.0,"mosquito_risk":4,"arthritis_risk":5,"migraine_risk":7,"frizz_risk":0,"updated_at":"2026-05-21T09:32:29.023013+05:30"},{"city":"Dharamshala","state":"Himachal Pradesh","latitude":32.219,"longitude":76.3234,"temp":29.5,"humidity":22,"rain":0.0,"pressure":870.0,"uv_index":8.45,"wind_gusts":50.0,"aqi":59,"pm10":53.1,"pm2_5":13.2,"no2":1.1,"co":195.0,"o3":121.0,"so2":2.0,"mosquito_risk":4,"arthritis_risk":5,"migraine_risk":7,"frizz_risk":0,"updated_at":"2026-05-21T09:32:29.023021+05:30"},{"city":"Dalhousie","state":"Himachal Pradesh","latitude":32.5387,"longitude":75.971,"temp":25.5,"humidity":23,"rain":0.0,"pressure":807.9,"uv_index":8.65,"wind_gusts":37.1,"aqi":74,"pm10":59.3,"pm2_5":18.9,"no2":4.5,"co":217.0,"o3":141.0,"so2":2.6,"mosquito_risk":4,"arthritis_risk":5,"migraine_risk":7,"frizz_risk":0,"updated_at":"2026-05-21T09:32:29.023030+05:30"},{"city":"Patiala","state":"Punjab","latitude":30.3398,"longitude":76.3869,"temp":36.0,"humidity":27,"rain":0.0,"pressure":973.8,"uv_index":7.65,"wind_gusts":34.6,"aqi":172,"pm10":446.1,"pm2_5":105.9,"no2":13.4,"co":358.0,"o3":139.0,"so2":12.6,"mosquito_risk":0,"arthritis_risk":5,"migraine_risk":10,"frizz_risk":0,"updated_at":"2026-05-21T09:32:29.023038+05:30"},{"city":"Bhatinda","state":"Punjab","latitude":30.211,"longitude":74.9455,"temp":36.0,"humidity":28,"rain":0.0,"pressure":979.7,"uv_index":8.3,"wind_gusts":34.2,"aqi":98,"pm10":107.8,"pm2_5":41.2,"no2":9.3,"co":365.0,"o3":103.0,"so2":9.5,"mosquito_risk":0,"arthritis_risk":5,"migraine_risk":10,"frizz_risk":0,"updated_at":"2026-05-21T09:32:29.023045+05:30"},{"city":"Rohtak","state":"Haryana","latitude":28.8955,"longitude":76.6066,"temp":36.9,"humidity":27,"rain":0.0,"pressure":977.7,"uv_index":7.8,"wind_gusts":45.0,"aqi":518,"pm10":1579.5,"pm2_5":227.7,"no2":5.8,"co":202.0,"o3":89.0,"so2":4.8,"mosquito_risk":0,"arthritis_risk":5,"migraine_risk":10,"frizz_risk":0,"updated_at":"2026-05-21T09:32:29.023053+05:30"},{"city":"Panipat","state":"Haryana","latitude":29.3909,"longitude":76.9635,"temp":37.3,"humidity":24,"rain":0.0,"pressure":976.1,"uv_index":7.5,"wind_gusts":34.2,"aqi":924,"pm10":3062.2,"pm2_5":381.8,"no2":5.7,"co":348.0,"o3":85.0,"so2":7.9,"mosquito_risk":0,"arthritis_risk":5,"migraine_risk":10,"frizz_risk":0,"updated_at":"2026-05-21T09:32:29.023061+05:30"},{"city":"Mathura","state":"Uttar Pradesh","latitude":27.4924,"longitude":77.6737,"temp":37.3,"humidity":25,"rain":0.0,"pressure":983.2,"uv_index":8.05,"wind_gusts":44.3,"aqi":685,"pm10":1374.6,"pm2_5":171.8,"no2":5.2,"co":205.0,"o3":91.0,"so2":4.9,"mosquito_risk":0,"arthritis_risk":5,"migraine_risk":10,"frizz_risk":0,"updated_at":"2026-05-21T09:32:29.023069+05:30"},{"city":"Vrindavan","state":"Uttar Pradesh","latitude":27.5823,"longitude":77.7027,"temp":37.1,"humidity":26,"rain":0.0,"pressure":983.6,"uv_index":8.0,"wind_gusts":42.1,"aqi":685,"pm10":1374.6,"pm2_5":171.8,"no2":5.2,"co":196.0,"o3":91.0,"so2":4.9,"mosquito_risk":0,"arthritis_risk":5,"migraine_risk":10,"frizz_risk":0,"updated_at":"2026-05-21T09:32:29.023076+05:30"},{"city":"Ayodhya","state":"Uttar Pradesh","latitude":26.7922,"longitude":82.1998,"temp":34.6,"humidity":60,"rain":0.0,"pressure":991.6,"uv_index":8.4,"wind_gusts":29.5,"aqi":157,"pm10":110.4,"pm2_5":79.4,"no2":5.1,"co":524.0,"o3":166.0,"so2":16.9,"mosquito_risk":0,"arthritis_risk":5,"migraine_risk":7,"frizz_risk":1,"updated_at":"2026-05-21T09:32:29.023084+05:30"},{"city":"Ratlam","state":"Madhya Pradesh","latitude":23.3315,"longitude":75.0367,"temp":32.8,"humidity":44,"rain":0.0,"pressure":955.0,"uv_index":8.55,"wind_gusts":35.3,"aqi":65,"pm10":50.2,"pm2_5":21.9,"no2":4.1,"co":163.0,"o3":70.0,"so2":11.0,"mosquito_risk":0,"arthritis_risk":5,"migraine_risk":7,"frizz_risk":1,"updated_at":"2026-05-21T09:32:29.023092+05:30"},{"city":"Sagar","state":"Madhya Pradesh","latitude":23.8388,"longitude":78.7378,"temp":37.5,"humidity":15,"rain":0.0,"pressure":949.7,"uv_index":8.75,"wind_gusts":47.2,"aqi":48,"pm10":46.8,"pm2_5":17.3,"no2":1.9,"co":145.0,"o3":96.0,"so2":4.6,"mosquito_risk":0,"arthritis_risk":5,"migraine_risk":10,"frizz_risk":0,"updated_at":"2026-05-21T09:32:29.023100+05:30"},{"city":"Satna","state":"Madhya Pradesh","latitude":24.6005,"longitude":80.8322,"temp":38.2,"humidity":19,"rain":0.0,"pressure":969.3,"uv_index":8.8,"wind_gusts":41.8,"aqi":77,"pm10":22.2,"pm2_5":11.8,"no2":2.6,"co":160.0,"o3":106.0,"so2":5.5,"mosquito_risk":0,"arthritis_risk":5,"migraine_risk":10,"frizz_risk":0,"updated_at":"2026-05-21T09:32:29.023107+05:30"},{"city":"Akola","state":"Maharashtra","latitude":20.7002,"longitude":77.0082,"temp":36.0,"humidity":35,"rain":0.0,"pressure":974.1,"uv_index":8.9,"wind_gusts":42.1,"aqi":74,"pm10":40.2,"pm2_5":20.8,"no2":3.5,"co":158.0,"o3":108.0,"so2":11.8,"mosquito_risk":0,"arthritis_risk":5,"migraine_risk":10,"frizz_risk":1,"updated_at":"2026-05-21T09:32:29.023116+05:30"},{"city":"Amravati","state":"Maharashtra","latitude":20.9374,"longitude":77.7796,"temp":37.5,"humidity":25,"rain":0.0,"pressure":966.3,"uv_index":8.9,"wind_gusts":38.2,"aqi":73,"pm10":37.1,"pm2_5":20.4,"no2":3.8,"co":176.0,"o3":118.0,"so2":13.1,"mosquito_risk":0,"arthritis_risk":5,"migraine_risk":10,"frizz_risk":0,"updated_at":"2026-05-21T09:32:29.023124+05:30"},{"city":"Latur","state":"Maharashtra","latitude":18.4088,"longitude":76.5604,"temp":34.0,"humidity":40,"rain":0.0,"pressure":940.3,"uv_index":9.05,"wind_gusts":37.8,"aqi":92,"pm10":32.4,"pm2_5":21.2,"no2":4.4,"co":185.0,"o3":101.0,"so2":9.8,"mosquito_risk":0,"arthritis_risk":5,"migraine_risk":7,"frizz_risk":1,"updated_at":"2026-05-21T09:32:29.023132+05:30"},{"city":"Nanded","state":"Maharashtra","latitude":19.1383,"longitude":77.3091,"temp":37.2,"humidity":31,"rain":0.0,"pressure":967.8,"uv_index":9.0,"wind_gusts":42.8,"aqi":86,"pm10":28.3,"pm2_5":17.3,"no2":3.9,"co":184.0,"o3":103.0,"so2":5.6,"mosquito_risk":0,"arthritis_risk":5,"migraine_risk":10,"frizz_risk":1,"updated_at":"2026-05-21T09:32:29.023139+05:30"},{"city":"Gulbarga","state":"Karnataka","latitude":17.3297,"longitude":76.8343,"temp":33.0,"humidity":49,"rain":0.0,"pressure":958.9,"uv_index":9.05,"wind_gusts":39.6,"aqi":81,"pm10":29.8,"pm2_5":19.4,"no2":4.6,"co":177.0,"o3":88.0,"so2":5.2,"mosquito_risk":0,"arthritis_risk":5,"migraine_risk":7,"frizz_risk":1,"updated_at":"2026-05-21T09:32:29.023147+05:30"},{"city":"Bidar","state":"Karnataka","latitude":17.9104,"longitude":77.5199,"temp":33.5,"humidity":45,"rain":0.0,"pressure":935.9,"uv_index":9.1,"wind_gusts":37.4,"aqi":92,"pm10":32.0,"pm2_5":23.2,"no2":4.8,"co":212.0,"o3":121.0,"so2":10.0,"mosquito_risk":0,"arthritis_risk":5,"migraine_risk":7,"frizz_risk":1,"updated_at":"2026-05-21T09:32:29.023154+05:30"},{"city":"Hospet","state":"Karnataka","latitude":15.2689,"longitude":76.3909,"temp":28.6,"humidity":68,"rain":0.0,"pressure":957.1,"uv_index":8.85,"wind_gusts":49.0,"aqi":35,"pm10":6.4,"pm2_5":4.9,"no2":3.1,"co":167.0,"o3":70.0,"so2":2.0,"mosquito_risk":7,"arthritis_risk":5,"migraine_risk":7,"frizz_risk":1,"updated_at":"2026-05-21T09:32:29.023181+05:30"},{"city":"Tirupur","state":"Tamil Nadu","latitude":11.1085,"longitude":77.3411,"temp":32.1,"humidity":57,"rain":0.0,"pressure":975.5,"uv_index":9.1,"wind_gusts":53.6,"aqi":48,"pm10":8.6,"pm2_5":7.4,"no2":5.2,"co":182.0,"o3":76.0,"so2":3.3,"mosquito_risk":0,"arthritis_risk":5,"migraine_risk":7,"frizz_risk":1,"updated_at":"2026-05-21T09:32:29.023191+05:30"},{"city":"Alappuzha","state":"Kerala","latitude":9.4981,"longitude":76.3388,"temp":28.9,"humidity":83,"rain":0.1,"pressure":1010.1,"uv_index":8.45,"wind_gusts":46.4,"aqi":42,"pm10":9.6,"pm2_5":6.6,"no2":3.6,"co":100.0,"o3":56.0,"so2":2.0,"mosquito_risk":10,"arthritis_risk":0,"migraine_risk":4,"frizz_risk":1,"updated_at":"2026-05-21T09:32:29.023200+05:30"},{"city":"Munnar","state":"Kerala","latitude":10.0889,"longitude":77.0595,"temp":21.4,"humidity":84,"rain":0.0,"pressure":859.2,"uv_index":9.3,"wind_gusts":30.6,"aqi":27,"pm10":4.1,"pm2_5":3.3,"no2":1.7,"co":100.0,"o3":62.0,"so2":1.2,"mosquito_risk":3,"arthritis_risk":5,"migraine_risk":7,"frizz_risk":1,"updated_at":"2026-05-21T09:32:29.023208+05:30"},{"city":"Silchar","state":"Assam","latitude":24.8333,"longitude":92.7789,"temp":31.6,"humidity":68,"rain":0.0,"pressure":1003.2,"uv_index":8.95,"wind_gusts":25.2,"aqi":141,"pm10":40.9,"pm2_5":27.4,"no2":1.0,"co":243.0,"o3":118.0,"so2":5.1,"mosquito_risk":3,"arthritis_risk":5,"migraine_risk":4,"frizz_risk":1,"updated_at":"2026-05-21T09:32:29.023216+05:30"},{"city":"Dibrugarh","state":"Assam","latitude":27.4728,"longitude":94.912,"temp":30.4,"humidity":69,"rain":0.0,"pressure":994.4,"uv_index":8.95,"wind_gusts":18.7,"aqi":89,"pm10":31.8,"pm2_5":19.9,"no2":0.5,"co":275.0,"o3":134.0,"so2":1.7,"mosquito_risk":3,"arthritis_risk":5,"migraine_risk":7,"frizz_risk":1,"updated_at":"2026-05-21T09:32:29.023223+05:30"}]