[{"city":"Delhi","state":"Delhi","latitude":28.6139,"longitude":77.209,"temp":26.5,"humidity":97,"rain":0.3,"pressure":975.2,"uv_index":7.05,"wind_gusts":23.4,"aqi":131,"pm10":42.4,"pm2_5":38.9,"no2":17.0,"co":504.0,"o3":84.0,"so2":16.6,"mosquito_risk":10,"arthritis_risk":5,"migraine_risk":7,"frizz_risk":1,"updated_at":"2026-07-06T04:33:21.485627+05:30"},{"city":"Mumbai","state":"Maharashtra","latitude":19.076,"longitude":72.8777,"temp":26.2,"humidity":91,"rain":0.3,"pressure":999.0,"uv_index":1.15,"wind_gusts":67.7,"aqi":34,"pm10":17.5,"pm2_5":8.9,"no2":2.1,"co":97.0,"o3":56.0,"so2":2.0,"mosquito_risk":10,"arthritis_risk":5,"migraine_risk":3,"frizz_risk":1,"updated_at":"2026-07-06T04:33:21.485684+05:30"},{"city":"Bangalore","state":"Karnataka","latitude":12.9716,"longitude":77.5946,"temp":20.9,"humidity":87,"rain":0.0,"pressure":908.6,"uv_index":6.1,"wind_gusts":70.9,"aqi":29,"pm10":3.4,"pm2_5":2.2,"no2":3.2,"co":111.0,"o3":46.0,"so2":2.6,"mosquito_risk":3,"arthritis_risk":5,"migraine_risk":7,"frizz_risk":1,"updated_at":"2026-07-06T04:33:21.485701+05:30"},{"city":"Hyderabad","state":"Telangana","latitude":17.385,"longitude":78.4867,"temp":24.2,"humidity":82,"rain":0.0,"pressure":946.6,"uv_index":4.1,"wind_gusts":61.9,"aqi":20,"pm10":2.5,"pm2_5":2.2,"no2":4.7,"co":106.0,"o3":41.0,"so2":3.2,"mosquito_risk":3,"arthritis_risk":5,"migraine_risk":3,"frizz_risk":1,"updated_at":"2026-07-06T04:33:21.485713+05:30"},{"city":"Chennai","state":"Tamil Nadu","latitude":13.0827,"longitude":80.2707,"temp":29.3,"humidity":50,"rain":0.0,"pressure":1003.9,"uv_index":7.85,"wind_gusts":58.3,"aqi":52,"pm10":19.8,"pm2_5":12.4,"no2":9.0,"co":141.0,"o3":40.0,"so2":6.7,"mosquito_risk":4,"arthritis_risk":5,"migraine_risk":4,"frizz_risk":1,"updated_at":"2026-07-06T04:33:21.485723+05:30"},{"city":"Kolkata","state":"West Bengal","latitude":22.5726,"longitude":88.3639,"temp":26.1,"humidity":96,"rain":0.1,"pressure":993.3,"uv_index":7.6,"wind_gusts":42.1,"aqi":43,"pm10":10.1,"pm2_5":9.1,"no2":8.0,"co":203.0,"o3":62.0,"so2":5.1,"mosquito_risk":10,"arthritis_risk":5,"migraine_risk":7,"frizz_risk":1,"updated_at":"2026-07-06T04:33:21.485733+05:30"},{"city":"Pune","state":"Maharashtra","latitude":18.5204,"longitude":73.8567,"temp":23.2,"humidity":93,"rain":0.1,"pressure":939.3,"uv_index":1.0,"wind_gusts":60.5,"aqi":22,"pm10":1.6,"pm2_5":1.2,"no2":3.2,"co":97.0,"o3":50.0,"so2":2.7,"mosquito_risk":6,"arthritis_risk":5,"migraine_risk":3,"frizz_risk":1,"updated_at":"2026-07-06T04:33:21.485741+05:30"},{"city":"Ahmedabad","state":"Gujarat","latitude":23.0225,"longitude":72.5714,"temp":27.4,"humidity":92,"rain":0.0,"pressure":991.5,"uv_index":7.25,"wind_gusts":25.9,"aqi":85,"pm10":47.1,"pm2_5":25.1,"no2":12.3,"co":183.0,"o3":32.0,"so2":3.8,"mosquito_risk":7,"arthritis_risk":5,"migraine_risk":7,"frizz_risk":1,"updated_at":"2026-07-06T04:33:21.485752+05:30"},{"city":"Jaipur","state":"Rajasthan","latitude":26.9124,"longitude":75.7873,"temp":26.4,"humidity":96,"rain":0.0,"pressure":950.7,"uv_index":8.15,"wind_gusts":18.0,"aqi":70,"pm10":42.8,"pm2_5":27.1,"no2":37.0,"co":289.0,"o3":19.0,"so2":9.2,"mosquito_risk":7,"arthritis_risk":5,"migraine_risk":7,"frizz_risk":1,"updated_at":"2026-07-06T04:33:21.485760+05:30"},{"city":"Lucknow","state":"Uttar Pradesh","latitude":26.8467,"longitude":80.9462,"temp":28.6,"humidity":94,"rain":0.0,"pressure":984.5,"uv_index":8.15,"wind_gusts":42.1,"aqi":87,"pm10":42.6,"pm2_5":42.0,"no2":37.9,"co":417.0,"o3":24.0,"so2":9.9,"mosquito_risk":7,"arthritis_risk":5,"migraine_risk":7,"frizz_risk":1,"updated_at":"2026-07-06T04:33:21.485773+05:30"},{"city":"Kanpur","state":"Uttar Pradesh","latitude":26.4499,"longitude":80.3319,"temp":27.8,"humidity":95,"rain":0.0,"pressure":983.1,"uv_index":8.0,"wind_gusts":39.2,"aqi":72,"pm10":32.2,"pm2_5":31.7,"no2":37.5,"co":259.0,"o3":18.0,"so2":8.3,"mosquito_risk":7,"arthritis_risk":5,"migraine_risk":7,"frizz_risk":1,"updated_at":"2026-07-06T04:33:21.485782+05:30"},{"city":"Chandigarh","state":"Chandigarh","latitude":30.7333,"longitude":76.7794,"temp":25.1,"humidity":98,"rain":0.1,"pressure":961.7,"uv_index":6.9,"wind_gusts":28.8,"aqi":151,"pm10":31.5,"pm2_5":31.1,"no2":17.5,"co":292.0,"o3":78.0,"so2":9.7,"mosquito_risk":10,"arthritis_risk":5,"migraine_risk":7,"frizz_risk":1,"updated_at":"2026-07-06T04:33:21.485790+05:30"},{"city":"Srinagar","state":"Jammu and Kashmir","latitude":34.0837,"longitude":74.7973,"temp":18.7,"humidity":96,"rain":0.0,"pressure":835.3,"uv_index":9.05,"wind_gusts":28.8,"aqi":87,"pm10":39.0,"pm2_5":34.0,"no2":21.9,"co":351.0,"o3":15.0,"so2":0.9,"mosquito_risk":3,"arthritis_risk":10,"migraine_risk":7,"frizz_risk":1,"updated_at":"2026-07-06T04:33:21.485798+05:30"},{"city":"Jammu","state":"Jammu and Kashmir","latitude":32.7266,"longitude":74.857,"temp":26.6,"humidity":90,"rain":0.1,"pressure":964.9,"uv_index":8.6,"wind_gusts":31.0,"aqi":155,"pm10":54.1,"pm2_5":46.6,"no2":21.8,"co":342.0,"o3":55.0,"so2":3.6,"mosquito_risk":10,"arthritis_risk":5,"migraine_risk":7,"frizz_risk":1,"updated_at":"2026-07-06T04:33:21.485806+05:30"},{"city":"Amritsar","state":"Punjab","latitude":31.634,"longitude":74.8723,"temp":29.1,"humidity":86,"rain":0.0,"pressure":971.9,"uv_index":8.45,"wind_gusts":46.1,"aqi":166,"pm10":85.0,"pm2_5":80.6,"no2":16.2,"co":531.0,"o3":85.0,"so2":6.7,"mosquito_risk":7,"arthritis_risk":5,"migraine_risk":7,"frizz_risk":1,"updated_at":"2026-07-06T04:33:21.485814+05:30"},{"city":"Ludhiana","state":"Punjab","latitude":30.901,"longitude":75.8573,"temp":27.6,"humidity":90,"rain":0.0,"pressure":970.6,"uv_index":7.8,"wind_gusts":32.0,"aqi":170,"pm10":62.2,"pm2_5":46.1,"no2":19.6,"co":666.0,"o3":68.0,"so2":11.5,"mosquito_risk":7,"arthritis_risk":5,"migraine_risk":7,"frizz_risk":1,"updated_at":"2026-07-06T04:33:21.485823+05:30"},{"city":"Jalandhar","state":"Punjab","latitude":31.326,"longitude":75.5762,"temp":27.7,"humidity":90,"rain":0.0,"pressure":971.5,"uv_index":8.2,"wind_gusts":32.8,"aqi":173,"pm10":75.7,"pm2_5":68.0,"no2":26.1,"co":858.0,"o3":62.0,"so2":11.9,"mosquito_risk":7,"arthritis_risk":5,"migraine_risk":7,"frizz_risk":1,"updated_at":"2026-07-06T04:33:21.485831+05:30"},{"city":"Dehradun","state":"Uttarakhand","latitude":30.6284,"longitude":78.0322,"temp":19.2,"humidity":99,"rain":0.1,"pressure":826.7,"uv_index":6.75,"wind_gusts":27.0,"aqi":56,"pm10":10.6,"pm2_5":10.5,"no2":8.2,"co":228.0,"o3":72.0,"so2":0.9,"mosquito_risk":6,"arthritis_risk":10,"migraine_risk":7,"frizz_risk":1,"updated_at":"2026-07-06T04:33:21.485839+05:30"},{"city":"Shimla","state":"Himachal Pradesh","latitude":31.1048,"longitude":77.1734,"temp":15.6,"humidity":100,"rain":0.0,"pressure":780.2,"uv_index":7.45,"wind_gusts":25.9,"aqi":73,"pm10":11.1,"pm2_5":10.7,"no2":4.5,"co":329.0,"o3":116.0,"so2":3.6,"mosquito_risk":3,"arthritis_risk":10,"migraine_risk":7,"frizz_risk":0,"updated_at":"2026-07-06T04:33:21.485849+05:30"},{"city":"Manali","state":"Himachal Pradesh","latitude":32.2396,"longitude":77.1887,"temp":19.7,"humidity":79,"rain":0.2,"pressure":814.6,"uv_index":9.15,"wind_gusts":34.6,"aqi":46,"pm10":7.9,"pm2_5":7.6,"no2":6.5,"co":188.0,"o3":106.0,"so2":0.0,"mosquito_risk":6,"arthritis_risk":5,"migraine_risk":7,"frizz_risk":0,"updated_at":"2026-07-06T04:33:21.485859+05:30"},{"city":"Gurgaon","state":"Haryana","latitude":28.4595,"longitude":77.0266,"temp":26.5,"humidity":98,"rain":0.2,"pressure":973.5,"uv_index":7.0,"wind_gusts":23.4,"aqi":137,"pm10":43.1,"pm2_5":36.7,"no2":13.6,"co":416.0,"o3":84.0,"so2":10.2,"mosquito_risk":10,"arthritis_risk":5,"migraine_risk":7,"frizz_risk":1,"updated_at":"2026-07-06T04:33:21.485866+05:30"},{"city":"Noida","state":"Uttar Pradesh","latitude":28.5355,"longitude":77.391,"temp":26.6,"humidity":97,"rain":0.2,"pressure":976.5,"uv_index":6.4,"wind_gusts":23.4,"aqi":137,"pm10":43.1,"pm2_5":36.7,"no2":13.6,"co":365.0,"o3":84.0,"so2":10.2,"mosquito_risk":10,"arthritis_risk":5,"migraine_risk":7,"frizz_risk":1,"updated_at":"2026-07-06T04:33:21.485874+05:30"},{"city":"Ghaziabad","state":"Uttar Pradesh","latitude":28.6692,"longitude":77.4538,"temp":26.3,"humidity":96,"rain":0.2,"pressure":974.8,"uv_index":7.1,"wind_gusts":28.1,"aqi":105,"pm10":34.0,"pm2_5":32.8,"no2":11.9,"co":401.0,"o3":83.0,"so2":5.0,"mosquito_risk":10,"arthritis_risk":5,"migraine_risk":7,"frizz_risk":1,"updated_at":"2026-07-06T04:33:21.485882+05:30"},{"city":"Faridabad","state":"Haryana","latitude":28.4089,"longitude":77.3178,"temp":26.6,"humidity":96,"rain":0.2,"pressure":975.9,"uv_index":7.0,"wind_gusts":23.0,"aqi":137,"pm10":43.1,"pm2_5":36.7,"no2":13.6,"co":453.0,"o3":84.0,"so2":10.2,"mosquito_risk":10,"arthritis_risk":5,"migraine_risk":7,"frizz_risk":1,"updated_at":"2026-07-06T04:33:21.485890+05:30"},{"city":"Meerut","state":"Uttar Pradesh","latitude":28.9845,"longitude":77.7064,"temp":25.8,"humidity":98,"rain":0.3,"pressure":974.3,"uv_index":6.3,"wind_gusts":29.5,"aqi":105,"pm10":34.0,"pm2_5":32.8,"no2":11.9,"co":379.0,"o3":83.0,"so2":5.0,"mosquito_risk":10,"arthritis_risk":5,"migraine_risk":7,"frizz_risk":1,"updated_at":"2026-07-06T04:33:21.485897+05:30"},{"city":"Agra","state":"Uttar Pradesh","latitude":27.1767,"longitude":78.0081,"temp":26.8,"humidity":98,"rain":0.0,"pressure":979.0,"uv_index":8.05,"wind_gusts":28.8,"aqi":101,"pm10":24.5,"pm2_5":20.7,"no2":13.7,"co":328.0,"o3":69.0,"so2":4.4,"mosquito_risk":7,"arthritis_risk":5,"migraine_risk":7,"frizz_risk":1,"updated_at":"2026-07-06T04:33:21.485905+05:30"},{"city":"Varanasi","state":"Uttar Pradesh","latitude":25.3176,"longitude":82.9739,"temp":28.7,"humidity":81,"rain":0.0,"pressure":986.9,"uv_index":5.7,"wind_gusts":52.9,"aqi":72,"pm10":14.8,"pm2_5":14.2,"no2":11.8,"co":304.0,"o3":58.0,"so2":6.6,"mosquito_risk":7,"arthritis_risk":5,"migraine_risk":3,"frizz_risk":1,"updated_at":"2026-07-06T04:33:21.485913+05:30"},{"city":"Prayagraj","state":"Uttar Pradesh","latitude":25.4358,"longitude":81.8463,"temp":28.8,"humidity":84,"rain":0.1,"pressure":985.9,"uv_index":7.05,"wind_gusts":50.4,"aqi":79,"pm10":15.7,"pm2_5":15.2,"no2":14.6,"co":350.0,"o3":60.0,"so2":6.1,"mosquito_risk":10,"arthritis_risk":5,"migraine_risk":7,"frizz_risk":1,"updated_at":"2026-07-06T04:33:21.485920+05:30"},{"city":"Gorakhpur","state":"Uttar Pradesh","latitude":26.7606,"longitude":83.3732,"temp":29.4,"humidity":78,"rain":0.0,"pressure":988.0,"uv_index":5.65,"wind_gusts":50.4,"aqi":79,"pm10":15.1,"pm2_5":14.6,"no2":11.4,"co":402.0,"o3":63.0,"so2":4.9,"mosquito_risk":7,"arthritis_risk":5,"migraine_risk":3,"frizz_risk":1,"updated_at":"2026-07-06T04:33:21.485927+05:30"},{"city":"Bareilly","state":"Uttar Pradesh","latitude":28.367,"longitude":79.4304,"temp":27.8,"humidity":92,"rain":0.0,"pressure":978.5,"uv_index":5.35,"wind_gusts":25.9,"aqi":76,"pm10":24.6,"pm2_5":24.0,"no2":20.9,"co":444.0,"o3":41.0,"so2":2.9,"mosquito_risk":7,"arthritis_risk":5,"migraine_risk":3,"frizz_risk":1,"updated_at":"2026-07-06T04:33:21.485937+05:30"},{"city":"Aligarh","state":"Uttar Pradesh","latitude":27.8974,"longitude":78.088,"temp":26.5,"humidity":96,"rain":0.1,"pressure":976.9,"uv_index":6.0,"wind_gusts":32.4,"aqi":98,"pm10":30.6,"pm2_5":27.9,"no2":12.7,"co":277.0,"o3":78.0,"so2":4.8,"mosquito_risk":10,"arthritis_risk":5,"migraine_risk":3,"frizz_risk":1,"updated_at":"2026-07-06T04:33:21.485945+05:30"},{"city":"Moradabad","state":"Uttar Pradesh","latitude":28.8386,"longitude":78.7733,"temp":26.5,"humidity":91,"rain":0.0,"pressure":976.5,"uv_index":4.5,"wind_gusts":37.1,"aqi":91,"pm10":21.9,"pm2_5":21.6,"no2":16.6,"co":428.0,"o3":67.0,"so2":4.4,"mosquito_risk":7,"arthritis_risk":5,"migraine_risk":3,"frizz_risk":1,"updated_at":"2026-07-06T04:33:21.485952+05:30"},{"city":"Saharanpur","state":"Uttar Pradesh","latitude":29.9637,"longitude":77.546,"temp":25.6,"humidity":97,"rain":0.3,"pressure":969.0,"uv_index":5.8,"wind_gusts":24.1,"aqi":121,"pm10":27.6,"pm2_5":27.4,"no2":15.6,"co":287.0,"o3":67.0,"so2":3.6,"mosquito_risk":10,"arthritis_risk":5,"migraine_risk":3,"frizz_risk":1,"updated_at":"2026-07-06T04:33:21.485959+05:30"},{"city":"Jhansi","state":"Uttar Pradesh","latitude":25.4484,"longitude":78.5685,"temp":27.0,"humidity":96,"rain":0.2,"pressure":969.0,"uv_index":8.3,"wind_gusts":33.1,"aqi":56,"pm10":13.3,"pm2_5":12.9,"no2":13.8,"co":240.0,"o3":55.0,"so2":2.5,"mosquito_risk":10,"arthritis_risk":5,"migraine_risk":7,"frizz_risk":1,"updated_at":"2026-07-06T04:33:24.737682+05:30"},{"city":"Surat","state":"Gujarat","latitude":21.1702,"longitude":72.8311,"temp":26.3,"humidity":99,"rain":0.0,"pressure":996.0,"uv_index":6.35,"wind_gusts":30.2,"aqi":88,"pm10":40.7,"pm2_5":25.1,"no2":26.0,"co":280.0,"o3":32.0,"so2":34.6,"mosquito_risk":7,"arthritis_risk":5,"migraine_risk":7,"frizz_risk":1,"updated_at":"2026-07-06T04:33:24.737715+05:30"},{"city":"Vadodara","state":"Gujarat","latitude":22.3072,"longitude":73.1812,"temp":26.8,"humidity":97,"rain":0.0,"pressure":993.8,"uv_index":7.45,"wind_gusts":24.8,"aqi":73,"pm10":37.1,"pm2_5":24.7,"no2":16.8,"co":243.0,"o3":33.0,"so2":6.4,"mosquito_risk":7,"arthritis_risk":5,"migraine_risk":7,"frizz_risk":1,"updated_at":"2026-07-06T04:33:24.737726+05:30"},{"city":"Rajkot","state":"Gujarat","latitude":22.3039,"longitude":70.8022,"temp":27.7,"humidity":86,"rain":0.0,"pressure":984.2,"uv_index":7.55,"wind_gusts":40.7,"aqi":75,"pm10":71.0,"pm2_5":31.9,"no2":5.9,"co":95.0,"o3":42.0,"so2":4.6,"mosquito_risk":7,"arthritis_risk":5,"migraine_risk":7,"frizz_risk":1,"updated_at":"2026-07-06T04:33:24.737735+05:30"},{"city":"Thane","state":"Maharashtra","latitude":19.2183,"longitude":72.9781,"temp":25.4,"humidity":96,"rain":0.4,"pressure":998.1,"uv_index":0.5,"wind_gusts":44.3,"aqi":34,"pm10":17.5,"pm2_5":8.9,"no2":2.1,"co":105.0,"o3":56.0,"so2":2.0,"mosquito_risk":10,"arthritis_risk":5,"migraine_risk":3,"frizz_risk":1,"updated_at":"2026-07-06T04:33:24.737743+05:30"},{"city":"Nagpur","state":"Maharashtra","latitude":21.1458,"longitude":79.0882,"temp":25.4,"humidity":88,"rain":0.0,"pressure":963.7,"uv_index":6.4,"wind_gusts":49.7,"aqi":52,"pm10":7.7,"pm2_5":7.6,"no2":12.2,"co":166.0,"o3":27.0,"so2":8.1,"mosquito_risk":7,"arthritis_risk":5,"migraine_risk":7,"frizz_risk":1,"updated_at":"2026-07-06T04:33:24.737751+05:30"},{"city":"Nashik","state":"Maharashtra","latitude":19.9975,"longitude":73.7898,"temp":22.7,"humidity":96,"rain":0.0,"pressure":935.4,"uv_index":1.5,"wind_gusts":43.6,"aqi":20,"pm10":1.0,"pm2_5":1.0,"no2":3.5,"co":98.0,"o3":48.0,"so2":1.2,"mosquito_risk":3,"arthritis_risk":5,"migraine_risk":3,"frizz_risk":1,"updated_at":"2026-07-06T04:33:24.737759+05:30"},{"city":"Aurangabad","state":"Maharashtra","latitude":19.8762,"longitude":75.3433,"temp":22.4,"humidity":96,"rain":0.2,"pressure":934.4,"uv_index":3.25,"wind_gusts":40.7,"aqi":21,"pm10":1.3,"pm2_5":1.2,"no2":5.2,"co":106.0,"o3":42.0,"so2":3.3,"mosquito_risk":6,"arthritis_risk":5,"migraine_risk":3,"frizz_risk":1,"updated_at":"2026-07-06T04:33:24.737767+05:30"},{"city":"Solapur","state":"Maharashtra","latitude":17.6599,"longitude":75.9064,"temp":24.0,"humidity":90,"rain":0.0,"pressure":950.1,"uv_index":1.3,"wind_gusts":68.4,"aqi":20,"pm10":2.1,"pm2_5":1.7,"no2":3.3,"co":104.0,"o3":45.0,"so2":1.5,"mosquito_risk":3,"arthritis_risk":5,"migraine_risk":3,"frizz_risk":1,"updated_at":"2026-07-06T04:33:24.737775+05:30"},{"city":"Kolhapur","state":"Maharashtra","latitude":16.705,"longitude":74.2433,"temp":22.4,"humidity":96,"rain":0.1,"pressure":941.2,"uv_index":0.85,"wind_gusts":64.8,"aqi":23,"pm10":5.2,"pm2_5":3.0,"no2":1.6,"co":97.0,"o3":53.0,"so2":1.0,"mosquito_risk":6,"arthritis_risk":5,"migraine_risk":3,"frizz_risk":1,"updated_at":"2026-07-06T04:33:24.737782+05:30"},{"city":"Goa","state":"Goa","latitude":15.2993,"longitude":74.124,"temp":23.4,"humidity":98,"rain":0.7,"pressure":994.2,"uv_index":2.6,"wind_gusts":45.7,"aqi":56,"pm10":26.3,"pm2_5":13.0,"no2":1.2,"co":123.0,"o3":56.0,"so2":0.6,"mosquito_risk":6,"arthritis_risk":5,"migraine_risk":3,"frizz_risk":1,"updated_at":"2026-07-06T04:33:24.737789+05:30"},{"city":"Jodhpur","state":"Rajasthan","latitude":26.2389,"longitude":73.0243,"temp":29.1,"humidity":86,"rain":0.0,"pressure":972.7,"uv_index":8.45,"wind_gusts":16.2,"aqi":88,"pm10":40.0,"pm2_5":18.8,"no2":10.9,"co":187.0,"o3":44.0,"so2":2.0,"mosquito_risk":7,"arthritis_risk":5,"migraine_risk":7,"frizz_risk":1,"updated_at":"2026-07-06T04:33:24.737796+05:30"},{"city":"Udaipur","state":"Rajasthan","latitude":24.5854,"longitude":73.7125,"temp":25.5,"humidity":96,"rain":0.0,"pressure":936.6,"uv_index":7.55,"wind_gusts":27.0,"aqi":67,"pm10":26.0,"pm2_5":20.4,"no2":11.3,"co":252.0,"o3":41.0,"so2":2.0,"mosquito_risk":7,"arthritis_risk":5,"migraine_risk":7,"frizz_risk":1,"updated_at":"2026-07-06T04:33:24.737803+05:30"},{"city":"Kota","state":"Rajasthan","latitude":25.2138,"longitude":75.8648,"temp":26.6,"humidity":94,"rain":0.0,"pressure":969.3,"uv_index":8.25,"wind_gusts":21.6,"aqi":73,"pm10":44.9,"pm2_5":44.0,"no2":48.0,"co":361.0,"o3":5.0,"so2":13.7,"mosquito_risk":7,"arthritis_risk":5,"migraine_risk":7,"frizz_risk":1,"updated_at":"2026-07-06T04:33:24.737810+05:30"},{"city":"Bikaner","state":"Rajasthan","latitude":28.0229,"longitude":73.3119,"temp":29.9,"humidity":76,"rain":0.0,"pressure":971.7,"uv_index":8.45,"wind_gusts":32.8,"aqi":116,"pm10":47.8,"pm2_5":19.0,"no2":4.2,"co":208.0,"o3":68.0,"so2":2.8,"mosquito_risk":7,"arthritis_risk":5,"migraine_risk":7,"frizz_risk":1,"updated_at":"2026-07-06T04:33:24.737817+05:30"},{"city":"Ajmer","state":"Rajasthan","latitude":26.4499,"longitude":74.6399,"temp":26.8,"humidity":91,"rain":0.0,"pressure":945.6,"uv_index":8.3,"wind_gusts":18.4,"aqi":72,"pm10":13.6,"pm2_5":13.1,"no2":19.2,"co":389.0,"o3":32.0,"so2":3.2,"mosquito_risk":7,"arthritis_risk":5,"migraine_risk":7,"frizz_risk":1,"updated_at":"2026-07-06T04:33:24.737824+05:30"},{"city":"Gwalior","state":"Madhya Pradesh","latitude":26.2183,"longitude":78.1828,"temp":26.4,"humidity":97,"rain":0.0,"pressure":974.0,"uv_index":8.15,"wind_gusts":28.4,"aqi":62,"pm10":13.1,"pm2_5":12.8,"no2":11.3,"co":250.0,"o3":65.0,"so2":2.8,"mosquito_risk":7,"arthritis_risk":5,"migraine_risk":7,"frizz_risk":1,"updated_at":"2026-07-06T04:33:24.737831+05:30"},{"city":"Indore","state":"Madhya Pradesh","latitude":22.7196,"longitude":75.8577,"temp":25.2,"humidity":94,"rain":0.0,"pressure":938.4,"uv_index":8.2,"wind_gusts":24.8,"aqi":105,"pm10":95.5,"pm2_5":92.4,"no2":49.5,"co":524.0,"o3":11.0,"so2":11.2,"mosquito_risk":7,"arthritis_risk":5,"migraine_risk":7,"frizz_risk":1,"updated_at":"2026-07-06T04:33:24.737837+05:30"},{"city":"Bhopal","state":"Madhya Pradesh","latitude":23.2599,"longitude":77.4126,"temp":25.1,"humidity":97,"rain":0.0,"pressure":943.9,"uv_index":8.3,"wind_gusts":25.6,"aqi":81,"pm10":36.4,"pm2_5":35.9,"no2":17.5,"co":385.0,"o3":43.0,"so2":2.9,"mosquito_risk":7,"arthritis_risk":5,"migraine_risk":7,"frizz_risk":1,"updated_at":"2026-07-06T04:33:24.737845+05:30"},{"city":"Jabalpur","state":"Madhya Pradesh","latitude":23.1815,"longitude":79.9864,"temp":25.1,"humidity":94,"rain":0.1,"pressure":952.1,"uv_index":8.25,"wind_gusts":27.4,"aqi":63,"pm10":11.2,"pm2_5":11.1,"no2":6.7,"co":207.0,"o3":73.0,"so2":2.4,"mosquito_risk":10,"arthritis_risk":5,"migraine_risk":7,"frizz_risk":1,"updated_at":"2026-07-06T04:33:24.737852+05:30"},{"city":"Ujjain","state":"Madhya Pradesh","latitude":23.1765,"longitude":75.7885,"temp":25.5,"humidity":94,"rain":0.0,"pressure":943.9,"uv_index":7.7,"wind_gusts":31.0,"aqi":105,"pm10":64.0,"pm2_5":61.5,"no2":23.0,"co":618.0,"o3":34.0,"so2":5.7,"mosquito_risk":7,"arthritis_risk":5,"migraine_risk":7,"frizz_risk":1,"updated_at":"2026-07-06T04:33:24.737859+05:30"},{"city":"Visakhapatnam","state":"Andhra Pradesh","latitude":17.6868,"longitude":83.2185,"temp":28.0,"humidity":68,"rain":0.0,"pressure":994.6,"uv_index":8.4,"wind_gusts":65.2,"aqi":39,"pm10":19.5,"pm2_5":14.1,"no2":12.5,"co":191.0,"o3":36.0,"so2":18.1,"mosquito_risk":7,"arthritis_risk":5,"migraine_risk":7,"frizz_risk":1,"updated_at":"2026-07-06T04:33:24.737866+05:30"},{"city":"Vijayawada","state":"Andhra Pradesh","latitude":16.5062,"longitude":80.648,"temp":27.9,"humidity":68,"rain":0.0,"pressure":996.4,"uv_index":2.2,"wind_gusts":55.1,"aqi":38,"pm10":15.3,"pm2_5":9.1,"no2":5.6,"co":118.0,"o3":39.0,"so2":4.3,"mosquito_risk":7,"arthritis_risk":5,"migraine_risk":3,"frizz_risk":1,"updated_at":"2026-07-06T04:33:24.737873+05:30"},{"city":"Guntur","state":"Andhra Pradesh","latitude":16.3067,"longitude":80.4365,"temp":29.1,"humidity":60,"rain":0.0,"pressure":997.8,"uv_index":2.95,"wind_gusts":59.8,"aqi":34,"pm10":14.5,"pm2_5":8.5,"no2":5.5,"co":110.0,"o3":40.0,"so2":4.5,"mosquito_risk":4,"arthritis_risk":5,"migraine_risk":3,"frizz_risk":1,"updated_at":"2026-07-06T04:33:24.737880+05:30"},{"city":"Nellore","state":"Andhra Pradesh","latitude":14.4426,"longitude":79.9865,"temp":29.3,"humidity":52,"rain":0.0,"pressure":1001.5,"uv_index":8.2,"wind_gusts":56.5,"aqi":37,"pm10":17.3,"pm2_5":10.1,"no2":4.1,"co":114.0,"o3":44.0,"so2":2.4,"mosquito_risk":4,"arthritis_risk":5,"migraine_risk":4,"frizz_risk":1,"updated_at":"2026-07-06T04:33:24.737888+05:30"},{"city":"Kurnool","state":"Andhra Pradesh","latitude":15.8281,"longitude":78.0373,"temp":26.0,"humidity":75,"rain":0.0,"pressure":972.0,"uv_index":5.6,"wind_gusts":63.7,"aqi":22,"pm10":3.7,"pm2_5":2.4,"no2":3.6,"co":101.0,"o3":46.0,"so2":2.9,"mosquito_risk":7,"arthritis_risk":5,"migraine_risk":3,"frizz_risk":1,"updated_at":"2026-07-06T04:33:24.737896+05:30"},{"city":"Kakinada","state":"Andhra Pradesh","latitude":16.9891,"longitude":82.2475,"temp":28.7,"humidity":60,"rain":0.0,"pressure":1000.3,"uv_index":5.5,"wind_gusts":65.9,"aqi":46,"pm10":19.7,"pm2_5":12.3,"no2":7.4,"co":147.0,"o3":41.0,"so2":4.6,"mosquito_risk":4,"arthritis_risk":5,"migraine_risk":0,"frizz_risk":1,"updated_at":"2026-07-06T04:33:24.737903+05:30"},{"city":"Tirupati","state":"Andhra Pradesh","latitude":13.6288,"longitude":79.4192,"temp":27.0,"humidity":57,"rain":0.0,"pressure":987.6,"uv_index":8.55,"wind_gusts":56.9,"aqi":37,"pm10":15.3,"pm2_5":9.1,"no2":5.1,"co":118.0,"o3":40.0,"so2":2.1,"mosquito_risk":4,"arthritis_risk":5,"migraine_risk":7,"frizz_risk":1,"updated_at":"2026-07-06T04:33:24.737910+05:30"},{"city":"Warangal","state":"Telangana","latitude":17.9689,"longitude":79.5941,"temp":26.8,"humidity":71,"rain":0.0,"pressure":971.4,"uv_index":2.1,"wind_gusts":43.2,"aqi":21,"pm10":4.1,"pm2_5":3.5,"no2":5.8,"co":119.0,"o3":38.0,"so2":2.6,"mosquito_risk":7,"arthritis_risk":5,"migraine_risk":3,"frizz_risk":1,"updated_at":"2026-07-06T04:33:24.737917+05:30"},{"city":"Nizamabad","state":"Telangana","latitude":18.6725,"longitude":78.0941,"temp":25.2,"humidity":80,"rain":0.0,"pressure":956.8,"uv_index":2.65,"wind_gusts":49.0,"aqi":20,"pm10":2.7,"pm2_5":2.5,"no2":4.6,"co":113.0,"o3":39.0,"so2":2.0,"mosquito_risk":7,"arthritis_risk":5,"migraine_risk":3,"frizz_risk":1,"updated_at":"2026-07-06T04:33:24.737924+05:30"},{"city":"Mysore","state":"Karnataka","latitude":12.2958,"longitude":76.6396,"temp":21.1,"humidity":91,"rain":0.0,"pressure":926.1,"uv_index":7.6,"wind_gusts":69.5,"aqi":23,"pm10":2.5,"pm2_5":1.6,"no2":2.3,"co":90.0,"o3":47.0,"so2":1.4,"mosquito_risk":3,"arthritis_risk":5,"migraine_risk":7,"frizz_risk":1,"updated_at":"2026-07-06T04:33:24.737931+05:30"},{"city":"Mangalore","state":"Karnataka","latitude":12.9141,"longitude":74.856,"temp":26.1,"humidity":83,"rain":0.0,"pressure":1004.7,"uv_index":7.1,"wind_gusts":57.6,"aqi":56,"pm10":30.6,"pm2_5":14.1,"no2":3.4,"co":99.0,"o3":43.0,"so2":1.2,"mosquito_risk":7,"arthritis_risk":5,"migraine_risk":4,"frizz_risk":1,"updated_at":"2026-07-06T04:33:24.737938+05:30"},{"city":"Hubli-Dharwad","state":"Karnataka","latitude":15.3647,"longitude":75.124,"temp":21.8,"humidity":96,"rain":0.0,"pressure":935.8,"uv_index":4.75,"wind_gusts":68.0,"aqi":23,"pm10":1.8,"pm2_5":1.1,"no2":1.2,"co":87.0,"o3":51.0,"so2":0.6,"mosquito_risk":3,"arthritis_risk":5,"migraine_risk":3,"frizz_risk":1,"updated_at":"2026-07-06T04:33:24.737945+05:30"},{"city":"Belgaum","state":"Karnataka","latitude":15.8497,"longitude":74.4977,"temp":21.0,"humidity":97,"rain":0.1,"pressure":919.9,"uv_index":1.95,"wind_gusts":68.8,"aqi":23,"pm10":3.5,"pm2_5":2.0,"no2":1.7,"co":90.0,"o3":53.0,"so2":0.8,"mosquito_risk":6,"arthritis_risk":5,"migraine_risk":3,"frizz_risk":1,"updated_at":"2026-07-06T04:33:27.994013+05:30"},{"city":"Coimbatore","state":"Tamil Nadu","latitude":11.0168,"longitude":76.9558,"temp":22.6,"humidity":95,"rain":0.0,"pressure":960.2,"uv_index":8.4,"wind_gusts":66.2,"aqi":26,"pm10":5.8,"pm2_5":3.2,"no2":2.1,"co":101.0,"o3":44.0,"so2":1.6,"mosquito_risk":3,"arthritis_risk":5,"migraine_risk":7,"frizz_risk":1,"updated_at":"2026-07-06T04:33:27.994048+05:30"},{"city":"Madurai","state":"Tamil Nadu","latitude":9.9252,"longitude":78.1198,"temp":27.4,"humidity":66,"rain":0.0,"pressure":991.6,"uv_index":7.85,"wind_gusts":74.5,"aqi":56,"pm10":31.7,"pm2_5":22.5,"no2":25.4,"co":96.0,"o3":6.0,"so2":4.4,"mosquito_risk":7,"arthritis_risk":5,"migraine_risk":7,"frizz_risk":1,"updated_at":"2026-07-06T04:33:27.994059+05:30"},{"city":"Trichy","state":"Tamil Nadu","latitude":10.7905,"longitude":78.7047,"temp":27.8,"humidity":63,"rain":0.0,"pressure":997.8,"uv_index":8.1,"wind_gusts":68.8,"aqi":42,"pm10":15.4,"pm2_5":9.6,"no2":6.2,"co":116.0,"o3":38.0,"so2":2.8,"mosquito_risk":7,"arthritis_risk":5,"migraine_risk":7,"frizz_risk":1,"updated_at":"2026-07-06T04:33:27.994069+05:30"},{"city":"Salem","state":"Tamil Nadu","latitude":11.6643,"longitude":78.146,"temp":24.1,"humidity":87,"rain":0.0,"pressure":975.9,"uv_index":8.3,"wind_gusts":45.0,"aqi":50,"pm10":17.9,"pm2_5":12.8,"no2":13.3,"co":132.0,"o3":26.0,"so2":5.3,"mosquito_risk":3,"arthritis_risk":5,"migraine_risk":7,"frizz_risk":1,"updated_at":"2026-07-06T04:33:27.994077+05:30"},{"city":"Tirunelveli","state":"Tamil Nadu","latitude":8.7139,"longitude":77.7567,"temp":27.5,"humidity":70,"rain":0.0,"pressure":1002.4,"uv_index":8.65,"wind_gusts":61.2,"aqi":43,"pm10":10.4,"pm2_5":6.6,"no2":4.9,"co":106.0,"o3":35.0,"so2":1.9,"mosquito_risk":7,"arthritis_risk":5,"migraine_risk":4,"frizz_risk":1,"updated_at":"2026-07-06T04:33:27.994086+05:30"},{"city":"Vellore","state":"Tamil Nadu","latitude":12.9165,"longitude":79.1325,"temp":26.7,"humidity":63,"rain":0.0,"pressure":981.5,"uv_index":8.1,"wind_gusts":59.4,"aqi":37,"pm10":14.6,"pm2_5":8.8,"no2":4.5,"co":109.0,"o3":42.0,"so2":2.6,"mosquito_risk":7,"arthritis_risk":5,"migraine_risk":7,"frizz_risk":1,"updated_at":"2026-07-06T04:33:27.994094+05:30"},{"city":"Erode","state":"Tamil Nadu","latitude":11.341,"longitude":77.7172,"temp":24.7,"humidity":83,"rain":0.0,"pressure":987.5,"uv_index":8.35,"wind_gusts":66.6,"aqi":44,"pm10":14.5,"pm2_5":10.6,"no2":11.1,"co":102.0,"o3":32.0,"so2":3.1,"mosquito_risk":3,"arthritis_risk":5,"migraine_risk":7,"frizz_risk":1,"updated_at":"2026-07-06T04:33:27.994102+05:30"},{"city":"Kochi","state":"Kerala","latitude":9.9312,"longitude":76.2673,"temp":27.5,"humidity":81,"rain":0.0,"pressure":1009.0,"uv_index":7.7,"wind_gusts":44.6,"aqi":55,"pm10":22.2,"pm2_5":12.5,"no2":6.2,"co":84.0,"o3":34.0,"so2":2.5,"mosquito_risk":7,"arthritis_risk":0,"migraine_risk":4,"frizz_risk":1,"updated_at":"2026-07-06T04:33:27.994111+05:30"},{"city":"Thiruvananthapuram","state":"Kerala","latitude":8.5241,"longitude":76.9366,"temp":25.3,"humidity":91,"rain":0.0,"pressure":1008.5,"uv_index":8.4,"wind_gusts":45.7,"aqi":54,"pm10":29.6,"pm2_5":13.9,"no2":1.7,"co":85.0,"o3":54.0,"so2":0.8,"mosquito_risk":7,"arthritis_risk":0,"migraine_risk":4,"frizz_risk":1,"updated_at":"2026-07-06T04:33:27.994120+05:30"},{"city":"Kozhikode","state":"Kerala","latitude":11.2588,"longitude":75.7804,"temp":23.9,"humidity":96,"rain":0.1,"pressure":1008.1,"uv_index":8.05,"wind_gusts":33.5,"aqi":54,"pm10":34.3,"pm2_5":14.9,"no2":0.6,"co":100.0,"o3":59.0,"so2":0.5,"mosquito_risk":6,"arthritis_risk":0,"migraine_risk":4,"frizz_risk":1,"updated_at":"2026-07-06T04:33:27.994128+05:30"},{"city":"Thrissur","state":"Kerala","latitude":10.5276,"longitude":76.2144,"temp":25.1,"humidity":92,"rain":0.0,"pressure":1007.2,"uv_index":8.1,"wind_gusts":47.9,"aqi":52,"pm10":20.7,"pm2_5":11.6,"no2":5.4,"co":92.0,"o3":34.0,"so2":2.1,"mosquito_risk":7,"arthritis_risk":5,"migraine_risk":4,"frizz_risk":1,"updated_at":"2026-07-06T04:33:27.994137+05:30"},{"city":"Kannur","state":"Kerala","latitude":11.8745,"longitude":75.3704,"temp":25.5,"humidity":95,"rain":0.0,"pressure":1006.4,"uv_index":8.6,"wind_gusts":51.8,"aqi":54,"pm10":27.9,"pm2_5":13.7,"no2":2.5,"co":107.0,"o3":47.0,"so2":1.0,"mosquito_risk":7,"arthritis_risk":5,"migraine_risk":4,"frizz_risk":1,"updated_at":"2026-07-06T04:33:27.994144+05:30"},{"city":"Patna","state":"Bihar","latitude":25.5941,"longitude":85.1376,"temp":27.9,"humidity":82,"rain":0.0,"pressure":990.3,"uv_index":6.35,"wind_gusts":55.8,"aqi":58,"pm10":15.2,"pm2_5":14.5,"no2":10.5,"co":209.0,"o3":59.0,"so2":6.2,"mosquito_risk":7,"arthritis_risk":5,"migraine_risk":7,"frizz_risk":1,"updated_at":"2026-07-06T04:33:27.994151+05:30"},{"city":"Gaya","state":"Bihar","latitude":24.7914,"longitude":85.0002,"temp":26.9,"humidity":87,"rain":0.0,"pressure":982.8,"uv_index":5.9,"wind_gusts":47.9,"aqi":57,"pm10":13.7,"pm2_5":13.0,"no2":10.3,"co":219.0,"o3":65.0,"so2":9.0,"mosquito_risk":7,"arthritis_risk":5,"migraine_risk":3,"frizz_risk":1,"updated_at":"2026-07-06T04:33:27.994159+05:30"},{"city":"Muzaffarpur","state":"Bihar","latitude":26.1209,"longitude":85.3647,"temp":28.3,"humidity":79,"rain":0.0,"pressure":991.0,"uv_index":4.15,"wind_gusts":57.2,"aqi":57,"pm10":14.1,"pm2_5":13.5,"no2":9.2,"co":221.0,"o3":58.0,"so2":4.9,"mosquito_risk":7,"arthritis_risk":5,"migraine_risk":3,"frizz_risk":1,"updated_at":"2026-07-06T04:33:27.994167+05:30"},{"city":"Bhagalpur","state":"Bihar","latitude":25.2425,"longitude":87.0117,"temp":27.0,"humidity":88,"rain":0.0,"pressure":991.4,"uv_index":6.65,"wind_gusts":60.1,"aqi":49,"pm10":7.3,"pm2_5":7.1,"no2":10.0,"co":205.0,"o3":47.0,"so2":4.7,"mosquito_risk":7,"arthritis_risk":5,"migraine_risk":7,"frizz_risk":1,"updated_at":"2026-07-06T04:33:27.994174+05:30"},{"city":"Ranchi","state":"Jharkhand","latitude":23.3441,"longitude":85.3096,"temp":22.9,"humidity":99,"rain":0.0,"pressure":925.5,"uv_index":1.2,"wind_gusts":37.1,"aqi":54,"pm10":10.7,"pm2_5":10.7,"no2":9.3,"co":202.0,"o3":53.0,"so2":8.5,"mosquito_risk":3,"arthritis_risk":5,"migraine_risk":3,"frizz_risk":1,"updated_at":"2026-07-06T04:33:27.994182+05:30"},{"city":"Jamshedpur","state":"Jharkhand","latitude":22.8046,"longitude":86.2029,"temp":25.6,"humidity":95,"rain":0.0,"pressure":977.1,"uv_index":8.2,"wind_gusts":27.0,"aqi":51,"pm10":17.1,"pm2_5":16.8,"no2":26.5,"co":298.0,"o3":27.0,"so2":39.1,"mosquito_risk":7,"arthritis_risk":5,"migraine_risk":7,"frizz_risk":1,"updated_at":"2026-07-06T04:33:27.994189+05:30"},{"city":"Dhanbad","state":"Jharkhand","latitude":23.7957,"longitude":86.4304,"temp":25.3,"humidity":95,"rain":0.0,"pressure":967.6,"uv_index":4.95,"wind_gusts":51.5,"aqi":58,"pm10":15.8,"pm2_5":15.7,"no2":22.8,"co":202.0,"o3":40.0,"so2":50.3,"mosquito_risk":7,"arthritis_risk":5,"migraine_risk":3,"frizz_risk":1,"updated_at":"2026-07-06T04:33:27.994197+05:30"},{"city":"Bokaro","state":"Jharkhand","latitude":23.6693,"longitude":86.1511,"temp":25.0,"humidity":96,"rain":0.0,"pressure":971.3,"uv_index":3.65,"wind_gusts":51.1,"aqi":58,"pm10":15.8,"pm2_5":15.6,"no2":21.6,"co":208.0,"o3":43.0,"so2":49.4,"mosquito_risk":7,"arthritis_risk":5,"migraine_risk":3,"frizz_risk":1,"updated_at":"2026-07-06T04:33:27.994203+05:30"},{"city":"Bhubaneswar","state":"Odisha","latitude":20.2961,"longitude":85.8245,"temp":25.6,"humidity":92,"rain":0.0,"pressure":989.8,"uv_index":8.6,"wind_gusts":56.9,"aqi":29,"pm10":7.4,"pm2_5":6.6,"no2":6.7,"co":151.0,"o3":46.0,"so2":4.5,"mosquito_risk":7,"arthritis_risk":5,"migraine_risk":7,"frizz_risk":1,"updated_at":"2026-07-06T04:33:27.994210+05:30"},{"city":"Cuttack","state":"Odisha","latitude":20.4625,"longitude":85.8828,"temp":25.6,"humidity":93,"rain":0.1,"pressure":991.2,"uv_index":8.6,"wind_gusts":51.5,"aqi":29,"pm10":7.4,"pm2_5":6.6,"no2":6.7,"co":154.0,"o3":46.0,"so2":4.5,"mosquito_risk":10,"arthritis_risk":5,"migraine_risk":7,"frizz_risk":1,"updated_at":"2026-07-06T04:33:27.994217+05:30"},{"city":"Rourkela","state":"Odisha","latitude":22.2604,"longitude":84.8536,"temp":26.0,"humidity":91,"rain":0.0,"pressure":971.8,"uv_index":0.9,"wind_gusts":31.7,"aqi":60,"pm10":22.6,"pm2_5":22.6,"no2":15.9,"co":245.0,"o3":45.0,"so2":22.1,"mosquito_risk":7,"arthritis_risk":5,"migraine_risk":3,"frizz_risk":1,"updated_at":"2026-07-06T04:33:27.994224+05:30"},{"city":"Raipur","state":"Chhattisgarh","latitude":21.2514,"longitude":81.6296,"temp":24.8,"humidity":96,"rain":0.2,"pressure":964.3,"uv_index":1.8,"wind_gusts":47.2,"aqi":63,"pm10":14.3,"pm2_5":14.0,"no2":23.2,"co":285.0,"o3":25.0,"so2":34.7,"mosquito_risk":6,"arthritis_risk":5,"migraine_risk":3,"frizz_risk":1,"updated_at":"2026-07-06T04:33:27.994231+05:30"},{"city":"Bhilai","state":"Chhattisgarh","latitude":21.1938,"longitude":81.3509,"temp":24.7,"humidity":97,"rain":0.1,"pressure":964.9,"uv_index":2.05,"wind_gusts":53.6,"aqi":58,"pm10":13.1,"pm2_5":12.8,"no2":18.9,"co":411.0,"o3":24.0,"so2":27.4,"mosquito_risk":6,"arthritis_risk":5,"migraine_risk":3,"frizz_risk":1,"updated_at":"2026-07-06T04:33:27.994238+05:30"},{"city":"Guwahati","state":"Assam","latitude":26.1158,"longitude":91.7086,"temp":25.9,"humidity":99,"rain":0.1,"pressure":995.9,"uv_index":3.15,"wind_gusts":21.2,"aqi":27,"pm10":8.7,"pm2_5":8.6,"no2":7.6,"co":216.0,"o3":32.0,"so2":1.3,"mosquito_risk":10,"arthritis_risk":5,"migraine_risk":3,"frizz_risk":1,"updated_at":"2026-07-06T04:33:27.994245+05:30"},{"city":"Agartala","state":"Tripura","latitude":23.8315,"longitude":91.2868,"temp":25.1,"humidity":98,"rain":0.1,"pressure":999.4,"uv_index":2.45,"wind_gusts":45.0,"aqi":28,"pm10":3.5,"pm2_5":3.4,"no2":6.8,"co":126.0,"o3":45.0,"so2":1.4,"mosquito_risk":10,"arthritis_risk":5,"migraine_risk":3,"frizz_risk":1,"updated_at":"2026-07-06T04:33:27.994253+05:30"},{"city":"Shillong","state":"Meghalaya","latitude":25.5788,"longitude":91.8933,"temp":19.8,"humidity":98,"rain":0.1,"pressure":853.2,"uv_index":3.3,"wind_gusts":38.9,"aqi":22,"pm10":1.1,"pm2_5":1.1,"no2":3.5,"co":151.0,"o3":42.0,"so2":0.7,"mosquito_risk":6,"arthritis_risk":10,"migraine_risk":3,"frizz_risk":1,"updated_at":"2026-07-06T04:33:27.994260+05:30"},{"city":"Imphal","state":"Manipur","latitude":24.817,"longitude":93.9368,"temp":23.1,"humidity":98,"rain":0.0,"pressure":918.9,"uv_index":7.8,"wind_gusts":23.4,"aqi":22,"pm10":7.0,"pm2_5":6.9,"no2":4.9,"co":222.0,"o3":33.0,"so2":1.7,"mosquito_risk":3,"arthritis_risk":5,"migraine_risk":7,"frizz_risk":1,"updated_at":"2026-07-06T04:33:27.994268+05:30"},{"city":"Aizawl","state":"Mizoram","latitude":23.7271,"longitude":92.7176,"temp":20.4,"humidity":97,"rain":0.0,"pressure":887.7,"uv_index":1.45,"wind_gusts":42.8,"aqi":21,"pm10":1.4,"pm2_5":1.3,"no2":2.6,"co":131.0,"o3":34.0,"so2":0.5,"mosquito_risk":3,"arthritis_risk":5,"migraine_risk":3,"frizz_risk":1,"updated_at":"2026-07-06T04:33:27.994274+05:30"},{"city":"Kohima","state":"Nagaland","latitude":25.6701,"longitude":94.1077,"temp":19.7,"humidity":93,"rain":0.0,"pressure":851.1,"uv_index":7.5,"wind_gusts":28.1,"aqi":23,"pm10":7.9,"pm2_5":7.4,"no2":7.0,"co":129.0,"o3":29.0,"so2":1.0,"mosquito_risk":3,"arthritis_risk":10,"migraine_risk":7,"frizz_risk":1,"updated_at":"2026-07-06T04:33:27.994281+05:30"},{"city":"Gangtok","state":"Sikkim","latitude":27.3314,"longitude":88.6138,"temp":17.8,"humidity":98,"rain":0.1,"pressure":833.4,"uv_index":4.4,"wind_gusts":25.9,"aqi":36,"pm10":10.0,"pm2_5":8.8,"no2":6.2,"co":235.0,"o3":59.0,"so2":0.7,"mosquito_risk":6,"arthritis_risk":10,"migraine_risk":3,"frizz_risk":1,"updated_at":"2026-07-06T04:33:27.994288+05:30"},{"city":"Siliguri","state":"West Bengal","latitude":26.7271,"longitude":88.3953,"temp":25.6,"humidity":89,"rain":0.0,"pressure":986.8,"uv_index":3.2,"wind_gusts":46.8,"aqi":43,"pm10":11.8,"pm2_5":11.8,"no2":7.3,"co":162.0,"o3":67.0,"so2":1.9,"mosquito_risk":7,"arthritis_risk":5,"migraine_risk":3,"frizz_risk":1,"updated_at":"2026-07-06T04:33:31.321416+05:30"},{"city":"Durgapur","state":"West Bengal","latitude":23.5204,"longitude":87.3119,"temp":25.2,"humidity":98,"rain":0.3,"pressure":982.6,"uv_index":7.15,"wind_gusts":46.8,"aqi":51,"pm10":15.4,"pm2_5":14.7,"no2":18.6,"co":206.0,"o3":47.0,"so2":22.0,"mosquito_risk":10,"arthritis_risk":5,"migraine_risk":7,"frizz_risk":1,"updated_at":"2026-07-06T04:33:31.321452+05:30"},{"city":"Asansol","state":"West Bengal","latitude":23.6739,"longitude":86.9524,"temp":25.5,"humidity":97,"rain":0.1,"pressure":981.2,"uv_index":6.55,"wind_gusts":51.8,"aqi":50,"pm10":13.2,"pm2_5":13.0,"no2":18.6,"co":226.0,"o3":45.0,"so2":21.8,"mosquito_risk":10,"arthritis_risk":5,"migraine_risk":7,"frizz_risk":1,"updated_at":"2026-07-06T04:33:31.321463+05:30"},{"city":"Pondicherry","state":"Puducherry","latitude":11.9139,"longitude":79.8145,"temp":26.5,"humidity":67,"rain":0.0,"pressure":1005.6,"uv_index":8.2,"wind_gusts":52.2,"aqi":53,"pm10":21.3,"pm2_5":15.1,"no2":13.2,"co":155.0,"o3":30.0,"so2":6.4,"mosquito_risk":7,"arthritis_risk":5,"migraine_risk":4,"frizz_risk":1,"updated_at":"2026-07-06T04:33:31.321472+05:30"},{"city":"Port Blair","state":"Andaman and Nicobar Islands","latitude":11.6234,"longitude":92.7265,"temp":27.7,"humidity":85,"rain":0.0,"pressure":1006.6,"uv_index":8.65,"wind_gusts":39.6,"aqi":46,"pm10":12.2,"pm2_5":7.2,"no2":0.2,"co":91.0,"o3":51.0,"so2":0.4,"mosquito_risk":7,"arthritis_risk":5,"migraine_risk":4,"frizz_risk":1,"updated_at":"2026-07-06T04:33:31.321480+05:30"},{"city":"Haridwar","state":"Uttarakhand","latitude":29.9457,"longitude":78.1642,"temp":25.9,"humidity":94,"rain":0.0,"pressure":967.4,"uv_index":6.8,"wind_gusts":29.5,"aqi":90,"pm10":25.1,"pm2_5":25.0,"no2":16.1,"co":289.0,"o3":55.0,"so2":2.5,"mosquito_risk":7,"arthritis_risk":5,"migraine_risk":7,"frizz_risk":1,"updated_at":"2026-07-06T04:33:31.321488+05:30"},{"city":"Rishikesh","state":"Uttarakhand","latitude":30.0869,"longitude":78.2676,"temp":25.7,"humidity":93,"rain":0.0,"pressure":960.2,"uv_index":6.2,"wind_gusts":36.0,"aqi":64,"pm10":11.3,"pm2_5":11.2,"no2":5.3,"co":257.0,"o3":98.0,"so2":1.7,"mosquito_risk":7,"arthritis_risk":5,"migraine_risk":7,"frizz_risk":1,"updated_at":"2026-07-06T04:33:31.321523+05:30"},{"city":"Nainital","state":"Uttarakhand","latitude":29.3919,"longitude":79.4542,"temp":16.4,"humidity":100,"rain":0.0,"pressure":801.3,"uv_index":3.4,"wind_gusts":25.9,"aqi":46,"pm10":10.2,"pm2_5":10.1,"no2":9.8,"co":247.0,"o3":74.0,"so2":1.0,"mosquito_risk":3,"arthritis_risk":10,"migraine_risk":3,"frizz_risk":1,"updated_at":"2026-07-06T04:33:31.321532+05:30"},{"city":"Mussoorie","state":"Uttarakhand","latitude":30.4599,"longitude":78.0664,"temp":17.6,"humidity":99,"rain":0.1,"pressure":799.4,"uv_index":7.7,"wind_gusts":36.4,"aqi":78,"pm10":14.2,"pm2_5":14.1,"no2":6.0,"co":275.0,"o3":103.0,"so2":2.7,"mosquito_risk":6,"arthritis_risk":10,"migraine_risk":7,"frizz_risk":1,"updated_at":"2026-07-06T04:33:31.321540+05:30"},{"city":"Dharamshala","state":"Himachal Pradesh","latitude":32.219,"longitude":76.3234,"temp":22.3,"humidity":85,"rain":0.1,"pressure":863.6,"uv_index":7.75,"wind_gusts":33.1,"aqi":28,"pm10":3.9,"pm2_5":3.8,"no2":6.2,"co":297.0,"o3":60.0,"so2":0.1,"mosquito_risk":6,"arthritis_risk":5,"migraine_risk":7,"frizz_risk":1,"updated_at":"2026-07-06T04:33:31.321547+05:30"},{"city":"Dalhousie","state":"Himachal Pradesh","latitude":32.5387,"longitude":75.971,"temp":16.6,"humidity":98,"rain":0.2,"pressure":799.1,"uv_index":8.7,"wind_gusts":27.4,"aqi":80,"pm10":17.6,"pm2_5":15.8,"no2":10.7,"co":257.0,"o3":73.0,"so2":1.5,"mosquito_risk":6,"arthritis_risk":10,"migraine_risk":7,"frizz_risk":1,"updated_at":"2026-07-06T04:33:31.321555+05:30"},{"city":"Patiala","state":"Punjab","latitude":30.3398,"longitude":76.3869,"temp":25.8,"humidity":97,"rain":0.1,"pressure":970.6,"uv_index":6.65,"wind_gusts":28.1,"aqi":164,"pm10":33.2,"pm2_5":33.1,"no2":12.1,"co":369.0,"o3":84.0,"so2":7.6,"mosquito_risk":10,"arthritis_risk":5,"migraine_risk":7,"frizz_risk":1,"updated_at":"2026-07-06T04:33:31.321563+05:30"},{"city":"Bhatinda","state":"Punjab","latitude":30.211,"longitude":74.9455,"temp":30.1,"humidity":81,"rain":0.0,"pressure":974.6,"uv_index":8.1,"wind_gusts":28.8,"aqi":161,"pm10":306.4,"pm2_5":95.7,"no2":26.8,"co":491.0,"o3":43.0,"so2":5.9,"mosquito_risk":3,"arthritis_risk":5,"migraine_risk":7,"frizz_risk":1,"updated_at":"2026-07-06T04:33:31.321570+05:30"},{"city":"Rohtak","state":"Haryana","latitude":28.8955,"longitude":76.6066,"temp":26.6,"humidity":98,"rain":0.0,"pressure":973.7,"uv_index":6.65,"wind_gusts":25.2,"aqi":152,"pm10":79.6,"pm2_5":52.9,"no2":22.9,"co":446.0,"o3":69.0,"so2":20.5,"mosquito_risk":7,"arthritis_risk":5,"migraine_risk":7,"frizz_risk":1,"updated_at":"2026-07-06T04:33:31.321577+05:30"},{"city":"Panipat","state":"Haryana","latitude":29.3909,"longitude":76.9635,"temp":26.7,"humidity":97,"rain":0.2,"pressure":972.5,"uv_index":6.2,"wind_gusts":28.1,"aqi":153,"pm10":65.9,"pm2_5":53.9,"no2":23.6,"co":422.0,"o3":54.0,"so2":16.1,"mosquito_risk":10,"arthritis_risk":5,"migraine_risk":7,"frizz_risk":1,"updated_at":"2026-07-06T04:33:31.321585+05:30"},{"city":"Mathura","state":"Uttar Pradesh","latitude":27.4924,"longitude":77.6737,"temp":26.8,"humidity":97,"rain":0.1,"pressure":978.2,"uv_index":7.3,"wind_gusts":41.4,"aqi":104,"pm10":14.4,"pm2_5":13.2,"no2":12.3,"co":345.0,"o3":73.0,"so2":2.8,"mosquito_risk":10,"arthritis_risk":5,"migraine_risk":7,"frizz_risk":1,"updated_at":"2026-07-06T04:33:31.321592+05:30"},{"city":"Vrindavan","state":"Uttar Pradesh","latitude":27.5823,"longitude":77.7027,"temp":26.7,"humidity":96,"rain":0.1,"pressure":978.6,"uv_index":7.3,"wind_gusts":41.8,"aqi":104,"pm10":14.4,"pm2_5":13.2,"no2":12.3,"co":324.0,"o3":73.0,"so2":2.8,"mosquito_risk":10,"arthritis_risk":5,"migraine_risk":7,"frizz_risk":1,"updated_at":"2026-07-06T04:33:31.321600+05:30"},{"city":"Ayodhya","state":"Uttar Pradesh","latitude":26.7922,"longitude":82.1998,"temp":29.3,"humidity":81,"rain":0.0,"pressure":986.1,"uv_index":7.95,"wind_gusts":51.1,"aqi":87,"pm10":22.9,"pm2_5":22.2,"no2":16.4,"co":431.0,"o3":61.0,"so2":5.9,"mosquito_risk":7,"arthritis_risk":5,"migraine_risk":7,"frizz_risk":1,"updated_at":"2026-07-06T04:33:31.321607+05:30"},{"city":"Ratlam","state":"Madhya Pradesh","latitude":23.3315,"longitude":75.0367,"temp":25.6,"humidity":91,"rain":0.0,"pressure":944.7,"uv_index":6.5,"wind_gusts":34.6,"aqi":83,"pm10":45.5,"pm2_5":41.2,"no2":14.0,"co":370.0,"o3":42.0,"so2":3.5,"mosquito_risk":7,"arthritis_risk":5,"migraine_risk":7,"frizz_risk":1,"updated_at":"2026-07-06T04:33:31.321614+05:30"},{"city":"Sagar","state":"Madhya Pradesh","latitude":23.8388,"longitude":78.7378,"temp":24.9,"humidity":92,"rain":0.0,"pressure":941.0,"uv_index":7.9,"wind_gusts":24.8,"aqi":60,"pm10":11.6,"pm2_5":11.5,"no2":7.3,"co":243.0,"o3":70.0,"so2":1.3,"mosquito_risk":3,"arthritis_risk":5,"migraine_risk":7,"frizz_risk":1,"updated_at":"2026-07-06T04:33:31.321621+05:30"},{"city":"Satna","state":"Madhya Pradesh","latitude":24.6005,"longitude":80.8322,"temp":25.0,"humidity":97,"rain":0.0,"pressure":962.1,"uv_index":6.55,"wind_gusts":46.8,"aqi":62,"pm10":25.4,"pm2_5":25.3,"no2":16.6,"co":243.0,"o3":42.0,"so2":3.3,"mosquito_risk":7,"arthritis_risk":5,"migraine_risk":7,"frizz_risk":1,"updated_at":"2026-07-06T04:33:31.321628+05:30"},{"city":"Akola","state":"Maharashtra","latitude":20.7002,"longitude":77.0082,"temp":26.3,"humidity":79,"rain":0.0,"pressure":965.7,"uv_index":7.45,"wind_gusts":36.4,"aqi":26,"pm10":3.5,"pm2_5":3.1,"no2":7.8,"co":138.0,"o3":38.0,"so2":3.5,"mosquito_risk":7,"arthritis_risk":5,"migraine_risk":7,"frizz_risk":1,"updated_at":"2026-07-06T04:33:31.321636+05:30"},{"city":"Amravati","state":"Maharashtra","latitude":20.9374,"longitude":77.7796,"temp":25.6,"humidity":83,"rain":0.0,"pressure":958.2,"uv_index":3.75,"wind_gusts":38.2,"aqi":27,"pm10":3.7,"pm2_5":3.2,"no2":7.5,"co":154.0,"o3":40.0,"so2":3.6,"mosquito_risk":7,"arthritis_risk":5,"migraine_risk":3,"frizz_risk":1,"updated_at":"2026-07-06T04:33:31.321644+05:30"},{"city":"Latur","state":"Maharashtra","latitude":18.4088,"longitude":76.5604,"temp":22.8,"humidity":94,"rain":0.2,"pressure":931.5,"uv_index":2.25,"wind_gusts":54.7,"aqi":20,"pm10":1.9,"pm2_5":1.6,"no2":3.6,"co":111.0,"o3":43.0,"so2":1.6,"mosquito_risk":6,"arthritis_risk":5,"migraine_risk":3,"frizz_risk":1,"updated_at":"2026-07-06T04:33:31.321652+05:30"},{"city":"Nanded","state":"Maharashtra","latitude":19.1383,"longitude":77.3091,"temp":24.3,"humidity":93,"rain":0.3,"pressure":960.2,"uv_index":1.95,"wind_gusts":50.4,"aqi":20,"pm10":2.3,"pm2_5":2.2,"no2":5.0,"co":115.0,"o3":40.0,"so2":3.2,"mosquito_risk":6,"arthritis_risk":5,"migraine_risk":3,"frizz_risk":1,"updated_at":"2026-07-06T04:33:31.321659+05:30"},{"city":"Gulbarga","state":"Karnataka","latitude":17.3297,"longitude":76.8343,"temp":24.1,"humidity":86,"rain":0.1,"pressure":952.0,"uv_index":1.25,"wind_gusts":68.0,"aqi":20,"pm10":2.5,"pm2_5":1.7,"no2":3.5,"co":101.0,"o3":43.0,"so2":2.0,"mosquito_risk":6,"arthritis_risk":5,"migraine_risk":3,"frizz_risk":1,"updated_at":"2026-07-06T04:33:31.321666+05:30"},{"city":"Bidar","state":"Karnataka","latitude":17.9104,"longitude":77.5199,"temp":22.5,"humidity":95,"rain":0.2,"pressure":927.9,"uv_index":1.65,"wind_gusts":59.4,"aqi":20,"pm10":2.0,"pm2_5":1.8,"no2":4.2,"co":106.0,"o3":41.0,"so2":2.0,"mosquito_risk":6,"arthritis_risk":5,"migraine_risk":3,"frizz_risk":1,"updated_at":"2026-07-06T04:33:31.321673+05:30"},{"city":"Hospet","state":"Karnataka","latitude":15.2689,"longitude":76.3909,"temp":23.6,"humidity":85,"rain":0.0,"pressure":951.0,"uv_index":6.25,"wind_gusts":69.1,"aqi":23,"pm10":2.4,"pm2_5":1.4,"no2":1.7,"co":93.0,"o3":51.0,"so2":1.1,"mosquito_risk":3,"arthritis_risk":5,"migraine_risk":7,"frizz_risk":1,"updated_at":"2026-07-06T04:33:31.321680+05:30"},{"city":"Tirupur","state":"Tamil Nadu","latitude":11.1085,"longitude":77.3411,"temp":23.9,"humidity":89,"rain":0.0,"pressure":973.6,"uv_index":8.45,"wind_gusts":74.9,"aqi":48,"pm10":16.9,"pm2_5":12.5,"no2":13.5,"co":101.0,"o3":28.0,"so2":3.5,"mosquito_risk":3,"arthritis_risk":5,"migraine_risk":7,"frizz_risk":1,"updated_at":"2026-07-06T04:33:31.321687+05:30"},{"city":"Alappuzha","state":"Kerala","latitude":9.4981,"longitude":76.3388,"temp":27.1,"humidity":84,"rain":0.0,"pressure":1009.1,"uv_index":7.95,"wind_gusts":40.7,"aqi":57,"pm10":29.0,"pm2_5":14.7,"no2":4.3,"co":83.0,"o3":44.0,"so2":1.6,"mosquito_risk":7,"arthritis_risk":0,"migraine_risk":4,"frizz_risk":1,"updated_at":"2026-07-06T04:33:31.321694+05:30"},{"city":"Munnar","state":"Kerala","latitude":10.0889,"longitude":77.0595,"temp":16.2,"humidity":100,"rain":0.2,"pressure":855.2,"uv_index":6.75,"wind_gusts":59.0,"aqi":29,"pm10":5.0,"pm2_5":3.2,"no2":3.6,"co":89.0,"o3":31.0,"so2":1.6,"mosquito_risk":6,"arthritis_risk":10,"migraine_risk":7,"frizz_risk":1,"updated_at":"2026-07-06T04:33:31.321702+05:30"},{"city":"Silchar","state":"Assam","latitude":24.8333,"longitude":92.7789,"temp":25.9,"humidity":97,"rain":0.1,"pressure":999.9,"uv_index":3.45,"wind_gusts":27.0,"aqi":51,"pm10":10.8,"pm2_5":10.6,"no2":6.1,"co":188.0,"o3":46.0,"so2":1.9,"mosquito_risk":10,"arthritis_risk":5,"migraine_risk":3,"frizz_risk":1,"updated_at":"2026-07-06T04:33:31.321709+05:30"},{"city":"Dibrugarh","state":"Assam","latitude":27.4728,"longitude":94.912,"temp":27.9,"humidity":80,"rain":0.0,"pressure":988.8,"uv_index":7.0,"wind_gusts":28.1,"aqi":38,"pm10":16.7,"pm2_5":16.5,"no2":13.7,"co":232.0,"o3":27.0,"so2":0.8,"mosquito_risk":7,"arthritis_risk":5,"migraine_risk":7,"frizz_risk":1,"updated_at":"2026-07-06T04:33:31.321716+05:30"}]