[{"city":"Delhi","state":"Delhi","latitude":28.6139,"longitude":77.209,"temp":39.5,"humidity":17,"rain":0.0,"pressure":978.6,"uv_index":7.75,"wind_gusts":53.3,"aqi":391,"pm10":650.1,"pm2_5":97.1,"no2":7.2,"co":240.0,"o3":127.0,"so2":7.9,"mosquito_risk":0,"arthritis_risk":5,"migraine_risk":10,"frizz_risk":0,"updated_at":"2026-05-23T16:44:07.527533+05:30"},{"city":"Mumbai","state":"Maharashtra","latitude":19.076,"longitude":72.8777,"temp":32.3,"humidity":66,"rain":0.1,"pressure":1007.4,"uv_index":7.75,"wind_gusts":32.0,"aqi":49,"pm10":12.7,"pm2_5":9.8,"no2":7.3,"co":196.0,"o3":82.0,"so2":4.6,"mosquito_risk":6,"arthritis_risk":5,"migraine_risk":4,"frizz_risk":1,"updated_at":"2026-05-23T16:44:07.527585+05:30"},{"city":"Bangalore","state":"Karnataka","latitude":12.9716,"longitude":77.5946,"temp":26.5,"humidity":70,"rain":0.1,"pressure":912.0,"uv_index":6.05,"wind_gusts":43.2,"aqi":44,"pm10":21.8,"pm2_5":12.5,"no2":7.0,"co":685.0,"o3":107.0,"so2":2.9,"mosquito_risk":10,"arthritis_risk":5,"migraine_risk":7,"frizz_risk":1,"updated_at":"2026-05-23T16:44:07.527603+05:30"},{"city":"Hyderabad","state":"Telangana","latitude":17.385,"longitude":78.4867,"temp":37.8,"humidity":28,"rain":0.0,"pressure":950.7,"uv_index":9.2,"wind_gusts":59.8,"aqi":97,"pm10":31.8,"pm2_5":23.9,"no2":4.5,"co":304.0,"o3":138.0,"so2":5.9,"mosquito_risk":0,"arthritis_risk":5,"migraine_risk":10,"frizz_risk":1,"updated_at":"2026-05-23T16:44:07.527613+05:30"},{"city":"Chennai","state":"Tamil Nadu","latitude":13.0827,"longitude":80.2707,"temp":37.8,"humidity":35,"rain":0.0,"pressure":1003.2,"uv_index":6.15,"wind_gusts":43.2,"aqi":92,"pm10":34.0,"pm2_5":24.8,"no2":6.9,"co":324.0,"o3":153.0,"so2":6.0,"mosquito_risk":0,"arthritis_risk":5,"migraine_risk":7,"frizz_risk":1,"updated_at":"2026-05-23T16:44:07.527622+05:30"},{"city":"Kolkata","state":"West Bengal","latitude":22.5726,"longitude":88.3639,"temp":33.4,"humidity":69,"rain":0.0,"pressure":999.7,"uv_index":9.0,"wind_gusts":44.6,"aqi":101,"pm10":53.4,"pm2_5":32.9,"no2":3.9,"co":333.0,"o3":94.0,"so2":5.9,"mosquito_risk":3,"arthritis_risk":5,"migraine_risk":7,"frizz_risk":1,"updated_at":"2026-05-23T16:44:07.527660+05:30"},{"city":"Pune","state":"Maharashtra","latitude":18.5204,"longitude":73.8567,"temp":30.3,"humidity":65,"rain":0.0,"pressure":948.0,"uv_index":8.4,"wind_gusts":46.4,"aqi":43,"pm10":12.6,"pm2_5":9.7,"no2":4.0,"co":195.0,"o3":103.0,"so2":5.1,"mosquito_risk":3,"arthritis_risk":5,"migraine_risk":7,"frizz_risk":1,"updated_at":"2026-05-23T16:44:07.527667+05:30"},{"city":"Ahmedabad","state":"Gujarat","latitude":23.0225,"longitude":72.5714,"temp":41.3,"humidity":22,"rain":0.0,"pressure":998.6,"uv_index":8.15,"wind_gusts":42.5,"aqi":73,"pm10":52.7,"pm2_5":22.9,"no2":1.3,"co":166.0,"o3":99.0,"so2":1.9,"mosquito_risk":0,"arthritis_risk":5,"migraine_risk":10,"frizz_risk":0,"updated_at":"2026-05-23T16:44:07.527675+05:30"},{"city":"Jaipur","state":"Rajasthan","latitude":26.9124,"longitude":75.7873,"temp":40.7,"humidity":14,"rain":0.0,"pressure":956.5,"uv_index":8.25,"wind_gusts":51.8,"aqi":179,"pm10":339.0,"pm2_5":68.9,"no2":0.6,"co":161.0,"o3":112.0,"so2":2.6,"mosquito_risk":0,"arthritis_risk":5,"migraine_risk":10,"frizz_risk":0,"updated_at":"2026-05-23T16:44:07.527687+05:30"},{"city":"Lucknow","state":"Uttar Pradesh","latitude":26.8467,"longitude":80.9462,"temp":41.2,"humidity":16,"rain":0.0,"pressure":987.2,"uv_index":8.2,"wind_gusts":54.0,"aqi":162,"pm10":277.5,"pm2_5":57.4,"no2":3.5,"co":203.0,"o3":136.0,"so2":6.7,"mosquito_risk":0,"arthritis_risk":5,"migraine_risk":10,"frizz_risk":0,"updated_at":"2026-05-23T16:44:07.527694+05:30"},{"city":"Kanpur","state":"Uttar Pradesh","latitude":26.4499,"longitude":80.3319,"temp":41.8,"humidity":15,"rain":0.0,"pressure":985.6,"uv_index":8.25,"wind_gusts":46.8,"aqi":331,"pm10":769.3,"pm2_5":108.3,"no2":2.4,"co":185.0,"o3":140.0,"so2":6.6,"mosquito_risk":0,"arthritis_risk":5,"migraine_risk":10,"frizz_risk":0,"updated_at":"2026-05-23T16:44:07.527700+05:30"},{"city":"Chandigarh","state":"Chandigarh","latitude":30.7333,"longitude":76.7794,"temp":37.9,"humidity":17,"rain":0.0,"pressure":964.5,"uv_index":7.75,"wind_gusts":39.2,"aqi":114,"pm10":56.9,"pm2_5":22.3,"no2":1.7,"co":222.0,"o3":145.0,"so2":5.8,"mosquito_risk":0,"arthritis_risk":5,"migraine_risk":10,"frizz_risk":0,"updated_at":"2026-05-23T16:44:07.527707+05:30"},{"city":"Srinagar","state":"Jammu and Kashmir","latitude":34.0837,"longitude":74.7973,"temp":21.1,"humidity":53,"rain":0.1,"pressure":843.8,"uv_index":8.85,"wind_gusts":25.2,"aqi":69,"pm10":25.3,"pm2_5":9.8,"no2":2.2,"co":219.0,"o3":123.0,"so2":1.7,"mosquito_risk":3,"arthritis_risk":5,"migraine_risk":7,"frizz_risk":0,"updated_at":"2026-05-23T16:44:07.527716+05:30"},{"city":"Jammu","state":"Jammu and Kashmir","latitude":32.7266,"longitude":74.857,"temp":36.8,"humidity":18,"rain":0.0,"pressure":969.3,"uv_index":8.5,"wind_gusts":49.0,"aqi":81,"pm10":65.4,"pm2_5":22.1,"no2":0.5,"co":157.0,"o3":137.0,"so2":2.1,"mosquito_risk":0,"arthritis_risk":5,"migraine_risk":10,"frizz_risk":0,"updated_at":"2026-05-23T16:44:07.527723+05:30"},{"city":"Amritsar","state":"Punjab","latitude":31.634,"longitude":74.8723,"temp":38.1,"humidity":19,"rain":0.0,"pressure":976.6,"uv_index":8.4,"wind_gusts":23.8,"aqi":144,"pm10":67.5,"pm2_5":26.0,"no2":2.4,"co":195.0,"o3":158.0,"so2":6.8,"mosquito_risk":0,"arthritis_risk":5,"migraine_risk":10,"frizz_risk":0,"updated_at":"2026-05-23T16:44:07.527730+05:30"},{"city":"Ludhiana","state":"Punjab","latitude":30.901,"longitude":75.8573,"temp":38.7,"humidity":18,"rain":0.0,"pressure":974.2,"uv_index":8.0,"wind_gusts":39.2,"aqi":108,"pm10":99.0,"pm2_5":28.7,"no2":1.2,"co":209.0,"o3":133.0,"so2":3.9,"mosquito_risk":0,"arthritis_risk":5,"migraine_risk":10,"frizz_risk":0,"updated_at":"2026-05-23T16:44:07.527736+05:30"},{"city":"Jalandhar","state":"Punjab","latitude":31.326,"longitude":75.5762,"temp":38.9,"humidity":18,"rain":0.0,"pressure":975.3,"uv_index":8.15,"wind_gusts":36.7,"aqi":116,"pm10":97.8,"pm2_5":28.6,"no2":1.9,"co":195.0,"o3":142.0,"so2":4.8,"mosquito_risk":0,"arthritis_risk":5,"migraine_risk":10,"frizz_risk":0,"updated_at":"2026-05-23T16:44:07.527742+05:30"},{"city":"Dehradun","state":"Uttarakhand","latitude":30.6284,"longitude":78.0322,"temp":27.2,"humidity":20,"rain":0.0,"pressure":830.8,"uv_index":8.15,"wind_gusts":46.8,"aqi":78,"pm10":40.0,"pm2_5":13.1,"no2":0.0,"co":166.0,"o3":135.0,"so2":1.8,"mosquito_risk":4,"arthritis_risk":5,"migraine_risk":7,"frizz_risk":0,"updated_at":"2026-05-23T16:44:07.527752+05:30"},{"city":"Shimla","state":"Himachal Pradesh","latitude":31.1048,"longitude":77.1734,"temp":22.6,"humidity":22,"rain":0.0,"pressure":786.8,"uv_index":8.25,"wind_gusts":50.8,"aqi":87,"pm10":51.0,"pm2_5":17.0,"no2":0.5,"co":155.0,"o3":135.0,"so2":2.9,"mosquito_risk":0,"arthritis_risk":5,"migraine_risk":7,"frizz_risk":0,"updated_at":"2026-05-23T16:44:07.527761+05:30"},{"city":"Manali","state":"Himachal Pradesh","latitude":32.2396,"longitude":77.1887,"temp":22.2,"humidity":34,"rain":0.0,"pressure":819.7,"uv_index":9.9,"wind_gusts":47.5,"aqi":79,"pm10":38.5,"pm2_5":9.6,"no2":0.2,"co":130.0,"o3":143.0,"so2":0.4,"mosquito_risk":0,"arthritis_risk":5,"migraine_risk":7,"frizz_risk":0,"updated_at":"2026-05-23T16:44:07.527767+05:30"},{"city":"Gurgaon","state":"Haryana","latitude":28.4595,"longitude":77.0266,"temp":39.8,"humidity":16,"rain":0.0,"pressure":977.0,"uv_index":7.85,"wind_gusts":49.3,"aqi":885,"pm10":1717.4,"pm2_5":209.1,"no2":6.0,"co":201.0,"o3":124.0,"so2":6.6,"mosquito_risk":0,"arthritis_risk":5,"migraine_risk":10,"frizz_risk":0,"updated_at":"2026-05-23T16:44:07.527774+05:30"},{"city":"Noida","state":"Uttar Pradesh","latitude":28.5355,"longitude":77.391,"temp":39.7,"humidity":17,"rain":0.0,"pressure":979.8,"uv_index":7.75,"wind_gusts":51.1,"aqi":885,"pm10":1717.4,"pm2_5":209.1,"no2":6.0,"co":279.0,"o3":124.0,"so2":6.6,"mosquito_risk":0,"arthritis_risk":5,"migraine_risk":10,"frizz_risk":0,"updated_at":"2026-05-23T16:44:07.527780+05:30"},{"city":"Ghaziabad","state":"Uttar Pradesh","latitude":28.6692,"longitude":77.4538,"temp":39.0,"humidity":18,"rain":0.0,"pressure":978.2,"uv_index":7.75,"wind_gusts":60.1,"aqi":171,"pm10":586.7,"pm2_5":88.2,"no2":4.6,"co":191.0,"o3":136.0,"so2":9.2,"mosquito_risk":0,"arthritis_risk":5,"migraine_risk":10,"frizz_risk":0,"updated_at":"2026-05-23T16:44:07.527787+05:30"},{"city":"Faridabad","state":"Haryana","latitude":28.4089,"longitude":77.3178,"temp":39.8,"humidity":16,"rain":0.0,"pressure":979.2,"uv_index":7.8,"wind_gusts":54.4,"aqi":885,"pm10":1717.4,"pm2_5":209.1,"no2":6.0,"co":214.0,"o3":124.0,"so2":6.6,"mosquito_risk":0,"arthritis_risk":5,"migraine_risk":10,"frizz_risk":0,"updated_at":"2026-05-23T16:44:07.527794+05:30"},{"city":"Meerut","state":"Uttar Pradesh","latitude":28.9845,"longitude":77.7064,"temp":38.7,"humidity":19,"rain":0.0,"pressure":976.6,"uv_index":7.45,"wind_gusts":58.7,"aqi":171,"pm10":586.7,"pm2_5":88.2,"no2":4.6,"co":185.0,"o3":136.0,"so2":9.2,"mosquito_risk":0,"arthritis_risk":5,"migraine_risk":10,"frizz_risk":0,"updated_at":"2026-05-23T16:44:07.527800+05:30"},{"city":"Agra","state":"Uttar Pradesh","latitude":27.1767,"longitude":78.0081,"temp":42.0,"humidity":13,"rain":0.0,"pressure":982.4,"uv_index":8.05,"wind_gusts":46.8,"aqi":566,"pm10":1300.1,"pm2_5":149.5,"no2":3.8,"co":148.0,"o3":113.0,"so2":3.1,"mosquito_risk":0,"arthritis_risk":5,"migraine_risk":10,"frizz_risk":0,"updated_at":"2026-05-23T16:44:07.527807+05:30"},{"city":"Varanasi","state":"Uttar Pradesh","latitude":25.3176,"longitude":82.9739,"temp":42.5,"humidity":14,"rain":0.0,"pressure":990.2,"uv_index":8.75,"wind_gusts":52.6,"aqi":156,"pm10":272.9,"pm2_5":66.1,"no2":4.4,"co":209.0,"o3":140.0,"so2":7.1,"mosquito_risk":0,"arthritis_risk":5,"migraine_risk":10,"frizz_risk":0,"updated_at":"2026-05-23T16:44:07.527813+05:30"},{"city":"Prayagraj","state":"Uttar Pradesh","latitude":25.4358,"longitude":81.8463,"temp":42.2,"humidity":14,"rain":0.0,"pressure":988.9,"uv_index":8.65,"wind_gusts":44.6,"aqi":151,"pm10":202.1,"pm2_5":53.4,"no2":2.9,"co":194.0,"o3":138.0,"so2":6.1,"mosquito_risk":0,"arthritis_risk":5,"migraine_risk":10,"frizz_risk":0,"updated_at":"2026-05-23T16:44:07.527820+05:30"},{"city":"Gorakhpur","state":"Uttar Pradesh","latitude":26.7606,"longitude":83.3732,"temp":39.8,"humidity":23,"rain":0.0,"pressure":989.4,"uv_index":8.65,"wind_gusts":43.9,"aqi":178,"pm10":131.8,"pm2_5":47.7,"no2":3.1,"co":258.0,"o3":153.0,"so2":7.7,"mosquito_risk":0,"arthritis_risk":5,"migraine_risk":10,"frizz_risk":0,"updated_at":"2026-05-23T16:44:07.527829+05:30"},{"city":"Bareilly","state":"Uttar Pradesh","latitude":28.367,"longitude":79.4304,"temp":37.8,"humidity":22,"rain":0.0,"pressure":981.2,"uv_index":8.05,"wind_gusts":53.6,"aqi":151,"pm10":59.5,"pm2_5":28.8,"no2":2.8,"co":211.0,"o3":151.0,"so2":7.5,"mosquito_risk":0,"arthritis_risk":5,"migraine_risk":10,"frizz_risk":0,"updated_at":"2026-05-23T16:44:07.527834+05:30"},{"city":"Aligarh","state":"Uttar Pradesh","latitude":27.8974,"longitude":78.088,"temp":39.5,"humidity":18,"rain":0.0,"pressure":980.9,"uv_index":7.85,"wind_gusts":45.7,"aqi":514,"pm10":1188.4,"pm2_5":149.9,"no2":3.9,"co":190.0,"o3":132.0,"so2":6.7,"mosquito_risk":0,"arthritis_risk":5,"migraine_risk":10,"frizz_risk":0,"updated_at":"2026-05-23T16:44:07.527841+05:30"},{"city":"Moradabad","state":"Uttar Pradesh","latitude":28.8386,"longitude":78.7733,"temp":38.4,"humidity":22,"rain":0.0,"pressure":978.2,"uv_index":7.85,"wind_gusts":60.1,"aqi":129,"pm10":141.6,"pm2_5":42.8,"no2":3.5,"co":207.0,"o3":136.0,"so2":6.5,"mosquito_risk":0,"arthritis_risk":5,"migraine_risk":10,"frizz_risk":0,"updated_at":"2026-05-23T16:44:07.527847+05:30"},{"city":"Saharanpur","state":"Uttar Pradesh","latitude":29.9637,"longitude":77.546,"temp":37.5,"humidity":22,"rain":0.0,"pressure":970.7,"uv_index":7.4,"wind_gusts":59.8,"aqi":112,"pm10":112.5,"pm2_5":31.2,"no2":5.0,"co":209.0,"o3":134.0,"so2":7.4,"mosquito_risk":0,"arthritis_risk":5,"migraine_risk":10,"frizz_risk":0,"updated_at":"2026-05-23T16:44:07.527853+05:30"},{"city":"Jhansi","state":"Uttar Pradesh","latitude":25.4484,"longitude":78.5685,"temp":41.2,"humidity":15,"rain":0.0,"pressure":973.6,"uv_index":8.5,"wind_gusts":46.8,"aqi":82,"pm10":91.0,"pm2_5":31.9,"no2":1.2,"co":138.0,"o3":110.0,"so2":3.4,"mosquito_risk":0,"arthritis_risk":5,"migraine_risk":10,"frizz_risk":0,"updated_at":"2026-05-23T16:44:10.837510+05:30"},{"city":"Surat","state":"Gujarat","latitude":21.1702,"longitude":72.8311,"temp":35.1,"humidity":55,"rain":0.0,"pressure":1004.9,"uv_index":7.6,"wind_gusts":41.4,"aqi":61,"pm10":20.5,"pm2_5":16.6,"no2":16.1,"co":336.0,"o3":49.0,"so2":44.0,"mosquito_risk":0,"arthritis_risk":5,"migraine_risk":7,"frizz_risk":1,"updated_at":"2026-05-23T16:44:10.837547+05:30"},{"city":"Vadodara","state":"Gujarat","latitude":22.3072,"longitude":73.1812,"temp":40.5,"humidity":32,"rain":0.0,"pressure":1000.9,"uv_index":8.1,"wind_gusts":42.5,"aqi":64,"pm10":33.3,"pm2_5":20.5,"no2":1.6,"co":174.0,"o3":113.0,"so2":3.9,"mosquito_risk":0,"arthritis_risk":5,"migraine_risk":7,"frizz_risk":1,"updated_at":"2026-05-23T16:44:10.837558+05:30"},{"city":"Rajkot","state":"Gujarat","latitude":22.3039,"longitude":70.8022,"temp":38.9,"humidity":37,"rain":0.0,"pressure":991.8,"uv_index":7.65,"wind_gusts":37.8,"aqi":68,"pm10":36.6,"pm2_5":21.8,"no2":1.2,"co":126.0,"o3":108.0,"so2":5.4,"mosquito_risk":0,"arthritis_risk":5,"migraine_risk":10,"frizz_risk":1,"updated_at":"2026-05-23T16:44:10.837566+05:30"},{"city":"Thane","state":"Maharashtra","latitude":19.2183,"longitude":72.9781,"temp":32.7,"humidity":64,"rain":0.1,"pressure":1006.8,"uv_index":7.75,"wind_gusts":27.0,"aqi":49,"pm10":12.7,"pm2_5":9.8,"no2":7.3,"co":173.0,"o3":82.0,"so2":4.6,"mosquito_risk":6,"arthritis_risk":5,"migraine_risk":4,"frizz_risk":1,"updated_at":"2026-05-23T16:44:10.837575+05:30"},{"city":"Nagpur","state":"Maharashtra","latitude":21.1458,"longitude":79.0882,"temp":42.0,"humidity":15,"rain":0.0,"pressure":969.0,"uv_index":8.95,"wind_gusts":56.9,"aqi":85,"pm10":40.0,"pm2_5":20.3,"no2":4.2,"co":169.0,"o3":116.0,"so2":10.1,"mosquito_risk":0,"arthritis_risk":5,"migraine_risk":10,"frizz_risk":0,"updated_at":"2026-05-23T16:44:10.837583+05:30"},{"city":"Nashik","state":"Maharashtra","latitude":19.9975,"longitude":73.7898,"temp":31.2,"humidity":58,"rain":0.1,"pressure":945.4,"uv_index":8.15,"wind_gusts":43.2,"aqi":49,"pm10":13.7,"pm2_5":9.0,"no2":1.7,"co":141.0,"o3":84.0,"so2":0.9,"mosquito_risk":3,"arthritis_risk":5,"migraine_risk":7,"frizz_risk":1,"updated_at":"2026-05-23T16:44:10.837591+05:30"},{"city":"Aurangabad","state":"Maharashtra","latitude":19.8762,"longitude":75.3433,"temp":34.4,"humidity":37,"rain":0.0,"pressure":943.2,"uv_index":9.05,"wind_gusts":45.4,"aqi":58,"pm10":30.0,"pm2_5":19.0,"no2":0.8,"co":145.0,"o3":109.0,"so2":2.3,"mosquito_risk":0,"arthritis_risk":5,"migraine_risk":7,"frizz_risk":1,"updated_at":"2026-05-23T16:44:10.837598+05:30"},{"city":"Solapur","state":"Maharashtra","latitude":17.6599,"longitude":75.9064,"temp":33.5,"humidity":45,"rain":0.1,"pressure":956.3,"uv_index":9.0,"wind_gusts":49.3,"aqi":68,"pm10":42.1,"pm2_5":29.7,"no2":2.0,"co":155.0,"o3":122.0,"so2":3.5,"mosquito_risk":3,"arthritis_risk":5,"migraine_risk":7,"frizz_risk":1,"updated_at":"2026-05-23T16:44:10.837606+05:30"},{"city":"Kolhapur","state":"Maharashtra","latitude":16.705,"longitude":74.2433,"temp":27.1,"humidity":79,"rain":0.1,"pressure":948.6,"uv_index":8.85,"wind_gusts":42.5,"aqi":42,"pm10":15.9,"pm2_5":12.9,"no2":4.0,"co":156.0,"o3":90.0,"so2":1.8,"mosquito_risk":10,"arthritis_risk":5,"migraine_risk":7,"frizz_risk":1,"updated_at":"2026-05-23T16:44:10.837614+05:30"},{"city":"Goa","state":"Goa","latitude":15.2993,"longitude":74.124,"temp":26.5,"humidity":97,"rain":0.2,"pressure":998.5,"uv_index":5.8,"wind_gusts":30.6,"aqi":32,"pm10":9.5,"pm2_5":6.2,"no2":0.7,"co":118.0,"o3":56.0,"so2":0.6,"mosquito_risk":10,"arthritis_risk":5,"migraine_risk":3,"frizz_risk":1,"updated_at":"2026-05-23T16:44:10.837621+05:30"},{"city":"Jodhpur","state":"Rajasthan","latitude":26.2389,"longitude":73.0243,"temp":42.0,"humidity":14,"rain":0.0,"pressure":979.4,"uv_index":8.4,"wind_gusts":42.8,"aqi":168,"pm10":330.6,"pm2_5":65.0,"no2":0.5,"co":129.0,"o3":108.0,"so2":3.0,"mosquito_risk":0,"arthritis_risk":5,"migraine_risk":10,"frizz_risk":0,"updated_at":"2026-05-23T16:44:10.837647+05:30"},{"city":"Udaipur","state":"Rajasthan","latitude":24.5854,"longitude":73.7125,"temp":38.8,"humidity":14,"rain":0.0,"pressure":944.9,"uv_index":8.85,"wind_gusts":39.2,"aqi":91,"pm10":119.7,"pm2_5":35.0,"no2":0.5,"co":126.0,"o3":100.0,"so2":2.2,"mosquito_risk":0,"arthritis_risk":5,"migraine_risk":10,"frizz_risk":0,"updated_at":"2026-05-23T16:44:10.837655+05:30"},{"city":"Kota","state":"Rajasthan","latitude":25.2138,"longitude":75.8648,"temp":42.0,"humidity":15,"rain":0.0,"pressure":974.9,"uv_index":8.4,"wind_gusts":50.0,"aqi":86,"pm10":118.7,"pm2_5":37.7,"no2":0.6,"co":134.0,"o3":114.0,"so2":3.3,"mosquito_risk":0,"arthritis_risk":5,"migraine_risk":10,"frizz_risk":0,"updated_at":"2026-05-23T16:44:10.837662+05:30"},{"city":"Bikaner","state":"Rajasthan","latitude":28.0229,"longitude":73.3119,"temp":43.2,"humidity":10,"rain":0.0,"pressure":977.1,"uv_index":8.35,"wind_gusts":47.2,"aqi":133,"pm10":105.0,"pm2_5":31.2,"no2":0.2,"co":143.0,"o3":113.0,"so2":2.1,"mosquito_risk":0,"arthritis_risk":5,"migraine_risk":10,"frizz_risk":0,"updated_at":"2026-05-23T16:44:10.837670+05:30"},{"city":"Ajmer","state":"Rajasthan","latitude":26.4499,"longitude":74.6399,"temp":38.2,"humidity":18,"rain":0.0,"pressure":952.4,"uv_index":8.4,"wind_gusts":51.8,"aqi":112,"pm10":150.4,"pm2_5":46.0,"no2":0.6,"co":141.0,"o3":111.0,"so2":3.0,"mosquito_risk":0,"arthritis_risk":5,"migraine_risk":10,"frizz_risk":0,"updated_at":"2026-05-23T16:44:10.837677+05:30"},{"city":"Gwalior","state":"Madhya Pradesh","latitude":26.2183,"longitude":78.1828,"temp":41.8,"humidity":14,"rain":0.0,"pressure":978.4,"uv_index":8.25,"wind_gusts":48.2,"aqi":94,"pm10":94.3,"pm2_5":33.6,"no2":1.0,"co":140.0,"o3":113.0,"so2":2.2,"mosquito_risk":0,"arthritis_risk":5,"migraine_risk":10,"frizz_risk":0,"updated_at":"2026-05-23T16:44:10.837685+05:30"},{"city":"Indore","state":"Madhya Pradesh","latitude":22.7196,"longitude":75.8577,"temp":39.0,"humidity":15,"rain":0.0,"pressure":946.2,"uv_index":8.7,"wind_gusts":54.7,"aqi":67,"pm10":44.4,"pm2_5":19.0,"no2":1.0,"co":167.0,"o3":112.0,"so2":2.2,"mosquito_risk":0,"arthritis_risk":5,"migraine_risk":10,"frizz_risk":0,"updated_at":"2026-05-23T16:44:10.837692+05:30"},{"city":"Bhopal","state":"Madhya Pradesh","latitude":23.2599,"longitude":77.4126,"temp":40.3,"humidity":14,"rain":0.0,"pressure":950.7,"uv_index":8.75,"wind_gusts":44.6,"aqi":64,"pm10":71.9,"pm2_5":24.4,"no2":0.6,"co":143.0,"o3":114.0,"so2":2.5,"mosquito_risk":0,"arthritis_risk":5,"migraine_risk":10,"frizz_risk":0,"updated_at":"2026-05-23T16:44:10.837699+05:30"},{"city":"Jabalpur","state":"Madhya Pradesh","latitude":23.1815,"longitude":79.9864,"temp":41.2,"humidity":12,"rain":0.0,"pressure":957.2,"uv_index":8.9,"wind_gusts":41.0,"aqi":65,"pm10":54.0,"pm2_5":20.6,"no2":1.0,"co":138.0,"o3":119.0,"so2":2.4,"mosquito_risk":0,"arthritis_risk":5,"migraine_risk":10,"frizz_risk":0,"updated_at":"2026-05-23T16:44:10.837705+05:30"},{"city":"Ujjain","state":"Madhya Pradesh","latitude":23.1765,"longitude":75.7885,"temp":39.2,"humidity":15,"rain":0.0,"pressure":951.8,"uv_index":8.65,"wind_gusts":51.1,"aqi":67,"pm10":57.4,"pm2_5":22.9,"no2":0.6,"co":134.0,"o3":109.0,"so2":2.1,"mosquito_risk":0,"arthritis_risk":5,"migraine_risk":10,"frizz_risk":0,"updated_at":"2026-05-23T16:44:10.837714+05:30"},{"city":"Visakhapatnam","state":"Andhra Pradesh","latitude":17.6868,"longitude":83.2185,"temp":40.3,"humidity":27,"rain":0.1,"pressure":997.2,"uv_index":9.1,"wind_gusts":32.0,"aqi":206,"pm10":56.1,"pm2_5":48.4,"no2":20.5,"co":731.0,"o3":202.0,"so2":48.8,"mosquito_risk":3,"arthritis_risk":5,"migraine_risk":10,"frizz_risk":1,"updated_at":"2026-05-23T16:44:10.837721+05:30"},{"city":"Vijayawada","state":"Andhra Pradesh","latitude":16.5062,"longitude":80.648,"temp":40.8,"humidity":27,"rain":0.0,"pressure":997.1,"uv_index":8.7,"wind_gusts":44.6,"aqi":129,"pm10":35.4,"pm2_5":30.7,"no2":5.5,"co":236.0,"o3":161.0,"so2":9.5,"mosquito_risk":0,"arthritis_risk":5,"migraine_risk":10,"frizz_risk":1,"updated_at":"2026-05-23T16:44:10.837729+05:30"},{"city":"Guntur","state":"Andhra Pradesh","latitude":16.3067,"longitude":80.4365,"temp":40.3,"humidity":28,"rain":0.0,"pressure":998.3,"uv_index":8.8,"wind_gusts":44.6,"aqi":120,"pm10":34.9,"pm2_5":29.1,"no2":3.3,"co":216.0,"o3":162.0,"so2":9.4,"mosquito_risk":0,"arthritis_risk":5,"migraine_risk":10,"frizz_risk":1,"updated_at":"2026-05-23T16:44:10.837737+05:30"},{"city":"Nellore","state":"Andhra Pradesh","latitude":14.4426,"longitude":79.9865,"temp":36.5,"humidity":42,"rain":0.0,"pressure":1001.9,"uv_index":8.9,"wind_gusts":43.2,"aqi":73,"pm10":29.9,"pm2_5":22.5,"no2":4.8,"co":197.0,"o3":140.0,"so2":5.9,"mosquito_risk":0,"arthritis_risk":5,"migraine_risk":7,"frizz_risk":1,"updated_at":"2026-05-23T16:44:10.837746+05:30"},{"city":"Kurnool","state":"Andhra Pradesh","latitude":15.8281,"longitude":78.0373,"temp":36.5,"humidity":38,"rain":0.1,"pressure":974.4,"uv_index":9.1,"wind_gusts":47.2,"aqi":58,"pm10":22.9,"pm2_5":18.0,"no2":2.5,"co":180.0,"o3":135.0,"so2":8.1,"mosquito_risk":3,"arthritis_risk":5,"migraine_risk":10,"frizz_risk":1,"updated_at":"2026-05-23T16:44:10.837754+05:30"},{"city":"Kakinada","state":"Andhra Pradesh","latitude":16.9891,"longitude":82.2475,"temp":41.5,"humidity":30,"rain":0.0,"pressure":1000.4,"uv_index":9.1,"wind_gusts":47.2,"aqi":153,"pm10":44.0,"pm2_5":35.2,"no2":4.3,"co":271.0,"o3":171.0,"so2":4.4,"mosquito_risk":0,"arthritis_risk":5,"migraine_risk":7,"frizz_risk":1,"updated_at":"2026-05-23T16:44:10.837761+05:30"},{"city":"Tirupati","state":"Andhra Pradesh","latitude":13.6288,"longitude":79.4192,"temp":31.9,"humidity":56,"rain":0.1,"pressure":988.7,"uv_index":8.05,"wind_gusts":37.8,"aqi":72,"pm10":28.4,"pm2_5":20.8,"no2":7.3,"co":282.0,"o3":105.0,"so2":3.2,"mosquito_risk":3,"arthritis_risk":5,"migraine_risk":7,"frizz_risk":1,"updated_at":"2026-05-23T16:44:10.837768+05:30"},{"city":"Warangal","state":"Telangana","latitude":17.9689,"longitude":79.5941,"temp":40.7,"humidity":19,"rain":0.0,"pressure":974.2,"uv_index":9.15,"wind_gusts":49.7,"aqi":123,"pm10":35.5,"pm2_5":29.7,"no2":4.0,"co":247.0,"o3":164.0,"so2":10.5,"mosquito_risk":0,"arthritis_risk":5,"migraine_risk":10,"frizz_risk":0,"updated_at":"2026-05-23T16:44:10.837774+05:30"},{"city":"Nizamabad","state":"Telangana","latitude":18.6725,"longitude":78.0941,"temp":39.5,"humidity":24,"rain":0.0,"pressure":961.8,"uv_index":9.1,"wind_gusts":48.2,"aqi":88,"pm10":28.3,"pm2_5":19.8,"no2":0.8,"co":172.0,"o3":124.0,"so2":4.2,"mosquito_risk":0,"arthritis_risk":5,"migraine_risk":10,"frizz_risk":0,"updated_at":"2026-05-23T16:44:10.837781+05:30"},{"city":"Mysore","state":"Karnataka","latitude":12.2958,"longitude":76.6396,"temp":28.4,"humidity":63,"rain":0.2,"pressure":928.9,"uv_index":8.7,"wind_gusts":41.4,"aqi":40,"pm10":13.9,"pm2_5":8.7,"no2":5.6,"co":179.0,"o3":98.0,"so2":1.6,"mosquito_risk":10,"arthritis_risk":5,"migraine_risk":7,"frizz_risk":1,"updated_at":"2026-05-23T16:44:10.837788+05:30"},{"city":"Mangalore","state":"Karnataka","latitude":12.9141,"longitude":74.856,"temp":29.5,"humidity":78,"rain":0.0,"pressure":1006.7,"uv_index":7.5,"wind_gusts":30.2,"aqi":35,"pm10":13.8,"pm2_5":9.3,"no2":1.6,"co":134.0,"o3":62.0,"so2":1.1,"mosquito_risk":7,"arthritis_risk":5,"migraine_risk":4,"frizz_risk":1,"updated_at":"2026-05-23T16:44:10.837795+05:30"},{"city":"Hubli-Dharwad","state":"Karnataka","latitude":15.3647,"longitude":75.124,"temp":26.9,"humidity":79,"rain":0.3,"pressure":940.9,"uv_index":9.05,"wind_gusts":45.7,"aqi":36,"pm10":8.9,"pm2_5":6.1,"no2":2.5,"co":151.0,"o3":78.0,"so2":0.7,"mosquito_risk":10,"arthritis_risk":5,"migraine_risk":7,"frizz_risk":1,"updated_at":"2026-05-23T16:44:10.837802+05:30"},{"city":"Belgaum","state":"Karnataka","latitude":15.8497,"longitude":74.4977,"temp":25.5,"humidity":84,"rain":0.1,"pressure":926.3,"uv_index":9.05,"wind_gusts":39.2,"aqi":36,"pm10":8.7,"pm2_5":6.4,"no2":3.2,"co":149.0,"o3":77.0,"so2":1.6,"mosquito_risk":10,"arthritis_risk":5,"migraine_risk":7,"frizz_risk":1,"updated_at":"2026-05-23T16:44:14.134261+05:30"},{"city":"Coimbatore","state":"Tamil Nadu","latitude":11.0168,"longitude":76.9558,"temp":29.8,"humidity":65,"rain":0.0,"pressure":961.6,"uv_index":8.9,"wind_gusts":49.3,"aqi":39,"pm10":11.6,"pm2_5":8.5,"no2":3.5,"co":176.0,"o3":85.0,"so2":1.8,"mosquito_risk":7,"arthritis_risk":5,"migraine_risk":7,"frizz_risk":1,"updated_at":"2026-05-23T16:44:14.134297+05:30"},{"city":"Madurai","state":"Tamil Nadu","latitude":9.9252,"longitude":78.1198,"temp":37.2,"humidity":34,"rain":0.0,"pressure":990.8,"uv_index":8.05,"wind_gusts":40.0,"aqi":54,"pm10":27.2,"pm2_5":13.3,"no2":3.3,"co":199.0,"o3":116.0,"so2":1.9,"mosquito_risk":0,"arthritis_risk":5,"migraine_risk":10,"frizz_risk":1,"updated_at":"2026-05-23T16:44:14.134309+05:30"},{"city":"Trichy","state":"Tamil Nadu","latitude":10.7905,"longitude":78.7047,"temp":34.8,"humidity":45,"rain":0.0,"pressure":997.4,"uv_index":8.2,"wind_gusts":46.1,"aqi":45,"pm10":22.0,"pm2_5":11.9,"no2":9.2,"co":181.0,"o3":106.0,"so2":3.2,"mosquito_risk":0,"arthritis_risk":5,"migraine_risk":7,"frizz_risk":1,"updated_at":"2026-05-23T16:44:14.134318+05:30"},{"city":"Salem","state":"Tamil Nadu","latitude":11.6643,"longitude":78.146,"temp":34.3,"humidity":43,"rain":0.0,"pressure":976.2,"uv_index":8.25,"wind_gusts":27.7,"aqi":60,"pm10":24.2,"pm2_5":11.8,"no2":3.3,"co":184.0,"o3":123.0,"so2":6.3,"mosquito_risk":0,"arthritis_risk":5,"migraine_risk":7,"frizz_risk":1,"updated_at":"2026-05-23T16:44:14.134326+05:30"},{"city":"Tirunelveli","state":"Tamil Nadu","latitude":8.7139,"longitude":77.7567,"temp":35.5,"humidity":45,"rain":0.0,"pressure":1001.0,"uv_index":8.05,"wind_gusts":40.0,"aqi":37,"pm10":9.9,"pm2_5":7.4,"no2":2.3,"co":142.0,"o3":82.0,"so2":1.1,"mosquito_risk":0,"arthritis_risk":5,"migraine_risk":7,"frizz_risk":1,"updated_at":"2026-05-23T16:44:14.134334+05:30"},{"city":"Vellore","state":"Tamil Nadu","latitude":12.9165,"longitude":79.1325,"temp":32.9,"humidity":51,"rain":0.1,"pressure":982.7,"uv_index":8.65,"wind_gusts":47.5,"aqi":77,"pm10":33.5,"pm2_5":23.7,"no2":3.5,"co":182.0,"o3":120.0,"so2":2.8,"mosquito_risk":3,"arthritis_risk":5,"migraine_risk":7,"frizz_risk":1,"updated_at":"2026-05-23T16:44:14.134342+05:30"},{"city":"Erode","state":"Tamil Nadu","latitude":11.341,"longitude":77.7172,"temp":33.8,"humidity":48,"rain":0.1,"pressure":988.0,"uv_index":8.7,"wind_gusts":36.4,"aqi":45,"pm10":21.9,"pm2_5":11.3,"no2":3.7,"co":182.0,"o3":110.0,"so2":1.7,"mosquito_risk":3,"arthritis_risk":5,"migraine_risk":7,"frizz_risk":1,"updated_at":"2026-05-23T16:44:14.134349+05:30"},{"city":"Kochi","state":"Kerala","latitude":9.9312,"longitude":76.2673,"temp":28.0,"humidity":83,"rain":0.0,"pressure":1009.5,"uv_index":7.9,"wind_gusts":30.6,"aqi":57,"pm10":13.6,"pm2_5":9.5,"no2":4.1,"co":137.0,"o3":75.0,"so2":2.5,"mosquito_risk":7,"arthritis_risk":0,"migraine_risk":4,"frizz_risk":1,"updated_at":"2026-05-23T16:44:14.134357+05:30"},{"city":"Thiruvananthapuram","state":"Kerala","latitude":8.5241,"longitude":76.9366,"temp":29.2,"humidity":76,"rain":0.1,"pressure":1008.2,"uv_index":7.95,"wind_gusts":43.2,"aqi":36,"pm10":18.7,"pm2_5":10.9,"no2":1.6,"co":114.0,"o3":64.0,"so2":0.5,"mosquito_risk":10,"arthritis_risk":0,"migraine_risk":4,"frizz_risk":1,"updated_at":"2026-05-23T16:44:14.134364+05:30"},{"city":"Kozhikode","state":"Kerala","latitude":11.2588,"longitude":75.7804,"temp":27.1,"humidity":95,"rain":0.1,"pressure":1009.1,"uv_index":8.5,"wind_gusts":28.1,"aqi":33,"pm10":11.2,"pm2_5":7.4,"no2":0.9,"co":116.0,"o3":68.0,"so2":0.6,"mosquito_risk":10,"arthritis_risk":0,"migraine_risk":4,"frizz_risk":1,"updated_at":"2026-05-23T16:44:14.134371+05:30"},{"city":"Thrissur","state":"Kerala","latitude":10.5276,"longitude":76.2144,"temp":27.3,"humidity":93,"rain":0.2,"pressure":1007.9,"uv_index":8.4,"wind_gusts":29.5,"aqi":58,"pm10":11.6,"pm2_5":8.6,"no2":3.1,"co":132.0,"o3":70.0,"so2":1.3,"mosquito_risk":10,"arthritis_risk":5,"migraine_risk":4,"frizz_risk":1,"updated_at":"2026-05-23T16:44:14.134379+05:30"},{"city":"Kannur","state":"Kerala","latitude":11.8745,"longitude":75.3704,"temp":28.5,"humidity":87,"rain":0.1,"pressure":1007.8,"uv_index":7.2,"wind_gusts":27.7,"aqi":35,"pm10":12.0,"pm2_5":8.2,"no2":1.5,"co":121.0,"o3":64.0,"so2":0.8,"mosquito_risk":10,"arthritis_risk":5,"migraine_risk":4,"frizz_risk":1,"updated_at":"2026-05-23T16:44:14.134387+05:30"},{"city":"Patna","state":"Bihar","latitude":25.5941,"longitude":85.1376,"temp":38.9,"humidity":30,"rain":0.0,"pressure":992.6,"uv_index":8.85,"wind_gusts":40.3,"aqi":189,"pm10":198.8,"pm2_5":70.5,"no2":11.9,"co":349.0,"o3":166.0,"so2":12.8,"mosquito_risk":0,"arthritis_risk":5,"migraine_risk":10,"frizz_risk":1,"updated_at":"2026-05-23T16:44:14.134394+05:30"},{"city":"Gaya","state":"Bihar","latitude":24.7914,"longitude":85.0002,"temp":40.5,"humidity":19,"rain":0.0,"pressure":986.3,"uv_index":8.9,"wind_gusts":36.4,"aqi":163,"pm10":201.2,"pm2_5":59.5,"no2":7.5,"co":263.0,"o3":138.0,"so2":7.9,"mosquito_risk":0,"arthritis_risk":5,"migraine_risk":10,"frizz_risk":0,"updated_at":"2026-05-23T16:44:14.134401+05:30"},{"city":"Muzaffarpur","state":"Bihar","latitude":26.1209,"longitude":85.3647,"temp":36.5,"humidity":53,"rain":0.0,"pressure":992.6,"uv_index":8.85,"wind_gusts":27.4,"aqi":198,"pm10":160.2,"pm2_5":71.5,"no2":13.4,"co":463.0,"o3":183.0,"so2":16.5,"mosquito_risk":0,"arthritis_risk":5,"migraine_risk":10,"frizz_risk":1,"updated_at":"2026-05-23T16:44:14.134407+05:30"},{"city":"Bhagalpur","state":"Bihar","latitude":25.2425,"longitude":87.0117,"temp":37.1,"humidity":41,"rain":0.0,"pressure":993.6,"uv_index":8.85,"wind_gusts":33.1,"aqi":171,"pm10":206.3,"pm2_5":63.8,"no2":5.3,"co":427.0,"o3":180.0,"so2":15.7,"mosquito_risk":0,"arthritis_risk":5,"migraine_risk":10,"frizz_risk":1,"updated_at":"2026-05-23T16:44:14.134414+05:30"},{"city":"Ranchi","state":"Jharkhand","latitude":23.3441,"longitude":85.3096,"temp":35.2,"humidity":25,"rain":0.0,"pressure":933.6,"uv_index":9.3,"wind_gusts":42.8,"aqi":129,"pm10":75.7,"pm2_5":28.9,"no2":4.3,"co":213.0,"o3":147.0,"so2":8.1,"mosquito_risk":0,"arthritis_risk":5,"migraine_risk":10,"frizz_risk":0,"updated_at":"2026-05-23T16:44:14.134421+05:30"},{"city":"Jamshedpur","state":"Jharkhand","latitude":22.8046,"longitude":86.2029,"temp":39.2,"humidity":26,"rain":0.0,"pressure":983.8,"uv_index":9.1,"wind_gusts":33.5,"aqi":193,"pm10":148.1,"pm2_5":51.0,"no2":11.7,"co":182.0,"o3":164.0,"so2":19.1,"mosquito_risk":0,"arthritis_risk":5,"migraine_risk":10,"frizz_risk":1,"updated_at":"2026-05-23T16:44:14.134428+05:30"},{"city":"Dhanbad","state":"Jharkhand","latitude":23.7957,"longitude":86.4304,"temp":40.3,"humidity":17,"rain":0.0,"pressure":973.1,"uv_index":9.1,"wind_gusts":41.8,"aqi":169,"pm10":175.6,"pm2_5":57.0,"no2":28.2,"co":180.0,"o3":128.0,"so2":78.2,"mosquito_risk":0,"arthritis_risk":5,"migraine_risk":10,"frizz_risk":0,"updated_at":"2026-05-23T16:44:14.134436+05:30"},{"city":"Bokaro","state":"Jharkhand","latitude":23.6693,"longitude":86.1511,"temp":40.2,"humidity":17,"rain":0.0,"pressure":976.7,"uv_index":9.1,"wind_gusts":39.2,"aqi":163,"pm10":164.4,"pm2_5":53.9,"no2":19.6,"co":202.0,"o3":140.0,"so2":82.9,"mosquito_risk":0,"arthritis_risk":5,"migraine_risk":10,"frizz_risk":0,"updated_at":"2026-05-23T16:44:14.134442+05:30"},{"city":"Bhubaneswar","state":"Odisha","latitude":20.2961,"longitude":85.8245,"temp":35.3,"humidity":62,"rain":0.0,"pressure":996.4,"uv_index":8.55,"wind_gusts":34.9,"aqi":120,"pm10":48.2,"pm2_5":37.8,"no2":4.8,"co":269.0,"o3":141.0,"so2":10.9,"mosquito_risk":3,"arthritis_risk":5,"migraine_risk":10,"frizz_risk":1,"updated_at":"2026-05-23T16:44:14.134450+05:30"},{"city":"Cuttack","state":"Odisha","latitude":20.4625,"longitude":85.8828,"temp":36.0,"humidity":62,"rain":0.0,"pressure":997.8,"uv_index":8.65,"wind_gusts":33.5,"aqi":120,"pm10":48.2,"pm2_5":37.8,"no2":4.8,"co":268.0,"o3":141.0,"so2":10.9,"mosquito_risk":3,"arthritis_risk":5,"migraine_risk":10,"frizz_risk":1,"updated_at":"2026-05-23T16:44:14.134456+05:30"},{"city":"Rourkela","state":"Odisha","latitude":22.2604,"longitude":84.8536,"temp":40.2,"humidity":20,"rain":0.0,"pressure":978.6,"uv_index":9.0,"wind_gusts":34.2,"aqi":159,"pm10":91.5,"pm2_5":31.2,"no2":7.5,"co":343.0,"o3":149.0,"so2":8.3,"mosquito_risk":0,"arthritis_risk":5,"migraine_risk":10,"frizz_risk":0,"updated_at":"2026-05-23T16:44:14.134462+05:30"},{"city":"Raipur","state":"Chhattisgarh","latitude":21.2514,"longitude":81.6296,"temp":42.8,"humidity":12,"rain":0.0,"pressure":969.0,"uv_index":8.75,"wind_gusts":39.6,"aqi":141,"pm10":19.2,"pm2_5":12.6,"no2":7.0,"co":139.0,"o3":124.0,"so2":17.2,"mosquito_risk":0,"arthritis_risk":5,"migraine_risk":10,"frizz_risk":0,"updated_at":"2026-05-23T16:44:14.134469+05:30"},{"city":"Bhilai","state":"Chhattisgarh","latitude":21.1938,"longitude":81.3509,"temp":42.0,"humidity":13,"rain":0.0,"pressure":969.7,"uv_index":8.95,"wind_gusts":44.3,"aqi":104,"pm10":19.1,"pm2_5":12.7,"no2":8.5,"co":155.0,"o3":118.0,"so2":19.3,"mosquito_risk":0,"arthritis_risk":5,"migraine_risk":10,"frizz_risk":0,"updated_at":"2026-05-23T16:44:14.134475+05:30"},{"city":"Guwahati","state":"Assam","latitude":26.1158,"longitude":91.7086,"temp":28.5,"humidity":81,"rain":0.0,"pressure":995.3,"uv_index":8.75,"wind_gusts":35.6,"aqi":66,"pm10":25.6,"pm2_5":15.9,"no2":2.7,"co":343.0,"o3":109.0,"so2":4.0,"mosquito_risk":7,"arthritis_risk":5,"migraine_risk":7,"frizz_risk":1,"updated_at":"2026-05-23T16:44:14.134481+05:30"},{"city":"Agartala","state":"Tripura","latitude":23.8315,"longitude":91.2868,"temp":30.4,"humidity":80,"rain":0.0,"pressure":1000.8,"uv_index":8.8,"wind_gusts":36.7,"aqi":83,"pm10":34.2,"pm2_5":24.8,"no2":6.3,"co":209.0,"o3":85.0,"so2":2.6,"mosquito_risk":3,"arthritis_risk":5,"migraine_risk":4,"frizz_risk":1,"updated_at":"2026-05-23T16:44:14.134488+05:30"},{"city":"Shillong","state":"Meghalaya","latitude":25.5788,"longitude":91.8933,"temp":24.1,"humidity":68,"rain":0.0,"pressure":854.7,"uv_index":9.05,"wind_gusts":51.5,"aqi":59,"pm10":26.0,"pm2_5":16.2,"no2":4.3,"co":275.0,"o3":107.0,"so2":3.6,"mosquito_risk":3,"arthritis_risk":5,"migraine_risk":7,"frizz_risk":1,"updated_at":"2026-05-23T16:44:14.134495+05:30"},{"city":"Imphal","state":"Manipur","latitude":24.817,"longitude":93.9368,"temp":27.8,"humidity":65,"rain":0.0,"pressure":919.9,"uv_index":8.7,"wind_gusts":36.4,"aqi":58,"pm10":21.1,"pm2_5":11.7,"no2":3.1,"co":283.0,"o3":88.0,"so2":1.8,"mosquito_risk":7,"arthritis_risk":5,"migraine_risk":7,"frizz_risk":1,"updated_at":"2026-05-23T16:44:14.134501+05:30"},{"city":"Aizawl","state":"Mizoram","latitude":23.7271,"longitude":92.7176,"temp":25.6,"humidity":67,"rain":0.0,"pressure":890.3,"uv_index":9.0,"wind_gusts":38.2,"aqi":57,"pm10":42.1,"pm2_5":21.8,"no2":2.7,"co":199.0,"o3":88.0,"so2":2.0,"mosquito_risk":7,"arthritis_risk":5,"migraine_risk":7,"frizz_risk":1,"updated_at":"2026-05-23T16:44:14.134507+05:30"},{"city":"Kohima","state":"Nagaland","latitude":25.6701,"longitude":94.1077,"temp":22.5,"humidity":87,"rain":0.0,"pressure":853.0,"uv_index":9.3,"wind_gusts":32.0,"aqi":46,"pm10":15.8,"pm2_5":7.7,"no2":3.0,"co":231.0,"o3":91.0,"so2":1.8,"mosquito_risk":3,"arthritis_risk":5,"migraine_risk":7,"frizz_risk":1,"updated_at":"2026-05-23T16:44:14.134513+05:30"},{"city":"Gangtok","state":"Sikkim","latitude":27.3314,"longitude":88.6138,"temp":18.6,"humidity":96,"rain":0.3,"pressure":833.4,"uv_index":9.15,"wind_gusts":32.8,"aqi":92,"pm10":8.5,"pm2_5":5.7,"no2":4.0,"co":314.0,"o3":121.0,"so2":2.5,"mosquito_risk":6,"arthritis_risk":10,"migraine_risk":7,"frizz_risk":1,"updated_at":"2026-05-23T16:44:14.134519+05:30"},{"city":"Siliguri","state":"West Bengal","latitude":26.7271,"longitude":88.3953,"temp":28.6,"humidity":76,"rain":0.0,"pressure":986.7,"uv_index":8.75,"wind_gusts":24.8,"aqi":108,"pm10":43.1,"pm2_5":28.4,"no2":4.9,"co":537.0,"o3":135.0,"so2":6.7,"mosquito_risk":7,"arthritis_risk":5,"migraine_risk":7,"frizz_risk":1,"updated_at":"2026-05-23T16:44:17.448651+05:30"},{"city":"Durgapur","state":"West Bengal","latitude":23.5204,"longitude":87.3119,"temp":33.0,"humidity":74,"rain":0.0,"pressure":987.9,"uv_index":9.0,"wind_gusts":40.3,"aqi":201,"pm10":164.8,"pm2_5":85.2,"no2":20.0,"co":626.0,"o3":213.0,"so2":49.2,"mosquito_risk":3,"arthritis_risk":5,"migraine_risk":7,"frizz_risk":1,"updated_at":"2026-05-23T16:44:17.448687+05:30"},{"city":"Asansol","state":"West Bengal","latitude":23.6739,"longitude":86.9524,"temp":36.3,"humidity":47,"rain":0.0,"pressure":986.3,"uv_index":9.05,"wind_gusts":36.0,"aqi":186,"pm10":179.7,"pm2_5":67.3,"no2":25.9,"co":505.0,"o3":161.0,"so2":30.5,"mosquito_risk":0,"arthritis_risk":5,"migraine_risk":10,"frizz_risk":1,"updated_at":"2026-05-23T16:44:17.448699+05:30"},{"city":"Pondicherry","state":"Puducherry","latitude":11.9139,"longitude":79.8145,"temp":33.5,"humidity":60,"rain":0.0,"pressure":1005.4,"uv_index":6.25,"wind_gusts":37.4,"aqi":64,"pm10":35.7,"pm2_5":26.0,"no2":19.0,"co":304.0,"o3":138.0,"so2":9.2,"mosquito_risk":0,"arthritis_risk":5,"migraine_risk":4,"frizz_risk":1,"updated_at":"2026-05-23T16:44:17.448708+05:30"},{"city":"Port Blair","state":"Andaman and Nicobar Islands","latitude":11.6234,"longitude":92.7265,"temp":28.9,"humidity":75,"rain":0.0,"pressure":1005.5,"uv_index":8.35,"wind_gusts":37.1,"aqi":31,"pm10":5.5,"pm2_5":3.4,"no2":0.5,"co":127.0,"o3":57.0,"so2":0.3,"mosquito_risk":7,"arthritis_risk":5,"migraine_risk":4,"frizz_risk":1,"updated_at":"2026-05-23T16:44:17.448717+05:30"},{"city":"Haridwar","state":"Uttarakhand","latitude":29.9457,"longitude":78.1642,"temp":37.8,"humidity":20,"rain":0.0,"pressure":968.9,"uv_index":7.55,"wind_gusts":48.2,"aqi":124,"pm10":54.2,"pm2_5":19.9,"no2":2.2,"co":186.0,"o3":143.0,"so2":6.0,"mosquito_risk":0,"arthritis_risk":5,"migraine_risk":10,"frizz_risk":0,"updated_at":"2026-05-23T16:44:17.448725+05:30"},{"city":"Rishikesh","state":"Uttarakhand","latitude":30.0869,"longitude":78.2676,"temp":36.6,"humidity":21,"rain":0.0,"pressure":961.9,"uv_index":7.65,"wind_gusts":40.3,"aqi":108,"pm10":34.7,"pm2_5":14.8,"no2":0.8,"co":173.0,"o3":144.0,"so2":4.4,"mosquito_risk":0,"arthritis_risk":5,"migraine_risk":10,"frizz_risk":0,"updated_at":"2026-05-23T16:44:17.448734+05:30"},{"city":"Nainital","state":"Uttarakhand","latitude":29.3919,"longitude":79.4542,"temp":24.0,"humidity":26,"rain":0.0,"pressure":806.5,"uv_index":8.5,"wind_gusts":49.0,"aqi":134,"pm10":42.7,"pm2_5":18.9,"no2":1.2,"co":159.0,"o3":146.0,"so2":4.2,"mosquito_risk":0,"arthritis_risk":5,"migraine_risk":7,"frizz_risk":0,"updated_at":"2026-05-23T16:44:17.448742+05:30"},{"city":"Mussoorie","state":"Uttarakhand","latitude":30.4599,"longitude":78.0664,"temp":23.2,"humidity":30,"rain":0.0,"pressure":804.0,"uv_index":8.05,"wind_gusts":55.8,"aqi":104,"pm10":36.8,"pm2_5":15.5,"no2":1.2,"co":165.0,"o3":141.0,"so2":3.7,"mosquito_risk":0,"arthritis_risk":5,"migraine_risk":7,"frizz_risk":0,"updated_at":"2026-05-23T16:44:17.448750+05:30"},{"city":"Dharamshala","state":"Himachal Pradesh","latitude":32.219,"longitude":76.3234,"temp":26.7,"humidity":27,"rain":0.0,"pressure":869.0,"uv_index":8.1,"wind_gusts":44.3,"aqi":72,"pm10":43.3,"pm2_5":12.6,"no2":0.0,"co":151.0,"o3":127.0,"so2":1.1,"mosquito_risk":4,"arthritis_risk":5,"migraine_risk":7,"frizz_risk":0,"updated_at":"2026-05-23T16:44:17.448757+05:30"},{"city":"Dalhousie","state":"Himachal Pradesh","latitude":32.5387,"longitude":75.971,"temp":22.9,"humidity":26,"rain":0.0,"pressure":806.5,"uv_index":8.65,"wind_gusts":45.0,"aqi":86,"pm10":54.2,"pm2_5":17.8,"no2":0.0,"co":154.0,"o3":138.0,"so2":1.6,"mosquito_risk":0,"arthritis_risk":5,"migraine_risk":7,"frizz_risk":0,"updated_at":"2026-05-23T16:44:17.448765+05:30"},{"city":"Patiala","state":"Punjab","latitude":30.3398,"longitude":76.3869,"temp":39.4,"humidity":16,"rain":0.0,"pressure":973.4,"uv_index":7.65,"wind_gusts":50.4,"aqi":231,"pm10":545.8,"pm2_5":74.0,"no2":1.5,"co":191.0,"o3":130.0,"so2":4.6,"mosquito_risk":0,"arthritis_risk":5,"migraine_risk":10,"frizz_risk":0,"updated_at":"2026-05-23T16:44:17.448772+05:30"},{"city":"Bhatinda","state":"Punjab","latitude":30.211,"longitude":74.9455,"temp":40.2,"humidity":15,"rain":0.0,"pressure":979.2,"uv_index":8.3,"wind_gusts":33.1,"aqi":96,"pm10":98.7,"pm2_5":30.6,"no2":1.7,"co":198.0,"o3":135.0,"so2":6.9,"mosquito_risk":0,"arthritis_risk":5,"migraine_risk":10,"frizz_risk":0,"updated_at":"2026-05-23T16:44:17.448779+05:30"},{"city":"Rohtak","state":"Haryana","latitude":28.8955,"longitude":76.6066,"temp":39.3,"humidity":18,"rain":0.0,"pressure":977.3,"uv_index":7.75,"wind_gusts":47.2,"aqi":769,"pm10":983.5,"pm2_5":121.1,"no2":3.4,"co":170.0,"o3":126.0,"so2":5.1,"mosquito_risk":0,"arthritis_risk":5,"migraine_risk":10,"frizz_risk":0,"updated_at":"2026-05-23T16:44:17.448786+05:30"},{"city":"Panipat","state":"Haryana","latitude":29.3909,"longitude":76.9635,"temp":39.7,"humidity":16,"rain":0.0,"pressure":975.6,"uv_index":7.05,"wind_gusts":52.2,"aqi":1529,"pm10":2227.7,"pm2_5":242.1,"no2":3.7,"co":176.0,"o3":125.0,"so2":7.6,"mosquito_risk":0,"arthritis_risk":5,"migraine_risk":10,"frizz_risk":0,"updated_at":"2026-05-23T16:44:17.448794+05:30"},{"city":"Mathura","state":"Uttar Pradesh","latitude":27.4924,"longitude":77.6737,"temp":41.5,"humidity":14,"rain":0.0,"pressure":981.7,"uv_index":8.0,"wind_gusts":43.2,"aqi":658,"pm10":388.4,"pm2_5":65.7,"no2":2.3,"co":179.0,"o3":112.0,"so2":2.2,"mosquito_risk":0,"arthritis_risk":5,"migraine_risk":10,"frizz_risk":0,"updated_at":"2026-05-23T16:44:17.448800+05:30"},{"city":"Vrindavan","state":"Uttar Pradesh","latitude":27.5823,"longitude":77.7027,"temp":41.0,"humidity":16,"rain":0.0,"pressure":982.1,"uv_index":8.0,"wind_gusts":42.5,"aqi":658,"pm10":388.4,"pm2_5":65.7,"no2":2.3,"co":183.0,"o3":112.0,"so2":2.2,"mosquito_risk":0,"arthritis_risk":5,"migraine_risk":10,"frizz_risk":0,"updated_at":"2026-05-23T16:44:17.448806+05:30"},{"city":"Ayodhya","state":"Uttar Pradesh","latitude":26.7922,"longitude":82.1998,"temp":39.7,"humidity":23,"rain":0.0,"pressure":988.2,"uv_index":8.35,"wind_gusts":46.1,"aqi":163,"pm10":103.1,"pm2_5":38.4,"no2":2.2,"co":194.0,"o3":152.0,"so2":8.2,"mosquito_risk":0,"arthritis_risk":5,"migraine_risk":10,"frizz_risk":0,"updated_at":"2026-05-23T16:44:17.448813+05:30"},{"city":"Ratlam","state":"Madhya Pradesh","latitude":23.3315,"longitude":75.0367,"temp":38.5,"humidity":18,"rain":0.0,"pressure":953.2,"uv_index":8.55,"wind_gusts":47.2,"aqi":67,"pm10":65.4,"pm2_5":25.1,"no2":0.4,"co":128.0,"o3":107.0,"so2":2.1,"mosquito_risk":0,"arthritis_risk":5,"migraine_risk":10,"frizz_risk":0,"updated_at":"2026-05-23T16:44:17.448820+05:30"},{"city":"Sagar","state":"Madhya Pradesh","latitude":23.8388,"longitude":78.7378,"temp":40.0,"humidity":12,"rain":0.0,"pressure":947.3,"uv_index":8.75,"wind_gusts":44.6,"aqi":63,"pm10":79.9,"pm2_5":26.4,"no2":0.1,"co":129.0,"o3":121.0,"so2":2.8,"mosquito_risk":0,"arthritis_risk":5,"migraine_risk":10,"frizz_risk":0,"updated_at":"2026-05-23T16:44:17.448827+05:30"},{"city":"Satna","state":"Madhya Pradesh","latitude":24.6005,"longitude":80.8322,"temp":40.6,"humidity":15,"rain":0.0,"pressure":966.7,"uv_index":8.8,"wind_gusts":47.9,"aqi":83,"pm10":231.0,"pm2_5":53.8,"no2":0.9,"co":145.0,"o3":131.0,"so2":3.9,"mosquito_risk":0,"arthritis_risk":5,"migraine_risk":10,"frizz_risk":0,"updated_at":"2026-05-23T16:44:17.448833+05:30"},{"city":"Akola","state":"Maharashtra","latitude":20.7002,"longitude":77.0082,"temp":40.8,"humidity":21,"rain":0.0,"pressure":971.9,"uv_index":8.9,"wind_gusts":49.0,"aqi":66,"pm10":26.3,"pm2_5":15.3,"no2":1.2,"co":142.0,"o3":109.0,"so2":4.2,"mosquito_risk":0,"arthritis_risk":5,"migraine_risk":10,"frizz_risk":0,"updated_at":"2026-05-23T16:44:17.448842+05:30"},{"city":"Amravati","state":"Maharashtra","latitude":20.9374,"longitude":77.7796,"temp":40.0,"humidity":19,"rain":0.0,"pressure":964.5,"uv_index":8.9,"wind_gusts":53.6,"aqi":68,"pm10":27.4,"pm2_5":15.5,"no2":1.4,"co":154.0,"o3":111.0,"so2":4.6,"mosquito_risk":0,"arthritis_risk":5,"migraine_risk":10,"frizz_risk":0,"updated_at":"2026-05-23T16:44:17.448849+05:30"},{"city":"Latur","state":"Maharashtra","latitude":18.4088,"longitude":76.5604,"temp":35.3,"humidity":36,"rain":0.2,"pressure":938.6,"uv_index":9.05,"wind_gusts":50.8,"aqi":79,"pm10":29.4,"pm2_5":19.6,"no2":1.2,"co":168.0,"o3":125.0,"so2":3.9,"mosquito_risk":3,"arthritis_risk":5,"migraine_risk":10,"frizz_risk":1,"updated_at":"2026-05-23T16:44:17.448856+05:30"},{"city":"Nanded","state":"Maharashtra","latitude":19.1383,"longitude":77.3091,"temp":40.4,"humidity":24,"rain":0.0,"pressure":965.4,"uv_index":9.0,"wind_gusts":52.2,"aqi":83,"pm10":29.8,"pm2_5":20.0,"no2":1.1,"co":160.0,"o3":120.0,"so2":3.5,"mosquito_risk":0,"arthritis_risk":5,"migraine_risk":10,"frizz_risk":0,"updated_at":"2026-05-23T16:44:17.448863+05:30"},{"city":"Gulbarga","state":"Karnataka","latitude":17.3297,"longitude":76.8343,"temp":28.9,"humidity":71,"rain":0.1,"pressure":957.5,"uv_index":9.05,"wind_gusts":45.0,"aqi":68,"pm10":24.9,"pm2_5":18.5,"no2":3.8,"co":177.0,"o3":118.0,"so2":3.4,"mosquito_risk":10,"arthritis_risk":5,"migraine_risk":7,"frizz_risk":1,"updated_at":"2026-05-23T16:44:17.448870+05:30"},{"city":"Bidar","state":"Karnataka","latitude":17.9104,"longitude":77.5199,"temp":36.3,"humidity":31,"rain":0.0,"pressure":933.8,"uv_index":8.9,"wind_gusts":44.6,"aqi":91,"pm10":28.0,"pm2_5":20.1,"no2":1.5,"co":194.0,"o3":134.0,"so2":4.7,"mosquito_risk":0,"arthritis_risk":5,"migraine_risk":10,"frizz_risk":1,"updated_at":"2026-05-23T16:44:17.448876+05:30"},{"city":"Hospet","state":"Karnataka","latitude":15.2689,"longitude":76.3909,"temp":31.2,"humidity":61,"rain":0.1,"pressure":954.4,"uv_index":9.0,"wind_gusts":50.8,"aqi":42,"pm10":18.5,"pm2_5":12.8,"no2":3.3,"co":193.0,"o3":107.0,"so2":2.3,"mosquito_risk":6,"arthritis_risk":5,"migraine_risk":7,"frizz_risk":1,"updated_at":"2026-05-23T16:44:17.448883+05:30"},{"city":"Tirupur","state":"Tamil Nadu","latitude":11.1085,"longitude":77.3411,"temp":33.3,"humidity":52,"rain":0.0,"pressure":974.3,"uv_index":8.95,"wind_gusts":50.8,"aqi":44,"pm10":17.1,"pm2_5":10.1,"no2":3.8,"co":172.0,"o3":102.0,"so2":2.2,"mosquito_risk":0,"arthritis_risk":5,"migraine_risk":7,"frizz_risk":1,"updated_at":"2026-05-23T16:44:17.448890+05:30"},{"city":"Alappuzha","state":"Kerala","latitude":9.4981,"longitude":76.3388,"temp":28.8,"humidity":79,"rain":0.1,"pressure":1009.5,"uv_index":7.5,"wind_gusts":36.0,"aqi":47,"pm10":12.6,"pm2_5":8.3,"no2":3.5,"co":102.0,"o3":71.0,"so2":1.5,"mosquito_risk":10,"arthritis_risk":0,"migraine_risk":4,"frizz_risk":1,"updated_at":"2026-05-23T16:44:17.448897+05:30"},{"city":"Munnar","state":"Kerala","latitude":10.0889,"longitude":77.0595,"temp":19.2,"humidity":94,"rain":0.1,"pressure":858.0,"uv_index":8.65,"wind_gusts":32.4,"aqi":34,"pm10":10.6,"pm2_5":7.6,"no2":4.4,"co":138.0,"o3":73.0,"so2":1.1,"mosquito_risk":6,"arthritis_risk":10,"migraine_risk":7,"frizz_risk":1,"updated_at":"2026-05-23T16:44:17.448904+05:30"},{"city":"Silchar","state":"Assam","latitude":24.8333,"longitude":92.7789,"temp":30.0,"humidity":76,"rain":0.0,"pressure":1000.0,"uv_index":8.45,"wind_gusts":38.9,"aqi":61,"pm10":19.1,"pm2_5":12.6,"no2":4.1,"co":258.0,"o3":91.0,"so2":3.0,"mosquito_risk":7,"arthritis_risk":5,"migraine_risk":4,"frizz_risk":1,"updated_at":"2026-05-23T16:44:17.448911+05:30"},{"city":"Dibrugarh","state":"Assam","latitude":27.4728,"longitude":94.912,"temp":25.2,"humidity":96,"rain":0.3,"pressure":990.9,"uv_index":8.9,"wind_gusts":33.1,"aqi":77,"pm10":12.6,"pm2_5":10.2,"no2":4.3,"co":273.0,"o3":105.0,"so2":1.2,"mosquito_risk":10,"arthritis_risk":5,"migraine_risk":7,"frizz_risk":1,"updated_at":"2026-05-23T16:44:17.448917+05:30"}]