[{"city":"Delhi","state":"Delhi","latitude":28.6139,"longitude":77.209,"temp":37.5,"humidity":25,"rain":0.0,"pressure":976.4,"uv_index":7.6,"wind_gusts":36.0,"aqi":209,"pm10":381.8,"pm2_5":75.7,"no2":4.9,"co":404.0,"o3":240.0,"so2":24.8,"mosquito_risk":0,"arthritis_risk":5,"migraine_risk":10,"frizz_risk":0,"updated_at":"2026-05-02T14:40:31.204367+05:30"},{"city":"Mumbai","state":"Maharashtra","latitude":19.076,"longitude":72.8777,"temp":32.8,"humidity":59,"rain":0.0,"pressure":1006.2,"uv_index":7.9,"wind_gusts":42.1,"aqi":73,"pm10":64.5,"pm2_5":25.5,"no2":4.1,"co":200.0,"o3":106.0,"so2":17.3,"mosquito_risk":0,"arthritis_risk":5,"migraine_risk":4,"frizz_risk":1,"updated_at":"2026-05-02T14:40:31.204409+05:30"},{"city":"Bangalore","state":"Karnataka","latitude":12.9716,"longitude":77.5946,"temp":33.9,"humidity":28,"rain":0.0,"pressure":910.2,"uv_index":9.5,"wind_gusts":33.1,"aqi":82,"pm10":32.6,"pm2_5":16.9,"no2":3.4,"co":300.0,"o3":153.0,"so2":3.8,"mosquito_risk":0,"arthritis_risk":5,"migraine_risk":7,"frizz_risk":0,"updated_at":"2026-05-02T14:40:31.204430+05:30"},{"city":"Hyderabad","state":"Telangana","latitude":17.385,"longitude":78.4867,"temp":39.5,"humidity":16,"rain":0.0,"pressure":949.1,"uv_index":9.25,"wind_gusts":32.8,"aqi":80,"pm10":36.6,"pm2_5":14.5,"no2":1.9,"co":235.0,"o3":142.0,"so2":5.5,"mosquito_risk":0,"arthritis_risk":5,"migraine_risk":10,"frizz_risk":0,"updated_at":"2026-05-02T14:40:31.204440+05:30"},{"city":"Chennai","state":"Tamil Nadu","latitude":13.0827,"longitude":80.2707,"temp":34.7,"humidity":56,"rain":0.0,"pressure":1002.5,"uv_index":9.2,"wind_gusts":54.7,"aqi":65,"pm10":26.1,"pm2_5":20.1,"no2":2.6,"co":230.0,"o3":156.0,"so2":6.6,"mosquito_risk":0,"arthritis_risk":5,"migraine_risk":4,"frizz_risk":1,"updated_at":"2026-05-02T14:40:31.204450+05:30"},{"city":"Kolkata","state":"West Bengal","latitude":22.5726,"longitude":88.3639,"temp":29.8,"humidity":68,"rain":0.0,"pressure":1000.1,"uv_index":8.85,"wind_gusts":42.8,"aqi":68,"pm10":43.9,"pm2_5":27.0,"no2":3.4,"co":288.0,"o3":124.0,"so2":9.8,"mosquito_risk":7,"arthritis_risk":5,"migraine_risk":4,"frizz_risk":1,"updated_at":"2026-05-02T14:40:31.204459+05:30"},{"city":"Pune","state":"Maharashtra","latitude":18.5204,"longitude":73.8567,"temp":36.0,"humidity":26,"rain":0.0,"pressure":946.3,"uv_index":8.5,"wind_gusts":48.6,"aqi":59,"pm10":73.3,"pm2_5":18.7,"no2":1.5,"co":171.0,"o3":108.0,"so2":3.1,"mosquito_risk":0,"arthritis_risk":5,"migraine_risk":10,"frizz_risk":0,"updated_at":"2026-05-02T14:40:31.204469+05:30"},{"city":"Ahmedabad","state":"Gujarat","latitude":23.0225,"longitude":72.5714,"temp":42.3,"humidity":18,"rain":0.0,"pressure":995.4,"uv_index":8.1,"wind_gusts":51.1,"aqi":55,"pm10":92.4,"pm2_5":20.7,"no2":1.7,"co":168.0,"o3":124.0,"so2":4.4,"mosquito_risk":0,"arthritis_risk":5,"migraine_risk":10,"frizz_risk":0,"updated_at":"2026-05-02T14:40:31.204480+05:30"},{"city":"Jaipur","state":"Rajasthan","latitude":26.9124,"longitude":75.7873,"temp":40.8,"humidity":14,"rain":0.0,"pressure":953.8,"uv_index":8.15,"wind_gusts":35.6,"aqi":120,"pm10":243.1,"pm2_5":36.8,"no2":1.0,"co":173.0,"o3":126.0,"so2":3.3,"mosquito_risk":0,"arthritis_risk":5,"migraine_risk":10,"frizz_risk":0,"updated_at":"2026-05-02T14:40:31.204488+05:30"},{"city":"Lucknow","state":"Uttar Pradesh","latitude":26.8467,"longitude":80.9462,"temp":35.3,"humidity":36,"rain":0.0,"pressure":986.9,"uv_index":8.1,"wind_gusts":40.7,"aqi":133,"pm10":191.9,"pm2_5":45.5,"no2":1.5,"co":316.0,"o3":193.0,"so2":9.1,"mosquito_risk":0,"arthritis_risk":5,"migraine_risk":10,"frizz_risk":1,"updated_at":"2026-05-02T14:40:31.204496+05:30"},{"city":"Kanpur","state":"Uttar Pradesh","latitude":26.4499,"longitude":80.3319,"temp":37.2,"humidity":30,"rain":0.0,"pressure":984.8,"uv_index":8.1,"wind_gusts":37.1,"aqi":142,"pm10":232.4,"pm2_5":48.7,"no2":1.4,"co":286.0,"o3":193.0,"so2":9.2,"mosquito_risk":0,"arthritis_risk":5,"migraine_risk":10,"frizz_risk":1,"updated_at":"2026-05-02T14:40:31.204504+05:30"},{"city":"Chandigarh","state":"Chandigarh","latitude":30.7333,"longitude":76.7794,"temp":34.3,"humidity":28,"rain":0.0,"pressure":963.3,"uv_index":7.6,"wind_gusts":33.8,"aqi":156,"pm10":117.8,"pm2_5":32.5,"no2":1.8,"co":304.0,"o3":188.0,"so2":13.5,"mosquito_risk":0,"arthritis_risk":5,"migraine_risk":7,"frizz_risk":0,"updated_at":"2026-05-02T14:40:31.204513+05:30"},{"city":"Srinagar","state":"Jammu and Kashmir","latitude":34.0837,"longitude":74.7973,"temp":22.0,"humidity":46,"rain":0.0,"pressure":839.7,"uv_index":8.8,"wind_gusts":36.0,"aqi":71,"pm10":13.0,"pm2_5":7.7,"no2":1.5,"co":337.0,"o3":148.0,"so2":2.1,"mosquito_risk":0,"arthritis_risk":5,"migraine_risk":7,"frizz_risk":0,"updated_at":"2026-05-02T14:40:31.204522+05:30"},{"city":"Jammu","state":"Jammu and Kashmir","latitude":32.7266,"longitude":74.857,"temp":34.0,"humidity":23,"rain":0.0,"pressure":967.5,"uv_index":8.4,"wind_gusts":31.0,"aqi":84,"pm10":22.9,"pm2_5":10.7,"no2":1.6,"co":291.0,"o3":161.0,"so2":2.5,"mosquito_risk":0,"arthritis_risk":5,"migraine_risk":7,"frizz_risk":0,"updated_at":"2026-05-02T14:40:31.204529+05:30"},{"city":"Amritsar","state":"Punjab","latitude":31.634,"longitude":74.8723,"temp":38.1,"humidity":19,"rain":0.0,"pressure":974.3,"uv_index":8.25,"wind_gusts":29.9,"aqi":106,"pm10":47.3,"pm2_5":17.5,"no2":1.3,"co":268.0,"o3":171.0,"so2":5.6,"mosquito_risk":0,"arthritis_risk":5,"migraine_risk":10,"frizz_risk":0,"updated_at":"2026-05-02T14:40:31.204536+05:30"},{"city":"Ludhiana","state":"Punjab","latitude":30.901,"longitude":75.8573,"temp":37.3,"humidity":21,"rain":0.0,"pressure":972.7,"uv_index":7.85,"wind_gusts":36.0,"aqi":157,"pm10":206.8,"pm2_5":44.2,"no2":1.2,"co":295.0,"o3":174.0,"so2":7.9,"mosquito_risk":0,"arthritis_risk":5,"migraine_risk":10,"frizz_risk":0,"updated_at":"2026-05-02T14:40:31.204544+05:30"},{"city":"Jalandhar","state":"Punjab","latitude":31.326,"longitude":75.5762,"temp":36.0,"humidity":22,"rain":0.0,"pressure":973.9,"uv_index":8.05,"wind_gusts":36.7,"aqi":150,"pm10":128.1,"pm2_5":33.2,"no2":1.1,"co":295.0,"o3":169.0,"so2":7.0,"mosquito_risk":0,"arthritis_risk":5,"migraine_risk":10,"frizz_risk":0,"updated_at":"2026-05-02T14:40:31.204551+05:30"},{"city":"Dehradun","state":"Uttarakhand","latitude":30.6284,"longitude":78.0322,"temp":18.8,"humidity":71,"rain":0.0,"pressure":827.5,"uv_index":8.05,"wind_gusts":44.6,"aqi":110,"pm10":43.9,"pm2_5":20.8,"no2":0.9,"co":266.0,"o3":166.0,"so2":4.6,"mosquito_risk":3,"arthritis_risk":5,"migraine_risk":7,"frizz_risk":0,"updated_at":"2026-05-02T14:40:31.204561+05:30"},{"city":"Shimla","state":"Himachal Pradesh","latitude":31.1048,"longitude":77.1734,"temp":19.7,"humidity":42,"rain":0.0,"pressure":783.3,"uv_index":8.15,"wind_gusts":44.6,"aqi":115,"pm10":35.4,"pm2_5":17.2,"no2":1.0,"co":198.0,"o3":177.0,"so2":12.9,"mosquito_risk":0,"arthritis_risk":5,"migraine_risk":7,"frizz_risk":0,"updated_at":"2026-05-02T14:40:31.204568+05:30"},{"city":"Manali","state":"Himachal Pradesh","latitude":32.2396,"longitude":77.1887,"temp":17.3,"humidity":57,"rain":0.0,"pressure":814.8,"uv_index":10.3,"wind_gusts":39.2,"aqi":120,"pm10":9.5,"pm2_5":5.2,"no2":0.8,"co":168.0,"o3":169.0,"so2":0.2,"mosquito_risk":0,"arthritis_risk":5,"migraine_risk":7,"frizz_risk":0,"updated_at":"2026-05-02T14:40:31.204575+05:30"},{"city":"Gurgaon","state":"Haryana","latitude":28.4595,"longitude":77.0266,"temp":37.3,"humidity":20,"rain":0.0,"pressure":975.1,"uv_index":7.7,"wind_gusts":26.6,"aqi":828,"pm10":629.6,"pm2_5":85.2,"no2":3.7,"co":317.0,"o3":194.0,"so2":14.2,"mosquito_risk":0,"arthritis_risk":5,"migraine_risk":10,"frizz_risk":0,"updated_at":"2026-05-02T14:40:31.204581+05:30"},{"city":"Noida","state":"Uttar Pradesh","latitude":28.5355,"longitude":77.391,"temp":36.0,"humidity":31,"rain":0.0,"pressure":978.4,"uv_index":7.65,"wind_gusts":24.8,"aqi":828,"pm10":629.6,"pm2_5":85.2,"no2":3.7,"co":369.0,"o3":194.0,"so2":14.2,"mosquito_risk":0,"arthritis_risk":5,"migraine_risk":10,"frizz_risk":1,"updated_at":"2026-05-02T14:40:31.204588+05:30"},{"city":"Ghaziabad","state":"Uttar Pradesh","latitude":28.6692,"longitude":77.4538,"temp":35.9,"humidity":29,"rain":0.0,"pressure":976.8,"uv_index":7.6,"wind_gusts":25.2,"aqi":151,"pm10":380.0,"pm2_5":71.9,"no2":3.0,"co":358.0,"o3":223.0,"so2":14.7,"mosquito_risk":0,"arthritis_risk":5,"migraine_risk":10,"frizz_risk":0,"updated_at":"2026-05-02T14:40:31.204595+05:30"},{"city":"Faridabad","state":"Haryana","latitude":28.4089,"longitude":77.3178,"temp":36.8,"humidity":27,"rain":0.0,"pressure":977.3,"uv_index":7.65,"wind_gusts":26.3,"aqi":828,"pm10":629.6,"pm2_5":85.2,"no2":3.7,"co":316.0,"o3":194.0,"so2":14.2,"mosquito_risk":0,"arthritis_risk":5,"migraine_risk":10,"frizz_risk":0,"updated_at":"2026-05-02T14:40:31.204602+05:30"},{"city":"Meerut","state":"Uttar Pradesh","latitude":28.9845,"longitude":77.7064,"temp":34.6,"humidity":35,"rain":0.0,"pressure":975.8,"uv_index":7.5,"wind_gusts":29.5,"aqi":151,"pm10":380.0,"pm2_5":71.9,"no2":3.0,"co":310.0,"o3":223.0,"so2":14.7,"mosquito_risk":0,"arthritis_risk":5,"migraine_risk":7,"frizz_risk":1,"updated_at":"2026-05-02T14:40:31.204608+05:30"},{"city":"Agra","state":"Uttar Pradesh","latitude":27.1767,"longitude":78.0081,"temp":39.2,"humidity":25,"rain":0.0,"pressure":980.7,"uv_index":7.95,"wind_gusts":45.7,"aqi":655,"pm10":309.2,"pm2_5":49.1,"no2":1.6,"co":265.0,"o3":176.0,"so2":10.7,"mosquito_risk":0,"arthritis_risk":5,"migraine_risk":10,"frizz_risk":0,"updated_at":"2026-05-02T14:40:31.204615+05:30"},{"city":"Varanasi","state":"Uttar Pradesh","latitude":25.3176,"longitude":82.9739,"temp":36.3,"humidity":31,"rain":0.0,"pressure":990.4,"uv_index":8.6,"wind_gusts":34.2,"aqi":144,"pm10":103.8,"pm2_5":33.5,"no2":1.7,"co":313.0,"o3":189.0,"so2":10.6,"mosquito_risk":0,"arthritis_risk":5,"migraine_risk":10,"frizz_risk":1,"updated_at":"2026-05-02T14:40:31.204622+05:30"},{"city":"Prayagraj","state":"Uttar Pradesh","latitude":25.4358,"longitude":81.8463,"temp":37.3,"humidity":30,"rain":0.0,"pressure":988.8,"uv_index":8.5,"wind_gusts":37.1,"aqi":151,"pm10":122.0,"pm2_5":34.5,"no2":1.6,"co":304.0,"o3":195.0,"so2":8.6,"mosquito_risk":0,"arthritis_risk":5,"migraine_risk":10,"frizz_risk":1,"updated_at":"2026-05-02T14:40:31.204636+05:30"},{"city":"Gorakhpur","state":"Uttar Pradesh","latitude":26.7606,"longitude":83.3732,"temp":32.8,"humidity":41,"rain":0.0,"pressure":991.6,"uv_index":8.45,"wind_gusts":31.3,"aqi":113,"pm10":65.4,"pm2_5":27.2,"no2":1.5,"co":318.0,"o3":182.0,"so2":5.2,"mosquito_risk":0,"arthritis_risk":5,"migraine_risk":7,"frizz_risk":1,"updated_at":"2026-05-02T14:40:31.204643+05:30"},{"city":"Bareilly","state":"Uttar Pradesh","latitude":28.367,"longitude":79.4304,"temp":34.6,"humidity":36,"rain":0.0,"pressure":980.7,"uv_index":7.9,"wind_gusts":32.8,"aqi":132,"pm10":277.5,"pm2_5":58.8,"no2":1.5,"co":289.0,"o3":198.0,"so2":13.2,"mosquito_risk":0,"arthritis_risk":5,"migraine_risk":7,"frizz_risk":1,"updated_at":"2026-05-02T14:40:31.204650+05:30"},{"city":"Aligarh","state":"Uttar Pradesh","latitude":27.8974,"longitude":78.088,"temp":37.2,"humidity":30,"rain":0.0,"pressure":979.0,"uv_index":7.75,"wind_gusts":30.6,"aqi":419,"pm10":408.9,"pm2_5":63.6,"no2":1.8,"co":278.0,"o3":185.0,"so2":12.0,"mosquito_risk":0,"arthritis_risk":5,"migraine_risk":10,"frizz_risk":1,"updated_at":"2026-05-02T14:40:31.204657+05:30"},{"city":"Moradabad","state":"Uttar Pradesh","latitude":28.8386,"longitude":78.7733,"temp":34.5,"humidity":34,"rain":0.0,"pressure":977.8,"uv_index":7.7,"wind_gusts":31.3,"aqi":132,"pm10":231.9,"pm2_5":53.6,"no2":2.1,"co":304.0,"o3":202.0,"so2":19.7,"mosquito_risk":0,"arthritis_risk":5,"migraine_risk":7,"frizz_risk":1,"updated_at":"2026-05-02T14:40:31.204663+05:30"},{"city":"Saharanpur","state":"Uttar Pradesh","latitude":29.9637,"longitude":77.546,"temp":32.8,"humidity":40,"rain":0.0,"pressure":970.3,"uv_index":7.35,"wind_gusts":31.7,"aqi":132,"pm10":159.7,"pm2_5":40.9,"no2":1.9,"co":293.0,"o3":198.0,"so2":12.2,"mosquito_risk":0,"arthritis_risk":5,"migraine_risk":7,"frizz_risk":1,"updated_at":"2026-05-02T14:40:31.204668+05:30"},{"city":"Jhansi","state":"Uttar Pradesh","latitude":25.4484,"longitude":78.5685,"temp":40.8,"humidity":16,"rain":0.0,"pressure":970.7,"uv_index":8.4,"wind_gusts":43.2,"aqi":73,"pm10":82.7,"pm2_5":19.4,"no2":1.0,"co":165.0,"o3":124.0,"so2":5.9,"mosquito_risk":0,"arthritis_risk":5,"migraine_risk":10,"frizz_risk":0,"updated_at":"2026-05-02T14:40:34.487938+05:30"},{"city":"Surat","state":"Gujarat","latitude":21.1702,"longitude":72.8311,"temp":34.5,"humidity":53,"rain":0.0,"pressure":1002.9,"uv_index":7.75,"wind_gusts":54.4,"aqi":64,"pm10":39.9,"pm2_5":20.1,"no2":9.6,"co":227.0,"o3":79.0,"so2":29.5,"mosquito_risk":0,"arthritis_risk":5,"migraine_risk":4,"frizz_risk":1,"updated_at":"2026-05-02T14:40:34.487973+05:30"},{"city":"Vadodara","state":"Gujarat","latitude":22.3072,"longitude":73.1812,"temp":40.5,"humidity":26,"rain":0.0,"pressure":998.6,"uv_index":8.05,"wind_gusts":50.4,"aqi":56,"pm10":59.5,"pm2_5":19.4,"no2":1.7,"co":165.0,"o3":123.0,"so2":5.4,"mosquito_risk":0,"arthritis_risk":5,"migraine_risk":10,"frizz_risk":1,"updated_at":"2026-05-02T14:40:34.487985+05:30"},{"city":"Rajkot","state":"Gujarat","latitude":22.3039,"longitude":70.8022,"temp":42.5,"humidity":15,"rain":0.0,"pressure":988.6,"uv_index":7.75,"wind_gusts":55.8,"aqi":52,"pm10":62.9,"pm2_5":18.3,"no2":1.1,"co":138.0,"o3":120.0,"so2":5.5,"mosquito_risk":0,"arthritis_risk":5,"migraine_risk":10,"frizz_risk":0,"updated_at":"2026-05-02T14:40:34.487995+05:30"},{"city":"Thane","state":"Maharashtra","latitude":19.2183,"longitude":72.9781,"temp":35.3,"humidity":46,"rain":0.0,"pressure":1005.0,"uv_index":7.95,"wind_gusts":40.3,"aqi":73,"pm10":64.5,"pm2_5":25.5,"no2":4.1,"co":199.0,"o3":106.0,"so2":17.3,"mosquito_risk":0,"arthritis_risk":5,"migraine_risk":7,"frizz_risk":1,"updated_at":"2026-05-02T14:40:34.488003+05:30"},{"city":"Nagpur","state":"Maharashtra","latitude":21.1458,"longitude":79.0882,"temp":41.7,"humidity":14,"rain":0.0,"pressure":967.4,"uv_index":8.95,"wind_gusts":63.0,"aqi":81,"pm10":42.1,"pm2_5":14.6,"no2":3.3,"co":166.0,"o3":144.0,"so2":12.2,"mosquito_risk":0,"arthritis_risk":5,"migraine_risk":10,"frizz_risk":0,"updated_at":"2026-05-02T14:40:34.488013+05:30"},{"city":"Nashik","state":"Maharashtra","latitude":19.9975,"longitude":73.7898,"temp":36.2,"humidity":29,"rain":0.0,"pressure":943.5,"uv_index":8.25,"wind_gusts":45.4,"aqi":65,"pm10":48.9,"pm2_5":18.3,"no2":1.0,"co":156.0,"o3":114.0,"so2":4.8,"mosquito_risk":0,"arthritis_risk":5,"migraine_risk":10,"frizz_risk":0,"updated_at":"2026-05-02T14:40:34.488022+05:30"},{"city":"Aurangabad","state":"Maharashtra","latitude":19.8762,"longitude":75.3433,"temp":39.7,"humidity":15,"rain":0.0,"pressure":940.9,"uv_index":9.05,"wind_gusts":40.3,"aqi":57,"pm10":82.7,"pm2_5":20.2,"no2":0.9,"co":157.0,"o3":111.0,"so2":2.4,"mosquito_risk":0,"arthritis_risk":5,"migraine_risk":10,"frizz_risk":0,"updated_at":"2026-05-02T14:40:34.488031+05:30"},{"city":"Solapur","state":"Maharashtra","latitude":17.6599,"longitude":75.9064,"temp":41.1,"humidity":13,"rain":0.0,"pressure":953.1,"uv_index":9.05,"wind_gusts":41.0,"aqi":52,"pm10":51.9,"pm2_5":15.1,"no2":1.0,"co":147.0,"o3":117.0,"so2":1.8,"mosquito_risk":0,"arthritis_risk":5,"migraine_risk":10,"frizz_risk":0,"updated_at":"2026-05-02T14:40:34.488040+05:30"},{"city":"Kolhapur","state":"Maharashtra","latitude":16.705,"longitude":74.2433,"temp":36.5,"humidity":26,"rain":0.0,"pressure":946.0,"uv_index":8.95,"wind_gusts":50.4,"aqi":64,"pm10":61.0,"pm2_5":19.2,"no2":1.5,"co":157.0,"o3":105.0,"so2":1.5,"mosquito_risk":0,"arthritis_risk":5,"migraine_risk":10,"frizz_risk":0,"updated_at":"2026-05-02T14:40:34.488049+05:30"},{"city":"Goa","state":"Goa","latitude":15.2993,"longitude":74.124,"temp":35.1,"humidity":45,"rain":0.0,"pressure":995.8,"uv_index":8.95,"wind_gusts":40.7,"aqi":70,"pm10":65.4,"pm2_5":18.3,"no2":0.6,"co":140.0,"o3":81.0,"so2":1.0,"mosquito_risk":0,"arthritis_risk":5,"migraine_risk":10,"frizz_risk":1,"updated_at":"2026-05-02T14:40:34.488058+05:30"},{"city":"Jodhpur","state":"Rajasthan","latitude":26.2389,"longitude":73.0243,"temp":41.5,"humidity":20,"rain":0.0,"pressure":975.5,"uv_index":8.35,"wind_gusts":37.8,"aqi":128,"pm10":295.2,"pm2_5":40.9,"no2":0.8,"co":157.0,"o3":123.0,"so2":2.8,"mosquito_risk":0,"arthritis_risk":5,"migraine_risk":10,"frizz_risk":0,"updated_at":"2026-05-02T14:40:34.488067+05:30"},{"city":"Udaipur","state":"Rajasthan","latitude":24.5854,"longitude":73.7125,"temp":38.5,"humidity":17,"rain":0.0,"pressure":941.7,"uv_index":8.8,"wind_gusts":40.7,"aqi":55,"pm10":117.8,"pm2_5":22.9,"no2":0.6,"co":143.0,"o3":120.0,"so2":2.6,"mosquito_risk":0,"arthritis_risk":5,"migraine_risk":10,"frizz_risk":0,"updated_at":"2026-05-02T14:40:34.488076+05:30"},{"city":"Kota","state":"Rajasthan","latitude":25.2138,"longitude":75.8648,"temp":41.2,"humidity":21,"rain":0.0,"pressure":972.1,"uv_index":8.35,"wind_gusts":40.3,"aqi":61,"pm10":110.8,"pm2_5":23.8,"no2":0.8,"co":168.0,"o3":125.0,"so2":3.1,"mosquito_risk":0,"arthritis_risk":5,"migraine_risk":10,"frizz_risk":0,"updated_at":"2026-05-02T14:40:34.488085+05:30"},{"city":"Bikaner","state":"Rajasthan","latitude":28.0229,"longitude":73.3119,"temp":43.0,"humidity":12,"rain":0.0,"pressure":973.5,"uv_index":8.25,"wind_gusts":40.3,"aqi":71,"pm10":141.1,"pm2_5":25.1,"no2":0.4,"co":151.0,"o3":126.0,"so2":5.4,"mosquito_risk":0,"arthritis_risk":5,"migraine_risk":10,"frizz_risk":0,"updated_at":"2026-05-02T14:40:34.488094+05:30"},{"city":"Ajmer","state":"Rajasthan","latitude":26.4499,"longitude":74.6399,"temp":40.1,"humidity":13,"rain":0.0,"pressure":948.8,"uv_index":8.3,"wind_gusts":43.6,"aqi":61,"pm10":75.0,"pm2_5":19.4,"no2":0.6,"co":151.0,"o3":116.0,"so2":2.7,"mosquito_risk":0,"arthritis_risk":5,"migraine_risk":10,"frizz_risk":0,"updated_at":"2026-05-02T14:40:34.488101+05:30"},{"city":"Gwalior","state":"Madhya Pradesh","latitude":26.2183,"longitude":78.1828,"temp":40.1,"humidity":20,"rain":0.0,"pressure":975.9,"uv_index":8.2,"wind_gusts":44.6,"aqi":97,"pm10":81.3,"pm2_5":22.7,"no2":0.9,"co":208.0,"o3":146.0,"so2":4.5,"mosquito_risk":0,"arthritis_risk":5,"migraine_risk":10,"frizz_risk":0,"updated_at":"2026-05-02T14:40:34.488108+05:30"},{"city":"Indore","state":"Madhya Pradesh","latitude":22.7196,"longitude":75.8577,"temp":39.7,"humidity":14,"rain":0.0,"pressure":943.7,"uv_index":8.65,"wind_gusts":53.3,"aqi":58,"pm10":73.6,"pm2_5":20.0,"no2":0.9,"co":175.0,"o3":114.0,"so2":3.6,"mosquito_risk":0,"arthritis_risk":5,"migraine_risk":10,"frizz_risk":0,"updated_at":"2026-05-02T14:40:34.488115+05:30"},{"city":"Bhopal","state":"Madhya Pradesh","latitude":23.2599,"longitude":77.4126,"temp":38.2,"humidity":20,"rain":0.0,"pressure":948.9,"uv_index":8.7,"wind_gusts":60.1,"aqi":64,"pm10":63.1,"pm2_5":16.9,"no2":0.7,"co":167.0,"o3":110.0,"so2":3.0,"mosquito_risk":0,"arthritis_risk":5,"migraine_risk":10,"frizz_risk":0,"updated_at":"2026-05-02T14:40:34.488123+05:30"},{"city":"Jabalpur","state":"Madhya Pradesh","latitude":23.1815,"longitude":79.9864,"temp":36.2,"humidity":24,"rain":0.0,"pressure":956.9,"uv_index":8.85,"wind_gusts":45.4,"aqi":74,"pm10":38.6,"pm2_5":12.8,"no2":0.9,"co":157.0,"o3":130.0,"so2":3.4,"mosquito_risk":0,"arthritis_risk":5,"migraine_risk":10,"frizz_risk":0,"updated_at":"2026-05-02T14:40:34.488130+05:30"},{"city":"Ujjain","state":"Madhya Pradesh","latitude":23.1765,"longitude":75.7885,"temp":39.7,"humidity":17,"rain":0.0,"pressure":948.9,"uv_index":8.6,"wind_gusts":49.7,"aqi":57,"pm10":79.9,"pm2_5":20.8,"no2":0.7,"co":156.0,"o3":113.0,"so2":3.7,"mosquito_risk":0,"arthritis_risk":5,"migraine_risk":10,"frizz_risk":0,"updated_at":"2026-05-02T14:40:34.488138+05:30"},{"city":"Visakhapatnam","state":"Andhra Pradesh","latitude":17.6868,"longitude":83.2185,"temp":33.8,"humidity":63,"rain":0.0,"pressure":998.7,"uv_index":9.1,"wind_gusts":59.0,"aqi":64,"pm10":22.9,"pm2_5":18.6,"no2":5.9,"co":286.0,"o3":99.0,"so2":7.6,"mosquito_risk":3,"arthritis_risk":5,"migraine_risk":7,"frizz_risk":1,"updated_at":"2026-05-02T14:40:34.488145+05:30"},{"city":"Vijayawada","state":"Andhra Pradesh","latitude":16.5062,"longitude":80.648,"temp":40.0,"humidity":34,"rain":0.0,"pressure":996.4,"uv_index":9.2,"wind_gusts":34.2,"aqi":103,"pm10":35.5,"pm2_5":21.3,"no2":2.0,"co":220.0,"o3":176.0,"so2":7.3,"mosquito_risk":0,"arthritis_risk":5,"migraine_risk":10,"frizz_risk":1,"updated_at":"2026-05-02T14:40:34.488153+05:30"},{"city":"Guntur","state":"Andhra Pradesh","latitude":16.3067,"longitude":80.4365,"temp":42.7,"humidity":20,"rain":0.0,"pressure":997.3,"uv_index":9.2,"wind_gusts":35.3,"aqi":116,"pm10":35.6,"pm2_5":19.6,"no2":1.7,"co":218.0,"o3":172.0,"so2":6.5,"mosquito_risk":0,"arthritis_risk":5,"migraine_risk":10,"frizz_risk":0,"updated_at":"2026-05-02T14:40:34.488159+05:30"},{"city":"Nellore","state":"Andhra Pradesh","latitude":14.4426,"longitude":79.9865,"temp":38.8,"humidity":39,"rain":0.0,"pressure":999.6,"uv_index":9.2,"wind_gusts":49.3,"aqi":107,"pm10":35.5,"pm2_5":18.0,"no2":1.9,"co":281.0,"o3":171.0,"so2":5.2,"mosquito_risk":0,"arthritis_risk":5,"migraine_risk":10,"frizz_risk":1,"updated_at":"2026-05-02T14:40:34.488167+05:30"},{"city":"Kurnool","state":"Andhra Pradesh","latitude":15.8281,"longitude":78.0373,"temp":42.1,"humidity":14,"rain":0.0,"pressure":971.9,"uv_index":9.2,"wind_gusts":32.8,"aqi":57,"pm10":35.3,"pm2_5":16.5,"no2":1.2,"co":167.0,"o3":154.0,"so2":7.6,"mosquito_risk":0,"arthritis_risk":5,"migraine_risk":10,"frizz_risk":0,"updated_at":"2026-05-02T14:40:34.488174+05:30"},{"city":"Kakinada","state":"Andhra Pradesh","latitude":16.9891,"longitude":82.2475,"temp":36.2,"humidity":49,"rain":0.0,"pressure":1002.5,"uv_index":9.15,"wind_gusts":43.6,"aqi":53,"pm10":20.1,"pm2_5":14.4,"no2":1.1,"co":218.0,"o3":102.0,"so2":2.4,"mosquito_risk":0,"arthritis_risk":5,"migraine_risk":7,"frizz_risk":1,"updated_at":"2026-05-02T14:40:34.488181+05:30"},{"city":"Tirupati","state":"Andhra Pradesh","latitude":13.6288,"longitude":79.4192,"temp":42.0,"humidity":18,"rain":0.0,"pressure":985.5,"uv_index":9.3,"wind_gusts":38.9,"aqi":93,"pm10":31.3,"pm2_5":16.1,"no2":1.5,"co":174.0,"o3":152.0,"so2":2.2,"mosquito_risk":0,"arthritis_risk":5,"migraine_risk":10,"frizz_risk":0,"updated_at":"2026-05-02T14:40:34.488188+05:30"},{"city":"Warangal","state":"Telangana","latitude":17.9689,"longitude":79.5941,"temp":41.0,"humidity":17,"rain":0.0,"pressure":973.4,"uv_index":9.15,"wind_gusts":32.4,"aqi":101,"pm10":39.8,"pm2_5":19.6,"no2":1.5,"co":196.0,"o3":158.0,"so2":9.0,"mosquito_risk":0,"arthritis_risk":5,"migraine_risk":10,"frizz_risk":0,"updated_at":"2026-05-02T14:40:34.488195+05:30"},{"city":"Nizamabad","state":"Telangana","latitude":18.6725,"longitude":78.0941,"temp":40.5,"humidity":15,"rain":0.0,"pressure":960.1,"uv_index":9.1,"wind_gusts":31.7,"aqi":67,"pm10":42.7,"pm2_5":16.6,"no2":1.2,"co":175.0,"o3":127.0,"so2":2.3,"mosquito_risk":0,"arthritis_risk":5,"migraine_risk":10,"frizz_risk":0,"updated_at":"2026-05-02T14:40:34.488202+05:30"},{"city":"Mysore","state":"Karnataka","latitude":12.2958,"longitude":76.6396,"temp":36.0,"humidity":24,"rain":0.0,"pressure":926.8,"uv_index":9.4,"wind_gusts":48.6,"aqi":77,"pm10":31.4,"pm2_5":14.5,"no2":1.8,"co":188.0,"o3":133.0,"so2":1.3,"mosquito_risk":0,"arthritis_risk":5,"migraine_risk":10,"frizz_risk":0,"updated_at":"2026-05-02T14:40:34.488208+05:30"},{"city":"Mangalore","state":"Karnataka","latitude":12.9141,"longitude":74.856,"temp":33.2,"humidity":53,"rain":0.0,"pressure":1004.5,"uv_index":9.05,"wind_gusts":43.6,"aqi":67,"pm10":24.7,"pm2_5":14.1,"no2":0.9,"co":138.0,"o3":88.0,"so2":1.1,"mosquito_risk":0,"arthritis_risk":5,"migraine_risk":4,"frizz_risk":1,"updated_at":"2026-05-02T14:40:34.488216+05:30"},{"city":"Hubli-Dharwad","state":"Karnataka","latitude":15.3647,"longitude":75.124,"temp":36.5,"humidity":24,"rain":0.0,"pressure":938.8,"uv_index":9.2,"wind_gusts":52.6,"aqi":57,"pm10":49.7,"pm2_5":16.2,"no2":1.3,"co":158.0,"o3":111.0,"so2":1.3,"mosquito_risk":0,"arthritis_risk":5,"migraine_risk":10,"frizz_risk":0,"updated_at":"2026-05-02T14:40:34.488222+05:30"},{"city":"Belgaum","state":"Karnataka","latitude":15.8497,"longitude":74.4977,"temp":34.3,"humidity":29,"rain":0.0,"pressure":924.8,"uv_index":9.2,"wind_gusts":49.0,"aqi":60,"pm10":60.5,"pm2_5":17.6,"no2":1.2,"co":152.0,"o3":97.0,"so2":1.7,"mosquito_risk":0,"arthritis_risk":5,"migraine_risk":7,"frizz_risk":0,"updated_at":"2026-05-02T14:40:37.759255+05:30"},{"city":"Coimbatore","state":"Tamil Nadu","latitude":11.0168,"longitude":76.9558,"temp":32.2,"humidity":53,"rain":0.0,"pressure":959.8,"uv_index":9.05,"wind_gusts":52.6,"aqi":69,"pm10":22.9,"pm2_5":18.1,"no2":2.0,"co":241.0,"o3":133.0,"so2":2.0,"mosquito_risk":0,"arthritis_risk":5,"migraine_risk":7,"frizz_risk":1,"updated_at":"2026-05-02T14:40:37.759287+05:30"},{"city":"Madurai","state":"Tamil Nadu","latitude":9.9252,"longitude":78.1198,"temp":40.2,"humidity":27,"rain":0.0,"pressure":988.9,"uv_index":9.2,"wind_gusts":51.1,"aqi":102,"pm10":26.0,"pm2_5":20.3,"no2":2.2,"co":249.0,"o3":184.0,"so2":3.4,"mosquito_risk":0,"arthritis_risk":5,"migraine_risk":10,"frizz_risk":1,"updated_at":"2026-05-02T14:40:37.759330+05:30"},{"city":"Trichy","state":"Tamil Nadu","latitude":10.7905,"longitude":78.7047,"temp":38.7,"humidity":33,"rain":0.0,"pressure":995.0,"uv_index":9.2,"wind_gusts":56.2,"aqi":83,"pm10":24.3,"pm2_5":20.1,"no2":1.8,"co":247.0,"o3":172.0,"so2":3.5,"mosquito_risk":0,"arthritis_risk":5,"migraine_risk":10,"frizz_risk":1,"updated_at":"2026-05-02T14:40:37.759339+05:30"},{"city":"Salem","state":"Tamil Nadu","latitude":11.6643,"longitude":78.146,"temp":39.6,"humidity":26,"rain":0.0,"pressure":973.2,"uv_index":9.25,"wind_gusts":61.6,"aqi":113,"pm10":33.6,"pm2_5":24.9,"no2":2.7,"co":240.0,"o3":193.0,"so2":8.2,"mosquito_risk":0,"arthritis_risk":5,"migraine_risk":10,"frizz_risk":1,"updated_at":"2026-05-02T14:40:37.759348+05:30"},{"city":"Tirunelveli","state":"Tamil Nadu","latitude":8.7139,"longitude":77.7567,"temp":35.5,"humidity":43,"rain":0.0,"pressure":1000.5,"uv_index":9.1,"wind_gusts":33.5,"aqi":58,"pm10":17.7,"pm2_5":13.5,"no2":1.4,"co":208.0,"o3":122.0,"so2":0.7,"mosquito_risk":0,"arthritis_risk":5,"migraine_risk":7,"frizz_risk":1,"updated_at":"2026-05-02T14:40:37.759356+05:30"},{"city":"Vellore","state":"Tamil Nadu","latitude":12.9165,"longitude":79.1325,"temp":41.5,"humidity":17,"rain":0.0,"pressure":979.4,"uv_index":9.3,"wind_gusts":44.6,"aqi":113,"pm10":32.1,"pm2_5":23.4,"no2":1.6,"co":210.0,"o3":167.0,"so2":3.2,"mosquito_risk":0,"arthritis_risk":5,"migraine_risk":10,"frizz_risk":0,"updated_at":"2026-05-02T14:40:37.759364+05:30"},{"city":"Erode","state":"Tamil Nadu","latitude":11.341,"longitude":77.7172,"temp":41.2,"humidity":24,"rain":0.0,"pressure":984.3,"uv_index":9.25,"wind_gusts":62.3,"aqi":90,"pm10":28.9,"pm2_5":21.0,"no2":2.0,"co":249.0,"o3":168.0,"so2":1.8,"mosquito_risk":0,"arthritis_risk":5,"migraine_risk":10,"frizz_risk":1,"updated_at":"2026-05-02T14:40:37.759371+05:30"},{"city":"Kochi","state":"Kerala","latitude":9.9312,"longitude":76.2673,"temp":29.5,"humidity":79,"rain":0.0,"pressure":1007.6,"uv_index":8.45,"wind_gusts":29.9,"aqi":76,"pm10":21.2,"pm2_5":14.9,"no2":2.9,"co":213.0,"o3":97.0,"so2":0.7,"mosquito_risk":7,"arthritis_risk":5,"migraine_risk":4,"frizz_risk":1,"updated_at":"2026-05-02T14:40:37.759378+05:30"},{"city":"Thiruvananthapuram","state":"Kerala","latitude":8.5241,"longitude":76.9366,"temp":28.2,"humidity":83,"rain":0.1,"pressure":1007.0,"uv_index":8.1,"wind_gusts":34.6,"aqi":49,"pm10":14.4,"pm2_5":9.8,"no2":1.1,"co":178.0,"o3":99.0,"so2":0.9,"mosquito_risk":10,"arthritis_risk":5,"migraine_risk":4,"frizz_risk":1,"updated_at":"2026-05-02T14:40:37.759386+05:30"},{"city":"Kozhikode","state":"Kerala","latitude":11.2588,"longitude":75.7804,"temp":30.5,"humidity":77,"rain":0.0,"pressure":1005.9,"uv_index":8.95,"wind_gusts":39.6,"aqi":64,"pm10":27.9,"pm2_5":15.4,"no2":0.4,"co":147.0,"o3":72.0,"so2":0.5,"mosquito_risk":3,"arthritis_risk":5,"migraine_risk":4,"frizz_risk":1,"updated_at":"2026-05-02T14:40:37.759395+05:30"},{"city":"Thrissur","state":"Kerala","latitude":10.5276,"longitude":76.2144,"temp":31.7,"humidity":66,"rain":0.1,"pressure":1005.5,"uv_index":7.95,"wind_gusts":37.4,"aqi":74,"pm10":21.2,"pm2_5":15.1,"no2":1.6,"co":164.0,"o3":95.0,"so2":0.7,"mosquito_risk":6,"arthritis_risk":5,"migraine_risk":4,"frizz_risk":1,"updated_at":"2026-05-02T14:40:37.759404+05:30"},{"city":"Kannur","state":"Kerala","latitude":11.8745,"longitude":75.3704,"temp":33.0,"humidity":64,"rain":0.0,"pressure":1004.7,"uv_index":9.0,"wind_gusts":50.4,"aqi":78,"pm10":27.0,"pm2_5":15.7,"no2":0.9,"co":142.0,"o3":87.0,"so2":0.7,"mosquito_risk":3,"arthritis_risk":5,"migraine_risk":4,"frizz_risk":1,"updated_at":"2026-05-02T14:40:37.759411+05:30"},{"city":"Patna","state":"Bihar","latitude":25.5941,"longitude":85.1376,"temp":32.2,"humidity":49,"rain":0.0,"pressure":994.6,"uv_index":8.65,"wind_gusts":29.9,"aqi":138,"pm10":72.6,"pm2_5":37.1,"no2":2.2,"co":324.0,"o3":202.0,"so2":9.4,"mosquito_risk":0,"arthritis_risk":5,"migraine_risk":7,"frizz_risk":1,"updated_at":"2026-05-02T14:40:37.759418+05:30"},{"city":"Gaya","state":"Bihar","latitude":24.7914,"longitude":85.0002,"temp":34.5,"humidity":40,"rain":0.0,"pressure":987.3,"uv_index":8.75,"wind_gusts":27.0,"aqi":144,"pm10":89.4,"pm2_5":34.2,"no2":1.4,"co":316.0,"o3":190.0,"so2":9.8,"mosquito_risk":0,"arthritis_risk":5,"migraine_risk":7,"frizz_risk":1,"updated_at":"2026-05-02T14:40:37.759425+05:30"},{"city":"Muzaffarpur","state":"Bihar","latitude":26.1209,"longitude":85.3647,"temp":31.0,"humidity":49,"rain":0.0,"pressure":995.1,"uv_index":8.65,"wind_gusts":30.6,"aqi":123,"pm10":62.2,"pm2_5":34.6,"no2":2.5,"co":303.0,"o3":194.0,"so2":7.9,"mosquito_risk":0,"arthritis_risk":5,"migraine_risk":7,"frizz_risk":1,"updated_at":"2026-05-02T14:40:37.759432+05:30"},{"city":"Bhagalpur","state":"Bihar","latitude":25.2425,"longitude":87.0117,"temp":30.5,"humidity":50,"rain":0.0,"pressure":996.0,"uv_index":8.65,"wind_gusts":29.9,"aqi":138,"pm10":88.2,"pm2_5":55.1,"no2":4.0,"co":342.0,"o3":220.0,"so2":8.6,"mosquito_risk":0,"arthritis_risk":5,"migraine_risk":7,"frizz_risk":1,"updated_at":"2026-05-02T14:40:37.759440+05:30"},{"city":"Ranchi","state":"Jharkhand","latitude":23.3441,"longitude":85.3096,"temp":27.3,"humidity":55,"rain":0.1,"pressure":932.9,"uv_index":9.0,"wind_gusts":46.8,"aqi":140,"pm10":73.6,"pm2_5":29.7,"no2":2.1,"co":174.0,"o3":165.0,"so2":8.8,"mosquito_risk":7,"arthritis_risk":5,"migraine_risk":7,"frizz_risk":1,"updated_at":"2026-05-02T14:40:37.759447+05:30"},{"city":"Jamshedpur","state":"Jharkhand","latitude":22.8046,"longitude":86.2029,"temp":34.0,"humidity":32,"rain":0.0,"pressure":985.4,"uv_index":9.0,"wind_gusts":45.4,"aqi":144,"pm10":99.7,"pm2_5":55.9,"no2":3.5,"co":311.0,"o3":258.0,"so2":26.9,"mosquito_risk":0,"arthritis_risk":5,"migraine_risk":7,"frizz_risk":0,"updated_at":"2026-05-02T14:40:37.759454+05:30"},{"city":"Dhanbad","state":"Jharkhand","latitude":23.7957,"longitude":86.4304,"temp":29.4,"humidity":64,"rain":0.0,"pressure":974.5,"uv_index":9.0,"wind_gusts":29.5,"aqi":146,"pm10":117.6,"pm2_5":81.5,"no2":19.8,"co":343.0,"o3":272.0,"so2":79.2,"mosquito_risk":7,"arthritis_risk":5,"migraine_risk":7,"frizz_risk":1,"updated_at":"2026-05-02T14:40:37.759461+05:30"},{"city":"Bokaro","state":"Jharkhand","latitude":23.6693,"longitude":86.1511,"temp":31.5,"humidity":52,"rain":0.0,"pressure":978.0,"uv_index":9.0,"wind_gusts":40.0,"aqi":151,"pm10":122.9,"pm2_5":81.5,"no2":21.2,"co":345.0,"o3":284.0,"so2":88.6,"mosquito_risk":0,"arthritis_risk":5,"migraine_risk":7,"frizz_risk":1,"updated_at":"2026-05-02T14:40:37.759468+05:30"},{"city":"Bhubaneswar","state":"Odisha","latitude":20.2961,"longitude":85.8245,"temp":27.5,"humidity":78,"rain":0.0,"pressure":997.0,"uv_index":9.05,"wind_gusts":54.7,"aqi":58,"pm10":39.2,"pm2_5":22.8,"no2":1.9,"co":313.0,"o3":142.0,"so2":4.5,"mosquito_risk":7,"arthritis_risk":5,"migraine_risk":7,"frizz_risk":1,"updated_at":"2026-05-02T14:40:37.759475+05:30"},{"city":"Cuttack","state":"Odisha","latitude":20.4625,"longitude":85.8828,"temp":31.3,"humidity":62,"rain":0.0,"pressure":998.9,"uv_index":9.1,"wind_gusts":49.7,"aqi":58,"pm10":39.2,"pm2_5":22.8,"no2":1.9,"co":280.0,"o3":142.0,"so2":4.5,"mosquito_risk":3,"arthritis_risk":5,"migraine_risk":7,"frizz_risk":1,"updated_at":"2026-05-02T14:40:37.759482+05:30"},{"city":"Rourkela","state":"Odisha","latitude":22.2604,"longitude":84.8536,"temp":35.3,"humidity":28,"rain":0.0,"pressure":979.3,"uv_index":9.0,"wind_gusts":56.9,"aqi":165,"pm10":61.0,"pm2_5":27.9,"no2":2.2,"co":265.0,"o3":201.0,"so2":16.8,"mosquito_risk":0,"arthritis_risk":5,"migraine_risk":10,"frizz_risk":0,"updated_at":"2026-05-02T14:40:37.759488+05:30"},{"city":"Raipur","state":"Chhattisgarh","latitude":21.2514,"longitude":81.6296,"temp":41.5,"humidity":16,"rain":0.0,"pressure":968.2,"uv_index":9.0,"wind_gusts":63.0,"aqi":135,"pm10":45.3,"pm2_5":17.7,"no2":4.5,"co":211.0,"o3":169.0,"so2":5.8,"mosquito_risk":0,"arthritis_risk":5,"migraine_risk":10,"frizz_risk":0,"updated_at":"2026-05-02T14:40:37.759495+05:30"},{"city":"Bhilai","state":"Chhattisgarh","latitude":21.1938,"longitude":81.3509,"temp":40.3,"humidity":17,"rain":0.0,"pressure":968.8,"uv_index":9.0,"wind_gusts":51.5,"aqi":114,"pm10":46.4,"pm2_5":17.3,"no2":4.6,"co":331.0,"o3":157.0,"so2":5.7,"mosquito_risk":0,"arthritis_risk":5,"migraine_risk":10,"frizz_risk":0,"updated_at":"2026-05-02T14:40:37.759502+05:30"},{"city":"Guwahati","state":"Assam","latitude":26.1158,"longitude":91.7086,"temp":21.9,"humidity":91,"rain":0.1,"pressure":997.6,"uv_index":4.3,"wind_gusts":22.0,"aqi":60,"pm10":27.5,"pm2_5":18.9,"no2":1.8,"co":293.0,"o3":126.0,"so2":1.7,"mosquito_risk":6,"arthritis_risk":5,"migraine_risk":3,"frizz_risk":1,"updated_at":"2026-05-02T14:40:37.759509+05:30"},{"city":"Agartala","state":"Tripura","latitude":23.8315,"longitude":91.2868,"temp":24.5,"humidity":88,"rain":0.0,"pressure":1002.3,"uv_index":8.8,"wind_gusts":38.2,"aqi":48,"pm10":13.2,"pm2_5":8.7,"no2":2.9,"co":195.0,"o3":114.0,"so2":1.1,"mosquito_risk":3,"arthritis_risk":5,"migraine_risk":4,"frizz_risk":1,"updated_at":"2026-05-02T14:40:37.759516+05:30"},{"city":"Shillong","state":"Meghalaya","latitude":25.5788,"longitude":91.8933,"temp":18.7,"humidity":71,"rain":0.1,"pressure":852.7,"uv_index":5.0,"wind_gusts":37.4,"aqi":52,"pm10":22.2,"pm2_5":11.7,"no2":1.4,"co":215.0,"o3":117.0,"so2":1.1,"mosquito_risk":6,"arthritis_risk":5,"migraine_risk":3,"frizz_risk":0,"updated_at":"2026-05-02T14:40:37.759523+05:30"},{"city":"Imphal","state":"Manipur","latitude":24.817,"longitude":93.9368,"temp":24.5,"humidity":62,"rain":0.1,"pressure":919.6,"uv_index":5.75,"wind_gusts":30.2,"aqi":58,"pm10":18.0,"pm2_5":7.8,"no2":0.9,"co":214.0,"o3":106.0,"so2":1.0,"mosquito_risk":6,"arthritis_risk":5,"migraine_risk":3,"frizz_risk":1,"updated_at":"2026-05-02T14:40:37.759530+05:30"},{"city":"Aizawl","state":"Mizoram","latitude":23.7271,"longitude":92.7176,"temp":18.0,"humidity":88,"rain":0.1,"pressure":889.0,"uv_index":9.0,"wind_gusts":43.6,"aqi":36,"pm10":12.9,"pm2_5":8.1,"no2":0.8,"co":157.0,"o3":101.0,"so2":0.2,"mosquito_risk":6,"arthritis_risk":10,"migraine_risk":7,"frizz_risk":0,"updated_at":"2026-05-02T14:40:37.759537+05:30"},{"city":"Kohima","state":"Nagaland","latitude":25.6701,"longitude":94.1077,"temp":19.5,"humidity":82,"rain":0.0,"pressure":851.8,"uv_index":6.0,"wind_gusts":28.4,"aqi":49,"pm10":39.0,"pm2_5":16.9,"no2":0.8,"co":221.0,"o3":113.0,"so2":0.7,"mosquito_risk":3,"arthritis_risk":10,"migraine_risk":3,"frizz_risk":1,"updated_at":"2026-05-02T14:40:37.759543+05:30"},{"city":"Gangtok","state":"Sikkim","latitude":27.3314,"longitude":88.6138,"temp":17.1,"humidity":64,"rain":0.0,"pressure":833.4,"uv_index":4.45,"wind_gusts":25.9,"aqi":58,"pm10":3.9,"pm2_5":3.3,"no2":1.2,"co":288.0,"o3":118.0,"so2":0.4,"mosquito_risk":3,"arthritis_risk":5,"migraine_risk":3,"frizz_risk":0,"updated_at":"2026-05-02T14:40:37.759550+05:30"},{"city":"Siliguri","state":"West Bengal","latitude":26.7271,"longitude":88.3953,"temp":23.2,"humidity":81,"rain":0.0,"pressure":989.1,"uv_index":4.15,"wind_gusts":22.0,"aqi":73,"pm10":13.9,"pm2_5":9.6,"no2":1.7,"co":318.0,"o3":139.0,"so2":1.4,"mosquito_risk":3,"arthritis_risk":5,"migraine_risk":3,"frizz_risk":1,"updated_at":"2026-05-02T14:40:41.030008+05:30"},{"city":"Durgapur","state":"West Bengal","latitude":23.5204,"longitude":87.3119,"temp":28.9,"humidity":67,"rain":0.0,"pressure":989.5,"uv_index":8.9,"wind_gusts":27.7,"aqi":129,"pm10":98.7,"pm2_5":67.1,"no2":14.4,"co":517.0,"o3":239.0,"so2":64.1,"mosquito_risk":7,"arthritis_risk":5,"migraine_risk":7,"frizz_risk":1,"updated_at":"2026-05-02T14:40:41.030042+05:30"},{"city":"Asansol","state":"West Bengal","latitude":23.6739,"longitude":86.9524,"temp":31.1,"humidity":56,"rain":0.0,"pressure":988.0,"uv_index":8.95,"wind_gusts":27.7,"aqi":129,"pm10":105.7,"pm2_5":72.9,"no2":13.7,"co":384.0,"o3":248.0,"so2":64.2,"mosquito_risk":0,"arthritis_risk":5,"migraine_risk":7,"frizz_risk":1,"updated_at":"2026-05-02T14:40:41.030053+05:30"},{"city":"Pondicherry","state":"Puducherry","latitude":11.9139,"longitude":79.8145,"temp":33.7,"humidity":61,"rain":0.0,"pressure":1003.8,"uv_index":9.15,"wind_gusts":56.5,"aqi":81,"pm10":25.5,"pm2_5":20.7,"no2":1.8,"co":202.0,"o3":155.0,"so2":6.9,"mosquito_risk":3,"arthritis_risk":5,"migraine_risk":4,"frizz_risk":1,"updated_at":"2026-05-02T14:40:41.030062+05:30"},{"city":"Port Blair","state":"Andaman and Nicobar Islands","latitude":11.6234,"longitude":92.7265,"temp":34.2,"humidity":48,"rain":0.0,"pressure":1004.5,"uv_index":9.0,"wind_gusts":32.8,"aqi":29,"pm10":11.0,"pm2_5":7.9,"no2":0.3,"co":141.0,"o3":59.0,"so2":0.3,"mosquito_risk":0,"arthritis_risk":5,"migraine_risk":4,"frizz_risk":1,"updated_at":"2026-05-02T14:40:41.030071+05:30"},{"city":"Haridwar","state":"Uttarakhand","latitude":29.9457,"longitude":78.1642,"temp":32.5,"humidity":40,"rain":0.0,"pressure":968.6,"uv_index":7.4,"wind_gusts":28.4,"aqi":132,"pm10":132.2,"pm2_5":35.9,"no2":1.1,"co":283.0,"o3":186.0,"so2":11.3,"mosquito_risk":0,"arthritis_risk":5,"migraine_risk":7,"frizz_risk":1,"updated_at":"2026-05-02T14:40:41.030078+05:30"},{"city":"Rishikesh","state":"Uttarakhand","latitude":30.0869,"longitude":78.2676,"temp":30.1,"humidity":49,"rain":0.0,"pressure":961.8,"uv_index":7.5,"wind_gusts":29.2,"aqi":142,"pm10":112.2,"pm2_5":32.1,"no2":0.7,"co":280.0,"o3":182.0,"so2":10.7,"mosquito_risk":0,"arthritis_risk":5,"migraine_risk":7,"frizz_risk":1,"updated_at":"2026-05-02T14:40:41.030086+05:30"},{"city":"Nainital","state":"Uttarakhand","latitude":29.3919,"longitude":79.4542,"temp":17.0,"humidity":67,"rain":0.0,"pressure":802.3,"uv_index":7.85,"wind_gusts":41.4,"aqi":127,"pm10":123.9,"pm2_5":33.9,"no2":1.0,"co":249.0,"o3":182.0,"so2":7.8,"mosquito_risk":3,"arthritis_risk":5,"migraine_risk":7,"frizz_risk":0,"updated_at":"2026-05-02T14:40:41.030093+05:30"},{"city":"Mussoorie","state":"Uttarakhand","latitude":30.4599,"longitude":78.0664,"temp":16.1,"humidity":68,"rain":0.0,"pressure":799.9,"uv_index":7.9,"wind_gusts":47.9,"aqi":150,"pm10":111.8,"pm2_5":36.2,"no2":1.2,"co":243.0,"o3":194.0,"so2":11.7,"mosquito_risk":3,"arthritis_risk":5,"migraine_risk":7,"frizz_risk":0,"updated_at":"2026-05-02T14:40:41.030101+05:30"},{"city":"Dharamshala","state":"Himachal Pradesh","latitude":32.219,"longitude":76.3234,"temp":24.2,"humidity":37,"rain":0.0,"pressure":866.2,"uv_index":8.25,"wind_gusts":46.1,"aqi":103,"pm10":14.3,"pm2_5":6.8,"no2":0.5,"co":189.0,"o3":155.0,"so2":0.8,"mosquito_risk":0,"arthritis_risk":5,"migraine_risk":7,"frizz_risk":0,"updated_at":"2026-05-02T14:40:41.030110+05:30"},{"city":"Dalhousie","state":"Himachal Pradesh","latitude":32.5387,"longitude":75.971,"temp":20.7,"humidity":38,"rain":0.0,"pressure":802.9,"uv_index":8.5,"wind_gusts":42.8,"aqi":110,"pm10":16.4,"pm2_5":8.2,"no2":1.2,"co":186.0,"o3":159.0,"so2":1.8,"mosquito_risk":0,"arthritis_risk":5,"migraine_risk":7,"frizz_risk":0,"updated_at":"2026-05-02T14:40:41.030121+05:30"},{"city":"Patiala","state":"Punjab","latitude":30.3398,"longitude":76.3869,"temp":36.7,"humidity":22,"rain":0.0,"pressure":972.1,"uv_index":7.5,"wind_gusts":33.1,"aqi":395,"pm10":502.9,"pm2_5":73.8,"no2":1.3,"co":283.0,"o3":191.0,"so2":14.4,"mosquito_risk":0,"arthritis_risk":5,"migraine_risk":10,"frizz_risk":0,"updated_at":"2026-05-02T14:40:41.030129+05:30"},{"city":"Bhatinda","state":"Punjab","latitude":30.211,"longitude":74.9455,"temp":39.9,"humidity":16,"rain":0.0,"pressure":976.6,"uv_index":8.15,"wind_gusts":36.0,"aqi":151,"pm10":204.9,"pm2_5":49.0,"no2":2.0,"co":248.0,"o3":202.0,"so2":15.5,"mosquito_risk":0,"arthritis_risk":5,"migraine_risk":10,"frizz_risk":0,"updated_at":"2026-05-02T14:40:41.030136+05:30"},{"city":"Rohtak","state":"Haryana","latitude":28.8955,"longitude":76.6066,"temp":38.8,"humidity":21,"rain":0.0,"pressure":975.0,"uv_index":7.65,"wind_gusts":27.7,"aqi":420,"pm10":378.1,"pm2_5":66.1,"no2":2.0,"co":307.0,"o3":195.0,"so2":9.6,"mosquito_risk":0,"arthritis_risk":5,"migraine_risk":10,"frizz_risk":0,"updated_at":"2026-05-02T14:40:41.030143+05:30"},{"city":"Panipat","state":"Haryana","latitude":29.3909,"longitude":76.9635,"temp":36.5,"humidity":29,"rain":0.0,"pressure":974.2,"uv_index":7.5,"wind_gusts":26.3,"aqi":547,"pm10":521.5,"pm2_5":83.8,"no2":3.0,"co":312.0,"o3":221.0,"so2":20.5,"mosquito_risk":0,"arthritis_risk":5,"migraine_risk":10,"frizz_risk":0,"updated_at":"2026-05-02T14:40:41.030150+05:30"},{"city":"Mathura","state":"Uttar Pradesh","latitude":27.4924,"longitude":77.6737,"temp":38.0,"humidity":27,"rain":0.0,"pressure":979.9,"uv_index":7.9,"wind_gusts":35.6,"aqi":641,"pm10":410.7,"pm2_5":58.4,"no2":1.5,"co":263.0,"o3":174.0,"so2":8.0,"mosquito_risk":0,"arthritis_risk":5,"migraine_risk":10,"frizz_risk":0,"updated_at":"2026-05-02T14:40:41.030157+05:30"},{"city":"Vrindavan","state":"Uttar Pradesh","latitude":27.5823,"longitude":77.7027,"temp":37.8,"humidity":27,"rain":0.0,"pressure":980.3,"uv_index":7.85,"wind_gusts":31.7,"aqi":641,"pm10":410.7,"pm2_5":58.4,"no2":1.5,"co":264.0,"o3":174.0,"so2":8.0,"mosquito_risk":0,"arthritis_risk":5,"migraine_risk":10,"frizz_risk":0,"updated_at":"2026-05-02T14:40:41.030164+05:30"},{"city":"Ayodhya","state":"Uttar Pradesh","latitude":26.7922,"longitude":82.1998,"temp":33.7,"humidity":38,"rain":0.0,"pressure":989.1,"uv_index":8.25,"wind_gusts":31.3,"aqi":119,"pm10":96.2,"pm2_5":28.4,"no2":1.2,"co":318.0,"o3":179.0,"so2":5.8,"mosquito_risk":0,"arthritis_risk":5,"migraine_risk":7,"frizz_risk":1,"updated_at":"2026-05-02T14:40:41.030171+05:30"},{"city":"Ratlam","state":"Madhya Pradesh","latitude":23.3315,"longitude":75.0367,"temp":39.2,"humidity":19,"rain":0.0,"pressure":950.2,"uv_index":8.55,"wind_gusts":47.9,"aqi":56,"pm10":66.8,"pm2_5":19.0,"no2":0.6,"co":146.0,"o3":114.0,"so2":3.6,"mosquito_risk":0,"arthritis_risk":5,"migraine_risk":10,"frizz_risk":0,"updated_at":"2026-05-02T14:40:41.030178+05:30"},{"city":"Sagar","state":"Madhya Pradesh","latitude":23.8388,"longitude":78.7378,"temp":33.9,"humidity":28,"rain":0.0,"pressure":945.6,"uv_index":8.7,"wind_gusts":53.6,"aqi":56,"pm10":53.0,"pm2_5":15.6,"no2":0.6,"co":147.0,"o3":117.0,"so2":3.2,"mosquito_risk":0,"arthritis_risk":5,"migraine_risk":7,"frizz_risk":0,"updated_at":"2026-05-02T14:40:41.030185+05:30"},{"city":"Satna","state":"Madhya Pradesh","latitude":24.6005,"longitude":80.8322,"temp":38.5,"humidity":19,"rain":0.0,"pressure":964.5,"uv_index":8.7,"wind_gusts":66.6,"aqi":122,"pm10":51.2,"pm2_5":19.8,"no2":1.0,"co":166.0,"o3":166.0,"so2":8.5,"mosquito_risk":0,"arthritis_risk":5,"migraine_risk":10,"frizz_risk":0,"updated_at":"2026-05-02T14:40:41.030192+05:30"},{"city":"Akola","state":"Maharashtra","latitude":20.7002,"longitude":77.0082,"temp":41.0,"humidity":18,"rain":0.0,"pressure":969.8,"uv_index":8.9,"wind_gusts":45.0,"aqi":52,"pm10":42.3,"pm2_5":13.7,"no2":1.2,"co":154.0,"o3":127.0,"so2":8.5,"mosquito_risk":0,"arthritis_risk":5,"migraine_risk":10,"frizz_risk":0,"updated_at":"2026-05-02T14:40:41.030199+05:30"},{"city":"Amravati","state":"Maharashtra","latitude":20.9374,"longitude":77.7796,"temp":41.0,"humidity":16,"rain":0.0,"pressure":962.2,"uv_index":8.9,"wind_gusts":42.5,"aqi":52,"pm10":38.4,"pm2_5":12.8,"no2":1.3,"co":148.0,"o3":131.0,"so2":7.1,"mosquito_risk":0,"arthritis_risk":5,"migraine_risk":10,"frizz_risk":0,"updated_at":"2026-05-02T14:40:41.030206+05:30"},{"city":"Latur","state":"Maharashtra","latitude":18.4088,"longitude":76.5604,"temp":40.4,"humidity":11,"rain":0.0,"pressure":936.3,"uv_index":9.05,"wind_gusts":32.8,"aqi":57,"pm10":49.9,"pm2_5":14.3,"no2":0.8,"co":141.0,"o3":115.0,"so2":3.5,"mosquito_risk":0,"arthritis_risk":5,"migraine_risk":10,"frizz_risk":0,"updated_at":"2026-05-02T14:40:41.030214+05:30"},{"city":"Nanded","state":"Maharashtra","latitude":19.1383,"longitude":77.3091,"temp":42.1,"humidity":13,"rain":0.0,"pressure":963.5,"uv_index":8.95,"wind_gusts":31.3,"aqi":57,"pm10":49.7,"pm2_5":14.5,"no2":0.9,"co":155.0,"o3":119.0,"so2":1.4,"mosquito_risk":0,"arthritis_risk":5,"migraine_risk":10,"frizz_risk":0,"updated_at":"2026-05-02T14:40:41.030220+05:30"},{"city":"Gulbarga","state":"Karnataka","latitude":17.3297,"longitude":76.8343,"temp":40.8,"humidity":15,"rain":0.0,"pressure":954.4,"uv_index":9.1,"wind_gusts":41.8,"aqi":53,"pm10":41.0,"pm2_5":14.4,"no2":1.3,"co":153.0,"o3":129.0,"so2":3.0,"mosquito_risk":0,"arthritis_risk":5,"migraine_risk":10,"frizz_risk":0,"updated_at":"2026-05-02T14:40:41.030227+05:30"},{"city":"Bidar","state":"Karnataka","latitude":17.9104,"longitude":77.5199,"temp":39.8,"humidity":14,"rain":0.0,"pressure":932.1,"uv_index":9.1,"wind_gusts":34.9,"aqi":64,"pm10":39.5,"pm2_5":14.1,"no2":1.3,"co":154.0,"o3":130.0,"so2":4.0,"mosquito_risk":0,"arthritis_risk":5,"migraine_risk":10,"frizz_risk":0,"updated_at":"2026-05-02T14:40:41.030234+05:30"},{"city":"Hospet","state":"Karnataka","latitude":15.2689,"longitude":76.3909,"temp":38.2,"humidity":17,"rain":0.0,"pressure":952.7,"uv_index":9.2,"wind_gusts":45.4,"aqi":53,"pm10":43.3,"pm2_5":15.1,"no2":1.4,"co":167.0,"o3":126.0,"so2":1.5,"mosquito_risk":0,"arthritis_risk":5,"migraine_risk":10,"frizz_risk":0,"updated_at":"2026-05-02T14:40:41.030240+05:30"},{"city":"Tirupur","state":"Tamil Nadu","latitude":11.1085,"longitude":77.3411,"temp":39.3,"humidity":27,"rain":0.0,"pressure":971.5,"uv_index":9.2,"wind_gusts":48.2,"aqi":95,"pm10":27.5,"pm2_5":20.7,"no2":2.1,"co":231.0,"o3":161.0,"so2":2.4,"mosquito_risk":0,"arthritis_risk":5,"migraine_risk":10,"frizz_risk":1,"updated_at":"2026-05-02T14:40:41.030247+05:30"},{"city":"Alappuzha","state":"Kerala","latitude":9.4981,"longitude":76.3388,"temp":30.4,"humidity":73,"rain":0.0,"pressure":1007.3,"uv_index":8.2,"wind_gusts":26.3,"aqi":70,"pm10":25.3,"pm2_5":16.4,"no2":2.3,"co":172.0,"o3":103.0,"so2":2.1,"mosquito_risk":3,"arthritis_risk":5,"migraine_risk":4,"frizz_risk":1,"updated_at":"2026-05-02T14:40:41.030254+05:30"},{"city":"Munnar","state":"Kerala","latitude":10.0889,"longitude":77.0595,"temp":20.2,"humidity":88,"rain":0.0,"pressure":856.9,"uv_index":8.8,"wind_gusts":24.8,"aqi":57,"pm10":20.3,"pm2_5":16.1,"no2":1.1,"co":214.0,"o3":132.0,"so2":1.1,"mosquito_risk":3,"arthritis_risk":5,"migraine_risk":7,"frizz_risk":1,"updated_at":"2026-05-02T14:40:41.030262+05:30"},{"city":"Silchar","state":"Assam","latitude":24.8333,"longitude":92.7789,"temp":26.6,"humidity":68,"rain":0.0,"pressure":1001.8,"uv_index":8.5,"wind_gusts":27.7,"aqi":61,"pm10":17.8,"pm2_5":9.4,"no2":1.2,"co":216.0,"o3":95.0,"so2":1.3,"mosquito_risk":7,"arthritis_risk":5,"migraine_risk":4,"frizz_risk":1,"updated_at":"2026-05-02T14:40:41.030269+05:30"},{"city":"Dibrugarh","state":"Assam","latitude":27.4728,"longitude":94.912,"temp":25.0,"humidity":74,"rain":0.0,"pressure":992.8,"uv_index":7.3,"wind_gusts":22.7,"aqi":61,"pm10":28.9,"pm2_5":13.7,"no2":1.4,"co":246.0,"o3":126.0,"so2":0.9,"mosquito_risk":7,"arthritis_risk":5,"migraine_risk":7,"frizz_risk":1,"updated_at":"2026-05-02T14:40:41.030276+05:30"}]