[{"city":"Delhi","state":"Delhi","latitude":28.6139,"longitude":77.209,"temp":28.1,"humidity":52,"rain":0.0,"pressure":980.3,"uv_index":7.65,"wind_gusts":42.5,"aqi":158,"pm10":257.0,"pm2_5":78.2,"no2":20.2,"co":464.0,"o3":86.0,"so2":17.7,"mosquito_risk":4,"arthritis_risk":5,"migraine_risk":7,"frizz_risk":1,"updated_at":"2026-05-12T04:27:16.272226+05:30"},{"city":"Mumbai","state":"Maharashtra","latitude":19.076,"longitude":72.8777,"temp":28.4,"humidity":80,"rain":0.0,"pressure":1004.4,"uv_index":7.9,"wind_gusts":45.7,"aqi":89,"pm10":69.4,"pm2_5":30.6,"no2":29.3,"co":597.0,"o3":45.0,"so2":28.3,"mosquito_risk":7,"arthritis_risk":5,"migraine_risk":4,"frizz_risk":1,"updated_at":"2026-05-12T04:27:16.272287+05:30"},{"city":"Bangalore","state":"Karnataka","latitude":12.9716,"longitude":77.5946,"temp":21.8,"humidity":76,"rain":0.0,"pressure":908.6,"uv_index":8.5,"wind_gusts":41.0,"aqi":69,"pm10":33.4,"pm2_5":27.4,"no2":37.4,"co":291.0,"o3":37.0,"so2":11.2,"mosquito_risk":3,"arthritis_risk":5,"migraine_risk":7,"frizz_risk":1,"updated_at":"2026-05-12T04:27:16.272305+05:30"},{"city":"Hyderabad","state":"Telangana","latitude":17.385,"longitude":78.4867,"temp":26.1,"humidity":70,"rain":0.0,"pressure":950.5,"uv_index":9.0,"wind_gusts":34.6,"aqi":57,"pm10":15.5,"pm2_5":12.3,"no2":10.0,"co":188.0,"o3":59.0,"so2":5.0,"mosquito_risk":7,"arthritis_risk":5,"migraine_risk":7,"frizz_risk":1,"updated_at":"2026-05-12T04:27:16.272316+05:30"},{"city":"Chennai","state":"Tamil Nadu","latitude":13.0827,"longitude":80.2707,"temp":27.4,"humidity":85,"rain":0.0,"pressure":1003.6,"uv_index":9.2,"wind_gusts":38.5,"aqi":25,"pm10":8.4,"pm2_5":6.9,"no2":7.9,"co":146.0,"o3":33.0,"so2":1.6,"mosquito_risk":7,"arthritis_risk":5,"migraine_risk":4,"frizz_risk":1,"updated_at":"2026-05-12T04:27:16.272330+05:30"},{"city":"Kolkata","state":"West Bengal","latitude":22.5726,"longitude":88.3639,"temp":25.0,"humidity":92,"rain":0.0,"pressure":1006.0,"uv_index":9.0,"wind_gusts":29.5,"aqi":99,"pm10":51.5,"pm2_5":46.2,"no2":25.6,"co":345.0,"o3":27.0,"so2":8.5,"mosquito_risk":7,"arthritis_risk":5,"migraine_risk":4,"frizz_risk":1,"updated_at":"2026-05-12T04:27:16.272340+05:30"},{"city":"Pune","state":"Maharashtra","latitude":18.5204,"longitude":73.8567,"temp":26.5,"humidity":44,"rain":0.0,"pressure":944.6,"uv_index":8.5,"wind_gusts":58.0,"aqi":65,"pm10":37.3,"pm2_5":20.8,"no2":16.8,"co":234.0,"o3":67.0,"so2":19.0,"mosquito_risk":4,"arthritis_risk":5,"migraine_risk":7,"frizz_risk":0,"updated_at":"2026-05-12T04:27:16.272349+05:30"},{"city":"Ahmedabad","state":"Gujarat","latitude":23.0225,"longitude":72.5714,"temp":31.3,"humidity":43,"rain":0.0,"pressure":997.5,"uv_index":8.15,"wind_gusts":28.8,"aqi":61,"pm10":20.6,"pm2_5":11.5,"no2":3.8,"co":175.0,"o3":67.0,"so2":4.4,"mosquito_risk":0,"arthritis_risk":5,"migraine_risk":7,"frizz_risk":1,"updated_at":"2026-05-12T04:27:16.272360+05:30"},{"city":"Jaipur","state":"Rajasthan","latitude":26.9124,"longitude":75.7873,"temp":28.0,"humidity":46,"rain":0.0,"pressure":956.2,"uv_index":8.2,"wind_gusts":50.0,"aqi":144,"pm10":143.4,"pm2_5":44.6,"no2":6.4,"co":375.0,"o3":89.0,"so2":6.8,"mosquito_risk":4,"arthritis_risk":5,"migraine_risk":7,"frizz_risk":0,"updated_at":"2026-05-12T04:27:16.272368+05:30"},{"city":"Lucknow","state":"Uttar Pradesh","latitude":26.8467,"longitude":80.9462,"temp":26.5,"humidity":51,"rain":0.0,"pressure":991.8,"uv_index":8.15,"wind_gusts":31.3,"aqi":93,"pm10":31.4,"pm2_5":26.9,"no2":18.4,"co":404.0,"o3":76.0,"so2":8.0,"mosquito_risk":4,"arthritis_risk":5,"migraine_risk":7,"frizz_risk":0,"updated_at":"2026-05-12T04:27:16.272376+05:30"},{"city":"Kanpur","state":"Uttar Pradesh","latitude":26.4499,"longitude":80.3319,"temp":27.3,"humidity":49,"rain":0.0,"pressure":989.8,"uv_index":8.15,"wind_gusts":30.6,"aqi":110,"pm10":133.2,"pm2_5":30.3,"no2":10.9,"co":352.0,"o3":89.0,"so2":6.0,"mosquito_risk":4,"arthritis_risk":5,"migraine_risk":7,"frizz_risk":0,"updated_at":"2026-05-12T04:27:16.272384+05:30"},{"city":"Chandigarh","state":"Chandigarh","latitude":30.7333,"longitude":76.7794,"temp":21.9,"humidity":74,"rain":0.0,"pressure":965.7,"uv_index":7.65,"wind_gusts":39.2,"aqi":140,"pm10":70.5,"pm2_5":48.7,"no2":23.5,"co":328.0,"o3":55.0,"so2":11.3,"mosquito_risk":3,"arthritis_risk":5,"migraine_risk":7,"frizz_risk":1,"updated_at":"2026-05-12T04:27:16.272392+05:30"},{"city":"Srinagar","state":"Jammu and Kashmir","latitude":34.0837,"longitude":74.7973,"temp":10.1,"humidity":100,"rain":0.0,"pressure":839.8,"uv_index":8.6,"wind_gusts":35.6,"aqi":96,"pm10":52.4,"pm2_5":39.3,"no2":25.1,"co":230.0,"o3":16.0,"so2":1.6,"mosquito_risk":3,"arthritis_risk":10,"migraine_risk":7,"frizz_risk":0,"updated_at":"2026-05-12T04:27:16.272400+05:30"},{"city":"Jammu","state":"Jammu and Kashmir","latitude":32.7266,"longitude":74.857,"temp":21.8,"humidity":73,"rain":0.0,"pressure":968.9,"uv_index":8.45,"wind_gusts":29.9,"aqi":139,"pm10":46.8,"pm2_5":36.9,"no2":20.0,"co":314.0,"o3":35.0,"so2":2.7,"mosquito_risk":3,"arthritis_risk":5,"migraine_risk":7,"frizz_risk":1,"updated_at":"2026-05-12T04:27:16.272408+05:30"},{"city":"Amritsar","state":"Punjab","latitude":31.634,"longitude":74.8723,"temp":23.6,"humidity":78,"rain":0.0,"pressure":977.7,"uv_index":8.35,"wind_gusts":50.0,"aqi":160,"pm10":122.9,"pm2_5":75.7,"no2":8.6,"co":801.0,"o3":82.0,"so2":8.6,"mosquito_risk":3,"arthritis_risk":5,"migraine_risk":7,"frizz_risk":1,"updated_at":"2026-05-12T04:27:16.272415+05:30"},{"city":"Ludhiana","state":"Punjab","latitude":30.901,"longitude":75.8573,"temp":23.8,"humidity":79,"rain":0.0,"pressure":975.5,"uv_index":7.9,"wind_gusts":45.7,"aqi":160,"pm10":128.5,"pm2_5":91.3,"no2":16.3,"co":758.0,"o3":90.0,"so2":31.7,"mosquito_risk":3,"arthritis_risk":5,"migraine_risk":7,"frizz_risk":1,"updated_at":"2026-05-12T04:27:16.272422+05:30"},{"city":"Jalandhar","state":"Punjab","latitude":31.326,"longitude":75.5762,"temp":23.1,"humidity":80,"rain":0.0,"pressure":976.4,"uv_index":8.1,"wind_gusts":34.2,"aqi":160,"pm10":108.3,"pm2_5":78.5,"no2":10.2,"co":652.0,"o3":109.0,"so2":20.8,"mosquito_risk":3,"arthritis_risk":5,"migraine_risk":7,"frizz_risk":1,"updated_at":"2026-05-12T04:27:16.272431+05:30"},{"city":"Dehradun","state":"Uttarakhand","latitude":30.6284,"longitude":78.0322,"temp":11.5,"humidity":100,"rain":0.0,"pressure":826.1,"uv_index":8.1,"wind_gusts":32.4,"aqi":91,"pm10":20.4,"pm2_5":15.9,"no2":15.8,"co":324.0,"o3":55.0,"so2":0.0,"mosquito_risk":3,"arthritis_risk":10,"migraine_risk":7,"frizz_risk":0,"updated_at":"2026-05-12T04:27:16.272442+05:30"},{"city":"Shimla","state":"Himachal Pradesh","latitude":31.1048,"longitude":77.1734,"temp":10.4,"humidity":74,"rain":0.0,"pressure":779.7,"uv_index":8.2,"wind_gusts":31.3,"aqi":135,"pm10":53.2,"pm2_5":40.5,"no2":20.0,"co":372.0,"o3":65.0,"so2":4.2,"mosquito_risk":3,"arthritis_risk":5,"migraine_risk":7,"frizz_risk":0,"updated_at":"2026-05-12T04:27:16.272450+05:30"},{"city":"Manali","state":"Himachal Pradesh","latitude":32.2396,"longitude":77.1887,"temp":8.4,"humidity":55,"rain":0.0,"pressure":812.0,"uv_index":8.9,"wind_gusts":42.5,"aqi":56,"pm10":5.8,"pm2_5":4.3,"no2":17.5,"co":196.0,"o3":108.0,"so2":0.0,"mosquito_risk":0,"arthritis_risk":5,"migraine_risk":7,"frizz_risk":1,"updated_at":"2026-05-12T04:27:16.272457+05:30"},{"city":"Gurgaon","state":"Haryana","latitude":28.4595,"longitude":77.0266,"temp":26.7,"humidity":59,"rain":0.0,"pressure":978.4,"uv_index":7.75,"wind_gusts":38.5,"aqi":512,"pm10":583.0,"pm2_5":107.8,"no2":15.4,"co":413.0,"o3":89.0,"so2":15.4,"mosquito_risk":4,"arthritis_risk":5,"migraine_risk":7,"frizz_risk":1,"updated_at":"2026-05-12T04:27:16.272464+05:30"},{"city":"Noida","state":"Uttar Pradesh","latitude":28.5355,"longitude":77.391,"temp":25.0,"humidity":67,"rain":0.0,"pressure":981.7,"uv_index":7.7,"wind_gusts":48.2,"aqi":512,"pm10":583.0,"pm2_5":107.8,"no2":15.4,"co":412.0,"o3":89.0,"so2":15.4,"mosquito_risk":7,"arthritis_risk":5,"migraine_risk":7,"frizz_risk":1,"updated_at":"2026-05-12T04:27:16.272471+05:30"},{"city":"Ghaziabad","state":"Uttar Pradesh","latitude":28.6692,"longitude":77.4538,"temp":25.5,"humidity":65,"rain":0.0,"pressure":980.0,"uv_index":7.65,"wind_gusts":32.8,"aqi":153,"pm10":180.7,"pm2_5":66.1,"no2":11.6,"co":395.0,"o3":93.0,"so2":10.1,"mosquito_risk":7,"arthritis_risk":5,"migraine_risk":7,"frizz_risk":1,"updated_at":"2026-05-12T04:27:16.272478+05:30"},{"city":"Faridabad","state":"Haryana","latitude":28.4089,"longitude":77.3178,"temp":27.1,"humidity":58,"rain":0.0,"pressure":981.1,"uv_index":7.7,"wind_gusts":44.6,"aqi":512,"pm10":583.0,"pm2_5":107.8,"no2":15.4,"co":406.0,"o3":89.0,"so2":15.4,"mosquito_risk":4,"arthritis_risk":5,"migraine_risk":7,"frizz_risk":1,"updated_at":"2026-05-12T04:27:16.272484+05:30"},{"city":"Meerut","state":"Uttar Pradesh","latitude":28.9845,"longitude":77.7064,"temp":24.2,"humidity":76,"rain":0.0,"pressure":979.0,"uv_index":7.6,"wind_gusts":34.9,"aqi":153,"pm10":180.7,"pm2_5":66.1,"no2":11.6,"co":448.0,"o3":93.0,"so2":10.1,"mosquito_risk":3,"arthritis_risk":5,"migraine_risk":7,"frizz_risk":1,"updated_at":"2026-05-12T04:27:16.272491+05:30"},{"city":"Agra","state":"Uttar Pradesh","latitude":27.1767,"longitude":78.0081,"temp":27.6,"humidity":50,"rain":0.0,"pressure":985.0,"uv_index":8.05,"wind_gusts":41.8,"aqi":329,"pm10":778.6,"pm2_5":99.4,"no2":6.5,"co":349.0,"o3":104.0,"so2":9.4,"mosquito_risk":4,"arthritis_risk":5,"migraine_risk":7,"frizz_risk":1,"updated_at":"2026-05-12T04:27:16.272497+05:30"},{"city":"Varanasi","state":"Uttar Pradesh","latitude":25.3176,"longitude":82.9739,"temp":26.8,"humidity":61,"rain":0.0,"pressure":995.9,"uv_index":8.7,"wind_gusts":29.9,"aqi":126,"pm10":47.4,"pm2_5":44.5,"no2":10.9,"co":432.0,"o3":125.0,"so2":23.8,"mosquito_risk":7,"arthritis_risk":5,"migraine_risk":7,"frizz_risk":1,"updated_at":"2026-05-12T04:27:16.272504+05:30"},{"city":"Prayagraj","state":"Uttar Pradesh","latitude":25.4358,"longitude":81.8463,"temp":27.1,"humidity":54,"rain":0.0,"pressure":994.2,"uv_index":8.55,"wind_gusts":32.4,"aqi":106,"pm10":58.1,"pm2_5":54.0,"no2":15.4,"co":467.0,"o3":99.0,"so2":18.6,"mosquito_risk":4,"arthritis_risk":5,"migraine_risk":7,"frizz_risk":1,"updated_at":"2026-05-12T04:27:16.272513+05:30"},{"city":"Gorakhpur","state":"Uttar Pradesh","latitude":26.7606,"longitude":83.3732,"temp":24.6,"humidity":67,"rain":0.0,"pressure":997.0,"uv_index":8.55,"wind_gusts":41.4,"aqi":102,"pm10":47.3,"pm2_5":42.7,"no2":10.8,"co":506.0,"o3":116.0,"so2":15.5,"mosquito_risk":3,"arthritis_risk":5,"migraine_risk":7,"frizz_risk":1,"updated_at":"2026-05-12T04:27:16.272520+05:30"},{"city":"Bareilly","state":"Uttar Pradesh","latitude":28.367,"longitude":79.4304,"temp":24.7,"humidity":68,"rain":0.0,"pressure":984.6,"uv_index":7.95,"wind_gusts":30.6,"aqi":116,"pm10":69.2,"pm2_5":46.0,"no2":13.0,"co":376.0,"o3":92.0,"so2":5.6,"mosquito_risk":3,"arthritis_risk":5,"migraine_risk":7,"frizz_risk":1,"updated_at":"2026-05-12T04:27:16.272526+05:30"},{"city":"Aligarh","state":"Uttar Pradesh","latitude":27.8974,"longitude":78.088,"temp":26.4,"humidity":59,"rain":0.0,"pressure":982.9,"uv_index":7.85,"wind_gusts":28.8,"aqi":179,"pm10":523.4,"pm2_5":86.1,"no2":8.9,"co":391.0,"o3":96.0,"so2":9.9,"mosquito_risk":4,"arthritis_risk":5,"migraine_risk":7,"frizz_risk":1,"updated_at":"2026-05-12T04:27:16.272533+05:30"},{"city":"Moradabad","state":"Uttar Pradesh","latitude":28.8386,"longitude":78.7733,"temp":24.6,"humidity":71,"rain":0.0,"pressure":981.5,"uv_index":7.8,"wind_gusts":37.4,"aqi":138,"pm10":74.0,"pm2_5":59.6,"no2":14.3,"co":396.0,"o3":103.0,"so2":9.2,"mosquito_risk":3,"arthritis_risk":5,"migraine_risk":7,"frizz_risk":1,"updated_at":"2026-05-12T04:27:16.272539+05:30"},{"city":"Saharanpur","state":"Uttar Pradesh","latitude":29.9637,"longitude":77.546,"temp":24.0,"humidity":73,"rain":0.0,"pressure":973.2,"uv_index":7.2,"wind_gusts":37.4,"aqi":137,"pm10":65.9,"pm2_5":52.4,"no2":23.6,"co":378.0,"o3":52.0,"so2":9.0,"mosquito_risk":3,"arthritis_risk":5,"migraine_risk":7,"frizz_risk":1,"updated_at":"2026-05-12T04:27:16.272545+05:30"},{"city":"Jhansi","state":"Uttar Pradesh","latitude":25.4484,"longitude":78.5685,"temp":27.4,"humidity":48,"rain":0.0,"pressure":975.4,"uv_index":8.45,"wind_gusts":26.3,"aqi":113,"pm10":91.7,"pm2_5":34.3,"no2":3.7,"co":393.0,"o3":107.0,"so2":6.4,"mosquito_risk":4,"arthritis_risk":5,"migraine_risk":7,"frizz_risk":0,"updated_at":"2026-05-12T04:27:19.646338+05:30"},{"city":"Surat","state":"Gujarat","latitude":21.1702,"longitude":72.8311,"temp":31.0,"humidity":45,"rain":0.0,"pressure":1001.7,"uv_index":7.75,"wind_gusts":33.8,"aqi":93,"pm10":32.7,"pm2_5":23.5,"no2":23.4,"co":227.0,"o3":44.0,"so2":30.8,"mosquito_risk":0,"arthritis_risk":5,"migraine_risk":4,"frizz_risk":1,"updated_at":"2026-05-12T04:27:19.646370+05:30"},{"city":"Vadodara","state":"Gujarat","latitude":22.3072,"longitude":73.1812,"temp":32.1,"humidity":24,"rain":0.0,"pressure":999.8,"uv_index":8.1,"wind_gusts":28.1,"aqi":73,"pm10":39.5,"pm2_5":30.7,"no2":22.4,"co":213.0,"o3":43.0,"so2":11.9,"mosquito_risk":0,"arthritis_risk":5,"migraine_risk":7,"frizz_risk":0,"updated_at":"2026-05-12T04:27:19.646381+05:30"},{"city":"Rajkot","state":"Gujarat","latitude":22.3039,"longitude":70.8022,"temp":25.5,"humidity":90,"rain":0.0,"pressure":990.5,"uv_index":7.75,"wind_gusts":49.0,"aqi":53,"pm10":21.1,"pm2_5":9.4,"no2":5.6,"co":154.0,"o3":56.0,"so2":6.2,"mosquito_risk":7,"arthritis_risk":5,"migraine_risk":7,"frizz_risk":1,"updated_at":"2026-05-12T04:27:19.646389+05:30"},{"city":"Thane","state":"Maharashtra","latitude":19.2183,"longitude":72.9781,"temp":27.7,"humidity":84,"rain":0.0,"pressure":1003.8,"uv_index":7.9,"wind_gusts":40.0,"aqi":89,"pm10":69.4,"pm2_5":30.6,"no2":29.3,"co":518.0,"o3":45.0,"so2":28.3,"mosquito_risk":7,"arthritis_risk":5,"migraine_risk":4,"frizz_risk":1,"updated_at":"2026-05-12T04:27:19.646396+05:30"},{"city":"Nagpur","state":"Maharashtra","latitude":21.1458,"longitude":79.0882,"temp":29.5,"humidity":43,"rain":0.0,"pressure":970.0,"uv_index":8.95,"wind_gusts":38.2,"aqi":106,"pm10":70.8,"pm2_5":54.6,"no2":44.7,"co":291.0,"o3":39.0,"so2":22.8,"mosquito_risk":4,"arthritis_risk":5,"migraine_risk":7,"frizz_risk":0,"updated_at":"2026-05-12T04:27:19.646404+05:30"},{"city":"Nashik","state":"Maharashtra","latitude":19.9975,"longitude":73.7898,"temp":26.8,"humidity":35,"rain":0.0,"pressure":941.7,"uv_index":8.2,"wind_gusts":46.1,"aqi":69,"pm10":44.2,"pm2_5":23.5,"no2":20.7,"co":242.0,"o3":53.0,"so2":6.0,"mosquito_risk":4,"arthritis_risk":5,"migraine_risk":7,"frizz_risk":0,"updated_at":"2026-05-12T04:27:19.646411+05:30"},{"city":"Aurangabad","state":"Maharashtra","latitude":19.8762,"longitude":75.3433,"temp":30.2,"humidity":25,"rain":0.0,"pressure":940.2,"uv_index":9.1,"wind_gusts":37.4,"aqi":64,"pm10":28.4,"pm2_5":17.9,"no2":14.2,"co":301.0,"o3":88.0,"so2":8.3,"mosquito_risk":0,"arthritis_risk":5,"migraine_risk":7,"frizz_risk":0,"updated_at":"2026-05-12T04:27:19.646418+05:30"},{"city":"Solapur","state":"Maharashtra","latitude":17.6599,"longitude":75.9064,"temp":28.8,"humidity":66,"rain":0.0,"pressure":953.6,"uv_index":9.1,"wind_gusts":35.3,"aqi":71,"pm10":23.6,"pm2_5":18.7,"no2":10.9,"co":318.0,"o3":81.0,"so2":9.9,"mosquito_risk":7,"arthritis_risk":5,"migraine_risk":7,"frizz_risk":1,"updated_at":"2026-05-12T04:27:19.646426+05:30"},{"city":"Kolhapur","state":"Maharashtra","latitude":16.705,"longitude":74.2433,"temp":23.5,"humidity":94,"rain":0.0,"pressure":945.0,"uv_index":8.75,"wind_gusts":57.6,"aqi":78,"pm10":37.1,"pm2_5":21.4,"no2":9.5,"co":188.0,"o3":53.0,"so2":2.1,"mosquito_risk":3,"arthritis_risk":5,"migraine_risk":7,"frizz_risk":1,"updated_at":"2026-05-12T04:27:19.646433+05:30"},{"city":"Goa","state":"Goa","latitude":15.2993,"longitude":74.124,"temp":26.9,"humidity":95,"rain":0.0,"pressure":994.9,"uv_index":8.85,"wind_gusts":33.8,"aqi":82,"pm10":70.1,"pm2_5":33.5,"no2":13.1,"co":292.0,"o3":59.0,"so2":3.5,"mosquito_risk":7,"arthritis_risk":5,"migraine_risk":7,"frizz_risk":1,"updated_at":"2026-05-12T04:27:19.646440+05:30"},{"city":"Jodhpur","state":"Rajasthan","latitude":26.2389,"longitude":73.0243,"temp":31.9,"humidity":20,"rain":0.0,"pressure":978.8,"uv_index":8.3,"wind_gusts":42.5,"aqi":122,"pm10":183.5,"pm2_5":28.6,"no2":2.8,"co":169.0,"o3":75.0,"so2":2.3,"mosquito_risk":0,"arthritis_risk":5,"migraine_risk":7,"frizz_risk":0,"updated_at":"2026-05-12T04:27:19.646447+05:30"},{"city":"Udaipur","state":"Rajasthan","latitude":24.5854,"longitude":73.7125,"temp":29.6,"humidity":24,"rain":0.0,"pressure":942.9,"uv_index":8.85,"wind_gusts":34.9,"aqi":43,"pm10":19.5,"pm2_5":8.2,"no2":3.1,"co":157.0,"o3":80.0,"so2":4.3,"mosquito_risk":4,"arthritis_risk":5,"migraine_risk":7,"frizz_risk":0,"updated_at":"2026-05-12T04:27:19.646455+05:30"},{"city":"Kota","state":"Rajasthan","latitude":25.2138,"longitude":75.8648,"temp":28.5,"humidity":39,"rain":0.0,"pressure":975.2,"uv_index":8.4,"wind_gusts":44.3,"aqi":97,"pm10":70.5,"pm2_5":38.0,"no2":4.5,"co":439.0,"o3":95.0,"so2":11.1,"mosquito_risk":4,"arthritis_risk":5,"migraine_risk":7,"frizz_risk":0,"updated_at":"2026-05-12T04:27:19.646462+05:30"},{"city":"Bikaner","state":"Rajasthan","latitude":28.0229,"longitude":73.3119,"temp":30.8,"humidity":28,"rain":0.0,"pressure":976.8,"uv_index":8.35,"wind_gusts":38.2,"aqi":82,"pm10":93.1,"pm2_5":38.5,"no2":2.8,"co":169.0,"o3":102.0,"so2":5.5,"mosquito_risk":0,"arthritis_risk":5,"migraine_risk":7,"frizz_risk":0,"updated_at":"2026-05-12T04:27:19.646469+05:30"},{"city":"Ajmer","state":"Rajasthan","latitude":26.4499,"longitude":74.6399,"temp":29.8,"humidity":24,"rain":0.0,"pressure":951.0,"uv_index":8.35,"wind_gusts":55.1,"aqi":82,"pm10":41.6,"pm2_5":17.9,"no2":8.5,"co":312.0,"o3":65.0,"so2":4.8,"mosquito_risk":4,"arthritis_risk":5,"migraine_risk":7,"frizz_risk":0,"updated_at":"2026-05-12T04:27:19.646476+05:30"},{"city":"Gwalior","state":"Madhya Pradesh","latitude":26.2183,"longitude":78.1828,"temp":27.0,"humidity":48,"rain":0.0,"pressure":980.4,"uv_index":8.25,"wind_gusts":37.8,"aqi":118,"pm10":118.5,"pm2_5":37.6,"no2":3.8,"co":332.0,"o3":115.0,"so2":6.6,"mosquito_risk":4,"arthritis_risk":5,"migraine_risk":7,"frizz_risk":0,"updated_at":"2026-05-12T04:27:19.646482+05:30"},{"city":"Indore","state":"Madhya Pradesh","latitude":22.7196,"longitude":75.8577,"temp":29.5,"humidity":26,"rain":0.0,"pressure":945.3,"uv_index":8.7,"wind_gusts":29.9,"aqi":75,"pm10":75.4,"pm2_5":28.3,"no2":5.2,"co":361.0,"o3":105.0,"so2":9.6,"mosquito_risk":4,"arthritis_risk":5,"migraine_risk":7,"frizz_risk":0,"updated_at":"2026-05-12T04:27:19.646489+05:30"},{"city":"Bhopal","state":"Madhya Pradesh","latitude":23.2599,"longitude":77.4126,"temp":28.4,"humidity":41,"rain":0.0,"pressure":950.8,"uv_index":8.7,"wind_gusts":39.2,"aqi":90,"pm10":58.3,"pm2_5":35.3,"no2":3.2,"co":317.0,"o3":116.0,"so2":6.1,"mosquito_risk":4,"arthritis_risk":5,"migraine_risk":7,"frizz_risk":0,"updated_at":"2026-05-12T04:27:19.646497+05:30"},{"city":"Jabalpur","state":"Madhya Pradesh","latitude":23.1815,"longitude":79.9864,"temp":26.3,"humidity":49,"rain":0.0,"pressure":959.1,"uv_index":8.9,"wind_gusts":36.4,"aqi":98,"pm10":41.2,"pm2_5":32.2,"no2":9.2,"co":295.0,"o3":118.0,"so2":10.0,"mosquito_risk":4,"arthritis_risk":5,"migraine_risk":7,"frizz_risk":0,"updated_at":"2026-05-12T04:27:19.646504+05:30"},{"city":"Ujjain","state":"Madhya Pradesh","latitude":23.1765,"longitude":75.7885,"temp":28.4,"humidity":29,"rain":0.0,"pressure":950.5,"uv_index":8.6,"wind_gusts":28.8,"aqi":81,"pm10":72.4,"pm2_5":34.5,"no2":8.5,"co":342.0,"o3":79.0,"so2":8.5,"mosquito_risk":4,"arthritis_risk":5,"migraine_risk":7,"frizz_risk":0,"updated_at":"2026-05-12T04:27:19.646511+05:30"},{"city":"Visakhapatnam","state":"Andhra Pradesh","latitude":17.6868,"longitude":83.2185,"temp":25.5,"humidity":96,"rain":0.0,"pressure":1001.4,"uv_index":8.1,"wind_gusts":37.1,"aqi":65,"pm10":28.7,"pm2_5":26.0,"no2":29.5,"co":1912.0,"o3":16.0,"so2":6.3,"mosquito_risk":7,"arthritis_risk":5,"migraine_risk":4,"frizz_risk":1,"updated_at":"2026-05-12T04:27:19.646518+05:30"},{"city":"Vijayawada","state":"Andhra Pradesh","latitude":16.5062,"longitude":80.648,"temp":27.1,"humidity":85,"rain":0.0,"pressure":999.6,"uv_index":9.15,"wind_gusts":33.5,"aqi":52,"pm10":24.3,"pm2_5":22.6,"no2":17.2,"co":202.0,"o3":20.0,"so2":5.4,"mosquito_risk":7,"arthritis_risk":5,"migraine_risk":7,"frizz_risk":1,"updated_at":"2026-05-12T04:27:19.646526+05:30"},{"city":"Guntur","state":"Andhra Pradesh","latitude":16.3067,"longitude":80.4365,"temp":27.2,"humidity":86,"rain":0.0,"pressure":1000.9,"uv_index":9.2,"wind_gusts":40.3,"aqi":53,"pm10":21.1,"pm2_5":19.4,"no2":18.3,"co":168.0,"o3":18.0,"so2":7.2,"mosquito_risk":7,"arthritis_risk":5,"migraine_risk":4,"frizz_risk":1,"updated_at":"2026-05-12T04:27:19.646533+05:30"},{"city":"Nellore","state":"Andhra Pradesh","latitude":14.4426,"longitude":79.9865,"temp":25.4,"humidity":96,"rain":0.0,"pressure":1002.5,"uv_index":9.2,"wind_gusts":37.4,"aqi":27,"pm10":11.1,"pm2_5":9.0,"no2":9.6,"co":174.0,"o3":31.0,"so2":3.4,"mosquito_risk":7,"arthritis_risk":5,"migraine_risk":4,"frizz_risk":1,"updated_at":"2026-05-12T04:27:19.646541+05:30"},{"city":"Kurnool","state":"Andhra Pradesh","latitude":15.8281,"longitude":78.0373,"temp":27.4,"humidity":61,"rain":0.0,"pressure":973.9,"uv_index":7.45,"wind_gusts":40.0,"aqi":51,"pm10":11.4,"pm2_5":7.7,"no2":6.2,"co":164.0,"o3":53.0,"so2":1.7,"mosquito_risk":7,"arthritis_risk":5,"migraine_risk":7,"frizz_risk":1,"updated_at":"2026-05-12T04:27:19.646549+05:30"},{"city":"Kakinada","state":"Andhra Pradesh","latitude":16.9891,"longitude":82.2475,"temp":26.9,"humidity":89,"rain":0.0,"pressure":1004.7,"uv_index":8.65,"wind_gusts":40.3,"aqi":24,"pm10":7.7,"pm2_5":5.0,"no2":2.7,"co":182.0,"o3":52.0,"so2":1.4,"mosquito_risk":7,"arthritis_risk":5,"migraine_risk":4,"frizz_risk":1,"updated_at":"2026-05-12T04:27:19.646556+05:30"},{"city":"Tirupati","state":"Andhra Pradesh","latitude":13.6288,"longitude":79.4192,"temp":24.5,"humidity":94,"rain":0.0,"pressure":987.9,"uv_index":9.25,"wind_gusts":36.7,"aqi":51,"pm10":27.2,"pm2_5":25.0,"no2":39.3,"co":271.0,"o3":1.0,"so2":4.8,"mosquito_risk":3,"arthritis_risk":5,"migraine_risk":7,"frizz_risk":1,"updated_at":"2026-05-12T04:27:19.646563+05:30"},{"city":"Warangal","state":"Telangana","latitude":17.9689,"longitude":79.5941,"temp":26.0,"humidity":82,"rain":0.0,"pressure":975.9,"uv_index":8.95,"wind_gusts":39.2,"aqi":62,"pm10":12.3,"pm2_5":10.7,"no2":10.8,"co":186.0,"o3":36.0,"so2":10.0,"mosquito_risk":7,"arthritis_risk":5,"migraine_risk":7,"frizz_risk":1,"updated_at":"2026-05-12T04:27:19.646570+05:30"},{"city":"Nizamabad","state":"Telangana","latitude":18.6725,"longitude":78.0941,"temp":27.4,"humidity":54,"rain":0.0,"pressure":961.3,"uv_index":9.15,"wind_gusts":29.2,"aqi":65,"pm10":25.5,"pm2_5":20.1,"no2":10.3,"co":255.0,"o3":85.0,"so2":5.4,"mosquito_risk":4,"arthritis_risk":5,"migraine_risk":7,"frizz_risk":1,"updated_at":"2026-05-12T04:27:19.646577+05:30"},{"city":"Mysore","state":"Karnataka","latitude":12.2958,"longitude":76.6396,"temp":21.2,"humidity":95,"rain":0.0,"pressure":924.9,"uv_index":5.85,"wind_gusts":38.2,"aqi":77,"pm10":38.1,"pm2_5":34.5,"no2":25.8,"co":316.0,"o3":36.0,"so2":2.9,"mosquito_risk":3,"arthritis_risk":5,"migraine_risk":3,"frizz_risk":1,"updated_at":"2026-05-12T04:27:19.646584+05:30"},{"city":"Mangalore","state":"Karnataka","latitude":12.9141,"longitude":74.856,"temp":25.9,"humidity":92,"rain":0.0,"pressure":1003.2,"uv_index":8.2,"wind_gusts":36.0,"aqi":79,"pm10":48.8,"pm2_5":40.9,"no2":23.2,"co":354.0,"o3":29.0,"so2":4.9,"mosquito_risk":7,"arthritis_risk":5,"migraine_risk":4,"frizz_risk":1,"updated_at":"2026-05-12T04:27:19.646591+05:30"},{"city":"Hubli-Dharwad","state":"Karnataka","latitude":15.3647,"longitude":75.124,"temp":24.2,"humidity":92,"rain":0.0,"pressure":938.2,"uv_index":9.1,"wind_gusts":45.4,"aqi":75,"pm10":34.5,"pm2_5":17.7,"no2":4.5,"co":179.0,"o3":63.0,"so2":1.8,"mosquito_risk":3,"arthritis_risk":5,"migraine_risk":7,"frizz_risk":1,"updated_at":"2026-05-12T04:27:19.646598+05:30"},{"city":"Belgaum","state":"Karnataka","latitude":15.8497,"longitude":74.4977,"temp":22.8,"humidity":89,"rain":0.0,"pressure":922.4,"uv_index":9.15,"wind_gusts":45.0,"aqi":73,"pm10":40.7,"pm2_5":21.8,"no2":8.1,"co":161.0,"o3":49.0,"so2":0.5,"mosquito_risk":3,"arthritis_risk":5,"migraine_risk":7,"frizz_risk":1,"updated_at":"2026-05-12T04:27:23.014968+05:30"},{"city":"Coimbatore","state":"Tamil Nadu","latitude":11.0168,"longitude":76.9558,"temp":23.5,"humidity":97,"rain":0.0,"pressure":958.1,"uv_index":8.7,"wind_gusts":32.0,"aqi":72,"pm10":33.8,"pm2_5":25.7,"no2":13.9,"co":351.0,"o3":56.0,"so2":4.9,"mosquito_risk":3,"arthritis_risk":5,"migraine_risk":7,"frizz_risk":1,"updated_at":"2026-05-12T04:27:23.014999+05:30"},{"city":"Madurai","state":"Tamil Nadu","latitude":9.9252,"longitude":78.1198,"temp":25.5,"humidity":96,"rain":0.0,"pressure":989.2,"uv_index":8.6,"wind_gusts":34.6,"aqi":81,"pm10":37.3,"pm2_5":36.2,"no2":38.2,"co":352.0,"o3":22.0,"so2":12.2,"mosquito_risk":7,"arthritis_risk":5,"migraine_risk":7,"frizz_risk":1,"updated_at":"2026-05-12T04:27:23.015010+05:30"},{"city":"Trichy","state":"Tamil Nadu","latitude":10.7905,"longitude":78.7047,"temp":25.5,"humidity":94,"rain":0.0,"pressure":996.3,"uv_index":8.15,"wind_gusts":24.1,"aqi":72,"pm10":29.3,"pm2_5":26.8,"no2":35.4,"co":449.0,"o3":8.0,"so2":10.2,"mosquito_risk":7,"arthritis_risk":5,"migraine_risk":7,"frizz_risk":1,"updated_at":"2026-05-12T04:27:23.015020+05:30"},{"city":"Salem","state":"Tamil Nadu","latitude":11.6643,"longitude":78.146,"temp":23.6,"humidity":94,"rain":0.0,"pressure":974.1,"uv_index":6.9,"wind_gusts":26.3,"aqi":85,"pm10":44.6,"pm2_5":39.8,"no2":56.0,"co":458.0,"o3":6.0,"so2":11.9,"mosquito_risk":3,"arthritis_risk":5,"migraine_risk":7,"frizz_risk":1,"updated_at":"2026-05-12T04:27:23.015029+05:30"},{"city":"Tirunelveli","state":"Tamil Nadu","latitude":8.7139,"longitude":77.7567,"temp":26.4,"humidity":78,"rain":0.0,"pressure":999.2,"uv_index":9.0,"wind_gusts":38.9,"aqi":61,"pm10":22.2,"pm2_5":21.1,"no2":10.4,"co":339.0,"o3":38.0,"so2":1.5,"mosquito_risk":7,"arthritis_risk":5,"migraine_risk":7,"frizz_risk":1,"updated_at":"2026-05-12T04:27:23.015037+05:30"},{"city":"Vellore","state":"Tamil Nadu","latitude":12.9165,"longitude":79.1325,"temp":25.3,"humidity":90,"rain":0.0,"pressure":981.5,"uv_index":9.25,"wind_gusts":30.6,"aqi":62,"pm10":37.5,"pm2_5":34.7,"no2":32.2,"co":302.0,"o3":14.0,"so2":15.5,"mosquito_risk":7,"arthritis_risk":5,"migraine_risk":7,"frizz_risk":1,"updated_at":"2026-05-12T04:27:23.015045+05:30"},{"city":"Erode","state":"Tamil Nadu","latitude":11.341,"longitude":77.7172,"temp":24.6,"humidity":88,"rain":0.0,"pressure":985.8,"uv_index":5.9,"wind_gusts":20.9,"aqi":85,"pm10":47.4,"pm2_5":41.8,"no2":43.2,"co":424.0,"o3":22.0,"so2":5.9,"mosquito_risk":3,"arthritis_risk":5,"migraine_risk":3,"frizz_risk":1,"updated_at":"2026-05-12T04:27:23.015054+05:30"},{"city":"Kochi","state":"Kerala","latitude":9.9312,"longitude":76.2673,"temp":25.5,"humidity":96,"rain":0.0,"pressure":1005.1,"uv_index":7.75,"wind_gusts":36.0,"aqi":75,"pm10":44.8,"pm2_5":42.6,"no2":24.4,"co":462.0,"o3":17.0,"so2":4.1,"mosquito_risk":7,"arthritis_risk":5,"migraine_risk":4,"frizz_risk":1,"updated_at":"2026-05-12T04:27:23.015062+05:30"},{"city":"Thiruvananthapuram","state":"Kerala","latitude":8.5241,"longitude":76.9366,"temp":25.4,"humidity":93,"rain":0.0,"pressure":1004.4,"uv_index":8.6,"wind_gusts":38.2,"aqi":41,"pm10":18.3,"pm2_5":14.6,"no2":5.0,"co":265.0,"o3":86.0,"so2":3.3,"mosquito_risk":7,"arthritis_risk":5,"migraine_risk":4,"frizz_risk":1,"updated_at":"2026-05-12T04:27:23.015070+05:30"},{"city":"Kozhikode","state":"Kerala","latitude":11.2588,"longitude":75.7804,"temp":24.4,"humidity":97,"rain":0.0,"pressure":1004.2,"uv_index":8.9,"wind_gusts":39.2,"aqi":58,"pm10":26.8,"pm2_5":19.5,"no2":4.0,"co":534.0,"o3":94.0,"so2":2.2,"mosquito_risk":3,"arthritis_risk":5,"migraine_risk":4,"frizz_risk":1,"updated_at":"2026-05-12T04:27:23.015078+05:30"},{"city":"Thrissur","state":"Kerala","latitude":10.5276,"longitude":76.2144,"temp":24.5,"humidity":99,"rain":0.0,"pressure":1003.4,"uv_index":2.45,"wind_gusts":31.0,"aqi":76,"pm10":42.5,"pm2_5":39.7,"no2":18.2,"co":298.0,"o3":41.0,"so2":3.4,"mosquito_risk":3,"arthritis_risk":5,"migraine_risk":0,"frizz_risk":1,"updated_at":"2026-05-12T04:27:23.015087+05:30"},{"city":"Kannur","state":"Kerala","latitude":11.8745,"longitude":75.3704,"temp":25.2,"humidity":92,"rain":0.0,"pressure":1003.5,"uv_index":8.65,"wind_gusts":41.8,"aqi":64,"pm10":35.2,"pm2_5":30.6,"no2":18.2,"co":376.0,"o3":39.0,"so2":2.5,"mosquito_risk":7,"arthritis_risk":5,"migraine_risk":4,"frizz_risk":1,"updated_at":"2026-05-12T04:27:23.015095+05:30"},{"city":"Patna","state":"Bihar","latitude":25.5941,"longitude":85.1376,"temp":25.2,"humidity":78,"rain":0.0,"pressure":1000.0,"uv_index":8.55,"wind_gusts":35.6,"aqi":117,"pm10":47.5,"pm2_5":45.3,"no2":12.5,"co":392.0,"o3":102.0,"so2":21.1,"mosquito_risk":7,"arthritis_risk":5,"migraine_risk":4,"frizz_risk":1,"updated_at":"2026-05-12T04:27:23.015102+05:30"},{"city":"Gaya","state":"Bihar","latitude":24.7914,"longitude":85.0002,"temp":26.4,"humidity":70,"rain":0.0,"pressure":992.6,"uv_index":8.6,"wind_gusts":34.9,"aqi":115,"pm10":37.8,"pm2_5":35.2,"no2":20.2,"co":320.0,"o3":68.0,"so2":52.1,"mosquito_risk":7,"arthritis_risk":5,"migraine_risk":7,"frizz_risk":1,"updated_at":"2026-05-12T04:27:23.015110+05:30"},{"city":"Muzaffarpur","state":"Bihar","latitude":26.1209,"longitude":85.3647,"temp":24.0,"humidity":82,"rain":0.0,"pressure":1000.7,"uv_index":8.75,"wind_gusts":38.5,"aqi":114,"pm10":47.4,"pm2_5":44.7,"no2":11.8,"co":381.0,"o3":102.0,"so2":13.8,"mosquito_risk":3,"arthritis_risk":5,"migraine_risk":4,"frizz_risk":1,"updated_at":"2026-05-12T04:27:23.015117+05:30"},{"city":"Bhagalpur","state":"Bihar","latitude":25.2425,"longitude":87.0117,"temp":24.1,"humidity":89,"rain":0.0,"pressure":1001.8,"uv_index":7.75,"wind_gusts":28.4,"aqi":126,"pm10":69.2,"pm2_5":64.7,"no2":12.0,"co":299.0,"o3":96.0,"so2":10.0,"mosquito_risk":3,"arthritis_risk":5,"migraine_risk":4,"frizz_risk":1,"updated_at":"2026-05-12T04:27:23.015125+05:30"},{"city":"Ranchi","state":"Jharkhand","latitude":23.3441,"longitude":85.3096,"temp":21.9,"humidity":91,"rain":0.0,"pressure":936.6,"uv_index":9.3,"wind_gusts":31.7,"aqi":113,"pm10":63.8,"pm2_5":46.1,"no2":12.6,"co":225.0,"o3":90.0,"so2":21.1,"mosquito_risk":3,"arthritis_risk":5,"migraine_risk":7,"frizz_risk":1,"updated_at":"2026-05-12T04:27:23.015133+05:30"},{"city":"Jamshedpur","state":"Jharkhand","latitude":22.8046,"longitude":86.2029,"temp":24.7,"humidity":92,"rain":0.0,"pressure":990.2,"uv_index":9.1,"wind_gusts":39.6,"aqi":78,"pm10":28.1,"pm2_5":26.3,"no2":27.6,"co":260.0,"o3":27.0,"so2":20.7,"mosquito_risk":3,"arthritis_risk":5,"migraine_risk":7,"frizz_risk":1,"updated_at":"2026-05-12T04:27:23.015140+05:30"},{"city":"Dhanbad","state":"Jharkhand","latitude":23.7957,"longitude":86.4304,"temp":24.6,"humidity":92,"rain":0.0,"pressure":979.4,"uv_index":9.05,"wind_gusts":37.8,"aqi":127,"pm10":41.6,"pm2_5":39.9,"no2":43.4,"co":242.0,"o3":18.0,"so2":56.6,"mosquito_risk":3,"arthritis_risk":5,"migraine_risk":7,"frizz_risk":1,"updated_at":"2026-05-12T04:27:23.015148+05:30"},{"city":"Bokaro","state":"Jharkhand","latitude":23.6693,"longitude":86.1511,"temp":24.2,"humidity":89,"rain":0.0,"pressure":983.0,"uv_index":9.1,"wind_gusts":36.0,"aqi":136,"pm10":51.9,"pm2_5":50.6,"no2":50.0,"co":1966.0,"o3":18.0,"so2":66.8,"mosquito_risk":3,"arthritis_risk":5,"migraine_risk":7,"frizz_risk":1,"updated_at":"2026-05-12T04:27:23.015156+05:30"},{"city":"Bhubaneswar","state":"Odisha","latitude":20.2961,"longitude":85.8245,"temp":25.1,"humidity":95,"rain":0.0,"pressure":1001.3,"uv_index":9.15,"wind_gusts":33.5,"aqi":68,"pm10":31.2,"pm2_5":27.7,"no2":25.2,"co":344.0,"o3":19.0,"so2":7.8,"mosquito_risk":7,"arthritis_risk":5,"migraine_risk":4,"frizz_risk":1,"updated_at":"2026-05-12T04:27:23.015164+05:30"},{"city":"Cuttack","state":"Odisha","latitude":20.4625,"longitude":85.8828,"temp":25.4,"humidity":95,"rain":0.0,"pressure":1003.3,"uv_index":9.2,"wind_gusts":37.4,"aqi":68,"pm10":31.2,"pm2_5":27.7,"no2":25.2,"co":340.0,"o3":19.0,"so2":7.8,"mosquito_risk":7,"arthritis_risk":5,"migraine_risk":4,"frizz_risk":1,"updated_at":"2026-05-12T04:27:23.015173+05:30"},{"city":"Rourkela","state":"Odisha","latitude":22.2604,"longitude":84.8536,"temp":25.4,"humidity":87,"rain":0.0,"pressure":984.2,"uv_index":9.0,"wind_gusts":35.6,"aqi":109,"pm10":41.0,"pm2_5":34.0,"no2":16.1,"co":269.0,"o3":81.0,"so2":51.0,"mosquito_risk":7,"arthritis_risk":5,"migraine_risk":7,"frizz_risk":1,"updated_at":"2026-05-12T04:27:23.015181+05:30"},{"city":"Raipur","state":"Chhattisgarh","latitude":21.2514,"longitude":81.6296,"temp":28.0,"humidity":48,"rain":0.0,"pressure":971.8,"uv_index":9.05,"wind_gusts":31.7,"aqi":103,"pm10":57.5,"pm2_5":38.3,"no2":28.5,"co":274.0,"o3":61.0,"so2":5.3,"mosquito_risk":4,"arthritis_risk":5,"migraine_risk":7,"frizz_risk":0,"updated_at":"2026-05-12T04:27:23.015189+05:30"},{"city":"Bhilai","state":"Chhattisgarh","latitude":21.1938,"longitude":81.3509,"temp":27.2,"humidity":54,"rain":0.0,"pressure":972.1,"uv_index":9.05,"wind_gusts":31.3,"aqi":100,"pm10":54.8,"pm2_5":36.4,"no2":31.8,"co":358.0,"o3":58.0,"so2":5.6,"mosquito_risk":4,"arthritis_risk":5,"migraine_risk":7,"frizz_risk":1,"updated_at":"2026-05-12T04:27:23.015196+05:30"},{"city":"Guwahati","state":"Assam","latitude":26.1158,"longitude":91.7086,"temp":20.8,"humidity":92,"rain":0.0,"pressure":1003.3,"uv_index":8.65,"wind_gusts":25.2,"aqi":73,"pm10":40.9,"pm2_5":36.7,"no2":13.6,"co":463.0,"o3":44.0,"so2":3.0,"mosquito_risk":3,"arthritis_risk":5,"migraine_risk":4,"frizz_risk":1,"updated_at":"2026-05-12T04:27:23.015204+05:30"},{"city":"Agartala","state":"Tripura","latitude":23.8315,"longitude":91.2868,"temp":21.5,"humidity":96,"rain":0.0,"pressure":1007.1,"uv_index":8.85,"wind_gusts":14.4,"aqi":93,"pm10":26.0,"pm2_5":23.6,"no2":10.4,"co":390.0,"o3":67.0,"so2":2.0,"mosquito_risk":3,"arthritis_risk":5,"migraine_risk":4,"frizz_risk":1,"updated_at":"2026-05-12T04:27:23.015211+05:30"},{"city":"Shillong","state":"Meghalaya","latitude":25.5788,"longitude":91.8933,"temp":13.9,"humidity":84,"rain":0.0,"pressure":855.5,"uv_index":6.75,"wind_gusts":20.9,"aqi":70,"pm10":26.7,"pm2_5":23.3,"no2":10.5,"co":348.0,"o3":55.0,"so2":0.7,"mosquito_risk":3,"arthritis_risk":10,"migraine_risk":7,"frizz_risk":0,"updated_at":"2026-05-12T04:27:23.015219+05:30"},{"city":"Imphal","state":"Manipur","latitude":24.817,"longitude":93.9368,"temp":15.4,"humidity":96,"rain":0.0,"pressure":922.8,"uv_index":9.2,"wind_gusts":21.2,"aqi":73,"pm10":55.6,"pm2_5":51.8,"no2":21.3,"co":520.0,"o3":24.0,"so2":1.0,"mosquito_risk":3,"arthritis_risk":10,"migraine_risk":7,"frizz_risk":0,"updated_at":"2026-05-12T04:27:23.015228+05:30"},{"city":"Aizawl","state":"Mizoram","latitude":23.7271,"longitude":92.7176,"temp":14.0,"humidity":100,"rain":0.0,"pressure":890.7,"uv_index":9.05,"wind_gusts":26.6,"aqi":72,"pm10":22.5,"pm2_5":20.0,"no2":9.8,"co":456.0,"o3":18.0,"so2":0.3,"mosquito_risk":3,"arthritis_risk":10,"migraine_risk":7,"frizz_risk":0,"updated_at":"2026-05-12T04:27:23.015235+05:30"},{"city":"Kohima","state":"Nagaland","latitude":25.6701,"longitude":94.1077,"temp":12.9,"humidity":92,"rain":0.0,"pressure":853.8,"uv_index":8.9,"wind_gusts":29.5,"aqi":53,"pm10":20.5,"pm2_5":17.3,"no2":11.4,"co":276.0,"o3":24.0,"so2":0.4,"mosquito_risk":3,"arthritis_risk":10,"migraine_risk":7,"frizz_risk":0,"updated_at":"2026-05-12T04:27:23.015243+05:30"},{"city":"Gangtok","state":"Sikkim","latitude":27.3314,"longitude":88.6138,"temp":10.8,"humidity":73,"rain":0.0,"pressure":835.2,"uv_index":9.0,"wind_gusts":40.7,"aqi":69,"pm10":33.5,"pm2_5":22.1,"no2":17.1,"co":379.0,"o3":52.0,"so2":0.6,"mosquito_risk":3,"arthritis_risk":5,"migraine_risk":7,"frizz_risk":0,"updated_at":"2026-05-12T04:27:23.015271+05:30"},{"city":"Siliguri","state":"West Bengal","latitude":26.7271,"longitude":88.3953,"temp":22.3,"humidity":86,"rain":0.0,"pressure":995.0,"uv_index":8.5,"wind_gusts":24.5,"aqi":101,"pm10":70.3,"pm2_5":52.9,"no2":19.7,"co":389.0,"o3":82.0,"so2":4.4,"mosquito_risk":3,"arthritis_risk":5,"migraine_risk":7,"frizz_risk":1,"updated_at":"2026-05-12T04:27:26.388449+05:30"},{"city":"Durgapur","state":"West Bengal","latitude":23.5204,"longitude":87.3119,"temp":24.8,"humidity":97,"rain":0.0,"pressure":994.7,"uv_index":9.0,"wind_gusts":27.4,"aqi":123,"pm10":35.4,"pm2_5":32.7,"no2":30.4,"co":244.0,"o3":18.0,"so2":30.7,"mosquito_risk":3,"arthritis_risk":5,"migraine_risk":7,"frizz_risk":1,"updated_at":"2026-05-12T04:27:26.388484+05:30"},{"city":"Asansol","state":"West Bengal","latitude":23.6739,"longitude":86.9524,"temp":24.7,"humidity":96,"rain":0.0,"pressure":993.4,"uv_index":9.05,"wind_gusts":31.7,"aqi":110,"pm10":26.4,"pm2_5":24.6,"no2":27.6,"co":526.0,"o3":25.0,"so2":36.1,"mosquito_risk":3,"arthritis_risk":5,"migraine_risk":7,"frizz_risk":1,"updated_at":"2026-05-12T04:27:26.388496+05:30"},{"city":"Pondicherry","state":"Puducherry","latitude":11.9139,"longitude":79.8145,"temp":26.2,"humidity":93,"rain":0.0,"pressure":1004.8,"uv_index":8.85,"wind_gusts":30.6,"aqi":33,"pm10":8.4,"pm2_5":6.8,"no2":8.0,"co":234.0,"o3":30.0,"so2":3.0,"mosquito_risk":7,"arthritis_risk":5,"migraine_risk":4,"frizz_risk":1,"updated_at":"2026-05-12T04:27:26.388506+05:30"},{"city":"Port Blair","state":"Andaman and Nicobar Islands","latitude":11.6234,"longitude":92.7265,"temp":25.6,"humidity":96,"rain":0.0,"pressure":1004.2,"uv_index":8.15,"wind_gusts":35.6,"aqi":26,"pm10":7.5,"pm2_5":5.5,"no2":0.3,"co":113.0,"o3":54.0,"so2":0.1,"mosquito_risk":7,"arthritis_risk":5,"migraine_risk":4,"frizz_risk":1,"updated_at":"2026-05-12T04:27:26.388515+05:30"},{"city":"Haridwar","state":"Uttarakhand","latitude":29.9457,"longitude":78.1642,"temp":21.1,"humidity":86,"rain":0.0,"pressure":971.4,"uv_index":7.2,"wind_gusts":32.4,"aqi":120,"pm10":55.8,"pm2_5":42.1,"no2":18.9,"co":318.0,"o3":58.0,"so2":5.8,"mosquito_risk":3,"arthritis_risk":5,"migraine_risk":7,"frizz_risk":1,"updated_at":"2026-05-12T04:27:26.388524+05:30"},{"city":"Rishikesh","state":"Uttarakhand","latitude":30.0869,"longitude":78.2676,"temp":19.3,"humidity":88,"rain":0.0,"pressure":964.1,"uv_index":7.35,"wind_gusts":20.9,"aqi":112,"pm10":60.1,"pm2_5":39.6,"no2":8.3,"co":361.0,"o3":89.0,"so2":3.5,"mosquito_risk":3,"arthritis_risk":10,"migraine_risk":7,"frizz_risk":1,"updated_at":"2026-05-12T04:27:26.388533+05:30"},{"city":"Nainital","state":"Uttarakhand","latitude":29.3919,"longitude":79.4542,"temp":12.2,"humidity":90,"rain":0.0,"pressure":802.9,"uv_index":8.25,"wind_gusts":44.3,"aqi":110,"pm10":57.4,"pm2_5":43.2,"no2":17.9,"co":285.0,"o3":73.0,"so2":4.5,"mosquito_risk":3,"arthritis_risk":10,"migraine_risk":7,"frizz_risk":0,"updated_at":"2026-05-12T04:27:26.388542+05:30"},{"city":"Mussoorie","state":"Uttarakhand","latitude":30.4599,"longitude":78.0664,"temp":12.3,"humidity":87,"rain":0.0,"pressure":799.6,"uv_index":7.95,"wind_gusts":44.3,"aqi":119,"pm10":43.3,"pm2_5":33.1,"no2":21.9,"co":322.0,"o3":51.0,"so2":5.1,"mosquito_risk":3,"arthritis_risk":10,"migraine_risk":7,"frizz_risk":0,"updated_at":"2026-05-12T04:27:26.388552+05:30"},{"city":"Dharamshala","state":"Himachal Pradesh","latitude":32.219,"longitude":76.3234,"temp":20.1,"humidity":47,"rain":0.0,"pressure":866.7,"uv_index":8.35,"wind_gusts":35.6,"aqi":89,"pm10":29.0,"pm2_5":18.2,"no2":10.5,"co":262.0,"o3":49.0,"so2":0.0,"mosquito_risk":0,"arthritis_risk":5,"migraine_risk":7,"frizz_risk":0,"updated_at":"2026-05-12T04:27:26.388561+05:30"},{"city":"Dalhousie","state":"Himachal Pradesh","latitude":32.5387,"longitude":75.971,"temp":9.8,"humidity":74,"rain":0.0,"pressure":798.3,"uv_index":8.55,"wind_gusts":43.2,"aqi":150,"pm10":68.7,"pm2_5":43.8,"no2":27.0,"co":314.0,"o3":30.0,"so2":1.5,"mosquito_risk":3,"arthritis_risk":5,"migraine_risk":7,"frizz_risk":0,"updated_at":"2026-05-12T04:27:26.388570+05:30"},{"city":"Patiala","state":"Punjab","latitude":30.3398,"longitude":76.3869,"temp":24.5,"humidity":75,"rain":0.0,"pressure":975.3,"uv_index":7.6,"wind_gusts":47.5,"aqi":370,"pm10":156.0,"pm2_5":82.4,"no2":14.9,"co":425.0,"o3":95.0,"so2":23.6,"mosquito_risk":3,"arthritis_risk":5,"migraine_risk":7,"frizz_risk":1,"updated_at":"2026-05-12T04:27:26.388579+05:30"},{"city":"Bhatinda","state":"Punjab","latitude":30.211,"longitude":74.9455,"temp":26.9,"humidity":60,"rain":0.0,"pressure":980.5,"uv_index":8.2,"wind_gusts":40.7,"aqi":352,"pm10":215.6,"pm2_5":76.4,"no2":6.7,"co":440.0,"o3":111.0,"so2":14.0,"mosquito_risk":4,"arthritis_risk":5,"migraine_risk":7,"frizz_risk":1,"updated_at":"2026-05-12T04:27:26.388587+05:30"},{"city":"Rohtak","state":"Haryana","latitude":28.8955,"longitude":76.6066,"temp":26.4,"humidity":62,"rain":0.0,"pressure":978.6,"uv_index":7.7,"wind_gusts":45.0,"aqi":229,"pm10":359.5,"pm2_5":88.9,"no2":20.3,"co":565.0,"o3":85.0,"so2":22.1,"mosquito_risk":7,"arthritis_risk":5,"migraine_risk":7,"frizz_risk":1,"updated_at":"2026-05-12T04:27:26.388596+05:30"},{"city":"Panipat","state":"Haryana","latitude":29.3909,"longitude":76.9635,"temp":24.1,"humidity":77,"rain":0.0,"pressure":977.7,"uv_index":7.55,"wind_gusts":38.2,"aqi":515,"pm10":442.4,"pm2_5":93.8,"no2":16.1,"co":433.0,"o3":83.0,"so2":12.1,"mosquito_risk":3,"arthritis_risk":5,"migraine_risk":7,"frizz_risk":1,"updated_at":"2026-05-12T04:27:26.388604+05:30"},{"city":"Mathura","state":"Uttar Pradesh","latitude":27.4924,"longitude":77.6737,"temp":26.6,"humidity":55,"rain":0.0,"pressure":984.0,"uv_index":7.95,"wind_gusts":28.4,"aqi":327,"pm10":603.5,"pm2_5":95.7,"no2":8.0,"co":382.0,"o3":96.0,"so2":9.7,"mosquito_risk":4,"arthritis_risk":5,"migraine_risk":7,"frizz_risk":1,"updated_at":"2026-05-12T04:27:26.388613+05:30"},{"city":"Vrindavan","state":"Uttar Pradesh","latitude":27.5823,"longitude":77.7027,"temp":26.6,"humidity":55,"rain":0.0,"pressure":984.4,"uv_index":7.95,"wind_gusts":29.9,"aqi":327,"pm10":603.5,"pm2_5":95.7,"no2":8.0,"co":395.0,"o3":96.0,"so2":9.7,"mosquito_risk":4,"arthritis_risk":5,"migraine_risk":7,"frizz_risk":1,"updated_at":"2026-05-12T04:27:26.388621+05:30"},{"city":"Ayodhya","state":"Uttar Pradesh","latitude":26.7922,"longitude":82.1998,"temp":23.9,"humidity":68,"rain":0.0,"pressure":994.5,"uv_index":8.3,"wind_gusts":36.4,"aqi":99,"pm10":53.8,"pm2_5":50.8,"no2":37.7,"co":414.0,"o3":51.0,"so2":11.5,"mosquito_risk":3,"arthritis_risk":5,"migraine_risk":7,"frizz_risk":1,"updated_at":"2026-05-12T04:27:26.388629+05:30"},{"city":"Ratlam","state":"Madhya Pradesh","latitude":23.3315,"longitude":75.0367,"temp":29.4,"humidity":28,"rain":0.0,"pressure":950.8,"uv_index":8.55,"wind_gusts":31.0,"aqi":70,"pm10":34.0,"pm2_5":24.8,"no2":8.7,"co":266.0,"o3":63.0,"so2":6.4,"mosquito_risk":4,"arthritis_risk":5,"migraine_risk":7,"frizz_risk":0,"updated_at":"2026-05-12T04:27:26.388637+05:30"},{"city":"Sagar","state":"Madhya Pradesh","latitude":23.8388,"longitude":78.7378,"temp":26.6,"humidity":48,"rain":0.0,"pressure":947.4,"uv_index":8.75,"wind_gusts":33.1,"aqi":98,"pm10":49.8,"pm2_5":30.0,"no2":7.0,"co":316.0,"o3":111.0,"so2":6.7,"mosquito_risk":4,"arthritis_risk":5,"migraine_risk":7,"frizz_risk":0,"updated_at":"2026-05-12T04:27:26.388645+05:30"},{"city":"Satna","state":"Madhya Pradesh","latitude":24.6005,"longitude":80.8322,"temp":25.5,"humidity":53,"rain":0.0,"pressure":969.2,"uv_index":8.75,"wind_gusts":35.3,"aqi":98,"pm10":36.1,"pm2_5":27.8,"no2":13.5,"co":313.0,"o3":92.0,"so2":10.5,"mosquito_risk":4,"arthritis_risk":5,"migraine_risk":7,"frizz_risk":0,"updated_at":"2026-05-12T04:27:26.388654+05:30"},{"city":"Akola","state":"Maharashtra","latitude":20.7002,"longitude":77.0082,"temp":31.0,"humidity":36,"rain":0.0,"pressure":971.1,"uv_index":8.95,"wind_gusts":34.6,"aqi":85,"pm10":55.5,"pm2_5":32.8,"no2":25.2,"co":339.0,"o3":46.0,"so2":6.0,"mosquito_risk":0,"arthritis_risk":5,"migraine_risk":7,"frizz_risk":0,"updated_at":"2026-05-12T04:27:26.388663+05:30"},{"city":"Amravati","state":"Maharashtra","latitude":20.9374,"longitude":77.7796,"temp":29.0,"humidity":40,"rain":0.0,"pressure":963.9,"uv_index":8.95,"wind_gusts":38.2,"aqi":88,"pm10":49.9,"pm2_5":32.4,"no2":28.2,"co":325.0,"o3":45.0,"so2":7.4,"mosquito_risk":4,"arthritis_risk":5,"migraine_risk":7,"frizz_risk":0,"updated_at":"2026-05-12T04:27:26.388672+05:30"},{"city":"Latur","state":"Maharashtra","latitude":18.4088,"longitude":76.5604,"temp":28.5,"humidity":43,"rain":0.0,"pressure":936.7,"uv_index":9.1,"wind_gusts":38.9,"aqi":70,"pm10":18.0,"pm2_5":13.4,"no2":9.3,"co":254.0,"o3":88.0,"so2":8.6,"mosquito_risk":4,"arthritis_risk":5,"migraine_risk":7,"frizz_risk":0,"updated_at":"2026-05-12T04:27:26.388680+05:30"},{"city":"Nanded","state":"Maharashtra","latitude":19.1383,"longitude":77.3091,"temp":28.8,"humidity":46,"rain":0.0,"pressure":965.0,"uv_index":9.05,"wind_gusts":29.9,"aqi":71,"pm10":22.4,"pm2_5":17.9,"no2":9.9,"co":277.0,"o3":80.0,"so2":5.4,"mosquito_risk":4,"arthritis_risk":5,"migraine_risk":7,"frizz_risk":0,"updated_at":"2026-05-12T04:27:26.388688+05:30"},{"city":"Gulbarga","state":"Karnataka","latitude":17.3297,"longitude":76.8343,"temp":28.2,"humidity":45,"rain":0.0,"pressure":955.8,"uv_index":8.8,"wind_gusts":28.4,"aqi":58,"pm10":21.6,"pm2_5":15.2,"no2":14.6,"co":240.0,"o3":70.0,"so2":9.6,"mosquito_risk":4,"arthritis_risk":5,"migraine_risk":7,"frizz_risk":0,"updated_at":"2026-05-12T04:27:26.388696+05:30"},{"city":"Bidar","state":"Karnataka","latitude":17.9104,"longitude":77.5199,"temp":26.2,"humidity":52,"rain":0.0,"pressure":932.5,"uv_index":9.15,"wind_gusts":36.0,"aqi":61,"pm10":25.5,"pm2_5":19.7,"no2":10.8,"co":228.0,"o3":87.0,"so2":6.3,"mosquito_risk":4,"arthritis_risk":5,"migraine_risk":7,"frizz_risk":0,"updated_at":"2026-05-12T04:27:26.388704+05:30"},{"city":"Hospet","state":"Karnataka","latitude":15.2689,"longitude":76.3909,"temp":25.0,"humidity":89,"rain":0.0,"pressure":953.4,"uv_index":9.2,"wind_gusts":27.7,"aqi":71,"pm10":25.1,"pm2_5":18.9,"no2":10.8,"co":218.0,"o3":56.0,"so2":2.8,"mosquito_risk":7,"arthritis_risk":5,"migraine_risk":7,"frizz_risk":1,"updated_at":"2026-05-12T04:27:26.388712+05:30"},{"city":"Tirupur","state":"Tamil Nadu","latitude":11.1085,"longitude":77.3411,"temp":23.7,"humidity":97,"rain":0.0,"pressure":971.7,"uv_index":9.0,"wind_gusts":31.7,"aqi":87,"pm10":42.6,"pm2_5":37.4,"no2":37.2,"co":294.0,"o3":25.0,"so2":8.0,"mosquito_risk":3,"arthritis_risk":5,"migraine_risk":7,"frizz_risk":1,"updated_at":"2026-05-12T04:27:26.388720+05:30"},{"city":"Alappuzha","state":"Kerala","latitude":9.4981,"longitude":76.3388,"temp":26.1,"humidity":96,"rain":0.0,"pressure":1005.2,"uv_index":8.55,"wind_gusts":34.2,"aqi":63,"pm10":31.9,"pm2_5":27.5,"no2":14.1,"co":366.0,"o3":61.0,"so2":4.7,"mosquito_risk":7,"arthritis_risk":5,"migraine_risk":4,"frizz_risk":1,"updated_at":"2026-05-12T04:27:26.388729+05:30"},{"city":"Munnar","state":"Kerala","latitude":10.0889,"longitude":77.0595,"temp":15.8,"humidity":82,"rain":0.0,"pressure":852.1,"uv_index":8.4,"wind_gusts":19.1,"aqi":72,"pm10":30.6,"pm2_5":28.3,"no2":11.2,"co":231.0,"o3":36.0,"so2":0.3,"mosquito_risk":3,"arthritis_risk":10,"migraine_risk":7,"frizz_risk":0,"updated_at":"2026-05-12T04:27:26.388737+05:30"},{"city":"Silchar","state":"Assam","latitude":24.8333,"longitude":92.7789,"temp":21.5,"humidity":95,"rain":0.0,"pressure":1006.0,"uv_index":8.85,"wind_gusts":22.3,"aqi":102,"pm10":46.4,"pm2_5":41.6,"no2":13.0,"co":548.0,"o3":77.0,"so2":5.9,"mosquito_risk":3,"arthritis_risk":5,"migraine_risk":4,"frizz_risk":1,"updated_at":"2026-05-12T04:27:26.388743+05:30"},{"city":"Dibrugarh","state":"Assam","latitude":27.4728,"longitude":94.912,"temp":19.4,"humidity":97,"rain":0.0,"pressure":997.5,"uv_index":8.75,"wind_gusts":19.4,"aqi":79,"pm10":43.3,"pm2_5":40.2,"no2":33.2,"co":517.0,"o3":16.0,"so2":1.3,"mosquito_risk":3,"arthritis_risk":10,"migraine_risk":7,"frizz_risk":1,"updated_at":"2026-05-12T04:27:26.388750+05:30"}]