[{"city":"Delhi","state":"Delhi","latitude":28.6139,"longitude":77.209,"temp":37.3,"humidity":28,"rain":0.0,"pressure":982.5,"uv_index":7.4,"wind_gusts":28.1,"aqi":153,"pm10":147.6,"pm2_5":50.8,"mosquito_risk":0,"arthritis_risk":5,"migraine_risk":10,"frizz_risk":0,"updated_at":"2026-04-24T11:09:09.484333+05:30"},{"city":"Mumbai","state":"Maharashtra","latitude":19.076,"longitude":72.8777,"temp":30.1,"humidity":74,"rain":0.0,"pressure":1008.0,"uv_index":8.05,"wind_gusts":23.0,"aqi":79,"pm10":38.1,"pm2_5":27.1,"mosquito_risk":3,"arthritis_risk":0,"migraine_risk":4,"frizz_risk":1,"updated_at":"2026-04-24T11:09:09.484383+05:30"},{"city":"Bangalore","state":"Karnataka","latitude":12.9716,"longitude":77.5946,"temp":32.0,"humidity":39,"rain":0.0,"pressure":912.7,"uv_index":9.6,"wind_gusts":32.8,"aqi":81,"pm10":26.0,"pm2_5":22.0,"mosquito_risk":0,"arthritis_risk":5,"migraine_risk":7,"frizz_risk":1,"updated_at":"2026-04-24T11:09:09.484399+05:30"},{"city":"Hyderabad","state":"Telangana","latitude":17.385,"longitude":78.4867,"temp":36.9,"humidity":32,"rain":0.0,"pressure":954.1,"uv_index":9.25,"wind_gusts":32.0,"aqi":123,"pm10":44.9,"pm2_5":35.3,"mosquito_risk":0,"arthritis_risk":5,"migraine_risk":10,"frizz_risk":1,"updated_at":"2026-04-24T11:09:09.484409+05:30"},{"city":"Chennai","state":"Tamil Nadu","latitude":13.0827,"longitude":80.2707,"temp":34.9,"humidity":52,"rain":0.0,"pressure":1006.9,"uv_index":8.85,"wind_gusts":33.8,"aqi":31,"pm10":11.3,"pm2_5":8.0,"mosquito_risk":0,"arthritis_risk":5,"migraine_risk":4,"frizz_risk":1,"updated_at":"2026-04-24T11:09:09.484418+05:30"},{"city":"Kolkata","state":"West Bengal","latitude":22.5726,"longitude":88.3639,"temp":33.9,"humidity":68,"rain":0.0,"pressure":1005.7,"uv_index":8.9,"wind_gusts":24.8,"aqi":93,"pm10":29.7,"pm2_5":24.3,"mosquito_risk":3,"arthritis_risk":5,"migraine_risk":4,"frizz_risk":1,"updated_at":"2026-04-24T11:09:09.484431+05:30"},{"city":"Pune","state":"Maharashtra","latitude":18.5204,"longitude":73.8567,"temp":37.1,"humidity":27,"rain":0.0,"pressure":949.6,"uv_index":8.65,"wind_gusts":43.2,"aqi":112,"pm10":27.3,"pm2_5":23.9,"mosquito_risk":0,"arthritis_risk":5,"migraine_risk":10,"frizz_risk":0,"updated_at":"2026-04-24T11:09:09.484439+05:30"},{"city":"Ahmedabad","state":"Gujarat","latitude":23.0225,"longitude":72.5714,"temp":35.7,"humidity":41,"rain":0.0,"pressure":1002.4,"uv_index":8.2,"wind_gusts":22.0,"aqi":48,"pm10":26.8,"pm2_5":10.9,"mosquito_risk":0,"arthritis_risk":5,"migraine_risk":7,"frizz_risk":1,"updated_at":"2026-04-24T11:09:09.484447+05:30"},{"city":"Jaipur","state":"Rajasthan","latitude":26.9124,"longitude":75.7873,"temp":38.3,"humidity":22,"rain":0.0,"pressure":960.7,"uv_index":8.05,"wind_gusts":26.6,"aqi":76,"pm10":210.5,"pm2_5":26.8,"mosquito_risk":0,"arthritis_risk":5,"migraine_risk":10,"frizz_risk":0,"updated_at":"2026-04-24T11:09:09.484455+05:30"},{"city":"Lucknow","state":"Uttar Pradesh","latitude":26.8467,"longitude":80.9462,"temp":37.6,"humidity":24,"rain":0.0,"pressure":993.0,"uv_index":7.9,"wind_gusts":25.9,"aqi":147,"pm10":88.0,"pm2_5":28.4,"mosquito_risk":0,"arthritis_risk":5,"migraine_risk":10,"frizz_risk":0,"updated_at":"2026-04-24T11:09:09.484463+05:30"},{"city":"Kanpur","state":"Uttar Pradesh","latitude":26.4499,"longitude":80.3319,"temp":37.0,"humidity":31,"rain":0.0,"pressure":991.2,"uv_index":7.95,"wind_gusts":24.1,"aqi":192,"pm10":202.1,"pm2_5":31.4,"mosquito_risk":0,"arthritis_risk":5,"migraine_risk":10,"frizz_risk":1,"updated_at":"2026-04-24T11:09:09.484472+05:30"},{"city":"Chandigarh","state":"Chandigarh","latitude":30.7333,"longitude":76.7794,"temp":35.5,"humidity":35,"rain":0.0,"pressure":968.7,"uv_index":7.4,"wind_gusts":29.5,"aqi":70,"pm10":39.1,"pm2_5":18.9,"mosquito_risk":0,"arthritis_risk":5,"migraine_risk":10,"frizz_risk":1,"updated_at":"2026-04-24T11:09:09.484479+05:30"},{"city":"Srinagar","state":"Jammu and Kashmir","latitude":34.0837,"longitude":74.7973,"temp":21.7,"humidity":55,"rain":0.0,"pressure":846.4,"uv_index":8.6,"wind_gusts":33.5,"aqi":77,"pm10":34.5,"pm2_5":16.9,"mosquito_risk":0,"arthritis_risk":5,"migraine_risk":7,"frizz_risk":0,"updated_at":"2026-04-24T11:09:09.484487+05:30"},{"city":"Jammu","state":"Jammu and Kashmir","latitude":32.7266,"longitude":74.857,"temp":35.9,"humidity":34,"rain":0.0,"pressure":972.3,"uv_index":8.15,"wind_gusts":34.6,"aqi":71,"pm10":36.6,"pm2_5":17.4,"mosquito_risk":0,"arthritis_risk":5,"migraine_risk":10,"frizz_risk":1,"updated_at":"2026-04-24T11:09:09.484495+05:30"},{"city":"Amritsar","state":"Punjab","latitude":31.634,"longitude":74.8723,"temp":37.3,"humidity":33,"rain":0.0,"pressure":980.5,"uv_index":8.1,"wind_gusts":29.5,"aqi":84,"pm10":56.5,"pm2_5":25.4,"mosquito_risk":0,"arthritis_risk":5,"migraine_risk":10,"frizz_risk":1,"updated_at":"2026-04-24T11:09:09.484503+05:30"},{"city":"Ludhiana","state":"Punjab","latitude":30.901,"longitude":75.8573,"temp":37.9,"humidity":30,"rain":0.0,"pressure":978.2,"uv_index":7.7,"wind_gusts":32.8,"aqi":81,"pm10":47.3,"pm2_5":25.8,"mosquito_risk":0,"arthritis_risk":5,"migraine_risk":10,"frizz_risk":1,"updated_at":"2026-04-24T11:09:09.484512+05:30"},{"city":"Jalandhar","state":"Punjab","latitude":31.326,"longitude":75.5762,"temp":37.4,"humidity":31,"rain":0.0,"pressure":979.3,"uv_index":7.85,"wind_gusts":33.5,"aqi":89,"pm10":66.8,"pm2_5":28.6,"mosquito_risk":0,"arthritis_risk":5,"migraine_risk":10,"frizz_risk":1,"updated_at":"2026-04-24T11:09:09.484519+05:30"},{"city":"Dehradun","state":"Uttarakhand","latitude":30.6284,"longitude":78.0322,"temp":27.7,"humidity":32,"rain":0.0,"pressure":835.0,"uv_index":7.85,"wind_gusts":37.8,"aqi":53,"pm10":20.1,"pm2_5":11.7,"mosquito_risk":4,"arthritis_risk":5,"migraine_risk":7,"frizz_risk":0,"updated_at":"2026-04-24T11:09:09.484526+05:30"},{"city":"Shimla","state":"Himachal Pradesh","latitude":31.1048,"longitude":77.1734,"temp":26.5,"humidity":30,"rain":0.0,"pressure":791.1,"uv_index":7.9,"wind_gusts":45.4,"aqi":56,"pm10":20.5,"pm2_5":9.1,"mosquito_risk":4,"arthritis_risk":5,"migraine_risk":7,"frizz_risk":0,"updated_at":"2026-04-24T11:09:09.484533+05:30"},{"city":"Manali","state":"Himachal Pradesh","latitude":32.2396,"longitude":77.1887,"temp":27.4,"humidity":28,"rain":0.0,"pressure":826.8,"uv_index":9.95,"wind_gusts":33.1,"aqi":81,"pm10":18.0,"pm2_5":9.9,"mosquito_risk":4,"arthritis_risk":5,"migraine_risk":7,"frizz_risk":0,"updated_at":"2026-04-24T11:09:09.484540+05:30"},{"city":"Gurgaon","state":"Haryana","latitude":28.4595,"longitude":77.0266,"temp":37.1,"humidity":32,"rain":0.0,"pressure":981.1,"uv_index":7.5,"wind_gusts":23.8,"aqi":476,"pm10":523.4,"pm2_5":94.5,"mosquito_risk":0,"arthritis_risk":5,"migraine_risk":10,"frizz_risk":1,"updated_at":"2026-04-24T11:09:09.484547+05:30"},{"city":"Noida","state":"Uttar Pradesh","latitude":28.5355,"longitude":77.391,"temp":38.1,"humidity":26,"rain":0.0,"pressure":983.9,"uv_index":7.45,"wind_gusts":28.8,"aqi":476,"pm10":523.4,"pm2_5":94.5,"mosquito_risk":0,"arthritis_risk":5,"migraine_risk":10,"frizz_risk":0,"updated_at":"2026-04-24T11:09:09.484553+05:30"},{"city":"Ghaziabad","state":"Uttar Pradesh","latitude":28.6692,"longitude":77.4538,"temp":37.2,"humidity":31,"rain":0.0,"pressure":982.1,"uv_index":7.4,"wind_gusts":27.4,"aqi":152,"pm10":111.8,"pm2_5":40.2,"mosquito_risk":0,"arthritis_risk":5,"migraine_risk":10,"frizz_risk":1,"updated_at":"2026-04-24T11:09:09.484560+05:30"},{"city":"Faridabad","state":"Haryana","latitude":28.4089,"longitude":77.3178,"temp":39.0,"humidity":22,"rain":0.0,"pressure":983.4,"uv_index":7.5,"wind_gusts":28.4,"aqi":476,"pm10":523.4,"pm2_5":94.5,"mosquito_risk":0,"arthritis_risk":5,"migraine_risk":10,"frizz_risk":0,"updated_at":"2026-04-24T11:09:09.484566+05:30"},{"city":"Meerut","state":"Uttar Pradesh","latitude":28.9845,"longitude":77.7064,"temp":37.7,"humidity":32,"rain":0.0,"pressure":980.8,"uv_index":7.35,"wind_gusts":31.7,"aqi":152,"pm10":111.8,"pm2_5":40.2,"mosquito_risk":0,"arthritis_risk":5,"migraine_risk":10,"frizz_risk":1,"updated_at":"2026-04-24T11:09:09.484573+05:30"},{"city":"Agra","state":"Uttar Pradesh","latitude":27.1767,"longitude":78.0081,"temp":39.3,"humidity":23,"rain":0.0,"pressure":987.3,"uv_index":7.8,"wind_gusts":28.1,"aqi":506,"pm10":577.4,"pm2_5":68.5,"mosquito_risk":0,"arthritis_risk":5,"migraine_risk":10,"frizz_risk":0,"updated_at":"2026-04-24T11:09:09.484582+05:30"},{"city":"Varanasi","state":"Uttar Pradesh","latitude":25.3176,"longitude":82.9739,"temp":40.0,"humidity":20,"rain":0.0,"pressure":996.9,"uv_index":8.5,"wind_gusts":27.0,"aqi":150,"pm10":289.6,"pm2_5":45.1,"mosquito_risk":0,"arthritis_risk":5,"migraine_risk":10,"frizz_risk":0,"updated_at":"2026-04-24T11:09:09.484589+05:30"},{"city":"Prayagraj","state":"Uttar Pradesh","latitude":25.4358,"longitude":81.8463,"temp":40.7,"humidity":18,"rain":0.0,"pressure":995.1,"uv_index":8.35,"wind_gusts":22.0,"aqi":151,"pm10":249.6,"pm2_5":44.2,"mosquito_risk":0,"arthritis_risk":5,"migraine_risk":10,"frizz_risk":0,"updated_at":"2026-04-24T11:09:09.484595+05:30"},{"city":"Gorakhpur","state":"Uttar Pradesh","latitude":26.7606,"longitude":83.3732,"temp":36.0,"humidity":49,"rain":0.0,"pressure":996.6,"uv_index":8.3,"wind_gusts":24.1,"aqi":119,"pm10":122.9,"pm2_5":56.9,"mosquito_risk":0,"arthritis_risk":5,"migraine_risk":10,"frizz_risk":1,"updated_at":"2026-04-24T11:09:09.484604+05:30"},{"city":"Bareilly","state":"Uttar Pradesh","latitude":28.367,"longitude":79.4304,"temp":37.1,"humidity":33,"rain":0.0,"pressure":985.9,"uv_index":7.65,"wind_gusts":28.4,"aqi":118,"pm10":187.7,"pm2_5":54.2,"mosquito_risk":0,"arthritis_risk":5,"migraine_risk":10,"frizz_risk":1,"updated_at":"2026-04-24T11:09:09.484610+05:30"},{"city":"Aligarh","state":"Uttar Pradesh","latitude":27.8974,"longitude":78.088,"temp":39.0,"humidity":22,"rain":0.0,"pressure":985.0,"uv_index":7.6,"wind_gusts":27.4,"aqi":328,"pm10":395.8,"pm2_5":76.8,"mosquito_risk":0,"arthritis_risk":5,"migraine_risk":10,"frizz_risk":0,"updated_at":"2026-04-24T11:09:09.484617+05:30"},{"city":"Moradabad","state":"Uttar Pradesh","latitude":28.8386,"longitude":78.7733,"temp":37.2,"humidity":31,"rain":0.0,"pressure":982.9,"uv_index":7.5,"wind_gusts":31.3,"aqi":152,"pm10":206.3,"pm2_5":63.3,"mosquito_risk":0,"arthritis_risk":5,"migraine_risk":10,"frizz_risk":1,"updated_at":"2026-04-24T11:09:09.484623+05:30"},{"city":"Saharanpur","state":"Uttar Pradesh","latitude":29.9637,"longitude":77.546,"temp":35.5,"humidity":37,"rain":0.0,"pressure":975.3,"uv_index":7.15,"wind_gusts":27.0,"aqi":102,"pm10":42.6,"pm2_5":28.2,"mosquito_risk":0,"arthritis_risk":5,"migraine_risk":10,"frizz_risk":1,"updated_at":"2026-04-24T11:09:09.484629+05:30"},{"city":"Jhansi","state":"Uttar Pradesh","latitude":25.4484,"longitude":78.5685,"temp":39.5,"humidity":18,"rain":0.0,"pressure":978.0,"uv_index":8.3,"wind_gusts":32.4,"aqi":49,"pm10":11.9,"pm2_5":7.2,"mosquito_risk":0,"arthritis_risk":5,"migraine_risk":10,"frizz_risk":0,"updated_at":"2026-04-24T11:09:12.694494+05:30"},{"city":"Surat","state":"Gujarat","latitude":21.1702,"longitude":72.8311,"temp":33.3,"humidity":41,"rain":0.0,"pressure":1007.3,"uv_index":7.9,"wind_gusts":22.7,"aqi":99,"pm10":42.5,"pm2_5":30.3,"mosquito_risk":0,"arthritis_risk":5,"migraine_risk":4,"frizz_risk":1,"updated_at":"2026-04-24T11:09:12.694527+05:30"},{"city":"Vadodara","state":"Gujarat","latitude":22.3072,"longitude":73.1812,"temp":36.4,"humidity":32,"rain":0.0,"pressure":1004.7,"uv_index":8.15,"wind_gusts":24.8,"aqi":76,"pm10":31.3,"pm2_5":14.8,"mosquito_risk":0,"arthritis_risk":5,"migraine_risk":7,"frizz_risk":1,"updated_at":"2026-04-24T11:09:12.694539+05:30"},{"city":"Rajkot","state":"Gujarat","latitude":22.3039,"longitude":70.8022,"temp":34.2,"humidity":42,"rain":0.0,"pressure":995.3,"uv_index":7.9,"wind_gusts":31.3,"aqi":30,"pm10":23.2,"pm2_5":9.6,"mosquito_risk":0,"arthritis_risk":5,"migraine_risk":7,"frizz_risk":1,"updated_at":"2026-04-24T11:09:12.694548+05:30"},{"city":"Thane","state":"Maharashtra","latitude":19.2183,"longitude":72.9781,"temp":35.0,"humidity":45,"rain":0.0,"pressure":1007.6,"uv_index":8.05,"wind_gusts":37.4,"aqi":79,"pm10":38.1,"pm2_5":27.1,"mosquito_risk":0,"arthritis_risk":5,"migraine_risk":4,"frizz_risk":1,"updated_at":"2026-04-24T11:09:12.694557+05:30"},{"city":"Nagpur","state":"Maharashtra","latitude":21.1458,"longitude":79.0882,"temp":39.0,"humidity":20,"rain":0.0,"pressure":973.5,"uv_index":8.7,"wind_gusts":29.2,"aqi":113,"pm10":17.4,"pm2_5":15.6,"mosquito_risk":0,"arthritis_risk":5,"migraine_risk":10,"frizz_risk":0,"updated_at":"2026-04-24T11:09:12.694566+05:30"},{"city":"Nashik","state":"Maharashtra","latitude":19.9975,"longitude":73.7898,"temp":34.7,"humidity":32,"rain":0.0,"pressure":947.3,"uv_index":8.35,"wind_gusts":33.1,"aqi":79,"pm10":28.6,"pm2_5":20.1,"mosquito_risk":0,"arthritis_risk":5,"migraine_risk":7,"frizz_risk":0,"updated_at":"2026-04-24T11:09:12.694574+05:30"},{"city":"Aurangabad","state":"Maharashtra","latitude":19.8762,"longitude":75.3433,"temp":37.3,"humidity":20,"rain":0.0,"pressure":945.6,"uv_index":9.1,"wind_gusts":36.0,"aqi":85,"pm10":14.6,"pm2_5":11.4,"mosquito_risk":0,"arthritis_risk":5,"migraine_risk":10,"frizz_risk":0,"updated_at":"2026-04-24T11:09:12.694582+05:30"},{"city":"Solapur","state":"Maharashtra","latitude":17.6599,"longitude":75.9064,"temp":35.6,"humidity":37,"rain":0.0,"pressure":957.7,"uv_index":9.05,"wind_gusts":29.9,"aqi":105,"pm10":46.2,"pm2_5":38.6,"mosquito_risk":0,"arthritis_risk":5,"migraine_risk":10,"frizz_risk":1,"updated_at":"2026-04-24T11:09:12.694591+05:30"},{"city":"Kolhapur","state":"Maharashtra","latitude":16.705,"longitude":74.2433,"temp":34.3,"humidity":40,"rain":0.0,"pressure":948.8,"uv_index":9.05,"wind_gusts":31.7,"aqi":134,"pm10":48.9,"pm2_5":42.6,"mosquito_risk":0,"arthritis_risk":5,"migraine_risk":7,"frizz_risk":1,"updated_at":"2026-04-24T11:09:12.694600+05:30"},{"city":"Goa","state":"Goa","latitude":15.2993,"longitude":74.124,"temp":32.8,"humidity":68,"rain":0.0,"pressure":997.4,"uv_index":9.0,"wind_gusts":31.0,"aqi":78,"pm10":35.3,"pm2_5":26.8,"mosquito_risk":3,"arthritis_risk":5,"migraine_risk":7,"frizz_risk":1,"updated_at":"2026-04-24T11:09:12.694608+05:30"},{"city":"Jodhpur","state":"Rajasthan","latitude":26.2389,"longitude":73.0243,"temp":38.3,"humidity":32,"rain":0.0,"pressure":983.2,"uv_index":8.25,"wind_gusts":24.5,"aqi":53,"pm10":125.7,"pm2_5":26.4,"mosquito_risk":0,"arthritis_risk":5,"migraine_risk":10,"frizz_risk":1,"updated_at":"2026-04-24T11:09:12.694616+05:30"},{"city":"Udaipur","state":"Rajasthan","latitude":24.5854,"longitude":73.7125,"temp":36.0,"humidity":31,"rain":0.0,"pressure":948.2,"uv_index":8.8,"wind_gusts":36.4,"aqi":47,"pm10":36.4,"pm2_5":8.9,"mosquito_risk":0,"arthritis_risk":5,"migraine_risk":10,"frizz_risk":1,"updated_at":"2026-04-24T11:09:12.694624+05:30"},{"city":"Kota","state":"Rajasthan","latitude":25.2138,"longitude":75.8648,"temp":39.8,"humidity":19,"rain":0.0,"pressure":979.0,"uv_index":8.3,"wind_gusts":20.2,"aqi":48,"pm10":26.0,"pm2_5":10.2,"mosquito_risk":0,"arthritis_risk":5,"migraine_risk":10,"frizz_risk":0,"updated_at":"2026-04-24T11:09:12.694633+05:30"},{"city":"Bikaner","state":"Rajasthan","latitude":28.0229,"longitude":73.3119,"temp":39.3,"humidity":20,"rain":0.0,"pressure":981.8,"uv_index":7.7,"wind_gusts":21.2,"aqi":56,"pm10":84.1,"pm2_5":19.6,"mosquito_risk":0,"arthritis_risk":5,"migraine_risk":10,"frizz_risk":0,"updated_at":"2026-04-24T11:09:12.694640+05:30"},{"city":"Ajmer","state":"Rajasthan","latitude":26.4499,"longitude":74.6399,"temp":36.1,"humidity":32,"rain":0.0,"pressure":956.1,"uv_index":8.25,"wind_gusts":28.1,"aqi":35,"pm10":49.9,"pm2_5":10.6,"mosquito_risk":0,"arthritis_risk":5,"migraine_risk":10,"frizz_risk":1,"updated_at":"2026-04-24T11:09:12.694648+05:30"},{"city":"Gwalior","state":"Madhya Pradesh","latitude":26.2183,"longitude":78.1828,"temp":39.2,"humidity":20,"rain":0.0,"pressure":983.3,"uv_index":8.05,"wind_gusts":28.8,"aqi":37,"pm10":20.1,"pm2_5":7.0,"mosquito_risk":0,"arthritis_risk":5,"migraine_risk":10,"frizz_risk":0,"updated_at":"2026-04-24T11:09:12.694657+05:30"},{"city":"Indore","state":"Madhya Pradesh","latitude":22.7196,"longitude":75.8577,"temp":36.7,"humidity":21,"rain":0.0,"pressure":949.7,"uv_index":8.65,"wind_gusts":36.0,"aqi":58,"pm10":24.4,"pm2_5":8.5,"mosquito_risk":0,"arthritis_risk":5,"migraine_risk":10,"frizz_risk":0,"updated_at":"2026-04-24T11:09:12.694665+05:30"},{"city":"Bhopal","state":"Madhya Pradesh","latitude":23.2599,"longitude":77.4126,"temp":37.2,"humidity":17,"rain":0.0,"pressure":955.3,"uv_index":8.65,"wind_gusts":30.6,"aqi":60,"pm10":32.7,"pm2_5":10.9,"mosquito_risk":0,"arthritis_risk":5,"migraine_risk":10,"frizz_risk":0,"updated_at":"2026-04-24T11:09:12.694673+05:30"},{"city":"Jabalpur","state":"Madhya Pradesh","latitude":23.1815,"longitude":79.9864,"temp":36.7,"humidity":27,"rain":0.0,"pressure":962.5,"uv_index":8.8,"wind_gusts":21.6,"aqi":68,"pm10":17.8,"pm2_5":15.1,"mosquito_risk":0,"arthritis_risk":5,"migraine_risk":10,"frizz_risk":0,"updated_at":"2026-04-24T11:09:12.694681+05:30"},{"city":"Ujjain","state":"Madhya Pradesh","latitude":23.1765,"longitude":75.7885,"temp":37.0,"humidity":22,"rain":0.0,"pressure":955.2,"uv_index":8.55,"wind_gusts":35.6,"aqi":58,"pm10":34.2,"pm2_5":10.6,"mosquito_risk":0,"arthritis_risk":5,"migraine_risk":10,"frizz_risk":0,"updated_at":"2026-04-24T11:09:12.694690+05:30"},{"city":"Visakhapatnam","state":"Andhra Pradesh","latitude":17.6868,"longitude":83.2185,"temp":33.4,"humidity":61,"rain":0.0,"pressure":1003.1,"uv_index":9.15,"wind_gusts":39.6,"aqi":63,"pm10":23.5,"pm2_5":19.2,"mosquito_risk":3,"arthritis_risk":5,"migraine_risk":4,"frizz_risk":1,"updated_at":"2026-04-24T11:09:12.694698+05:30"},{"city":"Vijayawada","state":"Andhra Pradesh","latitude":16.5062,"longitude":80.648,"temp":34.8,"humidity":54,"rain":0.0,"pressure":1002.1,"uv_index":9.0,"wind_gusts":29.5,"aqi":53,"pm10":16.9,"pm2_5":12.2,"mosquito_risk":0,"arthritis_risk":5,"migraine_risk":4,"frizz_risk":1,"updated_at":"2026-04-24T11:09:12.694706+05:30"},{"city":"Guntur","state":"Andhra Pradesh","latitude":16.3067,"longitude":80.4365,"temp":35.4,"humidity":54,"rain":0.0,"pressure":1003.3,"uv_index":9.0,"wind_gusts":32.4,"aqi":54,"pm10":15.1,"pm2_5":11.6,"mosquito_risk":0,"arthritis_risk":5,"migraine_risk":7,"frizz_risk":1,"updated_at":"2026-04-24T11:09:12.694714+05:30"},{"city":"Nellore","state":"Andhra Pradesh","latitude":14.4426,"longitude":79.9865,"temp":36.5,"humidity":42,"rain":0.0,"pressure":1005.0,"uv_index":9.3,"wind_gusts":35.3,"aqi":41,"pm10":11.8,"pm2_5":10.0,"mosquito_risk":0,"arthritis_risk":5,"migraine_risk":7,"frizz_risk":1,"updated_at":"2026-04-24T11:09:12.694722+05:30"},{"city":"Kurnool","state":"Andhra Pradesh","latitude":15.8281,"longitude":78.0373,"temp":37.9,"humidity":32,"rain":0.0,"pressure":976.4,"uv_index":9.15,"wind_gusts":25.6,"aqi":85,"pm10":22.5,"pm2_5":18.3,"mosquito_risk":0,"arthritis_risk":5,"migraine_risk":10,"frizz_risk":1,"updated_at":"2026-04-24T11:09:12.694731+05:30"},{"city":"Kakinada","state":"Andhra Pradesh","latitude":16.9891,"longitude":82.2475,"temp":35.0,"humidity":57,"rain":0.0,"pressure":1006.9,"uv_index":9.05,"wind_gusts":34.2,"aqi":43,"pm10":15.2,"pm2_5":10.7,"mosquito_risk":0,"arthritis_risk":5,"migraine_risk":4,"frizz_risk":1,"updated_at":"2026-04-24T11:09:12.694739+05:30"},{"city":"Tirupati","state":"Andhra Pradesh","latitude":13.6288,"longitude":79.4192,"temp":35.0,"humidity":46,"rain":0.0,"pressure":991.7,"uv_index":9.3,"wind_gusts":34.9,"aqi":53,"pm10":15.2,"pm2_5":13.7,"mosquito_risk":0,"arthritis_risk":5,"migraine_risk":7,"frizz_risk":1,"updated_at":"2026-04-24T11:09:12.694747+05:30"},{"city":"Warangal","state":"Telangana","latitude":17.9689,"longitude":79.5941,"temp":35.8,"humidity":35,"rain":0.0,"pressure":979.0,"uv_index":9.2,"wind_gusts":20.2,"aqi":114,"pm10":29.3,"pm2_5":23.7,"mosquito_risk":0,"arthritis_risk":5,"migraine_risk":10,"frizz_risk":1,"updated_at":"2026-04-24T11:09:12.694755+05:30"},{"city":"Nizamabad","state":"Telangana","latitude":18.6725,"longitude":78.0941,"temp":35.3,"humidity":36,"rain":0.0,"pressure":965.4,"uv_index":8.85,"wind_gusts":34.9,"aqi":114,"pm10":41.7,"pm2_5":37.4,"mosquito_risk":0,"arthritis_risk":5,"migraine_risk":10,"frizz_risk":1,"updated_at":"2026-04-24T11:09:12.694762+05:30"},{"city":"Mysore","state":"Karnataka","latitude":12.2958,"longitude":76.6396,"temp":32.8,"humidity":42,"rain":0.0,"pressure":929.0,"uv_index":9.5,"wind_gusts":37.4,"aqi":94,"pm10":37.5,"pm2_5":31.5,"mosquito_risk":0,"arthritis_risk":5,"migraine_risk":7,"frizz_risk":1,"updated_at":"2026-04-24T11:09:12.694770+05:30"},{"city":"Mangalore","state":"Karnataka","latitude":12.9141,"longitude":74.856,"temp":30.3,"humidity":83,"rain":0.0,"pressure":1006.1,"uv_index":9.1,"wind_gusts":22.0,"aqi":78,"pm10":30.4,"pm2_5":23.4,"mosquito_risk":3,"arthritis_risk":5,"migraine_risk":4,"frizz_risk":1,"updated_at":"2026-04-24T11:09:12.694778+05:30"},{"city":"Hubli-Dharwad","state":"Karnataka","latitude":15.3647,"longitude":75.124,"temp":34.0,"humidity":41,"rain":0.0,"pressure":941.5,"uv_index":9.2,"wind_gusts":39.2,"aqi":97,"pm10":43.3,"pm2_5":38.0,"mosquito_risk":0,"arthritis_risk":5,"migraine_risk":7,"frizz_risk":1,"updated_at":"2026-04-24T11:09:12.694787+05:30"},{"city":"Belgaum","state":"Karnataka","latitude":15.8497,"longitude":74.4977,"temp":33.1,"humidity":41,"rain":0.0,"pressure":926.8,"uv_index":9.25,"wind_gusts":36.0,"aqi":99,"pm10":49.7,"pm2_5":42.5,"mosquito_risk":0,"arthritis_risk":5,"migraine_risk":7,"frizz_risk":1,"updated_at":"2026-04-24T11:09:15.914949+05:30"},{"city":"Coimbatore","state":"Tamil Nadu","latitude":11.0168,"longitude":76.9558,"temp":33.3,"humidity":49,"rain":0.0,"pressure":961.9,"uv_index":9.4,"wind_gusts":34.2,"aqi":89,"pm10":24.9,"pm2_5":20.5,"mosquito_risk":0,"arthritis_risk":5,"migraine_risk":7,"frizz_risk":1,"updated_at":"2026-04-24T11:09:15.914979+05:30"},{"city":"Madurai","state":"Tamil Nadu","latitude":9.9252,"longitude":78.1198,"temp":34.9,"humidity":44,"rain":0.0,"pressure":992.6,"uv_index":9.3,"wind_gusts":34.6,"aqi":51,"pm10":10.0,"pm2_5":8.8,"mosquito_risk":0,"arthritis_risk":5,"migraine_risk":7,"frizz_risk":1,"updated_at":"2026-04-24T11:09:15.914989+05:30"},{"city":"Trichy","state":"Tamil Nadu","latitude":10.7905,"longitude":78.7047,"temp":34.5,"humidity":51,"rain":0.0,"pressure":999.3,"uv_index":9.25,"wind_gusts":25.6,"aqi":49,"pm10":10.4,"pm2_5":8.8,"mosquito_risk":0,"arthritis_risk":5,"migraine_risk":7,"frizz_risk":1,"updated_at":"2026-04-24T11:09:15.914998+05:30"},{"city":"Salem","state":"Tamil Nadu","latitude":11.6643,"longitude":78.146,"temp":34.5,"humidity":49,"rain":0.0,"pressure":977.2,"uv_index":9.35,"wind_gusts":29.2,"aqi":61,"pm10":12.2,"pm2_5":10.1,"mosquito_risk":0,"arthritis_risk":5,"migraine_risk":7,"frizz_risk":1,"updated_at":"2026-04-24T11:09:15.915006+05:30"},{"city":"Tirunelveli","state":"Tamil Nadu","latitude":8.7139,"longitude":77.7567,"temp":36.1,"humidity":40,"rain":0.0,"pressure":1002.4,"uv_index":9.2,"wind_gusts":39.6,"aqi":70,"pm10":17.2,"pm2_5":14.9,"mosquito_risk":0,"arthritis_risk":5,"migraine_risk":7,"frizz_risk":1,"updated_at":"2026-04-24T11:09:15.915013+05:30"},{"city":"Vellore","state":"Tamil Nadu","latitude":12.9165,"longitude":79.1325,"temp":34.1,"humidity":46,"rain":0.0,"pressure":984.6,"uv_index":9.3,"wind_gusts":31.7,"aqi":70,"pm10":17.6,"pm2_5":16.1,"mosquito_risk":0,"arthritis_risk":5,"migraine_risk":7,"frizz_risk":1,"updated_at":"2026-04-24T11:09:15.915021+05:30"},{"city":"Erode","state":"Tamil Nadu","latitude":11.341,"longitude":77.7172,"temp":35.8,"humidity":46,"rain":0.0,"pressure":988.4,"uv_index":9.3,"wind_gusts":30.6,"aqi":50,"pm10":11.4,"pm2_5":9.6,"mosquito_risk":0,"arthritis_risk":5,"migraine_risk":10,"frizz_risk":1,"updated_at":"2026-04-24T11:09:15.915028+05:30"},{"city":"Kochi","state":"Kerala","latitude":9.9312,"longitude":76.2673,"temp":29.4,"humidity":82,"rain":0.0,"pressure":1007.9,"uv_index":8.3,"wind_gusts":29.2,"aqi":76,"pm10":19.4,"pm2_5":17.2,"mosquito_risk":7,"arthritis_risk":5,"migraine_risk":4,"frizz_risk":1,"updated_at":"2026-04-24T11:09:15.915035+05:30"},{"city":"Thiruvananthapuram","state":"Kerala","latitude":8.5241,"longitude":76.9366,"temp":28.9,"humidity":84,"rain":0.0,"pressure":1007.1,"uv_index":9.05,"wind_gusts":24.1,"aqi":66,"pm10":23.9,"pm2_5":20.3,"mosquito_risk":7,"arthritis_risk":5,"migraine_risk":4,"frizz_risk":1,"updated_at":"2026-04-24T11:09:15.915043+05:30"},{"city":"Kozhikode","state":"Kerala","latitude":11.2588,"longitude":75.7804,"temp":30.9,"humidity":75,"rain":0.0,"pressure":1007.1,"uv_index":9.1,"wind_gusts":32.0,"aqi":87,"pm10":37.6,"pm2_5":30.6,"mosquito_risk":3,"arthritis_risk":5,"migraine_risk":4,"frizz_risk":1,"updated_at":"2026-04-24T11:09:15.915050+05:30"},{"city":"Thrissur","state":"Kerala","latitude":10.5276,"longitude":76.2144,"temp":33.3,"humidity":63,"rain":0.0,"pressure":1006.3,"uv_index":9.1,"wind_gusts":34.6,"aqi":82,"pm10":24.1,"pm2_5":20.8,"mosquito_risk":3,"arthritis_risk":5,"migraine_risk":4,"frizz_risk":1,"updated_at":"2026-04-24T11:09:15.915058+05:30"},{"city":"Kannur","state":"Kerala","latitude":11.8745,"longitude":75.3704,"temp":30.9,"humidity":71,"rain":0.0,"pressure":1006.6,"uv_index":9.1,"wind_gusts":30.2,"aqi":88,"pm10":31.0,"pm2_5":24.2,"mosquito_risk":3,"arthritis_risk":5,"migraine_risk":4,"frizz_risk":1,"updated_at":"2026-04-24T11:09:15.915065+05:30"},{"city":"Patna","state":"Bihar","latitude":25.5941,"longitude":85.1376,"temp":35.6,"humidity":51,"rain":0.0,"pressure":999.9,"uv_index":8.6,"wind_gusts":25.9,"aqi":155,"pm10":118.0,"pm2_5":62.2,"mosquito_risk":0,"arthritis_risk":5,"migraine_risk":10,"frizz_risk":1,"updated_at":"2026-04-24T11:09:15.915072+05:30"},{"city":"Gaya","state":"Bihar","latitude":24.7914,"longitude":85.0002,"temp":39.8,"humidity":25,"rain":0.0,"pressure":992.8,"uv_index":8.7,"wind_gusts":24.5,"aqi":152,"pm10":219.3,"pm2_5":54.8,"mosquito_risk":0,"arthritis_risk":5,"migraine_risk":10,"frizz_risk":1,"updated_at":"2026-04-24T11:09:15.915079+05:30"},{"city":"Muzaffarpur","state":"Bihar","latitude":26.1209,"longitude":85.3647,"temp":34.4,"humidity":62,"rain":0.0,"pressure":1000.1,"uv_index":8.6,"wind_gusts":31.7,"aqi":154,"pm10":94.5,"pm2_5":61.7,"mosquito_risk":3,"arthritis_risk":5,"migraine_risk":4,"frizz_risk":1,"updated_at":"2026-04-24T11:09:15.915085+05:30"},{"city":"Bhagalpur","state":"Bihar","latitude":25.2425,"longitude":87.0117,"temp":34.2,"humidity":64,"rain":0.0,"pressure":1000.7,"uv_index":8.65,"wind_gusts":20.9,"aqi":153,"pm10":79.2,"pm2_5":63.8,"mosquito_risk":3,"arthritis_risk":5,"migraine_risk":4,"frizz_risk":1,"updated_at":"2026-04-24T11:09:15.915091+05:30"},{"city":"Ranchi","state":"Jharkhand","latitude":23.3441,"longitude":85.3096,"temp":37.4,"humidity":19,"rain":0.0,"pressure":939.4,"uv_index":9.2,"wind_gusts":29.2,"aqi":110,"pm10":208.2,"pm2_5":43.5,"mosquito_risk":0,"arthritis_risk":5,"migraine_risk":10,"frizz_risk":0,"updated_at":"2026-04-24T11:09:15.915132+05:30"},{"city":"Jamshedpur","state":"Jharkhand","latitude":22.8046,"longitude":86.2029,"temp":37.9,"humidity":42,"rain":0.0,"pressure":990.4,"uv_index":8.7,"wind_gusts":37.1,"aqi":150,"pm10":108.0,"pm2_5":62.9,"mosquito_risk":0,"arthritis_risk":5,"migraine_risk":10,"frizz_risk":1,"updated_at":"2026-04-24T11:09:15.915141+05:30"},{"city":"Dhanbad","state":"Jharkhand","latitude":23.7957,"longitude":86.4304,"temp":39.3,"humidity":29,"rain":0.0,"pressure":979.7,"uv_index":8.95,"wind_gusts":35.3,"aqi":161,"pm10":198.4,"pm2_5":91.3,"mosquito_risk":0,"arthritis_risk":5,"migraine_risk":10,"frizz_risk":1,"updated_at":"2026-04-24T11:09:15.915148+05:30"},{"city":"Bokaro","state":"Jharkhand","latitude":23.6693,"longitude":86.1511,"temp":38.5,"humidity":28,"rain":0.0,"pressure":983.8,"uv_index":8.95,"wind_gusts":22.7,"aqi":160,"pm10":230.5,"pm2_5":80.1,"mosquito_risk":0,"arthritis_risk":5,"migraine_risk":10,"frizz_risk":1,"updated_at":"2026-04-24T11:09:15.915154+05:30"},{"city":"Bhubaneswar","state":"Odisha","latitude":20.2961,"longitude":85.8245,"temp":34.4,"humidity":64,"rain":0.0,"pressure":1002.1,"uv_index":9.15,"wind_gusts":37.8,"aqi":83,"pm10":32.2,"pm2_5":26.4,"mosquito_risk":3,"arthritis_risk":5,"migraine_risk":4,"frizz_risk":1,"updated_at":"2026-04-24T11:09:15.915161+05:30"},{"city":"Cuttack","state":"Odisha","latitude":20.4625,"longitude":85.8828,"temp":36.5,"humidity":55,"rain":0.0,"pressure":1003.8,"uv_index":9.15,"wind_gusts":34.6,"aqi":83,"pm10":32.2,"pm2_5":26.4,"mosquito_risk":0,"arthritis_risk":5,"migraine_risk":7,"frizz_risk":1,"updated_at":"2026-04-24T11:09:15.915167+05:30"},{"city":"Rourkela","state":"Odisha","latitude":22.2604,"longitude":84.8536,"temp":38.3,"humidity":32,"rain":0.0,"pressure":985.0,"uv_index":8.95,"wind_gusts":42.8,"aqi":115,"pm10":190.0,"pm2_5":56.6,"mosquito_risk":0,"arthritis_risk":5,"migraine_risk":10,"frizz_risk":1,"updated_at":"2026-04-24T11:09:15.915174+05:30"},{"city":"Raipur","state":"Chhattisgarh","latitude":21.2514,"longitude":81.6296,"temp":38.9,"humidity":29,"rain":0.0,"pressure":974.8,"uv_index":8.95,"wind_gusts":27.4,"aqi":105,"pm10":39.7,"pm2_5":37.7,"mosquito_risk":0,"arthritis_risk":5,"migraine_risk":10,"frizz_risk":1,"updated_at":"2026-04-24T11:09:15.915180+05:30"},{"city":"Bhilai","state":"Chhattisgarh","latitude":21.1938,"longitude":81.3509,"temp":38.1,"humidity":33,"rain":0.0,"pressure":975.1,"uv_index":8.8,"wind_gusts":24.1,"aqi":112,"pm10":35.5,"pm2_5":33.3,"mosquito_risk":0,"arthritis_risk":5,"migraine_risk":10,"frizz_risk":1,"updated_at":"2026-04-24T11:09:15.915186+05:30"},{"city":"Guwahati","state":"Assam","latitude":26.1158,"longitude":91.7086,"temp":32.7,"humidity":62,"rain":0.0,"pressure":1001.7,"uv_index":8.55,"wind_gusts":24.8,"aqi":147,"pm10":97.1,"pm2_5":50.1,"mosquito_risk":3,"arthritis_risk":5,"migraine_risk":4,"frizz_risk":1,"updated_at":"2026-04-24T11:09:15.915192+05:30"},{"city":"Agartala","state":"Tripura","latitude":23.8315,"longitude":91.2868,"temp":34.0,"humidity":60,"rain":0.0,"pressure":1006.1,"uv_index":8.6,"wind_gusts":21.2,"aqi":115,"pm10":65.4,"pm2_5":33.3,"mosquito_risk":0,"arthritis_risk":5,"migraine_risk":4,"frizz_risk":1,"updated_at":"2026-04-24T11:09:15.915199+05:30"},{"city":"Shillong","state":"Meghalaya","latitude":25.5788,"longitude":91.8933,"temp":24.1,"humidity":47,"rain":0.0,"pressure":860.0,"uv_index":6.3,"wind_gusts":27.0,"aqi":123,"pm10":112.7,"pm2_5":41.8,"mosquito_risk":0,"arthritis_risk":5,"migraine_risk":7,"frizz_risk":0,"updated_at":"2026-04-24T11:09:15.915206+05:30"},{"city":"Imphal","state":"Manipur","latitude":24.817,"longitude":93.9368,"temp":27.1,"humidity":57,"rain":0.0,"pressure":925.2,"uv_index":9.1,"wind_gusts":38.2,"aqi":151,"pm10":133.2,"pm2_5":39.0,"mosquito_risk":4,"arthritis_risk":5,"migraine_risk":7,"frizz_risk":1,"updated_at":"2026-04-24T11:09:15.915212+05:30"},{"city":"Aizawl","state":"Mizoram","latitude":23.7271,"longitude":92.7176,"temp":29.9,"humidity":47,"rain":0.0,"pressure":895.6,"uv_index":8.4,"wind_gusts":32.4,"aqi":122,"pm10":135.0,"pm2_5":36.1,"mosquito_risk":4,"arthritis_risk":5,"migraine_risk":7,"frizz_risk":1,"updated_at":"2026-04-24T11:09:15.915219+05:30"},{"city":"Kohima","state":"Nagaland","latitude":25.6701,"longitude":94.1077,"temp":23.3,"humidity":62,"rain":0.0,"pressure":858.5,"uv_index":8.55,"wind_gusts":42.5,"aqi":127,"pm10":94.5,"pm2_5":39.2,"mosquito_risk":3,"arthritis_risk":5,"migraine_risk":7,"frizz_risk":0,"updated_at":"2026-04-24T11:09:15.915226+05:30"},{"city":"Gangtok","state":"Sikkim","latitude":27.3314,"longitude":88.6138,"temp":22.8,"humidity":74,"rain":0.0,"pressure":841.5,"uv_index":8.25,"wind_gusts":24.1,"aqi":102,"pm10":56.9,"pm2_5":35.5,"mosquito_risk":3,"arthritis_risk":5,"migraine_risk":7,"frizz_risk":1,"updated_at":"2026-04-24T11:09:15.915232+05:30"},{"city":"Siliguri","state":"West Bengal","latitude":26.7271,"longitude":88.3953,"temp":27.0,"humidity":75,"rain":0.0,"pressure":995.5,"uv_index":8.45,"wind_gusts":18.4,"aqi":152,"pm10":101.7,"pm2_5":56.8,"mosquito_risk":7,"arthritis_risk":5,"migraine_risk":7,"frizz_risk":1,"updated_at":"2026-04-24T11:09:19.133011+05:30"},{"city":"Durgapur","state":"West Bengal","latitude":23.5204,"longitude":87.3119,"temp":36.5,"humidity":55,"rain":0.0,"pressure":994.8,"uv_index":8.45,"wind_gusts":36.7,"aqi":152,"pm10":89.6,"pm2_5":62.9,"mosquito_risk":0,"arthritis_risk":5,"migraine_risk":10,"frizz_risk":1,"updated_at":"2026-04-24T11:09:19.133038+05:30"},{"city":"Asansol","state":"West Bengal","latitude":23.6739,"longitude":86.9524,"temp":37.7,"humidity":49,"rain":0.0,"pressure":993.1,"uv_index":8.95,"wind_gusts":44.3,"aqi":151,"pm10":116.2,"pm2_5":71.7,"mosquito_risk":0,"arthritis_risk":5,"migraine_risk":10,"frizz_risk":1,"updated_at":"2026-04-24T11:09:19.133047+05:30"},{"city":"Pondicherry","state":"Puducherry","latitude":11.9139,"longitude":79.8145,"temp":34.9,"humidity":52,"rain":0.0,"pressure":1007.9,"uv_index":9.15,"wind_gusts":30.2,"aqi":26,"pm10":10.0,"pm2_5":8.2,"mosquito_risk":0,"arthritis_risk":5,"migraine_risk":4,"frizz_risk":1,"updated_at":"2026-04-24T11:09:19.133055+05:30"},{"city":"Port Blair","state":"Andaman and Nicobar Islands","latitude":11.6234,"longitude":92.7265,"temp":30.1,"humidity":71,"rain":0.0,"pressure":1006.7,"uv_index":9.15,"wind_gusts":24.1,"aqi":30,"pm10":9.3,"pm2_5":4.9,"mosquito_risk":3,"arthritis_risk":5,"migraine_risk":4,"frizz_risk":1,"updated_at":"2026-04-24T11:09:19.133062+05:30"},{"city":"Haridwar","state":"Uttarakhand","latitude":29.9457,"longitude":78.1642,"temp":37.3,"humidity":29,"rain":0.0,"pressure":974.0,"uv_index":7.2,"wind_gusts":33.5,"aqi":81,"pm10":34.2,"pm2_5":21.8,"mosquito_risk":0,"arthritis_risk":5,"migraine_risk":10,"frizz_risk":1,"updated_at":"2026-04-24T11:09:19.133070+05:30"},{"city":"Rishikesh","state":"Uttarakhand","latitude":30.0869,"longitude":78.2676,"temp":36.6,"humidity":29,"rain":0.0,"pressure":967.0,"uv_index":7.35,"wind_gusts":37.1,"aqi":70,"pm10":32.0,"pm2_5":16.1,"mosquito_risk":0,"arthritis_risk":5,"migraine_risk":10,"frizz_risk":0,"updated_at":"2026-04-24T11:09:19.133077+05:30"},{"city":"Nainital","state":"Uttarakhand","latitude":29.3919,"longitude":79.4542,"temp":29.6,"humidity":33,"rain":0.0,"pressure":811.8,"uv_index":8.2,"wind_gusts":43.6,"aqi":69,"pm10":23.3,"pm2_5":17.2,"mosquito_risk":4,"arthritis_risk":5,"migraine_risk":7,"frizz_risk":0,"updated_at":"2026-04-24T11:09:19.133084+05:30"},{"city":"Mussoorie","state":"Uttarakhand","latitude":30.4599,"longitude":78.0664,"temp":28.8,"humidity":32,"rain":0.0,"pressure":808.5,"uv_index":7.75,"wind_gusts":45.0,"aqi":71,"pm10":30.9,"pm2_5":16.1,"mosquito_risk":4,"arthritis_risk":5,"migraine_risk":7,"frizz_risk":0,"updated_at":"2026-04-24T11:09:19.133122+05:30"},{"city":"Dharamshala","state":"Himachal Pradesh","latitude":32.219,"longitude":76.3234,"temp":31.2,"humidity":30,"rain":0.0,"pressure":872.7,"uv_index":8.05,"wind_gusts":33.5,"aqi":43,"pm10":24.6,"pm2_5":7.9,"mosquito_risk":0,"arthritis_risk":5,"migraine_risk":7,"frizz_risk":0,"updated_at":"2026-04-24T11:09:19.133135+05:30"},{"city":"Dalhousie","state":"Himachal Pradesh","latitude":32.5387,"longitude":75.971,"temp":30.1,"humidity":21,"rain":0.0,"pressure":809.5,"uv_index":8.3,"wind_gusts":36.0,"aqi":60,"pm10":33.2,"pm2_5":13.2,"mosquito_risk":0,"arthritis_risk":5,"migraine_risk":7,"frizz_risk":0,"updated_at":"2026-04-24T11:09:19.133143+05:30"},{"city":"Patiala","state":"Punjab","latitude":30.3398,"longitude":76.3869,"temp":36.8,"humidity":34,"rain":0.0,"pressure":977.8,"uv_index":7.35,"wind_gusts":30.2,"aqi":160,"pm10":267.3,"pm2_5":47.4,"mosquito_risk":0,"arthritis_risk":5,"migraine_risk":10,"frizz_risk":1,"updated_at":"2026-04-24T11:09:19.133150+05:30"},{"city":"Bhatinda","state":"Punjab","latitude":30.211,"longitude":74.9455,"temp":39.5,"humidity":24,"rain":0.0,"pressure":983.2,"uv_index":8.0,"wind_gusts":36.0,"aqi":76,"pm10":67.1,"pm2_5":27.6,"mosquito_risk":0,"arthritis_risk":5,"migraine_risk":10,"frizz_risk":0,"updated_at":"2026-04-24T11:09:19.133156+05:30"},{"city":"Rohtak","state":"Haryana","latitude":28.8955,"longitude":76.6066,"temp":37.2,"humidity":30,"rain":0.0,"pressure":981.5,"uv_index":7.45,"wind_gusts":26.3,"aqi":171,"pm10":220.7,"pm2_5":61.5,"mosquito_risk":0,"arthritis_risk":5,"migraine_risk":10,"frizz_risk":1,"updated_at":"2026-04-24T11:09:19.133163+05:30"},{"city":"Panipat","state":"Haryana","latitude":29.3909,"longitude":76.9635,"temp":37.3,"humidity":36,"rain":0.0,"pressure":980.0,"uv_index":7.3,"wind_gusts":29.2,"aqi":402,"pm10":356.7,"pm2_5":70.8,"mosquito_risk":0,"arthritis_risk":5,"migraine_risk":10,"frizz_risk":1,"updated_at":"2026-04-24T11:09:19.133169+05:30"},{"city":"Mathura","state":"Uttar Pradesh","latitude":27.4924,"longitude":77.6737,"temp":38.0,"humidity":25,"rain":0.0,"pressure":986.6,"uv_index":7.75,"wind_gusts":23.0,"aqi":371,"pm10":545.8,"pm2_5":78.2,"mosquito_risk":0,"arthritis_risk":5,"migraine_risk":10,"frizz_risk":0,"updated_at":"2026-04-24T11:09:19.133176+05:30"},{"city":"Vrindavan","state":"Uttar Pradesh","latitude":27.5823,"longitude":77.7027,"temp":37.9,"humidity":25,"rain":0.0,"pressure":986.9,"uv_index":7.7,"wind_gusts":22.0,"aqi":371,"pm10":545.8,"pm2_5":78.2,"mosquito_risk":0,"arthritis_risk":5,"migraine_risk":10,"frizz_risk":0,"updated_at":"2026-04-24T11:09:19.133182+05:30"},{"city":"Ayodhya","state":"Uttar Pradesh","latitude":26.7922,"longitude":82.1998,"temp":37.8,"humidity":30,"rain":0.0,"pressure":994.8,"uv_index":8.05,"wind_gusts":23.4,"aqi":130,"pm10":239.3,"pm2_5":49.4,"mosquito_risk":0,"arthritis_risk":5,"migraine_risk":10,"frizz_risk":1,"updated_at":"2026-04-24T11:09:19.133188+05:30"},{"city":"Ratlam","state":"Madhya Pradesh","latitude":23.3315,"longitude":75.0367,"temp":34.2,"humidity":39,"rain":0.0,"pressure":955.9,"uv_index":8.5,"wind_gusts":30.6,"aqi":58,"pm10":33.3,"pm2_5":10.5,"mosquito_risk":0,"arthritis_risk":5,"migraine_risk":7,"frizz_risk":1,"updated_at":"2026-04-24T11:09:19.133195+05:30"},{"city":"Sagar","state":"Madhya Pradesh","latitude":23.8388,"longitude":78.7378,"temp":37.1,"humidity":21,"rain":0.0,"pressure":951.7,"uv_index":8.65,"wind_gusts":30.2,"aqi":56,"pm10":22.8,"pm2_5":8.5,"mosquito_risk":0,"arthritis_risk":5,"migraine_risk":10,"frizz_risk":0,"updated_at":"2026-04-24T11:09:19.133201+05:30"},{"city":"Satna","state":"Madhya Pradesh","latitude":24.6005,"longitude":80.8322,"temp":40.8,"humidity":14,"rain":0.0,"pressure":971.6,"uv_index":8.65,"wind_gusts":28.8,"aqi":75,"pm10":9.3,"pm2_5":9.0,"mosquito_risk":0,"arthritis_risk":5,"migraine_risk":10,"frizz_risk":0,"updated_at":"2026-04-24T11:09:19.133208+05:30"},{"city":"Akola","state":"Maharashtra","latitude":20.7002,"longitude":77.0082,"temp":40.2,"humidity":17,"rain":0.0,"pressure":975.6,"uv_index":8.85,"wind_gusts":29.5,"aqi":80,"pm10":24.0,"pm2_5":13.3,"mosquito_risk":0,"arthritis_risk":5,"migraine_risk":10,"frizz_risk":0,"updated_at":"2026-04-24T11:09:19.133215+05:30"},{"city":"Amravati","state":"Maharashtra","latitude":20.9374,"longitude":77.7796,"temp":38.7,"humidity":20,"rain":0.0,"pressure":968.1,"uv_index":8.65,"wind_gusts":22.3,"aqi":80,"pm10":22.9,"pm2_5":12.7,"mosquito_risk":0,"arthritis_risk":5,"migraine_risk":10,"frizz_risk":0,"updated_at":"2026-04-24T11:09:19.133222+05:30"},{"city":"Latur","state":"Maharashtra","latitude":18.4088,"longitude":76.5604,"temp":36.5,"humidity":23,"rain":0.0,"pressure":941.1,"uv_index":8.3,"wind_gusts":33.8,"aqi":102,"pm10":42.1,"pm2_5":36.0,"mosquito_risk":0,"arthritis_risk":5,"migraine_risk":10,"frizz_risk":0,"updated_at":"2026-04-24T11:09:19.133228+05:30"},{"city":"Nanded","state":"Maharashtra","latitude":19.1383,"longitude":77.3091,"temp":37.3,"humidity":29,"rain":0.0,"pressure":969.2,"uv_index":8.95,"wind_gusts":27.0,"aqi":110,"pm10":29.3,"pm2_5":26.8,"mosquito_risk":0,"arthritis_risk":5,"migraine_risk":10,"frizz_risk":1,"updated_at":"2026-04-24T11:09:19.133234+05:30"},{"city":"Gulbarga","state":"Karnataka","latitude":17.3297,"longitude":76.8343,"temp":36.9,"humidity":30,"rain":0.0,"pressure":959.4,"uv_index":8.8,"wind_gusts":33.1,"aqi":122,"pm10":51.2,"pm2_5":43.0,"mosquito_risk":0,"arthritis_risk":5,"migraine_risk":10,"frizz_risk":1,"updated_at":"2026-04-24T11:09:19.133240+05:30"},{"city":"Bidar","state":"Karnataka","latitude":17.9104,"longitude":77.5199,"temp":36.2,"humidity":28,"rain":0.0,"pressure":936.8,"uv_index":8.8,"wind_gusts":42.5,"aqi":117,"pm10":49.2,"pm2_5":42.4,"mosquito_risk":0,"arthritis_risk":5,"migraine_risk":10,"frizz_risk":0,"updated_at":"2026-04-24T11:09:19.133247+05:30"},{"city":"Hospet","state":"Karnataka","latitude":15.2689,"longitude":76.3909,"temp":33.5,"humidity":42,"rain":0.0,"pressure":956.0,"uv_index":9.15,"wind_gusts":32.0,"aqi":101,"pm10":30.7,"pm2_5":24.8,"mosquito_risk":0,"arthritis_risk":5,"migraine_risk":7,"frizz_risk":1,"updated_at":"2026-04-24T11:09:19.133253+05:30"},{"city":"Tirupur","state":"Tamil Nadu","latitude":11.1085,"longitude":77.3411,"temp":34.7,"humidity":48,"rain":0.0,"pressure":975.1,"uv_index":9.4,"wind_gusts":32.4,"aqi":64,"pm10":16.5,"pm2_5":13.9,"mosquito_risk":0,"arthritis_risk":5,"migraine_risk":7,"frizz_risk":1,"updated_at":"2026-04-24T11:09:19.133259+05:30"},{"city":"Alappuzha","state":"Kerala","latitude":9.4981,"longitude":76.3388,"temp":29.5,"humidity":80,"rain":0.0,"pressure":1008.0,"uv_index":9.0,"wind_gusts":27.7,"aqi":75,"pm10":21.7,"pm2_5":19.3,"mosquito_risk":7,"arthritis_risk":0,"migraine_risk":4,"frizz_risk":1,"updated_at":"2026-04-24T11:09:19.133265+05:30"},{"city":"Munnar","state":"Kerala","latitude":10.0889,"longitude":77.0595,"temp":29.6,"humidity":48,"rain":0.0,"pressure":859.3,"uv_index":9.6,"wind_gusts":33.5,"aqi":69,"pm10":15.9,"pm2_5":12.9,"mosquito_risk":4,"arthritis_risk":5,"migraine_risk":7,"frizz_risk":1,"updated_at":"2026-04-24T11:09:19.133272+05:30"},{"city":"Silchar","state":"Assam","latitude":24.8333,"longitude":92.7789,"temp":33.4,"humidity":60,"rain":0.0,"pressure":1005.0,"uv_index":8.75,"wind_gusts":20.9,"aqi":157,"pm10":116.6,"pm2_5":48.1,"mosquito_risk":0,"arthritis_risk":5,"migraine_risk":4,"frizz_risk":1,"updated_at":"2026-04-24T11:09:19.133278+05:30"},{"city":"Dibrugarh","state":"Assam","latitude":27.4728,"longitude":94.912,"temp":29.6,"humidity":65,"rain":0.0,"pressure":996.0,"uv_index":8.65,"wind_gusts":11.9,"aqi":79,"pm10":31.2,"pm2_5":21.1,"mosquito_risk":7,"arthritis_risk":5,"migraine_risk":7,"frizz_risk":1,"updated_at":"2026-04-24T11:09:19.133284+05:30"}]