[{"city":"Delhi","state":"Delhi","latitude":28.6139,"longitude":77.209,"temp":19.3,"humidity":74,"rain":0.0,"pressure":988.6,"uv_index":5.5,"wind_gusts":33.1,"aqi":139,"pm10":65.7,"pm2_5":39.9,"mosquito_risk":3,"arthritis_risk":5,"migraine_risk":3,"frizz_risk":0,"updated_at":"2026-03-19T08:03:30.119875+05:30"},{"city":"Mumbai","state":"Maharashtra","latitude":19.076,"longitude":72.8777,"temp":26.6,"humidity":79,"rain":0.0,"pressure":1012.5,"uv_index":7.75,"wind_gusts":22.7,"aqi":72,"pm10":31.9,"pm2_5":22.2,"mosquito_risk":7,"arthritis_risk":0,"migraine_risk":4,"frizz_risk":1,"updated_at":"2026-03-19T08:03:30.119923+05:30"},{"city":"Bangalore","state":"Karnataka","latitude":12.9716,"longitude":77.5946,"temp":19.5,"humidity":83,"rain":0.0,"pressure":914.8,"uv_index":9.35,"wind_gusts":22.7,"aqi":88,"pm10":43.9,"pm2_5":41.1,"mosquito_risk":3,"arthritis_risk":10,"migraine_risk":7,"frizz_risk":1,"updated_at":"2026-03-19T08:03:30.119940+05:30"},{"city":"Hyderabad","state":"Telangana","latitude":17.385,"longitude":78.4867,"temp":22.4,"humidity":79,"rain":0.0,"pressure":958.0,"uv_index":8.75,"wind_gusts":16.6,"aqi":87,"pm10":26.2,"pm2_5":22.2,"mosquito_risk":3,"arthritis_risk":5,"migraine_risk":7,"frizz_risk":1,"updated_at":"2026-03-19T08:03:30.119950+05:30"},{"city":"Chennai","state":"Tamil Nadu","latitude":13.0827,"longitude":80.2707,"temp":25.7,"humidity":83,"rain":0.0,"pressure":1012.5,"uv_index":9.1,"wind_gusts":28.4,"aqi":39,"pm10":18.5,"pm2_5":15.4,"mosquito_risk":7,"arthritis_risk":0,"migraine_risk":4,"frizz_risk":1,"updated_at":"2026-03-19T08:03:30.119960+05:30"},{"city":"Kolkata","state":"West Bengal","latitude":22.5726,"longitude":88.3639,"temp":24.9,"humidity":86,"rain":0.0,"pressure":1011.6,"uv_index":7.55,"wind_gusts":36.0,"aqi":65,"pm10":28.1,"pm2_5":25.3,"mosquito_risk":3,"arthritis_risk":0,"migraine_risk":4,"frizz_risk":1,"updated_at":"2026-03-19T08:03:30.119968+05:30"},{"city":"Pune","state":"Maharashtra","latitude":18.5204,"longitude":73.8567,"temp":21.6,"humidity":79,"rain":0.0,"pressure":951.7,"uv_index":8.3,"wind_gusts":36.0,"aqi":98,"pm10":69.6,"pm2_5":61.2,"mosquito_risk":3,"arthritis_risk":5,"migraine_risk":7,"frizz_risk":1,"updated_at":"2026-03-19T08:03:30.119980+05:30"},{"city":"Ahmedabad","state":"Gujarat","latitude":23.0225,"longitude":72.5714,"temp":23.0,"humidity":64,"rain":0.0,"pressure":1005.6,"uv_index":7.6,"wind_gusts":51.1,"aqi":65,"pm10":30.2,"pm2_5":19.6,"mosquito_risk":3,"arthritis_risk":5,"migraine_risk":4,"frizz_risk":0,"updated_at":"2026-03-19T08:03:30.119988+05:30"},{"city":"Jaipur","state":"Rajasthan","latitude":26.9124,"longitude":75.7873,"temp":21.5,"humidity":68,"rain":0.0,"pressure":964.5,"uv_index":6.55,"wind_gusts":31.7,"aqi":160,"pm10":172.3,"pm2_5":48.2,"mosquito_risk":3,"arthritis_risk":5,"migraine_risk":7,"frizz_risk":0,"updated_at":"2026-03-19T08:03:30.119995+05:30"},{"city":"Lucknow","state":"Uttar Pradesh","latitude":26.8467,"longitude":80.9462,"temp":22.5,"humidity":60,"rain":0.0,"pressure":998.4,"uv_index":6.8,"wind_gusts":32.8,"aqi":99,"pm10":72.6,"pm2_5":39.0,"mosquito_risk":0,"arthritis_risk":5,"migraine_risk":7,"frizz_risk":0,"updated_at":"2026-03-19T08:03:30.120003+05:30"},{"city":"Kanpur","state":"Uttar Pradesh","latitude":26.4499,"longitude":80.3319,"temp":21.6,"humidity":71,"rain":0.0,"pressure":997.0,"uv_index":6.85,"wind_gusts":30.2,"aqi":107,"pm10":256.1,"pm2_5":56.3,"mosquito_risk":3,"arthritis_risk":5,"migraine_risk":7,"frizz_risk":1,"updated_at":"2026-03-19T08:03:30.120009+05:30"},{"city":"Chandigarh","state":"Chandigarh","latitude":30.7333,"longitude":76.7794,"temp":17.3,"humidity":79,"rain":0.0,"pressure":973.6,"uv_index":2.55,"wind_gusts":20.2,"aqi":63,"pm10":27.1,"pm2_5":16.7,"mosquito_risk":3,"arthritis_risk":5,"migraine_risk":3,"frizz_risk":0,"updated_at":"2026-03-19T08:03:30.120017+05:30"},{"city":"Srinagar","state":"Jammu and Kashmir","latitude":34.0837,"longitude":74.7973,"temp":5.3,"humidity":91,"rain":0.0,"pressure":842.6,"uv_index":1.0,"wind_gusts":19.8,"aqi":97,"pm10":39.3,"pm2_5":34.1,"mosquito_risk":3,"arthritis_risk":10,"migraine_risk":3,"frizz_risk":0,"updated_at":"2026-03-19T08:03:30.120025+05:30"},{"city":"Jammu","state":"Jammu and Kashmir","latitude":32.7266,"longitude":74.857,"temp":16.4,"humidity":83,"rain":0.0,"pressure":978.5,"uv_index":3.9,"wind_gusts":26.3,"aqi":62,"pm10":18.7,"pm2_5":14.5,"mosquito_risk":3,"arthritis_risk":10,"migraine_risk":3,"frizz_risk":0,"updated_at":"2026-03-19T08:03:30.120032+05:30"},{"city":"Amritsar","state":"Punjab","latitude":31.634,"longitude":74.8723,"temp":16.0,"humidity":83,"rain":0.0,"pressure":986.5,"uv_index":1.6,"wind_gusts":22.7,"aqi":84,"pm10":62.9,"pm2_5":30.3,"mosquito_risk":3,"arthritis_risk":10,"migraine_risk":3,"frizz_risk":0,"updated_at":"2026-03-19T08:03:30.120039+05:30"},{"city":"Ludhiana","state":"Punjab","latitude":30.901,"longitude":75.8573,"temp":17.2,"humidity":78,"rain":0.0,"pressure":984.3,"uv_index":1.75,"wind_gusts":18.4,"aqi":89,"pm10":59.0,"pm2_5":31.4,"mosquito_risk":3,"arthritis_risk":5,"migraine_risk":3,"frizz_risk":0,"updated_at":"2026-03-19T08:03:30.120045+05:30"},{"city":"Jalandhar","state":"Punjab","latitude":31.326,"longitude":75.5762,"temp":16.6,"humidity":77,"rain":0.0,"pressure":985.6,"uv_index":3.05,"wind_gusts":23.4,"aqi":87,"pm10":58.9,"pm2_5":30.5,"mosquito_risk":3,"arthritis_risk":5,"migraine_risk":3,"frizz_risk":0,"updated_at":"2026-03-19T08:03:30.120054+05:30"},{"city":"Dehradun","state":"Uttarakhand","latitude":30.6284,"longitude":78.0322,"temp":12.1,"humidity":59,"rain":0.0,"pressure":831.8,"uv_index":4.9,"wind_gusts":29.5,"aqi":42,"pm10":24.4,"pm2_5":6.7,"mosquito_risk":0,"arthritis_risk":5,"migraine_risk":3,"frizz_risk":0,"updated_at":"2026-03-19T08:03:30.120061+05:30"},{"city":"Shimla","state":"Himachal Pradesh","latitude":31.1048,"longitude":77.1734,"temp":10.3,"humidity":67,"rain":0.0,"pressure":784.8,"uv_index":3.1,"wind_gusts":32.4,"aqi":42,"pm10":20.8,"pm2_5":7.5,"mosquito_risk":3,"arthritis_risk":5,"migraine_risk":3,"frizz_risk":0,"updated_at":"2026-03-19T08:03:30.120068+05:30"},{"city":"Manali","state":"Himachal Pradesh","latitude":32.2396,"longitude":77.1887,"temp":11.0,"humidity":91,"rain":0.2,"pressure":819.4,"uv_index":4.15,"wind_gusts":23.0,"aqi":41,"pm10":5.7,"pm2_5":3.3,"mosquito_risk":6,"arthritis_risk":10,"migraine_risk":3,"frizz_risk":0,"updated_at":"2026-03-19T08:03:30.120076+05:30"},{"city":"Gurgaon","state":"Haryana","latitude":28.4595,"longitude":77.0266,"temp":18.6,"humidity":81,"rain":0.0,"pressure":987.1,"uv_index":6.25,"wind_gusts":29.9,"aqi":199,"pm10":75.0,"pm2_5":46.3,"mosquito_risk":3,"arthritis_risk":10,"migraine_risk":7,"frizz_risk":0,"updated_at":"2026-03-19T08:03:30.120082+05:30"},{"city":"Noida","state":"Uttar Pradesh","latitude":28.5355,"longitude":77.391,"temp":19.3,"humidity":76,"rain":0.0,"pressure":990.2,"uv_index":5.95,"wind_gusts":32.8,"aqi":199,"pm10":75.0,"pm2_5":46.3,"mosquito_risk":3,"arthritis_risk":5,"migraine_risk":3,"frizz_risk":0,"updated_at":"2026-03-19T08:03:30.120088+05:30"},{"city":"Ghaziabad","state":"Uttar Pradesh","latitude":28.6692,"longitude":77.4538,"temp":18.6,"humidity":77,"rain":0.0,"pressure":988.2,"uv_index":6.0,"wind_gusts":34.2,"aqi":129,"pm10":60.5,"pm2_5":31.3,"mosquito_risk":3,"arthritis_risk":5,"migraine_risk":3,"frizz_risk":0,"updated_at":"2026-03-19T08:03:30.120094+05:30"},{"city":"Faridabad","state":"Haryana","latitude":28.4089,"longitude":77.3178,"temp":19.2,"humidity":76,"rain":0.0,"pressure":989.3,"uv_index":6.3,"wind_gusts":33.5,"aqi":199,"pm10":75.0,"pm2_5":46.3,"mosquito_risk":3,"arthritis_risk":5,"migraine_risk":7,"frizz_risk":0,"updated_at":"2026-03-19T08:03:30.120102+05:30"},{"city":"Meerut","state":"Uttar Pradesh","latitude":28.9845,"longitude":77.7064,"temp":18.0,"humidity":79,"rain":0.0,"pressure":986.8,"uv_index":4.6,"wind_gusts":34.6,"aqi":129,"pm10":60.5,"pm2_5":31.3,"mosquito_risk":3,"arthritis_risk":5,"migraine_risk":3,"frizz_risk":0,"updated_at":"2026-03-19T08:03:30.120107+05:30"},{"city":"Agra","state":"Uttar Pradesh","latitude":27.1767,"longitude":78.0081,"temp":21.2,"humidity":58,"rain":0.0,"pressure":993.2,"uv_index":6.6,"wind_gusts":31.0,"aqi":507,"pm10":601.6,"pm2_5":93.8,"mosquito_risk":0,"arthritis_risk":5,"migraine_risk":7,"frizz_risk":0,"updated_at":"2026-03-19T08:03:30.120117+05:30"},{"city":"Varanasi","state":"Uttar Pradesh","latitude":25.3176,"longitude":82.9739,"temp":24.4,"humidity":78,"rain":0.0,"pressure":1001.9,"uv_index":7.5,"wind_gusts":18.4,"aqi":114,"pm10":67.5,"pm2_5":59.5,"mosquito_risk":3,"arthritis_risk":5,"migraine_risk":4,"frizz_risk":1,"updated_at":"2026-03-19T08:03:30.120126+05:30"},{"city":"Prayagraj","state":"Uttar Pradesh","latitude":25.4358,"longitude":81.8463,"temp":23.7,"humidity":77,"rain":0.0,"pressure":1000.5,"uv_index":7.35,"wind_gusts":13.3,"aqi":108,"pm10":85.0,"pm2_5":63.6,"mosquito_risk":3,"arthritis_risk":5,"migraine_risk":4,"frizz_risk":1,"updated_at":"2026-03-19T08:03:30.120135+05:30"},{"city":"Gorakhpur","state":"Uttar Pradesh","latitude":26.7606,"longitude":83.3732,"temp":20.4,"humidity":73,"rain":0.0,"pressure":1002.0,"uv_index":7.1,"wind_gusts":13.7,"aqi":125,"pm10":96.2,"pm2_5":68.2,"mosquito_risk":3,"arthritis_risk":5,"migraine_risk":4,"frizz_risk":0,"updated_at":"2026-03-19T08:03:30.120142+05:30"},{"city":"Bareilly","state":"Uttar Pradesh","latitude":28.367,"longitude":79.4304,"temp":21.5,"humidity":58,"rain":0.0,"pressure":991.8,"uv_index":6.1,"wind_gusts":34.9,"aqi":99,"pm10":35.3,"pm2_5":21.2,"mosquito_risk":0,"arthritis_risk":5,"migraine_risk":7,"frizz_risk":0,"updated_at":"2026-03-19T08:03:30.120147+05:30"},{"city":"Aligarh","state":"Uttar Pradesh","latitude":27.8974,"longitude":78.088,"temp":20.2,"humidity":66,"rain":0.0,"pressure":990.9,"uv_index":6.35,"wind_gusts":32.8,"aqi":143,"pm10":415.4,"pm2_5":65.9,"mosquito_risk":3,"arthritis_risk":5,"migraine_risk":7,"frizz_risk":0,"updated_at":"2026-03-19T08:03:30.120153+05:30"},{"city":"Moradabad","state":"Uttar Pradesh","latitude":28.8386,"longitude":78.7733,"temp":20.1,"humidity":68,"rain":0.0,"pressure":988.7,"uv_index":4.85,"wind_gusts":46.1,"aqi":125,"pm10":53.1,"pm2_5":29.9,"mosquito_risk":3,"arthritis_risk":5,"migraine_risk":3,"frizz_risk":0,"updated_at":"2026-03-19T08:03:30.120175+05:30"},{"city":"Saharanpur","state":"Uttar Pradesh","latitude":29.9637,"longitude":77.546,"temp":17.2,"humidity":78,"rain":0.0,"pressure":980.6,"uv_index":3.35,"wind_gusts":18.7,"aqi":83,"pm10":48.7,"pm2_5":23.5,"mosquito_risk":3,"arthritis_risk":5,"migraine_risk":3,"frizz_risk":0,"updated_at":"2026-03-19T08:03:30.120181+05:30"},{"city":"Jhansi","state":"Uttar Pradesh","latitude":25.4484,"longitude":78.5685,"temp":22.7,"humidity":67,"rain":0.0,"pressure":982.6,"uv_index":7.3,"wind_gusts":33.1,"aqi":78,"pm10":130.4,"pm2_5":44.2,"mosquito_risk":3,"arthritis_risk":5,"migraine_risk":7,"frizz_risk":1,"updated_at":"2026-03-19T08:03:33.341239+05:30"},{"city":"Surat","state":"Gujarat","latitude":21.1702,"longitude":72.8311,"temp":25.5,"humidity":77,"rain":0.0,"pressure":1011.2,"uv_index":7.45,"wind_gusts":38.5,"aqi":77,"pm10":36.8,"pm2_5":29.7,"mosquito_risk":7,"arthritis_risk":0,"migraine_risk":4,"frizz_risk":1,"updated_at":"2026-03-19T08:03:33.341274+05:30"},{"city":"Vadodara","state":"Gujarat","latitude":22.3072,"longitude":73.1812,"temp":23.5,"humidity":86,"rain":0.0,"pressure":1008.7,"uv_index":7.55,"wind_gusts":53.6,"aqi":64,"pm10":23.7,"pm2_5":19.4,"mosquito_risk":3,"arthritis_risk":0,"migraine_risk":4,"frizz_risk":1,"updated_at":"2026-03-19T08:03:33.341284+05:30"},{"city":"Rajkot","state":"Gujarat","latitude":22.3039,"longitude":70.8022,"temp":24.0,"humidity":84,"rain":0.0,"pressure":997.9,"uv_index":7.45,"wind_gusts":43.6,"aqi":38,"pm10":23.4,"pm2_5":14.4,"mosquito_risk":3,"arthritis_risk":5,"migraine_risk":7,"frizz_risk":1,"updated_at":"2026-03-19T08:03:33.341292+05:30"},{"city":"Thane","state":"Maharashtra","latitude":19.2183,"longitude":72.9781,"temp":24.8,"humidity":83,"rain":0.0,"pressure":1012.0,"uv_index":7.75,"wind_gusts":37.1,"aqi":72,"pm10":31.9,"pm2_5":22.2,"mosquito_risk":3,"arthritis_risk":0,"migraine_risk":4,"frizz_risk":1,"updated_at":"2026-03-19T08:03:33.341299+05:30"},{"city":"Nagpur","state":"Maharashtra","latitude":21.1458,"longitude":79.0882,"temp":24.3,"humidity":69,"rain":0.0,"pressure":977.9,"uv_index":8.2,"wind_gusts":28.1,"aqi":98,"pm10":47.8,"pm2_5":42.4,"mosquito_risk":3,"arthritis_risk":5,"migraine_risk":7,"frizz_risk":1,"updated_at":"2026-03-19T08:03:33.341306+05:30"},{"city":"Nashik","state":"Maharashtra","latitude":19.9975,"longitude":73.7898,"temp":21.6,"humidity":85,"rain":0.0,"pressure":948.7,"uv_index":7.95,"wind_gusts":38.5,"aqi":58,"pm10":34.8,"pm2_5":24.0,"mosquito_risk":3,"arthritis_risk":5,"migraine_risk":7,"frizz_risk":1,"updated_at":"2026-03-19T08:03:33.341313+05:30"},{"city":"Aurangabad","state":"Maharashtra","latitude":19.8762,"longitude":75.3433,"temp":22.3,"humidity":66,"rain":0.0,"pressure":948.0,"uv_index":8.25,"wind_gusts":27.7,"aqi":73,"pm10":42.6,"pm2_5":36.3,"mosquito_risk":3,"arthritis_risk":5,"migraine_risk":7,"frizz_risk":0,"updated_at":"2026-03-19T08:03:33.341320+05:30"},{"city":"Solapur","state":"Maharashtra","latitude":17.6599,"longitude":75.9064,"temp":22.6,"humidity":74,"rain":0.0,"pressure":961.7,"uv_index":8.65,"wind_gusts":18.0,"aqi":85,"pm10":35.9,"pm2_5":32.7,"mosquito_risk":3,"arthritis_risk":5,"migraine_risk":7,"frizz_risk":1,"updated_at":"2026-03-19T08:03:33.341328+05:30"},{"city":"Kolhapur","state":"Maharashtra","latitude":16.705,"longitude":74.2433,"temp":20.2,"humidity":79,"rain":0.0,"pressure":951.6,"uv_index":8.8,"wind_gusts":41.8,"aqi":117,"pm10":101.7,"pm2_5":92.4,"mosquito_risk":3,"arthritis_risk":5,"migraine_risk":7,"frizz_risk":1,"updated_at":"2026-03-19T08:03:33.341334+05:30"},{"city":"Goa","state":"Goa","latitude":15.2993,"longitude":74.124,"temp":24.6,"humidity":83,"rain":0.0,"pressure":1002.5,"uv_index":8.8,"wind_gusts":29.5,"aqi":83,"pm10":52.0,"pm2_5":37.4,"mosquito_risk":3,"arthritis_risk":5,"migraine_risk":4,"frizz_risk":1,"updated_at":"2026-03-19T08:03:33.341341+05:30"},{"city":"Jodhpur","state":"Rajasthan","latitude":26.2389,"longitude":73.0243,"temp":22.2,"humidity":62,"rain":0.0,"pressure":987.1,"uv_index":6.95,"wind_gusts":29.5,"aqi":62,"pm10":66.4,"pm2_5":18.8,"mosquito_risk":3,"arthritis_risk":5,"migraine_risk":7,"frizz_risk":0,"updated_at":"2026-03-19T08:03:33.341348+05:30"},{"city":"Udaipur","state":"Rajasthan","latitude":24.5854,"longitude":73.7125,"temp":19.6,"humidity":66,"rain":0.0,"pressure":950.4,"uv_index":6.9,"wind_gusts":40.7,"aqi":29,"pm10":29.2,"pm2_5":13.0,"mosquito_risk":3,"arthritis_risk":5,"migraine_risk":7,"frizz_risk":0,"updated_at":"2026-03-19T08:03:33.341355+05:30"},{"city":"Kota","state":"Rajasthan","latitude":25.2138,"longitude":75.8648,"temp":22.0,"humidity":68,"rain":0.0,"pressure":983.1,"uv_index":7.35,"wind_gusts":36.7,"aqi":77,"pm10":67.8,"pm2_5":35.2,"mosquito_risk":3,"arthritis_risk":5,"migraine_risk":7,"frizz_risk":0,"updated_at":"2026-03-19T08:03:33.341362+05:30"},{"city":"Bikaner","state":"Rajasthan","latitude":28.0229,"longitude":73.3119,"temp":20.1,"humidity":88,"rain":0.0,"pressure":986.2,"uv_index":4.6,"wind_gusts":27.4,"aqi":67,"pm10":52.0,"pm2_5":16.6,"mosquito_risk":3,"arthritis_risk":5,"migraine_risk":3,"frizz_risk":1,"updated_at":"2026-03-19T08:03:33.341368+05:30"},{"city":"Ajmer","state":"Rajasthan","latitude":26.4499,"longitude":74.6399,"temp":21.5,"humidity":66,"rain":0.0,"pressure":958.7,"uv_index":6.1,"wind_gusts":30.2,"aqi":82,"pm10":93.1,"pm2_5":33.8,"mosquito_risk":3,"arthritis_risk":5,"migraine_risk":7,"frizz_risk":0,"updated_at":"2026-03-19T08:03:33.341374+05:30"},{"city":"Gwalior","state":"Madhya Pradesh","latitude":26.2183,"longitude":78.1828,"temp":21.9,"humidity":60,"rain":0.0,"pressure":988.4,"uv_index":6.95,"wind_gusts":33.5,"aqi":122,"pm10":245.9,"pm2_5":65.7,"mosquito_risk":0,"arthritis_risk":5,"migraine_risk":7,"frizz_risk":0,"updated_at":"2026-03-19T08:03:33.341381+05:30"},{"city":"Indore","state":"Madhya Pradesh","latitude":22.7196,"longitude":75.8577,"temp":21.5,"humidity":52,"rain":0.0,"pressure":951.1,"uv_index":7.9,"wind_gusts":36.4,"aqi":54,"pm10":26.0,"pm2_5":25.7,"mosquito_risk":0,"arthritis_risk":5,"migraine_risk":7,"frizz_risk":0,"updated_at":"2026-03-19T08:03:33.341387+05:30"},{"city":"Bhopal","state":"Madhya Pradesh","latitude":23.2599,"longitude":77.4126,"temp":22.3,"humidity":53,"rain":0.0,"pressure":957.2,"uv_index":7.8,"wind_gusts":30.2,"aqi":67,"pm10":30.6,"pm2_5":28.6,"mosquito_risk":0,"arthritis_risk":5,"migraine_risk":7,"frizz_risk":0,"updated_at":"2026-03-19T08:03:33.341394+05:30"},{"city":"Jabalpur","state":"Madhya Pradesh","latitude":23.1815,"longitude":79.9864,"temp":24.6,"humidity":58,"rain":0.0,"pressure":965.4,"uv_index":7.9,"wind_gusts":28.8,"aqi":72,"pm10":36.1,"pm2_5":32.0,"mosquito_risk":0,"arthritis_risk":5,"migraine_risk":7,"frizz_risk":0,"updated_at":"2026-03-19T08:03:33.341400+05:30"},{"city":"Ujjain","state":"Madhya Pradesh","latitude":23.1765,"longitude":75.7885,"temp":21.4,"humidity":62,"rain":0.0,"pressure":956.9,"uv_index":7.8,"wind_gusts":29.2,"aqi":54,"pm10":17.4,"pm2_5":17.3,"mosquito_risk":3,"arthritis_risk":5,"migraine_risk":7,"frizz_risk":0,"updated_at":"2026-03-19T08:03:33.341407+05:30"},{"city":"Visakhapatnam","state":"Andhra Pradesh","latitude":17.6868,"longitude":83.2185,"temp":26.2,"humidity":79,"rain":0.0,"pressure":1009.5,"uv_index":8.45,"wind_gusts":33.1,"aqi":60,"pm10":38.9,"pm2_5":35.3,"mosquito_risk":7,"arthritis_risk":0,"migraine_risk":4,"frizz_risk":1,"updated_at":"2026-03-19T08:03:33.341413+05:30"},{"city":"Vijayawada","state":"Andhra Pradesh","latitude":16.5062,"longitude":80.648,"temp":25.8,"humidity":86,"rain":0.0,"pressure":1008.0,"uv_index":8.85,"wind_gusts":19.8,"aqi":62,"pm10":33.2,"pm2_5":30.4,"mosquito_risk":7,"arthritis_risk":0,"migraine_risk":4,"frizz_risk":1,"updated_at":"2026-03-19T08:03:33.341420+05:30"},{"city":"Guntur","state":"Andhra Pradesh","latitude":16.3067,"longitude":80.4365,"temp":25.7,"humidity":82,"rain":0.0,"pressure":1009.4,"uv_index":8.85,"wind_gusts":21.6,"aqi":63,"pm10":30.2,"pm2_5":27.4,"mosquito_risk":7,"arthritis_risk":0,"migraine_risk":4,"frizz_risk":1,"updated_at":"2026-03-19T08:03:33.341426+05:30"},{"city":"Nellore","state":"Andhra Pradesh","latitude":14.4426,"longitude":79.9865,"temp":25.7,"humidity":83,"rain":0.0,"pressure":1011.1,"uv_index":9.0,"wind_gusts":22.7,"aqi":34,"pm10":12.9,"pm2_5":10.2,"mosquito_risk":7,"arthritis_risk":0,"migraine_risk":4,"frizz_risk":1,"updated_at":"2026-03-19T08:03:33.341433+05:30"},{"city":"Kurnool","state":"Andhra Pradesh","latitude":15.8281,"longitude":78.0373,"temp":24.3,"humidity":73,"rain":0.0,"pressure":981.9,"uv_index":8.85,"wind_gusts":16.9,"aqi":64,"pm10":18.5,"pm2_5":15.0,"mosquito_risk":3,"arthritis_risk":5,"migraine_risk":7,"frizz_risk":1,"updated_at":"2026-03-19T08:03:33.341441+05:30"},{"city":"Kakinada","state":"Andhra Pradesh","latitude":16.9891,"longitude":82.2475,"temp":26.1,"humidity":84,"rain":0.0,"pressure":1013.1,"uv_index":8.7,"wind_gusts":24.1,"aqi":41,"pm10":15.0,"pm2_5":11.8,"mosquito_risk":7,"arthritis_risk":0,"migraine_risk":4,"frizz_risk":1,"updated_at":"2026-03-19T08:03:33.341448+05:30"},{"city":"Tirupati","state":"Andhra Pradesh","latitude":13.6288,"longitude":79.4192,"temp":24.0,"humidity":86,"rain":0.0,"pressure":996.8,"uv_index":9.1,"wind_gusts":28.1,"aqi":61,"pm10":24.9,"pm2_5":23.5,"mosquito_risk":3,"arthritis_risk":5,"migraine_risk":7,"frizz_risk":1,"updated_at":"2026-03-19T08:03:33.341454+05:30"},{"city":"Warangal","state":"Telangana","latitude":17.9689,"longitude":79.5941,"temp":24.1,"humidity":85,"rain":0.0,"pressure":984.0,"uv_index":8.5,"wind_gusts":22.0,"aqi":140,"pm10":46.0,"pm2_5":43.7,"mosquito_risk":3,"arthritis_risk":5,"migraine_risk":7,"frizz_risk":1,"updated_at":"2026-03-19T08:03:33.341460+05:30"},{"city":"Nizamabad","state":"Telangana","latitude":18.6725,"longitude":78.0941,"temp":22.9,"humidity":77,"rain":0.0,"pressure":969.7,"uv_index":8.5,"wind_gusts":34.2,"aqi":122,"pm10":49.2,"pm2_5":44.4,"mosquito_risk":3,"arthritis_risk":5,"migraine_risk":7,"frizz_risk":1,"updated_at":"2026-03-19T08:03:33.341466+05:30"},{"city":"Mysore","state":"Karnataka","latitude":12.2958,"longitude":76.6396,"temp":20.7,"humidity":90,"rain":0.0,"pressure":932.1,"uv_index":9.35,"wind_gusts":33.8,"aqi":92,"pm10":52.4,"pm2_5":48.3,"mosquito_risk":3,"arthritis_risk":5,"migraine_risk":7,"frizz_risk":1,"updated_at":"2026-03-19T08:03:33.341473+05:30"},{"city":"Mangalore","state":"Karnataka","latitude":12.9141,"longitude":74.856,"temp":26.4,"humidity":79,"rain":0.0,"pressure":1011.2,"uv_index":8.95,"wind_gusts":23.8,"aqi":72,"pm10":28.5,"pm2_5":25.4,"mosquito_risk":7,"arthritis_risk":0,"migraine_risk":4,"frizz_risk":1,"updated_at":"2026-03-19T08:03:33.341479+05:30"},{"city":"Hubli-Dharwad","state":"Karnataka","latitude":15.3647,"longitude":75.124,"temp":19.4,"humidity":83,"rain":0.0,"pressure":944.4,"uv_index":8.95,"wind_gusts":30.6,"aqi":97,"pm10":46.0,"pm2_5":42.3,"mosquito_risk":3,"arthritis_risk":10,"migraine_risk":7,"frizz_risk":1,"updated_at":"2026-03-19T08:03:33.341486+05:30"},{"city":"Belgaum","state":"Karnataka","latitude":15.8497,"longitude":74.4977,"temp":19.4,"humidity":81,"rain":0.0,"pressure":928.7,"uv_index":9.0,"wind_gusts":37.4,"aqi":104,"pm10":72.9,"pm2_5":58.7,"mosquito_risk":3,"arthritis_risk":10,"migraine_risk":7,"frizz_risk":0,"updated_at":"2026-03-19T08:03:36.564516+05:30"},{"city":"Coimbatore","state":"Tamil Nadu","latitude":11.0168,"longitude":76.9558,"temp":22.6,"humidity":88,"rain":0.0,"pressure":966.3,"uv_index":9.35,"wind_gusts":39.6,"aqi":65,"pm10":22.9,"pm2_5":21.7,"mosquito_risk":3,"arthritis_risk":5,"migraine_risk":7,"frizz_risk":1,"updated_at":"2026-03-19T08:03:36.564550+05:30"},{"city":"Madurai","state":"Tamil Nadu","latitude":9.9252,"longitude":78.1198,"temp":23.6,"humidity":82,"rain":0.0,"pressure":998.1,"uv_index":9.3,"wind_gusts":26.6,"aqi":49,"pm10":13.3,"pm2_5":12.5,"mosquito_risk":3,"arthritis_risk":5,"migraine_risk":7,"frizz_risk":1,"updated_at":"2026-03-19T08:03:36.564560+05:30"},{"city":"Trichy","state":"Tamil Nadu","latitude":10.7905,"longitude":78.7047,"temp":24.4,"humidity":82,"rain":0.0,"pressure":1005.2,"uv_index":9.2,"wind_gusts":25.6,"aqi":51,"pm10":11.9,"pm2_5":11.3,"mosquito_risk":3,"arthritis_risk":5,"migraine_risk":4,"frizz_risk":1,"updated_at":"2026-03-19T08:03:36.564568+05:30"},{"city":"Salem","state":"Tamil Nadu","latitude":11.6643,"longitude":78.146,"temp":23.7,"humidity":83,"rain":0.0,"pressure":982.4,"uv_index":9.25,"wind_gusts":20.2,"aqi":75,"pm10":29.4,"pm2_5":27.5,"mosquito_risk":3,"arthritis_risk":5,"migraine_risk":7,"frizz_risk":1,"updated_at":"2026-03-19T08:03:36.564575+05:30"},{"city":"Tirunelveli","state":"Tamil Nadu","latitude":8.7139,"longitude":77.7567,"temp":24.4,"humidity":86,"rain":0.0,"pressure":1008.1,"uv_index":9.0,"wind_gusts":21.6,"aqi":65,"pm10":17.8,"pm2_5":17.3,"mosquito_risk":3,"arthritis_risk":0,"migraine_risk":4,"frizz_risk":1,"updated_at":"2026-03-19T08:03:36.564582+05:30"},{"city":"Vellore","state":"Tamil Nadu","latitude":12.9165,"longitude":79.1325,"temp":23.2,"humidity":86,"rain":0.0,"pressure":989.8,"uv_index":9.15,"wind_gusts":25.2,"aqi":58,"pm10":26.9,"pm2_5":25.4,"mosquito_risk":3,"arthritis_risk":5,"migraine_risk":7,"frizz_risk":1,"updated_at":"2026-03-19T08:03:36.564589+05:30"},{"city":"Erode","state":"Tamil Nadu","latitude":11.341,"longitude":77.7172,"temp":23.5,"humidity":81,"rain":0.0,"pressure":994.5,"uv_index":9.25,"wind_gusts":28.8,"aqi":54,"pm10":18.3,"pm2_5":16.9,"mosquito_risk":3,"arthritis_risk":5,"migraine_risk":7,"frizz_risk":1,"updated_at":"2026-03-19T08:03:36.564596+05:30"},{"city":"Kochi","state":"Kerala","latitude":9.9312,"longitude":76.2673,"temp":26.6,"humidity":83,"rain":0.0,"pressure":1012.6,"uv_index":9.05,"wind_gusts":24.8,"aqi":63,"pm10":16.1,"pm2_5":15.4,"mosquito_risk":7,"arthritis_risk":0,"migraine_risk":4,"frizz_risk":1,"updated_at":"2026-03-19T08:03:36.564602+05:30"},{"city":"Thiruvananthapuram","state":"Kerala","latitude":8.5241,"longitude":76.9366,"temp":26.6,"humidity":82,"rain":0.0,"pressure":1011.8,"uv_index":8.7,"wind_gusts":24.1,"aqi":45,"pm10":11.1,"pm2_5":10.3,"mosquito_risk":7,"arthritis_risk":0,"migraine_risk":4,"frizz_risk":1,"updated_at":"2026-03-19T08:03:36.564609+05:30"},{"city":"Kozhikode","state":"Kerala","latitude":11.2588,"longitude":75.7804,"temp":26.3,"humidity":85,"rain":0.0,"pressure":1012.1,"uv_index":9.05,"wind_gusts":27.4,"aqi":63,"pm10":16.5,"pm2_5":15.3,"mosquito_risk":7,"arthritis_risk":0,"migraine_risk":4,"frizz_risk":1,"updated_at":"2026-03-19T08:03:36.564615+05:30"},{"city":"Thrissur","state":"Kerala","latitude":10.5276,"longitude":76.2144,"temp":25.5,"humidity":86,"rain":0.0,"pressure":1011.3,"uv_index":9.1,"wind_gusts":30.6,"aqi":60,"pm10":12.8,"pm2_5":12.3,"mosquito_risk":7,"arthritis_risk":0,"migraine_risk":4,"frizz_risk":1,"updated_at":"2026-03-19T08:03:36.564622+05:30"},{"city":"Kannur","state":"Kerala","latitude":11.8745,"longitude":75.3704,"temp":25.0,"humidity":81,"rain":0.0,"pressure":1011.7,"uv_index":9.0,"wind_gusts":31.3,"aqi":67,"pm10":22.9,"pm2_5":21.5,"mosquito_risk":7,"arthritis_risk":0,"migraine_risk":4,"frizz_risk":1,"updated_at":"2026-03-19T08:03:36.564629+05:30"},{"city":"Patna","state":"Bihar","latitude":25.5941,"longitude":85.1376,"temp":25.1,"humidity":76,"rain":0.0,"pressure":1005.6,"uv_index":7.65,"wind_gusts":27.7,"aqi":158,"pm10":134.6,"pm2_5":117.1,"mosquito_risk":7,"arthritis_risk":5,"migraine_risk":4,"frizz_risk":1,"updated_at":"2026-03-19T08:03:36.564635+05:30"},{"city":"Gaya","state":"Bihar","latitude":24.7914,"longitude":85.0002,"temp":24.6,"humidity":72,"rain":0.0,"pressure":998.6,"uv_index":6.5,"wind_gusts":34.6,"aqi":112,"pm10":46.9,"pm2_5":42.1,"mosquito_risk":3,"arthritis_risk":5,"migraine_risk":7,"frizz_risk":1,"updated_at":"2026-03-19T08:03:36.564641+05:30"},{"city":"Muzaffarpur","state":"Bihar","latitude":26.1209,"longitude":85.3647,"temp":22.8,"humidity":82,"rain":0.0,"pressure":1005.9,"uv_index":7.0,"wind_gusts":23.8,"aqi":159,"pm10":118.3,"pm2_5":104.8,"mosquito_risk":3,"arthritis_risk":5,"migraine_risk":4,"frizz_risk":1,"updated_at":"2026-03-19T08:03:36.564647+05:30"},{"city":"Bhagalpur","state":"Bihar","latitude":25.2425,"longitude":87.0117,"temp":23.9,"humidity":90,"rain":0.0,"pressure":1007.3,"uv_index":7.25,"wind_gusts":29.9,"aqi":123,"pm10":51.2,"pm2_5":50.1,"mosquito_risk":3,"arthritis_risk":5,"migraine_risk":4,"frizz_risk":1,"updated_at":"2026-03-19T08:03:36.564653+05:30"},{"city":"Ranchi","state":"Jharkhand","latitude":23.3441,"longitude":85.3096,"temp":23.4,"humidity":63,"rain":0.0,"pressure":942.7,"uv_index":5.5,"wind_gusts":40.7,"aqi":95,"pm10":47.8,"pm2_5":39.8,"mosquito_risk":3,"arthritis_risk":5,"migraine_risk":3,"frizz_risk":0,"updated_at":"2026-03-19T08:03:36.564659+05:30"},{"city":"Jamshedpur","state":"Jharkhand","latitude":22.8046,"longitude":86.2029,"temp":25.6,"humidity":67,"rain":0.0,"pressure":996.6,"uv_index":8.0,"wind_gusts":34.2,"aqi":137,"pm10":55.8,"pm2_5":48.9,"mosquito_risk":7,"arthritis_risk":5,"migraine_risk":7,"frizz_risk":1,"updated_at":"2026-03-19T08:03:36.564665+05:30"},{"city":"Dhanbad","state":"Jharkhand","latitude":23.7957,"longitude":86.4304,"temp":25.4,"humidity":69,"rain":0.0,"pressure":985.0,"uv_index":7.25,"wind_gusts":30.2,"aqi":157,"pm10":87.1,"pm2_5":81.5,"mosquito_risk":7,"arthritis_risk":5,"migraine_risk":7,"frizz_risk":1,"updated_at":"2026-03-19T08:03:36.564672+05:30"},{"city":"Bokaro","state":"Jharkhand","latitude":23.6693,"longitude":86.1511,"temp":25.5,"humidity":59,"rain":0.0,"pressure":989.1,"uv_index":6.85,"wind_gusts":27.7,"aqi":145,"pm10":68.0,"pm2_5":63.3,"mosquito_risk":4,"arthritis_risk":5,"migraine_risk":7,"frizz_risk":1,"updated_at":"2026-03-19T08:03:36.564678+05:30"},{"city":"Bhubaneswar","state":"Odisha","latitude":20.2961,"longitude":85.8245,"temp":26.3,"humidity":85,"rain":0.0,"pressure":1008.7,"uv_index":7.05,"wind_gusts":23.0,"aqi":75,"pm10":32.5,"pm2_5":29.0,"mosquito_risk":7,"arthritis_risk":0,"migraine_risk":4,"frizz_risk":1,"updated_at":"2026-03-19T08:03:36.564684+05:30"},{"city":"Cuttack","state":"Odisha","latitude":20.4625,"longitude":85.8828,"temp":26.6,"humidity":84,"rain":0.0,"pressure":1010.6,"uv_index":7.45,"wind_gusts":22.7,"aqi":75,"pm10":32.5,"pm2_5":29.0,"mosquito_risk":7,"arthritis_risk":0,"migraine_risk":4,"frizz_risk":1,"updated_at":"2026-03-19T08:03:36.564690+05:30"},{"city":"Rourkela","state":"Odisha","latitude":22.2604,"longitude":84.8536,"temp":25.2,"humidity":76,"rain":0.0,"pressure":990.9,"uv_index":6.8,"wind_gusts":27.0,"aqi":124,"pm10":55.6,"pm2_5":49.0,"mosquito_risk":7,"arthritis_risk":5,"migraine_risk":7,"frizz_risk":1,"updated_at":"2026-03-19T08:03:36.564696+05:30"},{"city":"Raipur","state":"Chhattisgarh","latitude":21.2514,"longitude":81.6296,"temp":25.0,"humidity":62,"rain":0.0,"pressure":980.1,"uv_index":7.35,"wind_gusts":29.9,"aqi":116,"pm10":74.0,"pm2_5":68.9,"mosquito_risk":7,"arthritis_risk":5,"migraine_risk":7,"frizz_risk":1,"updated_at":"2026-03-19T08:03:36.564702+05:30"},{"city":"Bhilai","state":"Chhattisgarh","latitude":21.1938,"longitude":81.3509,"temp":24.9,"humidity":66,"rain":0.0,"pressure":980.4,"uv_index":8.05,"wind_gusts":29.5,"aqi":121,"pm10":69.2,"pm2_5":64.3,"mosquito_risk":3,"arthritis_risk":5,"migraine_risk":7,"frizz_risk":1,"updated_at":"2026-03-19T08:03:36.564708+05:30"},{"city":"Guwahati","state":"Assam","latitude":26.1158,"longitude":91.7086,"temp":21.9,"humidity":87,"rain":0.0,"pressure":1009.2,"uv_index":7.55,"wind_gusts":27.0,"aqi":118,"pm10":37.0,"pm2_5":29.4,"mosquito_risk":3,"arthritis_risk":0,"migraine_risk":4,"frizz_risk":1,"updated_at":"2026-03-19T08:03:36.564714+05:30"},{"city":"Agartala","state":"Tripura","latitude":23.8315,"longitude":91.2868,"temp":23.6,"humidity":85,"rain":0.0,"pressure":1013.1,"uv_index":7.9,"wind_gusts":22.0,"aqi":83,"pm10":33.3,"pm2_5":31.7,"mosquito_risk":3,"arthritis_risk":0,"migraine_risk":4,"frizz_risk":1,"updated_at":"2026-03-19T08:03:36.564720+05:30"},{"city":"Shillong","state":"Meghalaya","latitude":25.5788,"longitude":91.8933,"temp":15.5,"humidity":71,"rain":0.0,"pressure":860.6,"uv_index":7.1,"wind_gusts":44.3,"aqi":83,"pm10":42.7,"pm2_5":31.0,"mosquito_risk":3,"arthritis_risk":5,"migraine_risk":7,"frizz_risk":0,"updated_at":"2026-03-19T08:03:36.564725+05:30"},{"city":"Imphal","state":"Manipur","latitude":24.817,"longitude":93.9368,"temp":17.7,"humidity":82,"rain":0.0,"pressure":929.1,"uv_index":8.25,"wind_gusts":48.2,"aqi":91,"pm10":38.8,"pm2_5":33.9,"mosquito_risk":3,"arthritis_risk":10,"migraine_risk":7,"frizz_risk":0,"updated_at":"2026-03-19T08:03:36.564731+05:30"},{"city":"Aizawl","state":"Mizoram","latitude":23.7271,"longitude":92.7176,"temp":18.6,"humidity":81,"rain":0.0,"pressure":898.2,"uv_index":8.05,"wind_gusts":34.2,"aqi":73,"pm10":27.2,"pm2_5":24.5,"mosquito_risk":3,"arthritis_risk":10,"migraine_risk":7,"frizz_risk":0,"updated_at":"2026-03-19T08:03:36.564737+05:30"},{"city":"Kohima","state":"Nagaland","latitude":25.6701,"longitude":94.1077,"temp":15.3,"humidity":73,"rain":0.0,"pressure":859.7,"uv_index":7.95,"wind_gusts":74.2,"aqi":81,"pm10":38.9,"pm2_5":27.9,"mosquito_risk":3,"arthritis_risk":5,"migraine_risk":7,"frizz_risk":0,"updated_at":"2026-03-19T08:03:36.564743+05:30"},{"city":"Gangtok","state":"Sikkim","latitude":27.3314,"longitude":88.6138,"temp":13.9,"humidity":78,"rain":0.0,"pressure":840.5,"uv_index":7.5,"wind_gusts":22.0,"aqi":97,"pm10":45.9,"pm2_5":24.6,"mosquito_risk":3,"arthritis_risk":5,"migraine_risk":7,"frizz_risk":0,"updated_at":"2026-03-19T08:03:36.564749+05:30"},{"city":"Siliguri","state":"West Bengal","latitude":26.7271,"longitude":88.3953,"temp":19.7,"humidity":82,"rain":0.0,"pressure":1000.6,"uv_index":7.35,"wind_gusts":24.8,"aqi":127,"pm10":103.1,"pm2_5":78.5,"mosquito_risk":3,"arthritis_risk":10,"migraine_risk":4,"frizz_risk":1,"updated_at":"2026-03-19T08:03:39.795198+05:30"},{"city":"Durgapur","state":"West Bengal","latitude":23.5204,"longitude":87.3119,"temp":24.8,"humidity":84,"rain":0.0,"pressure":1000.5,"uv_index":7.9,"wind_gusts":37.1,"aqi":145,"pm10":79.2,"pm2_5":74.5,"mosquito_risk":3,"arthritis_risk":5,"migraine_risk":4,"frizz_risk":1,"updated_at":"2026-03-19T08:03:39.795236+05:30"},{"city":"Asansol","state":"West Bengal","latitude":23.6739,"longitude":86.9524,"temp":25.2,"humidity":82,"rain":0.0,"pressure":999.0,"uv_index":7.6,"wind_gusts":31.7,"aqi":152,"pm10":82.4,"pm2_5":76.8,"mosquito_risk":7,"arthritis_risk":5,"migraine_risk":7,"frizz_risk":1,"updated_at":"2026-03-19T08:03:39.795247+05:30"},{"city":"Pondicherry","state":"Puducherry","latitude":11.9139,"longitude":79.8145,"temp":25.1,"humidity":89,"rain":0.0,"pressure":1013.7,"uv_index":9.1,"wind_gusts":29.5,"aqi":37,"pm10":13.8,"pm2_5":11.2,"mosquito_risk":7,"arthritis_risk":0,"migraine_risk":4,"frizz_risk":1,"updated_at":"2026-03-19T08:03:39.795255+05:30"},{"city":"Port Blair","state":"Andaman and Nicobar Islands","latitude":11.6234,"longitude":92.7265,"temp":27.8,"humidity":79,"rain":0.0,"pressure":1011.4,"uv_index":9.05,"wind_gusts":18.4,"aqi":49,"pm10":16.5,"pm2_5":12.9,"mosquito_risk":7,"arthritis_risk":0,"migraine_risk":4,"frizz_risk":1,"updated_at":"2026-03-19T08:03:39.795263+05:30"},{"city":"Haridwar","state":"Uttarakhand","latitude":29.9457,"longitude":78.1642,"temp":19.5,"humidity":74,"rain":0.0,"pressure":979.0,"uv_index":2.7,"wind_gusts":24.8,"aqi":68,"pm10":38.1,"pm2_5":20.4,"mosquito_risk":3,"arthritis_risk":5,"migraine_risk":3,"frizz_risk":0,"updated_at":"2026-03-19T08:03:39.795270+05:30"},{"city":"Rishikesh","state":"Uttarakhand","latitude":30.0869,"longitude":78.2676,"temp":19.8,"humidity":63,"rain":0.0,"pressure":971.7,"uv_index":2.25,"wind_gusts":28.8,"aqi":63,"pm10":33.9,"pm2_5":15.4,"mosquito_risk":3,"arthritis_risk":5,"migraine_risk":3,"frizz_risk":0,"updated_at":"2026-03-19T08:03:39.795277+05:30"},{"city":"Nainital","state":"Uttarakhand","latitude":29.3919,"longitude":79.4542,"temp":15.0,"humidity":62,"rain":0.0,"pressure":808.3,"uv_index":4.85,"wind_gusts":68.0,"aqi":74,"pm10":39.5,"pm2_5":25.0,"mosquito_risk":3,"arthritis_risk":5,"migraine_risk":3,"frizz_risk":0,"updated_at":"2026-03-19T08:03:39.795285+05:30"},{"city":"Mussoorie","state":"Uttarakhand","latitude":30.4599,"longitude":78.0664,"temp":13.8,"humidity":51,"rain":0.0,"pressure":804.4,"uv_index":2.55,"wind_gusts":36.4,"aqi":61,"pm10":29.9,"pm2_5":12.5,"mosquito_risk":0,"arthritis_risk":5,"migraine_risk":3,"frizz_risk":0,"updated_at":"2026-03-19T08:03:39.795291+05:30"},{"city":"Dharamshala","state":"Himachal Pradesh","latitude":32.219,"longitude":76.3234,"temp":16.0,"humidity":55,"rain":0.0,"pressure":871.2,"uv_index":4.4,"wind_gusts":29.9,"aqi":40,"pm10":7.6,"pm2_5":6.0,"mosquito_risk":0,"arthritis_risk":5,"migraine_risk":3,"frizz_risk":0,"updated_at":"2026-03-19T08:03:39.795298+05:30"},{"city":"Dalhousie","state":"Himachal Pradesh","latitude":32.5387,"longitude":75.971,"temp":11.4,"humidity":61,"rain":0.0,"pressure":804.6,"uv_index":4.55,"wind_gusts":29.5,"aqi":57,"pm10":24.3,"pm2_5":15.5,"mosquito_risk":3,"arthritis_risk":5,"migraine_risk":3,"frizz_risk":0,"updated_at":"2026-03-19T08:03:39.795306+05:30"},{"city":"Patiala","state":"Punjab","latitude":30.3398,"longitude":76.3869,"temp":17.1,"humidity":81,"rain":0.0,"pressure":983.5,"uv_index":2.6,"wind_gusts":17.3,"aqi":109,"pm10":34.9,"pm2_5":16.6,"mosquito_risk":3,"arthritis_risk":10,"migraine_risk":3,"frizz_risk":0,"updated_at":"2026-03-19T08:03:39.795314+05:30"},{"city":"Bhatinda","state":"Punjab","latitude":30.211,"longitude":74.9455,"temp":16.8,"humidity":84,"rain":0.0,"pressure":989.3,"uv_index":1.7,"wind_gusts":22.0,"aqi":86,"pm10":60.8,"pm2_5":28.2,"mosquito_risk":3,"arthritis_risk":10,"migraine_risk":3,"frizz_risk":0,"updated_at":"2026-03-19T08:03:39.795320+05:30"},{"city":"Rohtak","state":"Haryana","latitude":28.8955,"longitude":76.6066,"temp":17.8,"humidity":85,"rain":0.0,"pressure":987.5,"uv_index":4.55,"wind_gusts":24.8,"aqi":147,"pm10":76.4,"pm2_5":47.6,"mosquito_risk":3,"arthritis_risk":10,"migraine_risk":3,"frizz_risk":0,"updated_at":"2026-03-19T08:03:39.795328+05:30"},{"city":"Panipat","state":"Haryana","latitude":29.3909,"longitude":76.9635,"temp":17.3,"humidity":82,"rain":0.0,"pressure":985.8,"uv_index":4.3,"wind_gusts":23.4,"aqi":144,"pm10":46.6,"pm2_5":26.8,"mosquito_risk":3,"arthritis_risk":10,"migraine_risk":3,"frizz_risk":0,"updated_at":"2026-03-19T08:03:39.795334+05:30"},{"city":"Mathura","state":"Uttar Pradesh","latitude":27.4924,"longitude":77.6737,"temp":20.0,"humidity":68,"rain":0.0,"pressure":992.3,"uv_index":6.6,"wind_gusts":27.4,"aqi":136,"pm10":125.7,"pm2_5":44.5,"mosquito_risk":3,"arthritis_risk":5,"migraine_risk":7,"frizz_risk":0,"updated_at":"2026-03-19T08:03:39.795341+05:30"},{"city":"Vrindavan","state":"Uttar Pradesh","latitude":27.5823,"longitude":77.7027,"temp":19.9,"humidity":67,"rain":0.0,"pressure":992.7,"uv_index":6.55,"wind_gusts":29.5,"aqi":136,"pm10":125.7,"pm2_5":44.5,"mosquito_risk":3,"arthritis_risk":5,"migraine_risk":7,"frizz_risk":0,"updated_at":"2026-03-19T08:03:39.795348+05:30"},{"city":"Ayodhya","state":"Uttar Pradesh","latitude":26.7922,"longitude":82.1998,"temp":22.1,"humidity":60,"rain":0.0,"pressure":1000.0,"uv_index":7.0,"wind_gusts":27.7,"aqi":115,"pm10":83.8,"pm2_5":57.9,"mosquito_risk":0,"arthritis_risk":5,"migraine_risk":4,"frizz_risk":0,"updated_at":"2026-03-19T08:03:39.795354+05:30"},{"city":"Ratlam","state":"Madhya Pradesh","latitude":23.3315,"longitude":75.0367,"temp":22.7,"humidity":52,"rain":0.0,"pressure":957.6,"uv_index":7.75,"wind_gusts":50.0,"aqi":48,"pm10":17.5,"pm2_5":17.3,"mosquito_risk":0,"arthritis_risk":5,"migraine_risk":7,"frizz_risk":0,"updated_at":"2026-03-19T08:03:39.795361+05:30"},{"city":"Sagar","state":"Madhya Pradesh","latitude":23.8388,"longitude":78.7378,"temp":23.6,"humidity":48,"rain":0.0,"pressure":953.3,"uv_index":7.75,"wind_gusts":36.4,"aqi":41,"pm10":17.9,"pm2_5":16.2,"mosquito_risk":0,"arthritis_risk":5,"migraine_risk":7,"frizz_risk":0,"updated_at":"2026-03-19T08:03:39.795366+05:30"},{"city":"Satna","state":"Madhya Pradesh","latitude":24.6005,"longitude":80.8322,"temp":24.2,"humidity":55,"rain":0.0,"pressure":975.1,"uv_index":7.7,"wind_gusts":29.9,"aqi":61,"pm10":59.4,"pm2_5":39.7,"mosquito_risk":0,"arthritis_risk":5,"migraine_risk":7,"frizz_risk":0,"updated_at":"2026-03-19T08:03:39.795372+05:30"},{"city":"Akola","state":"Maharashtra","latitude":20.7002,"longitude":77.0082,"temp":23.6,"humidity":63,"rain":0.0,"pressure":979.6,"uv_index":8.2,"wind_gusts":26.3,"aqi":98,"pm10":49.5,"pm2_5":43.7,"mosquito_risk":3,"arthritis_risk":5,"migraine_risk":7,"frizz_risk":1,"updated_at":"2026-03-19T08:03:39.795379+05:30"},{"city":"Amravati","state":"Maharashtra","latitude":20.9374,"longitude":77.7796,"temp":24.4,"humidity":66,"rain":0.0,"pressure":971.7,"uv_index":8.15,"wind_gusts":21.6,"aqi":100,"pm10":53.3,"pm2_5":46.6,"mosquito_risk":3,"arthritis_risk":5,"migraine_risk":7,"frizz_risk":1,"updated_at":"2026-03-19T08:03:39.795386+05:30"},{"city":"Latur","state":"Maharashtra","latitude":18.4088,"longitude":76.5604,"temp":21.3,"humidity":75,"rain":0.0,"pressure":943.8,"uv_index":8.55,"wind_gusts":29.9,"aqi":95,"pm10":36.4,"pm2_5":33.6,"mosquito_risk":3,"arthritis_risk":5,"migraine_risk":7,"frizz_risk":1,"updated_at":"2026-03-19T08:03:39.795392+05:30"},{"city":"Nanded","state":"Maharashtra","latitude":19.1383,"longitude":77.3091,"temp":23.5,"humidity":69,"rain":0.0,"pressure":973.6,"uv_index":8.4,"wind_gusts":39.2,"aqi":101,"pm10":43.4,"pm2_5":39.3,"mosquito_risk":3,"arthritis_risk":5,"migraine_risk":7,"frizz_risk":1,"updated_at":"2026-03-19T08:03:39.795398+05:30"},{"city":"Gulbarga","state":"Karnataka","latitude":17.3297,"longitude":76.8343,"temp":23.5,"humidity":72,"rain":0.0,"pressure":963.5,"uv_index":8.65,"wind_gusts":52.6,"aqi":92,"pm10":35.7,"pm2_5":32.6,"mosquito_risk":3,"arthritis_risk":5,"migraine_risk":7,"frizz_risk":1,"updated_at":"2026-03-19T08:03:39.795404+05:30"},{"city":"Bidar","state":"Karnataka","latitude":17.9104,"longitude":77.5199,"temp":21.9,"humidity":73,"rain":0.0,"pressure":939.6,"uv_index":8.6,"wind_gusts":28.1,"aqi":98,"pm10":28.6,"pm2_5":26.3,"mosquito_risk":3,"arthritis_risk":5,"migraine_risk":7,"frizz_risk":1,"updated_at":"2026-03-19T08:03:39.795410+05:30"},{"city":"Hospet","state":"Karnataka","latitude":15.2689,"longitude":76.3909,"temp":22.0,"humidity":82,"rain":0.0,"pressure":960.0,"uv_index":8.9,"wind_gusts":16.6,"aqi":87,"pm10":54.5,"pm2_5":48.7,"mosquito_risk":3,"arthritis_risk":5,"migraine_risk":7,"frizz_risk":1,"updated_at":"2026-03-19T08:03:39.795416+05:30"},{"city":"Tirupur","state":"Tamil Nadu","latitude":11.1085,"longitude":77.3411,"temp":23.3,"humidity":80,"rain":0.0,"pressure":980.4,"uv_index":9.35,"wind_gusts":27.4,"aqi":59,"pm10":19.9,"pm2_5":18.5,"mosquito_risk":3,"arthritis_risk":5,"migraine_risk":7,"frizz_risk":1,"updated_at":"2026-03-19T08:03:39.795422+05:30"},{"city":"Alappuzha","state":"Kerala","latitude":9.4981,"longitude":76.3388,"temp":26.3,"humidity":82,"rain":0.0,"pressure":1012.7,"uv_index":9.1,"wind_gusts":25.2,"aqi":56,"pm10":15.1,"pm2_5":13.8,"mosquito_risk":7,"arthritis_risk":0,"migraine_risk":4,"frizz_risk":1,"updated_at":"2026-03-19T08:03:39.795429+05:30"},{"city":"Munnar","state":"Kerala","latitude":10.0889,"longitude":77.0595,"temp":20.9,"humidity":81,"rain":0.0,"pressure":859.7,"uv_index":9.6,"wind_gusts":40.0,"aqi":64,"pm10":17.2,"pm2_5":16.6,"mosquito_risk":3,"arthritis_risk":5,"migraine_risk":7,"frizz_risk":1,"updated_at":"2026-03-19T08:03:39.795435+05:30"},{"city":"Silchar","state":"Assam","latitude":24.8333,"longitude":92.7789,"temp":22.3,"humidity":88,"rain":0.0,"pressure":1013.1,"uv_index":7.9,"wind_gusts":21.6,"aqi":92,"pm10":53.0,"pm2_5":47.0,"mosquito_risk":3,"arthritis_risk":0,"migraine_risk":4,"frizz_risk":1,"updated_at":"2026-03-19T08:03:39.795441+05:30"},{"city":"Dibrugarh","state":"Assam","latitude":27.4728,"longitude":94.912,"temp":19.8,"humidity":84,"rain":0.0,"pressure":1004.1,"uv_index":6.5,"wind_gusts":22.7,"aqi":88,"pm10":56.1,"pm2_5":41.0,"mosquito_risk":3,"arthritis_risk":10,"migraine_risk":4,"frizz_risk":1,"updated_at":"2026-03-19T08:03:39.795447+05:30"}]