[{"city":"Delhi","state":"Delhi","latitude":28.6139,"longitude":77.209,"temp":31.2,"humidity":73,"rain":0.0,"pressure":975.3,"uv_index":6.3,"wind_gusts":34.2,"aqi":90,"pm10":19.6,"pm2_5":19.5,"no2":6.9,"co":291.0,"o3":152.0,"so2":18.9,"mosquito_risk":3,"arthritis_risk":5,"migraine_risk":7,"frizz_risk":1,"updated_at":"2026-07-24T13:03:11.251533+05:30"},{"city":"Mumbai","state":"Maharashtra","latitude":19.076,"longitude":72.8777,"temp":27.8,"humidity":83,"rain":0.2,"pressure":1004.0,"uv_index":7.55,"wind_gusts":64.8,"aqi":61,"pm10":35.5,"pm2_5":15.9,"no2":4.9,"co":139.0,"o3":59.0,"so2":6.6,"mosquito_risk":10,"arthritis_risk":5,"migraine_risk":4,"frizz_risk":1,"updated_at":"2026-07-24T13:03:11.251574+05:30"},{"city":"Bangalore","state":"Karnataka","latitude":12.9716,"longitude":77.5946,"temp":29.5,"humidity":48,"rain":0.0,"pressure":911.6,"uv_index":8.7,"wind_gusts":61.2,"aqi":46,"pm10":57.3,"pm2_5":21.8,"no2":2.2,"co":201.0,"o3":82.0,"so2":2.3,"mosquito_risk":4,"arthritis_risk":5,"migraine_risk":7,"frizz_risk":1,"updated_at":"2026-07-24T13:03:11.251589+05:30"},{"city":"Hyderabad","state":"Telangana","latitude":17.385,"longitude":78.4867,"temp":29.5,"humidity":57,"rain":0.0,"pressure":950.2,"uv_index":5.55,"wind_gusts":63.7,"aqi":66,"pm10":16.1,"pm2_5":8.3,"no2":1.5,"co":161.0,"o3":73.0,"so2":2.9,"mosquito_risk":4,"arthritis_risk":5,"migraine_risk":3,"frizz_risk":1,"updated_at":"2026-07-24T13:03:11.251599+05:30"},{"city":"Chennai","state":"Tamil Nadu","latitude":13.0827,"longitude":80.2707,"temp":33.6,"humidity":54,"rain":0.0,"pressure":1004.7,"uv_index":8.1,"wind_gusts":35.3,"aqi":72,"pm10":36.0,"pm2_5":24.7,"no2":6.6,"co":203.0,"o3":129.0,"so2":11.1,"mosquito_risk":0,"arthritis_risk":5,"migraine_risk":4,"frizz_risk":1,"updated_at":"2026-07-24T13:03:11.251607+05:30"},{"city":"Kolkata","state":"West Bengal","latitude":22.5726,"longitude":88.3639,"temp":28.6,"humidity":80,"rain":0.1,"pressure":998.8,"uv_index":4.75,"wind_gusts":28.4,"aqi":70,"pm10":23.4,"pm2_5":19.6,"no2":5.1,"co":249.0,"o3":96.0,"so2":8.9,"mosquito_risk":10,"arthritis_risk":5,"migraine_risk":3,"frizz_risk":1,"updated_at":"2026-07-24T13:03:11.251615+05:30"},{"city":"Pune","state":"Maharashtra","latitude":18.5204,"longitude":73.8567,"temp":26.1,"humidity":78,"rain":0.1,"pressure":943.8,"uv_index":6.2,"wind_gusts":65.2,"aqi":19,"pm10":7.4,"pm2_5":4.0,"no2":1.8,"co":122.0,"o3":50.0,"so2":2.4,"mosquito_risk":10,"arthritis_risk":5,"migraine_risk":7,"frizz_risk":1,"updated_at":"2026-07-24T13:03:11.251622+05:30"},{"city":"Ahmedabad","state":"Gujarat","latitude":23.0225,"longitude":72.5714,"temp":27.4,"humidity":85,"rain":0.1,"pressure":993.2,"uv_index":1.8,"wind_gusts":42.5,"aqi":51,"pm10":7.7,"pm2_5":6.4,"no2":9.2,"co":192.0,"o3":66.0,"so2":3.5,"mosquito_risk":10,"arthritis_risk":5,"migraine_risk":3,"frizz_risk":1,"updated_at":"2026-07-24T13:03:11.251628+05:30"},{"city":"Jaipur","state":"Rajasthan","latitude":26.9124,"longitude":75.7873,"temp":31.1,"humidity":67,"rain":0.0,"pressure":951.3,"uv_index":7.25,"wind_gusts":27.0,"aqi":73,"pm10":11.6,"pm2_5":11.2,"no2":2.7,"co":238.0,"o3":102.0,"so2":6.8,"mosquito_risk":3,"arthritis_risk":5,"migraine_risk":7,"frizz_risk":1,"updated_at":"2026-07-24T13:03:11.251635+05:30"},{"city":"Lucknow","state":"Uttar Pradesh","latitude":26.8467,"longitude":80.9462,"temp":31.9,"humidity":71,"rain":0.0,"pressure":986.7,"uv_index":7.55,"wind_gusts":24.5,"aqi":74,"pm10":12.7,"pm2_5":12.1,"no2":2.3,"co":189.0,"o3":99.0,"so2":5.6,"mosquito_risk":3,"arthritis_risk":5,"migraine_risk":7,"frizz_risk":1,"updated_at":"2026-07-24T13:03:11.251645+05:30"},{"city":"Kanpur","state":"Uttar Pradesh","latitude":26.4499,"longitude":80.3319,"temp":32.2,"humidity":66,"rain":0.0,"pressure":984.8,"uv_index":7.2,"wind_gusts":27.0,"aqi":65,"pm10":12.3,"pm2_5":11.4,"no2":1.5,"co":150.0,"o3":111.0,"so2":5.5,"mosquito_risk":3,"arthritis_risk":5,"migraine_risk":7,"frizz_risk":1,"updated_at":"2026-07-24T13:03:11.251652+05:30"},{"city":"Chandigarh","state":"Chandigarh","latitude":30.7333,"longitude":76.7794,"temp":32.3,"humidity":61,"rain":0.0,"pressure":962.8,"uv_index":7.6,"wind_gusts":26.6,"aqi":85,"pm10":21.5,"pm2_5":21.4,"no2":2.4,"co":276.0,"o3":172.0,"so2":8.3,"mosquito_risk":3,"arthritis_risk":5,"migraine_risk":7,"frizz_risk":1,"updated_at":"2026-07-24T13:03:11.251658+05:30"},{"city":"Srinagar","state":"Jammu and Kashmir","latitude":34.0837,"longitude":74.7973,"temp":19.1,"humidity":93,"rain":0.1,"pressure":840.2,"uv_index":5.35,"wind_gusts":17.6,"aqi":73,"pm10":13.3,"pm2_5":13.2,"no2":9.5,"co":357.0,"o3":67.0,"so2":3.0,"mosquito_risk":6,"arthritis_risk":10,"migraine_risk":3,"frizz_risk":1,"updated_at":"2026-07-24T13:03:11.251665+05:30"},{"city":"Jammu","state":"Jammu and Kashmir","latitude":32.7266,"longitude":74.857,"temp":31.5,"humidity":63,"rain":0.0,"pressure":967.5,"uv_index":8.25,"wind_gusts":31.7,"aqi":100,"pm10":16.4,"pm2_5":16.0,"no2":3.5,"co":267.0,"o3":112.0,"so2":2.3,"mosquito_risk":3,"arthritis_risk":5,"migraine_risk":7,"frizz_risk":1,"updated_at":"2026-07-24T13:03:11.251674+05:30"},{"city":"Amritsar","state":"Punjab","latitude":31.634,"longitude":74.8723,"temp":31.1,"humidity":71,"rain":0.0,"pressure":974.7,"uv_index":8.35,"wind_gusts":29.5,"aqi":100,"pm10":27.9,"pm2_5":27.5,"no2":1.9,"co":354.0,"o3":151.0,"so2":7.5,"mosquito_risk":3,"arthritis_risk":5,"migraine_risk":7,"frizz_risk":1,"updated_at":"2026-07-24T13:03:11.251680+05:30"},{"city":"Ludhiana","state":"Punjab","latitude":30.901,"longitude":75.8573,"temp":32.9,"humidity":60,"rain":0.0,"pressure":972.1,"uv_index":7.85,"wind_gusts":31.3,"aqi":107,"pm10":28.3,"pm2_5":28.2,"no2":1.9,"co":304.0,"o3":178.0,"so2":9.2,"mosquito_risk":0,"arthritis_risk":5,"migraine_risk":7,"frizz_risk":1,"updated_at":"2026-07-24T13:03:11.251689+05:30"},{"city":"Jalandhar","state":"Punjab","latitude":31.326,"longitude":75.5762,"temp":32.5,"humidity":67,"rain":0.0,"pressure":973.5,"uv_index":8.05,"wind_gusts":23.0,"aqi":118,"pm10":27.8,"pm2_5":27.4,"no2":1.5,"co":319.0,"o3":180.0,"so2":10.3,"mosquito_risk":3,"arthritis_risk":5,"migraine_risk":7,"frizz_risk":1,"updated_at":"2026-07-24T13:03:11.251695+05:30"},{"city":"Dehradun","state":"Uttarakhand","latitude":30.6284,"longitude":78.0322,"temp":22.0,"humidity":82,"rain":0.1,"pressure":828.2,"uv_index":7.8,"wind_gusts":26.6,"aqi":53,"pm10":7.0,"pm2_5":6.8,"no2":1.2,"co":157.0,"o3":111.0,"so2":1.3,"mosquito_risk":6,"arthritis_risk":5,"migraine_risk":7,"frizz_risk":1,"updated_at":"2026-07-24T13:03:11.251701+05:30"},{"city":"Shimla","state":"Himachal Pradesh","latitude":31.1048,"longitude":77.1734,"temp":17.6,"humidity":94,"rain":0.2,"pressure":782.3,"uv_index":6.85,"wind_gusts":22.0,"aqi":47,"pm10":8.1,"pm2_5":7.9,"no2":1.4,"co":177.0,"o3":111.0,"so2":2.7,"mosquito_risk":6,"arthritis_risk":10,"migraine_risk":7,"frizz_risk":1,"updated_at":"2026-07-24T13:03:11.251707+05:30"},{"city":"Manali","state":"Himachal Pradesh","latitude":32.2396,"longitude":77.1887,"temp":26.0,"humidity":68,"rain":0.1,"pressure":818.2,"uv_index":9.4,"wind_gusts":29.5,"aqi":25,"pm10":2.7,"pm2_5":2.5,"no2":0.7,"co":164.0,"o3":98.0,"so2":0.8,"mosquito_risk":10,"arthritis_risk":5,"migraine_risk":7,"frizz_risk":1,"updated_at":"2026-07-24T13:03:11.251716+05:30"},{"city":"Gurgaon","state":"Haryana","latitude":28.4595,"longitude":77.0266,"temp":31.7,"humidity":70,"rain":0.0,"pressure":973.6,"uv_index":6.75,"wind_gusts":38.9,"aqi":100,"pm10":12.6,"pm2_5":12.6,"no2":5.9,"co":299.0,"o3":122.0,"so2":11.8,"mosquito_risk":3,"arthritis_risk":5,"migraine_risk":7,"frizz_risk":1,"updated_at":"2026-07-24T13:03:11.251722+05:30"},{"city":"Noida","state":"Uttar Pradesh","latitude":28.5355,"longitude":77.391,"temp":31.7,"humidity":73,"rain":0.0,"pressure":976.9,"uv_index":6.75,"wind_gusts":36.7,"aqi":100,"pm10":12.6,"pm2_5":12.6,"no2":5.9,"co":247.0,"o3":122.0,"so2":11.8,"mosquito_risk":3,"arthritis_risk":5,"migraine_risk":7,"frizz_risk":1,"updated_at":"2026-07-24T13:03:11.251728+05:30"},{"city":"Ghaziabad","state":"Uttar Pradesh","latitude":28.6692,"longitude":77.4538,"temp":31.4,"humidity":74,"rain":0.0,"pressure":975.2,"uv_index":6.95,"wind_gusts":39.2,"aqi":82,"pm10":16.1,"pm2_5":16.1,"no2":2.8,"co":250.0,"o3":136.0,"so2":10.4,"mosquito_risk":3,"arthritis_risk":5,"migraine_risk":7,"frizz_risk":1,"updated_at":"2026-07-24T13:03:11.251734+05:30"},{"city":"Faridabad","state":"Haryana","latitude":28.4089,"longitude":77.3178,"temp":31.4,"humidity":72,"rain":0.0,"pressure":976.1,"uv_index":6.85,"wind_gusts":38.9,"aqi":100,"pm10":12.6,"pm2_5":12.6,"no2":5.9,"co":238.0,"o3":122.0,"so2":11.8,"mosquito_risk":3,"arthritis_risk":5,"migraine_risk":7,"frizz_risk":1,"updated_at":"2026-07-24T13:03:11.251739+05:30"},{"city":"Meerut","state":"Uttar Pradesh","latitude":28.9845,"longitude":77.7064,"temp":31.2,"humidity":73,"rain":0.0,"pressure":974.3,"uv_index":6.25,"wind_gusts":44.3,"aqi":82,"pm10":16.1,"pm2_5":16.1,"no2":2.8,"co":248.0,"o3":136.0,"so2":10.4,"mosquito_risk":3,"arthritis_risk":5,"migraine_risk":7,"frizz_risk":1,"updated_at":"2026-07-24T13:03:11.251745+05:30"},{"city":"Agra","state":"Uttar Pradesh","latitude":27.1767,"longitude":78.0081,"temp":33.0,"humidity":62,"rain":0.1,"pressure":979.6,"uv_index":6.7,"wind_gusts":27.7,"aqi":86,"pm10":12.7,"pm2_5":12.0,"no2":2.0,"co":197.0,"o3":117.0,"so2":4.9,"mosquito_risk":6,"arthritis_risk":5,"migraine_risk":7,"frizz_risk":1,"updated_at":"2026-07-24T13:03:11.251751+05:30"},{"city":"Varanasi","state":"Uttar Pradesh","latitude":25.3176,"longitude":82.9739,"temp":32.1,"humidity":68,"rain":0.0,"pressure":990.9,"uv_index":7.5,"wind_gusts":21.2,"aqi":78,"pm10":15.6,"pm2_5":14.0,"no2":1.6,"co":274.0,"o3":116.0,"so2":7.6,"mosquito_risk":3,"arthritis_risk":5,"migraine_risk":7,"frizz_risk":1,"updated_at":"2026-07-24T13:03:11.251758+05:30"},{"city":"Prayagraj","state":"Uttar Pradesh","latitude":25.4358,"longitude":81.8463,"temp":32.3,"humidity":67,"rain":0.0,"pressure":989.2,"uv_index":8.5,"wind_gusts":19.8,"aqi":66,"pm10":15.6,"pm2_5":14.2,"no2":2.8,"co":158.0,"o3":104.0,"so2":8.1,"mosquito_risk":3,"arthritis_risk":5,"migraine_risk":7,"frizz_risk":1,"updated_at":"2026-07-24T13:03:11.251764+05:30"},{"city":"Gorakhpur","state":"Uttar Pradesh","latitude":26.7606,"longitude":83.3732,"temp":31.5,"humidity":71,"rain":0.0,"pressure":990.6,"uv_index":6.9,"wind_gusts":27.4,"aqi":82,"pm10":15.7,"pm2_5":15.6,"no2":2.5,"co":310.0,"o3":125.0,"so2":5.9,"mosquito_risk":3,"arthritis_risk":5,"migraine_risk":7,"frizz_risk":1,"updated_at":"2026-07-24T13:03:11.251770+05:30"},{"city":"Bareilly","state":"Uttar Pradesh","latitude":28.367,"longitude":79.4304,"temp":31.2,"humidity":75,"rain":0.0,"pressure":980.0,"uv_index":6.95,"wind_gusts":38.9,"aqi":79,"pm10":17.6,"pm2_5":17.6,"no2":2.3,"co":226.0,"o3":139.0,"so2":10.2,"mosquito_risk":3,"arthritis_risk":5,"migraine_risk":7,"frizz_risk":1,"updated_at":"2026-07-24T13:03:11.251798+05:30"},{"city":"Aligarh","state":"Uttar Pradesh","latitude":27.8974,"longitude":78.088,"temp":31.9,"humidity":71,"rain":0.0,"pressure":978.0,"uv_index":5.4,"wind_gusts":31.7,"aqi":86,"pm10":8.9,"pm2_5":8.7,"no2":3.5,"co":186.0,"o3":100.0,"so2":7.2,"mosquito_risk":3,"arthritis_risk":5,"migraine_risk":3,"frizz_risk":1,"updated_at":"2026-07-24T13:03:11.251808+05:30"},{"city":"Moradabad","state":"Uttar Pradesh","latitude":28.8386,"longitude":78.7733,"temp":31.8,"humidity":71,"rain":0.0,"pressure":976.8,"uv_index":7.1,"wind_gusts":44.6,"aqi":75,"pm10":20.2,"pm2_5":20.2,"no2":2.4,"co":282.0,"o3":146.0,"so2":9.9,"mosquito_risk":3,"arthritis_risk":5,"migraine_risk":7,"frizz_risk":1,"updated_at":"2026-07-24T13:03:11.251815+05:30"},{"city":"Saharanpur","state":"Uttar Pradesh","latitude":29.9637,"longitude":77.546,"temp":31.8,"humidity":67,"rain":0.1,"pressure":969.1,"uv_index":7.25,"wind_gusts":43.9,"aqi":78,"pm10":20.3,"pm2_5":20.3,"no2":1.7,"co":261.0,"o3":149.0,"so2":5.1,"mosquito_risk":6,"arthritis_risk":5,"migraine_risk":7,"frizz_risk":1,"updated_at":"2026-07-24T13:03:11.251821+05:30"},{"city":"Jhansi","state":"Uttar Pradesh","latitude":25.4484,"longitude":78.5685,"temp":33.1,"humidity":56,"rain":0.0,"pressure":970.4,"uv_index":7.3,"wind_gusts":32.4,"aqi":61,"pm10":5.5,"pm2_5":5.2,"no2":1.8,"co":126.0,"o3":90.0,"so2":7.2,"mosquito_risk":0,"arthritis_risk":5,"migraine_risk":7,"frizz_risk":1,"updated_at":"2026-07-24T13:03:14.718642+05:30"},{"city":"Surat","state":"Gujarat","latitude":21.1702,"longitude":72.8311,"temp":30.2,"humidity":74,"rain":0.0,"pressure":999.2,"uv_index":5.95,"wind_gusts":55.4,"aqi":60,"pm10":31.2,"pm2_5":17.3,"no2":13.8,"co":278.0,"o3":34.0,"so2":32.7,"mosquito_risk":3,"arthritis_risk":5,"migraine_risk":3,"frizz_risk":1,"updated_at":"2026-07-24T13:03:14.718673+05:30"},{"city":"Vadodara","state":"Gujarat","latitude":22.3072,"longitude":73.1812,"temp":30.1,"humidity":67,"rain":0.1,"pressure":995.7,"uv_index":2.7,"wind_gusts":50.4,"aqi":43,"pm10":8.7,"pm2_5":5.9,"no2":6.9,"co":149.0,"o3":37.0,"so2":2.9,"mosquito_risk":6,"arthritis_risk":5,"migraine_risk":3,"frizz_risk":1,"updated_at":"2026-07-24T13:03:14.718684+05:30"},{"city":"Rajkot","state":"Gujarat","latitude":22.3039,"longitude":70.8022,"temp":26.5,"humidity":95,"rain":0.3,"pressure":985.7,"uv_index":1.25,"wind_gusts":49.0,"aqi":52,"pm10":12.5,"pm2_5":6.8,"no2":6.3,"co":137.0,"o3":42.0,"so2":4.4,"mosquito_risk":10,"arthritis_risk":5,"migraine_risk":3,"frizz_risk":1,"updated_at":"2026-07-24T13:03:14.718692+05:30"},{"city":"Thane","state":"Maharashtra","latitude":19.2183,"longitude":72.9781,"temp":26.6,"humidity":87,"rain":0.2,"pressure":1003.2,"uv_index":7.6,"wind_gusts":52.9,"aqi":61,"pm10":35.5,"pm2_5":15.9,"no2":4.9,"co":135.0,"o3":59.0,"so2":6.6,"mosquito_risk":10,"arthritis_risk":5,"migraine_risk":4,"frizz_risk":1,"updated_at":"2026-07-24T13:03:14.718700+05:30"},{"city":"Nagpur","state":"Maharashtra","latitude":21.1458,"longitude":79.0882,"temp":30.7,"humidity":64,"rain":0.0,"pressure":967.8,"uv_index":8.2,"wind_gusts":47.5,"aqi":58,"pm10":12.9,"pm2_5":8.2,"no2":5.1,"co":124.0,"o3":70.0,"so2":17.4,"mosquito_risk":3,"arthritis_risk":5,"migraine_risk":7,"frizz_risk":1,"updated_at":"2026-07-24T13:03:14.718708+05:30"},{"city":"Nashik","state":"Maharashtra","latitude":19.9975,"longitude":73.7898,"temp":26.0,"humidity":81,"rain":0.1,"pressure":939.9,"uv_index":7.05,"wind_gusts":59.8,"aqi":20,"pm10":14.7,"pm2_5":6.3,"no2":2.1,"co":115.0,"o3":50.0,"so2":2.5,"mosquito_risk":10,"arthritis_risk":5,"migraine_risk":7,"frizz_risk":1,"updated_at":"2026-07-24T13:03:14.718715+05:30"},{"city":"Aurangabad","state":"Maharashtra","latitude":19.8762,"longitude":75.3433,"temp":26.1,"humidity":80,"rain":0.1,"pressure":938.8,"uv_index":7.25,"wind_gusts":62.3,"aqi":21,"pm10":13.9,"pm2_5":6.4,"no2":1.1,"co":106.0,"o3":71.0,"so2":3.9,"mosquito_risk":10,"arthritis_risk":5,"migraine_risk":7,"frizz_risk":1,"updated_at":"2026-07-24T13:03:14.718723+05:30"},{"city":"Solapur","state":"Maharashtra","latitude":17.6599,"longitude":75.9064,"temp":31.5,"humidity":52,"rain":0.1,"pressure":954.0,"uv_index":5.95,"wind_gusts":64.8,"aqi":55,"pm10":18.8,"pm2_5":7.7,"no2":0.8,"co":100.0,"o3":62.0,"so2":1.2,"mosquito_risk":3,"arthritis_risk":5,"migraine_risk":3,"frizz_risk":1,"updated_at":"2026-07-24T13:03:14.718730+05:30"},{"city":"Kolhapur","state":"Maharashtra","latitude":16.705,"longitude":74.2433,"temp":25.4,"humidity":82,"rain":0.2,"pressure":945.7,"uv_index":8.7,"wind_gusts":67.0,"aqi":50,"pm10":12.6,"pm2_5":7.2,"no2":1.1,"co":119.0,"o3":52.0,"so2":1.2,"mosquito_risk":10,"arthritis_risk":5,"migraine_risk":7,"frizz_risk":1,"updated_at":"2026-07-24T13:03:14.718738+05:30"},{"city":"Goa","state":"Goa","latitude":15.2993,"longitude":74.124,"temp":27.7,"humidity":84,"rain":0.1,"pressure":998.0,"uv_index":8.85,"wind_gusts":41.4,"aqi":92,"pm10":27.5,"pm2_5":12.9,"no2":0.8,"co":129.0,"o3":46.0,"so2":0.9,"mosquito_risk":10,"arthritis_risk":5,"migraine_risk":7,"frizz_risk":1,"updated_at":"2026-07-24T13:03:14.718746+05:30"},{"city":"Jodhpur","state":"Rajasthan","latitude":26.2389,"longitude":73.0243,"temp":32.7,"humidity":65,"rain":0.0,"pressure":973.0,"uv_index":7.35,"wind_gusts":26.3,"aqi":63,"pm10":20.8,"pm2_5":18.7,"no2":1.7,"co":273.0,"o3":138.0,"so2":3.7,"mosquito_risk":3,"arthritis_risk":5,"migraine_risk":7,"frizz_risk":1,"updated_at":"2026-07-24T13:03:14.718753+05:30"},{"city":"Udaipur","state":"Rajasthan","latitude":24.5854,"longitude":73.7125,"temp":29.9,"humidity":67,"rain":0.1,"pressure":936.6,"uv_index":7.2,"wind_gusts":32.0,"aqi":57,"pm10":3.6,"pm2_5":3.5,"no2":3.0,"co":216.0,"o3":78.0,"so2":3.4,"mosquito_risk":10,"arthritis_risk":5,"migraine_risk":7,"frizz_risk":1,"updated_at":"2026-07-24T13:03:14.718760+05:30"},{"city":"Kota","state":"Rajasthan","latitude":25.2138,"longitude":75.8648,"temp":32.1,"humidity":59,"rain":0.0,"pressure":969.6,"uv_index":7.05,"wind_gusts":38.5,"aqi":66,"pm10":5.7,"pm2_5":5.7,"no2":2.7,"co":203.0,"o3":79.0,"so2":6.9,"mosquito_risk":0,"arthritis_risk":5,"migraine_risk":7,"frizz_risk":1,"updated_at":"2026-07-24T13:03:14.718768+05:30"},{"city":"Bikaner","state":"Rajasthan","latitude":28.0229,"longitude":73.3119,"temp":34.4,"humidity":55,"rain":0.0,"pressure":972.7,"uv_index":7.95,"wind_gusts":27.0,"aqi":78,"pm10":26.3,"pm2_5":25.3,"no2":1.3,"co":263.0,"o3":149.0,"so2":5.2,"mosquito_risk":0,"arthritis_risk":5,"migraine_risk":7,"frizz_risk":1,"updated_at":"2026-07-24T13:03:14.718776+05:30"},{"city":"Ajmer","state":"Rajasthan","latitude":26.4499,"longitude":74.6399,"temp":30.8,"humidity":66,"rain":0.0,"pressure":945.8,"uv_index":7.8,"wind_gusts":25.2,"aqi":67,"pm10":11.2,"pm2_5":10.9,"no2":2.2,"co":237.0,"o3":103.0,"so2":5.1,"mosquito_risk":3,"arthritis_risk":5,"migraine_risk":7,"frizz_risk":1,"updated_at":"2026-07-24T13:03:14.718805+05:30"},{"city":"Gwalior","state":"Madhya Pradesh","latitude":26.2183,"longitude":78.1828,"temp":32.4,"humidity":62,"rain":0.0,"pressure":975.1,"uv_index":7.35,"wind_gusts":28.1,"aqi":70,"pm10":6.9,"pm2_5":6.3,"no2":1.0,"co":148.0,"o3":94.0,"so2":3.5,"mosquito_risk":3,"arthritis_risk":5,"migraine_risk":7,"frizz_risk":1,"updated_at":"2026-07-24T13:03:14.718814+05:30"},{"city":"Indore","state":"Madhya Pradesh","latitude":22.7196,"longitude":75.8577,"temp":28.9,"humidity":62,"rain":0.0,"pressure":940.9,"uv_index":6.35,"wind_gusts":51.1,"aqi":27,"pm10":15.8,"pm2_5":7.3,"no2":3.6,"co":194.0,"o3":49.0,"so2":4.9,"mosquito_risk":7,"arthritis_risk":5,"migraine_risk":7,"frizz_risk":1,"updated_at":"2026-07-24T13:03:14.718821+05:30"},{"city":"Bhopal","state":"Madhya Pradesh","latitude":23.2599,"longitude":77.4126,"temp":29.5,"humidity":70,"rain":0.0,"pressure":946.9,"uv_index":7.55,"wind_gusts":42.5,"aqi":34,"pm10":3.0,"pm2_5":2.3,"no2":1.8,"co":147.0,"o3":55.0,"so2":3.5,"mosquito_risk":7,"arthritis_risk":5,"migraine_risk":7,"frizz_risk":1,"updated_at":"2026-07-24T13:03:14.718828+05:30"},{"city":"Jabalpur","state":"Madhya Pradesh","latitude":23.1815,"longitude":79.9864,"temp":30.5,"humidity":60,"rain":0.0,"pressure":955.6,"uv_index":7.7,"wind_gusts":30.6,"aqi":53,"pm10":8.0,"pm2_5":5.3,"no2":2.0,"co":116.0,"o3":66.0,"so2":4.9,"mosquito_risk":0,"arthritis_risk":5,"migraine_risk":7,"frizz_risk":1,"updated_at":"2026-07-24T13:03:14.718836+05:30"},{"city":"Ujjain","state":"Madhya Pradesh","latitude":23.1765,"longitude":75.7885,"temp":25.1,"humidity":86,"rain":0.5,"pressure":946.3,"uv_index":4.95,"wind_gusts":58.3,"aqi":29,"pm10":18.3,"pm2_5":7.1,"no2":2.6,"co":132.0,"o3":54.0,"so2":5.1,"mosquito_risk":10,"arthritis_risk":5,"migraine_risk":3,"frizz_risk":1,"updated_at":"2026-07-24T13:03:14.718844+05:30"},{"city":"Visakhapatnam","state":"Andhra Pradesh","latitude":17.6868,"longitude":83.2185,"temp":33.5,"humidity":55,"rain":0.0,"pressure":998.4,"uv_index":9.05,"wind_gusts":43.6,"aqi":74,"pm10":51.0,"pm2_5":28.7,"no2":5.4,"co":270.0,"o3":124.0,"so2":20.7,"mosquito_risk":0,"arthritis_risk":5,"migraine_risk":7,"frizz_risk":1,"updated_at":"2026-07-24T13:03:14.718852+05:30"},{"city":"Vijayawada","state":"Andhra Pradesh","latitude":16.5062,"longitude":80.648,"temp":33.5,"humidity":54,"rain":0.0,"pressure":999.4,"uv_index":8.8,"wind_gusts":42.1,"aqi":72,"pm10":45.8,"pm2_5":22.9,"no2":1.6,"co":120.0,"o3":78.0,"so2":5.1,"mosquito_risk":0,"arthritis_risk":5,"migraine_risk":7,"frizz_risk":1,"updated_at":"2026-07-24T13:03:14.718859+05:30"},{"city":"Guntur","state":"Andhra Pradesh","latitude":16.3067,"longitude":80.4365,"temp":34.6,"humidity":48,"rain":0.0,"pressure":1000.6,"uv_index":8.35,"wind_gusts":47.5,"aqi":73,"pm10":38.1,"pm2_5":19.4,"no2":1.3,"co":116.0,"o3":75.0,"so2":4.2,"mosquito_risk":0,"arthritis_risk":5,"migraine_risk":4,"frizz_risk":1,"updated_at":"2026-07-24T13:03:14.718867+05:30"},{"city":"Nellore","state":"Andhra Pradesh","latitude":14.4426,"longitude":79.9865,"temp":36.1,"humidity":42,"rain":0.0,"pressure":1003.0,"uv_index":8.4,"wind_gusts":42.8,"aqi":69,"pm10":47.8,"pm2_5":20.8,"no2":1.9,"co":106.0,"o3":103.0,"so2":4.8,"mosquito_risk":0,"arthritis_risk":5,"migraine_risk":7,"frizz_risk":1,"updated_at":"2026-07-24T13:03:14.718875+05:30"},{"city":"Kurnool","state":"Andhra Pradesh","latitude":15.8281,"longitude":78.0373,"temp":31.1,"humidity":56,"rain":0.0,"pressure":974.9,"uv_index":7.6,"wind_gusts":51.1,"aqi":67,"pm10":33.9,"pm2_5":14.7,"no2":0.8,"co":104.0,"o3":69.0,"so2":1.6,"mosquito_risk":0,"arthritis_risk":5,"migraine_risk":7,"frizz_risk":1,"updated_at":"2026-07-24T13:03:14.718883+05:30"},{"city":"Kakinada","state":"Andhra Pradesh","latitude":16.9891,"longitude":82.2475,"temp":35.1,"humidity":48,"rain":0.0,"pressure":1003.0,"uv_index":8.95,"wind_gusts":57.2,"aqi":67,"pm10":54.2,"pm2_5":27.8,"no2":1.6,"co":153.0,"o3":112.0,"so2":5.0,"mosquito_risk":0,"arthritis_risk":5,"migraine_risk":7,"frizz_risk":1,"updated_at":"2026-07-24T13:03:14.718890+05:30"},{"city":"Tirupati","state":"Andhra Pradesh","latitude":13.6288,"longitude":79.4192,"temp":35.1,"humidity":41,"rain":0.0,"pressure":988.7,"uv_index":7.9,"wind_gusts":33.5,"aqi":66,"pm10":39.8,"pm2_5":15.3,"no2":0.6,"co":110.0,"o3":90.0,"so2":1.4,"mosquito_risk":0,"arthritis_risk":5,"migraine_risk":10,"frizz_risk":1,"updated_at":"2026-07-24T13:03:14.718898+05:30"},{"city":"Warangal","state":"Telangana","latitude":17.9689,"longitude":79.5941,"temp":31.4,"humidity":56,"rain":0.0,"pressure":975.5,"uv_index":6.0,"wind_gusts":46.1,"aqi":73,"pm10":16.6,"pm2_5":8.2,"no2":0.9,"co":121.0,"o3":73.0,"so2":2.1,"mosquito_risk":0,"arthritis_risk":5,"migraine_risk":3,"frizz_risk":1,"updated_at":"2026-07-24T13:03:14.718905+05:30"},{"city":"Nizamabad","state":"Telangana","latitude":18.6725,"longitude":78.0941,"temp":31.4,"humidity":55,"rain":0.0,"pressure":961.1,"uv_index":7.85,"wind_gusts":52.6,"aqi":61,"pm10":14.2,"pm2_5":6.9,"no2":0.9,"co":107.0,"o3":69.0,"so2":2.5,"mosquito_risk":0,"arthritis_risk":5,"migraine_risk":7,"frizz_risk":1,"updated_at":"2026-07-24T13:03:14.718912+05:30"},{"city":"Mysore","state":"Karnataka","latitude":12.2958,"longitude":76.6396,"temp":30.6,"humidity":49,"rain":0.0,"pressure":928.6,"uv_index":8.5,"wind_gusts":45.7,"aqi":42,"pm10":88.0,"pm2_5":31.4,"no2":1.3,"co":114.0,"o3":82.0,"so2":1.3,"mosquito_risk":0,"arthritis_risk":5,"migraine_risk":7,"frizz_risk":1,"updated_at":"2026-07-24T13:03:14.718919+05:30"},{"city":"Mangalore","state":"Karnataka","latitude":12.9141,"longitude":74.856,"temp":28.2,"humidity":80,"rain":0.0,"pressure":1007.5,"uv_index":8.7,"wind_gusts":41.0,"aqi":54,"pm10":59.6,"pm2_5":20.4,"no2":0.9,"co":108.0,"o3":66.0,"so2":1.7,"mosquito_risk":7,"arthritis_risk":5,"migraine_risk":4,"frizz_risk":1,"updated_at":"2026-07-24T13:03:14.718926+05:30"},{"city":"Hubli-Dharwad","state":"Karnataka","latitude":15.3647,"longitude":75.124,"temp":27.5,"humidity":66,"rain":0.0,"pressure":940.1,"uv_index":8.85,"wind_gusts":64.8,"aqi":64,"pm10":12.8,"pm2_5":6.1,"no2":1.1,"co":101.0,"o3":52.0,"so2":0.9,"mosquito_risk":7,"arthritis_risk":5,"migraine_risk":7,"frizz_risk":1,"updated_at":"2026-07-24T13:03:14.718934+05:30"},{"city":"Belgaum","state":"Karnataka","latitude":15.8497,"longitude":74.4977,"temp":24.8,"humidity":79,"rain":0.1,"pressure":924.5,"uv_index":9.05,"wind_gusts":63.4,"aqi":57,"pm10":8.1,"pm2_5":5.4,"no2":1.1,"co":112.0,"o3":47.0,"so2":1.2,"mosquito_risk":6,"arthritis_risk":5,"migraine_risk":7,"frizz_risk":1,"updated_at":"2026-07-24T13:03:18.043471+05:30"},{"city":"Coimbatore","state":"Tamil Nadu","latitude":11.0168,"longitude":76.9558,"temp":32.9,"humidity":47,"rain":0.0,"pressure":961.0,"uv_index":8.9,"wind_gusts":48.6,"aqi":39,"pm10":20.5,"pm2_5":8.8,"no2":0.9,"co":135.0,"o3":72.0,"so2":1.8,"mosquito_risk":0,"arthritis_risk":5,"migraine_risk":7,"frizz_risk":1,"updated_at":"2026-07-24T13:03:18.043507+05:30"},{"city":"Madurai","state":"Tamil Nadu","latitude":9.9252,"longitude":78.1198,"temp":38.4,"humidity":29,"rain":0.0,"pressure":990.8,"uv_index":8.85,"wind_gusts":28.4,"aqi":65,"pm10":21.6,"pm2_5":11.2,"no2":1.3,"co":150.0,"o3":108.0,"so2":2.5,"mosquito_risk":0,"arthritis_risk":5,"migraine_risk":10,"frizz_risk":1,"updated_at":"2026-07-24T13:03:18.043521+05:30"},{"city":"Trichy","state":"Tamil Nadu","latitude":10.7905,"longitude":78.7047,"temp":37.5,"humidity":36,"rain":0.0,"pressure":997.2,"uv_index":8.75,"wind_gusts":44.3,"aqi":52,"pm10":12.3,"pm2_5":6.8,"no2":1.1,"co":110.0,"o3":73.0,"so2":1.9,"mosquito_risk":0,"arthritis_risk":5,"migraine_risk":10,"frizz_risk":1,"updated_at":"2026-07-24T13:03:18.043531+05:30"},{"city":"Salem","state":"Tamil Nadu","latitude":11.6643,"longitude":78.146,"temp":33.4,"humidity":51,"rain":0.1,"pressure":976.0,"uv_index":8.3,"wind_gusts":29.9,"aqi":63,"pm10":18.6,"pm2_5":11.5,"no2":1.8,"co":175.0,"o3":105.0,"so2":6.8,"mosquito_risk":3,"arthritis_risk":5,"migraine_risk":7,"frizz_risk":1,"updated_at":"2026-07-24T13:03:18.043541+05:30"},{"city":"Tirunelveli","state":"Tamil Nadu","latitude":8.7139,"longitude":77.7567,"temp":37.9,"humidity":32,"rain":0.0,"pressure":1001.0,"uv_index":8.75,"wind_gusts":46.4,"aqi":40,"pm10":9.4,"pm2_5":5.2,"no2":0.9,"co":114.0,"o3":66.0,"so2":1.1,"mosquito_risk":0,"arthritis_risk":5,"migraine_risk":7,"frizz_risk":1,"updated_at":"2026-07-24T13:03:18.043551+05:30"},{"city":"Vellore","state":"Tamil Nadu","latitude":12.9165,"longitude":79.1325,"temp":35.7,"humidity":39,"rain":0.0,"pressure":982.1,"uv_index":7.4,"wind_gusts":40.3,"aqi":76,"pm10":16.9,"pm2_5":9.4,"no2":1.3,"co":125.0,"o3":94.0,"so2":2.6,"mosquito_risk":0,"arthritis_risk":5,"migraine_risk":10,"frizz_risk":1,"updated_at":"2026-07-24T13:03:18.043560+05:30"},{"city":"Erode","state":"Tamil Nadu","latitude":11.341,"longitude":77.7172,"temp":36.9,"humidity":36,"rain":0.0,"pressure":987.1,"uv_index":8.45,"wind_gusts":38.9,"aqi":53,"pm10":14.9,"pm2_5":9.4,"no2":1.5,"co":147.0,"o3":92.0,"so2":2.2,"mosquito_risk":0,"arthritis_risk":5,"migraine_risk":10,"frizz_risk":1,"updated_at":"2026-07-24T13:03:18.043569+05:30"},{"city":"Kochi","state":"Kerala","latitude":9.9312,"longitude":76.2673,"temp":29.2,"humidity":77,"rain":0.0,"pressure":1009.0,"uv_index":8.5,"wind_gusts":29.5,"aqi":56,"pm10":10.8,"pm2_5":7.9,"no2":1.5,"co":138.0,"o3":83.0,"so2":3.5,"mosquito_risk":7,"arthritis_risk":0,"migraine_risk":4,"frizz_risk":1,"updated_at":"2026-07-24T13:03:18.043578+05:30"},{"city":"Thiruvananthapuram","state":"Kerala","latitude":8.5241,"longitude":76.9366,"temp":30.4,"humidity":66,"rain":0.0,"pressure":1007.9,"uv_index":8.55,"wind_gusts":42.8,"aqi":50,"pm10":14.6,"pm2_5":10.8,"no2":1.9,"co":121.0,"o3":92.0,"so2":2.7,"mosquito_risk":3,"arthritis_risk":5,"migraine_risk":4,"frizz_risk":1,"updated_at":"2026-07-24T13:03:18.043586+05:30"},{"city":"Kozhikode","state":"Kerala","latitude":11.2588,"longitude":75.7804,"temp":30.6,"humidity":69,"rain":0.0,"pressure":1007.9,"uv_index":8.5,"wind_gusts":34.6,"aqi":37,"pm10":12.9,"pm2_5":7.1,"no2":0.6,"co":126.0,"o3":64.0,"so2":1.7,"mosquito_risk":3,"arthritis_risk":5,"migraine_risk":4,"frizz_risk":1,"updated_at":"2026-07-24T13:03:18.043594+05:30"},{"city":"Thrissur","state":"Kerala","latitude":10.5276,"longitude":76.2144,"temp":30.7,"humidity":68,"rain":0.0,"pressure":1007.2,"uv_index":8.55,"wind_gusts":36.4,"aqi":53,"pm10":10.3,"pm2_5":7.3,"no2":1.0,"co":120.0,"o3":74.0,"so2":2.2,"mosquito_risk":3,"arthritis_risk":5,"migraine_risk":4,"frizz_risk":1,"updated_at":"2026-07-24T13:03:18.043604+05:30"},{"city":"Kannur","state":"Kerala","latitude":11.8745,"longitude":75.3704,"temp":29.7,"humidity":73,"rain":0.0,"pressure":1007.5,"uv_index":8.65,"wind_gusts":35.6,"aqi":45,"pm10":57.3,"pm2_5":18.5,"no2":0.7,"co":112.0,"o3":67.0,"so2":1.6,"mosquito_risk":7,"arthritis_risk":5,"migraine_risk":4,"frizz_risk":1,"updated_at":"2026-07-24T13:03:18.043612+05:30"},{"city":"Patna","state":"Bihar","latitude":25.5941,"longitude":85.1376,"temp":31.9,"humidity":69,"rain":0.0,"pressure":993.6,"uv_index":5.7,"wind_gusts":19.1,"aqi":85,"pm10":15.5,"pm2_5":15.5,"no2":3.8,"co":276.0,"o3":128.0,"so2":11.1,"mosquito_risk":3,"arthritis_risk":5,"migraine_risk":3,"frizz_risk":1,"updated_at":"2026-07-24T13:03:18.043621+05:30"},{"city":"Gaya","state":"Bihar","latitude":24.7914,"longitude":85.0002,"temp":31.2,"humidity":70,"rain":0.0,"pressure":987.1,"uv_index":8.15,"wind_gusts":24.5,"aqi":82,"pm10":13.2,"pm2_5":12.8,"no2":4.3,"co":171.0,"o3":102.0,"so2":12.3,"mosquito_risk":3,"arthritis_risk":5,"migraine_risk":7,"frizz_risk":1,"updated_at":"2026-07-24T13:03:18.043629+05:30"},{"city":"Muzaffarpur","state":"Bihar","latitude":26.1209,"longitude":85.3647,"temp":31.7,"humidity":71,"rain":0.0,"pressure":993.7,"uv_index":6.65,"wind_gusts":25.2,"aqi":87,"pm10":16.1,"pm2_5":15.9,"no2":3.4,"co":279.0,"o3":129.0,"so2":8.6,"mosquito_risk":3,"arthritis_risk":5,"migraine_risk":7,"frizz_risk":1,"updated_at":"2026-07-24T13:03:18.043635+05:30"},{"city":"Bhagalpur","state":"Bihar","latitude":25.2425,"longitude":87.0117,"temp":32.5,"humidity":65,"rain":0.0,"pressure":993.7,"uv_index":6.35,"wind_gusts":30.2,"aqi":73,"pm10":19.7,"pm2_5":19.4,"no2":4.3,"co":269.0,"o3":136.0,"so2":22.9,"mosquito_risk":3,"arthritis_risk":5,"migraine_risk":7,"frizz_risk":1,"updated_at":"2026-07-24T13:03:18.043642+05:30"},{"city":"Ranchi","state":"Jharkhand","latitude":23.3441,"longitude":85.3096,"temp":26.6,"humidity":80,"rain":0.1,"pressure":932.0,"uv_index":6.65,"wind_gusts":31.7,"aqi":57,"pm10":11.6,"pm2_5":9.7,"no2":2.6,"co":159.0,"o3":82.0,"so2":8.9,"mosquito_risk":10,"arthritis_risk":5,"migraine_risk":7,"frizz_risk":1,"updated_at":"2026-07-24T13:03:18.043649+05:30"},{"city":"Jamshedpur","state":"Jharkhand","latitude":22.8046,"longitude":86.2029,"temp":27.6,"humidity":88,"rain":0.3,"pressure":984.3,"uv_index":6.3,"wind_gusts":31.7,"aqi":65,"pm10":21.8,"pm2_5":18.9,"no2":2.7,"co":184.0,"o3":118.0,"so2":15.6,"mosquito_risk":10,"arthritis_risk":5,"migraine_risk":7,"frizz_risk":1,"updated_at":"2026-07-24T13:03:18.043656+05:30"},{"city":"Dhanbad","state":"Jharkhand","latitude":23.7957,"longitude":86.4304,"temp":28.1,"humidity":86,"rain":0.1,"pressure":973.1,"uv_index":6.75,"wind_gusts":27.0,"aqi":84,"pm10":27.0,"pm2_5":26.0,"no2":10.6,"co":157.0,"o3":122.0,"so2":38.9,"mosquito_risk":10,"arthritis_risk":5,"migraine_risk":7,"frizz_risk":1,"updated_at":"2026-07-24T13:03:18.043664+05:30"},{"city":"Bokaro","state":"Jharkhand","latitude":23.6693,"longitude":86.1511,"temp":27.6,"humidity":87,"rain":0.4,"pressure":977.2,"uv_index":8.5,"wind_gusts":27.0,"aqi":72,"pm10":22.8,"pm2_5":21.5,"no2":12.2,"co":173.0,"o3":107.0,"so2":45.1,"mosquito_risk":10,"arthritis_risk":5,"migraine_risk":7,"frizz_risk":1,"updated_at":"2026-07-24T13:03:18.043671+05:30"},{"city":"Bhubaneswar","state":"Odisha","latitude":20.2961,"longitude":85.8245,"temp":32.4,"humidity":65,"rain":0.0,"pressure":996.3,"uv_index":8.75,"wind_gusts":37.4,"aqi":71,"pm10":46.6,"pm2_5":26.1,"no2":3.1,"co":183.0,"o3":108.0,"so2":7.0,"mosquito_risk":3,"arthritis_risk":5,"migraine_risk":7,"frizz_risk":1,"updated_at":"2026-07-24T13:03:18.043678+05:30"},{"city":"Cuttack","state":"Odisha","latitude":20.4625,"longitude":85.8828,"temp":32.2,"humidity":64,"rain":0.0,"pressure":998.1,"uv_index":8.7,"wind_gusts":41.4,"aqi":71,"pm10":46.6,"pm2_5":26.1,"no2":3.1,"co":200.0,"o3":108.0,"so2":7.0,"mosquito_risk":3,"arthritis_risk":5,"migraine_risk":7,"frizz_risk":1,"updated_at":"2026-07-24T13:03:18.043684+05:30"},{"city":"Rourkela","state":"Odisha","latitude":22.2604,"longitude":84.8536,"temp":30.8,"humidity":67,"rain":0.0,"pressure":979.0,"uv_index":7.8,"wind_gusts":42.8,"aqi":66,"pm10":38.3,"pm2_5":26.5,"no2":4.7,"co":161.0,"o3":103.0,"so2":19.3,"mosquito_risk":3,"arthritis_risk":5,"migraine_risk":7,"frizz_risk":1,"updated_at":"2026-07-24T13:03:18.043691+05:30"},{"city":"Raipur","state":"Chhattisgarh","latitude":21.2514,"longitude":81.6296,"temp":30.5,"humidity":64,"rain":0.0,"pressure":969.5,"uv_index":7.65,"wind_gusts":44.3,"aqi":74,"pm10":16.4,"pm2_5":14.4,"no2":8.0,"co":257.0,"o3":71.0,"so2":29.3,"mosquito_risk":3,"arthritis_risk":5,"migraine_risk":7,"frizz_risk":1,"updated_at":"2026-07-24T13:03:18.043697+05:30"},{"city":"Bhilai","state":"Chhattisgarh","latitude":21.1938,"longitude":81.3509,"temp":30.1,"humidity":66,"rain":0.0,"pressure":969.9,"uv_index":7.55,"wind_gusts":49.3,"aqi":72,"pm10":13.3,"pm2_5":11.7,"no2":7.4,"co":338.0,"o3":70.0,"so2":26.4,"mosquito_risk":3,"arthritis_risk":5,"migraine_risk":7,"frizz_risk":1,"updated_at":"2026-07-24T13:03:18.043704+05:30"},{"city":"Guwahati","state":"Assam","latitude":26.1158,"longitude":91.7086,"temp":31.8,"humidity":73,"rain":0.0,"pressure":994.5,"uv_index":8.35,"wind_gusts":19.8,"aqi":53,"pm10":7.7,"pm2_5":7.3,"no2":1.0,"co":214.0,"o3":105.0,"so2":2.3,"mosquito_risk":3,"arthritis_risk":5,"migraine_risk":7,"frizz_risk":1,"updated_at":"2026-07-24T13:03:18.043711+05:30"},{"city":"Agartala","state":"Tripura","latitude":23.8315,"longitude":91.2868,"temp":30.5,"humidity":70,"rain":0.1,"pressure":999.4,"uv_index":6.5,"wind_gusts":37.8,"aqi":47,"pm10":8.3,"pm2_5":6.3,"no2":2.4,"co":141.0,"o3":83.0,"so2":0.9,"mosquito_risk":6,"arthritis_risk":5,"migraine_risk":7,"frizz_risk":1,"updated_at":"2026-07-24T13:03:18.043718+05:30"},{"city":"Shillong","state":"Meghalaya","latitude":25.5788,"longitude":91.8933,"temp":26.2,"humidity":64,"rain":0.0,"pressure":854.6,"uv_index":6.25,"wind_gusts":28.8,"aqi":31,"pm10":4.2,"pm2_5":3.7,"no2":0.8,"co":149.0,"o3":82.0,"so2":1.5,"mosquito_risk":7,"arthritis_risk":5,"migraine_risk":7,"frizz_risk":1,"updated_at":"2026-07-24T13:03:18.043724+05:30"},{"city":"Imphal","state":"Manipur","latitude":24.817,"longitude":93.9368,"temp":28.0,"humidity":69,"rain":0.0,"pressure":918.3,"uv_index":9.05,"wind_gusts":20.2,"aqi":39,"pm10":4.0,"pm2_5":3.4,"no2":1.1,"co":157.0,"o3":81.0,"so2":1.1,"mosquito_risk":7,"arthritis_risk":5,"migraine_risk":7,"frizz_risk":1,"updated_at":"2026-07-24T13:03:18.043731+05:30"},{"city":"Aizawl","state":"Mizoram","latitude":23.7271,"longitude":92.7176,"temp":24.9,"humidity":70,"rain":0.1,"pressure":888.4,"uv_index":8.7,"wind_gusts":34.9,"aqi":26,"pm10":2.3,"pm2_5":1.7,"no2":0.5,"co":117.0,"o3":68.0,"so2":0.6,"mosquito_risk":6,"arthritis_risk":5,"migraine_risk":7,"frizz_risk":1,"updated_at":"2026-07-24T13:03:18.043737+05:30"},{"city":"Kohima","state":"Nagaland","latitude":25.6701,"longitude":94.1077,"temp":23.4,"humidity":85,"rain":0.1,"pressure":852.3,"uv_index":8.65,"wind_gusts":22.7,"aqi":28,"pm10":3.4,"pm2_5":2.8,"no2":0.6,"co":133.0,"o3":79.0,"so2":0.8,"mosquito_risk":6,"arthritis_risk":5,"migraine_risk":7,"frizz_risk":1,"updated_at":"2026-07-24T13:03:18.043744+05:30"},{"city":"Gangtok","state":"Sikkim","latitude":27.3314,"longitude":88.6138,"temp":22.7,"humidity":72,"rain":0.0,"pressure":836.0,"uv_index":7.5,"wind_gusts":34.6,"aqi":37,"pm10":4.5,"pm2_5":4.4,"no2":1.1,"co":157.0,"o3":98.0,"so2":1.2,"mosquito_risk":3,"arthritis_risk":5,"migraine_risk":7,"frizz_risk":1,"updated_at":"2026-07-24T13:03:18.043751+05:30"},{"city":"Siliguri","state":"West Bengal","latitude":26.7271,"longitude":88.3953,"temp":30.1,"humidity":75,"rain":0.0,"pressure":986.9,"uv_index":7.65,"wind_gusts":28.8,"aqi":62,"pm10":10.4,"pm2_5":9.7,"no2":1.3,"co":214.0,"o3":111.0,"so2":2.8,"mosquito_risk":3,"arthritis_risk":5,"migraine_risk":7,"frizz_risk":1,"updated_at":"2026-07-24T13:03:21.817728+05:30"},{"city":"Durgapur","state":"West Bengal","latitude":23.5204,"longitude":87.3119,"temp":31.6,"humidity":70,"rain":0.0,"pressure":987.3,"uv_index":7.15,"wind_gusts":24.8,"aqi":89,"pm10":28.6,"pm2_5":28.1,"no2":14.9,"co":382.0,"o3":104.0,"so2":51.0,"mosquito_risk":3,"arthritis_risk":5,"migraine_risk":7,"frizz_risk":1,"updated_at":"2026-07-24T13:03:21.817761+05:30"},{"city":"Asansol","state":"West Bengal","latitude":23.6739,"longitude":86.9524,"temp":29.1,"humidity":80,"rain":0.2,"pressure":986.2,"uv_index":8.3,"wind_gusts":29.5,"aqi":80,"pm10":31.1,"pm2_5":30.4,"no2":13.2,"co":233.0,"o3":112.0,"so2":46.2,"mosquito_risk":10,"arthritis_risk":5,"migraine_risk":7,"frizz_risk":1,"updated_at":"2026-07-24T13:03:21.817772+05:30"},{"city":"Pondicherry","state":"Puducherry","latitude":11.9139,"longitude":79.8145,"temp":35.0,"humidity":46,"rain":0.1,"pressure":1005.9,"uv_index":7.9,"wind_gusts":41.4,"aqi":65,"pm10":28.1,"pm2_5":20.1,"no2":3.4,"co":165.0,"o3":118.0,"so2":7.8,"mosquito_risk":3,"arthritis_risk":5,"migraine_risk":4,"frizz_risk":1,"updated_at":"2026-07-24T13:03:21.817802+05:30"},{"city":"Port Blair","state":"Andaman and Nicobar Islands","latitude":11.6234,"longitude":92.7265,"temp":31.2,"humidity":63,"rain":0.0,"pressure":1005.7,"uv_index":8.55,"wind_gusts":44.3,"aqi":40,"pm10":15.5,"pm2_5":9.3,"no2":0.2,"co":92.0,"o3":47.0,"so2":0.5,"mosquito_risk":3,"arthritis_risk":5,"migraine_risk":4,"frizz_risk":1,"updated_at":"2026-07-24T13:03:21.817812+05:30"},{"city":"Haridwar","state":"Uttarakhand","latitude":29.9457,"longitude":78.1642,"temp":32.5,"humidity":63,"rain":0.0,"pressure":967.6,"uv_index":6.3,"wind_gusts":36.7,"aqi":75,"pm10":17.9,"pm2_5":17.8,"no2":1.4,"co":216.0,"o3":142.0,"so2":5.0,"mosquito_risk":3,"arthritis_risk":5,"migraine_risk":7,"frizz_risk":1,"updated_at":"2026-07-24T13:03:21.817821+05:30"},{"city":"Rishikesh","state":"Uttarakhand","latitude":30.0869,"longitude":78.2676,"temp":30.5,"humidity":75,"rain":0.0,"pressure":960.6,"uv_index":6.0,"wind_gusts":26.3,"aqi":58,"pm10":14.0,"pm2_5":13.8,"no2":1.1,"co":201.0,"o3":132.0,"so2":3.6,"mosquito_risk":3,"arthritis_risk":5,"migraine_risk":3,"frizz_risk":1,"updated_at":"2026-07-24T13:03:21.817828+05:30"},{"city":"Nainital","state":"Uttarakhand","latitude":29.3919,"longitude":79.4542,"temp":22.6,"humidity":69,"rain":0.0,"pressure":804.6,"uv_index":8.0,"wind_gusts":42.1,"aqi":55,"pm10":11.5,"pm2_5":11.4,"no2":0.9,"co":166.0,"o3":116.0,"so2":2.0,"mosquito_risk":3,"arthritis_risk":5,"migraine_risk":7,"frizz_risk":1,"updated_at":"2026-07-24T13:03:21.817836+05:30"},{"city":"Mussoorie","state":"Uttarakhand","latitude":30.4599,"longitude":78.0664,"temp":20.2,"humidity":82,"rain":0.1,"pressure":801.2,"uv_index":6.1,"wind_gusts":31.7,"aqi":65,"pm10":12.7,"pm2_5":12.5,"no2":1.5,"co":172.0,"o3":134.0,"so2":3.6,"mosquito_risk":6,"arthritis_risk":5,"migraine_risk":7,"frizz_risk":1,"updated_at":"2026-07-24T13:03:21.817843+05:30"},{"city":"Dharamshala","state":"Himachal Pradesh","latitude":32.219,"longitude":76.3234,"temp":24.8,"humidity":77,"rain":0.0,"pressure":866.6,"uv_index":6.55,"wind_gusts":32.4,"aqi":42,"pm10":9.7,"pm2_5":9.2,"no2":0.9,"co":216.0,"o3":105.0,"so2":0.8,"mosquito_risk":3,"arthritis_risk":5,"migraine_risk":7,"frizz_risk":1,"updated_at":"2026-07-24T13:03:21.817851+05:30"},{"city":"Dalhousie","state":"Himachal Pradesh","latitude":32.5387,"longitude":75.971,"temp":21.6,"humidity":82,"rain":0.1,"pressure":803.7,"uv_index":8.55,"wind_gusts":28.8,"aqi":86,"pm10":19.0,"pm2_5":18.0,"no2":1.1,"co":208.0,"o3":148.0,"so2":1.4,"mosquito_risk":6,"arthritis_risk":5,"migraine_risk":7,"frizz_risk":1,"updated_at":"2026-07-24T13:03:21.817860+05:30"},{"city":"Patiala","state":"Punjab","latitude":30.3398,"longitude":76.3869,"temp":32.7,"humidity":64,"rain":0.0,"pressure":971.3,"uv_index":7.2,"wind_gusts":36.4,"aqi":82,"pm10":26.3,"pm2_5":26.1,"no2":2.0,"co":272.0,"o3":171.0,"so2":9.3,"mosquito_risk":3,"arthritis_risk":5,"migraine_risk":7,"frizz_risk":1,"updated_at":"2026-07-24T13:03:21.817867+05:30"},{"city":"Bhatinda","state":"Punjab","latitude":30.211,"longitude":74.9455,"temp":32.3,"humidity":67,"rain":0.1,"pressure":976.4,"uv_index":7.35,"wind_gusts":32.0,"aqi":118,"pm10":36.1,"pm2_5":36.0,"no2":3.9,"co":283.0,"o3":187.0,"so2":18.3,"mosquito_risk":6,"arthritis_risk":5,"migraine_risk":7,"frizz_risk":1,"updated_at":"2026-07-24T13:03:21.817874+05:30"},{"city":"Rohtak","state":"Haryana","latitude":28.8955,"longitude":76.6066,"temp":30.0,"humidity":77,"rain":0.1,"pressure":974.0,"uv_index":6.2,"wind_gusts":34.6,"aqi":92,"pm10":19.8,"pm2_5":19.7,"no2":4.6,"co":286.0,"o3":163.0,"so2":16.1,"mosquito_risk":10,"arthritis_risk":5,"migraine_risk":7,"frizz_risk":1,"updated_at":"2026-07-24T13:03:21.817881+05:30"},{"city":"Panipat","state":"Haryana","latitude":29.3909,"longitude":76.9635,"temp":32.0,"humidity":72,"rain":0.0,"pressure":973.0,"uv_index":6.15,"wind_gusts":42.8,"aqi":85,"pm10":23.5,"pm2_5":23.5,"no2":3.9,"co":290.0,"o3":166.0,"so2":16.2,"mosquito_risk":3,"arthritis_risk":5,"migraine_risk":7,"frizz_risk":1,"updated_at":"2026-07-24T13:03:21.817888+05:30"},{"city":"Mathura","state":"Uttar Pradesh","latitude":27.4924,"longitude":77.6737,"temp":32.0,"humidity":69,"rain":0.1,"pressure":978.9,"uv_index":6.5,"wind_gusts":28.4,"aqi":84,"pm10":11.1,"pm2_5":10.6,"no2":2.9,"co":179.0,"o3":103.0,"so2":3.9,"mosquito_risk":6,"arthritis_risk":5,"migraine_risk":7,"frizz_risk":1,"updated_at":"2026-07-24T13:03:21.817896+05:30"},{"city":"Vrindavan","state":"Uttar Pradesh","latitude":27.5823,"longitude":77.7027,"temp":32.4,"humidity":67,"rain":0.0,"pressure":979.3,"uv_index":6.5,"wind_gusts":28.4,"aqi":84,"pm10":11.1,"pm2_5":10.6,"no2":2.9,"co":183.0,"o3":103.0,"so2":3.9,"mosquito_risk":3,"arthritis_risk":5,"migraine_risk":7,"frizz_risk":1,"updated_at":"2026-07-24T13:03:21.817903+05:30"},{"city":"Ayodhya","state":"Uttar Pradesh","latitude":26.7922,"longitude":82.1998,"temp":31.4,"humidity":74,"rain":0.0,"pressure":988.6,"uv_index":7.1,"wind_gusts":22.7,"aqi":88,"pm10":13.9,"pm2_5":13.7,"no2":2.7,"co":225.0,"o3":104.0,"so2":6.9,"mosquito_risk":3,"arthritis_risk":5,"migraine_risk":7,"frizz_risk":1,"updated_at":"2026-07-24T13:03:21.817910+05:30"},{"city":"Ratlam","state":"Madhya Pradesh","latitude":23.3315,"longitude":75.0367,"temp":24.2,"humidity":92,"rain":0.1,"pressure":946.7,"uv_index":7.4,"wind_gusts":54.0,"aqi":24,"pm10":15.7,"pm2_5":6.1,"no2":2.2,"co":123.0,"o3":56.0,"so2":5.0,"mosquito_risk":6,"arthritis_risk":5,"migraine_risk":7,"frizz_risk":1,"updated_at":"2026-07-24T13:03:21.817917+05:30"},{"city":"Sagar","state":"Madhya Pradesh","latitude":23.8388,"longitude":78.7378,"temp":29.2,"humidity":66,"rain":0.1,"pressure":943.8,"uv_index":7.5,"wind_gusts":36.0,"aqi":34,"pm10":5.2,"pm2_5":3.2,"no2":1.5,"co":112.0,"o3":61.0,"so2":3.8,"mosquito_risk":10,"arthritis_risk":5,"migraine_risk":7,"frizz_risk":1,"updated_at":"2026-07-24T13:03:21.817924+05:30"},{"city":"Satna","state":"Madhya Pradesh","latitude":24.6005,"longitude":80.8322,"temp":31.7,"humidity":59,"rain":0.1,"pressure":964.9,"uv_index":7.25,"wind_gusts":29.5,"aqi":48,"pm10":8.4,"pm2_5":7.1,"no2":1.1,"co":122.0,"o3":87.0,"so2":4.2,"mosquito_risk":3,"arthritis_risk":5,"migraine_risk":7,"frizz_risk":1,"updated_at":"2026-07-24T13:03:21.817931+05:30"},{"city":"Akola","state":"Maharashtra","latitude":20.7002,"longitude":77.0082,"temp":31.2,"humidity":64,"rain":0.0,"pressure":969.2,"uv_index":8.55,"wind_gusts":54.4,"aqi":40,"pm10":24.8,"pm2_5":9.3,"no2":1.5,"co":111.0,"o3":70.0,"so2":4.5,"mosquito_risk":3,"arthritis_risk":5,"migraine_risk":7,"frizz_risk":1,"updated_at":"2026-07-24T13:03:21.817939+05:30"},{"city":"Amravati","state":"Maharashtra","latitude":20.9374,"longitude":77.7796,"temp":28.5,"humidity":75,"rain":0.1,"pressure":962.1,"uv_index":8.45,"wind_gusts":49.7,"aqi":46,"pm10":24.6,"pm2_5":9.6,"no2":1.6,"co":114.0,"o3":71.0,"so2":5.2,"mosquito_risk":10,"arthritis_risk":5,"migraine_risk":7,"frizz_risk":1,"updated_at":"2026-07-24T13:03:21.817947+05:30"},{"city":"Latur","state":"Maharashtra","latitude":18.4088,"longitude":76.5604,"temp":30.3,"humidity":57,"rain":0.0,"pressure":936.3,"uv_index":5.95,"wind_gusts":58.7,"aqi":51,"pm10":12.0,"pm2_5":5.3,"no2":0.7,"co":104.0,"o3":58.0,"so2":1.0,"mosquito_risk":0,"arthritis_risk":5,"migraine_risk":3,"frizz_risk":1,"updated_at":"2026-07-24T13:03:21.817954+05:30"},{"city":"Nanded","state":"Maharashtra","latitude":19.1383,"longitude":77.3091,"temp":31.4,"humidity":57,"rain":0.0,"pressure":964.1,"uv_index":7.85,"wind_gusts":52.6,"aqi":54,"pm10":18.7,"pm2_5":7.4,"no2":0.9,"co":108.0,"o3":67.0,"so2":2.5,"mosquito_risk":0,"arthritis_risk":5,"migraine_risk":7,"frizz_risk":1,"updated_at":"2026-07-24T13:03:21.817961+05:30"},{"city":"Gulbarga","state":"Karnataka","latitude":17.3297,"longitude":76.8343,"temp":31.4,"humidity":53,"rain":0.1,"pressure":955.9,"uv_index":5.55,"wind_gusts":62.6,"aqi":61,"pm10":21.4,"pm2_5":8.7,"no2":1.0,"co":104.0,"o3":68.0,"so2":1.7,"mosquito_risk":3,"arthritis_risk":5,"migraine_risk":3,"frizz_risk":1,"updated_at":"2026-07-24T13:03:21.817968+05:30"},{"city":"Bidar","state":"Karnataka","latitude":17.9104,"longitude":77.5199,"temp":30.1,"humidity":57,"rain":0.0,"pressure":932.7,"uv_index":6.9,"wind_gusts":61.2,"aqi":60,"pm10":14.9,"pm2_5":6.8,"no2":1.0,"co":108.0,"o3":69.0,"so2":1.4,"mosquito_risk":0,"arthritis_risk":5,"migraine_risk":7,"frizz_risk":1,"updated_at":"2026-07-24T13:03:21.817975+05:30"},{"city":"Hospet","state":"Karnataka","latitude":15.2689,"longitude":76.3909,"temp":28.6,"humidity":62,"rain":0.0,"pressure":954.8,"uv_index":8.95,"wind_gusts":59.0,"aqi":61,"pm10":22.7,"pm2_5":10.5,"no2":0.9,"co":104.0,"o3":62.0,"so2":1.3,"mosquito_risk":7,"arthritis_risk":5,"migraine_risk":7,"frizz_risk":1,"updated_at":"2026-07-24T13:03:21.817982+05:30"},{"city":"Tirupur","state":"Tamil Nadu","latitude":11.1085,"longitude":77.3411,"temp":34.9,"humidity":43,"rain":0.0,"pressure":973.8,"uv_index":8.75,"wind_gusts":52.6,"aqi":56,"pm10":15.0,"pm2_5":9.3,"no2":1.4,"co":165.0,"o3":93.0,"so2":2.5,"mosquito_risk":0,"arthritis_risk":5,"migraine_risk":7,"frizz_risk":1,"updated_at":"2026-07-24T13:03:21.817988+05:30"},{"city":"Alappuzha","state":"Kerala","latitude":9.4981,"longitude":76.3388,"temp":29.2,"humidity":74,"rain":0.0,"pressure":1009.1,"uv_index":8.65,"wind_gusts":30.6,"aqi":56,"pm10":15.2,"pm2_5":11.2,"no2":2.4,"co":103.0,"o3":91.0,"so2":4.4,"mosquito_risk":7,"arthritis_risk":0,"migraine_risk":4,"frizz_risk":1,"updated_at":"2026-07-24T13:03:21.817995+05:30"},{"city":"Munnar","state":"Kerala","latitude":10.0889,"longitude":77.0595,"temp":20.6,"humidity":81,"rain":0.1,"pressure":857.8,"uv_index":9.05,"wind_gusts":36.4,"aqi":36,"pm10":6.7,"pm2_5":3.9,"no2":0.6,"co":97.0,"o3":54.0,"so2":0.8,"mosquito_risk":6,"arthritis_risk":5,"migraine_risk":7,"frizz_risk":1,"updated_at":"2026-07-24T13:03:21.818002+05:30"},{"city":"Silchar","state":"Assam","latitude":24.8333,"longitude":92.7789,"temp":32.7,"humidity":62,"rain":0.0,"pressure":998.1,"uv_index":8.4,"wind_gusts":23.4,"aqi":53,"pm10":7.0,"pm2_5":6.1,"no2":0.9,"co":164.0,"o3":89.0,"so2":2.8,"mosquito_risk":3,"arthritis_risk":5,"migraine_risk":7,"frizz_risk":1,"updated_at":"2026-07-24T13:03:21.818009+05:30"},{"city":"Dibrugarh","state":"Assam","latitude":27.4728,"longitude":94.912,"temp":32.7,"humidity":67,"rain":0.0,"pressure":987.6,"uv_index":8.4,"wind_gusts":24.1,"aqi":55,"pm10":7.2,"pm2_5":6.8,"no2":1.0,"co":157.0,"o3":104.0,"so2":1.4,"mosquito_risk":3,"arthritis_risk":5,"migraine_risk":7,"frizz_risk":1,"updated_at":"2026-07-24T13:03:21.818016+05:30"}]