[{"city":"Delhi","state":"Delhi","latitude":28.6139,"longitude":77.209,"temp":33.3,"humidity":27,"rain":0.0,"pressure":977.9,"uv_index":7.45,"wind_gusts":54.0,"aqi":401,"pm10":890.3,"pm2_5":132.7,"mosquito_risk":0,"arthritis_risk":5,"migraine_risk":7,"frizz_risk":0,"updated_at":"2026-04-27T23:38:24.323680+05:30"},{"city":"Mumbai","state":"Maharashtra","latitude":19.076,"longitude":72.8777,"temp":28.4,"humidity":84,"rain":0.0,"pressure":1006.6,"uv_index":8.0,"wind_gusts":43.9,"aqi":85,"pm10":48.4,"pm2_5":24.3,"mosquito_risk":7,"arthritis_risk":5,"migraine_risk":4,"frizz_risk":1,"updated_at":"2026-04-27T23:38:24.323733+05:30"},{"city":"Bangalore","state":"Karnataka","latitude":12.9716,"longitude":77.5946,"temp":27.5,"humidity":41,"rain":0.0,"pressure":911.3,"uv_index":9.55,"wind_gusts":33.5,"aqi":122,"pm10":32.0,"pm2_5":27.8,"mosquito_risk":4,"arthritis_risk":5,"migraine_risk":7,"frizz_risk":0,"updated_at":"2026-04-27T23:38:24.323748+05:30"},{"city":"Hyderabad","state":"Telangana","latitude":17.385,"longitude":78.4867,"temp":32.0,"humidity":36,"rain":0.0,"pressure":951.2,"uv_index":9.25,"wind_gusts":33.8,"aqi":116,"pm10":52.7,"pm2_5":46.1,"mosquito_risk":0,"arthritis_risk":5,"migraine_risk":7,"frizz_risk":0,"updated_at":"2026-04-27T23:38:24.323758+05:30"},{"city":"Chennai","state":"Tamil Nadu","latitude":13.0827,"longitude":80.2707,"temp":29.0,"humidity":84,"rain":0.0,"pressure":1006.0,"uv_index":9.25,"wind_gusts":54.7,"aqi":56,"pm10":15.8,"pm2_5":10.8,"mosquito_risk":7,"arthritis_risk":5,"migraine_risk":4,"frizz_risk":1,"updated_at":"2026-04-27T23:38:24.323767+05:30"},{"city":"Kolkata","state":"West Bengal","latitude":22.5726,"longitude":88.3639,"temp":28.4,"humidity":86,"rain":0.0,"pressure":1001.2,"uv_index":8.85,"wind_gusts":50.0,"aqi":54,"pm10":17.0,"pm2_5":13.8,"mosquito_risk":7,"arthritis_risk":5,"migraine_risk":4,"frizz_risk":1,"updated_at":"2026-04-27T23:38:24.323775+05:30"},{"city":"Pune","state":"Maharashtra","latitude":18.5204,"longitude":73.8567,"temp":26.7,"humidity":77,"rain":0.0,"pressure":946.4,"uv_index":8.55,"wind_gusts":41.8,"aqi":92,"pm10":34.2,"pm2_5":20.2,"mosquito_risk":7,"arthritis_risk":5,"migraine_risk":7,"frizz_risk":1,"updated_at":"2026-04-27T23:38:24.323786+05:30"},{"city":"Ahmedabad","state":"Gujarat","latitude":23.0225,"longitude":72.5714,"temp":34.4,"humidity":26,"rain":0.0,"pressure":999.1,"uv_index":8.2,"wind_gusts":50.0,"aqi":49,"pm10":30.5,"pm2_5":12.7,"mosquito_risk":0,"arthritis_risk":5,"migraine_risk":7,"frizz_risk":0,"updated_at":"2026-04-27T23:38:24.323792+05:30"},{"city":"Jaipur","state":"Rajasthan","latitude":26.9124,"longitude":75.7873,"temp":31.4,"humidity":31,"rain":0.0,"pressure":956.0,"uv_index":8.05,"wind_gusts":51.8,"aqi":123,"pm10":200.7,"pm2_5":39.2,"mosquito_risk":0,"arthritis_risk":5,"migraine_risk":7,"frizz_risk":0,"updated_at":"2026-04-27T23:38:24.323799+05:30"},{"city":"Lucknow","state":"Uttar Pradesh","latitude":26.8467,"longitude":80.9462,"temp":33.5,"humidity":24,"rain":0.0,"pressure":987.7,"uv_index":7.9,"wind_gusts":38.5,"aqi":145,"pm10":324.1,"pm2_5":68.7,"mosquito_risk":0,"arthritis_risk":5,"migraine_risk":7,"frizz_risk":0,"updated_at":"2026-04-27T23:38:24.323806+05:30"},{"city":"Kanpur","state":"Uttar Pradesh","latitude":26.4499,"longitude":80.3319,"temp":34.9,"humidity":22,"rain":0.0,"pressure":985.9,"uv_index":7.95,"wind_gusts":44.3,"aqi":257,"pm10":529.0,"pm2_5":80.8,"mosquito_risk":0,"arthritis_risk":5,"migraine_risk":7,"frizz_risk":0,"updated_at":"2026-04-27T23:38:24.323812+05:30"},{"city":"Chandigarh","state":"Chandigarh","latitude":30.7333,"longitude":76.7794,"temp":28.2,"humidity":33,"rain":0.0,"pressure":963.5,"uv_index":7.45,"wind_gusts":45.7,"aqi":88,"pm10":18.8,"pm2_5":17.0,"mosquito_risk":4,"arthritis_risk":5,"migraine_risk":7,"frizz_risk":0,"updated_at":"2026-04-27T23:38:24.323819+05:30"},{"city":"Srinagar","state":"Jammu and Kashmir","latitude":34.0837,"longitude":74.7973,"temp":11.9,"humidity":92,"rain":0.0,"pressure":837.0,"uv_index":8.3,"wind_gusts":21.2,"aqi":64,"pm10":60.3,"pm2_5":51.5,"mosquito_risk":3,"arthritis_risk":10,"migraine_risk":7,"frizz_risk":0,"updated_at":"2026-04-27T23:38:24.323826+05:30"},{"city":"Jammu","state":"Jammu and Kashmir","latitude":32.7266,"longitude":74.857,"temp":27.9,"humidity":39,"rain":0.0,"pressure":967.9,"uv_index":8.25,"wind_gusts":33.8,"aqi":56,"pm10":31.9,"pm2_5":29.8,"mosquito_risk":4,"arthritis_risk":5,"migraine_risk":7,"frizz_risk":0,"updated_at":"2026-04-27T23:38:24.323832+05:30"},{"city":"Amritsar","state":"Punjab","latitude":31.634,"longitude":74.8723,"temp":28.2,"humidity":42,"rain":0.0,"pressure":975.4,"uv_index":8.1,"wind_gusts":39.6,"aqi":78,"pm10":56.3,"pm2_5":26.6,"mosquito_risk":4,"arthritis_risk":5,"migraine_risk":7,"frizz_risk":0,"updated_at":"2026-04-27T23:38:24.323839+05:30"},{"city":"Ludhiana","state":"Punjab","latitude":30.901,"longitude":75.8573,"temp":29.6,"humidity":35,"rain":0.0,"pressure":973.7,"uv_index":7.7,"wind_gusts":41.4,"aqi":75,"pm10":75.2,"pm2_5":29.5,"mosquito_risk":4,"arthritis_risk":5,"migraine_risk":7,"frizz_risk":0,"updated_at":"2026-04-27T23:38:24.323845+05:30"},{"city":"Jalandhar","state":"Punjab","latitude":31.326,"longitude":75.5762,"temp":28.5,"humidity":51,"rain":0.0,"pressure":974.7,"uv_index":7.7,"wind_gusts":36.7,"aqi":82,"pm10":104.1,"pm2_5":35.5,"mosquito_risk":4,"arthritis_risk":5,"migraine_risk":7,"frizz_risk":1,"updated_at":"2026-04-27T23:38:24.323853+05:30"},{"city":"Dehradun","state":"Uttarakhand","latitude":30.6284,"longitude":78.0322,"temp":15.9,"humidity":51,"rain":0.0,"pressure":825.6,"uv_index":7.9,"wind_gusts":45.7,"aqi":95,"pm10":15.4,"pm2_5":12.5,"mosquito_risk":0,"arthritis_risk":5,"migraine_risk":7,"frizz_risk":0,"updated_at":"2026-04-27T23:38:24.323859+05:30"},{"city":"Shimla","state":"Himachal Pradesh","latitude":31.1048,"longitude":77.1734,"temp":15.6,"humidity":43,"rain":0.0,"pressure":782.0,"uv_index":7.95,"wind_gusts":46.4,"aqi":98,"pm10":15.4,"pm2_5":10.8,"mosquito_risk":0,"arthritis_risk":5,"migraine_risk":7,"frizz_risk":0,"updated_at":"2026-04-27T23:38:24.323865+05:30"},{"city":"Manali","state":"Himachal Pradesh","latitude":32.2396,"longitude":77.1887,"temp":10.3,"humidity":68,"rain":0.0,"pressure":812.9,"uv_index":9.9,"wind_gusts":41.0,"aqi":96,"pm10":21.8,"pm2_5":14.0,"mosquito_risk":3,"arthritis_risk":5,"migraine_risk":7,"frizz_risk":0,"updated_at":"2026-04-27T23:38:24.323871+05:30"},{"city":"Gurgaon","state":"Haryana","latitude":28.4595,"longitude":77.0266,"temp":30.8,"humidity":32,"rain":0.0,"pressure":976.4,"uv_index":7.55,"wind_gusts":48.6,"aqi":847,"pm10":812.1,"pm2_5":115.7,"mosquito_risk":0,"arthritis_risk":5,"migraine_risk":7,"frizz_risk":0,"updated_at":"2026-04-27T23:38:24.323878+05:30"},{"city":"Noida","state":"Uttar Pradesh","latitude":28.5355,"longitude":77.391,"temp":33.4,"humidity":26,"rain":0.0,"pressure":979.2,"uv_index":7.45,"wind_gusts":47.9,"aqi":847,"pm10":812.1,"pm2_5":115.7,"mosquito_risk":0,"arthritis_risk":5,"migraine_risk":7,"frizz_risk":0,"updated_at":"2026-04-27T23:38:24.323884+05:30"},{"city":"Ghaziabad","state":"Uttar Pradesh","latitude":28.6692,"longitude":77.4538,"temp":33.7,"humidity":24,"rain":0.0,"pressure":977.6,"uv_index":7.45,"wind_gusts":46.4,"aqi":318,"pm10":720.8,"pm2_5":113.2,"mosquito_risk":0,"arthritis_risk":5,"migraine_risk":7,"frizz_risk":0,"updated_at":"2026-04-27T23:38:24.323890+05:30"},{"city":"Faridabad","state":"Haryana","latitude":28.4089,"longitude":77.3178,"temp":33.3,"humidity":27,"rain":0.0,"pressure":978.6,"uv_index":7.5,"wind_gusts":51.1,"aqi":847,"pm10":812.1,"pm2_5":115.7,"mosquito_risk":0,"arthritis_risk":5,"migraine_risk":7,"frizz_risk":0,"updated_at":"2026-04-27T23:38:24.323895+05:30"},{"city":"Meerut","state":"Uttar Pradesh","latitude":28.9845,"longitude":77.7064,"temp":31.6,"humidity":27,"rain":0.0,"pressure":976.2,"uv_index":7.35,"wind_gusts":46.1,"aqi":318,"pm10":720.8,"pm2_5":113.2,"mosquito_risk":0,"arthritis_risk":5,"migraine_risk":7,"frizz_risk":0,"updated_at":"2026-04-27T23:38:24.323900+05:30"},{"city":"Agra","state":"Uttar Pradesh","latitude":27.1767,"longitude":78.0081,"temp":33.9,"humidity":26,"rain":0.0,"pressure":982.7,"uv_index":7.8,"wind_gusts":49.3,"aqi":481,"pm10":317.6,"pm2_5":59.8,"mosquito_risk":0,"arthritis_risk":5,"migraine_risk":7,"frizz_risk":0,"updated_at":"2026-04-27T23:38:24.323919+05:30"},{"city":"Varanasi","state":"Uttar Pradesh","latitude":25.3176,"longitude":82.9739,"temp":30.8,"humidity":50,"rain":0.0,"pressure":992.3,"uv_index":8.5,"wind_gusts":38.9,"aqi":133,"pm10":93.8,"pm2_5":65.0,"mosquito_risk":0,"arthritis_risk":5,"migraine_risk":7,"frizz_risk":1,"updated_at":"2026-04-27T23:38:24.323928+05:30"},{"city":"Prayagraj","state":"Uttar Pradesh","latitude":25.4358,"longitude":81.8463,"temp":32.6,"humidity":31,"rain":0.0,"pressure":989.9,"uv_index":8.4,"wind_gusts":43.6,"aqi":123,"pm10":108.0,"pm2_5":56.8,"mosquito_risk":0,"arthritis_risk":5,"migraine_risk":7,"frizz_risk":0,"updated_at":"2026-04-27T23:38:24.323935+05:30"},{"city":"Gorakhpur","state":"Uttar Pradesh","latitude":26.7606,"longitude":83.3732,"temp":28.1,"humidity":60,"rain":0.0,"pressure":993.2,"uv_index":8.35,"wind_gusts":38.9,"aqi":134,"pm10":71.9,"pm2_5":54.8,"mosquito_risk":4,"arthritis_risk":5,"migraine_risk":7,"frizz_risk":1,"updated_at":"2026-04-27T23:38:24.323941+05:30"},{"city":"Bareilly","state":"Uttar Pradesh","latitude":28.367,"longitude":79.4304,"temp":29.0,"humidity":39,"rain":0.0,"pressure":981.1,"uv_index":7.7,"wind_gusts":45.4,"aqi":103,"pm10":58.9,"pm2_5":35.3,"mosquito_risk":4,"arthritis_risk":5,"migraine_risk":7,"frizz_risk":0,"updated_at":"2026-04-27T23:38:24.323947+05:30"},{"city":"Aligarh","state":"Uttar Pradesh","latitude":27.8974,"longitude":78.088,"temp":32.7,"humidity":27,"rain":0.0,"pressure":980.4,"uv_index":7.6,"wind_gusts":44.6,"aqi":637,"pm10":655.7,"pm2_5":111.3,"mosquito_risk":0,"arthritis_risk":5,"migraine_risk":7,"frizz_risk":0,"updated_at":"2026-04-27T23:38:24.323953+05:30"},{"city":"Moradabad","state":"Uttar Pradesh","latitude":28.8386,"longitude":78.7733,"temp":30.5,"humidity":36,"rain":0.0,"pressure":978.0,"uv_index":7.55,"wind_gusts":48.2,"aqi":122,"pm10":219.8,"pm2_5":60.3,"mosquito_risk":0,"arthritis_risk":5,"migraine_risk":7,"frizz_risk":0,"updated_at":"2026-04-27T23:38:24.323960+05:30"},{"city":"Saharanpur","state":"Uttar Pradesh","latitude":29.9637,"longitude":77.546,"temp":30.3,"humidity":29,"rain":0.0,"pressure":970.2,"uv_index":7.1,"wind_gusts":47.2,"aqi":83,"pm10":76.6,"pm2_5":24.4,"mosquito_risk":0,"arthritis_risk":5,"migraine_risk":7,"frizz_risk":0,"updated_at":"2026-04-27T23:38:24.323966+05:30"},{"city":"Jhansi","state":"Uttar Pradesh","latitude":25.4484,"longitude":78.5685,"temp":34.3,"humidity":21,"rain":0.0,"pressure":973.7,"uv_index":8.3,"wind_gusts":49.3,"aqi":60,"pm10":36.7,"pm2_5":19.3,"mosquito_risk":0,"arthritis_risk":5,"migraine_risk":7,"frizz_risk":0,"updated_at":"2026-04-27T23:38:27.615529+05:30"},{"city":"Surat","state":"Gujarat","latitude":21.1702,"longitude":72.8311,"temp":29.2,"humidity":71,"rain":0.0,"pressure":1004.4,"uv_index":7.8,"wind_gusts":38.9,"aqi":85,"pm10":35.4,"pm2_5":21.3,"mosquito_risk":7,"arthritis_risk":5,"migraine_risk":4,"frizz_risk":1,"updated_at":"2026-04-27T23:38:27.615558+05:30"},{"city":"Vadodara","state":"Gujarat","latitude":22.3072,"longitude":73.1812,"temp":31.0,"humidity":49,"rain":0.0,"pressure":1001.6,"uv_index":8.15,"wind_gusts":50.0,"aqi":69,"pm10":29.5,"pm2_5":21.2,"mosquito_risk":0,"arthritis_risk":5,"migraine_risk":4,"frizz_risk":1,"updated_at":"2026-04-27T23:38:27.615567+05:30"},{"city":"Rajkot","state":"Gujarat","latitude":22.3039,"longitude":70.8022,"temp":29.4,"humidity":46,"rain":0.0,"pressure":991.7,"uv_index":7.9,"wind_gusts":57.2,"aqi":50,"pm10":28.4,"pm2_5":13.2,"mosquito_risk":4,"arthritis_risk":5,"migraine_risk":7,"frizz_risk":1,"updated_at":"2026-04-27T23:38:27.615575+05:30"},{"city":"Thane","state":"Maharashtra","latitude":19.2183,"longitude":72.9781,"temp":28.5,"humidity":84,"rain":0.0,"pressure":1005.9,"uv_index":8.05,"wind_gusts":36.0,"aqi":85,"pm10":48.4,"pm2_5":24.3,"mosquito_risk":7,"arthritis_risk":5,"migraine_risk":4,"frizz_risk":1,"updated_at":"2026-04-27T23:38:27.615583+05:30"},{"city":"Nagpur","state":"Maharashtra","latitude":21.1458,"longitude":79.0882,"temp":35.1,"humidity":22,"rain":0.0,"pressure":970.0,"uv_index":8.7,"wind_gusts":37.4,"aqi":89,"pm10":41.3,"pm2_5":31.1,"mosquito_risk":0,"arthritis_risk":5,"migraine_risk":10,"frizz_risk":0,"updated_at":"2026-04-27T23:38:27.615591+05:30"},{"city":"Nashik","state":"Maharashtra","latitude":19.9975,"longitude":73.7898,"temp":26.8,"humidity":77,"rain":0.0,"pressure":944.1,"uv_index":8.3,"wind_gusts":36.4,"aqi":78,"pm10":32.4,"pm2_5":20.8,"mosquito_risk":7,"arthritis_risk":5,"migraine_risk":7,"frizz_risk":1,"updated_at":"2026-04-27T23:38:27.615599+05:30"},{"city":"Aurangabad","state":"Maharashtra","latitude":19.8762,"longitude":75.3433,"temp":32.0,"humidity":25,"rain":0.0,"pressure":942.7,"uv_index":9.0,"wind_gusts":33.8,"aqi":85,"pm10":31.4,"pm2_5":26.4,"mosquito_risk":0,"arthritis_risk":5,"migraine_risk":7,"frizz_risk":0,"updated_at":"2026-04-27T23:38:27.615606+05:30"},{"city":"Solapur","state":"Maharashtra","latitude":17.6599,"longitude":75.9064,"temp":33.2,"humidity":24,"rain":0.0,"pressure":954.0,"uv_index":9.05,"wind_gusts":29.5,"aqi":84,"pm10":34.0,"pm2_5":27.5,"mosquito_risk":0,"arthritis_risk":5,"migraine_risk":7,"frizz_risk":0,"updated_at":"2026-04-27T23:38:27.615614+05:30"},{"city":"Kolhapur","state":"Maharashtra","latitude":16.705,"longitude":74.2433,"temp":24.6,"humidity":85,"rain":0.0,"pressure":946.5,"uv_index":9.0,"wind_gusts":51.8,"aqi":71,"pm10":37.3,"pm2_5":19.0,"mosquito_risk":3,"arthritis_risk":5,"migraine_risk":7,"frizz_risk":1,"updated_at":"2026-04-27T23:38:27.615621+05:30"},{"city":"Goa","state":"Goa","latitude":15.2993,"longitude":74.124,"temp":29.4,"humidity":73,"rain":0.0,"pressure":996.9,"uv_index":8.95,"wind_gusts":35.6,"aqi":70,"pm10":51.0,"pm2_5":20.7,"mosquito_risk":7,"arthritis_risk":5,"migraine_risk":7,"frizz_risk":1,"updated_at":"2026-04-27T23:38:27.615628+05:30"},{"city":"Jodhpur","state":"Rajasthan","latitude":26.2389,"longitude":73.0243,"temp":34.3,"humidity":23,"rain":0.0,"pressure":978.4,"uv_index":8.3,"wind_gusts":46.4,"aqi":125,"pm10":228.2,"pm2_5":33.9,"mosquito_risk":0,"arthritis_risk":5,"migraine_risk":7,"frizz_risk":0,"updated_at":"2026-04-27T23:38:27.615635+05:30"},{"city":"Udaipur","state":"Rajasthan","latitude":24.5854,"longitude":73.7125,"temp":30.6,"humidity":21,"rain":0.0,"pressure":944.0,"uv_index":8.75,"wind_gusts":45.0,"aqi":63,"pm10":18.6,"pm2_5":10.0,"mosquito_risk":0,"arthritis_risk":5,"migraine_risk":7,"frizz_risk":0,"updated_at":"2026-04-27T23:38:27.615642+05:30"},{"city":"Kota","state":"Rajasthan","latitude":25.2138,"longitude":75.8648,"temp":31.9,"humidity":28,"rain":0.0,"pressure":975.1,"uv_index":8.3,"wind_gusts":34.9,"aqi":58,"pm10":16.7,"pm2_5":12.2,"mosquito_risk":0,"arthritis_risk":5,"migraine_risk":7,"frizz_risk":0,"updated_at":"2026-04-27T23:38:27.615649+05:30"},{"city":"Bikaner","state":"Rajasthan","latitude":28.0229,"longitude":73.3119,"temp":31.8,"humidity":40,"rain":0.0,"pressure":976.4,"uv_index":8.1,"wind_gusts":68.4,"aqi":62,"pm10":71.7,"pm2_5":21.5,"mosquito_risk":0,"arthritis_risk":5,"migraine_risk":7,"frizz_risk":1,"updated_at":"2026-04-27T23:38:27.615656+05:30"},{"city":"Ajmer","state":"Rajasthan","latitude":26.4499,"longitude":74.6399,"temp":30.3,"humidity":31,"rain":0.0,"pressure":951.0,"uv_index":8.25,"wind_gusts":55.8,"aqi":61,"pm10":25.0,"pm2_5":10.8,"mosquito_risk":0,"arthritis_risk":5,"migraine_risk":7,"frizz_risk":0,"updated_at":"2026-04-27T23:38:27.615663+05:30"},{"city":"Gwalior","state":"Madhya Pradesh","latitude":26.2183,"longitude":78.1828,"temp":33.3,"humidity":26,"rain":0.0,"pressure":978.6,"uv_index":8.05,"wind_gusts":40.0,"aqi":78,"pm10":83.4,"pm2_5":23.6,"mosquito_risk":0,"arthritis_risk":5,"migraine_risk":7,"frizz_risk":0,"updated_at":"2026-04-27T23:38:27.615669+05:30"},{"city":"Indore","state":"Madhya Pradesh","latitude":22.7196,"longitude":75.8577,"temp":32.1,"humidity":18,"rain":0.0,"pressure":946.2,"uv_index":8.6,"wind_gusts":52.6,"aqi":71,"pm10":19.7,"pm2_5":16.2,"mosquito_risk":0,"arthritis_risk":5,"migraine_risk":7,"frizz_risk":0,"updated_at":"2026-04-27T23:38:27.615676+05:30"},{"city":"Bhopal","state":"Madhya Pradesh","latitude":23.2599,"longitude":77.4126,"temp":33.5,"humidity":14,"rain":0.0,"pressure":950.8,"uv_index":8.6,"wind_gusts":44.3,"aqi":62,"pm10":14.4,"pm2_5":10.1,"mosquito_risk":0,"arthritis_risk":5,"migraine_risk":7,"frizz_risk":0,"updated_at":"2026-04-27T23:38:27.615683+05:30"},{"city":"Jabalpur","state":"Madhya Pradesh","latitude":23.1815,"longitude":79.9864,"temp":30.7,"humidity":29,"rain":0.0,"pressure":957.7,"uv_index":8.75,"wind_gusts":54.0,"aqi":71,"pm10":37.5,"pm2_5":19.5,"mosquito_risk":0,"arthritis_risk":5,"migraine_risk":7,"frizz_risk":0,"updated_at":"2026-04-27T23:38:27.615690+05:30"},{"city":"Ujjain","state":"Madhya Pradesh","latitude":23.1765,"longitude":75.7885,"temp":31.0,"humidity":21,"rain":0.0,"pressure":951.1,"uv_index":8.55,"wind_gusts":50.0,"aqi":69,"pm10":19.3,"pm2_5":15.4,"mosquito_risk":0,"arthritis_risk":5,"migraine_risk":7,"frizz_risk":0,"updated_at":"2026-04-27T23:38:27.615698+05:30"},{"city":"Visakhapatnam","state":"Andhra Pradesh","latitude":17.6868,"longitude":83.2185,"temp":28.4,"humidity":86,"rain":0.0,"pressure":1002.3,"uv_index":9.2,"wind_gusts":55.1,"aqi":59,"pm10":23.1,"pm2_5":17.0,"mosquito_risk":7,"arthritis_risk":5,"migraine_risk":4,"frizz_risk":1,"updated_at":"2026-04-27T23:38:27.615704+05:30"},{"city":"Vijayawada","state":"Andhra Pradesh","latitude":16.5062,"longitude":80.648,"temp":28.8,"humidity":82,"rain":0.0,"pressure":1001.1,"uv_index":9.15,"wind_gusts":35.3,"aqi":61,"pm10":19.1,"pm2_5":14.9,"mosquito_risk":7,"arthritis_risk":5,"migraine_risk":4,"frizz_risk":1,"updated_at":"2026-04-27T23:38:27.615712+05:30"},{"city":"Guntur","state":"Andhra Pradesh","latitude":16.3067,"longitude":80.4365,"temp":28.8,"humidity":84,"rain":0.0,"pressure":1002.3,"uv_index":9.0,"wind_gusts":38.2,"aqi":62,"pm10":19.3,"pm2_5":15.4,"mosquito_risk":7,"arthritis_risk":5,"migraine_risk":4,"frizz_risk":1,"updated_at":"2026-04-27T23:38:27.615718+05:30"},{"city":"Nellore","state":"Andhra Pradesh","latitude":14.4426,"longitude":79.9865,"temp":28.5,"humidity":80,"rain":0.0,"pressure":1004.1,"uv_index":9.3,"wind_gusts":47.2,"aqi":67,"pm10":17.2,"pm2_5":14.3,"mosquito_risk":7,"arthritis_risk":5,"migraine_risk":4,"frizz_risk":1,"updated_at":"2026-04-27T23:38:27.615726+05:30"},{"city":"Kurnool","state":"Andhra Pradesh","latitude":15.8281,"longitude":78.0373,"temp":33.8,"humidity":30,"rain":0.0,"pressure":974.5,"uv_index":9.2,"wind_gusts":29.9,"aqi":135,"pm10":56.9,"pm2_5":47.8,"mosquito_risk":0,"arthritis_risk":5,"migraine_risk":7,"frizz_risk":0,"updated_at":"2026-04-27T23:38:27.615734+05:30"},{"city":"Kakinada","state":"Andhra Pradesh","latitude":16.9891,"longitude":82.2475,"temp":28.6,"humidity":83,"rain":0.0,"pressure":1006.2,"uv_index":8.9,"wind_gusts":41.8,"aqi":55,"pm10":22.5,"pm2_5":14.8,"mosquito_risk":7,"arthritis_risk":5,"migraine_risk":4,"frizz_risk":1,"updated_at":"2026-04-27T23:38:27.615741+05:30"},{"city":"Tirupati","state":"Andhra Pradesh","latitude":13.6288,"longitude":79.4192,"temp":28.5,"humidity":70,"rain":0.0,"pressure":990.3,"uv_index":9.05,"wind_gusts":43.2,"aqi":82,"pm10":19.4,"pm2_5":17.7,"mosquito_risk":7,"arthritis_risk":5,"migraine_risk":7,"frizz_risk":1,"updated_at":"2026-04-27T23:38:27.615748+05:30"},{"city":"Warangal","state":"Telangana","latitude":17.9689,"longitude":79.5941,"temp":31.5,"humidity":43,"rain":0.0,"pressure":976.3,"uv_index":8.85,"wind_gusts":36.0,"aqi":127,"pm10":27.1,"pm2_5":25.1,"mosquito_risk":0,"arthritis_risk":5,"migraine_risk":7,"frizz_risk":1,"updated_at":"2026-04-27T23:38:27.615754+05:30"},{"city":"Nizamabad","state":"Telangana","latitude":18.6725,"longitude":78.0941,"temp":30.4,"humidity":30,"rain":0.0,"pressure":961.3,"uv_index":9.1,"wind_gusts":32.4,"aqi":95,"pm10":54.9,"pm2_5":45.4,"mosquito_risk":0,"arthritis_risk":5,"migraine_risk":7,"frizz_risk":0,"updated_at":"2026-04-27T23:38:27.615761+05:30"},{"city":"Mysore","state":"Karnataka","latitude":12.2958,"longitude":76.6396,"temp":24.2,"humidity":88,"rain":0.0,"pressure":927.7,"uv_index":9.45,"wind_gusts":39.2,"aqi":104,"pm10":30.2,"pm2_5":28.3,"mosquito_risk":3,"arthritis_risk":5,"migraine_risk":7,"frizz_risk":1,"updated_at":"2026-04-27T23:38:27.615767+05:30"},{"city":"Mangalore","state":"Karnataka","latitude":12.9141,"longitude":74.856,"temp":29.5,"humidity":76,"rain":0.0,"pressure":1005.5,"uv_index":8.15,"wind_gusts":39.6,"aqi":77,"pm10":33.4,"pm2_5":25.8,"mosquito_risk":7,"arthritis_risk":5,"migraine_risk":4,"frizz_risk":1,"updated_at":"2026-04-27T23:38:27.615774+05:30"},{"city":"Hubli-Dharwad","state":"Karnataka","latitude":15.3647,"longitude":75.124,"temp":24.8,"humidity":93,"rain":0.0,"pressure":939.7,"uv_index":9.2,"wind_gusts":47.5,"aqi":83,"pm10":21.3,"pm2_5":17.1,"mosquito_risk":3,"arthritis_risk":5,"migraine_risk":7,"frizz_risk":1,"updated_at":"2026-04-27T23:38:27.615781+05:30"},{"city":"Belgaum","state":"Karnataka","latitude":15.8497,"longitude":74.4977,"temp":23.1,"humidity":95,"rain":0.0,"pressure":924.6,"uv_index":9.2,"wind_gusts":39.2,"aqi":80,"pm10":30.0,"pm2_5":16.6,"mosquito_risk":3,"arthritis_risk":5,"migraine_risk":7,"frizz_risk":1,"updated_at":"2026-04-27T23:38:30.908304+05:30"},{"city":"Coimbatore","state":"Tamil Nadu","latitude":11.0168,"longitude":76.9558,"temp":27.4,"humidity":77,"rain":0.0,"pressure":960.8,"uv_index":9.35,"wind_gusts":47.5,"aqi":78,"pm10":23.9,"pm2_5":22.2,"mosquito_risk":7,"arthritis_risk":5,"migraine_risk":7,"frizz_risk":1,"updated_at":"2026-04-27T23:38:30.908335+05:30"},{"city":"Madurai","state":"Tamil Nadu","latitude":9.9252,"longitude":78.1198,"temp":29.5,"humidity":71,"rain":0.0,"pressure":992.8,"uv_index":8.75,"wind_gusts":45.0,"aqi":59,"pm10":10.6,"pm2_5":10.3,"mosquito_risk":7,"arthritis_risk":5,"migraine_risk":7,"frizz_risk":1,"updated_at":"2026-04-27T23:38:30.908344+05:30"},{"city":"Trichy","state":"Tamil Nadu","latitude":10.7905,"longitude":78.7047,"temp":29.0,"humidity":77,"rain":0.0,"pressure":998.9,"uv_index":9.1,"wind_gusts":41.0,"aqi":55,"pm10":9.4,"pm2_5":8.4,"mosquito_risk":7,"arthritis_risk":5,"migraine_risk":7,"frizz_risk":1,"updated_at":"2026-04-27T23:38:30.908353+05:30"},{"city":"Salem","state":"Tamil Nadu","latitude":11.6643,"longitude":78.146,"temp":30.2,"humidity":49,"rain":0.0,"pressure":976.0,"uv_index":9.2,"wind_gusts":37.4,"aqi":88,"pm10":20.3,"pm2_5":18.6,"mosquito_risk":0,"arthritis_risk":5,"migraine_risk":7,"frizz_risk":1,"updated_at":"2026-04-27T23:38:30.908360+05:30"},{"city":"Tirunelveli","state":"Tamil Nadu","latitude":8.7139,"longitude":77.7567,"temp":28.5,"humidity":72,"rain":0.0,"pressure":1002.6,"uv_index":8.95,"wind_gusts":45.0,"aqi":59,"pm10":20.9,"pm2_5":19.4,"mosquito_risk":7,"arthritis_risk":5,"migraine_risk":4,"frizz_risk":1,"updated_at":"2026-04-27T23:38:30.908368+05:30"},{"city":"Vellore","state":"Tamil Nadu","latitude":12.9165,"longitude":79.1325,"temp":27.9,"humidity":73,"rain":0.0,"pressure":983.2,"uv_index":9.25,"wind_gusts":38.9,"aqi":87,"pm10":30.2,"pm2_5":28.2,"mosquito_risk":7,"arthritis_risk":5,"migraine_risk":7,"frizz_risk":1,"updated_at":"2026-04-27T23:38:30.908375+05:30"},{"city":"Erode","state":"Tamil Nadu","latitude":11.341,"longitude":77.7172,"temp":30.5,"humidity":61,"rain":0.0,"pressure":988.0,"uv_index":9.3,"wind_gusts":42.5,"aqi":91,"pm10":14.7,"pm2_5":13.9,"mosquito_risk":3,"arthritis_risk":5,"migraine_risk":7,"frizz_risk":1,"updated_at":"2026-04-27T23:38:30.908382+05:30"},{"city":"Kochi","state":"Kerala","latitude":9.9312,"longitude":76.2673,"temp":25.8,"humidity":94,"rain":0.0,"pressure":1008.7,"uv_index":8.8,"wind_gusts":36.4,"aqi":80,"pm10":29.2,"pm2_5":25.8,"mosquito_risk":7,"arthritis_risk":0,"migraine_risk":4,"frizz_risk":1,"updated_at":"2026-04-27T23:38:30.908389+05:30"},{"city":"Thiruvananthapuram","state":"Kerala","latitude":8.5241,"longitude":76.9366,"temp":26.0,"humidity":94,"rain":0.0,"pressure":1007.9,"uv_index":8.45,"wind_gusts":38.2,"aqi":56,"pm10":16.9,"pm2_5":13.5,"mosquito_risk":7,"arthritis_risk":5,"migraine_risk":4,"frizz_risk":1,"updated_at":"2026-04-27T23:38:30.908396+05:30"},{"city":"Kozhikode","state":"Kerala","latitude":11.2588,"longitude":75.7804,"temp":27.8,"humidity":87,"rain":0.0,"pressure":1006.8,"uv_index":8.55,"wind_gusts":38.2,"aqi":61,"pm10":29.6,"pm2_5":22.4,"mosquito_risk":7,"arthritis_risk":5,"migraine_risk":4,"frizz_risk":1,"updated_at":"2026-04-27T23:38:30.908404+05:30"},{"city":"Thrissur","state":"Kerala","latitude":10.5276,"longitude":76.2144,"temp":26.3,"humidity":95,"rain":0.0,"pressure":1006.7,"uv_index":8.75,"wind_gusts":36.4,"aqi":75,"pm10":25.1,"pm2_5":22.8,"mosquito_risk":7,"arthritis_risk":5,"migraine_risk":4,"frizz_risk":1,"updated_at":"2026-04-27T23:38:30.908412+05:30"},{"city":"Kannur","state":"Kerala","latitude":11.8745,"longitude":75.3704,"temp":28.0,"humidity":87,"rain":0.0,"pressure":1006.3,"uv_index":9.05,"wind_gusts":42.1,"aqi":74,"pm10":36.1,"pm2_5":31.3,"mosquito_risk":7,"arthritis_risk":5,"migraine_risk":4,"frizz_risk":1,"updated_at":"2026-04-27T23:38:30.908419+05:30"},{"city":"Patna","state":"Bihar","latitude":25.5941,"longitude":85.1376,"temp":25.2,"humidity":75,"rain":0.0,"pressure":997.4,"uv_index":8.6,"wind_gusts":37.8,"aqi":128,"pm10":57.6,"pm2_5":44.9,"mosquito_risk":7,"arthritis_risk":5,"migraine_risk":7,"frizz_risk":1,"updated_at":"2026-04-27T23:38:30.908425+05:30"},{"city":"Gaya","state":"Bihar","latitude":24.7914,"longitude":85.0002,"temp":26.8,"humidity":72,"rain":0.0,"pressure":990.0,"uv_index":8.65,"wind_gusts":32.8,"aqi":168,"pm10":55.9,"pm2_5":46.7,"mosquito_risk":7,"arthritis_risk":5,"migraine_risk":7,"frizz_risk":1,"updated_at":"2026-04-27T23:38:30.908432+05:30"},{"city":"Muzaffarpur","state":"Bihar","latitude":26.1209,"longitude":85.3647,"temp":24.2,"humidity":77,"rain":0.0,"pressure":997.9,"uv_index":8.55,"wind_gusts":39.2,"aqi":132,"pm10":61.7,"pm2_5":48.4,"mosquito_risk":3,"arthritis_risk":5,"migraine_risk":7,"frizz_risk":1,"updated_at":"2026-04-27T23:38:30.908439+05:30"},{"city":"Bhagalpur","state":"Bihar","latitude":25.2425,"longitude":87.0117,"temp":23.3,"humidity":84,"rain":0.0,"pressure":998.9,"uv_index":7.5,"wind_gusts":43.2,"aqi":105,"pm10":26.7,"pm2_5":24.3,"mosquito_risk":3,"arthritis_risk":5,"migraine_risk":7,"frizz_risk":1,"updated_at":"2026-04-27T23:38:30.908446+05:30"},{"city":"Ranchi","state":"Jharkhand","latitude":23.3441,"longitude":85.3096,"temp":26.4,"humidity":54,"rain":0.0,"pressure":933.8,"uv_index":9.15,"wind_gusts":44.3,"aqi":89,"pm10":36.9,"pm2_5":21.5,"mosquito_risk":4,"arthritis_risk":5,"migraine_risk":7,"frizz_risk":1,"updated_at":"2026-04-27T23:38:30.908453+05:30"},{"city":"Jamshedpur","state":"Jharkhand","latitude":22.8046,"longitude":86.2029,"temp":31.6,"humidity":43,"rain":0.0,"pressure":986.2,"uv_index":9.0,"wind_gusts":43.2,"aqi":96,"pm10":44.2,"pm2_5":33.1,"mosquito_risk":0,"arthritis_risk":5,"migraine_risk":7,"frizz_risk":1,"updated_at":"2026-04-27T23:38:30.908459+05:30"},{"city":"Dhanbad","state":"Jharkhand","latitude":23.7957,"longitude":86.4304,"temp":26.4,"humidity":85,"rain":0.0,"pressure":975.5,"uv_index":8.9,"wind_gusts":43.6,"aqi":132,"pm10":86.4,"pm2_5":72.2,"mosquito_risk":7,"arthritis_risk":5,"migraine_risk":7,"frizz_risk":1,"updated_at":"2026-04-27T23:38:30.908466+05:30"},{"city":"Bokaro","state":"Jharkhand","latitude":23.6693,"longitude":86.1511,"temp":27.8,"humidity":77,"rain":0.0,"pressure":979.2,"uv_index":8.65,"wind_gusts":46.1,"aqi":132,"pm10":87.8,"pm2_5":68.0,"mosquito_risk":7,"arthritis_risk":5,"migraine_risk":7,"frizz_risk":1,"updated_at":"2026-04-27T23:38:30.908473+05:30"},{"city":"Bhubaneswar","state":"Odisha","latitude":20.2961,"longitude":85.8245,"temp":27.8,"humidity":85,"rain":0.0,"pressure":999.2,"uv_index":9.1,"wind_gusts":51.5,"aqi":52,"pm10":17.7,"pm2_5":14.5,"mosquito_risk":7,"arthritis_risk":5,"migraine_risk":7,"frizz_risk":1,"updated_at":"2026-04-27T23:38:30.908480+05:30"},{"city":"Cuttack","state":"Odisha","latitude":20.4625,"longitude":85.8828,"temp":27.9,"humidity":84,"rain":0.0,"pressure":1000.9,"uv_index":9.15,"wind_gusts":43.9,"aqi":52,"pm10":17.7,"pm2_5":14.5,"mosquito_risk":7,"arthritis_risk":5,"migraine_risk":4,"frizz_risk":1,"updated_at":"2026-04-27T23:38:30.908487+05:30"},{"city":"Rourkela","state":"Odisha","latitude":22.2604,"longitude":84.8536,"temp":31.2,"humidity":42,"rain":0.0,"pressure":980.6,"uv_index":8.9,"wind_gusts":40.0,"aqi":102,"pm10":46.2,"pm2_5":35.3,"mosquito_risk":0,"arthritis_risk":5,"migraine_risk":7,"frizz_risk":1,"updated_at":"2026-04-27T23:38:30.908494+05:30"},{"city":"Raipur","state":"Chhattisgarh","latitude":21.2514,"longitude":81.6296,"temp":33.2,"humidity":29,"rain":0.0,"pressure":971.1,"uv_index":8.95,"wind_gusts":58.3,"aqi":100,"pm10":63.8,"pm2_5":45.5,"mosquito_risk":0,"arthritis_risk":5,"migraine_risk":7,"frizz_risk":0,"updated_at":"2026-04-27T23:38:30.908501+05:30"},{"city":"Bhilai","state":"Chhattisgarh","latitude":21.1938,"longitude":81.3509,"temp":32.4,"humidity":31,"rain":0.0,"pressure":971.6,"uv_index":8.95,"wind_gusts":50.0,"aqi":92,"pm10":55.2,"pm2_5":35.5,"mosquito_risk":0,"arthritis_risk":5,"migraine_risk":7,"frizz_risk":0,"updated_at":"2026-04-27T23:38:30.908508+05:30"},{"city":"Guwahati","state":"Assam","latitude":26.1158,"longitude":91.7086,"temp":21.6,"humidity":87,"rain":0.0,"pressure":1000.4,"uv_index":3.15,"wind_gusts":23.4,"aqi":99,"pm10":42.7,"pm2_5":33.5,"mosquito_risk":3,"arthritis_risk":5,"migraine_risk":0,"frizz_risk":1,"updated_at":"2026-04-27T23:38:30.908515+05:30"},{"city":"Agartala","state":"Tripura","latitude":23.8315,"longitude":91.2868,"temp":24.3,"humidity":94,"rain":0.0,"pressure":1003.9,"uv_index":7.75,"wind_gusts":57.2,"aqi":72,"pm10":16.5,"pm2_5":13.0,"mosquito_risk":3,"arthritis_risk":5,"migraine_risk":4,"frizz_risk":1,"updated_at":"2026-04-27T23:38:30.908522+05:30"},{"city":"Shillong","state":"Meghalaya","latitude":25.5788,"longitude":91.8933,"temp":16.1,"humidity":96,"rain":0.0,"pressure":853.7,"uv_index":2.2,"wind_gusts":48.2,"aqi":75,"pm10":9.4,"pm2_5":4.6,"mosquito_risk":3,"arthritis_risk":10,"migraine_risk":3,"frizz_risk":0,"updated_at":"2026-04-27T23:38:30.908529+05:30"},{"city":"Imphal","state":"Manipur","latitude":24.817,"longitude":93.9368,"temp":18.8,"humidity":97,"rain":0.1,"pressure":920.7,"uv_index":6.4,"wind_gusts":30.6,"aqi":143,"pm10":35.5,"pm2_5":27.6,"mosquito_risk":6,"arthritis_risk":10,"migraine_risk":7,"frizz_risk":1,"updated_at":"2026-04-27T23:38:30.908536+05:30"},{"city":"Aizawl","state":"Mizoram","latitude":23.7271,"longitude":92.7176,"temp":17.5,"humidity":94,"rain":0.0,"pressure":889.5,"uv_index":8.95,"wind_gusts":46.8,"aqi":76,"pm10":24.4,"pm2_5":14.8,"mosquito_risk":3,"arthritis_risk":10,"migraine_risk":7,"frizz_risk":1,"updated_at":"2026-04-27T23:38:30.908543+05:30"},{"city":"Kohima","state":"Nagaland","latitude":25.6701,"longitude":94.1077,"temp":15.8,"humidity":97,"rain":1.0,"pressure":852.4,"uv_index":3.2,"wind_gusts":37.1,"aqi":122,"pm10":12.3,"pm2_5":8.7,"mosquito_risk":6,"arthritis_risk":10,"migraine_risk":3,"frizz_risk":0,"updated_at":"2026-04-27T23:38:30.908550+05:30"},{"city":"Gangtok","state":"Sikkim","latitude":27.3314,"longitude":88.6138,"temp":13.0,"humidity":100,"rain":0.1,"pressure":833.9,"uv_index":8.85,"wind_gusts":42.5,"aqi":67,"pm10":48.1,"pm2_5":37.8,"mosquito_risk":6,"arthritis_risk":10,"migraine_risk":7,"frizz_risk":0,"updated_at":"2026-04-27T23:38:30.908557+05:30"},{"city":"Siliguri","state":"West Bengal","latitude":26.7271,"longitude":88.3953,"temp":21.6,"humidity":78,"rain":0.0,"pressure":991.5,"uv_index":8.4,"wind_gusts":34.6,"aqi":100,"pm10":22.9,"pm2_5":20.7,"mosquito_risk":3,"arthritis_risk":5,"migraine_risk":7,"frizz_risk":1,"updated_at":"2026-04-27T23:38:34.196948+05:30"},{"city":"Durgapur","state":"West Bengal","latitude":23.5204,"longitude":87.3119,"temp":24.5,"humidity":93,"rain":0.0,"pressure":990.6,"uv_index":8.85,"wind_gusts":45.4,"aqi":118,"pm10":52.0,"pm2_5":48.0,"mosquito_risk":3,"arthritis_risk":5,"migraine_risk":7,"frizz_risk":1,"updated_at":"2026-04-27T23:38:34.196985+05:30"},{"city":"Asansol","state":"West Bengal","latitude":23.6739,"longitude":86.9524,"temp":25.5,"humidity":88,"rain":0.0,"pressure":989.2,"uv_index":8.9,"wind_gusts":38.9,"aqi":110,"pm10":55.5,"pm2_5":51.7,"mosquito_risk":7,"arthritis_risk":5,"migraine_risk":7,"frizz_risk":1,"updated_at":"2026-04-27T23:38:34.196996+05:30"},{"city":"Pondicherry","state":"Puducherry","latitude":11.9139,"longitude":79.8145,"temp":29.4,"humidity":80,"rain":0.0,"pressure":1007.3,"uv_index":9.2,"wind_gusts":46.8,"aqi":51,"pm10":12.7,"pm2_5":8.6,"mosquito_risk":7,"arthritis_risk":5,"migraine_risk":4,"frizz_risk":1,"updated_at":"2026-04-27T23:38:34.197004+05:30"},{"city":"Port Blair","state":"Andaman and Nicobar Islands","latitude":11.6234,"longitude":92.7265,"temp":27.6,"humidity":86,"rain":0.0,"pressure":1006.8,"uv_index":9.1,"wind_gusts":33.1,"aqi":41,"pm10":10.9,"pm2_5":8.0,"mosquito_risk":7,"arthritis_risk":5,"migraine_risk":4,"frizz_risk":1,"updated_at":"2026-04-27T23:38:34.197012+05:30"},{"city":"Haridwar","state":"Uttarakhand","latitude":29.9457,"longitude":78.1642,"temp":25.5,"humidity":41,"rain":0.0,"pressure":968.1,"uv_index":7.25,"wind_gusts":29.5,"aqi":87,"pm10":15.3,"pm2_5":13.8,"mosquito_risk":4,"arthritis_risk":5,"migraine_risk":7,"frizz_risk":0,"updated_at":"2026-04-27T23:38:34.197020+05:30"},{"city":"Rishikesh","state":"Uttarakhand","latitude":30.0869,"longitude":78.2676,"temp":22.8,"humidity":45,"rain":0.0,"pressure":960.7,"uv_index":7.35,"wind_gusts":26.6,"aqi":109,"pm10":40.0,"pm2_5":15.9,"mosquito_risk":0,"arthritis_risk":5,"migraine_risk":7,"frizz_risk":0,"updated_at":"2026-04-27T23:38:34.197028+05:30"},{"city":"Nainital","state":"Uttarakhand","latitude":29.3919,"longitude":79.4542,"temp":16.5,"humidity":39,"rain":0.0,"pressure":802.0,"uv_index":8.2,"wind_gusts":38.2,"aqi":131,"pm10":61.5,"pm2_5":16.8,"mosquito_risk":0,"arthritis_risk":5,"migraine_risk":7,"frizz_risk":0,"updated_at":"2026-04-27T23:38:34.197036+05:30"},{"city":"Mussoorie","state":"Uttarakhand","latitude":30.4599,"longitude":78.0664,"temp":17.7,"humidity":41,"rain":0.0,"pressure":800.3,"uv_index":7.75,"wind_gusts":51.8,"aqi":99,"pm10":16.1,"pm2_5":14.9,"mosquito_risk":0,"arthritis_risk":5,"migraine_risk":7,"frizz_risk":0,"updated_at":"2026-04-27T23:38:34.197043+05:30"},{"city":"Dharamshala","state":"Himachal Pradesh","latitude":32.219,"longitude":76.3234,"temp":23.0,"humidity":37,"rain":0.0,"pressure":866.9,"uv_index":8.1,"wind_gusts":51.8,"aqi":86,"pm10":15.0,"pm2_5":11.9,"mosquito_risk":0,"arthritis_risk":5,"migraine_risk":7,"frizz_risk":0,"updated_at":"2026-04-27T23:38:34.197051+05:30"},{"city":"Dalhousie","state":"Himachal Pradesh","latitude":32.5387,"longitude":75.971,"temp":12.0,"humidity":71,"rain":0.0,"pressure":799.1,"uv_index":8.3,"wind_gusts":40.3,"aqi":81,"pm10":19.6,"pm2_5":18.3,"mosquito_risk":3,"arthritis_risk":5,"migraine_risk":7,"frizz_risk":0,"updated_at":"2026-04-27T23:38:34.197059+05:30"},{"city":"Patiala","state":"Punjab","latitude":30.3398,"longitude":76.3869,"temp":31.4,"humidity":27,"rain":0.0,"pressure":973.2,"uv_index":7.35,"wind_gusts":50.8,"aqi":335,"pm10":765.5,"pm2_5":96.4,"mosquito_risk":0,"arthritis_risk":5,"migraine_risk":7,"frizz_risk":0,"updated_at":"2026-04-27T23:38:34.197067+05:30"},{"city":"Bhatinda","state":"Punjab","latitude":30.211,"longitude":74.9455,"temp":31.1,"humidity":30,"rain":0.0,"pressure":978.1,"uv_index":8.0,"wind_gusts":61.6,"aqi":67,"pm10":70.8,"pm2_5":28.7,"mosquito_risk":0,"arthritis_risk":5,"migraine_risk":7,"frizz_risk":0,"updated_at":"2026-04-27T23:38:34.197074+05:30"},{"city":"Rohtak","state":"Haryana","latitude":28.8955,"longitude":76.6066,"temp":31.4,"humidity":28,"rain":0.0,"pressure":976.5,"uv_index":7.5,"wind_gusts":59.0,"aqi":533,"pm10":1259.1,"pm2_5":166.7,"mosquito_risk":0,"arthritis_risk":5,"migraine_risk":7,"frizz_risk":0,"updated_at":"2026-04-27T23:38:34.197081+05:30"},{"city":"Panipat","state":"Haryana","latitude":29.3909,"longitude":76.9635,"temp":32.4,"humidity":25,"rain":0.0,"pressure":975.2,"uv_index":7.3,"wind_gusts":63.4,"aqi":1053,"pm10":2391.6,"pm2_5":281.3,"mosquito_risk":0,"arthritis_risk":5,"migraine_risk":7,"frizz_risk":0,"updated_at":"2026-04-27T23:38:34.197089+05:30"},{"city":"Mathura","state":"Uttar Pradesh","latitude":27.4924,"longitude":77.6737,"temp":32.2,"humidity":30,"rain":0.0,"pressure":981.8,"uv_index":7.75,"wind_gusts":42.5,"aqi":693,"pm10":549.5,"pm2_5":97.8,"mosquito_risk":0,"arthritis_risk":5,"migraine_risk":7,"frizz_risk":0,"updated_at":"2026-04-27T23:38:34.197096+05:30"},{"city":"Vrindavan","state":"Uttar Pradesh","latitude":27.5823,"longitude":77.7027,"temp":31.6,"humidity":31,"rain":0.0,"pressure":982.2,"uv_index":7.65,"wind_gusts":41.8,"aqi":693,"pm10":549.5,"pm2_5":97.8,"mosquito_risk":0,"arthritis_risk":5,"migraine_risk":7,"frizz_risk":0,"updated_at":"2026-04-27T23:38:34.197103+05:30"},{"city":"Ayodhya","state":"Uttar Pradesh","latitude":26.7922,"longitude":82.1998,"temp":28.9,"humidity":58,"rain":0.0,"pressure":990.5,"uv_index":8.1,"wind_gusts":33.1,"aqi":134,"pm10":121.1,"pm2_5":70.3,"mosquito_risk":4,"arthritis_risk":5,"migraine_risk":7,"frizz_risk":1,"updated_at":"2026-04-27T23:38:34.197111+05:30"},{"city":"Ratlam","state":"Madhya Pradesh","latitude":23.3315,"longitude":75.0367,"temp":30.2,"humidity":22,"rain":0.0,"pressure":952.1,"uv_index":8.45,"wind_gusts":50.8,"aqi":82,"pm10":21.0,"pm2_5":16.1,"mosquito_risk":0,"arthritis_risk":5,"migraine_risk":7,"frizz_risk":0,"updated_at":"2026-04-27T23:38:34.197119+05:30"},{"city":"Sagar","state":"Madhya Pradesh","latitude":23.8388,"longitude":78.7378,"temp":29.5,"humidity":31,"rain":0.0,"pressure":946.3,"uv_index":8.6,"wind_gusts":61.9,"aqi":59,"pm10":17.2,"pm2_5":12.4,"mosquito_risk":4,"arthritis_risk":5,"migraine_risk":7,"frizz_risk":0,"updated_at":"2026-04-27T23:38:34.197126+05:30"},{"city":"Satna","state":"Madhya Pradesh","latitude":24.6005,"longitude":80.8322,"temp":32.0,"humidity":28,"rain":0.0,"pressure":966.7,"uv_index":8.6,"wind_gusts":59.8,"aqi":59,"pm10":25.4,"pm2_5":13.3,"mosquito_risk":0,"arthritis_risk":5,"migraine_risk":7,"frizz_risk":0,"updated_at":"2026-04-27T23:38:34.197133+05:30"},{"city":"Akola","state":"Maharashtra","latitude":20.7002,"longitude":77.0082,"temp":32.8,"humidity":23,"rain":0.0,"pressure":972.1,"uv_index":8.85,"wind_gusts":33.8,"aqi":99,"pm10":25.5,"pm2_5":21.5,"mosquito_risk":0,"arthritis_risk":5,"migraine_risk":7,"frizz_risk":0,"updated_at":"2026-04-27T23:38:34.197141+05:30"},{"city":"Amravati","state":"Maharashtra","latitude":20.9374,"longitude":77.7796,"temp":33.9,"humidity":19,"rain":0.0,"pressure":964.4,"uv_index":8.9,"wind_gusts":35.6,"aqi":92,"pm10":24.7,"pm2_5":20.7,"mosquito_risk":0,"arthritis_risk":5,"migraine_risk":7,"frizz_risk":0,"updated_at":"2026-04-27T23:38:34.197149+05:30"},{"city":"Latur","state":"Maharashtra","latitude":18.4088,"longitude":76.5604,"temp":31.4,"humidity":23,"rain":0.0,"pressure":937.0,"uv_index":9.05,"wind_gusts":40.3,"aqi":87,"pm10":40.5,"pm2_5":29.0,"mosquito_risk":0,"arthritis_risk":5,"migraine_risk":7,"frizz_risk":0,"updated_at":"2026-04-27T23:38:34.197156+05:30"},{"city":"Nanded","state":"Maharashtra","latitude":19.1383,"longitude":77.3091,"temp":32.7,"humidity":27,"rain":0.0,"pressure":965.6,"uv_index":9.0,"wind_gusts":40.7,"aqi":77,"pm10":30.6,"pm2_5":24.7,"mosquito_risk":0,"arthritis_risk":5,"migraine_risk":7,"frizz_risk":0,"updated_at":"2026-04-27T23:38:34.197163+05:30"},{"city":"Gulbarga","state":"Karnataka","latitude":17.3297,"longitude":76.8343,"temp":32.2,"humidity":29,"rain":0.0,"pressure":956.2,"uv_index":9.05,"wind_gusts":31.3,"aqi":97,"pm10":43.7,"pm2_5":38.2,"mosquito_risk":0,"arthritis_risk":5,"migraine_risk":7,"frizz_risk":0,"updated_at":"2026-04-27T23:38:34.197169+05:30"},{"city":"Bidar","state":"Karnataka","latitude":17.9104,"longitude":77.5199,"temp":29.5,"humidity":37,"rain":0.0,"pressure":933.2,"uv_index":9.1,"wind_gusts":31.3,"aqi":87,"pm10":53.8,"pm2_5":44.6,"mosquito_risk":4,"arthritis_risk":5,"migraine_risk":7,"frizz_risk":0,"updated_at":"2026-04-27T23:38:34.197176+05:30"},{"city":"Hospet","state":"Karnataka","latitude":15.2689,"longitude":76.3909,"temp":29.4,"humidity":60,"rain":0.0,"pressure":954.5,"uv_index":9.25,"wind_gusts":36.4,"aqi":138,"pm10":35.2,"pm2_5":33.1,"mosquito_risk":4,"arthritis_risk":5,"migraine_risk":7,"frizz_risk":1,"updated_at":"2026-04-27T23:38:34.197184+05:30"},{"city":"Tirupur","state":"Tamil Nadu","latitude":11.1085,"longitude":77.3411,"temp":28.4,"humidity":76,"rain":0.0,"pressure":974.0,"uv_index":9.35,"wind_gusts":36.7,"aqi":101,"pm10":23.5,"pm2_5":21.8,"mosquito_risk":7,"arthritis_risk":5,"migraine_risk":7,"frizz_risk":1,"updated_at":"2026-04-27T23:38:34.197191+05:30"},{"city":"Alappuzha","state":"Kerala","latitude":9.4981,"longitude":76.3388,"temp":26.3,"humidity":95,"rain":0.0,"pressure":1008.7,"uv_index":7.95,"wind_gusts":34.9,"aqi":74,"pm10":29.7,"pm2_5":24.4,"mosquito_risk":7,"arthritis_risk":0,"migraine_risk":4,"frizz_risk":1,"updated_at":"2026-04-27T23:38:34.197198+05:30"},{"city":"Munnar","state":"Kerala","latitude":10.0889,"longitude":77.0595,"temp":18.3,"humidity":82,"rain":0.0,"pressure":856.5,"uv_index":9.6,"wind_gusts":26.6,"aqi":72,"pm10":33.5,"pm2_5":31.8,"mosquito_risk":3,"arthritis_risk":10,"migraine_risk":7,"frizz_risk":0,"updated_at":"2026-04-27T23:38:34.197205+05:30"},{"city":"Silchar","state":"Assam","latitude":24.8333,"longitude":92.7789,"temp":22.2,"humidity":96,"rain":0.5,"pressure":1003.7,"uv_index":8.75,"wind_gusts":32.8,"aqi":151,"pm10":24.4,"pm2_5":17.3,"mosquito_risk":6,"arthritis_risk":5,"migraine_risk":4,"frizz_risk":1,"updated_at":"2026-04-27T23:38:34.197212+05:30"},{"city":"Dibrugarh","state":"Assam","latitude":27.4728,"longitude":94.912,"temp":20.5,"humidity":97,"rain":0.0,"pressure":994.9,"uv_index":1.7,"wind_gusts":24.1,"aqi":98,"pm10":41.0,"pm2_5":32.9,"mosquito_risk":3,"arthritis_risk":5,"migraine_risk":3,"frizz_risk":1,"updated_at":"2026-04-27T23:38:34.197219+05:30"}]