[{"city":"Delhi","state":"Delhi","latitude":28.6139,"longitude":77.209,"temp":28.2,"humidity":34,"rain":0.0,"pressure":984.6,"uv_index":5.4,"aqi":167,"mosquito_risk":4,"arthritis_risk":5,"migraine_risk":3,"frizz_risk":0,"updated_at":"2026-02-23T15:36:47.165459+05:30"},{"city":"Mumbai","state":"Maharashtra","latitude":19.076,"longitude":72.8777,"temp":27.1,"humidity":76,"rain":0.0,"pressure":1006.1,"uv_index":7.25,"aqi":188,"mosquito_risk":7,"arthritis_risk":5,"migraine_risk":4,"frizz_risk":1,"updated_at":"2026-02-23T15:36:47.165498+05:30"},{"city":"Bangalore","state":"Karnataka","latitude":12.9716,"longitude":77.5946,"temp":30.8,"humidity":27,"rain":0.0,"pressure":909.5,"uv_index":8.9,"aqi":58,"mosquito_risk":0,"arthritis_risk":5,"migraine_risk":7,"frizz_risk":0,"updated_at":"2026-02-23T15:36:47.165512+05:30"},{"city":"Hyderabad","state":"Telangana","latitude":17.385,"longitude":78.4867,"temp":30.4,"humidity":40,"rain":0.0,"pressure":951.7,"uv_index":8.05,"aqi":96,"mosquito_risk":0,"arthritis_risk":5,"migraine_risk":7,"frizz_risk":0,"updated_at":"2026-02-23T15:36:47.165522+05:30"},{"city":"Chennai","state":"Tamil Nadu","latitude":13.0827,"longitude":80.2707,"temp":31.2,"humidity":54,"rain":0.0,"pressure":1005.2,"uv_index":8.2,"aqi":37,"mosquito_risk":0,"arthritis_risk":5,"migraine_risk":4,"frizz_risk":1,"updated_at":"2026-02-23T15:36:47.165530+05:30"},{"city":"Kolkata","state":"West Bengal","latitude":22.5726,"longitude":88.3639,"temp":29.4,"humidity":56,"rain":0.0,"pressure":1006.2,"uv_index":7.3,"aqi":160,"mosquito_risk":4,"arthritis_risk":5,"migraine_risk":4,"frizz_risk":1,"updated_at":"2026-02-23T15:36:47.165537+05:30"},{"city":"Pune","state":"Maharashtra","latitude":18.5204,"longitude":73.8567,"temp":32.6,"humidity":22,"rain":0.0,"pressure":946.3,"uv_index":7.75,"aqi":136,"mosquito_risk":0,"arthritis_risk":5,"migraine_risk":7,"frizz_risk":0,"updated_at":"2026-02-23T15:36:47.165544+05:30"},{"city":"Ahmedabad","state":"Gujarat","latitude":23.0225,"longitude":72.5714,"temp":32.9,"humidity":22,"rain":0.0,"pressure":1001.2,"uv_index":6.3,"aqi":86,"mosquito_risk":0,"arthritis_risk":5,"migraine_risk":4,"frizz_risk":0,"updated_at":"2026-02-23T15:36:47.165551+05:30"},{"city":"Jaipur","state":"Rajasthan","latitude":26.9124,"longitude":75.7873,"temp":28.5,"humidity":29,"rain":0.0,"pressure":960.5,"uv_index":6.2,"aqi":122,"mosquito_risk":4,"arthritis_risk":5,"migraine_risk":7,"frizz_risk":0,"updated_at":"2026-02-23T15:36:47.165558+05:30"},{"city":"Lucknow","state":"Uttar Pradesh","latitude":26.8467,"longitude":80.9462,"temp":28.5,"humidity":34,"rain":0.0,"pressure":995.0,"uv_index":5.85,"aqi":158,"mosquito_risk":4,"arthritis_risk":5,"migraine_risk":3,"frizz_risk":0,"updated_at":"2026-02-23T15:36:47.165568+05:30"},{"city":"Kanpur","state":"Uttar Pradesh","latitude":26.4499,"longitude":80.3319,"temp":28.4,"humidity":37,"rain":0.0,"pressure":993.2,"uv_index":5.85,"aqi":155,"mosquito_risk":4,"arthritis_risk":5,"migraine_risk":3,"frizz_risk":0,"updated_at":"2026-02-23T15:36:47.165576+05:30"},{"city":"Chandigarh","state":"Chandigarh","latitude":30.7333,"longitude":76.7794,"temp":25.9,"humidity":42,"rain":0.0,"pressure":970.6,"uv_index":5.25,"aqi":153,"mosquito_risk":4,"arthritis_risk":5,"migraine_risk":3,"frizz_risk":0,"updated_at":"2026-02-23T15:36:47.165583+05:30"},{"city":"Srinagar","state":"Jammu and Kashmir","latitude":34.0837,"longitude":74.7973,"temp":17.5,"humidity":19,"rain":0.0,"pressure":841.7,"uv_index":6.1,"aqi":159,"mosquito_risk":0,"arthritis_risk":5,"migraine_risk":7,"frizz_risk":1,"updated_at":"2026-02-23T15:36:47.165591+05:30"},{"city":"Jammu","state":"Jammu and Kashmir","latitude":32.7266,"longitude":74.857,"temp":25.6,"humidity":53,"rain":0.0,"pressure":974.5,"uv_index":5.8,"aqi":155,"mosquito_risk":4,"arthritis_risk":5,"migraine_risk":3,"frizz_risk":0,"updated_at":"2026-02-23T15:36:47.165598+05:30"},{"city":"Amritsar","state":"Punjab","latitude":31.634,"longitude":74.8723,"temp":25.6,"humidity":50,"rain":0.0,"pressure":983.0,"uv_index":5.75,"aqi":178,"mosquito_risk":4,"arthritis_risk":5,"migraine_risk":3,"frizz_risk":0,"updated_at":"2026-02-23T15:36:47.165604+05:30"},{"city":"Ludhiana","state":"Punjab","latitude":30.901,"longitude":75.8573,"temp":26.2,"humidity":45,"rain":0.0,"pressure":980.9,"uv_index":5.45,"aqi":192,"mosquito_risk":4,"arthritis_risk":5,"migraine_risk":3,"frizz_risk":0,"updated_at":"2026-02-23T15:36:47.165613+05:30"},{"city":"Jalandhar","state":"Punjab","latitude":31.326,"longitude":75.5762,"temp":25.8,"humidity":47,"rain":0.0,"pressure":982.0,"uv_index":5.6,"aqi":188,"mosquito_risk":4,"arthritis_risk":5,"migraine_risk":3,"frizz_risk":0,"updated_at":"2026-02-23T15:36:47.165619+05:30"},{"city":"Dehradun","state":"Uttarakhand","latitude":30.6284,"longitude":78.0322,"temp":14.9,"humidity":70,"rain":0.0,"pressure":829.9,"uv_index":5.55,"aqi":90,"mosquito_risk":3,"arthritis_risk":5,"migraine_risk":3,"frizz_risk":0,"updated_at":"2026-02-23T15:36:47.165625+05:30"},{"city":"Shimla","state":"Himachal Pradesh","latitude":31.1048,"longitude":77.1734,"temp":11.7,"humidity":73,"rain":0.0,"pressure":783.7,"uv_index":5.65,"aqi":113,"mosquito_risk":3,"arthritis_risk":5,"migraine_risk":3,"frizz_risk":0,"updated_at":"2026-02-23T15:36:47.165632+05:30"},{"city":"Manali","state":"Himachal Pradesh","latitude":32.2396,"longitude":77.1887,"temp":18.4,"humidity":28,"rain":0.0,"pressure":818.5,"uv_index":7.2,"aqi":92,"mosquito_risk":0,"arthritis_risk":5,"migraine_risk":7,"frizz_risk":1,"updated_at":"2026-02-23T15:36:47.165639+05:30"},{"city":"Gurgaon","state":"Haryana","latitude":28.4595,"longitude":77.0266,"temp":28.0,"humidity":36,"rain":0.0,"pressure":983.0,"uv_index":5.5,"aqi":167,"mosquito_risk":4,"arthritis_risk":5,"migraine_risk":3,"frizz_risk":0,"updated_at":"2026-02-23T15:36:47.165646+05:30"},{"city":"Noida","state":"Uttar Pradesh","latitude":28.5355,"longitude":77.391,"temp":28.5,"humidity":33,"rain":0.0,"pressure":986.1,"uv_index":5.4,"aqi":167,"mosquito_risk":4,"arthritis_risk":5,"migraine_risk":3,"frizz_risk":0,"updated_at":"2026-02-23T15:36:47.165652+05:30"},{"city":"Ghaziabad","state":"Uttar Pradesh","latitude":28.6692,"longitude":77.4538,"temp":27.2,"humidity":42,"rain":0.0,"pressure":984.5,"uv_index":5.35,"aqi":163,"mosquito_risk":4,"arthritis_risk":5,"migraine_risk":3,"frizz_risk":0,"updated_at":"2026-02-23T15:36:47.165658+05:30"},{"city":"Faridabad","state":"Haryana","latitude":28.4089,"longitude":77.3178,"temp":27.0,"humidity":44,"rain":0.0,"pressure":985.4,"uv_index":5.4,"aqi":167,"mosquito_risk":4,"arthritis_risk":5,"migraine_risk":3,"frizz_risk":0,"updated_at":"2026-02-23T15:36:47.165665+05:30"},{"city":"Meerut","state":"Uttar Pradesh","latitude":28.9845,"longitude":77.7064,"temp":27.1,"humidity":42,"rain":0.0,"pressure":983.2,"uv_index":5.25,"aqi":163,"mosquito_risk":4,"arthritis_risk":5,"migraine_risk":3,"frizz_risk":0,"updated_at":"2026-02-23T15:36:47.165671+05:30"},{"city":"Agra","state":"Uttar Pradesh","latitude":27.1767,"longitude":78.0081,"temp":28.6,"humidity":39,"rain":0.0,"pressure":989.2,"uv_index":5.7,"aqi":165,"mosquito_risk":4,"arthritis_risk":5,"migraine_risk":3,"frizz_risk":0,"updated_at":"2026-02-23T15:36:47.165677+05:30"},{"city":"Varanasi","state":"Uttar Pradesh","latitude":25.3176,"longitude":82.9739,"temp":28.9,"humidity":36,"rain":0.0,"pressure":998.5,"uv_index":6.5,"aqi":156,"mosquito_risk":4,"arthritis_risk":5,"migraine_risk":7,"frizz_risk":0,"updated_at":"2026-02-23T15:36:47.165684+05:30"},{"city":"Prayagraj","state":"Uttar Pradesh","latitude":25.4358,"longitude":81.8463,"temp":28.5,"humidity":40,"rain":0.0,"pressure":997.0,"uv_index":6.4,"aqi":153,"mosquito_risk":4,"arthritis_risk":5,"migraine_risk":7,"frizz_risk":0,"updated_at":"2026-02-23T15:36:47.165693+05:30"},{"city":"Gorakhpur","state":"Uttar Pradesh","latitude":26.7606,"longitude":83.3732,"temp":27.5,"humidity":38,"rain":0.0,"pressure":998.6,"uv_index":6.2,"aqi":152,"mosquito_risk":4,"arthritis_risk":5,"migraine_risk":7,"frizz_risk":0,"updated_at":"2026-02-23T15:36:47.165699+05:30"},{"city":"Bareilly","state":"Uttar Pradesh","latitude":28.367,"longitude":79.4304,"temp":27.4,"humidity":42,"rain":0.0,"pressure":988.4,"uv_index":5.5,"aqi":161,"mosquito_risk":4,"arthritis_risk":5,"migraine_risk":3,"frizz_risk":0,"updated_at":"2026-02-23T15:36:47.165707+05:30"},{"city":"Aligarh","state":"Uttar Pradesh","latitude":27.8974,"longitude":78.088,"temp":27.9,"humidity":40,"rain":0.0,"pressure":987.1,"uv_index":5.45,"aqi":169,"mosquito_risk":4,"arthritis_risk":5,"migraine_risk":3,"frizz_risk":0,"updated_at":"2026-02-23T15:36:47.165714+05:30"},{"city":"Moradabad","state":"Uttar Pradesh","latitude":28.8386,"longitude":78.7733,"temp":27.2,"humidity":42,"rain":0.0,"pressure":985.2,"uv_index":5.35,"aqi":167,"mosquito_risk":4,"arthritis_risk":5,"migraine_risk":3,"frizz_risk":0,"updated_at":"2026-02-23T15:36:47.165720+05:30"},{"city":"Saharanpur","state":"Uttar Pradesh","latitude":29.9637,"longitude":77.546,"temp":26.4,"humidity":44,"rain":0.0,"pressure":977.4,"uv_index":5.0,"aqi":163,"mosquito_risk":4,"arthritis_risk":5,"migraine_risk":3,"frizz_risk":0,"updated_at":"2026-02-23T15:36:47.165726+05:30"},{"city":"Jhansi","state":"Uttar Pradesh","latitude":25.4484,"longitude":78.5685,"temp":28.6,"humidity":37,"rain":0.0,"pressure":978.7,"uv_index":6.35,"aqi":116,"mosquito_risk":4,"arthritis_risk":5,"migraine_risk":7,"frizz_risk":0,"updated_at":"2026-02-23T15:36:50.496271+05:30"},{"city":"Surat","state":"Gujarat","latitude":21.1702,"longitude":72.8311,"temp":31.2,"humidity":47,"rain":0.0,"pressure":1005.5,"uv_index":6.95,"aqi":160,"mosquito_risk":0,"arthritis_risk":5,"migraine_risk":4,"frizz_risk":1,"updated_at":"2026-02-23T15:36:50.496307+05:30"},{"city":"Vadodara","state":"Gujarat","latitude":22.3072,"longitude":73.1812,"temp":35.5,"humidity":19,"rain":0.0,"pressure":1002.9,"uv_index":6.6,"aqi":104,"mosquito_risk":0,"arthritis_risk":5,"migraine_risk":7,"frizz_risk":0,"updated_at":"2026-02-23T15:36:50.496318+05:30"},{"city":"Rajkot","state":"Gujarat","latitude":22.3039,"longitude":70.8022,"temp":33.6,"humidity":22,"rain":0.0,"pressure":992.6,"uv_index":6.9,"aqi":72,"mosquito_risk":0,"arthritis_risk":5,"migraine_risk":7,"frizz_risk":0,"updated_at":"2026-02-23T15:36:50.496325+05:30"},{"city":"Thane","state":"Maharashtra","latitude":19.2183,"longitude":72.9781,"temp":31.4,"humidity":51,"rain":0.0,"pressure":1005.9,"uv_index":7.25,"aqi":188,"mosquito_risk":0,"arthritis_risk":5,"migraine_risk":4,"frizz_risk":1,"updated_at":"2026-02-23T15:36:50.496332+05:30"},{"city":"Nagpur","state":"Maharashtra","latitude":21.1458,"longitude":79.0882,"temp":32.1,"humidity":29,"rain":0.0,"pressure":972.1,"uv_index":7.35,"aqi":167,"mosquito_risk":0,"arthritis_risk":5,"migraine_risk":7,"frizz_risk":0,"updated_at":"2026-02-23T15:36:50.496339+05:30"},{"city":"Nashik","state":"Maharashtra","latitude":19.9975,"longitude":73.7898,"temp":31.8,"humidity":19,"rain":0.0,"pressure":944.0,"uv_index":6.75,"aqi":84,"mosquito_risk":0,"arthritis_risk":5,"migraine_risk":7,"frizz_risk":0,"updated_at":"2026-02-23T15:36:50.496345+05:30"},{"city":"Aurangabad","state":"Maharashtra","latitude":19.8762,"longitude":75.3433,"temp":31.4,"humidity":22,"rain":0.0,"pressure":943.0,"uv_index":7.7,"aqi":74,"mosquito_risk":0,"arthritis_risk":5,"migraine_risk":7,"frizz_risk":0,"updated_at":"2026-02-23T15:36:50.496352+05:30"},{"city":"Solapur","state":"Maharashtra","latitude":17.6599,"longitude":75.9064,"temp":31.4,"humidity":37,"rain":0.0,"pressure":955.4,"uv_index":7.85,"aqi":105,"mosquito_risk":0,"arthritis_risk":5,"migraine_risk":7,"frizz_risk":0,"updated_at":"2026-02-23T15:36:50.496359+05:30"},{"city":"Kolhapur","state":"Maharashtra","latitude":16.705,"longitude":74.2433,"temp":31.2,"humidity":35,"rain":0.0,"pressure":945.6,"uv_index":7.9,"aqi":155,"mosquito_risk":0,"arthritis_risk":5,"migraine_risk":7,"frizz_risk":0,"updated_at":"2026-02-23T15:36:50.496366+05:30"},{"city":"Goa","state":"Goa","latitude":15.2993,"longitude":74.124,"temp":30.6,"humidity":66,"rain":0.0,"pressure":995.2,"uv_index":8.25,"aqi":156,"mosquito_risk":3,"arthritis_risk":5,"migraine_risk":7,"frizz_risk":1,"updated_at":"2026-02-23T15:36:50.496372+05:30"},{"city":"Jodhpur","state":"Rajasthan","latitude":26.2389,"longitude":73.0243,"temp":31.9,"humidity":15,"rain":0.0,"pressure":983.1,"uv_index":6.5,"aqi":70,"mosquito_risk":0,"arthritis_risk":5,"migraine_risk":7,"frizz_risk":0,"updated_at":"2026-02-23T15:36:50.496378+05:30"},{"city":"Udaipur","state":"Rajasthan","latitude":24.5854,"longitude":73.7125,"temp":28.1,"humidity":25,"rain":0.0,"pressure":946.6,"uv_index":7.15,"aqi":54,"mosquito_risk":4,"arthritis_risk":5,"migraine_risk":7,"frizz_risk":0,"updated_at":"2026-02-23T15:36:50.496384+05:30"},{"city":"Kota","state":"Rajasthan","latitude":25.2138,"longitude":75.8648,"temp":30.2,"humidity":26,"rain":0.0,"pressure":978.9,"uv_index":6.55,"aqi":152,"mosquito_risk":0,"arthritis_risk":5,"migraine_risk":7,"frizz_risk":0,"updated_at":"2026-02-23T15:36:50.496390+05:30"},{"city":"Bikaner","state":"Rajasthan","latitude":28.0229,"longitude":73.3119,"temp":30.8,"humidity":20,"rain":0.0,"pressure":982.1,"uv_index":6.1,"aqi":65,"mosquito_risk":0,"arthritis_risk":5,"migraine_risk":7,"frizz_risk":0,"updated_at":"2026-02-23T15:36:50.496396+05:30"},{"city":"Ajmer","state":"Rajasthan","latitude":26.4499,"longitude":74.6399,"temp":28.8,"humidity":22,"rain":0.0,"pressure":954.8,"uv_index":6.5,"aqi":145,"mosquito_risk":4,"arthritis_risk":5,"migraine_risk":7,"frizz_risk":0,"updated_at":"2026-02-23T15:36:50.496403+05:30"},{"city":"Gwalior","state":"Madhya Pradesh","latitude":26.2183,"longitude":78.1828,"temp":28.8,"humidity":30,"rain":0.0,"pressure":984.2,"uv_index":6.05,"aqi":104,"mosquito_risk":4,"arthritis_risk":5,"migraine_risk":7,"frizz_risk":0,"updated_at":"2026-02-23T15:36:50.496409+05:30"},{"city":"Indore","state":"Madhya Pradesh","latitude":22.7196,"longitude":75.8577,"temp":26.0,"humidity":36,"rain":0.0,"pressure":948.0,"uv_index":7.1,"aqi":88,"mosquito_risk":4,"arthritis_risk":5,"migraine_risk":7,"frizz_risk":0,"updated_at":"2026-02-23T15:36:50.496415+05:30"},{"city":"Bhopal","state":"Madhya Pradesh","latitude":23.2599,"longitude":77.4126,"temp":27.7,"humidity":33,"rain":0.0,"pressure":954.0,"uv_index":6.9,"aqi":117,"mosquito_risk":4,"arthritis_risk":5,"migraine_risk":7,"frizz_risk":0,"updated_at":"2026-02-23T15:36:50.496421+05:30"},{"city":"Jabalpur","state":"Madhya Pradesh","latitude":23.1815,"longitude":79.9864,"temp":30.0,"humidity":26,"rain":0.0,"pressure":960.7,"uv_index":6.95,"aqi":150,"mosquito_risk":4,"arthritis_risk":5,"migraine_risk":7,"frizz_risk":0,"updated_at":"2026-02-23T15:36:50.496427+05:30"},{"city":"Ujjain","state":"Madhya Pradesh","latitude":23.1765,"longitude":75.7885,"temp":27.7,"humidity":33,"rain":0.0,"pressure":953.8,"uv_index":7.0,"aqi":95,"mosquito_risk":4,"arthritis_risk":5,"migraine_risk":7,"frizz_risk":0,"updated_at":"2026-02-23T15:36:50.496434+05:30"},{"city":"Visakhapatnam","state":"Andhra Pradesh","latitude":17.6868,"longitude":83.2185,"temp":31.0,"humidity":49,"rain":0.0,"pressure":1002.3,"uv_index":8.05,"aqi":102,"mosquito_risk":0,"arthritis_risk":5,"migraine_risk":4,"frizz_risk":1,"updated_at":"2026-02-23T15:36:50.496440+05:30"},{"city":"Vijayawada","state":"Andhra Pradesh","latitude":16.5062,"longitude":80.648,"temp":33.6,"humidity":38,"rain":0.0,"pressure":1000.2,"uv_index":8.15,"aqi":79,"mosquito_risk":0,"arthritis_risk":5,"migraine_risk":4,"frizz_risk":1,"updated_at":"2026-02-23T15:36:50.496446+05:30"},{"city":"Guntur","state":"Andhra Pradesh","latitude":16.3067,"longitude":80.4365,"temp":33.5,"humidity":40,"rain":0.0,"pressure":1001.3,"uv_index":8.15,"aqi":78,"mosquito_risk":0,"arthritis_risk":5,"migraine_risk":4,"frizz_risk":1,"updated_at":"2026-02-23T15:36:50.496452+05:30"},{"city":"Nellore","state":"Andhra Pradesh","latitude":14.4426,"longitude":79.9865,"temp":32.5,"humidity":47,"rain":0.0,"pressure":1003.8,"uv_index":8.4,"aqi":53,"mosquito_risk":0,"arthritis_risk":5,"migraine_risk":4,"frizz_risk":1,"updated_at":"2026-02-23T15:36:50.496459+05:30"},{"city":"Kurnool","state":"Andhra Pradesh","latitude":15.8281,"longitude":78.0373,"temp":34.3,"humidity":30,"rain":0.0,"pressure":974.2,"uv_index":8.2,"aqi":63,"mosquito_risk":0,"arthritis_risk":5,"migraine_risk":7,"frizz_risk":0,"updated_at":"2026-02-23T15:36:50.496466+05:30"},{"city":"Kakinada","state":"Andhra Pradesh","latitude":16.9891,"longitude":82.2475,"temp":31.9,"humidity":52,"rain":0.0,"pressure":1005.6,"uv_index":8.1,"aqi":56,"mosquito_risk":0,"arthritis_risk":5,"migraine_risk":4,"frizz_risk":1,"updated_at":"2026-02-23T15:36:50.496472+05:30"},{"city":"Tirupati","state":"Andhra Pradesh","latitude":13.6288,"longitude":79.4192,"temp":32.7,"humidity":38,"rain":0.0,"pressure":988.9,"uv_index":8.55,"aqi":62,"mosquito_risk":0,"arthritis_risk":5,"migraine_risk":7,"frizz_risk":1,"updated_at":"2026-02-23T15:36:50.496478+05:30"},{"city":"Warangal","state":"Telangana","latitude":17.9689,"longitude":79.5941,"temp":30.9,"humidity":54,"rain":0.0,"pressure":977.5,"uv_index":7.9,"aqi":104,"mosquito_risk":0,"arthritis_risk":5,"migraine_risk":7,"frizz_risk":1,"updated_at":"2026-02-23T15:36:50.496484+05:30"},{"city":"Nizamabad","state":"Telangana","latitude":18.6725,"longitude":78.0941,"temp":31.2,"humidity":44,"rain":0.0,"pressure":963.4,"uv_index":7.25,"aqi":139,"mosquito_risk":0,"arthritis_risk":5,"migraine_risk":7,"frizz_risk":1,"updated_at":"2026-02-23T15:36:50.496490+05:30"},{"city":"Mysore","state":"Karnataka","latitude":12.2958,"longitude":76.6396,"temp":32.1,"humidity":29,"rain":0.0,"pressure":925.7,"uv_index":8.95,"aqi":63,"mosquito_risk":0,"arthritis_risk":5,"migraine_risk":7,"frizz_risk":0,"updated_at":"2026-02-23T15:36:50.496496+05:30"},{"city":"Mangalore","state":"Karnataka","latitude":12.9141,"longitude":74.856,"temp":28.9,"humidity":77,"rain":0.0,"pressure":1003.6,"uv_index":8.55,"aqi":139,"mosquito_risk":7,"arthritis_risk":5,"migraine_risk":4,"frizz_risk":1,"updated_at":"2026-02-23T15:36:50.496502+05:30"},{"city":"Hubli-Dharwad","state":"Karnataka","latitude":15.3647,"longitude":75.124,"temp":31.7,"humidity":37,"rain":0.0,"pressure":938.3,"uv_index":8.2,"aqi":81,"mosquito_risk":0,"arthritis_risk":5,"migraine_risk":7,"frizz_risk":0,"updated_at":"2026-02-23T15:36:50.496509+05:30"},{"city":"Belgaum","state":"Karnataka","latitude":15.8497,"longitude":74.4977,"temp":28.8,"humidity":55,"rain":0.0,"pressure":923.7,"uv_index":8.25,"aqi":120,"mosquito_risk":4,"arthritis_risk":5,"migraine_risk":7,"frizz_risk":1,"updated_at":"2026-02-23T15:36:53.825369+05:30"},{"city":"Coimbatore","state":"Tamil Nadu","latitude":11.0168,"longitude":76.9558,"temp":32.3,"humidity":35,"rain":0.0,"pressure":958.6,"uv_index":8.95,"aqi":71,"mosquito_risk":0,"arthritis_risk":5,"migraine_risk":7,"frizz_risk":0,"updated_at":"2026-02-23T15:36:53.825404+05:30"},{"city":"Madurai","state":"Tamil Nadu","latitude":9.9252,"longitude":78.1198,"temp":34.9,"humidity":38,"rain":0.0,"pressure":989.0,"uv_index":8.95,"aqi":77,"mosquito_risk":0,"arthritis_risk":5,"migraine_risk":7,"frizz_risk":1,"updated_at":"2026-02-23T15:36:53.825415+05:30"},{"city":"Trichy","state":"Tamil Nadu","latitude":10.7905,"longitude":78.7047,"temp":34.1,"humidity":41,"rain":0.0,"pressure":996.1,"uv_index":8.7,"aqi":57,"mosquito_risk":0,"arthritis_risk":5,"migraine_risk":7,"frizz_risk":1,"updated_at":"2026-02-23T15:36:53.825424+05:30"},{"city":"Salem","state":"Tamil Nadu","latitude":11.6643,"longitude":78.146,"temp":35.0,"humidity":33,"rain":0.0,"pressure":973.5,"uv_index":8.65,"aqi":67,"mosquito_risk":0,"arthritis_risk":5,"migraine_risk":7,"frizz_risk":1,"updated_at":"2026-02-23T15:36:53.825433+05:30"},{"city":"Tirunelveli","state":"Tamil Nadu","latitude":8.7139,"longitude":77.7567,"temp":34.8,"humidity":38,"rain":0.0,"pressure":999.2,"uv_index":8.95,"aqi":60,"mosquito_risk":0,"arthritis_risk":5,"migraine_risk":7,"frizz_risk":1,"updated_at":"2026-02-23T15:36:53.825441+05:30"},{"city":"Vellore","state":"Tamil Nadu","latitude":12.9165,"longitude":79.1325,"temp":32.5,"humidity":37,"rain":0.0,"pressure":981.9,"uv_index":8.65,"aqi":62,"mosquito_risk":0,"arthritis_risk":5,"migraine_risk":7,"frizz_risk":0,"updated_at":"2026-02-23T15:36:53.825449+05:30"},{"city":"Erode","state":"Tamil Nadu","latitude":11.341,"longitude":77.7172,"temp":35.4,"humidity":34,"rain":0.0,"pressure":985.1,"uv_index":8.85,"aqi":61,"mosquito_risk":0,"arthritis_risk":5,"migraine_risk":10,"frizz_risk":1,"updated_at":"2026-02-23T15:36:53.825457+05:30"},{"city":"Kochi","state":"Kerala","latitude":9.9312,"longitude":76.2673,"temp":28.3,"humidity":80,"rain":0.0,"pressure":1005.2,"uv_index":8.3,"aqi":82,"mosquito_risk":7,"arthritis_risk":5,"migraine_risk":4,"frizz_risk":1,"updated_at":"2026-02-23T15:36:53.825465+05:30"},{"city":"Thiruvananthapuram","state":"Kerala","latitude":8.5241,"longitude":76.9366,"temp":28.2,"humidity":79,"rain":0.0,"pressure":1004.4,"uv_index":7.65,"aqi":88,"mosquito_risk":7,"arthritis_risk":5,"migraine_risk":4,"frizz_risk":1,"updated_at":"2026-02-23T15:36:53.825472+05:30"},{"city":"Kozhikode","state":"Kerala","latitude":11.2588,"longitude":75.7804,"temp":29.3,"humidity":76,"rain":0.0,"pressure":1004.6,"uv_index":8.65,"aqi":71,"mosquito_risk":7,"arthritis_risk":5,"migraine_risk":4,"frizz_risk":1,"updated_at":"2026-02-23T15:36:53.825480+05:30"},{"city":"Thrissur","state":"Kerala","latitude":10.5276,"longitude":76.2144,"temp":31.0,"humidity":66,"rain":0.0,"pressure":1003.6,"uv_index":8.75,"aqi":72,"mosquito_risk":3,"arthritis_risk":5,"migraine_risk":4,"frizz_risk":1,"updated_at":"2026-02-23T15:36:53.825488+05:30"},{"city":"Kannur","state":"Kerala","latitude":11.8745,"longitude":75.3704,"temp":29.6,"humidity":74,"rain":0.0,"pressure":1004.2,"uv_index":8.6,"aqi":86,"mosquito_risk":7,"arthritis_risk":5,"migraine_risk":4,"frizz_risk":1,"updated_at":"2026-02-23T15:36:53.825496+05:30"},{"city":"Patna","state":"Bihar","latitude":25.5941,"longitude":85.1376,"temp":28.3,"humidity":32,"rain":0.0,"pressure":1001.9,"uv_index":6.7,"aqi":161,"mosquito_risk":4,"arthritis_risk":5,"migraine_risk":4,"frizz_risk":0,"updated_at":"2026-02-23T15:36:53.825504+05:30"},{"city":"Gaya","state":"Bihar","latitude":24.7914,"longitude":85.0002,"temp":27.6,"humidity":45,"rain":0.0,"pressure":995.0,"uv_index":6.8,"aqi":152,"mosquito_risk":4,"arthritis_risk":5,"migraine_risk":7,"frizz_risk":0,"updated_at":"2026-02-23T15:36:53.825512+05:30"},{"city":"Muzaffarpur","state":"Bihar","latitude":26.1209,"longitude":85.3647,"temp":28.1,"humidity":33,"rain":0.0,"pressure":1001.8,"uv_index":6.65,"aqi":163,"mosquito_risk":4,"arthritis_risk":5,"migraine_risk":4,"frizz_risk":0,"updated_at":"2026-02-23T15:36:53.825519+05:30"},{"city":"Bhagalpur","state":"Bihar","latitude":25.2425,"longitude":87.0117,"temp":26.9,"humidity":42,"rain":0.0,"pressure":1002.7,"uv_index":6.75,"aqi":153,"mosquito_risk":4,"arthritis_risk":5,"migraine_risk":4,"frizz_risk":0,"updated_at":"2026-02-23T15:36:53.825525+05:30"},{"city":"Ranchi","state":"Jharkhand","latitude":23.3441,"longitude":85.3096,"temp":28.2,"humidity":30,"rain":0.0,"pressure":937.7,"uv_index":7.4,"aqi":152,"mosquito_risk":4,"arthritis_risk":5,"migraine_risk":7,"frizz_risk":0,"updated_at":"2026-02-23T15:36:53.825531+05:30"},{"city":"Jamshedpur","state":"Jharkhand","latitude":22.8046,"longitude":86.2029,"temp":31.5,"humidity":32,"rain":0.0,"pressure":990.8,"uv_index":7.35,"aqi":157,"mosquito_risk":0,"arthritis_risk":5,"migraine_risk":7,"frizz_risk":0,"updated_at":"2026-02-23T15:36:53.825538+05:30"},{"city":"Dhanbad","state":"Jharkhand","latitude":23.7957,"longitude":86.4304,"temp":31.6,"humidity":23,"rain":0.0,"pressure":979.9,"uv_index":7.2,"aqi":152,"mosquito_risk":0,"arthritis_risk":5,"migraine_risk":7,"frizz_risk":0,"updated_at":"2026-02-23T15:36:53.825544+05:30"},{"city":"Bokaro","state":"Jharkhand","latitude":23.6693,"longitude":86.1511,"temp":31.2,"humidity":25,"rain":0.0,"pressure":983.9,"uv_index":7.2,"aqi":153,"mosquito_risk":0,"arthritis_risk":5,"migraine_risk":7,"frizz_risk":0,"updated_at":"2026-02-23T15:36:53.825550+05:30"},{"city":"Bhubaneswar","state":"Odisha","latitude":20.2961,"longitude":85.8245,"temp":32.2,"humidity":43,"rain":0.0,"pressure":1001.6,"uv_index":7.75,"aqi":92,"mosquito_risk":0,"arthritis_risk":5,"migraine_risk":4,"frizz_risk":1,"updated_at":"2026-02-23T15:36:53.825556+05:30"},{"city":"Cuttack","state":"Odisha","latitude":20.4625,"longitude":85.8828,"temp":34.3,"humidity":29,"rain":0.0,"pressure":1003.0,"uv_index":7.8,"aqi":92,"mosquito_risk":0,"arthritis_risk":5,"migraine_risk":4,"frizz_risk":0,"updated_at":"2026-02-23T15:36:53.825562+05:30"},{"city":"Rourkela","state":"Odisha","latitude":22.2604,"longitude":84.8536,"temp":32.6,"humidity":25,"rain":0.0,"pressure":984.4,"uv_index":7.25,"aqi":135,"mosquito_risk":0,"arthritis_risk":5,"migraine_risk":7,"frizz_risk":0,"updated_at":"2026-02-23T15:36:53.825568+05:30"},{"city":"Raipur","state":"Chhattisgarh","latitude":21.2514,"longitude":81.6296,"temp":30.8,"humidity":36,"rain":0.0,"pressure":974.2,"uv_index":7.4,"aqi":165,"mosquito_risk":0,"arthritis_risk":5,"migraine_risk":7,"frizz_risk":0,"updated_at":"2026-02-23T15:36:53.825574+05:30"},{"city":"Bhilai","state":"Chhattisgarh","latitude":21.1938,"longitude":81.3509,"temp":30.8,"humidity":38,"rain":0.0,"pressure":974.5,"uv_index":4.6,"aqi":170,"mosquito_risk":0,"arthritis_risk":5,"migraine_risk":3,"frizz_risk":0,"updated_at":"2026-02-23T15:36:53.825580+05:30"},{"city":"Guwahati","state":"Assam","latitude":26.1158,"longitude":91.7086,"temp":27.9,"humidity":46,"rain":0.0,"pressure":1001.6,"uv_index":6.7,"aqi":131,"mosquito_risk":4,"arthritis_risk":5,"migraine_risk":4,"frizz_risk":0,"updated_at":"2026-02-23T15:36:53.825586+05:30"},{"city":"Agartala","state":"Tripura","latitude":23.8315,"longitude":91.2868,"temp":29.2,"humidity":44,"rain":0.0,"pressure":1006.5,"uv_index":7.05,"aqi":171,"mosquito_risk":4,"arthritis_risk":5,"migraine_risk":4,"frizz_risk":0,"updated_at":"2026-02-23T15:36:53.825592+05:30"},{"city":"Shillong","state":"Meghalaya","latitude":25.5788,"longitude":91.8933,"temp":16.7,"humidity":42,"rain":0.0,"pressure":855.4,"uv_index":7.05,"aqi":145,"mosquito_risk":0,"arthritis_risk":5,"migraine_risk":7,"frizz_risk":0,"updated_at":"2026-02-23T15:36:53.825598+05:30"},{"city":"Imphal","state":"Manipur","latitude":24.817,"longitude":93.9368,"temp":21.3,"humidity":40,"rain":0.0,"pressure":922.7,"uv_index":7.25,"aqi":154,"mosquito_risk":0,"arthritis_risk":5,"migraine_risk":7,"frizz_risk":0,"updated_at":"2026-02-23T15:36:53.825605+05:30"},{"city":"Aizawl","state":"Mizoram","latitude":23.7271,"longitude":92.7176,"temp":23.5,"humidity":32,"rain":0.0,"pressure":893.2,"uv_index":7.2,"aqi":152,"mosquito_risk":0,"arthritis_risk":5,"migraine_risk":7,"frizz_risk":0,"updated_at":"2026-02-23T15:36:53.825611+05:30"},{"city":"Kohima","state":"Nagaland","latitude":25.6701,"longitude":94.1077,"temp":16.4,"humidity":49,"rain":0.0,"pressure":854.2,"uv_index":7.1,"aqi":138,"mosquito_risk":0,"arthritis_risk":5,"migraine_risk":7,"frizz_risk":0,"updated_at":"2026-02-23T15:36:53.825616+05:30"},{"city":"Gangtok","state":"Sikkim","latitude":27.3314,"longitude":88.6138,"temp":16.3,"humidity":57,"rain":0.0,"pressure":836.8,"uv_index":6.65,"aqi":112,"mosquito_risk":0,"arthritis_risk":5,"migraine_risk":7,"frizz_risk":0,"updated_at":"2026-02-23T15:36:53.825622+05:30"},{"city":"Siliguri","state":"West Bengal","latitude":26.7271,"longitude":88.3953,"temp":23.7,"humidity":49,"rain":0.0,"pressure":994.4,"uv_index":6.65,"aqi":152,"mosquito_risk":0,"arthritis_risk":5,"migraine_risk":7,"frizz_risk":0,"updated_at":"2026-02-23T15:36:57.152197+05:30"},{"city":"Durgapur","state":"West Bengal","latitude":23.5204,"longitude":87.3119,"temp":31.8,"humidity":27,"rain":0.0,"pressure":995.1,"uv_index":7.2,"aqi":150,"mosquito_risk":0,"arthritis_risk":5,"migraine_risk":7,"frizz_risk":0,"updated_at":"2026-02-23T15:36:57.152234+05:30"},{"city":"Asansol","state":"West Bengal","latitude":23.6739,"longitude":86.9524,"temp":31.9,"humidity":25,"rain":0.0,"pressure":993.7,"uv_index":7.2,"aqi":135,"mosquito_risk":0,"arthritis_risk":5,"migraine_risk":7,"frizz_risk":0,"updated_at":"2026-02-23T15:36:57.152245+05:30"},{"city":"Pondicherry","state":"Puducherry","latitude":11.9139,"longitude":79.8145,"temp":33.2,"humidity":51,"rain":0.0,"pressure":1005.3,"uv_index":8.0,"aqi":43,"mosquito_risk":0,"arthritis_risk":5,"migraine_risk":4,"frizz_risk":1,"updated_at":"2026-02-23T15:36:57.152255+05:30"},{"city":"Port Blair","state":"Andaman and Nicobar Islands","latitude":11.6234,"longitude":92.7265,"temp":28.5,"humidity":71,"rain":0.0,"pressure":1004.3,"uv_index":7.05,"aqi":63,"mosquito_risk":7,"arthritis_risk":5,"migraine_risk":4,"frizz_risk":1,"updated_at":"2026-02-23T15:36:57.152264+05:30"},{"city":"Haridwar","state":"Uttarakhand","latitude":29.9457,"longitude":78.1642,"temp":26.7,"humidity":44,"rain":0.0,"pressure":975.8,"uv_index":5.1,"aqi":145,"mosquito_risk":4,"arthritis_risk":5,"migraine_risk":3,"frizz_risk":0,"updated_at":"2026-02-23T15:36:57.152273+05:30"},{"city":"Rishikesh","state":"Uttarakhand","latitude":30.0869,"longitude":78.2676,"temp":25.8,"humidity":44,"rain":0.0,"pressure":968.4,"uv_index":5.15,"aqi":122,"mosquito_risk":4,"arthritis_risk":5,"migraine_risk":3,"frizz_risk":0,"updated_at":"2026-02-23T15:36:57.152281+05:30"},{"city":"Nainital","state":"Uttarakhand","latitude":29.3919,"longitude":79.4542,"temp":16.7,"humidity":70,"rain":0.0,"pressure":805.8,"uv_index":5.95,"aqi":117,"mosquito_risk":3,"arthritis_risk":5,"migraine_risk":3,"frizz_risk":0,"updated_at":"2026-02-23T15:36:57.152289+05:30"},{"city":"Mussoorie","state":"Uttarakhand","latitude":30.4599,"longitude":78.0664,"temp":15.5,"humidity":66,"rain":0.0,"pressure":802.5,"uv_index":5.45,"aqi":129,"mosquito_risk":3,"arthritis_risk":5,"migraine_risk":3,"frizz_risk":0,"updated_at":"2026-02-23T15:36:57.152296+05:30"},{"city":"Dharamshala","state":"Himachal Pradesh","latitude":32.219,"longitude":76.3234,"temp":19.5,"humidity":58,"rain":0.0,"pressure":869.4,"uv_index":5.7,"aqi":101,"mosquito_risk":0,"arthritis_risk":5,"migraine_risk":3,"frizz_risk":0,"updated_at":"2026-02-23T15:36:57.152305+05:30"},{"city":"Dalhousie","state":"Himachal Pradesh","latitude":32.5387,"longitude":75.971,"temp":17.9,"humidity":50,"rain":0.0,"pressure":804.4,"uv_index":5.9,"aqi":148,"mosquito_risk":0,"arthritis_risk":5,"migraine_risk":3,"frizz_risk":0,"updated_at":"2026-02-23T15:36:57.152314+05:30"},{"city":"Patiala","state":"Punjab","latitude":30.3398,"longitude":76.3869,"temp":26.2,"humidity":43,"rain":0.0,"pressure":980.2,"uv_index":5.15,"aqi":185,"mosquito_risk":4,"arthritis_risk":5,"migraine_risk":3,"frizz_risk":0,"updated_at":"2026-02-23T15:36:57.152321+05:30"},{"city":"Bhatinda","state":"Punjab","latitude":30.211,"longitude":74.9455,"temp":28.1,"humidity":40,"rain":0.0,"pressure":985.6,"uv_index":5.85,"aqi":156,"mosquito_risk":4,"arthritis_risk":5,"migraine_risk":3,"frizz_risk":0,"updated_at":"2026-02-23T15:36:57.152329+05:30"},{"city":"Rohtak","state":"Haryana","latitude":28.8955,"longitude":76.6066,"temp":27.6,"humidity":42,"rain":0.0,"pressure":983.5,"uv_index":5.4,"aqi":170,"mosquito_risk":4,"arthritis_risk":5,"migraine_risk":3,"frizz_risk":0,"updated_at":"2026-02-23T15:36:57.152336+05:30"},{"city":"Panipat","state":"Haryana","latitude":29.3909,"longitude":76.9635,"temp":26.6,"humidity":47,"rain":0.0,"pressure":982.3,"uv_index":5.2,"aqi":170,"mosquito_risk":4,"arthritis_risk":5,"migraine_risk":3,"frizz_risk":0,"updated_at":"2026-02-23T15:36:57.152344+05:30"},{"city":"Mathura","state":"Uttar Pradesh","latitude":27.4924,"longitude":77.6737,"temp":28.5,"humidity":39,"rain":0.0,"pressure":988.2,"uv_index":5.65,"aqi":164,"mosquito_risk":4,"arthritis_risk":5,"migraine_risk":3,"frizz_risk":0,"updated_at":"2026-02-23T15:36:57.152368+05:30"},{"city":"Vrindavan","state":"Uttar Pradesh","latitude":27.5823,"longitude":77.7027,"temp":28.4,"humidity":39,"rain":0.0,"pressure":988.7,"uv_index":5.6,"aqi":164,"mosquito_risk":4,"arthritis_risk":5,"migraine_risk":3,"frizz_risk":0,"updated_at":"2026-02-23T15:36:57.152377+05:30"},{"city":"Ayodhya","state":"Uttar Pradesh","latitude":26.7922,"longitude":82.1998,"temp":27.9,"humidity":37,"rain":0.0,"pressure":996.9,"uv_index":6.0,"aqi":156,"mosquito_risk":4,"arthritis_risk":5,"migraine_risk":3,"frizz_risk":0,"updated_at":"2026-02-23T15:36:57.152385+05:30"},{"city":"Ratlam","state":"Madhya Pradesh","latitude":23.3315,"longitude":75.0367,"temp":29.6,"humidity":27,"rain":0.0,"pressure":954.4,"uv_index":6.95,"aqi":75,"mosquito_risk":4,"arthritis_risk":5,"migraine_risk":7,"frizz_risk":0,"updated_at":"2026-02-23T15:36:57.152393+05:30"},{"city":"Sagar","state":"Madhya Pradesh","latitude":23.8388,"longitude":78.7378,"temp":28.7,"humidity":33,"rain":0.0,"pressure":949.8,"uv_index":6.85,"aqi":122,"mosquito_risk":4,"arthritis_risk":5,"migraine_risk":7,"frizz_risk":0,"updated_at":"2026-02-23T15:36:57.152401+05:30"},{"city":"Satna","state":"Madhya Pradesh","latitude":24.6005,"longitude":80.8322,"temp":26.0,"humidity":53,"rain":0.0,"pressure":972.1,"uv_index":6.75,"aqi":121,"mosquito_risk":4,"arthritis_risk":5,"migraine_risk":7,"frizz_risk":0,"updated_at":"2026-02-23T15:36:57.152407+05:30"},{"city":"Akola","state":"Maharashtra","latitude":20.7002,"longitude":77.0082,"temp":34.4,"humidity":18,"rain":0.0,"pressure":973.7,"uv_index":7.4,"aqi":125,"mosquito_risk":0,"arthritis_risk":5,"migraine_risk":7,"frizz_risk":0,"updated_at":"2026-02-23T15:36:57.152414+05:30"},{"city":"Amravati","state":"Maharashtra","latitude":20.9374,"longitude":77.7796,"temp":34.2,"humidity":18,"rain":0.0,"pressure":965.9,"uv_index":7.35,"aqi":155,"mosquito_risk":0,"arthritis_risk":5,"migraine_risk":7,"frizz_risk":0,"updated_at":"2026-02-23T15:36:57.152420+05:30"},{"city":"Latur","state":"Maharashtra","latitude":18.4088,"longitude":76.5604,"temp":27.7,"humidity":43,"rain":0.0,"pressure":938.4,"uv_index":7.8,"aqi":133,"mosquito_risk":4,"arthritis_risk":5,"migraine_risk":7,"frizz_risk":0,"updated_at":"2026-02-23T15:36:57.152427+05:30"},{"city":"Nanded","state":"Maharashtra","latitude":19.1383,"longitude":77.3091,"temp":32.4,"humidity":33,"rain":0.0,"pressure":966.7,"uv_index":7.6,"aqi":155,"mosquito_risk":0,"arthritis_risk":5,"migraine_risk":7,"frizz_risk":0,"updated_at":"2026-02-23T15:36:57.152432+05:30"},{"city":"Gulbarga","state":"Karnataka","latitude":17.3297,"longitude":76.8343,"temp":32.1,"humidity":36,"rain":0.0,"pressure":956.7,"uv_index":7.95,"aqi":101,"mosquito_risk":0,"arthritis_risk":5,"migraine_risk":7,"frizz_risk":0,"updated_at":"2026-02-23T15:36:57.152438+05:30"},{"city":"Bidar","state":"Karnataka","latitude":17.9104,"longitude":77.5199,"temp":30.4,"humidity":39,"rain":0.0,"pressure":934.1,"uv_index":7.35,"aqi":117,"mosquito_risk":0,"arthritis_risk":5,"migraine_risk":7,"frizz_risk":0,"updated_at":"2026-02-23T15:36:57.152444+05:30"},{"city":"Hospet","state":"Karnataka","latitude":15.2689,"longitude":76.3909,"temp":33.5,"humidity":30,"rain":0.0,"pressure":952.9,"uv_index":7.9,"aqi":59,"mosquito_risk":0,"arthritis_risk":5,"migraine_risk":7,"frizz_risk":0,"updated_at":"2026-02-23T15:36:57.152450+05:30"},{"city":"Tirupur","state":"Tamil Nadu","latitude":11.1085,"longitude":77.3411,"temp":34.3,"humidity":31,"rain":0.0,"pressure":971.7,"uv_index":8.95,"aqi":68,"mosquito_risk":0,"arthritis_risk":5,"migraine_risk":7,"frizz_risk":0,"updated_at":"2026-02-23T15:36:57.152455+05:30"},{"city":"Alappuzha","state":"Kerala","latitude":9.4981,"longitude":76.3388,"temp":28.2,"humidity":80,"rain":0.0,"pressure":1005.3,"uv_index":8.6,"aqi":98,"mosquito_risk":7,"arthritis_risk":5,"migraine_risk":4,"frizz_risk":1,"updated_at":"2026-02-23T15:36:57.152461+05:30"},{"city":"Munnar","state":"Kerala","latitude":10.0889,"longitude":77.0595,"temp":25.1,"humidity":69,"rain":0.0,"pressure":855.3,"uv_index":7.9,"aqi":70,"mosquito_risk":7,"arthritis_risk":5,"migraine_risk":7,"frizz_risk":1,"updated_at":"2026-02-23T15:36:57.152467+05:30"},{"city":"Silchar","state":"Assam","latitude":24.8333,"longitude":92.7789,"temp":29.4,"humidity":38,"rain":0.0,"pressure":1004.8,"uv_index":7.0,"aqi":154,"mosquito_risk":4,"arthritis_risk":5,"migraine_risk":4,"frizz_risk":0,"updated_at":"2026-02-23T15:36:57.152473+05:30"},{"city":"Dibrugarh","state":"Assam","latitude":27.4728,"longitude":94.912,"temp":25.7,"humidity":57,"rain":0.0,"pressure":996.1,"uv_index":6.7,"aqi":151,"mosquito_risk":4,"arthritis_risk":5,"migraine_risk":7,"frizz_risk":1,"updated_at":"2026-02-23T15:36:57.152479+05:30"}]