[{"city":"Delhi","state":"Delhi","latitude":28.6139,"longitude":77.209,"temp":26.1,"humidity":94,"rain":0.1,"pressure":977.8,"uv_index":6.1,"wind_gusts":34.6,"aqi":146,"pm10":48.8,"pm2_5":31.3,"no2":27.7,"co":285.0,"o3":50.0,"so2":20.0,"mosquito_risk":10,"arthritis_risk":5,"migraine_risk":7,"frizz_risk":1,"updated_at":"2026-07-21T03:31:32.615883+05:30"},{"city":"Mumbai","state":"Maharashtra","latitude":19.076,"longitude":72.8777,"temp":25.5,"humidity":92,"rain":0.4,"pressure":1005.2,"uv_index":7.35,"wind_gusts":53.3,"aqi":58,"pm10":31.0,"pm2_5":14.7,"no2":5.1,"co":134.0,"o3":49.0,"so2":4.6,"mosquito_risk":10,"arthritis_risk":5,"migraine_risk":4,"frizz_risk":1,"updated_at":"2026-07-21T03:31:32.615925+05:30"},{"city":"Bangalore","state":"Karnataka","latitude":12.9716,"longitude":77.5946,"temp":20.1,"humidity":94,"rain":0.0,"pressure":911.2,"uv_index":8.6,"wind_gusts":46.1,"aqi":35,"pm10":5.7,"pm2_5":4.4,"no2":9.7,"co":149.0,"o3":30.0,"so2":4.3,"mosquito_risk":3,"arthritis_risk":5,"migraine_risk":7,"frizz_risk":1,"updated_at":"2026-07-21T03:31:32.615940+05:30"},{"city":"Hyderabad","state":"Telangana","latitude":17.385,"longitude":78.4867,"temp":23.3,"humidity":92,"rain":0.0,"pressure":950.7,"uv_index":6.1,"wind_gusts":47.2,"aqi":35,"pm10":5.5,"pm2_5":4.1,"no2":6.7,"co":140.0,"o3":35.0,"so2":4.1,"mosquito_risk":3,"arthritis_risk":5,"migraine_risk":7,"frizz_risk":1,"updated_at":"2026-07-21T03:31:32.615949+05:30"},{"city":"Chennai","state":"Tamil Nadu","latitude":13.0827,"longitude":80.2707,"temp":27.0,"humidity":78,"rain":0.0,"pressure":1006.2,"uv_index":8.3,"wind_gusts":37.1,"aqi":77,"pm10":27.4,"pm2_5":20.3,"no2":17.7,"co":363.0,"o3":58.0,"so2":10.2,"mosquito_risk":7,"arthritis_risk":5,"migraine_risk":4,"frizz_risk":1,"updated_at":"2026-07-21T03:31:32.615957+05:30"},{"city":"Kolkata","state":"West Bengal","latitude":22.5726,"longitude":88.3639,"temp":26.1,"humidity":96,"rain":0.1,"pressure":1001.6,"uv_index":1.4,"wind_gusts":27.7,"aqi":72,"pm10":17.8,"pm2_5":16.1,"no2":9.9,"co":250.0,"o3":49.0,"so2":5.6,"mosquito_risk":10,"arthritis_risk":5,"migraine_risk":0,"frizz_risk":1,"updated_at":"2026-07-21T03:31:32.615965+05:30"},{"city":"Pune","state":"Maharashtra","latitude":18.5204,"longitude":73.8567,"temp":22.7,"humidity":90,"rain":0.0,"pressure":944.7,"uv_index":6.25,"wind_gusts":54.7,"aqi":20,"pm10":2.9,"pm2_5":2.0,"no2":5.2,"co":104.0,"o3":36.0,"so2":4.3,"mosquito_risk":3,"arthritis_risk":5,"migraine_risk":7,"frizz_risk":1,"updated_at":"2026-07-21T03:31:32.615972+05:30"},{"city":"Ahmedabad","state":"Gujarat","latitude":23.0225,"longitude":72.5714,"temp":27.4,"humidity":88,"rain":0.0,"pressure":996.5,"uv_index":5.75,"wind_gusts":32.0,"aqi":62,"pm10":19.4,"pm2_5":12.7,"no2":10.8,"co":159.0,"o3":30.0,"so2":4.3,"mosquito_risk":7,"arthritis_risk":5,"migraine_risk":3,"frizz_risk":1,"updated_at":"2026-07-21T03:31:32.615978+05:30"},{"city":"Jaipur","state":"Rajasthan","latitude":26.9124,"longitude":75.7873,"temp":24.9,"humidity":99,"rain":0.1,"pressure":954.4,"uv_index":4.15,"wind_gusts":25.9,"aqi":114,"pm10":26.4,"pm2_5":16.9,"no2":14.3,"co":175.0,"o3":51.0,"so2":5.7,"mosquito_risk":6,"arthritis_risk":5,"migraine_risk":3,"frizz_risk":1,"updated_at":"2026-07-21T03:31:32.615984+05:30"},{"city":"Lucknow","state":"Uttar Pradesh","latitude":26.8467,"longitude":80.9462,"temp":25.5,"humidity":97,"rain":0.1,"pressure":989.1,"uv_index":5.75,"wind_gusts":39.2,"aqi":73,"pm10":18.0,"pm2_5":17.1,"no2":11.3,"co":378.0,"o3":76.0,"so2":5.9,"mosquito_risk":10,"arthritis_risk":5,"migraine_risk":3,"frizz_risk":1,"updated_at":"2026-07-21T03:31:32.615995+05:30"},{"city":"Kanpur","state":"Uttar Pradesh","latitude":26.4499,"longitude":80.3319,"temp":25.7,"humidity":98,"rain":0.2,"pressure":987.1,"uv_index":6.9,"wind_gusts":26.3,"aqi":70,"pm10":20.7,"pm2_5":17.9,"no2":11.9,"co":328.0,"o3":65.0,"so2":4.3,"mosquito_risk":10,"arthritis_risk":5,"migraine_risk":7,"frizz_risk":1,"updated_at":"2026-07-21T03:31:32.616020+05:30"},{"city":"Chandigarh","state":"Chandigarh","latitude":30.7333,"longitude":76.7794,"temp":25.1,"humidity":91,"rain":0.1,"pressure":964.1,"uv_index":1.35,"wind_gusts":30.6,"aqi":107,"pm10":26.2,"pm2_5":17.8,"no2":13.2,"co":272.0,"o3":63.0,"so2":4.4,"mosquito_risk":10,"arthritis_risk":5,"migraine_risk":3,"frizz_risk":1,"updated_at":"2026-07-21T03:31:32.616030+05:30"},{"city":"Srinagar","state":"Jammu and Kashmir","latitude":34.0837,"longitude":74.7973,"temp":19.9,"humidity":99,"rain":0.1,"pressure":838.7,"uv_index":7.95,"wind_gusts":18.4,"aqi":60,"pm10":11.9,"pm2_5":10.8,"no2":11.2,"co":215.0,"o3":72.0,"so2":2.2,"mosquito_risk":6,"arthritis_risk":10,"migraine_risk":7,"frizz_risk":1,"updated_at":"2026-07-21T03:31:32.616037+05:30"},{"city":"Jammu","state":"Jammu and Kashmir","latitude":32.7266,"longitude":74.857,"temp":24.9,"humidity":97,"rain":0.1,"pressure":967.6,"uv_index":4.75,"wind_gusts":34.6,"aqi":96,"pm10":45.4,"pm2_5":28.7,"no2":13.8,"co":245.0,"o3":66.0,"so2":2.3,"mosquito_risk":6,"arthritis_risk":5,"migraine_risk":3,"frizz_risk":1,"updated_at":"2026-07-21T03:31:32.616043+05:30"},{"city":"Amritsar","state":"Punjab","latitude":31.634,"longitude":74.8723,"temp":26.3,"humidity":95,"rain":0.1,"pressure":975.8,"uv_index":5.2,"wind_gusts":41.4,"aqi":160,"pm10":61.0,"pm2_5":35.2,"no2":13.0,"co":425.0,"o3":75.0,"so2":6.5,"mosquito_risk":10,"arthritis_risk":5,"migraine_risk":3,"frizz_risk":1,"updated_at":"2026-07-21T03:31:32.616049+05:30"},{"city":"Ludhiana","state":"Punjab","latitude":30.901,"longitude":75.8573,"temp":26.7,"humidity":92,"rain":0.0,"pressure":973.0,"uv_index":5.25,"wind_gusts":42.8,"aqi":149,"pm10":36.6,"pm2_5":24.0,"no2":15.9,"co":393.0,"o3":60.0,"so2":11.3,"mosquito_risk":7,"arthritis_risk":5,"migraine_risk":3,"frizz_risk":1,"updated_at":"2026-07-21T03:31:32.616055+05:30"},{"city":"Jalandhar","state":"Punjab","latitude":31.326,"longitude":75.5762,"temp":25.9,"humidity":96,"rain":0.0,"pressure":975.0,"uv_index":7.95,"wind_gusts":39.2,"aqi":157,"pm10":41.0,"pm2_5":26.0,"no2":16.7,"co":385.0,"o3":63.0,"so2":11.6,"mosquito_risk":7,"arthritis_risk":5,"migraine_risk":7,"frizz_risk":1,"updated_at":"2026-07-21T03:31:32.616061+05:30"},{"city":"Dehradun","state":"Uttarakhand","latitude":30.6284,"longitude":78.0322,"temp":17.2,"humidity":99,"rain":0.2,"pressure":827.6,"uv_index":1.05,"wind_gusts":22.7,"aqi":54,"pm10":3.3,"pm2_5":3.0,"no2":7.9,"co":209.0,"o3":84.0,"so2":0.5,"mosquito_risk":6,"arthritis_risk":10,"migraine_risk":3,"frizz_risk":1,"updated_at":"2026-07-21T03:31:32.616067+05:30"},{"city":"Shimla","state":"Himachal Pradesh","latitude":31.1048,"longitude":77.1734,"temp":15.1,"humidity":98,"rain":0.0,"pressure":781.6,"uv_index":1.7,"wind_gusts":20.2,"aqi":65,"pm10":5.9,"pm2_5":3.2,"no2":8.1,"co":205.0,"o3":80.0,"so2":1.0,"mosquito_risk":3,"arthritis_risk":10,"migraine_risk":3,"frizz_risk":0,"updated_at":"2026-07-21T03:31:32.616074+05:30"},{"city":"Manali","state":"Himachal Pradesh","latitude":32.2396,"longitude":77.1887,"temp":19.3,"humidity":89,"rain":0.1,"pressure":816.9,"uv_index":6.4,"wind_gusts":23.8,"aqi":25,"pm10":5.4,"pm2_5":5.3,"no2":16.0,"co":248.0,"o3":41.0,"so2":0.0,"mosquito_risk":6,"arthritis_risk":10,"migraine_risk":7,"frizz_risk":1,"updated_at":"2026-07-21T03:31:32.616082+05:30"},{"city":"Gurgaon","state":"Haryana","latitude":28.4595,"longitude":77.0266,"temp":25.1,"humidity":97,"rain":0.1,"pressure":976.2,"uv_index":6.35,"wind_gusts":39.6,"aqi":123,"pm10":54.5,"pm2_5":31.3,"no2":24.3,"co":338.0,"o3":42.0,"so2":11.4,"mosquito_risk":10,"arthritis_risk":5,"migraine_risk":7,"frizz_risk":1,"updated_at":"2026-07-21T03:31:32.616089+05:30"},{"city":"Noida","state":"Uttar Pradesh","latitude":28.5355,"longitude":77.391,"temp":25.9,"humidity":95,"rain":0.0,"pressure":979.2,"uv_index":7.2,"wind_gusts":39.2,"aqi":123,"pm10":54.5,"pm2_5":31.3,"no2":24.3,"co":275.0,"o3":42.0,"so2":11.4,"mosquito_risk":7,"arthritis_risk":5,"migraine_risk":7,"frizz_risk":1,"updated_at":"2026-07-21T03:31:32.616097+05:30"},{"city":"Ghaziabad","state":"Uttar Pradesh","latitude":28.6692,"longitude":77.4538,"temp":25.6,"humidity":98,"rain":0.1,"pressure":977.5,"uv_index":6.55,"wind_gusts":43.2,"aqi":130,"pm10":19.9,"pm2_5":16.8,"no2":11.4,"co":335.0,"o3":70.0,"so2":6.0,"mosquito_risk":10,"arthritis_risk":5,"migraine_risk":7,"frizz_risk":1,"updated_at":"2026-07-21T03:31:32.616103+05:30"},{"city":"Faridabad","state":"Haryana","latitude":28.4089,"longitude":77.3178,"temp":25.9,"humidity":95,"rain":0.1,"pressure":978.4,"uv_index":7.25,"wind_gusts":42.5,"aqi":123,"pm10":54.5,"pm2_5":31.3,"no2":24.3,"co":258.0,"o3":42.0,"so2":11.4,"mosquito_risk":10,"arthritis_risk":5,"migraine_risk":7,"frizz_risk":1,"updated_at":"2026-07-21T03:31:32.616111+05:30"},{"city":"Meerut","state":"Uttar Pradesh","latitude":28.9845,"longitude":77.7064,"temp":25.8,"humidity":96,"rain":0.0,"pressure":976.6,"uv_index":6.65,"wind_gusts":42.8,"aqi":130,"pm10":19.9,"pm2_5":16.8,"no2":11.4,"co":345.0,"o3":70.0,"so2":6.0,"mosquito_risk":7,"arthritis_risk":5,"migraine_risk":7,"frizz_risk":1,"updated_at":"2026-07-21T03:31:32.616116+05:30"},{"city":"Agra","state":"Uttar Pradesh","latitude":27.1767,"longitude":78.0081,"temp":25.8,"humidity":96,"rain":0.5,"pressure":982.3,"uv_index":7.3,"wind_gusts":22.0,"aqi":80,"pm10":46.9,"pm2_5":21.4,"no2":9.6,"co":178.0,"o3":76.0,"so2":2.8,"mosquito_risk":10,"arthritis_risk":5,"migraine_risk":7,"frizz_risk":1,"updated_at":"2026-07-21T03:31:32.616123+05:30"},{"city":"Varanasi","state":"Uttar Pradesh","latitude":25.3176,"longitude":82.9739,"temp":25.4,"humidity":98,"rain":0.2,"pressure":992.9,"uv_index":1.75,"wind_gusts":38.2,"aqi":79,"pm10":18.5,"pm2_5":18.2,"no2":14.1,"co":386.0,"o3":77.0,"so2":8.3,"mosquito_risk":10,"arthritis_risk":5,"migraine_risk":3,"frizz_risk":1,"updated_at":"2026-07-21T03:31:32.616129+05:30"},{"city":"Prayagraj","state":"Uttar Pradesh","latitude":25.4358,"longitude":81.8463,"temp":26.1,"humidity":94,"rain":0.1,"pressure":991.0,"uv_index":2.45,"wind_gusts":30.6,"aqi":82,"pm10":14.2,"pm2_5":13.6,"no2":10.9,"co":238.0,"o3":87.0,"so2":4.6,"mosquito_risk":10,"arthritis_risk":5,"migraine_risk":3,"frizz_risk":1,"updated_at":"2026-07-21T03:31:32.616136+05:30"},{"city":"Gorakhpur","state":"Uttar Pradesh","latitude":26.7606,"longitude":83.3732,"temp":25.2,"humidity":96,"rain":0.0,"pressure":993.7,"uv_index":4.85,"wind_gusts":43.2,"aqi":62,"pm10":13.2,"pm2_5":13.2,"no2":9.4,"co":331.0,"o3":82.0,"so2":6.0,"mosquito_risk":7,"arthritis_risk":5,"migraine_risk":3,"frizz_risk":1,"updated_at":"2026-07-21T03:31:32.616142+05:30"},{"city":"Bareilly","state":"Uttar Pradesh","latitude":28.367,"longitude":79.4304,"temp":25.6,"humidity":94,"rain":0.0,"pressure":982.3,"uv_index":7.15,"wind_gusts":47.2,"aqi":66,"pm10":18.0,"pm2_5":17.7,"no2":12.2,"co":367.0,"o3":69.0,"so2":6.4,"mosquito_risk":7,"arthritis_risk":5,"migraine_risk":7,"frizz_risk":1,"updated_at":"2026-07-21T03:31:32.616150+05:30"},{"city":"Aligarh","state":"Uttar Pradesh","latitude":27.8974,"longitude":78.088,"temp":25.4,"humidity":97,"rain":0.2,"pressure":979.7,"uv_index":6.8,"wind_gusts":32.8,"aqi":103,"pm10":39.8,"pm2_5":25.2,"no2":16.7,"co":241.0,"o3":60.0,"so2":7.7,"mosquito_risk":10,"arthritis_risk":5,"migraine_risk":7,"frizz_risk":1,"updated_at":"2026-07-21T03:31:32.616156+05:30"},{"city":"Moradabad","state":"Uttar Pradesh","latitude":28.8386,"longitude":78.7733,"temp":25.6,"humidity":94,"rain":0.0,"pressure":979.0,"uv_index":5.15,"wind_gusts":48.6,"aqi":68,"pm10":14.5,"pm2_5":14.3,"no2":11.6,"co":383.0,"o3":73.0,"so2":7.1,"mosquito_risk":7,"arthritis_risk":5,"migraine_risk":3,"frizz_risk":1,"updated_at":"2026-07-21T03:31:32.616162+05:30"},{"city":"Saharanpur","state":"Uttar Pradesh","latitude":29.9637,"longitude":77.546,"temp":25.3,"humidity":97,"rain":0.3,"pressure":971.5,"uv_index":1.6,"wind_gusts":44.6,"aqi":74,"pm10":17.2,"pm2_5":15.9,"no2":10.6,"co":330.0,"o3":74.0,"so2":6.0,"mosquito_risk":10,"arthritis_risk":5,"migraine_risk":3,"frizz_risk":1,"updated_at":"2026-07-21T03:31:32.616168+05:30"},{"city":"Jhansi","state":"Uttar Pradesh","latitude":25.4484,"longitude":78.5685,"temp":25.5,"humidity":98,"rain":0.0,"pressure":972.8,"uv_index":7.9,"wind_gusts":27.7,"aqi":61,"pm10":15.8,"pm2_5":13.1,"no2":9.5,"co":224.0,"o3":63.0,"so2":4.1,"mosquito_risk":7,"arthritis_risk":5,"migraine_risk":7,"frizz_risk":1,"updated_at":"2026-07-21T03:31:36.009487+05:30"},{"city":"Surat","state":"Gujarat","latitude":21.1702,"longitude":72.8311,"temp":25.6,"humidity":96,"rain":0.1,"pressure":1002.1,"uv_index":4.4,"wind_gusts":51.8,"aqi":64,"pm10":24.4,"pm2_5":17.1,"no2":21.7,"co":287.0,"o3":26.0,"so2":30.6,"mosquito_risk":10,"arthritis_risk":5,"migraine_risk":0,"frizz_risk":1,"updated_at":"2026-07-21T03:31:36.009519+05:30"},{"city":"Vadodara","state":"Gujarat","latitude":22.3072,"longitude":73.1812,"temp":25.9,"humidity":95,"rain":0.0,"pressure":999.2,"uv_index":5.65,"wind_gusts":40.3,"aqi":56,"pm10":17.2,"pm2_5":11.9,"no2":12.1,"co":160.0,"o3":30.0,"so2":9.2,"mosquito_risk":7,"arthritis_risk":5,"migraine_risk":3,"frizz_risk":1,"updated_at":"2026-07-21T03:31:36.009529+05:30"},{"city":"Rajkot","state":"Gujarat","latitude":22.3039,"longitude":70.8022,"temp":25.8,"humidity":90,"rain":0.0,"pressure":988.6,"uv_index":5.2,"wind_gusts":42.8,"aqi":57,"pm10":16.2,"pm2_5":8.9,"no2":5.4,"co":99.0,"o3":38.0,"so2":4.0,"mosquito_risk":7,"arthritis_risk":5,"migraine_risk":3,"frizz_risk":1,"updated_at":"2026-07-21T03:31:36.009538+05:30"},{"city":"Thane","state":"Maharashtra","latitude":19.2183,"longitude":72.9781,"temp":24.5,"humidity":97,"rain":0.1,"pressure":1004.6,"uv_index":6.5,"wind_gusts":44.3,"aqi":58,"pm10":31.0,"pm2_5":14.7,"no2":5.1,"co":148.0,"o3":49.0,"so2":4.6,"mosquito_risk":6,"arthritis_risk":5,"migraine_risk":4,"frizz_risk":1,"updated_at":"2026-07-21T03:31:36.009546+05:30"},{"city":"Nagpur","state":"Maharashtra","latitude":21.1458,"longitude":79.0882,"temp":24.1,"humidity":98,"rain":0.2,"pressure":969.1,"uv_index":0.55,"wind_gusts":37.4,"aqi":59,"pm10":5.9,"pm2_5":5.4,"no2":10.4,"co":168.0,"o3":44.0,"so2":7.8,"mosquito_risk":6,"arthritis_risk":5,"migraine_risk":3,"frizz_risk":1,"updated_at":"2026-07-21T03:31:36.009554+05:30"},{"city":"Nashik","state":"Maharashtra","latitude":19.9975,"longitude":73.7898,"temp":22.5,"humidity":96,"rain":0.1,"pressure":941.3,"uv_index":3.25,"wind_gusts":52.9,"aqi":20,"pm10":3.2,"pm2_5":2.4,"no2":7.9,"co":118.0,"o3":36.0,"so2":7.1,"mosquito_risk":6,"arthritis_risk":5,"migraine_risk":3,"frizz_risk":1,"updated_at":"2026-07-21T03:31:36.009561+05:30"},{"city":"Aurangabad","state":"Maharashtra","latitude":19.8762,"longitude":75.3433,"temp":22.8,"humidity":95,"rain":0.0,"pressure":940.4,"uv_index":5.6,"wind_gusts":57.6,"aqi":27,"pm10":3.7,"pm2_5":2.7,"no2":6.8,"co":130.0,"o3":37.0,"so2":7.7,"mosquito_risk":3,"arthritis_risk":5,"migraine_risk":3,"frizz_risk":1,"updated_at":"2026-07-21T03:31:36.009567+05:30"},{"city":"Solapur","state":"Maharashtra","latitude":17.6599,"longitude":75.9064,"temp":24.1,"humidity":83,"rain":0.0,"pressure":955.0,"uv_index":5.05,"wind_gusts":53.6,"aqi":23,"pm10":5.1,"pm2_5":3.8,"no2":5.5,"co":125.0,"o3":34.0,"so2":2.4,"mosquito_risk":3,"arthritis_risk":5,"migraine_risk":3,"frizz_risk":1,"updated_at":"2026-07-21T03:31:36.009575+05:30"},{"city":"Kolhapur","state":"Maharashtra","latitude":16.705,"longitude":74.2433,"temp":22.2,"humidity":93,"rain":0.0,"pressure":946.0,"uv_index":7.65,"wind_gusts":57.6,"aqi":24,"pm10":3.7,"pm2_5":2.7,"no2":2.9,"co":98.0,"o3":37.0,"so2":1.8,"mosquito_risk":3,"arthritis_risk":5,"migraine_risk":7,"frizz_risk":1,"updated_at":"2026-07-21T03:31:36.009582+05:30"},{"city":"Goa","state":"Goa","latitude":15.2993,"longitude":74.124,"temp":23.8,"humidity":98,"rain":0.0,"pressure":997.6,"uv_index":7.6,"wind_gusts":35.3,"aqi":57,"pm10":21.5,"pm2_5":12.8,"no2":3.5,"co":293.0,"o3":37.0,"so2":1.0,"mosquito_risk":3,"arthritis_risk":5,"migraine_risk":7,"frizz_risk":1,"updated_at":"2026-07-21T03:31:36.009589+05:30"},{"city":"Jodhpur","state":"Rajasthan","latitude":26.2389,"longitude":73.0243,"temp":29.7,"humidity":67,"rain":0.0,"pressure":976.5,"uv_index":8.05,"wind_gusts":34.9,"aqi":79,"pm10":43.9,"pm2_5":16.7,"no2":5.3,"co":124.0,"o3":55.0,"so2":2.5,"mosquito_risk":7,"arthritis_risk":5,"migraine_risk":7,"frizz_risk":1,"updated_at":"2026-07-21T03:31:36.009596+05:30"},{"city":"Udaipur","state":"Rajasthan","latitude":24.5854,"longitude":73.7125,"temp":24.0,"humidity":94,"rain":0.0,"pressure":940.7,"uv_index":4.15,"wind_gusts":31.3,"aqi":61,"pm10":16.3,"pm2_5":10.3,"no2":8.8,"co":130.0,"o3":47.0,"so2":9.1,"mosquito_risk":3,"arthritis_risk":5,"migraine_risk":3,"frizz_risk":1,"updated_at":"2026-07-21T03:31:36.009603+05:30"},{"city":"Kota","state":"Rajasthan","latitude":25.2138,"longitude":75.8648,"temp":27.2,"humidity":91,"rain":0.0,"pressure":973.1,"uv_index":0.85,"wind_gusts":27.7,"aqi":69,"pm10":17.9,"pm2_5":14.8,"no2":11.3,"co":181.0,"o3":53.0,"so2":6.6,"mosquito_risk":7,"arthritis_risk":5,"migraine_risk":3,"frizz_risk":1,"updated_at":"2026-07-21T03:31:36.009610+05:30"},{"city":"Bikaner","state":"Rajasthan","latitude":28.0229,"longitude":73.3119,"temp":32.1,"humidity":54,"rain":0.0,"pressure":975.2,"uv_index":8.4,"wind_gusts":32.4,"aqi":87,"pm10":107.8,"pm2_5":30.6,"no2":2.8,"co":109.0,"o3":54.0,"so2":3.4,"mosquito_risk":0,"arthritis_risk":5,"migraine_risk":7,"frizz_risk":1,"updated_at":"2026-07-21T03:31:36.009617+05:30"},{"city":"Ajmer","state":"Rajasthan","latitude":26.4499,"longitude":74.6399,"temp":27.6,"humidity":76,"rain":0.0,"pressure":949.1,"uv_index":3.6,"wind_gusts":37.8,"aqi":62,"pm10":15.3,"pm2_5":11.4,"no2":7.4,"co":142.0,"o3":62.0,"so2":5.3,"mosquito_risk":7,"arthritis_risk":5,"migraine_risk":3,"frizz_risk":1,"updated_at":"2026-07-21T03:31:36.009625+05:30"},{"city":"Gwalior","state":"Madhya Pradesh","latitude":26.2183,"longitude":78.1828,"temp":24.7,"humidity":91,"rain":0.1,"pressure":977.9,"uv_index":7.3,"wind_gusts":20.2,"aqi":70,"pm10":20.0,"pm2_5":15.4,"no2":11.3,"co":159.0,"o3":53.0,"so2":4.7,"mosquito_risk":6,"arthritis_risk":5,"migraine_risk":7,"frizz_risk":1,"updated_at":"2026-07-21T03:31:36.009631+05:30"},{"city":"Indore","state":"Madhya Pradesh","latitude":22.7196,"longitude":75.8577,"temp":23.9,"humidity":94,"rain":0.1,"pressure":943.2,"uv_index":1.55,"wind_gusts":37.8,"aqi":53,"pm10":9.2,"pm2_5":7.4,"no2":9.6,"co":171.0,"o3":37.0,"so2":8.9,"mosquito_risk":6,"arthritis_risk":5,"migraine_risk":3,"frizz_risk":1,"updated_at":"2026-07-21T03:31:36.009638+05:30"},{"city":"Bhopal","state":"Madhya Pradesh","latitude":23.2599,"longitude":77.4126,"temp":23.5,"humidity":97,"rain":0.0,"pressure":948.7,"uv_index":2.65,"wind_gusts":28.4,"aqi":60,"pm10":7.3,"pm2_5":6.7,"no2":7.8,"co":195.0,"o3":48.0,"so2":2.5,"mosquito_risk":3,"arthritis_risk":5,"migraine_risk":3,"frizz_risk":1,"updated_at":"2026-07-21T03:31:36.009645+05:30"},{"city":"Jabalpur","state":"Madhya Pradesh","latitude":23.1815,"longitude":79.9864,"temp":24.1,"humidity":99,"rain":0.1,"pressure":956.4,"uv_index":1.95,"wind_gusts":22.0,"aqi":65,"pm10":15.4,"pm2_5":13.1,"no2":7.7,"co":210.0,"o3":58.0,"so2":3.0,"mosquito_risk":6,"arthritis_risk":5,"migraine_risk":3,"frizz_risk":1,"updated_at":"2026-07-21T03:31:36.009651+05:30"},{"city":"Ujjain","state":"Madhya Pradesh","latitude":23.1765,"longitude":75.7885,"temp":24.2,"humidity":93,"rain":0.0,"pressure":948.8,"uv_index":1.0,"wind_gusts":31.7,"aqi":53,"pm10":10.3,"pm2_5":7.9,"no2":9.4,"co":211.0,"o3":37.0,"so2":9.9,"mosquito_risk":3,"arthritis_risk":5,"migraine_risk":3,"frizz_risk":1,"updated_at":"2026-07-21T03:31:36.009658+05:30"},{"city":"Visakhapatnam","state":"Andhra Pradesh","latitude":17.6868,"longitude":83.2185,"temp":26.5,"humidity":91,"rain":0.0,"pressure":999.0,"uv_index":6.5,"wind_gusts":35.6,"aqi":75,"pm10":12.1,"pm2_5":10.4,"no2":18.4,"co":276.0,"o3":42.0,"so2":29.8,"mosquito_risk":7,"arthritis_risk":5,"migraine_risk":7,"frizz_risk":1,"updated_at":"2026-07-21T03:31:36.009665+05:30"},{"city":"Vijayawada","state":"Andhra Pradesh","latitude":16.5062,"longitude":80.648,"temp":26.1,"humidity":85,"rain":0.0,"pressure":1000.1,"uv_index":7.35,"wind_gusts":47.5,"aqi":59,"pm10":23.8,"pm2_5":18.9,"no2":14.2,"co":155.0,"o3":31.0,"so2":4.4,"mosquito_risk":7,"arthritis_risk":5,"migraine_risk":4,"frizz_risk":1,"updated_at":"2026-07-21T03:31:36.009671+05:30"},{"city":"Guntur","state":"Andhra Pradesh","latitude":16.3067,"longitude":80.4365,"temp":26.7,"humidity":79,"rain":0.0,"pressure":1001.3,"uv_index":7.9,"wind_gusts":47.2,"aqi":56,"pm10":20.3,"pm2_5":15.4,"no2":14.2,"co":151.0,"o3":30.0,"so2":5.9,"mosquito_risk":7,"arthritis_risk":5,"migraine_risk":4,"frizz_risk":1,"updated_at":"2026-07-21T03:31:36.009679+05:30"},{"city":"Nellore","state":"Andhra Pradesh","latitude":14.4426,"longitude":79.9865,"temp":27.7,"humidity":75,"rain":0.0,"pressure":1004.4,"uv_index":7.2,"wind_gusts":41.0,"aqi":62,"pm10":9.0,"pm2_5":5.7,"no2":6.7,"co":131.0,"o3":39.0,"so2":4.3,"mosquito_risk":7,"arthritis_risk":5,"migraine_risk":4,"frizz_risk":1,"updated_at":"2026-07-21T03:31:36.009687+05:30"},{"city":"Kurnool","state":"Andhra Pradesh","latitude":15.8281,"longitude":78.0373,"temp":25.0,"humidity":82,"rain":0.0,"pressure":975.7,"uv_index":8.55,"wind_gusts":50.8,"aqi":40,"pm10":8.5,"pm2_5":5.2,"no2":6.7,"co":126.0,"o3":35.0,"so2":2.3,"mosquito_risk":7,"arthritis_risk":5,"migraine_risk":7,"frizz_risk":1,"updated_at":"2026-07-21T03:31:36.009695+05:30"},{"city":"Kakinada","state":"Andhra Pradesh","latitude":16.9891,"longitude":82.2475,"temp":27.5,"humidity":80,"rain":0.0,"pressure":1003.9,"uv_index":7.95,"wind_gusts":54.4,"aqi":64,"pm10":24.2,"pm2_5":17.4,"no2":7.5,"co":158.0,"o3":63.0,"so2":5.0,"mosquito_risk":7,"arthritis_risk":5,"migraine_risk":4,"frizz_risk":1,"updated_at":"2026-07-21T03:31:36.009701+05:30"},{"city":"Tirupati","state":"Andhra Pradesh","latitude":13.6288,"longitude":79.4192,"temp":26.3,"humidity":75,"rain":0.0,"pressure":990.2,"uv_index":8.45,"wind_gusts":33.5,"aqi":66,"pm10":22.0,"pm2_5":16.6,"no2":21.1,"co":188.0,"o3":14.0,"so2":2.5,"mosquito_risk":7,"arthritis_risk":5,"migraine_risk":7,"frizz_risk":1,"updated_at":"2026-07-21T03:31:36.009707+05:30"},{"city":"Warangal","state":"Telangana","latitude":17.9689,"longitude":79.5941,"temp":24.5,"humidity":93,"rain":0.1,"pressure":975.9,"uv_index":2.35,"wind_gusts":35.3,"aqi":38,"pm10":7.6,"pm2_5":6.1,"no2":8.2,"co":142.0,"o3":33.0,"so2":2.7,"mosquito_risk":6,"arthritis_risk":5,"migraine_risk":3,"frizz_risk":1,"updated_at":"2026-07-21T03:31:36.009714+05:30"},{"city":"Nizamabad","state":"Telangana","latitude":18.6725,"longitude":78.0941,"temp":23.7,"humidity":96,"rain":0.0,"pressure":961.7,"uv_index":4.65,"wind_gusts":46.8,"aqi":35,"pm10":6.5,"pm2_5":5.1,"no2":7.9,"co":143.0,"o3":31.0,"so2":4.7,"mosquito_risk":3,"arthritis_risk":5,"migraine_risk":3,"frizz_risk":1,"updated_at":"2026-07-21T03:31:36.009720+05:30"},{"city":"Mysore","state":"Karnataka","latitude":12.2958,"longitude":76.6396,"temp":20.7,"humidity":95,"rain":0.0,"pressure":928.5,"uv_index":8.15,"wind_gusts":43.6,"aqi":25,"pm10":6.4,"pm2_5":4.8,"no2":7.8,"co":110.0,"o3":28.0,"so2":2.2,"mosquito_risk":3,"arthritis_risk":5,"migraine_risk":7,"frizz_risk":1,"updated_at":"2026-07-21T03:31:36.009727+05:30"},{"city":"Mangalore","state":"Karnataka","latitude":12.9141,"longitude":74.856,"temp":23.3,"humidity":98,"rain":0.1,"pressure":1007.7,"uv_index":8.5,"wind_gusts":35.3,"aqi":51,"pm10":14.0,"pm2_5":9.8,"no2":8.6,"co":147.0,"o3":28.0,"so2":3.7,"mosquito_risk":6,"arthritis_risk":5,"migraine_risk":4,"frizz_risk":1,"updated_at":"2026-07-21T03:31:36.009733+05:30"},{"city":"Hubli-Dharwad","state":"Karnataka","latitude":15.3647,"longitude":75.124,"temp":21.6,"humidity":97,"rain":0.0,"pressure":939.6,"uv_index":8.2,"wind_gusts":55.4,"aqi":18,"pm10":4.9,"pm2_5":3.0,"no2":2.0,"co":98.0,"o3":39.0,"so2":1.0,"mosquito_risk":3,"arthritis_risk":5,"migraine_risk":7,"frizz_risk":1,"updated_at":"2026-07-21T03:31:36.009740+05:30"},{"city":"Belgaum","state":"Karnataka","latitude":15.8497,"longitude":74.4977,"temp":20.7,"humidity":97,"rain":0.0,"pressure":924.2,"uv_index":8.0,"wind_gusts":53.3,"aqi":18,"pm10":4.4,"pm2_5":3.0,"no2":3.1,"co":122.0,"o3":38.0,"so2":2.1,"mosquito_risk":3,"arthritis_risk":5,"migraine_risk":7,"frizz_risk":1,"updated_at":"2026-07-21T03:31:39.431391+05:30"},{"city":"Coimbatore","state":"Tamil Nadu","latitude":11.0168,"longitude":76.9558,"temp":22.9,"humidity":95,"rain":0.0,"pressure":962.1,"uv_index":8.85,"wind_gusts":47.9,"aqi":34,"pm10":8.8,"pm2_5":6.8,"no2":8.8,"co":155.0,"o3":24.0,"so2":3.2,"mosquito_risk":3,"arthritis_risk":5,"migraine_risk":7,"frizz_risk":1,"updated_at":"2026-07-21T03:31:39.431423+05:30"},{"city":"Madurai","state":"Tamil Nadu","latitude":9.9252,"longitude":78.1198,"temp":28.3,"humidity":59,"rain":0.0,"pressure":993.0,"uv_index":8.35,"wind_gusts":31.7,"aqi":59,"pm10":25.5,"pm2_5":21.9,"no2":34.9,"co":148.0,"o3":0.0,"so2":6.5,"mosquito_risk":4,"arthritis_risk":5,"migraine_risk":7,"frizz_risk":1,"updated_at":"2026-07-21T03:31:39.431434+05:30"},{"city":"Trichy","state":"Tamil Nadu","latitude":10.7905,"longitude":78.7047,"temp":27.6,"humidity":66,"rain":0.0,"pressure":999.7,"uv_index":8.75,"wind_gusts":45.7,"aqi":43,"pm10":8.3,"pm2_5":5.7,"no2":6.0,"co":118.0,"o3":33.0,"so2":3.2,"mosquito_risk":7,"arthritis_risk":5,"migraine_risk":7,"frizz_risk":1,"updated_at":"2026-07-21T03:31:39.431443+05:30"},{"city":"Salem","state":"Tamil Nadu","latitude":11.6643,"longitude":78.146,"temp":24.3,"humidity":88,"rain":0.0,"pressure":977.7,"uv_index":8.1,"wind_gusts":30.2,"aqi":57,"pm10":15.4,"pm2_5":12.1,"no2":17.2,"co":449.0,"o3":24.0,"so2":7.2,"mosquito_risk":3,"arthritis_risk":5,"migraine_risk":7,"frizz_risk":1,"updated_at":"2026-07-21T03:31:39.431451+05:30"},{"city":"Tirunelveli","state":"Tamil Nadu","latitude":8.7139,"longitude":77.7567,"temp":27.9,"humidity":68,"rain":0.0,"pressure":1004.0,"uv_index":8.25,"wind_gusts":40.3,"aqi":30,"pm10":8.2,"pm2_5":6.2,"no2":8.2,"co":150.0,"o3":26.0,"so2":2.9,"mosquito_risk":7,"arthritis_risk":5,"migraine_risk":4,"frizz_risk":1,"updated_at":"2026-07-21T03:31:39.431459+05:30"},{"city":"Vellore","state":"Tamil Nadu","latitude":12.9165,"longitude":79.1325,"temp":26.5,"humidity":69,"rain":0.0,"pressure":984.0,"uv_index":8.65,"wind_gusts":38.2,"aqi":66,"pm10":28.6,"pm2_5":23.8,"no2":28.7,"co":184.0,"o3":10.0,"so2":5.3,"mosquito_risk":7,"arthritis_risk":5,"migraine_risk":7,"frizz_risk":1,"updated_at":"2026-07-21T03:31:39.431466+05:30"},{"city":"Erode","state":"Tamil Nadu","latitude":11.341,"longitude":77.7172,"temp":25.4,"humidity":81,"rain":0.0,"pressure":989.5,"uv_index":8.2,"wind_gusts":37.4,"aqi":52,"pm10":16.4,"pm2_5":14.0,"no2":16.9,"co":133.0,"o3":22.0,"so2":5.0,"mosquito_risk":7,"arthritis_risk":5,"migraine_risk":7,"frizz_risk":1,"updated_at":"2026-07-21T03:31:39.431473+05:30"},{"city":"Kochi","state":"Kerala","latitude":9.9312,"longitude":76.2673,"temp":25.8,"humidity":93,"rain":0.0,"pressure":1010.3,"uv_index":8.5,"wind_gusts":28.8,"aqi":54,"pm10":19.9,"pm2_5":17.5,"no2":19.8,"co":145.0,"o3":8.0,"so2":5.9,"mosquito_risk":7,"arthritis_risk":0,"migraine_risk":4,"frizz_risk":1,"updated_at":"2026-07-21T03:31:39.431480+05:30"},{"city":"Thiruvananthapuram","state":"Kerala","latitude":8.5241,"longitude":76.9366,"temp":24.8,"humidity":94,"rain":0.0,"pressure":1009.5,"uv_index":7.9,"wind_gusts":38.5,"aqi":44,"pm10":12.4,"pm2_5":8.4,"no2":6.8,"co":157.0,"o3":34.0,"so2":3.3,"mosquito_risk":3,"arthritis_risk":0,"migraine_risk":4,"frizz_risk":1,"updated_at":"2026-07-21T03:31:39.431488+05:30"},{"city":"Kozhikode","state":"Kerala","latitude":11.2588,"longitude":75.7804,"temp":23.9,"humidity":97,"rain":0.0,"pressure":1009.5,"uv_index":8.35,"wind_gusts":33.8,"aqi":32,"pm10":10.3,"pm2_5":6.4,"no2":3.0,"co":210.0,"o3":43.0,"so2":2.0,"mosquito_risk":3,"arthritis_risk":0,"migraine_risk":4,"frizz_risk":1,"updated_at":"2026-07-21T03:31:39.431495+05:30"},{"city":"Thrissur","state":"Kerala","latitude":10.5276,"longitude":76.2144,"temp":24.2,"humidity":97,"rain":0.0,"pressure":1008.7,"uv_index":8.6,"wind_gusts":33.1,"aqi":53,"pm10":25.1,"pm2_5":22.6,"no2":20.2,"co":250.0,"o3":5.0,"so2":5.1,"mosquito_risk":3,"arthritis_risk":0,"migraine_risk":4,"frizz_risk":1,"updated_at":"2026-07-21T03:31:39.431503+05:30"},{"city":"Kannur","state":"Kerala","latitude":11.8745,"longitude":75.3704,"temp":24.2,"humidity":97,"rain":0.0,"pressure":1008.4,"uv_index":8.2,"wind_gusts":31.3,"aqi":43,"pm10":12.4,"pm2_5":10.0,"no2":13.3,"co":201.0,"o3":15.0,"so2":2.9,"mosquito_risk":3,"arthritis_risk":0,"migraine_risk":4,"frizz_risk":1,"updated_at":"2026-07-21T03:31:39.431510+05:30"},{"city":"Patna","state":"Bihar","latitude":25.5941,"longitude":85.1376,"temp":25.2,"humidity":97,"rain":0.3,"pressure":996.9,"uv_index":8.65,"wind_gusts":39.2,"aqi":78,"pm10":29.6,"pm2_5":29.2,"no2":15.7,"co":290.0,"o3":66.0,"so2":12.3,"mosquito_risk":10,"arthritis_risk":5,"migraine_risk":7,"frizz_risk":1,"updated_at":"2026-07-21T03:31:39.431517+05:30"},{"city":"Gaya","state":"Bihar","latitude":24.7914,"longitude":85.0002,"temp":25.7,"humidity":97,"rain":0.1,"pressure":989.7,"uv_index":7.7,"wind_gusts":34.6,"aqi":77,"pm10":46.1,"pm2_5":45.5,"no2":21.8,"co":638.0,"o3":39.0,"so2":21.2,"mosquito_risk":10,"arthritis_risk":5,"migraine_risk":7,"frizz_risk":1,"updated_at":"2026-07-21T03:31:39.431524+05:30"},{"city":"Muzaffarpur","state":"Bihar","latitude":26.1209,"longitude":85.3647,"temp":26.3,"humidity":91,"rain":0.0,"pressure":997.3,"uv_index":7.3,"wind_gusts":42.8,"aqi":69,"pm10":24.3,"pm2_5":24.0,"no2":14.0,"co":266.0,"o3":68.0,"so2":11.6,"mosquito_risk":7,"arthritis_risk":5,"migraine_risk":7,"frizz_risk":1,"updated_at":"2026-07-21T03:31:39.431531+05:30"},{"city":"Bhagalpur","state":"Bihar","latitude":25.2425,"longitude":87.0117,"temp":26.3,"humidity":92,"rain":0.0,"pressure":998.2,"uv_index":3.9,"wind_gusts":38.2,"aqi":71,"pm10":28.5,"pm2_5":27.5,"no2":16.8,"co":283.0,"o3":45.0,"so2":10.8,"mosquito_risk":7,"arthritis_risk":5,"migraine_risk":3,"frizz_risk":1,"updated_at":"2026-07-21T03:31:39.431537+05:30"},{"city":"Ranchi","state":"Jharkhand","latitude":23.3441,"longitude":85.3096,"temp":23.1,"humidity":99,"rain":0.1,"pressure":932.9,"uv_index":7.1,"wind_gusts":28.4,"aqi":82,"pm10":21.1,"pm2_5":19.3,"no2":6.3,"co":365.0,"o3":104.0,"so2":15.1,"mosquito_risk":6,"arthritis_risk":5,"migraine_risk":7,"frizz_risk":1,"updated_at":"2026-07-21T03:31:39.431545+05:30"},{"city":"Jamshedpur","state":"Jharkhand","latitude":22.8046,"longitude":86.2029,"temp":25.2,"humidity":96,"rain":0.0,"pressure":986.2,"uv_index":5.4,"wind_gusts":22.0,"aqi":96,"pm10":29.3,"pm2_5":26.8,"no2":17.6,"co":376.0,"o3":41.0,"so2":16.1,"mosquito_risk":7,"arthritis_risk":5,"migraine_risk":3,"frizz_risk":1,"updated_at":"2026-07-21T03:31:39.431551+05:30"},{"city":"Dhanbad","state":"Jharkhand","latitude":23.7957,"longitude":86.4304,"temp":25.1,"humidity":99,"rain":0.1,"pressure":975.7,"uv_index":6.3,"wind_gusts":35.6,"aqi":150,"pm10":50.2,"pm2_5":48.3,"no2":43.0,"co":252.0,"o3":20.0,"so2":94.2,"mosquito_risk":10,"arthritis_risk":5,"migraine_risk":7,"frizz_risk":1,"updated_at":"2026-07-21T03:31:39.431558+05:30"},{"city":"Bokaro","state":"Jharkhand","latitude":23.6693,"longitude":86.1511,"temp":25.3,"humidity":98,"rain":0.0,"pressure":979.5,"uv_index":6.85,"wind_gusts":33.1,"aqi":151,"pm10":58.8,"pm2_5":56.6,"no2":55.1,"co":1422.0,"o3":12.0,"so2":110.0,"mosquito_risk":7,"arthritis_risk":5,"migraine_risk":7,"frizz_risk":1,"updated_at":"2026-07-21T03:31:39.431566+05:30"},{"city":"Bhubaneswar","state":"Odisha","latitude":20.2961,"longitude":85.8245,"temp":25.8,"humidity":96,"rain":0.1,"pressure":997.4,"uv_index":3.45,"wind_gusts":27.7,"aqi":89,"pm10":34.9,"pm2_5":31.0,"no2":13.8,"co":334.0,"o3":57.0,"so2":6.0,"mosquito_risk":10,"arthritis_risk":5,"migraine_risk":3,"frizz_risk":1,"updated_at":"2026-07-21T03:31:39.431572+05:30"},{"city":"Cuttack","state":"Odisha","latitude":20.4625,"longitude":85.8828,"temp":26.8,"humidity":96,"rain":0.3,"pressure":999.2,"uv_index":3.6,"wind_gusts":30.2,"aqi":89,"pm10":34.9,"pm2_5":31.0,"no2":13.8,"co":307.0,"o3":57.0,"so2":6.0,"mosquito_risk":10,"arthritis_risk":5,"migraine_risk":3,"frizz_risk":1,"updated_at":"2026-07-21T03:31:39.431579+05:30"},{"city":"Rourkela","state":"Odisha","latitude":22.2604,"longitude":84.8536,"temp":25.3,"humidity":97,"rain":0.5,"pressure":980.0,"uv_index":1.5,"wind_gusts":21.6,"aqi":107,"pm10":8.2,"pm2_5":7.4,"no2":6.4,"co":221.0,"o3":79.0,"so2":5.9,"mosquito_risk":10,"arthritis_risk":5,"migraine_risk":3,"frizz_risk":1,"updated_at":"2026-07-21T03:31:39.431586+05:30"},{"city":"Raipur","state":"Chhattisgarh","latitude":21.2514,"longitude":81.6296,"temp":25.0,"humidity":94,"rain":0.1,"pressure":970.0,"uv_index":1.45,"wind_gusts":32.4,"aqi":89,"pm10":16.4,"pm2_5":15.4,"no2":24.3,"co":445.0,"o3":45.0,"so2":38.6,"mosquito_risk":10,"arthritis_risk":5,"migraine_risk":3,"frizz_risk":1,"updated_at":"2026-07-21T03:31:39.431592+05:30"},{"city":"Bhilai","state":"Chhattisgarh","latitude":21.1938,"longitude":81.3509,"temp":24.4,"humidity":97,"rain":0.1,"pressure":970.6,"uv_index":0.7,"wind_gusts":38.2,"aqi":82,"pm10":15.9,"pm2_5":14.8,"no2":21.7,"co":523.0,"o3":45.0,"so2":34.0,"mosquito_risk":6,"arthritis_risk":5,"migraine_risk":3,"frizz_risk":1,"updated_at":"2026-07-21T03:31:39.431600+05:30"},{"city":"Guwahati","state":"Assam","latitude":26.1158,"longitude":91.7086,"temp":24.6,"humidity":99,"rain":0.0,"pressure":1000.4,"uv_index":7.6,"wind_gusts":28.4,"aqi":51,"pm10":8.8,"pm2_5":8.4,"no2":6.4,"co":212.0,"o3":51.0,"so2":1.2,"mosquito_risk":3,"arthritis_risk":5,"migraine_risk":4,"frizz_risk":1,"updated_at":"2026-07-21T03:31:39.431606+05:30"},{"city":"Agartala","state":"Tripura","latitude":23.8315,"longitude":91.2868,"temp":24.9,"humidity":99,"rain":0.1,"pressure":1004.1,"uv_index":7.55,"wind_gusts":27.4,"aqi":52,"pm10":8.4,"pm2_5":7.8,"no2":12.0,"co":177.0,"o3":36.0,"so2":2.8,"mosquito_risk":6,"arthritis_risk":5,"migraine_risk":4,"frizz_risk":1,"updated_at":"2026-07-21T03:31:39.431613+05:30"},{"city":"Shillong","state":"Meghalaya","latitude":25.5788,"longitude":91.8933,"temp":19.0,"humidity":98,"rain":0.0,"pressure":856.4,"uv_index":3.65,"wind_gusts":19.8,"aqi":19,"pm10":1.3,"pm2_5":1.3,"no2":4.2,"co":217.0,"o3":54.0,"so2":1.5,"mosquito_risk":3,"arthritis_risk":10,"migraine_risk":3,"frizz_risk":1,"updated_at":"2026-07-21T03:31:39.431620+05:30"},{"city":"Imphal","state":"Manipur","latitude":24.817,"longitude":93.9368,"temp":22.0,"humidity":90,"rain":0.0,"pressure":922.1,"uv_index":8.05,"wind_gusts":24.1,"aqi":51,"pm10":9.5,"pm2_5":9.3,"no2":12.3,"co":273.0,"o3":39.0,"so2":1.8,"mosquito_risk":3,"arthritis_risk":5,"migraine_risk":7,"frizz_risk":1,"updated_at":"2026-07-21T03:31:39.431626+05:30"},{"city":"Aizawl","state":"Mizoram","latitude":23.7271,"longitude":92.7176,"temp":19.5,"humidity":100,"rain":0.1,"pressure":890.7,"uv_index":6.75,"wind_gusts":30.2,"aqi":21,"pm10":2.1,"pm2_5":2.0,"no2":5.6,"co":132.0,"o3":18.0,"so2":0.4,"mosquito_risk":6,"arthritis_risk":10,"migraine_risk":7,"frizz_risk":1,"updated_at":"2026-07-21T03:31:39.431633+05:30"},{"city":"Kohima","state":"Nagaland","latitude":25.6701,"longitude":94.1077,"temp":18.3,"humidity":95,"rain":0.0,"pressure":854.2,"uv_index":8.75,"wind_gusts":23.0,"aqi":17,"pm10":2.4,"pm2_5":2.3,"no2":5.3,"co":260.0,"o3":35.0,"so2":0.7,"mosquito_risk":3,"arthritis_risk":10,"migraine_risk":7,"frizz_risk":1,"updated_at":"2026-07-21T03:31:39.431640+05:30"},{"city":"Gangtok","state":"Sikkim","latitude":27.3314,"longitude":88.6138,"temp":17.6,"humidity":100,"rain":0.1,"pressure":837.2,"uv_index":8.35,"wind_gusts":25.2,"aqi":28,"pm10":2.5,"pm2_5":2.5,"no2":5.2,"co":281.0,"o3":68.0,"so2":0.7,"mosquito_risk":6,"arthritis_risk":10,"migraine_risk":7,"frizz_risk":1,"updated_at":"2026-07-21T03:31:39.431647+05:30"},{"city":"Siliguri","state":"West Bengal","latitude":26.7271,"longitude":88.3953,"temp":24.9,"humidity":96,"rain":0.0,"pressure":991.9,"uv_index":6.15,"wind_gusts":36.0,"aqi":44,"pm10":7.9,"pm2_5":7.8,"no2":9.9,"co":185.0,"o3":65.0,"so2":3.0,"mosquito_risk":3,"arthritis_risk":5,"migraine_risk":7,"frizz_risk":1,"updated_at":"2026-07-21T03:31:42.829684+05:30"},{"city":"Durgapur","state":"West Bengal","latitude":23.5204,"longitude":87.3119,"temp":25.8,"humidity":96,"rain":0.1,"pressure":990.9,"uv_index":4.5,"wind_gusts":31.7,"aqi":108,"pm10":30.0,"pm2_5":28.4,"no2":26.5,"co":322.0,"o3":29.0,"so2":28.7,"mosquito_risk":10,"arthritis_risk":5,"migraine_risk":3,"frizz_risk":1,"updated_at":"2026-07-21T03:31:42.829715+05:30"},{"city":"Asansol","state":"West Bengal","latitude":23.6739,"longitude":86.9524,"temp":25.7,"humidity":96,"rain":0.1,"pressure":989.4,"uv_index":5.7,"wind_gusts":36.7,"aqi":109,"pm10":32.4,"pm2_5":30.7,"no2":31.0,"co":331.0,"o3":27.0,"so2":37.8,"mosquito_risk":10,"arthritis_risk":5,"migraine_risk":3,"frizz_risk":1,"updated_at":"2026-07-21T03:31:42.829727+05:30"},{"city":"Pondicherry","state":"Puducherry","latitude":11.9139,"longitude":79.8145,"temp":27.7,"humidity":80,"rain":0.0,"pressure":1007.8,"uv_index":7.65,"wind_gusts":37.1,"aqi":74,"pm10":26.0,"pm2_5":20.2,"no2":19.0,"co":278.0,"o3":41.0,"so2":14.3,"mosquito_risk":7,"arthritis_risk":5,"migraine_risk":4,"frizz_risk":1,"updated_at":"2026-07-21T03:31:42.829736+05:30"},{"city":"Port Blair","state":"Andaman and Nicobar Islands","latitude":11.6234,"longitude":92.7265,"temp":27.0,"humidity":83,"rain":0.0,"pressure":1007.4,"uv_index":8.1,"wind_gusts":44.3,"aqi":58,"pm10":15.3,"pm2_5":8.3,"no2":0.1,"co":91.0,"o3":51.0,"so2":0.4,"mosquito_risk":7,"arthritis_risk":5,"migraine_risk":4,"frizz_risk":1,"updated_at":"2026-07-21T03:31:42.829745+05:30"},{"city":"Haridwar","state":"Uttarakhand","latitude":29.9457,"longitude":78.1642,"temp":25.4,"humidity":99,"rain":0.1,"pressure":969.9,"uv_index":5.2,"wind_gusts":31.0,"aqi":66,"pm10":16.1,"pm2_5":15.6,"no2":9.9,"co":338.0,"o3":72.0,"so2":5.3,"mosquito_risk":10,"arthritis_risk":5,"migraine_risk":3,"frizz_risk":1,"updated_at":"2026-07-21T03:31:42.829753+05:30"},{"city":"Rishikesh","state":"Uttarakhand","latitude":30.0869,"longitude":78.2676,"temp":24.8,"humidity":96,"rain":0.2,"pressure":962.6,"uv_index":5.3,"wind_gusts":25.6,"aqi":55,"pm10":10.3,"pm2_5":9.1,"no2":6.2,"co":285.0,"o3":89.0,"so2":3.6,"mosquito_risk":6,"arthritis_risk":5,"migraine_risk":3,"frizz_risk":1,"updated_at":"2026-07-21T03:31:42.829760+05:30"},{"city":"Nainital","state":"Uttarakhand","latitude":29.3919,"longitude":79.4542,"temp":16.3,"humidity":98,"rain":0.0,"pressure":803.2,"uv_index":4.45,"wind_gusts":42.5,"aqi":42,"pm10":6.0,"pm2_5":5.7,"no2":5.9,"co":257.0,"o3":86.0,"so2":1.4,"mosquito_risk":3,"arthritis_risk":10,"migraine_risk":3,"frizz_risk":0,"updated_at":"2026-07-21T03:31:42.829768+05:30"},{"city":"Mussoorie","state":"Uttarakhand","latitude":30.4599,"longitude":78.0664,"temp":16.1,"humidity":100,"rain":0.1,"pressure":800.4,"uv_index":2.9,"wind_gusts":27.0,"aqi":57,"pm10":6.1,"pm2_5":6.0,"no2":7.0,"co":239.0,"o3":89.0,"so2":1.8,"mosquito_risk":6,"arthritis_risk":10,"migraine_risk":3,"frizz_risk":1,"updated_at":"2026-07-21T03:31:42.829775+05:30"},{"city":"Dharamshala","state":"Himachal Pradesh","latitude":32.219,"longitude":76.3234,"temp":20.3,"humidity":99,"rain":0.1,"pressure":866.0,"uv_index":2.0,"wind_gusts":25.6,"aqi":27,"pm10":4.7,"pm2_5":3.3,"no2":9.3,"co":243.0,"o3":50.0,"so2":0.5,"mosquito_risk":6,"arthritis_risk":5,"migraine_risk":3,"frizz_risk":1,"updated_at":"2026-07-21T03:31:42.829783+05:30"},{"city":"Dalhousie","state":"Himachal Pradesh","latitude":32.5387,"longitude":75.971,"temp":17.3,"humidity":100,"rain":0.1,"pressure":802.2,"uv_index":2.4,"wind_gusts":30.2,"aqi":84,"pm10":36.9,"pm2_5":18.5,"no2":11.3,"co":360.0,"o3":81.0,"so2":2.2,"mosquito_risk":6,"arthritis_risk":10,"migraine_risk":3,"frizz_risk":1,"updated_at":"2026-07-21T03:31:42.829790+05:30"},{"city":"Patiala","state":"Punjab","latitude":30.3398,"longitude":76.3869,"temp":26.5,"humidity":93,"rain":0.0,"pressure":973.2,"uv_index":4.25,"wind_gusts":37.4,"aqi":119,"pm10":40.3,"pm2_5":22.9,"no2":12.2,"co":366.0,"o3":71.0,"so2":11.1,"mosquito_risk":7,"arthritis_risk":5,"migraine_risk":3,"frizz_risk":1,"updated_at":"2026-07-21T03:31:42.829798+05:30"},{"city":"Bhatinda","state":"Punjab","latitude":30.211,"longitude":74.9455,"temp":28.7,"humidity":84,"rain":0.0,"pressure":977.6,"uv_index":8.2,"wind_gusts":37.4,"aqi":329,"pm10":353.0,"pm2_5":109.0,"no2":21.8,"co":344.0,"o3":42.0,"so2":8.5,"mosquito_risk":7,"arthritis_risk":5,"migraine_risk":7,"frizz_risk":1,"updated_at":"2026-07-21T03:31:42.829805+05:30"},{"city":"Rohtak","state":"Haryana","latitude":28.8955,"longitude":76.6066,"temp":26.4,"humidity":96,"rain":0.1,"pressure":976.6,"uv_index":4.9,"wind_gusts":27.7,"aqi":267,"pm10":59.6,"pm2_5":35.4,"no2":30.4,"co":474.0,"o3":42.0,"so2":19.8,"mosquito_risk":10,"arthritis_risk":5,"migraine_risk":3,"frizz_risk":1,"updated_at":"2026-07-21T03:31:42.829811+05:30"},{"city":"Panipat","state":"Haryana","latitude":29.3909,"longitude":76.9635,"temp":26.3,"humidity":95,"rain":0.1,"pressure":975.5,"uv_index":3.4,"wind_gusts":36.4,"aqi":313,"pm10":50.8,"pm2_5":34.5,"no2":25.1,"co":358.0,"o3":53.0,"so2":19.2,"mosquito_risk":10,"arthritis_risk":5,"migraine_risk":3,"frizz_risk":1,"updated_at":"2026-07-21T03:31:42.829818+05:30"},{"city":"Mathura","state":"Uttar Pradesh","latitude":27.4924,"longitude":77.6737,"temp":26.1,"humidity":95,"rain":0.2,"pressure":981.3,"uv_index":7.4,"wind_gusts":27.4,"aqi":81,"pm10":56.0,"pm2_5":24.4,"no2":11.8,"co":245.0,"o3":71.0,"so2":2.3,"mosquito_risk":10,"arthritis_risk":5,"migraine_risk":7,"frizz_risk":1,"updated_at":"2026-07-21T03:31:42.829825+05:30"},{"city":"Vrindavan","state":"Uttar Pradesh","latitude":27.5823,"longitude":77.7027,"temp":26.1,"humidity":95,"rain":0.1,"pressure":981.7,"uv_index":7.75,"wind_gusts":28.1,"aqi":81,"pm10":56.0,"pm2_5":24.4,"no2":11.8,"co":214.0,"o3":71.0,"so2":2.3,"mosquito_risk":10,"arthritis_risk":5,"migraine_risk":7,"frizz_risk":1,"updated_at":"2026-07-21T03:31:42.829832+05:30"},{"city":"Ayodhya","state":"Uttar Pradesh","latitude":26.7922,"longitude":82.1998,"temp":25.1,"humidity":98,"rain":0.1,"pressure":991.3,"uv_index":6.65,"wind_gusts":43.9,"aqi":64,"pm10":20.0,"pm2_5":19.6,"no2":12.8,"co":337.0,"o3":74.0,"so2":6.8,"mosquito_risk":10,"arthritis_risk":5,"migraine_risk":7,"frizz_risk":1,"updated_at":"2026-07-21T03:31:42.829839+05:30"},{"city":"Ratlam","state":"Madhya Pradesh","latitude":23.3315,"longitude":75.0367,"temp":23.8,"humidity":99,"rain":0.1,"pressure":949.6,"uv_index":2.25,"wind_gusts":36.0,"aqi":51,"pm10":10.2,"pm2_5":7.5,"no2":9.5,"co":181.0,"o3":35.0,"so2":10.4,"mosquito_risk":6,"arthritis_risk":5,"migraine_risk":3,"frizz_risk":1,"updated_at":"2026-07-21T03:31:42.829846+05:30"},{"city":"Sagar","state":"Madhya Pradesh","latitude":23.8388,"longitude":78.7378,"temp":23.0,"humidity":98,"rain":0.0,"pressure":945.2,"uv_index":2.45,"wind_gusts":29.2,"aqi":57,"pm10":12.7,"pm2_5":10.8,"no2":7.7,"co":183.0,"o3":55.0,"so2":2.9,"mosquito_risk":3,"arthritis_risk":5,"migraine_risk":3,"frizz_risk":1,"updated_at":"2026-07-21T03:31:42.829853+05:30"},{"city":"Satna","state":"Madhya Pradesh","latitude":24.6005,"longitude":80.8322,"temp":24.6,"humidity":97,"rain":0.1,"pressure":966.4,"uv_index":3.75,"wind_gusts":24.5,"aqi":68,"pm10":12.7,"pm2_5":9.8,"no2":10.1,"co":230.0,"o3":56.0,"so2":4.0,"mosquito_risk":6,"arthritis_risk":5,"migraine_risk":3,"frizz_risk":1,"updated_at":"2026-07-21T03:31:42.829860+05:30"},{"city":"Akola","state":"Maharashtra","latitude":20.7002,"longitude":77.0082,"temp":25.0,"humidity":93,"rain":0.1,"pressure":971.3,"uv_index":1.7,"wind_gusts":49.3,"aqi":36,"pm10":6.7,"pm2_5":5.4,"no2":9.3,"co":144.0,"o3":34.0,"so2":7.2,"mosquito_risk":10,"arthritis_risk":5,"migraine_risk":3,"frizz_risk":1,"updated_at":"2026-07-21T03:31:42.829868+05:30"},{"city":"Amravati","state":"Maharashtra","latitude":20.9374,"longitude":77.7796,"temp":24.2,"humidity":96,"rain":0.1,"pressure":963.5,"uv_index":1.0,"wind_gusts":50.8,"aqi":39,"pm10":6.7,"pm2_5":5.5,"no2":9.2,"co":139.0,"o3":37.0,"so2":7.4,"mosquito_risk":6,"arthritis_risk":5,"migraine_risk":3,"frizz_risk":1,"updated_at":"2026-07-21T03:31:42.829875+05:30"},{"city":"Latur","state":"Maharashtra","latitude":18.4088,"longitude":76.5604,"temp":22.9,"humidity":94,"rain":0.0,"pressure":936.7,"uv_index":6.45,"wind_gusts":49.3,"aqi":29,"pm10":3.9,"pm2_5":3.3,"no2":5.6,"co":137.0,"o3":34.0,"so2":2.5,"mosquito_risk":3,"arthritis_risk":5,"migraine_risk":7,"frizz_risk":1,"updated_at":"2026-07-21T03:31:42.829883+05:30"},{"city":"Nanded","state":"Maharashtra","latitude":19.1383,"longitude":77.3091,"temp":24.3,"humidity":92,"rain":0.0,"pressure":965.5,"uv_index":3.35,"wind_gusts":45.4,"aqi":36,"pm10":5.0,"pm2_5":3.8,"no2":6.4,"co":134.0,"o3":33.0,"so2":3.1,"mosquito_risk":3,"arthritis_risk":5,"migraine_risk":3,"frizz_risk":1,"updated_at":"2026-07-21T03:31:42.829890+05:30"},{"city":"Gulbarga","state":"Karnataka","latitude":17.3297,"longitude":76.8343,"temp":23.6,"humidity":85,"rain":0.0,"pressure":956.4,"uv_index":4.05,"wind_gusts":52.9,"aqi":26,"pm10":7.5,"pm2_5":4.8,"no2":5.6,"co":132.0,"o3":35.0,"so2":2.8,"mosquito_risk":3,"arthritis_risk":5,"migraine_risk":3,"frizz_risk":1,"updated_at":"2026-07-21T03:31:42.829897+05:30"},{"city":"Bidar","state":"Karnataka","latitude":17.9104,"longitude":77.5199,"temp":22.6,"humidity":97,"rain":0.1,"pressure":932.5,"uv_index":4.5,"wind_gusts":50.4,"aqi":27,"pm10":4.2,"pm2_5":3.6,"no2":6.4,"co":129.0,"o3":32.0,"so2":2.4,"mosquito_risk":6,"arthritis_risk":5,"migraine_risk":3,"frizz_risk":1,"updated_at":"2026-07-21T03:31:42.829904+05:30"},{"city":"Hospet","state":"Karnataka","latitude":15.2689,"longitude":76.3909,"temp":22.8,"humidity":89,"rain":0.0,"pressure":954.9,"uv_index":8.15,"wind_gusts":52.9,"aqi":21,"pm10":5.7,"pm2_5":3.6,"no2":3.7,"co":104.0,"o3":38.0,"so2":1.6,"mosquito_risk":3,"arthritis_risk":5,"migraine_risk":7,"frizz_risk":1,"updated_at":"2026-07-21T03:31:42.829910+05:30"},{"city":"Tirupur","state":"Tamil Nadu","latitude":11.1085,"longitude":77.3411,"temp":23.8,"humidity":90,"rain":0.0,"pressure":975.7,"uv_index":8.75,"wind_gusts":54.4,"aqi":55,"pm10":20.7,"pm2_5":18.0,"no2":21.3,"co":137.0,"o3":16.0,"so2":6.1,"mosquito_risk":3,"arthritis_risk":5,"migraine_risk":7,"frizz_risk":1,"updated_at":"2026-07-21T03:31:42.829916+05:30"},{"city":"Alappuzha","state":"Kerala","latitude":9.4981,"longitude":76.3388,"temp":25.8,"humidity":94,"rain":0.0,"pressure":1010.2,"uv_index":8.35,"wind_gusts":31.0,"aqi":51,"pm10":15.8,"pm2_5":11.3,"no2":11.8,"co":88.0,"o3":28.0,"so2":4.7,"mosquito_risk":7,"arthritis_risk":0,"migraine_risk":4,"frizz_risk":1,"updated_at":"2026-07-21T03:31:42.829923+05:30"},{"city":"Munnar","state":"Kerala","latitude":10.0889,"longitude":77.0595,"temp":15.8,"humidity":92,"rain":0.0,"pressure":856.7,"uv_index":9.05,"wind_gusts":34.6,"aqi":28,"pm10":8.5,"pm2_5":6.6,"no2":8.2,"co":88.0,"o3":17.0,"so2":1.3,"mosquito_risk":3,"arthritis_risk":10,"migraine_risk":7,"frizz_risk":0,"updated_at":"2026-07-21T03:31:42.829930+05:30"},{"city":"Silchar","state":"Assam","latitude":24.8333,"longitude":92.7789,"temp":24.8,"humidity":96,"rain":0.1,"pressure":1003.7,"uv_index":8.3,"wind_gusts":28.1,"aqi":54,"pm10":7.3,"pm2_5":7.0,"no2":6.6,"co":249.0,"o3":45.0,"so2":2.2,"mosquito_risk":6,"arthritis_risk":5,"migraine_risk":4,"frizz_risk":1,"updated_at":"2026-07-21T03:31:42.829937+05:30"},{"city":"Dibrugarh","state":"Assam","latitude":27.4728,"longitude":94.912,"temp":25.9,"humidity":91,"rain":0.0,"pressure":993.7,"uv_index":8.6,"wind_gusts":23.0,"aqi":58,"pm10":5.4,"pm2_5":4.9,"no2":10.4,"co":175.0,"o3":40.0,"so2":0.9,"mosquito_risk":7,"arthritis_risk":5,"migraine_risk":7,"frizz_risk":1,"updated_at":"2026-07-21T03:31:42.829944+05:30"}]