[{"city":"Delhi","state":"Delhi","latitude":28.6139,"longitude":77.209,"temp":39.2,"humidity":18,"rain":0.0,"pressure":979.1,"uv_index":7.1,"wind_gusts":46.4,"aqi":581,"pm10":239.3,"pm2_5":48.8,"mosquito_risk":0,"arthritis_risk":5,"migraine_risk":10,"frizz_risk":0,"updated_at":"2026-04-28T12:07:54.235547+05:30"},{"city":"Mumbai","state":"Maharashtra","latitude":19.076,"longitude":72.8777,"temp":33.5,"humidity":54,"rain":0.0,"pressure":1007.4,"uv_index":8.05,"wind_gusts":40.0,"aqi":91,"pm10":72.4,"pm2_5":41.9,"mosquito_risk":0,"arthritis_risk":5,"migraine_risk":4,"frizz_risk":1,"updated_at":"2026-04-28T12:07:54.235594+05:30"},{"city":"Bangalore","state":"Karnataka","latitude":12.9716,"longitude":77.5946,"temp":34.3,"humidity":27,"rain":0.0,"pressure":912.7,"uv_index":9.2,"wind_gusts":38.9,"aqi":90,"pm10":40.3,"pm2_5":31.5,"mosquito_risk":0,"arthritis_risk":5,"migraine_risk":7,"frizz_risk":0,"updated_at":"2026-04-28T12:07:54.235610+05:30"},{"city":"Hyderabad","state":"Telangana","latitude":17.385,"longitude":78.4867,"temp":38.4,"humidity":23,"rain":0.0,"pressure":952.6,"uv_index":9.3,"wind_gusts":42.1,"aqi":105,"pm10":40.2,"pm2_5":31.9,"mosquito_risk":0,"arthritis_risk":5,"migraine_risk":10,"frizz_risk":0,"updated_at":"2026-04-28T12:07:54.235621+05:30"},{"city":"Chennai","state":"Tamil Nadu","latitude":13.0827,"longitude":80.2707,"temp":35.6,"humidity":47,"rain":0.0,"pressure":1006.2,"uv_index":8.4,"wind_gusts":54.7,"aqi":52,"pm10":18.1,"pm2_5":14.0,"mosquito_risk":0,"arthritis_risk":5,"migraine_risk":7,"frizz_risk":1,"updated_at":"2026-04-28T12:07:54.235631+05:30"},{"city":"Kolkata","state":"West Bengal","latitude":22.5726,"longitude":88.3639,"temp":36.5,"humidity":48,"rain":0.0,"pressure":1001.0,"uv_index":8.85,"wind_gusts":42.8,"aqi":63,"pm10":36.1,"pm2_5":30.0,"mosquito_risk":0,"arthritis_risk":5,"migraine_risk":7,"frizz_risk":1,"updated_at":"2026-04-28T12:07:54.235639+05:30"},{"city":"Pune","state":"Maharashtra","latitude":18.5204,"longitude":73.8567,"temp":38.3,"humidity":16,"rain":0.0,"pressure":948.2,"uv_index":8.6,"wind_gusts":40.7,"aqi":73,"pm10":34.6,"pm2_5":19.5,"mosquito_risk":0,"arthritis_risk":5,"migraine_risk":10,"frizz_risk":0,"updated_at":"2026-04-28T12:07:54.235651+05:30"},{"city":"Ahmedabad","state":"Gujarat","latitude":23.0225,"longitude":72.5714,"temp":38.9,"humidity":19,"rain":0.0,"pressure":999.8,"uv_index":8.2,"wind_gusts":47.5,"aqi":42,"pm10":38.1,"pm2_5":13.5,"mosquito_risk":0,"arthritis_risk":5,"migraine_risk":10,"frizz_risk":0,"updated_at":"2026-04-28T12:07:54.235658+05:30"},{"city":"Jaipur","state":"Rajasthan","latitude":26.9124,"longitude":75.7873,"temp":38.5,"humidity":17,"rain":0.0,"pressure":957.5,"uv_index":8.1,"wind_gusts":37.8,"aqi":163,"pm10":229.1,"pm2_5":29.4,"mosquito_risk":0,"arthritis_risk":5,"migraine_risk":10,"frizz_risk":0,"updated_at":"2026-04-28T12:07:54.235666+05:30"},{"city":"Lucknow","state":"Uttar Pradesh","latitude":26.8467,"longitude":80.9462,"temp":38.0,"humidity":32,"rain":0.0,"pressure":989.4,"uv_index":7.9,"wind_gusts":42.1,"aqi":137,"pm10":104.5,"pm2_5":48.7,"mosquito_risk":0,"arthritis_risk":5,"migraine_risk":10,"frizz_risk":1,"updated_at":"2026-04-28T12:07:54.235673+05:30"},{"city":"Kanpur","state":"Uttar Pradesh","latitude":26.4499,"longitude":80.3319,"temp":39.9,"humidity":21,"rain":0.0,"pressure":987.7,"uv_index":7.95,"wind_gusts":35.6,"aqi":181,"pm10":405.1,"pm2_5":73.3,"mosquito_risk":0,"arthritis_risk":5,"migraine_risk":10,"frizz_risk":0,"updated_at":"2026-04-28T12:07:54.235680+05:30"},{"city":"Chandigarh","state":"Chandigarh","latitude":30.7333,"longitude":76.7794,"temp":34.7,"humidity":24,"rain":0.0,"pressure":964.9,"uv_index":5.8,"wind_gusts":38.2,"aqi":45,"pm10":40.0,"pm2_5":15.3,"mosquito_risk":0,"arthritis_risk":5,"migraine_risk":3,"frizz_risk":0,"updated_at":"2026-04-28T12:07:54.235691+05:30"},{"city":"Srinagar","state":"Jammu and Kashmir","latitude":34.0837,"longitude":74.7973,"temp":20.1,"humidity":50,"rain":0.0,"pressure":840.6,"uv_index":5.1,"wind_gusts":33.5,"aqi":79,"pm10":30.2,"pm2_5":19.6,"mosquito_risk":0,"arthritis_risk":5,"migraine_risk":3,"frizz_risk":0,"updated_at":"2026-04-28T12:07:54.235699+05:30"},{"city":"Jammu","state":"Jammu and Kashmir","latitude":32.7266,"longitude":74.857,"temp":31.2,"humidity":36,"rain":0.0,"pressure":969.7,"uv_index":6.6,"wind_gusts":48.6,"aqi":57,"pm10":24.1,"pm2_5":11.1,"mosquito_risk":0,"arthritis_risk":5,"migraine_risk":7,"frizz_risk":0,"updated_at":"2026-04-28T12:07:54.235707+05:30"},{"city":"Amritsar","state":"Punjab","latitude":31.634,"longitude":74.8723,"temp":33.8,"humidity":31,"rain":0.0,"pressure":977.1,"uv_index":6.9,"wind_gusts":30.2,"aqi":83,"pm10":48.5,"pm2_5":15.9,"mosquito_risk":0,"arthritis_risk":5,"migraine_risk":7,"frizz_risk":0,"updated_at":"2026-04-28T12:07:54.235714+05:30"},{"city":"Ludhiana","state":"Punjab","latitude":30.901,"longitude":75.8573,"temp":34.9,"humidity":26,"rain":0.0,"pressure":974.7,"uv_index":6.75,"wind_gusts":41.0,"aqi":73,"pm10":28.0,"pm2_5":19.5,"mosquito_risk":0,"arthritis_risk":5,"migraine_risk":7,"frizz_risk":0,"updated_at":"2026-04-28T12:07:54.235721+05:30"},{"city":"Jalandhar","state":"Punjab","latitude":31.326,"longitude":75.5762,"temp":33.2,"humidity":31,"rain":0.0,"pressure":975.7,"uv_index":6.9,"wind_gusts":28.8,"aqi":79,"pm10":43.2,"pm2_5":18.9,"mosquito_risk":0,"arthritis_risk":5,"migraine_risk":7,"frizz_risk":0,"updated_at":"2026-04-28T12:07:54.235730+05:30"},{"city":"Dehradun","state":"Uttarakhand","latitude":30.6284,"longitude":78.0322,"temp":25.0,"humidity":28,"rain":0.0,"pressure":831.1,"uv_index":4.95,"wind_gusts":43.6,"aqi":38,"pm10":19.7,"pm2_5":6.5,"mosquito_risk":4,"arthritis_risk":5,"migraine_risk":3,"frizz_risk":0,"updated_at":"2026-04-28T12:07:54.235737+05:30"},{"city":"Shimla","state":"Himachal Pradesh","latitude":31.1048,"longitude":77.1734,"temp":20.3,"humidity":41,"rain":0.0,"pressure":785.3,"uv_index":3.75,"wind_gusts":38.2,"aqi":45,"pm10":28.3,"pm2_5":9.3,"mosquito_risk":0,"arthritis_risk":5,"migraine_risk":3,"frizz_risk":0,"updated_at":"2026-04-28T12:07:54.235743+05:30"},{"city":"Manali","state":"Himachal Pradesh","latitude":32.2396,"longitude":77.1887,"temp":21.5,"humidity":33,"rain":0.0,"pressure":817.8,"uv_index":9.65,"wind_gusts":47.9,"aqi":61,"pm10":15.0,"pm2_5":7.4,"mosquito_risk":0,"arthritis_risk":5,"migraine_risk":7,"frizz_risk":0,"updated_at":"2026-04-28T12:07:54.235765+05:30"},{"city":"Gurgaon","state":"Haryana","latitude":28.4595,"longitude":77.0266,"temp":38.2,"humidity":20,"rain":0.0,"pressure":977.8,"uv_index":7.5,"wind_gusts":43.6,"aqi":1291,"pm10":754.4,"pm2_5":82.7,"mosquito_risk":0,"arthritis_risk":5,"migraine_risk":10,"frizz_risk":0,"updated_at":"2026-04-28T12:07:54.235771+05:30"},{"city":"Noida","state":"Uttar Pradesh","latitude":28.5355,"longitude":77.391,"temp":39.0,"humidity":19,"rain":0.0,"pressure":980.5,"uv_index":7.5,"wind_gusts":42.8,"aqi":1291,"pm10":754.4,"pm2_5":82.7,"mosquito_risk":0,"arthritis_risk":5,"migraine_risk":10,"frizz_risk":0,"updated_at":"2026-04-28T12:07:54.235778+05:30"},{"city":"Ghaziabad","state":"Uttar Pradesh","latitude":28.6692,"longitude":77.4538,"temp":38.2,"humidity":21,"rain":0.0,"pressure":979.0,"uv_index":7.15,"wind_gusts":49.0,"aqi":471,"pm10":211.9,"pm2_5":49.4,"mosquito_risk":0,"arthritis_risk":5,"migraine_risk":10,"frizz_risk":0,"updated_at":"2026-04-28T12:07:54.235784+05:30"},{"city":"Faridabad","state":"Haryana","latitude":28.4089,"longitude":77.3178,"temp":39.0,"humidity":18,"rain":0.0,"pressure":979.7,"uv_index":7.55,"wind_gusts":50.4,"aqi":1291,"pm10":754.4,"pm2_5":82.7,"mosquito_risk":0,"arthritis_risk":5,"migraine_risk":10,"frizz_risk":0,"updated_at":"2026-04-28T12:07:54.235790+05:30"},{"city":"Meerut","state":"Uttar Pradesh","latitude":28.9845,"longitude":77.7064,"temp":35.2,"humidity":29,"rain":0.0,"pressure":978.0,"uv_index":6.85,"wind_gusts":45.4,"aqi":471,"pm10":211.9,"pm2_5":49.4,"mosquito_risk":0,"arthritis_risk":5,"migraine_risk":10,"frizz_risk":0,"updated_at":"2026-04-28T12:07:54.235795+05:30"},{"city":"Agra","state":"Uttar Pradesh","latitude":27.1767,"longitude":78.0081,"temp":39.3,"humidity":20,"rain":0.0,"pressure":984.4,"uv_index":7.8,"wind_gusts":38.9,"aqi":600,"pm10":691.0,"pm2_5":79.2,"mosquito_risk":0,"arthritis_risk":5,"migraine_risk":10,"frizz_risk":0,"updated_at":"2026-04-28T12:07:54.235801+05:30"},{"city":"Varanasi","state":"Uttar Pradesh","latitude":25.3176,"longitude":82.9739,"temp":38.3,"humidity":34,"rain":0.0,"pressure":992.7,"uv_index":8.5,"wind_gusts":54.7,"aqi":121,"pm10":71.0,"pm2_5":37.0,"mosquito_risk":0,"arthritis_risk":5,"migraine_risk":10,"frizz_risk":1,"updated_at":"2026-04-28T12:07:54.235810+05:30"},{"city":"Prayagraj","state":"Uttar Pradesh","latitude":25.4358,"longitude":81.8463,"temp":39.3,"humidity":29,"rain":0.0,"pressure":991.5,"uv_index":8.4,"wind_gusts":40.3,"aqi":125,"pm10":92.4,"pm2_5":38.6,"mosquito_risk":0,"arthritis_risk":5,"migraine_risk":10,"frizz_risk":1,"updated_at":"2026-04-28T12:07:54.235817+05:30"},{"city":"Gorakhpur","state":"Uttar Pradesh","latitude":26.7606,"longitude":83.3732,"temp":34.0,"humidity":43,"rain":0.0,"pressure":993.6,"uv_index":8.3,"wind_gusts":35.6,"aqi":123,"pm10":60.1,"pm2_5":33.8,"mosquito_risk":0,"arthritis_risk":5,"migraine_risk":7,"frizz_risk":1,"updated_at":"2026-04-28T12:07:54.235823+05:30"},{"city":"Bareilly","state":"Uttar Pradesh","latitude":28.367,"longitude":79.4304,"temp":36.7,"humidity":31,"rain":0.0,"pressure":983.0,"uv_index":7.75,"wind_gusts":46.8,"aqi":100,"pm10":144.4,"pm2_5":50.4,"mosquito_risk":0,"arthritis_risk":5,"migraine_risk":10,"frizz_risk":1,"updated_at":"2026-04-28T12:07:54.235829+05:30"},{"city":"Aligarh","state":"Uttar Pradesh","latitude":27.8974,"longitude":78.088,"temp":38.8,"humidity":21,"rain":0.0,"pressure":982.0,"uv_index":7.65,"wind_gusts":66.6,"aqi":721,"pm10":691.0,"pm2_5":96.6,"mosquito_risk":0,"arthritis_risk":5,"migraine_risk":10,"frizz_risk":0,"updated_at":"2026-04-28T12:07:54.235836+05:30"},{"city":"Moradabad","state":"Uttar Pradesh","latitude":28.8386,"longitude":78.7733,"temp":36.3,"humidity":31,"rain":0.0,"pressure":980.0,"uv_index":7.4,"wind_gusts":45.7,"aqi":129,"pm10":66.1,"pm2_5":40.5,"mosquito_risk":0,"arthritis_risk":5,"migraine_risk":10,"frizz_risk":1,"updated_at":"2026-04-28T12:07:54.235844+05:30"},{"city":"Saharanpur","state":"Uttar Pradesh","latitude":29.9637,"longitude":77.546,"temp":35.7,"humidity":29,"rain":0.0,"pressure":972.0,"uv_index":6.65,"wind_gusts":45.4,"aqi":72,"pm10":41.1,"pm2_5":22.2,"mosquito_risk":0,"arthritis_risk":5,"migraine_risk":10,"frizz_risk":0,"updated_at":"2026-04-28T12:07:54.235850+05:30"},{"city":"Jhansi","state":"Uttar Pradesh","latitude":25.4484,"longitude":78.5685,"temp":40.2,"humidity":17,"rain":0.0,"pressure":975.0,"uv_index":8.3,"wind_gusts":33.8,"aqi":55,"pm10":15.5,"pm2_5":8.0,"mosquito_risk":0,"arthritis_risk":5,"migraine_risk":10,"frizz_risk":0,"updated_at":"2026-04-28T12:07:57.481078+05:30"},{"city":"Surat","state":"Gujarat","latitude":21.1702,"longitude":72.8311,"temp":37.5,"humidity":35,"rain":0.0,"pressure":1004.8,"uv_index":7.9,"wind_gusts":44.6,"aqi":88,"pm10":63.1,"pm2_5":39.1,"mosquito_risk":0,"arthritis_risk":5,"migraine_risk":7,"frizz_risk":1,"updated_at":"2026-04-28T12:07:57.481114+05:30"},{"city":"Vadodara","state":"Gujarat","latitude":22.3072,"longitude":73.1812,"temp":40.5,"humidity":15,"rain":0.0,"pressure":1002.0,"uv_index":8.15,"wind_gusts":43.2,"aqi":67,"pm10":42.0,"pm2_5":16.2,"mosquito_risk":0,"arthritis_risk":5,"migraine_risk":7,"frizz_risk":0,"updated_at":"2026-04-28T12:07:57.481124+05:30"},{"city":"Rajkot","state":"Gujarat","latitude":22.3039,"longitude":70.8022,"temp":40.2,"humidity":18,"rain":0.0,"pressure":992.1,"uv_index":7.9,"wind_gusts":51.5,"aqi":42,"pm10":41.1,"pm2_5":12.8,"mosquito_risk":0,"arthritis_risk":5,"migraine_risk":10,"frizz_risk":0,"updated_at":"2026-04-28T12:07:57.481133+05:30"},{"city":"Thane","state":"Maharashtra","latitude":19.2183,"longitude":72.9781,"temp":37.2,"humidity":36,"rain":0.0,"pressure":1006.3,"uv_index":8.05,"wind_gusts":37.4,"aqi":91,"pm10":72.4,"pm2_5":41.9,"mosquito_risk":0,"arthritis_risk":5,"migraine_risk":7,"frizz_risk":1,"updated_at":"2026-04-28T12:07:57.481141+05:30"},{"city":"Nagpur","state":"Maharashtra","latitude":21.1458,"longitude":79.0882,"temp":42.5,"humidity":11,"rain":0.0,"pressure":971.1,"uv_index":8.85,"wind_gusts":52.2,"aqi":87,"pm10":27.3,"pm2_5":21.2,"mosquito_risk":0,"arthritis_risk":5,"migraine_risk":10,"frizz_risk":0,"updated_at":"2026-04-28T12:07:57.481148+05:30"},{"city":"Nashik","state":"Maharashtra","latitude":19.9975,"longitude":73.7898,"temp":37.7,"humidity":16,"rain":0.0,"pressure":945.7,"uv_index":8.3,"wind_gusts":43.6,"aqi":72,"pm10":31.4,"pm2_5":13.0,"mosquito_risk":0,"arthritis_risk":5,"migraine_risk":10,"frizz_risk":0,"updated_at":"2026-04-28T12:07:57.481155+05:30"},{"city":"Aurangabad","state":"Maharashtra","latitude":19.8762,"longitude":75.3433,"temp":39.0,"humidity":15,"rain":0.0,"pressure":944.2,"uv_index":9.0,"wind_gusts":43.9,"aqi":69,"pm10":24.5,"pm2_5":14.2,"mosquito_risk":0,"arthritis_risk":5,"migraine_risk":10,"frizz_risk":0,"updated_at":"2026-04-28T12:07:57.481161+05:30"},{"city":"Solapur","state":"Maharashtra","latitude":17.6599,"longitude":75.9064,"temp":40.8,"humidity":15,"rain":0.0,"pressure":955.9,"uv_index":9.1,"wind_gusts":36.4,"aqi":80,"pm10":30.2,"pm2_5":20.6,"mosquito_risk":0,"arthritis_risk":5,"migraine_risk":10,"frizz_risk":0,"updated_at":"2026-04-28T12:07:57.481168+05:30"},{"city":"Kolhapur","state":"Maharashtra","latitude":16.705,"longitude":74.2433,"temp":37.5,"humidity":23,"rain":0.0,"pressure":947.9,"uv_index":5.95,"wind_gusts":51.5,"aqi":72,"pm10":48.9,"pm2_5":27.1,"mosquito_risk":0,"arthritis_risk":5,"migraine_risk":6,"frizz_risk":0,"updated_at":"2026-04-28T12:07:57.481175+05:30"},{"city":"Goa","state":"Goa","latitude":15.2993,"longitude":74.124,"temp":36.8,"humidity":47,"rain":0.0,"pressure":996.4,"uv_index":9.0,"wind_gusts":45.0,"aqi":61,"pm10":49.0,"pm2_5":18.7,"mosquito_risk":0,"arthritis_risk":5,"migraine_risk":10,"frizz_risk":1,"updated_at":"2026-04-28T12:07:57.481182+05:30"},{"city":"Jodhpur","state":"Rajasthan","latitude":26.2389,"longitude":73.0243,"temp":37.2,"humidity":24,"rain":0.0,"pressure":979.5,"uv_index":8.3,"wind_gusts":47.9,"aqi":123,"pm10":192.3,"pm2_5":26.1,"mosquito_risk":0,"arthritis_risk":5,"migraine_risk":10,"frizz_risk":0,"updated_at":"2026-04-28T12:07:57.481189+05:30"},{"city":"Udaipur","state":"Rajasthan","latitude":24.5854,"longitude":73.7125,"temp":36.6,"humidity":15,"rain":0.0,"pressure":945.4,"uv_index":8.75,"wind_gusts":48.2,"aqi":34,"pm10":46.8,"pm2_5":10.0,"mosquito_risk":0,"arthritis_risk":5,"migraine_risk":10,"frizz_risk":0,"updated_at":"2026-04-28T12:07:57.481196+05:30"},{"city":"Kota","state":"Rajasthan","latitude":25.2138,"longitude":75.8648,"temp":40.5,"humidity":14,"rain":0.0,"pressure":976.1,"uv_index":8.3,"wind_gusts":34.9,"aqi":51,"pm10":14.4,"pm2_5":7.4,"mosquito_risk":0,"arthritis_risk":5,"migraine_risk":10,"frizz_risk":0,"updated_at":"2026-04-28T12:07:57.481203+05:30"},{"city":"Bikaner","state":"Rajasthan","latitude":28.0229,"longitude":73.3119,"temp":39.2,"humidity":19,"rain":0.0,"pressure":977.7,"uv_index":8.15,"wind_gusts":56.9,"aqi":79,"pm10":117.6,"pm2_5":35.6,"mosquito_risk":0,"arthritis_risk":5,"migraine_risk":10,"frizz_risk":0,"updated_at":"2026-04-28T12:07:57.481209+05:30"},{"city":"Ajmer","state":"Rajasthan","latitude":26.4499,"longitude":74.6399,"temp":37.5,"humidity":18,"rain":0.0,"pressure":952.7,"uv_index":8.25,"wind_gusts":44.3,"aqi":59,"pm10":27.8,"pm2_5":9.4,"mosquito_risk":0,"arthritis_risk":5,"migraine_risk":10,"frizz_risk":0,"updated_at":"2026-04-28T12:07:57.481215+05:30"},{"city":"Gwalior","state":"Madhya Pradesh","latitude":26.2183,"longitude":78.1828,"temp":39.8,"humidity":18,"rain":0.0,"pressure":980.0,"uv_index":8.05,"wind_gusts":40.7,"aqi":64,"pm10":24.4,"pm2_5":9.7,"mosquito_risk":0,"arthritis_risk":5,"migraine_risk":10,"frizz_risk":0,"updated_at":"2026-04-28T12:07:57.481222+05:30"},{"city":"Indore","state":"Madhya Pradesh","latitude":22.7196,"longitude":75.8577,"temp":39.6,"humidity":12,"rain":0.0,"pressure":947.5,"uv_index":8.6,"wind_gusts":55.4,"aqi":52,"pm10":21.6,"pm2_5":13.1,"mosquito_risk":0,"arthritis_risk":5,"migraine_risk":10,"frizz_risk":0,"updated_at":"2026-04-28T12:07:57.481229+05:30"},{"city":"Bhopal","state":"Madhya Pradesh","latitude":23.2599,"longitude":77.4126,"temp":40.5,"humidity":10,"rain":0.0,"pressure":952.3,"uv_index":8.6,"wind_gusts":48.6,"aqi":48,"pm10":17.1,"pm2_5":12.5,"mosquito_risk":0,"arthritis_risk":5,"migraine_risk":10,"frizz_risk":0,"updated_at":"2026-04-28T12:07:57.481236+05:30"},{"city":"Jabalpur","state":"Madhya Pradesh","latitude":23.1815,"longitude":79.9864,"temp":41.2,"humidity":13,"rain":0.0,"pressure":958.9,"uv_index":8.75,"wind_gusts":41.0,"aqi":58,"pm10":20.8,"pm2_5":10.2,"mosquito_risk":0,"arthritis_risk":5,"migraine_risk":10,"frizz_risk":0,"updated_at":"2026-04-28T12:07:57.481242+05:30"},{"city":"Ujjain","state":"Madhya Pradesh","latitude":23.1765,"longitude":75.7885,"temp":39.2,"humidity":12,"rain":0.0,"pressure":952.9,"uv_index":8.55,"wind_gusts":55.4,"aqi":52,"pm10":19.2,"pm2_5":9.4,"mosquito_risk":0,"arthritis_risk":5,"migraine_risk":10,"frizz_risk":0,"updated_at":"2026-04-28T12:07:57.481249+05:30"},{"city":"Visakhapatnam","state":"Andhra Pradesh","latitude":17.6868,"longitude":83.2185,"temp":34.1,"humidity":56,"rain":0.0,"pressure":1001.9,"uv_index":9.15,"wind_gusts":56.5,"aqi":72,"pm10":32.4,"pm2_5":20.9,"mosquito_risk":0,"arthritis_risk":5,"migraine_risk":4,"frizz_risk":1,"updated_at":"2026-04-28T12:07:57.481255+05:30"},{"city":"Vijayawada","state":"Andhra Pradesh","latitude":16.5062,"longitude":80.648,"temp":37.5,"humidity":39,"rain":0.0,"pressure":1001.5,"uv_index":9.15,"wind_gusts":39.6,"aqi":67,"pm10":23.9,"pm2_5":15.5,"mosquito_risk":0,"arthritis_risk":5,"migraine_risk":7,"frizz_risk":1,"updated_at":"2026-04-28T12:07:57.481261+05:30"},{"city":"Guntur","state":"Andhra Pradesh","latitude":16.3067,"longitude":80.4365,"temp":37.3,"humidity":41,"rain":0.0,"pressure":1002.7,"uv_index":9.25,"wind_gusts":41.8,"aqi":68,"pm10":24.3,"pm2_5":17.3,"mosquito_risk":0,"arthritis_risk":5,"migraine_risk":7,"frizz_risk":1,"updated_at":"2026-04-28T12:07:57.481268+05:30"},{"city":"Nellore","state":"Andhra Pradesh","latitude":14.4426,"longitude":79.9865,"temp":39.2,"humidity":32,"rain":0.0,"pressure":1004.0,"uv_index":9.25,"wind_gusts":49.3,"aqi":60,"pm10":23.9,"pm2_5":19.4,"mosquito_risk":0,"arthritis_risk":5,"migraine_risk":7,"frizz_risk":1,"updated_at":"2026-04-28T12:07:57.481275+05:30"},{"city":"Kurnool","state":"Andhra Pradesh","latitude":15.8281,"longitude":78.0373,"temp":39.8,"humidity":27,"rain":0.0,"pressure":975.6,"uv_index":9.2,"wind_gusts":42.8,"aqi":97,"pm10":37.8,"pm2_5":31.0,"mosquito_risk":0,"arthritis_risk":5,"migraine_risk":10,"frizz_risk":1,"updated_at":"2026-04-28T12:07:57.481281+05:30"},{"city":"Kakinada","state":"Andhra Pradesh","latitude":16.9891,"longitude":82.2475,"temp":37.2,"humidity":42,"rain":0.0,"pressure":1005.8,"uv_index":9.2,"wind_gusts":45.4,"aqi":64,"pm10":28.3,"pm2_5":16.7,"mosquito_risk":0,"arthritis_risk":5,"migraine_risk":7,"frizz_risk":1,"updated_at":"2026-04-28T12:07:57.481287+05:30"},{"city":"Tirupati","state":"Andhra Pradesh","latitude":13.6288,"longitude":79.4192,"temp":38.5,"humidity":30,"rain":0.0,"pressure":989.7,"uv_index":8.6,"wind_gusts":40.0,"aqi":67,"pm10":23.1,"pm2_5":18.3,"mosquito_risk":0,"arthritis_risk":5,"migraine_risk":10,"frizz_risk":1,"updated_at":"2026-04-28T12:07:57.481293+05:30"},{"city":"Warangal","state":"Telangana","latitude":17.9689,"longitude":79.5941,"temp":38.5,"humidity":35,"rain":0.0,"pressure":977.4,"uv_index":9.15,"wind_gusts":43.6,"aqi":87,"pm10":32.1,"pm2_5":26.4,"mosquito_risk":0,"arthritis_risk":5,"migraine_risk":10,"frizz_risk":1,"updated_at":"2026-04-28T12:07:57.481299+05:30"},{"city":"Nizamabad","state":"Telangana","latitude":18.6725,"longitude":78.0941,"temp":40.4,"humidity":14,"rain":0.0,"pressure":963.7,"uv_index":9.1,"wind_gusts":42.5,"aqi":103,"pm10":28.8,"pm2_5":21.2,"mosquito_risk":0,"arthritis_risk":5,"migraine_risk":10,"frizz_risk":0,"updated_at":"2026-04-28T12:07:57.481305+05:30"},{"city":"Mysore","state":"Karnataka","latitude":12.2958,"longitude":76.6396,"temp":33.2,"humidity":40,"rain":0.0,"pressure":928.9,"uv_index":8.7,"wind_gusts":35.3,"aqi":96,"pm10":37.5,"pm2_5":29.3,"mosquito_risk":0,"arthritis_risk":5,"migraine_risk":7,"frizz_risk":1,"updated_at":"2026-04-28T12:07:57.481311+05:30"},{"city":"Mangalore","state":"Karnataka","latitude":12.9141,"longitude":74.856,"temp":33.3,"humidity":55,"rain":0.0,"pressure":1005.9,"uv_index":8.55,"wind_gusts":41.0,"aqi":75,"pm10":32.5,"pm2_5":23.9,"mosquito_risk":0,"arthritis_risk":5,"migraine_risk":4,"frizz_risk":1,"updated_at":"2026-04-28T12:07:57.481317+05:30"},{"city":"Hubli-Dharwad","state":"Karnataka","latitude":15.3647,"longitude":75.124,"temp":34.8,"humidity":43,"rain":0.0,"pressure":941.1,"uv_index":9.2,"wind_gusts":31.3,"aqi":75,"pm10":32.8,"pm2_5":24.7,"mosquito_risk":0,"arthritis_risk":5,"migraine_risk":7,"frizz_risk":1,"updated_at":"2026-04-28T12:07:57.481323+05:30"},{"city":"Belgaum","state":"Karnataka","latitude":15.8497,"longitude":74.4977,"temp":34.7,"humidity":33,"rain":0.0,"pressure":926.5,"uv_index":9.25,"wind_gusts":42.1,"aqi":73,"pm10":42.5,"pm2_5":24.8,"mosquito_risk":0,"arthritis_risk":5,"migraine_risk":7,"frizz_risk":1,"updated_at":"2026-04-28T12:08:01.118627+05:30"},{"city":"Coimbatore","state":"Tamil Nadu","latitude":11.0168,"longitude":76.9558,"temp":34.7,"humidity":34,"rain":0.0,"pressure":961.5,"uv_index":8.15,"wind_gusts":51.5,"aqi":75,"pm10":27.8,"pm2_5":20.5,"mosquito_risk":0,"arthritis_risk":5,"migraine_risk":7,"frizz_risk":1,"updated_at":"2026-04-28T12:08:01.118662+05:30"},{"city":"Madurai","state":"Tamil Nadu","latitude":9.9252,"longitude":78.1198,"temp":38.6,"humidity":26,"rain":0.0,"pressure":991.6,"uv_index":9.2,"wind_gusts":50.8,"aqi":57,"pm10":21.2,"pm2_5":17.8,"mosquito_risk":0,"arthritis_risk":5,"migraine_risk":10,"frizz_risk":0,"updated_at":"2026-04-28T12:08:01.118673+05:30"},{"city":"Trichy","state":"Tamil Nadu","latitude":10.7905,"longitude":78.7047,"temp":36.8,"humidity":34,"rain":0.0,"pressure":998.5,"uv_index":8.3,"wind_gusts":44.3,"aqi":51,"pm10":15.0,"pm2_5":13.4,"mosquito_risk":0,"arthritis_risk":5,"migraine_risk":10,"frizz_risk":1,"updated_at":"2026-04-28T12:08:01.118682+05:30"},{"city":"Salem","state":"Tamil Nadu","latitude":11.6643,"longitude":78.146,"temp":37.0,"humidity":33,"rain":0.0,"pressure":976.6,"uv_index":8.35,"wind_gusts":34.9,"aqi":60,"pm10":26.0,"pm2_5":21.1,"mosquito_risk":0,"arthritis_risk":5,"migraine_risk":10,"frizz_risk":1,"updated_at":"2026-04-28T12:08:01.118689+05:30"},{"city":"Tirunelveli","state":"Tamil Nadu","latitude":8.7139,"longitude":77.7567,"temp":38.6,"humidity":29,"rain":0.0,"pressure":1001.5,"uv_index":9.15,"wind_gusts":45.4,"aqi":64,"pm10":18.8,"pm2_5":15.7,"mosquito_risk":0,"arthritis_risk":5,"migraine_risk":7,"frizz_risk":1,"updated_at":"2026-04-28T12:08:01.118696+05:30"},{"city":"Vellore","state":"Tamil Nadu","latitude":12.9165,"longitude":79.1325,"temp":38.0,"humidity":30,"rain":0.0,"pressure":983.4,"uv_index":8.2,"wind_gusts":38.5,"aqi":74,"pm10":18.9,"pm2_5":13.2,"mosquito_risk":0,"arthritis_risk":5,"migraine_risk":10,"frizz_risk":1,"updated_at":"2026-04-28T12:08:01.118703+05:30"},{"city":"Erode","state":"Tamil Nadu","latitude":11.341,"longitude":77.7172,"temp":37.4,"humidity":34,"rain":0.0,"pressure":987.8,"uv_index":8.25,"wind_gusts":53.3,"aqi":65,"pm10":29.9,"pm2_5":24.4,"mosquito_risk":0,"arthritis_risk":5,"migraine_risk":10,"frizz_risk":1,"updated_at":"2026-04-28T12:08:01.118711+05:30"},{"city":"Kochi","state":"Kerala","latitude":9.9312,"longitude":76.2673,"temp":32.2,"humidity":64,"rain":0.0,"pressure":1007.7,"uv_index":7.8,"wind_gusts":38.9,"aqi":73,"pm10":10.3,"pm2_5":9.2,"mosquito_risk":3,"arthritis_risk":5,"migraine_risk":4,"frizz_risk":1,"updated_at":"2026-04-28T12:08:01.118718+05:30"},{"city":"Thiruvananthapuram","state":"Kerala","latitude":8.5241,"longitude":76.9366,"temp":31.4,"humidity":67,"rain":0.0,"pressure":1007.1,"uv_index":7.8,"wind_gusts":36.0,"aqi":63,"pm10":22.4,"pm2_5":18.9,"mosquito_risk":3,"arthritis_risk":5,"migraine_risk":4,"frizz_risk":1,"updated_at":"2026-04-28T12:08:01.118726+05:30"},{"city":"Kozhikode","state":"Kerala","latitude":11.2588,"longitude":75.7804,"temp":30.1,"humidity":77,"rain":0.1,"pressure":1007.2,"uv_index":6.65,"wind_gusts":37.4,"aqi":65,"pm10":18.2,"pm2_5":13.6,"mosquito_risk":6,"arthritis_risk":5,"migraine_risk":4,"frizz_risk":1,"updated_at":"2026-04-28T12:08:01.118733+05:30"},{"city":"Thrissur","state":"Kerala","latitude":10.5276,"longitude":76.2144,"temp":32.8,"humidity":61,"rain":0.1,"pressure":1006.1,"uv_index":6.8,"wind_gusts":38.2,"aqi":71,"pm10":14.7,"pm2_5":12.7,"mosquito_risk":6,"arthritis_risk":5,"migraine_risk":4,"frizz_risk":1,"updated_at":"2026-04-28T12:08:01.118740+05:30"},{"city":"Kannur","state":"Kerala","latitude":11.8745,"longitude":75.3704,"temp":32.6,"humidity":63,"rain":0.0,"pressure":1006.4,"uv_index":7.25,"wind_gusts":44.3,"aqi":76,"pm10":26.4,"pm2_5":20.0,"mosquito_risk":3,"arthritis_risk":5,"migraine_risk":4,"frizz_risk":1,"updated_at":"2026-04-28T12:08:01.118747+05:30"},{"city":"Patna","state":"Bihar","latitude":25.5941,"longitude":85.1376,"temp":33.0,"humidity":53,"rain":0.0,"pressure":996.8,"uv_index":8.6,"wind_gusts":34.2,"aqi":100,"pm10":61.9,"pm2_5":40.3,"mosquito_risk":0,"arthritis_risk":5,"migraine_risk":7,"frizz_risk":1,"updated_at":"2026-04-28T12:08:01.118771+05:30"},{"city":"Gaya","state":"Bihar","latitude":24.7914,"longitude":85.0002,"temp":37.0,"humidity":41,"rain":0.0,"pressure":989.6,"uv_index":8.7,"wind_gusts":34.2,"aqi":107,"pm10":60.1,"pm2_5":39.9,"mosquito_risk":0,"arthritis_risk":5,"migraine_risk":10,"frizz_risk":1,"updated_at":"2026-04-28T12:08:01.118777+05:30"},{"city":"Muzaffarpur","state":"Bihar","latitude":26.1209,"longitude":85.3647,"temp":32.0,"humidity":54,"rain":0.0,"pressure":997.1,"uv_index":8.4,"wind_gusts":33.5,"aqi":97,"pm10":54.9,"pm2_5":35.0,"mosquito_risk":0,"arthritis_risk":5,"migraine_risk":7,"frizz_risk":1,"updated_at":"2026-04-28T12:08:01.118783+05:30"},{"city":"Bhagalpur","state":"Bihar","latitude":25.2425,"longitude":87.0117,"temp":30.6,"humidity":61,"rain":0.0,"pressure":998.6,"uv_index":8.6,"wind_gusts":32.0,"aqi":86,"pm10":65.2,"pm2_5":40.3,"mosquito_risk":3,"arthritis_risk":5,"migraine_risk":7,"frizz_risk":1,"updated_at":"2026-04-28T12:08:01.118790+05:30"},{"city":"Ranchi","state":"Jharkhand","latitude":23.3441,"longitude":85.3096,"temp":37.1,"humidity":20,"rain":0.0,"pressure":935.4,"uv_index":8.9,"wind_gusts":50.4,"aqi":94,"pm10":43.2,"pm2_5":19.0,"mosquito_risk":0,"arthritis_risk":5,"migraine_risk":10,"frizz_risk":0,"updated_at":"2026-04-28T12:08:01.118796+05:30"},{"city":"Jamshedpur","state":"Jharkhand","latitude":22.8046,"longitude":86.2029,"temp":39.0,"humidity":23,"rain":0.0,"pressure":986.5,"uv_index":8.6,"wind_gusts":50.8,"aqi":108,"pm10":71.5,"pm2_5":51.6,"mosquito_risk":0,"arthritis_risk":5,"migraine_risk":10,"frizz_risk":0,"updated_at":"2026-04-28T12:08:01.118802+05:30"},{"city":"Dhanbad","state":"Jharkhand","latitude":23.7957,"longitude":86.4304,"temp":36.5,"humidity":35,"rain":0.0,"pressure":976.3,"uv_index":8.75,"wind_gusts":38.2,"aqi":131,"pm10":81.5,"pm2_5":68.0,"mosquito_risk":0,"arthritis_risk":5,"migraine_risk":10,"frizz_risk":1,"updated_at":"2026-04-28T12:08:01.118808+05:30"},{"city":"Bokaro","state":"Jharkhand","latitude":23.6693,"longitude":86.1511,"temp":39.2,"humidity":26,"rain":0.0,"pressure":979.5,"uv_index":8.85,"wind_gusts":50.8,"aqi":125,"pm10":78.0,"pm2_5":65.2,"mosquito_risk":0,"arthritis_risk":5,"migraine_risk":10,"frizz_risk":1,"updated_at":"2026-04-28T12:08:01.118814+05:30"},{"city":"Bhubaneswar","state":"Odisha","latitude":20.2961,"longitude":85.8245,"temp":36.5,"humidity":50,"rain":0.0,"pressure":999.1,"uv_index":9.1,"wind_gusts":42.5,"aqi":64,"pm10":29.6,"pm2_5":24.4,"mosquito_risk":0,"arthritis_risk":5,"migraine_risk":10,"frizz_risk":1,"updated_at":"2026-04-28T12:08:01.118820+05:30"},{"city":"Cuttack","state":"Odisha","latitude":20.4625,"longitude":85.8828,"temp":37.7,"humidity":45,"rain":0.0,"pressure":1000.4,"uv_index":9.15,"wind_gusts":43.9,"aqi":64,"pm10":29.6,"pm2_5":24.4,"mosquito_risk":0,"arthritis_risk":5,"migraine_risk":7,"frizz_risk":1,"updated_at":"2026-04-28T12:08:01.118826+05:30"},{"city":"Rourkela","state":"Odisha","latitude":22.2604,"longitude":84.8536,"temp":40.5,"humidity":18,"rain":0.0,"pressure":981.5,"uv_index":8.4,"wind_gusts":54.7,"aqi":90,"pm10":50.8,"pm2_5":34.6,"mosquito_risk":0,"arthritis_risk":5,"migraine_risk":10,"frizz_risk":0,"updated_at":"2026-04-28T12:08:01.118832+05:30"},{"city":"Raipur","state":"Chhattisgarh","latitude":21.2514,"longitude":81.6296,"temp":40.7,"humidity":23,"rain":0.0,"pressure":972.1,"uv_index":8.9,"wind_gusts":43.6,"aqi":89,"pm10":33.6,"pm2_5":29.1,"mosquito_risk":0,"arthritis_risk":5,"migraine_risk":10,"frizz_risk":0,"updated_at":"2026-04-28T12:08:01.118837+05:30"},{"city":"Bhilai","state":"Chhattisgarh","latitude":21.1938,"longitude":81.3509,"temp":40.0,"humidity":25,"rain":0.0,"pressure":972.5,"uv_index":8.95,"wind_gusts":49.3,"aqi":91,"pm10":28.6,"pm2_5":24.3,"mosquito_risk":0,"arthritis_risk":5,"migraine_risk":10,"frizz_risk":1,"updated_at":"2026-04-28T12:08:01.118843+05:30"},{"city":"Guwahati","state":"Assam","latitude":26.1158,"longitude":91.7086,"temp":29.3,"humidity":61,"rain":0.0,"pressure":998.6,"uv_index":8.1,"wind_gusts":32.4,"aqi":82,"pm10":17.1,"pm2_5":10.4,"mosquito_risk":7,"arthritis_risk":5,"migraine_risk":7,"frizz_risk":1,"updated_at":"2026-04-28T12:08:01.118848+05:30"},{"city":"Agartala","state":"Tripura","latitude":23.8315,"longitude":91.2868,"temp":26.8,"humidity":84,"rain":0.0,"pressure":1004.0,"uv_index":4.35,"wind_gusts":52.9,"aqi":65,"pm10":32.7,"pm2_5":23.3,"mosquito_risk":7,"arthritis_risk":5,"migraine_risk":0,"frizz_risk":1,"updated_at":"2026-04-28T12:08:01.118855+05:30"},{"city":"Shillong","state":"Meghalaya","latitude":25.5788,"longitude":91.8933,"temp":17.6,"humidity":94,"rain":0.3,"pressure":854.9,"uv_index":8.85,"wind_gusts":28.4,"aqi":42,"pm10":6.8,"pm2_5":3.3,"mosquito_risk":6,"arthritis_risk":10,"migraine_risk":7,"frizz_risk":1,"updated_at":"2026-04-28T12:08:01.118861+05:30"},{"city":"Imphal","state":"Manipur","latitude":24.817,"longitude":93.9368,"temp":21.8,"humidity":77,"rain":0.0,"pressure":922.3,"uv_index":3.85,"wind_gusts":27.0,"aqi":103,"pm10":27.0,"pm2_5":26.7,"mosquito_risk":3,"arthritis_risk":5,"migraine_risk":3,"frizz_risk":1,"updated_at":"2026-04-28T12:08:01.118867+05:30"},{"city":"Aizawl","state":"Mizoram","latitude":23.7271,"longitude":92.7176,"temp":21.7,"humidity":74,"rain":0.1,"pressure":891.2,"uv_index":5.85,"wind_gusts":52.9,"aqi":84,"pm10":31.1,"pm2_5":19.3,"mosquito_risk":6,"arthritis_risk":5,"migraine_risk":3,"frizz_risk":1,"updated_at":"2026-04-28T12:08:01.118872+05:30"},{"city":"Kohima","state":"Nagaland","latitude":25.6701,"longitude":94.1077,"temp":23.1,"humidity":64,"rain":0.0,"pressure":854.7,"uv_index":8.45,"wind_gusts":29.9,"aqi":70,"pm10":5.4,"pm2_5":4.4,"mosquito_risk":3,"arthritis_risk":5,"migraine_risk":7,"frizz_risk":0,"updated_at":"2026-04-28T12:08:01.118878+05:30"},{"city":"Gangtok","state":"Sikkim","latitude":27.3314,"longitude":88.6138,"temp":20.9,"humidity":60,"rain":0.0,"pressure":836.6,"uv_index":8.7,"wind_gusts":40.7,"aqi":89,"pm10":39.5,"pm2_5":27.8,"mosquito_risk":0,"arthritis_risk":5,"migraine_risk":7,"frizz_risk":0,"updated_at":"2026-04-28T12:08:01.118884+05:30"},{"city":"Siliguri","state":"West Bengal","latitude":26.7271,"longitude":88.3953,"temp":29.0,"humidity":58,"rain":0.0,"pressure":990.9,"uv_index":8.0,"wind_gusts":29.9,"aqi":90,"pm10":37.4,"pm2_5":20.2,"mosquito_risk":4,"arthritis_risk":5,"migraine_risk":7,"frizz_risk":1,"updated_at":"2026-04-28T12:08:04.354937+05:30"},{"city":"Durgapur","state":"West Bengal","latitude":23.5204,"longitude":87.3119,"temp":33.7,"humidity":61,"rain":0.0,"pressure":990.7,"uv_index":8.85,"wind_gusts":31.3,"aqi":135,"pm10":80.3,"pm2_5":65.0,"mosquito_risk":3,"arthritis_risk":5,"migraine_risk":7,"frizz_risk":1,"updated_at":"2026-04-28T12:08:04.354971+05:30"},{"city":"Asansol","state":"West Bengal","latitude":23.6739,"longitude":86.9524,"temp":35.5,"humidity":53,"rain":0.0,"pressure":989.4,"uv_index":8.9,"wind_gusts":30.2,"aqi":121,"pm10":77.3,"pm2_5":63.8,"mosquito_risk":0,"arthritis_risk":5,"migraine_risk":10,"frizz_risk":1,"updated_at":"2026-04-28T12:08:04.354983+05:30"},{"city":"Pondicherry","state":"Puducherry","latitude":11.9139,"longitude":79.8145,"temp":33.2,"humidity":61,"rain":0.0,"pressure":1007.8,"uv_index":8.85,"wind_gusts":47.9,"aqi":45,"pm10":16.5,"pm2_5":14.7,"mosquito_risk":3,"arthritis_risk":5,"migraine_risk":4,"frizz_risk":1,"updated_at":"2026-04-28T12:08:04.354991+05:30"},{"city":"Port Blair","state":"Andaman and Nicobar Islands","latitude":11.6234,"longitude":92.7265,"temp":34.2,"humidity":49,"rain":0.1,"pressure":1006.8,"uv_index":9.1,"wind_gusts":27.4,"aqi":51,"pm10":16.2,"pm2_5":12.3,"mosquito_risk":3,"arthritis_risk":5,"migraine_risk":4,"frizz_risk":1,"updated_at":"2026-04-28T12:08:04.355000+05:30"},{"city":"Haridwar","state":"Uttarakhand","latitude":29.9457,"longitude":78.1642,"temp":33.2,"humidity":40,"rain":0.0,"pressure":970.6,"uv_index":7.1,"wind_gusts":40.3,"aqi":56,"pm10":25.9,"pm2_5":16.8,"mosquito_risk":0,"arthritis_risk":5,"migraine_risk":7,"frizz_risk":1,"updated_at":"2026-04-28T12:08:04.355008+05:30"},{"city":"Rishikesh","state":"Uttarakhand","latitude":30.0869,"longitude":78.2676,"temp":32.8,"humidity":41,"rain":0.0,"pressure":963.3,"uv_index":7.05,"wind_gusts":32.4,"aqi":52,"pm10":30.3,"pm2_5":12.7,"mosquito_risk":0,"arthritis_risk":5,"migraine_risk":7,"frizz_risk":1,"updated_at":"2026-04-28T12:08:04.355015+05:30"},{"city":"Nainital","state":"Uttarakhand","latitude":29.3919,"longitude":79.4542,"temp":22.1,"humidity":54,"rain":0.0,"pressure":806.9,"uv_index":7.55,"wind_gusts":48.2,"aqi":82,"pm10":44.7,"pm2_5":24.3,"mosquito_risk":0,"arthritis_risk":5,"migraine_risk":7,"frizz_risk":0,"updated_at":"2026-04-28T12:08:04.355022+05:30"},{"city":"Mussoorie","state":"Uttarakhand","latitude":30.4599,"longitude":78.0664,"temp":22.0,"humidity":37,"rain":0.0,"pressure":803.8,"uv_index":4.15,"wind_gusts":42.8,"aqi":49,"pm10":31.0,"pm2_5":11.0,"mosquito_risk":0,"arthritis_risk":5,"migraine_risk":3,"frizz_risk":0,"updated_at":"2026-04-28T12:08:04.355029+05:30"},{"city":"Dharamshala","state":"Himachal Pradesh","latitude":32.219,"longitude":76.3234,"temp":26.2,"humidity":35,"rain":0.0,"pressure":868.6,"uv_index":7.45,"wind_gusts":43.9,"aqi":47,"pm10":17.8,"pm2_5":10.3,"mosquito_risk":4,"arthritis_risk":5,"migraine_risk":7,"frizz_risk":0,"updated_at":"2026-04-28T12:08:04.355036+05:30"},{"city":"Dalhousie","state":"Himachal Pradesh","latitude":32.5387,"longitude":75.971,"temp":19.6,"humidity":60,"rain":0.0,"pressure":804.6,"uv_index":6.9,"wind_gusts":38.5,"aqi":46,"pm10":22.1,"pm2_5":11.6,"mosquito_risk":0,"arthritis_risk":5,"migraine_risk":7,"frizz_risk":0,"updated_at":"2026-04-28T12:08:04.355044+05:30"},{"city":"Patiala","state":"Punjab","latitude":30.3398,"longitude":76.3869,"temp":38.3,"humidity":18,"rain":0.0,"pressure":974.0,"uv_index":7.2,"wind_gusts":51.5,"aqi":388,"pm10":236.6,"pm2_5":36.9,"mosquito_risk":0,"arthritis_risk":5,"migraine_risk":10,"frizz_risk":0,"updated_at":"2026-04-28T12:08:04.355051+05:30"},{"city":"Bhatinda","state":"Punjab","latitude":30.211,"longitude":74.9455,"temp":37.8,"humidity":21,"rain":0.0,"pressure":979.6,"uv_index":7.6,"wind_gusts":60.5,"aqi":94,"pm10":82.0,"pm2_5":23.1,"mosquito_risk":0,"arthritis_risk":5,"migraine_risk":10,"frizz_risk":0,"updated_at":"2026-04-28T12:08:04.355057+05:30"},{"city":"Rohtak","state":"Haryana","latitude":28.8955,"longitude":76.6066,"temp":38.0,"humidity":21,"rain":0.0,"pressure":977.8,"uv_index":7.0,"wind_gusts":58.0,"aqi":671,"pm10":262.6,"pm2_5":42.3,"mosquito_risk":0,"arthritis_risk":5,"migraine_risk":10,"frizz_risk":0,"updated_at":"2026-04-28T12:08:04.355064+05:30"},{"city":"Panipat","state":"Haryana","latitude":29.3909,"longitude":76.9635,"temp":38.2,"humidity":19,"rain":0.0,"pressure":976.5,"uv_index":6.4,"wind_gusts":49.3,"aqi":1165,"pm10":468.5,"pm2_5":59.3,"mosquito_risk":0,"arthritis_risk":5,"migraine_risk":10,"frizz_risk":0,"updated_at":"2026-04-28T12:08:04.355071+05:30"},{"city":"Mathura","state":"Uttar Pradesh","latitude":27.4924,"longitude":77.6737,"temp":38.8,"humidity":21,"rain":0.0,"pressure":983.5,"uv_index":7.75,"wind_gusts":42.5,"aqi":587,"pm10":735.7,"pm2_5":79.4,"mosquito_risk":0,"arthritis_risk":5,"migraine_risk":10,"frizz_risk":0,"updated_at":"2026-04-28T12:08:04.355078+05:30"},{"city":"Vrindavan","state":"Uttar Pradesh","latitude":27.5823,"longitude":77.7027,"temp":38.8,"humidity":21,"rain":0.0,"pressure":983.8,"uv_index":7.75,"wind_gusts":43.9,"aqi":587,"pm10":735.7,"pm2_5":79.4,"mosquito_risk":0,"arthritis_risk":5,"migraine_risk":10,"frizz_risk":0,"updated_at":"2026-04-28T12:08:04.355084+05:30"},{"city":"Ayodhya","state":"Uttar Pradesh","latitude":26.7922,"longitude":82.1998,"temp":35.5,"humidity":39,"rain":0.0,"pressure":991.4,"uv_index":8.1,"wind_gusts":51.5,"aqi":124,"pm10":65.0,"pm2_5":37.4,"mosquito_risk":0,"arthritis_risk":5,"migraine_risk":10,"frizz_risk":1,"updated_at":"2026-04-28T12:08:04.355090+05:30"},{"city":"Ratlam","state":"Madhya Pradesh","latitude":23.3315,"longitude":75.0367,"temp":37.9,"humidity":15,"rain":0.0,"pressure":954.0,"uv_index":8.45,"wind_gusts":49.7,"aqi":52,"pm10":19.0,"pm2_5":7.9,"mosquito_risk":0,"arthritis_risk":5,"migraine_risk":10,"frizz_risk":0,"updated_at":"2026-04-28T12:08:04.355096+05:30"},{"city":"Sagar","state":"Madhya Pradesh","latitude":23.8388,"longitude":78.7378,"temp":39.9,"humidity":15,"rain":0.0,"pressure":948.3,"uv_index":8.6,"wind_gusts":45.7,"aqi":46,"pm10":20.3,"pm2_5":8.0,"mosquito_risk":0,"arthritis_risk":5,"migraine_risk":10,"frizz_risk":0,"updated_at":"2026-04-28T12:08:04.355102+05:30"},{"city":"Satna","state":"Madhya Pradesh","latitude":24.6005,"longitude":80.8322,"temp":41.0,"humidity":15,"rain":0.0,"pressure":967.8,"uv_index":8.65,"wind_gusts":44.6,"aqi":52,"pm10":47.6,"pm2_5":14.1,"mosquito_risk":0,"arthritis_risk":5,"migraine_risk":10,"frizz_risk":0,"updated_at":"2026-04-28T12:08:04.355109+05:30"},{"city":"Akola","state":"Maharashtra","latitude":20.7002,"longitude":77.0082,"temp":40.9,"humidity":16,"rain":0.0,"pressure":973.6,"uv_index":8.4,"wind_gusts":41.4,"aqi":65,"pm10":26.7,"pm2_5":17.3,"mosquito_risk":0,"arthritis_risk":5,"migraine_risk":10,"frizz_risk":0,"updated_at":"2026-04-28T12:08:04.355115+05:30"},{"city":"Amravati","state":"Maharashtra","latitude":20.9374,"longitude":77.7796,"temp":41.3,"humidity":13,"rain":0.0,"pressure":966.0,"uv_index":8.85,"wind_gusts":46.1,"aqi":63,"pm10":27.4,"pm2_5":17.8,"mosquito_risk":0,"arthritis_risk":5,"migraine_risk":10,"frizz_risk":0,"updated_at":"2026-04-28T12:08:04.355122+05:30"},{"city":"Latur","state":"Maharashtra","latitude":18.4088,"longitude":76.5604,"temp":39.5,"humidity":15,"rain":0.0,"pressure":939.9,"uv_index":9.1,"wind_gusts":35.6,"aqi":80,"pm10":31.8,"pm2_5":20.5,"mosquito_risk":0,"arthritis_risk":5,"migraine_risk":10,"frizz_risk":0,"updated_at":"2026-04-28T12:08:04.355128+05:30"},{"city":"Nanded","state":"Maharashtra","latitude":19.1383,"longitude":77.3091,"temp":40.7,"humidity":14,"rain":0.0,"pressure":967.6,"uv_index":8.95,"wind_gusts":35.6,"aqi":75,"pm10":35.0,"pm2_5":24.0,"mosquito_risk":0,"arthritis_risk":5,"migraine_risk":10,"frizz_risk":0,"updated_at":"2026-04-28T12:08:04.355134+05:30"},{"city":"Gulbarga","state":"Karnataka","latitude":17.3297,"longitude":76.8343,"temp":40.4,"humidity":17,"rain":0.0,"pressure":957.6,"uv_index":9.0,"wind_gusts":33.5,"aqi":91,"pm10":37.1,"pm2_5":28.6,"mosquito_risk":0,"arthritis_risk":5,"migraine_risk":10,"frizz_risk":0,"updated_at":"2026-04-28T12:08:04.355140+05:30"},{"city":"Bidar","state":"Karnataka","latitude":17.9104,"longitude":77.5199,"temp":38.6,"humidity":15,"rain":0.0,"pressure":935.7,"uv_index":7.65,"wind_gusts":37.4,"aqi":98,"pm10":35.7,"pm2_5":27.9,"mosquito_risk":0,"arthritis_risk":5,"migraine_risk":10,"frizz_risk":0,"updated_at":"2026-04-28T12:08:04.355146+05:30"},{"city":"Hospet","state":"Karnataka","latitude":15.2689,"longitude":76.3909,"temp":35.4,"humidity":41,"rain":0.0,"pressure":955.7,"uv_index":9.25,"wind_gusts":36.7,"aqi":91,"pm10":36.4,"pm2_5":27.7,"mosquito_risk":0,"arthritis_risk":5,"migraine_risk":10,"frizz_risk":1,"updated_at":"2026-04-28T12:08:04.355151+05:30"},{"city":"Tirupur","state":"Tamil Nadu","latitude":11.1085,"longitude":77.3411,"temp":36.7,"humidity":34,"rain":0.0,"pressure":974.4,"uv_index":8.1,"wind_gusts":40.3,"aqi":79,"pm10":30.6,"pm2_5":25.1,"mosquito_risk":0,"arthritis_risk":5,"migraine_risk":10,"frizz_risk":1,"updated_at":"2026-04-28T12:08:04.355157+05:30"},{"city":"Alappuzha","state":"Kerala","latitude":9.4981,"longitude":76.3388,"temp":31.1,"humidity":72,"rain":0.0,"pressure":1007.8,"uv_index":7.65,"wind_gusts":36.4,"aqi":74,"pm10":15.3,"pm2_5":13.7,"mosquito_risk":3,"arthritis_risk":5,"migraine_risk":4,"frizz_risk":1,"updated_at":"2026-04-28T12:08:04.355163+05:30"},{"city":"Munnar","state":"Kerala","latitude":10.0889,"longitude":77.0595,"temp":24.2,"humidity":62,"rain":0.0,"pressure":858.7,"uv_index":8.8,"wind_gusts":26.6,"aqi":81,"pm10":24.0,"pm2_5":19.7,"mosquito_risk":3,"arthritis_risk":5,"migraine_risk":7,"frizz_risk":1,"updated_at":"2026-04-28T12:08:04.355170+05:30"},{"city":"Silchar","state":"Assam","latitude":24.8333,"longitude":92.7789,"temp":23.6,"humidity":93,"rain":0.4,"pressure":1004.2,"uv_index":1.2,"wind_gusts":31.3,"aqi":96,"pm10":14.6,"pm2_5":14.6,"mosquito_risk":6,"arthritis_risk":5,"migraine_risk":0,"frizz_risk":1,"updated_at":"2026-04-28T12:08:04.355177+05:30"},{"city":"Dibrugarh","state":"Assam","latitude":27.4728,"longitude":94.912,"temp":28.1,"humidity":64,"rain":0.0,"pressure":993.4,"uv_index":7.3,"wind_gusts":17.3,"aqi":114,"pm10":58.9,"pm2_5":35.4,"mosquito_risk":7,"arthritis_risk":5,"migraine_risk":7,"frizz_risk":1,"updated_at":"2026-04-28T12:08:04.355183+05:30"}]