[{"city":"Delhi","state":"Delhi","latitude":28.6139,"longitude":77.209,"temp":26.6,"humidity":47,"rain":0.0,"pressure":988.8,"uv_index":5.8,"wind_gusts":39.2,"aqi":253,"pm10":389.3,"pm2_5":88.2,"mosquito_risk":4,"arthritis_risk":5,"migraine_risk":3,"frizz_risk":0,"updated_at":"2026-03-03T11:22:39.836988+05:30"},{"city":"Mumbai","state":"Maharashtra","latitude":19.076,"longitude":72.8777,"temp":27.2,"humidity":73,"rain":0.0,"pressure":1012.5,"uv_index":7.35,"wind_gusts":28.8,"aqi":93,"pm10":48.3,"pm2_5":41.6,"mosquito_risk":7,"arthritis_risk":0,"migraine_risk":4,"frizz_risk":1,"updated_at":"2026-03-03T11:22:39.837030+05:30"},{"city":"Bangalore","state":"Karnataka","latitude":12.9716,"longitude":77.5946,"temp":29.7,"humidity":29,"rain":0.0,"pressure":915.7,"uv_index":9.1,"wind_gusts":38.2,"aqi":116,"pm10":29.5,"pm2_5":28.8,"mosquito_risk":4,"arthritis_risk":5,"migraine_risk":7,"frizz_risk":0,"updated_at":"2026-03-03T11:22:39.837045+05:30"},{"city":"Hyderabad","state":"Telangana","latitude":17.385,"longitude":78.4867,"temp":32.0,"humidity":36,"rain":0.0,"pressure":958.1,"uv_index":8.35,"wind_gusts":23.8,"aqi":145,"pm10":39.0,"pm2_5":37.8,"mosquito_risk":0,"arthritis_risk":5,"migraine_risk":7,"frizz_risk":0,"updated_at":"2026-03-03T11:22:39.837055+05:30"},{"city":"Chennai","state":"Tamil Nadu","latitude":13.0827,"longitude":80.2707,"temp":31.7,"humidity":48,"rain":0.0,"pressure":1011.9,"uv_index":8.8,"wind_gusts":29.5,"aqi":119,"pm10":43.4,"pm2_5":38.9,"mosquito_risk":0,"arthritis_risk":0,"migraine_risk":4,"frizz_risk":1,"updated_at":"2026-03-03T11:22:39.837064+05:30"},{"city":"Kolkata","state":"West Bengal","latitude":22.5726,"longitude":88.3639,"temp":30.8,"humidity":31,"rain":0.0,"pressure":1011.3,"uv_index":7.7,"wind_gusts":20.5,"aqi":179,"pm10":97.3,"pm2_5":72.6,"mosquito_risk":0,"arthritis_risk":0,"migraine_risk":4,"frizz_risk":0,"updated_at":"2026-03-03T11:22:39.837072+05:30"},{"city":"Pune","state":"Maharashtra","latitude":18.5204,"longitude":73.8567,"temp":32.8,"humidity":29,"rain":0.0,"pressure":953.3,"uv_index":7.9,"wind_gusts":33.1,"aqi":84,"pm10":21.8,"pm2_5":21.2,"mosquito_risk":0,"arthritis_risk":5,"migraine_risk":7,"frizz_risk":0,"updated_at":"2026-03-03T11:22:39.837084+05:30"},{"city":"Ahmedabad","state":"Gujarat","latitude":23.0225,"longitude":72.5714,"temp":32.6,"humidity":32,"rain":0.0,"pressure":1008.2,"uv_index":7.15,"wind_gusts":15.5,"aqi":102,"pm10":30.5,"pm2_5":22.8,"mosquito_risk":0,"arthritis_risk":0,"migraine_risk":4,"frizz_risk":0,"updated_at":"2026-03-03T11:22:39.837092+05:30"},{"city":"Jaipur","state":"Rajasthan","latitude":26.9124,"longitude":75.7873,"temp":31.3,"humidity":23,"rain":0.0,"pressure":966.5,"uv_index":6.6,"wind_gusts":31.0,"aqi":99,"pm10":117.6,"pm2_5":41.2,"mosquito_risk":0,"arthritis_risk":5,"migraine_risk":7,"frizz_risk":0,"updated_at":"2026-03-03T11:22:39.837100+05:30"},{"city":"Lucknow","state":"Uttar Pradesh","latitude":26.8467,"longitude":80.9462,"temp":27.0,"humidity":47,"rain":0.0,"pressure":999.2,"uv_index":6.3,"wind_gusts":38.5,"aqi":153,"pm10":188.1,"pm2_5":67.5,"mosquito_risk":4,"arthritis_risk":5,"migraine_risk":7,"frizz_risk":0,"updated_at":"2026-03-03T11:22:39.837108+05:30"},{"city":"Kanpur","state":"Uttar Pradesh","latitude":26.4499,"longitude":80.3319,"temp":27.7,"humidity":48,"rain":0.0,"pressure":997.8,"uv_index":6.3,"wind_gusts":31.7,"aqi":182,"pm10":277.5,"pm2_5":73.1,"mosquito_risk":4,"arthritis_risk":5,"migraine_risk":7,"frizz_risk":0,"updated_at":"2026-03-03T11:22:39.837115+05:30"},{"city":"Chandigarh","state":"Chandigarh","latitude":30.7333,"longitude":76.7794,"temp":25.1,"humidity":54,"rain":0.0,"pressure":973.4,"uv_index":5.7,"wind_gusts":35.6,"aqi":80,"pm10":36.2,"pm2_5":31.4,"mosquito_risk":4,"arthritis_risk":5,"migraine_risk":3,"frizz_risk":0,"updated_at":"2026-03-03T11:22:39.837122+05:30"},{"city":"Srinagar","state":"Jammu and Kashmir","latitude":34.0837,"longitude":74.7973,"temp":14.7,"humidity":36,"rain":0.0,"pressure":847.8,"uv_index":6.6,"wind_gusts":15.8,"aqi":139,"pm10":48.2,"pm2_5":37.5,"mosquito_risk":0,"arthritis_risk":5,"migraine_risk":7,"frizz_risk":1,"updated_at":"2026-03-03T11:22:39.837129+05:30"},{"city":"Jammu","state":"Jammu and Kashmir","latitude":32.7266,"longitude":74.857,"temp":24.6,"humidity":46,"rain":0.0,"pressure":977.5,"uv_index":6.3,"wind_gusts":23.8,"aqi":100,"pm10":38.2,"pm2_5":34.5,"mosquito_risk":0,"arthritis_risk":5,"migraine_risk":7,"frizz_risk":0,"updated_at":"2026-03-03T11:22:39.837136+05:30"},{"city":"Amritsar","state":"Punjab","latitude":31.634,"longitude":74.8723,"temp":25.0,"humidity":48,"rain":0.0,"pressure":986.5,"uv_index":6.25,"wind_gusts":29.5,"aqi":91,"pm10":37.6,"pm2_5":33.2,"mosquito_risk":4,"arthritis_risk":5,"migraine_risk":7,"frizz_risk":0,"updated_at":"2026-03-03T11:22:39.837144+05:30"},{"city":"Ludhiana","state":"Punjab","latitude":30.901,"longitude":75.8573,"temp":24.7,"humidity":48,"rain":0.0,"pressure":984.3,"uv_index":5.9,"wind_gusts":31.7,"aqi":140,"pm10":67.8,"pm2_5":51.1,"mosquito_risk":0,"arthritis_risk":5,"migraine_risk":3,"frizz_risk":0,"updated_at":"2026-03-03T11:22:39.837150+05:30"},{"city":"Jalandhar","state":"Punjab","latitude":31.326,"longitude":75.5762,"temp":24.2,"humidity":47,"rain":0.0,"pressure":985.4,"uv_index":6.1,"wind_gusts":27.0,"aqi":142,"pm10":71.5,"pm2_5":48.8,"mosquito_risk":0,"arthritis_risk":5,"migraine_risk":7,"frizz_risk":0,"updated_at":"2026-03-03T11:22:39.837159+05:30"},{"city":"Dehradun","state":"Uttarakhand","latitude":30.6284,"longitude":78.0322,"temp":20.7,"humidity":39,"rain":0.0,"pressure":833.5,"uv_index":6.05,"wind_gusts":31.3,"aqi":57,"pm10":14.5,"pm2_5":9.2,"mosquito_risk":0,"arthritis_risk":5,"migraine_risk":7,"frizz_risk":0,"updated_at":"2026-03-03T11:22:39.837165+05:30"},{"city":"Shimla","state":"Himachal Pradesh","latitude":31.1048,"longitude":77.1734,"temp":18.9,"humidity":35,"rain":0.0,"pressure":789.1,"uv_index":6.1,"wind_gusts":44.3,"aqi":72,"pm10":22.8,"pm2_5":14.7,"mosquito_risk":0,"arthritis_risk":5,"migraine_risk":7,"frizz_risk":0,"updated_at":"2026-03-03T11:22:39.837172+05:30"},{"city":"Manali","state":"Himachal Pradesh","latitude":32.2396,"longitude":77.1887,"temp":23.2,"humidity":9,"rain":0.0,"pressure":824.6,"uv_index":7.7,"wind_gusts":34.6,"aqi":53,"pm10":11.1,"pm2_5":8.1,"mosquito_risk":0,"arthritis_risk":5,"migraine_risk":7,"frizz_risk":1,"updated_at":"2026-03-03T11:22:39.837178+05:30"},{"city":"Gurgaon","state":"Haryana","latitude":28.4595,"longitude":77.0266,"temp":27.0,"humidity":48,"rain":0.0,"pressure":987.4,"uv_index":5.9,"wind_gusts":36.0,"aqi":1009,"pm10":1337.4,"pm2_5":178.3,"mosquito_risk":4,"arthritis_risk":5,"migraine_risk":3,"frizz_risk":0,"updated_at":"2026-03-03T11:22:39.837185+05:30"},{"city":"Noida","state":"Uttar Pradesh","latitude":28.5355,"longitude":77.391,"temp":27.2,"humidity":45,"rain":0.0,"pressure":990.3,"uv_index":5.85,"wind_gusts":38.5,"aqi":1009,"pm10":1337.4,"pm2_5":178.3,"mosquito_risk":4,"arthritis_risk":5,"migraine_risk":3,"frizz_risk":0,"updated_at":"2026-03-03T11:22:39.837191+05:30"},{"city":"Ghaziabad","state":"Uttar Pradesh","latitude":28.6692,"longitude":77.4538,"temp":26.0,"humidity":50,"rain":0.0,"pressure":988.2,"uv_index":5.8,"wind_gusts":38.2,"aqi":189,"pm10":329.7,"pm2_5":81.0,"mosquito_risk":4,"arthritis_risk":5,"migraine_risk":3,"frizz_risk":0,"updated_at":"2026-03-03T11:22:39.837198+05:30"},{"city":"Faridabad","state":"Haryana","latitude":28.4089,"longitude":77.3178,"temp":26.5,"humidity":52,"rain":0.0,"pressure":989.7,"uv_index":5.85,"wind_gusts":35.3,"aqi":1009,"pm10":1337.4,"pm2_5":178.3,"mosquito_risk":4,"arthritis_risk":5,"migraine_risk":3,"frizz_risk":0,"updated_at":"2026-03-03T11:22:39.837204+05:30"},{"city":"Meerut","state":"Uttar Pradesh","latitude":28.9845,"longitude":77.7064,"temp":26.6,"humidity":48,"rain":0.0,"pressure":986.4,"uv_index":5.65,"wind_gusts":43.9,"aqi":189,"pm10":329.7,"pm2_5":81.0,"mosquito_risk":4,"arthritis_risk":5,"migraine_risk":3,"frizz_risk":0,"updated_at":"2026-03-03T11:22:39.837211+05:30"},{"city":"Agra","state":"Uttar Pradesh","latitude":27.1767,"longitude":78.0081,"temp":29.3,"humidity":37,"rain":0.0,"pressure":994.2,"uv_index":6.15,"wind_gusts":31.0,"aqi":436,"pm10":467.5,"pm2_5":80.1,"mosquito_risk":4,"arthritis_risk":5,"migraine_risk":7,"frizz_risk":0,"updated_at":"2026-03-03T11:22:39.837218+05:30"},{"city":"Varanasi","state":"Uttar Pradesh","latitude":25.3176,"longitude":82.9739,"temp":27.7,"humidity":53,"rain":0.0,"pressure":1003.7,"uv_index":6.95,"wind_gusts":25.6,"aqi":96,"pm10":192.3,"pm2_5":51.6,"mosquito_risk":4,"arthritis_risk":5,"migraine_risk":4,"frizz_risk":1,"updated_at":"2026-03-03T11:22:39.837229+05:30"},{"city":"Prayagraj","state":"Uttar Pradesh","latitude":25.4358,"longitude":81.8463,"temp":28.4,"humidity":51,"rain":0.0,"pressure":1002.3,"uv_index":6.8,"wind_gusts":25.6,"aqi":115,"pm10":195.1,"pm2_5":57.2,"mosquito_risk":4,"arthritis_risk":5,"migraine_risk":4,"frizz_risk":1,"updated_at":"2026-03-03T11:22:39.837236+05:30"},{"city":"Gorakhpur","state":"Uttar Pradesh","latitude":26.7606,"longitude":83.3732,"temp":25.3,"humidity":64,"rain":0.0,"pressure":1003.0,"uv_index":6.7,"wind_gusts":19.4,"aqi":144,"pm10":204.0,"pm2_5":69.8,"mosquito_risk":7,"arthritis_risk":5,"migraine_risk":4,"frizz_risk":1,"updated_at":"2026-03-03T11:22:39.837243+05:30"},{"city":"Bareilly","state":"Uttar Pradesh","latitude":28.367,"longitude":79.4304,"temp":24.9,"humidity":57,"rain":0.0,"pressure":991.7,"uv_index":6.0,"wind_gusts":32.0,"aqi":124,"pm10":86.8,"pm2_5":52.3,"mosquito_risk":0,"arthritis_risk":5,"migraine_risk":3,"frizz_risk":0,"updated_at":"2026-03-03T11:22:39.837250+05:30"},{"city":"Aligarh","state":"Uttar Pradesh","latitude":27.8974,"longitude":78.088,"temp":27.6,"humidity":46,"rain":0.0,"pressure":991.4,"uv_index":5.95,"wind_gusts":37.1,"aqi":566,"pm10":726.4,"pm2_5":126.2,"mosquito_risk":4,"arthritis_risk":5,"migraine_risk":3,"frizz_risk":0,"updated_at":"2026-03-03T11:22:39.837256+05:30"},{"city":"Moradabad","state":"Uttar Pradesh","latitude":28.8386,"longitude":78.7733,"temp":25.0,"humidity":54,"rain":0.0,"pressure":988.3,"uv_index":5.8,"wind_gusts":31.7,"aqi":131,"pm10":99.0,"pm2_5":50.8,"mosquito_risk":4,"arthritis_risk":5,"migraine_risk":3,"frizz_risk":0,"updated_at":"2026-03-03T11:22:39.837265+05:30"},{"city":"Saharanpur","state":"Uttar Pradesh","latitude":29.9637,"longitude":77.546,"temp":25.4,"humidity":55,"rain":0.0,"pressure":979.6,"uv_index":5.45,"wind_gusts":47.9,"aqi":117,"pm10":109.9,"pm2_5":51.9,"mosquito_risk":4,"arthritis_risk":5,"migraine_risk":3,"frizz_risk":0,"updated_at":"2026-03-03T11:22:39.837272+05:30"},{"city":"Jhansi","state":"Uttar Pradesh","latitude":25.4484,"longitude":78.5685,"temp":30.7,"humidity":37,"rain":0.0,"pressure":984.5,"uv_index":6.75,"wind_gusts":27.0,"aqi":81,"pm10":166.7,"pm2_5":46.0,"mosquito_risk":0,"arthritis_risk":5,"migraine_risk":7,"frizz_risk":0,"updated_at":"2026-03-03T11:22:43.184665+05:30"},{"city":"Surat","state":"Gujarat","latitude":21.1702,"longitude":72.8311,"temp":31.5,"humidity":36,"rain":0.0,"pressure":1011.9,"uv_index":7.05,"wind_gusts":26.3,"aqi":161,"pm10":95.0,"pm2_5":88.9,"mosquito_risk":0,"arthritis_risk":0,"migraine_risk":4,"frizz_risk":0,"updated_at":"2026-03-03T11:22:43.184694+05:30"},{"city":"Vadodara","state":"Gujarat","latitude":22.3072,"longitude":73.1812,"temp":32.8,"humidity":35,"rain":0.0,"pressure":1010.1,"uv_index":7.15,"wind_gusts":13.3,"aqi":155,"pm10":52.2,"pm2_5":46.3,"mosquito_risk":0,"arthritis_risk":0,"migraine_risk":4,"frizz_risk":0,"updated_at":"2026-03-03T11:22:43.184704+05:30"},{"city":"Rajkot","state":"Gujarat","latitude":22.3039,"longitude":70.8022,"temp":30.7,"humidity":43,"rain":0.0,"pressure":1000.2,"uv_index":7.0,"wind_gusts":18.0,"aqi":65,"pm10":26.4,"pm2_5":16.1,"mosquito_risk":0,"arthritis_risk":5,"migraine_risk":4,"frizz_risk":1,"updated_at":"2026-03-03T11:22:43.184712+05:30"},{"city":"Thane","state":"Maharashtra","latitude":19.2183,"longitude":72.9781,"temp":32.4,"humidity":39,"rain":0.0,"pressure":1012.1,"uv_index":7.35,"wind_gusts":39.6,"aqi":93,"pm10":48.3,"pm2_5":41.6,"mosquito_risk":0,"arthritis_risk":0,"migraine_risk":4,"frizz_risk":1,"updated_at":"2026-03-03T11:22:43.184719+05:30"},{"city":"Nagpur","state":"Maharashtra","latitude":21.1458,"longitude":79.0882,"temp":31.9,"humidity":30,"rain":0.0,"pressure":979.4,"uv_index":7.75,"wind_gusts":18.0,"aqi":69,"pm10":27.7,"pm2_5":19.6,"mosquito_risk":0,"arthritis_risk":5,"migraine_risk":7,"frizz_risk":0,"updated_at":"2026-03-03T11:22:43.184727+05:30"},{"city":"Nashik","state":"Maharashtra","latitude":19.9975,"longitude":73.7898,"temp":31.5,"humidity":27,"rain":0.0,"pressure":950.9,"uv_index":7.55,"wind_gusts":32.0,"aqi":86,"pm10":26.2,"pm2_5":24.9,"mosquito_risk":0,"arthritis_risk":5,"migraine_risk":7,"frizz_risk":0,"updated_at":"2026-03-03T11:22:43.184735+05:30"},{"city":"Aurangabad","state":"Maharashtra","latitude":19.8762,"longitude":75.3433,"temp":32.0,"humidity":28,"rain":0.0,"pressure":949.6,"uv_index":8.05,"wind_gusts":25.2,"aqi":75,"pm10":19.8,"pm2_5":18.3,"mosquito_risk":0,"arthritis_risk":5,"migraine_risk":7,"frizz_risk":0,"updated_at":"2026-03-03T11:22:43.184742+05:30"},{"city":"Solapur","state":"Maharashtra","latitude":17.6599,"longitude":75.9064,"temp":31.2,"humidity":41,"rain":0.0,"pressure":962.3,"uv_index":8.3,"wind_gusts":18.0,"aqi":121,"pm10":44.9,"pm2_5":44.2,"mosquito_risk":0,"arthritis_risk":5,"migraine_risk":7,"frizz_risk":1,"updated_at":"2026-03-03T11:22:43.184750+05:30"},{"city":"Kolhapur","state":"Maharashtra","latitude":16.705,"longitude":74.2433,"temp":31.2,"humidity":37,"rain":0.0,"pressure":952.2,"uv_index":8.4,"wind_gusts":41.4,"aqi":122,"pm10":44.8,"pm2_5":44.1,"mosquito_risk":0,"arthritis_risk":5,"migraine_risk":7,"frizz_risk":0,"updated_at":"2026-03-03T11:22:43.184758+05:30"},{"city":"Goa","state":"Goa","latitude":15.2993,"longitude":74.124,"temp":31.0,"humidity":58,"rain":0.0,"pressure":1001.2,"uv_index":8.45,"wind_gusts":35.6,"aqi":73,"pm10":27.4,"pm2_5":22.8,"mosquito_risk":0,"arthritis_risk":5,"migraine_risk":4,"frizz_risk":1,"updated_at":"2026-03-03T11:22:43.184765+05:30"},{"city":"Jodhpur","state":"Rajasthan","latitude":26.2389,"longitude":73.0243,"temp":31.2,"humidity":29,"rain":0.0,"pressure":990.4,"uv_index":6.85,"wind_gusts":15.5,"aqi":75,"pm10":44.1,"pm2_5":21.0,"mosquito_risk":0,"arthritis_risk":5,"migraine_risk":7,"frizz_risk":0,"updated_at":"2026-03-03T11:22:43.184772+05:30"},{"city":"Udaipur","state":"Rajasthan","latitude":24.5854,"longitude":73.7125,"temp":30.7,"humidity":25,"rain":0.0,"pressure":953.2,"uv_index":7.45,"wind_gusts":18.7,"aqi":66,"pm10":37.5,"pm2_5":16.9,"mosquito_risk":0,"arthritis_risk":5,"migraine_risk":7,"frizz_risk":0,"updated_at":"2026-03-03T11:22:43.184779+05:30"},{"city":"Kota","state":"Rajasthan","latitude":25.2138,"longitude":75.8648,"temp":30.8,"humidity":38,"rain":0.0,"pressure":985.5,"uv_index":6.85,"wind_gusts":21.2,"aqi":87,"pm10":56.1,"pm2_5":28.2,"mosquito_risk":0,"arthritis_risk":5,"migraine_risk":7,"frizz_risk":0,"updated_at":"2026-03-03T11:22:43.184786+05:30"},{"city":"Bikaner","state":"Rajasthan","latitude":28.0229,"longitude":73.3119,"temp":29.2,"humidity":37,"rain":0.0,"pressure":989.2,"uv_index":6.55,"wind_gusts":20.9,"aqi":69,"pm10":56.3,"pm2_5":27.0,"mosquito_risk":4,"arthritis_risk":5,"migraine_risk":7,"frizz_risk":0,"updated_at":"2026-03-03T11:22:43.184794+05:30"},{"city":"Ajmer","state":"Rajasthan","latitude":26.4499,"longitude":74.6399,"temp":30.8,"humidity":27,"rain":0.0,"pressure":961.5,"uv_index":6.8,"wind_gusts":25.6,"aqi":74,"pm10":87.8,"pm2_5":30.0,"mosquito_risk":0,"arthritis_risk":5,"migraine_risk":7,"frizz_risk":0,"updated_at":"2026-03-03T11:22:43.184801+05:30"},{"city":"Gwalior","state":"Madhya Pradesh","latitude":26.2183,"longitude":78.1828,"temp":29.9,"humidity":39,"rain":0.0,"pressure":989.7,"uv_index":6.45,"wind_gusts":29.5,"aqi":127,"pm10":81.3,"pm2_5":36.9,"mosquito_risk":4,"arthritis_risk":5,"migraine_risk":7,"frizz_risk":0,"updated_at":"2026-03-03T11:22:43.184808+05:30"},{"city":"Indore","state":"Madhya Pradesh","latitude":22.7196,"longitude":75.8577,"temp":30.4,"humidity":32,"rain":0.0,"pressure":954.3,"uv_index":7.45,"wind_gusts":16.6,"aqi":91,"pm10":33.4,"pm2_5":25.4,"mosquito_risk":0,"arthritis_risk":5,"migraine_risk":7,"frizz_risk":0,"updated_at":"2026-03-03T11:22:43.184814+05:30"},{"city":"Bhopal","state":"Madhya Pradesh","latitude":23.2599,"longitude":77.4126,"temp":31.2,"humidity":31,"rain":0.0,"pressure":960.0,"uv_index":7.3,"wind_gusts":23.8,"aqi":80,"pm10":32.7,"pm2_5":19.2,"mosquito_risk":0,"arthritis_risk":5,"migraine_risk":7,"frizz_risk":0,"updated_at":"2026-03-03T11:22:43.184821+05:30"},{"city":"Jabalpur","state":"Madhya Pradesh","latitude":23.1815,"longitude":79.9864,"temp":30.0,"humidity":37,"rain":0.0,"pressure":967.8,"uv_index":7.4,"wind_gusts":21.6,"aqi":71,"pm10":30.7,"pm2_5":19.2,"mosquito_risk":4,"arthritis_risk":5,"migraine_risk":7,"frizz_risk":0,"updated_at":"2026-03-03T11:22:43.184828+05:30"},{"city":"Ujjain","state":"Madhya Pradesh","latitude":23.1765,"longitude":75.7885,"temp":29.9,"humidity":40,"rain":0.0,"pressure":960.3,"uv_index":7.3,"wind_gusts":15.5,"aqi":105,"pm10":32.1,"pm2_5":27.1,"mosquito_risk":4,"arthritis_risk":5,"migraine_risk":7,"frizz_risk":0,"updated_at":"2026-03-03T11:22:43.184836+05:30"},{"city":"Visakhapatnam","state":"Andhra Pradesh","latitude":17.6868,"longitude":83.2185,"temp":33.2,"humidity":40,"rain":0.0,"pressure":1007.9,"uv_index":8.35,"wind_gusts":36.0,"aqi":131,"pm10":63.6,"pm2_5":61.2,"mosquito_risk":0,"arthritis_risk":5,"migraine_risk":4,"frizz_risk":1,"updated_at":"2026-03-03T11:22:43.184844+05:30"},{"city":"Vijayawada","state":"Andhra Pradesh","latitude":16.5062,"longitude":80.648,"temp":31.3,"humidity":47,"rain":0.0,"pressure":1007.4,"uv_index":8.4,"wind_gusts":25.9,"aqi":140,"pm10":48.7,"pm2_5":45.5,"mosquito_risk":0,"arthritis_risk":5,"migraine_risk":4,"frizz_risk":1,"updated_at":"2026-03-03T11:22:43.184851+05:30"},{"city":"Guntur","state":"Andhra Pradesh","latitude":16.3067,"longitude":80.4365,"temp":32.4,"humidity":39,"rain":0.0,"pressure":1008.6,"uv_index":8.4,"wind_gusts":28.4,"aqi":133,"pm10":45.6,"pm2_5":43.0,"mosquito_risk":0,"arthritis_risk":0,"migraine_risk":4,"frizz_risk":1,"updated_at":"2026-03-03T11:22:43.184859+05:30"},{"city":"Nellore","state":"Andhra Pradesh","latitude":14.4426,"longitude":79.9865,"temp":33.2,"humidity":38,"rain":0.0,"pressure":1010.4,"uv_index":8.65,"wind_gusts":29.2,"aqi":117,"pm10":42.8,"pm2_5":39.3,"mosquito_risk":0,"arthritis_risk":0,"migraine_risk":4,"frizz_risk":1,"updated_at":"2026-03-03T11:22:43.184866+05:30"},{"city":"Kurnool","state":"Andhra Pradesh","latitude":15.8281,"longitude":78.0373,"temp":34.0,"humidity":31,"rain":0.0,"pressure":981.4,"uv_index":8.45,"wind_gusts":28.8,"aqi":124,"pm10":47.6,"pm2_5":46.2,"mosquito_risk":0,"arthritis_risk":5,"migraine_risk":7,"frizz_risk":0,"updated_at":"2026-03-03T11:22:43.184893+05:30"},{"city":"Kakinada","state":"Andhra Pradesh","latitude":16.9891,"longitude":82.2475,"temp":33.5,"humidity":37,"rain":0.0,"pressure":1011.7,"uv_index":8.35,"wind_gusts":35.3,"aqi":128,"pm10":49.9,"pm2_5":46.7,"mosquito_risk":0,"arthritis_risk":0,"migraine_risk":4,"frizz_risk":1,"updated_at":"2026-03-03T11:22:43.184901+05:30"},{"city":"Tirupati","state":"Andhra Pradesh","latitude":13.6288,"longitude":79.4192,"temp":33.1,"humidity":24,"rain":0.0,"pressure":995.8,"uv_index":8.75,"wind_gusts":36.0,"aqi":152,"pm10":41.1,"pm2_5":38.3,"mosquito_risk":0,"arthritis_risk":5,"migraine_risk":7,"frizz_risk":0,"updated_at":"2026-03-03T11:22:43.184908+05:30"},{"city":"Warangal","state":"Telangana","latitude":17.9689,"longitude":79.5941,"temp":31.7,"humidity":48,"rain":0.0,"pressure":983.8,"uv_index":8.2,"wind_gusts":16.2,"aqi":152,"pm10":41.2,"pm2_5":40.3,"mosquito_risk":0,"arthritis_risk":5,"migraine_risk":7,"frizz_risk":1,"updated_at":"2026-03-03T11:22:43.184915+05:30"},{"city":"Nizamabad","state":"Telangana","latitude":18.6725,"longitude":78.0941,"temp":32.2,"humidity":34,"rain":0.0,"pressure":970.2,"uv_index":8.1,"wind_gusts":26.3,"aqi":91,"pm10":27.6,"pm2_5":24.3,"mosquito_risk":0,"arthritis_risk":5,"migraine_risk":7,"frizz_risk":0,"updated_at":"2026-03-03T11:22:43.184922+05:30"},{"city":"Mysore","state":"Karnataka","latitude":12.2958,"longitude":76.6396,"temp":29.7,"humidity":38,"rain":0.0,"pressure":932.2,"uv_index":9.15,"wind_gusts":33.8,"aqi":138,"pm10":42.0,"pm2_5":41.0,"mosquito_risk":4,"arthritis_risk":5,"migraine_risk":7,"frizz_risk":0,"updated_at":"2026-03-03T11:22:43.184929+05:30"},{"city":"Mangalore","state":"Karnataka","latitude":12.9141,"longitude":74.856,"temp":27.8,"humidity":83,"rain":0.0,"pressure":1009.9,"uv_index":8.75,"wind_gusts":28.8,"aqi":60,"pm10":22.9,"pm2_5":18.0,"mosquito_risk":7,"arthritis_risk":0,"migraine_risk":4,"frizz_risk":1,"updated_at":"2026-03-03T11:22:43.184937+05:30"},{"city":"Hubli-Dharwad","state":"Karnataka","latitude":15.3647,"longitude":75.124,"temp":31.4,"humidity":40,"rain":0.0,"pressure":944.9,"uv_index":8.65,"wind_gusts":29.2,"aqi":89,"pm10":37.3,"pm2_5":36.4,"mosquito_risk":0,"arthritis_risk":5,"migraine_risk":7,"frizz_risk":1,"updated_at":"2026-03-03T11:22:43.184944+05:30"},{"city":"Belgaum","state":"Karnataka","latitude":15.8497,"longitude":74.4977,"temp":31.0,"humidity":37,"rain":0.0,"pressure":929.9,"uv_index":8.65,"wind_gusts":33.5,"aqi":82,"pm10":35.2,"pm2_5":34.0,"mosquito_risk":0,"arthritis_risk":5,"migraine_risk":7,"frizz_risk":0,"updated_at":"2026-03-03T11:22:46.535768+05:30"},{"city":"Coimbatore","state":"Tamil Nadu","latitude":11.0168,"longitude":76.9558,"temp":30.7,"humidity":40,"rain":0.0,"pressure":965.8,"uv_index":9.15,"wind_gusts":42.1,"aqi":130,"pm10":38.9,"pm2_5":37.8,"mosquito_risk":0,"arthritis_risk":5,"migraine_risk":7,"frizz_risk":0,"updated_at":"2026-03-03T11:22:46.535798+05:30"},{"city":"Madurai","state":"Tamil Nadu","latitude":9.9252,"longitude":78.1198,"temp":30.8,"humidity":43,"rain":0.0,"pressure":997.4,"uv_index":9.1,"wind_gusts":32.4,"aqi":118,"pm10":38.8,"pm2_5":35.4,"mosquito_risk":0,"arthritis_risk":5,"migraine_risk":7,"frizz_risk":1,"updated_at":"2026-03-03T11:22:46.535807+05:30"},{"city":"Trichy","state":"Tamil Nadu","latitude":10.7905,"longitude":78.7047,"temp":30.7,"humidity":48,"rain":0.0,"pressure":1004.2,"uv_index":9.0,"wind_gusts":29.9,"aqi":121,"pm10":41.8,"pm2_5":37.7,"mosquito_risk":0,"arthritis_risk":5,"migraine_risk":4,"frizz_risk":1,"updated_at":"2026-03-03T11:22:46.535815+05:30"},{"city":"Salem","state":"Tamil Nadu","latitude":11.6643,"longitude":78.146,"temp":31.7,"humidity":45,"rain":0.0,"pressure":981.3,"uv_index":9.05,"wind_gusts":38.5,"aqi":138,"pm10":51.2,"pm2_5":49.5,"mosquito_risk":0,"arthritis_risk":5,"migraine_risk":7,"frizz_risk":1,"updated_at":"2026-03-03T11:22:46.535823+05:30"},{"city":"Tirunelveli","state":"Tamil Nadu","latitude":8.7139,"longitude":77.7567,"temp":31.7,"humidity":40,"rain":0.0,"pressure":1007.5,"uv_index":9.1,"wind_gusts":40.0,"aqi":111,"pm10":32.0,"pm2_5":29.7,"mosquito_risk":0,"arthritis_risk":5,"migraine_risk":4,"frizz_risk":1,"updated_at":"2026-03-03T11:22:46.535830+05:30"},{"city":"Vellore","state":"Tamil Nadu","latitude":12.9165,"longitude":79.1325,"temp":32.6,"humidity":24,"rain":0.0,"pressure":989.0,"uv_index":8.85,"wind_gusts":38.2,"aqi":151,"pm10":42.1,"pm2_5":39.3,"mosquito_risk":0,"arthritis_risk":5,"migraine_risk":7,"frizz_risk":0,"updated_at":"2026-03-03T11:22:46.535837+05:30"},{"city":"Erode","state":"Tamil Nadu","latitude":11.341,"longitude":77.7172,"temp":31.8,"humidity":46,"rain":0.0,"pressure":993.0,"uv_index":9.05,"wind_gusts":33.5,"aqi":118,"pm10":46.2,"pm2_5":44.1,"mosquito_risk":0,"arthritis_risk":5,"migraine_risk":7,"frizz_risk":1,"updated_at":"2026-03-03T11:22:46.535844+05:30"},{"city":"Kochi","state":"Kerala","latitude":9.9312,"longitude":76.2673,"temp":28.0,"humidity":77,"rain":0.0,"pressure":1011.8,"uv_index":8.95,"wind_gusts":32.8,"aqi":107,"pm10":34.2,"pm2_5":31.9,"mosquito_risk":7,"arthritis_risk":0,"migraine_risk":4,"frizz_risk":1,"updated_at":"2026-03-03T11:22:46.535851+05:30"},{"city":"Thiruvananthapuram","state":"Kerala","latitude":8.5241,"longitude":76.9366,"temp":27.4,"humidity":80,"rain":0.0,"pressure":1011.4,"uv_index":9.0,"wind_gusts":27.4,"aqi":82,"pm10":35.4,"pm2_5":33.2,"mosquito_risk":7,"arthritis_risk":0,"migraine_risk":4,"frizz_risk":1,"updated_at":"2026-03-03T11:22:46.535858+05:30"},{"city":"Kozhikode","state":"Kerala","latitude":11.2588,"longitude":75.7804,"temp":29.5,"humidity":65,"rain":0.0,"pressure":1011.1,"uv_index":8.85,"wind_gusts":34.2,"aqi":64,"pm10":25.2,"pm2_5":22.6,"mosquito_risk":7,"arthritis_risk":0,"migraine_risk":4,"frizz_risk":1,"updated_at":"2026-03-03T11:22:46.535864+05:30"},{"city":"Thrissur","state":"Kerala","latitude":10.5276,"longitude":76.2144,"temp":33.0,"humidity":50,"rain":0.0,"pressure":1009.9,"uv_index":8.95,"wind_gusts":42.5,"aqi":106,"pm10":37.4,"pm2_5":35.6,"mosquito_risk":0,"arthritis_risk":0,"migraine_risk":4,"frizz_risk":1,"updated_at":"2026-03-03T11:22:46.535888+05:30"},{"city":"Kannur","state":"Kerala","latitude":11.8745,"longitude":75.3704,"temp":31.0,"humidity":57,"rain":0.0,"pressure":1010.3,"uv_index":8.85,"wind_gusts":36.4,"aqi":61,"pm10":21.0,"pm2_5":17.7,"mosquito_risk":0,"arthritis_risk":0,"migraine_risk":4,"frizz_risk":1,"updated_at":"2026-03-03T11:22:46.535897+05:30"},{"city":"Patna","state":"Bihar","latitude":25.5941,"longitude":85.1376,"temp":27.6,"humidity":49,"rain":0.0,"pressure":1006.4,"uv_index":7.1,"wind_gusts":19.4,"aqi":135,"pm10":154.1,"pm2_5":61.7,"mosquito_risk":4,"arthritis_risk":5,"migraine_risk":4,"frizz_risk":0,"updated_at":"2026-03-03T11:22:46.535904+05:30"},{"city":"Gaya","state":"Bihar","latitude":24.7914,"longitude":85.0002,"temp":29.0,"humidity":44,"rain":0.0,"pressure":999.5,"uv_index":7.2,"wind_gusts":25.9,"aqi":90,"pm10":146.2,"pm2_5":41.7,"mosquito_risk":4,"arthritis_risk":5,"migraine_risk":7,"frizz_risk":0,"updated_at":"2026-03-03T11:22:46.535911+05:30"},{"city":"Muzaffarpur","state":"Bihar","latitude":26.1209,"longitude":85.3647,"temp":27.1,"humidity":46,"rain":0.0,"pressure":1006.6,"uv_index":7.05,"wind_gusts":11.2,"aqi":152,"pm10":133.6,"pm2_5":68.9,"mosquito_risk":4,"arthritis_risk":5,"migraine_risk":4,"frizz_risk":0,"updated_at":"2026-03-03T11:22:46.535918+05:30"},{"city":"Bhagalpur","state":"Bihar","latitude":25.2425,"longitude":87.0117,"temp":27.0,"humidity":51,"rain":0.0,"pressure":1007.4,"uv_index":7.15,"wind_gusts":14.4,"aqi":119,"pm10":78.9,"pm2_5":52.7,"mosquito_risk":4,"arthritis_risk":5,"migraine_risk":4,"frizz_risk":0,"updated_at":"2026-03-03T11:22:46.535925+05:30"},{"city":"Ranchi","state":"Jharkhand","latitude":23.3441,"longitude":85.3096,"temp":28.1,"humidity":29,"rain":0.0,"pressure":943.2,"uv_index":7.9,"wind_gusts":44.3,"aqi":62,"pm10":98.5,"pm2_5":27.0,"mosquito_risk":4,"arthritis_risk":5,"migraine_risk":7,"frizz_risk":0,"updated_at":"2026-03-03T11:22:46.535931+05:30"},{"city":"Jamshedpur","state":"Jharkhand","latitude":22.8046,"longitude":86.2029,"temp":30.8,"humidity":26,"rain":0.0,"pressure":996.6,"uv_index":7.8,"wind_gusts":14.4,"aqi":92,"pm10":83.4,"pm2_5":31.2,"mosquito_risk":0,"arthritis_risk":5,"migraine_risk":7,"frizz_risk":0,"updated_at":"2026-03-03T11:22:46.535938+05:30"},{"city":"Dhanbad","state":"Jharkhand","latitude":23.7957,"longitude":86.4304,"temp":31.3,"humidity":23,"rain":0.0,"pressure":985.3,"uv_index":7.65,"wind_gusts":32.8,"aqi":97,"pm10":126.7,"pm2_5":39.8,"mosquito_risk":0,"arthritis_risk":5,"migraine_risk":7,"frizz_risk":0,"updated_at":"2026-03-03T11:22:46.535944+05:30"},{"city":"Bokaro","state":"Jharkhand","latitude":23.6693,"longitude":86.1511,"temp":31.0,"humidity":25,"rain":0.0,"pressure":989.4,"uv_index":7.65,"wind_gusts":36.4,"aqi":99,"pm10":136.4,"pm2_5":40.9,"mosquito_risk":0,"arthritis_risk":5,"migraine_risk":7,"frizz_risk":0,"updated_at":"2026-03-03T11:22:46.535951+05:30"},{"city":"Bhubaneswar","state":"Odisha","latitude":20.2961,"longitude":85.8245,"temp":33.9,"humidity":37,"rain":0.0,"pressure":1007.4,"uv_index":8.1,"wind_gusts":27.0,"aqi":155,"pm10":65.4,"pm2_5":50.8,"mosquito_risk":0,"arthritis_risk":5,"migraine_risk":4,"frizz_risk":1,"updated_at":"2026-03-03T11:22:46.535958+05:30"},{"city":"Cuttack","state":"Odisha","latitude":20.4625,"longitude":85.8828,"temp":34.4,"humidity":32,"rain":0.0,"pressure":1009.5,"uv_index":8.1,"wind_gusts":25.2,"aqi":155,"pm10":65.4,"pm2_5":50.8,"mosquito_risk":0,"arthritis_risk":0,"migraine_risk":4,"frizz_risk":0,"updated_at":"2026-03-03T11:22:46.535964+05:30"},{"city":"Rourkela","state":"Odisha","latitude":22.2604,"longitude":84.8536,"temp":31.9,"humidity":23,"rain":0.0,"pressure":990.9,"uv_index":7.7,"wind_gusts":25.9,"aqi":78,"pm10":73.1,"pm2_5":30.2,"mosquito_risk":0,"arthritis_risk":5,"migraine_risk":7,"frizz_risk":0,"updated_at":"2026-03-03T11:22:46.535971+05:30"},{"city":"Raipur","state":"Chhattisgarh","latitude":21.2514,"longitude":81.6296,"temp":32.0,"humidity":26,"rain":0.0,"pressure":980.8,"uv_index":7.8,"wind_gusts":14.4,"aqi":116,"pm10":47.3,"pm2_5":34.3,"mosquito_risk":0,"arthritis_risk":5,"migraine_risk":7,"frizz_risk":0,"updated_at":"2026-03-03T11:22:46.535978+05:30"},{"city":"Bhilai","state":"Chhattisgarh","latitude":21.1938,"longitude":81.3509,"temp":32.2,"humidity":27,"rain":0.0,"pressure":981.2,"uv_index":7.8,"wind_gusts":13.7,"aqi":113,"pm10":52.4,"pm2_5":40.5,"mosquito_risk":0,"arthritis_risk":5,"migraine_risk":7,"frizz_risk":0,"updated_at":"2026-03-03T11:22:46.535984+05:30"},{"city":"Guwahati","state":"Assam","latitude":26.1158,"longitude":91.7086,"temp":27.3,"humidity":59,"rain":0.0,"pressure":1007.3,"uv_index":7.1,"wind_gusts":22.0,"aqi":154,"pm10":92.4,"pm2_5":71.9,"mosquito_risk":4,"arthritis_risk":5,"migraine_risk":4,"frizz_risk":1,"updated_at":"2026-03-03T11:22:46.535991+05:30"},{"city":"Agartala","state":"Tripura","latitude":23.8315,"longitude":91.2868,"temp":28.1,"humidity":64,"rain":0.0,"pressure":1011.3,"uv_index":7.5,"wind_gusts":15.8,"aqi":179,"pm10":83.6,"pm2_5":81.0,"mosquito_risk":7,"arthritis_risk":0,"migraine_risk":4,"frizz_risk":1,"updated_at":"2026-03-03T11:22:46.535997+05:30"},{"city":"Shillong","state":"Meghalaya","latitude":25.5788,"longitude":91.8933,"temp":18.7,"humidity":32,"rain":0.0,"pressure":860.6,"uv_index":7.45,"wind_gusts":28.1,"aqi":130,"pm10":84.1,"pm2_5":59.8,"mosquito_risk":0,"arthritis_risk":5,"migraine_risk":7,"frizz_risk":0,"updated_at":"2026-03-03T11:22:46.536004+05:30"},{"city":"Imphal","state":"Manipur","latitude":24.817,"longitude":93.9368,"temp":21.1,"humidity":52,"rain":0.0,"pressure":927.3,"uv_index":7.65,"wind_gusts":28.8,"aqi":159,"pm10":82.2,"pm2_5":72.4,"mosquito_risk":0,"arthritis_risk":5,"migraine_risk":7,"frizz_risk":0,"updated_at":"2026-03-03T11:22:46.536011+05:30"},{"city":"Aizawl","state":"Mizoram","latitude":23.7271,"longitude":92.7176,"temp":23.8,"humidity":40,"rain":0.0,"pressure":897.4,"uv_index":7.65,"wind_gusts":32.8,"aqi":162,"pm10":61.5,"pm2_5":52.3,"mosquito_risk":0,"arthritis_risk":5,"migraine_risk":7,"frizz_risk":0,"updated_at":"2026-03-03T11:22:46.536017+05:30"},{"city":"Kohima","state":"Nagaland","latitude":25.6701,"longitude":94.1077,"temp":16.4,"humidity":60,"rain":0.0,"pressure":858.5,"uv_index":6.65,"wind_gusts":45.0,"aqi":151,"pm10":83.1,"pm2_5":63.3,"mosquito_risk":0,"arthritis_risk":5,"migraine_risk":7,"frizz_risk":0,"updated_at":"2026-03-03T11:22:46.536024+05:30"},{"city":"Gangtok","state":"Sikkim","latitude":27.3314,"longitude":88.6138,"temp":16.0,"humidity":68,"rain":0.0,"pressure":841.1,"uv_index":7.4,"wind_gusts":18.4,"aqi":149,"pm10":54.8,"pm2_5":39.8,"mosquito_risk":3,"arthritis_risk":5,"migraine_risk":7,"frizz_risk":0,"updated_at":"2026-03-03T11:22:46.536030+05:30"},{"city":"Siliguri","state":"West Bengal","latitude":26.7271,"longitude":88.3953,"temp":22.4,"humidity":63,"rain":0.0,"pressure":1000.0,"uv_index":7.1,"wind_gusts":20.2,"aqi":165,"pm10":93.6,"pm2_5":63.1,"mosquito_risk":3,"arthritis_risk":5,"migraine_risk":4,"frizz_risk":0,"updated_at":"2026-03-03T11:22:49.883840+05:30"},{"city":"Durgapur","state":"West Bengal","latitude":23.5204,"longitude":87.3119,"temp":32.8,"humidity":20,"rain":0.0,"pressure":1000.4,"uv_index":7.65,"wind_gusts":28.4,"aqi":83,"pm10":73.3,"pm2_5":43.1,"mosquito_risk":0,"arthritis_risk":5,"migraine_risk":4,"frizz_risk":0,"updated_at":"2026-03-03T11:22:49.883912+05:30"},{"city":"Asansol","state":"West Bengal","latitude":23.6739,"longitude":86.9524,"temp":32.4,"humidity":21,"rain":0.0,"pressure":999.1,"uv_index":7.65,"wind_gusts":23.8,"aqi":79,"pm10":97.1,"pm2_5":42.1,"mosquito_risk":0,"arthritis_risk":5,"migraine_risk":7,"frizz_risk":0,"updated_at":"2026-03-03T11:22:49.883928+05:30"},{"city":"Pondicherry","state":"Puducherry","latitude":11.9139,"longitude":79.8145,"temp":30.7,"humidity":56,"rain":0.0,"pressure":1012.9,"uv_index":8.85,"wind_gusts":25.9,"aqi":110,"pm10":45.5,"pm2_5":41.1,"mosquito_risk":0,"arthritis_risk":0,"migraine_risk":4,"frizz_risk":1,"updated_at":"2026-03-03T11:22:49.883938+05:30"},{"city":"Port Blair","state":"Andaman and Nicobar Islands","latitude":11.6234,"longitude":92.7265,"temp":27.1,"humidity":75,"rain":0.0,"pressure":1010.0,"uv_index":8.8,"wind_gusts":17.6,"aqi":84,"pm10":38.8,"pm2_5":27.7,"mosquito_risk":7,"arthritis_risk":0,"migraine_risk":4,"frizz_risk":1,"updated_at":"2026-03-03T11:22:49.883948+05:30"},{"city":"Haridwar","state":"Uttarakhand","latitude":29.9457,"longitude":78.1642,"temp":24.3,"humidity":59,"rain":0.0,"pressure":978.2,"uv_index":5.55,"wind_gusts":23.0,"aqi":97,"pm10":38.4,"pm2_5":30.5,"mosquito_risk":0,"arthritis_risk":5,"migraine_risk":3,"frizz_risk":0,"updated_at":"2026-03-03T11:22:49.883956+05:30"},{"city":"Rishikesh","state":"Uttarakhand","latitude":30.0869,"longitude":78.2676,"temp":25.7,"humidity":52,"rain":0.0,"pressure":970.5,"uv_index":5.6,"wind_gusts":23.8,"aqi":75,"pm10":19.3,"pm2_5":18.1,"mosquito_risk":4,"arthritis_risk":5,"migraine_risk":3,"frizz_risk":0,"updated_at":"2026-03-03T11:22:49.883965+05:30"},{"city":"Nainital","state":"Uttarakhand","latitude":29.3919,"longitude":79.4542,"temp":18.8,"humidity":62,"rain":0.0,"pressure":808.7,"uv_index":6.45,"wind_gusts":51.5,"aqi":81,"pm10":39.2,"pm2_5":28.3,"mosquito_risk":3,"arthritis_risk":5,"migraine_risk":7,"frizz_risk":0,"updated_at":"2026-03-03T11:22:49.883973+05:30"},{"city":"Mussoorie","state":"Uttarakhand","latitude":30.4599,"longitude":78.0664,"temp":19.2,"humidity":50,"rain":0.0,"pressure":805.7,"uv_index":5.95,"wind_gusts":40.0,"aqi":78,"pm10":22.2,"pm2_5":20.3,"mosquito_risk":0,"arthritis_risk":5,"migraine_risk":3,"frizz_risk":0,"updated_at":"2026-03-03T11:22:49.883981+05:30"},{"city":"Dharamshala","state":"Himachal Pradesh","latitude":32.219,"longitude":76.3234,"temp":22.3,"humidity":37,"rain":0.0,"pressure":873.0,"uv_index":6.2,"wind_gusts":23.0,"aqi":52,"pm10":8.7,"pm2_5":3.9,"mosquito_risk":0,"arthritis_risk":5,"migraine_risk":7,"frizz_risk":0,"updated_at":"2026-03-03T11:22:49.883989+05:30"},{"city":"Dalhousie","state":"Himachal Pradesh","latitude":32.5387,"longitude":75.971,"temp":22.0,"humidity":19,"rain":0.0,"pressure":808.6,"uv_index":6.4,"wind_gusts":20.5,"aqi":92,"pm10":19.8,"pm2_5":13.9,"mosquito_risk":0,"arthritis_risk":5,"migraine_risk":7,"frizz_risk":1,"updated_at":"2026-03-03T11:22:49.883997+05:30"},{"city":"Patiala","state":"Punjab","latitude":30.3398,"longitude":76.3869,"temp":25.5,"humidity":47,"rain":0.0,"pressure":983.4,"uv_index":5.6,"wind_gusts":36.4,"aqi":181,"pm10":367.9,"pm2_5":73.3,"mosquito_risk":4,"arthritis_risk":5,"migraine_risk":3,"frizz_risk":0,"updated_at":"2026-03-03T11:22:49.884005+05:30"},{"city":"Bhatinda","state":"Punjab","latitude":30.211,"longitude":74.9455,"temp":26.6,"humidity":52,"rain":0.0,"pressure":990.0,"uv_index":6.25,"wind_gusts":30.2,"aqi":141,"pm10":70.1,"pm2_5":54.7,"mosquito_risk":4,"arthritis_risk":5,"migraine_risk":7,"frizz_risk":0,"updated_at":"2026-03-03T11:22:49.884013+05:30"},{"city":"Rohtak","state":"Haryana","latitude":28.8955,"longitude":76.6066,"temp":26.7,"humidity":49,"rain":0.0,"pressure":987.8,"uv_index":5.8,"wind_gusts":36.4,"aqi":380,"pm10":521.5,"pm2_5":96.9,"mosquito_risk":4,"arthritis_risk":5,"migraine_risk":3,"frizz_risk":0,"updated_at":"2026-03-03T11:22:49.884021+05:30"},{"city":"Panipat","state":"Haryana","latitude":29.3909,"longitude":76.9635,"temp":26.2,"humidity":50,"rain":0.0,"pressure":985.7,"uv_index":5.6,"wind_gusts":40.7,"aqi":892,"pm10":1069.2,"pm2_5":150.9,"mosquito_risk":4,"arthritis_risk":5,"migraine_risk":3,"frizz_risk":0,"updated_at":"2026-03-03T11:22:49.884029+05:30"},{"city":"Mathura","state":"Uttar Pradesh","latitude":27.4924,"longitude":77.6737,"temp":28.9,"humidity":39,"rain":0.0,"pressure":993.1,"uv_index":6.1,"wind_gusts":30.6,"aqi":480,"pm10":525.3,"pm2_5":83.4,"mosquito_risk":4,"arthritis_risk":5,"migraine_risk":7,"frizz_risk":0,"updated_at":"2026-03-03T11:22:49.884037+05:30"},{"city":"Vrindavan","state":"Uttar Pradesh","latitude":27.5823,"longitude":77.7027,"temp":28.3,"humidity":42,"rain":0.0,"pressure":993.4,"uv_index":6.05,"wind_gusts":33.8,"aqi":480,"pm10":525.3,"pm2_5":83.4,"mosquito_risk":4,"arthritis_risk":5,"migraine_risk":7,"frizz_risk":0,"updated_at":"2026-03-03T11:22:49.884044+05:30"},{"city":"Ayodhya","state":"Uttar Pradesh","latitude":26.7922,"longitude":82.1998,"temp":26.3,"humidity":53,"rain":0.0,"pressure":1001.0,"uv_index":6.45,"wind_gusts":28.8,"aqi":142,"pm10":163.9,"pm2_5":62.9,"mosquito_risk":4,"arthritis_risk":5,"migraine_risk":4,"frizz_risk":0,"updated_at":"2026-03-03T11:22:49.884051+05:30"},{"city":"Ratlam","state":"Madhya Pradesh","latitude":23.3315,"longitude":75.0367,"temp":30.1,"humidity":40,"rain":0.0,"pressure":960.9,"uv_index":7.3,"wind_gusts":12.2,"aqi":91,"pm10":30.0,"pm2_5":23.4,"mosquito_risk":0,"arthritis_risk":5,"migraine_risk":7,"frizz_risk":0,"updated_at":"2026-03-03T11:22:49.884057+05:30"},{"city":"Sagar","state":"Madhya Pradesh","latitude":23.8388,"longitude":78.7378,"temp":30.7,"humidity":32,"rain":0.0,"pressure":956.5,"uv_index":7.25,"wind_gusts":27.4,"aqi":63,"pm10":35.3,"pm2_5":17.4,"mosquito_risk":0,"arthritis_risk":5,"migraine_risk":7,"frizz_risk":0,"updated_at":"2026-03-03T11:22:49.884063+05:30"},{"city":"Satna","state":"Madhya Pradesh","latitude":24.6005,"longitude":80.8322,"temp":30.8,"humidity":34,"rain":0.0,"pressure":977.6,"uv_index":7.2,"wind_gusts":33.1,"aqi":69,"pm10":131.3,"pm2_5":34.7,"mosquito_risk":0,"arthritis_risk":5,"migraine_risk":7,"frizz_risk":0,"updated_at":"2026-03-03T11:22:49.884070+05:30"},{"city":"Akola","state":"Maharashtra","latitude":20.7002,"longitude":77.0082,"temp":32.6,"humidity":32,"rain":0.0,"pressure":981.1,"uv_index":7.8,"wind_gusts":20.2,"aqi":77,"pm10":29.3,"pm2_5":22.5,"mosquito_risk":0,"arthritis_risk":5,"migraine_risk":7,"frizz_risk":0,"updated_at":"2026-03-03T11:22:49.884077+05:30"},{"city":"Amravati","state":"Maharashtra","latitude":20.9374,"longitude":77.7796,"temp":33.5,"humidity":27,"rain":0.0,"pressure":973.3,"uv_index":7.75,"wind_gusts":16.6,"aqi":75,"pm10":28.2,"pm2_5":20.6,"mosquito_risk":0,"arthritis_risk":5,"migraine_risk":7,"frizz_risk":0,"updated_at":"2026-03-03T11:22:49.884084+05:30"},{"city":"Latur","state":"Maharashtra","latitude":18.4088,"longitude":76.5604,"temp":31.1,"humidity":31,"rain":0.0,"pressure":945.3,"uv_index":8.2,"wind_gusts":31.0,"aqi":84,"pm10":23.0,"pm2_5":22.4,"mosquito_risk":0,"arthritis_risk":5,"migraine_risk":7,"frizz_risk":0,"updated_at":"2026-03-03T11:22:49.884090+05:30"},{"city":"Nanded","state":"Maharashtra","latitude":19.1383,"longitude":77.3091,"temp":32.9,"humidity":33,"rain":0.0,"pressure":974.2,"uv_index":8.0,"wind_gusts":20.9,"aqi":96,"pm10":24.7,"pm2_5":20.8,"mosquito_risk":0,"arthritis_risk":5,"migraine_risk":7,"frizz_risk":0,"updated_at":"2026-03-03T11:22:49.884096+05:30"},{"city":"Gulbarga","state":"Karnataka","latitude":17.3297,"longitude":76.8343,"temp":33.0,"humidity":35,"rain":0.0,"pressure":963.7,"uv_index":8.3,"wind_gusts":18.7,"aqi":136,"pm10":47.3,"pm2_5":46.3,"mosquito_risk":0,"arthritis_risk":5,"migraine_risk":7,"frizz_risk":0,"updated_at":"2026-03-03T11:22:49.884102+05:30"},{"city":"Bidar","state":"Karnataka","latitude":17.9104,"longitude":77.5199,"temp":31.6,"humidity":37,"rain":0.0,"pressure":940.6,"uv_index":8.25,"wind_gusts":21.6,"aqi":109,"pm10":34.3,"pm2_5":33.4,"mosquito_risk":0,"arthritis_risk":5,"migraine_risk":7,"frizz_risk":0,"updated_at":"2026-03-03T11:22:49.884108+05:30"},{"city":"Hospet","state":"Karnataka","latitude":15.2689,"longitude":76.3909,"temp":30.6,"humidity":47,"rain":0.0,"pressure":960.2,"uv_index":8.6,"wind_gusts":26.3,"aqi":108,"pm10":38.5,"pm2_5":38.0,"mosquito_risk":0,"arthritis_risk":5,"migraine_risk":7,"frizz_risk":1,"updated_at":"2026-03-03T11:22:49.884114+05:30"},{"city":"Tirupur","state":"Tamil Nadu","latitude":11.1085,"longitude":77.3411,"temp":31.3,"humidity":38,"rain":0.0,"pressure":979.4,"uv_index":9.15,"wind_gusts":31.7,"aqi":132,"pm10":45.2,"pm2_5":43.8,"mosquito_risk":0,"arthritis_risk":5,"migraine_risk":7,"frizz_risk":0,"updated_at":"2026-03-03T11:22:49.884120+05:30"},{"city":"Alappuzha","state":"Kerala","latitude":9.4981,"longitude":76.3388,"temp":27.8,"humidity":78,"rain":0.0,"pressure":1012.1,"uv_index":8.95,"wind_gusts":28.4,"aqi":95,"pm10":36.3,"pm2_5":33.6,"mosquito_risk":7,"arthritis_risk":0,"migraine_risk":4,"frizz_risk":1,"updated_at":"2026-03-03T11:22:49.884127+05:30"},{"city":"Munnar","state":"Kerala","latitude":10.0889,"longitude":77.0595,"temp":27.8,"humidity":40,"rain":0.0,"pressure":861.4,"uv_index":9.45,"wind_gusts":20.2,"aqi":106,"pm10":34.3,"pm2_5":33.3,"mosquito_risk":4,"arthritis_risk":5,"migraine_risk":7,"frizz_risk":0,"updated_at":"2026-03-03T11:22:49.884133+05:30"},{"city":"Silchar","state":"Assam","latitude":24.8333,"longitude":92.7789,"temp":28.6,"humidity":54,"rain":0.0,"pressure":1010.2,"uv_index":7.4,"wind_gusts":20.2,"aqi":160,"pm10":102.2,"pm2_5":86.4,"mosquito_risk":4,"arthritis_risk":0,"migraine_risk":4,"frizz_risk":1,"updated_at":"2026-03-03T11:22:49.884140+05:30"},{"city":"Dibrugarh","state":"Assam","latitude":27.4728,"longitude":94.912,"temp":24.8,"humidity":64,"rain":0.0,"pressure":1001.9,"uv_index":7.1,"wind_gusts":11.2,"aqi":157,"pm10":84.5,"pm2_5":57.7,"mosquito_risk":3,"arthritis_risk":5,"migraine_risk":4,"frizz_risk":1,"updated_at":"2026-03-03T11:22:49.884146+05:30"}]