[{"city":"Delhi","state":"Delhi","latitude":28.6139,"longitude":77.209,"temp":29.1,"humidity":43,"rain":0.0,"pressure":985.7,"uv_index":6.0,"wind_gusts":25.9,"aqi":166,"pm10":339.0,"pm2_5":60.3,"mosquito_risk":4,"arthritis_risk":5,"migraine_risk":3,"frizz_risk":0,"updated_at":"2026-03-08T19:12:35.683741+05:30"},{"city":"Mumbai","state":"Maharashtra","latitude":19.076,"longitude":72.8777,"temp":28.6,"humidity":68,"rain":0.0,"pressure":1007.7,"uv_index":7.5,"wind_gusts":25.6,"aqi":225,"pm10":55.2,"pm2_5":53.2,"mosquito_risk":7,"arthritis_risk":5,"migraine_risk":4,"frizz_risk":1,"updated_at":"2026-03-08T19:12:35.683791+05:30"},{"city":"Bangalore","state":"Karnataka","latitude":12.9716,"longitude":77.5946,"temp":28.7,"humidity":28,"rain":0.0,"pressure":912.0,"uv_index":9.25,"wind_gusts":28.4,"aqi":170,"pm10":39.6,"pm2_5":33.9,"mosquito_risk":4,"arthritis_risk":5,"migraine_risk":7,"frizz_risk":0,"updated_at":"2026-03-08T19:12:35.683807+05:30"},{"city":"Hyderabad","state":"Telangana","latitude":17.385,"longitude":78.4867,"temp":30.8,"humidity":38,"rain":0.0,"pressure":954.2,"uv_index":8.55,"wind_gusts":24.5,"aqi":155,"pm10":32.6,"pm2_5":25.7,"mosquito_risk":0,"arthritis_risk":5,"migraine_risk":7,"frizz_risk":0,"updated_at":"2026-03-08T19:12:35.683817+05:30"},{"city":"Chennai","state":"Tamil Nadu","latitude":13.0827,"longitude":80.2707,"temp":28.0,"humidity":70,"rain":0.0,"pressure":1008.5,"uv_index":8.95,"wind_gusts":32.4,"aqi":76,"pm10":30.3,"pm2_5":20.4,"mosquito_risk":7,"arthritis_risk":0,"migraine_risk":4,"frizz_risk":1,"updated_at":"2026-03-08T19:12:35.683826+05:30"},{"city":"Kolkata","state":"West Bengal","latitude":22.5726,"longitude":88.3639,"temp":25.6,"humidity":81,"rain":0.0,"pressure":1009.7,"uv_index":7.3,"wind_gusts":15.8,"aqi":151,"pm10":66.6,"pm2_5":61.2,"mosquito_risk":7,"arthritis_risk":0,"migraine_risk":4,"frizz_risk":1,"updated_at":"2026-03-08T19:12:35.683836+05:30"},{"city":"Pune","state":"Maharashtra","latitude":18.5204,"longitude":73.8567,"temp":34.4,"humidity":16,"rain":0.0,"pressure":948.6,"uv_index":8.05,"wind_gusts":30.6,"aqi":141,"pm10":13.2,"pm2_5":11.7,"mosquito_risk":0,"arthritis_risk":5,"migraine_risk":7,"frizz_risk":0,"updated_at":"2026-03-08T19:12:35.683851+05:30"},{"city":"Ahmedabad","state":"Gujarat","latitude":23.0225,"longitude":72.5714,"temp":32.9,"humidity":24,"rain":0.0,"pressure":1003.8,"uv_index":7.35,"wind_gusts":21.2,"aqi":147,"pm10":19.1,"pm2_5":16.6,"mosquito_risk":0,"arthritis_risk":5,"migraine_risk":4,"frizz_risk":0,"updated_at":"2026-03-08T19:12:35.683860+05:30"},{"city":"Jaipur","state":"Rajasthan","latitude":26.9124,"longitude":75.7873,"temp":31.3,"humidity":11,"rain":0.0,"pressure":962.7,"uv_index":6.75,"wind_gusts":25.9,"aqi":107,"pm10":112.7,"pm2_5":21.4,"mosquito_risk":0,"arthritis_risk":5,"migraine_risk":7,"frizz_risk":1,"updated_at":"2026-03-08T19:12:35.683869+05:30"},{"city":"Lucknow","state":"Uttar Pradesh","latitude":26.8467,"longitude":80.9462,"temp":29.3,"humidity":56,"rain":0.0,"pressure":996.6,"uv_index":6.5,"wind_gusts":19.4,"aqi":179,"pm10":132.7,"pm2_5":71.5,"mosquito_risk":4,"arthritis_risk":5,"migraine_risk":7,"frizz_risk":1,"updated_at":"2026-03-08T19:12:35.683878+05:30"},{"city":"Kanpur","state":"Uttar Pradesh","latitude":26.4499,"longitude":80.3319,"temp":27.7,"humidity":59,"rain":0.0,"pressure":994.7,"uv_index":6.5,"wind_gusts":16.9,"aqi":176,"pm10":165.3,"pm2_5":65.9,"mosquito_risk":4,"arthritis_risk":5,"migraine_risk":7,"frizz_risk":1,"updated_at":"2026-03-08T19:12:35.683886+05:30"},{"city":"Chandigarh","state":"Chandigarh","latitude":30.7333,"longitude":76.7794,"temp":24.7,"humidity":63,"rain":0.0,"pressure":971.6,"uv_index":5.9,"wind_gusts":28.1,"aqi":153,"pm10":59.6,"pm2_5":50.1,"mosquito_risk":3,"arthritis_risk":5,"migraine_risk":3,"frizz_risk":1,"updated_at":"2026-03-08T19:12:35.683894+05:30"},{"city":"Srinagar","state":"Jammu and Kashmir","latitude":34.0837,"longitude":74.7973,"temp":16.5,"humidity":52,"rain":0.0,"pressure":845.1,"uv_index":6.8,"wind_gusts":17.6,"aqi":122,"pm10":42.5,"pm2_5":29.8,"mosquito_risk":0,"arthritis_risk":5,"migraine_risk":7,"frizz_risk":0,"updated_at":"2026-03-08T19:12:35.683902+05:30"},{"city":"Jammu","state":"Jammu and Kashmir","latitude":32.7266,"longitude":74.857,"temp":26.8,"humidity":57,"rain":0.0,"pressure":976.0,"uv_index":6.45,"wind_gusts":25.2,"aqi":104,"pm10":54.6,"pm2_5":36.2,"mosquito_risk":4,"arthritis_risk":5,"migraine_risk":7,"frizz_risk":1,"updated_at":"2026-03-08T19:12:35.683910+05:30"},{"city":"Amritsar","state":"Punjab","latitude":31.634,"longitude":74.8723,"temp":26.5,"humidity":63,"rain":0.0,"pressure":984.1,"uv_index":6.45,"wind_gusts":19.1,"aqi":164,"pm10":80.3,"pm2_5":53.6,"mosquito_risk":7,"arthritis_risk":5,"migraine_risk":7,"frizz_risk":1,"updated_at":"2026-03-08T19:12:35.683917+05:30"},{"city":"Ludhiana","state":"Punjab","latitude":30.901,"longitude":75.8573,"temp":27.1,"humidity":64,"rain":0.0,"pressure":981.9,"uv_index":6.15,"wind_gusts":25.2,"aqi":172,"pm10":85.4,"pm2_5":50.9,"mosquito_risk":7,"arthritis_risk":5,"migraine_risk":7,"frizz_risk":1,"updated_at":"2026-03-08T19:12:35.683925+05:30"},{"city":"Jalandhar","state":"Punjab","latitude":31.326,"longitude":75.5762,"temp":27.0,"humidity":62,"rain":0.0,"pressure":983.2,"uv_index":6.3,"wind_gusts":23.4,"aqi":171,"pm10":86.4,"pm2_5":47.7,"mosquito_risk":7,"arthritis_risk":5,"migraine_risk":7,"frizz_risk":1,"updated_at":"2026-03-08T19:12:35.683935+05:30"},{"city":"Dehradun","state":"Uttarakhand","latitude":30.6284,"longitude":78.0322,"temp":17.8,"humidity":90,"rain":0.0,"pressure":833.1,"uv_index":6.3,"wind_gusts":37.1,"aqi":94,"pm10":41.4,"pm2_5":27.9,"mosquito_risk":3,"arthritis_risk":10,"migraine_risk":7,"frizz_risk":1,"updated_at":"2026-03-08T19:12:35.683943+05:30"},{"city":"Shimla","state":"Himachal Pradesh","latitude":31.1048,"longitude":77.1734,"temp":16.3,"humidity":77,"rain":0.0,"pressure":788.3,"uv_index":6.3,"wind_gusts":46.4,"aqi":108,"pm10":33.5,"pm2_5":19.3,"mosquito_risk":3,"arthritis_risk":5,"migraine_risk":7,"frizz_risk":0,"updated_at":"2026-03-08T19:12:35.683950+05:30"},{"city":"Manali","state":"Himachal Pradesh","latitude":32.2396,"longitude":77.1887,"temp":18.3,"humidity":57,"rain":0.0,"pressure":824.8,"uv_index":8.05,"wind_gusts":30.6,"aqi":100,"pm10":29.9,"pm2_5":12.5,"mosquito_risk":0,"arthritis_risk":5,"migraine_risk":7,"frizz_risk":0,"updated_at":"2026-03-08T19:12:35.683957+05:30"},{"city":"Gurgaon","state":"Haryana","latitude":28.4595,"longitude":77.0266,"temp":26.8,"humidity":50,"rain":0.0,"pressure":984.1,"uv_index":6.1,"wind_gusts":20.5,"aqi":284,"pm10":1054.3,"pm2_5":126.7,"mosquito_risk":4,"arthritis_risk":5,"migraine_risk":7,"frizz_risk":0,"updated_at":"2026-03-08T19:12:35.683964+05:30"},{"city":"Noida","state":"Uttar Pradesh","latitude":28.5355,"longitude":77.391,"temp":28.9,"humidity":42,"rain":0.0,"pressure":987.2,"uv_index":6.0,"wind_gusts":25.9,"aqi":284,"pm10":1054.3,"pm2_5":126.7,"mosquito_risk":4,"arthritis_risk":5,"migraine_risk":3,"frizz_risk":0,"updated_at":"2026-03-08T19:12:35.683971+05:30"},{"city":"Ghaziabad","state":"Uttar Pradesh","latitude":28.6692,"longitude":77.4538,"temp":28.2,"humidity":48,"rain":0.0,"pressure":985.2,"uv_index":5.95,"wind_gusts":25.6,"aqi":176,"pm10":231.4,"pm2_5":51.6,"mosquito_risk":4,"arthritis_risk":5,"migraine_risk":3,"frizz_risk":1,"updated_at":"2026-03-08T19:12:35.683978+05:30"},{"city":"Faridabad","state":"Haryana","latitude":28.4089,"longitude":77.3178,"temp":27.2,"humidity":45,"rain":0.0,"pressure":986.4,"uv_index":6.05,"wind_gusts":22.0,"aqi":284,"pm10":1054.3,"pm2_5":126.7,"mosquito_risk":4,"arthritis_risk":5,"migraine_risk":7,"frizz_risk":0,"updated_at":"2026-03-08T19:12:35.683985+05:30"},{"city":"Meerut","state":"Uttar Pradesh","latitude":28.9845,"longitude":77.7064,"temp":27.0,"humidity":57,"rain":0.0,"pressure":983.9,"uv_index":5.85,"wind_gusts":28.4,"aqi":176,"pm10":231.4,"pm2_5":51.6,"mosquito_risk":4,"arthritis_risk":5,"migraine_risk":3,"frizz_risk":1,"updated_at":"2026-03-08T19:12:35.683993+05:30"},{"city":"Agra","state":"Uttar Pradesh","latitude":27.1767,"longitude":78.0081,"temp":27.6,"humidity":40,"rain":0.0,"pressure":990.2,"uv_index":6.4,"wind_gusts":20.9,"aqi":157,"pm10":329.7,"pm2_5":59.5,"mosquito_risk":4,"arthritis_risk":5,"migraine_risk":7,"frizz_risk":0,"updated_at":"2026-03-08T19:12:35.684003+05:30"},{"city":"Varanasi","state":"Uttar Pradesh","latitude":25.3176,"longitude":82.9739,"temp":27.3,"humidity":67,"rain":0.0,"pressure":1000.7,"uv_index":7.2,"wind_gusts":11.2,"aqi":186,"pm10":98.0,"pm2_5":89.2,"mosquito_risk":7,"arthritis_risk":5,"migraine_risk":4,"frizz_risk":1,"updated_at":"2026-03-08T19:12:35.684013+05:30"},{"city":"Prayagraj","state":"Uttar Pradesh","latitude":25.4358,"longitude":81.8463,"temp":27.3,"humidity":62,"rain":0.0,"pressure":999.4,"uv_index":7.05,"wind_gusts":13.3,"aqi":194,"pm10":105.9,"pm2_5":91.5,"mosquito_risk":7,"arthritis_risk":5,"migraine_risk":7,"frizz_risk":1,"updated_at":"2026-03-08T19:12:35.684021+05:30"},{"city":"Gorakhpur","state":"Uttar Pradesh","latitude":26.7606,"longitude":83.3732,"temp":26.5,"humidity":70,"rain":0.0,"pressure":1000.4,"uv_index":6.9,"wind_gusts":13.7,"aqi":174,"pm10":86.4,"pm2_5":78.0,"mosquito_risk":7,"arthritis_risk":5,"migraine_risk":4,"frizz_risk":1,"updated_at":"2026-03-08T19:12:35.684028+05:30"},{"city":"Bareilly","state":"Uttar Pradesh","latitude":28.367,"longitude":79.4304,"temp":28.3,"humidity":58,"rain":0.0,"pressure":989.3,"uv_index":6.2,"wind_gusts":21.6,"aqi":172,"pm10":97.6,"pm2_5":64.0,"mosquito_risk":4,"arthritis_risk":5,"migraine_risk":7,"frizz_risk":1,"updated_at":"2026-03-08T19:12:35.684041+05:30"},{"city":"Aligarh","state":"Uttar Pradesh","latitude":27.8974,"longitude":78.088,"temp":27.2,"humidity":45,"rain":0.0,"pressure":988.1,"uv_index":6.1,"wind_gusts":24.5,"aqi":194,"pm10":385.6,"pm2_5":82.2,"mosquito_risk":4,"arthritis_risk":5,"migraine_risk":7,"frizz_risk":0,"updated_at":"2026-03-08T19:12:35.684049+05:30"},{"city":"Moradabad","state":"Uttar Pradesh","latitude":28.8386,"longitude":78.7733,"temp":27.2,"humidity":58,"rain":0.0,"pressure":986.0,"uv_index":6.0,"wind_gusts":25.2,"aqi":182,"pm10":115.7,"pm2_5":78.0,"mosquito_risk":4,"arthritis_risk":5,"migraine_risk":3,"frizz_risk":1,"updated_at":"2026-03-08T19:12:35.684055+05:30"},{"city":"Saharanpur","state":"Uttar Pradesh","latitude":29.9637,"longitude":77.546,"temp":26.3,"humidity":62,"rain":0.0,"pressure":978.0,"uv_index":5.65,"wind_gusts":34.2,"aqi":177,"pm10":183.0,"pm2_5":56.5,"mosquito_risk":7,"arthritis_risk":5,"migraine_risk":3,"frizz_risk":1,"updated_at":"2026-03-08T19:12:35.684062+05:30"},{"city":"Jhansi","state":"Uttar Pradesh","latitude":25.4484,"longitude":78.5685,"temp":29.1,"humidity":36,"rain":0.0,"pressure":980.9,"uv_index":6.95,"wind_gusts":26.3,"aqi":116,"pm10":34.9,"pm2_5":18.5,"mosquito_risk":4,"arthritis_risk":5,"migraine_risk":7,"frizz_risk":0,"updated_at":"2026-03-08T19:12:39.015432+05:30"},{"city":"Surat","state":"Gujarat","latitude":21.1702,"longitude":72.8311,"temp":31.4,"humidity":38,"rain":0.0,"pressure":1007.1,"uv_index":7.25,"wind_gusts":27.0,"aqi":142,"pm10":39.8,"pm2_5":39.1,"mosquito_risk":0,"arthritis_risk":5,"migraine_risk":4,"frizz_risk":0,"updated_at":"2026-03-08T19:12:39.015465+05:30"},{"city":"Vadodara","state":"Gujarat","latitude":22.3072,"longitude":73.1812,"temp":34.5,"humidity":26,"rain":0.0,"pressure":1005.4,"uv_index":7.35,"wind_gusts":19.4,"aqi":127,"pm10":20.0,"pm2_5":19.4,"mosquito_risk":0,"arthritis_risk":5,"migraine_risk":4,"frizz_risk":0,"updated_at":"2026-03-08T19:12:39.015476+05:30"},{"city":"Rajkot","state":"Gujarat","latitude":22.3039,"longitude":70.8022,"temp":32.5,"humidity":35,"rain":0.0,"pressure":996.4,"uv_index":7.15,"wind_gusts":22.3,"aqi":108,"pm10":25.8,"pm2_5":18.4,"mosquito_risk":0,"arthritis_risk":5,"migraine_risk":7,"frizz_risk":0,"updated_at":"2026-03-08T19:12:39.015486+05:30"},{"city":"Thane","state":"Maharashtra","latitude":19.2183,"longitude":72.9781,"temp":30.3,"humidity":51,"rain":0.0,"pressure":1007.2,"uv_index":7.5,"wind_gusts":33.1,"aqi":225,"pm10":55.2,"pm2_5":53.2,"mosquito_risk":0,"arthritis_risk":5,"migraine_risk":4,"frizz_risk":1,"updated_at":"2026-03-08T19:12:39.015495+05:30"},{"city":"Nagpur","state":"Maharashtra","latitude":21.1458,"longitude":79.0882,"temp":29.5,"humidity":34,"rain":0.0,"pressure":974.4,"uv_index":7.9,"wind_gusts":25.6,"aqi":132,"pm10":37.6,"pm2_5":27.2,"mosquito_risk":4,"arthritis_risk":5,"migraine_risk":7,"frizz_risk":0,"updated_at":"2026-03-08T19:12:39.015503+05:30"},{"city":"Nashik","state":"Maharashtra","latitude":19.9975,"longitude":73.7898,"temp":32.0,"humidity":21,"rain":0.0,"pressure":946.4,"uv_index":7.7,"wind_gusts":27.7,"aqi":145,"pm10":12.4,"pm2_5":11.4,"mosquito_risk":0,"arthritis_risk":5,"migraine_risk":7,"frizz_risk":0,"updated_at":"2026-03-08T19:12:39.015512+05:30"},{"city":"Aurangabad","state":"Maharashtra","latitude":19.8762,"longitude":75.3433,"temp":32.5,"humidity":18,"rain":0.0,"pressure":945.1,"uv_index":8.2,"wind_gusts":31.7,"aqi":134,"pm10":18.9,"pm2_5":14.5,"mosquito_risk":0,"arthritis_risk":5,"migraine_risk":7,"frizz_risk":0,"updated_at":"2026-03-08T19:12:39.015520+05:30"},{"city":"Solapur","state":"Maharashtra","latitude":17.6599,"longitude":75.9064,"temp":31.3,"humidity":39,"rain":0.0,"pressure":957.0,"uv_index":8.45,"wind_gusts":19.8,"aqi":160,"pm10":21.0,"pm2_5":17.3,"mosquito_risk":0,"arthritis_risk":5,"migraine_risk":7,"frizz_risk":0,"updated_at":"2026-03-08T19:12:39.015529+05:30"},{"city":"Kolhapur","state":"Maharashtra","latitude":16.705,"longitude":74.2433,"temp":30.8,"humidity":29,"rain":0.0,"pressure":947.9,"uv_index":8.6,"wind_gusts":37.1,"aqi":178,"pm10":34.9,"pm2_5":31.7,"mosquito_risk":0,"arthritis_risk":5,"migraine_risk":7,"frizz_risk":0,"updated_at":"2026-03-08T19:12:39.015537+05:30"},{"city":"Goa","state":"Goa","latitude":15.2993,"longitude":74.124,"temp":28.0,"humidity":79,"rain":0.0,"pressure":998.0,"uv_index":8.65,"wind_gusts":35.6,"aqi":138,"pm10":37.4,"pm2_5":32.2,"mosquito_risk":7,"arthritis_risk":5,"migraine_risk":7,"frizz_risk":1,"updated_at":"2026-03-08T19:12:39.015546+05:30"},{"city":"Jodhpur","state":"Rajasthan","latitude":26.2389,"longitude":73.0243,"temp":31.7,"humidity":26,"rain":0.0,"pressure":985.9,"uv_index":7.05,"wind_gusts":18.7,"aqi":90,"pm10":26.8,"pm2_5":9.4,"mosquito_risk":0,"arthritis_risk":5,"migraine_risk":7,"frizz_risk":0,"updated_at":"2026-03-08T19:12:39.015554+05:30"},{"city":"Udaipur","state":"Rajasthan","latitude":24.5854,"longitude":73.7125,"temp":30.4,"humidity":22,"rain":0.0,"pressure":949.7,"uv_index":7.7,"wind_gusts":19.8,"aqi":114,"pm10":6.1,"pm2_5":5.8,"mosquito_risk":0,"arthritis_risk":5,"migraine_risk":7,"frizz_risk":0,"updated_at":"2026-03-08T19:12:39.015564+05:30"},{"city":"Kota","state":"Rajasthan","latitude":25.2138,"longitude":75.8648,"temp":31.0,"humidity":33,"rain":0.0,"pressure":981.2,"uv_index":7.05,"wind_gusts":11.2,"aqi":115,"pm10":16.5,"pm2_5":16.4,"mosquito_risk":0,"arthritis_risk":5,"migraine_risk":7,"frizz_risk":0,"updated_at":"2026-03-08T19:12:39.015572+05:30"},{"city":"Bikaner","state":"Rajasthan","latitude":28.0229,"longitude":73.3119,"temp":32.3,"humidity":27,"rain":0.0,"pressure":984.8,"uv_index":6.75,"wind_gusts":19.4,"aqi":64,"pm10":37.5,"pm2_5":9.7,"mosquito_risk":0,"arthritis_risk":5,"migraine_risk":7,"frizz_risk":0,"updated_at":"2026-03-08T19:12:39.015581+05:30"},{"city":"Ajmer","state":"Rajasthan","latitude":26.4499,"longitude":74.6399,"temp":30.4,"humidity":26,"rain":0.0,"pressure":957.6,"uv_index":7.05,"wind_gusts":23.0,"aqi":93,"pm10":16.0,"pm2_5":8.8,"mosquito_risk":0,"arthritis_risk":5,"migraine_risk":7,"frizz_risk":0,"updated_at":"2026-03-08T19:12:39.015589+05:30"},{"city":"Gwalior","state":"Madhya Pradesh","latitude":26.2183,"longitude":78.1828,"temp":29.5,"humidity":46,"rain":0.0,"pressure":986.1,"uv_index":6.65,"wind_gusts":23.4,"aqi":105,"pm10":43.9,"pm2_5":16.5,"mosquito_risk":4,"arthritis_risk":5,"migraine_risk":7,"frizz_risk":1,"updated_at":"2026-03-08T19:12:39.015597+05:30"},{"city":"Indore","state":"Madhya Pradesh","latitude":22.7196,"longitude":75.8577,"temp":27.2,"humidity":34,"rain":0.0,"pressure":950.2,"uv_index":7.6,"wind_gusts":23.0,"aqi":114,"pm10":16.2,"pm2_5":15.1,"mosquito_risk":4,"arthritis_risk":5,"migraine_risk":7,"frizz_risk":0,"updated_at":"2026-03-08T19:12:39.015605+05:30"},{"city":"Bhopal","state":"Madhya Pradesh","latitude":23.2599,"longitude":77.4126,"temp":26.8,"humidity":42,"rain":0.0,"pressure":956.1,"uv_index":7.5,"wind_gusts":22.7,"aqi":109,"pm10":24.2,"pm2_5":14.1,"mosquito_risk":4,"arthritis_risk":5,"migraine_risk":7,"frizz_risk":0,"updated_at":"2026-03-08T19:12:39.015614+05:30"},{"city":"Jabalpur","state":"Madhya Pradesh","latitude":23.1815,"longitude":79.9864,"temp":28.5,"humidity":44,"rain":0.0,"pressure":963.9,"uv_index":7.6,"wind_gusts":24.8,"aqi":135,"pm10":68.5,"pm2_5":40.5,"mosquito_risk":4,"arthritis_risk":5,"migraine_risk":7,"frizz_risk":0,"updated_at":"2026-03-08T19:12:39.015623+05:30"},{"city":"Ujjain","state":"Madhya Pradesh","latitude":23.1765,"longitude":75.7885,"temp":28.0,"humidity":41,"rain":0.0,"pressure":956.3,"uv_index":7.5,"wind_gusts":19.1,"aqi":111,"pm10":23.2,"pm2_5":22.4,"mosquito_risk":4,"arthritis_risk":5,"migraine_risk":7,"frizz_risk":0,"updated_at":"2026-03-08T19:12:39.015631+05:30"},{"city":"Visakhapatnam","state":"Andhra Pradesh","latitude":17.6868,"longitude":83.2185,"temp":26.5,"humidity":75,"rain":0.0,"pressure":1006.7,"uv_index":8.25,"wind_gusts":38.9,"aqi":94,"pm10":35.0,"pm2_5":27.4,"mosquito_risk":7,"arthritis_risk":5,"migraine_risk":4,"frizz_risk":1,"updated_at":"2026-03-08T19:12:39.015640+05:30"},{"city":"Vijayawada","state":"Andhra Pradesh","latitude":16.5062,"longitude":80.648,"temp":29.4,"humidity":61,"rain":0.0,"pressure":1004.0,"uv_index":8.6,"wind_gusts":28.4,"aqi":97,"pm10":36.3,"pm2_5":30.4,"mosquito_risk":7,"arthritis_risk":5,"migraine_risk":4,"frizz_risk":1,"updated_at":"2026-03-08T19:12:39.015648+05:30"},{"city":"Guntur","state":"Andhra Pradesh","latitude":16.3067,"longitude":80.4365,"temp":27.4,"humidity":70,"rain":0.0,"pressure":1005.4,"uv_index":8.6,"wind_gusts":27.4,"aqi":97,"pm10":38.9,"pm2_5":32.6,"mosquito_risk":7,"arthritis_risk":5,"migraine_risk":4,"frizz_risk":1,"updated_at":"2026-03-08T19:12:39.015657+05:30"},{"city":"Nellore","state":"Andhra Pradesh","latitude":14.4426,"longitude":79.9865,"temp":27.3,"humidity":75,"rain":0.0,"pressure":1007.3,"uv_index":8.8,"wind_gusts":33.1,"aqi":100,"pm10":34.1,"pm2_5":25.1,"mosquito_risk":7,"arthritis_risk":5,"migraine_risk":4,"frizz_risk":1,"updated_at":"2026-03-08T19:12:39.015684+05:30"},{"city":"Kurnool","state":"Andhra Pradesh","latitude":15.8281,"longitude":78.0373,"temp":33.7,"humidity":18,"rain":0.0,"pressure":976.6,"uv_index":8.6,"wind_gusts":25.6,"aqi":150,"pm10":34.7,"pm2_5":26.3,"mosquito_risk":0,"arthritis_risk":5,"migraine_risk":7,"frizz_risk":0,"updated_at":"2026-03-08T19:12:39.015693+05:30"},{"city":"Kakinada","state":"Andhra Pradesh","latitude":16.9891,"longitude":82.2475,"temp":27.0,"humidity":71,"rain":0.0,"pressure":1009.9,"uv_index":8.55,"wind_gusts":33.8,"aqi":78,"pm10":34.2,"pm2_5":23.6,"mosquito_risk":7,"arthritis_risk":0,"migraine_risk":4,"frizz_risk":1,"updated_at":"2026-03-08T19:12:39.015700+05:30"},{"city":"Tirupati","state":"Andhra Pradesh","latitude":13.6288,"longitude":79.4192,"temp":29.5,"humidity":54,"rain":0.0,"pressure":992.3,"uv_index":8.95,"wind_gusts":31.3,"aqi":116,"pm10":42.4,"pm2_5":34.8,"mosquito_risk":4,"arthritis_risk":5,"migraine_risk":7,"frizz_risk":1,"updated_at":"2026-03-08T19:12:39.015707+05:30"},{"city":"Warangal","state":"Telangana","latitude":17.9689,"longitude":79.5941,"temp":30.7,"humidity":51,"rain":0.0,"pressure":979.5,"uv_index":8.35,"wind_gusts":27.7,"aqi":121,"pm10":54.6,"pm2_5":43.1,"mosquito_risk":0,"arthritis_risk":5,"migraine_risk":7,"frizz_risk":1,"updated_at":"2026-03-08T19:12:39.015714+05:30"},{"city":"Nizamabad","state":"Telangana","latitude":18.6725,"longitude":78.0941,"temp":30.9,"humidity":41,"rain":0.0,"pressure":965.6,"uv_index":8.25,"wind_gusts":31.0,"aqi":149,"pm10":42.7,"pm2_5":30.5,"mosquito_risk":0,"arthritis_risk":5,"migraine_risk":7,"frizz_risk":1,"updated_at":"2026-03-08T19:12:39.015721+05:30"},{"city":"Mysore","state":"Karnataka","latitude":12.2958,"longitude":76.6396,"temp":29.8,"humidity":31,"rain":0.0,"pressure":928.2,"uv_index":9.25,"wind_gusts":29.9,"aqi":170,"pm10":43.2,"pm2_5":36.8,"mosquito_risk":4,"arthritis_risk":5,"migraine_risk":7,"frizz_risk":0,"updated_at":"2026-03-08T19:12:39.015728+05:30"},{"city":"Mangalore","state":"Karnataka","latitude":12.9141,"longitude":74.856,"temp":28.7,"humidity":79,"rain":0.0,"pressure":1006.9,"uv_index":8.85,"wind_gusts":25.2,"aqi":121,"pm10":38.0,"pm2_5":34.7,"mosquito_risk":7,"arthritis_risk":5,"migraine_risk":4,"frizz_risk":1,"updated_at":"2026-03-08T19:12:39.015735+05:30"},{"city":"Hubli-Dharwad","state":"Karnataka","latitude":15.3647,"longitude":75.124,"temp":31.8,"humidity":24,"rain":0.0,"pressure":940.6,"uv_index":8.8,"wind_gusts":27.7,"aqi":181,"pm10":29.5,"pm2_5":25.3,"mosquito_risk":0,"arthritis_risk":5,"migraine_risk":7,"frizz_risk":0,"updated_at":"2026-03-08T19:12:39.015742+05:30"},{"city":"Belgaum","state":"Karnataka","latitude":15.8497,"longitude":74.4977,"temp":26.9,"humidity":62,"rain":0.0,"pressure":925.9,"uv_index":8.85,"wind_gusts":33.8,"aqi":184,"pm10":28.6,"pm2_5":25.5,"mosquito_risk":7,"arthritis_risk":5,"migraine_risk":7,"frizz_risk":1,"updated_at":"2026-03-08T19:12:42.348627+05:30"},{"city":"Coimbatore","state":"Tamil Nadu","latitude":11.0168,"longitude":76.9558,"temp":30.2,"humidity":38,"rain":0.0,"pressure":961.7,"uv_index":9.2,"wind_gusts":40.0,"aqi":155,"pm10":37.7,"pm2_5":31.7,"mosquito_risk":0,"arthritis_risk":5,"migraine_risk":7,"frizz_risk":0,"updated_at":"2026-03-08T19:12:42.348658+05:30"},{"city":"Madurai","state":"Tamil Nadu","latitude":9.9252,"longitude":78.1198,"temp":31.5,"humidity":43,"rain":0.0,"pressure":992.5,"uv_index":9.15,"wind_gusts":28.8,"aqi":116,"pm10":35.5,"pm2_5":28.8,"mosquito_risk":0,"arthritis_risk":5,"migraine_risk":7,"frizz_risk":1,"updated_at":"2026-03-08T19:12:42.348686+05:30"},{"city":"Trichy","state":"Tamil Nadu","latitude":10.7905,"longitude":78.7047,"temp":31.0,"humidity":44,"rain":0.0,"pressure":999.8,"uv_index":9.05,"wind_gusts":31.0,"aqi":98,"pm10":35.6,"pm2_5":28.3,"mosquito_risk":0,"arthritis_risk":5,"migraine_risk":7,"frizz_risk":1,"updated_at":"2026-03-08T19:12:42.348695+05:30"},{"city":"Salem","state":"Tamil Nadu","latitude":11.6643,"longitude":78.146,"temp":31.4,"humidity":37,"rain":0.0,"pressure":977.0,"uv_index":9.1,"wind_gusts":22.0,"aqi":158,"pm10":39.9,"pm2_5":33.4,"mosquito_risk":0,"arthritis_risk":5,"migraine_risk":7,"frizz_risk":0,"updated_at":"2026-03-08T19:12:42.348703+05:30"},{"city":"Tirunelveli","state":"Tamil Nadu","latitude":8.7139,"longitude":77.7567,"temp":29.5,"humidity":62,"rain":0.0,"pressure":1003.3,"uv_index":9.15,"wind_gusts":41.0,"aqi":129,"pm10":40.0,"pm2_5":29.5,"mosquito_risk":7,"arthritis_risk":5,"migraine_risk":4,"frizz_risk":1,"updated_at":"2026-03-08T19:12:42.348711+05:30"},{"city":"Vellore","state":"Tamil Nadu","latitude":12.9165,"longitude":79.1325,"temp":29.3,"humidity":49,"rain":0.0,"pressure":985.1,"uv_index":9.0,"wind_gusts":35.6,"aqi":133,"pm10":42.6,"pm2_5":35.4,"mosquito_risk":4,"arthritis_risk":5,"migraine_risk":7,"frizz_risk":1,"updated_at":"2026-03-08T19:12:42.348718+05:30"},{"city":"Erode","state":"Tamil Nadu","latitude":11.341,"longitude":77.7172,"temp":33.1,"humidity":37,"rain":0.0,"pressure":988.1,"uv_index":9.1,"wind_gusts":22.3,"aqi":133,"pm10":41.3,"pm2_5":34.3,"mosquito_risk":0,"arthritis_risk":5,"migraine_risk":7,"frizz_risk":1,"updated_at":"2026-03-08T19:12:42.348725+05:30"},{"city":"Kochi","state":"Kerala","latitude":9.9312,"longitude":76.2673,"temp":28.8,"humidity":78,"rain":0.0,"pressure":1008.3,"uv_index":9.0,"wind_gusts":35.6,"aqi":143,"pm10":36.1,"pm2_5":33.9,"mosquito_risk":7,"arthritis_risk":0,"migraine_risk":4,"frizz_risk":1,"updated_at":"2026-03-08T19:12:42.348733+05:30"},{"city":"Thiruvananthapuram","state":"Kerala","latitude":8.5241,"longitude":76.9366,"temp":28.2,"humidity":80,"rain":0.0,"pressure":1008.0,"uv_index":9.05,"wind_gusts":31.7,"aqi":120,"pm10":31.7,"pm2_5":27.0,"mosquito_risk":7,"arthritis_risk":0,"migraine_risk":4,"frizz_risk":1,"updated_at":"2026-03-08T19:12:42.348740+05:30"},{"city":"Kozhikode","state":"Kerala","latitude":11.2588,"longitude":75.7804,"temp":28.9,"humidity":77,"rain":0.0,"pressure":1007.6,"uv_index":8.8,"wind_gusts":29.5,"aqi":96,"pm10":28.6,"pm2_5":25.7,"mosquito_risk":7,"arthritis_risk":5,"migraine_risk":4,"frizz_risk":1,"updated_at":"2026-03-08T19:12:42.348747+05:30"},{"city":"Thrissur","state":"Kerala","latitude":10.5276,"longitude":76.2144,"temp":28.7,"humidity":77,"rain":0.0,"pressure":1006.8,"uv_index":9.0,"wind_gusts":36.7,"aqi":124,"pm10":33.5,"pm2_5":31.1,"mosquito_risk":7,"arthritis_risk":5,"migraine_risk":4,"frizz_risk":1,"updated_at":"2026-03-08T19:12:42.348756+05:30"},{"city":"Kannur","state":"Kerala","latitude":11.8745,"longitude":75.3704,"temp":28.9,"humidity":75,"rain":0.0,"pressure":1007.3,"uv_index":8.9,"wind_gusts":28.4,"aqi":101,"pm10":32.4,"pm2_5":29.2,"mosquito_risk":7,"arthritis_risk":5,"migraine_risk":4,"frizz_risk":1,"updated_at":"2026-03-08T19:12:42.348763+05:30"},{"city":"Patna","state":"Bihar","latitude":25.5941,"longitude":85.1376,"temp":27.6,"humidity":63,"rain":0.0,"pressure":1003.8,"uv_index":7.35,"wind_gusts":18.0,"aqi":173,"pm10":97.3,"pm2_5":88.9,"mosquito_risk":7,"arthritis_risk":5,"migraine_risk":4,"frizz_risk":1,"updated_at":"2026-03-08T19:12:42.348771+05:30"},{"city":"Gaya","state":"Bihar","latitude":24.7914,"longitude":85.0002,"temp":25.9,"humidity":75,"rain":0.0,"pressure":996.9,"uv_index":7.45,"wind_gusts":17.6,"aqi":160,"pm10":84.3,"pm2_5":76.6,"mosquito_risk":7,"arthritis_risk":5,"migraine_risk":7,"frizz_risk":1,"updated_at":"2026-03-08T19:12:42.348778+05:30"},{"city":"Muzaffarpur","state":"Bihar","latitude":26.1209,"longitude":85.3647,"temp":25.7,"humidity":69,"rain":0.0,"pressure":1004.1,"uv_index":7.3,"wind_gusts":19.1,"aqi":177,"pm10":97.3,"pm2_5":89.6,"mosquito_risk":7,"arthritis_risk":5,"migraine_risk":4,"frizz_risk":1,"updated_at":"2026-03-08T19:12:42.348786+05:30"},{"city":"Bhagalpur","state":"Bihar","latitude":25.2425,"longitude":87.0117,"temp":25.9,"humidity":73,"rain":0.0,"pressure":1004.9,"uv_index":7.35,"wind_gusts":15.8,"aqi":166,"pm10":99.4,"pm2_5":84.3,"mosquito_risk":7,"arthritis_risk":5,"migraine_risk":4,"frizz_risk":1,"updated_at":"2026-03-08T19:12:42.348793+05:30"},{"city":"Ranchi","state":"Jharkhand","latitude":23.3441,"longitude":85.3096,"temp":25.9,"humidity":54,"rain":0.0,"pressure":940.3,"uv_index":8.1,"wind_gusts":23.0,"aqi":161,"pm10":97.3,"pm2_5":78.0,"mosquito_risk":4,"arthritis_risk":5,"migraine_risk":7,"frizz_risk":0,"updated_at":"2026-03-08T19:12:42.348800+05:30"},{"city":"Jamshedpur","state":"Jharkhand","latitude":22.8046,"longitude":86.2029,"temp":28.7,"humidity":58,"rain":0.0,"pressure":993.3,"uv_index":8.0,"wind_gusts":20.9,"aqi":162,"pm10":101.3,"pm2_5":85.0,"mosquito_risk":4,"arthritis_risk":5,"migraine_risk":7,"frizz_risk":1,"updated_at":"2026-03-08T19:12:42.348808+05:30"},{"city":"Dhanbad","state":"Jharkhand","latitude":23.7957,"longitude":86.4304,"temp":29.0,"humidity":46,"rain":0.0,"pressure":982.8,"uv_index":7.85,"wind_gusts":22.7,"aqi":168,"pm10":116.6,"pm2_5":104.1,"mosquito_risk":4,"arthritis_risk":5,"migraine_risk":7,"frizz_risk":1,"updated_at":"2026-03-08T19:12:42.348815+05:30"},{"city":"Bokaro","state":"Jharkhand","latitude":23.6693,"longitude":86.1511,"temp":27.8,"humidity":52,"rain":0.0,"pressure":986.7,"uv_index":7.85,"wind_gusts":17.6,"aqi":170,"pm10":113.6,"pm2_5":100.4,"mosquito_risk":4,"arthritis_risk":5,"migraine_risk":7,"frizz_risk":1,"updated_at":"2026-03-08T19:12:42.348822+05:30"},{"city":"Bhubaneswar","state":"Odisha","latitude":20.2961,"longitude":85.8245,"temp":26.6,"humidity":73,"rain":0.0,"pressure":1005.8,"uv_index":8.25,"wind_gusts":32.4,"aqi":122,"pm10":39.2,"pm2_5":32.9,"mosquito_risk":7,"arthritis_risk":5,"migraine_risk":4,"frizz_risk":1,"updated_at":"2026-03-08T19:12:42.348829+05:30"},{"city":"Cuttack","state":"Odisha","latitude":20.4625,"longitude":85.8828,"temp":28.3,"humidity":65,"rain":0.0,"pressure":1007.4,"uv_index":8.3,"wind_gusts":27.7,"aqi":122,"pm10":39.2,"pm2_5":32.9,"mosquito_risk":7,"arthritis_risk":5,"migraine_risk":4,"frizz_risk":1,"updated_at":"2026-03-08T19:12:42.348836+05:30"},{"city":"Rourkela","state":"Odisha","latitude":22.2604,"longitude":84.8536,"temp":30.9,"humidity":40,"rain":0.0,"pressure":986.6,"uv_index":7.9,"wind_gusts":22.7,"aqi":170,"pm10":119.7,"pm2_5":93.4,"mosquito_risk":0,"arthritis_risk":5,"migraine_risk":7,"frizz_risk":0,"updated_at":"2026-03-08T19:12:42.348843+05:30"},{"city":"Raipur","state":"Chhattisgarh","latitude":21.2514,"longitude":81.6296,"temp":31.2,"humidity":32,"rain":0.0,"pressure":976.0,"uv_index":8.0,"wind_gusts":23.4,"aqi":179,"pm10":77.1,"pm2_5":63.8,"mosquito_risk":0,"arthritis_risk":5,"migraine_risk":7,"frizz_risk":0,"updated_at":"2026-03-08T19:12:42.348850+05:30"},{"city":"Bhilai","state":"Chhattisgarh","latitude":21.1938,"longitude":81.3509,"temp":30.6,"humidity":37,"rain":0.0,"pressure":976.3,"uv_index":8.0,"wind_gusts":23.4,"aqi":162,"pm10":68.5,"pm2_5":57.0,"mosquito_risk":0,"arthritis_risk":5,"migraine_risk":7,"frizz_risk":0,"updated_at":"2026-03-08T19:12:42.348857+05:30"},{"city":"Guwahati","state":"Assam","latitude":26.1158,"longitude":91.7086,"temp":25.8,"humidity":70,"rain":0.0,"pressure":1004.9,"uv_index":7.3,"wind_gusts":22.7,"aqi":153,"pm10":68.9,"pm2_5":59.8,"mosquito_risk":7,"arthritis_risk":5,"migraine_risk":4,"frizz_risk":1,"updated_at":"2026-03-08T19:12:42.348864+05:30"},{"city":"Agartala","state":"Tripura","latitude":23.8315,"longitude":91.2868,"temp":25.1,"humidity":71,"rain":0.0,"pressure":1009.9,"uv_index":7.6,"wind_gusts":18.7,"aqi":152,"pm10":81.0,"pm2_5":71.5,"mosquito_risk":7,"arthritis_risk":0,"migraine_risk":4,"frizz_risk":1,"updated_at":"2026-03-08T19:12:42.348871+05:30"},{"city":"Shillong","state":"Meghalaya","latitude":25.5788,"longitude":91.8933,"temp":13.7,"humidity":91,"rain":0.0,"pressure":858.6,"uv_index":7.35,"wind_gusts":26.6,"aqi":126,"pm10":48.7,"pm2_5":42.0,"mosquito_risk":3,"arthritis_risk":10,"migraine_risk":7,"frizz_risk":0,"updated_at":"2026-03-08T19:12:42.348879+05:30"},{"city":"Imphal","state":"Manipur","latitude":24.817,"longitude":93.9368,"temp":19.0,"humidity":80,"rain":0.0,"pressure":926.4,"uv_index":7.9,"wind_gusts":32.0,"aqi":158,"pm10":72.6,"pm2_5":65.7,"mosquito_risk":3,"arthritis_risk":5,"migraine_risk":7,"frizz_risk":0,"updated_at":"2026-03-08T19:12:42.348886+05:30"},{"city":"Aizawl","state":"Mizoram","latitude":23.7271,"longitude":92.7176,"temp":19.1,"humidity":77,"rain":0.0,"pressure":895.4,"uv_index":7.85,"wind_gusts":31.0,"aqi":152,"pm10":68.5,"pm2_5":61.5,"mosquito_risk":3,"arthritis_risk":5,"migraine_risk":7,"frizz_risk":0,"updated_at":"2026-03-08T19:12:42.348894+05:30"},{"city":"Kohima","state":"Nagaland","latitude":25.6701,"longitude":94.1077,"temp":15.2,"humidity":88,"rain":0.0,"pressure":857.4,"uv_index":7.0,"wind_gusts":51.8,"aqi":161,"pm10":99.0,"pm2_5":90.3,"mosquito_risk":3,"arthritis_risk":10,"migraine_risk":7,"frizz_risk":0,"updated_at":"2026-03-08T19:12:42.348901+05:30"},{"city":"Gangtok","state":"Sikkim","latitude":27.3314,"longitude":88.6138,"temp":14.9,"humidity":86,"rain":0.0,"pressure":840.5,"uv_index":5.1,"wind_gusts":16.2,"aqi":156,"pm10":65.7,"pm2_5":49.2,"mosquito_risk":3,"arthritis_risk":10,"migraine_risk":3,"frizz_risk":0,"updated_at":"2026-03-08T19:12:42.348908+05:30"},{"city":"Siliguri","state":"West Bengal","latitude":26.7271,"longitude":88.3953,"temp":21.8,"humidity":68,"rain":0.0,"pressure":998.2,"uv_index":7.3,"wind_gusts":15.8,"aqi":156,"pm10":78.5,"pm2_5":58.3,"mosquito_risk":3,"arthritis_risk":5,"migraine_risk":7,"frizz_risk":0,"updated_at":"2026-03-08T19:12:45.680576+05:30"},{"city":"Durgapur","state":"West Bengal","latitude":23.5204,"longitude":87.3119,"temp":28.2,"humidity":54,"rain":0.0,"pressure":998.3,"uv_index":7.85,"wind_gusts":20.9,"aqi":161,"pm10":100.6,"pm2_5":88.9,"mosquito_risk":4,"arthritis_risk":5,"migraine_risk":7,"frizz_risk":1,"updated_at":"2026-03-08T19:12:45.680606+05:30"},{"city":"Asansol","state":"West Bengal","latitude":23.6739,"longitude":86.9524,"temp":28.5,"humidity":53,"rain":0.0,"pressure":996.8,"uv_index":7.85,"wind_gusts":19.8,"aqi":160,"pm10":104.5,"pm2_5":92.2,"mosquito_risk":4,"arthritis_risk":5,"migraine_risk":7,"frizz_risk":1,"updated_at":"2026-03-08T19:12:45.680616+05:30"},{"city":"Pondicherry","state":"Puducherry","latitude":11.9139,"longitude":79.8145,"temp":27.1,"humidity":77,"rain":0.0,"pressure":1009.5,"uv_index":8.95,"wind_gusts":32.4,"aqi":73,"pm10":25.8,"pm2_5":16.5,"mosquito_risk":7,"arthritis_risk":0,"migraine_risk":4,"frizz_risk":1,"updated_at":"2026-03-08T19:12:45.680623+05:30"},{"city":"Port Blair","state":"Andaman and Nicobar Islands","latitude":11.6234,"longitude":92.7265,"temp":27.5,"humidity":78,"rain":0.0,"pressure":1009.2,"uv_index":8.9,"wind_gusts":25.2,"aqi":86,"pm10":37.6,"pm2_5":28.6,"mosquito_risk":7,"arthritis_risk":0,"migraine_risk":4,"frizz_risk":1,"updated_at":"2026-03-08T19:12:45.680631+05:30"},{"city":"Haridwar","state":"Uttarakhand","latitude":29.9457,"longitude":78.1642,"temp":27.4,"humidity":53,"rain":0.0,"pressure":976.8,"uv_index":5.75,"wind_gusts":26.6,"aqi":181,"pm10":91.3,"pm2_5":57.0,"mosquito_risk":4,"arthritis_risk":5,"migraine_risk":3,"frizz_risk":1,"updated_at":"2026-03-08T19:12:45.680638+05:30"},{"city":"Rishikesh","state":"Uttarakhand","latitude":30.0869,"longitude":78.2676,"temp":26.4,"humidity":63,"rain":0.0,"pressure":969.7,"uv_index":5.8,"wind_gusts":22.3,"aqi":167,"pm10":71.2,"pm2_5":55.1,"mosquito_risk":7,"arthritis_risk":5,"migraine_risk":3,"frizz_risk":1,"updated_at":"2026-03-08T19:12:45.680645+05:30"},{"city":"Nainital","state":"Uttarakhand","latitude":29.3919,"longitude":79.4542,"temp":19.3,"humidity":68,"rain":0.0,"pressure":808.9,"uv_index":6.65,"wind_gusts":63.0,"aqi":180,"pm10":99.2,"pm2_5":73.1,"mosquito_risk":3,"arthritis_risk":5,"migraine_risk":7,"frizz_risk":0,"updated_at":"2026-03-08T19:12:45.680652+05:30"},{"city":"Mussoorie","state":"Uttarakhand","latitude":30.4599,"longitude":78.0664,"temp":18.1,"humidity":81,"rain":0.0,"pressure":805.5,"uv_index":6.15,"wind_gusts":48.6,"aqi":180,"pm10":74.0,"pm2_5":58.0,"mosquito_risk":3,"arthritis_risk":10,"migraine_risk":7,"frizz_risk":0,"updated_at":"2026-03-08T19:12:45.680660+05:30"},{"city":"Dharamshala","state":"Himachal Pradesh","latitude":32.219,"longitude":76.3234,"temp":22.2,"humidity":58,"rain":0.0,"pressure":873.0,"uv_index":6.4,"wind_gusts":24.8,"aqi":69,"pm10":35.0,"pm2_5":16.1,"mosquito_risk":0,"arthritis_risk":5,"migraine_risk":7,"frizz_risk":0,"updated_at":"2026-03-08T19:12:45.680687+05:30"},{"city":"Dalhousie","state":"Himachal Pradesh","latitude":32.5387,"longitude":75.971,"temp":20.2,"humidity":48,"rain":0.0,"pressure":807.8,"uv_index":6.65,"wind_gusts":23.4,"aqi":98,"pm10":38.8,"pm2_5":22.8,"mosquito_risk":0,"arthritis_risk":5,"migraine_risk":7,"frizz_risk":0,"updated_at":"2026-03-08T19:12:45.680698+05:30"},{"city":"Patiala","state":"Punjab","latitude":30.3398,"longitude":76.3869,"temp":25.8,"humidity":67,"rain":0.0,"pressure":981.0,"uv_index":5.65,"wind_gusts":26.3,"aqi":168,"pm10":301.7,"pm2_5":71.2,"mosquito_risk":7,"arthritis_risk":5,"migraine_risk":3,"frizz_risk":1,"updated_at":"2026-03-08T19:12:45.680705+05:30"},{"city":"Bhatinda","state":"Punjab","latitude":30.211,"longitude":74.9455,"temp":27.7,"humidity":56,"rain":0.0,"pressure":986.9,"uv_index":6.5,"wind_gusts":16.9,"aqi":150,"pm10":88.7,"pm2_5":47.8,"mosquito_risk":4,"arthritis_risk":5,"migraine_risk":7,"frizz_risk":1,"updated_at":"2026-03-08T19:12:45.680712+05:30"},{"city":"Rohtak","state":"Haryana","latitude":28.8955,"longitude":76.6066,"temp":26.1,"humidity":56,"rain":0.0,"pressure":984.5,"uv_index":6.0,"wind_gusts":20.9,"aqi":169,"pm10":356.7,"pm2_5":62.2,"mosquito_risk":4,"arthritis_risk":5,"migraine_risk":3,"frizz_risk":1,"updated_at":"2026-03-08T19:12:45.680719+05:30"},{"city":"Panipat","state":"Haryana","latitude":29.3909,"longitude":76.9635,"temp":26.1,"humidity":60,"rain":0.0,"pressure":983.0,"uv_index":5.8,"wind_gusts":26.3,"aqi":178,"pm10":832.6,"pm2_5":103.6,"mosquito_risk":4,"arthritis_risk":5,"migraine_risk":3,"frizz_risk":1,"updated_at":"2026-03-08T19:12:45.680726+05:30"},{"city":"Mathura","state":"Uttar Pradesh","latitude":27.4924,"longitude":77.6737,"temp":27.8,"humidity":49,"rain":0.0,"pressure":989.2,"uv_index":6.3,"wind_gusts":22.7,"aqi":158,"pm10":320.4,"pm2_5":57.7,"mosquito_risk":4,"arthritis_risk":5,"migraine_risk":7,"frizz_risk":1,"updated_at":"2026-03-08T19:12:45.680732+05:30"},{"city":"Vrindavan","state":"Uttar Pradesh","latitude":27.5823,"longitude":77.7027,"temp":27.8,"humidity":48,"rain":0.0,"pressure":989.8,"uv_index":6.25,"wind_gusts":23.8,"aqi":158,"pm10":320.4,"pm2_5":57.7,"mosquito_risk":4,"arthritis_risk":5,"migraine_risk":7,"frizz_risk":0,"updated_at":"2026-03-08T19:12:45.680739+05:30"},{"city":"Ayodhya","state":"Uttar Pradesh","latitude":26.7922,"longitude":82.1998,"temp":28.0,"humidity":59,"rain":0.0,"pressure":998.5,"uv_index":6.65,"wind_gusts":11.2,"aqi":185,"pm10":115.3,"pm2_5":94.5,"mosquito_risk":4,"arthritis_risk":5,"migraine_risk":7,"frizz_risk":1,"updated_at":"2026-03-08T19:12:45.680746+05:30"},{"city":"Ratlam","state":"Madhya Pradesh","latitude":23.3315,"longitude":75.0367,"temp":29.9,"humidity":38,"rain":0.0,"pressure":957.0,"uv_index":7.5,"wind_gusts":21.6,"aqi":116,"pm10":16.5,"pm2_5":16.1,"mosquito_risk":4,"arthritis_risk":5,"migraine_risk":7,"frizz_risk":0,"updated_at":"2026-03-08T19:12:45.680753+05:30"},{"city":"Sagar","state":"Madhya Pradesh","latitude":23.8388,"longitude":78.7378,"temp":28.7,"humidity":43,"rain":0.0,"pressure":952.7,"uv_index":7.45,"wind_gusts":21.6,"aqi":104,"pm10":25.1,"pm2_5":14.0,"mosquito_risk":4,"arthritis_risk":5,"migraine_risk":7,"frizz_risk":0,"updated_at":"2026-03-08T19:12:45.680759+05:30"},{"city":"Satna","state":"Madhya Pradesh","latitude":24.6005,"longitude":80.8322,"temp":28.5,"humidity":39,"rain":0.0,"pressure":974.3,"uv_index":7.4,"wind_gusts":25.2,"aqi":158,"pm10":60.3,"pm2_5":40.2,"mosquito_risk":4,"arthritis_risk":5,"migraine_risk":7,"frizz_risk":0,"updated_at":"2026-03-08T19:12:45.680766+05:30"},{"city":"Akola","state":"Maharashtra","latitude":20.7002,"longitude":77.0082,"temp":32.6,"humidity":29,"rain":0.0,"pressure":975.7,"uv_index":7.95,"wind_gusts":16.2,"aqi":134,"pm10":28.3,"pm2_5":20.5,"mosquito_risk":0,"arthritis_risk":5,"migraine_risk":7,"frizz_risk":0,"updated_at":"2026-03-08T19:12:45.680773+05:30"},{"city":"Amravati","state":"Maharashtra","latitude":20.9374,"longitude":77.7796,"temp":31.0,"humidity":35,"rain":0.0,"pressure":967.7,"uv_index":7.9,"wind_gusts":20.5,"aqi":119,"pm10":25.3,"pm2_5":17.3,"mosquito_risk":0,"arthritis_risk":5,"migraine_risk":7,"frizz_risk":0,"updated_at":"2026-03-08T19:12:45.680781+05:30"},{"city":"Latur","state":"Maharashtra","latitude":18.4088,"longitude":76.5604,"temp":30.0,"humidity":32,"rain":0.0,"pressure":940.5,"uv_index":8.4,"wind_gusts":24.1,"aqi":162,"pm10":27.0,"pm2_5":21.9,"mosquito_risk":4,"arthritis_risk":5,"migraine_risk":7,"frizz_risk":0,"updated_at":"2026-03-08T19:12:45.680788+05:30"},{"city":"Nanded","state":"Maharashtra","latitude":19.1383,"longitude":77.3091,"temp":31.0,"humidity":35,"rain":0.0,"pressure":969.1,"uv_index":8.15,"wind_gusts":25.2,"aqi":146,"pm10":27.1,"pm2_5":20.1,"mosquito_risk":0,"arthritis_risk":5,"migraine_risk":7,"frizz_risk":0,"updated_at":"2026-03-08T19:12:45.680794+05:30"},{"city":"Gulbarga","state":"Karnataka","latitude":17.3297,"longitude":76.8343,"temp":33.7,"humidity":20,"rain":0.0,"pressure":958.8,"uv_index":8.45,"wind_gusts":28.4,"aqi":169,"pm10":24.4,"pm2_5":19.3,"mosquito_risk":0,"arthritis_risk":5,"migraine_risk":7,"frizz_risk":0,"updated_at":"2026-03-08T19:12:45.680801+05:30"},{"city":"Bidar","state":"Karnataka","latitude":17.9104,"longitude":77.5199,"temp":30.4,"humidity":22,"rain":0.0,"pressure":936.5,"uv_index":8.4,"wind_gusts":29.5,"aqi":154,"pm10":32.8,"pm2_5":24.9,"mosquito_risk":0,"arthritis_risk":5,"migraine_risk":7,"frizz_risk":0,"updated_at":"2026-03-08T19:12:45.680807+05:30"},{"city":"Hospet","state":"Karnataka","latitude":15.2689,"longitude":76.3909,"temp":33.3,"humidity":28,"rain":0.0,"pressure":955.8,"uv_index":8.75,"wind_gusts":25.6,"aqi":185,"pm10":36.1,"pm2_5":29.9,"mosquito_risk":0,"arthritis_risk":5,"migraine_risk":7,"frizz_risk":0,"updated_at":"2026-03-08T19:12:45.680813+05:30"},{"city":"Tirupur","state":"Tamil Nadu","latitude":11.1085,"longitude":77.3411,"temp":32.8,"humidity":28,"rain":0.0,"pressure":974.5,"uv_index":9.2,"wind_gusts":29.2,"aqi":153,"pm10":44.2,"pm2_5":37.4,"mosquito_risk":0,"arthritis_risk":5,"migraine_risk":7,"frizz_risk":0,"updated_at":"2026-03-08T19:12:45.680820+05:30"},{"city":"Alappuzha","state":"Kerala","latitude":9.4981,"longitude":76.3388,"temp":28.8,"humidity":80,"rain":0.0,"pressure":1008.4,"uv_index":9.0,"wind_gusts":32.0,"aqi":162,"pm10":30.7,"pm2_5":28.6,"mosquito_risk":7,"arthritis_risk":0,"migraine_risk":4,"frizz_risk":1,"updated_at":"2026-03-08T19:12:45.680826+05:30"},{"city":"Munnar","state":"Kerala","latitude":10.0889,"longitude":77.0595,"temp":22.8,"humidity":81,"rain":0.0,"pressure":857.4,"uv_index":9.5,"wind_gusts":21.2,"aqi":118,"pm10":42.4,"pm2_5":36.7,"mosquito_risk":3,"arthritis_risk":5,"migraine_risk":7,"frizz_risk":1,"updated_at":"2026-03-08T19:12:45.680833+05:30"},{"city":"Silchar","state":"Assam","latitude":24.8333,"longitude":92.7789,"temp":25.7,"humidity":71,"rain":0.0,"pressure":1008.3,"uv_index":7.6,"wind_gusts":19.4,"aqi":163,"pm10":74.5,"pm2_5":67.8,"mosquito_risk":7,"arthritis_risk":0,"migraine_risk":4,"frizz_risk":1,"updated_at":"2026-03-08T19:12:45.680840+05:30"},{"city":"Dibrugarh","state":"Assam","latitude":27.4728,"longitude":94.912,"temp":25.4,"humidity":69,"rain":0.0,"pressure":999.1,"uv_index":6.15,"wind_gusts":24.8,"aqi":159,"pm10":79.2,"pm2_5":67.3,"mosquito_risk":7,"arthritis_risk":5,"migraine_risk":7,"frizz_risk":1,"updated_at":"2026-03-08T19:12:45.680847+05:30"}]