[{"city":"Delhi","state":"Delhi","latitude":28.6139,"longitude":77.209,"temp":36.9,"humidity":22,"rain":0.0,"pressure":979.1,"uv_index":7.75,"wind_gusts":32.0,"aqi":326,"pm10":424.7,"pm2_5":89.4,"no2":20.5,"co":562.0,"o3":78.0,"so2":13.9,"mosquito_risk":0,"arthritis_risk":5,"migraine_risk":10,"frizz_risk":0,"updated_at":"2026-05-20T09:22:14.141977+05:30"},{"city":"Mumbai","state":"Maharashtra","latitude":19.076,"longitude":72.8777,"temp":30.9,"humidity":65,"rain":0.0,"pressure":1008.1,"uv_index":7.5,"wind_gusts":40.3,"aqi":72,"pm10":26.3,"pm2_5":15.7,"no2":9.8,"co":216.0,"o3":52.0,"so2":9.4,"mosquito_risk":3,"arthritis_risk":0,"migraine_risk":4,"frizz_risk":1,"updated_at":"2026-05-20T09:22:14.142020+05:30"},{"city":"Bangalore","state":"Karnataka","latitude":12.9716,"longitude":77.5946,"temp":24.7,"humidity":77,"rain":0.0,"pressure":912.3,"uv_index":6.95,"wind_gusts":36.0,"aqi":38,"pm10":9.8,"pm2_5":8.4,"no2":9.4,"co":435.0,"o3":56.0,"so2":4.7,"mosquito_risk":3,"arthritis_risk":5,"migraine_risk":7,"frizz_risk":1,"updated_at":"2026-05-20T09:22:14.142035+05:30"},{"city":"Hyderabad","state":"Telangana","latitude":17.385,"longitude":78.4867,"temp":33.5,"humidity":45,"rain":0.0,"pressure":952.1,"uv_index":8.75,"wind_gusts":34.6,"aqi":91,"pm10":38.3,"pm2_5":27.1,"no2":8.8,"co":384.0,"o3":79.0,"so2":7.7,"mosquito_risk":0,"arthritis_risk":5,"migraine_risk":7,"frizz_risk":1,"updated_at":"2026-05-20T09:22:14.142045+05:30"},{"city":"Chennai","state":"Tamil Nadu","latitude":13.0827,"longitude":80.2707,"temp":34.4,"humidity":50,"rain":0.0,"pressure":1004.8,"uv_index":9.05,"wind_gusts":35.6,"aqi":64,"pm10":18.0,"pm2_5":16.6,"no2":17.1,"co":391.0,"o3":68.0,"so2":13.5,"mosquito_risk":0,"arthritis_risk":5,"migraine_risk":4,"frizz_risk":1,"updated_at":"2026-05-20T09:22:14.142053+05:30"},{"city":"Kolkata","state":"West Bengal","latitude":22.5726,"longitude":88.3639,"temp":33.2,"humidity":72,"rain":0.0,"pressure":1001.2,"uv_index":8.95,"wind_gusts":24.1,"aqi":74,"pm10":36.0,"pm2_5":24.6,"no2":5.4,"co":488.0,"o3":90.0,"so2":10.6,"mosquito_risk":3,"arthritis_risk":5,"migraine_risk":4,"frizz_risk":1,"updated_at":"2026-05-20T09:22:14.142062+05:30"},{"city":"Pune","state":"Maharashtra","latitude":18.5204,"longitude":73.8567,"temp":29.0,"humidity":58,"rain":0.0,"pressure":948.2,"uv_index":8.45,"wind_gusts":40.7,"aqi":76,"pm10":43.0,"pm2_5":20.5,"no2":8.9,"co":170.0,"o3":58.0,"so2":9.8,"mosquito_risk":4,"arthritis_risk":5,"migraine_risk":7,"frizz_risk":1,"updated_at":"2026-05-20T09:22:14.142069+05:30"},{"city":"Ahmedabad","state":"Gujarat","latitude":23.0225,"longitude":72.5714,"temp":31.5,"humidity":63,"rain":0.0,"pressure":1000.8,"uv_index":8.15,"wind_gusts":36.4,"aqi":62,"pm10":28.6,"pm2_5":11.3,"no2":4.5,"co":184.0,"o3":49.0,"so2":4.4,"mosquito_risk":3,"arthritis_risk":5,"migraine_risk":4,"frizz_risk":1,"updated_at":"2026-05-20T09:22:14.142076+05:30"},{"city":"Jaipur","state":"Rajasthan","latitude":26.9124,"longitude":75.7873,"temp":35.7,"humidity":26,"rain":0.0,"pressure":957.8,"uv_index":8.3,"wind_gusts":35.6,"aqi":115,"pm10":273.8,"pm2_5":50.8,"no2":4.1,"co":215.0,"o3":74.0,"so2":5.0,"mosquito_risk":0,"arthritis_risk":5,"migraine_risk":10,"frizz_risk":0,"updated_at":"2026-05-20T09:22:14.142088+05:30"},{"city":"Lucknow","state":"Uttar Pradesh","latitude":26.8467,"longitude":80.9462,"temp":36.5,"humidity":47,"rain":0.0,"pressure":989.5,"uv_index":8.25,"wind_gusts":40.0,"aqi":152,"pm10":88.2,"pm2_5":56.0,"no2":12.7,"co":442.0,"o3":129.0,"so2":17.8,"mosquito_risk":0,"arthritis_risk":5,"migraine_risk":10,"frizz_risk":1,"updated_at":"2026-05-20T09:22:14.142096+05:30"},{"city":"Kanpur","state":"Uttar Pradesh","latitude":26.4499,"longitude":80.3319,"temp":37.9,"humidity":42,"rain":0.0,"pressure":987.5,"uv_index":8.25,"wind_gusts":33.1,"aqi":170,"pm10":219.3,"pm2_5":68.2,"no2":11.6,"co":342.0,"o3":129.0,"so2":14.2,"mosquito_risk":0,"arthritis_risk":5,"migraine_risk":10,"frizz_risk":1,"updated_at":"2026-05-20T09:22:14.142103+05:30"},{"city":"Chandigarh","state":"Chandigarh","latitude":30.7333,"longitude":76.7794,"temp":36.9,"humidity":21,"rain":0.0,"pressure":964.8,"uv_index":7.8,"wind_gusts":26.3,"aqi":97,"pm10":187.2,"pm2_5":48.3,"no2":12.9,"co":987.0,"o3":142.0,"so2":13.0,"mosquito_risk":0,"arthritis_risk":5,"migraine_risk":10,"frizz_risk":0,"updated_at":"2026-05-20T09:22:14.142110+05:30"},{"city":"Srinagar","state":"Jammu and Kashmir","latitude":34.0837,"longitude":74.7973,"temp":20.1,"humidity":52,"rain":0.0,"pressure":845.4,"uv_index":9.0,"wind_gusts":29.9,"aqi":86,"pm10":58.1,"pm2_5":32.4,"no2":10.8,"co":304.0,"o3":77.0,"so2":4.1,"mosquito_risk":0,"arthritis_risk":5,"migraine_risk":7,"frizz_risk":0,"updated_at":"2026-05-20T09:22:14.142117+05:30"},{"city":"Jammu","state":"Jammu and Kashmir","latitude":32.7266,"longitude":74.857,"temp":36.0,"humidity":27,"rain":0.0,"pressure":968.5,"uv_index":8.6,"wind_gusts":36.7,"aqi":82,"pm10":41.2,"pm2_5":31.0,"no2":15.5,"co":375.0,"o3":82.0,"so2":3.0,"mosquito_risk":0,"arthritis_risk":5,"migraine_risk":10,"frizz_risk":0,"updated_at":"2026-05-20T09:22:14.142124+05:30"},{"city":"Amritsar","state":"Punjab","latitude":31.634,"longitude":74.8723,"temp":34.5,"humidity":32,"rain":0.0,"pressure":975.9,"uv_index":8.5,"wind_gusts":27.7,"aqi":118,"pm10":74.3,"pm2_5":50.4,"no2":14.7,"co":684.0,"o3":95.0,"so2":7.4,"mosquito_risk":0,"arthritis_risk":5,"migraine_risk":7,"frizz_risk":0,"updated_at":"2026-05-20T09:22:14.142131+05:30"},{"city":"Ludhiana","state":"Punjab","latitude":30.901,"longitude":75.8573,"temp":35.0,"humidity":25,"rain":0.0,"pressure":974.0,"uv_index":8.05,"wind_gusts":22.3,"aqi":155,"pm10":156.5,"pm2_5":61.2,"no2":16.7,"co":779.0,"o3":89.0,"so2":13.1,"mosquito_risk":0,"arthritis_risk":5,"migraine_risk":7,"frizz_risk":0,"updated_at":"2026-05-20T09:22:14.142137+05:30"},{"city":"Jalandhar","state":"Punjab","latitude":31.326,"longitude":75.5762,"temp":35.5,"humidity":24,"rain":0.0,"pressure":974.9,"uv_index":8.25,"wind_gusts":30.6,"aqi":141,"pm10":95.7,"pm2_5":55.2,"no2":20.3,"co":851.0,"o3":94.0,"so2":10.0,"mosquito_risk":0,"arthritis_risk":5,"migraine_risk":10,"frizz_risk":0,"updated_at":"2026-05-20T09:22:14.142144+05:30"},{"city":"Dehradun","state":"Uttarakhand","latitude":30.6284,"longitude":78.0322,"temp":26.8,"humidity":27,"rain":0.0,"pressure":833.0,"uv_index":8.25,"wind_gusts":43.2,"aqi":70,"pm10":34.1,"pm2_5":22.8,"no2":3.2,"co":260.0,"o3":127.0,"so2":3.0,"mosquito_risk":4,"arthritis_risk":5,"migraine_risk":7,"frizz_risk":0,"updated_at":"2026-05-20T09:22:14.142150+05:30"},{"city":"Shimla","state":"Himachal Pradesh","latitude":31.1048,"longitude":77.1734,"temp":24.9,"humidity":18,"rain":0.0,"pressure":788.2,"uv_index":8.3,"wind_gusts":44.3,"aqi":74,"pm10":72.2,"pm2_5":26.9,"no2":3.1,"co":210.0,"o3":138.0,"so2":4.0,"mosquito_risk":0,"arthritis_risk":5,"migraine_risk":7,"frizz_risk":1,"updated_at":"2026-05-20T09:22:14.142161+05:30"},{"city":"Manali","state":"Himachal Pradesh","latitude":32.2396,"longitude":77.1887,"temp":23.8,"humidity":33,"rain":0.0,"pressure":821.4,"uv_index":9.65,"wind_gusts":38.9,"aqi":41,"pm10":4.9,"pm2_5":3.2,"no2":11.5,"co":222.0,"o3":115.0,"so2":0.2,"mosquito_risk":0,"arthritis_risk":5,"migraine_risk":7,"frizz_risk":0,"updated_at":"2026-05-20T09:22:14.142168+05:30"},{"city":"Gurgaon","state":"Haryana","latitude":28.4595,"longitude":77.0266,"temp":35.7,"humidity":26,"rain":0.0,"pressure":977.6,"uv_index":7.85,"wind_gusts":40.0,"aqi":874,"pm10":1072.9,"pm2_5":162.5,"no2":19.8,"co":450.0,"o3":78.0,"so2":14.2,"mosquito_risk":0,"arthritis_risk":5,"migraine_risk":10,"frizz_risk":0,"updated_at":"2026-05-20T09:22:14.142174+05:30"},{"city":"Noida","state":"Uttar Pradesh","latitude":28.5355,"longitude":77.391,"temp":36.6,"humidity":24,"rain":0.0,"pressure":980.4,"uv_index":7.8,"wind_gusts":31.3,"aqi":874,"pm10":1072.9,"pm2_5":162.5,"no2":19.8,"co":655.0,"o3":78.0,"so2":14.2,"mosquito_risk":0,"arthritis_risk":5,"migraine_risk":10,"frizz_risk":0,"updated_at":"2026-05-20T09:22:14.142181+05:30"},{"city":"Ghaziabad","state":"Uttar Pradesh","latitude":28.6692,"longitude":77.4538,"temp":36.2,"humidity":23,"rain":0.0,"pressure":978.7,"uv_index":7.75,"wind_gusts":25.6,"aqi":255,"pm10":367.9,"pm2_5":88.0,"no2":16.6,"co":397.0,"o3":99.0,"so2":14.5,"mosquito_risk":0,"arthritis_risk":5,"migraine_risk":10,"frizz_risk":0,"updated_at":"2026-05-20T09:22:14.142188+05:30"},{"city":"Faridabad","state":"Haryana","latitude":28.4089,"longitude":77.3178,"temp":36.7,"humidity":22,"rain":0.0,"pressure":979.7,"uv_index":7.8,"wind_gusts":37.4,"aqi":874,"pm10":1072.9,"pm2_5":162.5,"no2":19.8,"co":460.0,"o3":78.0,"so2":14.2,"mosquito_risk":0,"arthritis_risk":5,"migraine_risk":10,"frizz_risk":0,"updated_at":"2026-05-20T09:22:14.142194+05:30"},{"city":"Meerut","state":"Uttar Pradesh","latitude":28.9845,"longitude":77.7064,"temp":35.0,"humidity":27,"rain":0.0,"pressure":977.8,"uv_index":7.7,"wind_gusts":23.4,"aqi":255,"pm10":367.9,"pm2_5":88.0,"no2":16.6,"co":331.0,"o3":99.0,"so2":14.5,"mosquito_risk":0,"arthritis_risk":5,"migraine_risk":7,"frizz_risk":0,"updated_at":"2026-05-20T09:22:14.142202+05:30"},{"city":"Agra","state":"Uttar Pradesh","latitude":27.1767,"longitude":78.0081,"temp":36.8,"humidity":23,"rain":0.0,"pressure":984.4,"uv_index":8.1,"wind_gusts":36.7,"aqi":548,"pm10":555.1,"pm2_5":92.7,"no2":12.8,"co":283.0,"o3":86.0,"so2":8.5,"mosquito_risk":0,"arthritis_risk":5,"migraine_risk":10,"frizz_risk":0,"updated_at":"2026-05-20T09:22:14.142208+05:30"},{"city":"Varanasi","state":"Uttar Pradesh","latitude":25.3176,"longitude":82.9739,"temp":36.8,"humidity":45,"rain":0.0,"pressure":993.3,"uv_index":8.75,"wind_gusts":44.6,"aqi":152,"pm10":80.8,"pm2_5":60.1,"no2":9.9,"co":646.0,"o3":145.0,"so2":22.9,"mosquito_risk":0,"arthritis_risk":5,"migraine_risk":10,"frizz_risk":1,"updated_at":"2026-05-20T09:22:14.142215+05:30"},{"city":"Prayagraj","state":"Uttar Pradesh","latitude":25.4358,"longitude":81.8463,"temp":37.8,"humidity":41,"rain":0.0,"pressure":991.6,"uv_index":8.6,"wind_gusts":37.1,"aqi":150,"pm10":88.7,"pm2_5":60.8,"no2":11.9,"co":420.0,"o3":137.0,"so2":21.8,"mosquito_risk":0,"arthritis_risk":5,"migraine_risk":10,"frizz_risk":1,"updated_at":"2026-05-20T09:22:14.142222+05:30"},{"city":"Gorakhpur","state":"Uttar Pradesh","latitude":26.7606,"longitude":83.3732,"temp":32.4,"humidity":65,"rain":0.0,"pressure":994.1,"uv_index":8.65,"wind_gusts":26.6,"aqi":156,"pm10":85.9,"pm2_5":66.6,"no2":8.0,"co":528.0,"o3":125.0,"so2":17.6,"mosquito_risk":3,"arthritis_risk":5,"migraine_risk":7,"frizz_risk":1,"updated_at":"2026-05-20T09:22:14.142230+05:30"},{"city":"Bareilly","state":"Uttar Pradesh","latitude":28.367,"longitude":79.4304,"temp":33.6,"humidity":62,"rain":0.0,"pressure":982.9,"uv_index":8.05,"wind_gusts":25.2,"aqi":148,"pm10":112.5,"pm2_5":60.3,"no2":8.8,"co":439.0,"o3":141.0,"so2":15.6,"mosquito_risk":3,"arthritis_risk":5,"migraine_risk":7,"frizz_risk":1,"updated_at":"2026-05-20T09:22:14.142237+05:30"},{"city":"Aligarh","state":"Uttar Pradesh","latitude":27.8974,"longitude":78.088,"temp":35.4,"humidity":26,"rain":0.0,"pressure":982.1,"uv_index":7.9,"wind_gusts":27.7,"aqi":482,"pm10":616.5,"pm2_5":124.3,"no2":16.5,"co":294.0,"o3":83.0,"so2":15.0,"mosquito_risk":0,"arthritis_risk":5,"migraine_risk":10,"frizz_risk":0,"updated_at":"2026-05-20T09:22:14.142243+05:30"},{"city":"Moradabad","state":"Uttar Pradesh","latitude":28.8386,"longitude":78.7733,"temp":33.5,"humidity":60,"rain":0.0,"pressure":979.8,"uv_index":7.9,"wind_gusts":28.1,"aqi":166,"pm10":272.9,"pm2_5":110.4,"no2":25.7,"co":450.0,"o3":130.0,"so2":17.6,"mosquito_risk":0,"arthritis_risk":5,"migraine_risk":7,"frizz_risk":1,"updated_at":"2026-05-20T09:22:14.142249+05:30"},{"city":"Saharanpur","state":"Uttar Pradesh","latitude":29.9637,"longitude":77.546,"temp":34.1,"humidity":31,"rain":0.0,"pressure":971.9,"uv_index":7.4,"wind_gusts":19.4,"aqi":136,"pm10":247.7,"pm2_5":86.4,"no2":19.5,"co":586.0,"o3":123.0,"so2":12.0,"mosquito_risk":0,"arthritis_risk":5,"migraine_risk":7,"frizz_risk":0,"updated_at":"2026-05-20T09:22:14.142256+05:30"},{"city":"Jhansi","state":"Uttar Pradesh","latitude":25.4484,"longitude":78.5685,"temp":38.0,"humidity":21,"rain":0.0,"pressure":974.5,"uv_index":8.5,"wind_gusts":45.0,"aqi":65,"pm10":10.7,"pm2_5":8.1,"no2":3.1,"co":180.0,"o3":85.0,"so2":3.9,"mosquito_risk":0,"arthritis_risk":5,"migraine_risk":10,"frizz_risk":0,"updated_at":"2026-05-20T09:22:17.473257+05:30"},{"city":"Surat","state":"Gujarat","latitude":21.1702,"longitude":72.8311,"temp":32.2,"humidity":63,"rain":0.0,"pressure":1005.8,"uv_index":7.7,"wind_gusts":44.6,"aqi":87,"pm10":41.9,"pm2_5":23.2,"no2":22.0,"co":506.0,"o3":35.0,"so2":60.6,"mosquito_risk":3,"arthritis_risk":5,"migraine_risk":4,"frizz_risk":1,"updated_at":"2026-05-20T09:22:17.473288+05:30"},{"city":"Vadodara","state":"Gujarat","latitude":22.3072,"longitude":73.1812,"temp":33.2,"humidity":56,"rain":0.0,"pressure":1003.0,"uv_index":8.1,"wind_gusts":46.1,"aqi":65,"pm10":37.1,"pm2_5":18.0,"no2":7.5,"co":224.0,"o3":51.0,"so2":10.4,"mosquito_risk":0,"arthritis_risk":5,"migraine_risk":4,"frizz_risk":1,"updated_at":"2026-05-20T09:22:17.473299+05:30"},{"city":"Rajkot","state":"Gujarat","latitude":22.3039,"longitude":70.8022,"temp":31.2,"humidity":63,"rain":0.0,"pressure":993.1,"uv_index":7.75,"wind_gusts":41.8,"aqi":60,"pm10":23.2,"pm2_5":9.2,"no2":3.7,"co":131.0,"o3":51.0,"so2":5.8,"mosquito_risk":3,"arthritis_risk":5,"migraine_risk":7,"frizz_risk":1,"updated_at":"2026-05-20T09:22:17.473308+05:30"},{"city":"Thane","state":"Maharashtra","latitude":19.2183,"longitude":72.9781,"temp":32.5,"humidity":58,"rain":0.0,"pressure":1007.5,"uv_index":7.8,"wind_gusts":39.6,"aqi":72,"pm10":26.3,"pm2_5":15.7,"no2":9.8,"co":194.0,"o3":52.0,"so2":9.4,"mosquito_risk":0,"arthritis_risk":5,"migraine_risk":4,"frizz_risk":1,"updated_at":"2026-05-20T09:22:17.473317+05:30"},{"city":"Nagpur","state":"Maharashtra","latitude":21.1458,"longitude":79.0882,"temp":38.8,"humidity":15,"rain":0.0,"pressure":970.4,"uv_index":8.9,"wind_gusts":41.8,"aqi":115,"pm10":18.9,"pm2_5":14.5,"no2":9.5,"co":281.0,"o3":108.0,"so2":15.3,"mosquito_risk":0,"arthritis_risk":5,"migraine_risk":10,"frizz_risk":0,"updated_at":"2026-05-20T09:22:17.473325+05:30"},{"city":"Nashik","state":"Maharashtra","latitude":19.9975,"longitude":73.7898,"temp":29.6,"humidity":52,"rain":0.0,"pressure":945.4,"uv_index":8.2,"wind_gusts":39.2,"aqi":68,"pm10":26.2,"pm2_5":14.3,"no2":4.6,"co":131.0,"o3":56.0,"so2":3.7,"mosquito_risk":4,"arthritis_risk":5,"migraine_risk":7,"frizz_risk":1,"updated_at":"2026-05-20T09:22:17.473332+05:30"},{"city":"Aurangabad","state":"Maharashtra","latitude":19.8762,"longitude":75.3433,"temp":32.0,"humidity":35,"rain":0.0,"pressure":943.9,"uv_index":9.05,"wind_gusts":38.2,"aqi":72,"pm10":29.4,"pm2_5":16.4,"no2":5.5,"co":158.0,"o3":65.0,"so2":4.4,"mosquito_risk":0,"arthritis_risk":5,"migraine_risk":7,"frizz_risk":0,"updated_at":"2026-05-20T09:22:17.473340+05:30"},{"city":"Solapur","state":"Maharashtra","latitude":17.6599,"longitude":75.9064,"temp":31.5,"humidity":50,"rain":0.0,"pressure":957.0,"uv_index":9.05,"wind_gusts":47.9,"aqi":83,"pm10":38.8,"pm2_5":23.6,"no2":5.3,"co":159.0,"o3":74.0,"so2":5.3,"mosquito_risk":0,"arthritis_risk":5,"migraine_risk":7,"frizz_risk":1,"updated_at":"2026-05-20T09:22:17.473348+05:30"},{"city":"Kolhapur","state":"Maharashtra","latitude":16.705,"longitude":74.2433,"temp":27.5,"humidity":66,"rain":0.0,"pressure":948.6,"uv_index":8.85,"wind_gusts":39.2,"aqi":76,"pm10":51.2,"pm2_5":23.1,"no2":6.5,"co":150.0,"o3":56.0,"so2":3.5,"mosquito_risk":7,"arthritis_risk":5,"migraine_risk":7,"frizz_risk":1,"updated_at":"2026-05-20T09:22:17.473356+05:30"},{"city":"Goa","state":"Goa","latitude":15.2993,"longitude":74.124,"temp":29.5,"humidity":76,"rain":0.0,"pressure":998.4,"uv_index":7.6,"wind_gusts":23.8,"aqi":56,"pm10":11.4,"pm2_5":8.6,"no2":2.6,"co":190.0,"o3":81.0,"so2":1.6,"mosquito_risk":7,"arthritis_risk":5,"migraine_risk":7,"frizz_risk":1,"updated_at":"2026-05-20T09:22:17.473363+05:30"},{"city":"Jodhpur","state":"Rajasthan","latitude":26.2389,"longitude":73.0243,"temp":32.8,"humidity":50,"rain":0.0,"pressure":980.4,"uv_index":8.45,"wind_gusts":43.9,"aqi":126,"pm10":287.8,"pm2_5":61.5,"no2":2.4,"co":136.0,"o3":60.0,"so2":4.0,"mosquito_risk":0,"arthritis_risk":5,"migraine_risk":7,"frizz_risk":1,"updated_at":"2026-05-20T09:22:17.473370+05:30"},{"city":"Udaipur","state":"Rajasthan","latitude":24.5854,"longitude":73.7125,"temp":31.8,"humidity":42,"rain":0.0,"pressure":945.3,"uv_index":8.85,"wind_gusts":49.0,"aqi":55,"pm10":71.7,"pm2_5":23.0,"no2":2.0,"co":151.0,"o3":71.0,"so2":4.4,"mosquito_risk":0,"arthritis_risk":5,"migraine_risk":7,"frizz_risk":1,"updated_at":"2026-05-20T09:22:17.473378+05:30"},{"city":"Kota","state":"Rajasthan","latitude":25.2138,"longitude":75.8648,"temp":37.3,"humidity":22,"rain":0.0,"pressure":976.9,"uv_index":8.4,"wind_gusts":32.8,"aqi":50,"pm10":37.8,"pm2_5":18.0,"no2":3.8,"co":191.0,"o3":81.0,"so2":5.6,"mosquito_risk":0,"arthritis_risk":5,"migraine_risk":10,"frizz_risk":0,"updated_at":"2026-05-20T09:22:17.473385+05:30"},{"city":"Bikaner","state":"Rajasthan","latitude":28.0229,"longitude":73.3119,"temp":36.2,"humidity":31,"rain":0.0,"pressure":978.0,"uv_index":8.4,"wind_gusts":36.4,"aqi":103,"pm10":362.3,"pm2_5":106.6,"no2":1.4,"co":171.0,"o3":82.0,"so2":4.6,"mosquito_risk":0,"arthritis_risk":5,"migraine_risk":10,"frizz_risk":1,"updated_at":"2026-05-20T09:22:17.473392+05:30"},{"city":"Ajmer","state":"Rajasthan","latitude":26.4499,"longitude":74.6399,"temp":32.5,"humidity":35,"rain":0.0,"pressure":952.9,"uv_index":8.4,"wind_gusts":44.3,"aqi":55,"pm10":97.8,"pm2_5":32.1,"no2":2.6,"co":159.0,"o3":70.0,"so2":4.6,"mosquito_risk":0,"arthritis_risk":5,"migraine_risk":7,"frizz_risk":0,"updated_at":"2026-05-20T09:22:17.473400+05:30"},{"city":"Gwalior","state":"Madhya Pradesh","latitude":26.2183,"longitude":78.1828,"temp":37.8,"humidity":21,"rain":0.0,"pressure":979.9,"uv_index":8.3,"wind_gusts":43.9,"aqi":83,"pm10":21.6,"pm2_5":13.5,"no2":4.5,"co":201.0,"o3":83.0,"so2":4.7,"mosquito_risk":0,"arthritis_risk":5,"migraine_risk":10,"frizz_risk":0,"updated_at":"2026-05-20T09:22:17.473407+05:30"},{"city":"Indore","state":"Madhya Pradesh","latitude":22.7196,"longitude":75.8577,"temp":33.2,"humidity":38,"rain":0.0,"pressure":947.4,"uv_index":7.9,"wind_gusts":41.4,"aqi":57,"pm10":44.1,"pm2_5":22.1,"no2":6.5,"co":275.0,"o3":70.0,"so2":13.6,"mosquito_risk":0,"arthritis_risk":5,"migraine_risk":7,"frizz_risk":1,"updated_at":"2026-05-20T09:22:17.473414+05:30"},{"city":"Bhopal","state":"Madhya Pradesh","latitude":23.2599,"longitude":77.4126,"temp":36.5,"humidity":19,"rain":0.0,"pressure":952.2,"uv_index":8.7,"wind_gusts":41.4,"aqi":66,"pm10":20.8,"pm2_5":11.3,"no2":3.0,"co":227.0,"o3":102.0,"so2":6.5,"mosquito_risk":0,"arthritis_risk":5,"migraine_risk":10,"frizz_risk":0,"updated_at":"2026-05-20T09:22:17.473421+05:30"},{"city":"Jabalpur","state":"Madhya Pradesh","latitude":23.1815,"longitude":79.9864,"temp":37.7,"humidity":25,"rain":0.0,"pressure":958.7,"uv_index":8.85,"wind_gusts":26.6,"aqi":82,"pm10":44.8,"pm2_5":28.5,"no2":10.0,"co":268.0,"o3":109.0,"so2":6.8,"mosquito_risk":0,"arthritis_risk":5,"migraine_risk":10,"frizz_risk":0,"updated_at":"2026-05-20T09:22:17.473428+05:30"},{"city":"Ujjain","state":"Madhya Pradesh","latitude":23.1765,"longitude":75.7885,"temp":33.2,"humidity":40,"rain":0.0,"pressure":952.9,"uv_index":8.2,"wind_gusts":44.3,"aqi":55,"pm10":45.3,"pm2_5":21.6,"no2":5.5,"co":197.0,"o3":64.0,"so2":12.8,"mosquito_risk":0,"arthritis_risk":5,"migraine_risk":7,"frizz_risk":1,"updated_at":"2026-05-20T09:22:17.473436+05:30"},{"city":"Visakhapatnam","state":"Andhra Pradesh","latitude":17.6868,"longitude":83.2185,"temp":36.1,"humidity":52,"rain":0.0,"pressure":999.2,"uv_index":9.05,"wind_gusts":36.7,"aqi":77,"pm10":37.7,"pm2_5":33.6,"no2":20.6,"co":695.0,"o3":108.0,"so2":49.6,"mosquito_risk":0,"arthritis_risk":5,"migraine_risk":10,"frizz_risk":1,"updated_at":"2026-05-20T09:22:17.473444+05:30"},{"city":"Vijayawada","state":"Andhra Pradesh","latitude":16.5062,"longitude":80.648,"temp":36.9,"humidity":43,"rain":0.0,"pressure":999.2,"uv_index":9.1,"wind_gusts":38.9,"aqi":93,"pm10":33.2,"pm2_5":29.6,"no2":6.7,"co":247.0,"o3":128.0,"so2":10.8,"mosquito_risk":0,"arthritis_risk":5,"migraine_risk":10,"frizz_risk":1,"updated_at":"2026-05-20T09:22:17.473451+05:30"},{"city":"Guntur","state":"Andhra Pradesh","latitude":16.3067,"longitude":80.4365,"temp":36.8,"humidity":42,"rain":0.0,"pressure":1000.5,"uv_index":9.05,"wind_gusts":39.2,"aqi":94,"pm10":38.3,"pm2_5":33.2,"no2":6.8,"co":246.0,"o3":119.0,"so2":11.7,"mosquito_risk":0,"arthritis_risk":5,"migraine_risk":7,"frizz_risk":1,"updated_at":"2026-05-20T09:22:17.473458+05:30"},{"city":"Nellore","state":"Andhra Pradesh","latitude":14.4426,"longitude":79.9865,"temp":36.2,"humidity":43,"rain":0.0,"pressure":1003.2,"uv_index":8.35,"wind_gusts":44.6,"aqi":70,"pm10":8.1,"pm2_5":7.3,"no2":5.3,"co":205.0,"o3":84.0,"so2":6.8,"mosquito_risk":0,"arthritis_risk":5,"migraine_risk":7,"frizz_risk":1,"updated_at":"2026-05-20T09:22:17.473466+05:30"},{"city":"Kurnool","state":"Andhra Pradesh","latitude":15.8281,"longitude":78.0373,"temp":32.9,"humidity":54,"rain":0.0,"pressure":976.3,"uv_index":7.15,"wind_gusts":40.7,"aqi":69,"pm10":17.4,"pm2_5":11.7,"no2":5.4,"co":162.0,"o3":77.0,"so2":3.6,"mosquito_risk":0,"arthritis_risk":5,"migraine_risk":7,"frizz_risk":1,"updated_at":"2026-05-20T09:22:17.473475+05:30"},{"city":"Kakinada","state":"Andhra Pradesh","latitude":16.9891,"longitude":82.2475,"temp":36.2,"humidity":52,"rain":0.0,"pressure":1003.4,"uv_index":9.1,"wind_gusts":39.2,"aqi":69,"pm10":28.6,"pm2_5":23.1,"no2":4.4,"co":339.0,"o3":126.0,"so2":7.5,"mosquito_risk":0,"arthritis_risk":5,"migraine_risk":7,"frizz_risk":1,"updated_at":"2026-05-20T09:22:17.473482+05:30"},{"city":"Tirupati","state":"Andhra Pradesh","latitude":13.6288,"longitude":79.4192,"temp":35.0,"humidity":43,"rain":0.0,"pressure":989.3,"uv_index":9.05,"wind_gusts":33.8,"aqi":69,"pm10":8.8,"pm2_5":8.2,"no2":5.2,"co":193.0,"o3":85.0,"so2":2.3,"mosquito_risk":0,"arthritis_risk":5,"migraine_risk":7,"frizz_risk":1,"updated_at":"2026-05-20T09:22:17.473489+05:30"},{"city":"Warangal","state":"Telangana","latitude":17.9689,"longitude":79.5941,"temp":35.4,"humidity":44,"rain":0.0,"pressure":976.4,"uv_index":8.25,"wind_gusts":26.6,"aqi":107,"pm10":45.1,"pm2_5":37.1,"no2":7.9,"co":264.0,"o3":99.0,"so2":7.6,"mosquito_risk":0,"arthritis_risk":5,"migraine_risk":10,"frizz_risk":1,"updated_at":"2026-05-20T09:22:17.473496+05:30"},{"city":"Nizamabad","state":"Telangana","latitude":18.6725,"longitude":78.0941,"temp":36.5,"humidity":29,"rain":0.0,"pressure":963.1,"uv_index":9.05,"wind_gusts":35.6,"aqi":106,"pm10":40.0,"pm2_5":32.1,"no2":7.7,"co":256.0,"o3":103.0,"so2":9.2,"mosquito_risk":0,"arthritis_risk":5,"migraine_risk":10,"frizz_risk":0,"updated_at":"2026-05-20T09:22:17.473503+05:30"},{"city":"Mysore","state":"Karnataka","latitude":12.2958,"longitude":76.6396,"temp":27.0,"humidity":65,"rain":0.0,"pressure":929.4,"uv_index":7.7,"wind_gusts":43.2,"aqi":27,"pm10":5.2,"pm2_5":4.3,"no2":4.4,"co":179.0,"o3":60.0,"so2":1.7,"mosquito_risk":7,"arthritis_risk":5,"migraine_risk":7,"frizz_risk":1,"updated_at":"2026-05-20T09:22:17.473511+05:30"},{"city":"Mangalore","state":"Karnataka","latitude":12.9141,"longitude":74.856,"temp":27.0,"humidity":90,"rain":0.1,"pressure":1007.6,"uv_index":3.4,"wind_gusts":29.5,"aqi":33,"pm10":9.5,"pm2_5":7.5,"no2":5.8,"co":238.0,"o3":52.0,"so2":2.2,"mosquito_risk":10,"arthritis_risk":5,"migraine_risk":0,"frizz_risk":1,"updated_at":"2026-05-20T09:22:17.473518+05:30"},{"city":"Hubli-Dharwad","state":"Karnataka","latitude":15.3647,"longitude":75.124,"temp":26.1,"humidity":80,"rain":0.0,"pressure":941.4,"uv_index":8.4,"wind_gusts":36.0,"aqi":27,"pm10":4.3,"pm2_5":3.9,"no2":5.2,"co":144.0,"o3":67.0,"so2":1.3,"mosquito_risk":7,"arthritis_risk":5,"migraine_risk":7,"frizz_risk":1,"updated_at":"2026-05-20T09:22:17.473526+05:30"},{"city":"Belgaum","state":"Karnataka","latitude":15.8497,"longitude":74.4977,"temp":27.0,"humidity":69,"rain":0.0,"pressure":926.6,"uv_index":8.25,"wind_gusts":34.9,"aqi":67,"pm10":56.6,"pm2_5":24.1,"no2":5.0,"co":133.0,"o3":66.0,"so2":2.7,"mosquito_risk":7,"arthritis_risk":5,"migraine_risk":7,"frizz_risk":1,"updated_at":"2026-05-20T09:22:20.800112+05:30"},{"city":"Coimbatore","state":"Tamil Nadu","latitude":11.0168,"longitude":76.9558,"temp":28.8,"humidity":66,"rain":0.0,"pressure":961.9,"uv_index":7.8,"wind_gusts":57.6,"aqi":25,"pm10":4.3,"pm2_5":3.7,"no2":3.9,"co":215.0,"o3":61.0,"so2":2.0,"mosquito_risk":7,"arthritis_risk":5,"migraine_risk":7,"frizz_risk":1,"updated_at":"2026-05-20T09:22:20.800144+05:30"},{"city":"Madurai","state":"Tamil Nadu","latitude":9.9252,"longitude":78.1198,"temp":33.3,"humidity":50,"rain":0.0,"pressure":992.2,"uv_index":8.7,"wind_gusts":57.2,"aqi":75,"pm10":12.1,"pm2_5":11.1,"no2":13.2,"co":259.0,"o3":63.0,"so2":5.7,"mosquito_risk":0,"arthritis_risk":5,"migraine_risk":7,"frizz_risk":1,"updated_at":"2026-05-20T09:22:20.800156+05:30"},{"city":"Trichy","state":"Tamil Nadu","latitude":10.7905,"longitude":78.7047,"temp":31.5,"humidity":62,"rain":0.0,"pressure":998.8,"uv_index":8.15,"wind_gusts":43.9,"aqi":41,"pm10":7.0,"pm2_5":6.1,"no2":5.3,"co":167.0,"o3":57.0,"so2":4.0,"mosquito_risk":3,"arthritis_risk":5,"migraine_risk":7,"frizz_risk":1,"updated_at":"2026-05-20T09:22:20.800165+05:30"},{"city":"Salem","state":"Tamil Nadu","latitude":11.6643,"longitude":78.146,"temp":30.6,"humidity":58,"rain":0.0,"pressure":977.2,"uv_index":5.95,"wind_gusts":30.2,"aqi":47,"pm10":13.5,"pm2_5":11.4,"no2":9.5,"co":250.0,"o3":64.0,"so2":11.9,"mosquito_risk":0,"arthritis_risk":5,"migraine_risk":3,"frizz_risk":1,"updated_at":"2026-05-20T09:22:20.800173+05:30"},{"city":"Tirunelveli","state":"Tamil Nadu","latitude":8.7139,"longitude":77.7567,"temp":32.8,"humidity":53,"rain":0.0,"pressure":1003.0,"uv_index":8.9,"wind_gusts":36.7,"aqi":23,"pm10":3.6,"pm2_5":3.2,"no2":3.2,"co":177.0,"o3":56.0,"so2":1.3,"mosquito_risk":0,"arthritis_risk":5,"migraine_risk":4,"frizz_risk":1,"updated_at":"2026-05-20T09:22:20.800181+05:30"},{"city":"Vellore","state":"Tamil Nadu","latitude":12.9165,"longitude":79.1325,"temp":32.6,"humidity":49,"rain":0.0,"pressure":983.0,"uv_index":9.1,"wind_gusts":46.4,"aqi":54,"pm10":11.6,"pm2_5":9.8,"no2":7.2,"co":180.0,"o3":65.0,"so2":5.1,"mosquito_risk":0,"arthritis_risk":5,"migraine_risk":7,"frizz_risk":1,"updated_at":"2026-05-20T09:22:20.800188+05:30"},{"city":"Erode","state":"Tamil Nadu","latitude":11.341,"longitude":77.7172,"temp":32.2,"humidity":51,"rain":0.0,"pressure":988.7,"uv_index":7.9,"wind_gusts":43.2,"aqi":38,"pm10":7.4,"pm2_5":6.2,"no2":5.9,"co":209.0,"o3":59.0,"so2":3.4,"mosquito_risk":0,"arthritis_risk":5,"migraine_risk":7,"frizz_risk":1,"updated_at":"2026-05-20T09:22:20.800196+05:30"},{"city":"Kochi","state":"Kerala","latitude":9.9312,"longitude":76.2673,"temp":28.1,"humidity":84,"rain":0.1,"pressure":1009.9,"uv_index":2.15,"wind_gusts":37.1,"aqi":50,"pm10":9.7,"pm2_5":8.3,"no2":9.1,"co":283.0,"o3":49.0,"so2":3.9,"mosquito_risk":10,"arthritis_risk":0,"migraine_risk":0,"frizz_risk":1,"updated_at":"2026-05-20T09:22:20.800204+05:30"},{"city":"Thiruvananthapuram","state":"Kerala","latitude":8.5241,"longitude":76.9366,"temp":28.8,"humidity":79,"rain":0.0,"pressure":1009.2,"uv_index":8.4,"wind_gusts":41.8,"aqi":25,"pm10":6.9,"pm2_5":4.3,"no2":1.8,"co":131.0,"o3":54.0,"so2":0.5,"mosquito_risk":7,"arthritis_risk":0,"migraine_risk":4,"frizz_risk":1,"updated_at":"2026-05-20T09:22:20.800212+05:30"},{"city":"Kozhikode","state":"Kerala","latitude":11.2588,"longitude":75.7804,"temp":28.0,"humidity":84,"rain":0.1,"pressure":1008.9,"uv_index":6.4,"wind_gusts":29.2,"aqi":29,"pm10":5.2,"pm2_5":3.4,"no2":1.0,"co":225.0,"o3":64.0,"so2":0.5,"mosquito_risk":10,"arthritis_risk":0,"migraine_risk":4,"frizz_risk":1,"updated_at":"2026-05-20T09:22:20.800219+05:30"},{"city":"Thrissur","state":"Kerala","latitude":10.5276,"longitude":76.2144,"temp":27.0,"humidity":86,"rain":0.1,"pressure":1008.3,"uv_index":2.3,"wind_gusts":37.8,"aqi":42,"pm10":9.7,"pm2_5":8.7,"no2":7.8,"co":273.0,"o3":51.0,"so2":3.4,"mosquito_risk":10,"arthritis_risk":0,"migraine_risk":0,"frizz_risk":1,"updated_at":"2026-05-20T09:22:20.800228+05:30"},{"city":"Kannur","state":"Kerala","latitude":11.8745,"longitude":75.3704,"temp":28.2,"humidity":82,"rain":0.1,"pressure":1008.1,"uv_index":7.3,"wind_gusts":30.6,"aqi":30,"pm10":6.1,"pm2_5":4.6,"no2":3.2,"co":234.0,"o3":58.0,"so2":1.5,"mosquito_risk":10,"arthritis_risk":0,"migraine_risk":4,"frizz_risk":1,"updated_at":"2026-05-20T09:22:20.800235+05:30"},{"city":"Patna","state":"Bihar","latitude":25.5941,"longitude":85.1376,"temp":32.8,"humidity":67,"rain":0.0,"pressure":996.5,"uv_index":8.85,"wind_gusts":26.3,"aqi":153,"pm10":74.5,"pm2_5":64.0,"no2":9.7,"co":413.0,"o3":112.0,"so2":18.9,"mosquito_risk":3,"arthritis_risk":5,"migraine_risk":7,"frizz_risk":1,"updated_at":"2026-05-20T09:22:20.800242+05:30"},{"city":"Gaya","state":"Bihar","latitude":24.7914,"longitude":85.0002,"temp":34.8,"humidity":54,"rain":0.0,"pressure":989.6,"uv_index":8.9,"wind_gusts":35.6,"aqi":154,"pm10":78.5,"pm2_5":67.8,"no2":7.8,"co":460.0,"o3":128.0,"so2":24.2,"mosquito_risk":0,"arthritis_risk":5,"migraine_risk":7,"frizz_risk":1,"updated_at":"2026-05-20T09:22:20.800249+05:30"},{"city":"Muzaffarpur","state":"Bihar","latitude":26.1209,"longitude":85.3647,"temp":31.9,"humidity":68,"rain":0.0,"pressure":996.8,"uv_index":8.85,"wind_gusts":28.8,"aqi":151,"pm10":71.7,"pm2_5":60.1,"no2":8.6,"co":413.0,"o3":114.0,"so2":15.6,"mosquito_risk":3,"arthritis_risk":5,"migraine_risk":7,"frizz_risk":1,"updated_at":"2026-05-20T09:22:20.800256+05:30"},{"city":"Bhagalpur","state":"Bihar","latitude":25.2425,"longitude":87.0117,"temp":32.4,"humidity":69,"rain":0.0,"pressure":997.5,"uv_index":8.8,"wind_gusts":25.6,"aqi":151,"pm10":77.3,"pm2_5":63.8,"no2":11.5,"co":438.0,"o3":109.0,"so2":21.9,"mosquito_risk":3,"arthritis_risk":5,"migraine_risk":7,"frizz_risk":1,"updated_at":"2026-05-20T09:22:20.800262+05:30"},{"city":"Ranchi","state":"Jharkhand","latitude":23.3441,"longitude":85.3096,"temp":33.0,"humidity":42,"rain":0.0,"pressure":935.4,"uv_index":9.3,"wind_gusts":48.6,"aqi":135,"pm10":125.7,"pm2_5":48.1,"no2":4.7,"co":354.0,"o3":157.0,"so2":29.4,"mosquito_risk":0,"arthritis_risk":5,"migraine_risk":7,"frizz_risk":1,"updated_at":"2026-05-20T09:22:20.800269+05:30"},{"city":"Jamshedpur","state":"Jharkhand","latitude":22.8046,"longitude":86.2029,"temp":34.0,"humidity":65,"rain":0.0,"pressure":986.4,"uv_index":9.1,"wind_gusts":34.2,"aqi":119,"pm10":50.3,"pm2_5":43.8,"no2":14.3,"co":487.0,"o3":120.0,"so2":44.8,"mosquito_risk":3,"arthritis_risk":5,"migraine_risk":7,"frizz_risk":1,"updated_at":"2026-05-20T09:22:20.800275+05:30"},{"city":"Dhanbad","state":"Jharkhand","latitude":23.7957,"longitude":86.4304,"temp":34.7,"humidity":56,"rain":0.0,"pressure":976.0,"uv_index":9.1,"wind_gusts":40.3,"aqi":166,"pm10":81.7,"pm2_5":75.2,"no2":46.9,"co":737.0,"o3":56.0,"so2":161.8,"mosquito_risk":0,"arthritis_risk":5,"migraine_risk":7,"frizz_risk":1,"updated_at":"2026-05-20T09:22:20.800282+05:30"},{"city":"Bokaro","state":"Jharkhand","latitude":23.6693,"longitude":86.1511,"temp":33.8,"humidity":64,"rain":0.0,"pressure":979.7,"uv_index":9.1,"wind_gusts":45.4,"aqi":165,"pm10":104.8,"pm2_5":96.6,"no2":44.8,"co":559.0,"o3":84.0,"so2":174.1,"mosquito_risk":3,"arthritis_risk":5,"migraine_risk":7,"frizz_risk":1,"updated_at":"2026-05-20T09:22:20.800288+05:30"},{"city":"Bhubaneswar","state":"Odisha","latitude":20.2961,"longitude":85.8245,"temp":35.8,"humidity":59,"rain":0.0,"pressure":997.5,"uv_index":9.15,"wind_gusts":38.9,"aqi":67,"pm10":29.8,"pm2_5":25.7,"no2":5.5,"co":318.0,"o3":106.0,"so2":11.0,"mosquito_risk":0,"arthritis_risk":5,"migraine_risk":10,"frizz_risk":1,"updated_at":"2026-05-20T09:22:20.800295+05:30"},{"city":"Cuttack","state":"Odisha","latitude":20.4625,"longitude":85.8828,"temp":34.5,"humidity":69,"rain":0.0,"pressure":999.2,"uv_index":9.15,"wind_gusts":32.4,"aqi":67,"pm10":29.8,"pm2_5":25.7,"no2":5.5,"co":319.0,"o3":106.0,"so2":11.0,"mosquito_risk":3,"arthritis_risk":5,"migraine_risk":7,"frizz_risk":1,"updated_at":"2026-05-20T09:22:20.800302+05:30"},{"city":"Rourkela","state":"Odisha","latitude":22.2604,"longitude":84.8536,"temp":34.5,"humidity":51,"rain":0.0,"pressure":981.1,"uv_index":9.0,"wind_gusts":33.8,"aqi":153,"pm10":125.3,"pm2_5":63.1,"no2":19.3,"co":523.0,"o3":131.0,"so2":31.3,"mosquito_risk":0,"arthritis_risk":5,"migraine_risk":7,"frizz_risk":1,"updated_at":"2026-05-20T09:22:20.800308+05:30"},{"city":"Raipur","state":"Chhattisgarh","latitude":21.2514,"longitude":81.6296,"temp":36.8,"humidity":38,"rain":0.0,"pressure":971.9,"uv_index":8.95,"wind_gusts":33.8,"aqi":130,"pm10":49.2,"pm2_5":43.3,"no2":24.9,"co":602.0,"o3":102.0,"so2":58.8,"mosquito_risk":0,"arthritis_risk":5,"migraine_risk":10,"frizz_risk":1,"updated_at":"2026-05-20T09:22:20.800315+05:30"},{"city":"Bhilai","state":"Chhattisgarh","latitude":21.1938,"longitude":81.3509,"temp":36.2,"humidity":39,"rain":0.0,"pressure":972.1,"uv_index":8.75,"wind_gusts":34.9,"aqi":122,"pm10":48.7,"pm2_5":42.6,"no2":19.5,"co":845.0,"o3":106.0,"so2":49.8,"mosquito_risk":0,"arthritis_risk":5,"migraine_risk":10,"frizz_risk":1,"updated_at":"2026-05-20T09:22:20.800321+05:30"},{"city":"Guwahati","state":"Assam","latitude":26.1158,"longitude":91.7086,"temp":30.4,"humidity":69,"rain":0.0,"pressure":998.8,"uv_index":8.7,"wind_gusts":22.3,"aqi":117,"pm10":77.1,"pm2_5":44.9,"no2":2.3,"co":341.0,"o3":133.0,"so2":6.5,"mosquito_risk":3,"arthritis_risk":5,"migraine_risk":7,"frizz_risk":1,"updated_at":"2026-05-20T09:22:20.800328+05:30"},{"city":"Agartala","state":"Tripura","latitude":23.8315,"longitude":91.2868,"temp":30.6,"humidity":73,"rain":0.0,"pressure":1003.2,"uv_index":8.2,"wind_gusts":28.1,"aqi":82,"pm10":30.3,"pm2_5":20.5,"no2":5.0,"co":208.0,"o3":87.0,"so2":3.1,"mosquito_risk":3,"arthritis_risk":5,"migraine_risk":4,"frizz_risk":1,"updated_at":"2026-05-20T09:22:20.800335+05:30"},{"city":"Shillong","state":"Meghalaya","latitude":25.5788,"longitude":91.8933,"temp":25.0,"humidity":59,"rain":0.0,"pressure":857.2,"uv_index":8.45,"wind_gusts":20.9,"aqi":90,"pm10":62.4,"pm2_5":32.9,"no2":1.8,"co":260.0,"o3":127.0,"so2":5.0,"mosquito_risk":4,"arthritis_risk":5,"migraine_risk":7,"frizz_risk":1,"updated_at":"2026-05-20T09:22:20.800342+05:30"},{"city":"Imphal","state":"Manipur","latitude":24.817,"longitude":93.9368,"temp":27.8,"humidity":66,"rain":0.0,"pressure":921.9,"uv_index":9.25,"wind_gusts":32.8,"aqi":101,"pm10":64.5,"pm2_5":31.2,"no2":1.5,"co":251.0,"o3":123.0,"so2":4.9,"mosquito_risk":7,"arthritis_risk":5,"migraine_risk":7,"frizz_risk":1,"updated_at":"2026-05-20T09:22:20.800349+05:30"},{"city":"Aizawl","state":"Mizoram","latitude":23.7271,"longitude":92.7176,"temp":26.4,"humidity":60,"rain":0.0,"pressure":891.8,"uv_index":9.1,"wind_gusts":26.6,"aqi":80,"pm10":60.1,"pm2_5":24.2,"no2":1.0,"co":188.0,"o3":105.0,"so2":3.3,"mosquito_risk":4,"arthritis_risk":5,"migraine_risk":7,"frizz_risk":1,"updated_at":"2026-05-20T09:22:20.800356+05:30"},{"city":"Kohima","state":"Nagaland","latitude":25.6701,"longitude":94.1077,"temp":24.6,"humidity":66,"rain":0.1,"pressure":855.5,"uv_index":9.1,"wind_gusts":29.2,"aqi":99,"pm10":65.4,"pm2_5":32.7,"no2":0.9,"co":238.0,"o3":118.0,"so2":3.5,"mosquito_risk":6,"arthritis_risk":5,"migraine_risk":7,"frizz_risk":1,"updated_at":"2026-05-20T09:22:20.800362+05:30"},{"city":"Gangtok","state":"Sikkim","latitude":27.3314,"longitude":88.6138,"temp":23.3,"humidity":64,"rain":0.1,"pressure":838.4,"uv_index":9.2,"wind_gusts":34.9,"aqi":78,"pm10":33.1,"pm2_5":21.5,"no2":1.7,"co":328.0,"o3":121.0,"so2":2.3,"mosquito_risk":6,"arthritis_risk":5,"migraine_risk":7,"frizz_risk":0,"updated_at":"2026-05-20T09:22:20.800369+05:30"},{"city":"Siliguri","state":"West Bengal","latitude":26.7271,"longitude":88.3953,"temp":30.7,"humidity":65,"rain":0.0,"pressure":990.3,"uv_index":8.7,"wind_gusts":20.9,"aqi":123,"pm10":55.4,"pm2_5":38.6,"no2":4.8,"co":404.0,"o3":147.0,"so2":4.5,"mosquito_risk":3,"arthritis_risk":5,"migraine_risk":7,"frizz_risk":1,"updated_at":"2026-05-20T09:22:24.137736+05:30"},{"city":"Durgapur","state":"West Bengal","latitude":23.5204,"longitude":87.3119,"temp":33.4,"humidity":69,"rain":0.0,"pressure":990.7,"uv_index":9.0,"wind_gusts":31.7,"aqi":155,"pm10":51.8,"pm2_5":44.0,"no2":26.2,"co":677.0,"o3":63.0,"so2":69.9,"mosquito_risk":3,"arthritis_risk":5,"migraine_risk":7,"frizz_risk":1,"updated_at":"2026-05-20T09:22:24.137769+05:30"},{"city":"Asansol","state":"West Bengal","latitude":23.6739,"longitude":86.9524,"temp":33.6,"humidity":68,"rain":0.0,"pressure":989.2,"uv_index":9.0,"wind_gusts":25.6,"aqi":157,"pm10":52.7,"pm2_5":45.1,"no2":28.9,"co":655.0,"o3":63.0,"so2":74.0,"mosquito_risk":3,"arthritis_risk":5,"migraine_risk":7,"frizz_risk":1,"updated_at":"2026-05-20T09:22:24.137780+05:30"},{"city":"Pondicherry","state":"Puducherry","latitude":11.9139,"longitude":79.8145,"temp":31.4,"humidity":66,"rain":0.0,"pressure":1006.7,"uv_index":8.75,"wind_gusts":34.9,"aqi":58,"pm10":18.7,"pm2_5":16.5,"no2":14.1,"co":304.0,"o3":59.0,"so2":11.0,"mosquito_risk":3,"arthritis_risk":5,"migraine_risk":4,"frizz_risk":1,"updated_at":"2026-05-20T09:22:24.137789+05:30"},{"city":"Port Blair","state":"Andaman and Nicobar Islands","latitude":11.6234,"longitude":92.7265,"temp":30.7,"humidity":74,"rain":0.1,"pressure":1005.5,"uv_index":8.95,"wind_gusts":48.6,"aqi":27,"pm10":9.0,"pm2_5":5.6,"no2":0.4,"co":132.0,"o3":59.0,"so2":0.5,"mosquito_risk":6,"arthritis_risk":5,"migraine_risk":4,"frizz_risk":1,"updated_at":"2026-05-20T09:22:24.137798+05:30"},{"city":"Haridwar","state":"Uttarakhand","latitude":29.9457,"longitude":78.1642,"temp":32.3,"humidity":41,"rain":0.0,"pressure":970.6,"uv_index":7.6,"wind_gusts":28.8,"aqi":107,"pm10":200.7,"pm2_5":47.4,"no2":6.5,"co":373.0,"o3":145.0,"so2":7.2,"mosquito_risk":0,"arthritis_risk":5,"migraine_risk":7,"frizz_risk":1,"updated_at":"2026-05-20T09:22:24.137806+05:30"},{"city":"Rishikesh","state":"Uttarakhand","latitude":30.0869,"longitude":78.2676,"temp":32.8,"humidity":40,"rain":0.0,"pressure":963.4,"uv_index":7.7,"wind_gusts":24.8,"aqi":100,"pm10":179.7,"pm2_5":40.4,"no2":3.4,"co":343.0,"o3":138.0,"so2":5.0,"mosquito_risk":0,"arthritis_risk":5,"migraine_risk":7,"frizz_risk":1,"updated_at":"2026-05-20T09:22:24.137814+05:30"},{"city":"Nainital","state":"Uttarakhand","latitude":29.3919,"longitude":79.4542,"temp":25.5,"humidity":24,"rain":0.0,"pressure":808.7,"uv_index":8.55,"wind_gusts":60.8,"aqi":106,"pm10":233.3,"pm2_5":45.2,"no2":2.9,"co":196.0,"o3":148.0,"so2":6.6,"mosquito_risk":4,"arthritis_risk":5,"migraine_risk":7,"frizz_risk":0,"updated_at":"2026-05-20T09:22:24.137822+05:30"},{"city":"Mussoorie","state":"Uttarakhand","latitude":30.4599,"longitude":78.0664,"temp":25.6,"humidity":20,"rain":0.0,"pressure":806.3,"uv_index":8.1,"wind_gusts":50.4,"aqi":94,"pm10":83.8,"pm2_5":37.4,"no2":7.4,"co":237.0,"o3":155.0,"so2":5.2,"mosquito_risk":4,"arthritis_risk":5,"migraine_risk":7,"frizz_risk":0,"updated_at":"2026-05-20T09:22:24.137830+05:30"},{"city":"Dharamshala","state":"Himachal Pradesh","latitude":32.219,"longitude":76.3234,"temp":29.1,"humidity":25,"rain":0.0,"pressure":869.6,"uv_index":8.5,"wind_gusts":44.6,"aqi":60,"pm10":29.3,"pm2_5":11.6,"no2":1.8,"co":225.0,"o3":116.0,"so2":0.6,"mosquito_risk":4,"arthritis_risk":5,"migraine_risk":7,"frizz_risk":0,"updated_at":"2026-05-20T09:22:24.137837+05:30"},{"city":"Dalhousie","state":"Himachal Pradesh","latitude":32.5387,"longitude":75.971,"temp":25.2,"humidity":26,"rain":0.0,"pressure":807.5,"uv_index":8.75,"wind_gusts":43.2,"aqi":76,"pm10":31.2,"pm2_5":16.5,"no2":7.8,"co":224.0,"o3":117.0,"so2":1.1,"mosquito_risk":4,"arthritis_risk":5,"migraine_risk":7,"frizz_risk":0,"updated_at":"2026-05-20T09:22:24.137845+05:30"},{"city":"Patiala","state":"Punjab","latitude":30.3398,"longitude":76.3869,"temp":35.2,"humidity":24,"rain":0.0,"pressure":973.8,"uv_index":7.7,"wind_gusts":25.9,"aqi":538,"pm10":353.0,"pm2_5":87.1,"no2":10.1,"co":447.0,"o3":82.0,"so2":5.9,"mosquito_risk":0,"arthritis_risk":5,"migraine_risk":10,"frizz_risk":0,"updated_at":"2026-05-20T09:22:24.137852+05:30"},{"city":"Bhatinda","state":"Punjab","latitude":30.211,"longitude":74.9455,"temp":36.2,"humidity":27,"rain":0.0,"pressure":978.9,"uv_index":8.35,"wind_gusts":29.2,"aqi":100,"pm10":72.4,"pm2_5":29.6,"no2":13.6,"co":498.0,"o3":58.0,"so2":5.9,"mosquito_risk":0,"arthritis_risk":5,"migraine_risk":10,"frizz_risk":0,"updated_at":"2026-05-20T09:22:24.137860+05:30"},{"city":"Rohtak","state":"Haryana","latitude":28.8955,"longitude":76.6066,"temp":35.5,"humidity":29,"rain":0.0,"pressure":977.7,"uv_index":7.8,"wind_gusts":27.7,"aqi":462,"pm10":495.5,"pm2_5":84.1,"no2":10.8,"co":312.0,"o3":76.0,"so2":4.4,"mosquito_risk":0,"arthritis_risk":5,"migraine_risk":10,"frizz_risk":0,"updated_at":"2026-05-20T09:22:24.137867+05:30"},{"city":"Panipat","state":"Haryana","latitude":29.3909,"longitude":76.9635,"temp":36.5,"humidity":24,"rain":0.0,"pressure":976.3,"uv_index":7.65,"wind_gusts":29.5,"aqi":1029,"pm10":1218.2,"pm2_5":175.1,"no2":9.3,"co":485.0,"o3":72.0,"so2":5.0,"mosquito_risk":0,"arthritis_risk":5,"migraine_risk":10,"frizz_risk":0,"updated_at":"2026-05-20T09:22:24.137874+05:30"},{"city":"Mathura","state":"Uttar Pradesh","latitude":27.4924,"longitude":77.6737,"temp":36.2,"humidity":23,"rain":0.0,"pressure":983.5,"uv_index":8.05,"wind_gusts":31.0,"aqi":522,"pm10":512.2,"pm2_5":93.4,"no2":9.6,"co":271.0,"o3":75.0,"so2":5.1,"mosquito_risk":0,"arthritis_risk":5,"migraine_risk":10,"frizz_risk":0,"updated_at":"2026-05-20T09:22:24.137881+05:30"},{"city":"Vrindavan","state":"Uttar Pradesh","latitude":27.5823,"longitude":77.7027,"temp":35.8,"humidity":25,"rain":0.0,"pressure":983.9,"uv_index":8.0,"wind_gusts":24.8,"aqi":522,"pm10":512.2,"pm2_5":93.4,"no2":9.6,"co":254.0,"o3":75.0,"so2":5.1,"mosquito_risk":0,"arthritis_risk":5,"migraine_risk":10,"frizz_risk":0,"updated_at":"2026-05-20T09:22:24.137888+05:30"},{"city":"Ayodhya","state":"Uttar Pradesh","latitude":26.7922,"longitude":82.1998,"temp":33.5,"humidity":62,"rain":0.0,"pressure":991.8,"uv_index":8.4,"wind_gusts":22.3,"aqi":153,"pm10":91.0,"pm2_5":69.6,"no2":7.7,"co":628.0,"o3":141.0,"so2":19.8,"mosquito_risk":3,"arthritis_risk":5,"migraine_risk":7,"frizz_risk":1,"updated_at":"2026-05-20T09:22:24.137896+05:30"},{"city":"Ratlam","state":"Madhya Pradesh","latitude":23.3315,"longitude":75.0367,"temp":31.6,"humidity":52,"rain":0.0,"pressure":953.9,"uv_index":8.5,"wind_gusts":46.1,"aqi":55,"pm10":45.2,"pm2_5":20.5,"no2":5.5,"co":172.0,"o3":61.0,"so2":12.7,"mosquito_risk":0,"arthritis_risk":5,"migraine_risk":7,"frizz_risk":1,"updated_at":"2026-05-20T09:22:24.137903+05:30"},{"city":"Sagar","state":"Madhya Pradesh","latitude":23.8388,"longitude":78.7378,"temp":37.6,"humidity":16,"rain":0.0,"pressure":948.6,"uv_index":8.75,"wind_gusts":38.2,"aqi":56,"pm10":7.1,"pm2_5":6.0,"no2":3.6,"co":165.0,"o3":98.0,"so2":7.5,"mosquito_risk":0,"arthritis_risk":5,"migraine_risk":10,"frizz_risk":0,"updated_at":"2026-05-20T09:22:24.137910+05:30"},{"city":"Satna","state":"Madhya Pradesh","latitude":24.6005,"longitude":80.8322,"temp":37.8,"humidity":31,"rain":0.0,"pressure":968.3,"uv_index":8.8,"wind_gusts":43.2,"aqi":94,"pm10":139.2,"pm2_5":45.2,"no2":7.4,"co":210.0,"o3":151.0,"so2":18.4,"mosquito_risk":0,"arthritis_risk":5,"migraine_risk":10,"frizz_risk":1,"updated_at":"2026-05-20T09:22:24.137917+05:30"},{"city":"Akola","state":"Maharashtra","latitude":20.7002,"longitude":77.0082,"temp":36.0,"humidity":29,"rain":0.0,"pressure":973.7,"uv_index":8.9,"wind_gusts":40.3,"aqi":73,"pm10":32.0,"pm2_5":20.1,"no2":5.2,"co":184.0,"o3":112.0,"so2":14.5,"mosquito_risk":0,"arthritis_risk":5,"migraine_risk":10,"frizz_risk":0,"updated_at":"2026-05-20T09:22:24.137925+05:30"},{"city":"Amravati","state":"Maharashtra","latitude":20.9374,"longitude":77.7796,"temp":37.3,"humidity":19,"rain":0.0,"pressure":965.4,"uv_index":8.9,"wind_gusts":40.7,"aqi":79,"pm10":24.6,"pm2_5":17.2,"no2":5.8,"co":212.0,"o3":115.0,"so2":13.9,"mosquito_risk":0,"arthritis_risk":5,"migraine_risk":10,"frizz_risk":0,"updated_at":"2026-05-20T09:22:24.137934+05:30"},{"city":"Latur","state":"Maharashtra","latitude":18.4088,"longitude":76.5604,"temp":33.6,"humidity":36,"rain":0.0,"pressure":939.5,"uv_index":3.05,"wind_gusts":34.9,"aqi":88,"pm10":36.4,"pm2_5":23.2,"no2":5.1,"co":206.0,"o3":102.0,"so2":9.6,"mosquito_risk":0,"arthritis_risk":5,"migraine_risk":3,"frizz_risk":1,"updated_at":"2026-05-20T09:22:24.137941+05:30"},{"city":"Nanded","state":"Maharashtra","latitude":19.1383,"longitude":77.3091,"temp":36.6,"humidity":25,"rain":0.0,"pressure":967.4,"uv_index":9.0,"wind_gusts":35.3,"aqi":102,"pm10":29.9,"pm2_5":22.2,"no2":6.1,"co":250.0,"o3":124.0,"so2":10.7,"mosquito_risk":0,"arthritis_risk":5,"migraine_risk":10,"frizz_risk":0,"updated_at":"2026-05-20T09:22:24.137949+05:30"},{"city":"Gulbarga","state":"Karnataka","latitude":17.3297,"longitude":76.8343,"temp":32.3,"humidity":51,"rain":0.0,"pressure":958.1,"uv_index":8.6,"wind_gusts":39.6,"aqi":86,"pm10":38.9,"pm2_5":24.6,"no2":6.8,"co":181.0,"o3":71.0,"so2":5.2,"mosquito_risk":0,"arthritis_risk":5,"migraine_risk":7,"frizz_risk":1,"updated_at":"2026-05-20T09:22:24.137956+05:30"},{"city":"Bidar","state":"Karnataka","latitude":17.9104,"longitude":77.5199,"temp":32.9,"humidity":45,"rain":0.0,"pressure":935.1,"uv_index":8.6,"wind_gusts":39.2,"aqi":92,"pm10":35.5,"pm2_5":25.8,"no2":7.3,"co":209.0,"o3":98.0,"so2":9.1,"mosquito_risk":0,"arthritis_risk":5,"migraine_risk":7,"frizz_risk":1,"updated_at":"2026-05-20T09:22:24.137963+05:30"},{"city":"Hospet","state":"Karnataka","latitude":15.2689,"longitude":76.3909,"temp":27.9,"humidity":72,"rain":0.0,"pressure":956.4,"uv_index":7.95,"wind_gusts":40.7,"aqi":35,"pm10":6.0,"pm2_5":5.7,"no2":5.9,"co":144.0,"o3":61.0,"so2":2.1,"mosquito_risk":7,"arthritis_risk":5,"migraine_risk":7,"frizz_risk":1,"updated_at":"2026-05-20T09:22:24.137970+05:30"},{"city":"Tirupur","state":"Tamil Nadu","latitude":11.1085,"longitude":77.3411,"temp":31.0,"humidity":58,"rain":0.0,"pressure":975.0,"uv_index":7.55,"wind_gusts":54.4,"aqi":43,"pm10":7.4,"pm2_5":6.2,"no2":5.6,"co":199.0,"o3":61.0,"so2":3.6,"mosquito_risk":0,"arthritis_risk":5,"migraine_risk":7,"frizz_risk":1,"updated_at":"2026-05-20T09:22:24.137977+05:30"},{"city":"Alappuzha","state":"Kerala","latitude":9.4981,"longitude":76.3388,"temp":28.9,"humidity":79,"rain":0.1,"pressure":1009.8,"uv_index":2.6,"wind_gusts":40.0,"aqi":36,"pm10":8.6,"pm2_5":6.7,"no2":5.1,"co":111.0,"o3":61.0,"so2":2.0,"mosquito_risk":10,"arthritis_risk":0,"migraine_risk":0,"frizz_risk":1,"updated_at":"2026-05-20T09:22:24.137984+05:30"},{"city":"Munnar","state":"Kerala","latitude":10.0889,"longitude":77.0595,"temp":20.1,"humidity":87,"rain":0.0,"pressure":858.5,"uv_index":8.6,"wind_gusts":39.2,"aqi":23,"pm10":2.3,"pm2_5":2.2,"no2":3.8,"co":129.0,"o3":55.0,"so2":1.9,"mosquito_risk":3,"arthritis_risk":5,"migraine_risk":7,"frizz_risk":1,"updated_at":"2026-05-20T09:22:24.137992+05:30"},{"city":"Silchar","state":"Assam","latitude":24.8333,"longitude":92.7789,"temp":30.2,"humidity":71,"rain":0.0,"pressure":1002.5,"uv_index":8.9,"wind_gusts":25.2,"aqi":150,"pm10":60.1,"pm2_5":33.3,"no2":2.5,"co":271.0,"o3":110.0,"so2":6.6,"mosquito_risk":3,"arthritis_risk":5,"migraine_risk":4,"frizz_risk":1,"updated_at":"2026-05-20T09:22:24.137999+05:30"},{"city":"Dibrugarh","state":"Assam","latitude":27.4728,"longitude":94.912,"temp":30.2,"humidity":63,"rain":0.0,"pressure":993.1,"uv_index":8.9,"wind_gusts":18.0,"aqi":85,"pm10":25.9,"pm2_5":21.4,"no2":1.9,"co":321.0,"o3":138.0,"so2":3.9,"mosquito_risk":3,"arthritis_risk":5,"migraine_risk":7,"frizz_risk":1,"updated_at":"2026-05-20T09:22:24.138006+05:30"}]