[{"city":"Delhi","state":"Delhi","latitude":28.6139,"longitude":77.209,"temp":29.0,"humidity":31,"rain":0.0,"pressure":981.1,"uv_index":7.35,"wind_gusts":41.0,"aqi":166,"pm10":676.1,"pm2_5":112.9,"mosquito_risk":4,"arthritis_risk":5,"migraine_risk":7,"frizz_risk":0,"updated_at":"2026-04-25T03:21:29.037750+05:30"},{"city":"Mumbai","state":"Maharashtra","latitude":19.076,"longitude":72.8777,"temp":27.7,"humidity":57,"rain":0.0,"pressure":1005.8,"uv_index":8.0,"wind_gusts":43.9,"aqi":77,"pm10":23.5,"pm2_5":11.9,"mosquito_risk":4,"arthritis_risk":5,"migraine_risk":4,"frizz_risk":1,"updated_at":"2026-04-25T03:21:29.037794+05:30"},{"city":"Bangalore","state":"Karnataka","latitude":12.9716,"longitude":77.5946,"temp":25.2,"humidity":47,"rain":0.0,"pressure":910.2,"uv_index":8.6,"wind_gusts":41.8,"aqi":81,"pm10":23.7,"pm2_5":22.6,"mosquito_risk":4,"arthritis_risk":5,"migraine_risk":7,"frizz_risk":0,"updated_at":"2026-04-25T03:21:29.037811+05:30"},{"city":"Hyderabad","state":"Telangana","latitude":17.385,"longitude":78.4867,"temp":28.5,"humidity":41,"rain":0.0,"pressure":951.2,"uv_index":9.3,"wind_gusts":37.4,"aqi":110,"pm10":36.8,"pm2_5":32.0,"mosquito_risk":4,"arthritis_risk":5,"migraine_risk":7,"frizz_risk":0,"updated_at":"2026-04-25T03:21:29.037821+05:30"},{"city":"Chennai","state":"Tamil Nadu","latitude":13.0827,"longitude":80.2707,"temp":28.1,"humidity":87,"rain":0.0,"pressure":1005.4,"uv_index":8.85,"wind_gusts":50.8,"aqi":27,"pm10":9.8,"pm2_5":6.8,"mosquito_risk":7,"arthritis_risk":5,"migraine_risk":4,"frizz_risk":1,"updated_at":"2026-04-25T03:21:29.037831+05:30"},{"city":"Kolkata","state":"West Bengal","latitude":22.5726,"longitude":88.3639,"temp":28.1,"humidity":88,"rain":0.0,"pressure":1005.5,"uv_index":8.6,"wind_gusts":41.0,"aqi":75,"pm10":23.9,"pm2_5":19.9,"mosquito_risk":7,"arthritis_risk":5,"migraine_risk":4,"frizz_risk":1,"updated_at":"2026-04-25T03:21:29.037844+05:30"},{"city":"Pune","state":"Maharashtra","latitude":18.5204,"longitude":73.8567,"temp":27.5,"humidity":41,"rain":0.0,"pressure":946.4,"uv_index":8.5,"wind_gusts":38.2,"aqi":108,"pm10":48.3,"pm2_5":45.1,"mosquito_risk":4,"arthritis_risk":5,"migraine_risk":7,"frizz_risk":0,"updated_at":"2026-04-25T03:21:29.037852+05:30"},{"city":"Ahmedabad","state":"Gujarat","latitude":23.0225,"longitude":72.5714,"temp":30.8,"humidity":32,"rain":0.0,"pressure":1000.8,"uv_index":8.2,"wind_gusts":24.1,"aqi":60,"pm10":17.3,"pm2_5":8.7,"mosquito_risk":0,"arthritis_risk":5,"migraine_risk":4,"frizz_risk":0,"updated_at":"2026-04-25T03:21:29.037860+05:30"},{"city":"Jaipur","state":"Rajasthan","latitude":26.9124,"longitude":75.7873,"temp":29.0,"humidity":24,"rain":0.0,"pressure":958.6,"uv_index":8.05,"wind_gusts":33.5,"aqi":114,"pm10":97.8,"pm2_5":32.8,"mosquito_risk":4,"arthritis_risk":5,"migraine_risk":7,"frizz_risk":0,"updated_at":"2026-04-25T03:21:29.037868+05:30"},{"city":"Lucknow","state":"Uttar Pradesh","latitude":26.8467,"longitude":80.9462,"temp":30.6,"humidity":22,"rain":0.0,"pressure":990.7,"uv_index":7.9,"wind_gusts":40.7,"aqi":123,"pm10":205.8,"pm2_5":50.9,"mosquito_risk":0,"arthritis_risk":5,"migraine_risk":7,"frizz_risk":0,"updated_at":"2026-04-25T03:21:29.037876+05:30"},{"city":"Kanpur","state":"Uttar Pradesh","latitude":26.4499,"longitude":80.3319,"temp":30.3,"humidity":25,"rain":0.0,"pressure":989.1,"uv_index":7.9,"wind_gusts":44.3,"aqi":124,"pm10":180.7,"pm2_5":50.4,"mosquito_risk":0,"arthritis_risk":5,"migraine_risk":7,"frizz_risk":0,"updated_at":"2026-04-25T03:21:29.037884+05:30"},{"city":"Chandigarh","state":"Chandigarh","latitude":30.7333,"longitude":76.7794,"temp":26.1,"humidity":36,"rain":0.0,"pressure":966.6,"uv_index":7.15,"wind_gusts":59.4,"aqi":69,"pm10":26.1,"pm2_5":20.0,"mosquito_risk":4,"arthritis_risk":5,"migraine_risk":7,"frizz_risk":0,"updated_at":"2026-04-25T03:21:29.037892+05:30"},{"city":"Srinagar","state":"Jammu and Kashmir","latitude":34.0837,"longitude":74.7973,"temp":10.9,"humidity":97,"rain":0.1,"pressure":845.0,"uv_index":8.6,"wind_gusts":34.6,"aqi":72,"pm10":49.5,"pm2_5":21.3,"mosquito_risk":6,"arthritis_risk":10,"migraine_risk":7,"frizz_risk":0,"updated_at":"2026-04-25T03:21:29.037900+05:30"},{"city":"Jammu","state":"Jammu and Kashmir","latitude":32.7266,"longitude":74.857,"temp":27.1,"humidity":30,"rain":0.0,"pressure":971.9,"uv_index":8.2,"wind_gusts":40.7,"aqi":75,"pm10":25.6,"pm2_5":19.0,"mosquito_risk":4,"arthritis_risk":5,"migraine_risk":7,"frizz_risk":0,"updated_at":"2026-04-25T03:21:29.037907+05:30"},{"city":"Amritsar","state":"Punjab","latitude":31.634,"longitude":74.8723,"temp":27.0,"humidity":38,"rain":0.0,"pressure":979.9,"uv_index":8.1,"wind_gusts":42.8,"aqi":99,"pm10":86.6,"pm2_5":39.9,"mosquito_risk":4,"arthritis_risk":5,"migraine_risk":7,"frizz_risk":0,"updated_at":"2026-04-25T03:21:29.037914+05:30"},{"city":"Ludhiana","state":"Punjab","latitude":30.901,"longitude":75.8573,"temp":25.6,"humidity":40,"rain":0.0,"pressure":977.1,"uv_index":7.65,"wind_gusts":46.8,"aqi":81,"pm10":45.8,"pm2_5":24.2,"mosquito_risk":4,"arthritis_risk":5,"migraine_risk":7,"frizz_risk":0,"updated_at":"2026-04-25T03:21:29.037927+05:30"},{"city":"Jalandhar","state":"Punjab","latitude":31.326,"longitude":75.5762,"temp":25.9,"humidity":40,"rain":0.0,"pressure":978.2,"uv_index":7.8,"wind_gusts":38.5,"aqi":87,"pm10":72.4,"pm2_5":31.9,"mosquito_risk":4,"arthritis_risk":5,"migraine_risk":7,"frizz_risk":0,"updated_at":"2026-04-25T03:21:29.037934+05:30"},{"city":"Dehradun","state":"Uttarakhand","latitude":30.6284,"longitude":78.0322,"temp":12.8,"humidity":68,"rain":0.0,"pressure":827.7,"uv_index":7.85,"wind_gusts":47.9,"aqi":54,"pm10":19.8,"pm2_5":14.8,"mosquito_risk":3,"arthritis_risk":5,"migraine_risk":7,"frizz_risk":0,"updated_at":"2026-04-25T03:21:29.037940+05:30"},{"city":"Shimla","state":"Himachal Pradesh","latitude":31.1048,"longitude":77.1734,"temp":13.2,"humidity":47,"rain":0.0,"pressure":783.6,"uv_index":7.65,"wind_gusts":51.1,"aqi":57,"pm10":42.3,"pm2_5":20.9,"mosquito_risk":0,"arthritis_risk":5,"migraine_risk":7,"frizz_risk":0,"updated_at":"2026-04-25T03:21:29.037948+05:30"},{"city":"Manali","state":"Himachal Pradesh","latitude":32.2396,"longitude":77.1887,"temp":8.8,"humidity":76,"rain":0.0,"pressure":817.3,"uv_index":8.5,"wind_gusts":42.8,"aqi":53,"pm10":19.8,"pm2_5":12.7,"mosquito_risk":3,"arthritis_risk":5,"migraine_risk":7,"frizz_risk":0,"updated_at":"2026-04-25T03:21:29.037955+05:30"},{"city":"Gurgaon","state":"Haryana","latitude":28.4595,"longitude":77.0266,"temp":26.9,"humidity":31,"rain":0.0,"pressure":979.5,"uv_index":7.45,"wind_gusts":46.4,"aqi":632,"pm10":1214.4,"pm2_5":149.0,"mosquito_risk":4,"arthritis_risk":5,"migraine_risk":7,"frizz_risk":0,"updated_at":"2026-04-25T03:21:29.037961+05:30"},{"city":"Noida","state":"Uttar Pradesh","latitude":28.5355,"longitude":77.391,"temp":28.1,"humidity":36,"rain":0.0,"pressure":982.3,"uv_index":7.35,"wind_gusts":31.7,"aqi":632,"pm10":1214.4,"pm2_5":149.0,"mosquito_risk":4,"arthritis_risk":5,"migraine_risk":7,"frizz_risk":0,"updated_at":"2026-04-25T03:21:29.037968+05:30"},{"city":"Ghaziabad","state":"Uttar Pradesh","latitude":28.6692,"longitude":77.4538,"temp":27.8,"humidity":36,"rain":0.0,"pressure":980.5,"uv_index":7.4,"wind_gusts":49.3,"aqi":151,"pm10":452.6,"pm2_5":86.4,"mosquito_risk":4,"arthritis_risk":5,"migraine_risk":7,"frizz_risk":0,"updated_at":"2026-04-25T03:21:29.037974+05:30"},{"city":"Faridabad","state":"Haryana","latitude":28.4089,"longitude":77.3178,"temp":31.1,"humidity":27,"rain":0.0,"pressure":981.8,"uv_index":7.45,"wind_gusts":40.0,"aqi":632,"pm10":1214.4,"pm2_5":149.0,"mosquito_risk":0,"arthritis_risk":5,"migraine_risk":7,"frizz_risk":0,"updated_at":"2026-04-25T03:21:29.037980+05:30"},{"city":"Meerut","state":"Uttar Pradesh","latitude":28.9845,"longitude":77.7064,"temp":27.3,"humidity":38,"rain":0.0,"pressure":979.3,"uv_index":7.3,"wind_gusts":41.8,"aqi":151,"pm10":452.6,"pm2_5":86.4,"mosquito_risk":4,"arthritis_risk":5,"migraine_risk":7,"frizz_risk":0,"updated_at":"2026-04-25T03:21:29.037985+05:30"},{"city":"Agra","state":"Uttar Pradesh","latitude":27.1767,"longitude":78.0081,"temp":27.6,"humidity":36,"rain":0.0,"pressure":985.2,"uv_index":7.8,"wind_gusts":42.8,"aqi":339,"pm10":269.2,"pm2_5":89.4,"mosquito_risk":4,"arthritis_risk":5,"migraine_risk":7,"frizz_risk":0,"updated_at":"2026-04-25T03:21:29.037995+05:30"},{"city":"Varanasi","state":"Uttar Pradesh","latitude":25.3176,"longitude":82.9739,"temp":28.8,"humidity":19,"rain":0.0,"pressure":994.7,"uv_index":8.55,"wind_gusts":40.3,"aqi":121,"pm10":64.3,"pm2_5":42.4,"mosquito_risk":4,"arthritis_risk":5,"migraine_risk":7,"frizz_risk":0,"updated_at":"2026-04-25T03:21:29.038001+05:30"},{"city":"Prayagraj","state":"Uttar Pradesh","latitude":25.4358,"longitude":81.8463,"temp":26.4,"humidity":37,"rain":0.0,"pressure":993.4,"uv_index":8.4,"wind_gusts":33.5,"aqi":108,"pm10":90.1,"pm2_5":39.3,"mosquito_risk":4,"arthritis_risk":5,"migraine_risk":7,"frizz_risk":0,"updated_at":"2026-04-25T03:21:29.038008+05:30"},{"city":"Gorakhpur","state":"Uttar Pradesh","latitude":26.7606,"longitude":83.3732,"temp":27.8,"humidity":58,"rain":0.0,"pressure":995.2,"uv_index":8.3,"wind_gusts":46.8,"aqi":152,"pm10":105.7,"pm2_5":70.5,"mosquito_risk":4,"arthritis_risk":5,"migraine_risk":7,"frizz_risk":1,"updated_at":"2026-04-25T03:21:29.038015+05:30"},{"city":"Bareilly","state":"Uttar Pradesh","latitude":28.367,"longitude":79.4304,"temp":26.3,"humidity":52,"rain":0.0,"pressure":984.2,"uv_index":7.35,"wind_gusts":42.5,"aqi":132,"pm10":59.5,"pm2_5":55.8,"mosquito_risk":4,"arthritis_risk":5,"migraine_risk":7,"frizz_risk":0,"updated_at":"2026-04-25T03:21:29.038021+05:30"},{"city":"Aligarh","state":"Uttar Pradesh","latitude":27.8974,"longitude":78.088,"temp":26.2,"humidity":39,"rain":0.0,"pressure":982.9,"uv_index":7.6,"wind_gusts":42.1,"aqi":246,"pm10":406.1,"pm2_5":95.9,"mosquito_risk":4,"arthritis_risk":5,"migraine_risk":7,"frizz_risk":0,"updated_at":"2026-04-25T03:21:29.038030+05:30"},{"city":"Moradabad","state":"Uttar Pradesh","latitude":28.8386,"longitude":78.7733,"temp":25.7,"humidity":56,"rain":0.0,"pressure":981.2,"uv_index":7.3,"wind_gusts":51.8,"aqi":156,"pm10":162.1,"pm2_5":100.4,"mosquito_risk":4,"arthritis_risk":5,"migraine_risk":7,"frizz_risk":1,"updated_at":"2026-04-25T03:21:29.038036+05:30"},{"city":"Saharanpur","state":"Uttar Pradesh","latitude":29.9637,"longitude":77.546,"temp":23.1,"humidity":50,"rain":0.0,"pressure":973.3,"uv_index":7.15,"wind_gusts":60.5,"aqi":114,"pm10":95.7,"pm2_5":61.9,"mosquito_risk":0,"arthritis_risk":5,"migraine_risk":7,"frizz_risk":0,"updated_at":"2026-04-25T03:21:29.038042+05:30"},{"city":"Jhansi","state":"Uttar Pradesh","latitude":25.4484,"longitude":78.5685,"temp":29.5,"humidity":24,"rain":0.0,"pressure":975.7,"uv_index":8.3,"wind_gusts":30.2,"aqi":58,"pm10":22.9,"pm2_5":20.0,"mosquito_risk":4,"arthritis_risk":5,"migraine_risk":7,"frizz_risk":0,"updated_at":"2026-04-25T03:21:32.270167+05:30"},{"city":"Surat","state":"Gujarat","latitude":21.1702,"longitude":72.8311,"temp":28.4,"humidity":67,"rain":0.0,"pressure":1004.6,"uv_index":7.85,"wind_gusts":35.6,"aqi":93,"pm10":35.2,"pm2_5":25.4,"mosquito_risk":7,"arthritis_risk":5,"migraine_risk":4,"frizz_risk":1,"updated_at":"2026-04-25T03:21:32.270202+05:30"},{"city":"Vadodara","state":"Gujarat","latitude":22.3072,"longitude":73.1812,"temp":27.9,"humidity":46,"rain":0.0,"pressure":1002.8,"uv_index":8.15,"wind_gusts":28.1,"aqi":75,"pm10":36.3,"pm2_5":28.8,"mosquito_risk":4,"arthritis_risk":5,"migraine_risk":4,"frizz_risk":0,"updated_at":"2026-04-25T03:21:32.270212+05:30"},{"city":"Rajkot","state":"Gujarat","latitude":22.3039,"longitude":70.8022,"temp":23.5,"humidity":84,"rain":0.0,"pressure":993.6,"uv_index":7.9,"wind_gusts":33.1,"aqi":39,"pm10":25.8,"pm2_5":9.6,"mosquito_risk":3,"arthritis_risk":5,"migraine_risk":7,"frizz_risk":1,"updated_at":"2026-04-25T03:21:32.270220+05:30"},{"city":"Thane","state":"Maharashtra","latitude":19.2183,"longitude":72.9781,"temp":27.5,"humidity":60,"rain":0.0,"pressure":1005.2,"uv_index":8.0,"wind_gusts":42.1,"aqi":77,"pm10":23.5,"pm2_5":11.9,"mosquito_risk":4,"arthritis_risk":5,"migraine_risk":4,"frizz_risk":1,"updated_at":"2026-04-25T03:21:32.270227+05:30"},{"city":"Nagpur","state":"Maharashtra","latitude":21.1458,"longitude":79.0882,"temp":31.3,"humidity":22,"rain":0.0,"pressure":970.8,"uv_index":8.9,"wind_gusts":33.1,"aqi":97,"pm10":46.6,"pm2_5":40.3,"mosquito_risk":0,"arthritis_risk":5,"migraine_risk":7,"frizz_risk":0,"updated_at":"2026-04-25T03:21:32.270234+05:30"},{"city":"Nashik","state":"Maharashtra","latitude":19.9975,"longitude":73.7898,"temp":27.6,"humidity":34,"rain":0.0,"pressure":944.0,"uv_index":8.3,"wind_gusts":32.0,"aqi":75,"pm10":29.3,"pm2_5":20.0,"mosquito_risk":4,"arthritis_risk":5,"migraine_risk":7,"frizz_risk":0,"updated_at":"2026-04-25T03:21:32.270241+05:30"},{"city":"Aurangabad","state":"Maharashtra","latitude":19.8762,"longitude":75.3433,"temp":30.0,"humidity":23,"rain":0.0,"pressure":942.6,"uv_index":9.0,"wind_gusts":30.6,"aqi":70,"pm10":23.3,"pm2_5":17.5,"mosquito_risk":4,"arthritis_risk":5,"migraine_risk":7,"frizz_risk":0,"updated_at":"2026-04-25T03:21:32.270247+05:30"},{"city":"Solapur","state":"Maharashtra","latitude":17.6599,"longitude":75.9064,"temp":28.9,"humidity":45,"rain":0.0,"pressure":954.9,"uv_index":8.95,"wind_gusts":24.8,"aqi":112,"pm10":53.4,"pm2_5":47.8,"mosquito_risk":4,"arthritis_risk":5,"migraine_risk":7,"frizz_risk":0,"updated_at":"2026-04-25T03:21:32.270254+05:30"},{"city":"Kolhapur","state":"Maharashtra","latitude":16.705,"longitude":74.2433,"temp":24.2,"humidity":68,"rain":0.0,"pressure":945.3,"uv_index":9.05,"wind_gusts":31.7,"aqi":152,"pm10":80.3,"pm2_5":73.6,"mosquito_risk":3,"arthritis_risk":5,"migraine_risk":7,"frizz_risk":1,"updated_at":"2026-04-25T03:21:32.270261+05:30"},{"city":"Goa","state":"Goa","latitude":15.2993,"longitude":74.124,"temp":26.8,"humidity":94,"rain":0.0,"pressure":995.1,"uv_index":9.0,"wind_gusts":34.2,"aqi":86,"pm10":43.2,"pm2_5":34.2,"mosquito_risk":7,"arthritis_risk":5,"migraine_risk":7,"frizz_risk":1,"updated_at":"2026-04-25T03:21:32.270268+05:30"},{"city":"Jodhpur","state":"Rajasthan","latitude":26.2389,"longitude":73.0243,"temp":31.4,"humidity":23,"rain":0.0,"pressure":981.3,"uv_index":8.3,"wind_gusts":29.5,"aqi":74,"pm10":116.6,"pm2_5":24.0,"mosquito_risk":0,"arthritis_risk":5,"migraine_risk":7,"frizz_risk":0,"updated_at":"2026-04-25T03:21:32.270275+05:30"},{"city":"Udaipur","state":"Rajasthan","latitude":24.5854,"longitude":73.7125,"temp":26.7,"humidity":29,"rain":0.0,"pressure":944.9,"uv_index":8.8,"wind_gusts":39.6,"aqi":52,"pm10":59.0,"pm2_5":17.6,"mosquito_risk":4,"arthritis_risk":5,"migraine_risk":7,"frizz_risk":0,"updated_at":"2026-04-25T03:21:32.270282+05:30"},{"city":"Kota","state":"Rajasthan","latitude":25.2138,"longitude":75.8648,"temp":28.4,"humidity":31,"rain":0.0,"pressure":976.8,"uv_index":8.3,"wind_gusts":31.3,"aqi":60,"pm10":31.5,"pm2_5":22.4,"mosquito_risk":4,"arthritis_risk":5,"migraine_risk":7,"frizz_risk":0,"updated_at":"2026-04-25T03:21:32.270289+05:30"},{"city":"Bikaner","state":"Rajasthan","latitude":28.0229,"longitude":73.3119,"temp":29.0,"humidity":31,"rain":0.0,"pressure":980.2,"uv_index":8.15,"wind_gusts":29.5,"aqi":62,"pm10":61.9,"pm2_5":26.1,"mosquito_risk":4,"arthritis_risk":5,"migraine_risk":7,"frizz_risk":0,"updated_at":"2026-04-25T03:21:32.270296+05:30"},{"city":"Ajmer","state":"Rajasthan","latitude":26.4499,"longitude":74.6399,"temp":28.1,"humidity":29,"rain":0.0,"pressure":953.7,"uv_index":8.25,"wind_gusts":31.3,"aqi":58,"pm10":89.6,"pm2_5":22.6,"mosquito_risk":4,"arthritis_risk":5,"migraine_risk":7,"frizz_risk":0,"updated_at":"2026-04-25T03:21:32.270302+05:30"},{"city":"Gwalior","state":"Madhya Pradesh","latitude":26.2183,"longitude":78.1828,"temp":30.8,"humidity":25,"rain":0.0,"pressure":980.8,"uv_index":8.05,"wind_gusts":39.2,"aqi":62,"pm10":55.5,"pm2_5":22.2,"mosquito_risk":0,"arthritis_risk":5,"migraine_risk":7,"frizz_risk":0,"updated_at":"2026-04-25T03:21:32.270308+05:30"},{"city":"Indore","state":"Madhya Pradesh","latitude":22.7196,"longitude":75.8577,"temp":27.6,"humidity":22,"rain":0.0,"pressure":947.0,"uv_index":8.6,"wind_gusts":29.2,"aqi":52,"pm10":27.7,"pm2_5":13.3,"mosquito_risk":4,"arthritis_risk":5,"migraine_risk":7,"frizz_risk":0,"updated_at":"2026-04-25T03:21:32.270315+05:30"},{"city":"Bhopal","state":"Madhya Pradesh","latitude":23.2599,"longitude":77.4126,"temp":29.8,"humidity":22,"rain":0.0,"pressure":952.6,"uv_index":8.6,"wind_gusts":31.7,"aqi":53,"pm10":39.1,"pm2_5":28.4,"mosquito_risk":4,"arthritis_risk":5,"migraine_risk":7,"frizz_risk":0,"updated_at":"2026-04-25T03:21:32.270321+05:30"},{"city":"Jabalpur","state":"Madhya Pradesh","latitude":23.1815,"longitude":79.9864,"temp":27.1,"humidity":24,"rain":0.0,"pressure":959.7,"uv_index":8.8,"wind_gusts":40.0,"aqi":61,"pm10":29.6,"pm2_5":20.5,"mosquito_risk":4,"arthritis_risk":5,"migraine_risk":7,"frizz_risk":0,"updated_at":"2026-04-25T03:21:32.270327+05:30"},{"city":"Ujjain","state":"Madhya Pradesh","latitude":23.1765,"longitude":75.7885,"temp":27.7,"humidity":25,"rain":0.0,"pressure":952.6,"uv_index":8.55,"wind_gusts":37.8,"aqi":57,"pm10":32.6,"pm2_5":14.2,"mosquito_risk":4,"arthritis_risk":5,"migraine_risk":7,"frizz_risk":0,"updated_at":"2026-04-25T03:21:32.270333+05:30"},{"city":"Visakhapatnam","state":"Andhra Pradesh","latitude":17.6868,"longitude":83.2185,"temp":26.6,"humidity":92,"rain":0.0,"pressure":1001.9,"uv_index":8.5,"wind_gusts":42.8,"aqi":57,"pm10":16.4,"pm2_5":13.5,"mosquito_risk":7,"arthritis_risk":5,"migraine_risk":4,"frizz_risk":1,"updated_at":"2026-04-25T03:21:32.270339+05:30"},{"city":"Vijayawada","state":"Andhra Pradesh","latitude":16.5062,"longitude":80.648,"temp":26.8,"humidity":94,"rain":0.0,"pressure":1000.5,"uv_index":8.7,"wind_gusts":34.2,"aqi":52,"pm10":13.3,"pm2_5":11.4,"mosquito_risk":7,"arthritis_risk":5,"migraine_risk":4,"frizz_risk":1,"updated_at":"2026-04-25T03:21:32.270346+05:30"},{"city":"Guntur","state":"Andhra Pradesh","latitude":16.3067,"longitude":80.4365,"temp":26.5,"humidity":97,"rain":0.0,"pressure":1001.4,"uv_index":8.5,"wind_gusts":38.5,"aqi":53,"pm10":12.4,"pm2_5":10.5,"mosquito_risk":7,"arthritis_risk":5,"migraine_risk":4,"frizz_risk":1,"updated_at":"2026-04-25T03:21:32.270352+05:30"},{"city":"Nellore","state":"Andhra Pradesh","latitude":14.4426,"longitude":79.9865,"temp":26.5,"humidity":89,"rain":0.0,"pressure":1003.9,"uv_index":9.15,"wind_gusts":43.2,"aqi":40,"pm10":8.4,"pm2_5":7.1,"mosquito_risk":7,"arthritis_risk":5,"migraine_risk":4,"frizz_risk":1,"updated_at":"2026-04-25T03:21:32.270359+05:30"},{"city":"Kurnool","state":"Andhra Pradesh","latitude":15.8281,"longitude":78.0373,"temp":29.1,"humidity":52,"rain":0.0,"pressure":975.0,"uv_index":9.2,"wind_gusts":36.4,"aqi":79,"pm10":16.9,"pm2_5":14.6,"mosquito_risk":4,"arthritis_risk":5,"migraine_risk":7,"frizz_risk":1,"updated_at":"2026-04-25T03:21:32.270365+05:30"},{"city":"Kakinada","state":"Andhra Pradesh","latitude":16.9891,"longitude":82.2475,"temp":26.9,"humidity":93,"rain":0.0,"pressure":1005.8,"uv_index":8.4,"wind_gusts":39.2,"aqi":36,"pm10":12.5,"pm2_5":8.9,"mosquito_risk":7,"arthritis_risk":5,"migraine_risk":4,"frizz_risk":1,"updated_at":"2026-04-25T03:21:32.270372+05:30"},{"city":"Tirupati","state":"Andhra Pradesh","latitude":13.6288,"longitude":79.4192,"temp":26.8,"humidity":75,"rain":0.0,"pressure":989.8,"uv_index":9.0,"wind_gusts":36.7,"aqi":56,"pm10":19.6,"pm2_5":18.4,"mosquito_risk":7,"arthritis_risk":5,"migraine_risk":7,"frizz_risk":1,"updated_at":"2026-04-25T03:21:32.270378+05:30"},{"city":"Warangal","state":"Telangana","latitude":17.9689,"longitude":79.5941,"temp":27.8,"humidity":53,"rain":0.0,"pressure":976.5,"uv_index":8.95,"wind_gusts":31.7,"aqi":110,"pm10":25.8,"pm2_5":24.2,"mosquito_risk":4,"arthritis_risk":5,"migraine_risk":7,"frizz_risk":1,"updated_at":"2026-04-25T03:21:32.270384+05:30"},{"city":"Nizamabad","state":"Telangana","latitude":18.6725,"longitude":78.0941,"temp":28.4,"humidity":41,"rain":0.0,"pressure":962.4,"uv_index":8.8,"wind_gusts":28.1,"aqi":131,"pm10":57.5,"pm2_5":53.6,"mosquito_risk":4,"arthritis_risk":5,"migraine_risk":7,"frizz_risk":0,"updated_at":"2026-04-25T03:21:32.270390+05:30"},{"city":"Mysore","state":"Karnataka","latitude":12.2958,"longitude":76.6396,"temp":22.4,"humidity":83,"rain":0.0,"pressure":925.7,"uv_index":8.75,"wind_gusts":52.6,"aqi":89,"pm10":23.2,"pm2_5":21.2,"mosquito_risk":3,"arthritis_risk":5,"migraine_risk":7,"frizz_risk":1,"updated_at":"2026-04-25T03:21:32.270395+05:30"},{"city":"Mangalore","state":"Karnataka","latitude":12.9141,"longitude":74.856,"temp":28.5,"humidity":89,"rain":0.0,"pressure":1004.2,"uv_index":8.0,"wind_gusts":40.7,"aqi":70,"pm10":28.3,"pm2_5":22.6,"mosquito_risk":7,"arthritis_risk":5,"migraine_risk":4,"frizz_risk":1,"updated_at":"2026-04-25T03:21:32.270401+05:30"},{"city":"Hubli-Dharwad","state":"Karnataka","latitude":15.3647,"longitude":75.124,"temp":25.2,"humidity":87,"rain":0.0,"pressure":938.8,"uv_index":9.25,"wind_gusts":36.4,"aqi":113,"pm10":51.7,"pm2_5":47.4,"mosquito_risk":7,"arthritis_risk":5,"migraine_risk":7,"frizz_risk":1,"updated_at":"2026-04-25T03:21:32.270407+05:30"},{"city":"Belgaum","state":"Karnataka","latitude":15.8497,"longitude":74.4977,"temp":25.3,"humidity":62,"rain":0.0,"pressure":923.4,"uv_index":9.3,"wind_gusts":32.8,"aqi":129,"pm10":65.9,"pm2_5":56.3,"mosquito_risk":7,"arthritis_risk":5,"migraine_risk":7,"frizz_risk":1,"updated_at":"2026-04-25T03:21:35.504095+05:30"},{"city":"Coimbatore","state":"Tamil Nadu","latitude":11.0168,"longitude":76.9558,"temp":26.5,"humidity":78,"rain":0.0,"pressure":959.8,"uv_index":8.8,"wind_gusts":43.9,"aqi":81,"pm10":23.3,"pm2_5":22.4,"mosquito_risk":7,"arthritis_risk":5,"migraine_risk":7,"frizz_risk":1,"updated_at":"2026-04-25T03:21:35.504129+05:30"},{"city":"Madurai","state":"Tamil Nadu","latitude":9.9252,"longitude":78.1198,"temp":26.9,"humidity":86,"rain":0.0,"pressure":991.6,"uv_index":8.75,"wind_gusts":40.0,"aqi":44,"pm10":14.3,"pm2_5":13.5,"mosquito_risk":7,"arthritis_risk":5,"migraine_risk":7,"frizz_risk":1,"updated_at":"2026-04-25T03:21:35.504140+05:30"},{"city":"Trichy","state":"Tamil Nadu","latitude":10.7905,"longitude":78.7047,"temp":27.0,"humidity":85,"rain":0.0,"pressure":998.3,"uv_index":9.0,"wind_gusts":32.4,"aqi":45,"pm10":11.9,"pm2_5":10.7,"mosquito_risk":7,"arthritis_risk":5,"migraine_risk":7,"frizz_risk":1,"updated_at":"2026-04-25T03:21:35.504148+05:30"},{"city":"Salem","state":"Tamil Nadu","latitude":11.6643,"longitude":78.146,"temp":27.1,"humidity":66,"rain":0.0,"pressure":975.6,"uv_index":9.0,"wind_gusts":42.8,"aqi":60,"pm10":17.9,"pm2_5":17.5,"mosquito_risk":7,"arthritis_risk":5,"migraine_risk":7,"frizz_risk":1,"updated_at":"2026-04-25T03:21:35.504155+05:30"},{"city":"Tirunelveli","state":"Tamil Nadu","latitude":8.7139,"longitude":77.7567,"temp":26.0,"humidity":91,"rain":0.0,"pressure":1001.3,"uv_index":8.95,"wind_gusts":37.8,"aqi":63,"pm10":21.9,"pm2_5":20.9,"mosquito_risk":7,"arthritis_risk":5,"migraine_risk":4,"frizz_risk":1,"updated_at":"2026-04-25T03:21:35.504162+05:30"},{"city":"Vellore","state":"Tamil Nadu","latitude":12.9165,"longitude":79.1325,"temp":26.0,"humidity":76,"rain":0.0,"pressure":982.9,"uv_index":9.0,"wind_gusts":36.7,"aqi":72,"pm10":32.6,"pm2_5":31.8,"mosquito_risk":7,"arthritis_risk":5,"migraine_risk":7,"frizz_risk":1,"updated_at":"2026-04-25T03:21:35.504168+05:30"},{"city":"Erode","state":"Tamil Nadu","latitude":11.341,"longitude":77.7172,"temp":27.7,"humidity":65,"rain":0.0,"pressure":987.5,"uv_index":9.0,"wind_gusts":40.3,"aqi":43,"pm10":8.0,"pm2_5":7.8,"mosquito_risk":7,"arthritis_risk":5,"migraine_risk":7,"frizz_risk":1,"updated_at":"2026-04-25T03:21:35.504174+05:30"},{"city":"Kochi","state":"Kerala","latitude":9.9312,"longitude":76.2673,"temp":27.0,"humidity":93,"rain":0.0,"pressure":1006.2,"uv_index":8.65,"wind_gusts":40.7,"aqi":90,"pm10":37.1,"pm2_5":34.6,"mosquito_risk":7,"arthritis_risk":5,"migraine_risk":4,"frizz_risk":1,"updated_at":"2026-04-25T03:21:35.504180+05:30"},{"city":"Thiruvananthapuram","state":"Kerala","latitude":8.5241,"longitude":76.9366,"temp":25.5,"humidity":95,"rain":0.0,"pressure":1005.8,"uv_index":8.2,"wind_gusts":34.2,"aqi":61,"pm10":22.1,"pm2_5":18.0,"mosquito_risk":7,"arthritis_risk":5,"migraine_risk":4,"frizz_risk":1,"updated_at":"2026-04-25T03:21:35.504186+05:30"},{"city":"Kozhikode","state":"Kerala","latitude":11.2588,"longitude":75.7804,"temp":26.8,"humidity":95,"rain":0.0,"pressure":1005.0,"uv_index":8.6,"wind_gusts":39.6,"aqi":77,"pm10":29.3,"pm2_5":22.2,"mosquito_risk":7,"arthritis_risk":5,"migraine_risk":4,"frizz_risk":1,"updated_at":"2026-04-25T03:21:35.504192+05:30"},{"city":"Thrissur","state":"Kerala","latitude":10.5276,"longitude":76.2144,"temp":26.4,"humidity":92,"rain":0.0,"pressure":1004.4,"uv_index":8.45,"wind_gusts":48.2,"aqi":95,"pm10":41.3,"pm2_5":38.1,"mosquito_risk":7,"arthritis_risk":5,"migraine_risk":4,"frizz_risk":1,"updated_at":"2026-04-25T03:21:35.504199+05:30"},{"city":"Kannur","state":"Kerala","latitude":11.8745,"longitude":75.3704,"temp":26.9,"humidity":90,"rain":0.0,"pressure":1004.4,"uv_index":8.85,"wind_gusts":40.7,"aqi":76,"pm10":28.5,"pm2_5":23.5,"mosquito_risk":7,"arthritis_risk":5,"migraine_risk":4,"frizz_risk":1,"updated_at":"2026-04-25T03:21:35.504207+05:30"},{"city":"Patna","state":"Bihar","latitude":25.5941,"longitude":85.1376,"temp":27.7,"humidity":81,"rain":0.0,"pressure":998.9,"uv_index":8.65,"wind_gusts":50.0,"aqi":151,"pm10":77.5,"pm2_5":57.7,"mosquito_risk":7,"arthritis_risk":5,"migraine_risk":7,"frizz_risk":1,"updated_at":"2026-04-25T03:21:35.504213+05:30"},{"city":"Gaya","state":"Bihar","latitude":24.7914,"longitude":85.0002,"temp":26.9,"humidity":42,"rain":0.0,"pressure":991.6,"uv_index":8.7,"wind_gusts":55.4,"aqi":128,"pm10":74.3,"pm2_5":36.6,"mosquito_risk":4,"arthritis_risk":5,"migraine_risk":7,"frizz_risk":0,"updated_at":"2026-04-25T03:21:35.504219+05:30"},{"city":"Muzaffarpur","state":"Bihar","latitude":26.1209,"longitude":85.3647,"temp":26.3,"humidity":82,"rain":0.0,"pressure":999.3,"uv_index":8.65,"wind_gusts":33.5,"aqi":152,"pm10":71.5,"pm2_5":59.0,"mosquito_risk":7,"arthritis_risk":5,"migraine_risk":7,"frizz_risk":1,"updated_at":"2026-04-25T03:21:35.504225+05:30"},{"city":"Bhagalpur","state":"Bihar","latitude":25.2425,"longitude":87.0117,"temp":26.2,"humidity":88,"rain":0.0,"pressure":1000.0,"uv_index":8.6,"wind_gusts":56.9,"aqi":151,"pm10":67.1,"pm2_5":59.5,"mosquito_risk":7,"arthritis_risk":5,"migraine_risk":4,"frizz_risk":1,"updated_at":"2026-04-25T03:21:35.504231+05:30"},{"city":"Ranchi","state":"Jharkhand","latitude":23.3441,"longitude":85.3096,"temp":24.0,"humidity":33,"rain":0.0,"pressure":936.2,"uv_index":9.2,"wind_gusts":34.9,"aqi":115,"pm10":88.5,"pm2_5":39.0,"mosquito_risk":0,"arthritis_risk":5,"migraine_risk":7,"frizz_risk":0,"updated_at":"2026-04-25T03:21:35.504237+05:30"},{"city":"Jamshedpur","state":"Jharkhand","latitude":22.8046,"longitude":86.2029,"temp":26.8,"humidity":83,"rain":0.0,"pressure":989.4,"uv_index":8.85,"wind_gusts":34.2,"aqi":151,"pm10":74.3,"pm2_5":54.2,"mosquito_risk":7,"arthritis_risk":5,"migraine_risk":7,"frizz_risk":1,"updated_at":"2026-04-25T03:21:35.504244+05:30"},{"city":"Dhanbad","state":"Jharkhand","latitude":23.7957,"longitude":86.4304,"temp":26.4,"humidity":94,"rain":0.0,"pressure":978.5,"uv_index":8.95,"wind_gusts":49.7,"aqi":165,"pm10":137.4,"pm2_5":94.8,"mosquito_risk":7,"arthritis_risk":5,"migraine_risk":7,"frizz_risk":1,"updated_at":"2026-04-25T03:21:35.504249+05:30"},{"city":"Bokaro","state":"Jharkhand","latitude":23.6693,"longitude":86.1511,"temp":25.3,"humidity":55,"rain":0.0,"pressure":982.2,"uv_index":8.95,"wind_gusts":43.9,"aqi":160,"pm10":149.5,"pm2_5":84.1,"mosquito_risk":4,"arthritis_risk":5,"migraine_risk":7,"frizz_risk":0,"updated_at":"2026-04-25T03:21:35.504256+05:30"},{"city":"Bhubaneswar","state":"Odisha","latitude":20.2961,"longitude":85.8245,"temp":26.2,"humidity":97,"rain":0.0,"pressure":1000.9,"uv_index":9.05,"wind_gusts":40.7,"aqi":69,"pm10":17.4,"pm2_5":13.8,"mosquito_risk":7,"arthritis_risk":5,"migraine_risk":4,"frizz_risk":1,"updated_at":"2026-04-25T03:21:35.504262+05:30"},{"city":"Cuttack","state":"Odisha","latitude":20.4625,"longitude":85.8828,"temp":26.3,"humidity":97,"rain":0.0,"pressure":1002.8,"uv_index":9.1,"wind_gusts":36.4,"aqi":69,"pm10":17.4,"pm2_5":13.8,"mosquito_risk":7,"arthritis_risk":5,"migraine_risk":4,"frizz_risk":1,"updated_at":"2026-04-25T03:21:35.504269+05:30"},{"city":"Rourkela","state":"Odisha","latitude":22.2604,"longitude":84.8536,"temp":26.2,"humidity":74,"rain":0.0,"pressure":983.5,"uv_index":8.3,"wind_gusts":40.7,"aqi":130,"pm10":82.2,"pm2_5":50.3,"mosquito_risk":7,"arthritis_risk":5,"migraine_risk":7,"frizz_risk":1,"updated_at":"2026-04-25T03:21:35.504274+05:30"},{"city":"Raipur","state":"Chhattisgarh","latitude":21.2514,"longitude":81.6296,"temp":27.9,"humidity":29,"rain":0.0,"pressure":972.0,"uv_index":9.0,"wind_gusts":28.1,"aqi":115,"pm10":63.3,"pm2_5":56.3,"mosquito_risk":4,"arthritis_risk":5,"migraine_risk":7,"frizz_risk":0,"updated_at":"2026-04-25T03:21:35.504281+05:30"},{"city":"Bhilai","state":"Chhattisgarh","latitude":21.1938,"longitude":81.3509,"temp":28.0,"humidity":37,"rain":0.0,"pressure":972.5,"uv_index":9.0,"wind_gusts":34.6,"aqi":107,"pm10":53.1,"pm2_5":49.1,"mosquito_risk":4,"arthritis_risk":5,"migraine_risk":7,"frizz_risk":0,"updated_at":"2026-04-25T03:21:35.504286+05:30"},{"city":"Guwahati","state":"Assam","latitude":26.1158,"longitude":91.7086,"temp":23.0,"humidity":98,"rain":0.0,"pressure":1001.3,"uv_index":8.55,"wind_gusts":31.7,"aqi":151,"pm10":74.3,"pm2_5":58.3,"mosquito_risk":3,"arthritis_risk":5,"migraine_risk":4,"frizz_risk":1,"updated_at":"2026-04-25T03:21:35.504292+05:30"},{"city":"Agartala","state":"Tripura","latitude":23.8315,"longitude":91.2868,"temp":25.2,"humidity":94,"rain":0.0,"pressure":1006.1,"uv_index":8.75,"wind_gusts":26.3,"aqi":128,"pm10":64.5,"pm2_5":54.6,"mosquito_risk":7,"arthritis_risk":5,"migraine_risk":4,"frizz_risk":1,"updated_at":"2026-04-25T03:21:35.504298+05:30"},{"city":"Shillong","state":"Meghalaya","latitude":25.5788,"longitude":91.8933,"temp":16.9,"humidity":80,"rain":0.0,"pressure":856.4,"uv_index":8.2,"wind_gusts":31.0,"aqi":125,"pm10":62.9,"pm2_5":41.9,"mosquito_risk":3,"arthritis_risk":5,"migraine_risk":7,"frizz_risk":0,"updated_at":"2026-04-25T03:21:35.504304+05:30"},{"city":"Imphal","state":"Manipur","latitude":24.817,"longitude":93.9368,"temp":18.6,"humidity":86,"rain":0.0,"pressure":923.0,"uv_index":9.1,"wind_gusts":35.6,"aqi":151,"pm10":119.2,"pm2_5":77.3,"mosquito_risk":3,"arthritis_risk":10,"migraine_risk":7,"frizz_risk":1,"updated_at":"2026-04-25T03:21:35.504310+05:30"},{"city":"Aizawl","state":"Mizoram","latitude":23.7271,"longitude":92.7176,"temp":17.6,"humidity":79,"rain":0.0,"pressure":891.4,"uv_index":9.0,"wind_gusts":34.2,"aqi":116,"pm10":91.5,"pm2_5":47.8,"mosquito_risk":3,"arthritis_risk":5,"migraine_risk":7,"frizz_risk":0,"updated_at":"2026-04-25T03:21:35.504316+05:30"},{"city":"Kohima","state":"Nagaland","latitude":25.6701,"longitude":94.1077,"temp":15.2,"humidity":91,"rain":0.0,"pressure":853.8,"uv_index":8.4,"wind_gusts":32.0,"aqi":144,"pm10":105.0,"pm2_5":62.6,"mosquito_risk":3,"arthritis_risk":10,"migraine_risk":7,"frizz_risk":0,"updated_at":"2026-04-25T03:21:35.504322+05:30"},{"city":"Gangtok","state":"Sikkim","latitude":27.3314,"longitude":88.6138,"temp":13.2,"humidity":71,"rain":0.0,"pressure":835.9,"uv_index":8.9,"wind_gusts":46.8,"aqi":94,"pm10":29.8,"pm2_5":21.6,"mosquito_risk":3,"arthritis_risk":5,"migraine_risk":7,"frizz_risk":0,"updated_at":"2026-04-25T03:21:35.504328+05:30"},{"city":"Siliguri","state":"West Bengal","latitude":26.7271,"longitude":88.3953,"temp":22.0,"humidity":89,"rain":0.0,"pressure":992.9,"uv_index":8.45,"wind_gusts":47.2,"aqi":156,"pm10":72.6,"pm2_5":61.7,"mosquito_risk":3,"arthritis_risk":5,"migraine_risk":7,"frizz_risk":1,"updated_at":"2026-04-25T03:21:38.739142+05:30"},{"city":"Durgapur","state":"West Bengal","latitude":23.5204,"longitude":87.3119,"temp":26.3,"humidity":97,"rain":0.0,"pressure":994.1,"uv_index":8.9,"wind_gusts":39.6,"aqi":151,"pm10":55.8,"pm2_5":51.2,"mosquito_risk":7,"arthritis_risk":5,"migraine_risk":7,"frizz_risk":1,"updated_at":"2026-04-25T03:21:38.739176+05:30"},{"city":"Asansol","state":"West Bengal","latitude":23.6739,"longitude":86.9524,"temp":26.6,"humidity":97,"rain":0.0,"pressure":992.5,"uv_index":8.95,"wind_gusts":45.7,"aqi":153,"pm10":72.9,"pm2_5":57.7,"mosquito_risk":7,"arthritis_risk":5,"migraine_risk":7,"frizz_risk":1,"updated_at":"2026-04-25T03:21:38.739187+05:30"},{"city":"Pondicherry","state":"Puducherry","latitude":11.9139,"longitude":79.8145,"temp":28.8,"humidity":81,"rain":0.0,"pressure":1006.8,"uv_index":8.8,"wind_gusts":43.2,"aqi":23,"pm10":8.3,"pm2_5":5.3,"mosquito_risk":7,"arthritis_risk":5,"migraine_risk":4,"frizz_risk":1,"updated_at":"2026-04-25T03:21:38.739195+05:30"},{"city":"Port Blair","state":"Andaman and Nicobar Islands","latitude":11.6234,"longitude":92.7265,"temp":25.7,"humidity":87,"rain":0.0,"pressure":1006.0,"uv_index":9.15,"wind_gusts":30.2,"aqi":37,"pm10":12.5,"pm2_5":6.3,"mosquito_risk":7,"arthritis_risk":5,"migraine_risk":4,"frizz_risk":1,"updated_at":"2026-04-25T03:21:38.739202+05:30"},{"city":"Haridwar","state":"Uttarakhand","latitude":29.9457,"longitude":78.1642,"temp":21.4,"humidity":61,"rain":0.0,"pressure":971.4,"uv_index":7.2,"wind_gusts":32.8,"aqi":82,"pm10":34.9,"pm2_5":28.9,"mosquito_risk":3,"arthritis_risk":5,"migraine_risk":7,"frizz_risk":0,"updated_at":"2026-04-25T03:21:38.739209+05:30"},{"city":"Rishikesh","state":"Uttarakhand","latitude":30.0869,"longitude":78.2676,"temp":19.1,"humidity":67,"rain":0.0,"pressure":964.0,"uv_index":7.35,"wind_gusts":31.7,"aqi":66,"pm10":24.4,"pm2_5":21.4,"mosquito_risk":3,"arthritis_risk":5,"migraine_risk":7,"frizz_risk":0,"updated_at":"2026-04-25T03:21:38.739216+05:30"},{"city":"Nainital","state":"Uttarakhand","latitude":29.3919,"longitude":79.4542,"temp":16.5,"humidity":46,"rain":0.0,"pressure":805.6,"uv_index":7.8,"wind_gusts":43.2,"aqi":77,"pm10":29.5,"pm2_5":26.2,"mosquito_risk":0,"arthritis_risk":5,"migraine_risk":7,"frizz_risk":0,"updated_at":"2026-04-25T03:21:38.739223+05:30"},{"city":"Mussoorie","state":"Uttarakhand","latitude":30.4599,"longitude":78.0664,"temp":16.5,"humidity":45,"rain":0.0,"pressure":802.7,"uv_index":7.75,"wind_gusts":58.0,"aqi":72,"pm10":22.8,"pm2_5":20.0,"mosquito_risk":0,"arthritis_risk":5,"migraine_risk":7,"frizz_risk":0,"updated_at":"2026-04-25T03:21:38.739230+05:30"},{"city":"Dharamshala","state":"Himachal Pradesh","latitude":32.219,"longitude":76.3234,"temp":23.7,"humidity":29,"rain":0.0,"pressure":870.3,"uv_index":7.35,"wind_gusts":61.9,"aqi":49,"pm10":22.7,"pm2_5":13.6,"mosquito_risk":0,"arthritis_risk":5,"migraine_risk":7,"frizz_risk":0,"updated_at":"2026-04-25T03:21:38.739237+05:30"},{"city":"Dalhousie","state":"Himachal Pradesh","latitude":32.5387,"longitude":75.971,"temp":10.9,"humidity":67,"rain":0.0,"pressure":801.9,"uv_index":8.2,"wind_gusts":47.2,"aqi":61,"pm10":25.0,"pm2_5":19.3,"mosquito_risk":3,"arthritis_risk":5,"migraine_risk":7,"frizz_risk":0,"updated_at":"2026-04-25T03:21:38.739245+05:30"},{"city":"Patiala","state":"Punjab","latitude":30.3398,"longitude":76.3869,"temp":28.2,"humidity":35,"rain":0.0,"pressure":976.4,"uv_index":7.35,"wind_gusts":52.6,"aqi":352,"pm10":592.3,"pm2_5":75.2,"mosquito_risk":4,"arthritis_risk":5,"migraine_risk":7,"frizz_risk":0,"updated_at":"2026-04-25T03:21:38.739253+05:30"},{"city":"Bhatinda","state":"Punjab","latitude":30.211,"longitude":74.9455,"temp":28.6,"humidity":26,"rain":0.0,"pressure":982.5,"uv_index":8.0,"wind_gusts":41.8,"aqi":89,"pm10":71.5,"pm2_5":33.2,"mosquito_risk":4,"arthritis_risk":5,"migraine_risk":7,"frizz_risk":0,"updated_at":"2026-04-25T03:21:38.739260+05:30"},{"city":"Rohtak","state":"Haryana","latitude":28.8955,"longitude":76.6066,"temp":28.1,"humidity":28,"rain":0.0,"pressure":979.8,"uv_index":7.45,"wind_gusts":44.3,"aqi":235,"pm10":1214.4,"pm2_5":167.6,"mosquito_risk":4,"arthritis_risk":5,"migraine_risk":7,"frizz_risk":0,"updated_at":"2026-04-25T03:21:38.739267+05:30"},{"city":"Panipat","state":"Haryana","latitude":29.3909,"longitude":76.9635,"temp":28.6,"humidity":30,"rain":0.0,"pressure":978.5,"uv_index":7.3,"wind_gusts":63.7,"aqi":531,"pm10":2190.5,"pm2_5":261.7,"mosquito_risk":4,"arthritis_risk":5,"migraine_risk":7,"frizz_risk":0,"updated_at":"2026-04-25T03:21:38.739273+05:30"},{"city":"Mathura","state":"Uttar Pradesh","latitude":27.4924,"longitude":77.6737,"temp":26.9,"humidity":36,"rain":0.0,"pressure":984.2,"uv_index":7.55,"wind_gusts":41.8,"aqi":321,"pm10":407.9,"pm2_5":78.5,"mosquito_risk":4,"arthritis_risk":5,"migraine_risk":7,"frizz_risk":0,"updated_at":"2026-04-25T03:21:38.739279+05:30"},{"city":"Vrindavan","state":"Uttar Pradesh","latitude":27.5823,"longitude":77.7027,"temp":26.3,"humidity":38,"rain":0.0,"pressure":984.7,"uv_index":7.7,"wind_gusts":40.3,"aqi":321,"pm10":407.9,"pm2_5":78.5,"mosquito_risk":4,"arthritis_risk":5,"migraine_risk":7,"frizz_risk":0,"updated_at":"2026-04-25T03:21:38.739285+05:30"},{"city":"Ayodhya","state":"Uttar Pradesh","latitude":26.7922,"longitude":82.1998,"temp":26.1,"humidity":50,"rain":0.0,"pressure":993.1,"uv_index":8.1,"wind_gusts":37.1,"aqi":134,"pm10":184.9,"pm2_5":49.2,"mosquito_risk":4,"arthritis_risk":5,"migraine_risk":7,"frizz_risk":0,"updated_at":"2026-04-25T03:21:38.739291+05:30"},{"city":"Ratlam","state":"Madhya Pradesh","latitude":23.3315,"longitude":75.0367,"temp":26.7,"humidity":31,"rain":0.0,"pressure":953.4,"uv_index":8.5,"wind_gusts":29.9,"aqi":53,"pm10":37.1,"pm2_5":14.7,"mosquito_risk":4,"arthritis_risk":5,"migraine_risk":7,"frizz_risk":0,"updated_at":"2026-04-25T03:21:38.739298+05:30"},{"city":"Sagar","state":"Madhya Pradesh","latitude":23.8388,"longitude":78.7378,"temp":25.9,"humidity":27,"rain":0.0,"pressure":948.4,"uv_index":8.65,"wind_gusts":28.8,"aqi":51,"pm10":20.8,"pm2_5":15.9,"mosquito_risk":4,"arthritis_risk":5,"migraine_risk":7,"frizz_risk":0,"updated_at":"2026-04-25T03:21:38.739304+05:30"},{"city":"Satna","state":"Madhya Pradesh","latitude":24.6005,"longitude":80.8322,"temp":25.9,"humidity":27,"rain":0.0,"pressure":969.1,"uv_index":8.65,"wind_gusts":41.4,"aqi":70,"pm10":39.2,"pm2_5":33.9,"mosquito_risk":4,"arthritis_risk":5,"migraine_risk":7,"frizz_risk":0,"updated_at":"2026-04-25T03:21:38.739310+05:30"},{"city":"Akola","state":"Maharashtra","latitude":20.7002,"longitude":77.0082,"temp":28.5,"humidity":28,"rain":0.0,"pressure":973.2,"uv_index":8.6,"wind_gusts":31.3,"aqi":74,"pm10":23.2,"pm2_5":19.8,"mosquito_risk":4,"arthritis_risk":5,"migraine_risk":7,"frizz_risk":0,"updated_at":"2026-04-25T03:21:38.739316+05:30"},{"city":"Amravati","state":"Maharashtra","latitude":20.9374,"longitude":77.7796,"temp":29.2,"humidity":26,"rain":0.0,"pressure":965.3,"uv_index":8.6,"wind_gusts":30.6,"aqi":80,"pm10":24.4,"pm2_5":21.4,"mosquito_risk":4,"arthritis_risk":5,"migraine_risk":7,"frizz_risk":0,"updated_at":"2026-04-25T03:21:38.739322+05:30"},{"city":"Latur","state":"Maharashtra","latitude":18.4088,"longitude":76.5604,"temp":27.8,"humidity":36,"rain":0.0,"pressure":938.1,"uv_index":9.05,"wind_gusts":32.4,"aqi":104,"pm10":43.3,"pm2_5":39.1,"mosquito_risk":4,"arthritis_risk":5,"migraine_risk":7,"frizz_risk":0,"updated_at":"2026-04-25T03:21:38.739329+05:30"},{"city":"Nanded","state":"Maharashtra","latitude":19.1383,"longitude":77.3091,"temp":28.1,"humidity":45,"rain":0.0,"pressure":966.8,"uv_index":8.9,"wind_gusts":31.0,"aqi":104,"pm10":54.1,"pm2_5":48.5,"mosquito_risk":4,"arthritis_risk":5,"migraine_risk":7,"frizz_risk":0,"updated_at":"2026-04-25T03:21:38.739335+05:30"},{"city":"Gulbarga","state":"Karnataka","latitude":17.3297,"longitude":76.8343,"temp":27.9,"humidity":52,"rain":0.0,"pressure":956.7,"uv_index":9.05,"wind_gusts":26.6,"aqi":108,"pm10":38.3,"pm2_5":33.5,"mosquito_risk":4,"arthritis_risk":5,"migraine_risk":7,"frizz_risk":1,"updated_at":"2026-04-25T03:21:38.739342+05:30"},{"city":"Bidar","state":"Karnataka","latitude":17.9104,"longitude":77.5199,"temp":26.5,"humidity":45,"rain":0.0,"pressure":933.2,"uv_index":8.3,"wind_gusts":31.7,"aqi":118,"pm10":43.5,"pm2_5":39.9,"mosquito_risk":4,"arthritis_risk":5,"migraine_risk":7,"frizz_risk":0,"updated_at":"2026-04-25T03:21:38.739348+05:30"},{"city":"Hospet","state":"Karnataka","latitude":15.2689,"longitude":76.3909,"temp":27.5,"humidity":39,"rain":0.0,"pressure":953.9,"uv_index":9.3,"wind_gusts":27.4,"aqi":95,"pm10":30.2,"pm2_5":26.5,"mosquito_risk":4,"arthritis_risk":5,"migraine_risk":7,"frizz_risk":0,"updated_at":"2026-04-25T03:21:38.739354+05:30"},{"city":"Tirupur","state":"Tamil Nadu","latitude":11.1085,"longitude":77.3411,"temp":28.4,"humidity":47,"rain":0.0,"pressure":973.3,"uv_index":9.05,"wind_gusts":37.1,"aqi":61,"pm10":9.3,"pm2_5":9.2,"mosquito_risk":4,"arthritis_risk":5,"migraine_risk":7,"frizz_risk":0,"updated_at":"2026-04-25T03:21:38.739359+05:30"},{"city":"Alappuzha","state":"Kerala","latitude":9.4981,"longitude":76.3388,"temp":25.9,"humidity":96,"rain":0.0,"pressure":1006.2,"uv_index":8.6,"wind_gusts":36.7,"aqi":83,"pm10":31.0,"pm2_5":26.4,"mosquito_risk":7,"arthritis_risk":5,"migraine_risk":4,"frizz_risk":1,"updated_at":"2026-04-25T03:21:38.739366+05:30"},{"city":"Munnar","state":"Kerala","latitude":10.0889,"longitude":77.0595,"temp":15.5,"humidity":80,"rain":0.0,"pressure":853.4,"uv_index":9.4,"wind_gusts":26.3,"aqi":64,"pm10":19.0,"pm2_5":18.5,"mosquito_risk":3,"arthritis_risk":5,"migraine_risk":7,"frizz_risk":0,"updated_at":"2026-04-25T03:21:38.739373+05:30"},{"city":"Silchar","state":"Assam","latitude":24.8333,"longitude":92.7789,"temp":24.5,"humidity":89,"rain":0.0,"pressure":1004.4,"uv_index":8.75,"wind_gusts":23.4,"aqi":158,"pm10":108.5,"pm2_5":74.5,"mosquito_risk":3,"arthritis_risk":5,"migraine_risk":4,"frizz_risk":1,"updated_at":"2026-04-25T03:21:38.739379+05:30"},{"city":"Dibrugarh","state":"Assam","latitude":27.4728,"longitude":94.912,"temp":23.7,"humidity":93,"rain":0.0,"pressure":995.3,"uv_index":8.7,"wind_gusts":23.0,"aqi":82,"pm10":10.0,"pm2_5":8.4,"mosquito_risk":3,"arthritis_risk":5,"migraine_risk":7,"frizz_risk":1,"updated_at":"2026-04-25T03:21:38.739385+05:30"}]