[{"city":"Delhi","state":"Delhi","latitude":28.6139,"longitude":77.209,"temp":33.2,"humidity":49,"rain":0.0,"pressure":978.4,"uv_index":7.7,"wind_gusts":37.8,"aqi":487,"pm10":551.3,"pm2_5":105.7,"no2":17.1,"co":550.0,"o3":181.0,"so2":27.7,"mosquito_risk":0,"arthritis_risk":5,"migraine_risk":7,"frizz_risk":1,"updated_at":"2026-05-29T17:46:24.303413+05:30"},{"city":"Mumbai","state":"Maharashtra","latitude":19.076,"longitude":72.8777,"temp":31.8,"humidity":65,"rain":0.0,"pressure":1006.4,"uv_index":7.8,"wind_gusts":41.8,"aqi":62,"pm10":40.3,"pm2_5":20.5,"no2":7.3,"co":186.0,"o3":67.0,"so2":5.8,"mosquito_risk":3,"arthritis_risk":5,"migraine_risk":4,"frizz_risk":1,"updated_at":"2026-05-29T17:46:24.303456+05:30"},{"city":"Bangalore","state":"Karnataka","latitude":12.9716,"longitude":77.5946,"temp":27.6,"humidity":64,"rain":0.1,"pressure":910.6,"uv_index":7.0,"wind_gusts":29.5,"aqi":70,"pm10":24.7,"pm2_5":18.9,"no2":37.2,"co":680.0,"o3":80.0,"so2":5.2,"mosquito_risk":10,"arthritis_risk":5,"migraine_risk":7,"frizz_risk":1,"updated_at":"2026-05-29T17:46:24.303472+05:30"},{"city":"Hyderabad","state":"Telangana","latitude":17.385,"longitude":78.4867,"temp":36.5,"humidity":29,"rain":0.0,"pressure":950.3,"uv_index":9.1,"wind_gusts":39.6,"aqi":83,"pm10":14.4,"pm2_5":11.1,"no2":6.1,"co":300.0,"o3":133.0,"so2":4.2,"mosquito_risk":0,"arthritis_risk":5,"migraine_risk":10,"frizz_risk":0,"updated_at":"2026-05-29T17:46:24.303481+05:30"},{"city":"Chennai","state":"Tamil Nadu","latitude":13.0827,"longitude":80.2707,"temp":34.1,"humidity":58,"rain":0.0,"pressure":1003.3,"uv_index":8.85,"wind_gusts":42.1,"aqi":185,"pm10":34.3,"pm2_5":25.9,"no2":7.1,"co":315.0,"o3":178.0,"so2":9.1,"mosquito_risk":0,"arthritis_risk":5,"migraine_risk":4,"frizz_risk":1,"updated_at":"2026-05-29T17:46:24.303490+05:30"},{"city":"Kolkata","state":"West Bengal","latitude":22.5726,"longitude":88.3639,"temp":26.2,"humidity":93,"rain":0.0,"pressure":1000.9,"uv_index":8.9,"wind_gusts":56.9,"aqi":97,"pm10":55.1,"pm2_5":36.1,"no2":8.1,"co":524.0,"o3":97.0,"so2":7.4,"mosquito_risk":7,"arthritis_risk":5,"migraine_risk":4,"frizz_risk":1,"updated_at":"2026-05-29T17:46:24.303497+05:30"},{"city":"Pune","state":"Maharashtra","latitude":18.5204,"longitude":73.8567,"temp":31.6,"humidity":47,"rain":0.0,"pressure":946.7,"uv_index":8.4,"wind_gusts":48.2,"aqi":45,"pm10":20.5,"pm2_5":13.0,"no2":3.2,"co":166.0,"o3":105.0,"so2":5.5,"mosquito_risk":0,"arthritis_risk":5,"migraine_risk":7,"frizz_risk":1,"updated_at":"2026-05-29T17:46:24.303504+05:30"},{"city":"Ahmedabad","state":"Gujarat","latitude":23.0225,"longitude":72.5714,"temp":41.4,"humidity":26,"rain":0.0,"pressure":995.0,"uv_index":8.1,"wind_gusts":47.9,"aqi":73,"pm10":55.5,"pm2_5":24.0,"no2":2.3,"co":151.0,"o3":97.0,"so2":3.0,"mosquito_risk":0,"arthritis_risk":5,"migraine_risk":10,"frizz_risk":1,"updated_at":"2026-05-29T17:46:24.303512+05:30"},{"city":"Jaipur","state":"Rajasthan","latitude":26.9124,"longitude":75.7873,"temp":38.6,"humidity":22,"rain":0.0,"pressure":953.7,"uv_index":8.2,"wind_gusts":54.7,"aqi":110,"pm10":207.2,"pm2_5":44.0,"no2":2.2,"co":227.0,"o3":106.0,"so2":3.4,"mosquito_risk":0,"arthritis_risk":5,"migraine_risk":10,"frizz_risk":0,"updated_at":"2026-05-29T17:46:24.303523+05:30"},{"city":"Lucknow","state":"Uttar Pradesh","latitude":26.8467,"longitude":80.9462,"temp":33.2,"humidity":45,"rain":0.0,"pressure":990.8,"uv_index":8.15,"wind_gusts":47.5,"aqi":162,"pm10":61.9,"pm2_5":35.0,"no2":3.6,"co":335.0,"o3":170.0,"so2":8.4,"mosquito_risk":0,"arthritis_risk":5,"migraine_risk":7,"frizz_risk":1,"updated_at":"2026-05-29T17:46:24.303531+05:30"},{"city":"Kanpur","state":"Uttar Pradesh","latitude":26.4499,"longitude":80.3319,"temp":35.0,"humidity":39,"rain":0.0,"pressure":988.3,"uv_index":8.2,"wind_gusts":37.1,"aqi":163,"pm10":196.5,"pm2_5":48.0,"no2":3.6,"co":293.0,"o3":169.0,"so2":8.9,"mosquito_risk":0,"arthritis_risk":5,"migraine_risk":7,"frizz_risk":1,"updated_at":"2026-05-29T17:46:24.303537+05:30"},{"city":"Chandigarh","state":"Chandigarh","latitude":30.7333,"longitude":76.7794,"temp":33.9,"humidity":29,"rain":0.0,"pressure":965.5,"uv_index":7.7,"wind_gusts":56.9,"aqi":175,"pm10":111.1,"pm2_5":35.5,"no2":4.5,"co":476.0,"o3":182.0,"so2":9.6,"mosquito_risk":0,"arthritis_risk":5,"migraine_risk":7,"frizz_risk":0,"updated_at":"2026-05-29T17:46:24.303544+05:30"},{"city":"Srinagar","state":"Jammu and Kashmir","latitude":34.0837,"longitude":74.7973,"temp":25.5,"humidity":29,"rain":0.0,"pressure":841.6,"uv_index":8.9,"wind_gusts":28.1,"aqi":114,"pm10":16.9,"pm2_5":8.5,"no2":3.0,"co":270.0,"o3":147.0,"so2":2.0,"mosquito_risk":4,"arthritis_risk":5,"migraine_risk":7,"frizz_risk":0,"updated_at":"2026-05-29T17:46:24.303551+05:30"},{"city":"Jammu","state":"Jammu and Kashmir","latitude":32.7266,"longitude":74.857,"temp":33.0,"humidity":30,"rain":0.0,"pressure":968.8,"uv_index":8.5,"wind_gusts":45.7,"aqi":153,"pm10":126.7,"pm2_5":46.4,"no2":4.2,"co":315.0,"o3":168.0,"so2":5.1,"mosquito_risk":0,"arthritis_risk":5,"migraine_risk":7,"frizz_risk":0,"updated_at":"2026-05-29T17:46:24.303558+05:30"},{"city":"Amritsar","state":"Punjab","latitude":31.634,"longitude":74.8723,"temp":34.5,"humidity":29,"rain":0.0,"pressure":976.7,"uv_index":8.4,"wind_gusts":46.1,"aqi":167,"pm10":461.0,"pm2_5":105.0,"no2":3.4,"co":301.0,"o3":175.0,"so2":9.9,"mosquito_risk":0,"arthritis_risk":5,"migraine_risk":7,"frizz_risk":0,"updated_at":"2026-05-29T17:46:24.303565+05:30"},{"city":"Ludhiana","state":"Punjab","latitude":30.901,"longitude":75.8573,"temp":34.4,"humidity":33,"rain":0.0,"pressure":974.9,"uv_index":7.95,"wind_gusts":52.6,"aqi":527,"pm10":979.8,"pm2_5":153.7,"no2":3.0,"co":299.0,"o3":176.0,"so2":10.6,"mosquito_risk":0,"arthritis_risk":5,"migraine_risk":7,"frizz_risk":0,"updated_at":"2026-05-29T17:46:24.303572+05:30"},{"city":"Jalandhar","state":"Punjab","latitude":31.326,"longitude":75.5762,"temp":34.2,"humidity":31,"rain":0.0,"pressure":975.6,"uv_index":8.15,"wind_gusts":47.2,"aqi":375,"pm10":855.0,"pm2_5":150.4,"no2":2.9,"co":294.0,"o3":176.0,"so2":9.4,"mosquito_risk":0,"arthritis_risk":5,"migraine_risk":7,"frizz_risk":0,"updated_at":"2026-05-29T17:46:24.303580+05:30"},{"city":"Dehradun","state":"Uttarakhand","latitude":30.6284,"longitude":78.0322,"temp":20.0,"humidity":59,"rain":0.0,"pressure":830.6,"uv_index":8.1,"wind_gusts":36.0,"aqi":148,"pm10":60.8,"pm2_5":36.8,"no2":6.9,"co":215.0,"o3":156.0,"so2":3.2,"mosquito_risk":0,"arthritis_risk":5,"migraine_risk":7,"frizz_risk":0,"updated_at":"2026-05-29T17:46:24.303587+05:30"},{"city":"Shimla","state":"Himachal Pradesh","latitude":31.1048,"longitude":77.1734,"temp":18.0,"humidity":50,"rain":0.0,"pressure":784.9,"uv_index":7.65,"wind_gusts":30.6,"aqi":168,"pm10":69.4,"pm2_5":33.9,"no2":3.1,"co":372.0,"o3":181.0,"so2":8.0,"mosquito_risk":0,"arthritis_risk":5,"migraine_risk":7,"frizz_risk":0,"updated_at":"2026-05-29T17:46:24.303596+05:30"},{"city":"Manali","state":"Himachal Pradesh","latitude":32.2396,"longitude":77.1887,"temp":16.4,"humidity":92,"rain":0.0,"pressure":817.8,"uv_index":9.35,"wind_gusts":41.4,"aqi":130,"pm10":21.1,"pm2_5":9.5,"no2":5.5,"co":167.0,"o3":157.0,"so2":0.7,"mosquito_risk":3,"arthritis_risk":10,"migraine_risk":7,"frizz_risk":0,"updated_at":"2026-05-29T17:46:24.303602+05:30"},{"city":"Gurgaon","state":"Haryana","latitude":28.4595,"longitude":77.0266,"temp":30.8,"humidity":59,"rain":0.0,"pressure":977.0,"uv_index":7.8,"wind_gusts":40.3,"aqi":1146,"pm10":1192.1,"pm2_5":168.6,"no2":13.4,"co":447.0,"o3":151.0,"so2":15.1,"mosquito_risk":0,"arthritis_risk":5,"migraine_risk":7,"frizz_risk":1,"updated_at":"2026-05-29T17:46:24.303609+05:30"},{"city":"Noida","state":"Uttar Pradesh","latitude":28.5355,"longitude":77.391,"temp":32.5,"humidity":53,"rain":0.0,"pressure":979.7,"uv_index":7.7,"wind_gusts":36.4,"aqi":1146,"pm10":1192.1,"pm2_5":168.6,"no2":13.4,"co":466.0,"o3":151.0,"so2":15.1,"mosquito_risk":0,"arthritis_risk":5,"migraine_risk":7,"frizz_risk":1,"updated_at":"2026-05-29T17:46:24.303616+05:30"},{"city":"Ghaziabad","state":"Uttar Pradesh","latitude":28.6692,"longitude":77.4538,"temp":32.5,"humidity":52,"rain":0.0,"pressure":978.4,"uv_index":7.7,"wind_gusts":40.7,"aqi":307,"pm10":275.7,"pm2_5":62.4,"no2":6.3,"co":277.0,"o3":158.0,"so2":11.9,"mosquito_risk":0,"arthritis_risk":5,"migraine_risk":7,"frizz_risk":1,"updated_at":"2026-05-29T17:46:24.303622+05:30"},{"city":"Faridabad","state":"Haryana","latitude":28.4089,"longitude":77.3178,"temp":33.0,"humidity":48,"rain":0.0,"pressure":979.0,"uv_index":7.75,"wind_gusts":37.4,"aqi":1146,"pm10":1192.1,"pm2_5":168.6,"no2":13.4,"co":467.0,"o3":151.0,"so2":15.1,"mosquito_risk":0,"arthritis_risk":5,"migraine_risk":7,"frizz_risk":1,"updated_at":"2026-05-29T17:46:24.303628+05:30"},{"city":"Meerut","state":"Uttar Pradesh","latitude":28.9845,"longitude":77.7064,"temp":30.2,"humidity":58,"rain":0.0,"pressure":978.0,"uv_index":7.6,"wind_gusts":56.2,"aqi":307,"pm10":275.7,"pm2_5":62.4,"no2":6.3,"co":323.0,"o3":158.0,"so2":11.9,"mosquito_risk":0,"arthritis_risk":5,"migraine_risk":7,"frizz_risk":1,"updated_at":"2026-05-29T17:46:24.303636+05:30"},{"city":"Agra","state":"Uttar Pradesh","latitude":27.1767,"longitude":78.0081,"temp":35.5,"humidity":39,"rain":0.0,"pressure":982.8,"uv_index":8.05,"wind_gusts":63.0,"aqi":815,"pm10":1154.8,"pm2_5":143.4,"no2":5.3,"co":242.0,"o3":142.0,"so2":6.6,"mosquito_risk":0,"arthritis_risk":5,"migraine_risk":10,"frizz_risk":1,"updated_at":"2026-05-29T17:46:24.303642+05:30"},{"city":"Varanasi","state":"Uttar Pradesh","latitude":25.3176,"longitude":82.9739,"temp":32.3,"humidity":55,"rain":0.0,"pressure":993.7,"uv_index":8.7,"wind_gusts":45.7,"aqi":178,"pm10":61.0,"pm2_5":40.5,"no2":4.4,"co":458.0,"o3":189.0,"so2":13.7,"mosquito_risk":0,"arthritis_risk":5,"migraine_risk":7,"frizz_risk":1,"updated_at":"2026-05-29T17:46:24.303649+05:30"},{"city":"Prayagraj","state":"Uttar Pradesh","latitude":25.4358,"longitude":81.8463,"temp":34.5,"humidity":43,"rain":0.0,"pressure":991.9,"uv_index":8.6,"wind_gusts":38.5,"aqi":175,"pm10":67.1,"pm2_5":39.5,"no2":3.9,"co":441.0,"o3":176.0,"so2":10.3,"mosquito_risk":0,"arthritis_risk":5,"migraine_risk":7,"frizz_risk":1,"updated_at":"2026-05-29T17:46:24.303655+05:30"},{"city":"Gorakhpur","state":"Uttar Pradesh","latitude":26.7606,"longitude":83.3732,"temp":29.1,"humidity":67,"rain":0.0,"pressure":995.0,"uv_index":8.35,"wind_gusts":47.5,"aqi":151,"pm10":41.6,"pm2_5":29.5,"no2":5.2,"co":283.0,"o3":160.0,"so2":8.6,"mosquito_risk":7,"arthritis_risk":5,"migraine_risk":7,"frizz_risk":1,"updated_at":"2026-05-29T17:46:24.303664+05:30"},{"city":"Bareilly","state":"Uttar Pradesh","latitude":28.367,"longitude":79.4304,"temp":32.2,"humidity":48,"rain":0.0,"pressure":984.3,"uv_index":7.95,"wind_gusts":48.6,"aqi":145,"pm10":103.4,"pm2_5":34.9,"no2":3.6,"co":291.0,"o3":166.0,"so2":9.2,"mosquito_risk":0,"arthritis_risk":5,"migraine_risk":7,"frizz_risk":1,"updated_at":"2026-05-29T17:46:24.303670+05:30"},{"city":"Aligarh","state":"Uttar Pradesh","latitude":27.8974,"longitude":78.088,"temp":29.0,"humidity":67,"rain":0.0,"pressure":981.5,"uv_index":7.85,"wind_gusts":44.3,"aqi":575,"pm10":458.2,"pm2_5":85.7,"no2":6.3,"co":319.0,"o3":156.0,"so2":13.1,"mosquito_risk":7,"arthritis_risk":5,"migraine_risk":7,"frizz_risk":1,"updated_at":"2026-05-29T17:46:24.303677+05:30"},{"city":"Moradabad","state":"Uttar Pradesh","latitude":28.8386,"longitude":78.7733,"temp":32.5,"humidity":46,"rain":0.0,"pressure":981.0,"uv_index":7.8,"wind_gusts":51.1,"aqi":156,"pm10":72.6,"pm2_5":31.3,"no2":5.4,"co":299.0,"o3":167.0,"so2":12.1,"mosquito_risk":0,"arthritis_risk":5,"migraine_risk":7,"frizz_risk":1,"updated_at":"2026-05-29T17:46:24.303683+05:30"},{"city":"Saharanpur","state":"Uttar Pradesh","latitude":29.9637,"longitude":77.546,"temp":31.0,"humidity":50,"rain":0.0,"pressure":972.9,"uv_index":7.45,"wind_gusts":49.0,"aqi":154,"pm10":65.4,"pm2_5":30.7,"no2":4.4,"co":277.0,"o3":161.0,"so2":7.8,"mosquito_risk":0,"arthritis_risk":5,"migraine_risk":7,"frizz_risk":1,"updated_at":"2026-05-29T17:46:24.303689+05:30"},{"city":"Jhansi","state":"Uttar Pradesh","latitude":25.4484,"longitude":78.5685,"temp":37.2,"humidity":33,"rain":0.0,"pressure":973.2,"uv_index":8.45,"wind_gusts":77.8,"aqi":88,"pm10":107.3,"pm2_5":34.6,"no2":3.1,"co":151.0,"o3":112.0,"so2":7.2,"mosquito_risk":0,"arthritis_risk":5,"migraine_risk":10,"frizz_risk":1,"updated_at":"2026-05-29T17:46:27.549558+05:30"},{"city":"Surat","state":"Gujarat","latitude":21.1702,"longitude":72.8311,"temp":31.7,"humidity":65,"rain":0.0,"pressure":1002.7,"uv_index":7.65,"wind_gusts":58.0,"aqi":82,"pm10":53.7,"pm2_5":27.2,"no2":11.4,"co":179.0,"o3":46.0,"so2":27.8,"mosquito_risk":3,"arthritis_risk":5,"migraine_risk":4,"frizz_risk":1,"updated_at":"2026-05-29T17:46:27.549590+05:30"},{"city":"Vadodara","state":"Gujarat","latitude":22.3072,"longitude":73.1812,"temp":35.5,"humidity":48,"rain":0.0,"pressure":998.4,"uv_index":8.05,"wind_gusts":54.0,"aqi":78,"pm10":49.7,"pm2_5":27.4,"no2":3.8,"co":160.0,"o3":98.0,"so2":7.9,"mosquito_risk":0,"arthritis_risk":5,"migraine_risk":10,"frizz_risk":1,"updated_at":"2026-05-29T17:46:27.549601+05:30"},{"city":"Rajkot","state":"Gujarat","latitude":22.3039,"longitude":70.8022,"temp":36.4,"humidity":40,"rain":0.0,"pressure":988.9,"uv_index":7.7,"wind_gusts":55.8,"aqi":71,"pm10":46.1,"pm2_5":21.4,"no2":1.7,"co":115.0,"o3":81.0,"so2":3.7,"mosquito_risk":0,"arthritis_risk":5,"migraine_risk":10,"frizz_risk":1,"updated_at":"2026-05-29T17:46:27.549609+05:30"},{"city":"Thane","state":"Maharashtra","latitude":19.2183,"longitude":72.9781,"temp":33.0,"humidity":57,"rain":0.0,"pressure":1005.6,"uv_index":7.8,"wind_gusts":40.3,"aqi":62,"pm10":40.3,"pm2_5":20.5,"no2":7.3,"co":174.0,"o3":67.0,"so2":5.8,"mosquito_risk":0,"arthritis_risk":5,"migraine_risk":4,"frizz_risk":1,"updated_at":"2026-05-29T17:46:27.549618+05:30"},{"city":"Nagpur","state":"Maharashtra","latitude":21.1458,"longitude":79.0882,"temp":41.0,"humidity":20,"rain":0.0,"pressure":967.7,"uv_index":8.85,"wind_gusts":53.6,"aqi":102,"pm10":32.8,"pm2_5":18.0,"no2":5.7,"co":160.0,"o3":109.0,"so2":11.8,"mosquito_risk":0,"arthritis_risk":5,"migraine_risk":10,"frizz_risk":0,"updated_at":"2026-05-29T17:46:27.549626+05:30"},{"city":"Nashik","state":"Maharashtra","latitude":19.9975,"longitude":73.7898,"temp":32.1,"humidity":41,"rain":0.0,"pressure":943.5,"uv_index":8.1,"wind_gusts":51.8,"aqi":56,"pm10":40.2,"pm2_5":17.1,"no2":1.7,"co":130.0,"o3":76.0,"so2":1.0,"mosquito_risk":0,"arthritis_risk":5,"migraine_risk":7,"frizz_risk":1,"updated_at":"2026-05-29T17:46:27.549634+05:30"},{"city":"Aurangabad","state":"Maharashtra","latitude":19.8762,"longitude":75.3433,"temp":37.2,"humidity":26,"rain":0.0,"pressure":941.1,"uv_index":8.95,"wind_gusts":45.7,"aqi":54,"pm10":27.7,"pm2_5":13.6,"no2":1.6,"co":141.0,"o3":105.0,"so2":2.3,"mosquito_risk":0,"arthritis_risk":5,"migraine_risk":10,"frizz_risk":0,"updated_at":"2026-05-29T17:46:27.549641+05:30"},{"city":"Solapur","state":"Maharashtra","latitude":17.6599,"longitude":75.9064,"temp":37.6,"humidity":26,"rain":0.0,"pressure":954.2,"uv_index":8.95,"wind_gusts":37.1,"aqi":49,"pm10":15.5,"pm2_5":8.8,"no2":1.9,"co":144.0,"o3":119.0,"so2":1.7,"mosquito_risk":0,"arthritis_risk":5,"migraine_risk":10,"frizz_risk":0,"updated_at":"2026-05-29T17:46:27.549649+05:30"},{"city":"Kolhapur","state":"Maharashtra","latitude":16.705,"longitude":74.2433,"temp":30.9,"humidity":53,"rain":0.0,"pressure":946.8,"uv_index":8.8,"wind_gusts":47.2,"aqi":42,"pm10":15.4,"pm2_5":9.8,"no2":2.6,"co":136.0,"o3":89.0,"so2":1.6,"mosquito_risk":0,"arthritis_risk":5,"migraine_risk":7,"frizz_risk":1,"updated_at":"2026-05-29T17:46:27.549657+05:30"},{"city":"Goa","state":"Goa","latitude":15.2993,"longitude":74.124,"temp":31.1,"humidity":69,"rain":0.0,"pressure":996.8,"uv_index":5.5,"wind_gusts":30.6,"aqi":52,"pm10":15.5,"pm2_5":10.4,"no2":1.2,"co":136.0,"o3":58.0,"so2":0.9,"mosquito_risk":3,"arthritis_risk":5,"migraine_risk":3,"frizz_risk":1,"updated_at":"2026-05-29T17:46:27.549665+05:30"},{"city":"Jodhpur","state":"Rajasthan","latitude":26.2389,"longitude":73.0243,"temp":40.2,"humidity":26,"rain":0.0,"pressure":975.3,"uv_index":8.4,"wind_gusts":49.7,"aqi":281,"pm10":414.4,"pm2_5":73.1,"no2":1.3,"co":138.0,"o3":104.0,"so2":3.5,"mosquito_risk":0,"arthritis_risk":5,"migraine_risk":10,"frizz_risk":1,"updated_at":"2026-05-29T17:46:27.549672+05:30"},{"city":"Udaipur","state":"Rajasthan","latitude":24.5854,"longitude":73.7125,"temp":35.3,"humidity":40,"rain":0.0,"pressure":941.4,"uv_index":8.8,"wind_gusts":52.2,"aqi":68,"pm10":57.6,"pm2_5":22.8,"no2":0.9,"co":120.0,"o3":96.0,"so2":2.5,"mosquito_risk":0,"arthritis_risk":5,"migraine_risk":10,"frizz_risk":1,"updated_at":"2026-05-29T17:46:27.549680+05:30"},{"city":"Kota","state":"Rajasthan","latitude":25.2138,"longitude":75.8648,"temp":40.1,"humidity":21,"rain":0.0,"pressure":972.4,"uv_index":8.4,"wind_gusts":45.0,"aqi":73,"pm10":51.7,"pm2_5":25.9,"no2":2.5,"co":143.0,"o3":108.0,"so2":5.5,"mosquito_risk":0,"arthritis_risk":5,"migraine_risk":10,"frizz_risk":0,"updated_at":"2026-05-29T17:46:27.549687+05:30"},{"city":"Bikaner","state":"Rajasthan","latitude":28.0229,"longitude":73.3119,"temp":42.3,"humidity":14,"rain":0.0,"pressure":972.9,"uv_index":8.4,"wind_gusts":72.4,"aqi":162,"pm10":112.2,"pm2_5":42.6,"no2":0.5,"co":155.0,"o3":122.0,"so2":2.5,"mosquito_risk":0,"arthritis_risk":5,"migraine_risk":10,"frizz_risk":0,"updated_at":"2026-05-29T17:46:27.549695+05:30"},{"city":"Ajmer","state":"Rajasthan","latitude":26.4499,"longitude":74.6399,"temp":36.8,"humidity":25,"rain":0.0,"pressure":949.2,"uv_index":8.35,"wind_gusts":70.9,"aqi":82,"pm10":146.2,"pm2_5":35.2,"no2":1.3,"co":135.0,"o3":107.0,"so2":2.6,"mosquito_risk":0,"arthritis_risk":5,"migraine_risk":10,"frizz_risk":0,"updated_at":"2026-05-29T17:46:27.549702+05:30"},{"city":"Gwalior","state":"Madhya Pradesh","latitude":26.2183,"longitude":78.1828,"temp":35.6,"humidity":38,"rain":0.0,"pressure":977.8,"uv_index":8.25,"wind_gusts":59.0,"aqi":153,"pm10":116.9,"pm2_5":35.5,"no2":2.0,"co":188.0,"o3":119.0,"so2":5.0,"mosquito_risk":0,"arthritis_risk":5,"migraine_risk":10,"frizz_risk":1,"updated_at":"2026-05-29T17:46:27.549709+05:30"},{"city":"Indore","state":"Madhya Pradesh","latitude":22.7196,"longitude":75.8577,"temp":37.0,"humidity":29,"rain":0.0,"pressure":943.7,"uv_index":8.6,"wind_gusts":52.2,"aqi":72,"pm10":55.9,"pm2_5":27.1,"no2":1.9,"co":178.0,"o3":109.0,"so2":4.5,"mosquito_risk":0,"arthritis_risk":5,"migraine_risk":10,"frizz_risk":0,"updated_at":"2026-05-29T17:46:27.549716+05:30"},{"city":"Bhopal","state":"Madhya Pradesh","latitude":23.2599,"longitude":77.4126,"temp":39.1,"humidity":22,"rain":0.0,"pressure":948.8,"uv_index":8.65,"wind_gusts":47.5,"aqi":67,"pm10":54.7,"pm2_5":25.3,"no2":1.3,"co":156.0,"o3":105.0,"so2":3.6,"mosquito_risk":0,"arthritis_risk":5,"migraine_risk":10,"frizz_risk":0,"updated_at":"2026-05-29T17:46:27.549724+05:30"},{"city":"Jabalpur","state":"Madhya Pradesh","latitude":23.1815,"longitude":79.9864,"temp":39.5,"humidity":20,"rain":0.0,"pressure":956.4,"uv_index":8.8,"wind_gusts":33.8,"aqi":118,"pm10":43.2,"pm2_5":20.1,"no2":2.3,"co":144.0,"o3":119.0,"so2":4.5,"mosquito_risk":0,"arthritis_risk":5,"migraine_risk":10,"frizz_risk":0,"updated_at":"2026-05-29T17:46:27.549732+05:30"},{"city":"Ujjain","state":"Madhya Pradesh","latitude":23.1765,"longitude":75.7885,"temp":37.5,"humidity":29,"rain":0.0,"pressure":948.9,"uv_index":8.55,"wind_gusts":51.8,"aqi":71,"pm10":52.5,"pm2_5":25.3,"no2":1.1,"co":142.0,"o3":106.0,"so2":3.7,"mosquito_risk":0,"arthritis_risk":5,"migraine_risk":10,"frizz_risk":1,"updated_at":"2026-05-29T17:46:27.549739+05:30"},{"city":"Visakhapatnam","state":"Andhra Pradesh","latitude":17.6868,"longitude":83.2185,"temp":34.0,"humidity":58,"rain":0.0,"pressure":998.2,"uv_index":9.0,"wind_gusts":49.0,"aqi":182,"pm10":49.1,"pm2_5":42.5,"no2":25.5,"co":681.0,"o3":171.0,"so2":52.5,"mosquito_risk":0,"arthritis_risk":5,"migraine_risk":7,"frizz_risk":1,"updated_at":"2026-05-29T17:46:27.549747+05:30"},{"city":"Vijayawada","state":"Andhra Pradesh","latitude":16.5062,"longitude":80.648,"temp":38.5,"humidity":37,"rain":0.0,"pressure":996.7,"uv_index":9.0,"wind_gusts":51.5,"aqi":119,"pm10":30.7,"pm2_5":27.0,"no2":10.0,"co":219.0,"o3":127.0,"so2":7.5,"mosquito_risk":0,"arthritis_risk":5,"migraine_risk":10,"frizz_risk":1,"updated_at":"2026-05-29T17:46:27.549755+05:30"},{"city":"Guntur","state":"Andhra Pradesh","latitude":16.3067,"longitude":80.4365,"temp":37.5,"humidity":39,"rain":0.0,"pressure":998.2,"uv_index":9.0,"wind_gusts":50.8,"aqi":113,"pm10":27.3,"pm2_5":21.6,"no2":5.8,"co":202.0,"o3":134.0,"so2":6.8,"mosquito_risk":0,"arthritis_risk":5,"migraine_risk":10,"frizz_risk":1,"updated_at":"2026-05-29T17:46:27.549762+05:30"},{"city":"Nellore","state":"Andhra Pradesh","latitude":14.4426,"longitude":79.9865,"temp":30.2,"humidity":69,"rain":0.0,"pressure":1002.3,"uv_index":8.95,"wind_gusts":50.0,"aqi":98,"pm10":30.4,"pm2_5":22.2,"no2":6.8,"co":224.0,"o3":143.0,"so2":5.5,"mosquito_risk":3,"arthritis_risk":5,"migraine_risk":4,"frizz_risk":1,"updated_at":"2026-05-29T17:46:27.549771+05:30"},{"city":"Kurnool","state":"Andhra Pradesh","latitude":15.8281,"longitude":78.0373,"temp":34.0,"humidity":50,"rain":0.0,"pressure":974.0,"uv_index":8.65,"wind_gusts":43.6,"aqi":63,"pm10":18.6,"pm2_5":12.5,"no2":2.6,"co":162.0,"o3":136.0,"so2":7.9,"mosquito_risk":0,"arthritis_risk":5,"migraine_risk":7,"frizz_risk":1,"updated_at":"2026-05-29T17:46:27.549779+05:30"},{"city":"Kakinada","state":"Andhra Pradesh","latitude":16.9891,"longitude":82.2475,"temp":38.7,"humidity":40,"rain":0.0,"pressure":1000.7,"uv_index":9.0,"wind_gusts":59.8,"aqi":156,"pm10":28.9,"pm2_5":21.0,"no2":4.3,"co":349.0,"o3":146.0,"so2":3.8,"mosquito_risk":0,"arthritis_risk":5,"migraine_risk":7,"frizz_risk":1,"updated_at":"2026-05-29T17:46:27.549786+05:30"},{"city":"Tirupati","state":"Andhra Pradesh","latitude":13.6288,"longitude":79.4192,"temp":31.2,"humidity":65,"rain":0.1,"pressure":988.4,"uv_index":8.8,"wind_gusts":35.6,"aqi":84,"pm10":25.0,"pm2_5":17.0,"no2":8.9,"co":256.0,"o3":118.0,"so2":4.2,"mosquito_risk":6,"arthritis_risk":5,"migraine_risk":7,"frizz_risk":1,"updated_at":"2026-05-29T17:46:27.549794+05:30"},{"city":"Warangal","state":"Telangana","latitude":17.9689,"longitude":79.5941,"temp":36.5,"humidity":40,"rain":0.0,"pressure":974.1,"uv_index":9.0,"wind_gusts":42.1,"aqi":106,"pm10":31.5,"pm2_5":21.1,"no2":5.0,"co":227.0,"o3":121.0,"so2":4.8,"mosquito_risk":0,"arthritis_risk":5,"migraine_risk":10,"frizz_risk":1,"updated_at":"2026-05-29T17:46:27.549801+05:30"},{"city":"Nizamabad","state":"Telangana","latitude":18.6725,"longitude":78.0941,"temp":37.3,"humidity":31,"rain":0.0,"pressure":960.6,"uv_index":8.95,"wind_gusts":38.9,"aqi":101,"pm10":23.6,"pm2_5":14.2,"no2":1.8,"co":164.0,"o3":138.0,"so2":4.6,"mosquito_risk":0,"arthritis_risk":5,"migraine_risk":10,"frizz_risk":1,"updated_at":"2026-05-29T17:46:27.549808+05:30"},{"city":"Mysore","state":"Karnataka","latitude":12.2958,"longitude":76.6396,"temp":26.6,"humidity":72,"rain":0.0,"pressure":928.0,"uv_index":8.3,"wind_gusts":47.5,"aqi":48,"pm10":9.4,"pm2_5":7.2,"no2":5.4,"co":198.0,"o3":101.0,"so2":1.6,"mosquito_risk":7,"arthritis_risk":5,"migraine_risk":7,"frizz_risk":1,"updated_at":"2026-05-29T17:46:27.549816+05:30"},{"city":"Mangalore","state":"Karnataka","latitude":12.9141,"longitude":74.856,"temp":27.1,"humidity":88,"rain":0.1,"pressure":1006.7,"uv_index":7.9,"wind_gusts":33.1,"aqi":45,"pm10":8.0,"pm2_5":5.1,"no2":2.5,"co":130.0,"o3":65.0,"so2":1.1,"mosquito_risk":10,"arthritis_risk":5,"migraine_risk":4,"frizz_risk":1,"updated_at":"2026-05-29T17:46:27.549824+05:30"},{"city":"Hubli-Dharwad","state":"Karnataka","latitude":15.3647,"longitude":75.124,"temp":30.5,"humidity":59,"rain":0.0,"pressure":939.7,"uv_index":8.5,"wind_gusts":43.6,"aqi":42,"pm10":13.3,"pm2_5":9.5,"no2":3.1,"co":145.0,"o3":83.0,"so2":1.1,"mosquito_risk":0,"arthritis_risk":5,"migraine_risk":7,"frizz_risk":1,"updated_at":"2026-05-29T17:46:27.549832+05:30"},{"city":"Belgaum","state":"Karnataka","latitude":15.8497,"longitude":74.4977,"temp":27.4,"humidity":74,"rain":0.0,"pressure":925.2,"uv_index":8.95,"wind_gusts":46.4,"aqi":37,"pm10":12.2,"pm2_5":8.9,"no2":2.7,"co":128.0,"o3":67.0,"so2":1.3,"mosquito_risk":7,"arthritis_risk":5,"migraine_risk":7,"frizz_risk":1,"updated_at":"2026-05-29T17:46:30.816428+05:30"},{"city":"Coimbatore","state":"Tamil Nadu","latitude":11.0168,"longitude":76.9558,"temp":29.0,"humidity":65,"rain":0.0,"pressure":960.9,"uv_index":8.05,"wind_gusts":58.0,"aqi":40,"pm10":3.7,"pm2_5":3.1,"no2":4.2,"co":159.0,"o3":73.0,"so2":1.6,"mosquito_risk":7,"arthritis_risk":5,"migraine_risk":7,"frizz_risk":1,"updated_at":"2026-05-29T17:46:30.816459+05:30"},{"city":"Madurai","state":"Tamil Nadu","latitude":9.9252,"longitude":78.1198,"temp":31.6,"humidity":61,"rain":0.0,"pressure":990.8,"uv_index":8.75,"wind_gusts":29.9,"aqi":65,"pm10":15.1,"pm2_5":10.2,"no2":5.4,"co":214.0,"o3":111.0,"so2":2.3,"mosquito_risk":3,"arthritis_risk":5,"migraine_risk":7,"frizz_risk":1,"updated_at":"2026-05-29T17:46:30.816470+05:30"},{"city":"Trichy","state":"Tamil Nadu","latitude":10.7905,"longitude":78.7047,"temp":34.8,"humidity":48,"rain":0.1,"pressure":996.5,"uv_index":8.05,"wind_gusts":37.1,"aqi":54,"pm10":16.9,"pm2_5":12.2,"no2":9.1,"co":199.0,"o3":113.0,"so2":3.2,"mosquito_risk":3,"arthritis_risk":5,"migraine_risk":7,"frizz_risk":1,"updated_at":"2026-05-29T17:46:30.816479+05:30"},{"city":"Salem","state":"Tamil Nadu","latitude":11.6643,"longitude":78.146,"temp":36.6,"humidity":31,"rain":0.0,"pressure":974.5,"uv_index":7.6,"wind_gusts":42.8,"aqi":101,"pm10":18.7,"pm2_5":12.2,"no2":5.1,"co":185.0,"o3":139.0,"so2":6.8,"mosquito_risk":0,"arthritis_risk":5,"migraine_risk":10,"frizz_risk":1,"updated_at":"2026-05-29T17:46:30.816488+05:30"},{"city":"Tirunelveli","state":"Tamil Nadu","latitude":8.7139,"longitude":77.7567,"temp":33.0,"humidity":50,"rain":0.0,"pressure":1001.4,"uv_index":8.65,"wind_gusts":41.4,"aqi":29,"pm10":5.3,"pm2_5":3.9,"no2":3.1,"co":123.0,"o3":56.0,"so2":1.0,"mosquito_risk":0,"arthritis_risk":5,"migraine_risk":4,"frizz_risk":1,"updated_at":"2026-05-29T17:46:30.816497+05:30"},{"city":"Vellore","state":"Tamil Nadu","latitude":12.9165,"longitude":79.1325,"temp":33.4,"humidity":49,"rain":0.0,"pressure":981.5,"uv_index":8.6,"wind_gusts":36.4,"aqi":92,"pm10":31.1,"pm2_5":21.7,"no2":13.0,"co":249.0,"o3":99.0,"so2":3.6,"mosquito_risk":0,"arthritis_risk":5,"migraine_risk":7,"frizz_risk":1,"updated_at":"2026-05-29T17:46:30.816505+05:30"},{"city":"Erode","state":"Tamil Nadu","latitude":11.341,"longitude":77.7172,"temp":33.2,"humidity":51,"rain":0.0,"pressure":986.4,"uv_index":8.05,"wind_gusts":54.7,"aqi":54,"pm10":8.8,"pm2_5":6.9,"no2":5.4,"co":201.0,"o3":101.0,"so2":2.2,"mosquito_risk":0,"arthritis_risk":5,"migraine_risk":7,"frizz_risk":1,"updated_at":"2026-05-29T17:46:30.816512+05:30"},{"city":"Kochi","state":"Kerala","latitude":9.9312,"longitude":76.2673,"temp":28.1,"humidity":80,"rain":0.0,"pressure":1009.1,"uv_index":8.05,"wind_gusts":33.8,"aqi":43,"pm10":6.5,"pm2_5":4.8,"no2":5.5,"co":141.0,"o3":54.0,"so2":2.5,"mosquito_risk":7,"arthritis_risk":0,"migraine_risk":4,"frizz_risk":1,"updated_at":"2026-05-29T17:46:30.816520+05:30"},{"city":"Thiruvananthapuram","state":"Kerala","latitude":8.5241,"longitude":76.9366,"temp":26.4,"humidity":88,"rain":0.1,"pressure":1008.9,"uv_index":7.8,"wind_gusts":38.2,"aqi":23,"pm10":10.2,"pm2_5":5.2,"no2":2.0,"co":134.0,"o3":47.0,"so2":0.6,"mosquito_risk":10,"arthritis_risk":0,"migraine_risk":4,"frizz_risk":1,"updated_at":"2026-05-29T17:46:30.816528+05:30"},{"city":"Kozhikode","state":"Kerala","latitude":11.2588,"longitude":75.7804,"temp":26.7,"humidity":95,"rain":0.1,"pressure":1008.3,"uv_index":7.6,"wind_gusts":38.2,"aqi":32,"pm10":5.5,"pm2_5":3.3,"no2":0.8,"co":154.0,"o3":67.0,"so2":0.5,"mosquito_risk":10,"arthritis_risk":0,"migraine_risk":4,"frizz_risk":1,"updated_at":"2026-05-29T17:46:30.816536+05:30"},{"city":"Thrissur","state":"Kerala","latitude":10.5276,"longitude":76.2144,"temp":26.8,"humidity":94,"rain":0.1,"pressure":1007.5,"uv_index":7.8,"wind_gusts":36.0,"aqi":44,"pm10":7.5,"pm2_5":5.8,"no2":4.8,"co":166.0,"o3":59.0,"so2":2.1,"mosquito_risk":10,"arthritis_risk":5,"migraine_risk":4,"frizz_risk":1,"updated_at":"2026-05-29T17:46:30.816544+05:30"},{"city":"Kannur","state":"Kerala","latitude":11.8745,"longitude":75.3704,"temp":27.5,"humidity":88,"rain":0.2,"pressure":1007.4,"uv_index":7.9,"wind_gusts":35.6,"aqi":34,"pm10":6.8,"pm2_5":4.4,"no2":2.9,"co":120.0,"o3":66.0,"so2":0.8,"mosquito_risk":10,"arthritis_risk":5,"migraine_risk":4,"frizz_risk":1,"updated_at":"2026-05-29T17:46:30.816552+05:30"},{"city":"Patna","state":"Bihar","latitude":25.5941,"longitude":85.1376,"temp":29.0,"humidity":74,"rain":0.0,"pressure":997.4,"uv_index":8.75,"wind_gusts":54.0,"aqi":108,"pm10":33.9,"pm2_5":27.1,"no2":7.1,"co":320.0,"o3":168.0,"so2":12.8,"mosquito_risk":7,"arthritis_risk":5,"migraine_risk":7,"frizz_risk":1,"updated_at":"2026-05-29T17:46:30.816559+05:30"},{"city":"Gaya","state":"Bihar","latitude":24.7914,"longitude":85.0002,"temp":29.7,"humidity":64,"rain":0.0,"pressure":990.4,"uv_index":8.85,"wind_gusts":40.3,"aqi":122,"pm10":30.3,"pm2_5":25.7,"no2":7.1,"co":315.0,"o3":154.0,"so2":14.0,"mosquito_risk":7,"arthritis_risk":5,"migraine_risk":7,"frizz_risk":1,"updated_at":"2026-05-29T17:46:30.816566+05:30"},{"city":"Muzaffarpur","state":"Bihar","latitude":26.1209,"longitude":85.3647,"temp":29.0,"humidity":77,"rain":0.0,"pressure":997.6,"uv_index":8.75,"wind_gusts":43.2,"aqi":112,"pm10":43.1,"pm2_5":32.7,"no2":7.9,"co":311.0,"o3":155.0,"so2":12.0,"mosquito_risk":7,"arthritis_risk":5,"migraine_risk":7,"frizz_risk":1,"updated_at":"2026-05-29T17:46:30.816573+05:30"},{"city":"Bhagalpur","state":"Bihar","latitude":25.2425,"longitude":87.0117,"temp":29.0,"humidity":75,"rain":0.0,"pressure":997.9,"uv_index":8.7,"wind_gusts":34.9,"aqi":138,"pm10":58.2,"pm2_5":39.7,"no2":11.0,"co":340.0,"o3":147.0,"so2":17.4,"mosquito_risk":7,"arthritis_risk":5,"migraine_risk":7,"frizz_risk":1,"updated_at":"2026-05-29T17:46:30.816579+05:30"},{"city":"Ranchi","state":"Jharkhand","latitude":23.3441,"longitude":85.3096,"temp":27.8,"humidity":63,"rain":0.0,"pressure":934.9,"uv_index":9.2,"wind_gusts":50.4,"aqi":170,"pm10":50.8,"pm2_5":39.9,"no2":9.9,"co":671.0,"o3":160.0,"so2":21.7,"mosquito_risk":7,"arthritis_risk":5,"migraine_risk":7,"frizz_risk":1,"updated_at":"2026-05-29T17:46:30.816586+05:30"},{"city":"Jamshedpur","state":"Jharkhand","latitude":22.8046,"longitude":86.2029,"temp":28.7,"humidity":76,"rain":0.0,"pressure":987.4,"uv_index":9.05,"wind_gusts":55.4,"aqi":134,"pm10":53.9,"pm2_5":36.4,"no2":14.4,"co":437.0,"o3":105.0,"so2":17.4,"mosquito_risk":7,"arthritis_risk":5,"migraine_risk":7,"frizz_risk":1,"updated_at":"2026-05-29T17:46:30.816593+05:30"},{"city":"Dhanbad","state":"Jharkhand","latitude":23.7957,"longitude":86.4304,"temp":28.1,"humidity":81,"rain":0.0,"pressure":976.4,"uv_index":9.0,"wind_gusts":36.7,"aqi":135,"pm10":70.3,"pm2_5":57.0,"no2":46.8,"co":399.0,"o3":98.0,"so2":94.8,"mosquito_risk":7,"arthritis_risk":5,"migraine_risk":7,"frizz_risk":1,"updated_at":"2026-05-29T17:46:30.816600+05:30"},{"city":"Bokaro","state":"Jharkhand","latitude":23.6693,"longitude":86.1511,"temp":29.5,"humidity":74,"rain":0.0,"pressure":979.9,"uv_index":9.0,"wind_gusts":36.0,"aqi":133,"pm10":68.9,"pm2_5":54.4,"no2":46.4,"co":558.0,"o3":100.0,"so2":101.8,"mosquito_risk":7,"arthritis_risk":5,"migraine_risk":7,"frizz_risk":1,"updated_at":"2026-05-29T17:46:30.816607+05:30"},{"city":"Bhubaneswar","state":"Odisha","latitude":20.2961,"longitude":85.8245,"temp":28.6,"humidity":90,"rain":0.0,"pressure":999.0,"uv_index":9.05,"wind_gusts":32.4,"aqi":129,"pm10":45.9,"pm2_5":36.6,"no2":4.3,"co":430.0,"o3":116.0,"so2":6.4,"mosquito_risk":7,"arthritis_risk":5,"migraine_risk":7,"frizz_risk":1,"updated_at":"2026-05-29T17:46:30.816614+05:30"},{"city":"Cuttack","state":"Odisha","latitude":20.4625,"longitude":85.8828,"temp":29.0,"humidity":89,"rain":0.0,"pressure":1000.7,"uv_index":9.1,"wind_gusts":30.6,"aqi":129,"pm10":45.9,"pm2_5":36.6,"no2":4.3,"co":320.0,"o3":116.0,"so2":6.4,"mosquito_risk":7,"arthritis_risk":5,"migraine_risk":4,"frizz_risk":1,"updated_at":"2026-05-29T17:46:30.816621+05:30"},{"city":"Rourkela","state":"Odisha","latitude":22.2604,"longitude":84.8536,"temp":32.5,"humidity":54,"rain":0.0,"pressure":981.4,"uv_index":8.95,"wind_gusts":46.1,"aqi":196,"pm10":55.9,"pm2_5":44.2,"no2":7.2,"co":326.0,"o3":186.0,"so2":19.4,"mosquito_risk":0,"arthritis_risk":5,"migraine_risk":7,"frizz_risk":1,"updated_at":"2026-05-29T17:46:30.816628+05:30"},{"city":"Raipur","state":"Chhattisgarh","latitude":21.2514,"longitude":81.6296,"temp":39.8,"humidity":21,"rain":0.0,"pressure":969.2,"uv_index":8.9,"wind_gusts":36.7,"aqi":146,"pm10":41.8,"pm2_5":27.3,"no2":12.7,"co":229.0,"o3":146.0,"so2":32.2,"mosquito_risk":0,"arthritis_risk":5,"migraine_risk":10,"frizz_risk":0,"updated_at":"2026-05-29T17:46:30.816635+05:30"},{"city":"Bhilai","state":"Chhattisgarh","latitude":21.1938,"longitude":81.3509,"temp":38.9,"humidity":21,"rain":0.0,"pressure":969.3,"uv_index":8.9,"wind_gusts":51.8,"aqi":120,"pm10":34.0,"pm2_5":23.4,"no2":14.1,"co":301.0,"o3":129.0,"so2":28.7,"mosquito_risk":0,"arthritis_risk":5,"migraine_risk":10,"frizz_risk":0,"updated_at":"2026-05-29T17:46:30.816642+05:30"},{"city":"Guwahati","state":"Assam","latitude":26.1158,"longitude":91.7086,"temp":29.4,"humidity":79,"rain":0.0,"pressure":998.4,"uv_index":8.7,"wind_gusts":27.7,"aqi":119,"pm10":55.5,"pm2_5":38.1,"no2":5.9,"co":463.0,"o3":101.0,"so2":2.9,"mosquito_risk":7,"arthritis_risk":5,"migraine_risk":7,"frizz_risk":1,"updated_at":"2026-05-29T17:46:30.816649+05:30"},{"city":"Agartala","state":"Tripura","latitude":23.8315,"longitude":91.2868,"temp":30.6,"humidity":79,"rain":0.0,"pressure":1002.9,"uv_index":8.8,"wind_gusts":18.0,"aqi":184,"pm10":63.1,"pm2_5":41.7,"no2":18.4,"co":356.0,"o3":167.0,"so2":6.0,"mosquito_risk":3,"arthritis_risk":5,"migraine_risk":4,"frizz_risk":1,"updated_at":"2026-05-29T17:46:30.816656+05:30"},{"city":"Shillong","state":"Meghalaya","latitude":25.5788,"longitude":91.8933,"temp":20.7,"humidity":85,"rain":0.0,"pressure":856.7,"uv_index":9.1,"wind_gusts":25.9,"aqi":89,"pm10":40.3,"pm2_5":27.2,"no2":6.2,"co":277.0,"o3":103.0,"so2":2.5,"mosquito_risk":3,"arthritis_risk":5,"migraine_risk":7,"frizz_risk":1,"updated_at":"2026-05-29T17:46:30.816663+05:30"},{"city":"Imphal","state":"Manipur","latitude":24.817,"longitude":93.9368,"temp":27.2,"humidity":58,"rain":0.0,"pressure":921.1,"uv_index":9.25,"wind_gusts":19.8,"aqi":130,"pm10":73.6,"pm2_5":33.8,"no2":11.0,"co":416.0,"o3":98.0,"so2":3.6,"mosquito_risk":4,"arthritis_risk":5,"migraine_risk":7,"frizz_risk":1,"updated_at":"2026-05-29T17:46:30.816670+05:30"},{"city":"Aizawl","state":"Mizoram","latitude":23.7271,"longitude":92.7176,"temp":24.1,"humidity":74,"rain":0.0,"pressure":891.1,"uv_index":9.05,"wind_gusts":27.0,"aqi":82,"pm10":61.0,"pm2_5":31.0,"no2":5.5,"co":221.0,"o3":83.0,"so2":2.7,"mosquito_risk":3,"arthritis_risk":5,"migraine_risk":7,"frizz_risk":1,"updated_at":"2026-05-29T17:46:30.816677+05:30"},{"city":"Kohima","state":"Nagaland","latitude":25.6701,"longitude":94.1077,"temp":21.2,"humidity":89,"rain":0.0,"pressure":855.1,"uv_index":8.7,"wind_gusts":28.4,"aqi":104,"pm10":46.6,"pm2_5":27.7,"no2":5.1,"co":257.0,"o3":93.0,"so2":2.0,"mosquito_risk":3,"arthritis_risk":5,"migraine_risk":7,"frizz_risk":1,"updated_at":"2026-05-29T17:46:30.816684+05:30"},{"city":"Gangtok","state":"Sikkim","latitude":27.3314,"longitude":88.6138,"temp":19.4,"humidity":75,"rain":0.0,"pressure":837.2,"uv_index":9.0,"wind_gusts":34.9,"aqi":92,"pm10":31.8,"pm2_5":18.7,"no2":3.2,"co":287.0,"o3":127.0,"so2":1.7,"mosquito_risk":3,"arthritis_risk":5,"migraine_risk":7,"frizz_risk":0,"updated_at":"2026-05-29T17:46:30.816691+05:30"},{"city":"Siliguri","state":"West Bengal","latitude":26.7271,"longitude":88.3953,"temp":29.7,"humidity":69,"rain":0.0,"pressure":989.5,"uv_index":8.7,"wind_gusts":29.9,"aqi":119,"pm10":54.4,"pm2_5":30.0,"no2":5.6,"co":668.0,"o3":139.0,"so2":3.0,"mosquito_risk":7,"arthritis_risk":5,"migraine_risk":7,"frizz_risk":1,"updated_at":"2026-05-29T17:46:34.087306+05:30"},{"city":"Durgapur","state":"West Bengal","latitude":23.5204,"longitude":87.3119,"temp":26.2,"humidity":90,"rain":0.0,"pressure":991.4,"uv_index":8.95,"wind_gusts":50.0,"aqi":150,"pm10":66.4,"pm2_5":55.4,"no2":31.9,"co":453.0,"o3":129.0,"so2":50.1,"mosquito_risk":7,"arthritis_risk":5,"migraine_risk":7,"frizz_risk":1,"updated_at":"2026-05-29T17:46:34.087365+05:30"},{"city":"Asansol","state":"West Bengal","latitude":23.6739,"longitude":86.9524,"temp":27.4,"humidity":84,"rain":0.0,"pressure":990.2,"uv_index":8.95,"wind_gusts":38.2,"aqi":135,"pm10":65.4,"pm2_5":53.3,"no2":32.8,"co":398.0,"o3":117.0,"so2":53.2,"mosquito_risk":7,"arthritis_risk":5,"migraine_risk":7,"frizz_risk":1,"updated_at":"2026-05-29T17:46:34.087381+05:30"},{"city":"Pondicherry","state":"Puducherry","latitude":11.9139,"longitude":79.8145,"temp":30.5,"humidity":78,"rain":0.0,"pressure":1005.0,"uv_index":8.8,"wind_gusts":42.1,"aqi":136,"pm10":38.0,"pm2_5":29.1,"no2":20.0,"co":258.0,"o3":143.0,"so2":9.9,"mosquito_risk":3,"arthritis_risk":5,"migraine_risk":4,"frizz_risk":1,"updated_at":"2026-05-29T17:46:34.087390+05:30"},{"city":"Port Blair","state":"Andaman and Nicobar Islands","latitude":11.6234,"longitude":92.7265,"temp":27.6,"humidity":85,"rain":0.0,"pressure":1005.3,"uv_index":8.85,"wind_gusts":41.0,"aqi":35,"pm10":10.7,"pm2_5":6.3,"no2":0.5,"co":138.0,"o3":68.0,"so2":0.4,"mosquito_risk":7,"arthritis_risk":5,"migraine_risk":4,"frizz_risk":1,"updated_at":"2026-05-29T17:46:34.087399+05:30"},{"city":"Haridwar","state":"Uttarakhand","latitude":29.9457,"longitude":78.1642,"temp":31.7,"humidity":45,"rain":0.0,"pressure":971.8,"uv_index":7.5,"wind_gusts":46.8,"aqi":158,"pm10":62.2,"pm2_5":27.2,"no2":2.5,"co":255.0,"o3":169.0,"so2":7.7,"mosquito_risk":0,"arthritis_risk":5,"migraine_risk":7,"frizz_risk":1,"updated_at":"2026-05-29T17:46:34.087408+05:30"},{"city":"Rishikesh","state":"Uttarakhand","latitude":30.0869,"longitude":78.2676,"temp":31.1,"humidity":38,"rain":0.0,"pressure":964.7,"uv_index":7.6,"wind_gusts":38.2,"aqi":154,"pm10":59.6,"pm2_5":27.1,"no2":1.8,"co":265.0,"o3":170.0,"so2":6.1,"mosquito_risk":0,"arthritis_risk":5,"migraine_risk":7,"frizz_risk":0,"updated_at":"2026-05-29T17:46:34.087417+05:30"},{"city":"Nainital","state":"Uttarakhand","latitude":29.3919,"longitude":79.4542,"temp":14.6,"humidity":90,"rain":0.0,"pressure":805.2,"uv_index":8.4,"wind_gusts":37.4,"aqi":137,"pm10":49.1,"pm2_5":20.5,"no2":1.6,"co":388.0,"o3":156.0,"so2":5.1,"mosquito_risk":3,"arthritis_risk":10,"migraine_risk":7,"frizz_risk":0,"updated_at":"2026-05-29T17:46:34.087426+05:30"},{"city":"Mussoorie","state":"Uttarakhand","latitude":30.4599,"longitude":78.0664,"temp":17.3,"humidity":75,"rain":0.0,"pressure":802.9,"uv_index":8.05,"wind_gusts":34.6,"aqi":163,"pm10":54.7,"pm2_5":26.5,"no2":3.5,"co":266.0,"o3":173.0,"so2":5.8,"mosquito_risk":3,"arthritis_risk":5,"migraine_risk":7,"frizz_risk":0,"updated_at":"2026-05-29T17:46:34.087434+05:30"},{"city":"Dharamshala","state":"Himachal Pradesh","latitude":32.219,"longitude":76.3234,"temp":21.1,"humidity":65,"rain":0.1,"pressure":867.8,"uv_index":8.45,"wind_gusts":33.8,"aqi":134,"pm10":75.2,"pm2_5":24.0,"no2":1.3,"co":262.0,"o3":159.0,"so2":3.1,"mosquito_risk":6,"arthritis_risk":5,"migraine_risk":7,"frizz_risk":0,"updated_at":"2026-05-29T17:46:34.087442+05:30"},{"city":"Dalhousie","state":"Himachal Pradesh","latitude":32.5387,"longitude":75.971,"temp":19.3,"humidity":50,"rain":0.0,"pressure":804.6,"uv_index":8.65,"wind_gusts":34.2,"aqi":168,"pm10":160.2,"pm2_5":48.0,"no2":3.3,"co":264.0,"o3":174.0,"so2":6.7,"mosquito_risk":0,"arthritis_risk":5,"migraine_risk":7,"frizz_risk":0,"updated_at":"2026-05-29T17:46:34.087451+05:30"},{"city":"Patiala","state":"Punjab","latitude":30.3398,"longitude":76.3869,"temp":33.0,"humidity":43,"rain":0.0,"pressure":974.3,"uv_index":7.6,"wind_gusts":51.5,"aqi":1257,"pm10":1013.3,"pm2_5":137.8,"no2":3.0,"co":263.0,"o3":184.0,"so2":12.4,"mosquito_risk":0,"arthritis_risk":5,"migraine_risk":7,"frizz_risk":1,"updated_at":"2026-05-29T17:46:34.087459+05:30"},{"city":"Bhatinda","state":"Punjab","latitude":30.211,"longitude":74.9455,"temp":30.5,"humidity":49,"rain":0.0,"pressure":978.7,"uv_index":8.25,"wind_gusts":54.0,"aqi":673,"pm10":575.6,"pm2_5":111.5,"no2":6.8,"co":230.0,"o3":149.0,"so2":11.4,"mosquito_risk":0,"arthritis_risk":5,"migraine_risk":7,"frizz_risk":1,"updated_at":"2026-05-29T17:46:34.087467+05:30"},{"city":"Rohtak","state":"Haryana","latitude":28.8955,"longitude":76.6066,"temp":32.0,"humidity":49,"rain":0.0,"pressure":977.5,"uv_index":7.7,"wind_gusts":40.0,"aqi":766,"pm10":594.2,"pm2_5":108.5,"no2":9.6,"co":350.0,"o3":183.0,"so2":16.9,"mosquito_risk":0,"arthritis_risk":5,"migraine_risk":7,"frizz_risk":1,"updated_at":"2026-05-29T17:46:34.087475+05:30"},{"city":"Panipat","state":"Haryana","latitude":29.3909,"longitude":76.9635,"temp":31.1,"humidity":54,"rain":0.0,"pressure":976.8,"uv_index":7.6,"wind_gusts":47.2,"aqi":1608,"pm10":443.3,"pm2_5":88.0,"no2":6.8,"co":292.0,"o3":190.0,"so2":18.0,"mosquito_risk":0,"arthritis_risk":5,"migraine_risk":7,"frizz_risk":1,"updated_at":"2026-05-29T17:46:34.087482+05:30"},{"city":"Mathura","state":"Uttar Pradesh","latitude":27.4924,"longitude":77.6737,"temp":33.0,"humidity":50,"rain":0.1,"pressure":981.8,"uv_index":7.95,"wind_gusts":55.1,"aqi":390,"pm10":724.6,"pm2_5":103.6,"no2":5.7,"co":305.0,"o3":144.0,"so2":6.0,"mosquito_risk":3,"arthritis_risk":5,"migraine_risk":7,"frizz_risk":1,"updated_at":"2026-05-29T17:46:34.087490+05:30"},{"city":"Vrindavan","state":"Uttar Pradesh","latitude":27.5823,"longitude":77.7027,"temp":31.8,"humidity":57,"rain":0.2,"pressure":982.4,"uv_index":7.95,"wind_gusts":54.4,"aqi":390,"pm10":724.6,"pm2_5":103.6,"no2":5.7,"co":308.0,"o3":144.0,"so2":6.0,"mosquito_risk":3,"arthritis_risk":5,"migraine_risk":7,"frizz_risk":1,"updated_at":"2026-05-29T17:46:34.087498+05:30"},{"city":"Ayodhya","state":"Uttar Pradesh","latitude":26.7922,"longitude":82.1998,"temp":30.4,"humidity":59,"rain":0.0,"pressure":993.0,"uv_index":8.3,"wind_gusts":45.0,"aqi":153,"pm10":43.7,"pm2_5":32.7,"no2":4.2,"co":292.0,"o3":168.0,"so2":10.2,"mosquito_risk":0,"arthritis_risk":5,"migraine_risk":7,"frizz_risk":1,"updated_at":"2026-05-29T17:46:34.087506+05:30"},{"city":"Ratlam","state":"Madhya Pradesh","latitude":23.3315,"longitude":75.0367,"temp":36.8,"humidity":31,"rain":0.0,"pressure":949.9,"uv_index":8.5,"wind_gusts":53.3,"aqi":71,"pm10":51.7,"pm2_5":25.3,"no2":0.9,"co":134.0,"o3":108.0,"so2":3.9,"mosquito_risk":0,"arthritis_risk":5,"migraine_risk":10,"frizz_risk":1,"updated_at":"2026-05-29T17:46:34.087514+05:30"},{"city":"Sagar","state":"Madhya Pradesh","latitude":23.8388,"longitude":78.7378,"temp":37.2,"humidity":25,"rain":0.0,"pressure":945.9,"uv_index":8.7,"wind_gusts":35.6,"aqi":80,"pm10":65.4,"pm2_5":26.7,"no2":1.0,"co":138.0,"o3":110.0,"so2":3.2,"mosquito_risk":0,"arthritis_risk":5,"migraine_risk":10,"frizz_risk":0,"updated_at":"2026-05-29T17:46:34.087522+05:30"},{"city":"Satna","state":"Madhya Pradesh","latitude":24.6005,"longitude":80.8322,"temp":36.5,"humidity":31,"rain":0.0,"pressure":967.2,"uv_index":8.75,"wind_gusts":32.0,"aqi":103,"pm10":86.4,"pm2_5":27.0,"no2":1.5,"co":223.0,"o3":127.0,"so2":3.4,"mosquito_risk":0,"arthritis_risk":5,"migraine_risk":10,"frizz_risk":1,"updated_at":"2026-05-29T17:46:34.087530+05:30"},{"city":"Akola","state":"Maharashtra","latitude":20.7002,"longitude":77.0082,"temp":39.7,"humidity":22,"rain":0.0,"pressure":970.1,"uv_index":8.8,"wind_gusts":49.3,"aqi":62,"pm10":39.7,"pm2_5":17.5,"no2":2.4,"co":137.0,"o3":111.0,"so2":5.5,"mosquito_risk":0,"arthritis_risk":5,"migraine_risk":10,"frizz_risk":0,"updated_at":"2026-05-29T17:46:34.087538+05:30"},{"city":"Amravati","state":"Maharashtra","latitude":20.9374,"longitude":77.7796,"temp":39.8,"humidity":19,"rain":0.0,"pressure":962.5,"uv_index":8.8,"wind_gusts":46.4,"aqi":62,"pm10":36.8,"pm2_5":16.2,"no2":2.8,"co":136.0,"o3":108.0,"so2":5.5,"mosquito_risk":0,"arthritis_risk":5,"migraine_risk":10,"frizz_risk":0,"updated_at":"2026-05-29T17:46:34.087547+05:30"},{"city":"Latur","state":"Maharashtra","latitude":18.4088,"longitude":76.5604,"temp":36.9,"humidity":25,"rain":0.0,"pressure":936.8,"uv_index":8.95,"wind_gusts":37.8,"aqi":48,"pm10":15.3,"pm2_5":8.3,"no2":1.4,"co":145.0,"o3":117.0,"so2":1.4,"mosquito_risk":0,"arthritis_risk":5,"migraine_risk":10,"frizz_risk":0,"updated_at":"2026-05-29T17:46:34.087555+05:30"},{"city":"Nanded","state":"Maharashtra","latitude":19.1383,"longitude":77.3091,"temp":39.1,"humidity":23,"rain":0.0,"pressure":964.1,"uv_index":8.9,"wind_gusts":39.2,"aqi":86,"pm10":25.1,"pm2_5":14.1,"no2":2.0,"co":153.0,"o3":130.0,"so2":3.8,"mosquito_risk":0,"arthritis_risk":5,"migraine_risk":10,"frizz_risk":0,"updated_at":"2026-05-29T17:46:34.087563+05:30"},{"city":"Gulbarga","state":"Karnataka","latitude":17.3297,"longitude":76.8343,"temp":37.0,"humidity":28,"rain":0.0,"pressure":955.8,"uv_index":8.95,"wind_gusts":40.3,"aqi":50,"pm10":16.1,"pm2_5":9.1,"no2":2.7,"co":160.0,"o3":121.0,"so2":2.1,"mosquito_risk":0,"arthritis_risk":5,"migraine_risk":10,"frizz_risk":0,"updated_at":"2026-05-29T17:46:34.087570+05:30"},{"city":"Bidar","state":"Karnataka","latitude":17.9104,"longitude":77.5199,"temp":35.0,"humidity":33,"rain":0.0,"pressure":932.9,"uv_index":9.0,"wind_gusts":40.0,"aqi":72,"pm10":15.1,"pm2_5":9.4,"no2":3.0,"co":188.0,"o3":127.0,"so2":3.2,"mosquito_risk":0,"arthritis_risk":5,"migraine_risk":7,"frizz_risk":1,"updated_at":"2026-05-29T17:46:34.087578+05:30"},{"city":"Hospet","state":"Karnataka","latitude":15.2689,"longitude":76.3909,"temp":32.5,"humidity":52,"rain":0.0,"pressure":953.4,"uv_index":8.15,"wind_gusts":45.7,"aqi":47,"pm10":28.3,"pm2_5":15.3,"no2":3.4,"co":205.0,"o3":115.0,"so2":2.9,"mosquito_risk":0,"arthritis_risk":5,"migraine_risk":7,"frizz_risk":1,"updated_at":"2026-05-29T17:46:34.087585+05:30"},{"city":"Tirupur","state":"Tamil Nadu","latitude":11.1085,"longitude":77.3411,"temp":30.9,"humidity":58,"rain":0.0,"pressure":973.5,"uv_index":7.7,"wind_gusts":62.3,"aqi":48,"pm10":7.7,"pm2_5":6.1,"no2":5.0,"co":149.0,"o3":91.0,"so2":2.4,"mosquito_risk":0,"arthritis_risk":5,"migraine_risk":7,"frizz_risk":1,"updated_at":"2026-05-29T17:46:34.087593+05:30"},{"city":"Alappuzha","state":"Kerala","latitude":9.4981,"longitude":76.3388,"temp":27.9,"humidity":84,"rain":0.0,"pressure":1009.3,"uv_index":8.15,"wind_gusts":38.2,"aqi":31,"pm10":7.4,"pm2_5":5.0,"no2":4.7,"co":104.0,"o3":55.0,"so2":1.4,"mosquito_risk":7,"arthritis_risk":0,"migraine_risk":4,"frizz_risk":1,"updated_at":"2026-05-29T17:46:34.087601+05:30"},{"city":"Munnar","state":"Kerala","latitude":10.0889,"longitude":77.0595,"temp":18.4,"humidity":100,"rain":0.4,"pressure":857.2,"uv_index":5.1,"wind_gusts":28.4,"aqi":34,"pm10":3.4,"pm2_5":3.0,"no2":4.3,"co":151.0,"o3":71.0,"so2":1.2,"mosquito_risk":6,"arthritis_risk":10,"migraine_risk":3,"frizz_risk":1,"updated_at":"2026-05-29T17:46:34.087609+05:30"},{"city":"Silchar","state":"Assam","latitude":24.8333,"longitude":92.7789,"temp":31.1,"humidity":73,"rain":0.0,"pressure":1001.2,"uv_index":8.9,"wind_gusts":20.5,"aqi":150,"pm10":70.3,"pm2_5":41.1,"no2":5.8,"co":469.0,"o3":126.0,"so2":6.2,"mosquito_risk":3,"arthritis_risk":5,"migraine_risk":4,"frizz_risk":1,"updated_at":"2026-05-29T17:46:34.087617+05:30"},{"city":"Dibrugarh","state":"Assam","latitude":27.4728,"longitude":94.912,"temp":29.5,"humidity":73,"rain":0.0,"pressure":992.0,"uv_index":8.85,"wind_gusts":13.0,"aqi":135,"pm10":61.0,"pm2_5":35.9,"no2":8.5,"co":332.0,"o3":100.0,"so2":2.5,"mosquito_risk":7,"arthritis_risk":5,"migraine_risk":7,"frizz_risk":1,"updated_at":"2026-05-29T17:46:34.087625+05:30"}]