[{"city":"Delhi","state":"Delhi","latitude":28.6139,"longitude":77.209,"temp":32.2,"humidity":40,"rain":0.0,"pressure":981.1,"uv_index":6.85,"wind_gusts":38.9,"aqi":175,"pm10":104.1,"pm2_5":40.2,"no2":11.6,"co":471.0,"o3":194.0,"so2":23.3,"mosquito_risk":0,"arthritis_risk":5,"migraine_risk":7,"frizz_risk":1,"updated_at":"2026-06-01T18:10:22.595659+05:30"},{"city":"Mumbai","state":"Maharashtra","latitude":19.076,"longitude":72.8777,"temp":32.0,"humidity":66,"rain":0.0,"pressure":1007.0,"uv_index":7.7,"wind_gusts":39.6,"aqi":51,"pm10":26.0,"pm2_5":12.6,"no2":6.8,"co":189.0,"o3":65.0,"so2":4.7,"mosquito_risk":3,"arthritis_risk":5,"migraine_risk":4,"frizz_risk":1,"updated_at":"2026-06-01T18:10:22.595729+05:30"},{"city":"Bangalore","state":"Karnataka","latitude":12.9716,"longitude":77.5946,"temp":23.6,"humidity":75,"rain":0.0,"pressure":910.3,"uv_index":8.95,"wind_gusts":29.9,"aqi":71,"pm10":27.5,"pm2_5":22.4,"no2":43.6,"co":1190.0,"o3":63.0,"so2":7.0,"mosquito_risk":3,"arthritis_risk":5,"migraine_risk":7,"frizz_risk":1,"updated_at":"2026-06-01T18:10:22.595746+05:30"},{"city":"Hyderabad","state":"Telangana","latitude":17.385,"longitude":78.4867,"temp":35.2,"humidity":30,"rain":0.0,"pressure":951.7,"uv_index":9.1,"wind_gusts":31.0,"aqi":106,"pm10":24.1,"pm2_5":13.1,"no2":4.7,"co":274.0,"o3":136.0,"so2":4.7,"mosquito_risk":0,"arthritis_risk":5,"migraine_risk":10,"frizz_risk":0,"updated_at":"2026-06-01T18:10:22.595758+05:30"},{"city":"Chennai","state":"Tamil Nadu","latitude":13.0827,"longitude":80.2707,"temp":33.2,"humidity":58,"rain":0.0,"pressure":1005.0,"uv_index":8.75,"wind_gusts":41.4,"aqi":148,"pm10":33.9,"pm2_5":25.9,"no2":6.7,"co":284.0,"o3":160.0,"so2":9.7,"mosquito_risk":0,"arthritis_risk":5,"migraine_risk":4,"frizz_risk":1,"updated_at":"2026-06-01T18:10:22.595768+05:30"},{"city":"Kolkata","state":"West Bengal","latitude":22.5726,"longitude":88.3639,"temp":31.7,"humidity":63,"rain":0.0,"pressure":1003.3,"uv_index":8.9,"wind_gusts":30.6,"aqi":117,"pm10":50.2,"pm2_5":39.7,"no2":10.8,"co":589.0,"o3":106.0,"so2":9.1,"mosquito_risk":3,"arthritis_risk":5,"migraine_risk":4,"frizz_risk":1,"updated_at":"2026-06-01T18:10:22.595777+05:30"},{"city":"Pune","state":"Maharashtra","latitude":18.5204,"longitude":73.8567,"temp":31.8,"humidity":48,"rain":0.0,"pressure":947.1,"uv_index":8.3,"wind_gusts":37.4,"aqi":57,"pm10":29.7,"pm2_5":14.7,"no2":4.1,"co":160.0,"o3":112.0,"so2":5.8,"mosquito_risk":0,"arthritis_risk":5,"migraine_risk":7,"frizz_risk":1,"updated_at":"2026-06-01T18:10:22.595784+05:30"},{"city":"Ahmedabad","state":"Gujarat","latitude":23.0225,"longitude":72.5714,"temp":39.9,"humidity":28,"rain":0.0,"pressure":997.9,"uv_index":8.0,"wind_gusts":43.2,"aqi":73,"pm10":57.4,"pm2_5":21.5,"no2":2.6,"co":157.0,"o3":91.0,"so2":3.4,"mosquito_risk":0,"arthritis_risk":5,"migraine_risk":10,"frizz_risk":1,"updated_at":"2026-06-01T18:10:22.595792+05:30"},{"city":"Jaipur","state":"Rajasthan","latitude":26.9124,"longitude":75.7873,"temp":35.2,"humidity":35,"rain":0.1,"pressure":957.6,"uv_index":8.15,"wind_gusts":63.0,"aqi":119,"pm10":118.3,"pm2_5":33.3,"no2":2.1,"co":179.0,"o3":110.0,"so2":3.3,"mosquito_risk":3,"arthritis_risk":5,"migraine_risk":10,"frizz_risk":1,"updated_at":"2026-06-01T18:10:22.595804+05:30"},{"city":"Lucknow","state":"Uttar Pradesh","latitude":26.8467,"longitude":80.9462,"temp":33.5,"humidity":45,"rain":0.0,"pressure":991.9,"uv_index":8.25,"wind_gusts":19.8,"aqi":117,"pm10":43.2,"pm2_5":20.7,"no2":3.3,"co":254.0,"o3":140.0,"so2":4.1,"mosquito_risk":0,"arthritis_risk":5,"migraine_risk":7,"frizz_risk":1,"updated_at":"2026-06-01T18:10:22.595812+05:30"},{"city":"Kanpur","state":"Uttar Pradesh","latitude":26.4499,"longitude":80.3319,"temp":34.2,"humidity":47,"rain":0.0,"pressure":990.3,"uv_index":8.25,"wind_gusts":20.2,"aqi":120,"pm10":72.9,"pm2_5":26.1,"no2":3.4,"co":249.0,"o3":141.0,"so2":5.4,"mosquito_risk":0,"arthritis_risk":5,"migraine_risk":7,"frizz_risk":1,"updated_at":"2026-06-01T18:10:22.595820+05:30"},{"city":"Chandigarh","state":"Chandigarh","latitude":30.7333,"longitude":76.7794,"temp":29.6,"humidity":51,"rain":0.0,"pressure":968.0,"uv_index":6.95,"wind_gusts":29.9,"aqi":145,"pm10":26.8,"pm2_5":16.4,"no2":4.3,"co":424.0,"o3":170.0,"so2":7.9,"mosquito_risk":4,"arthritis_risk":5,"migraine_risk":7,"frizz_risk":1,"updated_at":"2026-06-01T18:10:22.595829+05:30"},{"city":"Srinagar","state":"Jammu and Kashmir","latitude":34.0837,"longitude":74.7973,"temp":28.2,"humidity":27,"rain":0.0,"pressure":842.9,"uv_index":9.0,"wind_gusts":20.9,"aqi":139,"pm10":59.4,"pm2_5":26.2,"no2":3.5,"co":314.0,"o3":143.0,"so2":3.0,"mosquito_risk":4,"arthritis_risk":5,"migraine_risk":7,"frizz_risk":0,"updated_at":"2026-06-01T18:10:22.595838+05:30"},{"city":"Jammu","state":"Jammu and Kashmir","latitude":32.7266,"longitude":74.857,"temp":32.4,"humidity":40,"rain":0.0,"pressure":971.6,"uv_index":8.55,"wind_gusts":19.8,"aqi":151,"pm10":112.7,"pm2_5":42.0,"no2":3.3,"co":279.0,"o3":161.0,"so2":5.0,"mosquito_risk":0,"arthritis_risk":5,"migraine_risk":7,"frizz_risk":1,"updated_at":"2026-06-01T18:10:22.595845+05:30"},{"city":"Amritsar","state":"Punjab","latitude":31.634,"longitude":74.8723,"temp":33.3,"humidity":36,"rain":0.0,"pressure":979.6,"uv_index":8.45,"wind_gusts":22.7,"aqi":133,"pm10":67.8,"pm2_5":26.5,"no2":2.5,"co":324.0,"o3":154.0,"so2":3.4,"mosquito_risk":0,"arthritis_risk":5,"migraine_risk":7,"frizz_risk":0,"updated_at":"2026-06-01T18:10:22.595852+05:30"},{"city":"Ludhiana","state":"Punjab","latitude":30.901,"longitude":75.8573,"temp":34.0,"humidity":31,"rain":0.0,"pressure":977.5,"uv_index":8.0,"wind_gusts":22.7,"aqi":148,"pm10":211.9,"pm2_5":38.9,"no2":2.9,"co":313.0,"o3":157.0,"so2":6.8,"mosquito_risk":0,"arthritis_risk":5,"migraine_risk":7,"frizz_risk":0,"updated_at":"2026-06-01T18:10:22.595859+05:30"},{"city":"Jalandhar","state":"Punjab","latitude":31.326,"longitude":75.5762,"temp":34.0,"humidity":34,"rain":0.0,"pressure":978.4,"uv_index":8.2,"wind_gusts":19.8,"aqi":146,"pm10":74.0,"pm2_5":25.0,"no2":2.8,"co":334.0,"o3":160.0,"so2":4.7,"mosquito_risk":0,"arthritis_risk":5,"migraine_risk":7,"frizz_risk":0,"updated_at":"2026-06-01T18:10:22.595865+05:30"},{"city":"Dehradun","state":"Uttarakhand","latitude":30.6284,"longitude":78.0322,"temp":17.5,"humidity":78,"rain":0.0,"pressure":830.7,"uv_index":7.8,"wind_gusts":30.2,"aqi":99,"pm10":12.7,"pm2_5":8.4,"no2":3.4,"co":257.0,"o3":136.0,"so2":1.6,"mosquito_risk":3,"arthritis_risk":5,"migraine_risk":7,"frizz_risk":0,"updated_at":"2026-06-01T18:10:22.595873+05:30"},{"city":"Shimla","state":"Himachal Pradesh","latitude":31.1048,"longitude":77.1734,"temp":17.1,"humidity":58,"rain":0.0,"pressure":786.0,"uv_index":7.7,"wind_gusts":27.7,"aqi":110,"pm10":21.2,"pm2_5":13.6,"no2":2.0,"co":399.0,"o3":154.0,"so2":5.0,"mosquito_risk":0,"arthritis_risk":5,"migraine_risk":7,"frizz_risk":0,"updated_at":"2026-06-01T18:10:22.595886+05:30"},{"city":"Manali","state":"Himachal Pradesh","latitude":32.2396,"longitude":77.1887,"temp":19.9,"humidity":55,"rain":0.0,"pressure":820.0,"uv_index":8.8,"wind_gusts":24.8,"aqi":74,"pm10":16.6,"pm2_5":12.5,"no2":15.1,"co":154.0,"o3":119.0,"so2":0.3,"mosquito_risk":0,"arthritis_risk":5,"migraine_risk":7,"frizz_risk":0,"updated_at":"2026-06-01T18:10:22.595894+05:30"},{"city":"Gurgaon","state":"Haryana","latitude":28.4595,"longitude":77.0266,"temp":31.9,"humidity":41,"rain":0.0,"pressure":979.4,"uv_index":7.75,"wind_gusts":37.8,"aqi":603,"pm10":313.9,"pm2_5":65.7,"no2":11.1,"co":438.0,"o3":200.0,"so2":22.9,"mosquito_risk":0,"arthritis_risk":5,"migraine_risk":7,"frizz_risk":1,"updated_at":"2026-06-01T18:10:22.595902+05:30"},{"city":"Noida","state":"Uttar Pradesh","latitude":28.5355,"longitude":77.391,"temp":31.7,"humidity":43,"rain":0.0,"pressure":982.7,"uv_index":7.45,"wind_gusts":42.5,"aqi":603,"pm10":313.9,"pm2_5":65.7,"no2":11.1,"co":367.0,"o3":200.0,"so2":22.9,"mosquito_risk":0,"arthritis_risk":5,"migraine_risk":7,"frizz_risk":1,"updated_at":"2026-06-01T18:10:22.595908+05:30"},{"city":"Ghaziabad","state":"Uttar Pradesh","latitude":28.6692,"longitude":77.4538,"temp":30.8,"humidity":45,"rain":0.0,"pressure":981.0,"uv_index":7.55,"wind_gusts":52.2,"aqi":151,"pm10":97.1,"pm2_5":34.0,"no2":4.7,"co":276.0,"o3":161.0,"so2":10.5,"mosquito_risk":0,"arthritis_risk":5,"migraine_risk":7,"frizz_risk":1,"updated_at":"2026-06-01T18:10:22.595916+05:30"},{"city":"Faridabad","state":"Haryana","latitude":28.4089,"longitude":77.3178,"temp":31.6,"humidity":42,"rain":0.0,"pressure":981.8,"uv_index":7.65,"wind_gusts":42.5,"aqi":603,"pm10":313.9,"pm2_5":65.7,"no2":11.1,"co":361.0,"o3":200.0,"so2":22.9,"mosquito_risk":0,"arthritis_risk":5,"migraine_risk":7,"frizz_risk":1,"updated_at":"2026-06-01T18:10:22.595923+05:30"},{"city":"Meerut","state":"Uttar Pradesh","latitude":28.9845,"longitude":77.7064,"temp":29.8,"humidity":52,"rain":0.0,"pressure":980.0,"uv_index":7.6,"wind_gusts":60.1,"aqi":151,"pm10":97.1,"pm2_5":34.0,"no2":4.7,"co":262.0,"o3":161.0,"so2":10.5,"mosquito_risk":4,"arthritis_risk":5,"migraine_risk":7,"frizz_risk":1,"updated_at":"2026-06-01T18:10:22.595933+05:30"},{"city":"Agra","state":"Uttar Pradesh","latitude":27.1767,"longitude":78.0081,"temp":33.2,"humidity":44,"rain":0.0,"pressure":985.4,"uv_index":8.05,"wind_gusts":24.8,"aqi":155,"pm10":186.3,"pm2_5":44.9,"no2":4.6,"co":284.0,"o3":145.0,"so2":5.0,"mosquito_risk":0,"arthritis_risk":5,"migraine_risk":7,"frizz_risk":1,"updated_at":"2026-06-01T18:10:22.595939+05:30"},{"city":"Varanasi","state":"Uttar Pradesh","latitude":25.3176,"longitude":82.9739,"temp":33.2,"humidity":51,"rain":0.0,"pressure":995.6,"uv_index":8.75,"wind_gusts":30.6,"aqi":168,"pm10":47.6,"pm2_5":35.5,"no2":5.8,"co":420.0,"o3":161.0,"so2":7.1,"mosquito_risk":0,"arthritis_risk":5,"migraine_risk":7,"frizz_risk":1,"updated_at":"2026-06-01T18:10:22.595946+05:30"},{"city":"Prayagraj","state":"Uttar Pradesh","latitude":25.4358,"longitude":81.8463,"temp":34.8,"humidity":44,"rain":0.0,"pressure":994.2,"uv_index":8.65,"wind_gusts":29.2,"aqi":155,"pm10":42.7,"pm2_5":32.5,"no2":4.9,"co":291.0,"o3":162.0,"so2":6.4,"mosquito_risk":0,"arthritis_risk":5,"migraine_risk":7,"frizz_risk":1,"updated_at":"2026-06-01T18:10:22.595953+05:30"},{"city":"Gorakhpur","state":"Uttar Pradesh","latitude":26.7606,"longitude":83.3732,"temp":32.7,"humidity":55,"rain":0.0,"pressure":995.3,"uv_index":8.6,"wind_gusts":33.5,"aqi":159,"pm10":49.5,"pm2_5":32.6,"no2":3.7,"co":309.0,"o3":160.0,"so2":4.8,"mosquito_risk":0,"arthritis_risk":5,"migraine_risk":7,"frizz_risk":1,"updated_at":"2026-06-01T18:10:22.595962+05:30"},{"city":"Bareilly","state":"Uttar Pradesh","latitude":28.367,"longitude":79.4304,"temp":29.6,"humidity":62,"rain":0.0,"pressure":985.6,"uv_index":8.0,"wind_gusts":43.6,"aqi":135,"pm10":65.9,"pm2_5":24.2,"no2":3.0,"co":247.0,"o3":157.0,"so2":6.3,"mosquito_risk":7,"arthritis_risk":5,"migraine_risk":7,"frizz_risk":1,"updated_at":"2026-06-01T18:10:22.595968+05:30"},{"city":"Aligarh","state":"Uttar Pradesh","latitude":27.8974,"longitude":78.088,"temp":32.0,"humidity":47,"rain":0.0,"pressure":983.4,"uv_index":7.9,"wind_gusts":42.8,"aqi":130,"pm10":147.1,"pm2_5":42.5,"no2":3.7,"co":246.0,"o3":155.0,"so2":9.0,"mosquito_risk":0,"arthritis_risk":5,"migraine_risk":7,"frizz_risk":1,"updated_at":"2026-06-01T18:10:22.595975+05:30"},{"city":"Moradabad","state":"Uttar Pradesh","latitude":28.8386,"longitude":78.7733,"temp":29.6,"humidity":53,"rain":0.0,"pressure":982.5,"uv_index":7.75,"wind_gusts":56.9,"aqi":148,"pm10":58.3,"pm2_5":26.8,"no2":6.1,"co":270.0,"o3":153.0,"so2":10.6,"mosquito_risk":4,"arthritis_risk":5,"migraine_risk":7,"frizz_risk":1,"updated_at":"2026-06-01T18:10:22.595982+05:30"},{"city":"Saharanpur","state":"Uttar Pradesh","latitude":29.9637,"longitude":77.546,"temp":29.7,"humidity":53,"rain":0.0,"pressure":974.8,"uv_index":7.05,"wind_gusts":27.7,"aqi":131,"pm10":44.7,"pm2_5":22.9,"no2":4.0,"co":312.0,"o3":144.0,"so2":3.6,"mosquito_risk":4,"arthritis_risk":5,"migraine_risk":7,"frizz_risk":1,"updated_at":"2026-06-01T18:10:22.595988+05:30"},{"city":"Jhansi","state":"Uttar Pradesh","latitude":25.4484,"longitude":78.5685,"temp":34.7,"humidity":38,"rain":0.0,"pressure":975.8,"uv_index":8.45,"wind_gusts":26.3,"aqi":82,"pm10":126.2,"pm2_5":38.6,"no2":1.5,"co":161.0,"o3":119.0,"so2":4.4,"mosquito_risk":0,"arthritis_risk":5,"migraine_risk":7,"frizz_risk":1,"updated_at":"2026-06-01T18:10:25.828322+05:30"},{"city":"Surat","state":"Gujarat","latitude":21.1702,"longitude":72.8311,"temp":32.4,"humidity":61,"rain":0.0,"pressure":1004.5,"uv_index":7.55,"wind_gusts":43.9,"aqi":70,"pm10":49.0,"pm2_5":25.0,"no2":17.0,"co":272.0,"o3":41.0,"so2":42.1,"mosquito_risk":3,"arthritis_risk":5,"migraine_risk":4,"frizz_risk":1,"updated_at":"2026-06-01T18:10:25.828357+05:30"},{"city":"Vadodara","state":"Gujarat","latitude":22.3072,"longitude":73.1812,"temp":38.0,"humidity":32,"rain":0.0,"pressure":1000.6,"uv_index":8.0,"wind_gusts":39.6,"aqi":66,"pm10":58.0,"pm2_5":23.2,"no2":3.0,"co":164.0,"o3":103.0,"so2":5.0,"mosquito_risk":0,"arthritis_risk":5,"migraine_risk":7,"frizz_risk":1,"updated_at":"2026-06-01T18:10:25.828367+05:30"},{"city":"Rajkot","state":"Gujarat","latitude":22.3039,"longitude":70.8022,"temp":34.2,"humidity":57,"rain":0.0,"pressure":991.4,"uv_index":7.55,"wind_gusts":49.7,"aqi":62,"pm10":51.6,"pm2_5":19.6,"no2":1.7,"co":116.0,"o3":91.0,"so2":4.0,"mosquito_risk":0,"arthritis_risk":5,"migraine_risk":7,"frizz_risk":1,"updated_at":"2026-06-01T18:10:25.828375+05:30"},{"city":"Thane","state":"Maharashtra","latitude":19.2183,"longitude":72.9781,"temp":32.8,"humidity":58,"rain":0.0,"pressure":1006.1,"uv_index":7.7,"wind_gusts":38.9,"aqi":51,"pm10":26.0,"pm2_5":12.6,"no2":6.8,"co":160.0,"o3":65.0,"so2":4.7,"mosquito_risk":0,"arthritis_risk":5,"migraine_risk":4,"frizz_risk":1,"updated_at":"2026-06-01T18:10:25.828383+05:30"},{"city":"Nagpur","state":"Maharashtra","latitude":21.1458,"longitude":79.0882,"temp":38.5,"humidity":21,"rain":0.0,"pressure":970.1,"uv_index":8.85,"wind_gusts":32.0,"aqi":134,"pm10":34.9,"pm2_5":16.5,"no2":7.0,"co":196.0,"o3":150.0,"so2":18.4,"mosquito_risk":0,"arthritis_risk":5,"migraine_risk":10,"frizz_risk":0,"updated_at":"2026-06-01T18:10:25.828391+05:30"},{"city":"Nashik","state":"Maharashtra","latitude":19.9975,"longitude":73.7898,"temp":32.0,"humidity":43,"rain":0.0,"pressure":943.8,"uv_index":8.0,"wind_gusts":38.9,"aqi":45,"pm10":27.4,"pm2_5":11.6,"no2":1.7,"co":136.0,"o3":84.0,"so2":1.4,"mosquito_risk":0,"arthritis_risk":5,"migraine_risk":7,"frizz_risk":1,"updated_at":"2026-06-01T18:10:25.828398+05:30"},{"city":"Aurangabad","state":"Maharashtra","latitude":19.8762,"longitude":75.3433,"temp":36.8,"humidity":26,"rain":0.0,"pressure":942.3,"uv_index":8.9,"wind_gusts":61.2,"aqi":53,"pm10":48.9,"pm2_5":15.7,"no2":1.6,"co":170.0,"o3":109.0,"so2":2.1,"mosquito_risk":0,"arthritis_risk":5,"migraine_risk":10,"frizz_risk":0,"updated_at":"2026-06-01T18:10:25.828405+05:30"},{"city":"Solapur","state":"Maharashtra","latitude":17.6599,"longitude":75.9064,"temp":36.8,"humidity":30,"rain":0.0,"pressure":955.8,"uv_index":8.9,"wind_gusts":33.8,"aqi":77,"pm10":33.4,"pm2_5":14.3,"no2":1.9,"co":136.0,"o3":130.0,"so2":3.3,"mosquito_risk":0,"arthritis_risk":5,"migraine_risk":10,"frizz_risk":1,"updated_at":"2026-06-01T18:10:25.828412+05:30"},{"city":"Kolhapur","state":"Maharashtra","latitude":16.705,"longitude":74.2433,"temp":29.2,"humidity":60,"rain":0.1,"pressure":947.6,"uv_index":8.75,"wind_gusts":56.9,"aqi":46,"pm10":20.8,"pm2_5":10.6,"no2":3.8,"co":143.0,"o3":88.0,"so2":1.7,"mosquito_risk":7,"arthritis_risk":5,"migraine_risk":7,"frizz_risk":1,"updated_at":"2026-06-01T18:10:25.828420+05:30"},{"city":"Goa","state":"Goa","latitude":15.2993,"longitude":74.124,"temp":31.4,"humidity":64,"rain":0.0,"pressure":996.8,"uv_index":8.7,"wind_gusts":29.2,"aqi":49,"pm10":10.0,"pm2_5":5.8,"no2":1.3,"co":145.0,"o3":60.0,"so2":1.0,"mosquito_risk":3,"arthritis_risk":5,"migraine_risk":7,"frizz_risk":1,"updated_at":"2026-06-01T18:10:25.828427+05:30"},{"city":"Jodhpur","state":"Rajasthan","latitude":26.2389,"longitude":73.0243,"temp":34.0,"humidity":36,"rain":0.0,"pressure":980.5,"uv_index":8.4,"wind_gusts":36.7,"aqi":90,"pm10":163.4,"pm2_5":36.0,"no2":1.3,"co":161.0,"o3":92.0,"so2":1.9,"mosquito_risk":0,"arthritis_risk":5,"migraine_risk":7,"frizz_risk":1,"updated_at":"2026-06-01T18:10:25.828433+05:30"},{"city":"Udaipur","state":"Rajasthan","latitude":24.5854,"longitude":73.7125,"temp":33.8,"humidity":33,"rain":0.0,"pressure":945.1,"uv_index":8.8,"wind_gusts":35.3,"aqi":71,"pm10":49.7,"pm2_5":18.5,"no2":0.9,"co":131.0,"o3":101.0,"so2":2.4,"mosquito_risk":0,"arthritis_risk":5,"migraine_risk":7,"frizz_risk":0,"updated_at":"2026-06-01T18:10:25.828441+05:30"},{"city":"Kota","state":"Rajasthan","latitude":25.2138,"longitude":75.8648,"temp":35.9,"humidity":42,"rain":0.1,"pressure":977.6,"uv_index":8.3,"wind_gusts":52.9,"aqi":78,"pm10":102.9,"pm2_5":30.3,"no2":1.4,"co":141.0,"o3":117.0,"so2":5.4,"mosquito_risk":3,"arthritis_risk":5,"migraine_risk":10,"frizz_risk":1,"updated_at":"2026-06-01T18:10:25.828448+05:30"},{"city":"Bikaner","state":"Rajasthan","latitude":28.0229,"longitude":73.3119,"temp":28.5,"humidity":65,"rain":0.2,"pressure":981.3,"uv_index":8.4,"wind_gusts":34.2,"aqi":119,"pm10":203.0,"pm2_5":46.7,"no2":0.6,"co":128.0,"o3":90.0,"so2":2.2,"mosquito_risk":10,"arthritis_risk":5,"migraine_risk":7,"frizz_risk":1,"updated_at":"2026-06-01T18:10:25.828455+05:30"},{"city":"Ajmer","state":"Rajasthan","latitude":26.4499,"longitude":74.6399,"temp":28.0,"humidity":57,"rain":0.0,"pressure":952.4,"uv_index":8.3,"wind_gusts":45.4,"aqi":85,"pm10":105.9,"pm2_5":30.6,"no2":1.1,"co":137.0,"o3":102.0,"so2":3.2,"mosquito_risk":4,"arthritis_risk":5,"migraine_risk":7,"frizz_risk":1,"updated_at":"2026-06-01T18:10:25.828462+05:30"},{"city":"Gwalior","state":"Madhya Pradesh","latitude":26.2183,"longitude":78.1828,"temp":31.5,"humidity":52,"rain":0.0,"pressure":980.9,"uv_index":8.2,"wind_gusts":30.6,"aqi":89,"pm10":165.3,"pm2_5":47.5,"no2":1.0,"co":205.0,"o3":126.0,"so2":2.6,"mosquito_risk":0,"arthritis_risk":5,"migraine_risk":7,"frizz_risk":1,"updated_at":"2026-06-01T18:10:25.828469+05:30"},{"city":"Indore","state":"Madhya Pradesh","latitude":22.7196,"longitude":75.8577,"temp":27.7,"humidity":54,"rain":0.0,"pressure":946.3,"uv_index":8.6,"wind_gusts":38.5,"aqi":72,"pm10":61.0,"pm2_5":26.3,"no2":2.0,"co":204.0,"o3":111.0,"so2":4.1,"mosquito_risk":4,"arthritis_risk":5,"migraine_risk":7,"frizz_risk":1,"updated_at":"2026-06-01T18:10:25.828476+05:30"},{"city":"Bhopal","state":"Madhya Pradesh","latitude":23.2599,"longitude":77.4126,"temp":27.4,"humidity":58,"rain":0.0,"pressure":951.4,"uv_index":8.65,"wind_gusts":51.8,"aqi":82,"pm10":59.5,"pm2_5":22.3,"no2":1.4,"co":176.0,"o3":114.0,"so2":4.0,"mosquito_risk":4,"arthritis_risk":5,"migraine_risk":7,"frizz_risk":1,"updated_at":"2026-06-01T18:10:25.828483+05:30"},{"city":"Jabalpur","state":"Madhya Pradesh","latitude":23.1815,"longitude":79.9864,"temp":35.7,"humidity":29,"rain":0.0,"pressure":959.4,"uv_index":8.8,"wind_gusts":22.7,"aqi":109,"pm10":41.8,"pm2_5":18.0,"no2":1.8,"co":174.0,"o3":137.0,"so2":3.6,"mosquito_risk":0,"arthritis_risk":5,"migraine_risk":10,"frizz_risk":0,"updated_at":"2026-06-01T18:10:25.828490+05:30"},{"city":"Ujjain","state":"Madhya Pradesh","latitude":23.1765,"longitude":75.7885,"temp":29.7,"humidity":53,"rain":0.0,"pressure":952.1,"uv_index":8.55,"wind_gusts":39.2,"aqi":73,"pm10":53.2,"pm2_5":23.2,"no2":1.0,"co":146.0,"o3":111.0,"so2":4.3,"mosquito_risk":4,"arthritis_risk":5,"migraine_risk":7,"frizz_risk":1,"updated_at":"2026-06-01T18:10:25.828497+05:30"},{"city":"Visakhapatnam","state":"Andhra Pradesh","latitude":17.6868,"longitude":83.2185,"temp":32.6,"humidity":66,"rain":0.0,"pressure":1000.6,"uv_index":8.95,"wind_gusts":34.6,"aqi":105,"pm10":45.6,"pm2_5":34.0,"no2":22.2,"co":458.0,"o3":130.0,"so2":49.7,"mosquito_risk":3,"arthritis_risk":5,"migraine_risk":4,"frizz_risk":1,"updated_at":"2026-06-01T18:10:25.828504+05:30"},{"city":"Vijayawada","state":"Andhra Pradesh","latitude":16.5062,"longitude":80.648,"temp":37.3,"humidity":39,"rain":0.0,"pressure":999.4,"uv_index":9.0,"wind_gusts":25.2,"aqi":117,"pm10":58.4,"pm2_5":32.1,"no2":7.2,"co":212.0,"o3":130.0,"so2":6.5,"mosquito_risk":0,"arthritis_risk":5,"migraine_risk":10,"frizz_risk":1,"updated_at":"2026-06-01T18:10:25.828510+05:30"},{"city":"Guntur","state":"Andhra Pradesh","latitude":16.3067,"longitude":80.4365,"temp":37.6,"humidity":39,"rain":0.0,"pressure":1000.7,"uv_index":9.0,"wind_gusts":32.4,"aqi":104,"pm10":50.1,"pm2_5":25.4,"no2":4.4,"co":182.0,"o3":130.0,"so2":5.3,"mosquito_risk":0,"arthritis_risk":5,"migraine_risk":7,"frizz_risk":1,"updated_at":"2026-06-01T18:10:25.828516+05:30"},{"city":"Nellore","state":"Andhra Pradesh","latitude":14.4426,"longitude":79.9865,"temp":34.7,"humidity":56,"rain":0.0,"pressure":1003.0,"uv_index":8.8,"wind_gusts":29.5,"aqi":109,"pm10":47.7,"pm2_5":27.0,"no2":3.1,"co":197.0,"o3":150.0,"so2":4.2,"mosquito_risk":0,"arthritis_risk":5,"migraine_risk":4,"frizz_risk":1,"updated_at":"2026-06-01T18:10:25.828525+05:30"},{"city":"Kurnool","state":"Andhra Pradesh","latitude":15.8281,"longitude":78.0373,"temp":36.0,"humidity":39,"rain":0.0,"pressure":974.4,"uv_index":8.95,"wind_gusts":38.2,"aqi":96,"pm10":44.0,"pm2_5":18.8,"no2":1.9,"co":162.0,"o3":141.0,"so2":6.9,"mosquito_risk":0,"arthritis_risk":5,"migraine_risk":10,"frizz_risk":1,"updated_at":"2026-06-01T18:10:25.828532+05:30"},{"city":"Kakinada","state":"Andhra Pradesh","latitude":16.9891,"longitude":82.2475,"temp":33.7,"humidity":58,"rain":0.0,"pressure":1004.2,"uv_index":8.95,"wind_gusts":34.6,"aqi":113,"pm10":39.0,"pm2_5":27.5,"no2":2.2,"co":277.0,"o3":138.0,"so2":4.9,"mosquito_risk":0,"arthritis_risk":5,"migraine_risk":4,"frizz_risk":1,"updated_at":"2026-06-01T18:10:25.828539+05:30"},{"city":"Tirupati","state":"Andhra Pradesh","latitude":13.6288,"longitude":79.4192,"temp":34.2,"humidity":43,"rain":0.0,"pressure":989.0,"uv_index":8.85,"wind_gusts":34.6,"aqi":76,"pm10":26.8,"pm2_5":16.9,"no2":8.9,"co":230.0,"o3":105.0,"so2":3.4,"mosquito_risk":0,"arthritis_risk":5,"migraine_risk":7,"frizz_risk":1,"updated_at":"2026-06-01T18:10:25.828545+05:30"},{"city":"Warangal","state":"Telangana","latitude":17.9689,"longitude":79.5941,"temp":35.6,"humidity":35,"rain":0.0,"pressure":976.4,"uv_index":9.0,"wind_gusts":28.8,"aqi":125,"pm10":52.3,"pm2_5":26.4,"no2":3.7,"co":204.0,"o3":157.0,"so2":11.4,"mosquito_risk":0,"arthritis_risk":5,"migraine_risk":10,"frizz_risk":1,"updated_at":"2026-06-01T18:10:25.828551+05:30"},{"city":"Nizamabad","state":"Telangana","latitude":18.6725,"longitude":78.0941,"temp":35.5,"humidity":33,"rain":0.0,"pressure":962.7,"uv_index":9.0,"wind_gusts":30.2,"aqi":69,"pm10":38.5,"pm2_5":17.7,"no2":1.6,"co":156.0,"o3":121.0,"so2":2.8,"mosquito_risk":0,"arthritis_risk":5,"migraine_risk":10,"frizz_risk":1,"updated_at":"2026-06-01T18:10:25.828557+05:30"},{"city":"Mysore","state":"Karnataka","latitude":12.2958,"longitude":76.6396,"temp":23.9,"humidity":87,"rain":0.1,"pressure":927.9,"uv_index":8.95,"wind_gusts":43.9,"aqi":55,"pm10":15.7,"pm2_5":10.5,"no2":6.1,"co":266.0,"o3":116.0,"so2":2.4,"mosquito_risk":6,"arthritis_risk":5,"migraine_risk":7,"frizz_risk":1,"updated_at":"2026-06-01T18:10:25.828564+05:30"},{"city":"Mangalore","state":"Karnataka","latitude":12.9141,"longitude":74.856,"temp":29.3,"humidity":75,"rain":0.1,"pressure":1006.4,"uv_index":8.75,"wind_gusts":38.2,"aqi":49,"pm10":10.0,"pm2_5":7.1,"no2":3.7,"co":156.0,"o3":75.0,"so2":1.6,"mosquito_risk":10,"arthritis_risk":5,"migraine_risk":4,"frizz_risk":1,"updated_at":"2026-06-01T18:10:25.828570+05:30"},{"city":"Hubli-Dharwad","state":"Karnataka","latitude":15.3647,"longitude":75.124,"temp":29.8,"humidity":56,"rain":0.0,"pressure":940.3,"uv_index":8.9,"wind_gusts":41.0,"aqi":43,"pm10":21.0,"pm2_5":10.5,"no2":3.4,"co":163.0,"o3":93.0,"so2":1.2,"mosquito_risk":4,"arthritis_risk":5,"migraine_risk":7,"frizz_risk":1,"updated_at":"2026-06-01T18:10:25.828576+05:30"},{"city":"Belgaum","state":"Karnataka","latitude":15.8497,"longitude":74.4977,"temp":27.4,"humidity":66,"rain":0.0,"pressure":925.6,"uv_index":8.95,"wind_gusts":47.9,"aqi":47,"pm10":14.1,"pm2_5":7.4,"no2":3.5,"co":138.0,"o3":76.0,"so2":1.4,"mosquito_risk":7,"arthritis_risk":5,"migraine_risk":7,"frizz_risk":1,"updated_at":"2026-06-01T18:10:29.066495+05:30"},{"city":"Coimbatore","state":"Tamil Nadu","latitude":11.0168,"longitude":76.9558,"temp":28.5,"humidity":62,"rain":0.0,"pressure":961.1,"uv_index":8.75,"wind_gusts":47.9,"aqi":98,"pm10":10.8,"pm2_5":9.8,"no2":6.1,"co":220.0,"o3":100.0,"so2":2.8,"mosquito_risk":7,"arthritis_risk":5,"migraine_risk":7,"frizz_risk":1,"updated_at":"2026-06-01T18:10:29.066531+05:30"},{"city":"Madurai","state":"Tamil Nadu","latitude":9.9252,"longitude":78.1198,"temp":29.8,"humidity":65,"rain":0.2,"pressure":992.4,"uv_index":8.85,"wind_gusts":37.4,"aqi":112,"pm10":37.7,"pm2_5":19.2,"no2":6.7,"co":174.0,"o3":115.0,"so2":4.1,"mosquito_risk":10,"arthritis_risk":5,"migraine_risk":7,"frizz_risk":1,"updated_at":"2026-06-01T18:10:29.066542+05:30"},{"city":"Trichy","state":"Tamil Nadu","latitude":10.7905,"longitude":78.7047,"temp":32.1,"humidity":55,"rain":0.0,"pressure":997.9,"uv_index":8.6,"wind_gusts":32.4,"aqi":85,"pm10":28.7,"pm2_5":17.5,"no2":5.2,"co":210.0,"o3":127.0,"so2":3.6,"mosquito_risk":0,"arthritis_risk":5,"migraine_risk":7,"frizz_risk":1,"updated_at":"2026-06-01T18:10:29.066550+05:30"},{"city":"Salem","state":"Tamil Nadu","latitude":11.6643,"longitude":78.146,"temp":34.4,"humidity":58,"rain":0.1,"pressure":977.1,"uv_index":8.45,"wind_gusts":28.1,"aqi":139,"pm10":26.1,"pm2_5":19.3,"no2":5.4,"co":247.0,"o3":164.0,"so2":12.1,"mosquito_risk":3,"arthritis_risk":5,"migraine_risk":7,"frizz_risk":1,"updated_at":"2026-06-01T18:10:29.066558+05:30"},{"city":"Tirunelveli","state":"Tamil Nadu","latitude":8.7139,"longitude":77.7567,"temp":34.5,"humidity":45,"rain":0.0,"pressure":1001.3,"uv_index":8.75,"wind_gusts":42.8,"aqi":40,"pm10":7.9,"pm2_5":6.1,"no2":3.1,"co":155.0,"o3":78.0,"so2":0.9,"mosquito_risk":0,"arthritis_risk":5,"migraine_risk":4,"frizz_risk":1,"updated_at":"2026-06-01T18:10:29.066566+05:30"},{"city":"Vellore","state":"Tamil Nadu","latitude":12.9165,"longitude":79.1325,"temp":32.3,"humidity":55,"rain":0.0,"pressure":983.4,"uv_index":9.0,"wind_gusts":36.4,"aqi":91,"pm10":26.7,"pm2_5":19.6,"no2":9.5,"co":268.0,"o3":114.0,"so2":3.3,"mosquito_risk":0,"arthritis_risk":5,"migraine_risk":7,"frizz_risk":1,"updated_at":"2026-06-01T18:10:29.066573+05:30"},{"city":"Erode","state":"Tamil Nadu","latitude":11.341,"longitude":77.7172,"temp":33.7,"humidity":41,"rain":0.0,"pressure":987.6,"uv_index":8.3,"wind_gusts":49.0,"aqi":119,"pm10":20.5,"pm2_5":14.1,"no2":5.0,"co":281.0,"o3":149.0,"so2":2.6,"mosquito_risk":0,"arthritis_risk":5,"migraine_risk":7,"frizz_risk":1,"updated_at":"2026-06-01T18:10:29.066581+05:30"},{"city":"Kochi","state":"Kerala","latitude":9.9312,"longitude":76.2673,"temp":27.2,"humidity":87,"rain":0.0,"pressure":1008.6,"uv_index":7.7,"wind_gusts":34.2,"aqi":50,"pm10":12.5,"pm2_5":8.9,"no2":8.4,"co":163.0,"o3":56.0,"so2":2.8,"mosquito_risk":7,"arthritis_risk":0,"migraine_risk":4,"frizz_risk":1,"updated_at":"2026-06-01T18:10:29.066589+05:30"},{"city":"Thiruvananthapuram","state":"Kerala","latitude":8.5241,"longitude":76.9366,"temp":28.0,"humidity":78,"rain":0.0,"pressure":1008.2,"uv_index":7.2,"wind_gusts":38.2,"aqi":38,"pm10":11.2,"pm2_5":6.9,"no2":1.4,"co":144.0,"o3":68.0,"so2":0.6,"mosquito_risk":7,"arthritis_risk":0,"migraine_risk":4,"frizz_risk":1,"updated_at":"2026-06-01T18:10:29.066596+05:30"},{"city":"Kozhikode","state":"Kerala","latitude":11.2588,"longitude":75.7804,"temp":26.3,"humidity":94,"rain":0.0,"pressure":1007.7,"uv_index":7.75,"wind_gusts":29.5,"aqi":39,"pm10":7.7,"pm2_5":4.7,"no2":0.8,"co":197.0,"o3":76.0,"so2":0.5,"mosquito_risk":7,"arthritis_risk":5,"migraine_risk":4,"frizz_risk":1,"updated_at":"2026-06-01T18:10:29.066603+05:30"},{"city":"Thrissur","state":"Kerala","latitude":10.5276,"longitude":76.2144,"temp":25.7,"humidity":100,"rain":0.0,"pressure":1006.9,"uv_index":8.1,"wind_gusts":30.6,"aqi":49,"pm10":12.5,"pm2_5":8.8,"no2":7.1,"co":212.0,"o3":59.0,"so2":2.3,"mosquito_risk":7,"arthritis_risk":5,"migraine_risk":4,"frizz_risk":1,"updated_at":"2026-06-01T18:10:29.066610+05:30"},{"city":"Kannur","state":"Kerala","latitude":11.8745,"longitude":75.3704,"temp":27.2,"humidity":92,"rain":0.0,"pressure":1006.8,"uv_index":8.35,"wind_gusts":27.4,"aqi":42,"pm10":8.2,"pm2_5":5.7,"no2":2.2,"co":212.0,"o3":79.0,"so2":1.2,"mosquito_risk":7,"arthritis_risk":5,"migraine_risk":4,"frizz_risk":1,"updated_at":"2026-06-01T18:10:29.066617+05:30"},{"city":"Patna","state":"Bihar","latitude":25.5941,"longitude":85.1376,"temp":33.3,"humidity":54,"rain":0.0,"pressure":998.1,"uv_index":8.85,"wind_gusts":14.0,"aqi":199,"pm10":61.7,"pm2_5":50.9,"no2":12.7,"co":440.0,"o3":156.0,"so2":11.8,"mosquito_risk":0,"arthritis_risk":5,"migraine_risk":7,"frizz_risk":1,"updated_at":"2026-06-01T18:10:29.066624+05:30"},{"city":"Gaya","state":"Bihar","latitude":24.7914,"longitude":85.0002,"temp":33.5,"humidity":49,"rain":0.0,"pressure":991.5,"uv_index":8.9,"wind_gusts":21.6,"aqi":172,"pm10":58.0,"pm2_5":43.1,"no2":6.3,"co":406.0,"o3":160.0,"so2":9.7,"mosquito_risk":0,"arthritis_risk":5,"migraine_risk":7,"frizz_risk":1,"updated_at":"2026-06-01T18:10:29.066631+05:30"},{"city":"Muzaffarpur","state":"Bihar","latitude":26.1209,"longitude":85.3647,"temp":32.0,"humidity":63,"rain":0.0,"pressure":998.1,"uv_index":8.85,"wind_gusts":16.9,"aqi":193,"pm10":58.8,"pm2_5":48.8,"no2":14.1,"co":435.0,"o3":143.0,"so2":10.4,"mosquito_risk":3,"arthritis_risk":5,"migraine_risk":7,"frizz_risk":1,"updated_at":"2026-06-01T18:10:29.066637+05:30"},{"city":"Bhagalpur","state":"Bihar","latitude":25.2425,"longitude":87.0117,"temp":31.9,"humidity":67,"rain":0.0,"pressure":998.7,"uv_index":8.8,"wind_gusts":18.7,"aqi":210,"pm10":72.4,"pm2_5":58.6,"no2":9.4,"co":376.0,"o3":207.0,"so2":24.6,"mosquito_risk":3,"arthritis_risk":5,"migraine_risk":7,"frizz_risk":1,"updated_at":"2026-06-01T18:10:29.066643+05:30"},{"city":"Ranchi","state":"Jharkhand","latitude":23.3441,"longitude":85.3096,"temp":26.4,"humidity":80,"rain":0.0,"pressure":936.7,"uv_index":9.2,"wind_gusts":35.3,"aqi":175,"pm10":60.3,"pm2_5":39.6,"no2":4.1,"co":349.0,"o3":163.0,"so2":10.4,"mosquito_risk":7,"arthritis_risk":5,"migraine_risk":7,"frizz_risk":1,"updated_at":"2026-06-01T18:10:29.066650+05:30"},{"city":"Jamshedpur","state":"Jharkhand","latitude":22.8046,"longitude":86.2029,"temp":30.7,"humidity":65,"rain":0.0,"pressure":988.7,"uv_index":9.05,"wind_gusts":29.9,"aqi":202,"pm10":60.3,"pm2_5":48.0,"no2":6.4,"co":472.0,"o3":191.0,"so2":17.7,"mosquito_risk":3,"arthritis_risk":5,"migraine_risk":7,"frizz_risk":1,"updated_at":"2026-06-01T18:10:29.066656+05:30"},{"city":"Dhanbad","state":"Jharkhand","latitude":23.7957,"longitude":86.4304,"temp":31.6,"humidity":57,"rain":0.0,"pressure":977.9,"uv_index":9.0,"wind_gusts":17.6,"aqi":200,"pm10":88.2,"pm2_5":78.5,"no2":32.3,"co":529.0,"o3":193.0,"so2":84.2,"mosquito_risk":0,"arthritis_risk":5,"migraine_risk":7,"frizz_risk":1,"updated_at":"2026-06-01T18:10:29.066663+05:30"},{"city":"Bokaro","state":"Jharkhand","latitude":23.6693,"longitude":86.1511,"temp":31.4,"humidity":63,"rain":0.0,"pressure":981.7,"uv_index":9.05,"wind_gusts":19.1,"aqi":203,"pm10":86.1,"pm2_5":72.9,"no2":29.9,"co":419.0,"o3":196.0,"so2":88.5,"mosquito_risk":3,"arthritis_risk":5,"migraine_risk":7,"frizz_risk":1,"updated_at":"2026-06-01T18:10:29.066670+05:30"},{"city":"Bhubaneswar","state":"Odisha","latitude":20.2961,"longitude":85.8245,"temp":31.4,"humidity":75,"rain":0.0,"pressure":999.7,"uv_index":9.0,"wind_gusts":33.1,"aqi":140,"pm10":45.3,"pm2_5":37.0,"no2":7.8,"co":322.0,"o3":125.0,"so2":8.5,"mosquito_risk":3,"arthritis_risk":5,"migraine_risk":7,"frizz_risk":1,"updated_at":"2026-06-01T18:10:29.066676+05:30"},{"city":"Cuttack","state":"Odisha","latitude":20.4625,"longitude":85.8828,"temp":33.4,"humidity":63,"rain":0.0,"pressure":1001.3,"uv_index":9.1,"wind_gusts":28.8,"aqi":140,"pm10":45.3,"pm2_5":37.0,"no2":7.8,"co":323.0,"o3":125.0,"so2":8.5,"mosquito_risk":3,"arthritis_risk":5,"migraine_risk":4,"frizz_risk":1,"updated_at":"2026-06-01T18:10:29.066682+05:30"},{"city":"Rourkela","state":"Odisha","latitude":22.2604,"longitude":84.8536,"temp":32.7,"humidity":54,"rain":0.0,"pressure":983.1,"uv_index":8.95,"wind_gusts":45.4,"aqi":199,"pm10":56.8,"pm2_5":42.3,"no2":7.2,"co":332.0,"o3":178.0,"so2":15.0,"mosquito_risk":0,"arthritis_risk":5,"migraine_risk":7,"frizz_risk":1,"updated_at":"2026-06-01T18:10:29.066689+05:30"},{"city":"Raipur","state":"Chhattisgarh","latitude":21.2514,"longitude":81.6296,"temp":35.2,"humidity":35,"rain":0.0,"pressure":971.9,"uv_index":8.3,"wind_gusts":33.1,"aqi":131,"pm10":75.9,"pm2_5":42.3,"no2":21.3,"co":158.0,"o3":147.0,"so2":48.4,"mosquito_risk":0,"arthritis_risk":5,"migraine_risk":10,"frizz_risk":1,"updated_at":"2026-06-01T18:10:29.066695+05:30"},{"city":"Bhilai","state":"Chhattisgarh","latitude":21.1938,"longitude":81.3509,"temp":36.3,"humidity":33,"rain":0.0,"pressure":972.4,"uv_index":8.45,"wind_gusts":29.2,"aqi":131,"pm10":88.9,"pm2_5":45.4,"no2":27.5,"co":392.0,"o3":127.0,"so2":59.0,"mosquito_risk":0,"arthritis_risk":5,"migraine_risk":10,"frizz_risk":1,"updated_at":"2026-06-01T18:10:29.066702+05:30"},{"city":"Guwahati","state":"Assam","latitude":26.1158,"longitude":91.7086,"temp":30.4,"humidity":74,"rain":0.0,"pressure":998.9,"uv_index":8.55,"wind_gusts":25.9,"aqi":100,"pm10":37.6,"pm2_5":29.7,"no2":5.8,"co":388.0,"o3":99.0,"so2":2.6,"mosquito_risk":3,"arthritis_risk":5,"migraine_risk":7,"frizz_risk":1,"updated_at":"2026-06-01T18:10:29.066708+05:30"},{"city":"Agartala","state":"Tripura","latitude":23.8315,"longitude":91.2868,"temp":30.1,"humidity":76,"rain":0.0,"pressure":1004.2,"uv_index":8.85,"wind_gusts":29.5,"aqi":159,"pm10":55.5,"pm2_5":44.6,"no2":14.2,"co":340.0,"o3":149.0,"so2":10.7,"mosquito_risk":3,"arthritis_risk":5,"migraine_risk":4,"frizz_risk":1,"updated_at":"2026-06-01T18:10:29.066731+05:30"},{"city":"Shillong","state":"Meghalaya","latitude":25.5788,"longitude":91.8933,"temp":20.9,"humidity":90,"rain":0.0,"pressure":857.5,"uv_index":8.3,"wind_gusts":24.1,"aqi":66,"pm10":18.0,"pm2_5":14.6,"no2":5.8,"co":294.0,"o3":101.0,"so2":2.3,"mosquito_risk":3,"arthritis_risk":5,"migraine_risk":7,"frizz_risk":1,"updated_at":"2026-06-01T18:10:29.066737+05:30"},{"city":"Imphal","state":"Manipur","latitude":24.817,"longitude":93.9368,"temp":24.4,"humidity":88,"rain":0.0,"pressure":922.1,"uv_index":9.05,"wind_gusts":14.4,"aqi":54,"pm10":7.2,"pm2_5":7.0,"no2":8.6,"co":332.0,"o3":56.0,"so2":1.5,"mosquito_risk":3,"arthritis_risk":5,"migraine_risk":7,"frizz_risk":1,"updated_at":"2026-06-01T18:10:29.066744+05:30"},{"city":"Aizawl","state":"Mizoram","latitude":23.7271,"longitude":92.7176,"temp":21.4,"humidity":95,"rain":0.0,"pressure":891.8,"uv_index":9.05,"wind_gusts":19.8,"aqi":62,"pm10":20.7,"pm2_5":15.8,"no2":4.6,"co":305.0,"o3":86.0,"so2":2.3,"mosquito_risk":3,"arthritis_risk":5,"migraine_risk":7,"frizz_risk":1,"updated_at":"2026-06-01T18:10:29.066751+05:30"},{"city":"Kohima","state":"Nagaland","latitude":25.6701,"longitude":94.1077,"temp":20.9,"humidity":96,"rain":0.1,"pressure":855.2,"uv_index":8.5,"wind_gusts":24.1,"aqi":33,"pm10":6.2,"pm2_5":5.6,"no2":4.2,"co":199.0,"o3":68.0,"so2":0.8,"mosquito_risk":6,"arthritis_risk":5,"migraine_risk":7,"frizz_risk":1,"updated_at":"2026-06-01T18:10:29.066757+05:30"},{"city":"Gangtok","state":"Sikkim","latitude":27.3314,"longitude":88.6138,"temp":19.4,"humidity":85,"rain":0.0,"pressure":838.6,"uv_index":9.2,"wind_gusts":39.2,"aqi":103,"pm10":24.8,"pm2_5":19.0,"no2":3.5,"co":305.0,"o3":132.0,"so2":2.1,"mosquito_risk":3,"arthritis_risk":10,"migraine_risk":7,"frizz_risk":1,"updated_at":"2026-06-01T18:10:29.066764+05:30"},{"city":"Siliguri","state":"West Bengal","latitude":26.7271,"longitude":88.3953,"temp":30.6,"humidity":71,"rain":0.0,"pressure":990.8,"uv_index":8.75,"wind_gusts":25.9,"aqi":142,"pm10":47.8,"pm2_5":36.0,"no2":7.0,"co":732.0,"o3":144.0,"so2":5.2,"mosquito_risk":3,"arthritis_risk":5,"migraine_risk":7,"frizz_risk":1,"updated_at":"2026-06-01T18:10:32.311882+05:30"},{"city":"Durgapur","state":"West Bengal","latitude":23.5204,"longitude":87.3119,"temp":30.8,"humidity":73,"rain":0.0,"pressure":992.7,"uv_index":8.95,"wind_gusts":34.6,"aqi":176,"pm10":75.7,"pm2_5":67.3,"no2":31.5,"co":488.0,"o3":152.0,"so2":68.5,"mosquito_risk":3,"arthritis_risk":5,"migraine_risk":7,"frizz_risk":1,"updated_at":"2026-06-01T18:10:32.311918+05:30"},{"city":"Asansol","state":"West Bengal","latitude":23.6739,"longitude":86.9524,"temp":31.0,"humidity":69,"rain":0.0,"pressure":991.4,"uv_index":9.0,"wind_gusts":32.4,"aqi":182,"pm10":77.8,"pm2_5":69.2,"no2":29.6,"co":727.0,"o3":164.0,"so2":62.8,"mosquito_risk":3,"arthritis_risk":5,"migraine_risk":7,"frizz_risk":1,"updated_at":"2026-06-01T18:10:32.311929+05:30"},{"city":"Pondicherry","state":"Puducherry","latitude":11.9139,"longitude":79.8145,"temp":30.4,"humidity":75,"rain":0.0,"pressure":1006.0,"uv_index":8.85,"wind_gusts":39.6,"aqi":137,"pm10":36.7,"pm2_5":27.9,"no2":15.8,"co":199.0,"o3":135.0,"so2":5.5,"mosquito_risk":3,"arthritis_risk":5,"migraine_risk":4,"frizz_risk":1,"updated_at":"2026-06-01T18:10:32.311938+05:30"},{"city":"Port Blair","state":"Andaman and Nicobar Islands","latitude":11.6234,"longitude":92.7265,"temp":26.9,"humidity":88,"rain":0.0,"pressure":1006.7,"uv_index":8.85,"wind_gusts":37.1,"aqi":34,"pm10":9.9,"pm2_5":5.4,"no2":0.6,"co":133.0,"o3":66.0,"so2":0.5,"mosquito_risk":7,"arthritis_risk":5,"migraine_risk":4,"frizz_risk":1,"updated_at":"2026-06-01T18:10:32.311947+05:30"},{"city":"Haridwar","state":"Uttarakhand","latitude":29.9457,"longitude":78.1642,"temp":27.8,"humidity":55,"rain":0.0,"pressure":973.2,"uv_index":7.55,"wind_gusts":23.4,"aqi":129,"pm10":39.1,"pm2_5":20.2,"no2":2.3,"co":238.0,"o3":151.0,"so2":3.7,"mosquito_risk":4,"arthritis_risk":5,"migraine_risk":7,"frizz_risk":1,"updated_at":"2026-06-01T18:10:32.311955+05:30"},{"city":"Rishikesh","state":"Uttarakhand","latitude":30.0869,"longitude":78.2676,"temp":26.0,"humidity":58,"rain":0.0,"pressure":965.8,"uv_index":7.55,"wind_gusts":25.2,"aqi":120,"pm10":32.5,"pm2_5":17.9,"no2":1.6,"co":268.0,"o3":151.0,"so2":2.9,"mosquito_risk":4,"arthritis_risk":5,"migraine_risk":7,"frizz_risk":1,"updated_at":"2026-06-01T18:10:32.311962+05:30"},{"city":"Nainital","state":"Uttarakhand","latitude":29.3919,"longitude":79.4542,"temp":16.9,"humidity":67,"rain":0.0,"pressure":805.7,"uv_index":6.9,"wind_gusts":42.1,"aqi":107,"pm10":30.9,"pm2_5":16.9,"no2":1.9,"co":221.0,"o3":137.0,"so2":1.5,"mosquito_risk":3,"arthritis_risk":5,"migraine_risk":7,"frizz_risk":0,"updated_at":"2026-06-01T18:10:32.311969+05:30"},{"city":"Mussoorie","state":"Uttarakhand","latitude":30.4599,"longitude":78.0664,"temp":16.3,"humidity":75,"rain":0.0,"pressure":803.4,"uv_index":8.0,"wind_gusts":34.9,"aqi":138,"pm10":24.1,"pm2_5":15.7,"no2":3.5,"co":254.0,"o3":154.0,"so2":3.6,"mosquito_risk":3,"arthritis_risk":5,"migraine_risk":7,"frizz_risk":0,"updated_at":"2026-06-01T18:10:32.311977+05:30"},{"city":"Dharamshala","state":"Himachal Pradesh","latitude":32.219,"longitude":76.3234,"temp":23.3,"humidity":53,"rain":0.0,"pressure":870.5,"uv_index":8.35,"wind_gusts":40.0,"aqi":98,"pm10":12.5,"pm2_5":7.9,"no2":2.5,"co":220.0,"o3":130.0,"so2":0.6,"mosquito_risk":0,"arthritis_risk":5,"migraine_risk":7,"frizz_risk":0,"updated_at":"2026-06-01T18:10:32.311984+05:30"},{"city":"Dalhousie","state":"Himachal Pradesh","latitude":32.5387,"longitude":75.971,"temp":19.4,"humidity":60,"rain":0.0,"pressure":807.2,"uv_index":8.3,"wind_gusts":35.3,"aqi":129,"pm10":21.7,"pm2_5":11.0,"no2":3.4,"co":264.0,"o3":150.0,"so2":1.1,"mosquito_risk":0,"arthritis_risk":5,"migraine_risk":7,"frizz_risk":0,"updated_at":"2026-06-01T18:10:32.311991+05:30"},{"city":"Patiala","state":"Punjab","latitude":30.3398,"longitude":76.3869,"temp":31.1,"humidity":45,"rain":0.0,"pressure":977.0,"uv_index":7.45,"wind_gusts":25.6,"aqi":182,"pm10":211.9,"pm2_5":38.3,"no2":2.7,"co":265.0,"o3":163.0,"so2":8.3,"mosquito_risk":0,"arthritis_risk":5,"migraine_risk":7,"frizz_risk":1,"updated_at":"2026-06-01T18:10:32.311999+05:30"},{"city":"Bhatinda","state":"Punjab","latitude":30.211,"longitude":74.9455,"temp":34.5,"humidity":33,"rain":0.0,"pressure":981.9,"uv_index":8.3,"wind_gusts":33.8,"aqi":406,"pm10":315.7,"pm2_5":58.7,"no2":4.1,"co":245.0,"o3":167.0,"so2":13.6,"mosquito_risk":0,"arthritis_risk":5,"migraine_risk":7,"frizz_risk":0,"updated_at":"2026-06-01T18:10:32.312005+05:30"},{"city":"Rohtak","state":"Haryana","latitude":28.8955,"longitude":76.6066,"temp":32.5,"humidity":37,"rain":0.0,"pressure":980.0,"uv_index":7.1,"wind_gusts":33.5,"aqi":279,"pm10":244.9,"pm2_5":54.2,"no2":6.3,"co":281.0,"o3":201.0,"so2":16.6,"mosquito_risk":0,"arthritis_risk":5,"migraine_risk":7,"frizz_risk":0,"updated_at":"2026-06-01T18:10:32.312013+05:30"},{"city":"Panipat","state":"Haryana","latitude":29.3909,"longitude":76.9635,"temp":31.1,"humidity":44,"rain":0.0,"pressure":979.1,"uv_index":7.3,"wind_gusts":37.4,"aqi":579,"pm10":571.8,"pm2_5":79.4,"no2":5.6,"co":272.0,"o3":169.0,"so2":14.5,"mosquito_risk":0,"arthritis_risk":5,"migraine_risk":7,"frizz_risk":1,"updated_at":"2026-06-01T18:10:32.312020+05:30"},{"city":"Mathura","state":"Uttar Pradesh","latitude":27.4924,"longitude":77.6737,"temp":32.3,"humidity":48,"rain":0.0,"pressure":984.6,"uv_index":8.0,"wind_gusts":28.8,"aqi":240,"pm10":267.3,"pm2_5":55.1,"no2":3.7,"co":269.0,"o3":149.0,"so2":4.4,"mosquito_risk":0,"arthritis_risk":5,"migraine_risk":7,"frizz_risk":1,"updated_at":"2026-06-01T18:10:32.312028+05:30"},{"city":"Vrindavan","state":"Uttar Pradesh","latitude":27.5823,"longitude":77.7027,"temp":32.7,"humidity":45,"rain":0.0,"pressure":985.1,"uv_index":7.95,"wind_gusts":28.1,"aqi":240,"pm10":267.3,"pm2_5":55.1,"no2":3.7,"co":248.0,"o3":149.0,"so2":4.4,"mosquito_risk":0,"arthritis_risk":5,"migraine_risk":7,"frizz_risk":1,"updated_at":"2026-06-01T18:10:32.312036+05:30"},{"city":"Ayodhya","state":"Uttar Pradesh","latitude":26.7922,"longitude":82.1998,"temp":32.0,"humidity":56,"rain":0.0,"pressure":993.8,"uv_index":8.35,"wind_gusts":38.9,"aqi":135,"pm10":47.0,"pm2_5":24.6,"no2":2.9,"co":321.0,"o3":147.0,"so2":3.4,"mosquito_risk":0,"arthritis_risk":5,"migraine_risk":7,"frizz_risk":1,"updated_at":"2026-06-01T18:10:32.312043+05:30"},{"city":"Ratlam","state":"Madhya Pradesh","latitude":23.3315,"longitude":75.0367,"temp":32.1,"humidity":46,"rain":0.0,"pressure":953.1,"uv_index":8.45,"wind_gusts":40.7,"aqi":71,"pm10":49.0,"pm2_5":22.4,"no2":0.8,"co":134.0,"o3":108.0,"so2":4.1,"mosquito_risk":0,"arthritis_risk":5,"migraine_risk":7,"frizz_risk":1,"updated_at":"2026-06-01T18:10:32.312051+05:30"},{"city":"Sagar","state":"Madhya Pradesh","latitude":23.8388,"longitude":78.7378,"temp":33.3,"humidity":32,"rain":0.0,"pressure":948.4,"uv_index":8.15,"wind_gusts":46.1,"aqi":81,"pm10":66.4,"pm2_5":21.7,"no2":0.9,"co":150.0,"o3":111.0,"so2":1.9,"mosquito_risk":0,"arthritis_risk":5,"migraine_risk":7,"frizz_risk":0,"updated_at":"2026-06-01T18:10:32.312058+05:30"},{"city":"Satna","state":"Madhya Pradesh","latitude":24.6005,"longitude":80.8322,"temp":34.8,"humidity":40,"rain":0.0,"pressure":970.0,"uv_index":8.75,"wind_gusts":22.3,"aqi":124,"pm10":32.5,"pm2_5":25.5,"no2":2.8,"co":177.0,"o3":146.0,"so2":3.7,"mosquito_risk":0,"arthritis_risk":5,"migraine_risk":7,"frizz_risk":1,"updated_at":"2026-06-01T18:10:32.312065+05:30"},{"city":"Akola","state":"Maharashtra","latitude":20.7002,"longitude":77.0082,"temp":34.8,"humidity":34,"rain":0.0,"pressure":971.8,"uv_index":8.75,"wind_gusts":42.1,"aqi":63,"pm10":47.5,"pm2_5":20.2,"no2":2.2,"co":156.0,"o3":117.0,"so2":5.4,"mosquito_risk":0,"arthritis_risk":5,"migraine_risk":7,"frizz_risk":1,"updated_at":"2026-06-01T18:10:32.312073+05:30"},{"city":"Amravati","state":"Maharashtra","latitude":20.9374,"longitude":77.7796,"temp":33.5,"humidity":38,"rain":0.1,"pressure":965.6,"uv_index":8.8,"wind_gusts":43.9,"aqi":72,"pm10":47.7,"pm2_5":21.1,"no2":2.7,"co":213.0,"o3":122.0,"so2":6.7,"mosquito_risk":3,"arthritis_risk":5,"migraine_risk":7,"frizz_risk":1,"updated_at":"2026-06-01T18:10:32.312082+05:30"},{"city":"Latur","state":"Maharashtra","latitude":18.4088,"longitude":76.5604,"temp":35.8,"humidity":35,"rain":0.0,"pressure":939.5,"uv_index":8.95,"wind_gusts":39.2,"aqi":64,"pm10":34.7,"pm2_5":14.5,"no2":1.6,"co":141.0,"o3":120.0,"so2":2.8,"mosquito_risk":0,"arthritis_risk":5,"migraine_risk":10,"frizz_risk":1,"updated_at":"2026-06-01T18:10:32.312090+05:30"},{"city":"Nanded","state":"Maharashtra","latitude":19.1383,"longitude":77.3091,"temp":37.3,"humidity":36,"rain":0.0,"pressure":966.7,"uv_index":8.85,"wind_gusts":35.6,"aqi":61,"pm10":47.5,"pm2_5":19.8,"no2":1.7,"co":160.0,"o3":117.0,"so2":2.6,"mosquito_risk":0,"arthritis_risk":5,"migraine_risk":10,"frizz_risk":1,"updated_at":"2026-06-01T18:10:32.312098+05:30"},{"city":"Gulbarga","state":"Karnataka","latitude":17.3297,"longitude":76.8343,"temp":36.2,"humidity":29,"rain":0.0,"pressure":957.0,"uv_index":8.85,"wind_gusts":34.6,"aqi":95,"pm10":32.2,"pm2_5":14.7,"no2":2.9,"co":290.0,"o3":141.0,"so2":4.3,"mosquito_risk":0,"arthritis_risk":5,"migraine_risk":10,"frizz_risk":0,"updated_at":"2026-06-01T18:10:32.312105+05:30"},{"city":"Bidar","state":"Karnataka","latitude":17.9104,"longitude":77.5199,"temp":33.7,"humidity":36,"rain":0.0,"pressure":934.1,"uv_index":9.0,"wind_gusts":35.6,"aqi":70,"pm10":31.0,"pm2_5":14.5,"no2":2.5,"co":166.0,"o3":122.0,"so2":2.4,"mosquito_risk":0,"arthritis_risk":5,"migraine_risk":7,"frizz_risk":1,"updated_at":"2026-06-01T18:10:32.312112+05:30"},{"city":"Hospet","state":"Karnataka","latitude":15.2689,"longitude":76.3909,"temp":32.5,"humidity":48,"rain":0.0,"pressure":954.2,"uv_index":8.95,"wind_gusts":40.7,"aqi":51,"pm10":51.1,"pm2_5":19.0,"no2":3.4,"co":212.0,"o3":117.0,"so2":4.4,"mosquito_risk":0,"arthritis_risk":5,"migraine_risk":7,"frizz_risk":1,"updated_at":"2026-06-01T18:10:32.312120+05:30"},{"city":"Tirupur","state":"Tamil Nadu","latitude":11.1085,"longitude":77.3411,"temp":30.5,"humidity":58,"rain":0.0,"pressure":974.1,"uv_index":8.75,"wind_gusts":46.8,"aqi":117,"pm10":15.8,"pm2_5":12.1,"no2":6.0,"co":213.0,"o3":126.0,"so2":3.4,"mosquito_risk":0,"arthritis_risk":5,"migraine_risk":7,"frizz_risk":1,"updated_at":"2026-06-01T18:10:32.312129+05:30"},{"city":"Alappuzha","state":"Kerala","latitude":9.4981,"longitude":76.3388,"temp":26.6,"humidity":93,"rain":0.1,"pressure":1009.0,"uv_index":7.1,"wind_gusts":33.1,"aqi":39,"pm10":10.0,"pm2_5":6.8,"no2":5.3,"co":108.0,"o3":60.0,"so2":1.2,"mosquito_risk":10,"arthritis_risk":0,"migraine_risk":4,"frizz_risk":1,"updated_at":"2026-06-01T18:10:32.312137+05:30"},{"city":"Munnar","state":"Kerala","latitude":10.0889,"longitude":77.0595,"temp":18.9,"humidity":98,"rain":0.0,"pressure":857.0,"uv_index":8.35,"wind_gusts":28.8,"aqi":47,"pm10":17.9,"pm2_5":11.1,"no2":5.6,"co":164.0,"o3":82.0,"so2":1.5,"mosquito_risk":3,"arthritis_risk":10,"migraine_risk":7,"frizz_risk":1,"updated_at":"2026-06-01T18:10:32.312144+05:30"},{"city":"Silchar","state":"Assam","latitude":24.8333,"longitude":92.7789,"temp":29.3,"humidity":82,"rain":0.0,"pressure":1003.1,"uv_index":8.9,"wind_gusts":23.0,"aqi":83,"pm10":29.6,"pm2_5":22.8,"no2":4.2,"co":346.0,"o3":117.0,"so2":5.1,"mosquito_risk":7,"arthritis_risk":5,"migraine_risk":4,"frizz_risk":1,"updated_at":"2026-06-01T18:10:32.312152+05:30"},{"city":"Dibrugarh","state":"Assam","latitude":27.4728,"longitude":94.912,"temp":29.9,"humidity":79,"rain":0.0,"pressure":993.1,"uv_index":8.8,"wind_gusts":16.6,"aqi":73,"pm10":14.1,"pm2_5":13.4,"no2":5.5,"co":262.0,"o3":90.0,"so2":1.5,"mosquito_risk":7,"arthritis_risk":5,"migraine_risk":7,"frizz_risk":1,"updated_at":"2026-06-01T18:10:32.312159+05:30"}]