[{"city":"Delhi","state":"Delhi","latitude":28.6139,"longitude":77.209,"temp":30.0,"humidity":35,"rain":0.0,"pressure":980.3,"uv_index":7.3,"wind_gusts":37.1,"aqi":445,"pm10":702.2,"pm2_5":114.6,"mosquito_risk":4,"arthritis_risk":5,"migraine_risk":7,"frizz_risk":0,"updated_at":"2026-04-21T22:36:30.954853+05:30"},{"city":"Mumbai","state":"Maharashtra","latitude":19.076,"longitude":72.8777,"temp":29.8,"humidity":71,"rain":0.0,"pressure":1007.4,"uv_index":7.3,"wind_gusts":23.4,"aqi":122,"pm10":43.7,"pm2_5":24.3,"mosquito_risk":7,"arthritis_risk":5,"migraine_risk":4,"frizz_risk":1,"updated_at":"2026-04-21T22:36:30.954885+05:30"},{"city":"Bangalore","state":"Karnataka","latitude":12.9716,"longitude":77.5946,"temp":27.3,"humidity":42,"rain":0.0,"pressure":912.0,"uv_index":9.6,"wind_gusts":28.4,"aqi":94,"pm10":17.4,"pm2_5":15.9,"mosquito_risk":4,"arthritis_risk":5,"migraine_risk":7,"frizz_risk":0,"updated_at":"2026-04-21T22:36:30.954899+05:30"},{"city":"Hyderabad","state":"Telangana","latitude":17.385,"longitude":78.4867,"temp":29.1,"humidity":68,"rain":0.0,"pressure":953.3,"uv_index":9.2,"wind_gusts":25.2,"aqi":144,"pm10":50.9,"pm2_5":47.5,"mosquito_risk":7,"arthritis_risk":5,"migraine_risk":7,"frizz_risk":1,"updated_at":"2026-04-21T22:36:30.954908+05:30"},{"city":"Chennai","state":"Tamil Nadu","latitude":13.0827,"longitude":80.2707,"temp":29.4,"humidity":82,"rain":0.0,"pressure":1007.6,"uv_index":9.3,"wind_gusts":36.0,"aqi":42,"pm10":10.6,"pm2_5":7.7,"mosquito_risk":7,"arthritis_risk":5,"migraine_risk":4,"frizz_risk":1,"updated_at":"2026-04-21T22:36:30.954915+05:30"},{"city":"Kolkata","state":"West Bengal","latitude":22.5726,"longitude":88.3639,"temp":28.4,"humidity":87,"rain":0.0,"pressure":1003.4,"uv_index":8.9,"wind_gusts":32.0,"aqi":83,"pm10":25.7,"pm2_5":23.2,"mosquito_risk":7,"arthritis_risk":5,"migraine_risk":4,"frizz_risk":1,"updated_at":"2026-04-21T22:36:30.954926+05:30"},{"city":"Pune","state":"Maharashtra","latitude":18.5204,"longitude":73.8567,"temp":28.5,"humidity":65,"rain":0.0,"pressure":948.4,"uv_index":8.35,"wind_gusts":36.7,"aqi":162,"pm10":42.5,"pm2_5":38.1,"mosquito_risk":7,"arthritis_risk":5,"migraine_risk":7,"frizz_risk":1,"updated_at":"2026-04-21T22:36:30.954933+05:30"},{"city":"Ahmedabad","state":"Gujarat","latitude":23.0225,"longitude":72.5714,"temp":31.0,"humidity":32,"rain":0.0,"pressure":1001.6,"uv_index":8.15,"wind_gusts":27.0,"aqi":52,"pm10":16.4,"pm2_5":11.2,"mosquito_risk":0,"arthritis_risk":5,"migraine_risk":4,"frizz_risk":0,"updated_at":"2026-04-21T22:36:30.954938+05:30"},{"city":"Jaipur","state":"Rajasthan","latitude":26.9124,"longitude":75.7873,"temp":31.9,"humidity":21,"rain":0.0,"pressure":958.4,"uv_index":7.95,"wind_gusts":33.8,"aqi":127,"pm10":122.9,"pm2_5":31.8,"mosquito_risk":0,"arthritis_risk":5,"migraine_risk":7,"frizz_risk":0,"updated_at":"2026-04-21T22:36:30.954944+05:30"},{"city":"Lucknow","state":"Uttar Pradesh","latitude":26.8467,"longitude":80.9462,"temp":30.5,"humidity":33,"rain":0.0,"pressure":990.3,"uv_index":7.85,"wind_gusts":48.6,"aqi":123,"pm10":482.4,"pm2_5":85.2,"mosquito_risk":0,"arthritis_risk":5,"migraine_risk":7,"frizz_risk":0,"updated_at":"2026-04-21T22:36:30.954950+05:30"},{"city":"Kanpur","state":"Uttar Pradesh","latitude":26.4499,"longitude":80.3319,"temp":28.3,"humidity":45,"rain":0.0,"pressure":988.8,"uv_index":7.85,"wind_gusts":40.3,"aqi":338,"pm10":622.1,"pm2_5":96.4,"mosquito_risk":4,"arthritis_risk":5,"migraine_risk":7,"frizz_risk":0,"updated_at":"2026-04-21T22:36:30.954956+05:30"},{"city":"Chandigarh","state":"Chandigarh","latitude":30.7333,"longitude":76.7794,"temp":25.2,"humidity":42,"rain":0.0,"pressure":966.2,"uv_index":7.25,"wind_gusts":34.2,"aqi":101,"pm10":28.7,"pm2_5":21.7,"mosquito_risk":4,"arthritis_risk":5,"migraine_risk":7,"frizz_risk":0,"updated_at":"2026-04-21T22:36:30.954963+05:30"},{"city":"Srinagar","state":"Jammu and Kashmir","latitude":34.0837,"longitude":74.7973,"temp":12.4,"humidity":76,"rain":0.0,"pressure":839.1,"uv_index":8.45,"wind_gusts":15.1,"aqi":78,"pm10":58.4,"pm2_5":45.9,"mosquito_risk":3,"arthritis_risk":5,"migraine_risk":7,"frizz_risk":0,"updated_at":"2026-04-21T22:36:30.954972+05:30"},{"city":"Jammu","state":"Jammu and Kashmir","latitude":32.7266,"longitude":74.857,"temp":27.7,"humidity":47,"rain":0.0,"pressure":970.3,"uv_index":8.0,"wind_gusts":29.9,"aqi":64,"pm10":45.5,"pm2_5":35.2,"mosquito_risk":4,"arthritis_risk":5,"migraine_risk":7,"frizz_risk":0,"updated_at":"2026-04-21T22:36:30.954978+05:30"},{"city":"Amritsar","state":"Punjab","latitude":31.634,"longitude":74.8723,"temp":27.6,"humidity":42,"rain":0.0,"pressure":978.4,"uv_index":7.95,"wind_gusts":31.3,"aqi":86,"pm10":38.3,"pm2_5":30.4,"mosquito_risk":4,"arthritis_risk":5,"migraine_risk":7,"frizz_risk":0,"updated_at":"2026-04-21T22:36:30.954983+05:30"},{"city":"Ludhiana","state":"Punjab","latitude":30.901,"longitude":75.8573,"temp":28.8,"humidity":28,"rain":0.0,"pressure":976.3,"uv_index":7.5,"wind_gusts":31.0,"aqi":93,"pm10":46.3,"pm2_5":29.7,"mosquito_risk":4,"arthritis_risk":5,"migraine_risk":7,"frizz_risk":0,"updated_at":"2026-04-21T22:36:30.954991+05:30"},{"city":"Jalandhar","state":"Punjab","latitude":31.326,"longitude":75.5762,"temp":27.5,"humidity":34,"rain":0.0,"pressure":977.4,"uv_index":7.7,"wind_gusts":32.0,"aqi":99,"pm10":43.5,"pm2_5":31.1,"mosquito_risk":4,"arthritis_risk":5,"migraine_risk":7,"frizz_risk":0,"updated_at":"2026-04-21T22:36:30.954996+05:30"},{"city":"Dehradun","state":"Uttarakhand","latitude":30.6284,"longitude":78.0322,"temp":17.1,"humidity":62,"rain":0.0,"pressure":829.5,"uv_index":7.7,"wind_gusts":41.0,"aqi":102,"pm10":27.9,"pm2_5":17.9,"mosquito_risk":3,"arthritis_risk":5,"migraine_risk":7,"frizz_risk":0,"updated_at":"2026-04-21T22:36:30.955002+05:30"},{"city":"Shimla","state":"Himachal Pradesh","latitude":31.1048,"longitude":77.1734,"temp":16.1,"humidity":42,"rain":0.0,"pressure":784.5,"uv_index":7.75,"wind_gusts":48.2,"aqi":95,"pm10":31.4,"pm2_5":15.3,"mosquito_risk":0,"arthritis_risk":5,"migraine_risk":7,"frizz_risk":0,"updated_at":"2026-04-21T22:36:30.955008+05:30"},{"city":"Manali","state":"Himachal Pradesh","latitude":32.2396,"longitude":77.1887,"temp":17.7,"humidity":68,"rain":0.0,"pressure":821.2,"uv_index":9.9,"wind_gusts":34.6,"aqi":98,"pm10":31.1,"pm2_5":12.8,"mosquito_risk":3,"arthritis_risk":5,"migraine_risk":7,"frizz_risk":0,"updated_at":"2026-04-21T22:36:30.955014+05:30"},{"city":"Gurgaon","state":"Haryana","latitude":28.4595,"longitude":77.0266,"temp":27.8,"humidity":41,"rain":0.0,"pressure":978.6,"uv_index":7.4,"wind_gusts":35.3,"aqi":1271,"pm10":705.9,"pm2_5":113.2,"mosquito_risk":4,"arthritis_risk":5,"migraine_risk":7,"frizz_risk":0,"updated_at":"2026-04-21T22:36:30.955019+05:30"},{"city":"Noida","state":"Uttar Pradesh","latitude":28.5355,"longitude":77.391,"temp":29.8,"humidity":36,"rain":0.0,"pressure":981.8,"uv_index":7.3,"wind_gusts":36.7,"aqi":1271,"pm10":705.9,"pm2_5":113.2,"mosquito_risk":4,"arthritis_risk":5,"migraine_risk":7,"frizz_risk":0,"updated_at":"2026-04-21T22:36:30.955025+05:30"},{"city":"Ghaziabad","state":"Uttar Pradesh","latitude":28.6692,"longitude":77.4538,"temp":28.8,"humidity":42,"rain":0.0,"pressure":980.1,"uv_index":7.3,"wind_gusts":37.1,"aqi":327,"pm10":642.6,"pm2_5":104.5,"mosquito_risk":4,"arthritis_risk":5,"migraine_risk":7,"frizz_risk":0,"updated_at":"2026-04-21T22:36:30.955030+05:30"},{"city":"Faridabad","state":"Haryana","latitude":28.4089,"longitude":77.3178,"temp":31.0,"humidity":30,"rain":0.0,"pressure":981.3,"uv_index":7.35,"wind_gusts":34.2,"aqi":1271,"pm10":705.9,"pm2_5":113.2,"mosquito_risk":0,"arthritis_risk":5,"migraine_risk":7,"frizz_risk":0,"updated_at":"2026-04-21T22:36:30.955037+05:30"},{"city":"Meerut","state":"Uttar Pradesh","latitude":28.9845,"longitude":77.7064,"temp":28.0,"humidity":44,"rain":0.0,"pressure":978.8,"uv_index":7.2,"wind_gusts":38.9,"aqi":327,"pm10":642.6,"pm2_5":104.5,"mosquito_risk":4,"arthritis_risk":5,"migraine_risk":7,"frizz_risk":0,"updated_at":"2026-04-21T22:36:30.955043+05:30"},{"city":"Agra","state":"Uttar Pradesh","latitude":27.1767,"longitude":78.0081,"temp":27.8,"humidity":50,"rain":0.0,"pressure":985.2,"uv_index":7.7,"wind_gusts":30.2,"aqi":851,"pm10":983.5,"pm2_5":140.6,"mosquito_risk":4,"arthritis_risk":5,"migraine_risk":7,"frizz_risk":1,"updated_at":"2026-04-21T22:36:30.955050+05:30"},{"city":"Varanasi","state":"Uttar Pradesh","latitude":25.3176,"longitude":82.9739,"temp":30.2,"humidity":30,"rain":0.0,"pressure":994.8,"uv_index":8.55,"wind_gusts":40.7,"aqi":101,"pm10":85.0,"pm2_5":36.0,"mosquito_risk":0,"arthritis_risk":5,"migraine_risk":7,"frizz_risk":0,"updated_at":"2026-04-21T22:36:30.955058+05:30"},{"city":"Prayagraj","state":"Uttar Pradesh","latitude":25.4358,"longitude":81.8463,"temp":32.1,"humidity":33,"rain":0.0,"pressure":993.2,"uv_index":8.35,"wind_gusts":33.1,"aqi":102,"pm10":125.7,"pm2_5":36.1,"mosquito_risk":0,"arthritis_risk":5,"migraine_risk":7,"frizz_risk":0,"updated_at":"2026-04-21T22:36:30.955064+05:30"},{"city":"Gorakhpur","state":"Uttar Pradesh","latitude":26.7606,"longitude":83.3732,"temp":29.1,"humidity":27,"rain":0.0,"pressure":993.9,"uv_index":8.3,"wind_gusts":47.9,"aqi":105,"pm10":129.5,"pm2_5":32.0,"mosquito_risk":4,"arthritis_risk":5,"migraine_risk":7,"frizz_risk":0,"updated_at":"2026-04-21T22:36:30.955070+05:30"},{"city":"Bareilly","state":"Uttar Pradesh","latitude":28.367,"longitude":79.4304,"temp":26.6,"humidity":46,"rain":0.0,"pressure":983.9,"uv_index":7.6,"wind_gusts":42.1,"aqi":104,"pm10":190.5,"pm2_5":44.2,"mosquito_risk":4,"arthritis_risk":5,"migraine_risk":7,"frizz_risk":0,"updated_at":"2026-04-21T22:36:30.955076+05:30"},{"city":"Aligarh","state":"Uttar Pradesh","latitude":27.8974,"longitude":78.088,"temp":28.2,"humidity":38,"rain":0.0,"pressure":982.8,"uv_index":7.45,"wind_gusts":38.9,"aqi":847,"pm10":869.9,"pm2_5":129.0,"mosquito_risk":4,"arthritis_risk":5,"migraine_risk":7,"frizz_risk":0,"updated_at":"2026-04-21T22:36:30.955081+05:30"},{"city":"Moradabad","state":"Uttar Pradesh","latitude":28.8386,"longitude":78.7733,"temp":26.1,"humidity":42,"rain":0.0,"pressure":980.9,"uv_index":7.4,"wind_gusts":38.5,"aqi":110,"pm10":238.4,"pm2_5":61.2,"mosquito_risk":4,"arthritis_risk":5,"migraine_risk":7,"frizz_risk":0,"updated_at":"2026-04-21T22:36:30.955087+05:30"},{"city":"Saharanpur","state":"Uttar Pradesh","latitude":29.9637,"longitude":77.546,"temp":26.9,"humidity":41,"rain":0.0,"pressure":972.8,"uv_index":7.0,"wind_gusts":31.7,"aqi":89,"pm10":54.0,"pm2_5":27.2,"mosquito_risk":4,"arthritis_risk":5,"migraine_risk":7,"frizz_risk":0,"updated_at":"2026-04-21T22:36:30.955093+05:30"},{"city":"Jhansi","state":"Uttar Pradesh","latitude":25.4484,"longitude":78.5685,"temp":32.0,"humidity":28,"rain":0.0,"pressure":976.0,"uv_index":8.25,"wind_gusts":28.4,"aqi":123,"pm10":36.8,"pm2_5":15.8,"mosquito_risk":0,"arthritis_risk":5,"migraine_risk":7,"frizz_risk":0,"updated_at":"2026-04-21T22:36:34.283901+05:30"},{"city":"Surat","state":"Gujarat","latitude":21.1702,"longitude":72.8311,"temp":28.6,"humidity":73,"rain":0.0,"pressure":1006.0,"uv_index":7.85,"wind_gusts":27.4,"aqi":109,"pm10":47.5,"pm2_5":35.7,"mosquito_risk":7,"arthritis_risk":5,"migraine_risk":4,"frizz_risk":1,"updated_at":"2026-04-21T22:36:34.283927+05:30"},{"city":"Vadodara","state":"Gujarat","latitude":22.3072,"longitude":73.1812,"temp":31.3,"humidity":36,"rain":0.0,"pressure":1003.3,"uv_index":8.15,"wind_gusts":28.8,"aqi":85,"pm10":63.8,"pm2_5":53.1,"mosquito_risk":0,"arthritis_risk":5,"migraine_risk":4,"frizz_risk":0,"updated_at":"2026-04-21T22:36:34.283938+05:30"},{"city":"Rajkot","state":"Gujarat","latitude":22.3039,"longitude":70.8022,"temp":27.8,"humidity":33,"rain":0.0,"pressure":994.7,"uv_index":7.85,"wind_gusts":27.4,"aqi":75,"pm10":32.7,"pm2_5":16.5,"mosquito_risk":4,"arthritis_risk":5,"migraine_risk":7,"frizz_risk":0,"updated_at":"2026-04-21T22:36:34.283947+05:30"},{"city":"Thane","state":"Maharashtra","latitude":19.2183,"longitude":72.9781,"temp":28.7,"humidity":67,"rain":0.0,"pressure":1006.9,"uv_index":7.75,"wind_gusts":33.8,"aqi":122,"pm10":43.7,"pm2_5":24.3,"mosquito_risk":7,"arthritis_risk":5,"migraine_risk":4,"frizz_risk":1,"updated_at":"2026-04-21T22:36:34.283955+05:30"},{"city":"Nagpur","state":"Maharashtra","latitude":21.1458,"longitude":79.0882,"temp":31.8,"humidity":42,"rain":0.0,"pressure":972.0,"uv_index":8.95,"wind_gusts":28.1,"aqi":106,"pm10":25.4,"pm2_5":22.6,"mosquito_risk":0,"arthritis_risk":5,"migraine_risk":7,"frizz_risk":1,"updated_at":"2026-04-21T22:36:34.283963+05:30"},{"city":"Nashik","state":"Maharashtra","latitude":19.9975,"longitude":73.7898,"temp":27.9,"humidity":62,"rain":0.0,"pressure":945.8,"uv_index":8.15,"wind_gusts":39.2,"aqi":131,"pm10":32.8,"pm2_5":21.1,"mosquito_risk":7,"arthritis_risk":5,"migraine_risk":7,"frizz_risk":1,"updated_at":"2026-04-21T22:36:34.283971+05:30"},{"city":"Aurangabad","state":"Maharashtra","latitude":19.8762,"longitude":75.3433,"temp":30.9,"humidity":32,"rain":0.0,"pressure":943.9,"uv_index":8.2,"wind_gusts":35.3,"aqi":109,"pm10":34.5,"pm2_5":28.2,"mosquito_risk":0,"arthritis_risk":5,"migraine_risk":7,"frizz_risk":0,"updated_at":"2026-04-21T22:36:34.283980+05:30"},{"city":"Solapur","state":"Maharashtra","latitude":17.6599,"longitude":75.9064,"temp":29.8,"humidity":57,"rain":0.0,"pressure":956.5,"uv_index":9.0,"wind_gusts":20.5,"aqi":151,"pm10":55.6,"pm2_5":50.4,"mosquito_risk":4,"arthritis_risk":5,"migraine_risk":7,"frizz_risk":1,"updated_at":"2026-04-21T22:36:34.283988+05:30"},{"city":"Kolhapur","state":"Maharashtra","latitude":16.705,"longitude":74.2433,"temp":25.7,"humidity":85,"rain":0.0,"pressure":947.9,"uv_index":9.05,"wind_gusts":39.6,"aqi":121,"pm10":31.9,"pm2_5":27.3,"mosquito_risk":7,"arthritis_risk":5,"migraine_risk":7,"frizz_risk":1,"updated_at":"2026-04-21T22:36:34.283996+05:30"},{"city":"Goa","state":"Goa","latitude":15.2993,"longitude":74.124,"temp":28.5,"humidity":84,"rain":0.0,"pressure":997.6,"uv_index":9.05,"wind_gusts":26.3,"aqi":73,"pm10":34.0,"pm2_5":22.1,"mosquito_risk":7,"arthritis_risk":5,"migraine_risk":7,"frizz_risk":1,"updated_at":"2026-04-21T22:36:34.284004+05:30"},{"city":"Jodhpur","state":"Rajasthan","latitude":26.2389,"longitude":73.0243,"temp":31.5,"humidity":20,"rain":0.0,"pressure":981.8,"uv_index":8.1,"wind_gusts":31.0,"aqi":114,"pm10":157.9,"pm2_5":25.2,"mosquito_risk":0,"arthritis_risk":5,"migraine_risk":7,"frizz_risk":0,"updated_at":"2026-04-21T22:36:34.284013+05:30"},{"city":"Udaipur","state":"Rajasthan","latitude":24.5854,"longitude":73.7125,"temp":27.6,"humidity":22,"rain":0.0,"pressure":947.1,"uv_index":8.7,"wind_gusts":46.1,"aqi":74,"pm10":9.9,"pm2_5":7.0,"mosquito_risk":4,"arthritis_risk":5,"migraine_risk":7,"frizz_risk":0,"updated_at":"2026-04-21T22:36:34.284020+05:30"},{"city":"Kota","state":"Rajasthan","latitude":25.2138,"longitude":75.8648,"temp":31.3,"humidity":29,"rain":0.0,"pressure":977.2,"uv_index":8.2,"wind_gusts":31.3,"aqi":67,"pm10":36.0,"pm2_5":19.8,"mosquito_risk":0,"arthritis_risk":5,"migraine_risk":7,"frizz_risk":0,"updated_at":"2026-04-21T22:36:34.284028+05:30"},{"city":"Bikaner","state":"Rajasthan","latitude":28.0229,"longitude":73.3119,"temp":34.2,"humidity":22,"rain":0.0,"pressure":979.5,"uv_index":8.05,"wind_gusts":21.2,"aqi":77,"pm10":36.7,"pm2_5":15.1,"mosquito_risk":0,"arthritis_risk":5,"migraine_risk":7,"frizz_risk":0,"updated_at":"2026-04-21T22:36:34.284036+05:30"},{"city":"Ajmer","state":"Rajasthan","latitude":26.4499,"longitude":74.6399,"temp":29.0,"humidity":35,"rain":0.0,"pressure":953.5,"uv_index":8.15,"wind_gusts":34.6,"aqi":81,"pm10":101.5,"pm2_5":25.6,"mosquito_risk":4,"arthritis_risk":5,"migraine_risk":7,"frizz_risk":0,"updated_at":"2026-04-21T22:36:34.284043+05:30"},{"city":"Gwalior","state":"Madhya Pradesh","latitude":26.2183,"longitude":78.1828,"temp":30.7,"humidity":36,"rain":0.0,"pressure":980.9,"uv_index":7.95,"wind_gusts":32.4,"aqi":212,"pm10":29.9,"pm2_5":11.9,"mosquito_risk":0,"arthritis_risk":5,"migraine_risk":7,"frizz_risk":0,"updated_at":"2026-04-21T22:36:34.284048+05:30"},{"city":"Indore","state":"Madhya Pradesh","latitude":22.7196,"longitude":75.8577,"temp":27.9,"humidity":40,"rain":0.0,"pressure":948.2,"uv_index":8.6,"wind_gusts":39.2,"aqi":78,"pm10":21.3,"pm2_5":19.2,"mosquito_risk":4,"arthritis_risk":5,"migraine_risk":7,"frizz_risk":0,"updated_at":"2026-04-21T22:36:34.284054+05:30"},{"city":"Bhopal","state":"Madhya Pradesh","latitude":23.2599,"longitude":77.4126,"temp":29.3,"humidity":31,"rain":0.0,"pressure":953.3,"uv_index":8.65,"wind_gusts":35.6,"aqi":76,"pm10":18.5,"pm2_5":16.2,"mosquito_risk":4,"arthritis_risk":5,"migraine_risk":7,"frizz_risk":0,"updated_at":"2026-04-21T22:36:34.284060+05:30"},{"city":"Jabalpur","state":"Madhya Pradesh","latitude":23.1815,"longitude":79.9864,"temp":29.4,"humidity":41,"rain":0.0,"pressure":959.9,"uv_index":8.8,"wind_gusts":35.3,"aqi":86,"pm10":18.0,"pm2_5":16.4,"mosquito_risk":4,"arthritis_risk":5,"migraine_risk":7,"frizz_risk":0,"updated_at":"2026-04-21T22:36:34.284065+05:30"},{"city":"Ujjain","state":"Madhya Pradesh","latitude":23.1765,"longitude":75.7885,"temp":28.7,"humidity":37,"rain":0.0,"pressure":953.9,"uv_index":8.55,"wind_gusts":41.0,"aqi":78,"pm10":19.8,"pm2_5":18.0,"mosquito_risk":4,"arthritis_risk":5,"migraine_risk":7,"frizz_risk":0,"updated_at":"2026-04-21T22:36:34.284071+05:30"},{"city":"Visakhapatnam","state":"Andhra Pradesh","latitude":17.6868,"longitude":83.2185,"temp":28.0,"humidity":88,"rain":0.0,"pressure":1003.4,"uv_index":9.2,"wind_gusts":40.7,"aqi":58,"pm10":19.7,"pm2_5":15.1,"mosquito_risk":7,"arthritis_risk":5,"migraine_risk":4,"frizz_risk":1,"updated_at":"2026-04-21T22:36:34.284077+05:30"},{"city":"Vijayawada","state":"Andhra Pradesh","latitude":16.5062,"longitude":80.648,"temp":29.1,"humidity":75,"rain":0.0,"pressure":1002.7,"uv_index":9.05,"wind_gusts":30.2,"aqi":57,"pm10":13.8,"pm2_5":10.9,"mosquito_risk":7,"arthritis_risk":5,"migraine_risk":4,"frizz_risk":1,"updated_at":"2026-04-21T22:36:34.284083+05:30"},{"city":"Guntur","state":"Andhra Pradesh","latitude":16.3067,"longitude":80.4365,"temp":28.5,"humidity":85,"rain":0.0,"pressure":1004.1,"uv_index":9.1,"wind_gusts":32.4,"aqi":63,"pm10":15.4,"pm2_5":12.7,"mosquito_risk":7,"arthritis_risk":5,"migraine_risk":4,"frizz_risk":1,"updated_at":"2026-04-21T22:36:34.284089+05:30"},{"city":"Nellore","state":"Andhra Pradesh","latitude":14.4426,"longitude":79.9865,"temp":28.3,"humidity":85,"rain":0.0,"pressure":1005.8,"uv_index":9.3,"wind_gusts":37.8,"aqi":48,"pm10":9.3,"pm2_5":7.2,"mosquito_risk":7,"arthritis_risk":5,"migraine_risk":4,"frizz_risk":1,"updated_at":"2026-04-21T22:36:34.284096+05:30"},{"city":"Kurnool","state":"Andhra Pradesh","latitude":15.8281,"longitude":78.0373,"temp":30.5,"humidity":56,"rain":0.0,"pressure":977.0,"uv_index":9.25,"wind_gusts":51.5,"aqi":122,"pm10":45.4,"pm2_5":40.3,"mosquito_risk":0,"arthritis_risk":5,"migraine_risk":7,"frizz_risk":1,"updated_at":"2026-04-21T22:36:34.284102+05:30"},{"city":"Kakinada","state":"Andhra Pradesh","latitude":16.9891,"longitude":82.2475,"temp":28.4,"humidity":85,"rain":0.0,"pressure":1007.5,"uv_index":9.2,"wind_gusts":25.9,"aqi":46,"pm10":14.8,"pm2_5":9.7,"mosquito_risk":7,"arthritis_risk":5,"migraine_risk":4,"frizz_risk":1,"updated_at":"2026-04-21T22:36:34.284108+05:30"},{"city":"Tirupati","state":"Andhra Pradesh","latitude":13.6288,"longitude":79.4192,"temp":29.2,"humidity":61,"rain":0.0,"pressure":992.5,"uv_index":9.35,"wind_gusts":33.5,"aqi":68,"pm10":14.0,"pm2_5":13.5,"mosquito_risk":7,"arthritis_risk":5,"migraine_risk":7,"frizz_risk":1,"updated_at":"2026-04-21T22:36:34.284114+05:30"},{"city":"Warangal","state":"Telangana","latitude":17.9689,"longitude":79.5941,"temp":30.5,"humidity":65,"rain":0.0,"pressure":978.2,"uv_index":9.15,"wind_gusts":30.2,"aqi":111,"pm10":55.2,"pm2_5":52.2,"mosquito_risk":3,"arthritis_risk":5,"migraine_risk":7,"frizz_risk":1,"updated_at":"2026-04-21T22:36:34.284120+05:30"},{"city":"Nizamabad","state":"Telangana","latitude":18.6725,"longitude":78.0941,"temp":31.1,"humidity":45,"rain":0.0,"pressure":964.0,"uv_index":9.1,"wind_gusts":23.4,"aqi":106,"pm10":48.2,"pm2_5":44.9,"mosquito_risk":0,"arthritis_risk":5,"migraine_risk":7,"frizz_risk":1,"updated_at":"2026-04-21T22:36:34.284125+05:30"},{"city":"Mysore","state":"Karnataka","latitude":12.2958,"longitude":76.6396,"temp":25.5,"humidity":78,"rain":0.0,"pressure":928.8,"uv_index":9.5,"wind_gusts":39.6,"aqi":88,"pm10":34.3,"pm2_5":31.9,"mosquito_risk":7,"arthritis_risk":5,"migraine_risk":7,"frizz_risk":1,"updated_at":"2026-04-21T22:36:34.284131+05:30"},{"city":"Mangalore","state":"Karnataka","latitude":12.9141,"longitude":74.856,"temp":29.9,"humidity":84,"rain":0.0,"pressure":1006.3,"uv_index":9.1,"wind_gusts":24.8,"aqi":85,"pm10":37.6,"pm2_5":30.3,"mosquito_risk":7,"arthritis_risk":5,"migraine_risk":4,"frizz_risk":1,"updated_at":"2026-04-21T22:36:34.284136+05:30"},{"city":"Hubli-Dharwad","state":"Karnataka","latitude":15.3647,"longitude":75.124,"temp":25.6,"humidity":69,"rain":0.0,"pressure":940.6,"uv_index":9.25,"wind_gusts":29.5,"aqi":139,"pm10":37.7,"pm2_5":34.1,"mosquito_risk":7,"arthritis_risk":5,"migraine_risk":7,"frizz_risk":1,"updated_at":"2026-04-21T22:36:34.284142+05:30"},{"city":"Belgaum","state":"Karnataka","latitude":15.8497,"longitude":74.4977,"temp":24.6,"humidity":92,"rain":0.0,"pressure":925.8,"uv_index":9.25,"wind_gusts":29.9,"aqi":98,"pm10":36.1,"pm2_5":31.2,"mosquito_risk":3,"arthritis_risk":5,"migraine_risk":7,"frizz_risk":1,"updated_at":"2026-04-21T22:36:37.612619+05:30"},{"city":"Coimbatore","state":"Tamil Nadu","latitude":11.0168,"longitude":76.9558,"temp":26.8,"humidity":80,"rain":0.0,"pressure":962.4,"uv_index":9.4,"wind_gusts":50.8,"aqi":85,"pm10":34.1,"pm2_5":31.3,"mosquito_risk":7,"arthritis_risk":5,"migraine_risk":7,"frizz_risk":1,"updated_at":"2026-04-21T22:36:37.612681+05:30"},{"city":"Madurai","state":"Tamil Nadu","latitude":9.9252,"longitude":78.1198,"temp":27.9,"humidity":78,"rain":0.0,"pressure":994.4,"uv_index":9.15,"wind_gusts":41.8,"aqi":67,"pm10":13.6,"pm2_5":12.7,"mosquito_risk":7,"arthritis_risk":5,"migraine_risk":7,"frizz_risk":1,"updated_at":"2026-04-21T22:36:37.612693+05:30"},{"city":"Trichy","state":"Tamil Nadu","latitude":10.7905,"longitude":78.7047,"temp":29.5,"humidity":79,"rain":0.0,"pressure":1000.5,"uv_index":9.3,"wind_gusts":28.1,"aqi":48,"pm10":12.3,"pm2_5":12.0,"mosquito_risk":7,"arthritis_risk":5,"migraine_risk":4,"frizz_risk":1,"updated_at":"2026-04-21T22:36:37.612702+05:30"},{"city":"Salem","state":"Tamil Nadu","latitude":11.6643,"longitude":78.146,"temp":29.6,"humidity":52,"rain":0.0,"pressure":977.4,"uv_index":9.4,"wind_gusts":20.5,"aqi":95,"pm10":16.0,"pm2_5":14.9,"mosquito_risk":4,"arthritis_risk":5,"migraine_risk":7,"frizz_risk":1,"updated_at":"2026-04-21T22:36:37.612710+05:30"},{"city":"Tirunelveli","state":"Tamil Nadu","latitude":8.7139,"longitude":77.7567,"temp":29.4,"humidity":69,"rain":0.0,"pressure":1004.1,"uv_index":8.75,"wind_gusts":53.6,"aqi":67,"pm10":17.8,"pm2_5":16.4,"mosquito_risk":7,"arthritis_risk":5,"migraine_risk":4,"frizz_risk":1,"updated_at":"2026-04-21T22:36:37.612719+05:30"},{"city":"Vellore","state":"Tamil Nadu","latitude":12.9165,"longitude":79.1325,"temp":28.5,"humidity":64,"rain":0.0,"pressure":985.2,"uv_index":9.4,"wind_gusts":28.8,"aqi":66,"pm10":25.3,"pm2_5":24.4,"mosquito_risk":7,"arthritis_risk":5,"migraine_risk":7,"frizz_risk":1,"updated_at":"2026-04-21T22:36:37.612726+05:30"},{"city":"Erode","state":"Tamil Nadu","latitude":11.341,"longitude":77.7172,"temp":31.9,"humidity":43,"rain":0.0,"pressure":989.2,"uv_index":9.35,"wind_gusts":25.9,"aqi":83,"pm10":9.6,"pm2_5":9.1,"mosquito_risk":0,"arthritis_risk":5,"migraine_risk":7,"frizz_risk":1,"updated_at":"2026-04-21T22:36:37.612733+05:30"},{"city":"Kochi","state":"Kerala","latitude":9.9312,"longitude":76.2673,"temp":28.0,"humidity":83,"rain":0.0,"pressure":1009.5,"uv_index":9.05,"wind_gusts":31.7,"aqi":73,"pm10":37.4,"pm2_5":32.5,"mosquito_risk":7,"arthritis_risk":0,"migraine_risk":4,"frizz_risk":1,"updated_at":"2026-04-21T22:36:37.612740+05:30"},{"city":"Thiruvananthapuram","state":"Kerala","latitude":8.5241,"longitude":76.9366,"temp":28.7,"humidity":82,"rain":0.0,"pressure":1008.6,"uv_index":8.8,"wind_gusts":30.2,"aqi":53,"pm10":17.0,"pm2_5":12.1,"mosquito_risk":7,"arthritis_risk":0,"migraine_risk":4,"frizz_risk":1,"updated_at":"2026-04-21T22:36:37.612747+05:30"},{"city":"Kozhikode","state":"Kerala","latitude":11.2588,"longitude":75.7804,"temp":29.9,"humidity":80,"rain":0.0,"pressure":1007.9,"uv_index":9.1,"wind_gusts":31.7,"aqi":69,"pm10":36.1,"pm2_5":25.7,"mosquito_risk":7,"arthritis_risk":5,"migraine_risk":4,"frizz_risk":1,"updated_at":"2026-04-21T22:36:37.612754+05:30"},{"city":"Thrissur","state":"Kerala","latitude":10.5276,"longitude":76.2144,"temp":28.8,"humidity":83,"rain":0.0,"pressure":1007.5,"uv_index":9.05,"wind_gusts":38.2,"aqi":73,"pm10":37.1,"pm2_5":31.1,"mosquito_risk":7,"arthritis_risk":5,"migraine_risk":4,"frizz_risk":1,"updated_at":"2026-04-21T22:36:37.612763+05:30"},{"city":"Kannur","state":"Kerala","latitude":11.8745,"longitude":75.3704,"temp":29.9,"humidity":81,"rain":0.0,"pressure":1006.9,"uv_index":9.1,"wind_gusts":32.8,"aqi":77,"pm10":42.4,"pm2_5":36.2,"mosquito_risk":7,"arthritis_risk":5,"migraine_risk":4,"frizz_risk":1,"updated_at":"2026-04-21T22:36:37.612769+05:30"},{"city":"Patna","state":"Bihar","latitude":25.5941,"longitude":85.1376,"temp":30.7,"humidity":36,"rain":0.0,"pressure":996.8,"uv_index":8.65,"wind_gusts":37.4,"aqi":98,"pm10":54.1,"pm2_5":28.1,"mosquito_risk":0,"arthritis_risk":5,"migraine_risk":7,"frizz_risk":0,"updated_at":"2026-04-21T22:36:37.612777+05:30"},{"city":"Gaya","state":"Bihar","latitude":24.7914,"longitude":85.0002,"temp":31.0,"humidity":34,"rain":0.0,"pressure":991.1,"uv_index":8.75,"wind_gusts":33.8,"aqi":114,"pm10":92.7,"pm2_5":34.7,"mosquito_risk":0,"arthritis_risk":5,"migraine_risk":7,"frizz_risk":0,"updated_at":"2026-04-21T22:36:37.612784+05:30"},{"city":"Muzaffarpur","state":"Bihar","latitude":26.1209,"longitude":85.3647,"temp":28.2,"humidity":39,"rain":0.0,"pressure":996.6,"uv_index":8.65,"wind_gusts":36.7,"aqi":102,"pm10":34.6,"pm2_5":24.0,"mosquito_risk":4,"arthritis_risk":5,"migraine_risk":7,"frizz_risk":0,"updated_at":"2026-04-21T22:36:37.612790+05:30"},{"city":"Bhagalpur","state":"Bihar","latitude":25.2425,"longitude":87.0117,"temp":29.0,"humidity":52,"rain":0.0,"pressure":997.0,"uv_index":8.7,"wind_gusts":27.4,"aqi":108,"pm10":120.6,"pm2_5":42.4,"mosquito_risk":4,"arthritis_risk":5,"migraine_risk":7,"frizz_risk":1,"updated_at":"2026-04-21T22:36:37.612797+05:30"},{"city":"Ranchi","state":"Jharkhand","latitude":23.3441,"longitude":85.3096,"temp":28.8,"humidity":31,"rain":0.0,"pressure":936.9,"uv_index":9.25,"wind_gusts":34.2,"aqi":106,"pm10":41.0,"pm2_5":33.1,"mosquito_risk":4,"arthritis_risk":5,"migraine_risk":7,"frizz_risk":0,"updated_at":"2026-04-21T22:36:37.612804+05:30"},{"city":"Jamshedpur","state":"Jharkhand","latitude":22.8046,"longitude":86.2029,"temp":31.2,"humidity":54,"rain":0.0,"pressure":987.9,"uv_index":9.05,"wind_gusts":19.1,"aqi":118,"pm10":45.6,"pm2_5":43.3,"mosquito_risk":0,"arthritis_risk":5,"migraine_risk":7,"frizz_risk":1,"updated_at":"2026-04-21T22:36:37.612810+05:30"},{"city":"Dhanbad","state":"Jharkhand","latitude":23.7957,"longitude":86.4304,"temp":32.3,"humidity":29,"rain":0.0,"pressure":977.2,"uv_index":9.05,"wind_gusts":28.1,"aqi":139,"pm10":106.9,"pm2_5":79.9,"mosquito_risk":0,"arthritis_risk":5,"migraine_risk":7,"frizz_risk":0,"updated_at":"2026-04-21T22:36:37.612817+05:30"},{"city":"Bokaro","state":"Jharkhand","latitude":23.6693,"longitude":86.1511,"temp":31.9,"humidity":31,"rain":0.0,"pressure":981.5,"uv_index":9.05,"wind_gusts":34.6,"aqi":121,"pm10":90.6,"pm2_5":65.4,"mosquito_risk":0,"arthritis_risk":5,"migraine_risk":7,"frizz_risk":0,"updated_at":"2026-04-21T22:36:37.612823+05:30"},{"city":"Bhubaneswar","state":"Odisha","latitude":20.2961,"longitude":85.8245,"temp":27.4,"humidity":91,"rain":0.0,"pressure":1001.3,"uv_index":9.15,"wind_gusts":27.7,"aqi":95,"pm10":18.7,"pm2_5":16.3,"mosquito_risk":7,"arthritis_risk":5,"migraine_risk":4,"frizz_risk":1,"updated_at":"2026-04-21T22:36:37.612831+05:30"},{"city":"Cuttack","state":"Odisha","latitude":20.4625,"longitude":85.8828,"temp":28.4,"humidity":86,"rain":0.0,"pressure":1003.3,"uv_index":9.1,"wind_gusts":27.7,"aqi":95,"pm10":18.7,"pm2_5":16.3,"mosquito_risk":7,"arthritis_risk":5,"migraine_risk":4,"frizz_risk":1,"updated_at":"2026-04-21T22:36:37.612838+05:30"},{"city":"Rourkela","state":"Odisha","latitude":22.2604,"longitude":84.8536,"temp":31.9,"humidity":50,"rain":0.0,"pressure":982.4,"uv_index":8.95,"wind_gusts":31.0,"aqi":154,"pm10":46.6,"pm2_5":43.8,"mosquito_risk":0,"arthritis_risk":5,"migraine_risk":7,"frizz_risk":1,"updated_at":"2026-04-21T22:36:37.612844+05:30"},{"city":"Raipur","state":"Chhattisgarh","latitude":21.2514,"longitude":81.6296,"temp":32.0,"humidity":42,"rain":0.0,"pressure":973.4,"uv_index":9.0,"wind_gusts":33.5,"aqi":105,"pm10":53.6,"pm2_5":50.6,"mosquito_risk":0,"arthritis_risk":5,"migraine_risk":7,"frizz_risk":1,"updated_at":"2026-04-21T22:36:37.612851+05:30"},{"city":"Bhilai","state":"Chhattisgarh","latitude":21.1938,"longitude":81.3509,"temp":31.2,"humidity":44,"rain":0.0,"pressure":973.6,"uv_index":9.0,"wind_gusts":31.0,"aqi":97,"pm10":52.3,"pm2_5":48.9,"mosquito_risk":0,"arthritis_risk":5,"migraine_risk":7,"frizz_risk":1,"updated_at":"2026-04-21T22:36:37.612858+05:30"},{"city":"Guwahati","state":"Assam","latitude":26.1158,"longitude":91.7086,"temp":25.4,"humidity":84,"rain":0.0,"pressure":998.8,"uv_index":8.6,"wind_gusts":38.2,"aqi":95,"pm10":57.0,"pm2_5":51.9,"mosquito_risk":7,"arthritis_risk":5,"migraine_risk":7,"frizz_risk":1,"updated_at":"2026-04-21T22:36:37.612864+05:30"},{"city":"Agartala","state":"Tripura","latitude":23.8315,"longitude":91.2868,"temp":27.7,"humidity":84,"rain":0.0,"pressure":1003.6,"uv_index":8.8,"wind_gusts":33.5,"aqi":80,"pm10":18.3,"pm2_5":15.5,"mosquito_risk":7,"arthritis_risk":5,"migraine_risk":4,"frizz_risk":1,"updated_at":"2026-04-21T22:36:37.612871+05:30"},{"city":"Shillong","state":"Meghalaya","latitude":25.5788,"longitude":91.8933,"temp":17.0,"humidity":92,"rain":0.0,"pressure":855.0,"uv_index":9.05,"wind_gusts":72.0,"aqi":92,"pm10":21.0,"pm2_5":17.3,"mosquito_risk":3,"arthritis_risk":10,"migraine_risk":7,"frizz_risk":0,"updated_at":"2026-04-21T22:36:37.612878+05:30"},{"city":"Imphal","state":"Manipur","latitude":24.817,"longitude":93.9368,"temp":20.8,"humidity":86,"rain":0.0,"pressure":922.3,"uv_index":9.2,"wind_gusts":83.2,"aqi":153,"pm10":81.3,"pm2_5":73.8,"mosquito_risk":3,"arthritis_risk":5,"migraine_risk":7,"frizz_risk":1,"updated_at":"2026-04-21T22:36:37.612885+05:30"},{"city":"Aizawl","state":"Mizoram","latitude":23.7271,"longitude":92.7176,"temp":22.5,"humidity":83,"rain":0.0,"pressure":892.0,"uv_index":9.05,"wind_gusts":65.2,"aqi":100,"pm10":34.3,"pm2_5":28.8,"mosquito_risk":3,"arthritis_risk":5,"migraine_risk":7,"frizz_risk":1,"updated_at":"2026-04-21T22:36:37.612892+05:30"},{"city":"Kohima","state":"Nagaland","latitude":25.6701,"longitude":94.1077,"temp":19.7,"humidity":63,"rain":0.0,"pressure":853.7,"uv_index":9.15,"wind_gusts":107.6,"aqi":99,"pm10":54.6,"pm2_5":40.5,"mosquito_risk":3,"arthritis_risk":5,"migraine_risk":7,"frizz_risk":0,"updated_at":"2026-04-21T22:36:37.612899+05:30"},{"city":"Gangtok","state":"Sikkim","latitude":27.3314,"longitude":88.6138,"temp":17.8,"humidity":79,"rain":0.0,"pressure":836.5,"uv_index":9.0,"wind_gusts":18.4,"aqi":73,"pm10":24.7,"pm2_5":19.0,"mosquito_risk":3,"arthritis_risk":5,"migraine_risk":7,"frizz_risk":0,"updated_at":"2026-04-21T22:36:37.612905+05:30"},{"city":"Siliguri","state":"West Bengal","latitude":26.7271,"longitude":88.3953,"temp":24.0,"humidity":73,"rain":0.0,"pressure":990.8,"uv_index":8.55,"wind_gusts":31.0,"aqi":141,"pm10":83.1,"pm2_5":64.5,"mosquito_risk":3,"arthritis_risk":5,"migraine_risk":7,"frizz_risk":1,"updated_at":"2026-04-21T22:36:40.941559+05:30"},{"city":"Durgapur","state":"West Bengal","latitude":23.5204,"longitude":87.3119,"temp":30.6,"humidity":77,"rain":0.0,"pressure":992.3,"uv_index":8.95,"wind_gusts":43.6,"aqi":135,"pm10":77.1,"pm2_5":62.2,"mosquito_risk":3,"arthritis_risk":5,"migraine_risk":7,"frizz_risk":1,"updated_at":"2026-04-21T22:36:40.941579+05:30"},{"city":"Asansol","state":"West Bengal","latitude":23.6739,"longitude":86.9524,"temp":31.9,"humidity":67,"rain":0.0,"pressure":990.8,"uv_index":9.0,"wind_gusts":26.6,"aqi":132,"pm10":85.9,"pm2_5":62.9,"mosquito_risk":3,"arthritis_risk":5,"migraine_risk":7,"frizz_risk":1,"updated_at":"2026-04-21T22:36:40.941588+05:30"},{"city":"Pondicherry","state":"Puducherry","latitude":11.9139,"longitude":79.8145,"temp":27.9,"humidity":92,"rain":0.0,"pressure":1009.1,"uv_index":9.25,"wind_gusts":32.0,"aqi":47,"pm10":8.3,"pm2_5":5.8,"mosquito_risk":7,"arthritis_risk":0,"migraine_risk":4,"frizz_risk":1,"updated_at":"2026-04-21T22:36:40.941595+05:30"},{"city":"Port Blair","state":"Andaman and Nicobar Islands","latitude":11.6234,"longitude":92.7265,"temp":29.8,"humidity":72,"rain":0.0,"pressure":1007.5,"uv_index":9.1,"wind_gusts":16.2,"aqi":56,"pm10":15.5,"pm2_5":13.0,"mosquito_risk":7,"arthritis_risk":5,"migraine_risk":4,"frizz_risk":1,"updated_at":"2026-04-21T22:36:40.941601+05:30"},{"city":"Haridwar","state":"Uttarakhand","latitude":29.9457,"longitude":78.1642,"temp":22.8,"humidity":66,"rain":0.0,"pressure":971.6,"uv_index":7.1,"wind_gusts":35.3,"aqi":95,"pm10":28.8,"pm2_5":23.5,"mosquito_risk":3,"arthritis_risk":5,"migraine_risk":7,"frizz_risk":1,"updated_at":"2026-04-21T22:36:40.941607+05:30"},{"city":"Rishikesh","state":"Uttarakhand","latitude":30.0869,"longitude":78.2676,"temp":22.7,"humidity":58,"rain":0.0,"pressure":964.8,"uv_index":7.2,"wind_gusts":36.4,"aqi":117,"pm10":32.0,"pm2_5":18.4,"mosquito_risk":0,"arthritis_risk":5,"migraine_risk":7,"frizz_risk":0,"updated_at":"2026-04-21T22:36:40.941614+05:30"},{"city":"Nainital","state":"Uttarakhand","latitude":29.3919,"longitude":79.4542,"temp":22.3,"humidity":33,"rain":0.0,"pressure":806.5,"uv_index":8.05,"wind_gusts":53.6,"aqi":108,"pm10":76.4,"pm2_5":22.6,"mosquito_risk":0,"arthritis_risk":5,"migraine_risk":7,"frizz_risk":0,"updated_at":"2026-04-21T22:36:40.941620+05:30"},{"city":"Mussoorie","state":"Uttarakhand","latitude":30.4599,"longitude":78.0664,"temp":19.6,"humidity":43,"rain":0.0,"pressure":802.8,"uv_index":7.55,"wind_gusts":38.5,"aqi":111,"pm10":38.5,"pm2_5":28.2,"mosquito_risk":0,"arthritis_risk":5,"migraine_risk":7,"frizz_risk":0,"updated_at":"2026-04-21T22:36:40.941652+05:30"},{"city":"Dharamshala","state":"Himachal Pradesh","latitude":32.219,"longitude":76.3234,"temp":23.6,"humidity":39,"rain":0.0,"pressure":869.0,"uv_index":7.85,"wind_gusts":32.4,"aqi":91,"pm10":28.7,"pm2_5":15.4,"mosquito_risk":0,"arthritis_risk":5,"migraine_risk":7,"frizz_risk":0,"updated_at":"2026-04-21T22:36:40.941660+05:30"},{"city":"Dalhousie","state":"Himachal Pradesh","latitude":32.5387,"longitude":75.971,"temp":20.1,"humidity":44,"rain":0.0,"pressure":803.8,"uv_index":8.1,"wind_gusts":32.0,"aqi":87,"pm10":38.9,"pm2_5":27.4,"mosquito_risk":0,"arthritis_risk":5,"migraine_risk":7,"frizz_risk":0,"updated_at":"2026-04-21T22:36:40.941667+05:30"},{"city":"Patiala","state":"Punjab","latitude":30.3398,"longitude":76.3869,"temp":26.1,"humidity":44,"rain":0.0,"pressure":975.6,"uv_index":7.2,"wind_gusts":30.2,"aqi":400,"pm10":399.5,"pm2_5":66.8,"mosquito_risk":4,"arthritis_risk":5,"migraine_risk":7,"frizz_risk":0,"updated_at":"2026-04-21T22:36:40.941673+05:30"},{"city":"Bhatinda","state":"Punjab","latitude":30.211,"longitude":74.9455,"temp":30.3,"humidity":27,"rain":0.0,"pressure":981.1,"uv_index":7.85,"wind_gusts":34.2,"aqi":80,"pm10":37.6,"pm2_5":28.5,"mosquito_risk":0,"arthritis_risk":5,"migraine_risk":7,"frizz_risk":0,"updated_at":"2026-04-21T22:36:40.941679+05:30"},{"city":"Rohtak","state":"Haryana","latitude":28.8955,"longitude":76.6066,"temp":26.7,"humidity":47,"rain":0.0,"pressure":978.9,"uv_index":7.35,"wind_gusts":38.2,"aqi":623,"pm10":750.6,"pm2_5":115.0,"mosquito_risk":4,"arthritis_risk":5,"migraine_risk":7,"frizz_risk":0,"updated_at":"2026-04-21T22:36:40.941685+05:30"},{"city":"Panipat","state":"Haryana","latitude":29.3909,"longitude":76.9635,"temp":26.9,"humidity":41,"rain":0.0,"pressure":977.6,"uv_index":7.15,"wind_gusts":36.4,"aqi":1177,"pm10":1065.4,"pm2_5":147.6,"mosquito_risk":4,"arthritis_risk":5,"migraine_risk":7,"frizz_risk":0,"updated_at":"2026-04-21T22:36:40.941691+05:30"},{"city":"Mathura","state":"Uttar Pradesh","latitude":27.4924,"longitude":77.6737,"temp":30.8,"humidity":38,"rain":0.0,"pressure":984.6,"uv_index":7.6,"wind_gusts":32.4,"aqi":984,"pm10":1069.2,"pm2_5":151.3,"mosquito_risk":0,"arthritis_risk":5,"migraine_risk":7,"frizz_risk":0,"updated_at":"2026-04-21T22:36:40.941697+05:30"},{"city":"Vrindavan","state":"Uttar Pradesh","latitude":27.5823,"longitude":77.7027,"temp":29.3,"humidity":42,"rain":0.0,"pressure":984.8,"uv_index":7.55,"wind_gusts":35.3,"aqi":984,"pm10":1069.2,"pm2_5":151.3,"mosquito_risk":4,"arthritis_risk":5,"migraine_risk":7,"frizz_risk":0,"updated_at":"2026-04-21T22:36:40.941705+05:30"},{"city":"Ayodhya","state":"Uttar Pradesh","latitude":26.7922,"longitude":82.1998,"temp":29.6,"humidity":34,"rain":0.0,"pressure":992.3,"uv_index":8.05,"wind_gusts":49.7,"aqi":95,"pm10":228.6,"pm2_5":47.7,"mosquito_risk":4,"arthritis_risk":5,"migraine_risk":7,"frizz_risk":0,"updated_at":"2026-04-21T22:36:40.941711+05:30"},{"city":"Ratlam","state":"Madhya Pradesh","latitude":23.3315,"longitude":75.0367,"temp":29.2,"humidity":41,"rain":0.0,"pressure":954.7,"uv_index":8.45,"wind_gusts":33.8,"aqi":86,"pm10":17.6,"pm2_5":15.5,"mosquito_risk":4,"arthritis_risk":5,"migraine_risk":7,"frizz_risk":0,"updated_at":"2026-04-21T22:36:40.941717+05:30"},{"city":"Sagar","state":"Madhya Pradesh","latitude":23.8388,"longitude":78.7378,"temp":30.2,"humidity":37,"rain":0.0,"pressure":949.5,"uv_index":8.65,"wind_gusts":36.7,"aqi":93,"pm10":20.4,"pm2_5":12.7,"mosquito_risk":0,"arthritis_risk":5,"migraine_risk":7,"frizz_risk":0,"updated_at":"2026-04-21T22:36:40.941723+05:30"},{"city":"Satna","state":"Madhya Pradesh","latitude":24.6005,"longitude":80.8322,"temp":33.1,"humidity":23,"rain":0.0,"pressure":969.6,"uv_index":8.65,"wind_gusts":35.3,"aqi":95,"pm10":84.3,"pm2_5":23.6,"mosquito_risk":0,"arthritis_risk":5,"migraine_risk":7,"frizz_risk":0,"updated_at":"2026-04-21T22:36:40.941729+05:30"},{"city":"Akola","state":"Maharashtra","latitude":20.7002,"longitude":77.0082,"temp":32.6,"humidity":34,"rain":0.0,"pressure":973.9,"uv_index":8.85,"wind_gusts":27.4,"aqi":91,"pm10":31.8,"pm2_5":28.0,"mosquito_risk":0,"arthritis_risk":5,"migraine_risk":7,"frizz_risk":0,"updated_at":"2026-04-21T22:36:40.941735+05:30"},{"city":"Amravati","state":"Maharashtra","latitude":20.9374,"longitude":77.7796,"temp":31.1,"humidity":38,"rain":0.0,"pressure":965.9,"uv_index":8.85,"wind_gusts":37.8,"aqi":88,"pm10":38.0,"pm2_5":33.6,"mosquito_risk":0,"arthritis_risk":5,"migraine_risk":7,"frizz_risk":0,"updated_at":"2026-04-21T22:36:40.941741+05:30"},{"city":"Latur","state":"Maharashtra","latitude":18.4088,"longitude":76.5604,"temp":28.2,"humidity":55,"rain":0.0,"pressure":939.5,"uv_index":9.1,"wind_gusts":35.3,"aqi":147,"pm10":50.1,"pm2_5":46.2,"mosquito_risk":4,"arthritis_risk":5,"migraine_risk":7,"frizz_risk":1,"updated_at":"2026-04-21T22:36:40.941747+05:30"},{"city":"Nanded","state":"Maharashtra","latitude":19.1383,"longitude":77.3091,"temp":30.8,"humidity":45,"rain":0.0,"pressure":967.3,"uv_index":9.0,"wind_gusts":24.5,"aqi":100,"pm10":49.7,"pm2_5":45.2,"mosquito_risk":0,"arthritis_risk":5,"migraine_risk":7,"frizz_risk":1,"updated_at":"2026-04-21T22:36:40.941753+05:30"},{"city":"Gulbarga","state":"Karnataka","latitude":17.3297,"longitude":76.8343,"temp":30.2,"humidity":54,"rain":0.0,"pressure":958.6,"uv_index":9.15,"wind_gusts":22.0,"aqi":154,"pm10":41.6,"pm2_5":38.5,"mosquito_risk":0,"arthritis_risk":5,"migraine_risk":7,"frizz_risk":1,"updated_at":"2026-04-21T22:36:40.941758+05:30"},{"city":"Bidar","state":"Karnataka","latitude":17.9104,"longitude":77.5199,"temp":29.6,"humidity":52,"rain":0.0,"pressure":935.4,"uv_index":8.1,"wind_gusts":29.5,"aqi":108,"pm10":49.8,"pm2_5":46.4,"mosquito_risk":4,"arthritis_risk":5,"migraine_risk":7,"frizz_risk":1,"updated_at":"2026-04-21T22:36:40.941764+05:30"},{"city":"Hospet","state":"Karnataka","latitude":15.2689,"longitude":76.3909,"temp":28.7,"humidity":69,"rain":0.0,"pressure":955.6,"uv_index":9.3,"wind_gusts":21.6,"aqi":152,"pm10":46.3,"pm2_5":41.7,"mosquito_risk":7,"arthritis_risk":5,"migraine_risk":7,"frizz_risk":1,"updated_at":"2026-04-21T22:36:40.941769+05:30"},{"city":"Tirupur","state":"Tamil Nadu","latitude":11.1085,"longitude":77.3411,"temp":29.4,"humidity":71,"rain":0.0,"pressure":975.7,"uv_index":9.45,"wind_gusts":37.1,"aqi":80,"pm10":21.7,"pm2_5":19.7,"mosquito_risk":7,"arthritis_risk":5,"migraine_risk":7,"frizz_risk":1,"updated_at":"2026-04-21T22:36:40.941775+05:30"},{"city":"Alappuzha","state":"Kerala","latitude":9.4981,"longitude":76.3388,"temp":27.8,"humidity":84,"rain":0.0,"pressure":1009.7,"uv_index":7.85,"wind_gusts":29.2,"aqi":69,"pm10":33.4,"pm2_5":26.5,"mosquito_risk":7,"arthritis_risk":0,"migraine_risk":4,"frizz_risk":1,"updated_at":"2026-04-21T22:36:40.941780+05:30"},{"city":"Munnar","state":"Kerala","latitude":10.0889,"longitude":77.0595,"temp":22.3,"humidity":94,"rain":0.0,"pressure":858.1,"uv_index":9.65,"wind_gusts":40.0,"aqi":74,"pm10":30.4,"pm2_5":28.4,"mosquito_risk":3,"arthritis_risk":5,"migraine_risk":7,"frizz_risk":1,"updated_at":"2026-04-21T22:36:40.941786+05:30"},{"city":"Silchar","state":"Assam","latitude":24.8333,"longitude":92.7789,"temp":24.9,"humidity":90,"rain":0.0,"pressure":1003.8,"uv_index":8.8,"wind_gusts":41.4,"aqi":148,"pm10":61.5,"pm2_5":50.9,"mosquito_risk":3,"arthritis_risk":5,"migraine_risk":4,"frizz_risk":1,"updated_at":"2026-04-21T22:36:40.941792+05:30"},{"city":"Dibrugarh","state":"Assam","latitude":27.4728,"longitude":94.912,"temp":23.3,"humidity":92,"rain":0.0,"pressure":993.0,"uv_index":7.95,"wind_gusts":35.3,"aqi":61,"pm10":22.5,"pm2_5":16.9,"mosquito_risk":3,"arthritis_risk":5,"migraine_risk":7,"frizz_risk":1,"updated_at":"2026-04-21T22:36:40.941797+05:30"}]