[{"city":"Delhi","state":"Delhi","latitude":28.6139,"longitude":77.209,"temp":28.1,"humidity":38,"rain":0.0,"pressure":986.1,"uv_index":5.7,"wind_gusts":29.9,"aqi":155,"pm10":178.3,"pm2_5":61.5,"mosquito_risk":4,"arthritis_risk":5,"migraine_risk":3,"frizz_risk":0,"updated_at":"2026-03-01T12:23:49.620283+05:30"},{"city":"Mumbai","state":"Maharashtra","latitude":19.076,"longitude":72.8777,"temp":26.2,"humidity":71,"rain":0.0,"pressure":1010.4,"uv_index":7.25,"wind_gusts":23.8,"aqi":72,"pm10":53.3,"pm2_5":30.4,"mosquito_risk":7,"arthritis_risk":0,"migraine_risk":4,"frizz_risk":1,"updated_at":"2026-03-01T12:23:49.620317+05:30"},{"city":"Bangalore","state":"Karnataka","latitude":12.9716,"longitude":77.5946,"temp":28.7,"humidity":43,"rain":0.0,"pressure":913.0,"uv_index":9.05,"wind_gusts":29.2,"aqi":151,"pm10":48.9,"pm2_5":47.5,"mosquito_risk":4,"arthritis_risk":5,"migraine_risk":7,"frizz_risk":0,"updated_at":"2026-03-01T12:23:49.620332+05:30"},{"city":"Hyderabad","state":"Telangana","latitude":17.385,"longitude":78.4867,"temp":31.8,"humidity":36,"rain":0.0,"pressure":954.7,"uv_index":8.3,"wind_gusts":27.4,"aqi":124,"pm10":45.6,"pm2_5":44.6,"mosquito_risk":0,"arthritis_risk":5,"migraine_risk":7,"frizz_risk":0,"updated_at":"2026-03-01T12:23:49.620341+05:30"},{"city":"Chennai","state":"Tamil Nadu","latitude":13.0827,"longitude":80.2707,"temp":32.9,"humidity":45,"rain":0.0,"pressure":1008.7,"uv_index":8.75,"wind_gusts":33.8,"aqi":150,"pm10":51.9,"pm2_5":48.3,"mosquito_risk":0,"arthritis_risk":0,"migraine_risk":4,"frizz_risk":1,"updated_at":"2026-03-01T12:23:49.620349+05:30"},{"city":"Kolkata","state":"West Bengal","latitude":22.5726,"longitude":88.3639,"temp":30.8,"humidity":61,"rain":0.0,"pressure":1006.8,"uv_index":7.6,"wind_gusts":25.2,"aqi":85,"pm10":41.9,"pm2_5":39.8,"mosquito_risk":3,"arthritis_risk":5,"migraine_risk":4,"frizz_risk":1,"updated_at":"2026-03-01T12:23:49.620361+05:30"},{"city":"Pune","state":"Maharashtra","latitude":18.5204,"longitude":73.8567,"temp":31.5,"humidity":30,"rain":0.0,"pressure":949.7,"uv_index":7.85,"wind_gusts":33.8,"aqi":80,"pm10":22.4,"pm2_5":20.5,"mosquito_risk":0,"arthritis_risk":5,"migraine_risk":7,"frizz_risk":0,"updated_at":"2026-03-01T12:23:49.620370+05:30"},{"city":"Ahmedabad","state":"Gujarat","latitude":23.0225,"longitude":72.5714,"temp":31.5,"humidity":37,"rain":0.0,"pressure":1005.2,"uv_index":7.05,"wind_gusts":21.2,"aqi":99,"pm10":51.9,"pm2_5":22.1,"mosquito_risk":0,"arthritis_risk":5,"migraine_risk":4,"frizz_risk":0,"updated_at":"2026-03-01T12:23:49.620376+05:30"},{"city":"Jaipur","state":"Rajasthan","latitude":26.9124,"longitude":75.7873,"temp":31.0,"humidity":27,"rain":0.0,"pressure":963.0,"uv_index":6.45,"wind_gusts":28.4,"aqi":89,"pm10":96.6,"pm2_5":29.2,"mosquito_risk":0,"arthritis_risk":5,"migraine_risk":7,"frizz_risk":0,"updated_at":"2026-03-01T12:23:49.620383+05:30"},{"city":"Lucknow","state":"Uttar Pradesh","latitude":26.8467,"longitude":80.9462,"temp":30.0,"humidity":32,"rain":0.0,"pressure":995.6,"uv_index":6.2,"wind_gusts":39.2,"aqi":132,"pm10":69.2,"pm2_5":35.3,"mosquito_risk":4,"arthritis_risk":5,"migraine_risk":7,"frizz_risk":0,"updated_at":"2026-03-01T12:23:49.620390+05:30"},{"city":"Kanpur","state":"Uttar Pradesh","latitude":26.4499,"longitude":80.3319,"temp":29.6,"humidity":38,"rain":0.0,"pressure":994.3,"uv_index":6.2,"wind_gusts":31.0,"aqi":151,"pm10":143.4,"pm2_5":41.0,"mosquito_risk":4,"arthritis_risk":5,"migraine_risk":7,"frizz_risk":0,"updated_at":"2026-03-01T12:23:49.620396+05:30"},{"city":"Chandigarh","state":"Chandigarh","latitude":30.7333,"longitude":76.7794,"temp":26.1,"humidity":48,"rain":0.0,"pressure":971.5,"uv_index":5.6,"wind_gusts":32.4,"aqi":90,"pm10":44.6,"pm2_5":27.1,"mosquito_risk":4,"arthritis_risk":5,"migraine_risk":3,"frizz_risk":0,"updated_at":"2026-03-01T12:23:49.620402+05:30"},{"city":"Srinagar","state":"Jammu and Kashmir","latitude":34.0837,"longitude":74.7973,"temp":15.2,"humidity":27,"rain":0.0,"pressure":843.6,"uv_index":6.4,"wind_gusts":14.8,"aqi":151,"pm10":53.2,"pm2_5":35.6,"mosquito_risk":0,"arthritis_risk":5,"migraine_risk":7,"frizz_risk":1,"updated_at":"2026-03-01T12:23:49.620409+05:30"},{"city":"Jammu","state":"Jammu and Kashmir","latitude":32.7266,"longitude":74.857,"temp":25.7,"humidity":42,"rain":0.0,"pressure":975.6,"uv_index":6.15,"wind_gusts":25.2,"aqi":98,"pm10":43.7,"pm2_5":27.2,"mosquito_risk":4,"arthritis_risk":5,"migraine_risk":7,"frizz_risk":0,"updated_at":"2026-03-01T12:23:49.620415+05:30"},{"city":"Amritsar","state":"Punjab","latitude":31.634,"longitude":74.8723,"temp":25.9,"humidity":48,"rain":0.0,"pressure":984.3,"uv_index":6.1,"wind_gusts":22.0,"aqi":132,"pm10":80.3,"pm2_5":53.0,"mosquito_risk":4,"arthritis_risk":5,"migraine_risk":7,"frizz_risk":0,"updated_at":"2026-03-01T12:23:49.620421+05:30"},{"city":"Ludhiana","state":"Punjab","latitude":30.901,"longitude":75.8573,"temp":26.3,"humidity":49,"rain":0.0,"pressure":982.0,"uv_index":5.8,"wind_gusts":27.4,"aqi":153,"pm10":83.4,"pm2_5":61.2,"mosquito_risk":4,"arthritis_risk":5,"migraine_risk":3,"frizz_risk":0,"updated_at":"2026-03-01T12:23:49.620427+05:30"},{"city":"Jalandhar","state":"Punjab","latitude":31.326,"longitude":75.5762,"temp":26.0,"humidity":49,"rain":0.0,"pressure":983.2,"uv_index":5.95,"wind_gusts":24.5,"aqi":155,"pm10":85.0,"pm2_5":55.9,"mosquito_risk":4,"arthritis_risk":5,"migraine_risk":3,"frizz_risk":0,"updated_at":"2026-03-01T12:23:49.620435+05:30"},{"city":"Dehradun","state":"Uttarakhand","latitude":30.6284,"longitude":78.0322,"temp":18.6,"humidity":32,"rain":0.0,"pressure":831.0,"uv_index":5.95,"wind_gusts":35.6,"aqi":65,"pm10":33.3,"pm2_5":13.5,"mosquito_risk":0,"arthritis_risk":5,"migraine_risk":3,"frizz_risk":0,"updated_at":"2026-03-01T12:23:49.620441+05:30"},{"city":"Shimla","state":"Himachal Pradesh","latitude":31.1048,"longitude":77.1734,"temp":16.2,"humidity":35,"rain":0.0,"pressure":785.9,"uv_index":6.0,"wind_gusts":51.8,"aqi":71,"pm10":33.4,"pm2_5":15.6,"mosquito_risk":0,"arthritis_risk":5,"migraine_risk":3,"frizz_risk":0,"updated_at":"2026-03-01T12:23:49.620447+05:30"},{"city":"Manali","state":"Himachal Pradesh","latitude":32.2396,"longitude":77.1887,"temp":18.7,"humidity":9,"rain":0.0,"pressure":819.9,"uv_index":7.6,"wind_gusts":34.9,"aqi":51,"pm10":13.7,"pm2_5":7.3,"mosquito_risk":0,"arthritis_risk":5,"migraine_risk":7,"frizz_risk":1,"updated_at":"2026-03-01T12:23:49.620453+05:30"},{"city":"Gurgaon","state":"Haryana","latitude":28.4595,"longitude":77.0266,"temp":28.2,"humidity":40,"rain":0.0,"pressure":984.7,"uv_index":5.8,"wind_gusts":28.1,"aqi":292,"pm10":568.1,"pm2_5":97.8,"mosquito_risk":4,"arthritis_risk":5,"migraine_risk":3,"frizz_risk":0,"updated_at":"2026-03-01T12:23:49.620458+05:30"},{"city":"Noida","state":"Uttar Pradesh","latitude":28.5355,"longitude":77.391,"temp":28.8,"humidity":33,"rain":0.0,"pressure":987.6,"uv_index":5.75,"wind_gusts":29.5,"aqi":292,"pm10":568.1,"pm2_5":97.8,"mosquito_risk":4,"arthritis_risk":5,"migraine_risk":3,"frizz_risk":0,"updated_at":"2026-03-01T12:23:49.620464+05:30"},{"city":"Ghaziabad","state":"Uttar Pradesh","latitude":28.6692,"longitude":77.4538,"temp":27.6,"humidity":42,"rain":0.0,"pressure":985.8,"uv_index":5.7,"wind_gusts":28.1,"aqi":151,"pm10":166.2,"pm2_5":61.7,"mosquito_risk":4,"arthritis_risk":5,"migraine_risk":3,"frizz_risk":0,"updated_at":"2026-03-01T12:23:49.620470+05:30"},{"city":"Faridabad","state":"Haryana","latitude":28.4089,"longitude":77.3178,"temp":27.9,"humidity":41,"rain":0.0,"pressure":986.9,"uv_index":5.75,"wind_gusts":26.3,"aqi":292,"pm10":568.1,"pm2_5":97.8,"mosquito_risk":4,"arthritis_risk":5,"migraine_risk":3,"frizz_risk":0,"updated_at":"2026-03-01T12:23:49.620475+05:30"},{"city":"Meerut","state":"Uttar Pradesh","latitude":28.9845,"longitude":77.7064,"temp":27.5,"humidity":45,"rain":0.0,"pressure":984.3,"uv_index":5.6,"wind_gusts":33.1,"aqi":151,"pm10":166.2,"pm2_5":61.7,"mosquito_risk":4,"arthritis_risk":5,"migraine_risk":3,"frizz_risk":0,"updated_at":"2026-03-01T12:23:49.620481+05:30"},{"city":"Agra","state":"Uttar Pradesh","latitude":27.1767,"longitude":78.0081,"temp":29.5,"humidity":38,"rain":0.0,"pressure":991.0,"uv_index":6.05,"wind_gusts":22.3,"aqi":156,"pm10":262.6,"pm2_5":73.3,"mosquito_risk":4,"arthritis_risk":5,"migraine_risk":7,"frizz_risk":0,"updated_at":"2026-03-01T12:23:49.620487+05:30"},{"city":"Varanasi","state":"Uttar Pradesh","latitude":25.3176,"longitude":82.9739,"temp":30.5,"humidity":46,"rain":0.0,"pressure":999.3,"uv_index":6.85,"wind_gusts":30.6,"aqi":137,"pm10":84.5,"pm2_5":42.7,"mosquito_risk":0,"arthritis_risk":5,"migraine_risk":7,"frizz_risk":1,"updated_at":"2026-03-01T12:23:49.620495+05:30"},{"city":"Prayagraj","state":"Uttar Pradesh","latitude":25.4358,"longitude":81.8463,"temp":29.6,"humidity":48,"rain":0.0,"pressure":998.1,"uv_index":6.75,"wind_gusts":27.0,"aqi":135,"pm10":95.5,"pm2_5":45.1,"mosquito_risk":4,"arthritis_risk":5,"migraine_risk":7,"frizz_risk":1,"updated_at":"2026-03-01T12:23:49.620501+05:30"},{"city":"Gorakhpur","state":"Uttar Pradesh","latitude":26.7606,"longitude":83.3732,"temp":28.9,"humidity":48,"rain":0.0,"pressure":998.7,"uv_index":6.55,"wind_gusts":33.1,"aqi":120,"pm10":81.7,"pm2_5":43.9,"mosquito_risk":4,"arthritis_risk":5,"migraine_risk":7,"frizz_risk":1,"updated_at":"2026-03-01T12:23:49.620507+05:30"},{"city":"Bareilly","state":"Uttar Pradesh","latitude":28.367,"longitude":79.4304,"temp":27.3,"humidity":47,"rain":0.0,"pressure":989.0,"uv_index":5.9,"wind_gusts":34.2,"aqi":124,"pm10":61.9,"pm2_5":43.4,"mosquito_risk":4,"arthritis_risk":5,"migraine_risk":3,"frizz_risk":0,"updated_at":"2026-03-01T12:23:49.620515+05:30"},{"city":"Aligarh","state":"Uttar Pradesh","latitude":27.8974,"longitude":78.088,"temp":28.7,"humidity":39,"rain":0.0,"pressure":988.6,"uv_index":5.8,"wind_gusts":28.4,"aqi":156,"pm10":339.9,"pm2_5":83.4,"mosquito_risk":4,"arthritis_risk":5,"migraine_risk":3,"frizz_risk":0,"updated_at":"2026-03-01T12:23:49.620521+05:30"},{"city":"Moradabad","state":"Uttar Pradesh","latitude":28.8386,"longitude":78.7733,"temp":27.0,"humidity":48,"rain":0.0,"pressure":986.0,"uv_index":5.7,"wind_gusts":33.5,"aqi":129,"pm10":70.5,"pm2_5":45.5,"mosquito_risk":4,"arthritis_risk":5,"migraine_risk":3,"frizz_risk":0,"updated_at":"2026-03-01T12:23:49.620526+05:30"},{"city":"Saharanpur","state":"Uttar Pradesh","latitude":29.9637,"longitude":77.546,"temp":26.5,"humidity":50,"rain":0.0,"pressure":978.1,"uv_index":5.35,"wind_gusts":41.0,"aqi":138,"pm10":69.8,"pm2_5":42.4,"mosquito_risk":4,"arthritis_risk":5,"migraine_risk":3,"frizz_risk":0,"updated_at":"2026-03-01T12:23:49.620532+05:30"},{"city":"Jhansi","state":"Uttar Pradesh","latitude":25.4484,"longitude":78.5685,"temp":30.4,"humidity":42,"rain":0.0,"pressure":980.7,"uv_index":6.65,"wind_gusts":24.5,"aqi":68,"pm10":118.0,"pm2_5":33.1,"mosquito_risk":0,"arthritis_risk":5,"migraine_risk":7,"frizz_risk":0,"updated_at":"2026-03-01T12:23:52.917821+05:30"},{"city":"Surat","state":"Gujarat","latitude":21.1702,"longitude":72.8311,"temp":29.7,"humidity":46,"rain":0.0,"pressure":1009.3,"uv_index":6.95,"wind_gusts":27.0,"aqi":97,"pm10":75.9,"pm2_5":55.1,"mosquito_risk":4,"arthritis_risk":0,"migraine_risk":4,"frizz_risk":1,"updated_at":"2026-03-01T12:23:52.917851+05:30"},{"city":"Vadodara","state":"Gujarat","latitude":22.3072,"longitude":73.1812,"temp":31.9,"humidity":37,"rain":0.0,"pressure":1007.2,"uv_index":7.05,"wind_gusts":13.0,"aqi":114,"pm10":43.9,"pm2_5":28.6,"mosquito_risk":0,"arthritis_risk":5,"migraine_risk":4,"frizz_risk":0,"updated_at":"2026-03-01T12:23:52.917860+05:30"},{"city":"Rajkot","state":"Gujarat","latitude":22.3039,"longitude":70.8022,"temp":29.7,"humidity":41,"rain":0.0,"pressure":997.5,"uv_index":6.9,"wind_gusts":23.4,"aqi":63,"pm10":64.5,"pm2_5":23.0,"mosquito_risk":4,"arthritis_risk":5,"migraine_risk":7,"frizz_risk":0,"updated_at":"2026-03-01T12:23:52.917869+05:30"},{"city":"Thane","state":"Maharashtra","latitude":19.2183,"longitude":72.9781,"temp":29.4,"humidity":49,"rain":0.0,"pressure":1009.8,"uv_index":7.25,"wind_gusts":36.0,"aqi":72,"pm10":53.3,"pm2_5":30.4,"mosquito_risk":4,"arthritis_risk":0,"migraine_risk":4,"frizz_risk":1,"updated_at":"2026-03-01T12:23:52.917876+05:30"},{"city":"Nagpur","state":"Maharashtra","latitude":21.1458,"longitude":79.0882,"temp":32.6,"humidity":32,"rain":0.0,"pressure":974.8,"uv_index":7.65,"wind_gusts":28.8,"aqi":131,"pm10":21.2,"pm2_5":20.1,"mosquito_risk":0,"arthritis_risk":5,"migraine_risk":7,"frizz_risk":0,"updated_at":"2026-03-01T12:23:52.917883+05:30"},{"city":"Nashik","state":"Maharashtra","latitude":19.9975,"longitude":73.7898,"temp":29.5,"humidity":31,"rain":0.0,"pressure":947.4,"uv_index":7.45,"wind_gusts":25.6,"aqi":80,"pm10":26.6,"pm2_5":23.6,"mosquito_risk":4,"arthritis_risk":5,"migraine_risk":7,"frizz_risk":0,"updated_at":"2026-03-01T12:23:52.917889+05:30"},{"city":"Aurangabad","state":"Maharashtra","latitude":19.8762,"longitude":75.3433,"temp":31.5,"humidity":30,"rain":0.0,"pressure":946.0,"uv_index":8.0,"wind_gusts":25.6,"aqi":63,"pm10":25.8,"pm2_5":23.2,"mosquito_risk":0,"arthritis_risk":5,"migraine_risk":7,"frizz_risk":0,"updated_at":"2026-03-01T12:23:52.917895+05:30"},{"city":"Solapur","state":"Maharashtra","latitude":17.6599,"longitude":75.9064,"temp":30.6,"humidity":41,"rain":0.0,"pressure":958.7,"uv_index":8.25,"wind_gusts":19.8,"aqi":77,"pm10":23.0,"pm2_5":22.5,"mosquito_risk":0,"arthritis_risk":5,"migraine_risk":7,"frizz_risk":0,"updated_at":"2026-03-01T12:23:52.917902+05:30"},{"city":"Kolhapur","state":"Maharashtra","latitude":16.705,"longitude":74.2433,"temp":30.5,"humidity":33,"rain":0.0,"pressure":949.1,"uv_index":8.35,"wind_gusts":38.9,"aqi":64,"pm10":19.2,"pm2_5":17.8,"mosquito_risk":0,"arthritis_risk":5,"migraine_risk":7,"frizz_risk":0,"updated_at":"2026-03-01T12:23:52.917908+05:30"},{"city":"Goa","state":"Goa","latitude":15.2993,"longitude":74.124,"temp":31.3,"humidity":42,"rain":0.0,"pressure":999.3,"uv_index":8.4,"wind_gusts":35.3,"aqi":53,"pm10":19.4,"pm2_5":14.2,"mosquito_risk":0,"arthritis_risk":5,"migraine_risk":7,"frizz_risk":1,"updated_at":"2026-03-01T12:23:52.917915+05:30"},{"city":"Jodhpur","state":"Rajasthan","latitude":26.2389,"longitude":73.0243,"temp":30.3,"humidity":40,"rain":0.0,"pressure":986.2,"uv_index":6.75,"wind_gusts":18.4,"aqi":71,"pm10":76.6,"pm2_5":23.9,"mosquito_risk":0,"arthritis_risk":5,"migraine_risk":7,"frizz_risk":0,"updated_at":"2026-03-01T12:23:52.917921+05:30"},{"city":"Udaipur","state":"Rajasthan","latitude":24.5854,"longitude":73.7125,"temp":29.4,"humidity":32,"rain":0.0,"pressure":949.4,"uv_index":7.35,"wind_gusts":25.2,"aqi":58,"pm10":22.9,"pm2_5":12.9,"mosquito_risk":4,"arthritis_risk":5,"migraine_risk":7,"frizz_risk":0,"updated_at":"2026-03-01T12:23:52.917928+05:30"},{"city":"Kota","state":"Rajasthan","latitude":25.2138,"longitude":75.8648,"temp":29.9,"humidity":44,"rain":0.0,"pressure":982.0,"uv_index":6.8,"wind_gusts":19.8,"aqi":75,"pm10":28.8,"pm2_5":19.6,"mosquito_risk":4,"arthritis_risk":5,"migraine_risk":7,"frizz_risk":1,"updated_at":"2026-03-01T12:23:52.917934+05:30"},{"city":"Bikaner","state":"Rajasthan","latitude":28.0229,"longitude":73.3119,"temp":30.4,"humidity":32,"rain":0.0,"pressure":985.1,"uv_index":6.45,"wind_gusts":16.2,"aqi":64,"pm10":44.5,"pm2_5":18.9,"mosquito_risk":0,"arthritis_risk":5,"migraine_risk":7,"frizz_risk":0,"updated_at":"2026-03-01T12:23:52.917940+05:30"},{"city":"Ajmer","state":"Rajasthan","latitude":26.4499,"longitude":74.6399,"temp":29.5,"humidity":38,"rain":0.0,"pressure":957.8,"uv_index":6.7,"wind_gusts":17.6,"aqi":76,"pm10":47.6,"pm2_5":18.2,"mosquito_risk":4,"arthritis_risk":5,"migraine_risk":7,"frizz_risk":0,"updated_at":"2026-03-01T12:23:52.917946+05:30"},{"city":"Gwalior","state":"Madhya Pradesh","latitude":26.2183,"longitude":78.1828,"temp":29.3,"humidity":41,"rain":0.0,"pressure":986.4,"uv_index":6.35,"wind_gusts":25.9,"aqi":101,"pm10":130.9,"pm2_5":38.5,"mosquito_risk":4,"arthritis_risk":5,"migraine_risk":7,"frizz_risk":0,"updated_at":"2026-03-01T12:23:52.917952+05:30"},{"city":"Indore","state":"Madhya Pradesh","latitude":22.7196,"longitude":75.8577,"temp":29.2,"humidity":39,"rain":0.0,"pressure":950.6,"uv_index":7.35,"wind_gusts":22.3,"aqi":71,"pm10":22.2,"pm2_5":17.0,"mosquito_risk":4,"arthritis_risk":5,"migraine_risk":7,"frizz_risk":0,"updated_at":"2026-03-01T12:23:52.917958+05:30"},{"city":"Bhopal","state":"Madhya Pradesh","latitude":23.2599,"longitude":77.4126,"temp":28.7,"humidity":41,"rain":0.0,"pressure":956.3,"uv_index":7.2,"wind_gusts":24.1,"aqi":66,"pm10":20.8,"pm2_5":18.3,"mosquito_risk":4,"arthritis_risk":5,"migraine_risk":7,"frizz_risk":0,"updated_at":"2026-03-01T12:23:52.917964+05:30"},{"city":"Jabalpur","state":"Madhya Pradesh","latitude":23.1815,"longitude":79.9864,"temp":30.6,"humidity":40,"rain":0.0,"pressure":963.5,"uv_index":7.3,"wind_gusts":32.8,"aqi":103,"pm10":14.1,"pm2_5":13.6,"mosquito_risk":0,"arthritis_risk":5,"migraine_risk":7,"frizz_risk":0,"updated_at":"2026-03-01T12:23:52.917970+05:30"},{"city":"Ujjain","state":"Madhya Pradesh","latitude":23.1765,"longitude":75.7885,"temp":29.9,"humidity":38,"rain":0.0,"pressure":956.3,"uv_index":7.25,"wind_gusts":20.5,"aqi":81,"pm10":20.4,"pm2_5":15.7,"mosquito_risk":4,"arthritis_risk":5,"migraine_risk":7,"frizz_risk":0,"updated_at":"2026-03-01T12:23:52.917977+05:30"},{"city":"Visakhapatnam","state":"Andhra Pradesh","latitude":17.6868,"longitude":83.2185,"temp":33.6,"humidity":41,"rain":0.0,"pressure":1004.5,"uv_index":8.3,"wind_gusts":39.2,"aqi":144,"pm10":62.2,"pm2_5":59.1,"mosquito_risk":0,"arthritis_risk":5,"migraine_risk":4,"frizz_risk":1,"updated_at":"2026-03-01T12:23:52.917983+05:30"},{"city":"Vijayawada","state":"Andhra Pradesh","latitude":16.5062,"longitude":80.648,"temp":30.8,"humidity":60,"rain":0.0,"pressure":1004.1,"uv_index":8.4,"wind_gusts":25.6,"aqi":151,"pm10":50.1,"pm2_5":47.6,"mosquito_risk":0,"arthritis_risk":5,"migraine_risk":4,"frizz_risk":1,"updated_at":"2026-03-01T12:23:52.917989+05:30"},{"city":"Guntur","state":"Andhra Pradesh","latitude":16.3067,"longitude":80.4365,"temp":32.0,"humidity":52,"rain":0.0,"pressure":1005.1,"uv_index":8.4,"wind_gusts":27.4,"aqi":144,"pm10":48.2,"pm2_5":46.3,"mosquito_risk":0,"arthritis_risk":5,"migraine_risk":4,"frizz_risk":1,"updated_at":"2026-03-01T12:23:52.917996+05:30"},{"city":"Nellore","state":"Andhra Pradesh","latitude":14.4426,"longitude":79.9865,"temp":34.5,"humidity":35,"rain":0.0,"pressure":1006.8,"uv_index":8.6,"wind_gusts":32.0,"aqi":143,"pm10":42.7,"pm2_5":41.1,"mosquito_risk":0,"arthritis_risk":5,"migraine_risk":4,"frizz_risk":1,"updated_at":"2026-03-01T12:23:52.918003+05:30"},{"city":"Kurnool","state":"Andhra Pradesh","latitude":15.8281,"longitude":78.0373,"temp":34.6,"humidity":33,"rain":0.0,"pressure":977.8,"uv_index":8.4,"wind_gusts":22.0,"aqi":114,"pm10":45.1,"pm2_5":44.1,"mosquito_risk":0,"arthritis_risk":5,"migraine_risk":7,"frizz_risk":0,"updated_at":"2026-03-01T12:23:52.918009+05:30"},{"city":"Kakinada","state":"Andhra Pradesh","latitude":16.9891,"longitude":82.2475,"temp":34.8,"humidity":38,"rain":0.0,"pressure":1008.3,"uv_index":8.3,"wind_gusts":34.2,"aqi":150,"pm10":60.5,"pm2_5":56.1,"mosquito_risk":0,"arthritis_risk":0,"migraine_risk":4,"frizz_risk":1,"updated_at":"2026-03-01T12:23:52.918016+05:30"},{"city":"Tirupati","state":"Andhra Pradesh","latitude":13.6288,"longitude":79.4192,"temp":33.0,"humidity":33,"rain":0.0,"pressure":992.8,"uv_index":8.7,"wind_gusts":30.6,"aqi":152,"pm10":39.2,"pm2_5":37.7,"mosquito_risk":0,"arthritis_risk":5,"migraine_risk":7,"frizz_risk":0,"updated_at":"2026-03-01T12:23:52.918021+05:30"},{"city":"Warangal","state":"Telangana","latitude":17.9689,"longitude":79.5941,"temp":30.9,"humidity":53,"rain":0.0,"pressure":980.6,"uv_index":8.1,"wind_gusts":27.7,"aqi":132,"pm10":51.0,"pm2_5":49.8,"mosquito_risk":0,"arthritis_risk":5,"migraine_risk":7,"frizz_risk":1,"updated_at":"2026-03-01T12:23:52.918027+05:30"},{"city":"Nizamabad","state":"Telangana","latitude":18.6725,"longitude":78.0941,"temp":32.0,"humidity":38,"rain":0.0,"pressure":966.6,"uv_index":8.0,"wind_gusts":20.9,"aqi":125,"pm10":33.4,"pm2_5":32.8,"mosquito_risk":0,"arthritis_risk":5,"migraine_risk":7,"frizz_risk":0,"updated_at":"2026-03-01T12:23:52.918033+05:30"},{"city":"Mysore","state":"Karnataka","latitude":12.2958,"longitude":76.6396,"temp":29.9,"humidity":43,"rain":0.0,"pressure":929.5,"uv_index":9.05,"wind_gusts":37.1,"aqi":116,"pm10":53.1,"pm2_5":51.6,"mosquito_risk":4,"arthritis_risk":5,"migraine_risk":7,"frizz_risk":0,"updated_at":"2026-03-01T12:23:52.918040+05:30"},{"city":"Mangalore","state":"Karnataka","latitude":12.9141,"longitude":74.856,"temp":27.8,"humidity":74,"rain":0.0,"pressure":1007.8,"uv_index":8.65,"wind_gusts":33.5,"aqi":46,"pm10":15.1,"pm2_5":11.0,"mosquito_risk":7,"arthritis_risk":5,"migraine_risk":4,"frizz_risk":1,"updated_at":"2026-03-01T12:23:52.918046+05:30"},{"city":"Hubli-Dharwad","state":"Karnataka","latitude":15.3647,"longitude":75.124,"temp":31.8,"humidity":26,"rain":0.0,"pressure":942.2,"uv_index":8.55,"wind_gusts":36.4,"aqi":58,"pm10":16.4,"pm2_5":15.5,"mosquito_risk":0,"arthritis_risk":5,"migraine_risk":7,"frizz_risk":0,"updated_at":"2026-03-01T12:23:52.918053+05:30"},{"city":"Belgaum","state":"Karnataka","latitude":15.8497,"longitude":74.4977,"temp":31.8,"humidity":20,"rain":0.0,"pressure":927.1,"uv_index":8.6,"wind_gusts":38.2,"aqi":56,"pm10":13.8,"pm2_5":13.0,"mosquito_risk":0,"arthritis_risk":5,"migraine_risk":7,"frizz_risk":0,"updated_at":"2026-03-01T12:23:56.213051+05:30"},{"city":"Coimbatore","state":"Tamil Nadu","latitude":11.0168,"longitude":76.9558,"temp":31.4,"humidity":44,"rain":0.0,"pressure":962.7,"uv_index":9.05,"wind_gusts":36.4,"aqi":142,"pm10":50.8,"pm2_5":49.5,"mosquito_risk":0,"arthritis_risk":5,"migraine_risk":7,"frizz_risk":1,"updated_at":"2026-03-01T12:23:56.213084+05:30"},{"city":"Madurai","state":"Tamil Nadu","latitude":9.9252,"longitude":78.1198,"temp":32.5,"humidity":42,"rain":0.0,"pressure":993.9,"uv_index":9.0,"wind_gusts":27.7,"aqi":151,"pm10":46.0,"pm2_5":44.0,"mosquito_risk":0,"arthritis_risk":5,"migraine_risk":7,"frizz_risk":1,"updated_at":"2026-03-01T12:23:56.213096+05:30"},{"city":"Trichy","state":"Tamil Nadu","latitude":10.7905,"longitude":78.7047,"temp":33.3,"humidity":42,"rain":0.0,"pressure":1000.7,"uv_index":8.9,"wind_gusts":26.6,"aqi":151,"pm10":36.8,"pm2_5":34.8,"mosquito_risk":0,"arthritis_risk":5,"migraine_risk":4,"frizz_risk":1,"updated_at":"2026-03-01T12:23:56.213106+05:30"},{"city":"Salem","state":"Tamil Nadu","latitude":11.6643,"longitude":78.146,"temp":34.1,"humidity":32,"rain":0.0,"pressure":978.0,"uv_index":8.95,"wind_gusts":25.6,"aqi":149,"pm10":43.9,"pm2_5":42.3,"mosquito_risk":0,"arthritis_risk":5,"migraine_risk":7,"frizz_risk":0,"updated_at":"2026-03-01T12:23:56.213115+05:30"},{"city":"Tirunelveli","state":"Tamil Nadu","latitude":8.7139,"longitude":77.7567,"temp":33.2,"humidity":43,"rain":0.0,"pressure":1004.0,"uv_index":9.05,"wind_gusts":43.9,"aqi":139,"pm10":44.7,"pm2_5":43.2,"mosquito_risk":0,"arthritis_risk":5,"migraine_risk":4,"frizz_risk":1,"updated_at":"2026-03-01T12:23:56.213124+05:30"},{"city":"Vellore","state":"Tamil Nadu","latitude":12.9165,"longitude":79.1325,"temp":33.4,"humidity":32,"rain":0.0,"pressure":985.6,"uv_index":8.8,"wind_gusts":38.5,"aqi":156,"pm10":41.1,"pm2_5":39.5,"mosquito_risk":0,"arthritis_risk":5,"migraine_risk":7,"frizz_risk":0,"updated_at":"2026-03-01T12:23:56.213134+05:30"},{"city":"Erode","state":"Tamil Nadu","latitude":11.341,"longitude":77.7172,"temp":34.1,"humidity":35,"rain":0.0,"pressure":989.8,"uv_index":8.95,"wind_gusts":26.6,"aqi":138,"pm10":46.4,"pm2_5":44.8,"mosquito_risk":0,"arthritis_risk":5,"migraine_risk":7,"frizz_risk":1,"updated_at":"2026-03-01T12:23:56.213142+05:30"},{"city":"Kochi","state":"Kerala","latitude":9.9312,"longitude":76.2673,"temp":28.0,"humidity":77,"rain":0.0,"pressure":1009.0,"uv_index":8.9,"wind_gusts":33.8,"aqi":106,"pm10":42.0,"pm2_5":40.6,"mosquito_risk":7,"arthritis_risk":0,"migraine_risk":4,"frizz_risk":1,"updated_at":"2026-03-01T12:23:56.213151+05:30"},{"city":"Thiruvananthapuram","state":"Kerala","latitude":8.5241,"longitude":76.9366,"temp":27.8,"humidity":79,"rain":0.0,"pressure":1008.5,"uv_index":8.95,"wind_gusts":23.8,"aqi":90,"pm10":32.6,"pm2_5":31.3,"mosquito_risk":7,"arthritis_risk":0,"migraine_risk":4,"frizz_risk":1,"updated_at":"2026-03-01T12:23:56.213159+05:30"},{"city":"Kozhikode","state":"Kerala","latitude":11.2588,"longitude":75.7804,"temp":29.8,"humidity":61,"rain":0.0,"pressure":1008.5,"uv_index":8.75,"wind_gusts":31.3,"aqi":68,"pm10":24.7,"pm2_5":22.5,"mosquito_risk":7,"arthritis_risk":0,"migraine_risk":4,"frizz_risk":1,"updated_at":"2026-03-01T12:23:56.213167+05:30"},{"city":"Thrissur","state":"Kerala","latitude":10.5276,"longitude":76.2144,"temp":32.6,"humidity":53,"rain":0.0,"pressure":1007.2,"uv_index":8.85,"wind_gusts":39.6,"aqi":109,"pm10":36.4,"pm2_5":35.0,"mosquito_risk":0,"arthritis_risk":5,"migraine_risk":4,"frizz_risk":1,"updated_at":"2026-03-01T12:23:56.213176+05:30"},{"city":"Kannur","state":"Kerala","latitude":11.8745,"longitude":75.3704,"temp":31.3,"humidity":55,"rain":0.0,"pressure":1007.9,"uv_index":8.75,"wind_gusts":38.2,"aqi":50,"pm10":14.8,"pm2_5":11.1,"mosquito_risk":0,"arthritis_risk":5,"migraine_risk":4,"frizz_risk":1,"updated_at":"2026-03-01T12:23:56.213184+05:30"},{"city":"Patna","state":"Bihar","latitude":25.5941,"longitude":85.1376,"temp":30.3,"humidity":41,"rain":0.0,"pressure":1002.0,"uv_index":7.0,"wind_gusts":30.2,"aqi":116,"pm10":85.7,"pm2_5":45.1,"mosquito_risk":0,"arthritis_risk":5,"migraine_risk":4,"frizz_risk":0,"updated_at":"2026-03-01T12:23:56.213192+05:30"},{"city":"Gaya","state":"Bihar","latitude":24.7914,"longitude":85.0002,"temp":30.4,"humidity":40,"rain":0.0,"pressure":995.4,"uv_index":7.1,"wind_gusts":21.2,"aqi":99,"pm10":63.6,"pm2_5":36.4,"mosquito_risk":0,"arthritis_risk":5,"migraine_risk":7,"frizz_risk":0,"updated_at":"2026-03-01T12:23:56.213200+05:30"},{"city":"Muzaffarpur","state":"Bihar","latitude":26.1209,"longitude":85.3647,"temp":30.4,"humidity":38,"rain":0.0,"pressure":1001.8,"uv_index":6.95,"wind_gusts":34.2,"aqi":122,"pm10":88.7,"pm2_5":49.1,"mosquito_risk":0,"arthritis_risk":5,"migraine_risk":4,"frizz_risk":0,"updated_at":"2026-03-01T12:23:56.213207+05:30"},{"city":"Bhagalpur","state":"Bihar","latitude":25.2425,"longitude":87.0117,"temp":29.8,"humidity":46,"rain":0.0,"pressure":1002.3,"uv_index":7.05,"wind_gusts":25.2,"aqi":102,"pm10":70.5,"pm2_5":43.9,"mosquito_risk":4,"arthritis_risk":5,"migraine_risk":4,"frizz_risk":1,"updated_at":"2026-03-01T12:23:56.213214+05:30"},{"city":"Ranchi","state":"Jharkhand","latitude":23.3441,"longitude":85.3096,"temp":28.5,"humidity":30,"rain":0.0,"pressure":939.3,"uv_index":7.75,"wind_gusts":27.7,"aqi":85,"pm10":36.7,"pm2_5":32.4,"mosquito_risk":4,"arthritis_risk":5,"migraine_risk":7,"frizz_risk":0,"updated_at":"2026-03-01T12:23:56.213220+05:30"},{"city":"Jamshedpur","state":"Jharkhand","latitude":22.8046,"longitude":86.2029,"temp":30.9,"humidity":34,"rain":0.0,"pressure":992.0,"uv_index":7.7,"wind_gusts":10.8,"aqi":127,"pm10":51.5,"pm2_5":42.5,"mosquito_risk":0,"arthritis_risk":5,"migraine_risk":7,"frizz_risk":0,"updated_at":"2026-03-01T12:23:56.213226+05:30"},{"city":"Dhanbad","state":"Jharkhand","latitude":23.7957,"longitude":86.4304,"temp":32.5,"humidity":22,"rain":0.0,"pressure":981.0,"uv_index":7.55,"wind_gusts":31.0,"aqi":150,"pm10":54.0,"pm2_5":42.7,"mosquito_risk":0,"arthritis_risk":5,"migraine_risk":7,"frizz_risk":0,"updated_at":"2026-03-01T12:23:56.213274+05:30"},{"city":"Bokaro","state":"Jharkhand","latitude":23.6693,"longitude":86.1511,"temp":32.3,"humidity":23,"rain":0.0,"pressure":985.1,"uv_index":7.55,"wind_gusts":30.6,"aqi":150,"pm10":51.6,"pm2_5":42.0,"mosquito_risk":0,"arthritis_risk":5,"migraine_risk":7,"frizz_risk":0,"updated_at":"2026-03-01T12:23:56.213284+05:30"},{"city":"Bhubaneswar","state":"Odisha","latitude":20.2961,"longitude":85.8245,"temp":34.1,"humidity":33,"rain":0.0,"pressure":1003.4,"uv_index":8.05,"wind_gusts":28.1,"aqi":102,"pm10":44.0,"pm2_5":42.4,"mosquito_risk":0,"arthritis_risk":5,"migraine_risk":4,"frizz_risk":0,"updated_at":"2026-03-01T12:23:56.213292+05:30"},{"city":"Cuttack","state":"Odisha","latitude":20.4625,"longitude":85.8828,"temp":34.7,"humidity":35,"rain":0.0,"pressure":1005.1,"uv_index":8.05,"wind_gusts":29.9,"aqi":102,"pm10":44.0,"pm2_5":42.4,"mosquito_risk":0,"arthritis_risk":5,"migraine_risk":4,"frizz_risk":1,"updated_at":"2026-03-01T12:23:56.213298+05:30"},{"city":"Rourkela","state":"Odisha","latitude":22.2604,"longitude":84.8536,"temp":32.3,"humidity":27,"rain":0.0,"pressure":986.2,"uv_index":7.6,"wind_gusts":22.3,"aqi":116,"pm10":55.4,"pm2_5":53.3,"mosquito_risk":0,"arthritis_risk":5,"migraine_risk":7,"frizz_risk":0,"updated_at":"2026-03-01T12:23:56.213304+05:30"},{"city":"Raipur","state":"Chhattisgarh","latitude":21.2514,"longitude":81.6296,"temp":33.2,"humidity":36,"rain":0.0,"pressure":975.8,"uv_index":7.75,"wind_gusts":27.4,"aqi":158,"pm10":61.0,"pm2_5":60.5,"mosquito_risk":0,"arthritis_risk":5,"migraine_risk":7,"frizz_risk":1,"updated_at":"2026-03-01T12:23:56.213310+05:30"},{"city":"Bhilai","state":"Chhattisgarh","latitude":21.1938,"longitude":81.3509,"temp":33.2,"humidity":40,"rain":0.0,"pressure":976.2,"uv_index":7.75,"wind_gusts":26.6,"aqi":160,"pm10":47.1,"pm2_5":46.6,"mosquito_risk":0,"arthritis_risk":5,"migraine_risk":7,"frizz_risk":1,"updated_at":"2026-03-01T12:23:56.213316+05:30"},{"city":"Guwahati","state":"Assam","latitude":26.1158,"longitude":91.7086,"temp":25.4,"humidity":67,"rain":0.0,"pressure":1003.0,"uv_index":7.0,"wind_gusts":32.0,"aqi":163,"pm10":82.0,"pm2_5":65.4,"mosquito_risk":7,"arthritis_risk":5,"migraine_risk":4,"frizz_risk":1,"updated_at":"2026-03-01T12:23:56.213322+05:30"},{"city":"Agartala","state":"Tripura","latitude":23.8315,"longitude":91.2868,"temp":29.8,"humidity":55,"rain":0.0,"pressure":1006.8,"uv_index":7.35,"wind_gusts":29.5,"aqi":132,"pm10":38.0,"pm2_5":25.2,"mosquito_risk":4,"arthritis_risk":5,"migraine_risk":4,"frizz_risk":1,"updated_at":"2026-03-01T12:23:56.213329+05:30"},{"city":"Shillong","state":"Meghalaya","latitude":25.5788,"longitude":91.8933,"temp":16.4,"humidity":45,"rain":0.0,"pressure":855.6,"uv_index":6.8,"wind_gusts":56.9,"aqi":153,"pm10":63.1,"pm2_5":40.6,"mosquito_risk":0,"arthritis_risk":5,"migraine_risk":7,"frizz_risk":0,"updated_at":"2026-03-01T12:23:56.213335+05:30"},{"city":"Imphal","state":"Manipur","latitude":24.817,"longitude":93.9368,"temp":21.2,"humidity":43,"rain":0.0,"pressure":923.0,"uv_index":7.55,"wind_gusts":54.0,"aqi":151,"pm10":57.7,"pm2_5":36.4,"mosquito_risk":0,"arthritis_risk":5,"migraine_risk":7,"frizz_risk":0,"updated_at":"2026-03-01T12:23:56.213344+05:30"},{"city":"Aizawl","state":"Mizoram","latitude":23.7271,"longitude":92.7176,"temp":23.8,"humidity":36,"rain":0.0,"pressure":894.1,"uv_index":7.55,"wind_gusts":40.0,"aqi":123,"pm10":56.2,"pm2_5":31.4,"mosquito_risk":0,"arthritis_risk":5,"migraine_risk":7,"frizz_risk":0,"updated_at":"2026-03-01T12:23:56.213350+05:30"},{"city":"Kohima","state":"Nagaland","latitude":25.6701,"longitude":94.1077,"temp":16.7,"humidity":57,"rain":0.0,"pressure":854.8,"uv_index":7.4,"wind_gusts":76.0,"aqi":152,"pm10":59.5,"pm2_5":39.7,"mosquito_risk":0,"arthritis_risk":5,"migraine_risk":7,"frizz_risk":0,"updated_at":"2026-03-01T12:23:56.213356+05:30"},{"city":"Gangtok","state":"Sikkim","latitude":27.3314,"longitude":88.6138,"temp":12.7,"humidity":86,"rain":0.1,"pressure":835.8,"uv_index":5.3,"wind_gusts":12.2,"aqi":137,"pm10":46.2,"pm2_5":30.7,"mosquito_risk":6,"arthritis_risk":10,"migraine_risk":3,"frizz_risk":0,"updated_at":"2026-03-01T12:23:56.213362+05:30"},{"city":"Siliguri","state":"West Bengal","latitude":26.7271,"longitude":88.3953,"temp":23.4,"humidity":54,"rain":0.0,"pressure":994.5,"uv_index":7.0,"wind_gusts":31.7,"aqi":171,"pm10":115.0,"pm2_5":75.9,"mosquito_risk":0,"arthritis_risk":5,"migraine_risk":7,"frizz_risk":0,"updated_at":"2026-03-01T12:23:59.515542+05:30"},{"city":"Durgapur","state":"West Bengal","latitude":23.5204,"longitude":87.3119,"temp":34.0,"humidity":21,"rain":0.0,"pressure":995.6,"uv_index":7.55,"wind_gusts":28.8,"aqi":122,"pm10":56.1,"pm2_5":40.6,"mosquito_risk":0,"arthritis_risk":5,"migraine_risk":7,"frizz_risk":0,"updated_at":"2026-03-01T12:23:59.515568+05:30"},{"city":"Asansol","state":"West Bengal","latitude":23.6739,"longitude":86.9524,"temp":33.6,"humidity":21,"rain":0.0,"pressure":994.3,"uv_index":7.55,"wind_gusts":28.1,"aqi":106,"pm10":53.6,"pm2_5":39.9,"mosquito_risk":0,"arthritis_risk":5,"migraine_risk":7,"frizz_risk":0,"updated_at":"2026-03-01T12:23:59.515577+05:30"},{"city":"Pondicherry","state":"Puducherry","latitude":11.9139,"longitude":79.8145,"temp":32.3,"humidity":53,"rain":0.0,"pressure":1009.7,"uv_index":8.8,"wind_gusts":29.2,"aqi":144,"pm10":52.5,"pm2_5":48.8,"mosquito_risk":0,"arthritis_risk":0,"migraine_risk":4,"frizz_risk":1,"updated_at":"2026-03-01T12:23:59.515584+05:30"},{"city":"Port Blair","state":"Andaman and Nicobar Islands","latitude":11.6234,"longitude":92.7265,"temp":28.2,"humidity":60,"rain":0.0,"pressure":1006.8,"uv_index":8.7,"wind_gusts":26.3,"aqi":103,"pm10":21.1,"pm2_5":18.4,"mosquito_risk":4,"arthritis_risk":5,"migraine_risk":4,"frizz_risk":1,"updated_at":"2026-03-01T12:23:59.515591+05:30"},{"city":"Haridwar","state":"Uttarakhand","latitude":29.9457,"longitude":78.1642,"temp":26.6,"humidity":43,"rain":0.0,"pressure":976.3,"uv_index":5.4,"wind_gusts":40.3,"aqi":107,"pm10":52.0,"pm2_5":30.6,"mosquito_risk":4,"arthritis_risk":5,"migraine_risk":3,"frizz_risk":0,"updated_at":"2026-03-01T12:23:59.515597+05:30"},{"city":"Rishikesh","state":"Uttarakhand","latitude":30.0869,"longitude":78.2676,"temp":26.6,"humidity":39,"rain":0.0,"pressure":968.7,"uv_index":5.5,"wind_gusts":37.1,"aqi":89,"pm10":48.1,"pm2_5":22.8,"mosquito_risk":4,"arthritis_risk":5,"migraine_risk":3,"frizz_risk":0,"updated_at":"2026-03-01T12:23:59.515604+05:30"},{"city":"Nainital","state":"Uttarakhand","latitude":29.3919,"longitude":79.4542,"temp":20.0,"humidity":50,"rain":0.0,"pressure":807.2,"uv_index":6.3,"wind_gusts":43.9,"aqi":85,"pm10":46.8,"pm2_5":25.2,"mosquito_risk":0,"arthritis_risk":5,"migraine_risk":7,"frizz_risk":0,"updated_at":"2026-03-01T12:23:59.515610+05:30"},{"city":"Mussoorie","state":"Uttarakhand","latitude":30.4599,"longitude":78.0664,"temp":18.6,"humidity":36,"rain":0.0,"pressure":803.9,"uv_index":5.85,"wind_gusts":41.8,"aqi":88,"pm10":44.7,"pm2_5":21.8,"mosquito_risk":0,"arthritis_risk":5,"migraine_risk":3,"frizz_risk":0,"updated_at":"2026-03-01T12:23:59.515615+05:30"},{"city":"Dharamshala","state":"Himachal Pradesh","latitude":32.219,"longitude":76.3234,"temp":21.2,"humidity":43,"rain":0.0,"pressure":870.8,"uv_index":6.05,"wind_gusts":27.7,"aqi":58,"pm10":19.0,"pm2_5":8.6,"mosquito_risk":0,"arthritis_risk":5,"migraine_risk":7,"frizz_risk":0,"updated_at":"2026-03-01T12:23:59.515621+05:30"},{"city":"Dalhousie","state":"Himachal Pradesh","latitude":32.5387,"longitude":75.971,"temp":20.9,"humidity":21,"rain":0.0,"pressure":806.2,"uv_index":6.25,"wind_gusts":28.8,"aqi":90,"pm10":39.3,"pm2_5":21.5,"mosquito_risk":0,"arthritis_risk":5,"migraine_risk":7,"frizz_risk":1,"updated_at":"2026-03-01T12:23:59.515627+05:30"},{"city":"Patiala","state":"Punjab","latitude":30.3398,"longitude":76.3869,"temp":26.6,"humidity":50,"rain":0.0,"pressure":981.3,"uv_index":5.5,"wind_gusts":29.9,"aqi":154,"pm10":218.4,"pm2_5":65.2,"mosquito_risk":4,"arthritis_risk":5,"migraine_risk":3,"frizz_risk":0,"updated_at":"2026-03-01T12:23:59.515633+05:30"},{"city":"Bhatinda","state":"Punjab","latitude":30.211,"longitude":74.9455,"temp":28.0,"humidity":43,"rain":0.0,"pressure":987.2,"uv_index":6.2,"wind_gusts":21.2,"aqi":146,"pm10":94.1,"pm2_5":63.1,"mosquito_risk":4,"arthritis_risk":5,"migraine_risk":7,"frizz_risk":0,"updated_at":"2026-03-01T12:23:59.515639+05:30"},{"city":"Rohtak","state":"Haryana","latitude":28.8955,"longitude":76.6066,"temp":28.0,"humidity":40,"rain":0.0,"pressure":985.1,"uv_index":5.7,"wind_gusts":29.2,"aqi":157,"pm10":196.0,"pm2_5":61.0,"mosquito_risk":4,"arthritis_risk":5,"migraine_risk":3,"frizz_risk":0,"updated_at":"2026-03-01T12:23:59.515645+05:30"},{"city":"Panipat","state":"Haryana","latitude":29.3909,"longitude":76.9635,"temp":27.5,"humidity":41,"rain":0.0,"pressure":983.4,"uv_index":5.5,"wind_gusts":29.9,"aqi":326,"pm10":470.3,"pm2_5":88.2,"mosquito_risk":4,"arthritis_risk":5,"migraine_risk":3,"frizz_risk":0,"updated_at":"2026-03-01T12:23:59.515650+05:30"},{"city":"Mathura","state":"Uttar Pradesh","latitude":27.4924,"longitude":77.6737,"temp":29.5,"humidity":36,"rain":0.0,"pressure":990.0,"uv_index":5.95,"wind_gusts":23.0,"aqi":156,"pm10":255.2,"pm2_5":63.1,"mosquito_risk":4,"arthritis_risk":5,"migraine_risk":3,"frizz_risk":0,"updated_at":"2026-03-01T12:23:59.515656+05:30"},{"city":"Vrindavan","state":"Uttar Pradesh","latitude":27.5823,"longitude":77.7027,"temp":29.0,"humidity":38,"rain":0.0,"pressure":990.4,"uv_index":5.95,"wind_gusts":25.6,"aqi":156,"pm10":255.2,"pm2_5":63.1,"mosquito_risk":4,"arthritis_risk":5,"migraine_risk":3,"frizz_risk":0,"updated_at":"2026-03-01T12:23:59.515661+05:30"},{"city":"Ayodhya","state":"Uttar Pradesh","latitude":26.7922,"longitude":82.1998,"temp":29.6,"humidity":39,"rain":0.0,"pressure":997.1,"uv_index":6.35,"wind_gusts":36.4,"aqi":121,"pm10":63.1,"pm2_5":37.5,"mosquito_risk":4,"arthritis_risk":5,"migraine_risk":7,"frizz_risk":0,"updated_at":"2026-03-01T12:23:59.515667+05:30"},{"city":"Ratlam","state":"Madhya Pradesh","latitude":23.3315,"longitude":75.0367,"temp":29.3,"humidity":40,"rain":0.0,"pressure":957.3,"uv_index":7.2,"wind_gusts":27.7,"aqi":75,"pm10":20.5,"pm2_5":14.8,"mosquito_risk":4,"arthritis_risk":5,"migraine_risk":7,"frizz_risk":0,"updated_at":"2026-03-01T12:23:59.515673+05:30"},{"city":"Sagar","state":"Madhya Pradesh","latitude":23.8388,"longitude":78.7378,"temp":29.5,"humidity":39,"rain":0.0,"pressure":952.6,"uv_index":7.15,"wind_gusts":19.1,"aqi":53,"pm10":18.5,"pm2_5":14.6,"mosquito_risk":4,"arthritis_risk":5,"migraine_risk":7,"frizz_risk":0,"updated_at":"2026-03-01T12:23:59.515678+05:30"},{"city":"Satna","state":"Madhya Pradesh","latitude":24.6005,"longitude":80.8322,"temp":31.0,"humidity":33,"rain":0.0,"pressure":973.4,"uv_index":7.1,"wind_gusts":28.4,"aqi":103,"pm10":44.1,"pm2_5":29.7,"mosquito_risk":0,"arthritis_risk":5,"migraine_risk":7,"frizz_risk":0,"updated_at":"2026-03-01T12:23:59.515684+05:30"},{"city":"Akola","state":"Maharashtra","latitude":20.7002,"longitude":77.0082,"temp":33.4,"humidity":29,"rain":0.0,"pressure":977.1,"uv_index":7.7,"wind_gusts":28.4,"aqi":71,"pm10":19.6,"pm2_5":17.8,"mosquito_risk":0,"arthritis_risk":5,"migraine_risk":7,"frizz_risk":0,"updated_at":"2026-03-01T12:23:59.515690+05:30"},{"city":"Amravati","state":"Maharashtra","latitude":20.9374,"longitude":77.7796,"temp":33.7,"humidity":28,"rain":0.0,"pressure":969.4,"uv_index":7.65,"wind_gusts":27.4,"aqi":77,"pm10":15.6,"pm2_5":13.9,"mosquito_risk":0,"arthritis_risk":5,"migraine_risk":7,"frizz_risk":0,"updated_at":"2026-03-01T12:23:59.515697+05:30"},{"city":"Latur","state":"Maharashtra","latitude":18.4088,"longitude":76.5604,"temp":30.0,"humidity":37,"rain":0.0,"pressure":941.7,"uv_index":8.15,"wind_gusts":25.6,"aqi":76,"pm10":21.3,"pm2_5":20.4,"mosquito_risk":4,"arthritis_risk":5,"migraine_risk":7,"frizz_risk":0,"updated_at":"2026-03-01T12:23:59.515702+05:30"},{"city":"Nanded","state":"Maharashtra","latitude":19.1383,"longitude":77.3091,"temp":32.8,"humidity":34,"rain":0.0,"pressure":970.6,"uv_index":7.9,"wind_gusts":15.5,"aqi":79,"pm10":16.1,"pm2_5":15.0,"mosquito_risk":0,"arthritis_risk":5,"migraine_risk":7,"frizz_risk":0,"updated_at":"2026-03-01T12:23:59.515708+05:30"},{"city":"Gulbarga","state":"Karnataka","latitude":17.3297,"longitude":76.8343,"temp":32.6,"humidity":35,"rain":0.0,"pressure":959.9,"uv_index":8.25,"wind_gusts":14.8,"aqi":93,"pm10":40.5,"pm2_5":39.7,"mosquito_risk":0,"arthritis_risk":5,"migraine_risk":7,"frizz_risk":0,"updated_at":"2026-03-01T12:23:59.515714+05:30"},{"city":"Bidar","state":"Karnataka","latitude":17.9104,"longitude":77.5199,"temp":30.5,"humidity":42,"rain":0.0,"pressure":937.1,"uv_index":8.2,"wind_gusts":19.1,"aqi":110,"pm10":31.7,"pm2_5":31.1,"mosquito_risk":0,"arthritis_risk":5,"migraine_risk":7,"frizz_risk":1,"updated_at":"2026-03-01T12:23:59.515719+05:30"},{"city":"Hospet","state":"Karnataka","latitude":15.2689,"longitude":76.3909,"temp":31.0,"humidity":37,"rain":0.0,"pressure":957.1,"uv_index":8.55,"wind_gusts":24.5,"aqi":95,"pm10":28.6,"pm2_5":27.9,"mosquito_risk":0,"arthritis_risk":5,"migraine_risk":7,"frizz_risk":0,"updated_at":"2026-03-01T12:23:59.515725+05:30"},{"city":"Tirupur","state":"Tamil Nadu","latitude":11.1085,"longitude":77.3411,"temp":32.7,"humidity":40,"rain":0.0,"pressure":976.1,"uv_index":9.1,"wind_gusts":20.5,"aqi":151,"pm10":54.0,"pm2_5":52.6,"mosquito_risk":0,"arthritis_risk":5,"migraine_risk":7,"frizz_risk":1,"updated_at":"2026-03-01T12:23:59.515730+05:30"},{"city":"Alappuzha","state":"Kerala","latitude":9.4981,"longitude":76.3388,"temp":28.1,"humidity":77,"rain":0.0,"pressure":1009.1,"uv_index":8.9,"wind_gusts":31.3,"aqi":92,"pm10":38.1,"pm2_5":36.8,"mosquito_risk":7,"arthritis_risk":0,"migraine_risk":4,"frizz_risk":1,"updated_at":"2026-03-01T12:23:59.515736+05:30"},{"city":"Munnar","state":"Kerala","latitude":10.0889,"longitude":77.0595,"temp":27.9,"humidity":40,"rain":0.0,"pressure":859.1,"uv_index":9.4,"wind_gusts":27.0,"aqi":128,"pm10":41.0,"pm2_5":39.6,"mosquito_risk":4,"arthritis_risk":5,"migraine_risk":7,"frizz_risk":0,"updated_at":"2026-03-01T12:23:59.515742+05:30"},{"city":"Silchar","state":"Assam","latitude":24.8333,"longitude":92.7789,"temp":29.2,"humidity":46,"rain":0.0,"pressure":1006.0,"uv_index":7.3,"wind_gusts":20.5,"aqi":157,"pm10":66.4,"pm2_5":43.7,"mosquito_risk":4,"arthritis_risk":5,"migraine_risk":4,"frizz_risk":1,"updated_at":"2026-03-01T12:23:59.515747+05:30"},{"city":"Dibrugarh","state":"Assam","latitude":27.4728,"longitude":94.912,"temp":20.2,"humidity":80,"rain":0.0,"pressure":997.9,"uv_index":7.0,"wind_gusts":13.7,"aqi":158,"pm10":96.4,"pm2_5":82.7,"mosquito_risk":3,"arthritis_risk":5,"migraine_risk":7,"frizz_risk":1,"updated_at":"2026-03-01T12:23:59.515753+05:30"}]