[{"city":"Delhi","state":"Delhi","latitude":28.6139,"longitude":77.209,"temp":33.9,"humidity":56,"rain":0.0,"pressure":976.7,"uv_index":6.85,"wind_gusts":24.1,"aqi":101,"pm10":39.6,"pm2_5":25.8,"no2":8.5,"co":503.0,"o3":199.0,"so2":25.3,"mosquito_risk":0,"arthritis_risk":5,"migraine_risk":7,"frizz_risk":1,"updated_at":"2026-07-03T13:41:28.968449+05:30"},{"city":"Mumbai","state":"Maharashtra","latitude":19.076,"longitude":72.8777,"temp":25.8,"humidity":90,"rain":0.4,"pressure":1006.1,"uv_index":0.95,"wind_gusts":44.3,"aqi":48,"pm10":18.9,"pm2_5":9.6,"no2":6.2,"co":230.0,"o3":61.0,"so2":4.5,"mosquito_risk":10,"arthritis_risk":5,"migraine_risk":0,"frizz_risk":1,"updated_at":"2026-07-03T13:41:28.968516+05:30"},{"city":"Bangalore","state":"Karnataka","latitude":12.9716,"longitude":77.5946,"temp":26.8,"humidity":65,"rain":0.0,"pressure":911.0,"uv_index":6.75,"wind_gusts":58.7,"aqi":23,"pm10":13.9,"pm2_5":6.7,"no2":3.1,"co":261.0,"o3":70.0,"so2":1.9,"mosquito_risk":7,"arthritis_risk":5,"migraine_risk":7,"frizz_risk":1,"updated_at":"2026-07-03T13:41:28.968532+05:30"},{"city":"Hyderabad","state":"Telangana","latitude":17.385,"longitude":78.4867,"temp":26.0,"humidity":82,"rain":0.1,"pressure":949.4,"uv_index":2.8,"wind_gusts":54.7,"aqi":25,"pm10":6.7,"pm2_5":4.9,"no2":4.1,"co":224.0,"o3":57.0,"so2":3.8,"mosquito_risk":10,"arthritis_risk":5,"migraine_risk":3,"frizz_risk":1,"updated_at":"2026-07-03T13:41:28.968542+05:30"},{"city":"Chennai","state":"Tamil Nadu","latitude":13.0827,"longitude":80.2707,"temp":30.1,"humidity":73,"rain":0.1,"pressure":1005.4,"uv_index":7.55,"wind_gusts":45.7,"aqi":52,"pm10":17.8,"pm2_5":12.2,"no2":5.1,"co":180.0,"o3":97.0,"so2":7.3,"mosquito_risk":6,"arthritis_risk":5,"migraine_risk":4,"frizz_risk":1,"updated_at":"2026-07-03T13:41:28.968551+05:30"},{"city":"Kolkata","state":"West Bengal","latitude":22.5726,"longitude":88.3639,"temp":32.8,"humidity":66,"rain":0.0,"pressure":996.7,"uv_index":7.45,"wind_gusts":37.1,"aqi":61,"pm10":8.6,"pm2_5":7.3,"no2":2.3,"co":237.0,"o3":95.0,"so2":7.1,"mosquito_risk":3,"arthritis_risk":5,"migraine_risk":7,"frizz_risk":1,"updated_at":"2026-07-03T13:41:28.968560+05:30"},{"city":"Pune","state":"Maharashtra","latitude":18.5204,"longitude":73.8567,"temp":26.0,"humidity":78,"rain":0.1,"pressure":945.3,"uv_index":1.45,"wind_gusts":50.8,"aqi":21,"pm10":3.9,"pm2_5":3.1,"no2":5.5,"co":170.0,"o3":55.0,"so2":4.4,"mosquito_risk":10,"arthritis_risk":5,"migraine_risk":3,"frizz_risk":1,"updated_at":"2026-07-03T13:41:28.968567+05:30"},{"city":"Ahmedabad","state":"Gujarat","latitude":23.0225,"longitude":72.5714,"temp":34.0,"humidity":56,"rain":0.0,"pressure":996.4,"uv_index":2.45,"wind_gusts":42.5,"aqi":57,"pm10":54.5,"pm2_5":21.2,"no2":2.9,"co":134.0,"o3":68.0,"so2":4.0,"mosquito_risk":0,"arthritis_risk":5,"migraine_risk":3,"frizz_risk":1,"updated_at":"2026-07-03T13:41:28.968574+05:30"},{"city":"Jaipur","state":"Rajasthan","latitude":26.9124,"longitude":75.7873,"temp":34.6,"humidity":51,"rain":0.0,"pressure":954.0,"uv_index":6.6,"wind_gusts":42.1,"aqi":118,"pm10":189.1,"pm2_5":51.3,"no2":1.2,"co":166.0,"o3":120.0,"so2":3.6,"mosquito_risk":0,"arthritis_risk":5,"migraine_risk":7,"frizz_risk":1,"updated_at":"2026-07-03T13:41:28.968581+05:30"},{"city":"Lucknow","state":"Uttar Pradesh","latitude":26.8467,"longitude":80.9462,"temp":33.8,"humidity":65,"rain":0.0,"pressure":986.5,"uv_index":7.85,"wind_gusts":31.3,"aqi":82,"pm10":23.9,"pm2_5":23.6,"no2":1.8,"co":313.0,"o3":151.0,"so2":5.6,"mosquito_risk":3,"arthritis_risk":5,"migraine_risk":7,"frizz_risk":1,"updated_at":"2026-07-03T13:41:28.968592+05:30"},{"city":"Kanpur","state":"Uttar Pradesh","latitude":26.4499,"longitude":80.3319,"temp":32.7,"humidity":68,"rain":0.0,"pressure":984.7,"uv_index":7.65,"wind_gusts":27.4,"aqi":82,"pm10":49.0,"pm2_5":23.3,"no2":2.1,"co":322.0,"o3":150.0,"so2":5.7,"mosquito_risk":3,"arthritis_risk":5,"migraine_risk":7,"frizz_risk":1,"updated_at":"2026-07-03T13:41:28.968600+05:30"},{"city":"Chandigarh","state":"Chandigarh","latitude":30.7333,"longitude":76.7794,"temp":34.6,"humidity":51,"rain":0.0,"pressure":963.9,"uv_index":7.7,"wind_gusts":22.7,"aqi":90,"pm10":32.1,"pm2_5":30.7,"no2":2.5,"co":356.0,"o3":191.0,"so2":9.2,"mosquito_risk":0,"arthritis_risk":5,"migraine_risk":7,"frizz_risk":1,"updated_at":"2026-07-03T13:41:28.968607+05:30"},{"city":"Srinagar","state":"Jammu and Kashmir","latitude":34.0837,"longitude":74.7973,"temp":28.7,"humidity":49,"rain":0.0,"pressure":842.0,"uv_index":9.05,"wind_gusts":27.4,"aqi":76,"pm10":19.1,"pm2_5":14.6,"no2":1.7,"co":281.0,"o3":165.0,"so2":3.0,"mosquito_risk":4,"arthritis_risk":5,"migraine_risk":7,"frizz_risk":1,"updated_at":"2026-07-03T13:41:28.968614+05:30"},{"city":"Jammu","state":"Jammu and Kashmir","latitude":32.7266,"longitude":74.857,"temp":34.6,"humidity":50,"rain":0.0,"pressure":968.5,"uv_index":8.6,"wind_gusts":24.1,"aqi":152,"pm10":58.1,"pm2_5":28.2,"no2":1.6,"co":332.0,"o3":179.0,"so2":3.3,"mosquito_risk":0,"arthritis_risk":5,"migraine_risk":7,"frizz_risk":1,"updated_at":"2026-07-03T13:41:28.968621+05:30"},{"city":"Amritsar","state":"Punjab","latitude":31.634,"longitude":74.8723,"temp":35.2,"humidity":55,"rain":0.0,"pressure":975.9,"uv_index":8.4,"wind_gusts":27.4,"aqi":158,"pm10":28.5,"pm2_5":23.1,"no2":1.7,"co":342.0,"o3":172.0,"so2":6.4,"mosquito_risk":0,"arthritis_risk":5,"migraine_risk":10,"frizz_risk":1,"updated_at":"2026-07-03T13:41:28.968627+05:30"},{"city":"Ludhiana","state":"Punjab","latitude":30.901,"longitude":75.8573,"temp":34.4,"humidity":57,"rain":0.0,"pressure":973.7,"uv_index":7.95,"wind_gusts":22.3,"aqi":118,"pm10":35.3,"pm2_5":34.8,"no2":2.1,"co":337.0,"o3":177.0,"so2":8.2,"mosquito_risk":0,"arthritis_risk":5,"migraine_risk":7,"frizz_risk":1,"updated_at":"2026-07-03T13:41:28.968634+05:30"},{"city":"Jalandhar","state":"Punjab","latitude":31.326,"longitude":75.5762,"temp":33.5,"humidity":59,"rain":0.1,"pressure":975.0,"uv_index":8.15,"wind_gusts":24.5,"aqi":152,"pm10":31.7,"pm2_5":31.3,"no2":2.0,"co":272.0,"o3":187.0,"so2":7.8,"mosquito_risk":3,"arthritis_risk":5,"migraine_risk":7,"frizz_risk":1,"updated_at":"2026-07-03T13:41:28.968640+05:30"},{"city":"Dehradun","state":"Uttarakhand","latitude":30.6284,"longitude":78.0322,"temp":23.5,"humidity":79,"rain":0.1,"pressure":830.1,"uv_index":7.8,"wind_gusts":25.6,"aqi":49,"pm10":8.7,"pm2_5":7.9,"no2":2.8,"co":219.0,"o3":126.0,"so2":1.4,"mosquito_risk":6,"arthritis_risk":5,"migraine_risk":7,"frizz_risk":1,"updated_at":"2026-07-03T13:41:28.968647+05:30"},{"city":"Shimla","state":"Himachal Pradesh","latitude":31.1048,"longitude":77.1734,"temp":19.1,"humidity":86,"rain":0.2,"pressure":784.6,"uv_index":7.6,"wind_gusts":29.9,"aqi":64,"pm10":10.6,"pm2_5":9.1,"no2":1.9,"co":227.0,"o3":147.0,"so2":4.3,"mosquito_risk":6,"arthritis_risk":10,"migraine_risk":7,"frizz_risk":1,"updated_at":"2026-07-03T13:41:28.968653+05:30"},{"city":"Manali","state":"Himachal Pradesh","latitude":32.2396,"longitude":77.1887,"temp":26.0,"humidity":62,"rain":0.0,"pressure":820.1,"uv_index":9.55,"wind_gusts":30.2,"aqi":53,"pm10":14.3,"pm2_5":13.7,"no2":9.4,"co":189.0,"o3":139.0,"so2":0.7,"mosquito_risk":7,"arthritis_risk":5,"migraine_risk":7,"frizz_risk":1,"updated_at":"2026-07-03T13:41:28.968662+05:30"},{"city":"Gurgaon","state":"Haryana","latitude":28.4595,"longitude":77.0266,"temp":33.8,"humidity":55,"rain":0.0,"pressure":975.2,"uv_index":7.6,"wind_gusts":29.9,"aqi":151,"pm10":33.2,"pm2_5":21.0,"no2":6.8,"co":429.0,"o3":188.0,"so2":17.0,"mosquito_risk":0,"arthritis_risk":5,"migraine_risk":7,"frizz_risk":1,"updated_at":"2026-07-03T13:41:28.968671+05:30"},{"city":"Noida","state":"Uttar Pradesh","latitude":28.5355,"longitude":77.391,"temp":34.1,"humidity":57,"rain":0.0,"pressure":978.1,"uv_index":5.8,"wind_gusts":26.3,"aqi":151,"pm10":33.2,"pm2_5":21.0,"no2":6.8,"co":372.0,"o3":188.0,"so2":17.0,"mosquito_risk":0,"arthritis_risk":5,"migraine_risk":3,"frizz_risk":1,"updated_at":"2026-07-03T13:41:28.968677+05:30"},{"city":"Ghaziabad","state":"Uttar Pradesh","latitude":28.6692,"longitude":77.4538,"temp":34.0,"humidity":58,"rain":0.0,"pressure":976.5,"uv_index":6.4,"wind_gusts":29.2,"aqi":86,"pm10":16.1,"pm2_5":16.0,"no2":5.2,"co":278.0,"o3":145.0,"so2":11.2,"mosquito_risk":0,"arthritis_risk":5,"migraine_risk":7,"frizz_risk":1,"updated_at":"2026-07-03T13:41:28.968684+05:30"},{"city":"Faridabad","state":"Haryana","latitude":28.4089,"longitude":77.3178,"temp":33.6,"humidity":56,"rain":0.0,"pressure":977.5,"uv_index":5.8,"wind_gusts":29.9,"aqi":151,"pm10":33.2,"pm2_5":21.0,"no2":6.8,"co":373.0,"o3":188.0,"so2":17.0,"mosquito_risk":0,"arthritis_risk":5,"migraine_risk":3,"frizz_risk":1,"updated_at":"2026-07-03T13:41:28.968690+05:30"},{"city":"Meerut","state":"Uttar Pradesh","latitude":28.9845,"longitude":77.7064,"temp":33.5,"humidity":62,"rain":0.0,"pressure":975.6,"uv_index":5.8,"wind_gusts":28.4,"aqi":86,"pm10":16.1,"pm2_5":16.0,"no2":5.2,"co":336.0,"o3":145.0,"so2":11.2,"mosquito_risk":3,"arthritis_risk":5,"migraine_risk":3,"frizz_risk":1,"updated_at":"2026-07-03T13:41:28.968697+05:30"},{"city":"Agra","state":"Uttar Pradesh","latitude":27.1767,"longitude":78.0081,"temp":33.2,"humidity":60,"rain":0.0,"pressure":981.3,"uv_index":6.45,"wind_gusts":16.6,"aqi":126,"pm10":15.4,"pm2_5":12.7,"no2":2.7,"co":315.0,"o3":162.0,"so2":5.6,"mosquito_risk":0,"arthritis_risk":5,"migraine_risk":7,"frizz_risk":1,"updated_at":"2026-07-03T13:41:28.968703+05:30"},{"city":"Varanasi","state":"Uttar Pradesh","latitude":25.3176,"longitude":82.9739,"temp":34.5,"humidity":59,"rain":0.0,"pressure":989.2,"uv_index":7.05,"wind_gusts":32.0,"aqi":93,"pm10":24.1,"pm2_5":23.3,"no2":1.4,"co":277.0,"o3":142.0,"so2":6.5,"mosquito_risk":0,"arthritis_risk":5,"migraine_risk":7,"frizz_risk":1,"updated_at":"2026-07-03T13:41:28.968710+05:30"},{"city":"Prayagraj","state":"Uttar Pradesh","latitude":25.4358,"longitude":81.8463,"temp":33.2,"humidity":64,"rain":0.1,"pressure":988.0,"uv_index":7.15,"wind_gusts":29.2,"aqi":92,"pm10":22.8,"pm2_5":22.1,"no2":1.9,"co":294.0,"o3":149.0,"so2":6.1,"mosquito_risk":6,"arthritis_risk":5,"migraine_risk":7,"frizz_risk":1,"updated_at":"2026-07-03T13:41:28.968717+05:30"},{"city":"Gorakhpur","state":"Uttar Pradesh","latitude":26.7606,"longitude":83.3732,"temp":33.8,"humidity":65,"rain":0.0,"pressure":989.9,"uv_index":8.15,"wind_gusts":34.2,"aqi":86,"pm10":20.0,"pm2_5":19.6,"no2":1.5,"co":290.0,"o3":152.0,"so2":5.0,"mosquito_risk":3,"arthritis_risk":5,"migraine_risk":7,"frizz_risk":1,"updated_at":"2026-07-03T13:41:28.968723+05:30"},{"city":"Bareilly","state":"Uttar Pradesh","latitude":28.367,"longitude":79.4304,"temp":33.8,"humidity":63,"rain":0.0,"pressure":980.5,"uv_index":7.4,"wind_gusts":31.0,"aqi":96,"pm10":18.5,"pm2_5":18.3,"no2":3.0,"co":303.0,"o3":145.0,"so2":9.4,"mosquito_risk":3,"arthritis_risk":5,"migraine_risk":7,"frizz_risk":1,"updated_at":"2026-07-03T13:41:28.968731+05:30"},{"city":"Aligarh","state":"Uttar Pradesh","latitude":27.8974,"longitude":78.088,"temp":34.0,"humidity":57,"rain":0.0,"pressure":979.1,"uv_index":6.4,"wind_gusts":23.4,"aqi":100,"pm10":12.2,"pm2_5":12.2,"no2":3.3,"co":268.0,"o3":157.0,"so2":8.3,"mosquito_risk":0,"arthritis_risk":5,"migraine_risk":7,"frizz_risk":1,"updated_at":"2026-07-03T13:41:28.968738+05:30"},{"city":"Moradabad","state":"Uttar Pradesh","latitude":28.8386,"longitude":78.7733,"temp":33.8,"humidity":65,"rain":0.0,"pressure":977.7,"uv_index":7.8,"wind_gusts":30.6,"aqi":111,"pm10":17.8,"pm2_5":17.7,"no2":3.2,"co":355.0,"o3":159.0,"so2":9.8,"mosquito_risk":3,"arthritis_risk":5,"migraine_risk":7,"frizz_risk":1,"updated_at":"2026-07-03T13:41:28.968744+05:30"},{"city":"Saharanpur","state":"Uttar Pradesh","latitude":29.9637,"longitude":77.546,"temp":33.8,"humidity":60,"rain":0.0,"pressure":970.3,"uv_index":7.1,"wind_gusts":30.6,"aqi":80,"pm10":28.8,"pm2_5":27.8,"no2":2.4,"co":376.0,"o3":149.0,"so2":6.0,"mosquito_risk":0,"arthritis_risk":5,"migraine_risk":7,"frizz_risk":1,"updated_at":"2026-07-03T13:41:28.968750+05:30"},{"city":"Jhansi","state":"Uttar Pradesh","latitude":25.4484,"longitude":78.5685,"temp":31.5,"humidity":70,"rain":0.0,"pressure":971.4,"uv_index":8.05,"wind_gusts":32.4,"aqi":88,"pm10":40.5,"pm2_5":17.2,"no2":2.9,"co":230.0,"o3":127.0,"so2":7.2,"mosquito_risk":3,"arthritis_risk":5,"migraine_risk":7,"frizz_risk":1,"updated_at":"2026-07-03T13:41:32.244912+05:30"},{"city":"Surat","state":"Gujarat","latitude":21.1702,"longitude":72.8311,"temp":28.8,"humidity":84,"rain":0.1,"pressure":1002.3,"uv_index":0.8,"wind_gusts":36.4,"aqi":65,"pm10":33.6,"pm2_5":26.6,"no2":32.9,"co":564.0,"o3":21.0,"so2":65.2,"mosquito_risk":10,"arthritis_risk":5,"migraine_risk":0,"frizz_risk":1,"updated_at":"2026-07-03T13:41:32.244944+05:30"},{"city":"Vadodara","state":"Gujarat","latitude":22.3072,"longitude":73.1812,"temp":33.8,"humidity":58,"rain":0.0,"pressure":998.3,"uv_index":1.65,"wind_gusts":41.8,"aqi":51,"pm10":41.8,"pm2_5":21.1,"no2":7.5,"co":204.0,"o3":72.0,"so2":13.2,"mosquito_risk":0,"arthritis_risk":5,"migraine_risk":3,"frizz_risk":1,"updated_at":"2026-07-03T13:41:32.244955+05:30"},{"city":"Rajkot","state":"Gujarat","latitude":22.3039,"longitude":70.8022,"temp":34.0,"humidity":55,"rain":0.0,"pressure":988.8,"uv_index":6.65,"wind_gusts":40.7,"aqi":51,"pm10":43.3,"pm2_5":17.9,"no2":1.6,"co":127.0,"o3":80.0,"so2":4.5,"mosquito_risk":0,"arthritis_risk":5,"migraine_risk":7,"frizz_risk":1,"updated_at":"2026-07-03T13:41:32.244964+05:30"},{"city":"Thane","state":"Maharashtra","latitude":19.2183,"longitude":72.9781,"temp":26.6,"humidity":88,"rain":0.3,"pressure":1005.3,"uv_index":0.75,"wind_gusts":32.4,"aqi":48,"pm10":18.9,"pm2_5":9.6,"no2":6.2,"co":249.0,"o3":61.0,"so2":4.5,"mosquito_risk":10,"arthritis_risk":5,"migraine_risk":0,"frizz_risk":1,"updated_at":"2026-07-03T13:41:32.244972+05:30"},{"city":"Nagpur","state":"Maharashtra","latitude":21.1458,"longitude":79.0882,"temp":26.9,"humidity":89,"rain":0.1,"pressure":966.3,"uv_index":1.85,"wind_gusts":31.0,"aqi":35,"pm10":8.4,"pm2_5":7.3,"no2":10.1,"co":210.0,"o3":70.0,"so2":8.8,"mosquito_risk":10,"arthritis_risk":5,"migraine_risk":3,"frizz_risk":1,"updated_at":"2026-07-03T13:41:32.244981+05:30"},{"city":"Nashik","state":"Maharashtra","latitude":19.9975,"longitude":73.7898,"temp":23.5,"humidity":95,"rain":0.7,"pressure":941.8,"uv_index":0.6,"wind_gusts":45.4,"aqi":19,"pm10":4.2,"pm2_5":2.5,"no2":3.8,"co":152.0,"o3":53.0,"so2":1.0,"mosquito_risk":6,"arthritis_risk":5,"migraine_risk":3,"frizz_risk":1,"updated_at":"2026-07-03T13:41:32.244988+05:30"},{"city":"Aurangabad","state":"Maharashtra","latitude":19.8762,"longitude":75.3433,"temp":23.8,"humidity":95,"rain":2.3,"pressure":940.2,"uv_index":1.65,"wind_gusts":44.6,"aqi":23,"pm10":3.7,"pm2_5":3.3,"no2":4.0,"co":142.0,"o3":65.0,"so2":3.3,"mosquito_risk":6,"arthritis_risk":5,"migraine_risk":3,"frizz_risk":1,"updated_at":"2026-07-03T13:41:32.244996+05:30"},{"city":"Solapur","state":"Maharashtra","latitude":17.6599,"longitude":75.9064,"temp":26.1,"humidity":82,"rain":0.1,"pressure":954.3,"uv_index":6.3,"wind_gusts":52.2,"aqi":21,"pm10":7.0,"pm2_5":4.1,"no2":1.5,"co":113.0,"o3":61.0,"so2":1.6,"mosquito_risk":10,"arthritis_risk":5,"migraine_risk":7,"frizz_risk":1,"updated_at":"2026-07-03T13:41:32.245005+05:30"},{"city":"Kolhapur","state":"Maharashtra","latitude":16.705,"longitude":74.2433,"temp":24.5,"humidity":85,"rain":0.1,"pressure":946.5,"uv_index":6.85,"wind_gusts":52.9,"aqi":21,"pm10":5.6,"pm2_5":4.2,"no2":3.3,"co":118.0,"o3":53.0,"so2":1.8,"mosquito_risk":6,"arthritis_risk":5,"migraine_risk":7,"frizz_risk":1,"updated_at":"2026-07-03T13:41:32.245012+05:30"},{"city":"Goa","state":"Goa","latitude":15.2993,"longitude":74.124,"temp":27.9,"humidity":82,"rain":0.1,"pressure":998.3,"uv_index":4.8,"wind_gusts":33.1,"aqi":58,"pm10":21.9,"pm2_5":11.7,"no2":1.3,"co":119.0,"o3":58.0,"so2":0.9,"mosquito_risk":10,"arthritis_risk":5,"migraine_risk":3,"frizz_risk":1,"updated_at":"2026-07-03T13:41:32.245020+05:30"},{"city":"Jodhpur","state":"Rajasthan","latitude":26.2389,"longitude":73.0243,"temp":37.5,"humidity":42,"rain":0.0,"pressure":976.4,"uv_index":8.4,"wind_gusts":31.3,"aqi":103,"pm10":270.1,"pm2_5":62.9,"no2":0.7,"co":114.0,"o3":88.0,"so2":2.8,"mosquito_risk":0,"arthritis_risk":5,"migraine_risk":10,"frizz_risk":1,"updated_at":"2026-07-03T13:41:32.245028+05:30"},{"city":"Udaipur","state":"Rajasthan","latitude":24.5854,"longitude":73.7125,"temp":33.2,"humidity":54,"rain":0.0,"pressure":941.5,"uv_index":7.75,"wind_gusts":35.3,"aqi":70,"pm10":64.5,"pm2_5":27.1,"no2":1.6,"co":115.0,"o3":74.0,"so2":3.9,"mosquito_risk":0,"arthritis_risk":5,"migraine_risk":7,"frizz_risk":1,"updated_at":"2026-07-03T13:41:32.245035+05:30"},{"city":"Kota","state":"Rajasthan","latitude":25.2138,"longitude":75.8648,"temp":35.0,"humidity":51,"rain":0.0,"pressure":972.4,"uv_index":7.65,"wind_gusts":33.1,"aqi":69,"pm10":66.1,"pm2_5":29.0,"no2":1.3,"co":162.0,"o3":108.0,"so2":4.8,"mosquito_risk":0,"arthritis_risk":5,"migraine_risk":7,"frizz_risk":1,"updated_at":"2026-07-03T13:41:32.245043+05:30"},{"city":"Bikaner","state":"Rajasthan","latitude":28.0229,"longitude":73.3119,"temp":40.7,"humidity":29,"rain":0.0,"pressure":975.1,"uv_index":8.4,"wind_gusts":41.0,"aqi":126,"pm10":214.2,"pm2_5":52.3,"no2":0.4,"co":124.0,"o3":87.0,"so2":2.3,"mosquito_risk":0,"arthritis_risk":5,"migraine_risk":10,"frizz_risk":1,"updated_at":"2026-07-03T13:41:32.245050+05:30"},{"city":"Ajmer","state":"Rajasthan","latitude":26.4499,"longitude":74.6399,"temp":35.1,"humidity":47,"rain":0.0,"pressure":949.3,"uv_index":7.95,"wind_gusts":37.4,"aqi":83,"pm10":119.2,"pm2_5":40.6,"no2":0.8,"co":124.0,"o3":102.0,"so2":3.7,"mosquito_risk":0,"arthritis_risk":5,"migraine_risk":10,"frizz_risk":1,"updated_at":"2026-07-03T13:41:32.245057+05:30"},{"city":"Gwalior","state":"Madhya Pradesh","latitude":26.2183,"longitude":78.1828,"temp":32.6,"humidity":63,"rain":0.0,"pressure":976.8,"uv_index":7.8,"wind_gusts":14.8,"aqi":106,"pm10":82.4,"pm2_5":28.6,"no2":2.1,"co":274.0,"o3":128.0,"so2":4.8,"mosquito_risk":3,"arthritis_risk":5,"migraine_risk":7,"frizz_risk":1,"updated_at":"2026-07-03T13:41:32.245064+05:30"},{"city":"Indore","state":"Madhya Pradesh","latitude":22.7196,"longitude":75.8577,"temp":30.2,"humidity":66,"rain":0.0,"pressure":942.7,"uv_index":2.55,"wind_gusts":34.6,"aqi":64,"pm10":29.5,"pm2_5":16.4,"no2":2.2,"co":263.0,"o3":101.0,"so2":4.3,"mosquito_risk":3,"arthritis_risk":5,"migraine_risk":3,"frizz_risk":1,"updated_at":"2026-07-03T13:41:32.245071+05:30"},{"city":"Bhopal","state":"Madhya Pradesh","latitude":23.2599,"longitude":77.4126,"temp":29.0,"humidity":77,"rain":0.0,"pressure":947.6,"uv_index":5.8,"wind_gusts":38.5,"aqi":63,"pm10":19.0,"pm2_5":11.9,"no2":3.0,"co":208.0,"o3":95.0,"so2":4.2,"mosquito_risk":7,"arthritis_risk":5,"migraine_risk":3,"frizz_risk":1,"updated_at":"2026-07-03T13:41:32.245077+05:30"},{"city":"Jabalpur","state":"Madhya Pradesh","latitude":23.1815,"longitude":79.9864,"temp":29.8,"humidity":73,"rain":0.0,"pressure":953.6,"uv_index":8.15,"wind_gusts":27.4,"aqi":49,"pm10":21.0,"pm2_5":21.0,"no2":1.5,"co":217.0,"o3":151.0,"so2":12.1,"mosquito_risk":7,"arthritis_risk":5,"migraine_risk":7,"frizz_risk":1,"updated_at":"2026-07-03T13:41:32.245084+05:30"},{"city":"Ujjain","state":"Madhya Pradesh","latitude":23.1765,"longitude":75.7885,"temp":31.0,"humidity":64,"rain":0.0,"pressure":948.3,"uv_index":7.25,"wind_gusts":32.4,"aqi":63,"pm10":29.7,"pm2_5":16.2,"no2":1.6,"co":205.0,"o3":94.0,"so2":4.3,"mosquito_risk":3,"arthritis_risk":5,"migraine_risk":7,"frizz_risk":1,"updated_at":"2026-07-03T13:41:32.245092+05:30"},{"city":"Visakhapatnam","state":"Andhra Pradesh","latitude":17.6868,"longitude":83.2185,"temp":30.9,"humidity":65,"rain":0.0,"pressure":996.4,"uv_index":2.15,"wind_gusts":52.6,"aqi":51,"pm10":17.8,"pm2_5":15.4,"no2":16.5,"co":294.0,"o3":74.0,"so2":37.0,"mosquito_risk":3,"arthritis_risk":5,"migraine_risk":3,"frizz_risk":1,"updated_at":"2026-07-03T13:41:32.245098+05:30"},{"city":"Vijayawada","state":"Andhra Pradesh","latitude":16.5062,"longitude":80.648,"temp":30.4,"humidity":67,"rain":0.1,"pressure":998.3,"uv_index":4.7,"wind_gusts":58.7,"aqi":47,"pm10":13.0,"pm2_5":7.6,"no2":1.7,"co":119.0,"o3":76.0,"so2":4.1,"mosquito_risk":6,"arthritis_risk":5,"migraine_risk":3,"frizz_risk":1,"updated_at":"2026-07-03T13:41:32.245104+05:30"},{"city":"Guntur","state":"Andhra Pradesh","latitude":16.3067,"longitude":80.4365,"temp":31.6,"humidity":60,"rain":0.0,"pressure":999.6,"uv_index":5.25,"wind_gusts":51.1,"aqi":41,"pm10":11.3,"pm2_5":6.6,"no2":1.6,"co":116.0,"o3":73.0,"so2":4.1,"mosquito_risk":0,"arthritis_risk":5,"migraine_risk":3,"frizz_risk":1,"updated_at":"2026-07-03T13:41:32.245111+05:30"},{"city":"Nellore","state":"Andhra Pradesh","latitude":14.4426,"longitude":79.9865,"temp":34.5,"humidity":43,"rain":0.0,"pressure":1002.4,"uv_index":8.65,"wind_gusts":54.0,"aqi":30,"pm10":20.0,"pm2_5":9.9,"no2":1.7,"co":109.0,"o3":86.0,"so2":3.3,"mosquito_risk":0,"arthritis_risk":5,"migraine_risk":4,"frizz_risk":1,"updated_at":"2026-07-03T13:41:32.245119+05:30"},{"city":"Kurnool","state":"Andhra Pradesh","latitude":15.8281,"longitude":78.0373,"temp":30.4,"humidity":56,"rain":0.0,"pressure":974.3,"uv_index":6.8,"wind_gusts":59.4,"aqi":23,"pm10":16.6,"pm2_5":7.6,"no2":1.8,"co":112.0,"o3":70.0,"so2":2.7,"mosquito_risk":0,"arthritis_risk":5,"migraine_risk":7,"frizz_risk":1,"updated_at":"2026-07-03T13:41:32.245127+05:30"},{"city":"Kakinada","state":"Andhra Pradesh","latitude":16.9891,"longitude":82.2475,"temp":29.0,"humidity":76,"rain":0.0,"pressure":1001.6,"uv_index":6.0,"wind_gusts":50.8,"aqi":46,"pm10":15.5,"pm2_5":10.0,"no2":1.8,"co":166.0,"o3":98.0,"so2":4.2,"mosquito_risk":7,"arthritis_risk":5,"migraine_risk":0,"frizz_risk":1,"updated_at":"2026-07-03T13:41:32.245133+05:30"},{"city":"Tirupati","state":"Andhra Pradesh","latitude":13.6288,"longitude":79.4192,"temp":32.0,"humidity":61,"rain":0.0,"pressure":988.4,"uv_index":8.9,"wind_gusts":49.3,"aqi":37,"pm10":11.2,"pm2_5":5.6,"no2":0.3,"co":106.0,"o3":70.0,"so2":1.0,"mosquito_risk":3,"arthritis_risk":5,"migraine_risk":7,"frizz_risk":1,"updated_at":"2026-07-03T13:41:32.245139+05:30"},{"city":"Warangal","state":"Telangana","latitude":17.9689,"longitude":79.5941,"temp":26.7,"humidity":86,"rain":0.1,"pressure":973.8,"uv_index":2.0,"wind_gusts":43.9,"aqi":31,"pm10":11.0,"pm2_5":6.8,"no2":2.0,"co":160.0,"o3":63.0,"so2":2.2,"mosquito_risk":10,"arthritis_risk":5,"migraine_risk":3,"frizz_risk":1,"updated_at":"2026-07-03T13:41:32.245146+05:30"},{"city":"Nizamabad","state":"Telangana","latitude":18.6725,"longitude":78.0941,"temp":25.7,"humidity":87,"rain":0.1,"pressure":959.8,"uv_index":0.85,"wind_gusts":48.6,"aqi":30,"pm10":10.4,"pm2_5":6.9,"no2":2.3,"co":158.0,"o3":70.0,"so2":4.9,"mosquito_risk":10,"arthritis_risk":5,"migraine_risk":3,"frizz_risk":1,"updated_at":"2026-07-03T13:41:32.245153+05:30"},{"city":"Mysore","state":"Karnataka","latitude":12.2958,"longitude":76.6396,"temp":26.5,"humidity":64,"rain":0.0,"pressure":928.6,"uv_index":6.0,"wind_gusts":62.3,"aqi":25,"pm10":7.0,"pm2_5":3.5,"no2":1.3,"co":112.0,"o3":68.0,"so2":1.1,"mosquito_risk":7,"arthritis_risk":5,"migraine_risk":3,"frizz_risk":1,"updated_at":"2026-07-03T13:41:32.245159+05:30"},{"city":"Mangalore","state":"Karnataka","latitude":12.9141,"longitude":74.856,"temp":27.0,"humidity":84,"rain":0.0,"pressure":1008.3,"uv_index":6.8,"wind_gusts":49.7,"aqi":48,"pm10":24.3,"pm2_5":11.1,"no2":1.5,"co":103.0,"o3":54.0,"so2":1.1,"mosquito_risk":7,"arthritis_risk":0,"migraine_risk":4,"frizz_risk":1,"updated_at":"2026-07-03T13:41:32.245166+05:30"},{"city":"Hubli-Dharwad","state":"Karnataka","latitude":15.3647,"longitude":75.124,"temp":27.0,"humidity":69,"rain":0.1,"pressure":940.2,"uv_index":7.4,"wind_gusts":63.7,"aqi":22,"pm10":5.5,"pm2_5":3.2,"no2":1.6,"co":101.0,"o3":57.0,"so2":0.8,"mosquito_risk":10,"arthritis_risk":5,"migraine_risk":7,"frizz_risk":1,"updated_at":"2026-07-03T13:41:32.245173+05:30"},{"city":"Belgaum","state":"Karnataka","latitude":15.8497,"longitude":74.4977,"temp":23.1,"humidity":91,"rain":0.1,"pressure":924.8,"uv_index":4.6,"wind_gusts":57.2,"aqi":22,"pm10":7.5,"pm2_5":4.9,"no2":2.4,"co":105.0,"o3":51.0,"so2":1.1,"mosquito_risk":6,"arthritis_risk":5,"migraine_risk":3,"frizz_risk":1,"updated_at":"2026-07-03T13:41:35.515252+05:30"},{"city":"Coimbatore","state":"Tamil Nadu","latitude":11.0168,"longitude":76.9558,"temp":28.3,"humidity":67,"rain":0.0,"pressure":961.8,"uv_index":7.4,"wind_gusts":64.1,"aqi":23,"pm10":5.0,"pm2_5":3.6,"no2":1.8,"co":129.0,"o3":67.0,"so2":1.6,"mosquito_risk":7,"arthritis_risk":5,"migraine_risk":7,"frizz_risk":1,"updated_at":"2026-07-03T13:41:35.515285+05:30"},{"city":"Madurai","state":"Tamil Nadu","latitude":9.9252,"longitude":78.1198,"temp":36.2,"humidity":37,"rain":0.0,"pressure":992.0,"uv_index":8.7,"wind_gusts":56.2,"aqi":37,"pm10":7.6,"pm2_5":4.5,"no2":1.8,"co":107.0,"o3":79.0,"so2":1.8,"mosquito_risk":0,"arthritis_risk":5,"migraine_risk":10,"frizz_risk":1,"updated_at":"2026-07-03T13:41:35.515297+05:30"},{"city":"Trichy","state":"Tamil Nadu","latitude":10.7905,"longitude":78.7047,"temp":36.8,"humidity":36,"rain":0.0,"pressure":998.0,"uv_index":7.35,"wind_gusts":67.3,"aqi":24,"pm10":6.7,"pm2_5":3.9,"no2":1.7,"co":103.0,"o3":71.0,"so2":1.5,"mosquito_risk":0,"arthritis_risk":5,"migraine_risk":10,"frizz_risk":1,"updated_at":"2026-07-03T13:41:35.515307+05:30"},{"city":"Salem","state":"Tamil Nadu","latitude":11.6643,"longitude":78.146,"temp":32.0,"humidity":55,"rain":0.0,"pressure":976.2,"uv_index":6.15,"wind_gusts":42.5,"aqi":41,"pm10":8.2,"pm2_5":5.4,"no2":1.9,"co":149.0,"o3":90.0,"so2":4.8,"mosquito_risk":0,"arthritis_risk":5,"migraine_risk":7,"frizz_risk":1,"updated_at":"2026-07-03T13:41:35.515315+05:30"},{"city":"Tirunelveli","state":"Tamil Nadu","latitude":8.7139,"longitude":77.7567,"temp":36.2,"humidity":39,"rain":0.0,"pressure":1002.9,"uv_index":8.4,"wind_gusts":54.7,"aqi":22,"pm10":10.7,"pm2_5":6.0,"no2":1.1,"co":101.0,"o3":69.0,"so2":1.0,"mosquito_risk":0,"arthritis_risk":5,"migraine_risk":7,"frizz_risk":1,"updated_at":"2026-07-03T13:41:35.515323+05:30"},{"city":"Vellore","state":"Tamil Nadu","latitude":12.9165,"longitude":79.1325,"temp":35.8,"humidity":41,"rain":0.0,"pressure":981.7,"uv_index":7.35,"wind_gusts":64.8,"aqi":28,"pm10":12.8,"pm2_5":7.0,"no2":1.3,"co":128.0,"o3":85.0,"so2":1.9,"mosquito_risk":0,"arthritis_risk":5,"migraine_risk":10,"frizz_risk":1,"updated_at":"2026-07-03T13:41:35.515331+05:30"},{"city":"Erode","state":"Tamil Nadu","latitude":11.341,"longitude":77.7172,"temp":35.4,"humidity":43,"rain":0.0,"pressure":987.7,"uv_index":6.45,"wind_gusts":55.4,"aqi":30,"pm10":6.6,"pm2_5":4.3,"no2":1.5,"co":143.0,"o3":83.0,"so2":1.7,"mosquito_risk":0,"arthritis_risk":5,"migraine_risk":10,"frizz_risk":1,"updated_at":"2026-07-03T13:41:35.515339+05:30"},{"city":"Kochi","state":"Kerala","latitude":9.9312,"longitude":76.2673,"temp":27.5,"humidity":83,"rain":0.1,"pressure":1011.1,"uv_index":7.95,"wind_gusts":40.3,"aqi":40,"pm10":14.7,"pm2_5":8.2,"no2":2.7,"co":106.0,"o3":53.0,"so2":1.9,"mosquito_risk":10,"arthritis_risk":0,"migraine_risk":4,"frizz_risk":1,"updated_at":"2026-07-03T13:41:35.515347+05:30"},{"city":"Thiruvananthapuram","state":"Kerala","latitude":8.5241,"longitude":76.9366,"temp":28.3,"humidity":76,"rain":0.0,"pressure":1010.4,"uv_index":8.05,"wind_gusts":42.8,"aqi":32,"pm10":16.3,"pm2_5":8.4,"no2":0.9,"co":93.0,"o3":59.0,"so2":0.9,"mosquito_risk":7,"arthritis_risk":0,"migraine_risk":4,"frizz_risk":1,"updated_at":"2026-07-03T13:41:35.515355+05:30"},{"city":"Kozhikode","state":"Kerala","latitude":11.2588,"longitude":75.7804,"temp":26.4,"humidity":92,"rain":0.2,"pressure":1010.1,"uv_index":1.1,"wind_gusts":41.4,"aqi":29,"pm10":19.7,"pm2_5":9.0,"no2":0.7,"co":111.0,"o3":54.0,"so2":0.5,"mosquito_risk":10,"arthritis_risk":0,"migraine_risk":0,"frizz_risk":1,"updated_at":"2026-07-03T13:41:35.515362+05:30"},{"city":"Thrissur","state":"Kerala","latitude":10.5276,"longitude":76.2144,"temp":25.8,"humidity":93,"rain":0.1,"pressure":1009.5,"uv_index":5.6,"wind_gusts":36.7,"aqi":39,"pm10":11.8,"pm2_5":6.9,"no2":2.1,"co":114.0,"o3":53.0,"so2":1.2,"mosquito_risk":10,"arthritis_risk":0,"migraine_risk":0,"frizz_risk":1,"updated_at":"2026-07-03T13:41:35.515370+05:30"},{"city":"Kannur","state":"Kerala","latitude":11.8745,"longitude":75.3704,"temp":26.4,"humidity":94,"rain":0.1,"pressure":1009.3,"uv_index":2.0,"wind_gusts":46.8,"aqi":36,"pm10":22.5,"pm2_5":9.5,"no2":1.7,"co":104.0,"o3":52.0,"so2":0.9,"mosquito_risk":10,"arthritis_risk":0,"migraine_risk":0,"frizz_risk":1,"updated_at":"2026-07-03T13:41:35.515377+05:30"},{"city":"Patna","state":"Bihar","latitude":25.5941,"longitude":85.1376,"temp":34.6,"humidity":58,"rain":0.0,"pressure":992.4,"uv_index":7.65,"wind_gusts":34.2,"aqi":81,"pm10":21.7,"pm2_5":20.9,"no2":1.8,"co":254.0,"o3":152.0,"so2":8.8,"mosquito_risk":0,"arthritis_risk":5,"migraine_risk":7,"frizz_risk":1,"updated_at":"2026-07-03T13:41:35.515384+05:30"},{"city":"Gaya","state":"Bihar","latitude":24.7914,"longitude":85.0002,"temp":34.6,"humidity":58,"rain":0.0,"pressure":985.6,"uv_index":6.8,"wind_gusts":30.6,"aqi":65,"pm10":13.8,"pm2_5":13.2,"no2":1.1,"co":205.0,"o3":121.0,"so2":4.6,"mosquito_risk":0,"arthritis_risk":5,"migraine_risk":7,"frizz_risk":1,"updated_at":"2026-07-03T13:41:35.515391+05:30"},{"city":"Muzaffarpur","state":"Bihar","latitude":26.1209,"longitude":85.3647,"temp":34.3,"humidity":60,"rain":0.0,"pressure":992.8,"uv_index":7.95,"wind_gusts":36.4,"aqi":82,"pm10":21.5,"pm2_5":20.7,"no2":1.8,"co":241.0,"o3":155.0,"so2":7.6,"mosquito_risk":0,"arthritis_risk":5,"migraine_risk":7,"frizz_risk":1,"updated_at":"2026-07-03T13:41:35.515398+05:30"},{"city":"Bhagalpur","state":"Bihar","latitude":25.2425,"longitude":87.0117,"temp":35.2,"humidity":54,"rain":0.0,"pressure":993.2,"uv_index":7.8,"wind_gusts":32.4,"aqi":76,"pm10":14.2,"pm2_5":13.4,"no2":2.2,"co":205.0,"o3":133.0,"so2":8.7,"mosquito_risk":0,"arthritis_risk":5,"migraine_risk":10,"frizz_risk":1,"updated_at":"2026-07-03T13:41:35.515405+05:30"},{"city":"Ranchi","state":"Jharkhand","latitude":23.3441,"longitude":85.3096,"temp":29.3,"humidity":69,"rain":0.0,"pressure":930.7,"uv_index":8.85,"wind_gusts":40.7,"aqi":59,"pm10":17.3,"pm2_5":17.1,"no2":2.1,"co":232.0,"o3":138.0,"so2":13.6,"mosquito_risk":7,"arthritis_risk":5,"migraine_risk":7,"frizz_risk":1,"updated_at":"2026-07-03T13:41:35.515413+05:30"},{"city":"Jamshedpur","state":"Jharkhand","latitude":22.8046,"longitude":86.2029,"temp":30.6,"humidity":72,"rain":0.1,"pressure":982.0,"uv_index":6.35,"wind_gusts":37.8,"aqi":58,"pm10":11.5,"pm2_5":11.1,"no2":2.1,"co":190.0,"o3":112.0,"so2":5.3,"mosquito_risk":6,"arthritis_risk":5,"migraine_risk":7,"frizz_risk":1,"updated_at":"2026-07-03T13:41:35.515420+05:30"},{"city":"Dhanbad","state":"Jharkhand","latitude":23.7957,"longitude":86.4304,"temp":33.1,"humidity":58,"rain":0.1,"pressure":971.7,"uv_index":5.8,"wind_gusts":35.6,"aqi":97,"pm10":25.7,"pm2_5":25.2,"no2":7.6,"co":213.0,"o3":141.0,"so2":35.0,"mosquito_risk":3,"arthritis_risk":5,"migraine_risk":3,"frizz_risk":1,"updated_at":"2026-07-03T13:41:35.515427+05:30"},{"city":"Bokaro","state":"Jharkhand","latitude":23.6693,"longitude":86.1511,"temp":31.6,"humidity":66,"rain":0.1,"pressure":975.5,"uv_index":5.65,"wind_gusts":34.9,"aqi":104,"pm10":29.8,"pm2_5":29.4,"no2":9.0,"co":205.0,"o3":151.0,"so2":44.1,"mosquito_risk":6,"arthritis_risk":5,"migraine_risk":3,"frizz_risk":1,"updated_at":"2026-07-03T13:41:35.515434+05:30"},{"city":"Bhubaneswar","state":"Odisha","latitude":20.2961,"longitude":85.8245,"temp":30.1,"humidity":78,"rain":0.1,"pressure":993.4,"uv_index":6.8,"wind_gusts":24.5,"aqi":56,"pm10":9.1,"pm2_5":8.9,"no2":3.9,"co":290.0,"o3":115.0,"so2":7.7,"mosquito_risk":6,"arthritis_risk":5,"migraine_risk":7,"frizz_risk":1,"updated_at":"2026-07-03T13:41:35.515441+05:30"},{"city":"Cuttack","state":"Odisha","latitude":20.4625,"longitude":85.8828,"temp":29.7,"humidity":82,"rain":0.0,"pressure":995.2,"uv_index":6.95,"wind_gusts":22.0,"aqi":56,"pm10":9.1,"pm2_5":8.9,"no2":3.9,"co":287.0,"o3":115.0,"so2":7.7,"mosquito_risk":7,"arthritis_risk":5,"migraine_risk":7,"frizz_risk":1,"updated_at":"2026-07-03T13:41:35.515448+05:30"},{"city":"Rourkela","state":"Odisha","latitude":22.2604,"longitude":84.8536,"temp":29.0,"humidity":83,"rain":0.3,"pressure":976.2,"uv_index":7.0,"wind_gusts":37.8,"aqi":86,"pm10":13.0,"pm2_5":12.7,"no2":1.9,"co":281.0,"o3":134.0,"so2":10.2,"mosquito_risk":10,"arthritis_risk":5,"migraine_risk":7,"frizz_risk":1,"updated_at":"2026-07-03T13:41:35.515455+05:30"},{"city":"Raipur","state":"Chhattisgarh","latitude":21.2514,"longitude":81.6296,"temp":26.9,"humidity":93,"rain":0.0,"pressure":966.6,"uv_index":0.8,"wind_gusts":30.2,"aqi":68,"pm10":16.6,"pm2_5":16.1,"no2":22.2,"co":211.0,"o3":73.0,"so2":44.8,"mosquito_risk":7,"arthritis_risk":5,"migraine_risk":3,"frizz_risk":1,"updated_at":"2026-07-03T13:41:35.515483+05:30"},{"city":"Bhilai","state":"Chhattisgarh","latitude":21.1938,"longitude":81.3509,"temp":27.0,"humidity":91,"rain":0.0,"pressure":967.1,"uv_index":1.7,"wind_gusts":36.4,"aqi":61,"pm10":10.8,"pm2_5":10.3,"no2":13.7,"co":637.0,"o3":86.0,"so2":34.5,"mosquito_risk":7,"arthritis_risk":5,"migraine_risk":3,"frizz_risk":1,"updated_at":"2026-07-03T13:41:35.515492+05:30"},{"city":"Guwahati","state":"Assam","latitude":26.1158,"longitude":91.7086,"temp":34.4,"humidity":63,"rain":0.0,"pressure":993.6,"uv_index":8.55,"wind_gusts":23.8,"aqi":41,"pm10":7.0,"pm2_5":6.9,"no2":1.0,"co":211.0,"o3":114.0,"so2":1.5,"mosquito_risk":3,"arthritis_risk":5,"migraine_risk":7,"frizz_risk":1,"updated_at":"2026-07-03T13:41:35.515498+05:30"},{"city":"Agartala","state":"Tripura","latitude":23.8315,"longitude":91.2868,"temp":32.6,"humidity":69,"rain":0.0,"pressure":998.6,"uv_index":7.55,"wind_gusts":28.8,"aqi":54,"pm10":8.0,"pm2_5":7.4,"no2":2.4,"co":122.0,"o3":117.0,"so2":1.0,"mosquito_risk":3,"arthritis_risk":5,"migraine_risk":7,"frizz_risk":1,"updated_at":"2026-07-03T13:41:35.515506+05:30"},{"city":"Shillong","state":"Meghalaya","latitude":25.5788,"longitude":91.8933,"temp":25.1,"humidity":75,"rain":0.2,"pressure":854.5,"uv_index":6.75,"wind_gusts":28.8,"aqi":38,"pm10":6.4,"pm2_5":6.2,"no2":1.0,"co":157.0,"o3":95.0,"so2":1.5,"mosquito_risk":10,"arthritis_risk":5,"migraine_risk":7,"frizz_risk":1,"updated_at":"2026-07-03T13:41:35.515513+05:30"},{"city":"Imphal","state":"Manipur","latitude":24.817,"longitude":93.9368,"temp":28.9,"humidity":70,"rain":0.0,"pressure":918.5,"uv_index":9.1,"wind_gusts":23.4,"aqi":55,"pm10":1.6,"pm2_5":1.6,"no2":1.1,"co":161.0,"o3":73.0,"so2":0.7,"mosquito_risk":7,"arthritis_risk":5,"migraine_risk":7,"frizz_risk":1,"updated_at":"2026-07-03T13:41:35.515520+05:30"},{"city":"Aizawl","state":"Mizoram","latitude":23.7271,"longitude":92.7176,"temp":23.8,"humidity":84,"rain":0.2,"pressure":887.7,"uv_index":8.4,"wind_gusts":23.8,"aqi":32,"pm10":7.9,"pm2_5":7.7,"no2":1.8,"co":131.0,"o3":62.0,"so2":0.3,"mosquito_risk":6,"arthritis_risk":5,"migraine_risk":7,"frizz_risk":1,"updated_at":"2026-07-03T13:41:35.515527+05:30"},{"city":"Kohima","state":"Nagaland","latitude":25.6701,"longitude":94.1077,"temp":27.0,"humidity":66,"rain":0.1,"pressure":852.6,"uv_index":7.8,"wind_gusts":24.5,"aqi":32,"pm10":5.6,"pm2_5":5.5,"no2":0.8,"co":150.0,"o3":81.0,"so2":0.5,"mosquito_risk":10,"arthritis_risk":5,"migraine_risk":7,"frizz_risk":1,"updated_at":"2026-07-03T13:41:35.515535+05:30"},{"city":"Gangtok","state":"Sikkim","latitude":27.3314,"longitude":88.6138,"temp":23.3,"humidity":79,"rain":0.1,"pressure":836.5,"uv_index":8.95,"wind_gusts":32.4,"aqi":40,"pm10":6.6,"pm2_5":6.2,"no2":0.9,"co":183.0,"o3":113.0,"so2":0.8,"mosquito_risk":6,"arthritis_risk":5,"migraine_risk":7,"frizz_risk":1,"updated_at":"2026-07-03T13:41:35.515542+05:30"},{"city":"Siliguri","state":"West Bengal","latitude":26.7271,"longitude":88.3953,"temp":29.3,"humidity":87,"rain":0.2,"pressure":986.8,"uv_index":8.55,"wind_gusts":27.7,"aqi":76,"pm10":11.5,"pm2_5":11.2,"no2":1.4,"co":244.0,"o3":130.0,"so2":2.3,"mosquito_risk":10,"arthritis_risk":5,"migraine_risk":7,"frizz_risk":1,"updated_at":"2026-07-03T13:41:38.802320+05:30"},{"city":"Durgapur","state":"West Bengal","latitude":23.5204,"longitude":87.3119,"temp":33.2,"humidity":64,"rain":0.1,"pressure":986.4,"uv_index":6.5,"wind_gusts":36.7,"aqi":88,"pm10":20.0,"pm2_5":18.3,"no2":6.2,"co":202.0,"o3":118.0,"so2":20.5,"mosquito_risk":6,"arthritis_risk":5,"migraine_risk":7,"frizz_risk":1,"updated_at":"2026-07-03T13:41:38.802352+05:30"},{"city":"Asansol","state":"West Bengal","latitude":23.6739,"longitude":86.9524,"temp":32.5,"humidity":66,"rain":0.0,"pressure":985.1,"uv_index":6.7,"wind_gusts":33.8,"aqi":85,"pm10":19.8,"pm2_5":19.2,"no2":6.0,"co":203.0,"o3":135.0,"so2":23.7,"mosquito_risk":3,"arthritis_risk":5,"migraine_risk":7,"frizz_risk":1,"updated_at":"2026-07-03T13:41:38.802364+05:30"},{"city":"Pondicherry","state":"Puducherry","latitude":11.9139,"longitude":79.8145,"temp":31.7,"humidity":67,"rain":0.0,"pressure":1006.6,"uv_index":7.5,"wind_gusts":43.2,"aqi":53,"pm10":18.0,"pm2_5":13.9,"no2":7.9,"co":157.0,"o3":90.0,"so2":14.4,"mosquito_risk":3,"arthritis_risk":5,"migraine_risk":4,"frizz_risk":1,"updated_at":"2026-07-03T13:41:38.802373+05:30"},{"city":"Port Blair","state":"Andaman and Nicobar Islands","latitude":11.6234,"longitude":92.7265,"temp":30.7,"humidity":70,"rain":0.0,"pressure":1005.0,"uv_index":5.9,"wind_gusts":53.3,"aqi":41,"pm10":26.6,"pm2_5":11.8,"no2":0.2,"co":94.0,"o3":53.0,"so2":0.5,"mosquito_risk":3,"arthritis_risk":5,"migraine_risk":0,"frizz_risk":1,"updated_at":"2026-07-03T13:41:38.802381+05:30"},{"city":"Haridwar","state":"Uttarakhand","latitude":29.9457,"longitude":78.1642,"temp":33.9,"humidity":57,"rain":0.0,"pressure":968.7,"uv_index":7.25,"wind_gusts":24.1,"aqi":72,"pm10":27.1,"pm2_5":26.1,"no2":2.8,"co":320.0,"o3":132.0,"so2":5.9,"mosquito_risk":0,"arthritis_risk":5,"migraine_risk":7,"frizz_risk":1,"updated_at":"2026-07-03T13:41:38.802389+05:30"},{"city":"Rishikesh","state":"Uttarakhand","latitude":30.0869,"longitude":78.2676,"temp":33.5,"humidity":59,"rain":0.0,"pressure":961.6,"uv_index":6.95,"wind_gusts":21.6,"aqi":58,"pm10":22.8,"pm2_5":21.8,"no2":1.7,"co":297.0,"o3":126.0,"so2":3.9,"mosquito_risk":0,"arthritis_risk":5,"migraine_risk":7,"frizz_risk":1,"updated_at":"2026-07-03T13:41:38.802396+05:30"},{"city":"Nainital","state":"Uttarakhand","latitude":29.3919,"longitude":79.4542,"temp":21.5,"humidity":79,"rain":0.2,"pressure":805.4,"uv_index":7.65,"wind_gusts":29.2,"aqi":89,"pm10":13.9,"pm2_5":13.5,"no2":0.9,"co":269.0,"o3":118.0,"so2":1.3,"mosquito_risk":6,"arthritis_risk":5,"migraine_risk":7,"frizz_risk":1,"updated_at":"2026-07-03T13:41:38.802404+05:30"},{"city":"Mussoorie","state":"Uttarakhand","latitude":30.4599,"longitude":78.0664,"temp":20.9,"humidity":89,"rain":0.1,"pressure":802.9,"uv_index":6.75,"wind_gusts":29.5,"aqi":64,"pm10":18.3,"pm2_5":17.2,"no2":4.8,"co":250.0,"o3":131.0,"so2":3.4,"mosquito_risk":6,"arthritis_risk":5,"migraine_risk":7,"frizz_risk":1,"updated_at":"2026-07-03T13:41:38.802411+05:30"},{"city":"Dharamshala","state":"Himachal Pradesh","latitude":32.219,"longitude":76.3234,"temp":26.5,"humidity":65,"rain":0.0,"pressure":868.4,"uv_index":8.45,"wind_gusts":32.8,"aqi":57,"pm10":15.3,"pm2_5":10.4,"no2":0.8,"co":243.0,"o3":142.0,"so2":1.1,"mosquito_risk":7,"arthritis_risk":5,"migraine_risk":7,"frizz_risk":1,"updated_at":"2026-07-03T13:41:38.802419+05:30"},{"city":"Dalhousie","state":"Himachal Pradesh","latitude":32.5387,"longitude":75.971,"temp":20.7,"humidity":93,"rain":0.1,"pressure":804.8,"uv_index":8.7,"wind_gusts":29.5,"aqi":100,"pm10":34.2,"pm2_5":21.3,"no2":1.7,"co":286.0,"o3":180.0,"so2":3.2,"mosquito_risk":6,"arthritis_risk":5,"migraine_risk":7,"frizz_risk":1,"updated_at":"2026-07-03T13:41:38.802427+05:30"},{"city":"Patiala","state":"Punjab","latitude":30.3398,"longitude":76.3869,"temp":34.2,"humidity":58,"rain":0.0,"pressure":972.9,"uv_index":7.6,"wind_gusts":27.4,"aqi":93,"pm10":39.9,"pm2_5":33.8,"no2":1.9,"co":351.0,"o3":166.0,"so2":8.9,"mosquito_risk":0,"arthritis_risk":5,"migraine_risk":7,"frizz_risk":1,"updated_at":"2026-07-03T13:41:38.802434+05:30"},{"city":"Bhatinda","state":"Punjab","latitude":30.211,"longitude":74.9455,"temp":36.1,"humidity":51,"rain":0.0,"pressure":978.2,"uv_index":8.25,"wind_gusts":32.0,"aqi":152,"pm10":99.4,"pm2_5":37.6,"no2":2.9,"co":302.0,"o3":200.0,"so2":17.9,"mosquito_risk":0,"arthritis_risk":5,"migraine_risk":10,"frizz_risk":1,"updated_at":"2026-07-03T13:41:38.802441+05:30"},{"city":"Rohtak","state":"Haryana","latitude":28.8955,"longitude":76.6066,"temp":34.1,"humidity":55,"rain":0.0,"pressure":975.5,"uv_index":6.65,"wind_gusts":23.8,"aqi":156,"pm10":169.5,"pm2_5":39.6,"no2":5.5,"co":355.0,"o3":216.0,"so2":21.2,"mosquito_risk":0,"arthritis_risk":5,"migraine_risk":7,"frizz_risk":1,"updated_at":"2026-07-03T13:41:38.802448+05:30"},{"city":"Panipat","state":"Haryana","latitude":29.3909,"longitude":76.9635,"temp":33.0,"humidity":61,"rain":0.0,"pressure":974.5,"uv_index":6.85,"wind_gusts":26.6,"aqi":494,"pm10":130.9,"pm2_5":34.7,"no2":4.2,"co":279.0,"o3":186.0,"so2":16.9,"mosquito_risk":3,"arthritis_risk":5,"migraine_risk":7,"frizz_risk":1,"updated_at":"2026-07-03T13:41:38.802455+05:30"},{"city":"Mathura","state":"Uttar Pradesh","latitude":27.4924,"longitude":77.6737,"temp":35.3,"humidity":50,"rain":0.0,"pressure":980.2,"uv_index":6.9,"wind_gusts":19.8,"aqi":151,"pm10":15.3,"pm2_5":12.4,"no2":2.8,"co":312.0,"o3":165.0,"so2":4.3,"mosquito_risk":0,"arthritis_risk":5,"migraine_risk":10,"frizz_risk":1,"updated_at":"2026-07-03T13:41:38.802483+05:30"},{"city":"Vrindavan","state":"Uttar Pradesh","latitude":27.5823,"longitude":77.7027,"temp":35.3,"humidity":51,"rain":0.0,"pressure":980.6,"uv_index":6.75,"wind_gusts":20.5,"aqi":151,"pm10":15.3,"pm2_5":12.4,"no2":2.8,"co":310.0,"o3":165.0,"so2":4.3,"mosquito_risk":0,"arthritis_risk":5,"migraine_risk":10,"frizz_risk":1,"updated_at":"2026-07-03T13:41:38.802492+05:30"},{"city":"Ayodhya","state":"Uttar Pradesh","latitude":26.7922,"longitude":82.1998,"temp":33.3,"humidity":66,"rain":0.0,"pressure":988.2,"uv_index":7.65,"wind_gusts":28.4,"aqi":94,"pm10":22.7,"pm2_5":22.4,"no2":1.4,"co":297.0,"o3":157.0,"so2":5.9,"mosquito_risk":3,"arthritis_risk":5,"migraine_risk":7,"frizz_risk":1,"updated_at":"2026-07-03T13:41:38.802500+05:30"},{"city":"Ratlam","state":"Madhya Pradesh","latitude":23.3315,"longitude":75.0367,"temp":32.2,"humidity":60,"rain":0.0,"pressure":949.4,"uv_index":1.45,"wind_gusts":43.6,"aqi":59,"pm10":25.3,"pm2_5":14.1,"no2":1.4,"co":159.0,"o3":89.0,"so2":3.8,"mosquito_risk":0,"arthritis_risk":5,"migraine_risk":3,"frizz_risk":1,"updated_at":"2026-07-03T13:41:38.802507+05:30"},{"city":"Sagar","state":"Madhya Pradesh","latitude":23.8388,"longitude":78.7378,"temp":27.7,"humidity":80,"rain":0.1,"pressure":943.6,"uv_index":7.65,"wind_gusts":34.2,"aqi":47,"pm10":9.4,"pm2_5":7.1,"no2":1.9,"co":193.0,"o3":122.0,"so2":4.3,"mosquito_risk":10,"arthritis_risk":5,"migraine_risk":7,"frizz_risk":1,"updated_at":"2026-07-03T13:41:38.802514+05:30"},{"city":"Satna","state":"Madhya Pradesh","latitude":24.6005,"longitude":80.8322,"temp":32.7,"humidity":63,"rain":0.0,"pressure":963.9,"uv_index":8.2,"wind_gusts":28.4,"aqi":71,"pm10":19.4,"pm2_5":19.1,"no2":1.3,"co":260.0,"o3":147.0,"so2":6.8,"mosquito_risk":3,"arthritis_risk":5,"migraine_risk":7,"frizz_risk":1,"updated_at":"2026-07-03T13:41:38.802520+05:30"},{"city":"Akola","state":"Maharashtra","latitude":20.7002,"longitude":77.0082,"temp":27.8,"humidity":79,"rain":0.0,"pressure":969.8,"uv_index":3.5,"wind_gusts":41.4,"aqi":21,"pm10":6.0,"pm2_5":5.0,"no2":3.5,"co":132.0,"o3":78.0,"so2":8.5,"mosquito_risk":7,"arthritis_risk":5,"migraine_risk":3,"frizz_risk":1,"updated_at":"2026-07-03T13:41:38.802528+05:30"},{"city":"Amravati","state":"Maharashtra","latitude":20.9374,"longitude":77.7796,"temp":26.5,"humidity":87,"rain":0.1,"pressure":961.3,"uv_index":4.55,"wind_gusts":44.6,"aqi":21,"pm10":5.7,"pm2_5":4.9,"no2":4.3,"co":166.0,"o3":75.0,"so2":9.2,"mosquito_risk":10,"arthritis_risk":5,"migraine_risk":3,"frizz_risk":1,"updated_at":"2026-07-03T13:41:38.802536+05:30"},{"city":"Latur","state":"Maharashtra","latitude":18.4088,"longitude":76.5604,"temp":25.8,"humidity":82,"rain":0.0,"pressure":936.0,"uv_index":1.0,"wind_gusts":52.2,"aqi":21,"pm10":5.2,"pm2_5":3.6,"no2":2.4,"co":119.0,"o3":57.0,"so2":1.8,"mosquito_risk":7,"arthritis_risk":5,"migraine_risk":3,"frizz_risk":1,"updated_at":"2026-07-03T13:41:38.802543+05:30"},{"city":"Nanded","state":"Maharashtra","latitude":19.1383,"longitude":77.3091,"temp":26.4,"humidity":90,"rain":0.2,"pressure":963.8,"uv_index":0.7,"wind_gusts":43.6,"aqi":26,"pm10":10.2,"pm2_5":7.4,"no2":2.9,"co":159.0,"o3":67.0,"so2":3.6,"mosquito_risk":10,"arthritis_risk":5,"migraine_risk":3,"frizz_risk":1,"updated_at":"2026-07-03T13:41:38.802551+05:30"},{"city":"Gulbarga","state":"Karnataka","latitude":17.3297,"longitude":76.8343,"temp":28.1,"humidity":67,"rain":0.0,"pressure":955.8,"uv_index":6.5,"wind_gusts":54.7,"aqi":21,"pm10":9.2,"pm2_5":5.5,"no2":2.5,"co":140.0,"o3":63.0,"so2":2.4,"mosquito_risk":7,"arthritis_risk":5,"migraine_risk":7,"frizz_risk":1,"updated_at":"2026-07-03T13:41:38.802557+05:30"},{"city":"Bidar","state":"Karnataka","latitude":17.9104,"longitude":77.5199,"temp":25.8,"humidity":80,"rain":0.0,"pressure":931.7,"uv_index":2.3,"wind_gusts":60.8,"aqi":20,"pm10":4.2,"pm2_5":3.5,"no2":3.2,"co":138.0,"o3":61.0,"so2":1.9,"mosquito_risk":7,"arthritis_risk":5,"migraine_risk":3,"frizz_risk":1,"updated_at":"2026-07-03T13:41:38.802563+05:30"},{"city":"Hospet","state":"Karnataka","latitude":15.2689,"longitude":76.3909,"temp":29.6,"humidity":57,"rain":0.1,"pressure":954.3,"uv_index":8.15,"wind_gusts":62.3,"aqi":25,"pm10":11.6,"pm2_5":5.2,"no2":1.0,"co":101.0,"o3":68.0,"so2":1.3,"mosquito_risk":7,"arthritis_risk":5,"migraine_risk":7,"frizz_risk":1,"updated_at":"2026-07-03T13:41:38.802570+05:30"},{"city":"Tirupur","state":"Tamil Nadu","latitude":11.1085,"longitude":77.3411,"temp":32.3,"humidity":51,"rain":0.0,"pressure":974.6,"uv_index":8.0,"wind_gusts":62.6,"aqi":34,"pm10":6.7,"pm2_5":4.7,"no2":1.7,"co":124.0,"o3":81.0,"so2":2.0,"mosquito_risk":0,"arthritis_risk":5,"migraine_risk":7,"frizz_risk":1,"updated_at":"2026-07-03T13:41:38.802577+05:30"},{"city":"Alappuzha","state":"Kerala","latitude":9.4981,"longitude":76.3388,"temp":28.1,"humidity":78,"rain":0.1,"pressure":1011.0,"uv_index":8.45,"wind_gusts":40.0,"aqi":38,"pm10":18.6,"pm2_5":9.6,"no2":2.0,"co":87.0,"o3":59.0,"so2":1.4,"mosquito_risk":10,"arthritis_risk":0,"migraine_risk":4,"frizz_risk":1,"updated_at":"2026-07-03T13:41:38.802584+05:30"},{"city":"Munnar","state":"Kerala","latitude":10.0889,"longitude":77.0595,"temp":17.5,"humidity":96,"rain":0.5,"pressure":857.7,"uv_index":0.7,"wind_gusts":45.7,"aqi":21,"pm10":5.6,"pm2_5":3.5,"no2":2.7,"co":106.0,"o3":55.0,"so2":1.0,"mosquito_risk":6,"arthritis_risk":10,"migraine_risk":3,"frizz_risk":1,"updated_at":"2026-07-03T13:41:38.802591+05:30"},{"city":"Silchar","state":"Assam","latitude":24.8333,"longitude":92.7789,"temp":34.4,"humidity":63,"rain":0.0,"pressure":996.6,"uv_index":8.45,"wind_gusts":18.7,"aqi":73,"pm10":11.4,"pm2_5":11.2,"no2":1.2,"co":164.0,"o3":114.0,"so2":2.3,"mosquito_risk":3,"arthritis_risk":5,"migraine_risk":7,"frizz_risk":1,"updated_at":"2026-07-03T13:41:38.802598+05:30"},{"city":"Dibrugarh","state":"Assam","latitude":27.4728,"longitude":94.912,"temp":34.5,"humidity":64,"rain":0.0,"pressure":987.3,"uv_index":8.85,"wind_gusts":32.8,"aqi":54,"pm10":7.6,"pm2_5":7.5,"no2":1.0,"co":179.0,"o3":126.0,"so2":1.3,"mosquito_risk":3,"arthritis_risk":5,"migraine_risk":7,"frizz_risk":1,"updated_at":"2026-07-03T13:41:38.802605+05:30"}]