[{"city":"Delhi","state":"Delhi","latitude":28.6139,"longitude":77.209,"temp":29.6,"humidity":44,"rain":0.0,"pressure":984.2,"uv_index":5.9,"wind_gusts":32.8,"aqi":269,"pm10":389.3,"pm2_5":53.4,"mosquito_risk":4,"arthritis_risk":5,"migraine_risk":3,"frizz_risk":1,"updated_at":"2026-04-03T16:25:58.950604+05:30"},{"city":"Mumbai","state":"Maharashtra","latitude":19.076,"longitude":72.8777,"temp":28.2,"humidity":73,"rain":0.0,"pressure":1008.5,"uv_index":7.6,"wind_gusts":25.2,"aqi":78,"pm10":51.7,"pm2_5":23.1,"mosquito_risk":7,"arthritis_risk":0,"migraine_risk":4,"frizz_risk":1,"updated_at":"2026-04-03T16:25:58.950654+05:30"},{"city":"Bangalore","state":"Karnataka","latitude":12.9716,"longitude":77.5946,"temp":33.0,"humidity":32,"rain":0.0,"pressure":910.7,"uv_index":9.6,"wind_gusts":26.6,"aqi":135,"pm10":21.5,"pm2_5":18.2,"mosquito_risk":0,"arthritis_risk":5,"migraine_risk":7,"frizz_risk":0,"updated_at":"2026-04-03T16:25:58.950670+05:30"},{"city":"Hyderabad","state":"Telangana","latitude":17.385,"longitude":78.4867,"temp":36.0,"humidity":25,"rain":0.0,"pressure":952.1,"uv_index":8.85,"wind_gusts":19.8,"aqi":68,"pm10":25.1,"pm2_5":17.8,"mosquito_risk":0,"arthritis_risk":5,"migraine_risk":10,"frizz_risk":0,"updated_at":"2026-04-03T16:25:58.950681+05:30"},{"city":"Chennai","state":"Tamil Nadu","latitude":13.0827,"longitude":80.2707,"temp":32.5,"humidity":47,"rain":0.0,"pressure":1006.0,"uv_index":9.3,"wind_gusts":36.7,"aqi":44,"pm10":13.6,"pm2_5":10.9,"mosquito_risk":0,"arthritis_risk":5,"migraine_risk":4,"frizz_risk":1,"updated_at":"2026-04-03T16:25:58.950690+05:30"},{"city":"Kolkata","state":"West Bengal","latitude":22.5726,"longitude":88.3639,"temp":35.5,"humidity":45,"rain":0.0,"pressure":1003.3,"uv_index":8.7,"wind_gusts":20.2,"aqi":95,"pm10":41.0,"pm2_5":33.1,"mosquito_risk":0,"arthritis_risk":5,"migraine_risk":7,"frizz_risk":1,"updated_at":"2026-04-03T16:25:58.950699+05:30"},{"city":"Pune","state":"Maharashtra","latitude":18.5204,"longitude":73.8567,"temp":33.0,"humidity":38,"rain":0.0,"pressure":948.0,"uv_index":8.5,"wind_gusts":36.4,"aqi":132,"pm10":42.6,"pm2_5":34.2,"mosquito_risk":0,"arthritis_risk":5,"migraine_risk":7,"frizz_risk":1,"updated_at":"2026-04-03T16:25:58.950710+05:30"},{"city":"Ahmedabad","state":"Gujarat","latitude":23.0225,"longitude":72.5714,"temp":32.7,"humidity":31,"rain":0.0,"pressure":1001.9,"uv_index":7.25,"wind_gusts":42.1,"aqi":64,"pm10":68.2,"pm2_5":18.0,"mosquito_risk":0,"arthritis_risk":5,"migraine_risk":4,"frizz_risk":0,"updated_at":"2026-04-03T16:25:58.950718+05:30"},{"city":"Jaipur","state":"Rajasthan","latitude":26.9124,"longitude":75.7873,"temp":25.7,"humidity":62,"rain":0.0,"pressure":960.6,"uv_index":7.5,"wind_gusts":55.8,"aqi":125,"pm10":204.9,"pm2_5":30.7,"mosquito_risk":7,"arthritis_risk":5,"migraine_risk":7,"frizz_risk":1,"updated_at":"2026-04-03T16:25:58.950726+05:30"},{"city":"Lucknow","state":"Uttar Pradesh","latitude":26.8467,"longitude":80.9462,"temp":34.3,"humidity":36,"rain":0.0,"pressure":992.8,"uv_index":6.85,"wind_gusts":28.8,"aqi":97,"pm10":181.1,"pm2_5":39.0,"mosquito_risk":0,"arthritis_risk":5,"migraine_risk":7,"frizz_risk":1,"updated_at":"2026-04-03T16:25:58.950734+05:30"},{"city":"Kanpur","state":"Uttar Pradesh","latitude":26.4499,"longitude":80.3319,"temp":33.9,"humidity":40,"rain":0.0,"pressure":991.0,"uv_index":5.2,"wind_gusts":26.3,"aqi":151,"pm10":252.4,"pm2_5":36.0,"mosquito_risk":0,"arthritis_risk":5,"migraine_risk":3,"frizz_risk":1,"updated_at":"2026-04-03T16:25:58.950743+05:30"},{"city":"Chandigarh","state":"Chandigarh","latitude":30.7333,"longitude":76.7794,"temp":26.3,"humidity":57,"rain":0.0,"pressure":970.1,"uv_index":5.85,"wind_gusts":49.3,"aqi":70,"pm10":74.3,"pm2_5":26.1,"mosquito_risk":4,"arthritis_risk":5,"migraine_risk":3,"frizz_risk":1,"updated_at":"2026-04-03T16:25:58.950750+05:30"},{"city":"Srinagar","state":"Jammu and Kashmir","latitude":34.0837,"longitude":74.7973,"temp":14.6,"humidity":63,"rain":0.0,"pressure":840.7,"uv_index":6.45,"wind_gusts":35.3,"aqi":100,"pm10":20.5,"pm2_5":13.4,"mosquito_risk":3,"arthritis_risk":5,"migraine_risk":7,"frizz_risk":0,"updated_at":"2026-04-03T16:25:58.950757+05:30"},{"city":"Jammu","state":"Jammu and Kashmir","latitude":32.7266,"longitude":74.857,"temp":21.7,"humidity":82,"rain":0.0,"pressure":974.5,"uv_index":6.05,"wind_gusts":35.3,"aqi":73,"pm10":44.9,"pm2_5":18.6,"mosquito_risk":3,"arthritis_risk":5,"migraine_risk":7,"frizz_risk":1,"updated_at":"2026-04-03T16:25:58.950767+05:30"},{"city":"Amritsar","state":"Punjab","latitude":31.634,"longitude":74.8723,"temp":21.1,"humidity":85,"rain":0.0,"pressure":982.3,"uv_index":4.15,"wind_gusts":57.6,"aqi":91,"pm10":38.8,"pm2_5":13.8,"mosquito_risk":3,"arthritis_risk":5,"migraine_risk":3,"frizz_risk":1,"updated_at":"2026-04-03T16:25:58.950774+05:30"},{"city":"Ludhiana","state":"Punjab","latitude":30.901,"longitude":75.8573,"temp":24.4,"humidity":63,"rain":0.0,"pressure":981.3,"uv_index":4.9,"wind_gusts":45.4,"aqi":104,"pm10":67.8,"pm2_5":21.4,"mosquito_risk":3,"arthritis_risk":5,"migraine_risk":3,"frizz_risk":1,"updated_at":"2026-04-03T16:25:58.950780+05:30"},{"city":"Jalandhar","state":"Punjab","latitude":31.326,"longitude":75.5762,"temp":22.7,"humidity":79,"rain":0.0,"pressure":982.2,"uv_index":5.2,"wind_gusts":41.8,"aqi":87,"pm10":52.2,"pm2_5":16.6,"mosquito_risk":3,"arthritis_risk":5,"migraine_risk":3,"frizz_risk":1,"updated_at":"2026-04-03T16:25:58.950789+05:30"},{"city":"Dehradun","state":"Uttarakhand","latitude":30.6284,"longitude":78.0322,"temp":20.8,"humidity":54,"rain":0.0,"pressure":832.4,"uv_index":5.4,"wind_gusts":34.2,"aqi":47,"pm10":24.6,"pm2_5":9.8,"mosquito_risk":0,"arthritis_risk":5,"migraine_risk":3,"frizz_risk":0,"updated_at":"2026-04-03T16:25:58.950796+05:30"},{"city":"Shimla","state":"Himachal Pradesh","latitude":31.1048,"longitude":77.1734,"temp":18.0,"humidity":61,"rain":0.0,"pressure":786.0,"uv_index":6.15,"wind_gusts":51.5,"aqi":53,"pm10":25.2,"pm2_5":12.6,"mosquito_risk":3,"arthritis_risk":5,"migraine_risk":7,"frizz_risk":0,"updated_at":"2026-04-03T16:25:58.950803+05:30"},{"city":"Manali","state":"Himachal Pradesh","latitude":32.2396,"longitude":77.1887,"temp":17.9,"humidity":69,"rain":0.0,"pressure":821.4,"uv_index":7.1,"wind_gusts":46.1,"aqi":57,"pm10":9.4,"pm2_5":4.3,"mosquito_risk":3,"arthritis_risk":5,"migraine_risk":7,"frizz_risk":0,"updated_at":"2026-04-03T16:25:58.950810+05:30"},{"city":"Gurgaon","state":"Haryana","latitude":28.4595,"longitude":77.0266,"temp":30.1,"humidity":39,"rain":0.0,"pressure":982.5,"uv_index":6.3,"wind_gusts":32.0,"aqi":733,"pm10":451.7,"pm2_5":55.4,"mosquito_risk":0,"arthritis_risk":5,"migraine_risk":7,"frizz_risk":0,"updated_at":"2026-04-03T16:25:58.950817+05:30"},{"city":"Noida","state":"Uttar Pradesh","latitude":28.5355,"longitude":77.391,"temp":30.1,"humidity":42,"rain":0.0,"pressure":985.7,"uv_index":6.0,"wind_gusts":29.5,"aqi":733,"pm10":451.7,"pm2_5":55.4,"mosquito_risk":0,"arthritis_risk":5,"migraine_risk":3,"frizz_risk":0,"updated_at":"2026-04-03T16:25:58.950824+05:30"},{"city":"Ghaziabad","state":"Uttar Pradesh","latitude":28.6692,"longitude":77.4538,"temp":29.3,"humidity":47,"rain":0.0,"pressure":983.9,"uv_index":5.85,"wind_gusts":30.6,"aqi":175,"pm10":390.2,"pm2_5":64.5,"mosquito_risk":4,"arthritis_risk":5,"migraine_risk":3,"frizz_risk":1,"updated_at":"2026-04-03T16:25:58.950830+05:30"},{"city":"Faridabad","state":"Haryana","latitude":28.4089,"longitude":77.3178,"temp":31.0,"humidity":36,"rain":0.0,"pressure":984.7,"uv_index":6.25,"wind_gusts":30.2,"aqi":733,"pm10":451.7,"pm2_5":55.4,"mosquito_risk":0,"arthritis_risk":5,"migraine_risk":7,"frizz_risk":0,"updated_at":"2026-04-03T16:25:58.950836+05:30"},{"city":"Meerut","state":"Uttar Pradesh","latitude":28.9845,"longitude":77.7064,"temp":28.3,"humidity":55,"rain":0.0,"pressure":982.7,"uv_index":6.3,"wind_gusts":26.3,"aqi":175,"pm10":390.2,"pm2_5":64.5,"mosquito_risk":4,"arthritis_risk":5,"migraine_risk":7,"frizz_risk":1,"updated_at":"2026-04-03T16:25:58.950843+05:30"},{"city":"Agra","state":"Uttar Pradesh","latitude":27.1767,"longitude":78.0081,"temp":34.0,"humidity":27,"rain":0.0,"pressure":987.8,"uv_index":7.35,"wind_gusts":35.6,"aqi":545,"pm10":486.2,"pm2_5":56.9,"mosquito_risk":0,"arthritis_risk":5,"migraine_risk":7,"frizz_risk":0,"updated_at":"2026-04-03T16:25:58.950849+05:30"},{"city":"Varanasi","state":"Uttar Pradesh","latitude":25.3176,"longitude":82.9739,"temp":35.1,"humidity":36,"rain":0.0,"pressure":996.4,"uv_index":7.7,"wind_gusts":32.0,"aqi":92,"pm10":20.7,"pm2_5":15.0,"mosquito_risk":0,"arthritis_risk":5,"migraine_risk":10,"frizz_risk":1,"updated_at":"2026-04-03T16:25:58.950859+05:30"},{"city":"Prayagraj","state":"Uttar Pradesh","latitude":25.4358,"longitude":81.8463,"temp":34.8,"humidity":35,"rain":0.0,"pressure":995.2,"uv_index":7.25,"wind_gusts":36.7,"aqi":85,"pm10":32.2,"pm2_5":15.5,"mosquito_risk":0,"arthritis_risk":5,"migraine_risk":7,"frizz_risk":1,"updated_at":"2026-04-03T16:25:58.950866+05:30"},{"city":"Gorakhpur","state":"Uttar Pradesh","latitude":26.7606,"longitude":83.3732,"temp":35.8,"humidity":25,"rain":0.0,"pressure":995.4,"uv_index":7.1,"wind_gusts":39.6,"aqi":87,"pm10":29.5,"pm2_5":16.0,"mosquito_risk":0,"arthritis_risk":5,"migraine_risk":10,"frizz_risk":0,"updated_at":"2026-04-03T16:25:58.950872+05:30"},{"city":"Bareilly","state":"Uttar Pradesh","latitude":28.367,"longitude":79.4304,"temp":32.6,"humidity":36,"rain":0.0,"pressure":986.8,"uv_index":6.1,"wind_gusts":19.1,"aqi":84,"pm10":108.3,"pm2_5":38.5,"mosquito_risk":0,"arthritis_risk":5,"migraine_risk":7,"frizz_risk":0,"updated_at":"2026-04-03T16:25:58.950879+05:30"},{"city":"Aligarh","state":"Uttar Pradesh","latitude":27.8974,"longitude":78.088,"temp":31.9,"humidity":36,"rain":0.0,"pressure":986.0,"uv_index":7.0,"wind_gusts":28.1,"aqi":466,"pm10":653.8,"pm2_5":85.0,"mosquito_risk":0,"arthritis_risk":5,"migraine_risk":7,"frizz_risk":0,"updated_at":"2026-04-03T16:25:58.950888+05:30"},{"city":"Moradabad","state":"Uttar Pradesh","latitude":28.8386,"longitude":78.7733,"temp":30.8,"humidity":46,"rain":0.0,"pressure":984.3,"uv_index":6.25,"wind_gusts":20.5,"aqi":124,"pm10":201.2,"pm2_5":61.9,"mosquito_risk":0,"arthritis_risk":5,"migraine_risk":7,"frizz_risk":1,"updated_at":"2026-04-03T16:25:58.950894+05:30"},{"city":"Saharanpur","state":"Uttar Pradesh","latitude":29.9637,"longitude":77.546,"temp":28.1,"humidity":55,"rain":0.0,"pressure":976.6,"uv_index":6.55,"wind_gusts":29.9,"aqi":112,"pm10":213.3,"pm2_5":50.2,"mosquito_risk":4,"arthritis_risk":5,"migraine_risk":7,"frizz_risk":1,"updated_at":"2026-04-03T16:25:58.950900+05:30"},{"city":"Jhansi","state":"Uttar Pradesh","latitude":25.4484,"longitude":78.5685,"temp":33.0,"humidity":34,"rain":0.0,"pressure":977.4,"uv_index":7.8,"wind_gusts":40.3,"aqi":68,"pm10":43.2,"pm2_5":19.2,"mosquito_risk":0,"arthritis_risk":5,"migraine_risk":7,"frizz_risk":0,"updated_at":"2026-04-03T16:26:02.213506+05:30"},{"city":"Surat","state":"Gujarat","latitude":21.1702,"longitude":72.8311,"temp":30.3,"humidity":54,"rain":0.0,"pressure":1007.1,"uv_index":7.65,"wind_gusts":30.6,"aqi":96,"pm10":47.8,"pm2_5":30.9,"mosquito_risk":0,"arthritis_risk":5,"migraine_risk":4,"frizz_risk":1,"updated_at":"2026-04-03T16:26:02.213540+05:30"},{"city":"Vadodara","state":"Gujarat","latitude":22.3072,"longitude":73.1812,"temp":34.0,"humidity":34,"rain":0.0,"pressure":1003.9,"uv_index":7.85,"wind_gusts":33.1,"aqi":77,"pm10":44.7,"pm2_5":19.7,"mosquito_risk":0,"arthritis_risk":5,"migraine_risk":4,"frizz_risk":0,"updated_at":"2026-04-03T16:26:02.213585+05:30"},{"city":"Rajkot","state":"Gujarat","latitude":22.3039,"longitude":70.8022,"temp":27.7,"humidity":61,"rain":0.0,"pressure":995.3,"uv_index":7.25,"wind_gusts":45.4,"aqi":65,"pm10":30.2,"pm2_5":9.6,"mosquito_risk":7,"arthritis_risk":5,"migraine_risk":7,"frizz_risk":1,"updated_at":"2026-04-03T16:26:02.213595+05:30"},{"city":"Thane","state":"Maharashtra","latitude":19.2183,"longitude":72.9781,"temp":29.9,"humidity":62,"rain":0.0,"pressure":1008.0,"uv_index":7.7,"wind_gusts":37.1,"aqi":78,"pm10":51.7,"pm2_5":23.1,"mosquito_risk":7,"arthritis_risk":0,"migraine_risk":4,"frizz_risk":1,"updated_at":"2026-04-03T16:26:02.213602+05:30"},{"city":"Nagpur","state":"Maharashtra","latitude":21.1458,"longitude":79.0882,"temp":34.9,"humidity":36,"rain":0.0,"pressure":972.0,"uv_index":8.7,"wind_gusts":23.4,"aqi":110,"pm10":36.8,"pm2_5":29.6,"mosquito_risk":0,"arthritis_risk":5,"migraine_risk":7,"frizz_risk":1,"updated_at":"2026-04-03T16:26:02.213609+05:30"},{"city":"Nashik","state":"Maharashtra","latitude":19.9975,"longitude":73.7898,"temp":30.5,"humidity":39,"rain":0.0,"pressure":945.7,"uv_index":8.15,"wind_gusts":40.0,"aqi":70,"pm10":24.2,"pm2_5":10.8,"mosquito_risk":0,"arthritis_risk":5,"migraine_risk":7,"frizz_risk":0,"updated_at":"2026-04-03T16:26:02.213617+05:30"},{"city":"Aurangabad","state":"Maharashtra","latitude":19.8762,"longitude":75.3433,"temp":33.4,"humidity":33,"rain":0.0,"pressure":943.4,"uv_index":8.75,"wind_gusts":29.5,"aqi":100,"pm10":35.5,"pm2_5":27.2,"mosquito_risk":0,"arthritis_risk":5,"migraine_risk":7,"frizz_risk":0,"updated_at":"2026-04-03T16:26:02.213623+05:30"},{"city":"Solapur","state":"Maharashtra","latitude":17.6599,"longitude":75.9064,"temp":36.4,"humidity":27,"rain":0.0,"pressure":955.5,"uv_index":8.95,"wind_gusts":50.8,"aqi":105,"pm10":26.5,"pm2_5":21.2,"mosquito_risk":0,"arthritis_risk":5,"migraine_risk":10,"frizz_risk":0,"updated_at":"2026-04-03T16:26:02.213631+05:30"},{"city":"Kolhapur","state":"Maharashtra","latitude":16.705,"longitude":74.2433,"temp":30.3,"humidity":54,"rain":0.0,"pressure":947.5,"uv_index":8.95,"wind_gusts":34.6,"aqi":137,"pm10":40.2,"pm2_5":34.3,"mosquito_risk":0,"arthritis_risk":5,"migraine_risk":7,"frizz_risk":1,"updated_at":"2026-04-03T16:26:02.213639+05:30"},{"city":"Goa","state":"Goa","latitude":15.2993,"longitude":74.124,"temp":31.2,"humidity":66,"rain":0.0,"pressure":997.2,"uv_index":9.0,"wind_gusts":31.7,"aqi":75,"pm10":21.7,"pm2_5":18.0,"mosquito_risk":3,"arthritis_risk":5,"migraine_risk":7,"frizz_risk":1,"updated_at":"2026-04-03T16:26:02.213647+05:30"},{"city":"Jodhpur","state":"Rajasthan","latitude":26.2389,"longitude":73.0243,"temp":29.3,"humidity":33,"rain":0.0,"pressure":982.7,"uv_index":7.45,"wind_gusts":44.6,"aqi":134,"pm10":221.7,"pm2_5":29.7,"mosquito_risk":4,"arthritis_risk":5,"migraine_risk":7,"frizz_risk":0,"updated_at":"2026-04-03T16:26:02.213654+05:30"},{"city":"Udaipur","state":"Rajasthan","latitude":24.5854,"longitude":73.7125,"temp":27.6,"humidity":36,"rain":0.0,"pressure":946.4,"uv_index":7.95,"wind_gusts":54.7,"aqi":47,"pm10":59.8,"pm2_5":16.6,"mosquito_risk":4,"arthritis_risk":5,"migraine_risk":7,"frizz_risk":0,"updated_at":"2026-04-03T16:26:02.213661+05:30"},{"city":"Kota","state":"Rajasthan","latitude":25.2138,"longitude":75.8648,"temp":35.3,"humidity":22,"rain":0.0,"pressure":977.2,"uv_index":7.85,"wind_gusts":48.2,"aqi":56,"pm10":34.5,"pm2_5":12.6,"mosquito_risk":0,"arthritis_risk":5,"migraine_risk":10,"frizz_risk":0,"updated_at":"2026-04-03T16:26:02.213668+05:30"},{"city":"Bikaner","state":"Rajasthan","latitude":28.0229,"longitude":73.3119,"temp":24.5,"humidity":56,"rain":0.0,"pressure":983.1,"uv_index":7.25,"wind_gusts":54.7,"aqi":62,"pm10":45.6,"pm2_5":15.0,"mosquito_risk":0,"arthritis_risk":5,"migraine_risk":7,"frizz_risk":0,"updated_at":"2026-04-03T16:26:02.213676+05:30"},{"city":"Ajmer","state":"Rajasthan","latitude":26.4499,"longitude":74.6399,"temp":29.1,"humidity":36,"rain":0.0,"pressure":954.2,"uv_index":7.55,"wind_gusts":59.8,"aqi":77,"pm10":58.7,"pm2_5":15.7,"mosquito_risk":4,"arthritis_risk":5,"migraine_risk":7,"frizz_risk":0,"updated_at":"2026-04-03T16:26:02.213682+05:30"},{"city":"Gwalior","state":"Madhya Pradesh","latitude":26.2183,"longitude":78.1828,"temp":28.9,"humidity":51,"rain":0.0,"pressure":984.0,"uv_index":7.65,"wind_gusts":42.1,"aqi":64,"pm10":75.9,"pm2_5":21.4,"mosquito_risk":4,"arthritis_risk":5,"migraine_risk":7,"frizz_risk":1,"updated_at":"2026-04-03T16:26:02.213689+05:30"},{"city":"Indore","state":"Madhya Pradesh","latitude":22.7196,"longitude":75.8577,"temp":33.9,"humidity":22,"rain":0.0,"pressure":947.6,"uv_index":8.3,"wind_gusts":37.1,"aqi":85,"pm10":24.6,"pm2_5":15.2,"mosquito_risk":0,"arthritis_risk":5,"migraine_risk":7,"frizz_risk":0,"updated_at":"2026-04-03T16:26:02.213696+05:30"},{"city":"Bhopal","state":"Madhya Pradesh","latitude":23.2599,"longitude":77.4126,"temp":29.9,"humidity":47,"rain":0.0,"pressure":954.0,"uv_index":8.1,"wind_gusts":31.7,"aqi":84,"pm10":24.0,"pm2_5":19.0,"mosquito_risk":4,"arthritis_risk":5,"migraine_risk":7,"frizz_risk":1,"updated_at":"2026-04-03T16:26:02.213703+05:30"},{"city":"Jabalpur","state":"Madhya Pradesh","latitude":23.1815,"longitude":79.9864,"temp":34.7,"humidity":30,"rain":0.0,"pressure":960.7,"uv_index":7.65,"wind_gusts":22.3,"aqi":86,"pm10":27.2,"pm2_5":21.0,"mosquito_risk":0,"arthritis_risk":5,"migraine_risk":7,"frizz_risk":0,"updated_at":"2026-04-03T16:26:02.213709+05:30"},{"city":"Ujjain","state":"Madhya Pradesh","latitude":23.1765,"longitude":75.7885,"temp":33.5,"humidity":28,"rain":0.0,"pressure":953.0,"uv_index":8.2,"wind_gusts":36.0,"aqi":75,"pm10":29.3,"pm2_5":13.0,"mosquito_risk":0,"arthritis_risk":5,"migraine_risk":7,"frizz_risk":0,"updated_at":"2026-04-03T16:26:02.213717+05:30"},{"city":"Visakhapatnam","state":"Andhra Pradesh","latitude":17.6868,"longitude":83.2185,"temp":31.4,"humidity":64,"rain":0.0,"pressure":1002.6,"uv_index":8.95,"wind_gusts":41.8,"aqi":57,"pm10":26.3,"pm2_5":24.2,"mosquito_risk":3,"arthritis_risk":5,"migraine_risk":4,"frizz_risk":1,"updated_at":"2026-04-03T16:26:02.213724+05:30"},{"city":"Vijayawada","state":"Andhra Pradesh","latitude":16.5062,"longitude":80.648,"temp":36.7,"humidity":36,"rain":0.0,"pressure":1000.5,"uv_index":8.5,"wind_gusts":31.0,"aqi":48,"pm10":10.9,"pm2_5":9.0,"mosquito_risk":0,"arthritis_risk":5,"migraine_risk":7,"frizz_risk":1,"updated_at":"2026-04-03T16:26:02.213731+05:30"},{"city":"Guntur","state":"Andhra Pradesh","latitude":16.3067,"longitude":80.4365,"temp":36.2,"humidity":38,"rain":0.0,"pressure":1002.0,"uv_index":8.45,"wind_gusts":32.8,"aqi":44,"pm10":9.3,"pm2_5":6.9,"mosquito_risk":0,"arthritis_risk":5,"migraine_risk":7,"frizz_risk":1,"updated_at":"2026-04-03T16:26:02.213738+05:30"},{"city":"Nellore","state":"Andhra Pradesh","latitude":14.4426,"longitude":79.9865,"temp":33.8,"humidity":50,"rain":0.0,"pressure":1004.2,"uv_index":9.25,"wind_gusts":34.2,"aqi":48,"pm10":15.3,"pm2_5":13.1,"mosquito_risk":0,"arthritis_risk":5,"migraine_risk":4,"frizz_risk":1,"updated_at":"2026-04-03T16:26:02.213745+05:30"},{"city":"Kurnool","state":"Andhra Pradesh","latitude":15.8281,"longitude":78.0373,"temp":38.1,"humidity":23,"rain":0.0,"pressure":974.5,"uv_index":8.75,"wind_gusts":20.5,"aqi":52,"pm10":21.6,"pm2_5":14.8,"mosquito_risk":0,"arthritis_risk":5,"migraine_risk":10,"frizz_risk":0,"updated_at":"2026-04-03T16:26:02.213753+05:30"},{"city":"Kakinada","state":"Andhra Pradesh","latitude":16.9891,"longitude":82.2475,"temp":34.7,"humidity":49,"rain":0.0,"pressure":1005.6,"uv_index":8.85,"wind_gusts":39.6,"aqi":35,"pm10":6.1,"pm2_5":4.3,"mosquito_risk":0,"arthritis_risk":5,"migraine_risk":4,"frizz_risk":1,"updated_at":"2026-04-03T16:26:02.213760+05:30"},{"city":"Tirupati","state":"Andhra Pradesh","latitude":13.6288,"longitude":79.4192,"temp":35.8,"humidity":33,"rain":0.0,"pressure":989.3,"uv_index":9.35,"wind_gusts":31.7,"aqi":52,"pm10":12.5,"pm2_5":9.7,"mosquito_risk":0,"arthritis_risk":5,"migraine_risk":10,"frizz_risk":1,"updated_at":"2026-04-03T16:26:02.213766+05:30"},{"city":"Warangal","state":"Telangana","latitude":17.9689,"longitude":79.5941,"temp":36.3,"humidity":35,"rain":0.0,"pressure":977.2,"uv_index":8.75,"wind_gusts":17.6,"aqi":73,"pm10":21.5,"pm2_5":15.8,"mosquito_risk":0,"arthritis_risk":5,"migraine_risk":10,"frizz_risk":1,"updated_at":"2026-04-03T16:26:02.213773+05:30"},{"city":"Nizamabad","state":"Telangana","latitude":18.6725,"longitude":78.0941,"temp":35.3,"humidity":34,"rain":0.0,"pressure":963.5,"uv_index":8.55,"wind_gusts":25.9,"aqi":111,"pm10":30.5,"pm2_5":23.3,"mosquito_risk":0,"arthritis_risk":5,"migraine_risk":10,"frizz_risk":1,"updated_at":"2026-04-03T16:26:02.213779+05:30"},{"city":"Mysore","state":"Karnataka","latitude":12.2958,"longitude":76.6396,"temp":34.0,"humidity":27,"rain":0.0,"pressure":927.1,"uv_index":9.5,"wind_gusts":45.7,"aqi":116,"pm10":19.0,"pm2_5":15.5,"mosquito_risk":0,"arthritis_risk":5,"migraine_risk":7,"frizz_risk":0,"updated_at":"2026-04-03T16:26:02.213786+05:30"},{"city":"Mangalore","state":"Karnataka","latitude":12.9141,"longitude":74.856,"temp":29.5,"humidity":82,"rain":0.0,"pressure":1005.4,"uv_index":9.15,"wind_gusts":24.5,"aqi":84,"pm10":22.7,"pm2_5":17.8,"mosquito_risk":7,"arthritis_risk":5,"migraine_risk":4,"frizz_risk":1,"updated_at":"2026-04-03T16:26:02.213793+05:30"},{"city":"Hubli-Dharwad","state":"Karnataka","latitude":15.3647,"longitude":75.124,"temp":32.0,"humidity":45,"rain":0.0,"pressure":940.1,"uv_index":9.2,"wind_gusts":38.9,"aqi":124,"pm10":28.7,"pm2_5":23.2,"mosquito_risk":0,"arthritis_risk":5,"migraine_risk":7,"frizz_risk":1,"updated_at":"2026-04-03T16:26:02.213800+05:30"},{"city":"Belgaum","state":"Karnataka","latitude":15.8497,"longitude":74.4977,"temp":28.4,"humidity":63,"rain":0.0,"pressure":925.7,"uv_index":9.25,"wind_gusts":33.1,"aqi":142,"pm10":35.4,"pm2_5":30.2,"mosquito_risk":7,"arthritis_risk":5,"migraine_risk":7,"frizz_risk":1,"updated_at":"2026-04-03T16:26:05.467425+05:30"},{"city":"Coimbatore","state":"Tamil Nadu","latitude":11.0168,"longitude":76.9558,"temp":31.8,"humidity":51,"rain":0.0,"pressure":960.6,"uv_index":9.45,"wind_gusts":45.0,"aqi":113,"pm10":21.3,"pm2_5":18.5,"mosquito_risk":0,"arthritis_risk":5,"migraine_risk":7,"frizz_risk":1,"updated_at":"2026-04-03T16:26:05.467460+05:30"},{"city":"Madurai","state":"Tamil Nadu","latitude":9.9252,"longitude":78.1198,"temp":33.7,"humidity":47,"rain":0.0,"pressure":991.6,"uv_index":9.1,"wind_gusts":34.6,"aqi":65,"pm10":13.4,"pm2_5":11.8,"mosquito_risk":0,"arthritis_risk":5,"migraine_risk":7,"frizz_risk":1,"updated_at":"2026-04-03T16:26:05.467471+05:30"},{"city":"Trichy","state":"Tamil Nadu","latitude":10.7905,"longitude":78.7047,"temp":36.8,"humidity":35,"rain":0.0,"pressure":997.3,"uv_index":9.4,"wind_gusts":34.6,"aqi":57,"pm10":14.8,"pm2_5":13.4,"mosquito_risk":0,"arthritis_risk":5,"migraine_risk":10,"frizz_risk":1,"updated_at":"2026-04-03T16:26:05.467479+05:30"},{"city":"Salem","state":"Tamil Nadu","latitude":11.6643,"longitude":78.146,"temp":37.4,"humidity":28,"rain":0.0,"pressure":974.8,"uv_index":9.45,"wind_gusts":33.1,"aqi":62,"pm10":16.1,"pm2_5":14.3,"mosquito_risk":0,"arthritis_risk":5,"migraine_risk":10,"frizz_risk":0,"updated_at":"2026-04-03T16:26:05.467488+05:30"},{"city":"Tirunelveli","state":"Tamil Nadu","latitude":8.7139,"longitude":77.7567,"temp":31.7,"humidity":63,"rain":0.0,"pressure":1002.3,"uv_index":9.35,"wind_gusts":37.1,"aqi":78,"pm10":19.0,"pm2_5":17.2,"mosquito_risk":3,"arthritis_risk":5,"migraine_risk":4,"frizz_risk":1,"updated_at":"2026-04-03T16:26:05.467495+05:30"},{"city":"Vellore","state":"Tamil Nadu","latitude":12.9165,"longitude":79.1325,"temp":35.5,"humidity":35,"rain":0.0,"pressure":982.5,"uv_index":9.4,"wind_gusts":37.1,"aqi":67,"pm10":25.2,"pm2_5":22.0,"mosquito_risk":0,"arthritis_risk":5,"migraine_risk":10,"frizz_risk":1,"updated_at":"2026-04-03T16:26:05.467502+05:30"},{"city":"Erode","state":"Tamil Nadu","latitude":11.341,"longitude":77.7172,"temp":38.2,"humidity":26,"rain":0.0,"pressure":985.9,"uv_index":9.4,"wind_gusts":29.2,"aqi":54,"pm10":14.3,"pm2_5":12.5,"mosquito_risk":0,"arthritis_risk":5,"migraine_risk":10,"frizz_risk":0,"updated_at":"2026-04-03T16:26:05.467510+05:30"},{"city":"Kochi","state":"Kerala","latitude":9.9312,"longitude":76.2673,"temp":29.4,"humidity":77,"rain":0.0,"pressure":1007.3,"uv_index":9.2,"wind_gusts":24.1,"aqi":84,"pm10":18.7,"pm2_5":16.4,"mosquito_risk":7,"arthritis_risk":5,"migraine_risk":4,"frizz_risk":1,"updated_at":"2026-04-03T16:26:05.467517+05:30"},{"city":"Thiruvananthapuram","state":"Kerala","latitude":8.5241,"longitude":76.9366,"temp":29.0,"humidity":79,"rain":0.0,"pressure":1007.2,"uv_index":8.95,"wind_gusts":23.8,"aqi":74,"pm10":22.0,"pm2_5":17.6,"mosquito_risk":7,"arthritis_risk":5,"migraine_risk":4,"frizz_risk":1,"updated_at":"2026-04-03T16:26:05.467524+05:30"},{"city":"Kozhikode","state":"Kerala","latitude":11.2588,"longitude":75.7804,"temp":30.4,"humidity":76,"rain":0.0,"pressure":1006.4,"uv_index":9.15,"wind_gusts":25.2,"aqi":69,"pm10":16.8,"pm2_5":13.9,"mosquito_risk":3,"arthritis_risk":5,"migraine_risk":4,"frizz_risk":1,"updated_at":"2026-04-03T16:26:05.467530+05:30"},{"city":"Thrissur","state":"Kerala","latitude":10.5276,"longitude":76.2144,"temp":32.3,"humidity":62,"rain":0.0,"pressure":1005.5,"uv_index":9.2,"wind_gusts":30.2,"aqi":66,"pm10":20.9,"pm2_5":18.3,"mosquito_risk":3,"arthritis_risk":5,"migraine_risk":4,"frizz_risk":1,"updated_at":"2026-04-03T16:26:05.467537+05:30"},{"city":"Kannur","state":"Kerala","latitude":11.8745,"longitude":75.3704,"temp":31.2,"humidity":69,"rain":0.0,"pressure":1005.9,"uv_index":9.15,"wind_gusts":27.4,"aqi":71,"pm10":19.4,"pm2_5":15.7,"mosquito_risk":3,"arthritis_risk":5,"migraine_risk":4,"frizz_risk":1,"updated_at":"2026-04-03T16:26:05.467544+05:30"},{"city":"Patna","state":"Bihar","latitude":25.5941,"longitude":85.1376,"temp":38.0,"humidity":24,"rain":0.0,"pressure":997.6,"uv_index":8.3,"wind_gusts":36.4,"aqi":122,"pm10":37.5,"pm2_5":22.2,"mosquito_risk":0,"arthritis_risk":5,"migraine_risk":10,"frizz_risk":0,"updated_at":"2026-04-03T16:26:05.467569+05:30"},{"city":"Gaya","state":"Bihar","latitude":24.7914,"longitude":85.0002,"temp":37.3,"humidity":28,"rain":0.0,"pressure":991.5,"uv_index":8.4,"wind_gusts":27.0,"aqi":131,"pm10":30.5,"pm2_5":21.0,"mosquito_risk":0,"arthritis_risk":5,"migraine_risk":10,"frizz_risk":0,"updated_at":"2026-04-03T16:26:05.467575+05:30"},{"city":"Muzaffarpur","state":"Bihar","latitude":26.1209,"longitude":85.3647,"temp":38.0,"humidity":21,"rain":0.0,"pressure":997.2,"uv_index":8.25,"wind_gusts":39.2,"aqi":113,"pm10":40.5,"pm2_5":21.8,"mosquito_risk":0,"arthritis_risk":5,"migraine_risk":10,"frizz_risk":0,"updated_at":"2026-04-03T16:26:05.467581+05:30"},{"city":"Bhagalpur","state":"Bihar","latitude":25.2425,"longitude":87.0117,"temp":35.7,"humidity":34,"rain":0.0,"pressure":998.2,"uv_index":8.3,"wind_gusts":23.8,"aqi":120,"pm10":36.4,"pm2_5":20.7,"mosquito_risk":0,"arthritis_risk":5,"migraine_risk":10,"frizz_risk":1,"updated_at":"2026-04-03T16:26:05.467588+05:30"},{"city":"Ranchi","state":"Jharkhand","latitude":23.3441,"longitude":85.3096,"temp":34.4,"humidity":24,"rain":0.0,"pressure":937.3,"uv_index":8.95,"wind_gusts":26.6,"aqi":121,"pm10":24.6,"pm2_5":18.6,"mosquito_risk":0,"arthritis_risk":5,"migraine_risk":7,"frizz_risk":0,"updated_at":"2026-04-03T16:26:05.467594+05:30"},{"city":"Jamshedpur","state":"Jharkhand","latitude":22.8046,"longitude":86.2029,"temp":37.6,"humidity":30,"rain":0.0,"pressure":988.1,"uv_index":8.8,"wind_gusts":23.4,"aqi":176,"pm10":32.4,"pm2_5":25.0,"mosquito_risk":0,"arthritis_risk":5,"migraine_risk":10,"frizz_risk":1,"updated_at":"2026-04-03T16:26:05.467601+05:30"},{"city":"Dhanbad","state":"Jharkhand","latitude":23.7957,"longitude":86.4304,"temp":38.8,"humidity":20,"rain":0.0,"pressure":977.0,"uv_index":8.7,"wind_gusts":21.6,"aqi":150,"pm10":34.8,"pm2_5":27.9,"mosquito_risk":0,"arthritis_risk":5,"migraine_risk":10,"frizz_risk":0,"updated_at":"2026-04-03T16:26:05.467607+05:30"},{"city":"Bokaro","state":"Jharkhand","latitude":23.6693,"longitude":86.1511,"temp":37.9,"humidity":20,"rain":0.0,"pressure":981.2,"uv_index":8.7,"wind_gusts":19.8,"aqi":148,"pm10":33.4,"pm2_5":26.8,"mosquito_risk":0,"arthritis_risk":5,"migraine_risk":10,"frizz_risk":0,"updated_at":"2026-04-03T16:26:05.467614+05:30"},{"city":"Bhubaneswar","state":"Odisha","latitude":20.2961,"longitude":85.8245,"temp":34.1,"humidity":54,"rain":0.0,"pressure":1000.9,"uv_index":8.95,"wind_gusts":30.2,"aqi":72,"pm10":30.2,"pm2_5":23.1,"mosquito_risk":0,"arthritis_risk":5,"migraine_risk":4,"frizz_risk":1,"updated_at":"2026-04-03T16:26:05.467620+05:30"},{"city":"Cuttack","state":"Odisha","latitude":20.4625,"longitude":85.8828,"temp":35.0,"humidity":47,"rain":0.0,"pressure":1002.6,"uv_index":9.0,"wind_gusts":37.8,"aqi":72,"pm10":30.2,"pm2_5":23.1,"mosquito_risk":0,"arthritis_risk":5,"migraine_risk":4,"frizz_risk":1,"updated_at":"2026-04-03T16:26:05.467626+05:30"},{"city":"Rourkela","state":"Odisha","latitude":22.2604,"longitude":84.8536,"temp":38.1,"humidity":26,"rain":0.0,"pressure":982.9,"uv_index":8.7,"wind_gusts":26.6,"aqi":170,"pm10":37.4,"pm2_5":30.4,"mosquito_risk":0,"arthritis_risk":5,"migraine_risk":10,"frizz_risk":0,"updated_at":"2026-04-03T16:26:05.467633+05:30"},{"city":"Raipur","state":"Chhattisgarh","latitude":21.2514,"longitude":81.6296,"temp":36.7,"humidity":32,"rain":0.0,"pressure":973.0,"uv_index":8.8,"wind_gusts":26.3,"aqi":143,"pm10":31.9,"pm2_5":26.7,"mosquito_risk":0,"arthritis_risk":5,"migraine_risk":10,"frizz_risk":1,"updated_at":"2026-04-03T16:26:05.467639+05:30"},{"city":"Bhilai","state":"Chhattisgarh","latitude":21.1938,"longitude":81.3509,"temp":36.9,"humidity":30,"rain":0.0,"pressure":973.4,"uv_index":8.8,"wind_gusts":27.7,"aqi":121,"pm10":29.2,"pm2_5":23.7,"mosquito_risk":0,"arthritis_risk":5,"migraine_risk":10,"frizz_risk":1,"updated_at":"2026-04-03T16:26:05.467645+05:30"},{"city":"Guwahati","state":"Assam","latitude":26.1158,"longitude":91.7086,"temp":29.4,"humidity":69,"rain":0.0,"pressure":999.6,"uv_index":8.25,"wind_gusts":43.6,"aqi":136,"pm10":56.7,"pm2_5":45.6,"mosquito_risk":7,"arthritis_risk":5,"migraine_risk":7,"frizz_risk":1,"updated_at":"2026-04-03T16:26:05.467651+05:30"},{"city":"Agartala","state":"Tripura","latitude":23.8315,"longitude":91.2868,"temp":33.3,"humidity":59,"rain":0.0,"pressure":1003.7,"uv_index":8.45,"wind_gusts":23.8,"aqi":76,"pm10":37.1,"pm2_5":27.8,"mosquito_risk":0,"arthritis_risk":5,"migraine_risk":4,"frizz_risk":1,"updated_at":"2026-04-03T16:26:05.467657+05:30"},{"city":"Shillong","state":"Meghalaya","latitude":25.5788,"longitude":91.8933,"temp":20.0,"humidity":59,"rain":0.0,"pressure":856.5,"uv_index":8.55,"wind_gusts":55.1,"aqi":113,"pm10":38.4,"pm2_5":29.3,"mosquito_risk":0,"arthritis_risk":5,"migraine_risk":7,"frizz_risk":0,"updated_at":"2026-04-03T16:26:05.467663+05:30"},{"city":"Imphal","state":"Manipur","latitude":24.817,"longitude":93.9368,"temp":22.7,"humidity":69,"rain":0.0,"pressure":922.6,"uv_index":8.85,"wind_gusts":60.8,"aqi":112,"pm10":45.8,"pm2_5":35.9,"mosquito_risk":3,"arthritis_risk":5,"migraine_risk":7,"frizz_risk":1,"updated_at":"2026-04-03T16:26:05.467669+05:30"},{"city":"Aizawl","state":"Mizoram","latitude":23.7271,"longitude":92.7176,"temp":26.4,"humidity":56,"rain":0.0,"pressure":893.1,"uv_index":8.7,"wind_gusts":52.9,"aqi":120,"pm10":53.4,"pm2_5":37.7,"mosquito_risk":4,"arthritis_risk":5,"migraine_risk":7,"frizz_risk":1,"updated_at":"2026-04-03T16:26:05.467675+05:30"},{"city":"Kohima","state":"Nagaland","latitude":25.6701,"longitude":94.1077,"temp":19.0,"humidity":80,"rain":0.0,"pressure":855.2,"uv_index":8.75,"wind_gusts":80.3,"aqi":107,"pm10":52.6,"pm2_5":38.4,"mosquito_risk":3,"arthritis_risk":5,"migraine_risk":7,"frizz_risk":0,"updated_at":"2026-04-03T16:26:05.467681+05:30"},{"city":"Gangtok","state":"Sikkim","latitude":27.3314,"longitude":88.6138,"temp":20.2,"humidity":74,"rain":0.0,"pressure":837.8,"uv_index":7.55,"wind_gusts":19.1,"aqi":114,"pm10":54.9,"pm2_5":41.6,"mosquito_risk":3,"arthritis_risk":5,"migraine_risk":7,"frizz_risk":0,"updated_at":"2026-04-03T16:26:05.467686+05:30"},{"city":"Siliguri","state":"West Bengal","latitude":26.7271,"longitude":88.3953,"temp":27.2,"humidity":62,"rain":0.0,"pressure":991.8,"uv_index":8.25,"wind_gusts":18.7,"aqi":152,"pm10":63.8,"pm2_5":48.1,"mosquito_risk":7,"arthritis_risk":5,"migraine_risk":7,"frizz_risk":1,"updated_at":"2026-04-03T16:26:08.722932+05:30"},{"city":"Durgapur","state":"West Bengal","latitude":23.5204,"longitude":87.3119,"temp":38.4,"humidity":25,"rain":0.0,"pressure":992.0,"uv_index":8.65,"wind_gusts":17.3,"aqi":157,"pm10":46.1,"pm2_5":38.0,"mosquito_risk":0,"arthritis_risk":5,"migraine_risk":10,"frizz_risk":0,"updated_at":"2026-04-03T16:26:08.722967+05:30"},{"city":"Asansol","state":"West Bengal","latitude":23.6739,"longitude":86.9524,"temp":38.0,"humidity":27,"rain":0.0,"pressure":990.6,"uv_index":8.65,"wind_gusts":16.9,"aqi":139,"pm10":40.2,"pm2_5":32.7,"mosquito_risk":0,"arthritis_risk":5,"migraine_risk":10,"frizz_risk":0,"updated_at":"2026-04-03T16:26:08.722978+05:30"},{"city":"Pondicherry","state":"Puducherry","latitude":11.9139,"longitude":79.8145,"temp":33.3,"humidity":55,"rain":0.0,"pressure":1006.6,"uv_index":9.3,"wind_gusts":34.6,"aqi":43,"pm10":17.5,"pm2_5":13.9,"mosquito_risk":0,"arthritis_risk":5,"migraine_risk":4,"frizz_risk":1,"updated_at":"2026-04-03T16:26:08.722987+05:30"},{"city":"Port Blair","state":"Andaman and Nicobar Islands","latitude":11.6234,"longitude":92.7265,"temp":28.7,"humidity":75,"rain":0.0,"pressure":1006.5,"uv_index":9.2,"wind_gusts":22.7,"aqi":42,"pm10":19.4,"pm2_5":10.2,"mosquito_risk":7,"arthritis_risk":5,"migraine_risk":4,"frizz_risk":1,"updated_at":"2026-04-03T16:26:08.722996+05:30"},{"city":"Haridwar","state":"Uttarakhand","latitude":29.9457,"longitude":78.1642,"temp":29.3,"humidity":48,"rain":0.0,"pressure":975.1,"uv_index":6.4,"wind_gusts":22.0,"aqi":65,"pm10":118.5,"pm2_5":40.5,"mosquito_risk":4,"arthritis_risk":5,"migraine_risk":7,"frizz_risk":1,"updated_at":"2026-04-03T16:26:08.723003+05:30"},{"city":"Rishikesh","state":"Uttarakhand","latitude":30.0869,"longitude":78.2676,"temp":29.7,"humidity":38,"rain":0.0,"pressure":967.8,"uv_index":5.85,"wind_gusts":23.8,"aqi":51,"pm10":61.7,"pm2_5":24.4,"mosquito_risk":4,"arthritis_risk":5,"migraine_risk":3,"frizz_risk":0,"updated_at":"2026-04-03T16:26:08.723010+05:30"},{"city":"Nainital","state":"Uttarakhand","latitude":29.3919,"longitude":79.4542,"temp":23.6,"humidity":50,"rain":0.0,"pressure":809.2,"uv_index":4.8,"wind_gusts":36.4,"aqi":69,"pm10":36.2,"pm2_5":15.3,"mosquito_risk":0,"arthritis_risk":5,"migraine_risk":3,"frizz_risk":0,"updated_at":"2026-04-03T16:26:08.723018+05:30"},{"city":"Mussoorie","state":"Uttarakhand","latitude":30.4599,"longitude":78.0664,"temp":21.4,"humidity":51,"rain":0.0,"pressure":805.2,"uv_index":5.3,"wind_gusts":45.4,"aqi":54,"pm10":49.2,"pm2_5":19.7,"mosquito_risk":0,"arthritis_risk":5,"migraine_risk":3,"frizz_risk":0,"updated_at":"2026-04-03T16:26:08.723025+05:30"},{"city":"Dharamshala","state":"Himachal Pradesh","latitude":32.219,"longitude":76.3234,"temp":22.1,"humidity":64,"rain":0.0,"pressure":869.0,"uv_index":5.1,"wind_gusts":51.5,"aqi":48,"pm10":14.9,"pm2_5":8.2,"mosquito_risk":3,"arthritis_risk":5,"migraine_risk":3,"frizz_risk":0,"updated_at":"2026-04-03T16:26:08.723032+05:30"},{"city":"Dalhousie","state":"Himachal Pradesh","latitude":32.5387,"longitude":75.971,"temp":20.1,"humidity":48,"rain":0.0,"pressure":804.2,"uv_index":5.85,"wind_gusts":50.4,"aqi":56,"pm10":26.7,"pm2_5":15.1,"mosquito_risk":0,"arthritis_risk":5,"migraine_risk":3,"frizz_risk":0,"updated_at":"2026-04-03T16:26:08.723039+05:30"},{"city":"Patiala","state":"Punjab","latitude":30.3398,"longitude":76.3869,"temp":26.7,"humidity":54,"rain":0.0,"pressure":979.7,"uv_index":6.25,"wind_gusts":42.8,"aqi":108,"pm10":391.2,"pm2_5":48.7,"mosquito_risk":4,"arthritis_risk":5,"migraine_risk":7,"frizz_risk":1,"updated_at":"2026-04-03T16:26:08.723047+05:30"},{"city":"Bhatinda","state":"Punjab","latitude":30.211,"longitude":74.9455,"temp":22.5,"humidity":76,"rain":0.0,"pressure":985.5,"uv_index":5.45,"wind_gusts":44.6,"aqi":88,"pm10":84.3,"pm2_5":20.6,"mosquito_risk":3,"arthritis_risk":5,"migraine_risk":3,"frizz_risk":1,"updated_at":"2026-04-03T16:26:08.723054+05:30"},{"city":"Rohtak","state":"Haryana","latitude":28.8955,"longitude":76.6066,"temp":28.2,"humidity":48,"rain":0.0,"pressure":983.3,"uv_index":5.9,"wind_gusts":31.7,"aqi":432,"pm10":322.2,"pm2_5":38.5,"mosquito_risk":4,"arthritis_risk":5,"migraine_risk":3,"frizz_risk":1,"updated_at":"2026-04-03T16:26:08.723060+05:30"},{"city":"Panipat","state":"Haryana","latitude":29.3909,"longitude":76.9635,"temp":27.8,"humidity":50,"rain":0.0,"pressure":981.9,"uv_index":5.9,"wind_gusts":43.9,"aqi":705,"pm10":830.7,"pm2_5":80.1,"mosquito_risk":4,"arthritis_risk":5,"migraine_risk":3,"frizz_risk":1,"updated_at":"2026-04-03T16:26:08.723066+05:30"},{"city":"Mathura","state":"Uttar Pradesh","latitude":27.4924,"longitude":77.6737,"temp":31.8,"humidity":33,"rain":0.0,"pressure":987.3,"uv_index":7.25,"wind_gusts":31.7,"aqi":636,"pm10":387.4,"pm2_5":50.8,"mosquito_risk":0,"arthritis_risk":5,"migraine_risk":7,"frizz_risk":0,"updated_at":"2026-04-03T16:26:08.723073+05:30"},{"city":"Vrindavan","state":"Uttar Pradesh","latitude":27.5823,"longitude":77.7027,"temp":32.0,"humidity":33,"rain":0.0,"pressure":988.0,"uv_index":7.2,"wind_gusts":34.9,"aqi":636,"pm10":387.4,"pm2_5":50.8,"mosquito_risk":0,"arthritis_risk":5,"migraine_risk":7,"frizz_risk":0,"updated_at":"2026-04-03T16:26:08.723079+05:30"},{"city":"Ayodhya","state":"Uttar Pradesh","latitude":26.7922,"longitude":82.1998,"temp":34.4,"humidity":32,"rain":0.0,"pressure":994.3,"uv_index":6.85,"wind_gusts":36.0,"aqi":72,"pm10":49.0,"pm2_5":19.8,"mosquito_risk":0,"arthritis_risk":5,"migraine_risk":7,"frizz_risk":0,"updated_at":"2026-04-03T16:26:08.723085+05:30"},{"city":"Ratlam","state":"Madhya Pradesh","latitude":23.3315,"longitude":75.0367,"temp":31.8,"humidity":35,"rain":0.0,"pressure":954.3,"uv_index":8.15,"wind_gusts":42.8,"aqi":70,"pm10":31.9,"pm2_5":12.5,"mosquito_risk":0,"arthritis_risk":5,"migraine_risk":7,"frizz_risk":0,"updated_at":"2026-04-03T16:26:08.723091+05:30"},{"city":"Sagar","state":"Madhya Pradesh","latitude":23.8388,"longitude":78.7378,"temp":34.2,"humidity":29,"rain":0.0,"pressure":949.7,"uv_index":7.35,"wind_gusts":26.6,"aqi":85,"pm10":21.9,"pm2_5":17.2,"mosquito_risk":0,"arthritis_risk":5,"migraine_risk":7,"frizz_risk":0,"updated_at":"2026-04-03T16:26:08.723097+05:30"},{"city":"Satna","state":"Madhya Pradesh","latitude":24.6005,"longitude":80.8322,"temp":34.6,"humidity":31,"rain":0.0,"pressure":971.3,"uv_index":7.2,"wind_gusts":36.0,"aqi":80,"pm10":24.1,"pm2_5":18.7,"mosquito_risk":0,"arthritis_risk":5,"migraine_risk":7,"frizz_risk":0,"updated_at":"2026-04-03T16:26:08.723103+05:30"},{"city":"Akola","state":"Maharashtra","latitude":20.7002,"longitude":77.0082,"temp":34.7,"humidity":35,"rain":0.0,"pressure":974.2,"uv_index":8.6,"wind_gusts":31.3,"aqi":104,"pm10":41.4,"pm2_5":34.7,"mosquito_risk":0,"arthritis_risk":5,"migraine_risk":7,"frizz_risk":1,"updated_at":"2026-04-03T16:26:08.723111+05:30"},{"city":"Amravati","state":"Maharashtra","latitude":20.9374,"longitude":77.7796,"temp":35.7,"humidity":32,"rain":0.0,"pressure":966.1,"uv_index":8.65,"wind_gusts":43.6,"aqi":101,"pm10":41.7,"pm2_5":34.3,"mosquito_risk":0,"arthritis_risk":5,"migraine_risk":10,"frizz_risk":1,"updated_at":"2026-04-03T16:26:08.723117+05:30"},{"city":"Latur","state":"Maharashtra","latitude":18.4088,"longitude":76.5604,"temp":34.0,"humidity":30,"rain":0.0,"pressure":938.8,"uv_index":8.8,"wind_gusts":33.5,"aqi":102,"pm10":26.4,"pm2_5":20.4,"mosquito_risk":0,"arthritis_risk":5,"migraine_risk":7,"frizz_risk":0,"updated_at":"2026-04-03T16:26:08.723123+05:30"},{"city":"Nanded","state":"Maharashtra","latitude":19.1383,"longitude":77.3091,"temp":36.1,"humidity":31,"rain":0.0,"pressure":967.0,"uv_index":8.3,"wind_gusts":29.5,"aqi":99,"pm10":31.7,"pm2_5":24.8,"mosquito_risk":0,"arthritis_risk":5,"migraine_risk":10,"frizz_risk":1,"updated_at":"2026-04-03T16:26:08.723129+05:30"},{"city":"Gulbarga","state":"Karnataka","latitude":17.3297,"longitude":76.8343,"temp":37.5,"humidity":19,"rain":0.0,"pressure":956.8,"uv_index":8.6,"wind_gusts":36.7,"aqi":119,"pm10":24.0,"pm2_5":19.5,"mosquito_risk":0,"arthritis_risk":5,"migraine_risk":10,"frizz_risk":0,"updated_at":"2026-04-03T16:26:08.723135+05:30"},{"city":"Bidar","state":"Karnataka","latitude":17.9104,"longitude":77.5199,"temp":35.3,"humidity":24,"rain":0.0,"pressure":934.5,"uv_index":8.45,"wind_gusts":33.5,"aqi":93,"pm10":21.7,"pm2_5":16.1,"mosquito_risk":0,"arthritis_risk":5,"migraine_risk":10,"frizz_risk":0,"updated_at":"2026-04-03T16:26:08.723141+05:30"},{"city":"Hospet","state":"Karnataka","latitude":15.2689,"longitude":76.3909,"temp":36.0,"humidity":20,"rain":0.0,"pressure":954.2,"uv_index":9.2,"wind_gusts":36.4,"aqi":136,"pm10":22.6,"pm2_5":18.4,"mosquito_risk":0,"arthritis_risk":5,"migraine_risk":10,"frizz_risk":0,"updated_at":"2026-04-03T16:26:08.723146+05:30"},{"city":"Tirupur","state":"Tamil Nadu","latitude":11.1085,"longitude":77.3411,"temp":36.9,"humidity":26,"rain":0.0,"pressure":972.8,"uv_index":9.5,"wind_gusts":43.6,"aqi":103,"pm10":18.7,"pm2_5":16.4,"mosquito_risk":0,"arthritis_risk":5,"migraine_risk":10,"frizz_risk":0,"updated_at":"2026-04-03T16:26:08.723152+05:30"},{"city":"Alappuzha","state":"Kerala","latitude":9.4981,"longitude":76.3388,"temp":29.4,"humidity":79,"rain":0.0,"pressure":1007.6,"uv_index":9.2,"wind_gusts":23.0,"aqi":90,"pm10":19.6,"pm2_5":16.7,"mosquito_risk":7,"arthritis_risk":5,"migraine_risk":4,"frizz_risk":1,"updated_at":"2026-04-03T16:26:08.723158+05:30"},{"city":"Munnar","state":"Kerala","latitude":10.0889,"longitude":77.0595,"temp":24.1,"humidity":79,"rain":0.0,"pressure":857.3,"uv_index":8.0,"wind_gusts":29.2,"aqi":65,"pm10":12.2,"pm2_5":11.1,"mosquito_risk":3,"arthritis_risk":5,"migraine_risk":7,"frizz_risk":1,"updated_at":"2026-04-03T16:26:08.723164+05:30"},{"city":"Silchar","state":"Assam","latitude":24.8333,"longitude":92.7789,"temp":30.7,"humidity":63,"rain":0.0,"pressure":1003.1,"uv_index":8.5,"wind_gusts":29.2,"aqi":151,"pm10":62.2,"pm2_5":48.0,"mosquito_risk":3,"arthritis_risk":5,"migraine_risk":4,"frizz_risk":1,"updated_at":"2026-04-03T16:26:08.723170+05:30"},{"city":"Dibrugarh","state":"Assam","latitude":27.4728,"longitude":94.912,"temp":26.9,"humidity":70,"rain":0.0,"pressure":994.6,"uv_index":8.3,"wind_gusts":12.6,"aqi":97,"pm10":31.4,"pm2_5":25.4,"mosquito_risk":7,"arthritis_risk":5,"migraine_risk":7,"frizz_risk":1,"updated_at":"2026-04-03T16:26:08.723177+05:30"}]