[{"city":"Delhi","state":"Delhi","latitude":28.6139,"longitude":77.209,"temp":24.8,"humidity":60,"rain":0.0,"pressure":982.9,"uv_index":6.5,"wind_gusts":42.8,"aqi":155,"pm10":169.5,"pm2_5":46.8,"mosquito_risk":0,"arthritis_risk":5,"migraine_risk":7,"frizz_risk":1,"updated_at":"2026-03-27T21:26:14.860719+05:30"},{"city":"Mumbai","state":"Maharashtra","latitude":19.076,"longitude":72.8777,"temp":29.1,"humidity":68,"rain":0.0,"pressure":1008.9,"uv_index":8.0,"wind_gusts":28.4,"aqi":195,"pm10":40.6,"pm2_5":35.2,"mosquito_risk":7,"arthritis_risk":0,"migraine_risk":4,"frizz_risk":1,"updated_at":"2026-03-27T21:26:14.860768+05:30"},{"city":"Bangalore","state":"Karnataka","latitude":12.9716,"longitude":77.5946,"temp":27.4,"humidity":36,"rain":0.0,"pressure":912.5,"uv_index":9.5,"wind_gusts":28.1,"aqi":103,"pm10":26.4,"pm2_5":23.3,"mosquito_risk":4,"arthritis_risk":5,"migraine_risk":7,"frizz_risk":0,"updated_at":"2026-03-27T21:26:14.860784+05:30"},{"city":"Hyderabad","state":"Telangana","latitude":17.385,"longitude":78.4867,"temp":28.3,"humidity":54,"rain":0.0,"pressure":954.6,"uv_index":9.0,"wind_gusts":23.4,"aqi":113,"pm10":62.9,"pm2_5":55.1,"mosquito_risk":4,"arthritis_risk":5,"migraine_risk":7,"frizz_risk":1,"updated_at":"2026-03-27T21:26:14.860794+05:30"},{"city":"Chennai","state":"Tamil Nadu","latitude":13.0827,"longitude":80.2707,"temp":26.6,"humidity":83,"rain":0.0,"pressure":1008.3,"uv_index":9.2,"wind_gusts":29.5,"aqi":68,"pm10":27.1,"pm2_5":16.4,"mosquito_risk":7,"arthritis_risk":0,"migraine_risk":4,"frizz_risk":1,"updated_at":"2026-03-27T21:26:14.860804+05:30"},{"city":"Kolkata","state":"West Bengal","latitude":22.5726,"longitude":88.3639,"temp":26.7,"humidity":87,"rain":0.0,"pressure":1006.2,"uv_index":8.45,"wind_gusts":22.7,"aqi":110,"pm10":43.0,"pm2_5":37.7,"mosquito_risk":7,"arthritis_risk":5,"migraine_risk":4,"frizz_risk":1,"updated_at":"2026-03-27T21:26:14.860814+05:30"},{"city":"Pune","state":"Maharashtra","latitude":18.5204,"longitude":73.8567,"temp":28.4,"humidity":42,"rain":0.0,"pressure":949.8,"uv_index":8.55,"wind_gusts":39.2,"aqi":141,"pm10":39.9,"pm2_5":34.5,"mosquito_risk":4,"arthritis_risk":5,"migraine_risk":7,"frizz_risk":0,"updated_at":"2026-03-27T21:26:14.860827+05:30"},{"city":"Ahmedabad","state":"Gujarat","latitude":23.0225,"longitude":72.5714,"temp":29.4,"humidity":47,"rain":0.0,"pressure":1002.7,"uv_index":7.9,"wind_gusts":34.9,"aqi":61,"pm10":42.4,"pm2_5":25.6,"mosquito_risk":4,"arthritis_risk":5,"migraine_risk":4,"frizz_risk":1,"updated_at":"2026-03-27T21:26:14.860835+05:30"},{"city":"Jaipur","state":"Rajasthan","latitude":26.9124,"longitude":75.7873,"temp":27.5,"humidity":36,"rain":0.0,"pressure":960.0,"uv_index":7.35,"wind_gusts":43.2,"aqi":118,"pm10":178.8,"pm2_5":35.0,"mosquito_risk":4,"arthritis_risk":5,"migraine_risk":7,"frizz_risk":0,"updated_at":"2026-03-27T21:26:14.860843+05:30"},{"city":"Lucknow","state":"Uttar Pradesh","latitude":26.8467,"longitude":80.9462,"temp":25.5,"humidity":52,"rain":0.0,"pressure":993.2,"uv_index":6.5,"wind_gusts":49.3,"aqi":90,"pm10":117.3,"pm2_5":38.6,"mosquito_risk":4,"arthritis_risk":5,"migraine_risk":7,"frizz_risk":0,"updated_at":"2026-03-27T21:26:14.860851+05:30"},{"city":"Kanpur","state":"Uttar Pradesh","latitude":26.4499,"longitude":80.3319,"temp":24.4,"humidity":57,"rain":0.0,"pressure":991.6,"uv_index":6.65,"wind_gusts":64.1,"aqi":137,"pm10":218.9,"pm2_5":48.1,"mosquito_risk":0,"arthritis_risk":5,"migraine_risk":7,"frizz_risk":0,"updated_at":"2026-03-27T21:26:14.860859+05:30"},{"city":"Chandigarh","state":"Chandigarh","latitude":30.7333,"longitude":76.7794,"temp":21.0,"humidity":73,"rain":0.0,"pressure":967.7,"uv_index":6.45,"wind_gusts":31.3,"aqi":72,"pm10":41.4,"pm2_5":33.8,"mosquito_risk":3,"arthritis_risk":5,"migraine_risk":7,"frizz_risk":0,"updated_at":"2026-03-27T21:26:14.860867+05:30"},{"city":"Srinagar","state":"Jammu and Kashmir","latitude":34.0837,"longitude":74.7973,"temp":11.6,"humidity":77,"rain":0.0,"pressure":837.0,"uv_index":7.5,"wind_gusts":16.6,"aqi":99,"pm10":57.3,"pm2_5":45.9,"mosquito_risk":3,"arthritis_risk":5,"migraine_risk":7,"frizz_risk":0,"updated_at":"2026-03-27T21:26:14.860874+05:30"},{"city":"Jammu","state":"Jammu and Kashmir","latitude":32.7266,"longitude":74.857,"temp":23.7,"humidity":63,"rain":0.0,"pressure":971.1,"uv_index":7.15,"wind_gusts":20.2,"aqi":84,"pm10":43.7,"pm2_5":35.4,"mosquito_risk":3,"arthritis_risk":5,"migraine_risk":7,"frizz_risk":1,"updated_at":"2026-03-27T21:26:14.860882+05:30"},{"city":"Amritsar","state":"Punjab","latitude":31.634,"longitude":74.8723,"temp":21.3,"humidity":66,"rain":0.0,"pressure":979.8,"uv_index":7.1,"wind_gusts":25.9,"aqi":116,"pm10":51.9,"pm2_5":42.7,"mosquito_risk":3,"arthritis_risk":5,"migraine_risk":7,"frizz_risk":0,"updated_at":"2026-03-27T21:26:14.860889+05:30"},{"city":"Ludhiana","state":"Punjab","latitude":30.901,"longitude":75.8573,"temp":22.9,"humidity":62,"rain":0.0,"pressure":978.1,"uv_index":4.55,"wind_gusts":25.9,"aqi":85,"pm10":67.1,"pm2_5":39.2,"mosquito_risk":3,"arthritis_risk":5,"migraine_risk":3,"frizz_risk":0,"updated_at":"2026-03-27T21:26:14.860897+05:30"},{"city":"Jalandhar","state":"Punjab","latitude":31.326,"longitude":75.5762,"temp":22.5,"humidity":66,"rain":0.0,"pressure":979.0,"uv_index":4.4,"wind_gusts":22.3,"aqi":86,"pm10":53.9,"pm2_5":40.5,"mosquito_risk":3,"arthritis_risk":5,"migraine_risk":3,"frizz_risk":0,"updated_at":"2026-03-27T21:26:14.860906+05:30"},{"city":"Dehradun","state":"Uttarakhand","latitude":30.6284,"longitude":78.0322,"temp":12.6,"humidity":93,"rain":0.0,"pressure":827.1,"uv_index":5.8,"wind_gusts":27.0,"aqi":65,"pm10":29.8,"pm2_5":20.2,"mosquito_risk":3,"arthritis_risk":10,"migraine_risk":3,"frizz_risk":0,"updated_at":"2026-03-27T21:26:14.860914+05:30"},{"city":"Shimla","state":"Himachal Pradesh","latitude":31.1048,"longitude":77.1734,"temp":10.9,"humidity":84,"rain":0.0,"pressure":780.8,"uv_index":6.0,"wind_gusts":37.4,"aqi":67,"pm10":31.1,"pm2_5":22.9,"mosquito_risk":3,"arthritis_risk":10,"migraine_risk":3,"frizz_risk":0,"updated_at":"2026-03-27T21:26:14.860921+05:30"},{"city":"Manali","state":"Himachal Pradesh","latitude":32.2396,"longitude":77.1887,"temp":14.1,"humidity":89,"rain":0.0,"pressure":816.0,"uv_index":8.3,"wind_gusts":27.7,"aqi":136,"pm10":25.6,"pm2_5":12.1,"mosquito_risk":3,"arthritis_risk":10,"migraine_risk":7,"frizz_risk":0,"updated_at":"2026-03-27T21:26:14.860929+05:30"},{"city":"Gurgaon","state":"Haryana","latitude":28.4595,"longitude":77.0266,"temp":23.8,"humidity":65,"rain":0.0,"pressure":981.3,"uv_index":6.65,"wind_gusts":40.7,"aqi":892,"pm10":344.6,"pm2_5":71.5,"mosquito_risk":3,"arthritis_risk":5,"migraine_risk":7,"frizz_risk":1,"updated_at":"2026-03-27T21:26:14.860936+05:30"},{"city":"Noida","state":"Uttar Pradesh","latitude":28.5355,"longitude":77.391,"temp":24.6,"humidity":62,"rain":0.0,"pressure":984.4,"uv_index":6.5,"wind_gusts":41.0,"aqi":892,"pm10":344.6,"pm2_5":71.5,"mosquito_risk":3,"arthritis_risk":5,"migraine_risk":7,"frizz_risk":1,"updated_at":"2026-03-27T21:26:14.860943+05:30"},{"city":"Ghaziabad","state":"Uttar Pradesh","latitude":28.6692,"longitude":77.4538,"temp":23.8,"humidity":67,"rain":0.0,"pressure":982.5,"uv_index":6.45,"wind_gusts":40.0,"aqi":131,"pm10":100.6,"pm2_5":49.0,"mosquito_risk":3,"arthritis_risk":5,"migraine_risk":7,"frizz_risk":1,"updated_at":"2026-03-27T21:26:14.860950+05:30"},{"city":"Faridabad","state":"Haryana","latitude":28.4089,"longitude":77.3178,"temp":23.4,"humidity":67,"rain":0.0,"pressure":983.6,"uv_index":6.55,"wind_gusts":41.4,"aqi":892,"pm10":344.6,"pm2_5":71.5,"mosquito_risk":3,"arthritis_risk":5,"migraine_risk":7,"frizz_risk":1,"updated_at":"2026-03-27T21:26:14.860957+05:30"},{"city":"Meerut","state":"Uttar Pradesh","latitude":28.9845,"longitude":77.7064,"temp":22.1,"humidity":73,"rain":0.0,"pressure":981.2,"uv_index":6.35,"wind_gusts":41.4,"aqi":131,"pm10":100.6,"pm2_5":49.0,"mosquito_risk":3,"arthritis_risk":5,"migraine_risk":7,"frizz_risk":1,"updated_at":"2026-03-27T21:26:14.860963+05:30"},{"city":"Agra","state":"Uttar Pradesh","latitude":27.1767,"longitude":78.0081,"temp":23.2,"humidity":70,"rain":0.0,"pressure":988.0,"uv_index":6.9,"wind_gusts":47.5,"aqi":709,"pm10":501.1,"pm2_5":90.1,"mosquito_risk":3,"arthritis_risk":5,"migraine_risk":7,"frizz_risk":1,"updated_at":"2026-03-27T21:26:14.860972+05:30"},{"city":"Varanasi","state":"Uttar Pradesh","latitude":25.3176,"longitude":82.9739,"temp":25.6,"humidity":59,"rain":0.0,"pressure":997.5,"uv_index":7.3,"wind_gusts":42.5,"aqi":86,"pm10":41.7,"pm2_5":32.5,"mosquito_risk":4,"arthritis_risk":5,"migraine_risk":7,"frizz_risk":1,"updated_at":"2026-03-27T21:26:14.860983+05:30"},{"city":"Prayagraj","state":"Uttar Pradesh","latitude":25.4358,"longitude":81.8463,"temp":26.7,"humidity":61,"rain":0.0,"pressure":996.2,"uv_index":7.5,"wind_gusts":37.8,"aqi":87,"pm10":33.9,"pm2_5":23.8,"mosquito_risk":7,"arthritis_risk":5,"migraine_risk":7,"frizz_risk":1,"updated_at":"2026-03-27T21:26:14.860990+05:30"},{"city":"Gorakhpur","state":"Uttar Pradesh","latitude":26.7606,"longitude":83.3732,"temp":24.6,"humidity":56,"rain":0.0,"pressure":996.7,"uv_index":6.85,"wind_gusts":50.0,"aqi":98,"pm10":35.5,"pm2_5":23.2,"mosquito_risk":0,"arthritis_risk":5,"migraine_risk":7,"frizz_risk":0,"updated_at":"2026-03-27T21:26:14.860998+05:30"},{"city":"Bareilly","state":"Uttar Pradesh","latitude":28.367,"longitude":79.4304,"temp":21.6,"humidity":81,"rain":0.0,"pressure":986.5,"uv_index":6.4,"wind_gusts":41.0,"aqi":72,"pm10":38.3,"pm2_5":28.4,"mosquito_risk":3,"arthritis_risk":5,"migraine_risk":7,"frizz_risk":1,"updated_at":"2026-03-27T21:26:14.861005+05:30"},{"city":"Aligarh","state":"Uttar Pradesh","latitude":27.8974,"longitude":78.088,"temp":22.6,"humidity":76,"rain":0.0,"pressure":985.5,"uv_index":6.3,"wind_gusts":37.8,"aqi":341,"pm10":223.1,"pm2_5":59.6,"mosquito_risk":3,"arthritis_risk":5,"migraine_risk":7,"frizz_risk":1,"updated_at":"2026-03-27T21:26:14.861011+05:30"},{"city":"Moradabad","state":"Uttar Pradesh","latitude":28.8386,"longitude":78.7733,"temp":21.8,"humidity":79,"rain":0.0,"pressure":983.2,"uv_index":5.7,"wind_gusts":45.0,"aqi":79,"pm10":34.8,"pm2_5":25.9,"mosquito_risk":3,"arthritis_risk":5,"migraine_risk":3,"frizz_risk":1,"updated_at":"2026-03-27T21:26:14.861017+05:30"},{"city":"Saharanpur","state":"Uttar Pradesh","latitude":29.9637,"longitude":77.546,"temp":21.0,"humidity":76,"rain":0.0,"pressure":974.8,"uv_index":6.15,"wind_gusts":32.8,"aqi":82,"pm10":60.5,"pm2_5":45.9,"mosquito_risk":3,"arthritis_risk":5,"migraine_risk":7,"frizz_risk":1,"updated_at":"2026-03-27T21:26:14.861023+05:30"},{"city":"Jhansi","state":"Uttar Pradesh","latitude":25.4484,"longitude":78.5685,"temp":22.8,"humidity":67,"rain":0.0,"pressure":977.6,"uv_index":7.55,"wind_gusts":61.2,"aqi":80,"pm10":52.7,"pm2_5":21.4,"mosquito_risk":3,"arthritis_risk":5,"migraine_risk":7,"frizz_risk":1,"updated_at":"2026-03-27T21:26:18.076316+05:30"},{"city":"Surat","state":"Gujarat","latitude":21.1702,"longitude":72.8311,"temp":27.8,"humidity":68,"rain":0.0,"pressure":1006.9,"uv_index":7.75,"wind_gusts":27.7,"aqi":120,"pm10":64.0,"pm2_5":58.1,"mosquito_risk":7,"arthritis_risk":5,"migraine_risk":4,"frizz_risk":1,"updated_at":"2026-03-27T21:26:18.076347+05:30"},{"city":"Vadodara","state":"Gujarat","latitude":22.3072,"longitude":73.1812,"temp":30.6,"humidity":36,"rain":0.0,"pressure":1004.5,"uv_index":7.9,"wind_gusts":29.2,"aqi":85,"pm10":46.1,"pm2_5":33.3,"mosquito_risk":0,"arthritis_risk":5,"migraine_risk":4,"frizz_risk":0,"updated_at":"2026-03-27T21:26:18.076358+05:30"},{"city":"Rajkot","state":"Gujarat","latitude":22.3039,"longitude":70.8022,"temp":27.9,"humidity":43,"rain":0.0,"pressure":995.7,"uv_index":7.75,"wind_gusts":36.7,"aqi":52,"pm10":20.1,"pm2_5":15.4,"mosquito_risk":4,"arthritis_risk":5,"migraine_risk":7,"frizz_risk":0,"updated_at":"2026-03-27T21:26:18.076366+05:30"},{"city":"Thane","state":"Maharashtra","latitude":19.2183,"longitude":72.9781,"temp":28.2,"humidity":65,"rain":0.0,"pressure":1008.3,"uv_index":8.0,"wind_gusts":39.6,"aqi":195,"pm10":40.6,"pm2_5":35.2,"mosquito_risk":7,"arthritis_risk":0,"migraine_risk":4,"frizz_risk":1,"updated_at":"2026-03-27T21:26:18.076373+05:30"},{"city":"Nagpur","state":"Maharashtra","latitude":21.1458,"longitude":79.0882,"temp":29.2,"humidity":27,"rain":0.0,"pressure":972.4,"uv_index":8.25,"wind_gusts":46.4,"aqi":101,"pm10":24.0,"pm2_5":20.8,"mosquito_risk":4,"arthritis_risk":5,"migraine_risk":7,"frizz_risk":0,"updated_at":"2026-03-27T21:26:18.076381+05:30"},{"city":"Nashik","state":"Maharashtra","latitude":19.9975,"longitude":73.7898,"temp":26.6,"humidity":44,"rain":0.0,"pressure":946.5,"uv_index":8.2,"wind_gusts":43.2,"aqi":89,"pm10":23.0,"pm2_5":17.2,"mosquito_risk":4,"arthritis_risk":5,"migraine_risk":7,"frizz_risk":0,"updated_at":"2026-03-27T21:26:18.076388+05:30"},{"city":"Aurangabad","state":"Maharashtra","latitude":19.8762,"longitude":75.3433,"temp":29.6,"humidity":29,"rain":0.0,"pressure":945.0,"uv_index":8.75,"wind_gusts":37.1,"aqi":92,"pm10":24.9,"pm2_5":19.7,"mosquito_risk":4,"arthritis_risk":5,"migraine_risk":7,"frizz_risk":0,"updated_at":"2026-03-27T21:26:18.076396+05:30"},{"city":"Solapur","state":"Maharashtra","latitude":17.6599,"longitude":75.9064,"temp":31.6,"humidity":34,"rain":0.0,"pressure":957.4,"uv_index":8.85,"wind_gusts":27.4,"aqi":135,"pm10":46.6,"pm2_5":39.5,"mosquito_risk":0,"arthritis_risk":5,"migraine_risk":7,"frizz_risk":0,"updated_at":"2026-03-27T21:26:18.076425+05:30"},{"city":"Kolhapur","state":"Maharashtra","latitude":16.705,"longitude":74.2433,"temp":26.1,"humidity":84,"rain":0.0,"pressure":949.3,"uv_index":8.95,"wind_gusts":47.9,"aqi":155,"pm10":48.0,"pm2_5":44.4,"mosquito_risk":7,"arthritis_risk":5,"migraine_risk":7,"frizz_risk":1,"updated_at":"2026-03-27T21:26:18.076433+05:30"},{"city":"Goa","state":"Goa","latitude":15.2993,"longitude":74.124,"temp":29.1,"humidity":81,"rain":0.0,"pressure":998.7,"uv_index":8.9,"wind_gusts":31.7,"aqi":92,"pm10":36.7,"pm2_5":28.7,"mosquito_risk":7,"arthritis_risk":5,"migraine_risk":7,"frizz_risk":1,"updated_at":"2026-03-27T21:26:18.076441+05:30"},{"city":"Jodhpur","state":"Rajasthan","latitude":26.2389,"longitude":73.0243,"temp":28.5,"humidity":35,"rain":0.0,"pressure":983.3,"uv_index":7.7,"wind_gusts":36.0,"aqi":75,"pm10":77.8,"pm2_5":18.0,"mosquito_risk":4,"arthritis_risk":5,"migraine_risk":7,"frizz_risk":0,"updated_at":"2026-03-27T21:26:18.076448+05:30"},{"city":"Udaipur","state":"Rajasthan","latitude":24.5854,"longitude":73.7125,"temp":26.3,"humidity":41,"rain":0.0,"pressure":947.5,"uv_index":8.35,"wind_gusts":43.2,"aqi":45,"pm10":35.9,"pm2_5":14.4,"mosquito_risk":4,"arthritis_risk":5,"migraine_risk":7,"frizz_risk":0,"updated_at":"2026-03-27T21:26:18.076456+05:30"},{"city":"Kota","state":"Rajasthan","latitude":25.2138,"longitude":75.8648,"temp":29.2,"humidity":33,"rain":0.0,"pressure":978.6,"uv_index":7.7,"wind_gusts":41.4,"aqi":66,"pm10":29.6,"pm2_5":18.2,"mosquito_risk":4,"arthritis_risk":5,"migraine_risk":7,"frizz_risk":0,"updated_at":"2026-03-27T21:26:18.076464+05:30"},{"city":"Bikaner","state":"Rajasthan","latitude":28.0229,"longitude":73.3119,"temp":27.0,"humidity":39,"rain":0.0,"pressure":982.2,"uv_index":7.45,"wind_gusts":30.2,"aqi":65,"pm10":21.7,"pm2_5":9.2,"mosquito_risk":4,"arthritis_risk":5,"migraine_risk":7,"frizz_risk":0,"updated_at":"2026-03-27T21:26:18.076471+05:30"},{"city":"Ajmer","state":"Rajasthan","latitude":26.4499,"longitude":74.6399,"temp":27.0,"humidity":36,"rain":0.0,"pressure":955.0,"uv_index":7.65,"wind_gusts":40.0,"aqi":59,"pm10":23.7,"pm2_5":12.7,"mosquito_risk":4,"arthritis_risk":5,"migraine_risk":7,"frizz_risk":0,"updated_at":"2026-03-27T21:26:18.076479+05:30"},{"city":"Gwalior","state":"Madhya Pradesh","latitude":26.2183,"longitude":78.1828,"temp":24.9,"humidity":59,"rain":0.0,"pressure":983.3,"uv_index":7.25,"wind_gusts":55.8,"aqi":111,"pm10":254.3,"pm2_5":61.9,"mosquito_risk":0,"arthritis_risk":5,"migraine_risk":7,"frizz_risk":1,"updated_at":"2026-03-27T21:26:18.076486+05:30"},{"city":"Indore","state":"Madhya Pradesh","latitude":22.7196,"longitude":75.8577,"temp":26.1,"humidity":40,"rain":0.0,"pressure":948.5,"uv_index":8.2,"wind_gusts":41.8,"aqi":46,"pm10":21.5,"pm2_5":14.2,"mosquito_risk":4,"arthritis_risk":5,"migraine_risk":7,"frizz_risk":0,"updated_at":"2026-03-27T21:26:18.076492+05:30"},{"city":"Bhopal","state":"Madhya Pradesh","latitude":23.2599,"longitude":77.4126,"temp":28.2,"humidity":28,"rain":0.0,"pressure":953.2,"uv_index":8.1,"wind_gusts":45.0,"aqi":48,"pm10":25.3,"pm2_5":12.3,"mosquito_risk":4,"arthritis_risk":5,"migraine_risk":7,"frizz_risk":0,"updated_at":"2026-03-27T21:26:18.076499+05:30"},{"city":"Jabalpur","state":"Madhya Pradesh","latitude":23.1815,"longitude":79.9864,"temp":26.3,"humidity":54,"rain":0.0,"pressure":960.1,"uv_index":8.15,"wind_gusts":46.4,"aqi":63,"pm10":19.0,"pm2_5":13.0,"mosquito_risk":4,"arthritis_risk":5,"migraine_risk":7,"frizz_risk":1,"updated_at":"2026-03-27T21:26:18.076506+05:30"},{"city":"Ujjain","state":"Madhya Pradesh","latitude":23.1765,"longitude":75.7885,"temp":26.4,"humidity":43,"rain":0.0,"pressure":954.1,"uv_index":8.1,"wind_gusts":41.8,"aqi":43,"pm10":25.4,"pm2_5":15.7,"mosquito_risk":4,"arthritis_risk":5,"migraine_risk":7,"frizz_risk":0,"updated_at":"2026-03-27T21:26:18.076513+05:30"},{"city":"Visakhapatnam","state":"Andhra Pradesh","latitude":17.6868,"longitude":83.2185,"temp":27.1,"humidity":83,"rain":0.0,"pressure":1004.8,"uv_index":8.95,"wind_gusts":38.2,"aqi":79,"pm10":33.6,"pm2_5":24.4,"mosquito_risk":7,"arthritis_risk":5,"migraine_risk":4,"frizz_risk":1,"updated_at":"2026-03-27T21:26:18.076520+05:30"},{"city":"Vijayawada","state":"Andhra Pradesh","latitude":16.5062,"longitude":80.648,"temp":27.5,"humidity":66,"rain":0.0,"pressure":1003.2,"uv_index":9.0,"wind_gusts":26.3,"aqi":76,"pm10":25.6,"pm2_5":20.8,"mosquito_risk":7,"arthritis_risk":5,"migraine_risk":4,"frizz_risk":1,"updated_at":"2026-03-27T21:26:18.076526+05:30"},{"city":"Guntur","state":"Andhra Pradesh","latitude":16.3067,"longitude":80.4365,"temp":26.8,"humidity":78,"rain":0.0,"pressure":1004.4,"uv_index":9.05,"wind_gusts":30.2,"aqi":71,"pm10":26.0,"pm2_5":21.4,"mosquito_risk":7,"arthritis_risk":5,"migraine_risk":4,"frizz_risk":1,"updated_at":"2026-03-27T21:26:18.076533+05:30"},{"city":"Nellore","state":"Andhra Pradesh","latitude":14.4426,"longitude":79.9865,"temp":26.4,"humidity":81,"rain":0.0,"pressure":1006.2,"uv_index":9.15,"wind_gusts":28.1,"aqi":88,"pm10":22.2,"pm2_5":14.5,"mosquito_risk":7,"arthritis_risk":5,"migraine_risk":4,"frizz_risk":1,"updated_at":"2026-03-27T21:26:18.076541+05:30"},{"city":"Kurnool","state":"Andhra Pradesh","latitude":15.8281,"longitude":78.0373,"temp":33.0,"humidity":31,"rain":0.0,"pressure":976.2,"uv_index":9.05,"wind_gusts":17.6,"aqi":107,"pm10":34.9,"pm2_5":28.8,"mosquito_risk":0,"arthritis_risk":5,"migraine_risk":7,"frizz_risk":0,"updated_at":"2026-03-27T21:26:18.076548+05:30"},{"city":"Kakinada","state":"Andhra Pradesh","latitude":16.9891,"longitude":82.2475,"temp":26.5,"humidity":83,"rain":0.0,"pressure":1008.4,"uv_index":9.0,"wind_gusts":28.1,"aqi":67,"pm10":27.7,"pm2_5":17.5,"mosquito_risk":7,"arthritis_risk":0,"migraine_risk":4,"frizz_risk":1,"updated_at":"2026-03-27T21:26:18.076555+05:30"},{"city":"Tirupati","state":"Andhra Pradesh","latitude":13.6288,"longitude":79.4192,"temp":28.3,"humidity":63,"rain":0.0,"pressure":992.6,"uv_index":9.25,"wind_gusts":30.2,"aqi":126,"pm10":36.2,"pm2_5":30.5,"mosquito_risk":7,"arthritis_risk":5,"migraine_risk":7,"frizz_risk":1,"updated_at":"2026-03-27T21:26:18.076561+05:30"},{"city":"Warangal","state":"Telangana","latitude":17.9689,"longitude":79.5941,"temp":29.9,"humidity":52,"rain":0.0,"pressure":978.6,"uv_index":8.85,"wind_gusts":26.3,"aqi":89,"pm10":44.2,"pm2_5":39.7,"mosquito_risk":4,"arthritis_risk":5,"migraine_risk":7,"frizz_risk":1,"updated_at":"2026-03-27T21:26:18.076567+05:30"},{"city":"Nizamabad","state":"Telangana","latitude":18.6725,"longitude":78.0941,"temp":29.5,"humidity":45,"rain":0.0,"pressure":964.6,"uv_index":8.75,"wind_gusts":29.5,"aqi":100,"pm10":49.4,"pm2_5":39.9,"mosquito_risk":4,"arthritis_risk":5,"migraine_risk":7,"frizz_risk":1,"updated_at":"2026-03-27T21:26:18.076574+05:30"},{"city":"Mysore","state":"Karnataka","latitude":12.2958,"longitude":76.6396,"temp":25.8,"humidity":70,"rain":0.0,"pressure":929.3,"uv_index":9.45,"wind_gusts":44.6,"aqi":108,"pm10":41.0,"pm2_5":36.2,"mosquito_risk":7,"arthritis_risk":5,"migraine_risk":7,"frizz_risk":1,"updated_at":"2026-03-27T21:26:18.076581+05:30"},{"city":"Mangalore","state":"Karnataka","latitude":12.9141,"longitude":74.856,"temp":29.8,"humidity":82,"rain":0.0,"pressure":1007.6,"uv_index":9.1,"wind_gusts":25.9,"aqi":96,"pm10":39.6,"pm2_5":32.2,"mosquito_risk":7,"arthritis_risk":5,"migraine_risk":4,"frizz_risk":1,"updated_at":"2026-03-27T21:26:18.076587+05:30"},{"city":"Hubli-Dharwad","state":"Karnataka","latitude":15.3647,"longitude":75.124,"temp":26.0,"humidity":82,"rain":0.0,"pressure":941.6,"uv_index":9.1,"wind_gusts":44.6,"aqi":150,"pm10":32.4,"pm2_5":30.0,"mosquito_risk":7,"arthritis_risk":5,"migraine_risk":7,"frizz_risk":1,"updated_at":"2026-03-27T21:26:18.076593+05:30"},{"city":"Belgaum","state":"Karnataka","latitude":15.8497,"longitude":74.4977,"temp":23.8,"humidity":85,"rain":0.0,"pressure":926.8,"uv_index":9.15,"wind_gusts":38.2,"aqi":138,"pm10":41.9,"pm2_5":38.4,"mosquito_risk":3,"arthritis_risk":5,"migraine_risk":7,"frizz_risk":1,"updated_at":"2026-03-27T21:26:21.291565+05:30"},{"city":"Coimbatore","state":"Tamil Nadu","latitude":11.0168,"longitude":76.9558,"temp":26.2,"humidity":78,"rain":0.0,"pressure":963.0,"uv_index":9.4,"wind_gusts":43.2,"aqi":108,"pm10":36.9,"pm2_5":32.0,"mosquito_risk":7,"arthritis_risk":5,"migraine_risk":7,"frizz_risk":1,"updated_at":"2026-03-27T21:26:21.291599+05:30"},{"city":"Madurai","state":"Tamil Nadu","latitude":9.9252,"longitude":78.1198,"temp":28.3,"humidity":66,"rain":0.0,"pressure":994.3,"uv_index":9.35,"wind_gusts":21.6,"aqi":89,"pm10":40.0,"pm2_5":32.8,"mosquito_risk":7,"arthritis_risk":5,"migraine_risk":7,"frizz_risk":1,"updated_at":"2026-03-27T21:26:21.291612+05:30"},{"city":"Trichy","state":"Tamil Nadu","latitude":10.7905,"longitude":78.7047,"temp":27.5,"humidity":74,"rain":0.0,"pressure":1000.7,"uv_index":9.3,"wind_gusts":18.0,"aqi":109,"pm10":41.0,"pm2_5":34.9,"mosquito_risk":7,"arthritis_risk":5,"migraine_risk":4,"frizz_risk":1,"updated_at":"2026-03-27T21:26:21.291622+05:30"},{"city":"Salem","state":"Tamil Nadu","latitude":11.6643,"longitude":78.146,"temp":29.6,"humidity":45,"rain":0.0,"pressure":977.9,"uv_index":9.35,"wind_gusts":25.9,"aqi":141,"pm10":36.6,"pm2_5":31.5,"mosquito_risk":4,"arthritis_risk":5,"migraine_risk":7,"frizz_risk":1,"updated_at":"2026-03-27T21:26:21.291632+05:30"},{"city":"Tirunelveli","state":"Tamil Nadu","latitude":8.7139,"longitude":77.7567,"temp":28.7,"humidity":70,"rain":0.0,"pressure":1004.4,"uv_index":9.35,"wind_gusts":47.5,"aqi":75,"pm10":16.2,"pm2_5":13.3,"mosquito_risk":7,"arthritis_risk":5,"migraine_risk":4,"frizz_risk":1,"updated_at":"2026-03-27T21:26:21.291642+05:30"},{"city":"Vellore","state":"Tamil Nadu","latitude":12.9165,"longitude":79.1325,"temp":27.7,"humidity":63,"rain":0.0,"pressure":985.6,"uv_index":9.3,"wind_gusts":30.6,"aqi":95,"pm10":38.4,"pm2_5":32.2,"mosquito_risk":7,"arthritis_risk":5,"migraine_risk":7,"frizz_risk":1,"updated_at":"2026-03-27T21:26:21.291651+05:30"},{"city":"Erode","state":"Tamil Nadu","latitude":11.341,"longitude":77.7172,"temp":30.8,"humidity":44,"rain":0.0,"pressure":989.2,"uv_index":9.35,"wind_gusts":25.9,"aqi":119,"pm10":37.6,"pm2_5":32.6,"mosquito_risk":0,"arthritis_risk":5,"migraine_risk":7,"frizz_risk":1,"updated_at":"2026-03-27T21:26:21.291659+05:30"},{"city":"Kochi","state":"Kerala","latitude":9.9312,"longitude":76.2673,"temp":29.0,"humidity":80,"rain":0.0,"pressure":1010.4,"uv_index":9.2,"wind_gusts":40.3,"aqi":88,"pm10":37.6,"pm2_5":31.9,"mosquito_risk":7,"arthritis_risk":0,"migraine_risk":4,"frizz_risk":1,"updated_at":"2026-03-27T21:26:21.291668+05:30"},{"city":"Thiruvananthapuram","state":"Kerala","latitude":8.5241,"longitude":76.9366,"temp":28.9,"humidity":80,"rain":0.0,"pressure":1009.6,"uv_index":9.2,"wind_gusts":32.8,"aqi":105,"pm10":25.9,"pm2_5":18.0,"mosquito_risk":7,"arthritis_risk":0,"migraine_risk":4,"frizz_risk":1,"updated_at":"2026-03-27T21:26:21.291676+05:30"},{"city":"Kozhikode","state":"Kerala","latitude":11.2588,"longitude":75.7804,"temp":29.0,"humidity":81,"rain":0.0,"pressure":1008.9,"uv_index":9.1,"wind_gusts":31.7,"aqi":89,"pm10":34.0,"pm2_5":26.7,"mosquito_risk":7,"arthritis_risk":0,"migraine_risk":4,"frizz_risk":1,"updated_at":"2026-03-27T21:26:21.291684+05:30"},{"city":"Thrissur","state":"Kerala","latitude":10.5276,"longitude":76.2144,"temp":28.9,"humidity":80,"rain":0.0,"pressure":1008.4,"uv_index":9.15,"wind_gusts":41.0,"aqi":106,"pm10":31.4,"pm2_5":26.8,"mosquito_risk":7,"arthritis_risk":0,"migraine_risk":4,"frizz_risk":1,"updated_at":"2026-03-27T21:26:21.291692+05:30"},{"city":"Kannur","state":"Kerala","latitude":11.8745,"longitude":75.3704,"temp":29.6,"humidity":77,"rain":0.0,"pressure":1008.2,"uv_index":9.1,"wind_gusts":32.4,"aqi":99,"pm10":38.4,"pm2_5":30.5,"mosquito_risk":7,"arthritis_risk":0,"migraine_risk":4,"frizz_risk":1,"updated_at":"2026-03-27T21:26:21.291701+05:30"},{"city":"Patna","state":"Bihar","latitude":25.5941,"longitude":85.1376,"temp":26.2,"humidity":56,"rain":0.0,"pressure":1000.7,"uv_index":7.95,"wind_gusts":43.9,"aqi":147,"pm10":49.6,"pm2_5":35.5,"mosquito_risk":4,"arthritis_risk":5,"migraine_risk":4,"frizz_risk":1,"updated_at":"2026-03-27T21:26:21.291709+05:30"},{"city":"Gaya","state":"Bihar","latitude":24.7914,"longitude":85.0002,"temp":26.1,"humidity":61,"rain":0.0,"pressure":993.8,"uv_index":8.05,"wind_gusts":31.3,"aqi":79,"pm10":50.4,"pm2_5":31.1,"mosquito_risk":7,"arthritis_risk":5,"migraine_risk":7,"frizz_risk":1,"updated_at":"2026-03-27T21:26:21.291717+05:30"},{"city":"Muzaffarpur","state":"Bihar","latitude":26.1209,"longitude":85.3647,"temp":23.8,"humidity":79,"rain":0.0,"pressure":1000.7,"uv_index":7.6,"wind_gusts":38.2,"aqi":155,"pm10":59.8,"pm2_5":44.6,"mosquito_risk":3,"arthritis_risk":5,"migraine_risk":4,"frizz_risk":1,"updated_at":"2026-03-27T21:26:21.291724+05:30"},{"city":"Bhagalpur","state":"Bihar","latitude":25.2425,"longitude":87.0117,"temp":24.4,"humidity":78,"rain":0.0,"pressure":1002.0,"uv_index":8.0,"wind_gusts":31.3,"aqi":135,"pm10":56.9,"pm2_5":35.0,"mosquito_risk":3,"arthritis_risk":5,"migraine_risk":4,"frizz_risk":1,"updated_at":"2026-03-27T21:26:21.291731+05:30"},{"city":"Ranchi","state":"Jharkhand","latitude":23.3441,"longitude":85.3096,"temp":22.9,"humidity":60,"rain":0.0,"pressure":938.1,"uv_index":8.7,"wind_gusts":33.8,"aqi":98,"pm10":21.8,"pm2_5":18.4,"mosquito_risk":0,"arthritis_risk":5,"migraine_risk":7,"frizz_risk":0,"updated_at":"2026-03-27T21:26:21.291740+05:30"},{"city":"Jamshedpur","state":"Jharkhand","latitude":22.8046,"longitude":86.2029,"temp":29.5,"humidity":45,"rain":0.0,"pressure":991.3,"uv_index":8.55,"wind_gusts":22.3,"aqi":142,"pm10":42.7,"pm2_5":25.7,"mosquito_risk":4,"arthritis_risk":5,"migraine_risk":7,"frizz_risk":1,"updated_at":"2026-03-27T21:26:21.291748+05:30"},{"city":"Dhanbad","state":"Jharkhand","latitude":23.7957,"longitude":86.4304,"temp":28.8,"humidity":38,"rain":0.0,"pressure":979.7,"uv_index":8.45,"wind_gusts":25.6,"aqi":116,"pm10":44.2,"pm2_5":31.9,"mosquito_risk":4,"arthritis_risk":5,"migraine_risk":7,"frizz_risk":0,"updated_at":"2026-03-27T21:26:21.291757+05:30"},{"city":"Bokaro","state":"Jharkhand","latitude":23.6693,"longitude":86.1511,"temp":27.9,"humidity":41,"rain":0.0,"pressure":983.8,"uv_index":8.3,"wind_gusts":27.0,"aqi":116,"pm10":38.3,"pm2_5":27.1,"mosquito_risk":4,"arthritis_risk":5,"migraine_risk":7,"frizz_risk":0,"updated_at":"2026-03-27T21:26:21.291765+05:30"},{"city":"Bhubaneswar","state":"Odisha","latitude":20.2961,"longitude":85.8245,"temp":26.8,"humidity":86,"rain":0.0,"pressure":1004.1,"uv_index":8.75,"wind_gusts":29.2,"aqi":128,"pm10":33.6,"pm2_5":29.6,"mosquito_risk":7,"arthritis_risk":5,"migraine_risk":4,"frizz_risk":1,"updated_at":"2026-03-27T21:26:21.291775+05:30"},{"city":"Cuttack","state":"Odisha","latitude":20.4625,"longitude":85.8828,"temp":26.7,"humidity":82,"rain":0.0,"pressure":1006.3,"uv_index":8.8,"wind_gusts":35.3,"aqi":128,"pm10":33.6,"pm2_5":29.6,"mosquito_risk":7,"arthritis_risk":5,"migraine_risk":4,"frizz_risk":1,"updated_at":"2026-03-27T21:26:21.291785+05:30"},{"city":"Rourkela","state":"Odisha","latitude":22.2604,"longitude":84.8536,"temp":26.8,"humidity":61,"rain":0.0,"pressure":987.0,"uv_index":8.45,"wind_gusts":31.7,"aqi":163,"pm10":34.0,"pm2_5":30.3,"mosquito_risk":7,"arthritis_risk":5,"migraine_risk":7,"frizz_risk":1,"updated_at":"2026-03-27T21:26:21.291794+05:30"},{"city":"Raipur","state":"Chhattisgarh","latitude":21.2514,"longitude":81.6296,"temp":28.0,"humidity":55,"rain":0.0,"pressure":973.7,"uv_index":8.5,"wind_gusts":48.6,"aqi":132,"pm10":44.5,"pm2_5":40.5,"mosquito_risk":4,"arthritis_risk":5,"migraine_risk":7,"frizz_risk":1,"updated_at":"2026-03-27T21:26:21.291802+05:30"},{"city":"Bhilai","state":"Chhattisgarh","latitude":21.1938,"longitude":81.3509,"temp":27.7,"humidity":54,"rain":0.0,"pressure":973.9,"uv_index":8.55,"wind_gusts":44.6,"aqi":123,"pm10":33.2,"pm2_5":30.2,"mosquito_risk":4,"arthritis_risk":5,"migraine_risk":7,"frizz_risk":1,"updated_at":"2026-03-27T21:26:21.291810+05:30"},{"city":"Guwahati","state":"Assam","latitude":26.1158,"longitude":91.7086,"temp":24.4,"humidity":83,"rain":0.0,"pressure":1003.2,"uv_index":7.9,"wind_gusts":28.4,"aqi":154,"pm10":129.0,"pm2_5":96.4,"mosquito_risk":3,"arthritis_risk":5,"migraine_risk":4,"frizz_risk":1,"updated_at":"2026-03-27T21:26:21.291817+05:30"},{"city":"Agartala","state":"Tripura","latitude":23.8315,"longitude":91.2868,"temp":24.9,"humidity":84,"rain":0.0,"pressure":1006.8,"uv_index":8.2,"wind_gusts":19.1,"aqi":157,"pm10":95.2,"pm2_5":85.4,"mosquito_risk":3,"arthritis_risk":5,"migraine_risk":4,"frizz_risk":1,"updated_at":"2026-03-27T21:26:21.291825+05:30"},{"city":"Shillong","state":"Meghalaya","latitude":25.5788,"longitude":91.8933,"temp":12.8,"humidity":93,"rain":0.0,"pressure":855.8,"uv_index":8.15,"wind_gusts":42.1,"aqi":126,"pm10":50.5,"pm2_5":42.6,"mosquito_risk":3,"arthritis_risk":10,"migraine_risk":7,"frizz_risk":0,"updated_at":"2026-03-27T21:26:21.291833+05:30"},{"city":"Imphal","state":"Manipur","latitude":24.817,"longitude":93.9368,"temp":17.0,"humidity":63,"rain":0.0,"pressure":923.7,"uv_index":8.55,"wind_gusts":44.3,"aqi":127,"pm10":74.5,"pm2_5":60.8,"mosquito_risk":3,"arthritis_risk":5,"migraine_risk":7,"frizz_risk":0,"updated_at":"2026-03-27T21:26:21.291841+05:30"},{"city":"Aizawl","state":"Mizoram","latitude":23.7271,"longitude":92.7176,"temp":19.5,"humidity":61,"rain":0.0,"pressure":893.1,"uv_index":8.5,"wind_gusts":28.8,"aqi":108,"pm10":61.5,"pm2_5":45.9,"mosquito_risk":3,"arthritis_risk":5,"migraine_risk":7,"frizz_risk":0,"updated_at":"2026-03-27T21:26:21.291848+05:30"},{"city":"Kohima","state":"Nagaland","latitude":25.6701,"longitude":94.1077,"temp":14.7,"humidity":78,"rain":0.0,"pressure":854.8,"uv_index":8.45,"wind_gusts":51.5,"aqi":103,"pm10":60.8,"pm2_5":43.3,"mosquito_risk":3,"arthritis_risk":5,"migraine_risk":7,"frizz_risk":0,"updated_at":"2026-03-27T21:26:21.291853+05:30"},{"city":"Gangtok","state":"Sikkim","latitude":27.3314,"longitude":88.6138,"temp":13.1,"humidity":93,"rain":0.1,"pressure":836.6,"uv_index":7.6,"wind_gusts":19.4,"aqi":122,"pm10":63.6,"pm2_5":48.0,"mosquito_risk":6,"arthritis_risk":10,"migraine_risk":7,"frizz_risk":0,"updated_at":"2026-03-27T21:26:21.291860+05:30"},{"city":"Siliguri","state":"West Bengal","latitude":26.7271,"longitude":88.3953,"temp":19.3,"humidity":89,"rain":0.1,"pressure":995.6,"uv_index":7.7,"wind_gusts":33.1,"aqi":160,"pm10":104.3,"pm2_5":76.1,"mosquito_risk":6,"arthritis_risk":10,"migraine_risk":7,"frizz_risk":1,"updated_at":"2026-03-27T21:26:24.510286+05:30"},{"city":"Durgapur","state":"West Bengal","latitude":23.5204,"longitude":87.3119,"temp":29.9,"humidity":46,"rain":0.0,"pressure":994.5,"uv_index":8.4,"wind_gusts":20.2,"aqi":151,"pm10":68.2,"pm2_5":52.3,"mosquito_risk":4,"arthritis_risk":5,"migraine_risk":7,"frizz_risk":1,"updated_at":"2026-03-27T21:26:24.510316+05:30"},{"city":"Asansol","state":"West Bengal","latitude":23.6739,"longitude":86.9524,"temp":30.1,"humidity":39,"rain":0.0,"pressure":993.1,"uv_index":8.45,"wind_gusts":20.2,"aqi":98,"pm10":43.1,"pm2_5":30.7,"mosquito_risk":0,"arthritis_risk":5,"migraine_risk":7,"frizz_risk":0,"updated_at":"2026-03-27T21:26:24.510326+05:30"},{"city":"Pondicherry","state":"Puducherry","latitude":11.9139,"longitude":79.8145,"temp":24.6,"humidity":88,"rain":0.0,"pressure":1009.7,"uv_index":9.2,"wind_gusts":25.2,"aqi":68,"pm10":28.5,"pm2_5":16.9,"mosquito_risk":3,"arthritis_risk":0,"migraine_risk":4,"frizz_risk":1,"updated_at":"2026-03-27T21:26:24.510334+05:30"},{"city":"Port Blair","state":"Andaman and Nicobar Islands","latitude":11.6234,"longitude":92.7265,"temp":28.4,"humidity":78,"rain":0.0,"pressure":1007.3,"uv_index":9.15,"wind_gusts":25.6,"aqi":75,"pm10":28.8,"pm2_5":21.5,"mosquito_risk":7,"arthritis_risk":5,"migraine_risk":4,"frizz_risk":1,"updated_at":"2026-03-27T21:26:24.510342+05:30"},{"city":"Haridwar","state":"Uttarakhand","latitude":29.9457,"longitude":78.1642,"temp":23.3,"humidity":66,"rain":0.0,"pressure":973.8,"uv_index":5.75,"wind_gusts":38.5,"aqi":81,"pm10":48.0,"pm2_5":38.2,"mosquito_risk":3,"arthritis_risk":5,"migraine_risk":3,"frizz_risk":1,"updated_at":"2026-03-27T21:26:24.510350+05:30"},{"city":"Rishikesh","state":"Uttarakhand","latitude":30.0869,"longitude":78.2676,"temp":19.8,"humidity":76,"rain":0.0,"pressure":966.3,"uv_index":6.15,"wind_gusts":28.4,"aqi":66,"pm10":38.5,"pm2_5":26.1,"mosquito_risk":3,"arthritis_risk":5,"migraine_risk":7,"frizz_risk":0,"updated_at":"2026-03-27T21:26:24.510358+05:30"},{"city":"Nainital","state":"Uttarakhand","latitude":29.3919,"longitude":79.4542,"temp":15.7,"humidity":58,"rain":0.0,"pressure":803.7,"uv_index":6.65,"wind_gusts":50.4,"aqi":55,"pm10":29.5,"pm2_5":20.6,"mosquito_risk":0,"arthritis_risk":5,"migraine_risk":7,"frizz_risk":0,"updated_at":"2026-03-27T21:26:24.510365+05:30"},{"city":"Mussoorie","state":"Uttarakhand","latitude":30.4599,"longitude":78.0664,"temp":13.2,"humidity":82,"rain":0.0,"pressure":799.6,"uv_index":5.8,"wind_gusts":32.8,"aqi":72,"pm10":41.9,"pm2_5":30.6,"mosquito_risk":3,"arthritis_risk":10,"migraine_risk":3,"frizz_risk":0,"updated_at":"2026-03-27T21:26:24.510373+05:30"},{"city":"Dharamshala","state":"Himachal Pradesh","latitude":32.219,"longitude":76.3234,"temp":17.9,"humidity":71,"rain":0.0,"pressure":866.6,"uv_index":6.95,"wind_gusts":19.1,"aqi":71,"pm10":29.0,"pm2_5":17.6,"mosquito_risk":3,"arthritis_risk":5,"migraine_risk":7,"frizz_risk":0,"updated_at":"2026-03-27T21:26:24.510381+05:30"},{"city":"Dalhousie","state":"Himachal Pradesh","latitude":32.5387,"longitude":75.971,"temp":14.9,"humidity":80,"rain":0.0,"pressure":800.8,"uv_index":7.2,"wind_gusts":19.4,"aqi":71,"pm10":44.4,"pm2_5":34.3,"mosquito_risk":3,"arthritis_risk":5,"migraine_risk":7,"frizz_risk":0,"updated_at":"2026-03-27T21:26:24.510388+05:30"},{"city":"Patiala","state":"Punjab","latitude":30.3398,"longitude":76.3869,"temp":21.2,"humidity":71,"rain":0.0,"pressure":977.5,"uv_index":6.35,"wind_gusts":30.2,"aqi":110,"pm10":43.0,"pm2_5":33.3,"mosquito_risk":3,"arthritis_risk":5,"migraine_risk":7,"frizz_risk":0,"updated_at":"2026-03-27T21:26:24.510396+05:30"},{"city":"Bhatinda","state":"Punjab","latitude":30.211,"longitude":74.9455,"temp":22.7,"humidity":65,"rain":0.0,"pressure":983.5,"uv_index":7.0,"wind_gusts":27.0,"aqi":86,"pm10":39.2,"pm2_5":35.2,"mosquito_risk":3,"arthritis_risk":5,"migraine_risk":7,"frizz_risk":0,"updated_at":"2026-03-27T21:26:24.510423+05:30"},{"city":"Rohtak","state":"Haryana","latitude":28.8955,"longitude":76.6066,"temp":22.7,"humidity":70,"rain":0.0,"pressure":981.5,"uv_index":6.55,"wind_gusts":38.5,"aqi":167,"pm10":203.0,"pm2_5":50.5,"mosquito_risk":3,"arthritis_risk":5,"migraine_risk":7,"frizz_risk":1,"updated_at":"2026-03-27T21:26:24.510433+05:30"},{"city":"Panipat","state":"Haryana","latitude":29.3909,"longitude":76.9635,"temp":22.1,"humidity":69,"rain":0.0,"pressure":980.0,"uv_index":6.35,"wind_gusts":37.4,"aqi":238,"pm10":138.3,"pm2_5":41.6,"mosquito_risk":3,"arthritis_risk":5,"migraine_risk":7,"frizz_risk":1,"updated_at":"2026-03-27T21:26:24.510440+05:30"},{"city":"Mathura","state":"Uttar Pradesh","latitude":27.4924,"longitude":77.6737,"temp":22.9,"humidity":75,"rain":0.0,"pressure":987.0,"uv_index":6.8,"wind_gusts":32.4,"aqi":724,"pm10":409.8,"pm2_5":76.8,"mosquito_risk":3,"arthritis_risk":5,"migraine_risk":7,"frizz_risk":1,"updated_at":"2026-03-27T21:26:24.510447+05:30"},{"city":"Vrindavan","state":"Uttar Pradesh","latitude":27.5823,"longitude":77.7027,"temp":23.0,"humidity":74,"rain":0.0,"pressure":987.4,"uv_index":6.75,"wind_gusts":39.2,"aqi":724,"pm10":409.8,"pm2_5":76.8,"mosquito_risk":3,"arthritis_risk":5,"migraine_risk":7,"frizz_risk":1,"updated_at":"2026-03-27T21:26:24.510453+05:30"},{"city":"Ayodhya","state":"Uttar Pradesh","latitude":26.7922,"longitude":82.1998,"temp":24.5,"humidity":56,"rain":0.0,"pressure":995.3,"uv_index":6.8,"wind_gusts":50.4,"aqi":81,"pm10":49.5,"pm2_5":31.8,"mosquito_risk":0,"arthritis_risk":5,"migraine_risk":7,"frizz_risk":0,"updated_at":"2026-03-27T21:26:24.510460+05:30"},{"city":"Ratlam","state":"Madhya Pradesh","latitude":23.3315,"longitude":75.0367,"temp":26.2,"humidity":52,"rain":0.0,"pressure":954.7,"uv_index":8.05,"wind_gusts":38.2,"aqi":43,"pm10":23.2,"pm2_5":12.7,"mosquito_risk":4,"arthritis_risk":5,"migraine_risk":7,"frizz_risk":0,"updated_at":"2026-03-27T21:26:24.510467+05:30"},{"city":"Sagar","state":"Madhya Pradesh","latitude":23.8388,"longitude":78.7378,"temp":28.0,"humidity":37,"rain":0.0,"pressure":949.1,"uv_index":8.05,"wind_gusts":39.2,"aqi":58,"pm10":37.3,"pm2_5":14.7,"mosquito_risk":4,"arthritis_risk":5,"migraine_risk":7,"frizz_risk":0,"updated_at":"2026-03-27T21:26:24.510474+05:30"},{"city":"Satna","state":"Madhya Pradesh","latitude":24.6005,"longitude":80.8322,"temp":24.8,"humidity":68,"rain":0.0,"pressure":971.3,"uv_index":7.75,"wind_gusts":55.4,"aqi":103,"pm10":53.6,"pm2_5":20.7,"mosquito_risk":3,"arthritis_risk":5,"migraine_risk":7,"frizz_risk":1,"updated_at":"2026-03-27T21:26:24.510481+05:30"},{"city":"Akola","state":"Maharashtra","latitude":20.7002,"longitude":77.0082,"temp":28.4,"humidity":36,"rain":0.0,"pressure":975.1,"uv_index":8.45,"wind_gusts":43.6,"aqi":86,"pm10":18.9,"pm2_5":14.8,"mosquito_risk":4,"arthritis_risk":5,"migraine_risk":7,"frizz_risk":0,"updated_at":"2026-03-27T21:26:24.510488+05:30"},{"city":"Amravati","state":"Maharashtra","latitude":20.9374,"longitude":77.7796,"temp":27.6,"humidity":32,"rain":0.0,"pressure":966.9,"uv_index":8.45,"wind_gusts":43.9,"aqi":84,"pm10":19.6,"pm2_5":15.7,"mosquito_risk":4,"arthritis_risk":5,"migraine_risk":7,"frizz_risk":0,"updated_at":"2026-03-27T21:26:24.510496+05:30"},{"city":"Latur","state":"Maharashtra","latitude":18.4088,"longitude":76.5604,"temp":28.7,"humidity":38,"rain":0.0,"pressure":940.4,"uv_index":8.8,"wind_gusts":25.2,"aqi":107,"pm10":35.6,"pm2_5":29.6,"mosquito_risk":4,"arthritis_risk":5,"migraine_risk":7,"frizz_risk":0,"updated_at":"2026-03-27T21:26:24.510503+05:30"},{"city":"Nanded","state":"Maharashtra","latitude":19.1383,"longitude":77.3091,"temp":30.3,"humidity":40,"rain":0.0,"pressure":968.4,"uv_index":8.65,"wind_gusts":28.1,"aqi":94,"pm10":38.9,"pm2_5":31.5,"mosquito_risk":0,"arthritis_risk":5,"migraine_risk":7,"frizz_risk":0,"updated_at":"2026-03-27T21:26:24.510510+05:30"},{"city":"Gulbarga","state":"Karnataka","latitude":17.3297,"longitude":76.8343,"temp":31.6,"humidity":33,"rain":0.0,"pressure":958.8,"uv_index":8.85,"wind_gusts":32.0,"aqi":147,"pm10":49.2,"pm2_5":40.9,"mosquito_risk":0,"arthritis_risk":5,"migraine_risk":7,"frizz_risk":0,"updated_at":"2026-03-27T21:26:24.510516+05:30"},{"city":"Bidar","state":"Karnataka","latitude":17.9104,"longitude":77.5199,"temp":30.9,"humidity":36,"rain":0.0,"pressure":936.2,"uv_index":8.85,"wind_gusts":29.9,"aqi":101,"pm10":40.6,"pm2_5":34.2,"mosquito_risk":0,"arthritis_risk":5,"migraine_risk":7,"frizz_risk":0,"updated_at":"2026-03-27T21:26:24.510522+05:30"},{"city":"Hospet","state":"Karnataka","latitude":15.2689,"longitude":76.3909,"temp":30.5,"humidity":50,"rain":0.0,"pressure":956.3,"uv_index":9.1,"wind_gusts":26.6,"aqi":152,"pm10":37.1,"pm2_5":32.1,"mosquito_risk":0,"arthritis_risk":5,"migraine_risk":7,"frizz_risk":1,"updated_at":"2026-03-27T21:26:24.510528+05:30"},{"city":"Tirupur","state":"Tamil Nadu","latitude":11.1085,"longitude":77.3411,"temp":28.8,"humidity":69,"rain":0.0,"pressure":976.0,"uv_index":9.4,"wind_gusts":34.9,"aqi":125,"pm10":46.9,"pm2_5":40.3,"mosquito_risk":7,"arthritis_risk":5,"migraine_risk":7,"frizz_risk":1,"updated_at":"2026-03-27T21:26:24.510535+05:30"},{"city":"Alappuzha","state":"Kerala","latitude":9.4981,"longitude":76.3388,"temp":29.0,"humidity":81,"rain":0.0,"pressure":1010.5,"uv_index":9.15,"wind_gusts":35.6,"aqi":82,"pm10":33.8,"pm2_5":27.0,"mosquito_risk":7,"arthritis_risk":0,"migraine_risk":4,"frizz_risk":1,"updated_at":"2026-03-27T21:26:24.510541+05:30"},{"city":"Munnar","state":"Kerala","latitude":10.0889,"longitude":77.0595,"temp":21.3,"humidity":97,"rain":0.0,"pressure":858.4,"uv_index":9.7,"wind_gusts":33.8,"aqi":75,"pm10":35.6,"pm2_5":30.7,"mosquito_risk":3,"arthritis_risk":5,"migraine_risk":7,"frizz_risk":1,"updated_at":"2026-03-27T21:26:24.510549+05:30"},{"city":"Silchar","state":"Assam","latitude":24.8333,"longitude":92.7789,"temp":25.6,"humidity":71,"rain":0.0,"pressure":1005.6,"uv_index":8.25,"wind_gusts":16.2,"aqi":155,"pm10":107.1,"pm2_5":84.5,"mosquito_risk":7,"arthritis_risk":5,"migraine_risk":4,"frizz_risk":1,"updated_at":"2026-03-27T21:26:24.510557+05:30"},{"city":"Dibrugarh","state":"Assam","latitude":27.4728,"longitude":94.912,"temp":24.2,"humidity":83,"rain":0.0,"pressure":997.3,"uv_index":3.6,"wind_gusts":12.6,"aqi":124,"pm10":75.9,"pm2_5":60.5,"mosquito_risk":3,"arthritis_risk":5,"migraine_risk":3,"frizz_risk":1,"updated_at":"2026-03-27T21:26:24.510563+05:30"}]