[{"city":"Delhi","state":"Delhi","latitude":28.6139,"longitude":77.209,"temp":30.2,"humidity":33,"rain":0.0,"pressure":980.1,"uv_index":6.15,"wind_gusts":22.3,"aqi":134,"pm10":103.1,"pm2_5":26.6,"mosquito_risk":0,"arthritis_risk":5,"migraine_risk":7,"frizz_risk":0,"updated_at":"2026-03-28T15:11:21.960526+05:30"},{"city":"Mumbai","state":"Maharashtra","latitude":19.076,"longitude":72.8777,"temp":28.3,"humidity":75,"rain":0.0,"pressure":1006.9,"uv_index":8.0,"wind_gusts":25.2,"aqi":78,"pm10":26.1,"pm2_5":19.0,"mosquito_risk":7,"arthritis_risk":5,"migraine_risk":4,"frizz_risk":1,"updated_at":"2026-03-28T15:11:21.960571+05:30"},{"city":"Bangalore","state":"Karnataka","latitude":12.9716,"longitude":77.5946,"temp":32.1,"humidity":40,"rain":0.0,"pressure":910.2,"uv_index":9.5,"wind_gusts":47.2,"aqi":91,"pm10":40.9,"pm2_5":32.4,"mosquito_risk":0,"arthritis_risk":5,"migraine_risk":7,"frizz_risk":1,"updated_at":"2026-03-28T15:11:21.960586+05:30"},{"city":"Hyderabad","state":"Telangana","latitude":17.385,"longitude":78.4867,"temp":38.1,"humidity":18,"rain":0.0,"pressure":949.9,"uv_index":9.0,"wind_gusts":24.8,"aqi":111,"pm10":44.1,"pm2_5":34.9,"mosquito_risk":0,"arthritis_risk":5,"migraine_risk":10,"frizz_risk":0,"updated_at":"2026-03-28T15:11:21.960597+05:30"},{"city":"Chennai","state":"Tamil Nadu","latitude":13.0827,"longitude":80.2707,"temp":33.9,"humidity":55,"rain":0.0,"pressure":1004.4,"uv_index":9.25,"wind_gusts":34.9,"aqi":68,"pm10":29.6,"pm2_5":21.0,"mosquito_risk":0,"arthritis_risk":5,"migraine_risk":4,"frizz_risk":1,"updated_at":"2026-03-28T15:11:21.960605+05:30"},{"city":"Kolkata","state":"West Bengal","latitude":22.5726,"longitude":88.3639,"temp":32.2,"humidity":54,"rain":0.0,"pressure":1002.7,"uv_index":8.4,"wind_gusts":31.7,"aqi":126,"pm10":71.5,"pm2_5":57.4,"mosquito_risk":0,"arthritis_risk":5,"migraine_risk":4,"frizz_risk":1,"updated_at":"2026-03-28T15:11:21.960612+05:30"},{"city":"Pune","state":"Maharashtra","latitude":18.5204,"longitude":73.8567,"temp":36.8,"humidity":21,"rain":0.0,"pressure":947.0,"uv_index":8.5,"wind_gusts":46.8,"aqi":78,"pm10":10.8,"pm2_5":8.1,"mosquito_risk":0,"arthritis_risk":5,"migraine_risk":10,"frizz_risk":0,"updated_at":"2026-03-28T15:11:21.960622+05:30"},{"city":"Ahmedabad","state":"Gujarat","latitude":23.0225,"longitude":72.5714,"temp":35.5,"humidity":31,"rain":0.0,"pressure":999.2,"uv_index":7.95,"wind_gusts":35.3,"aqi":37,"pm10":51.1,"pm2_5":11.2,"mosquito_risk":0,"arthritis_risk":5,"migraine_risk":10,"frizz_risk":0,"updated_at":"2026-03-28T15:11:21.960628+05:30"},{"city":"Jaipur","state":"Rajasthan","latitude":26.9124,"longitude":75.7873,"temp":33.5,"humidity":22,"rain":0.0,"pressure":956.8,"uv_index":7.25,"wind_gusts":32.0,"aqi":109,"pm10":164.8,"pm2_5":20.0,"mosquito_risk":0,"arthritis_risk":5,"migraine_risk":7,"frizz_risk":0,"updated_at":"2026-03-28T15:11:21.960635+05:30"},{"city":"Lucknow","state":"Uttar Pradesh","latitude":26.8467,"longitude":80.9462,"temp":31.9,"humidity":29,"rain":0.0,"pressure":989.8,"uv_index":7.15,"wind_gusts":29.5,"aqi":131,"pm10":106.9,"pm2_5":24.1,"mosquito_risk":0,"arthritis_risk":5,"migraine_risk":7,"frizz_risk":0,"updated_at":"2026-03-28T15:11:21.960642+05:30"},{"city":"Kanpur","state":"Uttar Pradesh","latitude":26.4499,"longitude":80.3319,"temp":31.5,"humidity":37,"rain":0.0,"pressure":988.5,"uv_index":6.95,"wind_gusts":29.2,"aqi":189,"pm10":283.1,"pm2_5":39.3,"mosquito_risk":0,"arthritis_risk":5,"migraine_risk":7,"frizz_risk":0,"updated_at":"2026-03-28T15:11:21.960648+05:30"},{"city":"Chandigarh","state":"Chandigarh","latitude":30.7333,"longitude":76.7794,"temp":29.2,"humidity":45,"rain":0.0,"pressure":966.2,"uv_index":5.25,"wind_gusts":23.0,"aqi":73,"pm10":22.7,"pm2_5":14.5,"mosquito_risk":4,"arthritis_risk":5,"migraine_risk":3,"frizz_risk":1,"updated_at":"2026-03-28T15:11:21.960655+05:30"},{"city":"Srinagar","state":"Jammu and Kashmir","latitude":34.0837,"longitude":74.7973,"temp":19.3,"humidity":44,"rain":0.0,"pressure":838.9,"uv_index":6.0,"wind_gusts":16.2,"aqi":88,"pm10":28.8,"pm2_5":12.8,"mosquito_risk":0,"arthritis_risk":5,"migraine_risk":3,"frizz_risk":0,"updated_at":"2026-03-28T15:11:21.960661+05:30"},{"city":"Jammu","state":"Jammu and Kashmir","latitude":32.7266,"longitude":74.857,"temp":28.8,"humidity":46,"rain":0.0,"pressure":970.3,"uv_index":6.85,"wind_gusts":15.8,"aqi":73,"pm10":11.6,"pm2_5":11.4,"mosquito_risk":4,"arthritis_risk":5,"migraine_risk":7,"frizz_risk":0,"updated_at":"2026-03-28T15:11:21.960667+05:30"},{"city":"Amritsar","state":"Punjab","latitude":31.634,"longitude":74.8723,"temp":28.9,"humidity":42,"rain":0.0,"pressure":978.0,"uv_index":6.15,"wind_gusts":14.8,"aqi":135,"pm10":17.2,"pm2_5":14.6,"mosquito_risk":4,"arthritis_risk":5,"migraine_risk":7,"frizz_risk":0,"updated_at":"2026-03-28T15:11:21.960674+05:30"},{"city":"Ludhiana","state":"Punjab","latitude":30.901,"longitude":75.8573,"temp":29.8,"humidity":39,"rain":0.0,"pressure":976.1,"uv_index":6.15,"wind_gusts":14.0,"aqi":95,"pm10":27.3,"pm2_5":14.4,"mosquito_risk":4,"arthritis_risk":5,"migraine_risk":7,"frizz_risk":0,"updated_at":"2026-03-28T15:11:21.960680+05:30"},{"city":"Jalandhar","state":"Punjab","latitude":31.326,"longitude":75.5762,"temp":28.9,"humidity":43,"rain":0.0,"pressure":977.4,"uv_index":6.25,"wind_gusts":12.2,"aqi":99,"pm10":26.2,"pm2_5":13.8,"mosquito_risk":4,"arthritis_risk":5,"migraine_risk":7,"frizz_risk":0,"updated_at":"2026-03-28T15:11:21.960687+05:30"},{"city":"Dehradun","state":"Uttarakhand","latitude":30.6284,"longitude":78.0322,"temp":18.7,"humidity":64,"rain":0.0,"pressure":828.0,"uv_index":5.8,"wind_gusts":22.3,"aqi":56,"pm10":24.0,"pm2_5":14.9,"mosquito_risk":3,"arthritis_risk":5,"migraine_risk":3,"frizz_risk":0,"updated_at":"2026-03-28T15:11:21.960692+05:30"},{"city":"Shimla","state":"Himachal Pradesh","latitude":31.1048,"longitude":77.1734,"temp":16.4,"humidity":62,"rain":0.0,"pressure":782.6,"uv_index":6.0,"wind_gusts":32.0,"aqi":61,"pm10":20.6,"pm2_5":12.4,"mosquito_risk":3,"arthritis_risk":5,"migraine_risk":3,"frizz_risk":0,"updated_at":"2026-03-28T15:11:21.960698+05:30"},{"city":"Manali","state":"Himachal Pradesh","latitude":32.2396,"longitude":77.1887,"temp":21.0,"humidity":54,"rain":0.0,"pressure":818.3,"uv_index":8.55,"wind_gusts":28.1,"aqi":98,"pm10":22.5,"pm2_5":6.9,"mosquito_risk":0,"arthritis_risk":5,"migraine_risk":7,"frizz_risk":0,"updated_at":"2026-03-28T15:11:21.960704+05:30"},{"city":"Gurgaon","state":"Haryana","latitude":28.4595,"longitude":77.0266,"temp":30.5,"humidity":32,"rain":0.0,"pressure":978.6,"uv_index":6.3,"wind_gusts":17.3,"aqi":378,"pm10":410.7,"pm2_5":53.0,"mosquito_risk":0,"arthritis_risk":5,"migraine_risk":7,"frizz_risk":0,"updated_at":"2026-03-28T15:11:21.960709+05:30"},{"city":"Noida","state":"Uttar Pradesh","latitude":28.5355,"longitude":77.391,"temp":30.6,"humidity":32,"rain":0.0,"pressure":981.7,"uv_index":6.05,"wind_gusts":21.6,"aqi":378,"pm10":410.7,"pm2_5":53.0,"mosquito_risk":0,"arthritis_risk":5,"migraine_risk":7,"frizz_risk":0,"updated_at":"2026-03-28T15:11:21.960715+05:30"},{"city":"Ghaziabad","state":"Uttar Pradesh","latitude":28.6692,"longitude":77.4538,"temp":29.9,"humidity":37,"rain":0.0,"pressure":979.9,"uv_index":5.8,"wind_gusts":21.2,"aqi":125,"pm10":69.2,"pm2_5":25.2,"mosquito_risk":4,"arthritis_risk":5,"migraine_risk":3,"frizz_risk":0,"updated_at":"2026-03-28T15:11:21.960720+05:30"},{"city":"Faridabad","state":"Haryana","latitude":28.4089,"longitude":77.3178,"temp":30.7,"humidity":32,"rain":0.0,"pressure":981.0,"uv_index":6.3,"wind_gusts":19.4,"aqi":378,"pm10":410.7,"pm2_5":53.0,"mosquito_risk":0,"arthritis_risk":5,"migraine_risk":7,"frizz_risk":0,"updated_at":"2026-03-28T15:11:21.960725+05:30"},{"city":"Meerut","state":"Uttar Pradesh","latitude":28.9845,"longitude":77.7064,"temp":29.4,"humidity":40,"rain":0.0,"pressure":978.7,"uv_index":5.85,"wind_gusts":23.0,"aqi":125,"pm10":69.2,"pm2_5":25.2,"mosquito_risk":4,"arthritis_risk":5,"migraine_risk":3,"frizz_risk":0,"updated_at":"2026-03-28T15:11:21.960732+05:30"},{"city":"Agra","state":"Uttar Pradesh","latitude":27.1767,"longitude":78.0081,"temp":34.5,"humidity":26,"rain":0.0,"pressure":984.0,"uv_index":6.35,"wind_gusts":27.0,"aqi":406,"pm10":516.0,"pm2_5":51.5,"mosquito_risk":0,"arthritis_risk":5,"migraine_risk":7,"frizz_risk":0,"updated_at":"2026-03-28T15:11:21.960738+05:30"},{"city":"Varanasi","state":"Uttar Pradesh","latitude":25.3176,"longitude":82.9739,"temp":33.5,"humidity":32,"rain":0.0,"pressure":994.1,"uv_index":7.8,"wind_gusts":37.4,"aqi":81,"pm10":75.9,"pm2_5":22.2,"mosquito_risk":0,"arthritis_risk":5,"migraine_risk":7,"frizz_risk":0,"updated_at":"2026-03-28T15:11:21.960745+05:30"},{"city":"Prayagraj","state":"Uttar Pradesh","latitude":25.4358,"longitude":81.8463,"temp":33.1,"humidity":33,"rain":0.0,"pressure":992.3,"uv_index":7.7,"wind_gusts":30.2,"aqi":81,"pm10":95.0,"pm2_5":23.1,"mosquito_risk":0,"arthritis_risk":5,"migraine_risk":7,"frizz_risk":0,"updated_at":"2026-03-28T15:11:21.960751+05:30"},{"city":"Gorakhpur","state":"Uttar Pradesh","latitude":26.7606,"longitude":83.3732,"temp":31.2,"humidity":37,"rain":0.0,"pressure":993.8,"uv_index":7.0,"wind_gusts":23.8,"aqi":101,"pm10":103.4,"pm2_5":29.9,"mosquito_risk":0,"arthritis_risk":5,"migraine_risk":7,"frizz_risk":0,"updated_at":"2026-03-28T15:11:21.960758+05:30"},{"city":"Bareilly","state":"Uttar Pradesh","latitude":28.367,"longitude":79.4304,"temp":30.0,"humidity":40,"rain":0.0,"pressure":983.6,"uv_index":6.35,"wind_gusts":26.3,"aqi":83,"pm10":31.7,"pm2_5":16.4,"mosquito_risk":4,"arthritis_risk":5,"migraine_risk":7,"frizz_risk":0,"updated_at":"2026-03-28T15:11:21.960764+05:30"},{"city":"Aligarh","state":"Uttar Pradesh","latitude":27.8974,"longitude":78.088,"temp":31.0,"humidity":35,"rain":0.0,"pressure":982.4,"uv_index":6.45,"wind_gusts":24.1,"aqi":193,"pm10":326.9,"pm2_5":44.2,"mosquito_risk":0,"arthritis_risk":5,"migraine_risk":7,"frizz_risk":0,"updated_at":"2026-03-28T15:11:21.960769+05:30"},{"city":"Moradabad","state":"Uttar Pradesh","latitude":28.8386,"longitude":78.7733,"temp":29.5,"humidity":43,"rain":0.0,"pressure":980.5,"uv_index":6.1,"wind_gusts":25.2,"aqi":91,"pm10":46.4,"pm2_5":22.6,"mosquito_risk":4,"arthritis_risk":5,"migraine_risk":7,"frizz_risk":0,"updated_at":"2026-03-28T15:11:21.960775+05:30"},{"city":"Saharanpur","state":"Uttar Pradesh","latitude":29.9637,"longitude":77.546,"temp":29.4,"humidity":44,"rain":0.0,"pressure":972.8,"uv_index":5.25,"wind_gusts":24.8,"aqi":102,"pm10":25.1,"pm2_5":16.5,"mosquito_risk":4,"arthritis_risk":5,"migraine_risk":3,"frizz_risk":0,"updated_at":"2026-03-28T15:11:21.960781+05:30"},{"city":"Jhansi","state":"Uttar Pradesh","latitude":25.4484,"longitude":78.5685,"temp":35.9,"humidity":20,"rain":0.0,"pressure":973.7,"uv_index":7.1,"wind_gusts":33.8,"aqi":100,"pm10":88.9,"pm2_5":22.0,"mosquito_risk":0,"arthritis_risk":5,"migraine_risk":10,"frizz_risk":0,"updated_at":"2026-03-28T15:11:25.277815+05:30"},{"city":"Surat","state":"Gujarat","latitude":21.1702,"longitude":72.8311,"temp":31.2,"humidity":53,"rain":0.0,"pressure":1005.1,"uv_index":7.75,"wind_gusts":27.4,"aqi":85,"pm10":27.7,"pm2_5":26.1,"mosquito_risk":0,"arthritis_risk":5,"migraine_risk":4,"frizz_risk":1,"updated_at":"2026-03-28T15:11:25.277845+05:30"},{"city":"Vadodara","state":"Gujarat","latitude":22.3072,"longitude":73.1812,"temp":36.4,"humidity":28,"rain":0.0,"pressure":1001.4,"uv_index":7.95,"wind_gusts":33.1,"aqi":61,"pm10":20.7,"pm2_5":9.8,"mosquito_risk":0,"arthritis_risk":5,"migraine_risk":7,"frizz_risk":0,"updated_at":"2026-03-28T15:11:25.277855+05:30"},{"city":"Rajkot","state":"Gujarat","latitude":22.3039,"longitude":70.8022,"temp":33.8,"humidity":37,"rain":0.0,"pressure":992.1,"uv_index":7.75,"wind_gusts":44.3,"aqi":31,"pm10":27.2,"pm2_5":10.0,"mosquito_risk":0,"arthritis_risk":5,"migraine_risk":7,"frizz_risk":1,"updated_at":"2026-03-28T15:11:25.277863+05:30"},{"city":"Thane","state":"Maharashtra","latitude":19.2183,"longitude":72.9781,"temp":31.6,"humidity":59,"rain":0.0,"pressure":1006.5,"uv_index":8.0,"wind_gusts":38.5,"aqi":78,"pm10":26.1,"pm2_5":19.0,"mosquito_risk":0,"arthritis_risk":5,"migraine_risk":4,"frizz_risk":1,"updated_at":"2026-03-28T15:11:25.277870+05:30"},{"city":"Nagpur","state":"Maharashtra","latitude":21.1458,"longitude":79.0882,"temp":37.9,"humidity":19,"rain":0.0,"pressure":968.8,"uv_index":8.5,"wind_gusts":31.7,"aqi":59,"pm10":15.5,"pm2_5":10.4,"mosquito_risk":0,"arthritis_risk":5,"migraine_risk":10,"frizz_risk":0,"updated_at":"2026-03-28T15:11:25.277878+05:30"},{"city":"Nashik","state":"Maharashtra","latitude":19.9975,"longitude":73.7898,"temp":34.4,"humidity":22,"rain":0.0,"pressure":944.0,"uv_index":8.2,"wind_gusts":42.5,"aqi":59,"pm10":32.6,"pm2_5":10.5,"mosquito_risk":0,"arthritis_risk":5,"migraine_risk":7,"frizz_risk":0,"updated_at":"2026-03-28T15:11:25.277885+05:30"},{"city":"Aurangabad","state":"Maharashtra","latitude":19.8762,"longitude":75.3433,"temp":36.8,"humidity":16,"rain":0.0,"pressure":941.6,"uv_index":8.75,"wind_gusts":38.5,"aqi":54,"pm10":10.5,"pm2_5":5.8,"mosquito_risk":0,"arthritis_risk":5,"migraine_risk":10,"frizz_risk":0,"updated_at":"2026-03-28T15:11:25.277893+05:30"},{"city":"Solapur","state":"Maharashtra","latitude":17.6599,"longitude":75.9064,"temp":38.6,"humidity":17,"rain":0.0,"pressure":954.2,"uv_index":8.85,"wind_gusts":28.4,"aqi":91,"pm10":25.9,"pm2_5":19.6,"mosquito_risk":0,"arthritis_risk":5,"migraine_risk":10,"frizz_risk":0,"updated_at":"2026-03-28T15:11:25.277900+05:30"},{"city":"Kolhapur","state":"Maharashtra","latitude":16.705,"longitude":74.2433,"temp":34.0,"humidity":35,"rain":0.0,"pressure":946.5,"uv_index":8.95,"wind_gusts":46.4,"aqi":134,"pm10":32.6,"pm2_5":25.8,"mosquito_risk":0,"arthritis_risk":5,"migraine_risk":7,"frizz_risk":1,"updated_at":"2026-03-28T15:11:25.277907+05:30"},{"city":"Goa","state":"Goa","latitude":15.2993,"longitude":74.124,"temp":32.4,"humidity":67,"rain":0.0,"pressure":995.9,"uv_index":8.95,"wind_gusts":31.7,"aqi":96,"pm10":41.6,"pm2_5":34.1,"mosquito_risk":3,"arthritis_risk":5,"migraine_risk":7,"frizz_risk":1,"updated_at":"2026-03-28T15:11:25.277915+05:30"},{"city":"Jodhpur","state":"Rajasthan","latitude":26.2389,"longitude":73.0243,"temp":34.8,"humidity":27,"rain":0.0,"pressure":979.6,"uv_index":7.8,"wind_gusts":29.9,"aqi":61,"pm10":154.1,"pm2_5":20.7,"mosquito_risk":0,"arthritis_risk":5,"migraine_risk":7,"frizz_risk":0,"updated_at":"2026-03-28T15:11:25.277921+05:30"},{"city":"Udaipur","state":"Rajasthan","latitude":24.5854,"longitude":73.7125,"temp":32.7,"humidity":32,"rain":0.0,"pressure":944.4,"uv_index":8.35,"wind_gusts":33.1,"aqi":40,"pm10":15.4,"pm2_5":5.2,"mosquito_risk":0,"arthritis_risk":5,"migraine_risk":7,"frizz_risk":0,"updated_at":"2026-03-28T15:11:25.277928+05:30"},{"city":"Kota","state":"Rajasthan","latitude":25.2138,"longitude":75.8648,"temp":37.3,"humidity":21,"rain":0.0,"pressure":974.7,"uv_index":7.65,"wind_gusts":24.5,"aqi":50,"pm10":111.8,"pm2_5":18.9,"mosquito_risk":0,"arthritis_risk":5,"migraine_risk":10,"frizz_risk":0,"updated_at":"2026-03-28T15:11:25.277935+05:30"},{"city":"Bikaner","state":"Rajasthan","latitude":28.0229,"longitude":73.3119,"temp":34.7,"humidity":24,"rain":0.0,"pressure":977.7,"uv_index":7.2,"wind_gusts":25.2,"aqi":38,"pm10":30.2,"pm2_5":9.3,"mosquito_risk":0,"arthritis_risk":5,"migraine_risk":7,"frizz_risk":0,"updated_at":"2026-03-28T15:11:25.277942+05:30"},{"city":"Ajmer","state":"Rajasthan","latitude":26.4499,"longitude":74.6399,"temp":33.3,"humidity":25,"rain":0.0,"pressure":951.4,"uv_index":7.65,"wind_gusts":30.6,"aqi":40,"pm10":80.6,"pm2_5":15.3,"mosquito_risk":0,"arthritis_risk":5,"migraine_risk":7,"frizz_risk":0,"updated_at":"2026-03-28T15:11:25.277948+05:30"},{"city":"Gwalior","state":"Madhya Pradesh","latitude":26.2183,"longitude":78.1828,"temp":34.3,"humidity":27,"rain":0.0,"pressure":979.6,"uv_index":6.95,"wind_gusts":35.3,"aqi":150,"pm10":86.1,"pm2_5":21.1,"mosquito_risk":0,"arthritis_risk":5,"migraine_risk":7,"frizz_risk":0,"updated_at":"2026-03-28T15:11:25.277955+05:30"},{"city":"Indore","state":"Madhya Pradesh","latitude":22.7196,"longitude":75.8577,"temp":35.1,"humidity":24,"rain":0.0,"pressure":945.1,"uv_index":8.2,"wind_gusts":36.7,"aqi":43,"pm10":13.5,"pm2_5":7.0,"mosquito_risk":0,"arthritis_risk":5,"migraine_risk":10,"frizz_risk":0,"updated_at":"2026-03-28T15:11:25.277961+05:30"},{"city":"Bhopal","state":"Madhya Pradesh","latitude":23.2599,"longitude":77.4126,"temp":36.0,"humidity":21,"rain":0.0,"pressure":950.4,"uv_index":8.15,"wind_gusts":31.3,"aqi":42,"pm10":39.0,"pm2_5":9.4,"mosquito_risk":0,"arthritis_risk":5,"migraine_risk":10,"frizz_risk":0,"updated_at":"2026-03-28T15:11:25.277968+05:30"},{"city":"Jabalpur","state":"Madhya Pradesh","latitude":23.1815,"longitude":79.9864,"temp":34.7,"humidity":26,"rain":0.0,"pressure":957.7,"uv_index":8.25,"wind_gusts":29.9,"aqi":53,"pm10":30.5,"pm2_5":10.1,"mosquito_risk":0,"arthritis_risk":5,"migraine_risk":7,"frizz_risk":0,"updated_at":"2026-03-28T15:11:25.277974+05:30"},{"city":"Ujjain","state":"Madhya Pradesh","latitude":23.1765,"longitude":75.7885,"temp":34.4,"humidity":25,"rain":0.0,"pressure":951.0,"uv_index":8.15,"wind_gusts":34.6,"aqi":40,"pm10":12.5,"pm2_5":5.6,"mosquito_risk":0,"arthritis_risk":5,"migraine_risk":7,"frizz_risk":0,"updated_at":"2026-03-28T15:11:25.277981+05:30"},{"city":"Visakhapatnam","state":"Andhra Pradesh","latitude":17.6868,"longitude":83.2185,"temp":33.1,"humidity":51,"rain":0.0,"pressure":1000.2,"uv_index":9.0,"wind_gusts":44.6,"aqi":92,"pm10":44.2,"pm2_5":31.3,"mosquito_risk":0,"arthritis_risk":5,"migraine_risk":4,"frizz_risk":1,"updated_at":"2026-03-28T15:11:25.277988+05:30"},{"city":"Vijayawada","state":"Andhra Pradesh","latitude":16.5062,"longitude":80.648,"temp":37.2,"humidity":33,"rain":0.0,"pressure":998.2,"uv_index":9.05,"wind_gusts":32.0,"aqi":77,"pm10":45.5,"pm2_5":34.2,"mosquito_risk":0,"arthritis_risk":5,"migraine_risk":10,"frizz_risk":1,"updated_at":"2026-03-28T15:11:25.277995+05:30"},{"city":"Guntur","state":"Andhra Pradesh","latitude":16.3067,"longitude":80.4365,"temp":37.1,"humidity":36,"rain":0.0,"pressure":999.6,"uv_index":9.05,"wind_gusts":32.8,"aqi":79,"pm10":48.4,"pm2_5":36.6,"mosquito_risk":0,"arthritis_risk":5,"migraine_risk":10,"frizz_risk":1,"updated_at":"2026-03-28T15:11:25.278002+05:30"},{"city":"Nellore","state":"Andhra Pradesh","latitude":14.4426,"longitude":79.9865,"temp":37.3,"humidity":41,"rain":0.0,"pressure":1002.1,"uv_index":9.2,"wind_gusts":38.2,"aqi":74,"pm10":45.5,"pm2_5":33.9,"mosquito_risk":0,"arthritis_risk":5,"migraine_risk":7,"frizz_risk":1,"updated_at":"2026-03-28T15:11:25.278010+05:30"},{"city":"Kurnool","state":"Andhra Pradesh","latitude":15.8281,"longitude":78.0373,"temp":38.9,"humidity":23,"rain":0.0,"pressure":973.1,"uv_index":9.0,"wind_gusts":33.5,"aqi":100,"pm10":60.8,"pm2_5":46.7,"mosquito_risk":0,"arthritis_risk":5,"migraine_risk":10,"frizz_risk":0,"updated_at":"2026-03-28T15:11:25.278018+05:30"},{"city":"Kakinada","state":"Andhra Pradesh","latitude":16.9891,"longitude":82.2475,"temp":37.3,"humidity":35,"rain":0.0,"pressure":1003.1,"uv_index":9.0,"wind_gusts":34.6,"aqi":71,"pm10":33.4,"pm2_5":20.6,"mosquito_risk":0,"arthritis_risk":5,"migraine_risk":7,"frizz_risk":1,"updated_at":"2026-03-28T15:11:25.278025+05:30"},{"city":"Tirupati","state":"Andhra Pradesh","latitude":13.6288,"longitude":79.4192,"temp":36.3,"humidity":28,"rain":0.0,"pressure":987.9,"uv_index":9.3,"wind_gusts":28.1,"aqi":100,"pm10":47.5,"pm2_5":34.7,"mosquito_risk":0,"arthritis_risk":5,"migraine_risk":10,"frizz_risk":0,"updated_at":"2026-03-28T15:11:25.278032+05:30"},{"city":"Warangal","state":"Telangana","latitude":17.9689,"longitude":79.5941,"temp":38.7,"humidity":24,"rain":0.0,"pressure":974.4,"uv_index":8.85,"wind_gusts":25.6,"aqi":96,"pm10":26.2,"pm2_5":22.6,"mosquito_risk":0,"arthritis_risk":5,"migraine_risk":10,"frizz_risk":0,"updated_at":"2026-03-28T15:11:25.278038+05:30"},{"city":"Nizamabad","state":"Telangana","latitude":18.6725,"longitude":78.0941,"temp":38.1,"humidity":18,"rain":0.0,"pressure":961.4,"uv_index":8.8,"wind_gusts":24.5,"aqi":92,"pm10":14.3,"pm2_5":10.7,"mosquito_risk":0,"arthritis_risk":5,"migraine_risk":10,"frizz_risk":0,"updated_at":"2026-03-28T15:11:25.278044+05:30"},{"city":"Mysore","state":"Karnataka","latitude":12.2958,"longitude":76.6396,"temp":34.8,"humidity":26,"rain":0.0,"pressure":925.9,"uv_index":9.45,"wind_gusts":47.2,"aqi":92,"pm10":36.0,"pm2_5":29.2,"mosquito_risk":0,"arthritis_risk":5,"migraine_risk":7,"frizz_risk":0,"updated_at":"2026-03-28T15:11:25.278051+05:30"},{"city":"Mangalore","state":"Karnataka","latitude":12.9141,"longitude":74.856,"temp":29.4,"humidity":81,"rain":0.0,"pressure":1003.8,"uv_index":9.1,"wind_gusts":25.9,"aqi":90,"pm10":34.1,"pm2_5":26.2,"mosquito_risk":7,"arthritis_risk":5,"migraine_risk":4,"frizz_risk":1,"updated_at":"2026-03-28T15:11:25.278057+05:30"},{"city":"Hubli-Dharwad","state":"Karnataka","latitude":15.3647,"longitude":75.124,"temp":34.9,"humidity":33,"rain":0.0,"pressure":939.2,"uv_index":9.1,"wind_gusts":50.0,"aqi":95,"pm10":48.5,"pm2_5":37.3,"mosquito_risk":0,"arthritis_risk":5,"migraine_risk":7,"frizz_risk":1,"updated_at":"2026-03-28T15:11:25.278064+05:30"},{"city":"Belgaum","state":"Karnataka","latitude":15.8497,"longitude":74.4977,"temp":28.7,"humidity":47,"rain":0.0,"pressure":924.1,"uv_index":9.2,"wind_gusts":39.6,"aqi":111,"pm10":41.1,"pm2_5":31.5,"mosquito_risk":4,"arthritis_risk":5,"migraine_risk":7,"frizz_risk":1,"updated_at":"2026-03-28T15:11:28.592737+05:30"},{"city":"Coimbatore","state":"Tamil Nadu","latitude":11.0168,"longitude":76.9558,"temp":35.0,"humidity":44,"rain":0.0,"pressure":959.3,"uv_index":9.45,"wind_gusts":54.7,"aqi":84,"pm10":35.2,"pm2_5":27.8,"mosquito_risk":0,"arthritis_risk":5,"migraine_risk":7,"frizz_risk":1,"updated_at":"2026-03-28T15:11:28.592766+05:30"},{"city":"Madurai","state":"Tamil Nadu","latitude":9.9252,"longitude":78.1198,"temp":36.5,"humidity":35,"rain":0.0,"pressure":989.1,"uv_index":9.4,"wind_gusts":34.2,"aqi":80,"pm10":28.1,"pm2_5":21.3,"mosquito_risk":0,"arthritis_risk":5,"migraine_risk":10,"frizz_risk":1,"updated_at":"2026-03-28T15:11:28.592775+05:30"},{"city":"Trichy","state":"Tamil Nadu","latitude":10.7905,"longitude":78.7047,"temp":36.5,"humidity":35,"rain":0.0,"pressure":995.9,"uv_index":9.35,"wind_gusts":23.4,"aqi":78,"pm10":28.7,"pm2_5":21.3,"mosquito_risk":0,"arthritis_risk":5,"migraine_risk":10,"frizz_risk":1,"updated_at":"2026-03-28T15:11:28.592783+05:30"},{"city":"Salem","state":"Tamil Nadu","latitude":11.6643,"longitude":78.146,"temp":37.9,"humidity":28,"rain":0.0,"pressure":973.6,"uv_index":9.4,"wind_gusts":23.8,"aqi":102,"pm10":42.1,"pm2_5":33.6,"mosquito_risk":0,"arthritis_risk":5,"migraine_risk":10,"frizz_risk":1,"updated_at":"2026-03-28T15:11:28.592790+05:30"},{"city":"Tirunelveli","state":"Tamil Nadu","latitude":8.7139,"longitude":77.7567,"temp":38.9,"humidity":23,"rain":0.0,"pressure":998.9,"uv_index":9.35,"wind_gusts":45.0,"aqi":66,"pm10":25.0,"pm2_5":20.1,"mosquito_risk":0,"arthritis_risk":5,"migraine_risk":10,"frizz_risk":0,"updated_at":"2026-03-28T15:11:28.592796+05:30"},{"city":"Vellore","state":"Tamil Nadu","latitude":12.9165,"longitude":79.1325,"temp":35.7,"humidity":33,"rain":0.0,"pressure":981.1,"uv_index":9.35,"wind_gusts":28.4,"aqi":118,"pm10":49.6,"pm2_5":38.0,"mosquito_risk":0,"arthritis_risk":5,"migraine_risk":10,"frizz_risk":1,"updated_at":"2026-03-28T15:11:28.592802+05:30"},{"city":"Erode","state":"Tamil Nadu","latitude":11.341,"longitude":77.7172,"temp":38.4,"humidity":26,"rain":0.0,"pressure":984.7,"uv_index":9.35,"wind_gusts":22.3,"aqi":90,"pm10":37.0,"pm2_5":29.1,"mosquito_risk":0,"arthritis_risk":5,"migraine_risk":10,"frizz_risk":0,"updated_at":"2026-03-28T15:11:28.592808+05:30"},{"city":"Kochi","state":"Kerala","latitude":9.9312,"longitude":76.2673,"temp":28.9,"humidity":80,"rain":0.0,"pressure":1005.9,"uv_index":8.8,"wind_gusts":31.3,"aqi":92,"pm10":29.8,"pm2_5":25.6,"mosquito_risk":7,"arthritis_risk":5,"migraine_risk":4,"frizz_risk":1,"updated_at":"2026-03-28T15:11:28.592814+05:30"},{"city":"Thiruvananthapuram","state":"Kerala","latitude":8.5241,"longitude":76.9366,"temp":29.0,"humidity":79,"rain":0.0,"pressure":1005.4,"uv_index":9.15,"wind_gusts":41.0,"aqi":66,"pm10":24.5,"pm2_5":19.3,"mosquito_risk":7,"arthritis_risk":5,"migraine_risk":4,"frizz_risk":1,"updated_at":"2026-03-28T15:11:28.592820+05:30"},{"city":"Kozhikode","state":"Kerala","latitude":11.2588,"longitude":75.7804,"temp":30.2,"humidity":77,"rain":0.0,"pressure":1005.2,"uv_index":9.1,"wind_gusts":28.8,"aqi":80,"pm10":27.1,"pm2_5":21.2,"mosquito_risk":3,"arthritis_risk":5,"migraine_risk":4,"frizz_risk":1,"updated_at":"2026-03-28T15:11:28.592826+05:30"},{"city":"Thrissur","state":"Kerala","latitude":10.5276,"longitude":76.2144,"temp":33.0,"humidity":61,"rain":0.0,"pressure":1004.2,"uv_index":9.15,"wind_gusts":36.7,"aqi":88,"pm10":30.0,"pm2_5":25.6,"mosquito_risk":3,"arthritis_risk":5,"migraine_risk":4,"frizz_risk":1,"updated_at":"2026-03-28T15:11:28.592832+05:30"},{"city":"Kannur","state":"Kerala","latitude":11.8745,"longitude":75.3704,"temp":31.0,"humidity":67,"rain":0.0,"pressure":1004.8,"uv_index":9.1,"wind_gusts":30.6,"aqi":87,"pm10":28.9,"pm2_5":22.6,"mosquito_risk":3,"arthritis_risk":5,"migraine_risk":4,"frizz_risk":1,"updated_at":"2026-03-28T15:11:28.592837+05:30"},{"city":"Patna","state":"Bihar","latitude":25.5941,"longitude":85.1376,"temp":30.9,"humidity":47,"rain":0.0,"pressure":997.8,"uv_index":7.9,"wind_gusts":29.5,"aqi":99,"pm10":70.5,"pm2_5":26.7,"mosquito_risk":0,"arthritis_risk":5,"migraine_risk":7,"frizz_risk":1,"updated_at":"2026-03-28T15:11:28.592843+05:30"},{"city":"Gaya","state":"Bihar","latitude":24.7914,"longitude":85.0002,"temp":30.4,"humidity":49,"rain":0.0,"pressure":991.2,"uv_index":7.7,"wind_gusts":24.1,"aqi":76,"pm10":67.8,"pm2_5":23.3,"mosquito_risk":0,"arthritis_risk":5,"migraine_risk":7,"frizz_risk":1,"updated_at":"2026-03-28T15:11:28.592848+05:30"},{"city":"Muzaffarpur","state":"Bihar","latitude":26.1209,"longitude":85.3647,"temp":30.4,"humidity":47,"rain":0.0,"pressure":997.9,"uv_index":7.85,"wind_gusts":19.8,"aqi":120,"pm10":75.4,"pm2_5":32.6,"mosquito_risk":0,"arthritis_risk":5,"migraine_risk":7,"frizz_risk":1,"updated_at":"2026-03-28T15:11:28.592854+05:30"},{"city":"Bhagalpur","state":"Bihar","latitude":25.2425,"longitude":87.0117,"temp":28.9,"humidity":58,"rain":0.0,"pressure":999.3,"uv_index":7.3,"wind_gusts":25.2,"aqi":118,"pm10":65.2,"pm2_5":35.6,"mosquito_risk":4,"arthritis_risk":5,"migraine_risk":7,"frizz_risk":1,"updated_at":"2026-03-28T15:11:28.592860+05:30"},{"city":"Ranchi","state":"Jharkhand","latitude":23.3441,"longitude":85.3096,"temp":29.1,"humidity":39,"rain":0.0,"pressure":934.7,"uv_index":8.7,"wind_gusts":33.1,"aqi":111,"pm10":49.0,"pm2_5":30.9,"mosquito_risk":4,"arthritis_risk":5,"migraine_risk":7,"frizz_risk":0,"updated_at":"2026-03-28T15:11:28.592865+05:30"},{"city":"Jamshedpur","state":"Jharkhand","latitude":22.8046,"longitude":86.2029,"temp":33.0,"humidity":45,"rain":0.0,"pressure":987.2,"uv_index":8.5,"wind_gusts":32.4,"aqi":108,"pm10":69.6,"pm2_5":53.2,"mosquito_risk":0,"arthritis_risk":5,"migraine_risk":7,"frizz_risk":1,"updated_at":"2026-03-28T15:11:28.592871+05:30"},{"city":"Dhanbad","state":"Jharkhand","latitude":23.7957,"longitude":86.4304,"temp":32.3,"humidity":36,"rain":0.0,"pressure":976.5,"uv_index":8.4,"wind_gusts":33.8,"aqi":152,"pm10":82.0,"pm2_5":63.3,"mosquito_risk":0,"arthritis_risk":5,"migraine_risk":7,"frizz_risk":0,"updated_at":"2026-03-28T15:11:28.592877+05:30"},{"city":"Bokaro","state":"Jharkhand","latitude":23.6693,"longitude":86.1511,"temp":32.0,"humidity":45,"rain":0.0,"pressure":980.4,"uv_index":8.45,"wind_gusts":31.0,"aqi":138,"pm10":73.1,"pm2_5":54.5,"mosquito_risk":0,"arthritis_risk":5,"migraine_risk":7,"frizz_risk":1,"updated_at":"2026-03-28T15:11:28.592883+05:30"},{"city":"Bhubaneswar","state":"Odisha","latitude":20.2961,"longitude":85.8245,"temp":34.0,"humidity":50,"rain":0.0,"pressure":998.8,"uv_index":8.8,"wind_gusts":36.7,"aqi":116,"pm10":54.0,"pm2_5":44.6,"mosquito_risk":0,"arthritis_risk":5,"migraine_risk":7,"frizz_risk":1,"updated_at":"2026-03-28T15:11:28.592889+05:30"},{"city":"Cuttack","state":"Odisha","latitude":20.4625,"longitude":85.8828,"temp":36.5,"humidity":44,"rain":0.0,"pressure":1000.2,"uv_index":8.85,"wind_gusts":34.6,"aqi":116,"pm10":54.0,"pm2_5":44.6,"mosquito_risk":0,"arthritis_risk":5,"migraine_risk":7,"frizz_risk":1,"updated_at":"2026-03-28T15:11:28.592895+05:30"},{"city":"Rourkela","state":"Odisha","latitude":22.2604,"longitude":84.8536,"temp":35.3,"humidity":36,"rain":0.0,"pressure":981.1,"uv_index":8.45,"wind_gusts":43.9,"aqi":133,"pm10":39.1,"pm2_5":25.2,"mosquito_risk":0,"arthritis_risk":5,"migraine_risk":10,"frizz_risk":1,"updated_at":"2026-03-28T15:11:28.592901+05:30"},{"city":"Raipur","state":"Chhattisgarh","latitude":21.2514,"longitude":81.6296,"temp":38.6,"humidity":19,"rain":0.0,"pressure":970.1,"uv_index":8.55,"wind_gusts":34.6,"aqi":99,"pm10":24.8,"pm2_5":15.0,"mosquito_risk":0,"arthritis_risk":5,"migraine_risk":10,"frizz_risk":0,"updated_at":"2026-03-28T15:11:28.592907+05:30"},{"city":"Bhilai","state":"Chhattisgarh","latitude":21.1938,"longitude":81.3509,"temp":38.7,"humidity":20,"rain":0.0,"pressure":970.4,"uv_index":8.6,"wind_gusts":33.8,"aqi":84,"pm10":20.2,"pm2_5":11.4,"mosquito_risk":0,"arthritis_risk":5,"migraine_risk":10,"frizz_risk":0,"updated_at":"2026-03-28T15:11:28.592912+05:30"},{"city":"Guwahati","state":"Assam","latitude":26.1158,"longitude":91.7086,"temp":22.3,"humidity":84,"rain":0.1,"pressure":1000.4,"uv_index":4.5,"wind_gusts":28.1,"aqi":151,"pm10":48.5,"pm2_5":34.2,"mosquito_risk":6,"arthritis_risk":5,"migraine_risk":0,"frizz_risk":1,"updated_at":"2026-03-28T15:11:28.592919+05:30"},{"city":"Agartala","state":"Tripura","latitude":23.8315,"longitude":91.2868,"temp":23.5,"humidity":75,"rain":0.0,"pressure":1004.9,"uv_index":6.4,"wind_gusts":38.5,"aqi":150,"pm10":52.3,"pm2_5":41.6,"mosquito_risk":3,"arthritis_risk":5,"migraine_risk":4,"frizz_risk":1,"updated_at":"2026-03-28T15:11:28.592924+05:30"},{"city":"Shillong","state":"Meghalaya","latitude":25.5788,"longitude":91.8933,"temp":13.3,"humidity":82,"rain":0.0,"pressure":852.7,"uv_index":4.85,"wind_gusts":43.9,"aqi":103,"pm10":34.9,"pm2_5":22.6,"mosquito_risk":3,"arthritis_risk":10,"migraine_risk":3,"frizz_risk":0,"updated_at":"2026-03-28T15:11:28.592930+05:30"},{"city":"Imphal","state":"Manipur","latitude":24.817,"longitude":93.9368,"temp":19.1,"humidity":80,"rain":0.0,"pressure":921.1,"uv_index":7.7,"wind_gusts":55.1,"aqi":144,"pm10":49.2,"pm2_5":34.9,"mosquito_risk":3,"arthritis_risk":5,"migraine_risk":7,"frizz_risk":0,"updated_at":"2026-03-28T15:11:28.592936+05:30"},{"city":"Aizawl","state":"Mizoram","latitude":23.7271,"longitude":92.7176,"temp":19.6,"humidity":77,"rain":0.0,"pressure":890.6,"uv_index":7.2,"wind_gusts":43.9,"aqi":109,"pm10":42.7,"pm2_5":30.0,"mosquito_risk":3,"arthritis_risk":5,"migraine_risk":7,"frizz_risk":0,"updated_at":"2026-03-28T15:11:28.592941+05:30"},{"city":"Kohima","state":"Nagaland","latitude":25.6701,"longitude":94.1077,"temp":14.2,"humidity":92,"rain":0.0,"pressure":852.2,"uv_index":4.95,"wind_gusts":77.0,"aqi":105,"pm10":37.0,"pm2_5":28.5,"mosquito_risk":3,"arthritis_risk":10,"migraine_risk":3,"frizz_risk":0,"updated_at":"2026-03-28T15:11:28.592947+05:30"},{"city":"Gangtok","state":"Sikkim","latitude":27.3314,"longitude":88.6138,"temp":15.2,"humidity":83,"rain":0.0,"pressure":834.0,"uv_index":7.6,"wind_gusts":20.2,"aqi":105,"pm10":26.0,"pm2_5":16.2,"mosquito_risk":3,"arthritis_risk":10,"migraine_risk":7,"frizz_risk":0,"updated_at":"2026-03-28T15:11:28.592953+05:30"},{"city":"Siliguri","state":"West Bengal","latitude":26.7271,"longitude":88.3953,"temp":21.9,"humidity":79,"rain":0.0,"pressure":992.4,"uv_index":7.35,"wind_gusts":26.3,"aqi":153,"pm10":51.3,"pm2_5":33.3,"mosquito_risk":3,"arthritis_risk":5,"migraine_risk":7,"frizz_risk":1,"updated_at":"2026-03-28T15:11:31.917134+05:30"},{"city":"Durgapur","state":"West Bengal","latitude":23.5204,"longitude":87.3119,"temp":32.6,"humidity":45,"rain":0.0,"pressure":991.7,"uv_index":8.35,"wind_gusts":35.6,"aqi":126,"pm10":78.7,"pm2_5":59.3,"mosquito_risk":0,"arthritis_risk":5,"migraine_risk":7,"frizz_risk":1,"updated_at":"2026-03-28T15:11:31.917162+05:30"},{"city":"Asansol","state":"West Bengal","latitude":23.6739,"longitude":86.9524,"temp":32.7,"humidity":42,"rain":0.0,"pressure":990.3,"uv_index":8.4,"wind_gusts":35.3,"aqi":128,"pm10":81.5,"pm2_5":62.4,"mosquito_risk":0,"arthritis_risk":5,"migraine_risk":7,"frizz_risk":1,"updated_at":"2026-03-28T15:11:31.917171+05:30"},{"city":"Pondicherry","state":"Puducherry","latitude":11.9139,"longitude":79.8145,"temp":35.0,"humidity":50,"rain":0.0,"pressure":1004.8,"uv_index":9.25,"wind_gusts":31.3,"aqi":63,"pm10":28.4,"pm2_5":22.7,"mosquito_risk":0,"arthritis_risk":5,"migraine_risk":4,"frizz_risk":1,"updated_at":"2026-03-28T15:11:31.917180+05:30"},{"city":"Port Blair","state":"Andaman and Nicobar Islands","latitude":11.6234,"longitude":92.7265,"temp":28.1,"humidity":81,"rain":0.0,"pressure":1004.0,"uv_index":9.15,"wind_gusts":25.6,"aqi":73,"pm10":38.1,"pm2_5":25.7,"mosquito_risk":7,"arthritis_risk":5,"migraine_risk":4,"frizz_risk":1,"updated_at":"2026-03-28T15:11:31.917188+05:30"},{"city":"Haridwar","state":"Uttarakhand","latitude":29.9457,"longitude":78.1642,"temp":30.1,"humidity":42,"rain":0.0,"pressure":971.2,"uv_index":5.7,"wind_gusts":27.0,"aqi":76,"pm10":21.2,"pm2_5":14.2,"mosquito_risk":0,"arthritis_risk":5,"migraine_risk":3,"frizz_risk":0,"updated_at":"2026-03-28T15:11:31.917196+05:30"},{"city":"Rishikesh","state":"Uttarakhand","latitude":30.0869,"longitude":78.2676,"temp":28.8,"humidity":44,"rain":0.0,"pressure":964.0,"uv_index":5.8,"wind_gusts":25.2,"aqi":61,"pm10":21.5,"pm2_5":12.6,"mosquito_risk":4,"arthritis_risk":5,"migraine_risk":3,"frizz_risk":0,"updated_at":"2026-03-28T15:11:31.917204+05:30"},{"city":"Nainital","state":"Uttarakhand","latitude":29.3919,"longitude":79.4542,"temp":20.7,"humidity":52,"rain":0.0,"pressure":804.1,"uv_index":4.8,"wind_gusts":27.0,"aqi":63,"pm10":32.2,"pm2_5":16.3,"mosquito_risk":0,"arthritis_risk":5,"migraine_risk":3,"frizz_risk":0,"updated_at":"2026-03-28T15:11:31.917211+05:30"},{"city":"Mussoorie","state":"Uttarakhand","latitude":30.4599,"longitude":78.0664,"temp":19.1,"humidity":59,"rain":0.0,"pressure":800.7,"uv_index":5.65,"wind_gusts":26.6,"aqi":69,"pm10":20.7,"pm2_5":15.5,"mosquito_risk":0,"arthritis_risk":5,"migraine_risk":3,"frizz_risk":0,"updated_at":"2026-03-28T15:11:31.917219+05:30"},{"city":"Dharamshala","state":"Himachal Pradesh","latitude":32.219,"longitude":76.3234,"temp":20.8,"humidity":72,"rain":0.0,"pressure":866.8,"uv_index":6.9,"wind_gusts":20.2,"aqi":75,"pm10":17.9,"pm2_5":9.2,"mosquito_risk":3,"arthritis_risk":5,"migraine_risk":7,"frizz_risk":0,"updated_at":"2026-03-28T15:11:31.917226+05:30"},{"city":"Dalhousie","state":"Himachal Pradesh","latitude":32.5387,"longitude":75.971,"temp":19.3,"humidity":61,"rain":0.0,"pressure":802.2,"uv_index":6.5,"wind_gusts":18.7,"aqi":62,"pm10":15.9,"pm2_5":11.9,"mosquito_risk":3,"arthritis_risk":5,"migraine_risk":7,"frizz_risk":0,"updated_at":"2026-03-28T15:11:31.917234+05:30"},{"city":"Patiala","state":"Punjab","latitude":30.3398,"longitude":76.3869,"temp":29.8,"humidity":39,"rain":0.0,"pressure":975.6,"uv_index":5.9,"wind_gusts":17.6,"aqi":97,"pm10":126.7,"pm2_5":25.3,"mosquito_risk":4,"arthritis_risk":5,"migraine_risk":3,"frizz_risk":0,"updated_at":"2026-03-28T15:11:31.917241+05:30"},{"city":"Bhatinda","state":"Punjab","latitude":30.211,"longitude":74.9455,"temp":32.0,"humidity":29,"rain":0.0,"pressure":980.5,"uv_index":6.9,"wind_gusts":17.3,"aqi":79,"pm10":32.7,"pm2_5":12.0,"mosquito_risk":0,"arthritis_risk":5,"migraine_risk":7,"frizz_risk":0,"updated_at":"2026-03-28T15:11:31.917248+05:30"},{"city":"Rohtak","state":"Haryana","latitude":28.8955,"longitude":76.6066,"temp":30.3,"humidity":35,"rain":0.0,"pressure":979.0,"uv_index":6.55,"wind_gusts":14.8,"aqi":148,"pm10":119.0,"pm2_5":21.8,"mosquito_risk":0,"arthritis_risk":5,"migraine_risk":7,"frizz_risk":0,"updated_at":"2026-03-28T15:11:31.917254+05:30"},{"city":"Panipat","state":"Haryana","latitude":29.3909,"longitude":76.9635,"temp":29.7,"humidity":37,"rain":0.0,"pressure":977.7,"uv_index":5.7,"wind_gusts":19.4,"aqi":225,"pm10":135.5,"pm2_5":27.2,"mosquito_risk":4,"arthritis_risk":5,"migraine_risk":3,"frizz_risk":0,"updated_at":"2026-03-28T15:11:31.917261+05:30"},{"city":"Mathura","state":"Uttar Pradesh","latitude":27.4924,"longitude":77.6737,"temp":32.7,"humidity":30,"rain":0.0,"pressure":983.5,"uv_index":6.35,"wind_gusts":21.6,"aqi":236,"pm10":337.1,"pm2_5":38.3,"mosquito_risk":0,"arthritis_risk":5,"migraine_risk":7,"frizz_risk":0,"updated_at":"2026-03-28T15:11:31.917268+05:30"},{"city":"Vrindavan","state":"Uttar Pradesh","latitude":27.5823,"longitude":77.7027,"temp":32.1,"humidity":32,"rain":0.0,"pressure":984.0,"uv_index":6.35,"wind_gusts":22.7,"aqi":236,"pm10":337.1,"pm2_5":38.3,"mosquito_risk":0,"arthritis_risk":5,"migraine_risk":7,"frizz_risk":0,"updated_at":"2026-03-28T15:11:31.917275+05:30"},{"city":"Ayodhya","state":"Uttar Pradesh","latitude":26.7922,"longitude":82.1998,"temp":31.9,"humidity":33,"rain":0.0,"pressure":991.7,"uv_index":6.85,"wind_gusts":31.0,"aqi":97,"pm10":85.7,"pm2_5":27.4,"mosquito_risk":0,"arthritis_risk":5,"migraine_risk":7,"frizz_risk":0,"updated_at":"2026-03-28T15:11:31.917282+05:30"},{"city":"Ratlam","state":"Madhya Pradesh","latitude":23.3315,"longitude":75.0367,"temp":33.3,"humidity":31,"rain":0.0,"pressure":952.1,"uv_index":8.1,"wind_gusts":37.1,"aqi":41,"pm10":13.7,"pm2_5":5.4,"mosquito_risk":0,"arthritis_risk":5,"migraine_risk":7,"frizz_risk":0,"updated_at":"2026-03-28T15:11:31.917289+05:30"},{"city":"Sagar","state":"Madhya Pradesh","latitude":23.8388,"longitude":78.7378,"temp":34.8,"humidity":22,"rain":0.0,"pressure":946.8,"uv_index":8.15,"wind_gusts":32.8,"aqi":51,"pm10":62.2,"pm2_5":12.5,"mosquito_risk":0,"arthritis_risk":5,"migraine_risk":7,"frizz_risk":0,"updated_at":"2026-03-28T15:11:31.917296+05:30"},{"city":"Satna","state":"Madhya Pradesh","latitude":24.6005,"longitude":80.8322,"temp":34.8,"humidity":25,"rain":0.0,"pressure":967.4,"uv_index":8.1,"wind_gusts":29.2,"aqi":70,"pm10":46.3,"pm2_5":15.9,"mosquito_risk":0,"arthritis_risk":5,"migraine_risk":7,"frizz_risk":0,"updated_at":"2026-03-28T15:11:31.917303+05:30"},{"city":"Akola","state":"Maharashtra","latitude":20.7002,"longitude":77.0082,"temp":37.9,"humidity":20,"rain":0.0,"pressure":971.6,"uv_index":8.5,"wind_gusts":34.2,"aqi":46,"pm10":13.1,"pm2_5":6.8,"mosquito_risk":0,"arthritis_risk":5,"migraine_risk":10,"frizz_risk":0,"updated_at":"2026-03-28T15:11:31.917311+05:30"},{"city":"Amravati","state":"Maharashtra","latitude":20.9374,"longitude":77.7796,"temp":37.9,"humidity":22,"rain":0.0,"pressure":963.6,"uv_index":8.45,"wind_gusts":32.8,"aqi":46,"pm10":13.4,"pm2_5":6.8,"mosquito_risk":0,"arthritis_risk":5,"migraine_risk":10,"frizz_risk":0,"updated_at":"2026-03-28T15:11:31.917318+05:30"},{"city":"Latur","state":"Maharashtra","latitude":18.4088,"longitude":76.5604,"temp":36.8,"humidity":17,"rain":0.0,"pressure":937.2,"uv_index":8.8,"wind_gusts":29.9,"aqi":80,"pm10":15.6,"pm2_5":11.5,"mosquito_risk":0,"arthritis_risk":5,"migraine_risk":10,"frizz_risk":0,"updated_at":"2026-03-28T15:11:31.917325+05:30"},{"city":"Nanded","state":"Maharashtra","latitude":19.1383,"longitude":77.3091,"temp":39.2,"humidity":17,"rain":0.0,"pressure":965.1,"uv_index":8.7,"wind_gusts":25.9,"aqi":75,"pm10":9.6,"pm2_5":6.8,"mosquito_risk":0,"arthritis_risk":5,"migraine_risk":10,"frizz_risk":0,"updated_at":"2026-03-28T15:11:31.917332+05:30"},{"city":"Gulbarga","state":"Karnataka","latitude":17.3297,"longitude":76.8343,"temp":39.3,"humidity":15,"rain":0.0,"pressure":955.6,"uv_index":8.9,"wind_gusts":28.8,"aqi":104,"pm10":30.3,"pm2_5":22.5,"mosquito_risk":0,"arthritis_risk":5,"migraine_risk":10,"frizz_risk":0,"updated_at":"2026-03-28T15:11:31.917339+05:30"},{"city":"Bidar","state":"Karnataka","latitude":17.9104,"longitude":77.5199,"temp":37.4,"humidity":16,"rain":0.0,"pressure":932.9,"uv_index":8.85,"wind_gusts":25.9,"aqi":102,"pm10":21.1,"pm2_5":16.3,"mosquito_risk":0,"arthritis_risk":5,"migraine_risk":10,"frizz_risk":0,"updated_at":"2026-03-28T15:11:31.917345+05:30"},{"city":"Hospet","state":"Karnataka","latitude":15.2689,"longitude":76.3909,"temp":36.5,"humidity":28,"rain":0.0,"pressure":953.2,"uv_index":9.1,"wind_gusts":36.7,"aqi":109,"pm10":54.1,"pm2_5":41.8,"mosquito_risk":0,"arthritis_risk":5,"migraine_risk":10,"frizz_risk":0,"updated_at":"2026-03-28T15:11:31.917352+05:30"},{"city":"Tirupur","state":"Tamil Nadu","latitude":11.1085,"longitude":77.3411,"temp":38.0,"humidity":22,"rain":0.0,"pressure":971.3,"uv_index":9.45,"wind_gusts":43.9,"aqi":97,"pm10":34.8,"pm2_5":27.3,"mosquito_risk":0,"arthritis_risk":5,"migraine_risk":10,"frizz_risk":0,"updated_at":"2026-03-28T15:11:31.917359+05:30"},{"city":"Alappuzha","state":"Kerala","latitude":9.4981,"longitude":76.3388,"temp":28.8,"humidity":80,"rain":0.0,"pressure":1006.0,"uv_index":9.15,"wind_gusts":30.2,"aqi":86,"pm10":29.2,"pm2_5":24.6,"mosquito_risk":7,"arthritis_risk":5,"migraine_risk":4,"frizz_risk":1,"updated_at":"2026-03-28T15:11:31.917366+05:30"},{"city":"Munnar","state":"Kerala","latitude":10.0889,"longitude":77.0595,"temp":27.3,"humidity":67,"rain":0.0,"pressure":856.8,"uv_index":9.7,"wind_gusts":38.9,"aqi":77,"pm10":25.6,"pm2_5":20.2,"mosquito_risk":7,"arthritis_risk":5,"migraine_risk":7,"frizz_risk":1,"updated_at":"2026-03-28T15:11:31.917373+05:30"},{"city":"Silchar","state":"Assam","latitude":24.8333,"longitude":92.7789,"temp":22.9,"humidity":78,"rain":0.0,"pressure":1004.4,"uv_index":3.4,"wind_gusts":30.2,"aqi":155,"pm10":61.0,"pm2_5":44.8,"mosquito_risk":3,"arthritis_risk":5,"migraine_risk":0,"frizz_risk":1,"updated_at":"2026-03-28T15:11:31.917379+05:30"},{"city":"Dibrugarh","state":"Assam","latitude":27.4728,"longitude":94.912,"temp":21.4,"humidity":84,"rain":0.1,"pressure":995.9,"uv_index":4.5,"wind_gusts":25.9,"aqi":128,"pm10":65.9,"pm2_5":45.8,"mosquito_risk":6,"arthritis_risk":5,"migraine_risk":3,"frizz_risk":1,"updated_at":"2026-03-28T15:11:31.917386+05:30"}]