[{"city":"Delhi","state":"Delhi","latitude":28.6139,"longitude":77.209,"temp":36.3,"humidity":26,"rain":0.0,"pressure":981.8,"uv_index":7.7,"wind_gusts":45.7,"aqi":474,"pm10":499.2,"pm2_5":129.5,"no2":23.6,"co":552.0,"o3":93.0,"so2":22.3,"mosquito_risk":0,"arthritis_risk":5,"migraine_risk":10,"frizz_risk":0,"updated_at":"2026-05-23T09:02:47.901846+05:30"},{"city":"Mumbai","state":"Maharashtra","latitude":19.076,"longitude":72.8777,"temp":31.0,"humidity":72,"rain":0.1,"pressure":1011.1,"uv_index":7.5,"wind_gusts":36.0,"aqi":57,"pm10":13.1,"pm2_5":9.8,"no2":11.4,"co":279.0,"o3":56.0,"so2":12.3,"mosquito_risk":6,"arthritis_risk":0,"migraine_risk":4,"frizz_risk":1,"updated_at":"2026-05-23T09:02:47.901896+05:30"},{"city":"Bangalore","state":"Karnataka","latitude":12.9716,"longitude":77.5946,"temp":25.6,"humidity":67,"rain":0.0,"pressure":914.3,"uv_index":8.7,"wind_gusts":42.8,"aqi":43,"pm10":10.7,"pm2_5":8.7,"no2":12.6,"co":525.0,"o3":45.0,"so2":5.0,"mosquito_risk":7,"arthritis_risk":5,"migraine_risk":7,"frizz_risk":1,"updated_at":"2026-05-23T09:02:47.901913+05:30"},{"city":"Hyderabad","state":"Telangana","latitude":17.385,"longitude":78.4867,"temp":32.6,"humidity":51,"rain":0.0,"pressure":954.6,"uv_index":9.2,"wind_gusts":55.4,"aqi":84,"pm10":30.5,"pm2_5":25.8,"no2":6.5,"co":352.0,"o3":101.0,"so2":6.4,"mosquito_risk":0,"arthritis_risk":5,"migraine_risk":7,"frizz_risk":1,"updated_at":"2026-05-23T09:02:47.901923+05:30"},{"city":"Chennai","state":"Tamil Nadu","latitude":13.0827,"longitude":80.2707,"temp":35.2,"humidity":44,"rain":0.0,"pressure":1006.8,"uv_index":6.45,"wind_gusts":57.6,"aqi":70,"pm10":29.6,"pm2_5":24.9,"no2":18.1,"co":289.0,"o3":67.0,"so2":9.0,"mosquito_risk":0,"arthritis_risk":5,"migraine_risk":7,"frizz_risk":1,"updated_at":"2026-05-23T09:02:47.901932+05:30"},{"city":"Kolkata","state":"West Bengal","latitude":22.5726,"longitude":88.3639,"temp":32.8,"humidity":73,"rain":0.0,"pressure":1003.8,"uv_index":8.95,"wind_gusts":44.6,"aqi":102,"pm10":64.0,"pm2_5":38.5,"no2":3.2,"co":335.0,"o3":113.0,"so2":6.3,"mosquito_risk":3,"arthritis_risk":5,"migraine_risk":4,"frizz_risk":1,"updated_at":"2026-05-23T09:02:47.901941+05:30"},{"city":"Pune","state":"Maharashtra","latitude":18.5204,"longitude":73.8567,"temp":27.5,"humidity":75,"rain":0.0,"pressure":951.0,"uv_index":8.4,"wind_gusts":35.3,"aqi":50,"pm10":9.4,"pm2_5":7.4,"no2":9.0,"co":181.0,"o3":48.0,"so2":9.1,"mosquito_risk":7,"arthritis_risk":5,"migraine_risk":7,"frizz_risk":1,"updated_at":"2026-05-23T09:02:47.901947+05:30"},{"city":"Ahmedabad","state":"Gujarat","latitude":23.0225,"longitude":72.5714,"temp":31.9,"humidity":63,"rain":0.0,"pressure":1004.7,"uv_index":8.15,"wind_gusts":37.8,"aqi":75,"pm10":36.9,"pm2_5":22.2,"no2":4.3,"co":183.0,"o3":55.0,"so2":5.2,"mosquito_risk":3,"arthritis_risk":5,"migraine_risk":4,"frizz_risk":1,"updated_at":"2026-05-23T09:02:47.901954+05:30"},{"city":"Jaipur","state":"Rajasthan","latitude":26.9124,"longitude":75.7873,"temp":35.7,"humidity":27,"rain":0.0,"pressure":960.3,"uv_index":8.25,"wind_gusts":47.5,"aqi":158,"pm10":267.3,"pm2_5":58.4,"no2":4.7,"co":199.0,"o3":75.0,"so2":5.9,"mosquito_risk":0,"arthritis_risk":5,"migraine_risk":10,"frizz_risk":0,"updated_at":"2026-05-23T09:02:47.901967+05:30"},{"city":"Lucknow","state":"Uttar Pradesh","latitude":26.8467,"longitude":80.9462,"temp":36.5,"humidity":28,"rain":0.0,"pressure":990.6,"uv_index":8.2,"wind_gusts":52.6,"aqi":162,"pm10":239.3,"pm2_5":93.1,"no2":18.5,"co":320.0,"o3":108.0,"so2":15.6,"mosquito_risk":0,"arthritis_risk":5,"migraine_risk":10,"frizz_risk":0,"updated_at":"2026-05-23T09:02:47.901974+05:30"},{"city":"Kanpur","state":"Uttar Pradesh","latitude":26.4499,"longitude":80.3319,"temp":36.8,"humidity":27,"rain":0.0,"pressure":989.4,"uv_index":8.25,"wind_gusts":46.1,"aqi":322,"pm10":442.4,"pm2_5":114.6,"no2":11.6,"co":321.0,"o3":102.0,"so2":14.3,"mosquito_risk":0,"arthritis_risk":5,"migraine_risk":10,"frizz_risk":0,"updated_at":"2026-05-23T09:02:47.901980+05:30"},{"city":"Chandigarh","state":"Chandigarh","latitude":30.7333,"longitude":76.7794,"temp":34.6,"humidity":26,"rain":0.0,"pressure":967.6,"uv_index":7.75,"wind_gusts":42.5,"aqi":88,"pm10":94.1,"pm2_5":32.4,"no2":8.5,"co":531.0,"o3":124.0,"so2":12.1,"mosquito_risk":0,"arthritis_risk":5,"migraine_risk":7,"frizz_risk":0,"updated_at":"2026-05-23T09:02:47.901987+05:30"},{"city":"Srinagar","state":"Jammu and Kashmir","latitude":34.0837,"longitude":74.7973,"temp":15.4,"humidity":77,"rain":0.0,"pressure":846.1,"uv_index":8.85,"wind_gusts":28.8,"aqi":68,"pm10":38.6,"pm2_5":17.9,"no2":10.5,"co":387.0,"o3":62.0,"so2":3.0,"mosquito_risk":3,"arthritis_risk":5,"migraine_risk":7,"frizz_risk":0,"updated_at":"2026-05-23T09:02:47.901994+05:30"},{"city":"Jammu","state":"Jammu and Kashmir","latitude":32.7266,"longitude":74.857,"temp":32.7,"humidity":28,"rain":0.0,"pressure":971.6,"uv_index":8.5,"wind_gusts":40.3,"aqi":84,"pm10":35.6,"pm2_5":22.5,"no2":18.7,"co":295.0,"o3":47.0,"so2":3.1,"mosquito_risk":0,"arthritis_risk":5,"migraine_risk":7,"frizz_risk":0,"updated_at":"2026-05-23T09:02:47.902000+05:30"},{"city":"Amritsar","state":"Punjab","latitude":31.634,"longitude":74.8723,"temp":32.7,"humidity":39,"rain":0.0,"pressure":979.1,"uv_index":8.4,"wind_gusts":31.3,"aqi":140,"pm10":78.9,"pm2_5":44.9,"no2":22.0,"co":344.0,"o3":81.0,"so2":11.2,"mosquito_risk":0,"arthritis_risk":5,"migraine_risk":7,"frizz_risk":1,"updated_at":"2026-05-23T09:02:47.902006+05:30"},{"city":"Ludhiana","state":"Punjab","latitude":30.901,"longitude":75.8573,"temp":33.6,"humidity":32,"rain":0.0,"pressure":977.3,"uv_index":8.0,"wind_gusts":40.7,"aqi":105,"pm10":94.3,"pm2_5":45.2,"no2":12.3,"co":421.0,"o3":108.0,"so2":10.2,"mosquito_risk":0,"arthritis_risk":5,"migraine_risk":7,"frizz_risk":0,"updated_at":"2026-05-23T09:02:47.902015+05:30"},{"city":"Jalandhar","state":"Punjab","latitude":31.326,"longitude":75.5762,"temp":32.2,"humidity":35,"rain":0.0,"pressure":978.0,"uv_index":8.2,"wind_gusts":39.2,"aqi":116,"pm10":120.6,"pm2_5":51.3,"no2":14.1,"co":531.0,"o3":101.0,"so2":6.5,"mosquito_risk":0,"arthritis_risk":5,"migraine_risk":7,"frizz_risk":0,"updated_at":"2026-05-23T09:02:47.902021+05:30"},{"city":"Dehradun","state":"Uttarakhand","latitude":30.6284,"longitude":78.0322,"temp":24.8,"humidity":34,"rain":0.0,"pressure":833.0,"uv_index":8.2,"wind_gusts":43.6,"aqi":69,"pm10":59.8,"pm2_5":13.7,"no2":2.4,"co":170.0,"o3":108.0,"so2":0.3,"mosquito_risk":0,"arthritis_risk":5,"migraine_risk":7,"frizz_risk":0,"updated_at":"2026-05-23T09:02:47.902028+05:30"},{"city":"Shimla","state":"Himachal Pradesh","latitude":31.1048,"longitude":77.1734,"temp":21.5,"humidity":28,"rain":0.0,"pressure":788.2,"uv_index":8.25,"wind_gusts":49.7,"aqi":72,"pm10":92.4,"pm2_5":22.2,"no2":1.9,"co":151.0,"o3":115.0,"so2":1.2,"mosquito_risk":0,"arthritis_risk":5,"migraine_risk":7,"frizz_risk":0,"updated_at":"2026-05-23T09:02:47.902053+05:30"},{"city":"Manali","state":"Himachal Pradesh","latitude":32.2396,"longitude":77.1887,"temp":21.6,"humidity":36,"rain":0.0,"pressure":822.1,"uv_index":9.5,"wind_gusts":40.3,"aqi":42,"pm10":4.6,"pm2_5":2.2,"no2":9.2,"co":163.0,"o3":100.0,"so2":0.1,"mosquito_risk":0,"arthritis_risk":5,"migraine_risk":7,"frizz_risk":0,"updated_at":"2026-05-23T09:02:47.902059+05:30"},{"city":"Gurgaon","state":"Haryana","latitude":28.4595,"longitude":77.0266,"temp":35.9,"humidity":27,"rain":0.0,"pressure":980.2,"uv_index":7.85,"wind_gusts":42.1,"aqi":929,"pm10":1221.9,"pm2_5":224.4,"no2":24.2,"co":490.0,"o3":91.0,"so2":22.1,"mosquito_risk":0,"arthritis_risk":5,"migraine_risk":10,"frizz_risk":0,"updated_at":"2026-05-23T09:02:47.902066+05:30"},{"city":"Noida","state":"Uttar Pradesh","latitude":28.5355,"longitude":77.391,"temp":36.5,"humidity":26,"rain":0.0,"pressure":982.9,"uv_index":7.75,"wind_gusts":39.6,"aqi":929,"pm10":1221.9,"pm2_5":224.4,"no2":24.2,"co":573.0,"o3":91.0,"so2":22.1,"mosquito_risk":0,"arthritis_risk":5,"migraine_risk":10,"frizz_risk":0,"updated_at":"2026-05-23T09:02:47.902072+05:30"},{"city":"Ghaziabad","state":"Uttar Pradesh","latitude":28.6692,"longitude":77.4538,"temp":36.3,"humidity":26,"rain":0.0,"pressure":981.2,"uv_index":7.7,"wind_gusts":42.5,"aqi":195,"pm10":245.9,"pm2_5":75.7,"no2":15.7,"co":478.0,"o3":118.0,"so2":22.2,"mosquito_risk":0,"arthritis_risk":5,"migraine_risk":10,"frizz_risk":0,"updated_at":"2026-05-23T09:02:47.902078+05:30"},{"city":"Faridabad","state":"Haryana","latitude":28.4089,"longitude":77.3178,"temp":36.4,"humidity":26,"rain":0.0,"pressure":982.4,"uv_index":7.8,"wind_gusts":44.3,"aqi":929,"pm10":1221.9,"pm2_5":224.4,"no2":24.2,"co":469.0,"o3":91.0,"so2":22.1,"mosquito_risk":0,"arthritis_risk":5,"migraine_risk":10,"frizz_risk":0,"updated_at":"2026-05-23T09:02:47.902085+05:30"},{"city":"Meerut","state":"Uttar Pradesh","latitude":28.9845,"longitude":77.7064,"temp":34.2,"humidity":34,"rain":0.0,"pressure":980.0,"uv_index":7.65,"wind_gusts":48.2,"aqi":195,"pm10":245.9,"pm2_5":75.7,"no2":15.7,"co":314.0,"o3":118.0,"so2":22.2,"mosquito_risk":0,"arthritis_risk":5,"migraine_risk":7,"frizz_risk":0,"updated_at":"2026-05-23T09:02:47.902091+05:30"},{"city":"Agra","state":"Uttar Pradesh","latitude":27.1767,"longitude":78.0081,"temp":36.2,"humidity":26,"rain":0.0,"pressure":986.4,"uv_index":8.1,"wind_gusts":40.7,"aqi":615,"pm10":603.5,"pm2_5":135.5,"no2":19.4,"co":344.0,"o3":97.0,"so2":19.0,"mosquito_risk":0,"arthritis_risk":5,"migraine_risk":10,"frizz_risk":0,"updated_at":"2026-05-23T09:02:47.902097+05:30"},{"city":"Varanasi","state":"Uttar Pradesh","latitude":25.3176,"longitude":82.9739,"temp":38.0,"humidity":36,"rain":0.0,"pressure":994.4,"uv_index":8.75,"wind_gusts":50.0,"aqi":156,"pm10":75.2,"pm2_5":33.9,"no2":13.4,"co":311.0,"o3":93.0,"so2":9.4,"mosquito_risk":0,"arthritis_risk":5,"migraine_risk":10,"frizz_risk":1,"updated_at":"2026-05-23T09:02:47.902104+05:30"},{"city":"Prayagraj","state":"Uttar Pradesh","latitude":25.4358,"longitude":81.8463,"temp":37.5,"humidity":23,"rain":0.0,"pressure":993.3,"uv_index":8.65,"wind_gusts":41.8,"aqi":150,"pm10":76.4,"pm2_5":37.5,"no2":13.1,"co":232.0,"o3":88.0,"so2":8.6,"mosquito_risk":0,"arthritis_risk":5,"migraine_risk":10,"frizz_risk":0,"updated_at":"2026-05-23T09:02:47.902110+05:30"},{"city":"Gorakhpur","state":"Uttar Pradesh","latitude":26.7606,"longitude":83.3732,"temp":32.8,"humidity":65,"rain":0.0,"pressure":994.6,"uv_index":8.65,"wind_gusts":41.4,"aqi":161,"pm10":83.6,"pm2_5":65.0,"no2":5.5,"co":423.0,"o3":147.0,"so2":14.1,"mosquito_risk":3,"arthritis_risk":5,"migraine_risk":7,"frizz_risk":1,"updated_at":"2026-05-23T09:02:47.902119+05:30"},{"city":"Bareilly","state":"Uttar Pradesh","latitude":28.367,"longitude":79.4304,"temp":33.0,"humidity":37,"rain":0.0,"pressure":984.4,"uv_index":8.05,"wind_gusts":45.0,"aqi":155,"pm10":70.3,"pm2_5":41.0,"no2":13.4,"co":290.0,"o3":106.0,"so2":13.0,"mosquito_risk":0,"arthritis_risk":5,"migraine_risk":7,"frizz_risk":1,"updated_at":"2026-05-23T09:02:47.902125+05:30"},{"city":"Aligarh","state":"Uttar Pradesh","latitude":27.8974,"longitude":78.088,"temp":35.5,"humidity":31,"rain":0.0,"pressure":983.9,"uv_index":7.9,"wind_gusts":42.1,"aqi":543,"pm10":401.4,"pm2_5":94.5,"no2":16.5,"co":437.0,"o3":97.0,"so2":20.0,"mosquito_risk":0,"arthritis_risk":5,"migraine_risk":10,"frizz_risk":0,"updated_at":"2026-05-23T09:02:47.902131+05:30"},{"city":"Moradabad","state":"Uttar Pradesh","latitude":28.8386,"longitude":78.7733,"temp":33.5,"humidity":36,"rain":0.0,"pressure":981.6,"uv_index":7.85,"wind_gusts":51.5,"aqi":157,"pm10":63.3,"pm2_5":37.0,"no2":12.4,"co":334.0,"o3":107.0,"so2":13.1,"mosquito_risk":0,"arthritis_risk":5,"migraine_risk":7,"frizz_risk":1,"updated_at":"2026-05-23T09:02:47.902137+05:30"},{"city":"Saharanpur","state":"Uttar Pradesh","latitude":29.9637,"longitude":77.546,"temp":32.8,"humidity":37,"rain":0.0,"pressure":974.0,"uv_index":7.4,"wind_gusts":51.8,"aqi":149,"pm10":85.2,"pm2_5":42.4,"no2":13.2,"co":310.0,"o3":111.0,"so2":9.3,"mosquito_risk":0,"arthritis_risk":5,"migraine_risk":7,"frizz_risk":1,"updated_at":"2026-05-23T09:02:47.902143+05:30"},{"city":"Jhansi","state":"Uttar Pradesh","latitude":25.4484,"longitude":78.5685,"temp":36.4,"humidity":23,"rain":0.0,"pressure":977.6,"uv_index":8.5,"wind_gusts":43.9,"aqi":72,"pm10":92.7,"pm2_5":31.2,"no2":2.8,"co":163.0,"o3":81.0,"so2":3.9,"mosquito_risk":0,"arthritis_risk":5,"migraine_risk":10,"frizz_risk":0,"updated_at":"2026-05-23T09:02:51.146640+05:30"},{"city":"Surat","state":"Gujarat","latitude":21.1702,"longitude":72.8311,"temp":32.9,"humidity":64,"rain":0.0,"pressure":1009.2,"uv_index":7.6,"wind_gusts":40.0,"aqi":68,"pm10":18.1,"pm2_5":14.2,"no2":15.3,"co":295.0,"o3":43.0,"so2":38.5,"mosquito_risk":3,"arthritis_risk":0,"migraine_risk":4,"frizz_risk":1,"updated_at":"2026-05-23T09:02:51.146678+05:30"},{"city":"Vadodara","state":"Gujarat","latitude":22.3072,"longitude":73.1812,"temp":33.6,"humidity":54,"rain":0.0,"pressure":1006.7,"uv_index":8.1,"wind_gusts":46.4,"aqi":71,"pm10":20.3,"pm2_5":14.2,"no2":4.4,"co":186.0,"o3":50.0,"so2":5.2,"mosquito_risk":0,"arthritis_risk":5,"migraine_risk":4,"frizz_risk":1,"updated_at":"2026-05-23T09:02:51.146688+05:30"},{"city":"Rajkot","state":"Gujarat","latitude":22.3039,"longitude":70.8022,"temp":31.7,"humidity":62,"rain":0.0,"pressure":996.8,"uv_index":7.75,"wind_gusts":46.1,"aqi":71,"pm10":32.1,"pm2_5":18.1,"no2":3.0,"co":124.0,"o3":54.0,"so2":5.3,"mosquito_risk":3,"arthritis_risk":5,"migraine_risk":7,"frizz_risk":1,"updated_at":"2026-05-23T09:02:51.146697+05:30"},{"city":"Thane","state":"Maharashtra","latitude":19.2183,"longitude":72.9781,"temp":30.7,"humidity":76,"rain":0.0,"pressure":1010.5,"uv_index":6.3,"wind_gusts":34.9,"aqi":57,"pm10":13.1,"pm2_5":9.8,"no2":11.4,"co":251.0,"o3":56.0,"so2":12.3,"mosquito_risk":3,"arthritis_risk":0,"migraine_risk":4,"frizz_risk":1,"updated_at":"2026-05-23T09:02:51.146705+05:30"},{"city":"Nagpur","state":"Maharashtra","latitude":21.1458,"longitude":79.0882,"temp":38.5,"humidity":19,"rain":0.0,"pressure":973.2,"uv_index":8.95,"wind_gusts":55.8,"aqi":60,"pm10":27.2,"pm2_5":20.1,"no2":6.2,"co":209.0,"o3":113.0,"so2":14.3,"mosquito_risk":0,"arthritis_risk":5,"migraine_risk":10,"frizz_risk":0,"updated_at":"2026-05-23T09:02:51.146713+05:30"},{"city":"Nashik","state":"Maharashtra","latitude":19.9975,"longitude":73.7898,"temp":29.3,"humidity":62,"rain":0.0,"pressure":948.8,"uv_index":5.95,"wind_gusts":43.9,"aqi":52,"pm10":14.6,"pm2_5":10.7,"no2":8.7,"co":175.0,"o3":49.0,"so2":13.3,"mosquito_risk":7,"arthritis_risk":5,"migraine_risk":3,"frizz_risk":1,"updated_at":"2026-05-23T09:02:51.146720+05:30"},{"city":"Aurangabad","state":"Maharashtra","latitude":19.8762,"longitude":75.3433,"temp":31.2,"humidity":50,"rain":0.0,"pressure":947.1,"uv_index":9.05,"wind_gusts":41.8,"aqi":61,"pm10":16.7,"pm2_5":11.6,"no2":6.7,"co":193.0,"o3":66.0,"so2":12.5,"mosquito_risk":0,"arthritis_risk":5,"migraine_risk":7,"frizz_risk":1,"updated_at":"2026-05-23T09:02:51.146728+05:30"},{"city":"Solapur","state":"Maharashtra","latitude":17.6599,"longitude":75.9064,"temp":30.9,"humidity":56,"rain":0.0,"pressure":960.1,"uv_index":9.0,"wind_gusts":46.4,"aqi":70,"pm10":11.1,"pm2_5":8.8,"no2":5.7,"co":199.0,"o3":58.0,"so2":3.5,"mosquito_risk":0,"arthritis_risk":5,"migraine_risk":7,"frizz_risk":1,"updated_at":"2026-05-23T09:02:51.146735+05:30"},{"city":"Kolhapur","state":"Maharashtra","latitude":16.705,"longitude":74.2433,"temp":28.9,"humidity":65,"rain":0.0,"pressure":951.1,"uv_index":8.85,"wind_gusts":41.8,"aqi":40,"pm10":7.0,"pm2_5":5.8,"no2":4.0,"co":162.0,"o3":55.0,"so2":1.8,"mosquito_risk":7,"arthritis_risk":5,"migraine_risk":7,"frizz_risk":1,"updated_at":"2026-05-23T09:02:51.146743+05:30"},{"city":"Goa","state":"Goa","latitude":15.2993,"longitude":74.124,"temp":30.4,"humidity":74,"rain":0.1,"pressure":1001.0,"uv_index":7.15,"wind_gusts":31.7,"aqi":36,"pm10":7.5,"pm2_5":5.8,"no2":2.1,"co":163.0,"o3":61.0,"so2":1.0,"mosquito_risk":6,"arthritis_risk":5,"migraine_risk":4,"frizz_risk":1,"updated_at":"2026-05-23T09:02:51.146750+05:30"},{"city":"Jodhpur","state":"Rajasthan","latitude":26.2389,"longitude":73.0243,"temp":33.8,"humidity":41,"rain":0.0,"pressure":983.9,"uv_index":8.4,"wind_gusts":43.6,"aqi":153,"pm10":421.9,"pm2_5":104.8,"no2":2.5,"co":132.0,"o3":64.0,"so2":4.9,"mosquito_risk":0,"arthritis_risk":5,"migraine_risk":7,"frizz_risk":1,"updated_at":"2026-05-23T09:02:51.146757+05:30"},{"city":"Udaipur","state":"Rajasthan","latitude":24.5854,"longitude":73.7125,"temp":32.8,"humidity":35,"rain":0.0,"pressure":948.7,"uv_index":8.85,"wind_gusts":37.4,"aqi":83,"pm10":78.2,"pm2_5":34.1,"no2":2.1,"co":157.0,"o3":71.0,"so2":3.8,"mosquito_risk":0,"arthritis_risk":5,"migraine_risk":7,"frizz_risk":0,"updated_at":"2026-05-23T09:02:51.146765+05:30"},{"city":"Kota","state":"Rajasthan","latitude":25.2138,"longitude":75.8648,"temp":36.7,"humidity":25,"rain":0.0,"pressure":979.3,"uv_index":8.45,"wind_gusts":46.4,"aqi":71,"pm10":81.0,"pm2_5":34.1,"no2":4.0,"co":187.0,"o3":76.0,"so2":5.9,"mosquito_risk":0,"arthritis_risk":5,"migraine_risk":10,"frizz_risk":0,"updated_at":"2026-05-23T09:02:51.146772+05:30"},{"city":"Bikaner","state":"Rajasthan","latitude":28.0229,"longitude":73.3119,"temp":36.6,"humidity":30,"rain":0.0,"pressure":981.4,"uv_index":8.4,"wind_gusts":43.6,"aqi":144,"pm10":208.6,"pm2_5":72.6,"no2":1.4,"co":148.0,"o3":79.0,"so2":4.1,"mosquito_risk":0,"arthritis_risk":5,"migraine_risk":10,"frizz_risk":1,"updated_at":"2026-05-23T09:02:51.146779+05:30"},{"city":"Ajmer","state":"Rajasthan","latitude":26.4499,"longitude":74.6399,"temp":32.4,"humidity":40,"rain":0.0,"pressure":956.0,"uv_index":8.4,"wind_gusts":51.5,"aqi":94,"pm10":130.9,"pm2_5":50.1,"no2":2.7,"co":153.0,"o3":70.0,"so2":4.9,"mosquito_risk":0,"arthritis_risk":5,"migraine_risk":7,"frizz_risk":1,"updated_at":"2026-05-23T09:02:51.146786+05:30"},{"city":"Gwalior","state":"Madhya Pradesh","latitude":26.2183,"longitude":78.1828,"temp":36.6,"humidity":21,"rain":0.0,"pressure":982.5,"uv_index":8.3,"wind_gusts":44.3,"aqi":96,"pm10":150.9,"pm2_5":46.0,"no2":5.5,"co":167.0,"o3":75.0,"so2":6.5,"mosquito_risk":0,"arthritis_risk":5,"migraine_risk":10,"frizz_risk":0,"updated_at":"2026-05-23T09:02:51.146793+05:30"},{"city":"Indore","state":"Madhya Pradesh","latitude":22.7196,"longitude":75.8577,"temp":31.9,"humidity":49,"rain":0.0,"pressure":950.6,"uv_index":8.7,"wind_gusts":53.3,"aqi":64,"pm10":23.2,"pm2_5":15.5,"no2":5.6,"co":230.0,"o3":56.0,"so2":11.6,"mosquito_risk":0,"arthritis_risk":5,"migraine_risk":7,"frizz_risk":1,"updated_at":"2026-05-23T09:02:51.146799+05:30"},{"city":"Bhopal","state":"Madhya Pradesh","latitude":23.2599,"longitude":77.4126,"temp":35.1,"humidity":25,"rain":0.0,"pressure":955.3,"uv_index":8.75,"wind_gusts":43.2,"aqi":54,"pm10":41.3,"pm2_5":22.8,"no2":3.2,"co":206.0,"o3":88.0,"so2":8.7,"mosquito_risk":0,"arthritis_risk":5,"migraine_risk":10,"frizz_risk":0,"updated_at":"2026-05-23T09:02:51.146807+05:30"},{"city":"Jabalpur","state":"Madhya Pradesh","latitude":23.1815,"longitude":79.9864,"temp":37.3,"humidity":17,"rain":0.0,"pressure":961.9,"uv_index":8.9,"wind_gusts":39.6,"aqi":58,"pm10":18.8,"pm2_5":12.7,"no2":4.7,"co":189.0,"o3":96.0,"so2":5.5,"mosquito_risk":0,"arthritis_risk":5,"migraine_risk":10,"frizz_risk":0,"updated_at":"2026-05-23T09:02:51.146813+05:30"},{"city":"Ujjain","state":"Madhya Pradesh","latitude":23.1765,"longitude":75.7885,"temp":32.5,"humidity":48,"rain":0.0,"pressure":956.0,"uv_index":8.65,"wind_gusts":49.7,"aqi":64,"pm10":26.0,"pm2_5":16.5,"no2":4.9,"co":183.0,"o3":56.0,"so2":11.3,"mosquito_risk":0,"arthritis_risk":5,"migraine_risk":7,"frizz_risk":1,"updated_at":"2026-05-23T09:02:51.146821+05:30"},{"city":"Visakhapatnam","state":"Andhra Pradesh","latitude":17.6868,"longitude":83.2185,"temp":37.0,"humidity":47,"rain":0.0,"pressure":999.7,"uv_index":9.05,"wind_gusts":30.2,"aqi":140,"pm10":46.3,"pm2_5":41.2,"no2":28.7,"co":533.0,"o3":101.0,"so2":48.5,"mosquito_risk":0,"arthritis_risk":5,"migraine_risk":10,"frizz_risk":1,"updated_at":"2026-05-23T09:02:51.146828+05:30"},{"city":"Vijayawada","state":"Andhra Pradesh","latitude":16.5062,"longitude":80.648,"temp":36.5,"humidity":43,"rain":0.0,"pressure":1000.7,"uv_index":9.1,"wind_gusts":48.2,"aqi":77,"pm10":38.2,"pm2_5":32.5,"no2":6.1,"co":216.0,"o3":108.0,"so2":9.2,"mosquito_risk":0,"arthritis_risk":5,"migraine_risk":7,"frizz_risk":1,"updated_at":"2026-05-23T09:02:51.146836+05:30"},{"city":"Guntur","state":"Andhra Pradesh","latitude":16.3067,"longitude":80.4365,"temp":36.5,"humidity":43,"rain":0.0,"pressure":1002.1,"uv_index":9.15,"wind_gusts":48.6,"aqi":74,"pm10":36.6,"pm2_5":30.5,"no2":5.2,"co":220.0,"o3":108.0,"so2":7.2,"mosquito_risk":0,"arthritis_risk":5,"migraine_risk":7,"frizz_risk":1,"updated_at":"2026-05-23T09:02:51.146843+05:30"},{"city":"Nellore","state":"Andhra Pradesh","latitude":14.4426,"longitude":79.9865,"temp":35.3,"humidity":44,"rain":0.0,"pressure":1005.5,"uv_index":8.85,"wind_gusts":76.3,"aqi":77,"pm10":10.9,"pm2_5":8.1,"no2":5.0,"co":161.0,"o3":72.0,"so2":6.3,"mosquito_risk":0,"arthritis_risk":5,"migraine_risk":7,"frizz_risk":1,"updated_at":"2026-05-23T09:02:51.146851+05:30"},{"city":"Kurnool","state":"Andhra Pradesh","latitude":15.8281,"longitude":78.0373,"temp":31.8,"humidity":56,"rain":0.0,"pressure":979.1,"uv_index":9.1,"wind_gusts":63.4,"aqi":57,"pm10":11.1,"pm2_5":9.0,"no2":5.9,"co":193.0,"o3":60.0,"so2":5.3,"mosquito_risk":0,"arthritis_risk":5,"migraine_risk":7,"frizz_risk":1,"updated_at":"2026-05-23T09:02:51.146859+05:30"},{"city":"Kakinada","state":"Andhra Pradesh","latitude":16.9891,"longitude":82.2475,"temp":36.4,"humidity":42,"rain":0.0,"pressure":1004.0,"uv_index":9.0,"wind_gusts":49.7,"aqi":89,"pm10":35.0,"pm2_5":27.8,"no2":4.9,"co":321.0,"o3":118.0,"so2":7.6,"mosquito_risk":0,"arthritis_risk":5,"migraine_risk":7,"frizz_risk":1,"updated_at":"2026-05-23T09:02:51.146866+05:30"},{"city":"Tirupati","state":"Andhra Pradesh","latitude":13.6288,"longitude":79.4192,"temp":34.0,"humidity":45,"rain":0.0,"pressure":991.5,"uv_index":8.4,"wind_gusts":38.5,"aqi":70,"pm10":15.4,"pm2_5":11.5,"no2":5.0,"co":170.0,"o3":84.0,"so2":2.3,"mosquito_risk":0,"arthritis_risk":5,"migraine_risk":7,"frizz_risk":1,"updated_at":"2026-05-23T09:02:51.146872+05:30"},{"city":"Warangal","state":"Telangana","latitude":17.9689,"longitude":79.5941,"temp":36.5,"humidity":36,"rain":0.0,"pressure":977.9,"uv_index":9.15,"wind_gusts":57.6,"aqi":102,"pm10":29.3,"pm2_5":24.8,"no2":4.2,"co":216.0,"o3":107.0,"so2":6.7,"mosquito_risk":0,"arthritis_risk":5,"migraine_risk":10,"frizz_risk":1,"updated_at":"2026-05-23T09:02:51.146879+05:30"},{"city":"Nizamabad","state":"Telangana","latitude":18.6725,"longitude":78.0941,"temp":35.2,"humidity":41,"rain":0.0,"pressure":966.2,"uv_index":9.1,"wind_gusts":49.3,"aqi":91,"pm10":22.8,"pm2_5":18.9,"no2":4.8,"co":178.0,"o3":94.0,"so2":8.2,"mosquito_risk":0,"arthritis_risk":5,"migraine_risk":10,"frizz_risk":1,"updated_at":"2026-05-23T09:02:51.146885+05:30"},{"city":"Mysore","state":"Karnataka","latitude":12.2958,"longitude":76.6396,"temp":25.5,"humidity":72,"rain":0.0,"pressure":931.4,"uv_index":8.7,"wind_gusts":39.6,"aqi":28,"pm10":7.8,"pm2_5":6.8,"no2":7.5,"co":153.0,"o3":50.0,"so2":2.2,"mosquito_risk":7,"arthritis_risk":5,"migraine_risk":7,"frizz_risk":1,"updated_at":"2026-05-23T09:02:51.146891+05:30"},{"city":"Mangalore","state":"Karnataka","latitude":12.9141,"longitude":74.856,"temp":28.5,"humidity":82,"rain":0.1,"pressure":1010.1,"uv_index":4.85,"wind_gusts":27.4,"aqi":33,"pm10":8.9,"pm2_5":7.1,"no2":4.6,"co":200.0,"o3":60.0,"so2":2.8,"mosquito_risk":10,"arthritis_risk":0,"migraine_risk":0,"frizz_risk":1,"updated_at":"2026-05-23T09:02:51.146898+05:30"},{"city":"Hubli-Dharwad","state":"Karnataka","latitude":15.3647,"longitude":75.124,"temp":27.2,"humidity":73,"rain":0.0,"pressure":944.0,"uv_index":9.05,"wind_gusts":45.4,"aqi":26,"pm10":3.6,"pm2_5":2.6,"no2":2.8,"co":141.0,"o3":63.0,"so2":0.8,"mosquito_risk":7,"arthritis_risk":5,"migraine_risk":7,"frizz_risk":1,"updated_at":"2026-05-23T09:02:51.146905+05:30"},{"city":"Belgaum","state":"Karnataka","latitude":15.8497,"longitude":74.4977,"temp":26.9,"humidity":71,"rain":0.0,"pressure":929.1,"uv_index":9.05,"wind_gusts":39.6,"aqi":29,"pm10":4.9,"pm2_5":3.8,"no2":2.9,"co":138.0,"o3":60.0,"so2":1.6,"mosquito_risk":7,"arthritis_risk":5,"migraine_risk":7,"frizz_risk":1,"updated_at":"2026-05-23T09:02:54.383819+05:30"},{"city":"Coimbatore","state":"Tamil Nadu","latitude":11.0168,"longitude":76.9558,"temp":29.2,"humidity":62,"rain":0.0,"pressure":964.1,"uv_index":9.05,"wind_gusts":47.5,"aqi":22,"pm10":6.7,"pm2_5":5.4,"no2":3.9,"co":175.0,"o3":67.0,"so2":2.3,"mosquito_risk":7,"arthritis_risk":5,"migraine_risk":7,"frizz_risk":1,"updated_at":"2026-05-23T09:02:54.383855+05:30"},{"city":"Madurai","state":"Tamil Nadu","latitude":9.9252,"longitude":78.1198,"temp":32.8,"humidity":48,"rain":0.0,"pressure":994.5,"uv_index":8.2,"wind_gusts":42.8,"aqi":54,"pm10":15.5,"pm2_5":13.4,"no2":12.5,"co":194.0,"o3":67.0,"so2":6.4,"mosquito_risk":0,"arthritis_risk":5,"migraine_risk":7,"frizz_risk":1,"updated_at":"2026-05-23T09:02:54.383867+05:30"},{"city":"Trichy","state":"Tamil Nadu","latitude":10.7905,"longitude":78.7047,"temp":31.5,"humidity":58,"rain":0.0,"pressure":1000.6,"uv_index":8.3,"wind_gusts":46.1,"aqi":28,"pm10":8.2,"pm2_5":7.1,"no2":6.0,"co":163.0,"o3":58.0,"so2":3.9,"mosquito_risk":0,"arthritis_risk":5,"migraine_risk":4,"frizz_risk":1,"updated_at":"2026-05-23T09:02:54.383876+05:30"},{"city":"Salem","state":"Tamil Nadu","latitude":11.6643,"longitude":78.146,"temp":30.3,"humidity":55,"rain":0.0,"pressure":979.4,"uv_index":8.6,"wind_gusts":28.1,"aqi":59,"pm10":16.2,"pm2_5":12.7,"no2":10.8,"co":189.0,"o3":65.0,"so2":13.6,"mosquito_risk":0,"arthritis_risk":5,"migraine_risk":7,"frizz_risk":1,"updated_at":"2026-05-23T09:02:54.383885+05:30"},{"city":"Tirunelveli","state":"Tamil Nadu","latitude":8.7139,"longitude":77.7567,"temp":33.0,"humidity":50,"rain":0.0,"pressure":1004.9,"uv_index":8.3,"wind_gusts":42.8,"aqi":24,"pm10":9.5,"pm2_5":7.7,"no2":4.4,"co":144.0,"o3":63.0,"so2":2.0,"mosquito_risk":0,"arthritis_risk":5,"migraine_risk":4,"frizz_risk":1,"updated_at":"2026-05-23T09:02:54.383893+05:30"},{"city":"Vellore","state":"Tamil Nadu","latitude":12.9165,"longitude":79.1325,"temp":32.2,"humidity":49,"rain":0.0,"pressure":985.1,"uv_index":3.95,"wind_gusts":45.4,"aqi":74,"pm10":14.0,"pm2_5":10.6,"no2":6.5,"co":205.0,"o3":76.0,"so2":4.3,"mosquito_risk":0,"arthritis_risk":5,"migraine_risk":3,"frizz_risk":1,"updated_at":"2026-05-23T09:02:54.383900+05:30"},{"city":"Erode","state":"Tamil Nadu","latitude":11.341,"longitude":77.7172,"temp":31.9,"humidity":48,"rain":0.0,"pressure":991.1,"uv_index":8.95,"wind_gusts":40.0,"aqi":35,"pm10":9.6,"pm2_5":7.8,"no2":6.3,"co":193.0,"o3":61.0,"so2":2.7,"mosquito_risk":0,"arthritis_risk":5,"migraine_risk":7,"frizz_risk":1,"updated_at":"2026-05-23T09:02:54.383908+05:30"},{"city":"Kochi","state":"Kerala","latitude":9.9312,"longitude":76.2673,"temp":28.6,"humidity":81,"rain":0.0,"pressure":1012.0,"uv_index":7.8,"wind_gusts":37.1,"aqi":54,"pm10":15.8,"pm2_5":13.6,"no2":9.6,"co":247.0,"o3":61.0,"so2":5.6,"mosquito_risk":7,"arthritis_risk":0,"migraine_risk":4,"frizz_risk":1,"updated_at":"2026-05-23T09:02:54.383915+05:30"},{"city":"Thiruvananthapuram","state":"Kerala","latitude":8.5241,"longitude":76.9366,"temp":27.9,"humidity":82,"rain":0.1,"pressure":1011.7,"uv_index":8.0,"wind_gusts":45.0,"aqi":30,"pm10":13.0,"pm2_5":10.0,"no2":5.1,"co":180.0,"o3":61.0,"so2":3.1,"mosquito_risk":10,"arthritis_risk":0,"migraine_risk":4,"frizz_risk":1,"updated_at":"2026-05-23T09:02:54.383923+05:30"},{"city":"Kozhikode","state":"Kerala","latitude":11.2588,"longitude":75.7804,"temp":29.1,"humidity":81,"rain":0.1,"pressure":1011.1,"uv_index":8.15,"wind_gusts":37.1,"aqi":28,"pm10":8.4,"pm2_5":6.5,"no2":2.5,"co":190.0,"o3":68.0,"so2":2.2,"mosquito_risk":10,"arthritis_risk":0,"migraine_risk":4,"frizz_risk":1,"updated_at":"2026-05-23T09:02:54.383929+05:30"},{"city":"Thrissur","state":"Kerala","latitude":10.5276,"longitude":76.2144,"temp":29.2,"humidity":81,"rain":0.0,"pressure":1010.3,"uv_index":8.05,"wind_gusts":34.2,"aqi":55,"pm10":12.8,"pm2_5":10.6,"no2":4.8,"co":228.0,"o3":69.0,"so2":3.3,"mosquito_risk":7,"arthritis_risk":0,"migraine_risk":4,"frizz_risk":1,"updated_at":"2026-05-23T09:02:54.383937+05:30"},{"city":"Kannur","state":"Kerala","latitude":11.8745,"longitude":75.3704,"temp":29.3,"humidity":77,"rain":0.0,"pressure":1010.5,"uv_index":8.8,"wind_gusts":33.8,"aqi":34,"pm10":10.3,"pm2_5":8.5,"no2":4.9,"co":211.0,"o3":64.0,"so2":3.0,"mosquito_risk":7,"arthritis_risk":0,"migraine_risk":4,"frizz_risk":1,"updated_at":"2026-05-23T09:02:54.383944+05:30"},{"city":"Patna","state":"Bihar","latitude":25.5941,"longitude":85.1376,"temp":33.5,"humidity":66,"rain":0.0,"pressure":997.6,"uv_index":8.85,"wind_gusts":34.9,"aqi":156,"pm10":76.6,"pm2_5":63.6,"no2":8.3,"co":513.0,"o3":139.0,"so2":21.9,"mosquito_risk":3,"arthritis_risk":5,"migraine_risk":7,"frizz_risk":1,"updated_at":"2026-05-23T09:02:54.383952+05:30"},{"city":"Gaya","state":"Bihar","latitude":24.7914,"longitude":85.0002,"temp":35.5,"humidity":45,"rain":0.0,"pressure":991.0,"uv_index":8.9,"wind_gusts":36.4,"aqi":159,"pm10":107.3,"pm2_5":76.1,"no2":7.5,"co":307.0,"o3":158.0,"so2":20.5,"mosquito_risk":0,"arthritis_risk":5,"migraine_risk":10,"frizz_risk":1,"updated_at":"2026-05-23T09:02:54.383960+05:30"},{"city":"Muzaffarpur","state":"Bihar","latitude":26.1209,"longitude":85.3647,"temp":31.8,"humidity":72,"rain":0.0,"pressure":997.8,"uv_index":8.85,"wind_gusts":26.3,"aqi":154,"pm10":68.9,"pm2_5":55.6,"no2":7.2,"co":469.0,"o3":138.0,"so2":17.5,"mosquito_risk":3,"arthritis_risk":5,"migraine_risk":7,"frizz_risk":1,"updated_at":"2026-05-23T09:02:54.383968+05:30"},{"city":"Bhagalpur","state":"Bihar","latitude":25.2425,"longitude":87.0117,"temp":33.0,"humidity":69,"rain":0.0,"pressure":998.7,"uv_index":8.85,"wind_gusts":32.8,"aqi":147,"pm10":33.1,"pm2_5":27.4,"no2":11.0,"co":489.0,"o3":92.0,"so2":15.3,"mosquito_risk":3,"arthritis_risk":5,"migraine_risk":7,"frizz_risk":1,"updated_at":"2026-05-23T09:02:54.383975+05:30"},{"city":"Ranchi","state":"Jharkhand","latitude":23.3441,"longitude":85.3096,"temp":33.6,"humidity":36,"rain":0.0,"pressure":937.5,"uv_index":9.3,"wind_gusts":33.5,"aqi":139,"pm10":212.3,"pm2_5":61.2,"no2":5.0,"co":285.0,"o3":154.0,"so2":11.7,"mosquito_risk":0,"arthritis_risk":5,"migraine_risk":7,"frizz_risk":1,"updated_at":"2026-05-23T09:02:54.383982+05:30"},{"city":"Jamshedpur","state":"Jharkhand","latitude":22.8046,"longitude":86.2029,"temp":34.9,"humidity":58,"rain":0.0,"pressure":988.8,"uv_index":9.1,"wind_gusts":26.6,"aqi":154,"pm10":98.0,"pm2_5":76.4,"no2":13.9,"co":481.0,"o3":139.0,"so2":42.0,"mosquito_risk":0,"arthritis_risk":5,"migraine_risk":7,"frizz_risk":1,"updated_at":"2026-05-23T09:02:54.383988+05:30"},{"city":"Dhanbad","state":"Jharkhand","latitude":23.7957,"longitude":86.4304,"temp":34.3,"humidity":60,"rain":0.0,"pressure":977.9,"uv_index":9.1,"wind_gusts":38.9,"aqi":162,"pm10":114.1,"pm2_5":87.8,"no2":44.6,"co":455.0,"o3":103.0,"so2":114.5,"mosquito_risk":0,"arthritis_risk":5,"migraine_risk":7,"frizz_risk":1,"updated_at":"2026-05-23T09:02:54.383996+05:30"},{"city":"Bokaro","state":"Jharkhand","latitude":23.6693,"longitude":86.1511,"temp":35.0,"humidity":54,"rain":0.0,"pressure":981.6,"uv_index":9.1,"wind_gusts":29.9,"aqi":166,"pm10":137.8,"pm2_5":76.8,"no2":25.5,"co":467.0,"o3":146.0,"so2":69.8,"mosquito_risk":0,"arthritis_risk":5,"migraine_risk":7,"frizz_risk":1,"updated_at":"2026-05-23T09:02:54.384003+05:30"},{"city":"Bhubaneswar","state":"Odisha","latitude":20.2961,"longitude":85.8245,"temp":33.8,"humidity":70,"rain":0.0,"pressure":1000.3,"uv_index":8.15,"wind_gusts":37.8,"aqi":103,"pm10":51.1,"pm2_5":34.3,"no2":3.1,"co":279.0,"o3":118.0,"so2":7.7,"mosquito_risk":3,"arthritis_risk":5,"migraine_risk":4,"frizz_risk":1,"updated_at":"2026-05-23T09:02:54.384010+05:30"},{"city":"Cuttack","state":"Odisha","latitude":20.4625,"longitude":85.8828,"temp":33.5,"humidity":73,"rain":0.0,"pressure":1002.2,"uv_index":7.9,"wind_gusts":33.5,"aqi":103,"pm10":51.1,"pm2_5":34.3,"no2":3.1,"co":299.0,"o3":118.0,"so2":7.7,"mosquito_risk":3,"arthritis_risk":5,"migraine_risk":4,"frizz_risk":1,"updated_at":"2026-05-23T09:02:54.384017+05:30"},{"city":"Rourkela","state":"Odisha","latitude":22.2604,"longitude":84.8536,"temp":34.5,"humidity":61,"rain":0.0,"pressure":983.2,"uv_index":9.0,"wind_gusts":37.4,"aqi":164,"pm10":112.5,"pm2_5":84.8,"no2":7.6,"co":455.0,"o3":168.0,"so2":33.3,"mosquito_risk":3,"arthritis_risk":5,"migraine_risk":7,"frizz_risk":1,"updated_at":"2026-05-23T09:02:54.384023+05:30"},{"city":"Raipur","state":"Chhattisgarh","latitude":21.2514,"longitude":81.6296,"temp":38.3,"humidity":16,"rain":0.0,"pressure":973.6,"uv_index":8.95,"wind_gusts":39.6,"aqi":137,"pm10":82.9,"pm2_5":72.9,"no2":44.6,"co":438.0,"o3":98.0,"so2":94.6,"mosquito_risk":0,"arthritis_risk":5,"migraine_risk":10,"frizz_risk":0,"updated_at":"2026-05-23T09:02:54.384030+05:30"},{"city":"Bhilai","state":"Chhattisgarh","latitude":21.1938,"longitude":81.3509,"temp":37.2,"humidity":20,"rain":0.0,"pressure":974.2,"uv_index":8.95,"wind_gusts":45.4,"aqi":101,"pm10":76.6,"pm2_5":63.3,"no2":48.2,"co":1084.0,"o3":70.0,"so2":126.0,"mosquito_risk":0,"arthritis_risk":5,"migraine_risk":10,"frizz_risk":0,"updated_at":"2026-05-23T09:02:54.384037+05:30"},{"city":"Guwahati","state":"Assam","latitude":26.1158,"longitude":91.7086,"temp":24.0,"humidity":94,"rain":0.3,"pressure":1001.3,"uv_index":8.75,"wind_gusts":29.5,"aqi":67,"pm10":18.2,"pm2_5":11.9,"no2":3.7,"co":285.0,"o3":106.0,"so2":3.0,"mosquito_risk":6,"arthritis_risk":5,"migraine_risk":4,"frizz_risk":1,"updated_at":"2026-05-23T09:02:54.384044+05:30"},{"city":"Agartala","state":"Tripura","latitude":23.8315,"longitude":91.2868,"temp":29.0,"humidity":86,"rain":0.1,"pressure":1005.5,"uv_index":8.8,"wind_gusts":36.0,"aqi":86,"pm10":23.2,"pm2_5":17.7,"no2":6.0,"co":219.0,"o3":72.0,"so2":3.0,"mosquito_risk":10,"arthritis_risk":5,"migraine_risk":4,"frizz_risk":1,"updated_at":"2026-05-23T09:02:54.384052+05:30"},{"city":"Shillong","state":"Meghalaya","latitude":25.5788,"longitude":91.8933,"temp":24.2,"humidity":69,"rain":0.0,"pressure":858.2,"uv_index":8.5,"wind_gusts":41.0,"aqi":46,"pm10":4.0,"pm2_5":2.7,"no2":4.1,"co":218.0,"o3":91.0,"so2":3.0,"mosquito_risk":3,"arthritis_risk":5,"migraine_risk":7,"frizz_risk":1,"updated_at":"2026-05-23T09:02:54.384059+05:30"},{"city":"Imphal","state":"Manipur","latitude":24.817,"longitude":93.9368,"temp":27.2,"humidity":69,"rain":0.0,"pressure":924.0,"uv_index":9.05,"wind_gusts":38.5,"aqi":66,"pm10":29.7,"pm2_5":15.4,"no2":2.0,"co":271.0,"o3":98.0,"so2":2.5,"mosquito_risk":7,"arthritis_risk":5,"migraine_risk":7,"frizz_risk":1,"updated_at":"2026-05-23T09:02:54.384066+05:30"},{"city":"Aizawl","state":"Mizoram","latitude":23.7271,"longitude":92.7176,"temp":25.6,"humidity":68,"rain":0.0,"pressure":893.9,"uv_index":9.05,"wind_gusts":36.7,"aqi":54,"pm10":29.9,"pm2_5":14.3,"no2":1.1,"co":196.0,"o3":83.0,"so2":1.5,"mosquito_risk":7,"arthritis_risk":5,"migraine_risk":7,"frizz_risk":1,"updated_at":"2026-05-23T09:02:54.384073+05:30"},{"city":"Kohima","state":"Nagaland","latitude":25.6701,"longitude":94.1077,"temp":22.0,"humidity":94,"rain":0.2,"pressure":856.0,"uv_index":9.3,"wind_gusts":26.3,"aqi":51,"pm10":6.3,"pm2_5":3.9,"no2":2.9,"co":258.0,"o3":90.0,"so2":1.3,"mosquito_risk":6,"arthritis_risk":5,"migraine_risk":7,"frizz_risk":1,"updated_at":"2026-05-23T09:02:54.384080+05:30"},{"city":"Gangtok","state":"Sikkim","latitude":27.3314,"longitude":88.6138,"temp":21.8,"humidity":69,"rain":0.0,"pressure":838.2,"uv_index":9.15,"wind_gusts":38.5,"aqi":56,"pm10":20.8,"pm2_5":12.6,"no2":2.2,"co":368.0,"o3":121.0,"so2":1.8,"mosquito_risk":3,"arthritis_risk":5,"migraine_risk":7,"frizz_risk":0,"updated_at":"2026-05-23T09:02:54.384087+05:30"},{"city":"Siliguri","state":"West Bengal","latitude":26.7271,"longitude":88.3953,"temp":25.8,"humidity":85,"rain":0.0,"pressure":992.2,"uv_index":8.75,"wind_gusts":25.2,"aqi":104,"pm10":33.5,"pm2_5":21.0,"no2":3.9,"co":434.0,"o3":132.0,"so2":4.4,"mosquito_risk":7,"arthritis_risk":5,"migraine_risk":7,"frizz_risk":1,"updated_at":"2026-05-23T09:02:57.618440+05:30"},{"city":"Durgapur","state":"West Bengal","latitude":23.5204,"longitude":87.3119,"temp":33.5,"humidity":72,"rain":0.0,"pressure":992.9,"uv_index":9.0,"wind_gusts":46.1,"aqi":152,"pm10":78.0,"pm2_5":64.3,"no2":22.7,"co":749.0,"o3":87.0,"so2":64.0,"mosquito_risk":3,"arthritis_risk":5,"migraine_risk":7,"frizz_risk":1,"updated_at":"2026-05-23T09:02:57.618477+05:30"},{"city":"Asansol","state":"West Bengal","latitude":23.6739,"longitude":86.9524,"temp":34.2,"humidity":68,"rain":0.0,"pressure":991.3,"uv_index":9.05,"wind_gusts":31.3,"aqi":151,"pm10":77.8,"pm2_5":65.0,"no2":25.6,"co":552.0,"o3":86.0,"so2":64.4,"mosquito_risk":3,"arthritis_risk":5,"migraine_risk":7,"frizz_risk":1,"updated_at":"2026-05-23T09:02:57.618489+05:30"},{"city":"Pondicherry","state":"Puducherry","latitude":11.9139,"longitude":79.8145,"temp":32.1,"humidity":56,"rain":0.0,"pressure":1008.5,"uv_index":7.25,"wind_gusts":37.4,"aqi":62,"pm10":16.2,"pm2_5":13.9,"no2":13.7,"co":293.0,"o3":56.0,"so2":3.9,"mosquito_risk":0,"arthritis_risk":0,"migraine_risk":4,"frizz_risk":1,"updated_at":"2026-05-23T09:02:57.618498+05:30"},{"city":"Port Blair","state":"Andaman and Nicobar Islands","latitude":11.6234,"longitude":92.7265,"temp":27.0,"humidity":90,"rain":0.0,"pressure":1009.0,"uv_index":8.15,"wind_gusts":41.8,"aqi":34,"pm10":5.1,"pm2_5":3.3,"no2":0.5,"co":138.0,"o3":74.0,"so2":0.3,"mosquito_risk":7,"arthritis_risk":0,"migraine_risk":4,"frizz_risk":1,"updated_at":"2026-05-23T09:02:57.618506+05:30"},{"city":"Haridwar","state":"Uttarakhand","latitude":29.9457,"longitude":78.1642,"temp":32.5,"humidity":37,"rain":0.0,"pressure":972.0,"uv_index":7.55,"wind_gusts":50.8,"aqi":126,"pm10":77.8,"pm2_5":39.5,"no2":6.7,"co":313.0,"o3":135.0,"so2":5.3,"mosquito_risk":0,"arthritis_risk":5,"migraine_risk":7,"frizz_risk":0,"updated_at":"2026-05-23T09:02:57.618513+05:30"},{"city":"Rishikesh","state":"Uttarakhand","latitude":30.0869,"longitude":78.2676,"temp":32.3,"humidity":34,"rain":0.0,"pressure":965.0,"uv_index":7.65,"wind_gusts":41.4,"aqi":119,"pm10":78.9,"pm2_5":41.8,"no2":3.7,"co":358.0,"o3":134.0,"so2":2.4,"mosquito_risk":0,"arthritis_risk":5,"migraine_risk":7,"frizz_risk":0,"updated_at":"2026-05-23T09:02:57.618521+05:30"},{"city":"Nainital","state":"Uttarakhand","latitude":29.3919,"longitude":79.4542,"temp":24.0,"humidity":28,"rain":0.0,"pressure":808.8,"uv_index":8.5,"wind_gusts":50.8,"aqi":152,"pm10":121.5,"pm2_5":43.9,"no2":2.8,"co":163.0,"o3":140.0,"so2":3.8,"mosquito_risk":0,"arthritis_risk":5,"migraine_risk":7,"frizz_risk":0,"updated_at":"2026-05-23T09:02:57.618528+05:30"},{"city":"Mussoorie","state":"Uttarakhand","latitude":30.4599,"longitude":78.0664,"temp":23.2,"humidity":28,"rain":0.0,"pressure":806.0,"uv_index":8.05,"wind_gusts":60.8,"aqi":95,"pm10":54.7,"pm2_5":25.5,"no2":5.7,"co":149.0,"o3":131.0,"so2":2.6,"mosquito_risk":0,"arthritis_risk":5,"migraine_risk":7,"frizz_risk":0,"updated_at":"2026-05-23T09:02:57.618535+05:30"},{"city":"Dharamshala","state":"Himachal Pradesh","latitude":32.219,"longitude":76.3234,"temp":25.9,"humidity":35,"rain":0.0,"pressure":870.8,"uv_index":7.9,"wind_gusts":41.4,"aqi":51,"pm10":69.4,"pm2_5":15.0,"no2":1.3,"co":194.0,"o3":107.0,"so2":0.9,"mosquito_risk":4,"arthritis_risk":5,"migraine_risk":7,"frizz_risk":0,"updated_at":"2026-05-23T09:02:57.618543+05:30"},{"city":"Dalhousie","state":"Himachal Pradesh","latitude":32.5387,"longitude":75.971,"temp":22.2,"humidity":30,"rain":0.0,"pressure":807.9,"uv_index":8.5,"wind_gusts":42.5,"aqi":70,"pm10":48.1,"pm2_5":15.2,"no2":6.6,"co":212.0,"o3":99.0,"so2":1.3,"mosquito_risk":0,"arthritis_risk":5,"migraine_risk":7,"frizz_risk":0,"updated_at":"2026-05-23T09:02:57.618550+05:30"},{"city":"Patiala","state":"Punjab","latitude":30.3398,"longitude":76.3869,"temp":35.0,"humidity":29,"rain":0.0,"pressure":977.0,"uv_index":7.65,"wind_gusts":42.5,"aqi":479,"pm10":310.1,"pm2_5":65.4,"no2":10.5,"co":332.0,"o3":104.0,"so2":14.3,"mosquito_risk":0,"arthritis_risk":5,"migraine_risk":7,"frizz_risk":0,"updated_at":"2026-05-23T09:02:57.618558+05:30"},{"city":"Bhatinda","state":"Punjab","latitude":30.211,"longitude":74.9455,"temp":35.0,"humidity":29,"rain":0.0,"pressure":982.4,"uv_index":8.3,"wind_gusts":36.4,"aqi":89,"pm10":73.3,"pm2_5":38.3,"no2":14.2,"co":324.0,"o3":93.0,"so2":11.6,"mosquito_risk":0,"arthritis_risk":5,"migraine_risk":7,"frizz_risk":0,"updated_at":"2026-05-23T09:02:57.618565+05:30"},{"city":"Rohtak","state":"Haryana","latitude":28.8955,"longitude":76.6066,"temp":35.7,"humidity":30,"rain":0.0,"pressure":980.6,"uv_index":7.75,"wind_gusts":41.8,"aqi":917,"pm10":767.4,"pm2_5":165.3,"no2":15.3,"co":341.0,"o3":89.0,"so2":8.4,"mosquito_risk":0,"arthritis_risk":5,"migraine_risk":10,"frizz_risk":0,"updated_at":"2026-05-23T09:02:57.618572+05:30"},{"city":"Panipat","state":"Haryana","latitude":29.3909,"longitude":76.9635,"temp":35.8,"humidity":29,"rain":0.0,"pressure":979.1,"uv_index":7.6,"wind_gusts":47.9,"aqi":1623,"pm10":979.8,"pm2_5":167.6,"no2":11.8,"co":301.0,"o3":89.0,"so2":11.6,"mosquito_risk":0,"arthritis_risk":5,"migraine_risk":10,"frizz_risk":0,"updated_at":"2026-05-23T09:02:57.618578+05:30"},{"city":"Mathura","state":"Uttar Pradesh","latitude":27.4924,"longitude":77.6737,"temp":36.7,"humidity":26,"rain":0.0,"pressure":985.4,"uv_index":8.0,"wind_gusts":41.8,"aqi":634,"pm10":665.0,"pm2_5":157.9,"no2":18.6,"co":378.0,"o3":85.0,"so2":20.4,"mosquito_risk":0,"arthritis_risk":5,"migraine_risk":10,"frizz_risk":0,"updated_at":"2026-05-23T09:02:57.618585+05:30"},{"city":"Vrindavan","state":"Uttar Pradesh","latitude":27.5823,"longitude":77.7027,"temp":36.5,"humidity":27,"rain":0.0,"pressure":985.8,"uv_index":8.0,"wind_gusts":40.0,"aqi":634,"pm10":665.0,"pm2_5":157.9,"no2":18.6,"co":363.0,"o3":85.0,"so2":20.4,"mosquito_risk":0,"arthritis_risk":5,"migraine_risk":10,"frizz_risk":0,"updated_at":"2026-05-23T09:02:57.618608+05:30"},{"city":"Ayodhya","state":"Uttar Pradesh","latitude":26.7922,"longitude":82.1998,"temp":33.5,"humidity":65,"rain":0.0,"pressure":992.4,"uv_index":8.4,"wind_gusts":45.0,"aqi":154,"pm10":90.3,"pm2_5":78.5,"no2":8.8,"co":579.0,"o3":138.0,"so2":20.2,"mosquito_risk":3,"arthritis_risk":5,"migraine_risk":7,"frizz_risk":1,"updated_at":"2026-05-23T09:02:57.618616+05:30"},{"city":"Ratlam","state":"Madhya Pradesh","latitude":23.3315,"longitude":75.0367,"temp":31.8,"humidity":50,"rain":0.0,"pressure":957.2,"uv_index":8.55,"wind_gusts":46.8,"aqi":65,"pm10":25.3,"pm2_5":16.4,"no2":4.7,"co":159.0,"o3":56.0,"so2":11.0,"mosquito_risk":0,"arthritis_risk":5,"migraine_risk":7,"frizz_risk":1,"updated_at":"2026-05-23T09:02:57.618622+05:30"},{"city":"Sagar","state":"Madhya Pradesh","latitude":23.8388,"longitude":78.7378,"temp":36.5,"humidity":17,"rain":0.0,"pressure":951.3,"uv_index":8.75,"wind_gusts":46.8,"aqi":52,"pm10":60.5,"pm2_5":23.3,"no2":3.7,"co":173.0,"o3":88.0,"so2":6.3,"mosquito_risk":0,"arthritis_risk":5,"migraine_risk":10,"frizz_risk":0,"updated_at":"2026-05-23T09:02:57.618629+05:30"},{"city":"Satna","state":"Madhya Pradesh","latitude":24.6005,"longitude":80.8322,"temp":37.2,"humidity":18,"rain":0.0,"pressure":970.6,"uv_index":8.8,"wind_gusts":47.9,"aqi":62,"pm10":39.0,"pm2_5":16.9,"no2":3.9,"co":165.0,"o3":95.0,"so2":4.8,"mosquito_risk":0,"arthritis_risk":5,"migraine_risk":10,"frizz_risk":0,"updated_at":"2026-05-23T09:02:57.618636+05:30"},{"city":"Akola","state":"Maharashtra","latitude":20.7002,"longitude":77.0082,"temp":34.6,"humidity":41,"rain":0.0,"pressure":977.1,"uv_index":8.1,"wind_gusts":49.3,"aqi":68,"pm10":24.8,"pm2_5":16.1,"no2":4.0,"co":154.0,"o3":76.0,"so2":9.8,"mosquito_risk":0,"arthritis_risk":5,"migraine_risk":7,"frizz_risk":1,"updated_at":"2026-05-23T09:02:57.618644+05:30"},{"city":"Amravati","state":"Maharashtra","latitude":20.9374,"longitude":77.7796,"temp":36.3,"humidity":30,"rain":0.0,"pressure":968.7,"uv_index":8.3,"wind_gusts":51.1,"aqi":66,"pm10":28.4,"pm2_5":19.6,"no2":4.3,"co":183.0,"o3":91.0,"so2":12.8,"mosquito_risk":0,"arthritis_risk":5,"migraine_risk":10,"frizz_risk":0,"updated_at":"2026-05-23T09:02:57.618652+05:30"},{"city":"Latur","state":"Maharashtra","latitude":18.4088,"longitude":76.5604,"temp":32.0,"humidity":50,"rain":0.0,"pressure":942.7,"uv_index":9.05,"wind_gusts":42.8,"aqi":84,"pm10":16.1,"pm2_5":12.7,"no2":4.9,"co":210.0,"o3":85.0,"so2":6.5,"mosquito_risk":0,"arthritis_risk":5,"migraine_risk":7,"frizz_risk":1,"updated_at":"2026-05-23T09:02:57.618660+05:30"},{"city":"Nanded","state":"Maharashtra","latitude":19.1383,"longitude":77.3091,"temp":35.4,"humidity":38,"rain":0.0,"pressure":970.5,"uv_index":9.0,"wind_gusts":46.4,"aqi":88,"pm10":21.6,"pm2_5":16.5,"no2":4.4,"co":186.0,"o3":94.0,"so2":8.0,"mosquito_risk":0,"arthritis_risk":5,"migraine_risk":10,"frizz_risk":1,"updated_at":"2026-05-23T09:02:57.618667+05:30"},{"city":"Gulbarga","state":"Karnataka","latitude":17.3297,"longitude":76.8343,"temp":31.4,"humidity":54,"rain":0.0,"pressure":961.4,"uv_index":9.05,"wind_gusts":59.0,"aqi":69,"pm10":11.1,"pm2_5":9.0,"no2":6.1,"co":207.0,"o3":57.0,"so2":3.5,"mosquito_risk":0,"arthritis_risk":5,"migraine_risk":7,"frizz_risk":1,"updated_at":"2026-05-23T09:02:57.618674+05:30"},{"city":"Bidar","state":"Karnataka","latitude":17.9104,"longitude":77.5199,"temp":31.8,"humidity":54,"rain":0.0,"pressure":938.1,"uv_index":9.1,"wind_gusts":51.5,"aqi":93,"pm10":23.2,"pm2_5":19.5,"no2":7.5,"co":232.0,"o3":93.0,"so2":9.2,"mosquito_risk":0,"arthritis_risk":5,"migraine_risk":7,"frizz_risk":1,"updated_at":"2026-05-23T09:02:57.618681+05:30"},{"city":"Hospet","state":"Karnataka","latitude":15.2689,"longitude":76.3909,"temp":28.1,"humidity":68,"rain":0.0,"pressure":959.2,"uv_index":8.9,"wind_gusts":42.8,"aqi":41,"pm10":4.2,"pm2_5":3.4,"no2":3.2,"co":144.0,"o3":59.0,"so2":1.5,"mosquito_risk":7,"arthritis_risk":5,"migraine_risk":7,"frizz_risk":1,"updated_at":"2026-05-23T09:02:57.618687+05:30"},{"city":"Tirupur","state":"Tamil Nadu","latitude":11.1085,"longitude":77.3411,"temp":29.8,"humidity":62,"rain":0.0,"pressure":977.5,"uv_index":9.0,"wind_gusts":46.4,"aqi":37,"pm10":10.1,"pm2_5":8.2,"no2":6.3,"co":166.0,"o3":65.0,"so2":3.1,"mosquito_risk":7,"arthritis_risk":5,"migraine_risk":7,"frizz_risk":1,"updated_at":"2026-05-23T09:02:57.618693+05:30"},{"city":"Alappuzha","state":"Kerala","latitude":9.4981,"longitude":76.3388,"temp":28.5,"humidity":82,"rain":0.0,"pressure":1012.2,"uv_index":7.85,"wind_gusts":37.1,"aqi":39,"pm10":15.2,"pm2_5":12.7,"no2":10.0,"co":117.0,"o3":61.0,"so2":6.2,"mosquito_risk":7,"arthritis_risk":0,"migraine_risk":4,"frizz_risk":1,"updated_at":"2026-05-23T09:02:57.618700+05:30"},{"city":"Munnar","state":"Kerala","latitude":10.0889,"longitude":77.0595,"temp":20.2,"humidity":82,"rain":0.0,"pressure":860.5,"uv_index":8.6,"wind_gusts":33.5,"aqi":23,"pm10":6.8,"pm2_5":5.8,"no2":2.6,"co":127.0,"o3":67.0,"so2":0.8,"mosquito_risk":3,"arthritis_risk":5,"migraine_risk":7,"frizz_risk":1,"updated_at":"2026-05-23T09:02:57.618707+05:30"},{"city":"Silchar","state":"Assam","latitude":24.8333,"longitude":92.7789,"temp":25.8,"humidity":92,"rain":0.4,"pressure":1005.6,"uv_index":8.95,"wind_gusts":36.0,"aqi":70,"pm10":21.6,"pm2_5":12.7,"no2":3.1,"co":237.0,"o3":90.0,"so2":3.0,"mosquito_risk":10,"arthritis_risk":5,"migraine_risk":4,"frizz_risk":1,"updated_at":"2026-05-23T09:02:57.618714+05:30"},{"city":"Dibrugarh","state":"Assam","latitude":27.4728,"longitude":94.912,"temp":24.1,"humidity":100,"rain":0.1,"pressure":995.5,"uv_index":8.9,"wind_gusts":29.9,"aqi":90,"pm10":21.9,"pm2_5":17.8,"no2":4.2,"co":274.0,"o3":103.0,"so2":1.4,"mosquito_risk":6,"arthritis_risk":5,"migraine_risk":7,"frizz_risk":1,"updated_at":"2026-05-23T09:02:57.618720+05:30"}]