[{"city":"Delhi","state":"Delhi","latitude":28.6139,"longitude":77.209,"temp":33.1,"humidity":64,"rain":0.0,"pressure":974.2,"uv_index":7.0,"wind_gusts":20.9,"aqi":162,"pm10":105.0,"pm2_5":72.6,"no2":49.4,"co":1186.0,"o3":85.0,"so2":33.6,"mosquito_risk":3,"arthritis_risk":5,"migraine_risk":7,"frizz_risk":1,"updated_at":"2026-07-04T21:35:07.411181+05:30"},{"city":"Mumbai","state":"Maharashtra","latitude":19.076,"longitude":72.8777,"temp":26.0,"humidity":93,"rain":0.2,"pressure":1001.7,"uv_index":0.3,"wind_gusts":46.1,"aqi":30,"pm10":13.7,"pm2_5":7.6,"no2":5.4,"co":167.0,"o3":52.0,"so2":3.3,"mosquito_risk":10,"arthritis_risk":5,"migraine_risk":0,"frizz_risk":1,"updated_at":"2026-07-04T21:35:07.411229+05:30"},{"city":"Bangalore","state":"Karnataka","latitude":12.9716,"longitude":77.5946,"temp":22.4,"humidity":81,"rain":0.0,"pressure":910.7,"uv_index":5.8,"wind_gusts":66.2,"aqi":25,"pm10":4.4,"pm2_5":3.9,"no2":13.0,"co":278.0,"o3":37.0,"so2":3.5,"mosquito_risk":3,"arthritis_risk":5,"migraine_risk":3,"frizz_risk":1,"updated_at":"2026-07-04T21:35:07.411245+05:30"},{"city":"Hyderabad","state":"Telangana","latitude":17.385,"longitude":78.4867,"temp":24.1,"humidity":86,"rain":0.0,"pressure":947.4,"uv_index":2.8,"wind_gusts":59.0,"aqi":25,"pm10":3.7,"pm2_5":3.2,"no2":7.2,"co":203.0,"o3":43.0,"so2":3.2,"mosquito_risk":3,"arthritis_risk":5,"migraine_risk":3,"frizz_risk":1,"updated_at":"2026-07-04T21:35:07.411255+05:30"},{"city":"Chennai","state":"Tamil Nadu","latitude":13.0827,"longitude":80.2707,"temp":29.8,"humidity":67,"rain":0.0,"pressure":1004.4,"uv_index":2.15,"wind_gusts":41.4,"aqi":38,"pm10":17.6,"pm2_5":13.4,"no2":18.7,"co":354.0,"o3":54.0,"so2":11.4,"mosquito_risk":7,"arthritis_risk":5,"migraine_risk":0,"frizz_risk":1,"updated_at":"2026-07-04T21:35:07.411264+05:30"},{"city":"Kolkata","state":"West Bengal","latitude":22.5726,"longitude":88.3639,"temp":28.6,"humidity":82,"rain":0.0,"pressure":994.9,"uv_index":7.5,"wind_gusts":50.4,"aqi":42,"pm10":13.7,"pm2_5":12.7,"no2":12.7,"co":236.0,"o3":50.0,"so2":9.9,"mosquito_risk":7,"arthritis_risk":5,"migraine_risk":7,"frizz_risk":1,"updated_at":"2026-07-04T21:35:07.411271+05:30"},{"city":"Pune","state":"Maharashtra","latitude":18.5204,"longitude":73.8567,"temp":22.7,"humidity":94,"rain":0.2,"pressure":941.6,"uv_index":0.55,"wind_gusts":44.6,"aqi":21,"pm10":1.6,"pm2_5":1.5,"no2":5.3,"co":139.0,"o3":47.0,"so2":2.5,"mosquito_risk":6,"arthritis_risk":5,"migraine_risk":3,"frizz_risk":1,"updated_at":"2026-07-04T21:35:07.411278+05:30"},{"city":"Ahmedabad","state":"Gujarat","latitude":23.0225,"longitude":72.5714,"temp":27.1,"humidity":90,"rain":0.0,"pressure":993.8,"uv_index":5.85,"wind_gusts":24.5,"aqi":58,"pm10":38.0,"pm2_5":21.4,"no2":23.4,"co":232.0,"o3":37.0,"so2":6.0,"mosquito_risk":7,"arthritis_risk":5,"migraine_risk":3,"frizz_risk":1,"updated_at":"2026-07-04T21:35:07.411286+05:30"},{"city":"Jaipur","state":"Rajasthan","latitude":26.9124,"longitude":75.7873,"temp":29.9,"humidity":77,"rain":0.0,"pressure":951.4,"uv_index":7.4,"wind_gusts":21.6,"aqi":110,"pm10":70.3,"pm2_5":43.3,"no2":36.0,"co":617.0,"o3":66.0,"so2":11.8,"mosquito_risk":7,"arthritis_risk":5,"migraine_risk":7,"frizz_risk":1,"updated_at":"2026-07-04T21:35:07.411293+05:30"},{"city":"Lucknow","state":"Uttar Pradesh","latitude":26.8467,"longitude":80.9462,"temp":31.7,"humidity":73,"rain":0.0,"pressure":984.2,"uv_index":7.7,"wind_gusts":25.2,"aqi":90,"pm10":40.5,"pm2_5":39.9,"no2":28.8,"co":499.0,"o3":57.0,"so2":12.3,"mosquito_risk":3,"arthritis_risk":5,"migraine_risk":7,"frizz_risk":1,"updated_at":"2026-07-04T21:35:07.411305+05:30"},{"city":"Kanpur","state":"Uttar Pradesh","latitude":26.4499,"longitude":80.3319,"temp":32.2,"humidity":72,"rain":0.0,"pressure":982.4,"uv_index":8.05,"wind_gusts":24.5,"aqi":96,"pm10":33.6,"pm2_5":32.9,"no2":24.3,"co":416.0,"o3":69.0,"so2":9.4,"mosquito_risk":3,"arthritis_risk":5,"migraine_risk":7,"frizz_risk":1,"updated_at":"2026-07-04T21:35:07.411312+05:30"},{"city":"Chandigarh","state":"Chandigarh","latitude":30.7333,"longitude":76.7794,"temp":29.2,"humidity":85,"rain":0.0,"pressure":960.3,"uv_index":7.1,"wind_gusts":23.0,"aqi":122,"pm10":67.3,"pm2_5":65.9,"no2":52.5,"co":1698.0,"o3":66.0,"so2":23.0,"mosquito_risk":7,"arthritis_risk":5,"migraine_risk":7,"frizz_risk":1,"updated_at":"2026-07-04T21:35:07.411319+05:30"},{"city":"Srinagar","state":"Jammu and Kashmir","latitude":34.0837,"longitude":74.7973,"temp":25.2,"humidity":55,"rain":0.0,"pressure":836.2,"uv_index":9.0,"wind_gusts":22.7,"aqi":91,"pm10":45.3,"pm2_5":38.8,"no2":37.3,"co":1079.0,"o3":56.0,"so2":3.8,"mosquito_risk":4,"arthritis_risk":5,"migraine_risk":7,"frizz_risk":0,"updated_at":"2026-07-04T21:35:07.411326+05:30"},{"city":"Jammu","state":"Jammu and Kashmir","latitude":32.7266,"longitude":74.857,"temp":32.1,"humidity":57,"rain":0.0,"pressure":962.9,"uv_index":8.6,"wind_gusts":29.9,"aqi":148,"pm10":61.0,"pm2_5":56.2,"no2":63.0,"co":665.0,"o3":65.0,"so2":8.9,"mosquito_risk":0,"arthritis_risk":5,"migraine_risk":7,"frizz_risk":1,"updated_at":"2026-07-04T21:35:07.411332+05:30"},{"city":"Amritsar","state":"Punjab","latitude":31.634,"longitude":74.8723,"temp":31.9,"humidity":68,"rain":0.0,"pressure":971.1,"uv_index":8.45,"wind_gusts":29.2,"aqi":116,"pm10":56.6,"pm2_5":51.9,"no2":31.5,"co":526.0,"o3":72.0,"so2":6.6,"mosquito_risk":3,"arthritis_risk":5,"migraine_risk":7,"frizz_risk":1,"updated_at":"2026-07-04T21:35:07.411338+05:30"},{"city":"Ludhiana","state":"Punjab","latitude":30.901,"longitude":75.8573,"temp":30.0,"humidity":87,"rain":0.0,"pressure":969.5,"uv_index":7.95,"wind_gusts":36.4,"aqi":127,"pm10":101.7,"pm2_5":97.3,"no2":57.6,"co":1140.0,"o3":66.0,"so2":15.7,"mosquito_risk":7,"arthritis_risk":5,"migraine_risk":7,"frizz_risk":1,"updated_at":"2026-07-04T21:35:07.411344+05:30"},{"city":"Jalandhar","state":"Punjab","latitude":31.326,"longitude":75.5762,"temp":30.9,"humidity":81,"rain":0.0,"pressure":970.5,"uv_index":8.2,"wind_gusts":34.2,"aqi":127,"pm10":98.7,"pm2_5":92.2,"no2":61.3,"co":1009.0,"o3":53.0,"so2":10.6,"mosquito_risk":3,"arthritis_risk":5,"migraine_risk":7,"frizz_risk":1,"updated_at":"2026-07-04T21:35:07.411351+05:30"},{"city":"Dehradun","state":"Uttarakhand","latitude":30.6284,"longitude":78.0322,"temp":19.9,"humidity":98,"rain":0.0,"pressure":825.5,"uv_index":7.15,"wind_gusts":26.3,"aqi":57,"pm10":14.9,"pm2_5":14.8,"no2":27.3,"co":314.0,"o3":65.0,"so2":2.0,"mosquito_risk":3,"arthritis_risk":10,"migraine_risk":7,"frizz_risk":1,"updated_at":"2026-07-04T21:35:07.411357+05:30"},{"city":"Shimla","state":"Himachal Pradesh","latitude":31.1048,"longitude":77.1734,"temp":16.6,"humidity":96,"rain":0.0,"pressure":779.9,"uv_index":7.4,"wind_gusts":28.1,"aqi":76,"pm10":26.1,"pm2_5":25.8,"no2":26.8,"co":517.0,"o3":63.0,"so2":0.8,"mosquito_risk":3,"arthritis_risk":10,"migraine_risk":7,"frizz_risk":0,"updated_at":"2026-07-04T21:35:07.411364+05:30"},{"city":"Manali","state":"Himachal Pradesh","latitude":32.2396,"longitude":77.1887,"temp":21.0,"humidity":94,"rain":0.0,"pressure":815.6,"uv_index":9.45,"wind_gusts":33.5,"aqi":65,"pm10":25.7,"pm2_5":25.5,"no2":113.0,"co":318.0,"o3":21.0,"so2":0.0,"mosquito_risk":3,"arthritis_risk":5,"migraine_risk":7,"frizz_risk":1,"updated_at":"2026-07-04T21:35:07.411373+05:30"},{"city":"Gurgaon","state":"Haryana","latitude":28.4595,"longitude":77.0266,"temp":31.2,"humidity":75,"rain":0.0,"pressure":972.4,"uv_index":6.4,"wind_gusts":21.2,"aqi":178,"pm10":93.6,"pm2_5":56.7,"no2":42.0,"co":1398.0,"o3":105.0,"so2":32.7,"mosquito_risk":3,"arthritis_risk":5,"migraine_risk":7,"frizz_risk":1,"updated_at":"2026-07-04T21:35:07.411380+05:30"},{"city":"Noida","state":"Uttar Pradesh","latitude":28.5355,"longitude":77.391,"temp":31.0,"humidity":80,"rain":0.0,"pressure":975.6,"uv_index":6.8,"wind_gusts":22.0,"aqi":178,"pm10":93.6,"pm2_5":56.7,"no2":42.0,"co":1739.0,"o3":105.0,"so2":32.7,"mosquito_risk":3,"arthritis_risk":5,"migraine_risk":7,"frizz_risk":1,"updated_at":"2026-07-04T21:35:07.411388+05:30"},{"city":"Ghaziabad","state":"Uttar Pradesh","latitude":28.6692,"longitude":77.4538,"temp":31.1,"humidity":80,"rain":0.0,"pressure":973.8,"uv_index":7.55,"wind_gusts":22.0,"aqi":130,"pm10":67.5,"pm2_5":67.1,"no2":42.9,"co":799.0,"o3":62.0,"so2":14.8,"mosquito_risk":3,"arthritis_risk":5,"migraine_risk":7,"frizz_risk":1,"updated_at":"2026-07-04T21:35:07.411395+05:30"},{"city":"Faridabad","state":"Haryana","latitude":28.4089,"longitude":77.3178,"temp":32.7,"humidity":66,"rain":0.0,"pressure":974.9,"uv_index":6.75,"wind_gusts":26.3,"aqi":178,"pm10":93.6,"pm2_5":56.7,"no2":42.0,"co":823.0,"o3":105.0,"so2":32.7,"mosquito_risk":3,"arthritis_risk":5,"migraine_risk":7,"frizz_risk":1,"updated_at":"2026-07-04T21:35:07.411402+05:30"},{"city":"Meerut","state":"Uttar Pradesh","latitude":28.9845,"longitude":77.7064,"temp":30.8,"humidity":83,"rain":0.0,"pressure":972.7,"uv_index":7.0,"wind_gusts":26.6,"aqi":130,"pm10":67.5,"pm2_5":67.1,"no2":42.9,"co":774.0,"o3":62.0,"so2":14.8,"mosquito_risk":3,"arthritis_risk":5,"migraine_risk":7,"frizz_risk":1,"updated_at":"2026-07-04T21:35:07.411408+05:30"},{"city":"Agra","state":"Uttar Pradesh","latitude":27.1767,"longitude":78.0081,"temp":31.2,"humidity":76,"rain":0.0,"pressure":978.5,"uv_index":6.65,"wind_gusts":22.3,"aqi":126,"pm10":53.3,"pm2_5":48.7,"no2":32.7,"co":449.0,"o3":77.0,"so2":11.3,"mosquito_risk":3,"arthritis_risk":5,"migraine_risk":7,"frizz_risk":1,"updated_at":"2026-07-04T21:35:07.411414+05:30"},{"city":"Varanasi","state":"Uttar Pradesh","latitude":25.3176,"longitude":82.9739,"temp":31.7,"humidity":70,"rain":0.0,"pressure":988.1,"uv_index":8.7,"wind_gusts":31.0,"aqi":82,"pm10":34.8,"pm2_5":34.7,"no2":21.8,"co":394.0,"o3":73.0,"so2":11.9,"mosquito_risk":3,"arthritis_risk":5,"migraine_risk":7,"frizz_risk":1,"updated_at":"2026-07-04T21:35:07.411421+05:30"},{"city":"Prayagraj","state":"Uttar Pradesh","latitude":25.4358,"longitude":81.8463,"temp":31.8,"humidity":71,"rain":0.0,"pressure":986.3,"uv_index":8.15,"wind_gusts":30.2,"aqi":92,"pm10":31.9,"pm2_5":31.7,"no2":19.2,"co":423.0,"o3":79.0,"so2":10.1,"mosquito_risk":3,"arthritis_risk":5,"migraine_risk":7,"frizz_risk":1,"updated_at":"2026-07-04T21:35:07.411427+05:30"},{"city":"Gorakhpur","state":"Uttar Pradesh","latitude":26.7606,"longitude":83.3732,"temp":32.0,"humidity":69,"rain":0.0,"pressure":988.7,"uv_index":8.55,"wind_gusts":28.8,"aqi":92,"pm10":37.3,"pm2_5":37.0,"no2":21.1,"co":398.0,"o3":75.0,"so2":9.7,"mosquito_risk":3,"arthritis_risk":5,"migraine_risk":7,"frizz_risk":1,"updated_at":"2026-07-04T21:35:07.411433+05:30"},{"city":"Bareilly","state":"Uttar Pradesh","latitude":28.367,"longitude":79.4304,"temp":31.3,"humidity":77,"rain":0.0,"pressure":978.2,"uv_index":7.9,"wind_gusts":25.2,"aqi":101,"pm10":71.7,"pm2_5":69.8,"no2":54.2,"co":604.0,"o3":42.0,"so2":15.3,"mosquito_risk":3,"arthritis_risk":5,"migraine_risk":7,"frizz_risk":1,"updated_at":"2026-07-04T21:35:07.411441+05:30"},{"city":"Aligarh","state":"Uttar Pradesh","latitude":27.8974,"longitude":78.088,"temp":31.0,"humidity":79,"rain":0.0,"pressure":976.6,"uv_index":7.8,"wind_gusts":25.2,"aqi":148,"pm10":53.8,"pm2_5":47.6,"no2":23.4,"co":552.0,"o3":113.0,"so2":14.7,"mosquito_risk":3,"arthritis_risk":5,"migraine_risk":7,"frizz_risk":1,"updated_at":"2026-07-04T21:35:07.411447+05:30"},{"city":"Moradabad","state":"Uttar Pradesh","latitude":28.8386,"longitude":78.7733,"temp":31.2,"humidity":81,"rain":0.0,"pressure":975.1,"uv_index":7.7,"wind_gusts":22.7,"aqi":136,"pm10":58.1,"pm2_5":57.9,"no2":45.1,"co":836.0,"o3":53.0,"so2":14.6,"mosquito_risk":3,"arthritis_risk":5,"migraine_risk":7,"frizz_risk":1,"updated_at":"2026-07-04T21:35:07.411453+05:30"},{"city":"Saharanpur","state":"Uttar Pradesh","latitude":29.9637,"longitude":77.546,"temp":29.9,"humidity":85,"rain":0.0,"pressure":967.1,"uv_index":6.7,"wind_gusts":27.4,"aqi":132,"pm10":80.8,"pm2_5":80.6,"no2":52.9,"co":781.0,"o3":67.0,"so2":25.9,"mosquito_risk":7,"arthritis_risk":5,"migraine_risk":7,"frizz_risk":1,"updated_at":"2026-07-04T21:35:07.411459+05:30"},{"city":"Jhansi","state":"Uttar Pradesh","latitude":25.4484,"longitude":78.5685,"temp":27.5,"humidity":92,"rain":0.0,"pressure":969.7,"uv_index":6.75,"wind_gusts":30.2,"aqi":108,"pm10":22.4,"pm2_5":22.1,"no2":11.7,"co":244.0,"o3":81.0,"so2":4.4,"mosquito_risk":7,"arthritis_risk":5,"migraine_risk":7,"frizz_risk":1,"updated_at":"2026-07-04T21:35:11.739637+05:30"},{"city":"Surat","state":"Gujarat","latitude":21.1702,"longitude":72.8311,"temp":26.5,"humidity":97,"rain":0.2,"pressure":998.5,"uv_index":0.9,"wind_gusts":28.8,"aqi":68,"pm10":20.1,"pm2_5":15.9,"no2":24.1,"co":513.0,"o3":47.0,"so2":32.8,"mosquito_risk":10,"arthritis_risk":5,"migraine_risk":3,"frizz_risk":1,"updated_at":"2026-07-04T21:35:11.739676+05:30"},{"city":"Vadodara","state":"Gujarat","latitude":22.3072,"longitude":73.1812,"temp":26.5,"humidity":96,"rain":0.3,"pressure":996.0,"uv_index":1.05,"wind_gusts":27.7,"aqi":53,"pm10":22.9,"pm2_5":15.8,"no2":27.6,"co":244.0,"o3":35.0,"so2":10.8,"mosquito_risk":10,"arthritis_risk":5,"migraine_risk":3,"frizz_risk":1,"updated_at":"2026-07-04T21:35:11.739686+05:30"},{"city":"Rajkot","state":"Gujarat","latitude":22.3039,"longitude":70.8022,"temp":28.5,"humidity":81,"rain":0.0,"pressure":985.7,"uv_index":6.55,"wind_gusts":33.8,"aqi":59,"pm10":41.8,"pm2_5":21.1,"no2":8.2,"co":182.0,"o3":47.0,"so2":6.4,"mosquito_risk":7,"arthritis_risk":5,"migraine_risk":7,"frizz_risk":1,"updated_at":"2026-07-04T21:35:11.739696+05:30"},{"city":"Thane","state":"Maharashtra","latitude":19.2183,"longitude":72.9781,"temp":25.7,"humidity":96,"rain":0.7,"pressure":1000.7,"uv_index":0.4,"wind_gusts":31.0,"aqi":30,"pm10":13.7,"pm2_5":7.6,"no2":5.4,"co":197.0,"o3":52.0,"so2":3.3,"mosquito_risk":10,"arthritis_risk":5,"migraine_risk":0,"frizz_risk":1,"updated_at":"2026-07-04T21:35:11.739704+05:30"},{"city":"Nagpur","state":"Maharashtra","latitude":21.1458,"longitude":79.0882,"temp":25.5,"humidity":95,"rain":0.2,"pressure":964.8,"uv_index":8.3,"wind_gusts":29.5,"aqi":47,"pm10":13.2,"pm2_5":12.8,"no2":18.0,"co":244.0,"o3":58.0,"so2":11.9,"mosquito_risk":10,"arthritis_risk":5,"migraine_risk":7,"frizz_risk":1,"updated_at":"2026-07-04T21:35:11.739711+05:30"},{"city":"Nashik","state":"Maharashtra","latitude":19.9975,"longitude":73.7898,"temp":23.1,"humidity":96,"rain":0.1,"pressure":938.1,"uv_index":1.15,"wind_gusts":40.7,"aqi":25,"pm10":5.3,"pm2_5":4.4,"no2":13.3,"co":188.0,"o3":40.0,"so2":2.4,"mosquito_risk":6,"arthritis_risk":5,"migraine_risk":3,"frizz_risk":1,"updated_at":"2026-07-04T21:35:11.739719+05:30"},{"city":"Aurangabad","state":"Maharashtra","latitude":19.8762,"longitude":75.3433,"temp":23.4,"humidity":94,"rain":0.1,"pressure":937.3,"uv_index":1.7,"wind_gusts":40.0,"aqi":33,"pm10":7.4,"pm2_5":7.2,"no2":14.6,"co":190.0,"o3":41.0,"so2":7.3,"mosquito_risk":6,"arthritis_risk":5,"migraine_risk":3,"frizz_risk":1,"updated_at":"2026-07-04T21:35:11.739726+05:30"},{"city":"Solapur","state":"Maharashtra","latitude":17.6599,"longitude":75.9064,"temp":23.7,"humidity":92,"rain":0.1,"pressure":952.3,"uv_index":1.05,"wind_gusts":45.0,"aqi":23,"pm10":2.5,"pm2_5":2.4,"no2":5.6,"co":131.0,"o3":42.0,"so2":1.7,"mosquito_risk":6,"arthritis_risk":5,"migraine_risk":3,"frizz_risk":1,"updated_at":"2026-07-04T21:35:11.739732+05:30"},{"city":"Kolhapur","state":"Maharashtra","latitude":16.705,"longitude":74.2433,"temp":22.1,"humidity":96,"rain":0.1,"pressure":944.0,"uv_index":1.3,"wind_gusts":51.5,"aqi":22,"pm10":2.4,"pm2_5":2.2,"no2":4.1,"co":124.0,"o3":48.0,"so2":1.3,"mosquito_risk":6,"arthritis_risk":5,"migraine_risk":3,"frizz_risk":1,"updated_at":"2026-07-04T21:35:11.739739+05:30"},{"city":"Goa","state":"Goa","latitude":15.2993,"longitude":74.124,"temp":24.3,"humidity":99,"rain":0.1,"pressure":996.9,"uv_index":3.8,"wind_gusts":37.8,"aqi":49,"pm10":18.8,"pm2_5":9.6,"no2":1.6,"co":158.0,"o3":52.0,"so2":0.6,"mosquito_risk":6,"arthritis_risk":5,"migraine_risk":3,"frizz_risk":1,"updated_at":"2026-07-04T21:35:11.739747+05:30"},{"city":"Jodhpur","state":"Rajasthan","latitude":26.2389,"longitude":73.0243,"temp":30.8,"humidity":67,"rain":0.0,"pressure":973.3,"uv_index":7.85,"wind_gusts":27.4,"aqi":152,"pm10":147.1,"pm2_5":51.5,"no2":12.1,"co":308.0,"o3":63.0,"so2":5.0,"mosquito_risk":3,"arthritis_risk":5,"migraine_risk":7,"frizz_risk":1,"updated_at":"2026-07-04T21:35:11.739754+05:30"},{"city":"Udaipur","state":"Rajasthan","latitude":24.5854,"longitude":73.7125,"temp":25.7,"humidity":94,"rain":0.0,"pressure":938.0,"uv_index":4.0,"wind_gusts":34.9,"aqi":63,"pm10":58.3,"pm2_5":28.6,"no2":14.5,"co":325.0,"o3":46.0,"so2":4.4,"mosquito_risk":7,"arthritis_risk":5,"migraine_risk":3,"frizz_risk":1,"updated_at":"2026-07-04T21:35:11.739761+05:30"},{"city":"Kota","state":"Rajasthan","latitude":25.2138,"longitude":75.8648,"temp":27.1,"humidity":94,"rain":0.1,"pressure":970.3,"uv_index":7.2,"wind_gusts":30.6,"aqi":85,"pm10":72.9,"pm2_5":49.4,"no2":31.5,"co":409.0,"o3":51.0,"so2":7.6,"mosquito_risk":10,"arthritis_risk":5,"migraine_risk":7,"frizz_risk":1,"updated_at":"2026-07-04T21:35:11.739768+05:30"},{"city":"Bikaner","state":"Rajasthan","latitude":28.0229,"longitude":73.3119,"temp":34.7,"humidity":48,"rain":0.0,"pressure":971.5,"uv_index":7.05,"wind_gusts":31.3,"aqi":113,"pm10":48.2,"pm2_5":30.5,"no2":7.4,"co":298.0,"o3":91.0,"so2":4.5,"mosquito_risk":0,"arthritis_risk":5,"migraine_risk":7,"frizz_risk":1,"updated_at":"2026-07-04T21:35:11.739775+05:30"},{"city":"Ajmer","state":"Rajasthan","latitude":26.4499,"longitude":74.6399,"temp":29.1,"humidity":76,"rain":0.0,"pressure":945.7,"uv_index":7.25,"wind_gusts":33.5,"aqi":121,"pm10":90.3,"pm2_5":43.5,"no2":22.7,"co":450.0,"o3":54.0,"so2":4.9,"mosquito_risk":7,"arthritis_risk":5,"migraine_risk":7,"frizz_risk":1,"updated_at":"2026-07-04T21:35:11.739781+05:30"},{"city":"Gwalior","state":"Madhya Pradesh","latitude":26.2183,"longitude":78.1828,"temp":30.8,"humidity":82,"rain":0.1,"pressure":973.9,"uv_index":7.65,"wind_gusts":35.6,"aqi":84,"pm10":22.2,"pm2_5":21.8,"no2":14.9,"co":363.0,"o3":73.0,"so2":4.3,"mosquito_risk":6,"arthritis_risk":5,"migraine_risk":7,"frizz_risk":1,"updated_at":"2026-07-04T21:35:11.739789+05:30"},{"city":"Indore","state":"Madhya Pradesh","latitude":22.7196,"longitude":75.8577,"temp":24.2,"humidity":96,"rain":0.0,"pressure":940.1,"uv_index":7.45,"wind_gusts":31.3,"aqi":47,"pm10":30.0,"pm2_5":24.3,"no2":18.4,"co":419.0,"o3":53.0,"so2":5.6,"mosquito_risk":3,"arthritis_risk":5,"migraine_risk":7,"frizz_risk":1,"updated_at":"2026-07-04T21:35:11.739795+05:30"},{"city":"Bhopal","state":"Madhya Pradesh","latitude":23.2599,"longitude":77.4126,"temp":25.9,"humidity":97,"rain":0.5,"pressure":945.5,"uv_index":8.5,"wind_gusts":29.9,"aqi":55,"pm10":16.8,"pm2_5":16.2,"no2":13.6,"co":475.0,"o3":61.0,"so2":3.1,"mosquito_risk":10,"arthritis_risk":5,"migraine_risk":7,"frizz_risk":1,"updated_at":"2026-07-04T21:35:11.739803+05:30"},{"city":"Jabalpur","state":"Madhya Pradesh","latitude":23.1815,"longitude":79.9864,"temp":25.5,"humidity":98,"rain":0.3,"pressure":953.4,"uv_index":8.8,"wind_gusts":28.1,"aqi":75,"pm10":20.8,"pm2_5":20.7,"no2":9.4,"co":315.0,"o3":80.0,"so2":4.6,"mosquito_risk":10,"arthritis_risk":5,"migraine_risk":7,"frizz_risk":1,"updated_at":"2026-07-04T21:35:11.739810+05:30"},{"city":"Ujjain","state":"Madhya Pradesh","latitude":23.1765,"longitude":75.7885,"temp":24.6,"humidity":96,"rain":0.0,"pressure":945.9,"uv_index":7.4,"wind_gusts":30.6,"aqi":50,"pm10":33.4,"pm2_5":23.0,"no2":9.9,"co":366.0,"o3":60.0,"so2":3.9,"mosquito_risk":3,"arthritis_risk":5,"migraine_risk":7,"frizz_risk":1,"updated_at":"2026-07-04T21:35:11.739817+05:30"},{"city":"Visakhapatnam","state":"Andhra Pradesh","latitude":17.6868,"longitude":83.2185,"temp":25.3,"humidity":94,"rain":0.1,"pressure":994.4,"uv_index":2.7,"wind_gusts":61.9,"aqi":38,"pm10":7.2,"pm2_5":6.6,"no2":11.6,"co":220.0,"o3":47.0,"so2":16.4,"mosquito_risk":10,"arthritis_risk":5,"migraine_risk":3,"frizz_risk":1,"updated_at":"2026-07-04T21:35:11.739824+05:30"},{"city":"Vijayawada","state":"Andhra Pradesh","latitude":16.5062,"longitude":80.648,"temp":29.9,"humidity":62,"rain":0.0,"pressure":996.9,"uv_index":2.0,"wind_gusts":57.6,"aqi":35,"pm10":9.9,"pm2_5":7.5,"no2":6.1,"co":162.0,"o3":49.0,"so2":3.9,"mosquito_risk":7,"arthritis_risk":5,"migraine_risk":3,"frizz_risk":1,"updated_at":"2026-07-04T21:35:11.739831+05:30"},{"city":"Guntur","state":"Andhra Pradesh","latitude":16.3067,"longitude":80.4365,"temp":30.0,"humidity":62,"rain":0.0,"pressure":998.4,"uv_index":2.05,"wind_gusts":49.7,"aqi":30,"pm10":8.5,"pm2_5":6.5,"no2":6.3,"co":155.0,"o3":49.0,"so2":3.8,"mosquito_risk":7,"arthritis_risk":5,"migraine_risk":3,"frizz_risk":1,"updated_at":"2026-07-04T21:35:11.739838+05:30"},{"city":"Nellore","state":"Andhra Pradesh","latitude":14.4426,"longitude":79.9865,"temp":32.3,"humidity":48,"rain":0.0,"pressure":1002.0,"uv_index":1.65,"wind_gusts":57.6,"aqi":29,"pm10":8.4,"pm2_5":4.8,"no2":3.8,"co":112.0,"o3":52.0,"so2":2.7,"mosquito_risk":0,"arthritis_risk":5,"migraine_risk":0,"frizz_risk":1,"updated_at":"2026-07-04T21:35:11.739845+05:30"},{"city":"Kurnool","state":"Andhra Pradesh","latitude":15.8281,"longitude":78.0373,"temp":25.8,"humidity":77,"rain":0.1,"pressure":973.3,"uv_index":1.15,"wind_gusts":56.2,"aqi":26,"pm10":3.1,"pm2_5":2.7,"no2":6.8,"co":125.0,"o3":42.0,"so2":2.7,"mosquito_risk":10,"arthritis_risk":5,"migraine_risk":3,"frizz_risk":1,"updated_at":"2026-07-04T21:35:11.739853+05:30"},{"city":"Kakinada","state":"Andhra Pradesh","latitude":16.9891,"longitude":82.2475,"temp":28.2,"humidity":73,"rain":0.0,"pressure":1000.3,"uv_index":1.75,"wind_gusts":79.9,"aqi":35,"pm10":12.1,"pm2_5":9.0,"no2":6.3,"co":165.0,"o3":59.0,"so2":5.1,"mosquito_risk":7,"arthritis_risk":5,"migraine_risk":0,"frizz_risk":1,"updated_at":"2026-07-04T21:35:11.739859+05:30"},{"city":"Tirupati","state":"Andhra Pradesh","latitude":13.6288,"longitude":79.4192,"temp":30.8,"humidity":49,"rain":0.0,"pressure":988.1,"uv_index":2.6,"wind_gusts":50.4,"aqi":29,"pm10":10.2,"pm2_5":6.7,"no2":6.5,"co":148.0,"o3":49.0,"so2":2.0,"mosquito_risk":0,"arthritis_risk":5,"migraine_risk":3,"frizz_risk":1,"updated_at":"2026-07-04T21:35:11.739866+05:30"},{"city":"Warangal","state":"Telangana","latitude":17.9689,"longitude":79.5941,"temp":25.9,"humidity":82,"rain":0.1,"pressure":972.5,"uv_index":2.25,"wind_gusts":53.6,"aqi":28,"pm10":4.7,"pm2_5":4.3,"no2":6.7,"co":145.0,"o3":47.0,"so2":2.6,"mosquito_risk":10,"arthritis_risk":5,"migraine_risk":3,"frizz_risk":1,"updated_at":"2026-07-04T21:35:11.739872+05:30"},{"city":"Nizamabad","state":"Telangana","latitude":18.6725,"longitude":78.0941,"temp":24.8,"humidity":87,"rain":0.0,"pressure":958.2,"uv_index":1.9,"wind_gusts":52.9,"aqi":27,"pm10":4.4,"pm2_5":4.3,"no2":7.5,"co":156.0,"o3":43.0,"so2":3.4,"mosquito_risk":3,"arthritis_risk":5,"migraine_risk":3,"frizz_risk":1,"updated_at":"2026-07-04T21:35:11.739878+05:30"},{"city":"Mysore","state":"Karnataka","latitude":12.2958,"longitude":76.6396,"temp":22.1,"humidity":87,"rain":0.0,"pressure":927.8,"uv_index":8.05,"wind_gusts":68.0,"aqi":25,"pm10":3.1,"pm2_5":2.7,"no2":8.4,"co":132.0,"o3":39.0,"so2":1.8,"mosquito_risk":3,"arthritis_risk":5,"migraine_risk":7,"frizz_risk":1,"updated_at":"2026-07-04T21:35:11.739885+05:30"},{"city":"Mangalore","state":"Karnataka","latitude":12.9141,"longitude":74.856,"temp":26.0,"humidity":91,"rain":0.0,"pressure":1007.2,"uv_index":8.15,"wind_gusts":63.0,"aqi":40,"pm10":23.2,"pm2_5":15.8,"no2":10.8,"co":158.0,"o3":33.0,"so2":2.8,"mosquito_risk":7,"arthritis_risk":5,"migraine_risk":4,"frizz_risk":1,"updated_at":"2026-07-04T21:35:11.739891+05:30"},{"city":"Hubli-Dharwad","state":"Karnataka","latitude":15.3647,"longitude":75.124,"temp":21.6,"humidity":97,"rain":0.2,"pressure":938.2,"uv_index":1.9,"wind_gusts":60.1,"aqi":22,"pm10":2.5,"pm2_5":1.8,"no2":3.8,"co":112.0,"o3":44.0,"so2":0.7,"mosquito_risk":6,"arthritis_risk":5,"migraine_risk":3,"frizz_risk":1,"updated_at":"2026-07-04T21:35:11.739897+05:30"},{"city":"Belgaum","state":"Karnataka","latitude":15.8497,"longitude":74.4977,"temp":20.9,"humidity":97,"rain":0.2,"pressure":922.4,"uv_index":1.95,"wind_gusts":58.3,"aqi":21,"pm10":1.8,"pm2_5":1.4,"no2":3.3,"co":117.0,"o3":47.0,"so2":1.0,"mosquito_risk":6,"arthritis_risk":5,"migraine_risk":3,"frizz_risk":1,"updated_at":"2026-07-04T21:35:15.133811+05:30"},{"city":"Coimbatore","state":"Tamil Nadu","latitude":11.0168,"longitude":76.9558,"temp":24.3,"humidity":86,"rain":0.0,"pressure":961.4,"uv_index":5.85,"wind_gusts":56.9,"aqi":25,"pm10":4.0,"pm2_5":3.2,"no2":6.9,"co":159.0,"o3":40.0,"so2":2.1,"mosquito_risk":3,"arthritis_risk":5,"migraine_risk":3,"frizz_risk":1,"updated_at":"2026-07-04T21:35:15.133847+05:30"},{"city":"Madurai","state":"Tamil Nadu","latitude":9.9252,"longitude":78.1198,"temp":29.2,"humidity":59,"rain":0.0,"pressure":992.7,"uv_index":2.15,"wind_gusts":47.5,"aqi":32,"pm10":10.0,"pm2_5":7.3,"no2":12.5,"co":127.0,"o3":41.0,"so2":3.5,"mosquito_risk":4,"arthritis_risk":5,"migraine_risk":3,"frizz_risk":1,"updated_at":"2026-07-04T21:35:15.133858+05:30"},{"city":"Trichy","state":"Tamil Nadu","latitude":10.7905,"longitude":78.7047,"temp":30.0,"humidity":54,"rain":0.0,"pressure":998.8,"uv_index":6.05,"wind_gusts":60.1,"aqi":29,"pm10":8.6,"pm2_5":5.2,"no2":6.0,"co":118.0,"o3":42.0,"so2":2.1,"mosquito_risk":4,"arthritis_risk":5,"migraine_risk":7,"frizz_risk":1,"updated_at":"2026-07-04T21:35:15.133866+05:30"},{"city":"Salem","state":"Tamil Nadu","latitude":11.6643,"longitude":78.146,"temp":26.1,"humidity":75,"rain":0.0,"pressure":976.7,"uv_index":7.15,"wind_gusts":38.2,"aqi":35,"pm10":11.5,"pm2_5":9.6,"no2":17.1,"co":208.0,"o3":35.0,"so2":5.2,"mosquito_risk":7,"arthritis_risk":5,"migraine_risk":7,"frizz_risk":1,"updated_at":"2026-07-04T21:35:15.133874+05:30"},{"city":"Tirunelveli","state":"Tamil Nadu","latitude":8.7139,"longitude":77.7567,"temp":29.5,"humidity":59,"rain":0.0,"pressure":1004.0,"uv_index":3.25,"wind_gusts":56.5,"aqi":24,"pm10":10.7,"pm2_5":7.2,"no2":7.9,"co":117.0,"o3":36.0,"so2":1.7,"mosquito_risk":4,"arthritis_risk":5,"migraine_risk":0,"frizz_risk":1,"updated_at":"2026-07-04T21:35:15.133882+05:30"},{"city":"Vellore","state":"Tamil Nadu","latitude":12.9165,"longitude":79.1325,"temp":30.8,"humidity":48,"rain":0.0,"pressure":982.1,"uv_index":2.35,"wind_gusts":56.2,"aqi":30,"pm10":10.5,"pm2_5":7.3,"no2":8.5,"co":129.0,"o3":46.0,"so2":2.9,"mosquito_risk":0,"arthritis_risk":5,"migraine_risk":3,"frizz_risk":1,"updated_at":"2026-07-04T21:35:15.133890+05:30"},{"city":"Erode","state":"Tamil Nadu","latitude":11.341,"longitude":77.7172,"temp":26.7,"humidity":73,"rain":0.0,"pressure":988.5,"uv_index":6.3,"wind_gusts":51.1,"aqi":28,"pm10":9.0,"pm2_5":6.8,"no2":12.3,"co":166.0,"o3":37.0,"so2":2.7,"mosquito_risk":7,"arthritis_risk":5,"migraine_risk":7,"frizz_risk":1,"updated_at":"2026-07-04T21:35:15.133896+05:30"},{"city":"Kochi","state":"Kerala","latitude":9.9312,"longitude":76.2673,"temp":26.3,"humidity":94,"rain":0.1,"pressure":1010.7,"uv_index":6.9,"wind_gusts":44.6,"aqi":42,"pm10":19.4,"pm2_5":13.0,"no2":24.8,"co":121.0,"o3":16.0,"so2":5.5,"mosquito_risk":10,"arthritis_risk":0,"migraine_risk":4,"frizz_risk":1,"updated_at":"2026-07-04T21:35:15.133904+05:30"},{"city":"Thiruvananthapuram","state":"Kerala","latitude":8.5241,"longitude":76.9366,"temp":24.4,"humidity":98,"rain":0.0,"pressure":1010.4,"uv_index":7.35,"wind_gusts":52.6,"aqi":33,"pm10":22.2,"pm2_5":10.9,"no2":3.5,"co":106.0,"o3":48.0,"so2":1.1,"mosquito_risk":3,"arthritis_risk":0,"migraine_risk":4,"frizz_risk":1,"updated_at":"2026-07-04T21:35:15.133911+05:30"},{"city":"Kozhikode","state":"Kerala","latitude":11.2588,"longitude":75.7804,"temp":23.9,"humidity":98,"rain":0.2,"pressure":1009.8,"uv_index":5.85,"wind_gusts":37.1,"aqi":31,"pm10":17.3,"pm2_5":8.2,"no2":1.1,"co":185.0,"o3":56.0,"so2":0.7,"mosquito_risk":6,"arthritis_risk":0,"migraine_risk":0,"frizz_risk":1,"updated_at":"2026-07-04T21:35:15.133918+05:30"},{"city":"Thrissur","state":"Kerala","latitude":10.5276,"longitude":76.2144,"temp":26.0,"humidity":92,"rain":0.0,"pressure":1008.7,"uv_index":7.8,"wind_gusts":43.6,"aqi":37,"pm10":23.3,"pm2_5":16.6,"no2":17.2,"co":156.0,"o3":27.0,"so2":4.5,"mosquito_risk":7,"arthritis_risk":0,"migraine_risk":4,"frizz_risk":1,"updated_at":"2026-07-04T21:35:15.133927+05:30"},{"city":"Kannur","state":"Kerala","latitude":11.8745,"longitude":75.3704,"temp":25.5,"humidity":91,"rain":0.1,"pressure":1008.2,"uv_index":8.5,"wind_gusts":47.5,"aqi":36,"pm10":10.5,"pm2_5":6.0,"no2":10.2,"co":209.0,"o3":32.0,"so2":2.0,"mosquito_risk":10,"arthritis_risk":0,"migraine_risk":4,"frizz_risk":1,"updated_at":"2026-07-04T21:35:15.133933+05:30"},{"city":"Patna","state":"Bihar","latitude":25.5941,"longitude":85.1376,"temp":31.4,"humidity":76,"rain":0.0,"pressure":991.6,"uv_index":8.5,"wind_gusts":37.8,"aqi":93,"pm10":25.3,"pm2_5":25.1,"no2":19.3,"co":359.0,"o3":82.0,"so2":12.0,"mosquito_risk":3,"arthritis_risk":5,"migraine_risk":7,"frizz_risk":1,"updated_at":"2026-07-04T21:35:15.133940+05:30"},{"city":"Gaya","state":"Bihar","latitude":24.7914,"longitude":85.0002,"temp":30.4,"humidity":79,"rain":0.0,"pressure":984.5,"uv_index":8.5,"wind_gusts":38.5,"aqi":59,"pm10":27.8,"pm2_5":27.2,"no2":17.9,"co":285.0,"o3":59.0,"so2":9.3,"mosquito_risk":3,"arthritis_risk":5,"migraine_risk":7,"frizz_risk":1,"updated_at":"2026-07-04T21:35:15.133947+05:30"},{"city":"Muzaffarpur","state":"Bihar","latitude":26.1209,"longitude":85.3647,"temp":31.3,"humidity":75,"rain":0.0,"pressure":992.1,"uv_index":8.1,"wind_gusts":31.0,"aqi":95,"pm10":29.0,"pm2_5":28.7,"no2":21.5,"co":417.0,"o3":78.0,"so2":10.1,"mosquito_risk":3,"arthritis_risk":5,"migraine_risk":7,"frizz_risk":1,"updated_at":"2026-07-04T21:35:15.133953+05:30"},{"city":"Bhagalpur","state":"Bihar","latitude":25.2425,"longitude":87.0117,"temp":31.1,"humidity":74,"rain":0.0,"pressure":992.5,"uv_index":7.6,"wind_gusts":38.9,"aqi":61,"pm10":20.1,"pm2_5":19.8,"no2":12.6,"co":263.0,"o3":79.0,"so2":7.1,"mosquito_risk":3,"arthritis_risk":5,"migraine_risk":7,"frizz_risk":1,"updated_at":"2026-07-04T21:35:15.133960+05:30"},{"city":"Ranchi","state":"Jharkhand","latitude":23.3441,"longitude":85.3096,"temp":24.4,"humidity":93,"rain":0.0,"pressure":928.8,"uv_index":7.15,"wind_gusts":52.9,"aqi":65,"pm10":19.4,"pm2_5":19.4,"no2":12.5,"co":401.0,"o3":81.0,"so2":18.8,"mosquito_risk":3,"arthritis_risk":5,"migraine_risk":7,"frizz_risk":1,"updated_at":"2026-07-04T21:35:15.133967+05:30"},{"city":"Jamshedpur","state":"Jharkhand","latitude":22.8046,"longitude":86.2029,"temp":26.9,"humidity":93,"rain":0.0,"pressure":980.5,"uv_index":7.45,"wind_gusts":48.6,"aqi":59,"pm10":16.1,"pm2_5":15.9,"no2":15.2,"co":401.0,"o3":62.0,"so2":15.6,"mosquito_risk":7,"arthritis_risk":5,"migraine_risk":7,"frizz_risk":1,"updated_at":"2026-07-04T21:35:15.133974+05:30"},{"city":"Dhanbad","state":"Jharkhand","latitude":23.7957,"longitude":86.4304,"temp":27.4,"humidity":86,"rain":0.0,"pressure":970.6,"uv_index":6.2,"wind_gusts":53.6,"aqi":80,"pm10":27.7,"pm2_5":27.4,"no2":39.6,"co":229.0,"o3":44.0,"so2":89.1,"mosquito_risk":7,"arthritis_risk":5,"migraine_risk":7,"frizz_risk":1,"updated_at":"2026-07-04T21:35:15.133981+05:30"},{"city":"Bokaro","state":"Jharkhand","latitude":23.6693,"longitude":86.1511,"temp":27.1,"humidity":89,"rain":0.0,"pressure":974.3,"uv_index":5.1,"wind_gusts":51.1,"aqi":83,"pm10":29.7,"pm2_5":29.3,"no2":38.4,"co":284.0,"o3":47.0,"so2":92.9,"mosquito_risk":7,"arthritis_risk":5,"migraine_risk":3,"frizz_risk":1,"updated_at":"2026-07-04T21:35:15.133988+05:30"},{"city":"Bhubaneswar","state":"Odisha","latitude":20.2961,"longitude":85.8245,"temp":25.7,"humidity":98,"rain":0.0,"pressure":990.5,"uv_index":2.95,"wind_gusts":31.0,"aqi":61,"pm10":17.0,"pm2_5":16.4,"no2":17.8,"co":278.0,"o3":45.0,"so2":5.8,"mosquito_risk":7,"arthritis_risk":5,"migraine_risk":3,"frizz_risk":1,"updated_at":"2026-07-04T21:35:15.133995+05:30"},{"city":"Cuttack","state":"Odisha","latitude":20.4625,"longitude":85.8828,"temp":26.5,"humidity":96,"rain":0.1,"pressure":992.1,"uv_index":2.3,"wind_gusts":43.6,"aqi":61,"pm10":17.0,"pm2_5":16.4,"no2":17.8,"co":246.0,"o3":45.0,"so2":5.8,"mosquito_risk":10,"arthritis_risk":5,"migraine_risk":3,"frizz_risk":1,"updated_at":"2026-07-04T21:35:15.134002+05:30"},{"city":"Rourkela","state":"Odisha","latitude":22.2604,"longitude":84.8536,"temp":27.0,"humidity":90,"rain":0.0,"pressure":974.7,"uv_index":6.7,"wind_gusts":51.8,"aqi":61,"pm10":13.3,"pm2_5":13.2,"no2":11.0,"co":261.0,"o3":81.0,"so2":11.4,"mosquito_risk":7,"arthritis_risk":5,"migraine_risk":7,"frizz_risk":1,"updated_at":"2026-07-04T21:35:15.134009+05:30"},{"city":"Raipur","state":"Chhattisgarh","latitude":21.2514,"longitude":81.6296,"temp":25.6,"humidity":96,"rain":0.2,"pressure":965.9,"uv_index":7.3,"wind_gusts":29.5,"aqi":69,"pm10":20.8,"pm2_5":20.8,"no2":31.8,"co":486.0,"o3":61.0,"so2":46.2,"mosquito_risk":10,"arthritis_risk":5,"migraine_risk":7,"frizz_risk":1,"updated_at":"2026-07-04T21:35:15.134016+05:30"},{"city":"Bhilai","state":"Chhattisgarh","latitude":21.1938,"longitude":81.3509,"temp":25.1,"humidity":98,"rain":0.2,"pressure":966.7,"uv_index":6.8,"wind_gusts":33.1,"aqi":65,"pm10":17.2,"pm2_5":17.1,"no2":23.1,"co":613.0,"o3":72.0,"so2":34.6,"mosquito_risk":10,"arthritis_risk":5,"migraine_risk":7,"frizz_risk":1,"updated_at":"2026-07-04T21:35:15.134023+05:30"},{"city":"Guwahati","state":"Assam","latitude":26.1158,"longitude":91.7086,"temp":28.6,"humidity":92,"rain":0.0,"pressure":993.8,"uv_index":8.7,"wind_gusts":33.1,"aqi":37,"pm10":18.0,"pm2_5":17.9,"no2":15.9,"co":396.0,"o3":27.0,"so2":2.6,"mosquito_risk":7,"arthritis_risk":5,"migraine_risk":7,"frizz_risk":1,"updated_at":"2026-07-04T21:35:15.134029+05:30"},{"city":"Agartala","state":"Tripura","latitude":23.8315,"longitude":91.2868,"temp":28.2,"humidity":85,"rain":0.0,"pressure":998.3,"uv_index":8.55,"wind_gusts":29.9,"aqi":44,"pm10":11.3,"pm2_5":11.1,"no2":9.2,"co":200.0,"o3":42.0,"so2":1.9,"mosquito_risk":7,"arthritis_risk":5,"migraine_risk":7,"frizz_risk":1,"updated_at":"2026-07-04T21:35:15.134037+05:30"},{"city":"Shillong","state":"Meghalaya","latitude":25.5788,"longitude":91.8933,"temp":20.6,"humidity":96,"rain":0.0,"pressure":853.0,"uv_index":8.3,"wind_gusts":34.9,"aqi":33,"pm10":3.1,"pm2_5":3.0,"no2":8.4,"co":283.0,"o3":44.0,"so2":1.0,"mosquito_risk":3,"arthritis_risk":5,"migraine_risk":7,"frizz_risk":1,"updated_at":"2026-07-04T21:35:15.134044+05:30"},{"city":"Imphal","state":"Manipur","latitude":24.817,"longitude":93.9368,"temp":24.4,"humidity":86,"rain":0.0,"pressure":919.3,"uv_index":7.75,"wind_gusts":31.3,"aqi":28,"pm10":8.2,"pm2_5":8.1,"no2":10.2,"co":439.0,"o3":36.0,"so2":1.8,"mosquito_risk":3,"arthritis_risk":5,"migraine_risk":7,"frizz_risk":1,"updated_at":"2026-07-04T21:35:15.134055+05:30"},{"city":"Aizawl","state":"Mizoram","latitude":23.7271,"longitude":92.7176,"temp":21.9,"humidity":96,"rain":0.1,"pressure":886.9,"uv_index":8.7,"wind_gusts":26.3,"aqi":22,"pm10":6.5,"pm2_5":6.4,"no2":11.7,"co":249.0,"o3":21.0,"so2":0.9,"mosquito_risk":6,"arthritis_risk":5,"migraine_risk":7,"frizz_risk":1,"updated_at":"2026-07-04T21:35:15.134062+05:30"},{"city":"Kohima","state":"Nagaland","latitude":25.6701,"longitude":94.1077,"temp":21.2,"humidity":86,"rain":0.0,"pressure":851.4,"uv_index":9.1,"wind_gusts":29.2,"aqi":27,"pm10":9.4,"pm2_5":9.3,"no2":15.3,"co":195.0,"o3":20.0,"so2":1.2,"mosquito_risk":3,"arthritis_risk":5,"migraine_risk":7,"frizz_risk":1,"updated_at":"2026-07-04T21:35:15.134069+05:30"},{"city":"Gangtok","state":"Sikkim","latitude":27.3314,"longitude":88.6138,"temp":19.9,"humidity":95,"rain":0.3,"pressure":835.6,"uv_index":8.5,"wind_gusts":36.0,"aqi":46,"pm10":11.2,"pm2_5":10.9,"no2":9.6,"co":297.0,"o3":87.0,"so2":1.3,"mosquito_risk":6,"arthritis_risk":10,"migraine_risk":7,"frizz_risk":1,"updated_at":"2026-07-04T21:35:15.134076+05:30"},{"city":"Siliguri","state":"West Bengal","latitude":26.7271,"longitude":88.3953,"temp":28.4,"humidity":84,"rain":0.1,"pressure":985.8,"uv_index":8.7,"wind_gusts":24.1,"aqi":69,"pm10":26.8,"pm2_5":26.3,"no2":17.3,"co":853.0,"o3":80.0,"so2":4.5,"mosquito_risk":10,"arthritis_risk":5,"migraine_risk":7,"frizz_risk":1,"updated_at":"2026-07-04T21:35:18.411058+05:30"},{"city":"Durgapur","state":"West Bengal","latitude":23.5204,"longitude":87.3119,"temp":29.6,"humidity":76,"rain":0.0,"pressure":985.0,"uv_index":6.95,"wind_gusts":52.6,"aqi":66,"pm10":26.0,"pm2_5":25.3,"no2":21.9,"co":299.0,"o3":59.0,"so2":19.5,"mosquito_risk":7,"arthritis_risk":5,"migraine_risk":7,"frizz_risk":1,"updated_at":"2026-07-04T21:35:18.411095+05:30"},{"city":"Asansol","state":"West Bengal","latitude":23.6739,"longitude":86.9524,"temp":28.2,"humidity":86,"rain":0.0,"pressure":983.8,"uv_index":5.6,"wind_gusts":52.9,"aqi":64,"pm10":21.1,"pm2_5":20.7,"no2":23.6,"co":324.0,"o3":59.0,"so2":20.4,"mosquito_risk":7,"arthritis_risk":5,"migraine_risk":3,"frizz_risk":1,"updated_at":"2026-07-04T21:35:18.411107+05:30"},{"city":"Pondicherry","state":"Puducherry","latitude":11.9139,"longitude":79.8145,"temp":30.5,"humidity":59,"rain":0.0,"pressure":1006.1,"uv_index":5.25,"wind_gusts":41.0,"aqi":42,"pm10":14.8,"pm2_5":11.1,"no2":16.0,"co":275.0,"o3":52.0,"so2":12.7,"mosquito_risk":0,"arthritis_risk":5,"migraine_risk":0,"frizz_risk":1,"updated_at":"2026-07-04T21:35:18.411116+05:30"},{"city":"Port Blair","state":"Andaman and Nicobar Islands","latitude":11.6234,"longitude":92.7265,"temp":25.9,"humidity":95,"rain":0.0,"pressure":1007.8,"uv_index":5.1,"wind_gusts":57.2,"aqi":46,"pm10":10.7,"pm2_5":6.1,"no2":0.4,"co":95.0,"o3":59.0,"so2":0.4,"mosquito_risk":7,"arthritis_risk":5,"migraine_risk":0,"frizz_risk":1,"updated_at":"2026-07-04T21:35:18.411125+05:30"},{"city":"Haridwar","state":"Uttarakhand","latitude":29.9457,"longitude":78.1642,"temp":30.2,"humidity":81,"rain":0.0,"pressure":965.6,"uv_index":6.55,"wind_gusts":20.5,"aqi":137,"pm10":50.9,"pm2_5":50.9,"no2":26.8,"co":492.0,"o3":97.0,"so2":16.7,"mosquito_risk":3,"arthritis_risk":5,"migraine_risk":7,"frizz_risk":1,"updated_at":"2026-07-04T21:35:18.411134+05:30"},{"city":"Rishikesh","state":"Uttarakhand","latitude":30.0869,"longitude":78.2676,"temp":29.5,"humidity":80,"rain":0.0,"pressure":958.7,"uv_index":6.7,"wind_gusts":24.8,"aqi":109,"pm10":30.5,"pm2_5":30.5,"no2":11.3,"co":440.0,"o3":118.0,"so2":8.7,"mosquito_risk":7,"arthritis_risk":5,"migraine_risk":7,"frizz_risk":1,"updated_at":"2026-07-04T21:35:18.411142+05:30"},{"city":"Nainital","state":"Uttarakhand","latitude":29.3919,"longitude":79.4542,"temp":17.8,"humidity":100,"rain":0.0,"pressure":801.8,"uv_index":6.65,"wind_gusts":27.0,"aqi":70,"pm10":25.6,"pm2_5":25.3,"no2":19.3,"co":472.0,"o3":67.0,"so2":4.3,"mosquito_risk":3,"arthritis_risk":10,"migraine_risk":7,"frizz_risk":1,"updated_at":"2026-07-04T21:35:18.411150+05:30"},{"city":"Mussoorie","state":"Uttarakhand","latitude":30.4599,"longitude":78.0664,"temp":18.0,"humidity":99,"rain":0.0,"pressure":798.8,"uv_index":6.75,"wind_gusts":33.5,"aqi":109,"pm10":37.8,"pm2_5":37.7,"no2":30.6,"co":481.0,"o3":94.0,"so2":12.2,"mosquito_risk":3,"arthritis_risk":10,"migraine_risk":7,"frizz_risk":1,"updated_at":"2026-07-04T21:35:18.411174+05:30"},{"city":"Dharamshala","state":"Himachal Pradesh","latitude":32.219,"longitude":76.3234,"temp":23.4,"humidity":93,"rain":0.0,"pressure":863.9,"uv_index":8.45,"wind_gusts":29.2,"aqi":81,"pm10":14.2,"pm2_5":13.9,"no2":17.2,"co":452.0,"o3":69.0,"so2":0.6,"mosquito_risk":3,"arthritis_risk":5,"migraine_risk":7,"frizz_risk":1,"updated_at":"2026-07-04T21:35:18.411183+05:30"},{"city":"Dalhousie","state":"Himachal Pradesh","latitude":32.5387,"longitude":75.971,"temp":18.3,"humidity":99,"rain":0.0,"pressure":800.1,"uv_index":8.65,"wind_gusts":33.1,"aqi":152,"pm10":36.8,"pm2_5":34.1,"no2":26.1,"co":753.0,"o3":115.0,"so2":3.8,"mosquito_risk":3,"arthritis_risk":10,"migraine_risk":7,"frizz_risk":1,"updated_at":"2026-07-04T21:35:18.411190+05:30"},{"city":"Patiala","state":"Punjab","latitude":30.3398,"longitude":76.3869,"temp":29.7,"humidity":85,"rain":0.0,"pressure":969.3,"uv_index":7.25,"wind_gusts":28.4,"aqi":113,"pm10":87.5,"pm2_5":86.4,"no2":55.7,"co":947.0,"o3":59.0,"so2":16.6,"mosquito_risk":7,"arthritis_risk":5,"migraine_risk":7,"frizz_risk":1,"updated_at":"2026-07-04T21:35:18.411198+05:30"},{"city":"Bhatinda","state":"Punjab","latitude":30.211,"longitude":74.9455,"temp":32.4,"humidity":63,"rain":0.0,"pressure":974.4,"uv_index":7.95,"wind_gusts":26.3,"aqi":168,"pm10":60.8,"pm2_5":52.3,"no2":29.4,"co":506.0,"o3":84.0,"so2":17.3,"mosquito_risk":3,"arthritis_risk":5,"migraine_risk":7,"frizz_risk":1,"updated_at":"2026-07-04T21:35:18.411205+05:30"},{"city":"Rohtak","state":"Haryana","latitude":28.8955,"longitude":76.6066,"temp":31.3,"humidity":74,"rain":0.0,"pressure":972.7,"uv_index":6.25,"wind_gusts":19.4,"aqi":172,"pm10":397.7,"pm2_5":110.4,"no2":39.6,"co":735.0,"o3":98.0,"so2":33.1,"mosquito_risk":3,"arthritis_risk":5,"migraine_risk":7,"frizz_risk":1,"updated_at":"2026-07-04T21:35:18.411212+05:30"},{"city":"Panipat","state":"Haryana","latitude":29.3909,"longitude":76.9635,"temp":30.6,"humidity":82,"rain":0.0,"pressure":971.5,"uv_index":6.5,"wind_gusts":22.3,"aqi":196,"pm10":469.4,"pm2_5":129.0,"no2":51.5,"co":959.0,"o3":74.0,"so2":30.3,"mosquito_risk":3,"arthritis_risk":5,"migraine_risk":7,"frizz_risk":1,"updated_at":"2026-07-04T21:35:18.411219+05:30"},{"city":"Mathura","state":"Uttar Pradesh","latitude":27.4924,"longitude":77.6737,"temp":31.4,"humidity":77,"rain":0.0,"pressure":977.6,"uv_index":6.7,"wind_gusts":22.0,"aqi":122,"pm10":72.2,"pm2_5":56.5,"no2":49.1,"co":579.0,"o3":69.0,"so2":8.2,"mosquito_risk":3,"arthritis_risk":5,"migraine_risk":7,"frizz_risk":1,"updated_at":"2026-07-04T21:35:18.411227+05:30"},{"city":"Vrindavan","state":"Uttar Pradesh","latitude":27.5823,"longitude":77.7027,"temp":31.5,"humidity":76,"rain":0.0,"pressure":978.1,"uv_index":7.05,"wind_gusts":22.7,"aqi":122,"pm10":72.2,"pm2_5":56.5,"no2":49.1,"co":514.0,"o3":69.0,"so2":8.2,"mosquito_risk":3,"arthritis_risk":5,"migraine_risk":7,"frizz_risk":1,"updated_at":"2026-07-04T21:35:18.411233+05:30"},{"city":"Ayodhya","state":"Uttar Pradesh","latitude":26.7922,"longitude":82.1998,"temp":31.7,"humidity":74,"rain":0.0,"pressure":986.4,"uv_index":8.05,"wind_gusts":26.3,"aqi":95,"pm10":36.2,"pm2_5":35.9,"no2":21.3,"co":380.0,"o3":74.0,"so2":8.5,"mosquito_risk":3,"arthritis_risk":5,"migraine_risk":7,"frizz_risk":1,"updated_at":"2026-07-04T21:35:18.411240+05:30"},{"city":"Ratlam","state":"Madhya Pradesh","latitude":23.3315,"longitude":75.0367,"temp":24.5,"humidity":98,"rain":0.1,"pressure":946.4,"uv_index":6.1,"wind_gusts":36.4,"aqi":44,"pm10":36.4,"pm2_5":22.4,"no2":8.5,"co":210.0,"o3":57.0,"so2":3.1,"mosquito_risk":6,"arthritis_risk":5,"migraine_risk":7,"frizz_risk":1,"updated_at":"2026-07-04T21:35:18.411247+05:30"},{"city":"Sagar","state":"Madhya Pradesh","latitude":23.8388,"longitude":78.7378,"temp":25.2,"humidity":96,"rain":0.0,"pressure":942.7,"uv_index":8.0,"wind_gusts":24.8,"aqi":66,"pm10":17.3,"pm2_5":17.2,"no2":7.0,"co":288.0,"o3":89.0,"so2":3.5,"mosquito_risk":7,"arthritis_risk":5,"migraine_risk":7,"frizz_risk":1,"updated_at":"2026-07-04T21:35:18.411254+05:30"},{"city":"Satna","state":"Madhya Pradesh","latitude":24.6005,"longitude":80.8322,"temp":29.5,"humidity":78,"rain":0.0,"pressure":962.3,"uv_index":7.15,"wind_gusts":31.3,"aqi":75,"pm10":20.3,"pm2_5":20.1,"no2":17.6,"co":267.0,"o3":65.0,"so2":4.9,"mosquito_risk":7,"arthritis_risk":5,"migraine_risk":7,"frizz_risk":1,"updated_at":"2026-07-04T21:35:18.411261+05:30"},{"city":"Akola","state":"Maharashtra","latitude":20.7002,"longitude":77.0082,"temp":24.9,"humidity":94,"rain":0.0,"pressure":967.7,"uv_index":6.95,"wind_gusts":40.0,"aqi":34,"pm10":10.2,"pm2_5":8.7,"no2":11.7,"co":191.0,"o3":59.0,"so2":8.1,"mosquito_risk":3,"arthritis_risk":5,"migraine_risk":7,"frizz_risk":1,"updated_at":"2026-07-04T21:35:18.411268+05:30"},{"city":"Amravati","state":"Maharashtra","latitude":20.9374,"longitude":77.7796,"temp":25.7,"humidity":88,"rain":0.0,"pressure":959.7,"uv_index":7.25,"wind_gusts":47.2,"aqi":37,"pm10":9.1,"pm2_5":7.7,"no2":11.1,"co":195.0,"o3":63.0,"so2":9.0,"mosquito_risk":7,"arthritis_risk":5,"migraine_risk":7,"frizz_risk":1,"updated_at":"2026-07-04T21:35:18.411276+05:30"},{"city":"Latur","state":"Maharashtra","latitude":18.4088,"longitude":76.5604,"temp":23.4,"humidity":93,"rain":0.0,"pressure":934.0,"uv_index":2.4,"wind_gusts":47.5,"aqi":23,"pm10":2.7,"pm2_5":2.6,"no2":5.1,"co":143.0,"o3":45.0,"so2":1.5,"mosquito_risk":3,"arthritis_risk":5,"migraine_risk":3,"frizz_risk":1,"updated_at":"2026-07-04T21:35:18.411283+05:30"},{"city":"Nanded","state":"Maharashtra","latitude":19.1383,"longitude":77.3091,"temp":25.8,"humidity":84,"rain":0.0,"pressure":962.1,"uv_index":1.75,"wind_gusts":46.1,"aqi":28,"pm10":4.4,"pm2_5":4.3,"no2":8.2,"co":163.0,"o3":45.0,"so2":2.8,"mosquito_risk":7,"arthritis_risk":5,"migraine_risk":3,"frizz_risk":1,"updated_at":"2026-07-04T21:35:18.411290+05:30"},{"city":"Gulbarga","state":"Karnataka","latitude":17.3297,"longitude":76.8343,"temp":23.9,"humidity":91,"rain":0.1,"pressure":954.3,"uv_index":1.5,"wind_gusts":60.5,"aqi":25,"pm10":2.6,"pm2_5":2.4,"no2":7.4,"co":142.0,"o3":40.0,"so2":2.1,"mosquito_risk":6,"arthritis_risk":5,"migraine_risk":3,"frizz_risk":1,"updated_at":"2026-07-04T21:35:18.411297+05:30"},{"city":"Bidar","state":"Karnataka","latitude":17.9104,"longitude":77.5199,"temp":23.2,"humidity":90,"rain":0.0,"pressure":929.9,"uv_index":1.35,"wind_gusts":55.1,"aqi":23,"pm10":3.0,"pm2_5":2.8,"no2":7.0,"co":136.0,"o3":41.0,"so2":1.7,"mosquito_risk":3,"arthritis_risk":5,"migraine_risk":3,"frizz_risk":1,"updated_at":"2026-07-04T21:35:18.411303+05:30"},{"city":"Hospet","state":"Karnataka","latitude":15.2689,"longitude":76.3909,"temp":23.0,"humidity":93,"rain":0.0,"pressure":953.5,"uv_index":1.7,"wind_gusts":68.8,"aqi":25,"pm10":1.9,"pm2_5":1.7,"no2":5.3,"co":125.0,"o3":40.0,"so2":1.2,"mosquito_risk":3,"arthritis_risk":5,"migraine_risk":3,"frizz_risk":1,"updated_at":"2026-07-04T21:35:18.411310+05:30"},{"city":"Tirupur","state":"Tamil Nadu","latitude":11.1085,"longitude":77.3411,"temp":25.7,"humidity":79,"rain":0.0,"pressure":974.6,"uv_index":7.75,"wind_gusts":59.4,"aqi":27,"pm10":8.5,"pm2_5":7.2,"no2":14.5,"co":151.0,"o3":33.0,"so2":3.7,"mosquito_risk":7,"arthritis_risk":5,"migraine_risk":7,"frizz_risk":1,"updated_at":"2026-07-04T21:35:18.411316+05:30"},{"city":"Alappuzha","state":"Kerala","latitude":9.4981,"longitude":76.3388,"temp":27.0,"humidity":88,"rain":0.0,"pressure":1010.8,"uv_index":6.75,"wind_gusts":44.6,"aqi":38,"pm10":25.3,"pm2_5":13.8,"no2":9.8,"co":86.0,"o3":38.0,"so2":2.3,"mosquito_risk":7,"arthritis_risk":0,"migraine_risk":4,"frizz_risk":1,"updated_at":"2026-07-04T21:35:18.411323+05:30"},{"city":"Munnar","state":"Kerala","latitude":10.0889,"longitude":77.0595,"temp":16.5,"humidity":100,"rain":0.1,"pressure":857.3,"uv_index":3.75,"wind_gusts":59.8,"aqi":24,"pm10":5.0,"pm2_5":4.0,"no2":8.4,"co":103.0,"o3":33.0,"so2":1.7,"mosquito_risk":6,"arthritis_risk":10,"migraine_risk":3,"frizz_risk":1,"updated_at":"2026-07-04T21:35:18.411330+05:30"},{"city":"Silchar","state":"Assam","latitude":24.8333,"longitude":92.7789,"temp":29.1,"humidity":91,"rain":0.0,"pressure":997.6,"uv_index":8.65,"wind_gusts":29.9,"aqi":50,"pm10":16.6,"pm2_5":16.5,"no2":9.3,"co":293.0,"o3":40.0,"so2":3.8,"mosquito_risk":7,"arthritis_risk":5,"migraine_risk":7,"frizz_risk":1,"updated_at":"2026-07-04T21:35:18.411337+05:30"},{"city":"Dibrugarh","state":"Assam","latitude":27.4728,"longitude":94.912,"temp":30.7,"humidity":73,"rain":0.0,"pressure":988.3,"uv_index":8.9,"wind_gusts":28.4,"aqi":54,"pm10":36.2,"pm2_5":35.5,"no2":26.5,"co":209.0,"o3":29.0,"so2":4.0,"mosquito_risk":3,"arthritis_risk":5,"migraine_risk":7,"frizz_risk":1,"updated_at":"2026-07-04T21:35:18.411343+05:30"}]