[{"city":"Delhi","state":"Delhi","latitude":28.6139,"longitude":77.209,"temp":23.9,"humidity":72,"rain":0.0,"pressure":981.3,"uv_index":7.45,"wind_gusts":58.7,"aqi":491,"pm10":674.3,"pm2_5":103.1,"no2":11.8,"co":350.0,"o3":109.0,"so2":19.4,"mosquito_risk":3,"arthritis_risk":5,"migraine_risk":7,"frizz_risk":1,"updated_at":"2026-05-04T05:21:57.328206+05:30"},{"city":"Mumbai","state":"Maharashtra","latitude":19.076,"longitude":72.8777,"temp":28.2,"humidity":78,"rain":0.0,"pressure":1005.8,"uv_index":7.85,"wind_gusts":43.2,"aqi":67,"pm10":33.8,"pm2_5":14.8,"no2":8.8,"co":207.0,"o3":63.0,"so2":13.2,"mosquito_risk":7,"arthritis_risk":5,"migraine_risk":4,"frizz_risk":1,"updated_at":"2026-05-04T05:21:57.328255+05:30"},{"city":"Bangalore","state":"Karnataka","latitude":12.9716,"longitude":77.5946,"temp":21.0,"humidity":97,"rain":0.0,"pressure":910.0,"uv_index":9.45,"wind_gusts":29.9,"aqi":78,"pm10":38.9,"pm2_5":21.5,"no2":14.7,"co":255.0,"o3":47.0,"so2":8.5,"mosquito_risk":3,"arthritis_risk":5,"migraine_risk":7,"frizz_risk":1,"updated_at":"2026-05-04T05:21:57.328273+05:30"},{"city":"Hyderabad","state":"Telangana","latitude":17.385,"longitude":78.4867,"temp":26.6,"humidity":62,"rain":0.0,"pressure":951.1,"uv_index":9.25,"wind_gusts":36.0,"aqi":79,"pm10":41.0,"pm2_5":25.6,"no2":17.1,"co":280.0,"o3":53.0,"so2":5.7,"mosquito_risk":7,"arthritis_risk":5,"migraine_risk":7,"frizz_risk":1,"updated_at":"2026-05-04T05:21:57.328284+05:30"},{"city":"Chennai","state":"Tamil Nadu","latitude":13.0827,"longitude":80.2707,"temp":29.3,"humidity":74,"rain":0.0,"pressure":1004.0,"uv_index":9.25,"wind_gusts":53.3,"aqi":89,"pm10":26.6,"pm2_5":20.8,"no2":7.1,"co":212.0,"o3":106.0,"so2":8.7,"mosquito_risk":7,"arthritis_risk":5,"migraine_risk":4,"frizz_risk":1,"updated_at":"2026-05-04T05:21:57.328294+05:30"},{"city":"Kolkata","state":"West Bengal","latitude":22.5726,"longitude":88.3639,"temp":25.9,"humidity":97,"rain":0.0,"pressure":1005.9,"uv_index":7.0,"wind_gusts":34.6,"aqi":111,"pm10":26.3,"pm2_5":21.1,"no2":9.4,"co":333.0,"o3":76.0,"so2":5.1,"mosquito_risk":7,"arthritis_risk":5,"migraine_risk":4,"frizz_risk":1,"updated_at":"2026-05-04T05:21:57.328309+05:30"},{"city":"Pune","state":"Maharashtra","latitude":18.5204,"longitude":73.8567,"temp":21.1,"humidity":91,"rain":0.0,"pressure":945.5,"uv_index":8.45,"wind_gusts":47.5,"aqi":59,"pm10":33.3,"pm2_5":18.0,"no2":12.3,"co":195.0,"o3":39.0,"so2":8.6,"mosquito_risk":3,"arthritis_risk":5,"migraine_risk":7,"frizz_risk":1,"updated_at":"2026-05-04T05:21:57.328318+05:30"},{"city":"Ahmedabad","state":"Gujarat","latitude":23.0225,"longitude":72.5714,"temp":27.9,"humidity":69,"rain":0.0,"pressure":997.5,"uv_index":8.05,"wind_gusts":48.2,"aqi":54,"pm10":22.6,"pm2_5":11.3,"no2":5.6,"co":219.0,"o3":55.0,"so2":6.6,"mosquito_risk":7,"arthritis_risk":5,"migraine_risk":7,"frizz_risk":1,"updated_at":"2026-05-04T05:21:57.328332+05:30"},{"city":"Jaipur","state":"Rajasthan","latitude":26.9124,"longitude":75.7873,"temp":26.0,"humidity":45,"rain":0.0,"pressure":955.1,"uv_index":8.05,"wind_gusts":58.3,"aqi":140,"pm10":603.5,"pm2_5":98.5,"no2":4.4,"co":264.0,"o3":116.0,"so2":7.0,"mosquito_risk":4,"arthritis_risk":5,"migraine_risk":7,"frizz_risk":0,"updated_at":"2026-05-04T05:21:57.328340+05:30"},{"city":"Lucknow","state":"Uttar Pradesh","latitude":26.8467,"longitude":80.9462,"temp":24.0,"humidity":79,"rain":0.0,"pressure":992.6,"uv_index":8.05,"wind_gusts":54.0,"aqi":87,"pm10":38.5,"pm2_5":28.1,"no2":7.7,"co":339.0,"o3":107.0,"so2":8.2,"mosquito_risk":3,"arthritis_risk":5,"migraine_risk":7,"frizz_risk":1,"updated_at":"2026-05-04T05:21:57.328349+05:30"},{"city":"Kanpur","state":"Uttar Pradesh","latitude":26.4499,"longitude":80.3319,"temp":25.5,"humidity":69,"rain":0.0,"pressure":990.0,"uv_index":8.05,"wind_gusts":48.2,"aqi":197,"pm10":434.9,"pm2_5":64.0,"no2":6.3,"co":335.0,"o3":110.0,"so2":7.8,"mosquito_risk":7,"arthritis_risk":5,"migraine_risk":7,"frizz_risk":1,"updated_at":"2026-05-04T05:21:57.328357+05:30"},{"city":"Chandigarh","state":"Chandigarh","latitude":30.7333,"longitude":76.7794,"temp":21.6,"humidity":72,"rain":0.0,"pressure":967.6,"uv_index":7.5,"wind_gusts":55.8,"aqi":99,"pm10":30.4,"pm2_5":19.4,"no2":11.7,"co":313.0,"o3":79.0,"so2":4.9,"mosquito_risk":3,"arthritis_risk":5,"migraine_risk":7,"frizz_risk":1,"updated_at":"2026-05-04T05:21:57.328366+05:30"},{"city":"Srinagar","state":"Jammu and Kashmir","latitude":34.0837,"longitude":74.7973,"temp":8.2,"humidity":100,"rain":0.0,"pressure":840.7,"uv_index":6.8,"wind_gusts":23.4,"aqi":67,"pm10":38.1,"pm2_5":31.9,"no2":14.0,"co":343.0,"o3":67.0,"so2":1.6,"mosquito_risk":3,"arthritis_risk":10,"migraine_risk":7,"frizz_risk":0,"updated_at":"2026-05-04T05:21:57.328376+05:30"},{"city":"Jammu","state":"Jammu and Kashmir","latitude":32.7266,"longitude":74.857,"temp":19.7,"humidity":57,"rain":0.0,"pressure":970.5,"uv_index":7.65,"wind_gusts":58.0,"aqi":71,"pm10":21.1,"pm2_5":18.0,"no2":14.1,"co":219.0,"o3":41.0,"so2":1.9,"mosquito_risk":0,"arthritis_risk":5,"migraine_risk":7,"frizz_risk":0,"updated_at":"2026-05-04T05:21:57.328384+05:30"},{"city":"Amritsar","state":"Punjab","latitude":31.634,"longitude":74.8723,"temp":22.4,"humidity":63,"rain":0.0,"pressure":978.2,"uv_index":8.1,"wind_gusts":53.3,"aqi":124,"pm10":145.3,"pm2_5":43.1,"no2":2.7,"co":376.0,"o3":124.0,"so2":4.9,"mosquito_risk":3,"arthritis_risk":5,"migraine_risk":7,"frizz_risk":0,"updated_at":"2026-05-04T05:21:57.328392+05:30"},{"city":"Ludhiana","state":"Punjab","latitude":30.901,"longitude":75.8573,"temp":21.6,"humidity":82,"rain":0.0,"pressure":975.8,"uv_index":7.45,"wind_gusts":56.2,"aqi":238,"pm10":95.2,"pm2_5":42.1,"no2":10.1,"co":393.0,"o3":80.0,"so2":11.1,"mosquito_risk":3,"arthritis_risk":5,"migraine_risk":7,"frizz_risk":1,"updated_at":"2026-05-04T05:21:57.328400+05:30"},{"city":"Jalandhar","state":"Punjab","latitude":31.326,"longitude":75.5762,"temp":21.7,"humidity":72,"rain":0.0,"pressure":977.0,"uv_index":7.45,"wind_gusts":61.9,"aqi":137,"pm10":79.9,"pm2_5":34.2,"no2":6.1,"co":385.0,"o3":101.0,"so2":8.4,"mosquito_risk":3,"arthritis_risk":5,"migraine_risk":7,"frizz_risk":1,"updated_at":"2026-05-04T05:21:57.328408+05:30"},{"city":"Dehradun","state":"Uttarakhand","latitude":30.6284,"longitude":78.0322,"temp":11.6,"humidity":91,"rain":0.0,"pressure":827.9,"uv_index":7.15,"wind_gusts":34.2,"aqi":58,"pm10":9.4,"pm2_5":8.4,"no2":22.0,"co":242.0,"o3":19.0,"so2":0.0,"mosquito_risk":3,"arthritis_risk":10,"migraine_risk":7,"frizz_risk":0,"updated_at":"2026-05-04T05:21:57.328418+05:30"},{"city":"Shimla","state":"Himachal Pradesh","latitude":31.1048,"longitude":77.1734,"temp":8.8,"humidity":83,"rain":0.0,"pressure":780.1,"uv_index":7.8,"wind_gusts":36.7,"aqi":60,"pm10":22.9,"pm2_5":10.2,"no2":8.2,"co":193.0,"o3":104.0,"so2":0.9,"mosquito_risk":3,"arthritis_risk":10,"migraine_risk":7,"frizz_risk":0,"updated_at":"2026-05-04T05:21:57.328426+05:30"},{"city":"Manali","state":"Himachal Pradesh","latitude":32.2396,"longitude":77.1887,"temp":7.1,"humidity":72,"rain":0.0,"pressure":812.1,"uv_index":5.9,"wind_gusts":44.3,"aqi":92,"pm10":2.0,"pm2_5":1.6,"no2":4.6,"co":162.0,"o3":132.0,"so2":0.0,"mosquito_risk":3,"arthritis_risk":5,"migraine_risk":3,"frizz_risk":0,"updated_at":"2026-05-04T05:21:57.328432+05:30"},{"city":"Gurgaon","state":"Haryana","latitude":28.4595,"longitude":77.0266,"temp":22.4,"humidity":82,"rain":0.0,"pressure":979.0,"uv_index":7.6,"wind_gusts":59.0,"aqi":1861,"pm10":2838.7,"pm2_5":312.9,"no2":6.4,"co":341.0,"o3":118.0,"so2":12.8,"mosquito_risk":3,"arthritis_risk":5,"migraine_risk":7,"frizz_risk":1,"updated_at":"2026-05-04T05:21:57.328440+05:30"},{"city":"Noida","state":"Uttar Pradesh","latitude":28.5355,"longitude":77.391,"temp":23.6,"humidity":77,"rain":0.0,"pressure":983.4,"uv_index":7.5,"wind_gusts":58.7,"aqi":1861,"pm10":2838.7,"pm2_5":312.9,"no2":6.4,"co":330.0,"o3":118.0,"so2":12.8,"mosquito_risk":3,"arthritis_risk":5,"migraine_risk":7,"frizz_risk":1,"updated_at":"2026-05-04T05:21:57.328464+05:30"},{"city":"Ghaziabad","state":"Uttar Pradesh","latitude":28.6692,"longitude":77.4538,"temp":23.7,"humidity":75,"rain":0.0,"pressure":981.3,"uv_index":7.45,"wind_gusts":61.2,"aqi":297,"pm10":274.7,"pm2_5":51.2,"no2":7.4,"co":301.0,"o3":108.0,"so2":13.8,"mosquito_risk":3,"arthritis_risk":5,"migraine_risk":7,"frizz_risk":1,"updated_at":"2026-05-04T05:21:57.328472+05:30"},{"city":"Faridabad","state":"Haryana","latitude":28.4089,"longitude":77.3178,"temp":23.0,"humidity":80,"rain":0.0,"pressure":982.6,"uv_index":7.55,"wind_gusts":61.6,"aqi":1861,"pm10":2838.7,"pm2_5":312.9,"no2":6.4,"co":336.0,"o3":118.0,"so2":12.8,"mosquito_risk":3,"arthritis_risk":5,"migraine_risk":7,"frizz_risk":1,"updated_at":"2026-05-04T05:21:57.328479+05:30"},{"city":"Meerut","state":"Uttar Pradesh","latitude":28.9845,"longitude":77.7064,"temp":21.8,"humidity":82,"rain":0.0,"pressure":979.8,"uv_index":7.4,"wind_gusts":65.5,"aqi":297,"pm10":274.7,"pm2_5":51.2,"no2":7.4,"co":291.0,"o3":108.0,"so2":13.8,"mosquito_risk":3,"arthritis_risk":5,"migraine_risk":7,"frizz_risk":1,"updated_at":"2026-05-04T05:21:57.328486+05:30"},{"city":"Agra","state":"Uttar Pradesh","latitude":27.1767,"longitude":78.0081,"temp":25.1,"humidity":73,"rain":0.0,"pressure":985.4,"uv_index":7.9,"wind_gusts":68.0,"aqi":1022,"pm10":935.0,"pm2_5":123.9,"no2":6.3,"co":297.0,"o3":101.0,"so2":10.8,"mosquito_risk":7,"arthritis_risk":5,"migraine_risk":7,"frizz_risk":1,"updated_at":"2026-05-04T05:21:57.328493+05:30"},{"city":"Varanasi","state":"Uttar Pradesh","latitude":25.3176,"longitude":82.9739,"temp":25.0,"humidity":81,"rain":0.0,"pressure":997.2,"uv_index":8.6,"wind_gusts":38.5,"aqi":130,"pm10":58.6,"pm2_5":53.3,"no2":10.7,"co":425.0,"o3":100.0,"so2":14.6,"mosquito_risk":7,"arthritis_risk":5,"migraine_risk":7,"frizz_risk":1,"updated_at":"2026-05-04T05:21:57.328503+05:30"},{"city":"Prayagraj","state":"Uttar Pradesh","latitude":25.4358,"longitude":81.8463,"temp":25.8,"humidity":76,"rain":0.0,"pressure":994.8,"uv_index":8.5,"wind_gusts":57.2,"aqi":113,"pm10":57.7,"pm2_5":52.9,"no2":10.3,"co":448.0,"o3":101.0,"so2":10.6,"mosquito_risk":7,"arthritis_risk":5,"migraine_risk":7,"frizz_risk":1,"updated_at":"2026-05-04T05:21:57.328513+05:30"},{"city":"Gorakhpur","state":"Uttar Pradesh","latitude":26.7606,"longitude":83.3732,"temp":23.1,"humidity":83,"rain":0.0,"pressure":998.1,"uv_index":8.45,"wind_gusts":38.5,"aqi":84,"pm10":30.9,"pm2_5":26.9,"no2":11.1,"co":391.0,"o3":86.0,"so2":8.4,"mosquito_risk":3,"arthritis_risk":5,"migraine_risk":7,"frizz_risk":1,"updated_at":"2026-05-04T05:21:57.328520+05:30"},{"city":"Bareilly","state":"Uttar Pradesh","latitude":28.367,"longitude":79.4304,"temp":23.0,"humidity":76,"rain":0.0,"pressure":985.9,"uv_index":7.8,"wind_gusts":49.0,"aqi":112,"pm10":110.4,"pm2_5":37.0,"no2":6.3,"co":313.0,"o3":102.0,"so2":4.7,"mosquito_risk":3,"arthritis_risk":5,"migraine_risk":7,"frizz_risk":1,"updated_at":"2026-05-04T05:21:57.328527+05:30"},{"city":"Aligarh","state":"Uttar Pradesh","latitude":27.8974,"longitude":78.088,"temp":24.4,"humidity":72,"rain":0.0,"pressure":982.9,"uv_index":7.7,"wind_gusts":59.0,"aqi":859,"pm10":609.1,"pm2_5":93.6,"no2":5.3,"co":330.0,"o3":111.0,"so2":10.2,"mosquito_risk":3,"arthritis_risk":5,"migraine_risk":7,"frizz_risk":1,"updated_at":"2026-05-04T05:21:57.328536+05:30"},{"city":"Moradabad","state":"Uttar Pradesh","latitude":28.8386,"longitude":78.7733,"temp":21.7,"humidity":87,"rain":0.0,"pressure":983.8,"uv_index":6.5,"wind_gusts":56.2,"aqi":112,"pm10":61.5,"pm2_5":31.4,"no2":6.2,"co":298.0,"o3":113.0,"so2":5.8,"mosquito_risk":3,"arthritis_risk":5,"migraine_risk":7,"frizz_risk":1,"updated_at":"2026-05-04T05:21:57.328543+05:30"},{"city":"Saharanpur","state":"Uttar Pradesh","latitude":29.9637,"longitude":77.546,"temp":20.4,"humidity":89,"rain":0.0,"pressure":974.9,"uv_index":7.05,"wind_gusts":54.7,"aqi":145,"pm10":114.6,"pm2_5":43.0,"no2":8.5,"co":334.0,"o3":106.0,"so2":12.4,"mosquito_risk":3,"arthritis_risk":5,"migraine_risk":7,"frizz_risk":1,"updated_at":"2026-05-04T05:21:57.328549+05:30"},{"city":"Jhansi","state":"Uttar Pradesh","latitude":25.4484,"longitude":78.5685,"temp":26.4,"humidity":64,"rain":0.0,"pressure":974.2,"uv_index":8.35,"wind_gusts":50.0,"aqi":96,"pm10":29.5,"pm2_5":24.8,"no2":3.4,"co":305.0,"o3":132.0,"so2":12.6,"mosquito_risk":7,"arthritis_risk":5,"migraine_risk":7,"frizz_risk":1,"updated_at":"2026-05-04T05:22:00.847831+05:30"},{"city":"Surat","state":"Gujarat","latitude":21.1702,"longitude":72.8311,"temp":27.9,"humidity":83,"rain":0.0,"pressure":1003.0,"uv_index":7.7,"wind_gusts":51.8,"aqi":59,"pm10":24.6,"pm2_5":15.4,"no2":19.3,"co":248.0,"o3":54.0,"so2":32.2,"mosquito_risk":7,"arthritis_risk":5,"migraine_risk":4,"frizz_risk":1,"updated_at":"2026-05-04T05:22:00.847866+05:30"},{"city":"Vadodara","state":"Gujarat","latitude":22.3072,"longitude":73.1812,"temp":27.1,"humidity":86,"rain":0.0,"pressure":1000.4,"uv_index":8.05,"wind_gusts":46.8,"aqi":52,"pm10":17.5,"pm2_5":10.8,"no2":9.7,"co":156.0,"o3":54.0,"so2":13.2,"mosquito_risk":7,"arthritis_risk":5,"migraine_risk":4,"frizz_risk":1,"updated_at":"2026-05-04T05:22:00.847878+05:30"},{"city":"Rajkot","state":"Gujarat","latitude":22.3039,"longitude":70.8022,"temp":25.5,"humidity":93,"rain":0.0,"pressure":989.4,"uv_index":7.7,"wind_gusts":45.4,"aqi":45,"pm10":19.9,"pm2_5":8.5,"no2":2.7,"co":155.0,"o3":64.0,"so2":3.4,"mosquito_risk":7,"arthritis_risk":5,"migraine_risk":7,"frizz_risk":1,"updated_at":"2026-05-04T05:22:00.847887+05:30"},{"city":"Thane","state":"Maharashtra","latitude":19.2183,"longitude":72.9781,"temp":26.8,"humidity":88,"rain":0.0,"pressure":1005.3,"uv_index":7.9,"wind_gusts":40.3,"aqi":67,"pm10":33.8,"pm2_5":14.8,"no2":8.8,"co":219.0,"o3":63.0,"so2":13.2,"mosquito_risk":7,"arthritis_risk":5,"migraine_risk":4,"frizz_risk":1,"updated_at":"2026-05-04T05:22:00.847894+05:30"},{"city":"Nagpur","state":"Maharashtra","latitude":21.1458,"longitude":79.0882,"temp":28.3,"humidity":28,"rain":0.0,"pressure":969.9,"uv_index":8.95,"wind_gusts":47.5,"aqi":73,"pm10":13.5,"pm2_5":10.4,"no2":8.4,"co":275.0,"o3":75.0,"so2":9.6,"mosquito_risk":4,"arthritis_risk":5,"migraine_risk":7,"frizz_risk":0,"updated_at":"2026-05-04T05:22:00.847901+05:30"},{"city":"Nashik","state":"Maharashtra","latitude":19.9975,"longitude":73.7898,"temp":22.2,"humidity":92,"rain":0.0,"pressure":942.4,"uv_index":8.2,"wind_gusts":45.0,"aqi":61,"pm10":31.9,"pm2_5":18.9,"no2":16.9,"co":216.0,"o3":38.0,"so2":13.0,"mosquito_risk":3,"arthritis_risk":5,"migraine_risk":7,"frizz_risk":1,"updated_at":"2026-05-04T05:22:00.847908+05:30"},{"city":"Aurangabad","state":"Maharashtra","latitude":19.8762,"longitude":75.3433,"temp":22.5,"humidity":74,"rain":0.0,"pressure":940.7,"uv_index":9.05,"wind_gusts":42.8,"aqi":54,"pm10":32.2,"pm2_5":13.6,"no2":12.4,"co":209.0,"o3":54.0,"so2":14.6,"mosquito_risk":3,"arthritis_risk":5,"migraine_risk":7,"frizz_risk":1,"updated_at":"2026-05-04T05:22:00.847915+05:30"},{"city":"Solapur","state":"Maharashtra","latitude":17.6599,"longitude":75.9064,"temp":25.5,"humidity":53,"rain":0.0,"pressure":954.9,"uv_index":9.1,"wind_gusts":32.4,"aqi":55,"pm10":26.4,"pm2_5":11.8,"no2":9.3,"co":194.0,"o3":48.0,"so2":3.7,"mosquito_risk":4,"arthritis_risk":5,"migraine_risk":7,"frizz_risk":0,"updated_at":"2026-05-04T05:22:00.847922+05:30"},{"city":"Kolhapur","state":"Maharashtra","latitude":16.705,"longitude":74.2433,"temp":21.5,"humidity":98,"rain":0.0,"pressure":945.7,"uv_index":8.95,"wind_gusts":46.4,"aqi":61,"pm10":32.1,"pm2_5":16.1,"no2":7.4,"co":171.0,"o3":44.0,"so2":0.8,"mosquito_risk":3,"arthritis_risk":5,"migraine_risk":7,"frizz_risk":1,"updated_at":"2026-05-04T05:22:00.847929+05:30"},{"city":"Goa","state":"Goa","latitude":15.2993,"longitude":74.124,"temp":26.4,"humidity":92,"rain":0.0,"pressure":996.5,"uv_index":8.9,"wind_gusts":37.8,"aqi":66,"pm10":61.2,"pm2_5":25.3,"no2":9.7,"co":208.0,"o3":53.0,"so2":1.8,"mosquito_risk":7,"arthritis_risk":5,"migraine_risk":7,"frizz_risk":1,"updated_at":"2026-05-04T05:22:00.847936+05:30"},{"city":"Jodhpur","state":"Rajasthan","latitude":26.2389,"longitude":73.0243,"temp":27.6,"humidity":51,"rain":0.0,"pressure":976.6,"uv_index":8.25,"wind_gusts":49.0,"aqi":114,"pm10":114.1,"pm2_5":24.0,"no2":6.8,"co":216.0,"o3":57.0,"so2":3.5,"mosquito_risk":4,"arthritis_risk":5,"migraine_risk":7,"frizz_risk":1,"updated_at":"2026-05-04T05:22:00.847943+05:30"},{"city":"Udaipur","state":"Rajasthan","latitude":24.5854,"longitude":73.7125,"temp":23.2,"humidity":79,"rain":0.0,"pressure":941.5,"uv_index":8.75,"wind_gusts":33.5,"aqi":49,"pm10":19.1,"pm2_5":11.8,"no2":8.7,"co":195.0,"o3":47.0,"so2":12.9,"mosquito_risk":3,"arthritis_risk":5,"migraine_risk":7,"frizz_risk":1,"updated_at":"2026-05-04T05:22:00.847949+05:30"},{"city":"Kota","state":"Rajasthan","latitude":25.2138,"longitude":75.8648,"temp":27.2,"humidity":56,"rain":0.0,"pressure":974.2,"uv_index":8.25,"wind_gusts":73.8,"aqi":67,"pm10":13.5,"pm2_5":9.8,"no2":3.6,"co":219.0,"o3":90.0,"so2":8.0,"mosquito_risk":4,"arthritis_risk":5,"migraine_risk":7,"frizz_risk":1,"updated_at":"2026-05-04T05:22:00.847956+05:30"},{"city":"Bikaner","state":"Rajasthan","latitude":28.0229,"longitude":73.3119,"temp":26.0,"humidity":48,"rain":0.0,"pressure":975.1,"uv_index":8.15,"wind_gusts":60.1,"aqi":82,"pm10":87.1,"pm2_5":21.4,"no2":2.3,"co":197.0,"o3":85.0,"so2":4.7,"mosquito_risk":4,"arthritis_risk":5,"migraine_risk":7,"frizz_risk":0,"updated_at":"2026-05-04T05:22:00.847962+05:30"},{"city":"Ajmer","state":"Rajasthan","latitude":26.4499,"longitude":74.6399,"temp":25.6,"humidity":41,"rain":0.0,"pressure":949.3,"uv_index":8.2,"wind_gusts":58.7,"aqi":64,"pm10":81.7,"pm2_5":20.8,"no2":4.9,"co":166.0,"o3":74.0,"so2":3.7,"mosquito_risk":4,"arthritis_risk":5,"migraine_risk":7,"frizz_risk":0,"updated_at":"2026-05-04T05:22:00.847969+05:30"},{"city":"Gwalior","state":"Madhya Pradesh","latitude":26.2183,"longitude":78.1828,"temp":26.8,"humidity":63,"rain":0.0,"pressure":979.6,"uv_index":8.1,"wind_gusts":49.7,"aqi":94,"pm10":24.7,"pm2_5":23.1,"no2":3.5,"co":296.0,"o3":124.0,"so2":11.8,"mosquito_risk":7,"arthritis_risk":5,"migraine_risk":7,"frizz_risk":1,"updated_at":"2026-05-04T05:22:00.847976+05:30"},{"city":"Indore","state":"Madhya Pradesh","latitude":22.7196,"longitude":75.8577,"temp":24.6,"humidity":71,"rain":0.0,"pressure":944.6,"uv_index":8.6,"wind_gusts":39.2,"aqi":50,"pm10":18.3,"pm2_5":10.4,"no2":4.9,"co":170.0,"o3":69.0,"so2":11.0,"mosquito_risk":3,"arthritis_risk":5,"migraine_risk":7,"frizz_risk":1,"updated_at":"2026-05-04T05:22:00.847981+05:30"},{"city":"Bhopal","state":"Madhya Pradesh","latitude":23.2599,"longitude":77.4126,"temp":27.0,"humidity":42,"rain":0.0,"pressure":949.9,"uv_index":8.65,"wind_gusts":48.2,"aqi":66,"pm10":12.5,"pm2_5":11.9,"no2":4.0,"co":204.0,"o3":77.0,"so2":5.3,"mosquito_risk":4,"arthritis_risk":5,"migraine_risk":7,"frizz_risk":0,"updated_at":"2026-05-04T05:22:00.847988+05:30"},{"city":"Jabalpur","state":"Madhya Pradesh","latitude":23.1815,"longitude":79.9864,"temp":25.8,"humidity":39,"rain":0.0,"pressure":957.2,"uv_index":7.95,"wind_gusts":58.3,"aqi":65,"pm10":39.1,"pm2_5":17.4,"no2":13.6,"co":233.0,"o3":58.0,"so2":6.0,"mosquito_risk":4,"arthritis_risk":5,"migraine_risk":7,"frizz_risk":0,"updated_at":"2026-05-04T05:22:00.847995+05:30"},{"city":"Ujjain","state":"Madhya Pradesh","latitude":23.1765,"longitude":75.7885,"temp":24.8,"humidity":75,"rain":0.0,"pressure":950.2,"uv_index":8.55,"wind_gusts":36.0,"aqi":48,"pm10":18.1,"pm2_5":10.2,"no2":4.7,"co":171.0,"o3":63.0,"so2":10.3,"mosquito_risk":3,"arthritis_risk":5,"migraine_risk":7,"frizz_risk":1,"updated_at":"2026-05-04T05:22:00.848002+05:30"},{"city":"Visakhapatnam","state":"Andhra Pradesh","latitude":17.6868,"longitude":83.2185,"temp":26.3,"humidity":99,"rain":0.0,"pressure":1001.7,"uv_index":9.1,"wind_gusts":37.1,"aqi":72,"pm10":30.3,"pm2_5":23.7,"no2":26.4,"co":371.0,"o3":64.0,"so2":2.9,"mosquito_risk":7,"arthritis_risk":5,"migraine_risk":4,"frizz_risk":1,"updated_at":"2026-05-04T05:22:00.848009+05:30"},{"city":"Vijayawada","state":"Andhra Pradesh","latitude":16.5062,"longitude":80.648,"temp":27.8,"humidity":94,"rain":0.0,"pressure":999.7,"uv_index":9.15,"wind_gusts":43.9,"aqi":90,"pm10":29.5,"pm2_5":25.2,"no2":5.1,"co":226.0,"o3":104.0,"so2":4.5,"mosquito_risk":7,"arthritis_risk":5,"migraine_risk":7,"frizz_risk":1,"updated_at":"2026-05-04T05:22:00.848016+05:30"},{"city":"Guntur","state":"Andhra Pradesh","latitude":16.3067,"longitude":80.4365,"temp":28.2,"humidity":92,"rain":0.0,"pressure":1000.9,"uv_index":9.2,"wind_gusts":36.7,"aqi":90,"pm10":30.2,"pm2_5":26.1,"no2":5.4,"co":220.0,"o3":113.0,"so2":5.1,"mosquito_risk":7,"arthritis_risk":5,"migraine_risk":4,"frizz_risk":1,"updated_at":"2026-05-04T05:22:00.848022+05:30"},{"city":"Nellore","state":"Andhra Pradesh","latitude":14.4426,"longitude":79.9865,"temp":29.5,"humidity":75,"rain":0.0,"pressure":1002.0,"uv_index":9.2,"wind_gusts":37.8,"aqi":103,"pm10":32.9,"pm2_5":29.2,"no2":7.6,"co":251.0,"o3":119.0,"so2":12.4,"mosquito_risk":7,"arthritis_risk":5,"migraine_risk":4,"frizz_risk":1,"updated_at":"2026-05-04T05:22:00.848030+05:30"},{"city":"Kurnool","state":"Andhra Pradesh","latitude":15.8281,"longitude":78.0373,"temp":28.7,"humidity":62,"rain":0.0,"pressure":974.6,"uv_index":9.15,"wind_gusts":37.4,"aqi":66,"pm10":24.4,"pm2_5":14.8,"no2":13.3,"co":215.0,"o3":45.0,"so2":4.5,"mosquito_risk":7,"arthritis_risk":5,"migraine_risk":7,"frizz_risk":1,"updated_at":"2026-05-04T05:22:00.848037+05:30"},{"city":"Kakinada","state":"Andhra Pradesh","latitude":16.9891,"longitude":82.2475,"temp":27.0,"humidity":97,"rain":0.0,"pressure":1005.4,"uv_index":9.1,"wind_gusts":32.4,"aqi":65,"pm10":26.1,"pm2_5":18.2,"no2":1.8,"co":215.0,"o3":94.0,"so2":1.4,"mosquito_risk":7,"arthritis_risk":5,"migraine_risk":4,"frizz_risk":1,"updated_at":"2026-05-04T05:22:00.848044+05:30"},{"city":"Tirupati","state":"Andhra Pradesh","latitude":13.6288,"longitude":79.4192,"temp":28.0,"humidity":74,"rain":0.0,"pressure":988.3,"uv_index":9.3,"wind_gusts":58.3,"aqi":83,"pm10":30.2,"pm2_5":27.1,"no2":12.2,"co":323.0,"o3":85.0,"so2":16.4,"mosquito_risk":7,"arthritis_risk":5,"migraine_risk":7,"frizz_risk":1,"updated_at":"2026-05-04T05:22:00.848050+05:30"},{"city":"Warangal","state":"Telangana","latitude":17.9689,"longitude":79.5941,"temp":26.4,"humidity":79,"rain":0.0,"pressure":976.0,"uv_index":9.15,"wind_gusts":41.8,"aqi":96,"pm10":39.8,"pm2_5":36.0,"no2":7.5,"co":322.0,"o3":111.0,"so2":12.0,"mosquito_risk":7,"arthritis_risk":5,"migraine_risk":7,"frizz_risk":1,"updated_at":"2026-05-04T05:22:00.848056+05:30"},{"city":"Nizamabad","state":"Telangana","latitude":18.6725,"longitude":78.0941,"temp":27.6,"humidity":30,"rain":0.0,"pressure":961.7,"uv_index":9.15,"wind_gusts":29.9,"aqi":76,"pm10":27.3,"pm2_5":18.5,"no2":14.4,"co":262.0,"o3":55.0,"so2":5.8,"mosquito_risk":4,"arthritis_risk":5,"migraine_risk":7,"frizz_risk":0,"updated_at":"2026-05-04T05:22:00.848063+05:30"},{"city":"Mysore","state":"Karnataka","latitude":12.2958,"longitude":76.6396,"temp":21.6,"humidity":96,"rain":0.0,"pressure":926.5,"uv_index":9.4,"wind_gusts":35.3,"aqi":65,"pm10":37.6,"pm2_5":19.2,"no2":8.4,"co":173.0,"o3":47.0,"so2":1.7,"mosquito_risk":3,"arthritis_risk":5,"migraine_risk":7,"frizz_risk":1,"updated_at":"2026-05-04T05:22:00.848069+05:30"},{"city":"Mangalore","state":"Karnataka","latitude":12.9141,"longitude":74.856,"temp":27.0,"humidity":85,"rain":0.0,"pressure":1005.6,"uv_index":9.05,"wind_gusts":45.7,"aqi":70,"pm10":61.7,"pm2_5":24.7,"no2":9.4,"co":257.0,"o3":40.0,"so2":2.8,"mosquito_risk":7,"arthritis_risk":5,"migraine_risk":4,"frizz_risk":1,"updated_at":"2026-05-04T05:22:00.848075+05:30"},{"city":"Hubli-Dharwad","state":"Karnataka","latitude":15.3647,"longitude":75.124,"temp":22.2,"humidity":97,"rain":0.0,"pressure":939.3,"uv_index":9.15,"wind_gusts":43.6,"aqi":57,"pm10":31.8,"pm2_5":12.7,"no2":4.3,"co":185.0,"o3":54.0,"so2":1.4,"mosquito_risk":3,"arthritis_risk":5,"migraine_risk":7,"frizz_risk":1,"updated_at":"2026-05-04T05:22:00.848081+05:30"},{"city":"Belgaum","state":"Karnataka","latitude":15.8497,"longitude":74.4977,"temp":20.4,"humidity":99,"rain":0.0,"pressure":923.8,"uv_index":9.15,"wind_gusts":41.0,"aqi":58,"pm10":33.2,"pm2_5":15.4,"no2":6.7,"co":161.0,"o3":47.0,"so2":0.7,"mosquito_risk":3,"arthritis_risk":5,"migraine_risk":7,"frizz_risk":1,"updated_at":"2026-05-04T05:22:04.098536+05:30"},{"city":"Coimbatore","state":"Tamil Nadu","latitude":11.0168,"longitude":76.9558,"temp":24.6,"humidity":88,"rain":0.0,"pressure":959.9,"uv_index":9.35,"wind_gusts":47.5,"aqi":64,"pm10":45.4,"pm2_5":20.1,"no2":5.6,"co":194.0,"o3":56.0,"so2":2.5,"mosquito_risk":3,"arthritis_risk":5,"migraine_risk":7,"frizz_risk":1,"updated_at":"2026-05-04T05:22:04.098572+05:30"},{"city":"Madurai","state":"Tamil Nadu","latitude":9.9252,"longitude":78.1198,"temp":27.5,"humidity":71,"rain":0.0,"pressure":990.7,"uv_index":6.85,"wind_gusts":46.4,"aqi":87,"pm10":41.2,"pm2_5":35.4,"no2":43.5,"co":305.0,"o3":0.0,"so2":5.5,"mosquito_risk":7,"arthritis_risk":5,"migraine_risk":7,"frizz_risk":1,"updated_at":"2026-05-04T05:22:04.098584+05:30"},{"city":"Trichy","state":"Tamil Nadu","latitude":10.7905,"longitude":78.7047,"temp":28.6,"humidity":64,"rain":0.0,"pressure":997.4,"uv_index":9.0,"wind_gusts":40.3,"aqi":75,"pm10":30.5,"pm2_5":27.1,"no2":24.8,"co":260.0,"o3":31.0,"so2":5.4,"mosquito_risk":7,"arthritis_risk":5,"migraine_risk":7,"frizz_risk":1,"updated_at":"2026-05-04T05:22:04.098593+05:30"},{"city":"Salem","state":"Tamil Nadu","latitude":11.6643,"longitude":78.146,"temp":27.1,"humidity":72,"rain":0.0,"pressure":975.5,"uv_index":9.3,"wind_gusts":61.9,"aqi":78,"pm10":35.9,"pm2_5":23.8,"no2":19.1,"co":227.0,"o3":31.0,"so2":6.1,"mosquito_risk":7,"arthritis_risk":5,"migraine_risk":7,"frizz_risk":1,"updated_at":"2026-05-04T05:22:04.098601+05:30"},{"city":"Tirunelveli","state":"Tamil Nadu","latitude":8.7139,"longitude":77.7567,"temp":27.2,"humidity":79,"rain":0.0,"pressure":1000.7,"uv_index":8.65,"wind_gusts":33.5,"aqi":72,"pm10":30.6,"pm2_5":24.5,"no2":7.2,"co":217.0,"o3":47.0,"so2":1.5,"mosquito_risk":7,"arthritis_risk":5,"migraine_risk":4,"frizz_risk":1,"updated_at":"2026-05-04T05:22:04.098609+05:30"},{"city":"Vellore","state":"Tamil Nadu","latitude":12.9165,"longitude":79.1325,"temp":28.3,"humidity":57,"rain":0.0,"pressure":981.8,"uv_index":8.95,"wind_gusts":45.7,"aqi":85,"pm10":33.9,"pm2_5":32.1,"no2":18.1,"co":351.0,"o3":44.0,"so2":13.8,"mosquito_risk":4,"arthritis_risk":5,"migraine_risk":7,"frizz_risk":1,"updated_at":"2026-05-04T05:22:04.098616+05:30"},{"city":"Erode","state":"Tamil Nadu","latitude":11.341,"longitude":77.7172,"temp":26.6,"humidity":79,"rain":0.0,"pressure":987.2,"uv_index":9.3,"wind_gusts":51.5,"aqi":67,"pm10":35.7,"pm2_5":20.5,"no2":13.6,"co":205.0,"o3":39.0,"so2":3.5,"mosquito_risk":7,"arthritis_risk":5,"migraine_risk":7,"frizz_risk":1,"updated_at":"2026-05-04T05:22:04.098623+05:30"},{"city":"Kochi","state":"Kerala","latitude":9.9312,"longitude":76.2673,"temp":26.6,"humidity":95,"rain":0.0,"pressure":1007.3,"uv_index":9.0,"wind_gusts":30.2,"aqi":99,"pm10":69.4,"pm2_5":53.9,"no2":38.2,"co":438.0,"o3":6.0,"so2":4.3,"mosquito_risk":7,"arthritis_risk":5,"migraine_risk":4,"frizz_risk":1,"updated_at":"2026-05-04T05:22:04.098630+05:30"},{"city":"Thiruvananthapuram","state":"Kerala","latitude":8.5241,"longitude":76.9366,"temp":25.0,"humidity":98,"rain":0.0,"pressure":1006.6,"uv_index":8.9,"wind_gusts":40.3,"aqi":59,"pm10":36.0,"pm2_5":19.8,"no2":4.8,"co":239.0,"o3":58.0,"so2":2.1,"mosquito_risk":7,"arthritis_risk":5,"migraine_risk":4,"frizz_risk":1,"updated_at":"2026-05-04T05:22:04.098637+05:30"},{"city":"Kozhikode","state":"Kerala","latitude":11.2588,"longitude":75.7804,"temp":25.6,"humidity":95,"rain":0.0,"pressure":1006.5,"uv_index":9.0,"wind_gusts":41.0,"aqi":68,"pm10":74.0,"pm2_5":22.1,"no2":2.4,"co":415.0,"o3":68.0,"so2":0.9,"mosquito_risk":7,"arthritis_risk":5,"migraine_risk":4,"frizz_risk":1,"updated_at":"2026-05-04T05:22:04.098643+05:30"},{"city":"Thrissur","state":"Kerala","latitude":10.5276,"longitude":76.2144,"temp":25.4,"humidity":91,"rain":0.0,"pressure":1005.7,"uv_index":9.05,"wind_gusts":34.2,"aqi":88,"pm10":69.8,"pm2_5":46.3,"no2":29.8,"co":246.0,"o3":9.0,"so2":2.6,"mosquito_risk":7,"arthritis_risk":5,"migraine_risk":4,"frizz_risk":1,"updated_at":"2026-05-04T05:22:04.098651+05:30"},{"city":"Kannur","state":"Kerala","latitude":11.8745,"longitude":75.3704,"temp":26.8,"humidity":84,"rain":0.0,"pressure":1005.8,"uv_index":9.0,"wind_gusts":48.2,"aqi":68,"pm10":51.8,"pm2_5":20.9,"no2":10.9,"co":417.0,"o3":33.0,"so2":1.8,"mosquito_risk":7,"arthritis_risk":5,"migraine_risk":4,"frizz_risk":1,"updated_at":"2026-05-04T05:22:04.098658+05:30"},{"city":"Patna","state":"Bihar","latitude":25.5941,"longitude":85.1376,"temp":23.6,"humidity":89,"rain":0.0,"pressure":1001.3,"uv_index":8.7,"wind_gusts":59.0,"aqi":126,"pm10":46.3,"pm2_5":38.9,"no2":12.6,"co":360.0,"o3":77.0,"so2":10.8,"mosquito_risk":3,"arthritis_risk":5,"migraine_risk":4,"frizz_risk":1,"updated_at":"2026-05-04T05:22:04.098665+05:30"},{"city":"Gaya","state":"Bihar","latitude":24.7914,"longitude":85.0002,"temp":24.1,"humidity":83,"rain":0.0,"pressure":993.6,"uv_index":8.8,"wind_gusts":41.8,"aqi":150,"pm10":56.2,"pm2_5":49.8,"no2":10.7,"co":360.0,"o3":84.0,"so2":13.4,"mosquito_risk":3,"arthritis_risk":5,"migraine_risk":7,"frizz_risk":1,"updated_at":"2026-05-04T05:22:04.098673+05:30"},{"city":"Muzaffarpur","state":"Bihar","latitude":26.1209,"longitude":85.3647,"temp":23.1,"humidity":85,"rain":0.0,"pressure":1001.8,"uv_index":8.7,"wind_gusts":39.6,"aqi":103,"pm10":40.4,"pm2_5":34.6,"no2":12.1,"co":331.0,"o3":72.0,"so2":8.7,"mosquito_risk":3,"arthritis_risk":5,"migraine_risk":4,"frizz_risk":1,"updated_at":"2026-05-04T05:22:04.098679+05:30"},{"city":"Bhagalpur","state":"Bihar","latitude":25.2425,"longitude":87.0117,"temp":22.1,"humidity":96,"rain":0.0,"pressure":1002.8,"uv_index":8.7,"wind_gusts":31.7,"aqi":128,"pm10":52.6,"pm2_5":41.9,"no2":8.4,"co":304.0,"o3":92.0,"so2":4.5,"mosquito_risk":3,"arthritis_risk":5,"migraine_risk":4,"frizz_risk":1,"updated_at":"2026-05-04T05:22:04.098686+05:30"},{"city":"Ranchi","state":"Jharkhand","latitude":23.3441,"longitude":85.3096,"temp":22.4,"humidity":99,"rain":0.0,"pressure":936.8,"uv_index":8.25,"wind_gusts":43.2,"aqi":84,"pm10":62.9,"pm2_5":56.7,"no2":33.0,"co":373.0,"o3":39.0,"so2":46.6,"mosquito_risk":3,"arthritis_risk":5,"migraine_risk":7,"frizz_risk":1,"updated_at":"2026-05-04T05:22:04.098693+05:30"},{"city":"Jamshedpur","state":"Jharkhand","latitude":22.8046,"longitude":86.2029,"temp":25.1,"humidity":94,"rain":0.0,"pressure":990.1,"uv_index":9.05,"wind_gusts":30.2,"aqi":111,"pm10":42.6,"pm2_5":34.9,"no2":24.4,"co":312.0,"o3":45.0,"so2":15.0,"mosquito_risk":7,"arthritis_risk":5,"migraine_risk":7,"frizz_risk":1,"updated_at":"2026-05-04T05:22:04.098699+05:30"},{"city":"Dhanbad","state":"Jharkhand","latitude":23.7957,"longitude":86.4304,"temp":24.1,"humidity":91,"rain":0.0,"pressure":979.8,"uv_index":9.0,"wind_gusts":34.9,"aqi":153,"pm10":61.7,"pm2_5":57.5,"no2":34.6,"co":495.0,"o3":53.0,"so2":41.6,"mosquito_risk":3,"arthritis_risk":5,"migraine_risk":7,"frizz_risk":1,"updated_at":"2026-05-04T05:22:04.098706+05:30"},{"city":"Bokaro","state":"Jharkhand","latitude":23.6693,"longitude":86.1511,"temp":24.7,"humidity":92,"rain":0.0,"pressure":983.6,"uv_index":9.0,"wind_gusts":38.5,"aqi":156,"pm10":64.3,"pm2_5":58.9,"no2":34.7,"co":535.0,"o3":52.0,"so2":47.1,"mosquito_risk":3,"arthritis_risk":5,"migraine_risk":7,"frizz_risk":1,"updated_at":"2026-05-04T05:22:04.098713+05:30"},{"city":"Bhubaneswar","state":"Odisha","latitude":20.2961,"longitude":85.8245,"temp":25.5,"humidity":96,"rain":0.0,"pressure":1001.6,"uv_index":9.1,"wind_gusts":36.0,"aqi":73,"pm10":20.3,"pm2_5":15.8,"no2":5.0,"co":170.0,"o3":70.0,"so2":2.9,"mosquito_risk":7,"arthritis_risk":5,"migraine_risk":4,"frizz_risk":1,"updated_at":"2026-05-04T05:22:04.098719+05:30"},{"city":"Cuttack","state":"Odisha","latitude":20.4625,"longitude":85.8828,"temp":25.6,"humidity":97,"rain":0.0,"pressure":1003.5,"uv_index":9.15,"wind_gusts":33.5,"aqi":73,"pm10":20.3,"pm2_5":15.8,"no2":5.0,"co":183.0,"o3":70.0,"so2":2.9,"mosquito_risk":7,"arthritis_risk":5,"migraine_risk":4,"frizz_risk":1,"updated_at":"2026-05-04T05:22:04.098726+05:30"},{"city":"Rourkela","state":"Odisha","latitude":22.2604,"longitude":84.8536,"temp":25.5,"humidity":81,"rain":0.0,"pressure":983.7,"uv_index":8.7,"wind_gusts":28.4,"aqi":105,"pm10":53.6,"pm2_5":42.3,"no2":29.1,"co":384.0,"o3":48.0,"so2":40.3,"mosquito_risk":7,"arthritis_risk":5,"migraine_risk":7,"frizz_risk":1,"updated_at":"2026-05-04T05:22:04.098733+05:30"},{"city":"Raipur","state":"Chhattisgarh","latitude":21.2514,"longitude":81.6296,"temp":27.5,"humidity":43,"rain":0.0,"pressure":971.7,"uv_index":9.0,"wind_gusts":57.2,"aqi":96,"pm10":52.3,"pm2_5":38.0,"no2":31.7,"co":319.0,"o3":35.0,"so2":6.6,"mosquito_risk":4,"arthritis_risk":5,"migraine_risk":7,"frizz_risk":0,"updated_at":"2026-05-04T05:22:04.098739+05:30"},{"city":"Bhilai","state":"Chhattisgarh","latitude":21.1938,"longitude":81.3509,"temp":26.9,"humidity":50,"rain":0.0,"pressure":971.9,"uv_index":9.0,"wind_gusts":59.8,"aqi":102,"pm10":67.3,"pm2_5":46.4,"no2":42.3,"co":608.0,"o3":26.0,"so2":7.6,"mosquito_risk":4,"arthritis_risk":5,"migraine_risk":7,"frizz_risk":0,"updated_at":"2026-05-04T05:22:04.098746+05:30"},{"city":"Guwahati","state":"Assam","latitude":26.1158,"longitude":91.7086,"temp":20.1,"humidity":90,"rain":0.0,"pressure":1004.2,"uv_index":8.65,"wind_gusts":28.8,"aqi":67,"pm10":35.6,"pm2_5":31.1,"no2":12.4,"co":348.0,"o3":42.0,"so2":2.8,"mosquito_risk":3,"arthritis_risk":5,"migraine_risk":4,"frizz_risk":1,"updated_at":"2026-05-04T05:22:04.098753+05:30"},{"city":"Agartala","state":"Tripura","latitude":23.8315,"longitude":91.2868,"temp":21.7,"humidity":97,"rain":0.1,"pressure":1008.1,"uv_index":8.85,"wind_gusts":31.3,"aqi":51,"pm10":15.4,"pm2_5":8.7,"no2":7.6,"co":178.0,"o3":79.0,"so2":1.0,"mosquito_risk":6,"arthritis_risk":0,"migraine_risk":4,"frizz_risk":1,"updated_at":"2026-05-04T05:22:04.098759+05:30"},{"city":"Shillong","state":"Meghalaya","latitude":25.5788,"longitude":91.8933,"temp":14.5,"humidity":90,"rain":0.0,"pressure":856.7,"uv_index":9.05,"wind_gusts":31.0,"aqi":57,"pm10":27.8,"pm2_5":19.8,"no2":7.8,"co":283.0,"o3":57.0,"so2":0.7,"mosquito_risk":3,"arthritis_risk":10,"migraine_risk":7,"frizz_risk":0,"updated_at":"2026-05-04T05:22:04.098766+05:30"},{"city":"Imphal","state":"Manipur","latitude":24.817,"longitude":93.9368,"temp":18.0,"humidity":95,"rain":0.0,"pressure":925.0,"uv_index":9.15,"wind_gusts":25.2,"aqi":81,"pm10":71.5,"pm2_5":52.0,"no2":24.9,"co":257.0,"o3":28.0,"so2":3.0,"mosquito_risk":3,"arthritis_risk":10,"migraine_risk":7,"frizz_risk":1,"updated_at":"2026-05-04T05:22:04.098772+05:30"},{"city":"Aizawl","state":"Mizoram","latitude":23.7271,"longitude":92.7176,"temp":14.0,"humidity":98,"rain":0.0,"pressure":892.0,"uv_index":9.05,"wind_gusts":36.7,"aqi":32,"pm10":7.1,"pm2_5":5.9,"no2":12.9,"co":319.0,"o3":11.0,"so2":0.2,"mosquito_risk":3,"arthritis_risk":10,"migraine_risk":7,"frizz_risk":0,"updated_at":"2026-05-04T05:22:04.098778+05:30"},{"city":"Kohima","state":"Nagaland","latitude":25.6701,"longitude":94.1077,"temp":13.4,"humidity":95,"rain":0.0,"pressure":854.6,"uv_index":9.05,"wind_gusts":29.2,"aqi":57,"pm10":37.0,"pm2_5":28.2,"no2":12.3,"co":234.0,"o3":31.0,"so2":0.5,"mosquito_risk":3,"arthritis_risk":10,"migraine_risk":7,"frizz_risk":0,"updated_at":"2026-05-04T05:22:04.098785+05:30"},{"city":"Gangtok","state":"Sikkim","latitude":27.3314,"longitude":88.6138,"temp":11.8,"humidity":98,"rain":0.1,"pressure":836.8,"uv_index":8.85,"wind_gusts":41.8,"aqi":52,"pm10":31.1,"pm2_5":26.0,"no2":10.7,"co":377.0,"o3":92.0,"so2":0.8,"mosquito_risk":6,"arthritis_risk":10,"migraine_risk":7,"frizz_risk":0,"updated_at":"2026-05-04T05:22:04.098791+05:30"},{"city":"Siliguri","state":"West Bengal","latitude":26.7271,"longitude":88.3953,"temp":20.4,"humidity":86,"rain":0.0,"pressure":995.7,"uv_index":8.55,"wind_gusts":31.7,"aqi":69,"pm10":48.1,"pm2_5":42.0,"no2":17.9,"co":343.0,"o3":89.0,"so2":4.6,"mosquito_risk":3,"arthritis_risk":5,"migraine_risk":7,"frizz_risk":1,"updated_at":"2026-05-04T05:22:07.397288+05:30"},{"city":"Durgapur","state":"West Bengal","latitude":23.5204,"longitude":87.3119,"temp":24.9,"humidity":96,"rain":0.0,"pressure":995.0,"uv_index":8.95,"wind_gusts":36.4,"aqi":138,"pm10":48.3,"pm2_5":43.5,"no2":21.5,"co":470.0,"o3":82.0,"so2":23.5,"mosquito_risk":3,"arthritis_risk":5,"migraine_risk":7,"frizz_risk":1,"updated_at":"2026-05-04T05:22:07.397324+05:30"},{"city":"Asansol","state":"West Bengal","latitude":23.6739,"longitude":86.9524,"temp":25.0,"humidity":93,"rain":0.0,"pressure":993.8,"uv_index":9.0,"wind_gusts":38.2,"aqi":148,"pm10":53.4,"pm2_5":49.9,"no2":22.6,"co":442.0,"o3":69.0,"so2":23.6,"mosquito_risk":7,"arthritis_risk":5,"migraine_risk":7,"frizz_risk":1,"updated_at":"2026-05-04T05:22:07.397336+05:30"},{"city":"Pondicherry","state":"Puducherry","latitude":11.9139,"longitude":79.8145,"temp":27.0,"humidity":90,"rain":0.0,"pressure":1005.3,"uv_index":8.25,"wind_gusts":46.4,"aqi":77,"pm10":19.8,"pm2_5":15.7,"no2":6.1,"co":196.0,"o3":88.0,"so2":4.7,"mosquito_risk":7,"arthritis_risk":5,"migraine_risk":4,"frizz_risk":1,"updated_at":"2026-05-04T05:22:07.397345+05:30"},{"city":"Port Blair","state":"Andaman and Nicobar Islands","latitude":11.6234,"longitude":92.7265,"temp":26.1,"humidity":85,"rain":0.0,"pressure":1007.0,"uv_index":9.15,"wind_gusts":33.1,"aqi":27,"pm10":6.2,"pm2_5":4.4,"no2":0.6,"co":214.0,"o3":56.0,"so2":0.3,"mosquito_risk":7,"arthritis_risk":5,"migraine_risk":4,"frizz_risk":1,"updated_at":"2026-05-04T05:22:07.397353+05:30"},{"city":"Haridwar","state":"Uttarakhand","latitude":29.9457,"longitude":78.1642,"temp":19.0,"humidity":94,"rain":0.0,"pressure":974.7,"uv_index":7.1,"wind_gusts":45.7,"aqi":128,"pm10":99.0,"pm2_5":40.3,"no2":8.4,"co":315.0,"o3":105.0,"so2":9.6,"mosquito_risk":3,"arthritis_risk":10,"migraine_risk":7,"frizz_risk":1,"updated_at":"2026-05-04T05:22:07.397361+05:30"},{"city":"Rishikesh","state":"Uttarakhand","latitude":30.0869,"longitude":78.2676,"temp":18.4,"humidity":85,"rain":0.0,"pressure":967.1,"uv_index":7.2,"wind_gusts":49.7,"aqi":113,"pm10":100.8,"pm2_5":35.5,"no2":8.4,"co":325.0,"o3":98.0,"so2":5.7,"mosquito_risk":3,"arthritis_risk":10,"migraine_risk":7,"frizz_risk":0,"updated_at":"2026-05-04T05:22:07.397369+05:30"},{"city":"Nainital","state":"Uttarakhand","latitude":29.3919,"longitude":79.4542,"temp":11.2,"humidity":89,"rain":0.0,"pressure":802.3,"uv_index":5.15,"wind_gusts":35.6,"aqi":106,"pm10":78.9,"pm2_5":33.3,"no2":8.4,"co":259.0,"o3":95.0,"so2":2.6,"mosquito_risk":3,"arthritis_risk":10,"migraine_risk":3,"frizz_risk":0,"updated_at":"2026-05-04T05:22:07.397376+05:30"},{"city":"Mussoorie","state":"Uttarakhand","latitude":30.4599,"longitude":78.0664,"temp":9.9,"humidity":94,"rain":0.0,"pressure":799.5,"uv_index":7.2,"wind_gusts":47.9,"aqi":94,"pm10":57.0,"pm2_5":20.8,"no2":17.2,"co":248.0,"o3":67.0,"so2":5.3,"mosquito_risk":3,"arthritis_risk":10,"migraine_risk":7,"frizz_risk":0,"updated_at":"2026-05-04T05:22:07.397384+05:30"},{"city":"Dharamshala","state":"Himachal Pradesh","latitude":32.219,"longitude":76.3234,"temp":16.5,"humidity":51,"rain":0.0,"pressure":867.1,"uv_index":4.45,"wind_gusts":54.4,"aqi":46,"pm10":21.9,"pm2_5":8.0,"no2":2.1,"co":171.0,"o3":130.0,"so2":0.1,"mosquito_risk":0,"arthritis_risk":5,"migraine_risk":3,"frizz_risk":0,"updated_at":"2026-05-04T05:22:07.397392+05:30"},{"city":"Dalhousie","state":"Himachal Pradesh","latitude":32.5387,"longitude":75.971,"temp":9.0,"humidity":87,"rain":0.0,"pressure":799.4,"uv_index":5.2,"wind_gusts":50.8,"aqi":60,"pm10":25.7,"pm2_5":16.3,"no2":7.2,"co":157.0,"o3":86.0,"so2":0.3,"mosquito_risk":3,"arthritis_risk":10,"migraine_risk":3,"frizz_risk":0,"updated_at":"2026-05-04T05:22:07.397400+05:30"},{"city":"Patiala","state":"Punjab","latitude":30.3398,"longitude":76.3869,"temp":22.5,"humidity":83,"rain":0.1,"pressure":976.0,"uv_index":7.35,"wind_gusts":70.6,"aqi":814,"pm10":581.1,"pm2_5":86.6,"no2":5.9,"co":353.0,"o3":121.0,"so2":11.1,"mosquito_risk":6,"arthritis_risk":5,"migraine_risk":7,"frizz_risk":1,"updated_at":"2026-05-04T05:22:07.397407+05:30"},{"city":"Bhatinda","state":"Punjab","latitude":30.211,"longitude":74.9455,"temp":24.4,"humidity":64,"rain":0.0,"pressure":980.1,"uv_index":7.95,"wind_gusts":55.1,"aqi":593,"pm10":394.9,"pm2_5":80.3,"no2":5.1,"co":391.0,"o3":116.0,"so2":11.3,"mosquito_risk":3,"arthritis_risk":5,"migraine_risk":7,"frizz_risk":1,"updated_at":"2026-05-04T05:22:07.397414+05:30"},{"city":"Rohtak","state":"Haryana","latitude":28.8955,"longitude":76.6066,"temp":24.5,"humidity":71,"rain":0.0,"pressure":979.2,"uv_index":7.5,"wind_gusts":63.4,"aqi":865,"pm10":1099.0,"pm2_5":158.3,"no2":9.0,"co":326.0,"o3":112.0,"so2":16.8,"mosquito_risk":3,"arthritis_risk":5,"migraine_risk":7,"frizz_risk":1,"updated_at":"2026-05-04T05:22:07.397421+05:30"},{"city":"Panipat","state":"Haryana","latitude":29.3909,"longitude":76.9635,"temp":21.9,"humidity":79,"rain":0.0,"pressure":978.5,"uv_index":7.35,"wind_gusts":63.0,"aqi":1424,"pm10":1199.5,"pm2_5":149.5,"no2":9.1,"co":308.0,"o3":104.0,"so2":15.3,"mosquito_risk":3,"arthritis_risk":5,"migraine_risk":7,"frizz_risk":1,"updated_at":"2026-05-04T05:22:07.397428+05:30"},{"city":"Mathura","state":"Uttar Pradesh","latitude":27.4924,"longitude":77.6737,"temp":24.5,"humidity":73,"rain":0.0,"pressure":983.8,"uv_index":7.8,"wind_gusts":57.6,"aqi":1031,"pm10":590.5,"pm2_5":99.9,"no2":5.2,"co":313.0,"o3":107.0,"so2":8.3,"mosquito_risk":3,"arthritis_risk":5,"migraine_risk":7,"frizz_risk":1,"updated_at":"2026-05-04T05:22:07.397434+05:30"},{"city":"Vrindavan","state":"Uttar Pradesh","latitude":27.5823,"longitude":77.7027,"temp":24.7,"humidity":71,"rain":0.0,"pressure":984.3,"uv_index":7.8,"wind_gusts":57.2,"aqi":1031,"pm10":590.5,"pm2_5":99.9,"no2":5.2,"co":328.0,"o3":107.0,"so2":8.3,"mosquito_risk":3,"arthritis_risk":5,"migraine_risk":7,"frizz_risk":1,"updated_at":"2026-05-04T05:22:07.397441+05:30"},{"city":"Ayodhya","state":"Uttar Pradesh","latitude":26.7922,"longitude":82.1998,"temp":23.2,"humidity":84,"rain":0.0,"pressure":995.7,"uv_index":8.2,"wind_gusts":49.3,"aqi":88,"pm10":36.8,"pm2_5":32.2,"no2":9.7,"co":410.0,"o3":96.0,"so2":9.1,"mosquito_risk":3,"arthritis_risk":5,"migraine_risk":7,"frizz_risk":1,"updated_at":"2026-05-04T05:22:07.397465+05:30"},{"city":"Ratlam","state":"Madhya Pradesh","latitude":23.3315,"longitude":75.0367,"temp":24.1,"humidity":86,"rain":0.0,"pressure":951.0,"uv_index":8.5,"wind_gusts":37.8,"aqi":44,"pm10":18.5,"pm2_5":10.1,"no2":5.1,"co":168.0,"o3":59.0,"so2":11.0,"mosquito_risk":3,"arthritis_risk":5,"migraine_risk":7,"frizz_risk":1,"updated_at":"2026-05-04T05:22:07.397472+05:30"},{"city":"Sagar","state":"Madhya Pradesh","latitude":23.8388,"longitude":78.7378,"temp":24.7,"humidity":46,"rain":0.0,"pressure":945.7,"uv_index":8.6,"wind_gusts":43.2,"aqi":65,"pm10":50.5,"pm2_5":18.9,"no2":9.6,"co":231.0,"o3":61.0,"so2":2.4,"mosquito_risk":0,"arthritis_risk":5,"migraine_risk":7,"frizz_risk":0,"updated_at":"2026-05-04T05:22:07.397478+05:30"},{"city":"Satna","state":"Madhya Pradesh","latitude":24.6005,"longitude":80.8322,"temp":24.9,"humidity":73,"rain":0.0,"pressure":968.6,"uv_index":8.25,"wind_gusts":67.0,"aqi":115,"pm10":51.7,"pm2_5":44.6,"no2":7.5,"co":383.0,"o3":118.0,"so2":16.4,"mosquito_risk":3,"arthritis_risk":5,"migraine_risk":7,"frizz_risk":1,"updated_at":"2026-05-04T05:22:07.397484+05:30"},{"city":"Akola","state":"Maharashtra","latitude":20.7002,"longitude":77.0082,"temp":26.9,"humidity":36,"rain":0.0,"pressure":971.9,"uv_index":8.85,"wind_gusts":33.1,"aqi":54,"pm10":15.2,"pm2_5":8.7,"no2":6.4,"co":181.0,"o3":68.0,"so2":10.9,"mosquito_risk":4,"arthritis_risk":5,"migraine_risk":7,"frizz_risk":0,"updated_at":"2026-05-04T05:22:07.397492+05:30"},{"city":"Amravati","state":"Maharashtra","latitude":20.9374,"longitude":77.7796,"temp":27.1,"humidity":31,"rain":0.0,"pressure":964.1,"uv_index":8.9,"wind_gusts":32.4,"aqi":56,"pm10":13.3,"pm2_5":7.8,"no2":6.6,"co":174.0,"o3":73.0,"so2":11.2,"mosquito_risk":4,"arthritis_risk":5,"migraine_risk":7,"frizz_risk":0,"updated_at":"2026-05-04T05:22:07.397500+05:30"},{"city":"Latur","state":"Maharashtra","latitude":18.4088,"longitude":76.5604,"temp":25.2,"humidity":33,"rain":0.0,"pressure":937.1,"uv_index":9.1,"wind_gusts":45.0,"aqi":62,"pm10":29.2,"pm2_5":12.0,"no2":7.4,"co":218.0,"o3":65.0,"so2":3.6,"mosquito_risk":4,"arthritis_risk":5,"migraine_risk":7,"frizz_risk":0,"updated_at":"2026-05-04T05:22:07.397507+05:30"},{"city":"Nanded","state":"Maharashtra","latitude":19.1383,"longitude":77.3091,"temp":27.5,"humidity":32,"rain":0.0,"pressure":965.6,"uv_index":9.0,"wind_gusts":28.8,"aqi":61,"pm10":20.8,"pm2_5":13.3,"no2":9.4,"co":204.0,"o3":65.0,"so2":6.1,"mosquito_risk":4,"arthritis_risk":5,"migraine_risk":7,"frizz_risk":0,"updated_at":"2026-05-04T05:22:07.397514+05:30"},{"city":"Gulbarga","state":"Karnataka","latitude":17.3297,"longitude":76.8343,"temp":27.0,"humidity":44,"rain":0.0,"pressure":956.4,"uv_index":9.1,"wind_gusts":40.7,"aqi":58,"pm10":21.8,"pm2_5":10.8,"no2":6.6,"co":207.0,"o3":59.0,"so2":3.8,"mosquito_risk":4,"arthritis_risk":5,"migraine_risk":7,"frizz_risk":0,"updated_at":"2026-05-04T05:22:07.397520+05:30"},{"city":"Bidar","state":"Karnataka","latitude":17.9104,"longitude":77.5199,"temp":24.9,"humidity":37,"rain":0.0,"pressure":932.6,"uv_index":9.15,"wind_gusts":33.5,"aqi":76,"pm10":44.9,"pm2_5":26.5,"no2":19.9,"co":283.0,"o3":47.0,"so2":6.1,"mosquito_risk":0,"arthritis_risk":5,"migraine_risk":7,"frizz_risk":0,"updated_at":"2026-05-04T05:22:07.397527+05:30"},{"city":"Hospet","state":"Karnataka","latitude":15.2689,"longitude":76.3909,"temp":23.6,"humidity":90,"rain":0.0,"pressure":954.1,"uv_index":9.2,"wind_gusts":36.0,"aqi":59,"pm10":25.3,"pm2_5":12.3,"no2":6.3,"co":179.0,"o3":48.0,"so2":1.8,"mosquito_risk":3,"arthritis_risk":5,"migraine_risk":7,"frizz_risk":1,"updated_at":"2026-05-04T05:22:07.397533+05:30"},{"city":"Tirupur","state":"Tamil Nadu","latitude":11.1085,"longitude":77.3411,"temp":25.5,"humidity":85,"rain":0.0,"pressure":973.4,"uv_index":9.4,"wind_gusts":47.5,"aqi":68,"pm10":42.0,"pm2_5":22.8,"no2":14.8,"co":180.0,"o3":36.0,"so2":4.0,"mosquito_risk":7,"arthritis_risk":5,"migraine_risk":7,"frizz_risk":1,"updated_at":"2026-05-04T05:22:07.397539+05:30"},{"city":"Alappuzha","state":"Kerala","latitude":9.4981,"longitude":76.3388,"temp":26.2,"humidity":99,"rain":0.0,"pressure":1007.3,"uv_index":8.55,"wind_gusts":34.9,"aqi":81,"pm10":62.9,"pm2_5":30.4,"no2":11.4,"co":244.0,"o3":50.0,"so2":2.9,"mosquito_risk":7,"arthritis_risk":5,"migraine_risk":4,"frizz_risk":1,"updated_at":"2026-05-04T05:22:07.397546+05:30"},{"city":"Munnar","state":"Kerala","latitude":10.0889,"longitude":77.0595,"temp":16.0,"humidity":83,"rain":0.0,"pressure":854.0,"uv_index":8.8,"wind_gusts":28.1,"aqi":73,"pm10":35.9,"pm2_5":28.5,"no2":9.8,"co":227.0,"o3":28.0,"so2":0.5,"mosquito_risk":3,"arthritis_risk":10,"migraine_risk":7,"frizz_risk":0,"updated_at":"2026-05-04T05:22:07.397553+05:30"},{"city":"Silchar","state":"Assam","latitude":24.8333,"longitude":92.7789,"temp":21.0,"humidity":98,"rain":0.0,"pressure":1007.4,"uv_index":8.85,"wind_gusts":26.6,"aqi":82,"pm10":59.0,"pm2_5":39.3,"no2":16.2,"co":264.0,"o3":40.0,"so2":4.4,"mosquito_risk":3,"arthritis_risk":5,"migraine_risk":4,"frizz_risk":1,"updated_at":"2026-05-04T05:22:07.397559+05:30"},{"city":"Dibrugarh","state":"Assam","latitude":27.4728,"longitude":94.912,"temp":20.0,"humidity":99,"rain":0.0,"pressure":999.0,"uv_index":8.8,"wind_gusts":20.5,"aqi":81,"pm10":37.0,"pm2_5":33.6,"no2":27.3,"co":369.0,"o3":27.0,"so2":1.2,"mosquito_risk":3,"arthritis_risk":5,"migraine_risk":7,"frizz_risk":1,"updated_at":"2026-05-04T05:22:07.397565+05:30"}]