[{"city":"Delhi","state":"Delhi","latitude":28.6139,"longitude":77.209,"temp":31.6,"humidity":48,"rain":0.0,"pressure":984.7,"uv_index":7.05,"wind_gusts":25.2,"aqi":153,"pm10":233.8,"pm2_5":60.5,"no2":8.2,"co":446.0,"o3":190.0,"so2":27.1,"mosquito_risk":0,"arthritis_risk":5,"migraine_risk":7,"frizz_risk":1,"updated_at":"2026-06-01T11:36:06.056879+05:30"},{"city":"Mumbai","state":"Maharashtra","latitude":19.076,"longitude":72.8777,"temp":33.2,"humidity":58,"rain":0.1,"pressure":1010.1,"uv_index":7.65,"wind_gusts":38.5,"aqi":54,"pm10":25.8,"pm2_5":15.2,"no2":4.6,"co":167.0,"o3":104.0,"so2":7.0,"mosquito_risk":3,"arthritis_risk":0,"migraine_risk":4,"frizz_risk":1,"updated_at":"2026-06-01T11:36:06.056950+05:30"},{"city":"Bangalore","state":"Karnataka","latitude":12.9716,"longitude":77.5946,"temp":29.5,"humidity":53,"rain":0.0,"pressure":914.7,"uv_index":8.5,"wind_gusts":38.9,"aqi":65,"pm10":15.4,"pm2_5":12.4,"no2":4.0,"co":286.0,"o3":141.0,"so2":5.1,"mosquito_risk":4,"arthritis_risk":5,"migraine_risk":7,"frizz_risk":1,"updated_at":"2026-06-01T11:36:06.056969+05:30"},{"city":"Hyderabad","state":"Telangana","latitude":17.385,"longitude":78.4867,"temp":35.7,"humidity":25,"rain":0.0,"pressure":954.9,"uv_index":9.1,"wind_gusts":30.6,"aqi":77,"pm10":31.1,"pm2_5":14.5,"no2":2.1,"co":226.0,"o3":148.0,"so2":5.9,"mosquito_risk":0,"arthritis_risk":5,"migraine_risk":10,"frizz_risk":0,"updated_at":"2026-06-01T11:36:06.056979+05:30"},{"city":"Chennai","state":"Tamil Nadu","latitude":13.0827,"longitude":80.2707,"temp":37.4,"humidity":37,"rain":0.0,"pressure":1007.4,"uv_index":8.7,"wind_gusts":39.6,"aqi":74,"pm10":34.1,"pm2_5":27.4,"no2":6.3,"co":320.0,"o3":174.0,"so2":15.5,"mosquito_risk":0,"arthritis_risk":5,"migraine_risk":7,"frizz_risk":1,"updated_at":"2026-06-01T11:36:06.056988+05:30"},{"city":"Kolkata","state":"West Bengal","latitude":22.5726,"longitude":88.3639,"temp":34.2,"humidity":60,"rain":0.0,"pressure":1006.2,"uv_index":8.9,"wind_gusts":32.4,"aqi":123,"pm10":60.3,"pm2_5":38.2,"no2":2.6,"co":409.0,"o3":159.0,"so2":10.7,"mosquito_risk":0,"arthritis_risk":5,"migraine_risk":4,"frizz_risk":1,"updated_at":"2026-06-01T11:36:06.057000+05:30"},{"city":"Pune","state":"Maharashtra","latitude":18.5204,"longitude":73.8567,"temp":34.7,"humidity":34,"rain":0.0,"pressure":950.1,"uv_index":8.3,"wind_gusts":40.7,"aqi":52,"pm10":40.6,"pm2_5":17.0,"no2":2.0,"co":147.0,"o3":112.0,"so2":6.4,"mosquito_risk":0,"arthritis_risk":5,"migraine_risk":7,"frizz_risk":1,"updated_at":"2026-06-01T11:36:06.057008+05:30"},{"city":"Ahmedabad","state":"Gujarat","latitude":23.0225,"longitude":72.5714,"temp":35.5,"humidity":45,"rain":0.0,"pressure":1002.7,"uv_index":8.0,"wind_gusts":37.1,"aqi":70,"pm10":53.3,"pm2_5":22.8,"no2":1.8,"co":151.0,"o3":85.0,"so2":4.9,"mosquito_risk":0,"arthritis_risk":5,"migraine_risk":7,"frizz_risk":1,"updated_at":"2026-06-01T11:36:06.057015+05:30"},{"city":"Jaipur","state":"Rajasthan","latitude":26.9124,"longitude":75.7873,"temp":33.0,"humidity":42,"rain":0.0,"pressure":961.1,"uv_index":8.15,"wind_gusts":33.8,"aqi":110,"pm10":174.2,"pm2_5":41.2,"no2":1.2,"co":161.0,"o3":112.0,"so2":4.2,"mosquito_risk":0,"arthritis_risk":5,"migraine_risk":7,"frizz_risk":1,"updated_at":"2026-06-01T11:36:06.057024+05:30"},{"city":"Lucknow","state":"Uttar Pradesh","latitude":26.8467,"longitude":80.9462,"temp":32.7,"humidity":45,"rain":0.0,"pressure":995.9,"uv_index":8.25,"wind_gusts":24.1,"aqi":105,"pm10":65.7,"pm2_5":29.8,"no2":1.8,"co":271.0,"o3":171.0,"so2":6.7,"mosquito_risk":0,"arthritis_risk":5,"migraine_risk":7,"frizz_risk":1,"updated_at":"2026-06-01T11:36:06.057031+05:30"},{"city":"Kanpur","state":"Uttar Pradesh","latitude":26.4499,"longitude":80.3319,"temp":33.2,"humidity":44,"rain":0.0,"pressure":993.9,"uv_index":8.25,"wind_gusts":19.8,"aqi":104,"pm10":70.5,"pm2_5":28.5,"no2":1.8,"co":260.0,"o3":166.0,"so2":7.5,"mosquito_risk":0,"arthritis_risk":5,"migraine_risk":7,"frizz_risk":1,"updated_at":"2026-06-01T11:36:06.057038+05:30"},{"city":"Chandigarh","state":"Chandigarh","latitude":30.7333,"longitude":76.7794,"temp":31.5,"humidity":39,"rain":0.0,"pressure":970.9,"uv_index":7.4,"wind_gusts":27.7,"aqi":87,"pm10":22.5,"pm2_5":19.8,"no2":3.1,"co":427.0,"o3":186.0,"so2":13.7,"mosquito_risk":0,"arthritis_risk":5,"migraine_risk":7,"frizz_risk":0,"updated_at":"2026-06-01T11:36:06.057046+05:30"},{"city":"Srinagar","state":"Jammu and Kashmir","latitude":34.0837,"longitude":74.7973,"temp":25.1,"humidity":42,"rain":0.0,"pressure":845.0,"uv_index":9.0,"wind_gusts":22.7,"aqi":122,"pm10":87.8,"pm2_5":38.9,"no2":1.6,"co":369.0,"o3":171.0,"so2":4.9,"mosquito_risk":4,"arthritis_risk":5,"migraine_risk":7,"frizz_risk":0,"updated_at":"2026-06-01T11:36:06.057054+05:30"},{"city":"Jammu","state":"Jammu and Kashmir","latitude":32.7266,"longitude":74.857,"temp":32.5,"humidity":40,"rain":0.0,"pressure":974.4,"uv_index":8.55,"wind_gusts":23.0,"aqi":114,"pm10":100.1,"pm2_5":34.1,"no2":1.4,"co":313.0,"o3":167.0,"so2":6.9,"mosquito_risk":0,"arthritis_risk":5,"migraine_risk":7,"frizz_risk":1,"updated_at":"2026-06-01T11:36:06.057065+05:30"},{"city":"Amritsar","state":"Punjab","latitude":31.634,"longitude":74.8723,"temp":33.2,"humidity":39,"rain":0.0,"pressure":982.5,"uv_index":8.45,"wind_gusts":16.6,"aqi":135,"pm10":104.8,"pm2_5":35.6,"no2":1.4,"co":282.0,"o3":166.0,"so2":6.7,"mosquito_risk":0,"arthritis_risk":5,"migraine_risk":7,"frizz_risk":1,"updated_at":"2026-06-01T11:36:06.057079+05:30"},{"city":"Ludhiana","state":"Punjab","latitude":30.901,"longitude":75.8573,"temp":33.3,"humidity":36,"rain":0.0,"pressure":980.6,"uv_index":8.0,"wind_gusts":27.7,"aqi":153,"pm10":61.2,"pm2_5":26.1,"no2":2.4,"co":340.0,"o3":184.0,"so2":15.4,"mosquito_risk":0,"arthritis_risk":5,"migraine_risk":7,"frizz_risk":1,"updated_at":"2026-06-01T11:36:06.057088+05:30"},{"city":"Jalandhar","state":"Punjab","latitude":31.326,"longitude":75.5762,"temp":33.7,"humidity":37,"rain":0.0,"pressure":981.5,"uv_index":8.2,"wind_gusts":18.0,"aqi":152,"pm10":108.3,"pm2_5":36.4,"no2":1.6,"co":333.0,"o3":175.0,"so2":7.8,"mosquito_risk":0,"arthritis_risk":5,"migraine_risk":7,"frizz_risk":1,"updated_at":"2026-06-01T11:36:06.057094+05:30"},{"city":"Dehradun","state":"Uttarakhand","latitude":30.6284,"longitude":78.0322,"temp":20.6,"humidity":53,"rain":0.0,"pressure":834.0,"uv_index":7.6,"wind_gusts":31.3,"aqi":29,"pm10":11.7,"pm2_5":4.1,"no2":1.7,"co":189.0,"o3":130.0,"so2":0.7,"mosquito_risk":0,"arthritis_risk":5,"migraine_risk":7,"frizz_risk":0,"updated_at":"2026-06-01T11:36:06.057101+05:30"},{"city":"Shimla","state":"Himachal Pradesh","latitude":31.1048,"longitude":77.1734,"temp":19.7,"humidity":40,"rain":0.0,"pressure":788.9,"uv_index":7.9,"wind_gusts":30.6,"aqi":44,"pm10":19.8,"pm2_5":7.9,"no2":1.1,"co":209.0,"o3":139.0,"so2":1.6,"mosquito_risk":0,"arthritis_risk":5,"migraine_risk":7,"frizz_risk":0,"updated_at":"2026-06-01T11:36:06.057109+05:30"},{"city":"Manali","state":"Himachal Pradesh","latitude":32.2396,"longitude":77.1887,"temp":19.2,"humidity":52,"rain":0.0,"pressure":823.0,"uv_index":8.8,"wind_gusts":32.8,"aqi":48,"pm10":8.9,"pm2_5":4.2,"no2":2.3,"co":147.0,"o3":117.0,"so2":0.4,"mosquito_risk":0,"arthritis_risk":5,"migraine_risk":7,"frizz_risk":0,"updated_at":"2026-06-01T11:36:06.057116+05:30"},{"city":"Gurgaon","state":"Haryana","latitude":28.4595,"longitude":77.0266,"temp":32.1,"humidity":46,"rain":0.0,"pressure":983.0,"uv_index":7.55,"wind_gusts":23.8,"aqi":595,"pm10":472.2,"pm2_5":85.0,"no2":5.9,"co":342.0,"o3":174.0,"so2":17.6,"mosquito_risk":0,"arthritis_risk":5,"migraine_risk":7,"frizz_risk":1,"updated_at":"2026-06-01T11:36:06.057122+05:30"},{"city":"Noida","state":"Uttar Pradesh","latitude":28.5355,"longitude":77.391,"temp":31.5,"humidity":51,"rain":0.0,"pressure":986.3,"uv_index":7.2,"wind_gusts":27.0,"aqi":595,"pm10":472.2,"pm2_5":85.0,"no2":5.9,"co":304.0,"o3":174.0,"so2":17.6,"mosquito_risk":0,"arthritis_risk":5,"migraine_risk":7,"frizz_risk":1,"updated_at":"2026-06-01T11:36:06.057128+05:30"},{"city":"Ghaziabad","state":"Uttar Pradesh","latitude":28.6692,"longitude":77.4538,"temp":30.6,"humidity":53,"rain":0.0,"pressure":984.6,"uv_index":7.65,"wind_gusts":30.2,"aqi":121,"pm10":228.2,"pm2_5":51.5,"no2":2.4,"co":282.0,"o3":175.0,"so2":13.1,"mosquito_risk":0,"arthritis_risk":5,"migraine_risk":7,"frizz_risk":1,"updated_at":"2026-06-01T11:36:06.057135+05:30"},{"city":"Faridabad","state":"Haryana","latitude":28.4089,"longitude":77.3178,"temp":31.9,"humidity":47,"rain":0.0,"pressure":985.4,"uv_index":7.2,"wind_gusts":26.6,"aqi":595,"pm10":472.2,"pm2_5":85.0,"no2":5.9,"co":286.0,"o3":174.0,"so2":17.6,"mosquito_risk":0,"arthritis_risk":5,"migraine_risk":7,"frizz_risk":1,"updated_at":"2026-06-01T11:36:06.057141+05:30"},{"city":"Meerut","state":"Uttar Pradesh","latitude":28.9845,"longitude":77.7064,"temp":29.6,"humidity":61,"rain":0.0,"pressure":983.8,"uv_index":7.6,"wind_gusts":31.7,"aqi":121,"pm10":228.2,"pm2_5":51.5,"no2":2.4,"co":288.0,"o3":175.0,"so2":13.1,"mosquito_risk":7,"arthritis_risk":5,"migraine_risk":7,"frizz_risk":1,"updated_at":"2026-06-01T11:36:06.057147+05:30"},{"city":"Agra","state":"Uttar Pradesh","latitude":27.1767,"longitude":78.0081,"temp":33.2,"humidity":42,"rain":0.0,"pressure":989.1,"uv_index":8.05,"wind_gusts":25.6,"aqi":194,"pm10":381.8,"pm2_5":63.1,"no2":1.7,"co":273.0,"o3":139.0,"so2":5.9,"mosquito_risk":0,"arthritis_risk":5,"migraine_risk":7,"frizz_risk":1,"updated_at":"2026-06-01T11:36:06.057154+05:30"},{"city":"Varanasi","state":"Uttar Pradesh","latitude":25.3176,"longitude":82.9739,"temp":35.5,"humidity":42,"rain":0.0,"pressure":998.7,"uv_index":8.75,"wind_gusts":20.9,"aqi":152,"pm10":60.5,"pm2_5":40.0,"no2":1.7,"co":370.0,"o3":186.0,"so2":9.6,"mosquito_risk":0,"arthritis_risk":5,"migraine_risk":10,"frizz_risk":1,"updated_at":"2026-06-01T11:36:06.057161+05:30"},{"city":"Prayagraj","state":"Uttar Pradesh","latitude":25.4358,"longitude":81.8463,"temp":35.9,"humidity":39,"rain":0.0,"pressure":997.3,"uv_index":8.65,"wind_gusts":23.8,"aqi":107,"pm10":58.4,"pm2_5":36.9,"no2":1.8,"co":317.0,"o3":182.0,"so2":8.1,"mosquito_risk":0,"arthritis_risk":5,"migraine_risk":10,"frizz_risk":1,"updated_at":"2026-06-01T11:36:06.057168+05:30"},{"city":"Gorakhpur","state":"Uttar Pradesh","latitude":26.7606,"longitude":83.3732,"temp":35.0,"humidity":43,"rain":0.0,"pressure":998.6,"uv_index":8.6,"wind_gusts":21.6,"aqi":157,"pm10":65.0,"pm2_5":41.7,"no2":1.7,"co":334.0,"o3":185.0,"so2":9.1,"mosquito_risk":0,"arthritis_risk":5,"migraine_risk":7,"frizz_risk":1,"updated_at":"2026-06-01T11:36:06.057177+05:30"},{"city":"Bareilly","state":"Uttar Pradesh","latitude":28.367,"longitude":79.4304,"temp":29.0,"humidity":64,"rain":0.0,"pressure":989.6,"uv_index":8.0,"wind_gusts":29.5,"aqi":125,"pm10":78.9,"pm2_5":32.8,"no2":3.2,"co":237.0,"o3":169.0,"so2":13.9,"mosquito_risk":7,"arthritis_risk":5,"migraine_risk":7,"frizz_risk":1,"updated_at":"2026-06-01T11:36:06.057183+05:30"},{"city":"Aligarh","state":"Uttar Pradesh","latitude":27.8974,"longitude":78.088,"temp":32.0,"humidity":47,"rain":0.0,"pressure":987.3,"uv_index":7.9,"wind_gusts":27.4,"aqi":128,"pm10":287.8,"pm2_5":57.5,"no2":2.0,"co":238.0,"o3":155.0,"so2":9.5,"mosquito_risk":0,"arthritis_risk":5,"migraine_risk":7,"frizz_risk":1,"updated_at":"2026-06-01T11:36:06.057190+05:30"},{"city":"Moradabad","state":"Uttar Pradesh","latitude":28.8386,"longitude":78.7733,"temp":29.3,"humidity":64,"rain":0.1,"pressure":986.3,"uv_index":7.75,"wind_gusts":34.2,"aqi":151,"pm10":69.4,"pm2_5":34.5,"no2":4.1,"co":239.0,"o3":170.0,"so2":14.5,"mosquito_risk":10,"arthritis_risk":5,"migraine_risk":7,"frizz_risk":1,"updated_at":"2026-06-01T11:36:06.057197+05:30"},{"city":"Saharanpur","state":"Uttar Pradesh","latitude":29.9637,"longitude":77.546,"temp":30.2,"humidity":55,"rain":0.0,"pressure":978.1,"uv_index":7.2,"wind_gusts":33.1,"aqi":123,"pm10":34.3,"pm2_5":22.5,"no2":1.9,"co":389.0,"o3":159.0,"so2":4.3,"mosquito_risk":0,"arthritis_risk":5,"migraine_risk":7,"frizz_risk":1,"updated_at":"2026-06-01T11:36:06.057203+05:30"},{"city":"Jhansi","state":"Uttar Pradesh","latitude":25.4484,"longitude":78.5685,"temp":34.1,"humidity":40,"rain":0.0,"pressure":979.5,"uv_index":8.45,"wind_gusts":27.4,"aqi":73,"pm10":62.9,"pm2_5":31.3,"no2":2.3,"co":148.0,"o3":159.0,"so2":13.6,"mosquito_risk":0,"arthritis_risk":5,"migraine_risk":7,"frizz_risk":1,"updated_at":"2026-06-01T11:36:09.383216+05:30"},{"city":"Surat","state":"Gujarat","latitude":21.1702,"longitude":72.8311,"temp":34.9,"humidity":53,"rain":0.0,"pressure":1007.9,"uv_index":7.6,"wind_gusts":43.9,"aqi":68,"pm10":49.8,"pm2_5":26.5,"no2":14.0,"co":370.0,"o3":58.0,"so2":46.9,"mosquito_risk":0,"arthritis_risk":5,"migraine_risk":4,"frizz_risk":1,"updated_at":"2026-06-01T11:36:09.383248+05:30"},{"city":"Vadodara","state":"Gujarat","latitude":22.3072,"longitude":73.1812,"temp":36.3,"humidity":44,"rain":0.0,"pressure":1005.1,"uv_index":8.0,"wind_gusts":40.7,"aqi":65,"pm10":48.4,"pm2_5":23.5,"no2":1.9,"co":150.0,"o3":89.0,"so2":4.4,"mosquito_risk":0,"arthritis_risk":5,"migraine_risk":7,"frizz_risk":1,"updated_at":"2026-06-01T11:36:09.383259+05:30"},{"city":"Rajkot","state":"Gujarat","latitude":22.3039,"longitude":70.8022,"temp":36.3,"humidity":41,"rain":0.0,"pressure":995.1,"uv_index":7.55,"wind_gusts":41.4,"aqi":65,"pm10":40.6,"pm2_5":16.5,"no2":1.0,"co":114.0,"o3":77.0,"so2":3.5,"mosquito_risk":0,"arthritis_risk":5,"migraine_risk":10,"frizz_risk":1,"updated_at":"2026-06-01T11:36:09.383268+05:30"},{"city":"Thane","state":"Maharashtra","latitude":19.2183,"longitude":72.9781,"temp":35.0,"humidity":52,"rain":0.1,"pressure":1009.2,"uv_index":7.65,"wind_gusts":36.4,"aqi":54,"pm10":25.8,"pm2_5":15.2,"no2":4.6,"co":180.0,"o3":104.0,"so2":7.0,"mosquito_risk":3,"arthritis_risk":0,"migraine_risk":4,"frizz_risk":1,"updated_at":"2026-06-01T11:36:09.383278+05:30"},{"city":"Nagpur","state":"Maharashtra","latitude":21.1458,"longitude":79.0882,"temp":38.6,"humidity":23,"rain":0.0,"pressure":973.9,"uv_index":8.85,"wind_gusts":35.3,"aqi":80,"pm10":47.6,"pm2_5":24.2,"no2":7.7,"co":194.0,"o3":159.0,"so2":29.8,"mosquito_risk":0,"arthritis_risk":5,"migraine_risk":10,"frizz_risk":0,"updated_at":"2026-06-01T11:36:09.383286+05:30"},{"city":"Nashik","state":"Maharashtra","latitude":19.9975,"longitude":73.7898,"temp":33.5,"humidity":41,"rain":0.0,"pressure":948.1,"uv_index":8.05,"wind_gusts":43.2,"aqi":44,"pm10":36.2,"pm2_5":13.3,"no2":1.1,"co":127.0,"o3":86.0,"so2":2.5,"mosquito_risk":0,"arthritis_risk":5,"migraine_risk":7,"frizz_risk":1,"updated_at":"2026-06-01T11:36:09.383294+05:30"},{"city":"Aurangabad","state":"Maharashtra","latitude":19.8762,"longitude":75.3433,"temp":34.8,"humidity":35,"rain":0.0,"pressure":946.5,"uv_index":8.9,"wind_gusts":40.3,"aqi":56,"pm10":43.5,"pm2_5":14.8,"no2":1.1,"co":134.0,"o3":95.0,"so2":2.9,"mosquito_risk":0,"arthritis_risk":5,"migraine_risk":7,"frizz_risk":1,"updated_at":"2026-06-01T11:36:09.383301+05:30"},{"city":"Solapur","state":"Maharashtra","latitude":17.6599,"longitude":75.9064,"temp":36.0,"humidity":35,"rain":0.0,"pressure":958.8,"uv_index":8.9,"wind_gusts":38.9,"aqi":64,"pm10":38.6,"pm2_5":17.3,"no2":1.4,"co":136.0,"o3":127.0,"so2":6.1,"mosquito_risk":0,"arthritis_risk":5,"migraine_risk":10,"frizz_risk":1,"updated_at":"2026-06-01T11:36:09.383309+05:30"},{"city":"Kolhapur","state":"Maharashtra","latitude":16.705,"longitude":74.2433,"temp":34.4,"humidity":39,"rain":0.0,"pressure":950.4,"uv_index":8.75,"wind_gusts":47.5,"aqi":38,"pm10":34.7,"pm2_5":12.8,"no2":1.4,"co":139.0,"o3":95.0,"so2":1.9,"mosquito_risk":0,"arthritis_risk":5,"migraine_risk":7,"frizz_risk":1,"updated_at":"2026-06-01T11:36:09.383317+05:30"},{"city":"Goa","state":"Goa","latitude":15.2993,"longitude":74.124,"temp":34.6,"humidity":54,"rain":0.0,"pressure":999.8,"uv_index":8.7,"wind_gusts":29.9,"aqi":53,"pm10":15.4,"pm2_5":9.8,"no2":0.8,"co":170.0,"o3":76.0,"so2":1.7,"mosquito_risk":0,"arthritis_risk":5,"migraine_risk":7,"frizz_risk":1,"updated_at":"2026-06-01T11:36:09.383325+05:30"},{"city":"Jodhpur","state":"Rajasthan","latitude":26.2389,"longitude":73.0243,"temp":35.8,"humidity":46,"rain":0.0,"pressure":983.0,"uv_index":8.4,"wind_gusts":39.2,"aqi":99,"pm10":196.5,"pm2_5":48.0,"no2":0.7,"co":134.0,"o3":86.0,"so2":3.6,"mosquito_risk":0,"arthritis_risk":5,"migraine_risk":10,"frizz_risk":1,"updated_at":"2026-06-01T11:36:09.383332+05:30"},{"city":"Udaipur","state":"Rajasthan","latitude":24.5854,"longitude":73.7125,"temp":34.3,"humidity":40,"rain":0.0,"pressure":947.9,"uv_index":8.75,"wind_gusts":38.9,"aqi":74,"pm10":51.7,"pm2_5":21.1,"no2":0.7,"co":155.0,"o3":87.0,"so2":2.7,"mosquito_risk":0,"arthritis_risk":5,"migraine_risk":7,"frizz_risk":1,"updated_at":"2026-06-01T11:36:09.383339+05:30"},{"city":"Kota","state":"Rajasthan","latitude":25.2138,"longitude":75.8648,"temp":34.0,"humidity":42,"rain":0.0,"pressure":980.2,"uv_index":8.35,"wind_gusts":45.0,"aqi":77,"pm10":87.5,"pm2_5":30.7,"no2":1.5,"co":165.0,"o3":118.0,"so2":9.2,"mosquito_risk":0,"arthritis_risk":5,"migraine_risk":7,"frizz_risk":1,"updated_at":"2026-06-01T11:36:09.383346+05:30"},{"city":"Bikaner","state":"Rajasthan","latitude":28.0229,"longitude":73.3119,"temp":37.0,"humidity":31,"rain":0.0,"pressure":981.9,"uv_index":8.4,"wind_gusts":28.8,"aqi":119,"pm10":193.2,"pm2_5":42.0,"no2":0.6,"co":141.0,"o3":104.0,"so2":4.3,"mosquito_risk":0,"arthritis_risk":5,"migraine_risk":10,"frizz_risk":1,"updated_at":"2026-06-01T11:36:09.383354+05:30"},{"city":"Ajmer","state":"Rajasthan","latitude":26.4499,"longitude":74.6399,"temp":33.6,"humidity":44,"rain":0.0,"pressure":955.7,"uv_index":8.3,"wind_gusts":35.6,"aqi":86,"pm10":142.5,"pm2_5":33.3,"no2":0.7,"co":140.0,"o3":102.0,"so2":3.4,"mosquito_risk":0,"arthritis_risk":5,"migraine_risk":7,"frizz_risk":1,"updated_at":"2026-06-01T11:36:09.383361+05:30"},{"city":"Gwalior","state":"Madhya Pradesh","latitude":26.2183,"longitude":78.1828,"temp":33.3,"humidity":43,"rain":0.0,"pressure":984.5,"uv_index":8.25,"wind_gusts":27.4,"aqi":77,"pm10":60.3,"pm2_5":23.4,"no2":0.8,"co":172.0,"o3":130.0,"so2":4.4,"mosquito_risk":0,"arthritis_risk":5,"migraine_risk":7,"frizz_risk":1,"updated_at":"2026-06-01T11:36:09.383368+05:30"},{"city":"Indore","state":"Madhya Pradesh","latitude":22.7196,"longitude":75.8577,"temp":35.5,"humidity":38,"rain":0.0,"pressure":950.4,"uv_index":8.6,"wind_gusts":42.1,"aqi":69,"pm10":51.3,"pm2_5":21.9,"no2":1.3,"co":191.0,"o3":107.0,"so2":6.6,"mosquito_risk":0,"arthritis_risk":5,"migraine_risk":10,"frizz_risk":1,"updated_at":"2026-06-01T11:36:09.383375+05:30"},{"city":"Bhopal","state":"Madhya Pradesh","latitude":23.2599,"longitude":77.4126,"temp":31.8,"humidity":45,"rain":0.1,"pressure":955.8,"uv_index":8.65,"wind_gusts":78.1,"aqi":58,"pm10":49.0,"pm2_5":21.2,"no2":0.8,"co":201.0,"o3":123.0,"so2":6.2,"mosquito_risk":3,"arthritis_risk":5,"migraine_risk":7,"frizz_risk":1,"updated_at":"2026-06-01T11:36:09.383382+05:30"},{"city":"Jabalpur","state":"Madhya Pradesh","latitude":23.1815,"longitude":79.9864,"temp":36.5,"humidity":27,"rain":0.0,"pressure":962.9,"uv_index":8.8,"wind_gusts":38.9,"aqi":97,"pm10":38.1,"pm2_5":17.0,"no2":0.9,"co":183.0,"o3":141.0,"so2":4.3,"mosquito_risk":0,"arthritis_risk":5,"migraine_risk":10,"frizz_risk":0,"updated_at":"2026-06-01T11:36:09.383389+05:30"},{"city":"Ujjain","state":"Madhya Pradesh","latitude":23.1765,"longitude":75.7885,"temp":35.2,"humidity":42,"rain":0.0,"pressure":956.0,"uv_index":8.55,"wind_gusts":42.8,"aqi":69,"pm10":53.0,"pm2_5":23.4,"no2":1.2,"co":177.0,"o3":102.0,"so2":8.5,"mosquito_risk":0,"arthritis_risk":5,"migraine_risk":10,"frizz_risk":1,"updated_at":"2026-06-01T11:36:09.383398+05:30"},{"city":"Visakhapatnam","state":"Andhra Pradesh","latitude":17.6868,"longitude":83.2185,"temp":36.5,"humidity":53,"rain":0.0,"pressure":1003.0,"uv_index":9.0,"wind_gusts":43.2,"aqi":109,"pm10":47.1,"pm2_5":37.5,"no2":10.1,"co":416.0,"o3":164.0,"so2":38.6,"mosquito_risk":0,"arthritis_risk":5,"migraine_risk":7,"frizz_risk":1,"updated_at":"2026-06-01T11:36:09.383405+05:30"},{"city":"Vijayawada","state":"Andhra Pradesh","latitude":16.5062,"longitude":80.648,"temp":38.7,"humidity":33,"rain":0.0,"pressure":1002.0,"uv_index":9.0,"wind_gusts":26.3,"aqi":84,"pm10":48.8,"pm2_5":24.8,"no2":1.9,"co":185.0,"o3":142.0,"so2":7.8,"mosquito_risk":0,"arthritis_risk":5,"migraine_risk":7,"frizz_risk":1,"updated_at":"2026-06-01T11:36:09.383412+05:30"},{"city":"Guntur","state":"Andhra Pradesh","latitude":16.3067,"longitude":80.4365,"temp":38.5,"humidity":33,"rain":0.0,"pressure":1003.3,"uv_index":9.0,"wind_gusts":36.0,"aqi":85,"pm10":59.8,"pm2_5":29.0,"no2":1.9,"co":183.0,"o3":148.0,"so2":8.9,"mosquito_risk":0,"arthritis_risk":5,"migraine_risk":7,"frizz_risk":1,"updated_at":"2026-06-01T11:36:09.383419+05:30"},{"city":"Nellore","state":"Andhra Pradesh","latitude":14.4426,"longitude":79.9865,"temp":36.9,"humidity":40,"rain":0.0,"pressure":1005.8,"uv_index":8.85,"wind_gusts":36.7,"aqi":73,"pm10":21.0,"pm2_5":14.2,"no2":2.3,"co":151.0,"o3":141.0,"so2":7.0,"mosquito_risk":0,"arthritis_risk":5,"migraine_risk":7,"frizz_risk":1,"updated_at":"2026-06-01T11:36:09.383426+05:30"},{"city":"Kurnool","state":"Andhra Pradesh","latitude":15.8281,"longitude":78.0373,"temp":35.2,"humidity":40,"rain":0.0,"pressure":978.2,"uv_index":8.95,"wind_gusts":37.1,"aqi":72,"pm10":51.1,"pm2_5":22.1,"no2":1.8,"co":173.0,"o3":140.0,"so2":8.7,"mosquito_risk":0,"arthritis_risk":5,"migraine_risk":10,"frizz_risk":1,"updated_at":"2026-06-01T11:36:09.383435+05:30"},{"city":"Kakinada","state":"Andhra Pradesh","latitude":16.9891,"longitude":82.2475,"temp":37.6,"humidity":46,"rain":0.0,"pressure":1006.8,"uv_index":8.95,"wind_gusts":31.7,"aqi":86,"pm10":39.1,"pm2_5":29.0,"no2":2.1,"co":232.0,"o3":152.0,"so2":6.2,"mosquito_risk":0,"arthritis_risk":5,"migraine_risk":7,"frizz_risk":1,"updated_at":"2026-06-01T11:36:09.383442+05:30"},{"city":"Tirupati","state":"Andhra Pradesh","latitude":13.6288,"longitude":79.4192,"temp":37.7,"humidity":34,"rain":0.0,"pressure":991.4,"uv_index":8.7,"wind_gusts":26.6,"aqi":79,"pm10":19.0,"pm2_5":12.8,"no2":1.5,"co":148.0,"o3":129.0,"so2":3.2,"mosquito_risk":0,"arthritis_risk":5,"migraine_risk":10,"frizz_risk":1,"updated_at":"2026-06-01T11:36:09.383449+05:30"},{"city":"Warangal","state":"Telangana","latitude":17.9689,"longitude":79.5941,"temp":37.0,"humidity":27,"rain":0.0,"pressure":979.4,"uv_index":9.0,"wind_gusts":27.0,"aqi":109,"pm10":43.0,"pm2_5":20.1,"no2":1.8,"co":203.0,"o3":151.0,"so2":8.7,"mosquito_risk":0,"arthritis_risk":5,"migraine_risk":10,"frizz_risk":0,"updated_at":"2026-06-01T11:36:09.383456+05:30"},{"city":"Nizamabad","state":"Telangana","latitude":18.6725,"longitude":78.0941,"temp":36.4,"humidity":30,"rain":0.0,"pressure":966.0,"uv_index":9.0,"wind_gusts":30.6,"aqi":70,"pm10":34.5,"pm2_5":15.8,"no2":1.1,"co":148.0,"o3":126.0,"so2":4.7,"mosquito_risk":0,"arthritis_risk":5,"migraine_risk":10,"frizz_risk":0,"updated_at":"2026-06-01T11:36:09.383464+05:30"},{"city":"Mysore","state":"Karnataka","latitude":12.2958,"longitude":76.6396,"temp":27.8,"humidity":67,"rain":0.0,"pressure":931.2,"uv_index":8.3,"wind_gusts":45.0,"aqi":40,"pm10":10.8,"pm2_5":8.6,"no2":2.6,"co":188.0,"o3":119.0,"so2":2.4,"mosquito_risk":7,"arthritis_risk":5,"migraine_risk":7,"frizz_risk":1,"updated_at":"2026-06-01T11:36:09.383471+05:30"},{"city":"Mangalore","state":"Karnataka","latitude":12.9141,"longitude":74.856,"temp":32.0,"humidity":63,"rain":0.0,"pressure":1008.9,"uv_index":8.75,"wind_gusts":38.5,"aqi":41,"pm10":8.8,"pm2_5":6.7,"no2":1.4,"co":171.0,"o3":97.0,"so2":3.0,"mosquito_risk":3,"arthritis_risk":0,"migraine_risk":4,"frizz_risk":1,"updated_at":"2026-06-01T11:36:09.383479+05:30"},{"city":"Hubli-Dharwad","state":"Karnataka","latitude":15.3647,"longitude":75.124,"temp":34.1,"humidity":40,"rain":0.0,"pressure":943.9,"uv_index":8.9,"wind_gusts":46.4,"aqi":36,"pm10":26.3,"pm2_5":10.9,"no2":1.3,"co":146.0,"o3":89.0,"so2":1.2,"mosquito_risk":0,"arthritis_risk":5,"migraine_risk":7,"frizz_risk":1,"updated_at":"2026-06-01T11:36:09.383486+05:30"},{"city":"Belgaum","state":"Karnataka","latitude":15.8497,"longitude":74.4977,"temp":31.9,"humidity":44,"rain":0.0,"pressure":929.0,"uv_index":8.95,"wind_gusts":46.4,"aqi":48,"pm10":28.5,"pm2_5":10.4,"no2":1.3,"co":133.0,"o3":88.0,"so2":1.6,"mosquito_risk":0,"arthritis_risk":5,"migraine_risk":7,"frizz_risk":1,"updated_at":"2026-06-01T11:36:12.717663+05:30"},{"city":"Coimbatore","state":"Tamil Nadu","latitude":11.0168,"longitude":76.9558,"temp":33.0,"humidity":43,"rain":0.0,"pressure":963.7,"uv_index":7.75,"wind_gusts":50.0,"aqi":36,"pm10":9.5,"pm2_5":7.5,"no2":1.8,"co":171.0,"o3":126.0,"so2":3.1,"mosquito_risk":0,"arthritis_risk":5,"migraine_risk":7,"frizz_risk":1,"updated_at":"2026-06-01T11:36:12.717694+05:30"},{"city":"Madurai","state":"Tamil Nadu","latitude":9.9252,"longitude":78.1198,"temp":36.3,"humidity":38,"rain":0.0,"pressure":993.9,"uv_index":8.8,"wind_gusts":37.8,"aqi":77,"pm10":36.8,"pm2_5":20.7,"no2":2.7,"co":175.0,"o3":168.0,"so2":5.8,"mosquito_risk":0,"arthritis_risk":5,"migraine_risk":10,"frizz_risk":1,"updated_at":"2026-06-01T11:36:12.717705+05:30"},{"city":"Trichy","state":"Tamil Nadu","latitude":10.7905,"longitude":78.7047,"temp":32.5,"humidity":58,"rain":0.0,"pressure":1000.8,"uv_index":8.7,"wind_gusts":32.0,"aqi":52,"pm10":13.0,"pm2_5":10.0,"no2":2.3,"co":165.0,"o3":123.0,"so2":4.2,"mosquito_risk":0,"arthritis_risk":5,"migraine_risk":4,"frizz_risk":1,"updated_at":"2026-06-01T11:36:12.717715+05:30"},{"city":"Salem","state":"Tamil Nadu","latitude":11.6643,"longitude":78.146,"temp":32.6,"humidity":51,"rain":0.0,"pressure":979.3,"uv_index":7.8,"wind_gusts":33.8,"aqi":65,"pm10":20.6,"pm2_5":17.4,"no2":4.5,"co":190.0,"o3":163.0,"so2":18.7,"mosquito_risk":0,"arthritis_risk":5,"migraine_risk":7,"frizz_risk":1,"updated_at":"2026-06-01T11:36:12.717723+05:30"},{"city":"Tirunelveli","state":"Tamil Nadu","latitude":8.7139,"longitude":77.7567,"temp":37.1,"humidity":38,"rain":0.0,"pressure":1004.1,"uv_index":8.75,"wind_gusts":38.5,"aqi":29,"pm10":16.7,"pm2_5":8.8,"no2":1.1,"co":141.0,"o3":93.0,"so2":1.1,"mosquito_risk":0,"arthritis_risk":5,"migraine_risk":7,"frizz_risk":1,"updated_at":"2026-06-01T11:36:12.717731+05:30"},{"city":"Vellore","state":"Tamil Nadu","latitude":12.9165,"longitude":79.1325,"temp":35.8,"humidity":41,"rain":0.0,"pressure":985.3,"uv_index":9.0,"wind_gusts":40.0,"aqi":82,"pm10":18.9,"pm2_5":14.5,"no2":1.9,"co":194.0,"o3":143.0,"so2":3.7,"mosquito_risk":0,"arthritis_risk":5,"migraine_risk":10,"frizz_risk":1,"updated_at":"2026-06-01T11:36:12.717738+05:30"},{"city":"Erode","state":"Tamil Nadu","latitude":11.341,"longitude":77.7172,"temp":31.0,"humidity":57,"rain":0.0,"pressure":990.9,"uv_index":8.6,"wind_gusts":36.0,"aqi":47,"pm10":13.1,"pm2_5":10.7,"no2":2.5,"co":229.0,"o3":145.0,"so2":2.4,"mosquito_risk":0,"arthritis_risk":5,"migraine_risk":7,"frizz_risk":1,"updated_at":"2026-06-01T11:36:12.717746+05:30"},{"city":"Kochi","state":"Kerala","latitude":9.9312,"longitude":76.2673,"temp":29.6,"humidity":76,"rain":0.0,"pressure":1010.8,"uv_index":7.7,"wind_gusts":34.6,"aqi":51,"pm10":15.2,"pm2_5":10.9,"no2":3.1,"co":162.0,"o3":96.0,"so2":4.9,"mosquito_risk":7,"arthritis_risk":0,"migraine_risk":4,"frizz_risk":1,"updated_at":"2026-06-01T11:36:12.717753+05:30"},{"city":"Thiruvananthapuram","state":"Kerala","latitude":8.5241,"longitude":76.9366,"temp":29.4,"humidity":76,"rain":0.0,"pressure":1010.3,"uv_index":7.35,"wind_gusts":34.2,"aqi":34,"pm10":18.2,"pm2_5":13.4,"no2":3.1,"co":143.0,"o3":104.0,"so2":2.7,"mosquito_risk":7,"arthritis_risk":0,"migraine_risk":4,"frizz_risk":1,"updated_at":"2026-06-01T11:36:12.717761+05:30"},{"city":"Kozhikode","state":"Kerala","latitude":11.2588,"longitude":75.7804,"temp":30.6,"humidity":70,"rain":0.0,"pressure":1009.9,"uv_index":8.15,"wind_gusts":32.0,"aqi":32,"pm10":7.9,"pm2_5":5.8,"no2":0.9,"co":192.0,"o3":91.0,"so2":2.3,"mosquito_risk":3,"arthritis_risk":0,"migraine_risk":4,"frizz_risk":1,"updated_at":"2026-06-01T11:36:12.717768+05:30"},{"city":"Thrissur","state":"Kerala","latitude":10.5276,"longitude":76.2144,"temp":30.2,"humidity":73,"rain":0.1,"pressure":1009.0,"uv_index":7.95,"wind_gusts":29.2,"aqi":50,"pm10":12.9,"pm2_5":9.4,"no2":2.1,"co":172.0,"o3":96.0,"so2":3.5,"mosquito_risk":6,"arthritis_risk":0,"migraine_risk":4,"frizz_risk":1,"updated_at":"2026-06-01T11:36:12.717777+05:30"},{"city":"Kannur","state":"Kerala","latitude":11.8745,"longitude":75.3704,"temp":30.8,"humidity":71,"rain":0.0,"pressure":1009.3,"uv_index":8.25,"wind_gusts":30.6,"aqi":34,"pm10":7.9,"pm2_5":6.0,"no2":1.3,"co":177.0,"o3":95.0,"so2":2.2,"mosquito_risk":3,"arthritis_risk":0,"migraine_risk":4,"frizz_risk":1,"updated_at":"2026-06-01T11:36:12.717784+05:30"},{"city":"Patna","state":"Bihar","latitude":25.5941,"longitude":85.1376,"temp":34.5,"humidity":51,"rain":0.0,"pressure":1001.5,"uv_index":8.85,"wind_gusts":14.4,"aqi":159,"pm10":69.8,"pm2_5":55.2,"no2":2.3,"co":365.0,"o3":217.0,"so2":18.5,"mosquito_risk":0,"arthritis_risk":5,"migraine_risk":4,"frizz_risk":1,"updated_at":"2026-06-01T11:36:12.717791+05:30"},{"city":"Gaya","state":"Bihar","latitude":24.7914,"longitude":85.0002,"temp":35.3,"humidity":43,"rain":0.0,"pressure":994.9,"uv_index":8.95,"wind_gusts":23.8,"aqi":153,"pm10":59.4,"pm2_5":46.4,"no2":1.7,"co":310.0,"o3":199.0,"so2":15.2,"mosquito_risk":0,"arthritis_risk":5,"migraine_risk":10,"frizz_risk":1,"updated_at":"2026-06-01T11:36:12.717798+05:30"},{"city":"Muzaffarpur","state":"Bihar","latitude":26.1209,"longitude":85.3647,"temp":34.4,"humidity":48,"rain":0.0,"pressure":1001.4,"uv_index":8.85,"wind_gusts":17.6,"aqi":163,"pm10":68.9,"pm2_5":53.4,"no2":2.5,"co":352.0,"o3":212.0,"so2":16.8,"mosquito_risk":0,"arthritis_risk":5,"migraine_risk":4,"frizz_risk":1,"updated_at":"2026-06-01T11:36:12.717805+05:30"},{"city":"Bhagalpur","state":"Bihar","latitude":25.2425,"longitude":87.0117,"temp":34.5,"humidity":53,"rain":0.0,"pressure":1001.8,"uv_index":8.8,"wind_gusts":16.6,"aqi":155,"pm10":75.2,"pm2_5":59.1,"no2":3.5,"co":340.0,"o3":227.0,"so2":33.9,"mosquito_risk":0,"arthritis_risk":5,"migraine_risk":4,"frizz_risk":1,"updated_at":"2026-06-01T11:36:12.717813+05:30"},{"city":"Ranchi","state":"Jharkhand","latitude":23.3441,"longitude":85.3096,"temp":31.5,"humidity":45,"rain":0.0,"pressure":939.9,"uv_index":9.25,"wind_gusts":38.9,"aqi":106,"pm10":58.6,"pm2_5":36.7,"no2":1.5,"co":258.0,"o3":188.0,"so2":16.4,"mosquito_risk":0,"arthritis_risk":5,"migraine_risk":7,"frizz_risk":1,"updated_at":"2026-06-01T11:36:12.717820+05:30"},{"city":"Jamshedpur","state":"Jharkhand","latitude":22.8046,"longitude":86.2029,"temp":34.5,"humidity":49,"rain":0.0,"pressure":991.5,"uv_index":9.05,"wind_gusts":22.0,"aqi":153,"pm10":62.2,"pm2_5":47.1,"no2":3.2,"co":444.0,"o3":220.0,"so2":26.3,"mosquito_risk":0,"arthritis_risk":5,"migraine_risk":7,"frizz_risk":1,"updated_at":"2026-06-01T11:36:12.717827+05:30"},{"city":"Dhanbad","state":"Jharkhand","latitude":23.7957,"longitude":86.4304,"temp":34.1,"humidity":49,"rain":0.0,"pressure":980.9,"uv_index":9.05,"wind_gusts":18.7,"aqi":173,"pm10":78.2,"pm2_5":65.2,"no2":18.3,"co":492.0,"o3":218.0,"so2":85.1,"mosquito_risk":0,"arthritis_risk":5,"migraine_risk":7,"frizz_risk":1,"updated_at":"2026-06-01T11:36:12.717834+05:30"},{"city":"Bokaro","state":"Jharkhand","latitude":23.6693,"longitude":86.1511,"temp":34.0,"humidity":47,"rain":0.0,"pressure":984.7,"uv_index":9.05,"wind_gusts":20.2,"aqi":173,"pm10":72.2,"pm2_5":57.3,"no2":17.6,"co":336.0,"o3":214.0,"so2":80.8,"mosquito_risk":0,"arthritis_risk":5,"migraine_risk":7,"frizz_risk":1,"updated_at":"2026-06-01T11:36:12.717842+05:30"},{"city":"Bhubaneswar","state":"Odisha","latitude":20.2961,"longitude":85.8245,"temp":34.5,"humidity":60,"rain":0.0,"pressure":1002.6,"uv_index":9.05,"wind_gusts":30.6,"aqi":111,"pm10":50.2,"pm2_5":36.8,"no2":1.9,"co":270.0,"o3":167.0,"so2":10.1,"mosquito_risk":0,"arthritis_risk":5,"migraine_risk":4,"frizz_risk":1,"updated_at":"2026-06-01T11:36:12.717849+05:30"},{"city":"Cuttack","state":"Odisha","latitude":20.4625,"longitude":85.8828,"temp":34.3,"humidity":61,"rain":0.0,"pressure":1004.4,"uv_index":9.1,"wind_gusts":29.9,"aqi":111,"pm10":50.2,"pm2_5":36.8,"no2":1.9,"co":270.0,"o3":167.0,"so2":10.1,"mosquito_risk":3,"arthritis_risk":5,"migraine_risk":4,"frizz_risk":1,"updated_at":"2026-06-01T11:36:12.717856+05:30"},{"city":"Rourkela","state":"Odisha","latitude":22.2604,"longitude":84.8536,"temp":36.8,"humidity":35,"rain":0.0,"pressure":985.6,"uv_index":9.0,"wind_gusts":27.7,"aqi":120,"pm10":50.8,"pm2_5":38.8,"no2":2.4,"co":393.0,"o3":219.0,"so2":24.5,"mosquito_risk":0,"arthritis_risk":5,"migraine_risk":10,"frizz_risk":1,"updated_at":"2026-06-01T11:36:12.717863+05:30"},{"city":"Raipur","state":"Chhattisgarh","latitude":21.2514,"longitude":81.6296,"temp":35.2,"humidity":34,"rain":0.0,"pressure":975.6,"uv_index":7.45,"wind_gusts":24.8,"aqi":125,"pm10":71.2,"pm2_5":38.0,"no2":12.6,"co":202.0,"o3":170.0,"so2":44.2,"mosquito_risk":0,"arthritis_risk":5,"migraine_risk":10,"frizz_risk":1,"updated_at":"2026-06-01T11:36:12.717870+05:30"},{"city":"Bhilai","state":"Chhattisgarh","latitude":21.1938,"longitude":81.3509,"temp":35.8,"humidity":33,"rain":0.0,"pressure":975.9,"uv_index":8.6,"wind_gusts":29.2,"aqi":123,"pm10":81.3,"pm2_5":43.2,"no2":19.4,"co":259.0,"o3":153.0,"so2":62.9,"mosquito_risk":0,"arthritis_risk":5,"migraine_risk":10,"frizz_risk":1,"updated_at":"2026-06-01T11:36:12.717877+05:30"},{"city":"Guwahati","state":"Assam","latitude":26.1158,"longitude":91.7086,"temp":32.0,"humidity":68,"rain":0.0,"pressure":1001.4,"uv_index":8.55,"wind_gusts":28.1,"aqi":75,"pm10":48.5,"pm2_5":31.4,"no2":1.0,"co":292.0,"o3":148.0,"so2":3.5,"mosquito_risk":3,"arthritis_risk":5,"migraine_risk":4,"frizz_risk":1,"updated_at":"2026-06-01T11:36:12.717884+05:30"},{"city":"Agartala","state":"Tripura","latitude":23.8315,"longitude":91.2868,"temp":32.1,"humidity":69,"rain":0.0,"pressure":1006.4,"uv_index":8.85,"wind_gusts":20.2,"aqi":129,"pm10":56.5,"pm2_5":34.8,"no2":4.8,"co":252.0,"o3":158.0,"so2":11.3,"mosquito_risk":3,"arthritis_risk":5,"migraine_risk":4,"frizz_risk":1,"updated_at":"2026-06-01T11:36:12.717891+05:30"},{"city":"Shillong","state":"Meghalaya","latitude":25.5788,"longitude":91.8933,"temp":21.9,"humidity":86,"rain":0.2,"pressure":859.5,"uv_index":8.3,"wind_gusts":23.0,"aqi":57,"pm10":34.0,"pm2_5":20.8,"no2":0.9,"co":238.0,"o3":127.0,"so2":2.2,"mosquito_risk":6,"arthritis_risk":5,"migraine_risk":7,"frizz_risk":1,"updated_at":"2026-06-01T11:36:12.717898+05:30"},{"city":"Imphal","state":"Manipur","latitude":24.817,"longitude":93.9368,"temp":26.8,"humidity":72,"rain":0.0,"pressure":924.2,"uv_index":9.05,"wind_gusts":21.6,"aqi":55,"pm10":10.2,"pm2_5":9.6,"no2":4.4,"co":229.0,"o3":74.0,"so2":1.5,"mosquito_risk":7,"arthritis_risk":5,"migraine_risk":7,"frizz_risk":1,"updated_at":"2026-06-01T11:36:12.717905+05:30"},{"city":"Aizawl","state":"Mizoram","latitude":23.7271,"longitude":92.7176,"temp":25.4,"humidity":69,"rain":0.0,"pressure":894.5,"uv_index":9.05,"wind_gusts":20.2,"aqi":44,"pm10":29.7,"pm2_5":17.8,"no2":0.9,"co":274.0,"o3":129.0,"so2":4.2,"mosquito_risk":7,"arthritis_risk":5,"migraine_risk":7,"frizz_risk":1,"updated_at":"2026-06-01T11:36:12.717912+05:30"},{"city":"Kohima","state":"Nagaland","latitude":25.6701,"longitude":94.1077,"temp":20.7,"humidity":98,"rain":0.2,"pressure":856.9,"uv_index":8.65,"wind_gusts":22.7,"aqi":32,"pm10":7.3,"pm2_5":6.0,"no2":1.8,"co":166.0,"o3":78.0,"so2":0.6,"mosquito_risk":6,"arthritis_risk":5,"migraine_risk":7,"frizz_risk":1,"updated_at":"2026-06-01T11:36:12.717919+05:30"},{"city":"Gangtok","state":"Sikkim","latitude":27.3314,"longitude":88.6138,"temp":24.8,"humidity":53,"rain":0.0,"pressure":841.7,"uv_index":9.25,"wind_gusts":37.1,"aqi":59,"pm10":19.7,"pm2_5":13.5,"no2":0.6,"co":247.0,"o3":139.0,"so2":2.6,"mosquito_risk":0,"arthritis_risk":5,"migraine_risk":7,"frizz_risk":0,"updated_at":"2026-06-01T11:36:12.717950+05:30"},{"city":"Siliguri","state":"West Bengal","latitude":26.7271,"longitude":88.3953,"temp":31.5,"humidity":68,"rain":0.2,"pressure":993.4,"uv_index":8.75,"wind_gusts":22.3,"aqi":98,"pm10":45.4,"pm2_5":30.9,"no2":1.5,"co":383.0,"o3":167.0,"so2":5.2,"mosquito_risk":6,"arthritis_risk":5,"migraine_risk":7,"frizz_risk":1,"updated_at":"2026-06-01T11:36:16.043712+05:30"},{"city":"Durgapur","state":"West Bengal","latitude":23.5204,"longitude":87.3119,"temp":33.8,"humidity":64,"rain":0.0,"pressure":995.6,"uv_index":8.95,"wind_gusts":18.7,"aqi":161,"pm10":79.9,"pm2_5":61.2,"no2":16.8,"co":278.0,"o3":173.0,"so2":72.6,"mosquito_risk":3,"arthritis_risk":5,"migraine_risk":7,"frizz_risk":1,"updated_at":"2026-06-01T11:36:16.043744+05:30"},{"city":"Asansol","state":"West Bengal","latitude":23.6739,"longitude":86.9524,"temp":34.1,"humidity":58,"rain":0.0,"pressure":994.3,"uv_index":9.0,"wind_gusts":17.3,"aqi":156,"pm10":74.5,"pm2_5":58.1,"no2":14.7,"co":368.0,"o3":186.0,"so2":63.3,"mosquito_risk":0,"arthritis_risk":5,"migraine_risk":7,"frizz_risk":1,"updated_at":"2026-06-01T11:36:16.043755+05:30"},{"city":"Pondicherry","state":"Puducherry","latitude":11.9139,"longitude":79.8145,"temp":35.2,"humidity":48,"rain":0.0,"pressure":1009.0,"uv_index":8.35,"wind_gusts":39.2,"aqi":67,"pm10":30.5,"pm2_5":23.6,"no2":5.6,"co":252.0,"o3":144.0,"so2":11.7,"mosquito_risk":0,"arthritis_risk":0,"migraine_risk":7,"frizz_risk":1,"updated_at":"2026-06-01T11:36:16.043764+05:30"},{"city":"Port Blair","state":"Andaman and Nicobar Islands","latitude":11.6234,"longitude":92.7265,"temp":28.0,"humidity":84,"rain":0.2,"pressure":1008.2,"uv_index":8.85,"wind_gusts":38.5,"aqi":36,"pm10":11.1,"pm2_5":5.8,"no2":0.3,"co":119.0,"o3":75.0,"so2":0.5,"mosquito_risk":10,"arthritis_risk":0,"migraine_risk":4,"frizz_risk":1,"updated_at":"2026-06-01T11:36:16.043774+05:30"},{"city":"Haridwar","state":"Uttarakhand","latitude":29.9457,"longitude":78.1642,"temp":30.5,"humidity":50,"rain":0.0,"pressure":976.7,"uv_index":7.5,"wind_gusts":25.2,"aqi":89,"pm10":28.5,"pm2_5":19.2,"no2":1.5,"co":259.0,"o3":156.0,"so2":4.9,"mosquito_risk":0,"arthritis_risk":5,"migraine_risk":7,"frizz_risk":1,"updated_at":"2026-06-01T11:36:16.043782+05:30"},{"city":"Rishikesh","state":"Uttarakhand","latitude":30.0869,"longitude":78.2676,"temp":29.7,"humidity":47,"rain":0.0,"pressure":969.4,"uv_index":7.55,"wind_gusts":23.8,"aqi":56,"pm10":22.9,"pm2_5":14.2,"no2":0.9,"co":310.0,"o3":147.0,"so2":2.5,"mosquito_risk":4,"arthritis_risk":5,"migraine_risk":7,"frizz_risk":1,"updated_at":"2026-06-01T11:36:16.043791+05:30"},{"city":"Nainital","state":"Uttarakhand","latitude":29.3919,"longitude":79.4542,"temp":14.7,"humidity":90,"rain":0.0,"pressure":808.1,"uv_index":6.1,"wind_gusts":36.4,"aqi":72,"pm10":35.2,"pm2_5":18.6,"no2":1.0,"co":209.0,"o3":144.0,"so2":2.4,"mosquito_risk":3,"arthritis_risk":10,"migraine_risk":7,"frizz_risk":0,"updated_at":"2026-06-01T11:36:16.043799+05:30"},{"city":"Mussoorie","state":"Uttarakhand","latitude":30.4599,"longitude":78.0664,"temp":19.3,"humidity":57,"rain":0.1,"pressure":806.7,"uv_index":8.05,"wind_gusts":38.2,"aqi":58,"pm10":12.3,"pm2_5":8.1,"no2":2.0,"co":229.0,"o3":157.0,"so2":3.7,"mosquito_risk":3,"arthritis_risk":5,"migraine_risk":7,"frizz_risk":0,"updated_at":"2026-06-01T11:36:16.043807+05:30"},{"city":"Dharamshala","state":"Himachal Pradesh","latitude":32.219,"longitude":76.3234,"temp":25.1,"humidity":38,"rain":0.0,"pressure":872.6,"uv_index":8.45,"wind_gusts":45.0,"aqi":47,"pm10":16.5,"pm2_5":8.7,"no2":0.7,"co":183.0,"o3":146.0,"so2":0.8,"mosquito_risk":4,"arthritis_risk":5,"migraine_risk":7,"frizz_risk":0,"updated_at":"2026-06-01T11:36:16.043816+05:30"},{"city":"Dalhousie","state":"Himachal Pradesh","latitude":32.5387,"longitude":75.971,"temp":21.7,"humidity":40,"rain":0.0,"pressure":809.2,"uv_index":8.45,"wind_gusts":39.6,"aqi":78,"pm10":24.1,"pm2_5":10.9,"no2":1.4,"co":255.0,"o3":162.0,"so2":1.4,"mosquito_risk":0,"arthritis_risk":5,"migraine_risk":7,"frizz_risk":0,"updated_at":"2026-06-01T11:36:16.043825+05:30"},{"city":"Patiala","state":"Punjab","latitude":30.3398,"longitude":76.3869,"temp":32.1,"humidity":41,"rain":0.0,"pressure":980.2,"uv_index":7.5,"wind_gusts":32.0,"aqi":291,"pm10":384.6,"pm2_5":52.2,"no2":1.9,"co":305.0,"o3":165.0,"so2":9.3,"mosquito_risk":0,"arthritis_risk":5,"migraine_risk":7,"frizz_risk":1,"updated_at":"2026-06-01T11:36:16.043833+05:30"},{"city":"Bhatinda","state":"Punjab","latitude":30.211,"longitude":74.9455,"temp":34.2,"humidity":35,"rain":0.0,"pressure":985.2,"uv_index":8.3,"wind_gusts":32.0,"aqi":542,"pm10":163.4,"pm2_5":41.7,"no2":2.8,"co":266.0,"o3":165.0,"so2":14.4,"mosquito_risk":0,"arthritis_risk":5,"migraine_risk":7,"frizz_risk":1,"updated_at":"2026-06-01T11:36:16.043841+05:30"},{"city":"Rohtak","state":"Haryana","latitude":28.8955,"longitude":76.6066,"temp":32.2,"humidity":44,"rain":0.0,"pressure":983.4,"uv_index":7.15,"wind_gusts":25.9,"aqi":257,"pm10":374.4,"pm2_5":76.4,"no2":6.4,"co":321.0,"o3":192.0,"so2":25.8,"mosquito_risk":0,"arthritis_risk":5,"migraine_risk":7,"frizz_risk":1,"updated_at":"2026-06-01T11:36:16.043848+05:30"},{"city":"Panipat","state":"Haryana","latitude":29.3909,"longitude":76.9635,"temp":31.1,"humidity":50,"rain":0.0,"pressure":982.5,"uv_index":7.3,"wind_gusts":30.6,"aqi":439,"pm10":451.7,"pm2_5":77.1,"no2":4.2,"co":272.0,"o3":180.0,"so2":20.8,"mosquito_risk":0,"arthritis_risk":5,"migraine_risk":7,"frizz_risk":1,"updated_at":"2026-06-01T11:36:16.043856+05:30"},{"city":"Mathura","state":"Uttar Pradesh","latitude":27.4924,"longitude":77.6737,"temp":32.5,"humidity":48,"rain":0.0,"pressure":988.3,"uv_index":8.0,"wind_gusts":23.0,"aqi":272,"pm10":670.6,"pm2_5":90.3,"no2":1.8,"co":263.0,"o3":144.0,"so2":5.0,"mosquito_risk":0,"arthritis_risk":5,"migraine_risk":7,"frizz_risk":1,"updated_at":"2026-06-01T11:36:16.043863+05:30"},{"city":"Vrindavan","state":"Uttar Pradesh","latitude":27.5823,"longitude":77.7027,"temp":32.5,"humidity":47,"rain":0.0,"pressure":988.7,"uv_index":7.95,"wind_gusts":23.8,"aqi":272,"pm10":670.6,"pm2_5":90.3,"no2":1.8,"co":255.0,"o3":144.0,"so2":5.0,"mosquito_risk":0,"arthritis_risk":5,"migraine_risk":7,"frizz_risk":1,"updated_at":"2026-06-01T11:36:16.043872+05:30"},{"city":"Ayodhya","state":"Uttar Pradesh","latitude":26.7922,"longitude":82.1998,"temp":33.5,"humidity":42,"rain":0.0,"pressure":997.1,"uv_index":8.4,"wind_gusts":18.7,"aqi":110,"pm10":61.2,"pm2_5":28.9,"no2":1.4,"co":270.0,"o3":166.0,"so2":5.0,"mosquito_risk":0,"arthritis_risk":5,"migraine_risk":7,"frizz_risk":1,"updated_at":"2026-06-01T11:36:16.043879+05:30"},{"city":"Ratlam","state":"Madhya Pradesh","latitude":23.3315,"longitude":75.0367,"temp":34.7,"humidity":42,"rain":0.0,"pressure":956.7,"uv_index":8.45,"wind_gusts":41.0,"aqi":69,"pm10":52.0,"pm2_5":24.4,"no2":1.2,"co":127.0,"o3":101.0,"so2":9.0,"mosquito_risk":0,"arthritis_risk":5,"migraine_risk":7,"frizz_risk":1,"updated_at":"2026-06-01T11:36:16.043887+05:30"},{"city":"Sagar","state":"Madhya Pradesh","latitude":23.8388,"longitude":78.7378,"temp":35.2,"humidity":32,"rain":0.0,"pressure":951.9,"uv_index":8.15,"wind_gusts":52.2,"aqi":58,"pm10":40.5,"pm2_5":15.3,"no2":0.8,"co":154.0,"o3":137.0,"so2":4.5,"mosquito_risk":0,"arthritis_risk":5,"migraine_risk":10,"frizz_risk":0,"updated_at":"2026-06-01T11:36:16.043894+05:30"},{"city":"Satna","state":"Madhya Pradesh","latitude":24.6005,"longitude":80.8322,"temp":35.5,"humidity":33,"rain":0.0,"pressure":972.9,"uv_index":8.75,"wind_gusts":39.6,"aqi":87,"pm10":49.8,"pm2_5":25.8,"no2":0.8,"co":227.0,"o3":154.0,"so2":5.7,"mosquito_risk":0,"arthritis_risk":5,"migraine_risk":10,"frizz_risk":1,"updated_at":"2026-06-01T11:36:16.043901+05:30"},{"city":"Akola","state":"Maharashtra","latitude":20.7002,"longitude":77.0082,"temp":37.8,"humidity":34,"rain":0.0,"pressure":976.4,"uv_index":8.75,"wind_gusts":46.1,"aqi":60,"pm10":47.4,"pm2_5":20.4,"no2":1.4,"co":133.0,"o3":121.0,"so2":7.3,"mosquito_risk":0,"arthritis_risk":5,"migraine_risk":10,"frizz_risk":1,"updated_at":"2026-06-01T11:36:16.043909+05:30"},{"city":"Amravati","state":"Maharashtra","latitude":20.9374,"longitude":77.7796,"temp":37.5,"humidity":29,"rain":0.0,"pressure":968.7,"uv_index":8.8,"wind_gusts":55.1,"aqi":62,"pm10":45.2,"pm2_5":19.9,"no2":1.7,"co":155.0,"o3":126.0,"so2":8.0,"mosquito_risk":0,"arthritis_risk":5,"migraine_risk":10,"frizz_risk":1,"updated_at":"2026-06-01T11:36:16.043917+05:30"},{"city":"Latur","state":"Maharashtra","latitude":18.4088,"longitude":76.5604,"temp":36.0,"humidity":28,"rain":0.0,"pressure":941.9,"uv_index":8.95,"wind_gusts":28.1,"aqi":65,"pm10":36.1,"pm2_5":14.8,"no2":1.0,"co":141.0,"o3":116.0,"so2":3.3,"mosquito_risk":0,"arthritis_risk":5,"migraine_risk":10,"frizz_risk":0,"updated_at":"2026-06-01T11:36:16.043945+05:30"},{"city":"Nanded","state":"Maharashtra","latitude":19.1383,"longitude":77.3091,"temp":37.6,"humidity":26,"rain":0.0,"pressure":969.7,"uv_index":8.9,"wind_gusts":29.9,"aqi":64,"pm10":35.6,"pm2_5":15.8,"no2":1.1,"co":145.0,"o3":119.0,"so2":3.1,"mosquito_risk":0,"arthritis_risk":5,"migraine_risk":10,"frizz_risk":0,"updated_at":"2026-06-01T11:36:16.043954+05:30"},{"city":"Gulbarga","state":"Karnataka","latitude":17.3297,"longitude":76.8343,"temp":36.9,"humidity":28,"rain":0.0,"pressure":960.3,"uv_index":8.95,"wind_gusts":46.8,"aqi":65,"pm10":38.1,"pm2_5":17.3,"no2":1.7,"co":160.0,"o3":137.0,"so2":5.7,"mosquito_risk":0,"arthritis_risk":5,"migraine_risk":10,"frizz_risk":0,"updated_at":"2026-06-01T11:36:16.043962+05:30"},{"city":"Bidar","state":"Karnataka","latitude":17.9104,"longitude":77.5199,"temp":35.0,"humidity":28,"rain":0.0,"pressure":937.6,"uv_index":8.75,"wind_gusts":34.2,"aqi":74,"pm10":34.6,"pm2_5":15.7,"no2":1.2,"co":150.0,"o3":122.0,"so2":4.3,"mosquito_risk":0,"arthritis_risk":5,"migraine_risk":7,"frizz_risk":0,"updated_at":"2026-06-01T11:36:16.043969+05:30"},{"city":"Hospet","state":"Karnataka","latitude":15.2689,"longitude":76.3909,"temp":31.3,"humidity":59,"rain":0.0,"pressure":958.4,"uv_index":8.95,"wind_gusts":42.8,"aqi":44,"pm10":25.1,"pm2_5":12.7,"no2":1.7,"co":151.0,"o3":103.0,"so2":4.6,"mosquito_risk":0,"arthritis_risk":5,"migraine_risk":7,"frizz_risk":1,"updated_at":"2026-06-01T11:36:16.043976+05:30"},{"city":"Tirupur","state":"Tamil Nadu","latitude":11.1085,"longitude":77.3411,"temp":31.9,"humidity":52,"rain":0.0,"pressure":977.1,"uv_index":8.75,"wind_gusts":42.1,"aqi":47,"pm10":12.2,"pm2_5":9.8,"no2":2.4,"co":170.0,"o3":142.0,"so2":3.5,"mosquito_risk":0,"arthritis_risk":5,"migraine_risk":7,"frizz_risk":1,"updated_at":"2026-06-01T11:36:16.043984+05:30"},{"city":"Alappuzha","state":"Kerala","latitude":9.4981,"longitude":76.3388,"temp":30.1,"humidity":71,"rain":0.0,"pressure":1010.8,"uv_index":6.85,"wind_gusts":33.5,"aqi":42,"pm10":12.1,"pm2_5":8.6,"no2":2.1,"co":121.0,"o3":91.0,"so2":2.6,"mosquito_risk":3,"arthritis_risk":0,"migraine_risk":4,"frizz_risk":1,"updated_at":"2026-06-01T11:36:16.043991+05:30"},{"city":"Munnar","state":"Kerala","latitude":10.0889,"longitude":77.0595,"temp":23.5,"humidity":65,"rain":0.0,"pressure":860.4,"uv_index":7.0,"wind_gusts":23.4,"aqi":42,"pm10":29.9,"pm2_5":13.2,"no2":1.0,"co":144.0,"o3":107.0,"so2":2.0,"mosquito_risk":3,"arthritis_risk":5,"migraine_risk":7,"frizz_risk":1,"updated_at":"2026-06-01T11:36:16.043999+05:30"},{"city":"Silchar","state":"Assam","latitude":24.8333,"longitude":92.7789,"temp":30.0,"humidity":72,"rain":0.1,"pressure":1005.4,"uv_index":8.9,"wind_gusts":23.0,"aqi":87,"pm10":33.8,"pm2_5":24.1,"no2":2.1,"co":244.0,"o3":127.0,"so2":5.7,"mosquito_risk":10,"arthritis_risk":5,"migraine_risk":4,"frizz_risk":1,"updated_at":"2026-06-01T11:36:16.044007+05:30"},{"city":"Dibrugarh","state":"Assam","latitude":27.4728,"longitude":94.912,"temp":31.5,"humidity":70,"rain":0.0,"pressure":994.8,"uv_index":8.8,"wind_gusts":25.2,"aqi":77,"pm10":19.4,"pm2_5":17.2,"no2":1.8,"co":208.0,"o3":116.0,"so2":1.4,"mosquito_risk":3,"arthritis_risk":5,"migraine_risk":7,"frizz_risk":1,"updated_at":"2026-06-01T11:36:16.044015+05:30"}]