[{"city":"Delhi","state":"Delhi","latitude":28.6139,"longitude":77.209,"temp":34.4,"humidity":54,"rain":0.0,"pressure":977.2,"uv_index":6.6,"wind_gusts":27.4,"aqi":405,"pm10":827.0,"pm2_5":182.5,"no2":10.0,"co":508.0,"o3":131.0,"so2":15.7,"mosquito_risk":0,"arthritis_risk":5,"migraine_risk":7,"frizz_risk":1,"updated_at":"2026-07-14T11:03:30.362401+05:30"},{"city":"Mumbai","state":"Maharashtra","latitude":19.076,"longitude":72.8777,"temp":29.7,"humidity":70,"rain":0.0,"pressure":1009.0,"uv_index":7.0,"wind_gusts":45.7,"aqi":68,"pm10":48.0,"pm2_5":21.8,"no2":5.2,"co":171.0,"o3":68.0,"so2":6.6,"mosquito_risk":7,"arthritis_risk":0,"migraine_risk":4,"frizz_risk":1,"updated_at":"2026-07-14T11:03:30.362449+05:30"},{"city":"Bangalore","state":"Karnataka","latitude":12.9716,"longitude":77.5946,"temp":28.3,"humidity":47,"rain":0.0,"pressure":913.0,"uv_index":8.55,"wind_gusts":41.8,"aqi":60,"pm10":21.5,"pm2_5":13.5,"no2":7.0,"co":286.0,"o3":71.0,"so2":4.4,"mosquito_risk":4,"arthritis_risk":5,"migraine_risk":7,"frizz_risk":0,"updated_at":"2026-07-14T11:03:30.362466+05:30"},{"city":"Hyderabad","state":"Telangana","latitude":17.385,"longitude":78.4867,"temp":30.9,"humidity":45,"rain":0.0,"pressure":952.7,"uv_index":7.8,"wind_gusts":45.0,"aqi":56,"pm10":22.9,"pm2_5":14.7,"no2":2.8,"co":231.0,"o3":83.0,"so2":3.8,"mosquito_risk":0,"arthritis_risk":5,"migraine_risk":7,"frizz_risk":1,"updated_at":"2026-07-14T11:03:30.362477+05:30"},{"city":"Chennai","state":"Tamil Nadu","latitude":13.0827,"longitude":80.2707,"temp":36.2,"humidity":38,"rain":0.0,"pressure":1004.9,"uv_index":8.25,"wind_gusts":38.5,"aqi":77,"pm10":28.6,"pm2_5":19.0,"no2":12.3,"co":235.0,"o3":86.0,"so2":12.5,"mosquito_risk":0,"arthritis_risk":5,"migraine_risk":7,"frizz_risk":1,"updated_at":"2026-07-14T11:03:30.362486+05:30"},{"city":"Kolkata","state":"West Bengal","latitude":22.5726,"longitude":88.3639,"temp":30.7,"humidity":75,"rain":0.0,"pressure":1000.0,"uv_index":8.7,"wind_gusts":21.6,"aqi":152,"pm10":44.7,"pm2_5":31.3,"no2":6.1,"co":441.0,"o3":169.0,"so2":18.5,"mosquito_risk":3,"arthritis_risk":5,"migraine_risk":4,"frizz_risk":1,"updated_at":"2026-07-14T11:03:30.362494+05:30"},{"city":"Pune","state":"Maharashtra","latitude":18.5204,"longitude":73.8567,"temp":28.1,"humidity":60,"rain":0.0,"pressure":948.6,"uv_index":8.4,"wind_gusts":49.0,"aqi":52,"pm10":27.9,"pm2_5":15.4,"no2":2.9,"co":132.0,"o3":66.0,"so2":4.5,"mosquito_risk":4,"arthritis_risk":5,"migraine_risk":7,"frizz_risk":1,"updated_at":"2026-07-14T11:03:30.362501+05:30"},{"city":"Ahmedabad","state":"Gujarat","latitude":23.0225,"longitude":72.5714,"temp":32.4,"humidity":57,"rain":0.0,"pressure":1000.1,"uv_index":5.85,"wind_gusts":43.6,"aqi":66,"pm10":29.8,"pm2_5":14.1,"no2":3.3,"co":126.0,"o3":56.0,"so2":4.0,"mosquito_risk":0,"arthritis_risk":5,"migraine_risk":0,"frizz_risk":1,"updated_at":"2026-07-14T11:03:30.362508+05:30"},{"city":"Jaipur","state":"Rajasthan","latitude":26.9124,"longitude":75.7873,"temp":32.6,"humidity":52,"rain":0.0,"pressure":956.2,"uv_index":8.1,"wind_gusts":43.6,"aqi":437,"pm10":754.4,"pm2_5":129.9,"no2":2.3,"co":141.0,"o3":71.0,"so2":4.0,"mosquito_risk":0,"arthritis_risk":5,"migraine_risk":7,"frizz_risk":1,"updated_at":"2026-07-14T11:03:30.362515+05:30"},{"city":"Lucknow","state":"Uttar Pradesh","latitude":26.8467,"longitude":80.9462,"temp":34.4,"humidity":61,"rain":0.0,"pressure":987.8,"uv_index":8.0,"wind_gusts":26.6,"aqi":150,"pm10":180.2,"pm2_5":68.7,"no2":4.3,"co":228.0,"o3":130.0,"so2":8.2,"mosquito_risk":3,"arthritis_risk":5,"migraine_risk":7,"frizz_risk":1,"updated_at":"2026-07-14T11:03:30.362525+05:30"},{"city":"Kanpur","state":"Uttar Pradesh","latitude":26.4499,"longitude":80.3319,"temp":34.4,"humidity":57,"rain":0.0,"pressure":986.1,"uv_index":7.3,"wind_gusts":28.1,"aqi":129,"pm10":122.5,"pm2_5":49.4,"no2":3.7,"co":179.0,"o3":119.0,"so2":7.4,"mosquito_risk":0,"arthritis_risk":5,"migraine_risk":7,"frizz_risk":1,"updated_at":"2026-07-14T11:03:30.362531+05:30"},{"city":"Chandigarh","state":"Chandigarh","latitude":30.7333,"longitude":76.7794,"temp":31.9,"humidity":65,"rain":0.0,"pressure":962.9,"uv_index":7.7,"wind_gusts":24.5,"aqi":173,"pm10":196.5,"pm2_5":75.4,"no2":4.5,"co":612.0,"o3":155.0,"so2":18.0,"mosquito_risk":3,"arthritis_risk":5,"migraine_risk":7,"frizz_risk":1,"updated_at":"2026-07-14T11:03:30.362538+05:30"},{"city":"Srinagar","state":"Jammu and Kashmir","latitude":34.0837,"longitude":74.7973,"temp":25.4,"humidity":53,"rain":0.0,"pressure":839.9,"uv_index":8.95,"wind_gusts":20.2,"aqi":85,"pm10":34.5,"pm2_5":21.4,"no2":3.7,"co":469.0,"o3":146.0,"so2":5.6,"mosquito_risk":4,"arthritis_risk":5,"migraine_risk":7,"frizz_risk":0,"updated_at":"2026-07-14T11:03:30.362545+05:30"},{"city":"Jammu","state":"Jammu and Kashmir","latitude":32.7266,"longitude":74.857,"temp":32.0,"humidity":63,"rain":0.0,"pressure":966.3,"uv_index":8.35,"wind_gusts":28.1,"aqi":155,"pm10":103.6,"pm2_5":53.1,"no2":5.2,"co":412.0,"o3":173.0,"so2":5.8,"mosquito_risk":3,"arthritis_risk":5,"migraine_risk":7,"frizz_risk":1,"updated_at":"2026-07-14T11:03:30.362551+05:30"},{"city":"Amritsar","state":"Punjab","latitude":31.634,"longitude":74.8723,"temp":32.2,"humidity":67,"rain":0.0,"pressure":974.2,"uv_index":8.3,"wind_gusts":15.8,"aqi":190,"pm10":183.5,"pm2_5":85.4,"no2":8.8,"co":509.0,"o3":178.0,"so2":16.1,"mosquito_risk":3,"arthritis_risk":5,"migraine_risk":7,"frizz_risk":1,"updated_at":"2026-07-14T11:03:30.362557+05:30"},{"city":"Ludhiana","state":"Punjab","latitude":30.901,"longitude":75.8573,"temp":33.2,"humidity":61,"rain":0.0,"pressure":972.4,"uv_index":7.9,"wind_gusts":21.2,"aqi":190,"pm10":165.8,"pm2_5":82.2,"no2":7.0,"co":442.0,"o3":161.0,"so2":9.8,"mosquito_risk":3,"arthritis_risk":5,"migraine_risk":7,"frizz_risk":1,"updated_at":"2026-07-14T11:03:30.362564+05:30"},{"city":"Jalandhar","state":"Punjab","latitude":31.326,"longitude":75.5762,"temp":32.6,"humidity":65,"rain":0.0,"pressure":973.3,"uv_index":7.9,"wind_gusts":19.8,"aqi":196,"pm10":151.8,"pm2_5":78.7,"no2":8.2,"co":521.0,"o3":165.0,"so2":9.8,"mosquito_risk":3,"arthritis_risk":5,"migraine_risk":7,"frizz_risk":1,"updated_at":"2026-07-14T11:03:30.362570+05:30"},{"city":"Dehradun","state":"Uttarakhand","latitude":30.6284,"longitude":78.0322,"temp":23.1,"humidity":73,"rain":0.0,"pressure":828.9,"uv_index":8.1,"wind_gusts":23.0,"aqi":112,"pm10":79.6,"pm2_5":34.6,"no2":0.7,"co":200.0,"o3":140.0,"so2":3.8,"mosquito_risk":3,"arthritis_risk":5,"migraine_risk":7,"frizz_risk":1,"updated_at":"2026-07-14T11:03:30.362577+05:30"},{"city":"Shimla","state":"Himachal Pradesh","latitude":31.1048,"longitude":77.1734,"temp":23.1,"humidity":52,"rain":0.0,"pressure":784.7,"uv_index":7.4,"wind_gusts":31.0,"aqi":152,"pm10":87.1,"pm2_5":34.2,"no2":0.9,"co":207.0,"o3":122.0,"so2":6.4,"mosquito_risk":0,"arthritis_risk":5,"migraine_risk":7,"frizz_risk":0,"updated_at":"2026-07-14T11:03:30.362584+05:30"},{"city":"Manali","state":"Himachal Pradesh","latitude":32.2396,"longitude":77.1887,"temp":26.0,"humidity":57,"rain":0.0,"pressure":818.1,"uv_index":9.55,"wind_gusts":32.8,"aqi":54,"pm10":13.2,"pm2_5":6.1,"no2":3.9,"co":181.0,"o3":143.0,"so2":0.8,"mosquito_risk":4,"arthritis_risk":5,"migraine_risk":7,"frizz_risk":1,"updated_at":"2026-07-14T11:03:30.362596+05:30"},{"city":"Gurgaon","state":"Haryana","latitude":28.4595,"longitude":77.0266,"temp":34.8,"humidity":50,"rain":0.0,"pressure":975.8,"uv_index":7.05,"wind_gusts":33.5,"aqi":457,"pm10":1031.9,"pm2_5":200.7,"no2":9.5,"co":310.0,"o3":119.0,"so2":12.8,"mosquito_risk":0,"arthritis_risk":5,"migraine_risk":7,"frizz_risk":1,"updated_at":"2026-07-14T11:03:30.362602+05:30"},{"city":"Noida","state":"Uttar Pradesh","latitude":28.5355,"longitude":77.391,"temp":34.7,"humidity":55,"rain":0.0,"pressure":978.6,"uv_index":6.6,"wind_gusts":24.1,"aqi":457,"pm10":1031.9,"pm2_5":200.7,"no2":9.5,"co":421.0,"o3":119.0,"so2":12.8,"mosquito_risk":0,"arthritis_risk":5,"migraine_risk":7,"frizz_risk":1,"updated_at":"2026-07-14T11:03:30.362609+05:30"},{"city":"Ghaziabad","state":"Uttar Pradesh","latitude":28.6692,"longitude":77.4538,"temp":34.0,"humidity":58,"rain":0.0,"pressure":977.0,"uv_index":6.7,"wind_gusts":22.7,"aqi":273,"pm10":638.9,"pm2_5":168.1,"no2":9.6,"co":337.0,"o3":157.0,"so2":21.9,"mosquito_risk":0,"arthritis_risk":5,"migraine_risk":7,"frizz_risk":1,"updated_at":"2026-07-14T11:03:30.362615+05:30"},{"city":"Faridabad","state":"Haryana","latitude":28.4089,"longitude":77.3178,"temp":34.8,"humidity":52,"rain":0.0,"pressure":977.9,"uv_index":6.7,"wind_gusts":28.1,"aqi":457,"pm10":1031.9,"pm2_5":200.7,"no2":9.5,"co":298.0,"o3":119.0,"so2":12.8,"mosquito_risk":0,"arthritis_risk":5,"migraine_risk":7,"frizz_risk":1,"updated_at":"2026-07-14T11:03:30.362622+05:30"},{"city":"Meerut","state":"Uttar Pradesh","latitude":28.9845,"longitude":77.7064,"temp":32.8,"humidity":61,"rain":0.0,"pressure":975.7,"uv_index":7.6,"wind_gusts":27.7,"aqi":273,"pm10":638.9,"pm2_5":168.1,"no2":9.6,"co":220.0,"o3":157.0,"so2":21.9,"mosquito_risk":3,"arthritis_risk":5,"migraine_risk":7,"frizz_risk":1,"updated_at":"2026-07-14T11:03:30.362629+05:30"},{"city":"Agra","state":"Uttar Pradesh","latitude":27.1767,"longitude":78.0081,"temp":34.3,"humidity":54,"rain":0.0,"pressure":982.6,"uv_index":7.95,"wind_gusts":34.2,"aqi":149,"pm10":271.9,"pm2_5":70.5,"no2":4.5,"co":171.0,"o3":108.0,"so2":5.5,"mosquito_risk":0,"arthritis_risk":5,"migraine_risk":7,"frizz_risk":1,"updated_at":"2026-07-14T11:03:30.362636+05:30"},{"city":"Varanasi","state":"Uttar Pradesh","latitude":25.3176,"longitude":82.9739,"temp":33.9,"humidity":61,"rain":0.0,"pressure":992.1,"uv_index":6.5,"wind_gusts":25.2,"aqi":143,"pm10":111.5,"pm2_5":54.2,"no2":5.2,"co":243.0,"o3":120.0,"so2":11.7,"mosquito_risk":3,"arthritis_risk":5,"migraine_risk":7,"frizz_risk":1,"updated_at":"2026-07-14T11:03:30.362642+05:30"},{"city":"Prayagraj","state":"Uttar Pradesh","latitude":25.4358,"longitude":81.8463,"temp":34.5,"humidity":58,"rain":0.0,"pressure":990.7,"uv_index":7.7,"wind_gusts":29.9,"aqi":126,"pm10":93.8,"pm2_5":48.4,"no2":3.7,"co":186.0,"o3":121.0,"so2":10.3,"mosquito_risk":0,"arthritis_risk":5,"migraine_risk":7,"frizz_risk":1,"updated_at":"2026-07-14T11:03:30.362649+05:30"},{"city":"Gorakhpur","state":"Uttar Pradesh","latitude":26.7606,"longitude":83.3732,"temp":30.3,"humidity":76,"rain":0.0,"pressure":992.5,"uv_index":7.85,"wind_gusts":31.7,"aqi":158,"pm10":112.9,"pm2_5":64.5,"no2":5.6,"co":275.0,"o3":142.0,"so2":10.3,"mosquito_risk":3,"arthritis_risk":5,"migraine_risk":7,"frizz_risk":1,"updated_at":"2026-07-14T11:03:30.362655+05:30"},{"city":"Bareilly","state":"Uttar Pradesh","latitude":28.367,"longitude":79.4304,"temp":33.5,"humidity":64,"rain":0.0,"pressure":981.0,"uv_index":8.0,"wind_gusts":29.2,"aqi":172,"pm10":322.2,"pm2_5":105.9,"no2":6.5,"co":341.0,"o3":163.0,"so2":13.3,"mosquito_risk":3,"arthritis_risk":5,"migraine_risk":7,"frizz_risk":1,"updated_at":"2026-07-14T11:03:30.362664+05:30"},{"city":"Aligarh","state":"Uttar Pradesh","latitude":27.8974,"longitude":78.088,"temp":34.3,"humidity":56,"rain":0.0,"pressure":980.0,"uv_index":7.85,"wind_gusts":31.7,"aqi":431,"pm10":644.5,"pm2_5":144.8,"no2":5.2,"co":219.0,"o3":114.0,"so2":8.3,"mosquito_risk":0,"arthritis_risk":5,"migraine_risk":7,"frizz_risk":1,"updated_at":"2026-07-14T11:03:30.362670+05:30"},{"city":"Moradabad","state":"Uttar Pradesh","latitude":28.8386,"longitude":78.7733,"temp":32.9,"humidity":64,"rain":0.0,"pressure":977.7,"uv_index":7.6,"wind_gusts":29.2,"aqi":192,"pm10":489.9,"pm2_5":147.6,"no2":11.6,"co":413.0,"o3":197.0,"so2":21.9,"mosquito_risk":3,"arthritis_risk":5,"migraine_risk":7,"frizz_risk":1,"updated_at":"2026-07-14T11:03:30.362676+05:30"},{"city":"Saharanpur","state":"Uttar Pradesh","latitude":29.9637,"longitude":77.546,"temp":31.3,"humidity":73,"rain":0.0,"pressure":969.9,"uv_index":7.35,"wind_gusts":30.6,"aqi":190,"pm10":312.0,"pm2_5":101.0,"no2":5.3,"co":521.0,"o3":162.0,"so2":20.3,"mosquito_risk":3,"arthritis_risk":5,"migraine_risk":7,"frizz_risk":1,"updated_at":"2026-07-14T11:03:30.362685+05:30"},{"city":"Jhansi","state":"Uttar Pradesh","latitude":25.4484,"longitude":78.5685,"temp":33.4,"humidity":57,"rain":0.0,"pressure":974.0,"uv_index":8.4,"wind_gusts":41.8,"aqi":102,"pm10":74.0,"pm2_5":31.8,"no2":2.8,"co":134.0,"o3":92.0,"so2":7.7,"mosquito_risk":0,"arthritis_risk":5,"migraine_risk":7,"frizz_risk":1,"updated_at":"2026-07-14T11:03:33.621386+05:30"},{"city":"Surat","state":"Gujarat","latitude":21.1702,"longitude":72.8311,"temp":29.9,"humidity":74,"rain":0.1,"pressure":1005.8,"uv_index":6.35,"wind_gusts":55.1,"aqi":72,"pm10":39.3,"pm2_5":22.0,"no2":11.7,"co":282.0,"o3":42.0,"so2":33.3,"mosquito_risk":10,"arthritis_risk":5,"migraine_risk":4,"frizz_risk":1,"updated_at":"2026-07-14T11:03:33.621424+05:30"},{"city":"Vadodara","state":"Gujarat","latitude":22.3072,"longitude":73.1812,"temp":31.8,"humidity":61,"rain":0.0,"pressure":1002.8,"uv_index":4.35,"wind_gusts":46.4,"aqi":64,"pm10":32.9,"pm2_5":15.6,"no2":3.7,"co":139.0,"o3":52.0,"so2":3.5,"mosquito_risk":3,"arthritis_risk":5,"migraine_risk":0,"frizz_risk":1,"updated_at":"2026-07-14T11:03:33.621434+05:30"},{"city":"Rajkot","state":"Gujarat","latitude":22.3039,"longitude":70.8022,"temp":31.7,"humidity":57,"rain":0.0,"pressure":992.2,"uv_index":7.15,"wind_gusts":51.5,"aqi":61,"pm10":33.6,"pm2_5":15.0,"no2":1.9,"co":103.0,"o3":56.0,"so2":3.1,"mosquito_risk":0,"arthritis_risk":5,"migraine_risk":7,"frizz_risk":1,"updated_at":"2026-07-14T11:03:33.621442+05:30"},{"city":"Thane","state":"Maharashtra","latitude":19.2183,"longitude":72.9781,"temp":30.2,"humidity":69,"rain":0.1,"pressure":1008.3,"uv_index":7.1,"wind_gusts":38.9,"aqi":68,"pm10":48.0,"pm2_5":21.8,"no2":5.2,"co":176.0,"o3":68.0,"so2":6.6,"mosquito_risk":6,"arthritis_risk":0,"migraine_risk":4,"frizz_risk":1,"updated_at":"2026-07-14T11:03:33.621450+05:30"},{"city":"Nagpur","state":"Maharashtra","latitude":21.1458,"longitude":79.0882,"temp":31.4,"humidity":54,"rain":0.0,"pressure":971.4,"uv_index":7.8,"wind_gusts":49.7,"aqi":84,"pm10":41.1,"pm2_5":20.7,"no2":5.3,"co":132.0,"o3":69.0,"so2":14.2,"mosquito_risk":0,"arthritis_risk":5,"migraine_risk":7,"frizz_risk":1,"updated_at":"2026-07-14T11:03:33.621458+05:30"},{"city":"Nashik","state":"Maharashtra","latitude":19.9975,"longitude":73.7898,"temp":27.8,"humidity":64,"rain":0.0,"pressure":945.4,"uv_index":7.25,"wind_gusts":51.1,"aqi":56,"pm10":30.7,"pm2_5":15.3,"no2":2.6,"co":113.0,"o3":60.0,"so2":2.6,"mosquito_risk":7,"arthritis_risk":5,"migraine_risk":7,"frizz_risk":1,"updated_at":"2026-07-14T11:03:33.621465+05:30"},{"city":"Aurangabad","state":"Maharashtra","latitude":19.8762,"longitude":75.3433,"temp":28.3,"humidity":58,"rain":0.0,"pressure":944.2,"uv_index":7.55,"wind_gusts":47.5,"aqi":59,"pm10":25.0,"pm2_5":13.9,"no2":2.0,"co":119.0,"o3":71.0,"so2":5.2,"mosquito_risk":4,"arthritis_risk":5,"migraine_risk":7,"frizz_risk":1,"updated_at":"2026-07-14T11:03:33.621473+05:30"},{"city":"Solapur","state":"Maharashtra","latitude":17.6599,"longitude":75.9064,"temp":29.6,"humidity":56,"rain":0.0,"pressure":957.8,"uv_index":8.55,"wind_gusts":38.9,"aqi":54,"pm10":17.6,"pm2_5":10.4,"no2":1.6,"co":120.0,"o3":69.0,"so2":2.1,"mosquito_risk":4,"arthritis_risk":5,"migraine_risk":7,"frizz_risk":1,"updated_at":"2026-07-14T11:03:33.621480+05:30"},{"city":"Kolhapur","state":"Maharashtra","latitude":16.705,"longitude":74.2433,"temp":27.1,"humidity":67,"rain":0.0,"pressure":949.2,"uv_index":8.9,"wind_gusts":45.7,"aqi":51,"pm10":23.2,"pm2_5":13.9,"no2":2.5,"co":123.0,"o3":60.0,"so2":2.2,"mosquito_risk":7,"arthritis_risk":5,"migraine_risk":7,"frizz_risk":1,"updated_at":"2026-07-14T11:03:33.621487+05:30"},{"city":"Goa","state":"Goa","latitude":15.2993,"longitude":74.124,"temp":30.5,"humidity":67,"rain":0.0,"pressure":1000.1,"uv_index":8.0,"wind_gusts":32.4,"aqi":66,"pm10":34.1,"pm2_5":17.9,"no2":1.2,"co":115.0,"o3":58.0,"so2":1.7,"mosquito_risk":3,"arthritis_risk":5,"migraine_risk":4,"frizz_risk":1,"updated_at":"2026-07-14T11:03:33.621494+05:30"},{"city":"Jodhpur","state":"Rajasthan","latitude":26.2389,"longitude":73.0243,"temp":31.7,"humidity":54,"rain":0.0,"pressure":979.2,"uv_index":8.0,"wind_gusts":49.0,"aqi":224,"pm10":232.8,"pm2_5":56.9,"no2":1.5,"co":106.0,"o3":58.0,"so2":2.8,"mosquito_risk":0,"arthritis_risk":5,"migraine_risk":7,"frizz_risk":1,"updated_at":"2026-07-14T11:03:33.621501+05:30"},{"city":"Udaipur","state":"Rajasthan","latitude":24.5854,"longitude":73.7125,"temp":28.7,"humidity":62,"rain":0.0,"pressure":944.2,"uv_index":8.15,"wind_gusts":47.9,"aqi":74,"pm10":39.1,"pm2_5":16.1,"no2":1.8,"co":108.0,"o3":55.0,"so2":3.4,"mosquito_risk":7,"arthritis_risk":5,"migraine_risk":7,"frizz_risk":1,"updated_at":"2026-07-14T11:03:33.621509+05:30"},{"city":"Kota","state":"Rajasthan","latitude":25.2138,"longitude":75.8648,"temp":32.4,"humidity":51,"rain":0.0,"pressure":976.0,"uv_index":8.3,"wind_gusts":40.0,"aqi":95,"pm10":81.7,"pm2_5":30.6,"no2":2.1,"co":120.0,"o3":70.0,"so2":5.4,"mosquito_risk":0,"arthritis_risk":5,"migraine_risk":7,"frizz_risk":1,"updated_at":"2026-07-14T11:03:33.621516+05:30"},{"city":"Bikaner","state":"Rajasthan","latitude":28.0229,"longitude":73.3119,"temp":33.8,"humidity":50,"rain":0.0,"pressure":976.8,"uv_index":8.4,"wind_gusts":41.8,"aqi":175,"pm10":320.4,"pm2_5":106.2,"no2":0.7,"co":104.0,"o3":63.0,"so2":3.2,"mosquito_risk":0,"arthritis_risk":5,"migraine_risk":7,"frizz_risk":1,"updated_at":"2026-07-14T11:03:33.621523+05:30"},{"city":"Ajmer","state":"Rajasthan","latitude":26.4499,"longitude":74.6399,"temp":29.6,"humidity":59,"rain":0.0,"pressure":951.5,"uv_index":8.2,"wind_gusts":53.6,"aqi":110,"pm10":146.2,"pm2_5":44.0,"no2":1.5,"co":110.0,"o3":62.0,"so2":2.9,"mosquito_risk":4,"arthritis_risk":5,"migraine_risk":7,"frizz_risk":1,"updated_at":"2026-07-14T11:03:33.621530+05:30"},{"city":"Gwalior","state":"Madhya Pradesh","latitude":26.2183,"longitude":78.1828,"temp":32.9,"humidity":59,"rain":0.0,"pressure":978.8,"uv_index":8.05,"wind_gusts":41.4,"aqi":107,"pm10":97.8,"pm2_5":35.5,"no2":2.2,"co":132.0,"o3":90.0,"so2":3.7,"mosquito_risk":0,"arthritis_risk":5,"migraine_risk":7,"frizz_risk":1,"updated_at":"2026-07-14T11:03:33.621537+05:30"},{"city":"Indore","state":"Madhya Pradesh","latitude":22.7196,"longitude":75.8577,"temp":28.9,"humidity":59,"rain":0.0,"pressure":946.9,"uv_index":8.4,"wind_gusts":53.3,"aqi":72,"pm10":55.9,"pm2_5":22.4,"no2":3.1,"co":158.0,"o3":59.0,"so2":4.9,"mosquito_risk":4,"arthritis_risk":5,"migraine_risk":7,"frizz_risk":1,"updated_at":"2026-07-14T11:03:33.621543+05:30"},{"city":"Bhopal","state":"Madhya Pradesh","latitude":23.2599,"longitude":77.4126,"temp":29.3,"humidity":61,"rain":0.0,"pressure":952.1,"uv_index":8.6,"wind_gusts":44.3,"aqi":80,"pm10":52.3,"pm2_5":21.7,"no2":2.6,"co":162.0,"o3":65.0,"so2":5.7,"mosquito_risk":7,"arthritis_risk":5,"migraine_risk":7,"frizz_risk":1,"updated_at":"2026-07-14T11:03:33.621549+05:30"},{"city":"Jabalpur","state":"Madhya Pradesh","latitude":23.1815,"longitude":79.9864,"temp":29.8,"humidity":69,"rain":0.1,"pressure":958.7,"uv_index":8.55,"wind_gusts":41.4,"aqi":92,"pm10":45.2,"pm2_5":25.4,"no2":2.3,"co":157.0,"o3":84.0,"so2":6.2,"mosquito_risk":10,"arthritis_risk":5,"migraine_risk":7,"frizz_risk":1,"updated_at":"2026-07-14T11:03:33.621556+05:30"},{"city":"Ujjain","state":"Madhya Pradesh","latitude":23.1765,"longitude":75.7885,"temp":28.9,"humidity":62,"rain":0.0,"pressure":952.3,"uv_index":8.5,"wind_gusts":50.0,"aqi":71,"pm10":43.2,"pm2_5":18.1,"no2":2.2,"co":138.0,"o3":59.0,"so2":4.2,"mosquito_risk":7,"arthritis_risk":5,"migraine_risk":7,"frizz_risk":1,"updated_at":"2026-07-14T11:03:33.621563+05:30"},{"city":"Visakhapatnam","state":"Andhra Pradesh","latitude":17.6868,"longitude":83.2185,"temp":33.2,"humidity":59,"rain":0.0,"pressure":997.9,"uv_index":8.55,"wind_gusts":24.5,"aqi":134,"pm10":93.4,"pm2_5":49.2,"no2":18.7,"co":549.0,"o3":108.0,"so2":44.8,"mosquito_risk":0,"arthritis_risk":5,"migraine_risk":7,"frizz_risk":1,"updated_at":"2026-07-14T11:03:33.621569+05:30"},{"city":"Vijayawada","state":"Andhra Pradesh","latitude":16.5062,"longitude":80.648,"temp":34.5,"humidity":46,"rain":0.0,"pressure":999.5,"uv_index":5.8,"wind_gusts":45.4,"aqi":81,"pm10":32.1,"pm2_5":21.7,"no2":3.5,"co":150.0,"o3":95.0,"so2":6.4,"mosquito_risk":0,"arthritis_risk":5,"migraine_risk":3,"frizz_risk":1,"updated_at":"2026-07-14T11:03:33.621575+05:30"},{"city":"Guntur","state":"Andhra Pradesh","latitude":16.3067,"longitude":80.4365,"temp":35.4,"humidity":40,"rain":0.0,"pressure":1000.8,"uv_index":6.35,"wind_gusts":46.4,"aqi":73,"pm10":31.4,"pm2_5":20.5,"no2":3.1,"co":148.0,"o3":89.0,"so2":5.4,"mosquito_risk":0,"arthritis_risk":5,"migraine_risk":7,"frizz_risk":1,"updated_at":"2026-07-14T11:03:33.621582+05:30"},{"city":"Nellore","state":"Andhra Pradesh","latitude":14.4426,"longitude":79.9865,"temp":35.3,"humidity":42,"rain":0.0,"pressure":1003.5,"uv_index":8.1,"wind_gusts":47.2,"aqi":67,"pm10":24.6,"pm2_5":15.1,"no2":2.8,"co":121.0,"o3":89.0,"so2":7.2,"mosquito_risk":0,"arthritis_risk":5,"migraine_risk":7,"frizz_risk":1,"updated_at":"2026-07-14T11:03:33.621589+05:30"},{"city":"Kurnool","state":"Andhra Pradesh","latitude":15.8281,"longitude":78.0373,"temp":32.9,"humidity":44,"rain":0.0,"pressure":976.8,"uv_index":7.3,"wind_gusts":43.2,"aqi":54,"pm10":18.0,"pm2_5":11.9,"no2":3.3,"co":132.0,"o3":73.0,"so2":8.3,"mosquito_risk":0,"arthritis_risk":5,"migraine_risk":7,"frizz_risk":1,"updated_at":"2026-07-14T11:03:33.621597+05:30"},{"city":"Kakinada","state":"Andhra Pradesh","latitude":16.9891,"longitude":82.2475,"temp":34.0,"humidity":55,"rain":0.0,"pressure":1002.3,"uv_index":7.15,"wind_gusts":54.7,"aqi":95,"pm10":36.7,"pm2_5":26.6,"no2":4.1,"co":187.0,"o3":129.0,"so2":7.9,"mosquito_risk":0,"arthritis_risk":5,"migraine_risk":4,"frizz_risk":1,"updated_at":"2026-07-14T11:03:33.621603+05:30"},{"city":"Tirupati","state":"Andhra Pradesh","latitude":13.6288,"longitude":79.4192,"temp":35.2,"humidity":35,"rain":0.0,"pressure":989.3,"uv_index":8.25,"wind_gusts":38.5,"aqi":77,"pm10":22.3,"pm2_5":12.9,"no2":2.2,"co":118.0,"o3":82.0,"so2":2.6,"mosquito_risk":0,"arthritis_risk":5,"migraine_risk":10,"frizz_risk":1,"updated_at":"2026-07-14T11:03:33.621609+05:30"},{"city":"Warangal","state":"Telangana","latitude":17.9689,"longitude":79.5941,"temp":30.2,"humidity":58,"rain":0.0,"pressure":977.1,"uv_index":7.25,"wind_gusts":40.0,"aqi":70,"pm10":30.5,"pm2_5":19.9,"no2":2.5,"co":145.0,"o3":86.0,"so2":5.7,"mosquito_risk":0,"arthritis_risk":5,"migraine_risk":7,"frizz_risk":1,"updated_at":"2026-07-14T11:03:33.621616+05:30"},{"city":"Nizamabad","state":"Telangana","latitude":18.6725,"longitude":78.0941,"temp":29.2,"humidity":61,"rain":0.0,"pressure":964.6,"uv_index":5.0,"wind_gusts":42.1,"aqi":62,"pm10":23.3,"pm2_5":15.6,"no2":2.1,"co":137.0,"o3":78.0,"so2":5.7,"mosquito_risk":7,"arthritis_risk":5,"migraine_risk":3,"frizz_risk":1,"updated_at":"2026-07-14T11:03:33.621622+05:30"},{"city":"Mysore","state":"Karnataka","latitude":12.2958,"longitude":76.6396,"temp":28.8,"humidity":56,"rain":0.0,"pressure":930.0,"uv_index":8.95,"wind_gusts":40.0,"aqi":56,"pm10":18.2,"pm2_5":11.4,"no2":3.6,"co":135.0,"o3":74.0,"so2":2.4,"mosquito_risk":4,"arthritis_risk":5,"migraine_risk":7,"frizz_risk":1,"updated_at":"2026-07-14T11:03:33.621628+05:30"},{"city":"Mangalore","state":"Karnataka","latitude":12.9141,"longitude":74.856,"temp":29.3,"humidity":70,"rain":0.0,"pressure":1009.2,"uv_index":8.25,"wind_gusts":34.6,"aqi":59,"pm10":25.4,"pm2_5":14.9,"no2":3.1,"co":113.0,"o3":62.0,"so2":3.2,"mosquito_risk":7,"arthritis_risk":0,"migraine_risk":4,"frizz_risk":1,"updated_at":"2026-07-14T11:03:33.621634+05:30"},{"city":"Hubli-Dharwad","state":"Karnataka","latitude":15.3647,"longitude":75.124,"temp":28.1,"humidity":60,"rain":0.0,"pressure":942.3,"uv_index":8.75,"wind_gusts":48.2,"aqi":47,"pm10":19.4,"pm2_5":11.7,"no2":1.8,"co":114.0,"o3":66.0,"so2":1.6,"mosquito_risk":4,"arthritis_risk":5,"migraine_risk":7,"frizz_risk":1,"updated_at":"2026-07-14T11:03:33.621641+05:30"},{"city":"Belgaum","state":"Karnataka","latitude":15.8497,"longitude":74.4977,"temp":26.2,"humidity":65,"rain":0.0,"pressure":927.6,"uv_index":8.45,"wind_gusts":45.7,"aqi":49,"pm10":22.9,"pm2_5":13.4,"no2":1.9,"co":109.0,"o3":60.0,"so2":1.6,"mosquito_risk":7,"arthritis_risk":5,"migraine_risk":7,"frizz_risk":1,"updated_at":"2026-07-14T11:03:36.884983+05:30"},{"city":"Coimbatore","state":"Tamil Nadu","latitude":11.0168,"longitude":76.9558,"temp":31.7,"humidity":51,"rain":0.0,"pressure":962.4,"uv_index":8.35,"wind_gusts":53.3,"aqi":54,"pm10":24.8,"pm2_5":12.5,"no2":2.3,"co":150.0,"o3":77.0,"so2":2.8,"mosquito_risk":0,"arthritis_risk":5,"migraine_risk":7,"frizz_risk":1,"updated_at":"2026-07-14T11:03:36.885022+05:30"},{"city":"Madurai","state":"Tamil Nadu","latitude":9.9252,"longitude":78.1198,"temp":35.7,"humidity":39,"rain":0.0,"pressure":992.3,"uv_index":8.65,"wind_gusts":29.2,"aqi":70,"pm10":35.7,"pm2_5":16.8,"no2":4.1,"co":135.0,"o3":100.0,"so2":4.6,"mosquito_risk":0,"arthritis_risk":5,"migraine_risk":10,"frizz_risk":1,"updated_at":"2026-07-14T11:03:36.885033+05:30"},{"city":"Trichy","state":"Tamil Nadu","latitude":10.7905,"longitude":78.7047,"temp":35.5,"humidity":39,"rain":0.0,"pressure":998.6,"uv_index":8.5,"wind_gusts":46.8,"aqi":65,"pm10":26.4,"pm2_5":13.4,"no2":2.7,"co":139.0,"o3":79.0,"so2":3.6,"mosquito_risk":0,"arthritis_risk":5,"migraine_risk":10,"frizz_risk":1,"updated_at":"2026-07-14T11:03:36.885042+05:30"},{"city":"Salem","state":"Tamil Nadu","latitude":11.6643,"longitude":78.146,"temp":31.4,"humidity":54,"rain":0.0,"pressure":977.4,"uv_index":8.35,"wind_gusts":29.9,"aqi":72,"pm10":39.5,"pm2_5":21.2,"no2":6.2,"co":130.0,"o3":102.0,"so2":12.2,"mosquito_risk":0,"arthritis_risk":5,"migraine_risk":7,"frizz_risk":1,"updated_at":"2026-07-14T11:03:36.885051+05:30"},{"city":"Tirunelveli","state":"Tamil Nadu","latitude":8.7139,"longitude":77.7567,"temp":37.3,"humidity":33,"rain":0.0,"pressure":1002.2,"uv_index":7.6,"wind_gusts":43.2,"aqi":51,"pm10":19.1,"pm2_5":10.0,"no2":1.8,"co":126.0,"o3":68.0,"so2":1.7,"mosquito_risk":0,"arthritis_risk":5,"migraine_risk":7,"frizz_risk":1,"updated_at":"2026-07-14T11:03:36.885059+05:30"},{"city":"Vellore","state":"Tamil Nadu","latitude":12.9165,"longitude":79.1325,"temp":35.4,"humidity":33,"rain":0.0,"pressure":983.0,"uv_index":8.9,"wind_gusts":43.2,"aqi":74,"pm10":24.0,"pm2_5":14.6,"no2":3.8,"co":146.0,"o3":83.0,"so2":3.7,"mosquito_risk":0,"arthritis_risk":5,"migraine_risk":10,"frizz_risk":1,"updated_at":"2026-07-14T11:03:36.885067+05:30"},{"city":"Erode","state":"Tamil Nadu","latitude":11.341,"longitude":77.7172,"temp":34.5,"humidity":37,"rain":0.0,"pressure":988.8,"uv_index":8.5,"wind_gusts":45.4,"aqi":61,"pm10":29.4,"pm2_5":14.5,"no2":3.5,"co":160.0,"o3":83.0,"so2":2.9,"mosquito_risk":0,"arthritis_risk":5,"migraine_risk":7,"frizz_risk":1,"updated_at":"2026-07-14T11:03:36.885075+05:30"},{"city":"Kochi","state":"Kerala","latitude":9.9312,"longitude":76.2673,"temp":29.5,"humidity":70,"rain":0.0,"pressure":1010.6,"uv_index":8.4,"wind_gusts":41.4,"aqi":57,"pm10":19.9,"pm2_5":13.0,"no2":3.4,"co":117.0,"o3":64.0,"so2":3.3,"mosquito_risk":7,"arthritis_risk":0,"migraine_risk":4,"frizz_risk":1,"updated_at":"2026-07-14T11:03:36.885082+05:30"},{"city":"Thiruvananthapuram","state":"Kerala","latitude":8.5241,"longitude":76.9366,"temp":29.4,"humidity":72,"rain":0.0,"pressure":1009.2,"uv_index":7.9,"wind_gusts":52.2,"aqi":54,"pm10":21.2,"pm2_5":13.0,"no2":3.0,"co":124.0,"o3":64.0,"so2":1.9,"mosquito_risk":7,"arthritis_risk":0,"migraine_risk":4,"frizz_risk":1,"updated_at":"2026-07-14T11:03:36.885089+05:30"},{"city":"Kozhikode","state":"Kerala","latitude":11.2588,"longitude":75.7804,"temp":29.8,"humidity":71,"rain":0.0,"pressure":1009.7,"uv_index":8.15,"wind_gusts":44.3,"aqi":53,"pm10":17.5,"pm2_5":10.5,"no2":1.4,"co":118.0,"o3":68.0,"so2":2.3,"mosquito_risk":7,"arthritis_risk":0,"migraine_risk":4,"frizz_risk":1,"updated_at":"2026-07-14T11:03:36.885095+05:30"},{"city":"Thrissur","state":"Kerala","latitude":10.5276,"longitude":76.2144,"temp":29.4,"humidity":74,"rain":0.0,"pressure":1008.8,"uv_index":7.9,"wind_gusts":40.0,"aqi":55,"pm10":17.0,"pm2_5":12.0,"no2":2.7,"co":135.0,"o3":66.0,"so2":3.0,"mosquito_risk":7,"arthritis_risk":0,"migraine_risk":4,"frizz_risk":1,"updated_at":"2026-07-14T11:03:36.885103+05:30"},{"city":"Kannur","state":"Kerala","latitude":11.8745,"longitude":75.3704,"temp":30.0,"humidity":69,"rain":0.0,"pressure":1009.2,"uv_index":8.75,"wind_gusts":41.8,"aqi":54,"pm10":19.4,"pm2_5":11.9,"no2":2.5,"co":123.0,"o3":67.0,"so2":2.6,"mosquito_risk":7,"arthritis_risk":0,"migraine_risk":4,"frizz_risk":1,"updated_at":"2026-07-14T11:03:36.885110+05:30"},{"city":"Patna","state":"Bihar","latitude":25.5941,"longitude":85.1376,"temp":31.4,"humidity":77,"rain":0.0,"pressure":995.3,"uv_index":7.6,"wind_gusts":20.9,"aqi":153,"pm10":125.3,"pm2_5":62.6,"no2":5.3,"co":275.0,"o3":151.0,"so2":15.2,"mosquito_risk":3,"arthritis_risk":5,"migraine_risk":7,"frizz_risk":1,"updated_at":"2026-07-14T11:03:36.885117+05:30"},{"city":"Gaya","state":"Bihar","latitude":24.7914,"longitude":85.0002,"temp":31.9,"humidity":70,"rain":0.0,"pressure":988.9,"uv_index":8.45,"wind_gusts":26.6,"aqi":156,"pm10":142.5,"pm2_5":66.1,"no2":4.4,"co":257.0,"o3":134.0,"so2":10.6,"mosquito_risk":3,"arthritis_risk":5,"migraine_risk":7,"frizz_risk":1,"updated_at":"2026-07-14T11:03:36.885124+05:30"},{"city":"Muzaffarpur","state":"Bihar","latitude":26.1209,"longitude":85.3647,"temp":31.2,"humidity":73,"rain":0.0,"pressure":995.4,"uv_index":7.55,"wind_gusts":20.9,"aqi":154,"pm10":92.2,"pm2_5":49.2,"no2":6.2,"co":278.0,"o3":144.0,"so2":14.5,"mosquito_risk":3,"arthritis_risk":5,"migraine_risk":7,"frizz_risk":1,"updated_at":"2026-07-14T11:03:36.885131+05:30"},{"city":"Bhagalpur","state":"Bihar","latitude":25.2425,"longitude":87.0117,"temp":32.0,"humidity":71,"rain":0.0,"pressure":995.8,"uv_index":7.8,"wind_gusts":20.9,"aqi":128,"pm10":20.2,"pm2_5":14.6,"no2":6.8,"co":276.0,"o3":123.0,"so2":15.6,"mosquito_risk":3,"arthritis_risk":5,"migraine_risk":7,"frizz_risk":1,"updated_at":"2026-07-14T11:03:36.885137+05:30"},{"city":"Ranchi","state":"Jharkhand","latitude":23.3441,"longitude":85.3096,"temp":27.4,"humidity":78,"rain":0.0,"pressure":934.2,"uv_index":8.65,"wind_gusts":36.4,"aqi":153,"pm10":105.9,"pm2_5":50.4,"no2":4.7,"co":175.0,"o3":112.0,"so2":15.1,"mosquito_risk":7,"arthritis_risk":5,"migraine_risk":7,"frizz_risk":1,"updated_at":"2026-07-14T11:03:36.885144+05:30"},{"city":"Jamshedpur","state":"Jharkhand","latitude":22.8046,"longitude":86.2029,"temp":31.2,"humidity":73,"rain":0.0,"pressure":985.9,"uv_index":5.8,"wind_gusts":28.1,"aqi":161,"pm10":103.6,"pm2_5":64.7,"no2":28.1,"co":383.0,"o3":75.0,"so2":51.4,"mosquito_risk":3,"arthritis_risk":5,"migraine_risk":3,"frizz_risk":1,"updated_at":"2026-07-14T11:03:36.885150+05:30"},{"city":"Dhanbad","state":"Jharkhand","latitude":23.7957,"longitude":86.4304,"temp":28.5,"humidity":88,"rain":0.0,"pressure":975.3,"uv_index":7.7,"wind_gusts":28.4,"aqi":170,"pm10":110.1,"pm2_5":72.9,"no2":36.6,"co":408.0,"o3":77.0,"so2":77.1,"mosquito_risk":7,"arthritis_risk":5,"migraine_risk":7,"frizz_risk":1,"updated_at":"2026-07-14T11:03:36.885157+05:30"},{"city":"Bokaro","state":"Jharkhand","latitude":23.6693,"longitude":86.1511,"temp":27.0,"humidity":93,"rain":0.3,"pressure":979.3,"uv_index":8.65,"wind_gusts":29.2,"aqi":171,"pm10":128.1,"pm2_5":76.6,"no2":34.0,"co":292.0,"o3":73.0,"so2":80.9,"mosquito_risk":10,"arthritis_risk":5,"migraine_risk":7,"frizz_risk":1,"updated_at":"2026-07-14T11:03:36.885164+05:30"},{"city":"Bhubaneswar","state":"Odisha","latitude":20.2961,"longitude":85.8245,"temp":27.9,"humidity":89,"rain":0.0,"pressure":997.0,"uv_index":5.85,"wind_gusts":41.0,"aqi":126,"pm10":98.3,"pm2_5":55.5,"no2":14.6,"co":360.0,"o3":89.0,"so2":15.9,"mosquito_risk":7,"arthritis_risk":5,"migraine_risk":3,"frizz_risk":1,"updated_at":"2026-07-14T11:03:36.885171+05:30"},{"city":"Cuttack","state":"Odisha","latitude":20.4625,"longitude":85.8828,"temp":28.4,"humidity":86,"rain":0.0,"pressure":998.8,"uv_index":2.2,"wind_gusts":45.7,"aqi":126,"pm10":98.3,"pm2_5":55.5,"no2":14.6,"co":278.0,"o3":89.0,"so2":15.9,"mosquito_risk":7,"arthritis_risk":5,"migraine_risk":3,"frizz_risk":1,"updated_at":"2026-07-14T11:03:36.885178+05:30"},{"city":"Rourkela","state":"Odisha","latitude":22.2604,"longitude":84.8536,"temp":31.8,"humidity":66,"rain":0.2,"pressure":979.9,"uv_index":7.8,"wind_gusts":29.2,"aqi":147,"pm10":125.3,"pm2_5":61.7,"no2":10.4,"co":324.0,"o3":90.0,"so2":17.2,"mosquito_risk":6,"arthritis_risk":5,"migraine_risk":7,"frizz_risk":1,"updated_at":"2026-07-14T11:03:36.885185+05:30"},{"city":"Raipur","state":"Chhattisgarh","latitude":21.2514,"longitude":81.6296,"temp":32.3,"humidity":57,"rain":0.0,"pressure":971.1,"uv_index":8.8,"wind_gusts":48.6,"aqi":131,"pm10":59.0,"pm2_5":37.5,"no2":17.3,"co":154.0,"o3":82.0,"so2":42.8,"mosquito_risk":0,"arthritis_risk":5,"migraine_risk":7,"frizz_risk":1,"updated_at":"2026-07-14T11:03:36.885193+05:30"},{"city":"Bhilai","state":"Chhattisgarh","latitude":21.1938,"longitude":81.3509,"temp":31.6,"humidity":58,"rain":0.0,"pressure":971.7,"uv_index":8.75,"wind_gusts":41.0,"aqi":120,"pm10":53.7,"pm2_5":32.6,"no2":12.3,"co":224.0,"o3":89.0,"so2":33.1,"mosquito_risk":0,"arthritis_risk":5,"migraine_risk":7,"frizz_risk":1,"updated_at":"2026-07-14T11:03:36.885199+05:30"},{"city":"Guwahati","state":"Assam","latitude":26.1158,"longitude":91.7086,"temp":32.2,"humidity":72,"rain":0.0,"pressure":995.6,"uv_index":8.1,"wind_gusts":25.2,"aqi":56,"pm10":11.6,"pm2_5":10.1,"no2":1.1,"co":246.0,"o3":106.0,"so2":2.2,"mosquito_risk":3,"arthritis_risk":5,"migraine_risk":7,"frizz_risk":1,"updated_at":"2026-07-14T11:03:36.885206+05:30"},{"city":"Agartala","state":"Tripura","latitude":23.8315,"longitude":91.2868,"temp":32.0,"humidity":70,"rain":0.0,"pressure":1000.3,"uv_index":8.65,"wind_gusts":23.4,"aqi":79,"pm10":19.8,"pm2_5":16.8,"no2":2.8,"co":159.0,"o3":120.0,"so2":2.1,"mosquito_risk":3,"arthritis_risk":5,"migraine_risk":4,"frizz_risk":1,"updated_at":"2026-07-14T11:03:36.885229+05:30"},{"city":"Shillong","state":"Meghalaya","latitude":25.5788,"longitude":91.8933,"temp":21.7,"humidity":95,"rain":0.4,"pressure":854.2,"uv_index":8.45,"wind_gusts":27.7,"aqi":60,"pm10":9.7,"pm2_5":8.0,"no2":1.0,"co":174.0,"o3":91.0,"so2":1.7,"mosquito_risk":6,"arthritis_risk":5,"migraine_risk":7,"frizz_risk":1,"updated_at":"2026-07-14T11:03:36.885235+05:30"},{"city":"Imphal","state":"Manipur","latitude":24.817,"longitude":93.9368,"temp":29.4,"humidity":66,"rain":0.0,"pressure":919.4,"uv_index":9.2,"wind_gusts":25.9,"aqi":55,"pm10":2.2,"pm2_5":1.9,"no2":1.3,"co":181.0,"o3":83.0,"so2":1.2,"mosquito_risk":7,"arthritis_risk":5,"migraine_risk":7,"frizz_risk":1,"updated_at":"2026-07-14T11:03:36.885242+05:30"},{"city":"Aizawl","state":"Mizoram","latitude":23.7271,"longitude":92.7176,"temp":26.1,"humidity":72,"rain":0.1,"pressure":888.4,"uv_index":8.95,"wind_gusts":19.4,"aqi":54,"pm10":8.5,"pm2_5":6.4,"no2":0.6,"co":136.0,"o3":86.0,"so2":1.0,"mosquito_risk":10,"arthritis_risk":5,"migraine_risk":7,"frizz_risk":1,"updated_at":"2026-07-14T11:03:36.885249+05:30"},{"city":"Kohima","state":"Nagaland","latitude":25.6701,"longitude":94.1077,"temp":23.6,"humidity":91,"rain":0.1,"pressure":852.7,"uv_index":8.25,"wind_gusts":22.7,"aqi":43,"pm10":6.2,"pm2_5":5.8,"no2":1.3,"co":178.0,"o3":79.0,"so2":0.7,"mosquito_risk":6,"arthritis_risk":5,"migraine_risk":7,"frizz_risk":1,"updated_at":"2026-07-14T11:03:36.885256+05:30"},{"city":"Gangtok","state":"Sikkim","latitude":27.3314,"longitude":88.6138,"temp":20.6,"humidity":93,"rain":0.1,"pressure":836.5,"uv_index":8.25,"wind_gusts":26.6,"aqi":43,"pm10":5.7,"pm2_5":5.4,"no2":4.0,"co":269.0,"o3":90.0,"so2":0.8,"mosquito_risk":6,"arthritis_risk":5,"migraine_risk":7,"frizz_risk":1,"updated_at":"2026-07-14T11:03:36.885263+05:30"},{"city":"Siliguri","state":"West Bengal","latitude":26.7271,"longitude":88.3953,"temp":28.2,"humidity":86,"rain":0.0,"pressure":988.9,"uv_index":7.95,"wind_gusts":28.4,"aqi":69,"pm10":11.7,"pm2_5":10.4,"no2":3.6,"co":403.0,"o3":113.0,"so2":2.6,"mosquito_risk":7,"arthritis_risk":5,"migraine_risk":7,"frizz_risk":1,"updated_at":"2026-07-14T11:03:40.164517+05:30"},{"city":"Durgapur","state":"West Bengal","latitude":23.5204,"longitude":87.3119,"temp":30.5,"humidity":79,"rain":0.0,"pressure":989.9,"uv_index":8.85,"wind_gusts":27.0,"aqi":165,"pm10":75.7,"pm2_5":56.8,"no2":30.4,"co":661.0,"o3":90.0,"so2":64.0,"mosquito_risk":3,"arthritis_risk":5,"migraine_risk":7,"frizz_risk":1,"updated_at":"2026-07-14T11:03:40.164554+05:30"},{"city":"Asansol","state":"West Bengal","latitude":23.6739,"longitude":86.9524,"temp":30.1,"humidity":78,"rain":0.0,"pressure":988.7,"uv_index":6.5,"wind_gusts":24.8,"aqi":161,"pm10":92.2,"pm2_5":63.3,"no2":33.2,"co":405.0,"o3":81.0,"so2":63.4,"mosquito_risk":3,"arthritis_risk":5,"migraine_risk":7,"frizz_risk":1,"updated_at":"2026-07-14T11:03:40.164566+05:30"},{"city":"Pondicherry","state":"Puducherry","latitude":11.9139,"longitude":79.8145,"temp":35.0,"humidity":44,"rain":0.0,"pressure":1006.6,"uv_index":8.2,"wind_gusts":43.2,"aqi":70,"pm10":34.2,"pm2_5":22.2,"no2":7.1,"co":179.0,"o3":99.0,"so2":5.9,"mosquito_risk":0,"arthritis_risk":5,"migraine_risk":4,"frizz_risk":1,"updated_at":"2026-07-14T11:03:40.164575+05:30"},{"city":"Port Blair","state":"Andaman and Nicobar Islands","latitude":11.6234,"longitude":92.7265,"temp":30.9,"humidity":72,"rain":0.0,"pressure":1005.1,"uv_index":8.2,"wind_gusts":61.9,"aqi":49,"pm10":21.1,"pm2_5":9.1,"no2":0.3,"co":94.0,"o3":44.0,"so2":0.4,"mosquito_risk":3,"arthritis_risk":5,"migraine_risk":4,"frizz_risk":1,"updated_at":"2026-07-14T11:03:40.164583+05:30"},{"city":"Haridwar","state":"Uttarakhand","latitude":29.9457,"longitude":78.1642,"temp":32.1,"humidity":68,"rain":0.0,"pressure":968.2,"uv_index":7.45,"wind_gusts":32.8,"aqi":179,"pm10":257.0,"pm2_5":82.7,"no2":1.2,"co":299.0,"o3":139.0,"so2":10.9,"mosquito_risk":3,"arthritis_risk":5,"migraine_risk":7,"frizz_risk":1,"updated_at":"2026-07-14T11:03:40.164592+05:30"},{"city":"Rishikesh","state":"Uttarakhand","latitude":30.0869,"longitude":78.2676,"temp":31.8,"humidity":66,"rain":0.0,"pressure":961.0,"uv_index":7.6,"wind_gusts":28.4,"aqi":166,"pm10":186.7,"pm2_5":64.0,"no2":1.1,"co":246.0,"o3":126.0,"so2":6.0,"mosquito_risk":3,"arthritis_risk":5,"migraine_risk":7,"frizz_risk":1,"updated_at":"2026-07-14T11:03:40.164599+05:30"},{"city":"Nainital","state":"Uttarakhand","latitude":29.3919,"longitude":79.4542,"temp":24.1,"humidity":57,"rain":0.1,"pressure":805.7,"uv_index":8.5,"wind_gusts":28.1,"aqi":161,"pm10":190.9,"pm2_5":66.4,"no2":1.5,"co":189.0,"o3":128.0,"so2":6.9,"mosquito_risk":3,"arthritis_risk":5,"migraine_risk":7,"frizz_risk":0,"updated_at":"2026-07-14T11:03:40.164607+05:30"},{"city":"Mussoorie","state":"Uttarakhand","latitude":30.4599,"longitude":78.0664,"temp":22.2,"humidity":63,"rain":0.0,"pressure":802.4,"uv_index":8.0,"wind_gusts":27.4,"aqi":161,"pm10":149.0,"pm2_5":56.3,"no2":1.1,"co":208.0,"o3":135.0,"so2":6.3,"mosquito_risk":3,"arthritis_risk":5,"migraine_risk":7,"frizz_risk":0,"updated_at":"2026-07-14T11:03:40.164614+05:30"},{"city":"Dharamshala","state":"Himachal Pradesh","latitude":32.219,"longitude":76.3234,"temp":24.8,"humidity":72,"rain":0.0,"pressure":866.3,"uv_index":8.4,"wind_gusts":28.1,"aqi":74,"pm10":46.6,"pm2_5":21.0,"no2":0.7,"co":240.0,"o3":134.0,"so2":1.6,"mosquito_risk":3,"arthritis_risk":5,"migraine_risk":7,"frizz_risk":1,"updated_at":"2026-07-14T11:03:40.164622+05:30"},{"city":"Dalhousie","state":"Himachal Pradesh","latitude":32.5387,"longitude":75.971,"temp":20.4,"humidity":80,"rain":0.1,"pressure":803.1,"uv_index":8.65,"wind_gusts":28.8,"aqi":144,"pm10":104.3,"pm2_5":48.5,"no2":2.3,"co":276.0,"o3":171.0,"so2":3.6,"mosquito_risk":6,"arthritis_risk":5,"migraine_risk":7,"frizz_risk":1,"updated_at":"2026-07-14T11:03:40.164629+05:30"},{"city":"Patiala","state":"Punjab","latitude":30.3398,"longitude":76.3869,"temp":33.0,"humidity":63,"rain":0.0,"pressure":972.2,"uv_index":7.5,"wind_gusts":45.7,"aqi":188,"pm10":211.4,"pm2_5":91.5,"no2":5.6,"co":324.0,"o3":158.0,"so2":15.7,"mosquito_risk":3,"arthritis_risk":5,"migraine_risk":7,"frizz_risk":1,"updated_at":"2026-07-14T11:03:40.164637+05:30"},{"city":"Bhatinda","state":"Punjab","latitude":30.211,"longitude":74.9455,"temp":36.7,"humidity":41,"rain":0.0,"pressure":977.2,"uv_index":8.2,"wind_gusts":29.9,"aqi":189,"pm10":296.2,"pm2_5":104.8,"no2":5.1,"co":254.0,"o3":138.0,"so2":14.8,"mosquito_risk":0,"arthritis_risk":5,"migraine_risk":10,"frizz_risk":1,"updated_at":"2026-07-14T11:03:40.164643+05:30"},{"city":"Rohtak","state":"Haryana","latitude":28.8955,"longitude":76.6066,"temp":34.5,"humidity":54,"rain":0.0,"pressure":975.8,"uv_index":7.3,"wind_gusts":36.7,"aqi":602,"pm10":1668.9,"pm2_5":249.6,"no2":4.7,"co":207.0,"o3":111.0,"so2":6.1,"mosquito_risk":0,"arthritis_risk":5,"migraine_risk":7,"frizz_risk":1,"updated_at":"2026-07-14T11:03:40.164650+05:30"},{"city":"Panipat","state":"Haryana","latitude":29.3909,"longitude":76.9635,"temp":33.3,"humidity":60,"rain":0.0,"pressure":974.4,"uv_index":7.3,"wind_gusts":42.1,"aqi":650,"pm10":1527.4,"pm2_5":240.3,"no2":10.2,"co":233.0,"o3":127.0,"so2":14.1,"mosquito_risk":0,"arthritis_risk":5,"migraine_risk":7,"frizz_risk":1,"updated_at":"2026-07-14T11:03:40.164658+05:30"},{"city":"Mathura","state":"Uttar Pradesh","latitude":27.4924,"longitude":77.6737,"temp":34.2,"humidity":55,"rain":0.0,"pressure":981.6,"uv_index":7.9,"wind_gusts":31.3,"aqi":723,"pm10":1106.4,"pm2_5":158.8,"no2":5.1,"co":187.0,"o3":99.0,"so2":4.3,"mosquito_risk":0,"arthritis_risk":5,"migraine_risk":7,"frizz_risk":1,"updated_at":"2026-07-14T11:03:40.164665+05:30"},{"city":"Vrindavan","state":"Uttar Pradesh","latitude":27.5823,"longitude":77.7027,"temp":34.4,"humidity":53,"rain":0.0,"pressure":982.0,"uv_index":7.9,"wind_gusts":31.3,"aqi":723,"pm10":1106.4,"pm2_5":158.8,"no2":5.1,"co":180.0,"o3":99.0,"so2":4.3,"mosquito_risk":0,"arthritis_risk":5,"migraine_risk":7,"frizz_risk":1,"updated_at":"2026-07-14T11:03:40.164672+05:30"},{"city":"Ayodhya","state":"Uttar Pradesh","latitude":26.7922,"longitude":82.1998,"temp":30.6,"humidity":77,"rain":0.0,"pressure":990.4,"uv_index":7.8,"wind_gusts":34.2,"aqi":156,"pm10":161.6,"pm2_5":72.2,"no2":4.4,"co":352.0,"o3":146.0,"so2":8.5,"mosquito_risk":3,"arthritis_risk":5,"migraine_risk":7,"frizz_risk":1,"updated_at":"2026-07-14T11:03:40.164679+05:30"},{"city":"Ratlam","state":"Madhya Pradesh","latitude":23.3315,"longitude":75.0367,"temp":28.9,"humidity":63,"rain":0.0,"pressure":953.3,"uv_index":8.25,"wind_gusts":48.6,"aqi":68,"pm10":38.5,"pm2_5":16.6,"no2":2.0,"co":111.0,"o3":59.0,"so2":4.2,"mosquito_risk":7,"arthritis_risk":5,"migraine_risk":7,"frizz_risk":1,"updated_at":"2026-07-14T11:03:40.164686+05:30"},{"city":"Sagar","state":"Madhya Pradesh","latitude":23.8388,"longitude":78.7378,"temp":30.2,"humidity":65,"rain":0.0,"pressure":947.7,"uv_index":8.6,"wind_gusts":47.2,"aqi":91,"pm10":59.6,"pm2_5":26.1,"no2":2.1,"co":143.0,"o3":76.0,"so2":6.0,"mosquito_risk":3,"arthritis_risk":5,"migraine_risk":7,"frizz_risk":1,"updated_at":"2026-07-14T11:03:40.164693+05:30"},{"city":"Satna","state":"Madhya Pradesh","latitude":24.6005,"longitude":80.8322,"temp":31.9,"humidity":62,"rain":0.0,"pressure":967.5,"uv_index":6.9,"wind_gusts":44.6,"aqi":102,"pm10":76.1,"pm2_5":35.5,"no2":1.8,"co":139.0,"o3":102.0,"so2":5.7,"mosquito_risk":3,"arthritis_risk":5,"migraine_risk":7,"frizz_risk":1,"updated_at":"2026-07-14T11:03:40.164700+05:30"},{"city":"Akola","state":"Maharashtra","latitude":20.7002,"longitude":77.0082,"temp":31.1,"humidity":53,"rain":0.0,"pressure":974.6,"uv_index":5.85,"wind_gusts":50.4,"aqi":62,"pm10":28.6,"pm2_5":14.5,"no2":2.6,"co":112.0,"o3":63.0,"so2":5.8,"mosquito_risk":0,"arthritis_risk":5,"migraine_risk":3,"frizz_risk":1,"updated_at":"2026-07-14T11:03:40.164708+05:30"},{"city":"Amravati","state":"Maharashtra","latitude":20.9374,"longitude":77.7796,"temp":30.4,"humidity":55,"rain":0.0,"pressure":966.4,"uv_index":7.5,"wind_gusts":52.2,"aqi":63,"pm10":33.2,"pm2_5":15.7,"no2":2.7,"co":113.0,"o3":65.0,"so2":6.3,"mosquito_risk":0,"arthritis_risk":5,"migraine_risk":7,"frizz_risk":1,"updated_at":"2026-07-14T11:03:40.164715+05:30"},{"city":"Latur","state":"Maharashtra","latitude":18.4088,"longitude":76.5604,"temp":29.0,"humidity":58,"rain":0.0,"pressure":940.1,"uv_index":7.55,"wind_gusts":42.8,"aqi":55,"pm10":18.8,"pm2_5":11.2,"no2":1.3,"co":120.0,"o3":65.0,"so2":2.1,"mosquito_risk":4,"arthritis_risk":5,"migraine_risk":7,"frizz_risk":1,"updated_at":"2026-07-14T11:03:40.164722+05:30"},{"city":"Nanded","state":"Maharashtra","latitude":19.1383,"longitude":77.3091,"temp":29.7,"humidity":60,"rain":0.0,"pressure":968.4,"uv_index":8.05,"wind_gusts":39.6,"aqi":61,"pm10":22.6,"pm2_5":14.9,"no2":2.3,"co":138.0,"o3":76.0,"so2":5.5,"mosquito_risk":4,"arthritis_risk":5,"migraine_risk":7,"frizz_risk":1,"updated_at":"2026-07-14T11:03:40.164729+05:30"},{"city":"Gulbarga","state":"Karnataka","latitude":17.3297,"longitude":76.8343,"temp":29.8,"humidity":55,"rain":0.0,"pressure":959.1,"uv_index":8.15,"wind_gusts":43.6,"aqi":53,"pm10":17.1,"pm2_5":10.5,"no2":2.2,"co":122.0,"o3":71.0,"so2":2.8,"mosquito_risk":4,"arthritis_risk":5,"migraine_risk":7,"frizz_risk":1,"updated_at":"2026-07-14T11:03:40.164736+05:30"},{"city":"Bidar","state":"Karnataka","latitude":17.9104,"longitude":77.5199,"temp":28.7,"humidity":61,"rain":0.0,"pressure":935.6,"uv_index":7.25,"wind_gusts":39.6,"aqi":56,"pm10":19.1,"pm2_5":12.3,"no2":2.1,"co":131.0,"o3":76.0,"so2":3.1,"mosquito_risk":7,"arthritis_risk":5,"migraine_risk":7,"frizz_risk":1,"updated_at":"2026-07-14T11:03:40.164742+05:30"},{"city":"Hospet","state":"Karnataka","latitude":15.2689,"longitude":76.3909,"temp":30.2,"humidity":52,"rain":0.0,"pressure":956.7,"uv_index":7.5,"wind_gusts":45.7,"aqi":51,"pm10":15.7,"pm2_5":9.7,"no2":1.9,"co":118.0,"o3":71.0,"so2":2.4,"mosquito_risk":0,"arthritis_risk":5,"migraine_risk":7,"frizz_risk":1,"updated_at":"2026-07-14T11:03:40.164748+05:30"},{"city":"Tirupur","state":"Tamil Nadu","latitude":11.1085,"longitude":77.3411,"temp":33.2,"humidity":49,"rain":0.0,"pressure":975.5,"uv_index":8.3,"wind_gusts":57.2,"aqi":62,"pm10":29.7,"pm2_5":14.4,"no2":3.3,"co":149.0,"o3":84.0,"so2":3.2,"mosquito_risk":0,"arthritis_risk":5,"migraine_risk":7,"frizz_risk":1,"updated_at":"2026-07-14T11:03:40.164755+05:30"},{"city":"Alappuzha","state":"Kerala","latitude":9.4981,"longitude":76.3388,"temp":29.7,"humidity":69,"rain":0.0,"pressure":1010.6,"uv_index":8.0,"wind_gusts":42.8,"aqi":56,"pm10":23.9,"pm2_5":14.9,"no2":3.7,"co":89.0,"o3":66.0,"so2":3.4,"mosquito_risk":7,"arthritis_risk":0,"migraine_risk":4,"frizz_risk":1,"updated_at":"2026-07-14T11:03:40.164762+05:30"},{"city":"Munnar","state":"Kerala","latitude":10.0889,"longitude":77.0595,"temp":22.2,"humidity":69,"rain":0.0,"pressure":859.2,"uv_index":8.4,"wind_gusts":34.2,"aqi":47,"pm10":18.6,"pm2_5":8.8,"no2":1.2,"co":106.0,"o3":65.0,"so2":1.5,"mosquito_risk":3,"arthritis_risk":5,"migraine_risk":7,"frizz_risk":1,"updated_at":"2026-07-14T11:03:40.164768+05:30"},{"city":"Silchar","state":"Assam","latitude":24.8333,"longitude":92.7789,"temp":33.1,"humidity":71,"rain":0.0,"pressure":998.0,"uv_index":8.85,"wind_gusts":22.3,"aqi":92,"pm10":19.2,"pm2_5":15.4,"no2":1.3,"co":190.0,"o3":123.0,"so2":4.3,"mosquito_risk":3,"arthritis_risk":5,"migraine_risk":7,"frizz_risk":1,"updated_at":"2026-07-14T11:03:40.164775+05:30"},{"city":"Dibrugarh","state":"Assam","latitude":27.4728,"longitude":94.912,"temp":33.3,"humidity":69,"rain":0.0,"pressure":988.7,"uv_index":8.6,"wind_gusts":23.4,"aqi":72,"pm10":14.8,"pm2_5":14.7,"no2":1.1,"co":183.0,"o3":133.0,"so2":1.7,"mosquito_risk":3,"arthritis_risk":5,"migraine_risk":7,"frizz_risk":1,"updated_at":"2026-07-14T11:03:40.164781+05:30"}]