[{"city":"Delhi","state":"Delhi","latitude":28.6139,"longitude":77.209,"temp":35.6,"humidity":50,"rain":0.0,"pressure":975.8,"uv_index":6.6,"wind_gusts":38.2,"aqi":436,"pm10":705.9,"pm2_5":151.3,"no2":3.8,"co":232.0,"o3":162.0,"so2":13.6,"mosquito_risk":0,"arthritis_risk":5,"migraine_risk":10,"frizz_risk":1,"updated_at":"2026-07-14T13:40:18.277506+05:30"},{"city":"Mumbai","state":"Maharashtra","latitude":19.076,"longitude":72.8777,"temp":30.0,"humidity":72,"rain":0.0,"pressure":1007.2,"uv_index":7.0,"wind_gusts":44.3,"aqi":69,"pm10":47.5,"pm2_5":22.0,"no2":4.1,"co":152.0,"o3":79.0,"so2":6.7,"mosquito_risk":7,"arthritis_risk":5,"migraine_risk":4,"frizz_risk":1,"updated_at":"2026-07-14T13:40:18.277556+05:30"},{"city":"Bangalore","state":"Karnataka","latitude":12.9716,"longitude":77.5946,"temp":31.8,"humidity":35,"rain":0.0,"pressure":911.6,"uv_index":8.55,"wind_gusts":40.3,"aqi":59,"pm10":22.4,"pm2_5":12.5,"no2":3.7,"co":210.0,"o3":93.0,"so2":3.2,"mosquito_risk":0,"arthritis_risk":5,"migraine_risk":7,"frizz_risk":0,"updated_at":"2026-07-14T13:40:18.277571+05:30"},{"city":"Hyderabad","state":"Telangana","latitude":17.385,"longitude":78.4867,"temp":32.6,"humidity":41,"rain":0.0,"pressure":950.9,"uv_index":7.8,"wind_gusts":47.5,"aqi":56,"pm10":24.0,"pm2_5":14.7,"no2":1.9,"co":196.0,"o3":105.0,"so2":3.2,"mosquito_risk":0,"arthritis_risk":5,"migraine_risk":7,"frizz_risk":1,"updated_at":"2026-07-14T13:40:18.277580+05:30"},{"city":"Chennai","state":"Tamil Nadu","latitude":13.0827,"longitude":80.2707,"temp":37.5,"humidity":39,"rain":0.0,"pressure":1002.4,"uv_index":8.25,"wind_gusts":36.7,"aqi":77,"pm10":40.0,"pm2_5":26.5,"no2":6.0,"co":224.0,"o3":140.0,"so2":9.2,"mosquito_risk":0,"arthritis_risk":5,"migraine_risk":7,"frizz_risk":1,"updated_at":"2026-07-14T13:40:18.277588+05:30"},{"city":"Kolkata","state":"West Bengal","latitude":22.5726,"longitude":88.3639,"temp":32.7,"humidity":72,"rain":0.0,"pressure":996.9,"uv_index":8.7,"wind_gusts":28.8,"aqi":149,"pm10":47.1,"pm2_5":37.5,"no2":5.2,"co":439.0,"o3":190.0,"so2":15.6,"mosquito_risk":3,"arthritis_risk":5,"migraine_risk":7,"frizz_risk":1,"updated_at":"2026-07-14T13:40:18.277609+05:30"},{"city":"Pune","state":"Maharashtra","latitude":18.5204,"longitude":73.8567,"temp":30.0,"humidity":54,"rain":0.0,"pressure":947.0,"uv_index":8.4,"wind_gusts":48.2,"aqi":54,"pm10":27.9,"pm2_5":15.0,"no2":1.4,"co":120.0,"o3":81.0,"so2":3.5,"mosquito_risk":4,"arthritis_risk":5,"migraine_risk":7,"frizz_risk":1,"updated_at":"2026-07-14T13:40:18.277616+05:30"},{"city":"Ahmedabad","state":"Gujarat","latitude":23.0225,"longitude":72.5714,"temp":35.8,"humidity":43,"rain":0.0,"pressure":997.6,"uv_index":5.85,"wind_gusts":43.9,"aqi":66,"pm10":50.3,"pm2_5":19.2,"no2":1.7,"co":118.0,"o3":74.0,"so2":3.0,"mosquito_risk":0,"arthritis_risk":5,"migraine_risk":6,"frizz_risk":1,"updated_at":"2026-07-14T13:40:18.277623+05:30"},{"city":"Jaipur","state":"Rajasthan","latitude":26.9124,"longitude":75.7873,"temp":34.3,"humidity":47,"rain":0.0,"pressure":954.8,"uv_index":8.1,"wind_gusts":41.0,"aqi":449,"pm10":232.4,"pm2_5":62.9,"no2":1.3,"co":130.0,"o3":88.0,"so2":3.4,"mosquito_risk":0,"arthritis_risk":5,"migraine_risk":7,"frizz_risk":1,"updated_at":"2026-07-14T13:40:18.277630+05:30"},{"city":"Lucknow","state":"Uttar Pradesh","latitude":26.8467,"longitude":80.9462,"temp":35.7,"humidity":52,"rain":0.0,"pressure":985.9,"uv_index":8.0,"wind_gusts":24.8,"aqi":152,"pm10":261.7,"pm2_5":78.2,"no2":1.3,"co":188.0,"o3":144.0,"so2":6.1,"mosquito_risk":0,"arthritis_risk":5,"migraine_risk":10,"frizz_risk":1,"updated_at":"2026-07-14T13:40:18.277643+05:30"},{"city":"Kanpur","state":"Uttar Pradesh","latitude":26.4499,"longitude":80.3319,"temp":35.6,"humidity":51,"rain":0.0,"pressure":984.6,"uv_index":7.3,"wind_gusts":35.3,"aqi":132,"pm10":210.9,"pm2_5":63.1,"no2":1.4,"co":156.0,"o3":133.0,"so2":5.3,"mosquito_risk":0,"arthritis_risk":5,"migraine_risk":10,"frizz_risk":1,"updated_at":"2026-07-14T13:40:18.277650+05:30"},{"city":"Chandigarh","state":"Chandigarh","latitude":30.7333,"longitude":76.7794,"temp":34.2,"humidity":54,"rain":0.0,"pressure":961.6,"uv_index":7.7,"wind_gusts":24.5,"aqi":173,"pm10":145.8,"pm2_5":65.9,"no2":2.6,"co":370.0,"o3":180.0,"so2":15.0,"mosquito_risk":0,"arthritis_risk":5,"migraine_risk":7,"frizz_risk":1,"updated_at":"2026-07-14T13:40:18.277657+05:30"},{"city":"Srinagar","state":"Jammu and Kashmir","latitude":34.0837,"longitude":74.7973,"temp":28.1,"humidity":42,"rain":0.0,"pressure":839.3,"uv_index":8.95,"wind_gusts":20.2,"aqi":86,"pm10":26.6,"pm2_5":13.9,"no2":1.0,"co":307.0,"o3":156.0,"so2":3.0,"mosquito_risk":4,"arthritis_risk":5,"migraine_risk":7,"frizz_risk":0,"updated_at":"2026-07-14T13:40:18.277665+05:30"},{"city":"Jammu","state":"Jammu and Kashmir","latitude":32.7266,"longitude":74.857,"temp":33.5,"humidity":53,"rain":0.0,"pressure":965.0,"uv_index":8.35,"wind_gusts":25.2,"aqi":155,"pm10":83.8,"pm2_5":42.5,"no2":1.4,"co":347.0,"o3":174.0,"so2":4.3,"mosquito_risk":0,"arthritis_risk":5,"migraine_risk":7,"frizz_risk":1,"updated_at":"2026-07-14T13:40:18.277671+05:30"},{"city":"Amritsar","state":"Punjab","latitude":31.634,"longitude":74.8723,"temp":33.8,"humidity":62,"rain":0.0,"pressure":973.0,"uv_index":8.3,"wind_gusts":16.9,"aqi":189,"pm10":133.2,"pm2_5":66.4,"no2":2.1,"co":365.0,"o3":215.0,"so2":12.8,"mosquito_risk":3,"arthritis_risk":5,"migraine_risk":7,"frizz_risk":1,"updated_at":"2026-07-14T13:40:18.277678+05:30"},{"city":"Ludhiana","state":"Punjab","latitude":30.901,"longitude":75.8573,"temp":34.8,"humidity":54,"rain":0.0,"pressure":971.0,"uv_index":7.9,"wind_gusts":24.5,"aqi":190,"pm10":128.5,"pm2_5":67.5,"no2":2.4,"co":373.0,"o3":184.0,"so2":6.4,"mosquito_risk":0,"arthritis_risk":5,"migraine_risk":7,"frizz_risk":1,"updated_at":"2026-07-14T13:40:18.277684+05:30"},{"city":"Jalandhar","state":"Punjab","latitude":31.326,"longitude":75.5762,"temp":34.4,"humidity":55,"rain":0.0,"pressure":972.0,"uv_index":7.9,"wind_gusts":19.1,"aqi":196,"pm10":122.9,"pm2_5":66.1,"no2":2.0,"co":399.0,"o3":191.0,"so2":8.0,"mosquito_risk":0,"arthritis_risk":5,"migraine_risk":7,"frizz_risk":1,"updated_at":"2026-07-14T13:40:18.277690+05:30"},{"city":"Dehradun","state":"Uttarakhand","latitude":30.6284,"longitude":78.0322,"temp":25.0,"humidity":60,"rain":0.0,"pressure":828.8,"uv_index":8.1,"wind_gusts":28.4,"aqi":115,"pm10":72.9,"pm2_5":32.2,"no2":0.6,"co":220.0,"o3":131.0,"so2":4.1,"mosquito_risk":4,"arthritis_risk":5,"migraine_risk":7,"frizz_risk":1,"updated_at":"2026-07-14T13:40:18.277696+05:30"},{"city":"Shimla","state":"Himachal Pradesh","latitude":31.1048,"longitude":77.1734,"temp":22.3,"humidity":60,"rain":0.1,"pressure":783.6,"uv_index":7.4,"wind_gusts":36.4,"aqi":152,"pm10":75.7,"pm2_5":33.9,"no2":1.1,"co":208.0,"o3":137.0,"so2":7.7,"mosquito_risk":3,"arthritis_risk":5,"migraine_risk":7,"frizz_risk":0,"updated_at":"2026-07-14T13:40:18.277704+05:30"},{"city":"Manali","state":"Himachal Pradesh","latitude":32.2396,"longitude":77.1887,"temp":26.2,"humidity":56,"rain":0.0,"pressure":817.6,"uv_index":9.55,"wind_gusts":31.7,"aqi":75,"pm10":23.3,"pm2_5":10.1,"no2":1.2,"co":158.0,"o3":162.0,"so2":1.1,"mosquito_risk":4,"arthritis_risk":5,"migraine_risk":7,"frizz_risk":1,"updated_at":"2026-07-14T13:40:18.277711+05:30"},{"city":"Gurgaon","state":"Haryana","latitude":28.4595,"longitude":77.0266,"temp":36.0,"humidity":47,"rain":0.0,"pressure":974.3,"uv_index":7.05,"wind_gusts":34.2,"aqi":509,"pm10":659.4,"pm2_5":143.9,"no2":3.3,"co":138.0,"o3":148.0,"so2":11.8,"mosquito_risk":0,"arthritis_risk":5,"migraine_risk":10,"frizz_risk":1,"updated_at":"2026-07-14T13:40:18.277718+05:30"},{"city":"Noida","state":"Uttar Pradesh","latitude":28.5355,"longitude":77.391,"temp":36.0,"humidity":49,"rain":0.0,"pressure":977.1,"uv_index":6.6,"wind_gusts":30.6,"aqi":509,"pm10":659.4,"pm2_5":143.9,"no2":3.3,"co":255.0,"o3":148.0,"so2":11.8,"mosquito_risk":0,"arthritis_risk":5,"migraine_risk":10,"frizz_risk":1,"updated_at":"2026-07-14T13:40:18.277724+05:30"},{"city":"Ghaziabad","state":"Uttar Pradesh","latitude":28.6692,"longitude":77.4538,"temp":35.7,"humidity":49,"rain":0.0,"pressure":975.4,"uv_index":6.7,"wind_gusts":30.6,"aqi":310,"pm10":584.9,"pm2_5":147.6,"no2":3.5,"co":241.0,"o3":184.0,"so2":17.8,"mosquito_risk":0,"arthritis_risk":5,"migraine_risk":10,"frizz_risk":1,"updated_at":"2026-07-14T13:40:18.277731+05:30"},{"city":"Faridabad","state":"Haryana","latitude":28.4089,"longitude":77.3178,"temp":36.2,"humidity":46,"rain":0.0,"pressure":976.5,"uv_index":6.7,"wind_gusts":43.9,"aqi":509,"pm10":659.4,"pm2_5":143.9,"no2":3.3,"co":195.0,"o3":148.0,"so2":11.8,"mosquito_risk":0,"arthritis_risk":5,"migraine_risk":10,"frizz_risk":1,"updated_at":"2026-07-14T13:40:18.277737+05:30"},{"city":"Meerut","state":"Uttar Pradesh","latitude":28.9845,"longitude":77.7064,"temp":35.0,"humidity":56,"rain":0.0,"pressure":973.9,"uv_index":7.6,"wind_gusts":29.9,"aqi":310,"pm10":584.9,"pm2_5":147.6,"no2":3.5,"co":187.0,"o3":184.0,"so2":17.8,"mosquito_risk":0,"arthritis_risk":5,"migraine_risk":7,"frizz_risk":1,"updated_at":"2026-07-14T13:40:18.277743+05:30"},{"city":"Agra","state":"Uttar Pradesh","latitude":27.1767,"longitude":78.0081,"temp":35.6,"humidity":50,"rain":0.0,"pressure":980.9,"uv_index":7.95,"wind_gusts":30.2,"aqi":151,"pm10":332.5,"pm2_5":88.5,"no2":1.5,"co":145.0,"o3":126.0,"so2":4.2,"mosquito_risk":0,"arthritis_risk":5,"migraine_risk":10,"frizz_risk":1,"updated_at":"2026-07-14T13:40:18.277750+05:30"},{"city":"Varanasi","state":"Uttar Pradesh","latitude":25.3176,"longitude":82.9739,"temp":35.1,"humidity":55,"rain":0.0,"pressure":990.4,"uv_index":6.5,"wind_gusts":22.3,"aqi":148,"pm10":159.7,"pm2_5":61.7,"no2":1.8,"co":203.0,"o3":146.0,"so2":9.6,"mosquito_risk":0,"arthritis_risk":5,"migraine_risk":10,"frizz_risk":1,"updated_at":"2026-07-14T13:40:18.277756+05:30"},{"city":"Prayagraj","state":"Uttar Pradesh","latitude":25.4358,"longitude":81.8463,"temp":36.4,"humidity":47,"rain":0.0,"pressure":988.6,"uv_index":7.7,"wind_gusts":28.4,"aqi":129,"pm10":169.0,"pm2_5":59.3,"no2":1.8,"co":148.0,"o3":138.0,"so2":8.5,"mosquito_risk":0,"arthritis_risk":5,"migraine_risk":10,"frizz_risk":1,"updated_at":"2026-07-14T13:40:18.277761+05:30"},{"city":"Gorakhpur","state":"Uttar Pradesh","latitude":26.7606,"longitude":83.3732,"temp":33.2,"humidity":65,"rain":0.0,"pressure":989.9,"uv_index":7.85,"wind_gusts":24.1,"aqi":159,"pm10":152.3,"pm2_5":71.2,"no2":2.2,"co":255.0,"o3":172.0,"so2":8.4,"mosquito_risk":3,"arthritis_risk":5,"migraine_risk":7,"frizz_risk":1,"updated_at":"2026-07-14T13:40:18.277767+05:30"},{"city":"Bareilly","state":"Uttar Pradesh","latitude":28.367,"longitude":79.4304,"temp":35.4,"humidity":52,"rain":0.0,"pressure":978.9,"uv_index":8.0,"wind_gusts":25.2,"aqi":173,"pm10":377.2,"pm2_5":110.4,"no2":1.6,"co":230.0,"o3":183.0,"so2":11.2,"mosquito_risk":0,"arthritis_risk":5,"migraine_risk":10,"frizz_risk":1,"updated_at":"2026-07-14T13:40:18.277774+05:30"},{"city":"Aligarh","state":"Uttar Pradesh","latitude":27.8974,"longitude":78.088,"temp":34.8,"humidity":55,"rain":0.0,"pressure":978.5,"uv_index":7.85,"wind_gusts":46.1,"aqi":452,"pm10":935.0,"pm2_5":184.4,"no2":2.0,"co":171.0,"o3":144.0,"so2":8.8,"mosquito_risk":0,"arthritis_risk":5,"migraine_risk":7,"frizz_risk":1,"updated_at":"2026-07-14T13:40:18.277780+05:30"},{"city":"Moradabad","state":"Uttar Pradesh","latitude":28.8386,"longitude":78.7733,"temp":35.4,"humidity":52,"rain":0.0,"pressure":975.8,"uv_index":7.6,"wind_gusts":25.6,"aqi":197,"pm10":448.9,"pm2_5":131.8,"no2":2.4,"co":215.0,"o3":211.0,"so2":15.7,"mosquito_risk":0,"arthritis_risk":5,"migraine_risk":10,"frizz_risk":1,"updated_at":"2026-07-14T13:40:18.277785+05:30"},{"city":"Saharanpur","state":"Uttar Pradesh","latitude":29.9637,"longitude":77.546,"temp":34.1,"humidity":60,"rain":0.0,"pressure":968.4,"uv_index":7.35,"wind_gusts":30.6,"aqi":192,"pm10":296.2,"pm2_5":105.0,"no2":2.5,"co":299.0,"o3":181.0,"so2":20.0,"mosquito_risk":0,"arthritis_risk":5,"migraine_risk":7,"frizz_risk":1,"updated_at":"2026-07-14T13:40:18.277793+05:30"},{"city":"Jhansi","state":"Uttar Pradesh","latitude":25.4484,"longitude":78.5685,"temp":34.8,"humidity":52,"rain":0.0,"pressure":972.3,"uv_index":8.4,"wind_gusts":41.4,"aqi":105,"pm10":194.6,"pm2_5":52.0,"no2":1.2,"co":119.0,"o3":104.0,"so2":5.4,"mosquito_risk":0,"arthritis_risk":5,"migraine_risk":7,"frizz_risk":1,"updated_at":"2026-07-14T13:40:21.631026+05:30"},{"city":"Surat","state":"Gujarat","latitude":21.1702,"longitude":72.8311,"temp":30.8,"humidity":68,"rain":0.1,"pressure":1004.1,"uv_index":6.35,"wind_gusts":55.4,"aqi":73,"pm10":40.5,"pm2_5":22.7,"no2":9.0,"co":241.0,"o3":49.0,"so2":28.1,"mosquito_risk":6,"arthritis_risk":5,"migraine_risk":4,"frizz_risk":1,"updated_at":"2026-07-14T13:40:21.631059+05:30"},{"city":"Vadodara","state":"Gujarat","latitude":22.3072,"longitude":73.1812,"temp":33.5,"humidity":54,"rain":0.0,"pressure":1000.6,"uv_index":4.35,"wind_gusts":48.2,"aqi":65,"pm10":44.2,"pm2_5":19.0,"no2":1.7,"co":128.0,"o3":72.0,"so2":2.9,"mosquito_risk":0,"arthritis_risk":5,"migraine_risk":0,"frizz_risk":1,"updated_at":"2026-07-14T13:40:21.631068+05:30"},{"city":"Rajkot","state":"Gujarat","latitude":22.3039,"longitude":70.8022,"temp":34.4,"humidity":49,"rain":0.0,"pressure":989.8,"uv_index":7.15,"wind_gusts":54.0,"aqi":61,"pm10":45.1,"pm2_5":17.8,"no2":1.1,"co":99.0,"o3":70.0,"so2":3.0,"mosquito_risk":0,"arthritis_risk":5,"migraine_risk":7,"frizz_risk":1,"updated_at":"2026-07-14T13:40:21.631076+05:30"},{"city":"Thane","state":"Maharashtra","latitude":19.2183,"longitude":72.9781,"temp":31.1,"humidity":66,"rain":0.0,"pressure":1006.4,"uv_index":7.1,"wind_gusts":37.1,"aqi":69,"pm10":47.5,"pm2_5":22.0,"no2":4.1,"co":148.0,"o3":79.0,"so2":6.7,"mosquito_risk":3,"arthritis_risk":5,"migraine_risk":4,"frizz_risk":1,"updated_at":"2026-07-14T13:40:21.631083+05:30"},{"city":"Nagpur","state":"Maharashtra","latitude":21.1458,"longitude":79.0882,"temp":33.8,"humidity":46,"rain":0.0,"pressure":969.6,"uv_index":7.8,"wind_gusts":49.0,"aqi":84,"pm10":83.4,"pm2_5":30.5,"no2":3.3,"co":128.0,"o3":93.0,"so2":12.7,"mosquito_risk":0,"arthritis_risk":5,"migraine_risk":7,"frizz_risk":1,"updated_at":"2026-07-14T13:40:21.631091+05:30"},{"city":"Nashik","state":"Maharashtra","latitude":19.9975,"longitude":73.7898,"temp":29.0,"humidity":60,"rain":0.0,"pressure":943.9,"uv_index":7.25,"wind_gusts":50.8,"aqi":57,"pm10":36.2,"pm2_5":16.0,"no2":0.9,"co":108.0,"o3":72.0,"so2":1.8,"mosquito_risk":4,"arthritis_risk":5,"migraine_risk":7,"frizz_risk":1,"updated_at":"2026-07-14T13:40:21.631099+05:30"},{"city":"Aurangabad","state":"Maharashtra","latitude":19.8762,"longitude":75.3433,"temp":30.7,"humidity":50,"rain":0.0,"pressure":942.4,"uv_index":7.55,"wind_gusts":50.4,"aqi":60,"pm10":27.0,"pm2_5":15.3,"no2":0.9,"co":113.0,"o3":93.0,"so2":3.6,"mosquito_risk":0,"arthritis_risk":5,"migraine_risk":7,"frizz_risk":1,"updated_at":"2026-07-14T13:40:21.631106+05:30"},{"city":"Solapur","state":"Maharashtra","latitude":17.6599,"longitude":75.9064,"temp":32.5,"humidity":49,"rain":0.0,"pressure":955.6,"uv_index":8.55,"wind_gusts":39.6,"aqi":55,"pm10":25.3,"pm2_5":14.2,"no2":0.8,"co":118.0,"o3":90.0,"so2":1.8,"mosquito_risk":0,"arthritis_risk":5,"migraine_risk":7,"frizz_risk":1,"updated_at":"2026-07-14T13:40:21.631113+05:30"},{"city":"Kolhapur","state":"Maharashtra","latitude":16.705,"longitude":74.2433,"temp":28.6,"humidity":60,"rain":0.0,"pressure":947.6,"uv_index":8.9,"wind_gusts":46.1,"aqi":53,"pm10":26.2,"pm2_5":15.4,"no2":1.5,"co":112.0,"o3":73.0,"so2":1.8,"mosquito_risk":4,"arthritis_risk":5,"migraine_risk":7,"frizz_risk":1,"updated_at":"2026-07-14T13:40:21.631121+05:30"},{"city":"Goa","state":"Goa","latitude":15.2993,"longitude":74.124,"temp":30.9,"humidity":63,"rain":0.1,"pressure":998.1,"uv_index":8.0,"wind_gusts":33.8,"aqi":68,"pm10":34.7,"pm2_5":17.6,"no2":0.6,"co":104.0,"o3":61.0,"so2":1.3,"mosquito_risk":6,"arthritis_risk":5,"migraine_risk":7,"frizz_risk":1,"updated_at":"2026-07-14T13:40:21.631128+05:30"},{"city":"Jodhpur","state":"Rajasthan","latitude":26.2389,"longitude":73.0243,"temp":34.1,"humidity":45,"rain":0.0,"pressure":977.7,"uv_index":8.0,"wind_gusts":47.5,"aqi":209,"pm10":282.2,"pm2_5":55.1,"no2":1.3,"co":106.0,"o3":69.0,"so2":2.4,"mosquito_risk":0,"arthritis_risk":5,"migraine_risk":7,"frizz_risk":1,"updated_at":"2026-07-14T13:40:21.631136+05:30"},{"city":"Udaipur","state":"Rajasthan","latitude":24.5854,"longitude":73.7125,"temp":30.1,"humidity":56,"rain":0.0,"pressure":942.8,"uv_index":8.15,"wind_gusts":47.9,"aqi":74,"pm10":62.4,"pm2_5":21.2,"no2":1.2,"co":107.0,"o3":69.0,"so2":2.8,"mosquito_risk":0,"arthritis_risk":5,"migraine_risk":7,"frizz_risk":1,"updated_at":"2026-07-14T13:40:21.631144+05:30"},{"city":"Kota","state":"Rajasthan","latitude":25.2138,"longitude":75.8648,"temp":34.2,"humidity":46,"rain":0.0,"pressure":973.9,"uv_index":8.3,"wind_gusts":37.8,"aqi":95,"pm10":163.0,"pm2_5":42.8,"no2":1.3,"co":115.0,"o3":82.0,"so2":4.8,"mosquito_risk":0,"arthritis_risk":5,"migraine_risk":7,"frizz_risk":1,"updated_at":"2026-07-14T13:40:21.631151+05:30"},{"city":"Bikaner","state":"Rajasthan","latitude":28.0229,"longitude":73.3119,"temp":37.0,"humidity":41,"rain":0.0,"pressure":975.1,"uv_index":8.4,"wind_gusts":39.6,"aqi":175,"pm10":258.9,"pm2_5":80.6,"no2":0.4,"co":106.0,"o3":79.0,"so2":3.2,"mosquito_risk":0,"arthritis_risk":5,"migraine_risk":10,"frizz_risk":1,"updated_at":"2026-07-14T13:40:21.631158+05:30"},{"city":"Ajmer","state":"Rajasthan","latitude":26.4499,"longitude":74.6399,"temp":32.2,"humidity":50,"rain":0.0,"pressure":950.2,"uv_index":8.2,"wind_gusts":56.2,"aqi":109,"pm10":185.3,"pm2_5":48.7,"no2":0.9,"co":113.0,"o3":76.0,"so2":2.5,"mosquito_risk":0,"arthritis_risk":5,"migraine_risk":7,"frizz_risk":1,"updated_at":"2026-07-14T13:40:21.631165+05:30"},{"city":"Gwalior","state":"Madhya Pradesh","latitude":26.2183,"longitude":78.1828,"temp":34.6,"humidity":51,"rain":0.0,"pressure":977.1,"uv_index":8.05,"wind_gusts":42.5,"aqi":111,"pm10":235.2,"pm2_5":59.8,"no2":0.8,"co":117.0,"o3":99.0,"so2":2.6,"mosquito_risk":0,"arthritis_risk":5,"migraine_risk":7,"frizz_risk":1,"updated_at":"2026-07-14T13:40:21.631172+05:30"},{"city":"Indore","state":"Madhya Pradesh","latitude":22.7196,"longitude":75.8577,"temp":30.9,"humidity":49,"rain":0.0,"pressure":945.6,"uv_index":8.4,"wind_gusts":52.2,"aqi":72,"pm10":42.4,"pm2_5":19.2,"no2":1.5,"co":145.0,"o3":81.0,"so2":3.1,"mosquito_risk":0,"arthritis_risk":5,"migraine_risk":7,"frizz_risk":1,"updated_at":"2026-07-14T13:40:21.631179+05:30"},{"city":"Bhopal","state":"Madhya Pradesh","latitude":23.2599,"longitude":77.4126,"temp":31.1,"humidity":52,"rain":0.0,"pressure":950.5,"uv_index":8.6,"wind_gusts":41.8,"aqi":81,"pm10":101.7,"pm2_5":32.4,"no2":1.1,"co":146.0,"o3":82.0,"so2":3.5,"mosquito_risk":0,"arthritis_risk":5,"migraine_risk":7,"frizz_risk":1,"updated_at":"2026-07-14T13:40:21.631186+05:30"},{"city":"Jabalpur","state":"Madhya Pradesh","latitude":23.1815,"longitude":79.9864,"temp":31.9,"humidity":60,"rain":0.0,"pressure":956.7,"uv_index":8.55,"wind_gusts":38.2,"aqi":93,"pm10":61.2,"pm2_5":27.1,"no2":1.2,"co":134.0,"o3":95.0,"so2":4.8,"mosquito_risk":0,"arthritis_risk":5,"migraine_risk":7,"frizz_risk":1,"updated_at":"2026-07-14T13:40:21.631193+05:30"},{"city":"Ujjain","state":"Madhya Pradesh","latitude":23.1765,"longitude":75.7885,"temp":30.4,"humidity":54,"rain":0.0,"pressure":950.9,"uv_index":8.5,"wind_gusts":49.0,"aqi":72,"pm10":45.8,"pm2_5":19.7,"no2":1.1,"co":124.0,"o3":78.0,"so2":3.3,"mosquito_risk":0,"arthritis_risk":5,"migraine_risk":7,"frizz_risk":1,"updated_at":"2026-07-14T13:40:21.631201+05:30"},{"city":"Visakhapatnam","state":"Andhra Pradesh","latitude":17.6868,"longitude":83.2185,"temp":34.8,"humidity":53,"rain":0.0,"pressure":996.0,"uv_index":8.55,"wind_gusts":26.6,"aqi":135,"pm10":99.7,"pm2_5":47.1,"no2":10.3,"co":750.0,"o3":145.0,"so2":35.3,"mosquito_risk":0,"arthritis_risk":5,"migraine_risk":7,"frizz_risk":1,"updated_at":"2026-07-14T13:40:21.631208+05:30"},{"city":"Vijayawada","state":"Andhra Pradesh","latitude":16.5062,"longitude":80.648,"temp":35.6,"humidity":43,"rain":0.0,"pressure":997.5,"uv_index":5.8,"wind_gusts":48.6,"aqi":82,"pm10":36.8,"pm2_5":22.5,"no2":1.5,"co":137.0,"o3":114.0,"so2":5.7,"mosquito_risk":0,"arthritis_risk":5,"migraine_risk":6,"frizz_risk":1,"updated_at":"2026-07-14T13:40:21.631215+05:30"},{"city":"Guntur","state":"Andhra Pradesh","latitude":16.3067,"longitude":80.4365,"temp":36.7,"humidity":37,"rain":0.0,"pressure":998.7,"uv_index":6.35,"wind_gusts":49.3,"aqi":73,"pm10":34.9,"pm2_5":21.0,"no2":1.2,"co":140.0,"o3":110.0,"so2":4.4,"mosquito_risk":0,"arthritis_risk":5,"migraine_risk":10,"frizz_risk":1,"updated_at":"2026-07-14T13:40:21.631222+05:30"},{"city":"Nellore","state":"Andhra Pradesh","latitude":14.4426,"longitude":79.9865,"temp":37.9,"humidity":35,"rain":0.0,"pressure":1000.8,"uv_index":8.1,"wind_gusts":48.2,"aqi":67,"pm10":34.1,"pm2_5":17.8,"no2":1.6,"co":118.0,"o3":113.0,"so2":5.2,"mosquito_risk":0,"arthritis_risk":5,"migraine_risk":7,"frizz_risk":1,"updated_at":"2026-07-14T13:40:21.631230+05:30"},{"city":"Kurnool","state":"Andhra Pradesh","latitude":15.8281,"longitude":78.0373,"temp":36.2,"humidity":34,"rain":0.0,"pressure":974.4,"uv_index":7.3,"wind_gusts":43.2,"aqi":54,"pm10":24.3,"pm2_5":14.6,"no2":1.6,"co":124.0,"o3":107.0,"so2":8.1,"mosquito_risk":0,"arthritis_risk":5,"migraine_risk":10,"frizz_risk":1,"updated_at":"2026-07-14T13:40:21.631238+05:30"},{"city":"Kakinada","state":"Andhra Pradesh","latitude":16.9891,"longitude":82.2475,"temp":34.6,"humidity":53,"rain":0.0,"pressure":1000.7,"uv_index":7.15,"wind_gusts":53.6,"aqi":94,"pm10":37.5,"pm2_5":22.1,"no2":2.1,"co":153.0,"o3":146.0,"so2":6.8,"mosquito_risk":0,"arthritis_risk":5,"migraine_risk":4,"frizz_risk":1,"updated_at":"2026-07-14T13:40:21.631246+05:30"},{"city":"Tirupati","state":"Andhra Pradesh","latitude":13.6288,"longitude":79.4192,"temp":37.7,"humidity":29,"rain":0.0,"pressure":987.0,"uv_index":8.25,"wind_gusts":38.5,"aqi":77,"pm10":31.7,"pm2_5":15.7,"no2":0.6,"co":108.0,"o3":101.0,"so2":3.1,"mosquito_risk":0,"arthritis_risk":5,"migraine_risk":10,"frizz_risk":1,"updated_at":"2026-07-14T13:40:21.631252+05:30"},{"city":"Warangal","state":"Telangana","latitude":17.9689,"longitude":79.5941,"temp":31.2,"humidity":55,"rain":0.0,"pressure":975.4,"uv_index":7.25,"wind_gusts":43.2,"aqi":71,"pm10":31.2,"pm2_5":19.0,"no2":2.4,"co":143.0,"o3":89.0,"so2":5.2,"mosquito_risk":0,"arthritis_risk":5,"migraine_risk":7,"frizz_risk":1,"updated_at":"2026-07-14T13:40:21.631259+05:30"},{"city":"Nizamabad","state":"Telangana","latitude":18.6725,"longitude":78.0941,"temp":31.1,"humidity":55,"rain":0.0,"pressure":962.5,"uv_index":5.0,"wind_gusts":43.9,"aqi":62,"pm10":25.1,"pm2_5":16.6,"no2":1.2,"co":133.0,"o3":99.0,"so2":4.5,"mosquito_risk":0,"arthritis_risk":5,"migraine_risk":3,"frizz_risk":1,"updated_at":"2026-07-14T13:40:21.631266+05:30"},{"city":"Mysore","state":"Karnataka","latitude":12.2958,"longitude":76.6396,"temp":31.9,"humidity":45,"rain":0.0,"pressure":928.3,"uv_index":8.95,"wind_gusts":38.9,"aqi":56,"pm10":18.4,"pm2_5":10.4,"no2":1.8,"co":130.0,"o3":95.0,"so2":1.8,"mosquito_risk":0,"arthritis_risk":5,"migraine_risk":7,"frizz_risk":1,"updated_at":"2026-07-14T13:40:21.631273+05:30"},{"city":"Mangalore","state":"Karnataka","latitude":12.9141,"longitude":74.856,"temp":29.6,"humidity":69,"rain":0.0,"pressure":1007.3,"uv_index":8.25,"wind_gusts":38.9,"aqi":60,"pm10":30.2,"pm2_5":15.5,"no2":0.9,"co":96.0,"o3":65.0,"so2":1.8,"mosquito_risk":7,"arthritis_risk":5,"migraine_risk":4,"frizz_risk":1,"updated_at":"2026-07-14T13:40:21.631280+05:30"},{"city":"Hubli-Dharwad","state":"Karnataka","latitude":15.3647,"longitude":75.124,"temp":30.0,"humidity":56,"rain":0.0,"pressure":940.6,"uv_index":8.75,"wind_gusts":46.4,"aqi":50,"pm10":25.0,"pm2_5":14.6,"no2":1.2,"co":109.0,"o3":76.0,"so2":1.3,"mosquito_risk":4,"arthritis_risk":5,"migraine_risk":7,"frizz_risk":1,"updated_at":"2026-07-14T13:40:21.631288+05:30"},{"city":"Belgaum","state":"Karnataka","latitude":15.8497,"longitude":74.4977,"temp":27.6,"humidity":59,"rain":0.0,"pressure":925.8,"uv_index":8.45,"wind_gusts":42.5,"aqi":51,"pm10":27.5,"pm2_5":14.9,"no2":1.1,"co":103.0,"o3":65.0,"so2":1.2,"mosquito_risk":4,"arthritis_risk":5,"migraine_risk":7,"frizz_risk":1,"updated_at":"2026-07-14T13:40:24.986458+05:30"},{"city":"Coimbatore","state":"Tamil Nadu","latitude":11.0168,"longitude":76.9558,"temp":33.9,"humidity":41,"rain":0.0,"pressure":960.4,"uv_index":8.35,"wind_gusts":54.4,"aqi":54,"pm10":21.3,"pm2_5":11.6,"no2":1.1,"co":135.0,"o3":91.0,"so2":2.3,"mosquito_risk":0,"arthritis_risk":5,"migraine_risk":7,"frizz_risk":1,"updated_at":"2026-07-14T13:40:24.986489+05:30"},{"city":"Madurai","state":"Tamil Nadu","latitude":9.9252,"longitude":78.1198,"temp":40.1,"humidity":25,"rain":0.0,"pressure":989.5,"uv_index":8.65,"wind_gusts":29.5,"aqi":71,"pm10":47.3,"pm2_5":19.2,"no2":1.6,"co":123.0,"o3":124.0,"so2":2.9,"mosquito_risk":0,"arthritis_risk":5,"migraine_risk":10,"frizz_risk":1,"updated_at":"2026-07-14T13:40:24.986504+05:30"},{"city":"Trichy","state":"Tamil Nadu","latitude":10.7905,"longitude":78.7047,"temp":39.1,"humidity":26,"rain":0.0,"pressure":996.0,"uv_index":8.5,"wind_gusts":45.0,"aqi":65,"pm10":35.7,"pm2_5":16.5,"no2":1.5,"co":133.0,"o3":108.0,"so2":2.7,"mosquito_risk":0,"arthritis_risk":5,"migraine_risk":10,"frizz_risk":0,"updated_at":"2026-07-14T13:40:24.986513+05:30"},{"city":"Salem","state":"Tamil Nadu","latitude":11.6643,"longitude":78.146,"temp":35.0,"humidity":40,"rain":0.0,"pressure":974.9,"uv_index":8.35,"wind_gusts":28.4,"aqi":72,"pm10":35.6,"pm2_5":18.0,"no2":2.4,"co":135.0,"o3":125.0,"so2":7.9,"mosquito_risk":0,"arthritis_risk":5,"migraine_risk":7,"frizz_risk":1,"updated_at":"2026-07-14T13:40:24.986521+05:30"},{"city":"Tirunelveli","state":"Tamil Nadu","latitude":8.7139,"longitude":77.7567,"temp":40.0,"humidity":25,"rain":0.0,"pressure":999.5,"uv_index":7.6,"wind_gusts":42.8,"aqi":51,"pm10":18.3,"pm2_5":10.3,"no2":1.2,"co":115.0,"o3":86.0,"so2":1.5,"mosquito_risk":0,"arthritis_risk":5,"migraine_risk":10,"frizz_risk":1,"updated_at":"2026-07-14T13:40:24.986529+05:30"},{"city":"Vellore","state":"Tamil Nadu","latitude":12.9165,"longitude":79.1325,"temp":38.1,"humidity":27,"rain":0.0,"pressure":980.9,"uv_index":8.9,"wind_gusts":42.8,"aqi":74,"pm10":31.8,"pm2_5":16.4,"no2":1.1,"co":122.0,"o3":101.0,"so2":2.1,"mosquito_risk":0,"arthritis_risk":5,"migraine_risk":10,"frizz_risk":0,"updated_at":"2026-07-14T13:40:24.986536+05:30"},{"city":"Erode","state":"Tamil Nadu","latitude":11.341,"longitude":77.7172,"temp":38.9,"humidity":24,"rain":0.0,"pressure":986.0,"uv_index":8.5,"wind_gusts":49.3,"aqi":61,"pm10":32.0,"pm2_5":15.1,"no2":1.6,"co":153.0,"o3":110.0,"so2":2.2,"mosquito_risk":0,"arthritis_risk":5,"migraine_risk":10,"frizz_risk":0,"updated_at":"2026-07-14T13:40:24.986544+05:30"},{"city":"Kochi","state":"Kerala","latitude":9.9312,"longitude":76.2673,"temp":29.6,"humidity":72,"rain":0.0,"pressure":1008.9,"uv_index":8.4,"wind_gusts":43.6,"aqi":57,"pm10":18.9,"pm2_5":12.1,"no2":2.0,"co":105.0,"o3":73.0,"so2":2.5,"mosquito_risk":7,"arthritis_risk":0,"migraine_risk":4,"frizz_risk":1,"updated_at":"2026-07-14T13:40:24.986551+05:30"},{"city":"Thiruvananthapuram","state":"Kerala","latitude":8.5241,"longitude":76.9366,"temp":29.0,"humidity":77,"rain":0.0,"pressure":1007.4,"uv_index":7.9,"wind_gusts":52.9,"aqi":54,"pm10":22.1,"pm2_5":12.9,"no2":1.7,"co":96.0,"o3":71.0,"so2":1.3,"mosquito_risk":7,"arthritis_risk":5,"migraine_risk":4,"frizz_risk":1,"updated_at":"2026-07-14T13:40:24.986558+05:30"},{"city":"Kozhikode","state":"Kerala","latitude":11.2588,"longitude":75.7804,"temp":29.9,"humidity":73,"rain":0.0,"pressure":1007.9,"uv_index":8.15,"wind_gusts":45.0,"aqi":53,"pm10":21.9,"pm2_5":12.3,"no2":0.7,"co":99.0,"o3":74.0,"so2":1.6,"mosquito_risk":7,"arthritis_risk":5,"migraine_risk":4,"frizz_risk":1,"updated_at":"2026-07-14T13:40:24.986566+05:30"},{"city":"Thrissur","state":"Kerala","latitude":10.5276,"longitude":76.2144,"temp":30.5,"humidity":68,"rain":0.0,"pressure":1007.1,"uv_index":7.9,"wind_gusts":40.7,"aqi":55,"pm10":16.3,"pm2_5":11.2,"no2":1.4,"co":97.0,"o3":74.0,"so2":2.2,"mosquito_risk":3,"arthritis_risk":5,"migraine_risk":4,"frizz_risk":1,"updated_at":"2026-07-14T13:40:24.986574+05:30"},{"city":"Kannur","state":"Kerala","latitude":11.8745,"longitude":75.3704,"temp":30.4,"humidity":67,"rain":0.0,"pressure":1007.4,"uv_index":8.75,"wind_gusts":43.6,"aqi":55,"pm10":25.7,"pm2_5":14.3,"no2":1.1,"co":98.0,"o3":71.0,"so2":1.8,"mosquito_risk":3,"arthritis_risk":5,"migraine_risk":4,"frizz_risk":1,"updated_at":"2026-07-14T13:40:24.986581+05:30"},{"city":"Patna","state":"Bihar","latitude":25.5941,"longitude":85.1376,"temp":32.6,"humidity":68,"rain":0.0,"pressure":993.1,"uv_index":7.6,"wind_gusts":29.2,"aqi":155,"pm10":126.7,"pm2_5":62.2,"no2":2.6,"co":244.0,"o3":166.0,"so2":11.7,"mosquito_risk":3,"arthritis_risk":5,"migraine_risk":7,"frizz_risk":1,"updated_at":"2026-07-14T13:40:24.986588+05:30"},{"city":"Gaya","state":"Bihar","latitude":24.7914,"longitude":85.0002,"temp":33.0,"humidity":69,"rain":0.0,"pressure":986.9,"uv_index":8.45,"wind_gusts":21.6,"aqi":158,"pm10":136.4,"pm2_5":63.1,"no2":1.8,"co":246.0,"o3":156.0,"so2":8.8,"mosquito_risk":3,"arthritis_risk":5,"migraine_risk":7,"frizz_risk":1,"updated_at":"2026-07-14T13:40:24.986610+05:30"},{"city":"Muzaffarpur","state":"Bihar","latitude":26.1209,"longitude":85.3647,"temp":33.4,"humidity":65,"rain":0.0,"pressure":992.8,"uv_index":7.55,"wind_gusts":18.7,"aqi":154,"pm10":97.1,"pm2_5":50.1,"no2":3.4,"co":287.0,"o3":165.0,"so2":13.3,"mosquito_risk":3,"arthritis_risk":5,"migraine_risk":7,"frizz_risk":1,"updated_at":"2026-07-14T13:40:24.986617+05:30"},{"city":"Bhagalpur","state":"Bihar","latitude":25.2425,"longitude":87.0117,"temp":33.4,"humidity":66,"rain":0.1,"pressure":993.1,"uv_index":7.8,"wind_gusts":27.7,"aqi":120,"pm10":15.4,"pm2_5":13.6,"no2":5.8,"co":270.0,"o3":138.0,"so2":14.7,"mosquito_risk":6,"arthritis_risk":5,"migraine_risk":7,"frizz_risk":1,"updated_at":"2026-07-14T13:40:24.986624+05:30"},{"city":"Ranchi","state":"Jharkhand","latitude":23.3441,"longitude":85.3096,"temp":28.2,"humidity":74,"rain":0.0,"pressure":932.0,"uv_index":8.65,"wind_gusts":40.0,"aqi":154,"pm10":105.5,"pm2_5":48.0,"no2":3.0,"co":171.0,"o3":125.0,"so2":12.6,"mosquito_risk":7,"arthritis_risk":5,"migraine_risk":7,"frizz_risk":1,"updated_at":"2026-07-14T13:40:24.986631+05:30"},{"city":"Jamshedpur","state":"Jharkhand","latitude":22.8046,"longitude":86.2029,"temp":31.1,"humidity":75,"rain":0.0,"pressure":983.5,"uv_index":5.8,"wind_gusts":31.3,"aqi":162,"pm10":94.5,"pm2_5":52.5,"no2":22.5,"co":274.0,"o3":118.0,"so2":47.4,"mosquito_risk":3,"arthritis_risk":5,"migraine_risk":3,"frizz_risk":1,"updated_at":"2026-07-14T13:40:24.986639+05:30"},{"city":"Dhanbad","state":"Jharkhand","latitude":23.7957,"longitude":86.4304,"temp":31.3,"humidity":71,"rain":0.0,"pressure":972.7,"uv_index":7.7,"wind_gusts":28.8,"aqi":171,"pm10":105.0,"pm2_5":58.6,"no2":19.8,"co":272.0,"o3":121.0,"so2":47.8,"mosquito_risk":3,"arthritis_risk":5,"migraine_risk":7,"frizz_risk":1,"updated_at":"2026-07-14T13:40:24.986646+05:30"},{"city":"Bokaro","state":"Jharkhand","latitude":23.6693,"longitude":86.1511,"temp":30.5,"humidity":76,"rain":0.0,"pressure":976.7,"uv_index":8.65,"wind_gusts":29.5,"aqi":173,"pm10":135.0,"pm2_5":69.2,"no2":20.9,"co":226.0,"o3":129.0,"so2":59.0,"mosquito_risk":3,"arthritis_risk":5,"migraine_risk":7,"frizz_risk":1,"updated_at":"2026-07-14T13:40:24.986653+05:30"},{"city":"Bhubaneswar","state":"Odisha","latitude":20.2961,"longitude":85.8245,"temp":28.3,"humidity":91,"rain":0.1,"pressure":994.8,"uv_index":5.85,"wind_gusts":37.8,"aqi":132,"pm10":104.1,"pm2_5":59.6,"no2":11.9,"co":223.0,"o3":113.0,"so2":22.9,"mosquito_risk":10,"arthritis_risk":5,"migraine_risk":3,"frizz_risk":1,"updated_at":"2026-07-14T13:40:24.986660+05:30"},{"city":"Cuttack","state":"Odisha","latitude":20.4625,"longitude":85.8828,"temp":28.9,"humidity":89,"rain":0.2,"pressure":996.6,"uv_index":2.2,"wind_gusts":29.2,"aqi":132,"pm10":104.1,"pm2_5":59.6,"no2":11.9,"co":229.0,"o3":113.0,"so2":22.9,"mosquito_risk":10,"arthritis_risk":5,"migraine_risk":3,"frizz_risk":1,"updated_at":"2026-07-14T13:40:24.986668+05:30"},{"city":"Rourkela","state":"Odisha","latitude":22.2604,"longitude":84.8536,"temp":30.4,"humidity":79,"rain":0.3,"pressure":978.1,"uv_index":7.8,"wind_gusts":36.0,"aqi":151,"pm10":123.9,"pm2_5":59.3,"no2":6.9,"co":304.0,"o3":110.0,"so2":17.6,"mosquito_risk":6,"arthritis_risk":5,"migraine_risk":7,"frizz_risk":1,"updated_at":"2026-07-14T13:40:24.986675+05:30"},{"city":"Raipur","state":"Chhattisgarh","latitude":21.2514,"longitude":81.6296,"temp":34.0,"humidity":52,"rain":0.0,"pressure":969.3,"uv_index":8.8,"wind_gusts":47.5,"aqi":131,"pm10":104.1,"pm2_5":43.9,"no2":9.4,"co":142.0,"o3":108.0,"so2":29.6,"mosquito_risk":0,"arthritis_risk":5,"migraine_risk":7,"frizz_risk":1,"updated_at":"2026-07-14T13:40:24.986683+05:30"},{"city":"Bhilai","state":"Chhattisgarh","latitude":21.1938,"longitude":81.3509,"temp":33.6,"humidity":53,"rain":0.0,"pressure":969.7,"uv_index":8.75,"wind_gusts":43.6,"aqi":120,"pm10":81.7,"pm2_5":36.4,"no2":9.3,"co":183.0,"o3":100.0,"so2":26.1,"mosquito_risk":0,"arthritis_risk":5,"migraine_risk":7,"frizz_risk":1,"updated_at":"2026-07-14T13:40:24.986689+05:30"},{"city":"Guwahati","state":"Assam","latitude":26.1158,"longitude":91.7086,"temp":32.5,"humidity":76,"rain":0.0,"pressure":992.4,"uv_index":8.1,"wind_gusts":26.3,"aqi":56,"pm10":12.4,"pm2_5":11.4,"no2":1.3,"co":227.0,"o3":111.0,"so2":2.1,"mosquito_risk":3,"arthritis_risk":5,"migraine_risk":7,"frizz_risk":1,"updated_at":"2026-07-14T13:40:24.986695+05:30"},{"city":"Agartala","state":"Tripura","latitude":23.8315,"longitude":91.2868,"temp":33.1,"humidity":66,"rain":0.1,"pressure":997.2,"uv_index":8.65,"wind_gusts":22.7,"aqi":81,"pm10":16.9,"pm2_5":14.6,"no2":2.2,"co":167.0,"o3":145.0,"so2":1.6,"mosquito_risk":6,"arthritis_risk":5,"migraine_risk":7,"frizz_risk":1,"updated_at":"2026-07-14T13:40:24.986701+05:30"},{"city":"Shillong","state":"Meghalaya","latitude":25.5788,"longitude":91.8933,"temp":24.2,"humidity":85,"rain":0.2,"pressure":853.1,"uv_index":8.45,"wind_gusts":25.9,"aqi":60,"pm10":11.6,"pm2_5":10.5,"no2":2.1,"co":171.0,"o3":88.0,"so2":1.9,"mosquito_risk":6,"arthritis_risk":5,"migraine_risk":7,"frizz_risk":1,"updated_at":"2026-07-14T13:40:24.986706+05:30"},{"city":"Imphal","state":"Manipur","latitude":24.817,"longitude":93.9368,"temp":30.1,"humidity":65,"rain":0.0,"pressure":916.9,"uv_index":9.2,"wind_gusts":26.3,"aqi":55,"pm10":3.3,"pm2_5":2.7,"no2":0.9,"co":172.0,"o3":83.0,"so2":1.2,"mosquito_risk":3,"arthritis_risk":5,"migraine_risk":7,"frizz_risk":1,"updated_at":"2026-07-14T13:40:24.986712+05:30"},{"city":"Aizawl","state":"Mizoram","latitude":23.7271,"longitude":92.7176,"temp":22.6,"humidity":93,"rain":0.2,"pressure":886.1,"uv_index":8.95,"wind_gusts":20.9,"aqi":53,"pm10":7.1,"pm2_5":5.7,"no2":2.0,"co":139.0,"o3":74.0,"so2":0.8,"mosquito_risk":6,"arthritis_risk":5,"migraine_risk":7,"frizz_risk":1,"updated_at":"2026-07-14T13:40:24.986718+05:30"},{"city":"Kohima","state":"Nagaland","latitude":25.6701,"longitude":94.1077,"temp":24.3,"humidity":90,"rain":0.2,"pressure":850.9,"uv_index":8.25,"wind_gusts":25.9,"aqi":44,"pm10":6.1,"pm2_5":5.9,"no2":1.0,"co":173.0,"o3":82.0,"so2":0.6,"mosquito_risk":6,"arthritis_risk":5,"migraine_risk":7,"frizz_risk":1,"updated_at":"2026-07-14T13:40:24.986723+05:30"},{"city":"Gangtok","state":"Sikkim","latitude":27.3314,"longitude":88.6138,"temp":23.4,"humidity":75,"rain":0.0,"pressure":834.9,"uv_index":8.25,"wind_gusts":26.6,"aqi":45,"pm10":2.9,"pm2_5":2.6,"no2":2.1,"co":259.0,"o3":97.0,"so2":0.7,"mosquito_risk":3,"arthritis_risk":5,"migraine_risk":7,"frizz_risk":1,"updated_at":"2026-07-14T13:40:24.986729+05:30"},{"city":"Siliguri","state":"West Bengal","latitude":26.7271,"longitude":88.3953,"temp":32.3,"humidity":67,"rain":0.0,"pressure":985.2,"uv_index":7.95,"wind_gusts":25.9,"aqi":69,"pm10":12.0,"pm2_5":9.4,"no2":1.6,"co":286.0,"o3":115.0,"so2":2.0,"mosquito_risk":3,"arthritis_risk":5,"migraine_risk":7,"frizz_risk":1,"updated_at":"2026-07-14T13:40:28.347223+05:30"},{"city":"Durgapur","state":"West Bengal","latitude":23.5204,"longitude":87.3119,"temp":32.5,"humidity":71,"rain":0.0,"pressure":986.9,"uv_index":8.85,"wind_gusts":26.3,"aqi":165,"pm10":59.3,"pm2_5":45.3,"no2":19.6,"co":356.0,"o3":145.0,"so2":51.1,"mosquito_risk":3,"arthritis_risk":5,"migraine_risk":7,"frizz_risk":1,"updated_at":"2026-07-14T13:40:28.347254+05:30"},{"city":"Asansol","state":"West Bengal","latitude":23.6739,"longitude":86.9524,"temp":32.7,"humidity":69,"rain":0.0,"pressure":985.7,"uv_index":6.5,"wind_gusts":26.3,"aqi":162,"pm10":78.0,"pm2_5":52.6,"no2":20.4,"co":309.0,"o3":126.0,"so2":45.3,"mosquito_risk":3,"arthritis_risk":5,"migraine_risk":7,"frizz_risk":1,"updated_at":"2026-07-14T13:40:28.347267+05:30"},{"city":"Pondicherry","state":"Puducherry","latitude":11.9139,"longitude":79.8145,"temp":37.6,"humidity":37,"rain":0.0,"pressure":1004.0,"uv_index":8.2,"wind_gusts":43.2,"aqi":71,"pm10":38.5,"pm2_5":25.1,"no2":4.7,"co":192.0,"o3":144.0,"so2":4.3,"mosquito_risk":0,"arthritis_risk":5,"migraine_risk":7,"frizz_risk":1,"updated_at":"2026-07-14T13:40:28.347275+05:30"},{"city":"Port Blair","state":"Andaman and Nicobar Islands","latitude":11.6234,"longitude":92.7265,"temp":30.6,"humidity":70,"rain":0.0,"pressure":1003.7,"uv_index":8.2,"wind_gusts":60.8,"aqi":49,"pm10":11.6,"pm2_5":5.7,"no2":0.2,"co":89.0,"o3":45.0,"so2":0.4,"mosquito_risk":3,"arthritis_risk":5,"migraine_risk":4,"frizz_risk":1,"updated_at":"2026-07-14T13:40:28.347284+05:30"},{"city":"Haridwar","state":"Uttarakhand","latitude":29.9457,"longitude":78.1642,"temp":34.5,"humidity":56,"rain":0.0,"pressure":966.7,"uv_index":7.45,"wind_gusts":32.8,"aqi":179,"pm10":238.4,"pm2_5":83.1,"no2":1.4,"co":341.0,"o3":152.0,"so2":11.7,"mosquito_risk":0,"arthritis_risk":5,"migraine_risk":7,"frizz_risk":1,"updated_at":"2026-07-14T13:40:28.347292+05:30"},{"city":"Rishikesh","state":"Uttarakhand","latitude":30.0869,"longitude":78.2676,"temp":33.4,"humidity":57,"rain":0.1,"pressure":959.7,"uv_index":7.6,"wind_gusts":28.4,"aqi":166,"pm10":170.4,"pm2_5":61.0,"no2":0.7,"co":288.0,"o3":126.0,"so2":6.3,"mosquito_risk":3,"arthritis_risk":5,"migraine_risk":7,"frizz_risk":1,"updated_at":"2026-07-14T13:40:28.347299+05:30"},{"city":"Nainital","state":"Uttarakhand","latitude":29.3919,"longitude":79.4542,"temp":24.5,"humidity":57,"rain":0.0,"pressure":804.8,"uv_index":8.5,"wind_gusts":28.8,"aqi":161,"pm10":243.1,"pm2_5":76.8,"no2":1.3,"co":234.0,"o3":149.0,"so2":9.9,"mosquito_risk":0,"arthritis_risk":5,"migraine_risk":7,"frizz_risk":0,"updated_at":"2026-07-14T13:40:28.347307+05:30"},{"city":"Mussoorie","state":"Uttarakhand","latitude":30.4599,"longitude":78.0664,"temp":23.0,"humidity":67,"rain":0.0,"pressure":802.0,"uv_index":8.0,"wind_gusts":36.7,"aqi":161,"pm10":150.4,"pm2_5":56.1,"no2":1.0,"co":220.0,"o3":133.0,"so2":6.7,"mosquito_risk":3,"arthritis_risk":5,"migraine_risk":7,"frizz_risk":1,"updated_at":"2026-07-14T13:40:28.347314+05:30"},{"city":"Dharamshala","state":"Himachal Pradesh","latitude":32.219,"longitude":76.3234,"temp":26.5,"humidity":62,"rain":0.0,"pressure":865.7,"uv_index":8.4,"wind_gusts":33.1,"aqi":75,"pm10":51.3,"pm2_5":23.3,"no2":0.7,"co":211.0,"o3":143.0,"so2":1.4,"mosquito_risk":7,"arthritis_risk":5,"migraine_risk":7,"frizz_risk":1,"updated_at":"2026-07-14T13:40:28.347321+05:30"},{"city":"Dalhousie","state":"Himachal Pradesh","latitude":32.5387,"longitude":75.971,"temp":23.8,"humidity":63,"rain":0.0,"pressure":804.6,"uv_index":8.65,"wind_gusts":30.2,"aqi":148,"pm10":99.0,"pm2_5":44.2,"no2":1.4,"co":243.0,"o3":168.0,"so2":2.8,"mosquito_risk":3,"arthritis_risk":5,"migraine_risk":7,"frizz_risk":1,"updated_at":"2026-07-14T13:40:28.347330+05:30"},{"city":"Patiala","state":"Punjab","latitude":30.3398,"longitude":76.3869,"temp":34.8,"humidity":57,"rain":0.0,"pressure":970.6,"uv_index":7.5,"wind_gusts":45.7,"aqi":188,"pm10":139.7,"pm2_5":67.3,"no2":2.0,"co":255.0,"o3":180.0,"so2":9.8,"mosquito_risk":0,"arthritis_risk":5,"migraine_risk":7,"frizz_risk":1,"updated_at":"2026-07-14T13:40:28.347337+05:30"},{"city":"Bhatinda","state":"Punjab","latitude":30.211,"longitude":74.9455,"temp":38.0,"humidity":39,"rain":0.0,"pressure":976.0,"uv_index":8.2,"wind_gusts":30.2,"aqi":191,"pm10":185.8,"pm2_5":75.0,"no2":2.8,"co":215.0,"o3":175.0,"so2":14.0,"mosquito_risk":0,"arthritis_risk":5,"migraine_risk":10,"frizz_risk":1,"updated_at":"2026-07-14T13:40:28.347345+05:30"},{"city":"Rohtak","state":"Haryana","latitude":28.8955,"longitude":76.6066,"temp":36.6,"humidity":46,"rain":0.0,"pressure":974.4,"uv_index":7.3,"wind_gusts":36.7,"aqi":644,"pm10":719.0,"pm2_5":142.5,"no2":1.4,"co":149.0,"o3":137.0,"so2":6.5,"mosquito_risk":0,"arthritis_risk":5,"migraine_risk":10,"frizz_risk":1,"updated_at":"2026-07-14T13:40:28.347393+05:30"},{"city":"Panipat","state":"Haryana","latitude":29.3909,"longitude":76.9635,"temp":35.6,"humidity":49,"rain":0.0,"pressure":972.8,"uv_index":7.3,"wind_gusts":42.1,"aqi":650,"pm10":577.4,"pm2_5":136.0,"no2":2.7,"co":187.0,"o3":176.0,"so2":15.5,"mosquito_risk":0,"arthritis_risk":5,"migraine_risk":10,"frizz_risk":1,"updated_at":"2026-07-14T13:40:28.347452+05:30"},{"city":"Mathura","state":"Uttar Pradesh","latitude":27.4924,"longitude":77.6737,"temp":35.0,"humidity":52,"rain":0.0,"pressure":979.8,"uv_index":7.9,"wind_gusts":29.9,"aqi":779,"pm10":860.5,"pm2_5":152.7,"no2":1.4,"co":145.0,"o3":120.0,"so2":3.5,"mosquito_risk":0,"arthritis_risk":5,"migraine_risk":7,"frizz_risk":1,"updated_at":"2026-07-14T13:40:28.347464+05:30"},{"city":"Vrindavan","state":"Uttar Pradesh","latitude":27.5823,"longitude":77.7027,"temp":35.3,"humidity":51,"rain":0.0,"pressure":980.2,"uv_index":7.9,"wind_gusts":29.2,"aqi":779,"pm10":860.5,"pm2_5":152.7,"no2":1.4,"co":140.0,"o3":120.0,"so2":3.5,"mosquito_risk":0,"arthritis_risk":5,"migraine_risk":10,"frizz_risk":1,"updated_at":"2026-07-14T13:40:28.347472+05:30"},{"city":"Ayodhya","state":"Uttar Pradesh","latitude":26.7922,"longitude":82.1998,"temp":33.5,"humidity":71,"rain":0.0,"pressure":987.9,"uv_index":7.8,"wind_gusts":34.2,"aqi":157,"pm10":249.6,"pm2_5":82.0,"no2":1.5,"co":316.0,"o3":168.0,"so2":7.2,"mosquito_risk":3,"arthritis_risk":5,"migraine_risk":7,"frizz_risk":1,"updated_at":"2026-07-14T13:40:28.347480+05:30"},{"city":"Ratlam","state":"Madhya Pradesh","latitude":23.3315,"longitude":75.0367,"temp":30.9,"humidity":52,"rain":0.0,"pressure":951.7,"uv_index":8.25,"wind_gusts":49.0,"aqi":69,"pm10":44.2,"pm2_5":19.0,"no2":1.1,"co":113.0,"o3":78.0,"so2":3.4,"mosquito_risk":0,"arthritis_risk":5,"migraine_risk":7,"frizz_risk":1,"updated_at":"2026-07-14T13:40:28.347488+05:30"},{"city":"Sagar","state":"Madhya Pradesh","latitude":23.8388,"longitude":78.7378,"temp":31.5,"humidity":61,"rain":0.0,"pressure":946.2,"uv_index":8.6,"wind_gusts":44.3,"aqi":92,"pm10":105.0,"pm2_5":33.1,"no2":1.0,"co":128.0,"o3":94.0,"so2":4.1,"mosquito_risk":3,"arthritis_risk":5,"migraine_risk":7,"frizz_risk":1,"updated_at":"2026-07-14T13:40:28.347496+05:30"},{"city":"Satna","state":"Madhya Pradesh","latitude":24.6005,"longitude":80.8322,"temp":33.0,"humidity":56,"rain":0.1,"pressure":965.7,"uv_index":6.9,"wind_gusts":41.4,"aqi":102,"pm10":104.3,"pm2_5":39.0,"no2":0.9,"co":133.0,"o3":113.0,"so2":4.6,"mosquito_risk":3,"arthritis_risk":5,"migraine_risk":7,"frizz_risk":1,"updated_at":"2026-07-14T13:40:28.347503+05:30"},{"city":"Akola","state":"Maharashtra","latitude":20.7002,"longitude":77.0082,"temp":32.3,"humidity":51,"rain":0.0,"pressure":972.7,"uv_index":5.85,"wind_gusts":51.1,"aqi":62,"pm10":32.9,"pm2_5":17.0,"no2":1.2,"co":112.0,"o3":88.0,"so2":5.1,"mosquito_risk":0,"arthritis_risk":5,"migraine_risk":3,"frizz_risk":1,"updated_at":"2026-07-14T13:40:28.347511+05:30"},{"city":"Amravati","state":"Maharashtra","latitude":20.9374,"longitude":77.7796,"temp":32.2,"humidity":50,"rain":0.0,"pressure":964.6,"uv_index":7.5,"wind_gusts":50.4,"aqi":64,"pm10":35.9,"pm2_5":17.9,"no2":1.4,"co":111.0,"o3":89.0,"so2":5.5,"mosquito_risk":0,"arthritis_risk":5,"migraine_risk":7,"frizz_risk":1,"updated_at":"2026-07-14T13:40:28.347521+05:30"},{"city":"Latur","state":"Maharashtra","latitude":18.4088,"longitude":76.5604,"temp":30.7,"humidity":52,"rain":0.0,"pressure":938.3,"uv_index":7.55,"wind_gusts":41.0,"aqi":56,"pm10":26.4,"pm2_5":14.9,"no2":0.7,"co":111.0,"o3":82.0,"so2":1.7,"mosquito_risk":0,"arthritis_risk":5,"migraine_risk":7,"frizz_risk":1,"updated_at":"2026-07-14T13:40:28.347528+05:30"},{"city":"Nanded","state":"Maharashtra","latitude":19.1383,"longitude":77.3091,"temp":31.7,"humidity":53,"rain":0.0,"pressure":966.4,"uv_index":8.05,"wind_gusts":41.0,"aqi":62,"pm10":26.9,"pm2_5":16.9,"no2":0.8,"co":129.0,"o3":97.0,"so2":3.5,"mosquito_risk":0,"arthritis_risk":5,"migraine_risk":7,"frizz_risk":1,"updated_at":"2026-07-14T13:40:28.347535+05:30"},{"city":"Gulbarga","state":"Karnataka","latitude":17.3297,"longitude":76.8343,"temp":33.0,"humidity":44,"rain":0.0,"pressure":957.1,"uv_index":8.15,"wind_gusts":44.3,"aqi":54,"pm10":22.4,"pm2_5":12.7,"no2":1.1,"co":124.0,"o3":95.0,"so2":2.3,"mosquito_risk":0,"arthritis_risk":5,"migraine_risk":7,"frizz_risk":1,"updated_at":"2026-07-14T13:40:28.347542+05:30"},{"city":"Bidar","state":"Karnataka","latitude":17.9104,"longitude":77.5199,"temp":31.3,"humidity":51,"rain":0.0,"pressure":934.1,"uv_index":7.25,"wind_gusts":41.0,"aqi":57,"pm10":25.0,"pm2_5":14.6,"no2":1.0,"co":126.0,"o3":95.0,"so2":2.8,"mosquito_risk":0,"arthritis_risk":5,"migraine_risk":7,"frizz_risk":1,"updated_at":"2026-07-14T13:40:28.347549+05:30"},{"city":"Hospet","state":"Karnataka","latitude":15.2689,"longitude":76.3909,"temp":34.1,"humidity":37,"rain":0.0,"pressure":954.6,"uv_index":7.5,"wind_gusts":43.2,"aqi":51,"pm10":22.9,"pm2_5":13.2,"no2":1.8,"co":115.0,"o3":90.0,"so2":2.3,"mosquito_risk":0,"arthritis_risk":5,"migraine_risk":7,"frizz_risk":1,"updated_at":"2026-07-14T13:40:28.347556+05:30"},{"city":"Tirupur","state":"Tamil Nadu","latitude":11.1085,"longitude":77.3411,"temp":35.6,"humidity":39,"rain":0.0,"pressure":973.1,"uv_index":8.3,"wind_gusts":58.3,"aqi":62,"pm10":28.5,"pm2_5":13.9,"no2":1.6,"co":137.0,"o3":105.0,"so2":2.5,"mosquito_risk":0,"arthritis_risk":5,"migraine_risk":10,"frizz_risk":1,"updated_at":"2026-07-14T13:40:28.347562+05:30"},{"city":"Alappuzha","state":"Kerala","latitude":9.4981,"longitude":76.3388,"temp":29.3,"humidity":77,"rain":0.0,"pressure":1008.8,"uv_index":8.0,"wind_gusts":43.9,"aqi":57,"pm10":23.3,"pm2_5":14.0,"no2":2.0,"co":89.0,"o3":74.0,"so2":2.3,"mosquito_risk":7,"arthritis_risk":0,"migraine_risk":4,"frizz_risk":1,"updated_at":"2026-07-14T13:40:28.347568+05:30"},{"city":"Munnar","state":"Kerala","latitude":10.0889,"longitude":77.0595,"temp":23.6,"humidity":73,"rain":0.0,"pressure":858.1,"uv_index":8.4,"wind_gusts":35.6,"aqi":47,"pm10":19.0,"pm2_5":9.5,"no2":0.7,"co":104.0,"o3":76.0,"so2":1.3,"mosquito_risk":3,"arthritis_risk":5,"migraine_risk":7,"frizz_risk":1,"updated_at":"2026-07-14T13:40:28.347711+05:30"},{"city":"Silchar","state":"Assam","latitude":24.8333,"longitude":92.7789,"temp":34.8,"humidity":61,"rain":0.0,"pressure":995.0,"uv_index":8.85,"wind_gusts":27.0,"aqi":92,"pm10":15.0,"pm2_5":12.7,"no2":1.1,"co":175.0,"o3":123.0,"so2":3.3,"mosquito_risk":3,"arthritis_risk":5,"migraine_risk":7,"frizz_risk":1,"updated_at":"2026-07-14T13:40:28.347719+05:30"},{"city":"Dibrugarh","state":"Assam","latitude":27.4728,"longitude":94.912,"temp":34.3,"humidity":63,"rain":0.0,"pressure":985.4,"uv_index":8.6,"wind_gusts":17.6,"aqi":74,"pm10":14.1,"pm2_5":14.0,"no2":1.1,"co":177.0,"o3":133.0,"so2":1.4,"mosquito_risk":3,"arthritis_risk":5,"migraine_risk":7,"frizz_risk":1,"updated_at":"2026-07-14T13:40:28.347725+05:30"}]