[{"city":"Delhi","state":"Delhi","latitude":28.6139,"longitude":77.209,"temp":21.7,"humidity":62,"rain":0.0,"pressure":984.3,"uv_index":6.1,"wind_gusts":41.4,"aqi":415,"pm10":267.3,"pm2_5":63.8,"mosquito_risk":3,"arthritis_risk":5,"migraine_risk":7,"frizz_risk":0,"updated_at":"2026-03-16T22:34:55.964035+05:30"},{"city":"Mumbai","state":"Maharashtra","latitude":19.076,"longitude":72.8777,"temp":27.5,"humidity":79,"rain":0.0,"pressure":1009.9,"uv_index":7.7,"wind_gusts":18.0,"aqi":104,"pm10":105.9,"pm2_5":33.1,"mosquito_risk":7,"arthritis_risk":0,"migraine_risk":4,"frizz_risk":1,"updated_at":"2026-03-16T22:34:55.964089+05:30"},{"city":"Bangalore","state":"Karnataka","latitude":12.9716,"longitude":77.5946,"temp":23.6,"humidity":64,"rain":0.0,"pressure":913.1,"uv_index":9.35,"wind_gusts":16.9,"aqi":124,"pm10":35.4,"pm2_5":33.8,"mosquito_risk":3,"arthritis_risk":5,"migraine_risk":7,"frizz_risk":1,"updated_at":"2026-03-16T22:34:55.964107+05:30"},{"city":"Hyderabad","state":"Telangana","latitude":17.385,"longitude":78.4867,"temp":23.8,"humidity":72,"rain":0.0,"pressure":954.5,"uv_index":8.65,"wind_gusts":22.3,"aqi":98,"pm10":41.4,"pm2_5":35.4,"mosquito_risk":3,"arthritis_risk":5,"migraine_risk":7,"frizz_risk":1,"updated_at":"2026-03-16T22:34:55.964117+05:30"},{"city":"Chennai","state":"Tamil Nadu","latitude":13.0827,"longitude":80.2707,"temp":26.6,"humidity":82,"rain":0.0,"pressure":1009.9,"uv_index":9.05,"wind_gusts":31.0,"aqi":38,"pm10":9.1,"pm2_5":6.8,"mosquito_risk":7,"arthritis_risk":0,"migraine_risk":4,"frizz_risk":1,"updated_at":"2026-03-16T22:34:55.964126+05:30"},{"city":"Kolkata","state":"West Bengal","latitude":22.5726,"longitude":88.3639,"temp":25.1,"humidity":89,"rain":0.0,"pressure":1009.1,"uv_index":8.15,"wind_gusts":41.8,"aqi":76,"pm10":21.4,"pm2_5":18.0,"mosquito_risk":7,"arthritis_risk":0,"migraine_risk":4,"frizz_risk":1,"updated_at":"2026-03-16T22:34:55.964136+05:30"},{"city":"Pune","state":"Maharashtra","latitude":18.5204,"longitude":73.8567,"temp":22.7,"humidity":61,"rain":0.0,"pressure":948.9,"uv_index":8.25,"wind_gusts":42.8,"aqi":106,"pm10":47.0,"pm2_5":33.8,"mosquito_risk":3,"arthritis_risk":5,"migraine_risk":7,"frizz_risk":0,"updated_at":"2026-03-16T22:34:55.964149+05:30"},{"city":"Ahmedabad","state":"Gujarat","latitude":23.0225,"longitude":72.5714,"temp":25.7,"humidity":34,"rain":0.0,"pressure":1002.4,"uv_index":7.45,"wind_gusts":28.4,"aqi":62,"pm10":45.4,"pm2_5":27.0,"mosquito_risk":4,"arthritis_risk":5,"migraine_risk":4,"frizz_risk":0,"updated_at":"2026-03-16T22:34:55.964158+05:30"},{"city":"Jaipur","state":"Rajasthan","latitude":26.9124,"longitude":75.7873,"temp":25.5,"humidity":25,"rain":0.0,"pressure":959.3,"uv_index":6.9,"wind_gusts":31.3,"aqi":157,"pm10":79.9,"pm2_5":30.5,"mosquito_risk":4,"arthritis_risk":5,"migraine_risk":7,"frizz_risk":0,"updated_at":"2026-03-16T22:34:55.964166+05:30"},{"city":"Lucknow","state":"Uttar Pradesh","latitude":26.8467,"longitude":80.9462,"temp":24.7,"humidity":54,"rain":0.0,"pressure":994.2,"uv_index":6.65,"wind_gusts":48.6,"aqi":86,"pm10":57.3,"pm2_5":43.3,"mosquito_risk":0,"arthritis_risk":5,"migraine_risk":7,"frizz_risk":0,"updated_at":"2026-03-16T22:34:55.964175+05:30"},{"city":"Kanpur","state":"Uttar Pradesh","latitude":26.4499,"longitude":80.3319,"temp":24.3,"humidity":57,"rain":0.0,"pressure":992.3,"uv_index":6.7,"wind_gusts":35.3,"aqi":112,"pm10":249.6,"pm2_5":56.1,"mosquito_risk":0,"arthritis_risk":5,"migraine_risk":7,"frizz_risk":0,"updated_at":"2026-03-16T22:34:55.964183+05:30"},{"city":"Chandigarh","state":"Chandigarh","latitude":30.7333,"longitude":76.7794,"temp":14.6,"humidity":77,"rain":0.0,"pressure":970.6,"uv_index":5.25,"wind_gusts":43.2,"aqi":66,"pm10":34.8,"pm2_5":25.4,"mosquito_risk":3,"arthritis_risk":5,"migraine_risk":3,"frizz_risk":0,"updated_at":"2026-03-16T22:34:55.964191+05:30"},{"city":"Srinagar","state":"Jammu and Kashmir","latitude":34.0837,"longitude":74.7973,"temp":4.4,"humidity":88,"rain":0.0,"pressure":838.3,"uv_index":5.0,"wind_gusts":21.6,"aqi":57,"pm10":44.7,"pm2_5":43.1,"mosquito_risk":3,"arthritis_risk":10,"migraine_risk":3,"frizz_risk":0,"updated_at":"2026-03-16T22:34:55.964198+05:30"},{"city":"Jammu","state":"Jammu and Kashmir","latitude":32.7266,"longitude":74.857,"temp":15.2,"humidity":75,"rain":0.0,"pressure":976.1,"uv_index":6.5,"wind_gusts":34.2,"aqi":65,"pm10":60.5,"pm2_5":47.3,"mosquito_risk":3,"arthritis_risk":5,"migraine_risk":7,"frizz_risk":0,"updated_at":"2026-03-16T22:34:55.964207+05:30"},{"city":"Amritsar","state":"Punjab","latitude":31.634,"longitude":74.8723,"temp":13.4,"humidity":87,"rain":0.0,"pressure":984.2,"uv_index":6.45,"wind_gusts":34.2,"aqi":79,"pm10":53.1,"pm2_5":35.9,"mosquito_risk":3,"arthritis_risk":10,"migraine_risk":7,"frizz_risk":0,"updated_at":"2026-03-16T22:34:55.964214+05:30"},{"city":"Ludhiana","state":"Punjab","latitude":30.901,"longitude":75.8573,"temp":13.9,"humidity":73,"rain":0.0,"pressure":981.7,"uv_index":6.15,"wind_gusts":42.8,"aqi":81,"pm10":37.4,"pm2_5":23.6,"mosquito_risk":3,"arthritis_risk":5,"migraine_risk":7,"frizz_risk":0,"updated_at":"2026-03-16T22:34:55.964221+05:30"},{"city":"Jalandhar","state":"Punjab","latitude":31.326,"longitude":75.5762,"temp":13.4,"humidity":83,"rain":0.0,"pressure":983.1,"uv_index":6.3,"wind_gusts":43.2,"aqi":72,"pm10":40.4,"pm2_5":23.4,"mosquito_risk":3,"arthritis_risk":10,"migraine_risk":7,"frizz_risk":0,"updated_at":"2026-03-16T22:34:55.964235+05:30"},{"city":"Dehradun","state":"Uttarakhand","latitude":30.6284,"longitude":78.0322,"temp":9.3,"humidity":70,"rain":0.0,"pressure":828.9,"uv_index":5.25,"wind_gusts":31.0,"aqi":63,"pm10":39.2,"pm2_5":11.1,"mosquito_risk":3,"arthritis_risk":5,"migraine_risk":3,"frizz_risk":0,"updated_at":"2026-03-16T22:34:55.964243+05:30"},{"city":"Shimla","state":"Himachal Pradesh","latitude":31.1048,"longitude":77.1734,"temp":7.2,"humidity":58,"rain":0.0,"pressure":781.3,"uv_index":4.4,"wind_gusts":35.6,"aqi":80,"pm10":37.0,"pm2_5":11.8,"mosquito_risk":0,"arthritis_risk":5,"migraine_risk":3,"frizz_risk":1,"updated_at":"2026-03-16T22:34:55.964250+05:30"},{"city":"Manali","state":"Himachal Pradesh","latitude":32.2396,"longitude":77.1887,"temp":6.1,"humidity":68,"rain":0.0,"pressure":815.5,"uv_index":5.2,"wind_gusts":43.2,"aqi":85,"pm10":21.2,"pm2_5":8.1,"mosquito_risk":3,"arthritis_risk":5,"migraine_risk":3,"frizz_risk":0,"updated_at":"2026-03-16T22:34:55.964258+05:30"},{"city":"Gurgaon","state":"Haryana","latitude":28.4595,"longitude":77.0266,"temp":20.4,"humidity":70,"rain":0.0,"pressure":982.6,"uv_index":6.2,"wind_gusts":45.7,"aqi":1772,"pm10":1333.7,"pm2_5":179.3,"mosquito_risk":3,"arthritis_risk":5,"migraine_risk":7,"frizz_risk":0,"updated_at":"2026-03-16T22:34:55.964266+05:30"},{"city":"Noida","state":"Uttar Pradesh","latitude":28.5355,"longitude":77.391,"temp":21.3,"humidity":64,"rain":0.0,"pressure":985.8,"uv_index":6.1,"wind_gusts":42.1,"aqi":1772,"pm10":1333.7,"pm2_5":179.3,"mosquito_risk":3,"arthritis_risk":5,"migraine_risk":7,"frizz_risk":0,"updated_at":"2026-03-16T22:34:55.964273+05:30"},{"city":"Ghaziabad","state":"Uttar Pradesh","latitude":28.6692,"longitude":77.4538,"temp":20.6,"humidity":68,"rain":0.0,"pressure":983.9,"uv_index":6.1,"wind_gusts":45.7,"aqi":113,"pm10":99.4,"pm2_5":37.0,"mosquito_risk":3,"arthritis_risk":5,"migraine_risk":7,"frizz_risk":0,"updated_at":"2026-03-16T22:34:55.964280+05:30"},{"city":"Faridabad","state":"Haryana","latitude":28.4089,"longitude":77.3178,"temp":21.3,"humidity":61,"rain":0.0,"pressure":985.0,"uv_index":6.15,"wind_gusts":41.0,"aqi":1772,"pm10":1333.7,"pm2_5":179.3,"mosquito_risk":3,"arthritis_risk":5,"migraine_risk":7,"frizz_risk":0,"updated_at":"2026-03-16T22:34:55.964305+05:30"},{"city":"Meerut","state":"Uttar Pradesh","latitude":28.9845,"longitude":77.7064,"temp":19.3,"humidity":76,"rain":0.0,"pressure":982.8,"uv_index":6.0,"wind_gusts":53.6,"aqi":113,"pm10":99.4,"pm2_5":37.0,"mosquito_risk":3,"arthritis_risk":5,"migraine_risk":3,"frizz_risk":0,"updated_at":"2026-03-16T22:34:55.964313+05:30"},{"city":"Agra","state":"Uttar Pradesh","latitude":27.1767,"longitude":78.0081,"temp":20.8,"humidity":72,"rain":0.0,"pressure":987.3,"uv_index":6.5,"wind_gusts":34.9,"aqi":885,"pm10":1173.5,"pm2_5":137.4,"mosquito_risk":3,"arthritis_risk":5,"migraine_risk":7,"frizz_risk":0,"updated_at":"2026-03-16T22:34:55.964321+05:30"},{"city":"Varanasi","state":"Uttar Pradesh","latitude":25.3176,"longitude":82.9739,"temp":23.5,"humidity":74,"rain":0.0,"pressure":998.3,"uv_index":7.35,"wind_gusts":29.9,"aqi":149,"pm10":65.2,"pm2_5":52.9,"mosquito_risk":3,"arthritis_risk":5,"migraine_risk":7,"frizz_risk":1,"updated_at":"2026-03-16T22:34:55.964333+05:30"},{"city":"Prayagraj","state":"Uttar Pradesh","latitude":25.4358,"longitude":81.8463,"temp":23.4,"humidity":75,"rain":0.0,"pressure":996.7,"uv_index":7.2,"wind_gusts":33.8,"aqi":128,"pm10":53.6,"pm2_5":44.8,"mosquito_risk":3,"arthritis_risk":5,"migraine_risk":7,"frizz_risk":1,"updated_at":"2026-03-16T22:34:55.964340+05:30"},{"city":"Gorakhpur","state":"Uttar Pradesh","latitude":26.7606,"longitude":83.3732,"temp":23.0,"humidity":50,"rain":0.0,"pressure":998.4,"uv_index":6.85,"wind_gusts":31.3,"aqi":123,"pm10":77.3,"pm2_5":52.5,"mosquito_risk":0,"arthritis_risk":5,"migraine_risk":7,"frizz_risk":0,"updated_at":"2026-03-16T22:34:55.964348+05:30"},{"city":"Bareilly","state":"Uttar Pradesh","latitude":28.367,"longitude":79.4304,"temp":20.8,"humidity":71,"rain":0.0,"pressure":988.1,"uv_index":6.3,"wind_gusts":60.8,"aqi":95,"pm10":99.0,"pm2_5":58.7,"mosquito_risk":3,"arthritis_risk":5,"migraine_risk":7,"frizz_risk":0,"updated_at":"2026-03-16T22:34:55.964358+05:30"},{"city":"Aligarh","state":"Uttar Pradesh","latitude":27.8974,"longitude":78.088,"temp":20.2,"humidity":75,"rain":0.0,"pressure":986.2,"uv_index":6.25,"wind_gusts":37.1,"aqi":563,"pm10":579.3,"pm2_5":68.0,"mosquito_risk":3,"arthritis_risk":5,"migraine_risk":7,"frizz_risk":0,"updated_at":"2026-03-16T22:34:55.964366+05:30"},{"city":"Moradabad","state":"Uttar Pradesh","latitude":28.8386,"longitude":78.7733,"temp":20.2,"humidity":68,"rain":0.0,"pressure":984.9,"uv_index":6.15,"wind_gusts":69.1,"aqi":99,"pm10":85.0,"pm2_5":45.1,"mosquito_risk":3,"arthritis_risk":5,"migraine_risk":7,"frizz_risk":0,"updated_at":"2026-03-16T22:34:55.964373+05:30"},{"city":"Saharanpur","state":"Uttar Pradesh","latitude":29.9637,"longitude":77.546,"temp":18.2,"humidity":70,"rain":0.0,"pressure":977.5,"uv_index":5.7,"wind_gusts":40.7,"aqi":82,"pm10":82.2,"pm2_5":56.8,"mosquito_risk":3,"arthritis_risk":5,"migraine_risk":3,"frizz_risk":0,"updated_at":"2026-03-16T22:34:55.964382+05:30"},{"city":"Jhansi","state":"Uttar Pradesh","latitude":25.4484,"longitude":78.5685,"temp":25.5,"humidity":44,"rain":0.0,"pressure":978.2,"uv_index":7.15,"wind_gusts":27.4,"aqi":89,"pm10":157.9,"pm2_5":45.5,"mosquito_risk":4,"arthritis_risk":5,"migraine_risk":7,"frizz_risk":0,"updated_at":"2026-03-16T22:34:59.185046+05:30"},{"city":"Surat","state":"Gujarat","latitude":21.1702,"longitude":72.8311,"temp":25.5,"humidity":92,"rain":0.0,"pressure":1007.9,"uv_index":7.35,"wind_gusts":28.1,"aqi":99,"pm10":52.0,"pm2_5":31.7,"mosquito_risk":7,"arthritis_risk":5,"migraine_risk":4,"frizz_risk":1,"updated_at":"2026-03-16T22:34:59.185081+05:30"},{"city":"Vadodara","state":"Gujarat","latitude":22.3072,"longitude":73.1812,"temp":26.1,"humidity":70,"rain":0.0,"pressure":1004.9,"uv_index":7.0,"wind_gusts":28.4,"aqi":77,"pm10":51.2,"pm2_5":30.3,"mosquito_risk":7,"arthritis_risk":5,"migraine_risk":4,"frizz_risk":1,"updated_at":"2026-03-16T22:34:59.185091+05:30"},{"city":"Rajkot","state":"Gujarat","latitude":22.3039,"longitude":70.8022,"temp":27.3,"humidity":61,"rain":0.0,"pressure":995.1,"uv_index":7.3,"wind_gusts":25.6,"aqi":64,"pm10":43.7,"pm2_5":20.8,"mosquito_risk":7,"arthritis_risk":5,"migraine_risk":7,"frizz_risk":1,"updated_at":"2026-03-16T22:34:59.185099+05:30"},{"city":"Thane","state":"Maharashtra","latitude":19.2183,"longitude":72.9781,"temp":25.8,"humidity":86,"rain":0.0,"pressure":1009.4,"uv_index":7.7,"wind_gusts":31.3,"aqi":104,"pm10":105.9,"pm2_5":33.1,"mosquito_risk":7,"arthritis_risk":0,"migraine_risk":4,"frizz_risk":1,"updated_at":"2026-03-16T22:34:59.185107+05:30"},{"city":"Nagpur","state":"Maharashtra","latitude":21.1458,"longitude":79.0882,"temp":27.1,"humidity":44,"rain":0.0,"pressure":973.2,"uv_index":7.95,"wind_gusts":20.5,"aqi":105,"pm10":46.8,"pm2_5":38.9,"mosquito_risk":4,"arthritis_risk":5,"migraine_risk":7,"frizz_risk":0,"updated_at":"2026-03-16T22:34:59.185115+05:30"},{"city":"Nashik","state":"Maharashtra","latitude":19.9975,"longitude":73.7898,"temp":22.4,"humidity":69,"rain":0.0,"pressure":946.4,"uv_index":7.9,"wind_gusts":26.6,"aqi":79,"pm10":67.5,"pm2_5":26.8,"mosquito_risk":3,"arthritis_risk":5,"migraine_risk":7,"frizz_risk":1,"updated_at":"2026-03-16T22:34:59.185122+05:30"},{"city":"Aurangabad","state":"Maharashtra","latitude":19.8762,"longitude":75.3433,"temp":25.7,"humidity":38,"rain":0.0,"pressure":944.7,"uv_index":8.45,"wind_gusts":28.8,"aqi":68,"pm10":26.8,"pm2_5":17.9,"mosquito_risk":4,"arthritis_risk":5,"migraine_risk":7,"frizz_risk":0,"updated_at":"2026-03-16T22:34:59.185130+05:30"},{"city":"Solapur","state":"Maharashtra","latitude":17.6599,"longitude":75.9064,"temp":26.2,"humidity":47,"rain":0.0,"pressure":957.0,"uv_index":8.65,"wind_gusts":26.6,"aqi":99,"pm10":47.5,"pm2_5":43.2,"mosquito_risk":4,"arthritis_risk":5,"migraine_risk":7,"frizz_risk":0,"updated_at":"2026-03-16T22:34:59.185139+05:30"},{"city":"Kolhapur","state":"Maharashtra","latitude":16.705,"longitude":74.2433,"temp":21.9,"humidity":75,"rain":0.0,"pressure":948.5,"uv_index":8.75,"wind_gusts":41.0,"aqi":96,"pm10":34.7,"pm2_5":27.7,"mosquito_risk":3,"arthritis_risk":5,"migraine_risk":7,"frizz_risk":1,"updated_at":"2026-03-16T22:34:59.185146+05:30"},{"city":"Goa","state":"Goa","latitude":15.2993,"longitude":74.124,"temp":27.9,"humidity":76,"rain":0.0,"pressure":999.6,"uv_index":8.75,"wind_gusts":33.1,"aqi":90,"pm10":51.3,"pm2_5":28.3,"mosquito_risk":7,"arthritis_risk":5,"migraine_risk":7,"frizz_risk":1,"updated_at":"2026-03-16T22:34:59.185154+05:30"},{"city":"Jodhpur","state":"Rajasthan","latitude":26.2389,"longitude":73.0243,"temp":25.3,"humidity":23,"rain":0.0,"pressure":982.0,"uv_index":7.2,"wind_gusts":34.2,"aqi":105,"pm10":98.0,"pm2_5":23.3,"mosquito_risk":4,"arthritis_risk":5,"migraine_risk":7,"frizz_risk":0,"updated_at":"2026-03-16T22:34:59.185162+05:30"},{"city":"Udaipur","state":"Rajasthan","latitude":24.5854,"longitude":73.7125,"temp":23.9,"humidity":25,"rain":0.0,"pressure":946.6,"uv_index":7.8,"wind_gusts":33.5,"aqi":70,"pm10":28.6,"pm2_5":12.3,"mosquito_risk":0,"arthritis_risk":5,"migraine_risk":7,"frizz_risk":0,"updated_at":"2026-03-16T22:34:59.185170+05:30"},{"city":"Kota","state":"Rajasthan","latitude":25.2138,"longitude":75.8648,"temp":25.5,"humidity":29,"rain":0.0,"pressure":977.8,"uv_index":7.2,"wind_gusts":23.0,"aqi":68,"pm10":92.0,"pm2_5":46.0,"mosquito_risk":4,"arthritis_risk":5,"migraine_risk":7,"frizz_risk":0,"updated_at":"2026-03-16T22:34:59.185177+05:30"},{"city":"Bikaner","state":"Rajasthan","latitude":28.0229,"longitude":73.3119,"temp":24.4,"humidity":37,"rain":0.0,"pressure":982.2,"uv_index":6.9,"wind_gusts":28.4,"aqi":77,"pm10":75.2,"pm2_5":33.1,"mosquito_risk":0,"arthritis_risk":5,"migraine_risk":7,"frizz_risk":0,"updated_at":"2026-03-16T22:34:59.185185+05:30"},{"city":"Ajmer","state":"Rajasthan","latitude":26.4499,"longitude":74.6399,"temp":26.6,"humidity":22,"rain":0.0,"pressure":953.9,"uv_index":7.15,"wind_gusts":32.4,"aqi":63,"pm10":55.8,"pm2_5":23.7,"mosquito_risk":4,"arthritis_risk":5,"migraine_risk":7,"frizz_risk":0,"updated_at":"2026-03-16T22:34:59.185192+05:30"},{"city":"Gwalior","state":"Madhya Pradesh","latitude":26.2183,"longitude":78.1828,"temp":24.3,"humidity":56,"rain":0.0,"pressure":982.9,"uv_index":6.8,"wind_gusts":31.0,"aqi":102,"pm10":93.1,"pm2_5":39.5,"mosquito_risk":0,"arthritis_risk":5,"migraine_risk":7,"frizz_risk":0,"updated_at":"2026-03-16T22:34:59.185199+05:30"},{"city":"Indore","state":"Madhya Pradesh","latitude":22.7196,"longitude":75.8577,"temp":23.8,"humidity":44,"rain":0.0,"pressure":948.3,"uv_index":7.75,"wind_gusts":33.1,"aqi":62,"pm10":41.9,"pm2_5":29.6,"mosquito_risk":0,"arthritis_risk":5,"migraine_risk":7,"frizz_risk":0,"updated_at":"2026-03-16T22:34:59.185206+05:30"},{"city":"Bhopal","state":"Madhya Pradesh","latitude":23.2599,"longitude":77.4126,"temp":25.6,"humidity":38,"rain":0.0,"pressure":953.8,"uv_index":7.65,"wind_gusts":32.4,"aqi":51,"pm10":32.4,"pm2_5":22.6,"mosquito_risk":4,"arthritis_risk":5,"migraine_risk":7,"frizz_risk":0,"updated_at":"2026-03-16T22:34:59.185213+05:30"},{"city":"Jabalpur","state":"Madhya Pradesh","latitude":23.1815,"longitude":79.9864,"temp":26.0,"humidity":39,"rain":0.0,"pressure":961.3,"uv_index":7.8,"wind_gusts":37.4,"aqi":62,"pm10":16.9,"pm2_5":12.7,"mosquito_risk":4,"arthritis_risk":5,"migraine_risk":7,"frizz_risk":0,"updated_at":"2026-03-16T22:34:59.185221+05:30"},{"city":"Ujjain","state":"Madhya Pradesh","latitude":23.1765,"longitude":75.7885,"temp":24.2,"humidity":47,"rain":0.0,"pressure":954.2,"uv_index":7.65,"wind_gusts":32.4,"aqi":61,"pm10":30.9,"pm2_5":22.2,"mosquito_risk":0,"arthritis_risk":5,"migraine_risk":7,"frizz_risk":0,"updated_at":"2026-03-16T22:34:59.185229+05:30"},{"city":"Visakhapatnam","state":"Andhra Pradesh","latitude":17.6868,"longitude":83.2185,"temp":24.7,"humidity":82,"rain":0.0,"pressure":1007.6,"uv_index":8.7,"wind_gusts":40.0,"aqi":57,"pm10":16.6,"pm2_5":14.2,"mosquito_risk":3,"arthritis_risk":5,"migraine_risk":4,"frizz_risk":1,"updated_at":"2026-03-16T22:34:59.185236+05:30"},{"city":"Vijayawada","state":"Andhra Pradesh","latitude":16.5062,"longitude":80.648,"temp":25.1,"humidity":79,"rain":0.0,"pressure":1005.6,"uv_index":8.75,"wind_gusts":26.6,"aqi":46,"pm10":14.3,"pm2_5":13.1,"mosquito_risk":7,"arthritis_risk":5,"migraine_risk":4,"frizz_risk":1,"updated_at":"2026-03-16T22:34:59.185243+05:30"},{"city":"Guntur","state":"Andhra Pradesh","latitude":16.3067,"longitude":80.4365,"temp":24.9,"humidity":82,"rain":0.0,"pressure":1006.7,"uv_index":8.75,"wind_gusts":28.4,"aqi":43,"pm10":12.7,"pm2_5":11.6,"mosquito_risk":3,"arthritis_risk":5,"migraine_risk":4,"frizz_risk":1,"updated_at":"2026-03-16T22:34:59.185251+05:30"},{"city":"Nellore","state":"Andhra Pradesh","latitude":14.4426,"longitude":79.9865,"temp":25.2,"humidity":84,"rain":0.0,"pressure":1008.7,"uv_index":8.95,"wind_gusts":32.4,"aqi":47,"pm10":6.9,"pm2_5":5.0,"mosquito_risk":7,"arthritis_risk":0,"migraine_risk":4,"frizz_risk":1,"updated_at":"2026-03-16T22:34:59.185259+05:30"},{"city":"Kurnool","state":"Andhra Pradesh","latitude":15.8281,"longitude":78.0373,"temp":28.3,"humidity":55,"rain":0.0,"pressure":978.0,"uv_index":8.8,"wind_gusts":26.3,"aqi":93,"pm10":31.4,"pm2_5":27.9,"mosquito_risk":4,"arthritis_risk":5,"migraine_risk":7,"frizz_risk":1,"updated_at":"2026-03-16T22:34:59.185266+05:30"},{"city":"Kakinada","state":"Andhra Pradesh","latitude":16.9891,"longitude":82.2475,"temp":23.5,"humidity":86,"rain":0.0,"pressure":1011.2,"uv_index":8.7,"wind_gusts":31.0,"aqi":37,"pm10":9.9,"pm2_5":7.5,"mosquito_risk":3,"arthritis_risk":0,"migraine_risk":4,"frizz_risk":1,"updated_at":"2026-03-16T22:34:59.185274+05:30"},{"city":"Tirupati","state":"Andhra Pradesh","latitude":13.6288,"longitude":79.4192,"temp":24.8,"humidity":82,"rain":0.0,"pressure":994.4,"uv_index":9.05,"wind_gusts":28.4,"aqi":58,"pm10":19.2,"pm2_5":17.3,"mosquito_risk":3,"arthritis_risk":5,"migraine_risk":7,"frizz_risk":1,"updated_at":"2026-03-16T22:34:59.185281+05:30"},{"city":"Warangal","state":"Telangana","latitude":17.9689,"longitude":79.5941,"temp":26.4,"humidity":71,"rain":0.0,"pressure":980.1,"uv_index":8.5,"wind_gusts":32.0,"aqi":72,"pm10":28.5,"pm2_5":25.2,"mosquito_risk":7,"arthritis_risk":5,"migraine_risk":7,"frizz_risk":1,"updated_at":"2026-03-16T22:34:59.185305+05:30"},{"city":"Nizamabad","state":"Telangana","latitude":18.6725,"longitude":78.0941,"temp":26.7,"humidity":51,"rain":0.0,"pressure":965.5,"uv_index":8.45,"wind_gusts":33.1,"aqi":134,"pm10":53.4,"pm2_5":49.8,"mosquito_risk":4,"arthritis_risk":5,"migraine_risk":7,"frizz_risk":0,"updated_at":"2026-03-16T22:34:59.185313+05:30"},{"city":"Mysore","state":"Karnataka","latitude":12.2958,"longitude":76.6396,"temp":23.2,"humidity":77,"rain":0.0,"pressure":929.7,"uv_index":9.35,"wind_gusts":33.5,"aqi":130,"pm10":45.5,"pm2_5":42.6,"mosquito_risk":3,"arthritis_risk":5,"migraine_risk":7,"frizz_risk":1,"updated_at":"2026-03-16T22:34:59.185320+05:30"},{"city":"Mangalore","state":"Karnataka","latitude":12.9141,"longitude":74.856,"temp":29.2,"humidity":75,"rain":0.0,"pressure":1008.1,"uv_index":9.0,"wind_gusts":23.8,"aqi":102,"pm10":46.0,"pm2_5":35.4,"mosquito_risk":7,"arthritis_risk":0,"migraine_risk":4,"frizz_risk":1,"updated_at":"2026-03-16T22:34:59.185327+05:30"},{"city":"Hubli-Dharwad","state":"Karnataka","latitude":15.3647,"longitude":75.124,"temp":23.7,"humidity":80,"rain":0.0,"pressure":942.1,"uv_index":8.95,"wind_gusts":44.6,"aqi":116,"pm10":39.5,"pm2_5":33.5,"mosquito_risk":3,"arthritis_risk":5,"migraine_risk":7,"frizz_risk":1,"updated_at":"2026-03-16T22:34:59.185334+05:30"},{"city":"Belgaum","state":"Karnataka","latitude":15.8497,"longitude":74.4977,"temp":22.2,"humidity":85,"rain":0.0,"pressure":926.6,"uv_index":9.0,"wind_gusts":37.1,"aqi":84,"pm10":34.6,"pm2_5":23.7,"mosquito_risk":3,"arthritis_risk":5,"migraine_risk":7,"frizz_risk":1,"updated_at":"2026-03-16T22:35:02.426811+05:30"},{"city":"Coimbatore","state":"Tamil Nadu","latitude":11.0168,"longitude":76.9558,"temp":24.5,"humidity":81,"rain":0.0,"pressure":963.6,"uv_index":9.3,"wind_gusts":40.0,"aqi":91,"pm10":43.3,"pm2_5":41.4,"mosquito_risk":3,"arthritis_risk":5,"migraine_risk":7,"frizz_risk":1,"updated_at":"2026-03-16T22:35:02.426843+05:30"},{"city":"Madurai","state":"Tamil Nadu","latitude":9.9252,"longitude":78.1198,"temp":26.0,"humidity":79,"rain":0.0,"pressure":995.6,"uv_index":9.25,"wind_gusts":22.3,"aqi":54,"pm10":11.8,"pm2_5":10.9,"mosquito_risk":7,"arthritis_risk":5,"migraine_risk":7,"frizz_risk":1,"updated_at":"2026-03-16T22:35:02.426854+05:30"},{"city":"Trichy","state":"Tamil Nadu","latitude":10.7905,"longitude":78.7047,"temp":26.5,"humidity":83,"rain":0.0,"pressure":1002.0,"uv_index":9.2,"wind_gusts":22.7,"aqi":59,"pm10":15.0,"pm2_5":13.6,"mosquito_risk":7,"arthritis_risk":5,"migraine_risk":4,"frizz_risk":1,"updated_at":"2026-03-16T22:35:02.426863+05:30"},{"city":"Salem","state":"Tamil Nadu","latitude":11.6643,"longitude":78.146,"temp":27.1,"humidity":70,"rain":0.0,"pressure":978.9,"uv_index":9.25,"wind_gusts":16.6,"aqi":106,"pm10":31.3,"pm2_5":29.8,"mosquito_risk":7,"arthritis_risk":5,"migraine_risk":7,"frizz_risk":1,"updated_at":"2026-03-16T22:35:02.426871+05:30"},{"city":"Tirunelveli","state":"Tamil Nadu","latitude":8.7139,"longitude":77.7567,"temp":26.3,"humidity":78,"rain":0.0,"pressure":1005.6,"uv_index":9.25,"wind_gusts":38.9,"aqi":59,"pm10":20.2,"pm2_5":19.1,"mosquito_risk":7,"arthritis_risk":5,"migraine_risk":4,"frizz_risk":1,"updated_at":"2026-03-16T22:35:02.426879+05:30"},{"city":"Vellore","state":"Tamil Nadu","latitude":12.9165,"longitude":79.1325,"temp":25.1,"humidity":78,"rain":0.0,"pressure":987.0,"uv_index":9.15,"wind_gusts":29.9,"aqi":78,"pm10":23.7,"pm2_5":22.3,"mosquito_risk":7,"arthritis_risk":5,"migraine_risk":7,"frizz_risk":1,"updated_at":"2026-03-16T22:35:02.426887+05:30"},{"city":"Erode","state":"Tamil Nadu","latitude":11.341,"longitude":77.7172,"temp":28.1,"humidity":63,"rain":0.0,"pressure":991.3,"uv_index":9.2,"wind_gusts":23.8,"aqi":70,"pm10":22.8,"pm2_5":21.3,"mosquito_risk":7,"arthritis_risk":5,"migraine_risk":7,"frizz_risk":1,"updated_at":"2026-03-16T22:35:02.426895+05:30"},{"city":"Kochi","state":"Kerala","latitude":9.9312,"longitude":76.2673,"temp":27.9,"humidity":82,"rain":0.0,"pressure":1010.6,"uv_index":9.1,"wind_gusts":32.0,"aqi":80,"pm10":31.9,"pm2_5":30.4,"mosquito_risk":7,"arthritis_risk":0,"migraine_risk":4,"frizz_risk":1,"updated_at":"2026-03-16T22:35:02.426902+05:30"},{"city":"Thiruvananthapuram","state":"Kerala","latitude":8.5241,"longitude":76.9366,"temp":28.1,"humidity":80,"rain":0.0,"pressure":1009.8,"uv_index":9.15,"wind_gusts":28.4,"aqi":82,"pm10":15.7,"pm2_5":13.5,"mosquito_risk":7,"arthritis_risk":0,"migraine_risk":4,"frizz_risk":1,"updated_at":"2026-03-16T22:35:02.426910+05:30"},{"city":"Kozhikode","state":"Kerala","latitude":11.2588,"longitude":75.7804,"temp":28.8,"humidity":79,"rain":0.0,"pressure":1009.3,"uv_index":9.0,"wind_gusts":31.7,"aqi":77,"pm10":34.3,"pm2_5":29.0,"mosquito_risk":7,"arthritis_risk":0,"migraine_risk":4,"frizz_risk":1,"updated_at":"2026-03-16T22:35:02.426917+05:30"},{"city":"Thrissur","state":"Kerala","latitude":10.5276,"longitude":76.2144,"temp":27.4,"humidity":85,"rain":0.0,"pressure":1008.8,"uv_index":9.05,"wind_gusts":35.6,"aqi":80,"pm10":35.7,"pm2_5":33.6,"mosquito_risk":7,"arthritis_risk":0,"migraine_risk":4,"frizz_risk":1,"updated_at":"2026-03-16T22:35:02.426925+05:30"},{"city":"Kannur","state":"Kerala","latitude":11.8745,"longitude":75.3704,"temp":28.8,"humidity":77,"rain":0.0,"pressure":1008.5,"uv_index":8.9,"wind_gusts":29.9,"aqi":91,"pm10":46.9,"pm2_5":41.7,"mosquito_risk":7,"arthritis_risk":0,"migraine_risk":4,"frizz_risk":1,"updated_at":"2026-03-16T22:35:02.426933+05:30"},{"city":"Patna","state":"Bihar","latitude":25.5941,"longitude":85.1376,"temp":26.6,"humidity":64,"rain":0.0,"pressure":1001.0,"uv_index":7.5,"wind_gusts":24.5,"aqi":153,"pm10":87.8,"pm2_5":70.1,"mosquito_risk":7,"arthritis_risk":5,"migraine_risk":4,"frizz_risk":1,"updated_at":"2026-03-16T22:35:02.426940+05:30"},{"city":"Gaya","state":"Bihar","latitude":24.7914,"longitude":85.0002,"temp":25.0,"humidity":63,"rain":0.0,"pressure":994.4,"uv_index":7.25,"wind_gusts":33.5,"aqi":129,"pm10":57.9,"pm2_5":44.2,"mosquito_risk":7,"arthritis_risk":5,"migraine_risk":7,"frizz_risk":1,"updated_at":"2026-03-16T22:35:02.426947+05:30"},{"city":"Muzaffarpur","state":"Bihar","latitude":26.1209,"longitude":85.3647,"temp":24.8,"humidity":63,"rain":0.0,"pressure":1001.3,"uv_index":7.5,"wind_gusts":21.6,"aqi":157,"pm10":92.9,"pm2_5":72.2,"mosquito_risk":3,"arthritis_risk":5,"migraine_risk":4,"frizz_risk":1,"updated_at":"2026-03-16T22:35:02.426954+05:30"},{"city":"Bhagalpur","state":"Bihar","latitude":25.2425,"longitude":87.0117,"temp":24.8,"humidity":78,"rain":0.0,"pressure":1002.2,"uv_index":7.55,"wind_gusts":31.7,"aqi":154,"pm10":62.9,"pm2_5":52.0,"mosquito_risk":3,"arthritis_risk":5,"migraine_risk":4,"frizz_risk":1,"updated_at":"2026-03-16T22:35:02.426961+05:30"},{"city":"Ranchi","state":"Jharkhand","latitude":23.3441,"longitude":85.3096,"temp":21.6,"humidity":72,"rain":0.0,"pressure":938.9,"uv_index":8.0,"wind_gusts":35.3,"aqi":132,"pm10":46.3,"pm2_5":41.1,"mosquito_risk":3,"arthritis_risk":5,"migraine_risk":7,"frizz_risk":1,"updated_at":"2026-03-16T22:35:02.426969+05:30"},{"city":"Jamshedpur","state":"Jharkhand","latitude":22.8046,"longitude":86.2029,"temp":21.4,"humidity":82,"rain":0.0,"pressure":994.0,"uv_index":8.0,"wind_gusts":39.6,"aqi":141,"pm10":64.3,"pm2_5":56.0,"mosquito_risk":3,"arthritis_risk":5,"migraine_risk":7,"frizz_risk":1,"updated_at":"2026-03-16T22:35:02.426977+05:30"},{"city":"Dhanbad","state":"Jharkhand","latitude":23.7957,"longitude":86.4304,"temp":23.0,"humidity":73,"rain":0.0,"pressure":981.4,"uv_index":7.6,"wind_gusts":35.6,"aqi":159,"pm10":93.6,"pm2_5":82.2,"mosquito_risk":3,"arthritis_risk":5,"migraine_risk":7,"frizz_risk":1,"updated_at":"2026-03-16T22:35:02.426984+05:30"},{"city":"Bokaro","state":"Jharkhand","latitude":23.6693,"longitude":86.1511,"temp":23.5,"humidity":74,"rain":0.0,"pressure":985.3,"uv_index":7.8,"wind_gusts":28.4,"aqi":153,"pm10":77.1,"pm2_5":67.5,"mosquito_risk":3,"arthritis_risk":5,"migraine_risk":7,"frizz_risk":1,"updated_at":"2026-03-16T22:35:02.426991+05:30"},{"city":"Bhubaneswar","state":"Odisha","latitude":20.2961,"longitude":85.8245,"temp":25.4,"humidity":87,"rain":0.0,"pressure":1005.4,"uv_index":8.5,"wind_gusts":37.4,"aqi":73,"pm10":17.3,"pm2_5":14.9,"mosquito_risk":7,"arthritis_risk":5,"migraine_risk":4,"frizz_risk":1,"updated_at":"2026-03-16T22:35:02.426999+05:30"},{"city":"Cuttack","state":"Odisha","latitude":20.4625,"longitude":85.8828,"temp":24.8,"humidity":87,"rain":0.0,"pressure":1007.3,"uv_index":8.5,"wind_gusts":39.6,"aqi":73,"pm10":17.3,"pm2_5":14.9,"mosquito_risk":3,"arthritis_risk":5,"migraine_risk":4,"frizz_risk":1,"updated_at":"2026-03-16T22:35:02.427006+05:30"},{"city":"Rourkela","state":"Odisha","latitude":22.2604,"longitude":84.8536,"temp":24.4,"humidity":69,"rain":0.0,"pressure":987.0,"uv_index":8.0,"wind_gusts":42.1,"aqi":150,"pm10":47.8,"pm2_5":42.7,"mosquito_risk":3,"arthritis_risk":5,"migraine_risk":7,"frizz_risk":1,"updated_at":"2026-03-16T22:35:02.427012+05:30"},{"city":"Raipur","state":"Chhattisgarh","latitude":21.2514,"longitude":81.6296,"temp":27.0,"humidity":51,"rain":0.0,"pressure":975.1,"uv_index":8.2,"wind_gusts":36.0,"aqi":131,"pm10":47.0,"pm2_5":43.8,"mosquito_risk":4,"arthritis_risk":5,"migraine_risk":7,"frizz_risk":0,"updated_at":"2026-03-16T22:35:02.427019+05:30"},{"city":"Bhilai","state":"Chhattisgarh","latitude":21.1938,"longitude":81.3509,"temp":26.1,"humidity":54,"rain":0.0,"pressure":975.3,"uv_index":8.2,"wind_gusts":34.2,"aqi":126,"pm10":50.2,"pm2_5":46.8,"mosquito_risk":4,"arthritis_risk":5,"migraine_risk":7,"frizz_risk":1,"updated_at":"2026-03-16T22:35:02.427026+05:30"},{"city":"Guwahati","state":"Assam","latitude":26.1158,"longitude":91.7086,"temp":23.2,"humidity":82,"rain":0.0,"pressure":1002.9,"uv_index":7.2,"wind_gusts":42.5,"aqi":79,"pm10":28.1,"pm2_5":25.7,"mosquito_risk":3,"arthritis_risk":5,"migraine_risk":4,"frizz_risk":1,"updated_at":"2026-03-16T22:35:02.427033+05:30"},{"city":"Agartala","state":"Tripura","latitude":23.8315,"longitude":91.2868,"temp":22.1,"humidity":93,"rain":0.0,"pressure":1009.2,"uv_index":5.55,"wind_gusts":31.7,"aqi":69,"pm10":30.0,"pm2_5":26.3,"mosquito_risk":3,"arthritis_risk":0,"migraine_risk":0,"frizz_risk":1,"updated_at":"2026-03-16T22:35:02.427041+05:30"},{"city":"Shillong","state":"Meghalaya","latitude":25.5788,"longitude":91.8933,"temp":13.1,"humidity":94,"rain":0.0,"pressure":855.5,"uv_index":7.85,"wind_gusts":74.2,"aqi":52,"pm10":13.3,"pm2_5":11.8,"mosquito_risk":3,"arthritis_risk":10,"migraine_risk":7,"frizz_risk":0,"updated_at":"2026-03-16T22:35:02.427048+05:30"},{"city":"Imphal","state":"Manipur","latitude":24.817,"longitude":93.9368,"temp":16.4,"humidity":82,"rain":0.0,"pressure":925.2,"uv_index":8.2,"wind_gusts":70.2,"aqi":85,"pm10":44.6,"pm2_5":38.5,"mosquito_risk":3,"arthritis_risk":10,"migraine_risk":7,"frizz_risk":0,"updated_at":"2026-03-16T22:35:02.427055+05:30"},{"city":"Aizawl","state":"Mizoram","latitude":23.7271,"longitude":92.7176,"temp":17.5,"humidity":81,"rain":0.0,"pressure":895.3,"uv_index":8.05,"wind_gusts":51.8,"aqi":91,"pm10":51.2,"pm2_5":41.7,"mosquito_risk":3,"arthritis_risk":10,"migraine_risk":7,"frizz_risk":0,"updated_at":"2026-03-16T22:35:02.427062+05:30"},{"city":"Kohima","state":"Nagaland","latitude":25.6701,"longitude":94.1077,"temp":15.1,"humidity":70,"rain":0.0,"pressure":855.2,"uv_index":7.9,"wind_gusts":110.5,"aqi":71,"pm10":34.3,"pm2_5":28.3,"mosquito_risk":3,"arthritis_risk":5,"migraine_risk":7,"frizz_risk":0,"updated_at":"2026-03-16T22:35:02.427070+05:30"},{"city":"Gangtok","state":"Sikkim","latitude":27.3314,"longitude":88.6138,"temp":10.7,"humidity":76,"rain":0.0,"pressure":835.7,"uv_index":7.85,"wind_gusts":18.7,"aqi":78,"pm10":41.0,"pm2_5":25.7,"mosquito_risk":3,"arthritis_risk":5,"migraine_risk":7,"frizz_risk":0,"updated_at":"2026-03-16T22:35:02.427077+05:30"},{"city":"Siliguri","state":"West Bengal","latitude":26.7271,"longitude":88.3953,"temp":19.2,"humidity":82,"rain":0.0,"pressure":995.8,"uv_index":7.5,"wind_gusts":27.0,"aqi":121,"pm10":64.3,"pm2_5":47.5,"mosquito_risk":3,"arthritis_risk":10,"migraine_risk":7,"frizz_risk":0,"updated_at":"2026-03-16T22:35:05.648695+05:30"},{"city":"Durgapur","state":"West Bengal","latitude":23.5204,"longitude":87.3119,"temp":23.7,"humidity":79,"rain":0.0,"pressure":997.1,"uv_index":7.75,"wind_gusts":41.4,"aqi":153,"pm10":68.2,"pm2_5":59.8,"mosquito_risk":3,"arthritis_risk":5,"migraine_risk":7,"frizz_risk":1,"updated_at":"2026-03-16T22:35:05.648731+05:30"},{"city":"Asansol","state":"West Bengal","latitude":23.6739,"longitude":86.9524,"temp":24.0,"humidity":75,"rain":0.0,"pressure":995.6,"uv_index":7.75,"wind_gusts":46.1,"aqi":153,"pm10":72.4,"pm2_5":61.5,"mosquito_risk":3,"arthritis_risk":5,"migraine_risk":7,"frizz_risk":1,"updated_at":"2026-03-16T22:35:05.648742+05:30"},{"city":"Pondicherry","state":"Puducherry","latitude":11.9139,"longitude":79.8145,"temp":25.2,"humidity":90,"rain":0.0,"pressure":1010.8,"uv_index":9.05,"wind_gusts":32.4,"aqi":33,"pm10":9.1,"pm2_5":6.3,"mosquito_risk":7,"arthritis_risk":0,"migraine_risk":4,"frizz_risk":1,"updated_at":"2026-03-16T22:35:05.648752+05:30"},{"city":"Port Blair","state":"Andaman and Nicobar Islands","latitude":11.6234,"longitude":92.7265,"temp":27.8,"humidity":80,"rain":0.0,"pressure":1009.5,"uv_index":9.0,"wind_gusts":20.2,"aqi":66,"pm10":14.5,"pm2_5":12.3,"mosquito_risk":7,"arthritis_risk":0,"migraine_risk":4,"frizz_risk":1,"updated_at":"2026-03-16T22:35:05.648762+05:30"},{"city":"Haridwar","state":"Uttarakhand","latitude":29.9457,"longitude":78.1642,"temp":18.1,"humidity":66,"rain":0.0,"pressure":976.2,"uv_index":5.85,"wind_gusts":51.8,"aqi":66,"pm10":40.4,"pm2_5":30.6,"mosquito_risk":3,"arthritis_risk":5,"migraine_risk":3,"frizz_risk":0,"updated_at":"2026-03-16T22:35:05.648772+05:30"},{"city":"Rishikesh","state":"Uttarakhand","latitude":30.0869,"longitude":78.2676,"temp":17.5,"humidity":64,"rain":0.0,"pressure":968.8,"uv_index":5.9,"wind_gusts":32.4,"aqi":76,"pm10":31.8,"pm2_5":15.5,"mosquito_risk":3,"arthritis_risk":5,"migraine_risk":3,"frizz_risk":0,"updated_at":"2026-03-16T22:35:05.648781+05:30"},{"city":"Nainital","state":"Uttarakhand","latitude":29.3919,"longitude":79.4542,"temp":15.4,"humidity":50,"rain":0.0,"pressure":805.7,"uv_index":6.75,"wind_gusts":68.8,"aqi":62,"pm10":36.6,"pm2_5":24.3,"mosquito_risk":0,"arthritis_risk":5,"migraine_risk":7,"frizz_risk":0,"updated_at":"2026-03-16T22:35:05.648790+05:30"},{"city":"Mussoorie","state":"Uttarakhand","latitude":30.4599,"longitude":78.0664,"temp":11.6,"humidity":56,"rain":0.0,"pressure":801.6,"uv_index":5.3,"wind_gusts":31.7,"aqi":58,"pm10":43.7,"pm2_5":25.8,"mosquito_risk":0,"arthritis_risk":5,"migraine_risk":3,"frizz_risk":0,"updated_at":"2026-03-16T22:35:05.648799+05:30"},{"city":"Dharamshala","state":"Himachal Pradesh","latitude":32.219,"longitude":76.3234,"temp":12.8,"humidity":47,"rain":0.0,"pressure":868.3,"uv_index":4.9,"wind_gusts":37.8,"aqi":73,"pm10":20.0,"pm2_5":10.2,"mosquito_risk":0,"arthritis_risk":5,"migraine_risk":3,"frizz_risk":0,"updated_at":"2026-03-16T22:35:05.648808+05:30"},{"city":"Dalhousie","state":"Himachal Pradesh","latitude":32.5387,"longitude":75.971,"temp":9.4,"humidity":55,"rain":0.0,"pressure":801.3,"uv_index":5.2,"wind_gusts":26.3,"aqi":59,"pm10":34.3,"pm2_5":22.2,"mosquito_risk":0,"arthritis_risk":5,"migraine_risk":3,"frizz_risk":0,"updated_at":"2026-03-16T22:35:05.648817+05:30"},{"city":"Patiala","state":"Punjab","latitude":30.3398,"longitude":76.3869,"temp":14.1,"humidity":82,"rain":0.0,"pressure":980.6,"uv_index":5.8,"wind_gusts":52.6,"aqi":74,"pm10":41.3,"pm2_5":27.5,"mosquito_risk":3,"arthritis_risk":10,"migraine_risk":3,"frizz_risk":0,"updated_at":"2026-03-16T22:35:05.648826+05:30"},{"city":"Bhatinda","state":"Punjab","latitude":30.211,"longitude":74.9455,"temp":15.2,"humidity":78,"rain":0.0,"pressure":986.9,"uv_index":6.55,"wind_gusts":36.0,"aqi":86,"pm10":49.1,"pm2_5":29.8,"mosquito_risk":3,"arthritis_risk":5,"migraine_risk":7,"frizz_risk":0,"updated_at":"2026-03-16T22:35:05.648834+05:30"},{"city":"Rohtak","state":"Haryana","latitude":28.8955,"longitude":76.6066,"temp":19.2,"humidity":74,"rain":0.0,"pressure":983.6,"uv_index":6.15,"wind_gusts":48.2,"aqi":682,"pm10":450.8,"pm2_5":90.6,"mosquito_risk":3,"arthritis_risk":5,"migraine_risk":7,"frizz_risk":0,"updated_at":"2026-03-16T22:35:05.648842+05:30"},{"city":"Panipat","state":"Haryana","latitude":29.3909,"longitude":76.9635,"temp":18.0,"humidity":78,"rain":0.0,"pressure":982.4,"uv_index":5.9,"wind_gusts":41.4,"aqi":284,"pm10":257.0,"pm2_5":69.8,"mosquito_risk":3,"arthritis_risk":5,"migraine_risk":3,"frizz_risk":0,"updated_at":"2026-03-16T22:35:05.648850+05:30"},{"city":"Mathura","state":"Uttar Pradesh","latitude":27.4924,"longitude":77.6737,"temp":20.3,"humidity":67,"rain":0.0,"pressure":986.9,"uv_index":6.4,"wind_gusts":34.2,"aqi":983,"pm10":1523.6,"pm2_5":175.6,"mosquito_risk":3,"arthritis_risk":5,"migraine_risk":7,"frizz_risk":0,"updated_at":"2026-03-16T22:35:05.648858+05:30"},{"city":"Vrindavan","state":"Uttar Pradesh","latitude":27.5823,"longitude":77.7027,"temp":20.6,"humidity":68,"rain":0.0,"pressure":987.6,"uv_index":6.35,"wind_gusts":37.1,"aqi":983,"pm10":1523.6,"pm2_5":175.6,"mosquito_risk":3,"arthritis_risk":5,"migraine_risk":7,"frizz_risk":0,"updated_at":"2026-03-16T22:35:05.648866+05:30"},{"city":"Ayodhya","state":"Uttar Pradesh","latitude":26.7922,"longitude":82.1998,"temp":23.2,"humidity":54,"rain":0.0,"pressure":996.5,"uv_index":6.75,"wind_gusts":33.1,"aqi":102,"pm10":77.8,"pm2_5":53.0,"mosquito_risk":0,"arthritis_risk":5,"migraine_risk":7,"frizz_risk":0,"updated_at":"2026-03-16T22:35:05.648874+05:30"},{"city":"Ratlam","state":"Madhya Pradesh","latitude":23.3315,"longitude":75.0367,"temp":26.7,"humidity":45,"rain":0.0,"pressure":954.9,"uv_index":7.55,"wind_gusts":34.2,"aqi":69,"pm10":28.3,"pm2_5":18.5,"mosquito_risk":4,"arthritis_risk":5,"migraine_risk":7,"frizz_risk":0,"updated_at":"2026-03-16T22:35:05.648882+05:30"},{"city":"Sagar","state":"Madhya Pradesh","latitude":23.8388,"longitude":78.7378,"temp":25.8,"humidity":37,"rain":0.0,"pressure":950.2,"uv_index":7.6,"wind_gusts":29.2,"aqi":61,"pm10":19.7,"pm2_5":10.3,"mosquito_risk":4,"arthritis_risk":5,"migraine_risk":7,"frizz_risk":0,"updated_at":"2026-03-16T22:35:05.648891+05:30"},{"city":"Satna","state":"Madhya Pradesh","latitude":24.6005,"longitude":80.8322,"temp":25.1,"humidity":66,"rain":0.0,"pressure":971.9,"uv_index":7.6,"wind_gusts":38.9,"aqi":83,"pm10":39.2,"pm2_5":25.4,"mosquito_risk":7,"arthritis_risk":5,"migraine_risk":7,"frizz_risk":1,"updated_at":"2026-03-16T22:35:05.648898+05:30"},{"city":"Akola","state":"Maharashtra","latitude":20.7002,"longitude":77.0082,"temp":27.8,"humidity":37,"rain":0.0,"pressure":975.2,"uv_index":8.1,"wind_gusts":23.4,"aqi":85,"pm10":42.4,"pm2_5":28.1,"mosquito_risk":4,"arthritis_risk":5,"migraine_risk":7,"frizz_risk":0,"updated_at":"2026-03-16T22:35:05.648907+05:30"},{"city":"Amravati","state":"Maharashtra","latitude":20.9374,"longitude":77.7796,"temp":26.6,"humidity":43,"rain":0.0,"pressure":966.9,"uv_index":8.05,"wind_gusts":31.0,"aqi":83,"pm10":43.8,"pm2_5":31.0,"mosquito_risk":4,"arthritis_risk":5,"migraine_risk":7,"frizz_risk":0,"updated_at":"2026-03-16T22:35:05.648915+05:30"},{"city":"Latur","state":"Maharashtra","latitude":18.4088,"longitude":76.5604,"temp":23.4,"humidity":58,"rain":0.0,"pressure":939.9,"uv_index":8.55,"wind_gusts":24.5,"aqi":94,"pm10":44.4,"pm2_5":39.8,"mosquito_risk":0,"arthritis_risk":5,"migraine_risk":7,"frizz_risk":0,"updated_at":"2026-03-16T22:35:05.648923+05:30"},{"city":"Nanded","state":"Maharashtra","latitude":19.1383,"longitude":77.3091,"temp":26.8,"humidity":53,"rain":0.0,"pressure":969.0,"uv_index":8.35,"wind_gusts":19.8,"aqi":106,"pm10":58.0,"pm2_5":52.7,"mosquito_risk":4,"arthritis_risk":5,"migraine_risk":7,"frizz_risk":1,"updated_at":"2026-03-16T22:35:05.648931+05:30"},{"city":"Gulbarga","state":"Karnataka","latitude":17.3297,"longitude":76.8343,"temp":26.8,"humidity":50,"rain":0.0,"pressure":959.6,"uv_index":8.65,"wind_gusts":31.0,"aqi":140,"pm10":42.7,"pm2_5":38.8,"mosquito_risk":4,"arthritis_risk":5,"migraine_risk":7,"frizz_risk":0,"updated_at":"2026-03-16T22:35:05.648939+05:30"},{"city":"Bidar","state":"Karnataka","latitude":17.9104,"longitude":77.5199,"temp":24.4,"humidity":60,"rain":0.0,"pressure":936.1,"uv_index":8.6,"wind_gusts":37.1,"aqi":134,"pm10":50.5,"pm2_5":46.0,"mosquito_risk":0,"arthritis_risk":5,"migraine_risk":7,"frizz_risk":1,"updated_at":"2026-03-16T22:35:05.648946+05:30"},{"city":"Hospet","state":"Karnataka","latitude":15.2689,"longitude":76.3909,"temp":25.7,"humidity":69,"rain":0.0,"pressure":957.5,"uv_index":8.9,"wind_gusts":36.0,"aqi":154,"pm10":46.4,"pm2_5":42.4,"mosquito_risk":7,"arthritis_risk":5,"migraine_risk":7,"frizz_risk":1,"updated_at":"2026-03-16T22:35:05.648953+05:30"},{"city":"Tirupur","state":"Tamil Nadu","latitude":11.1085,"longitude":77.3411,"temp":27.2,"humidity":70,"rain":0.0,"pressure":977.0,"uv_index":9.3,"wind_gusts":27.0,"aqi":70,"pm10":35.6,"pm2_5":33.8,"mosquito_risk":7,"arthritis_risk":5,"migraine_risk":7,"frizz_risk":1,"updated_at":"2026-03-16T22:35:05.648961+05:30"},{"city":"Alappuzha","state":"Kerala","latitude":9.4981,"longitude":76.3388,"temp":27.4,"humidity":83,"rain":0.0,"pressure":1010.8,"uv_index":9.1,"wind_gusts":30.2,"aqi":79,"pm10":29.7,"pm2_5":27.4,"mosquito_risk":7,"arthritis_risk":0,"migraine_risk":4,"frizz_risk":1,"updated_at":"2026-03-16T22:35:05.648968+05:30"},{"city":"Munnar","state":"Kerala","latitude":10.0889,"longitude":77.0595,"temp":20.1,"humidity":92,"rain":0.0,"pressure":858.0,"uv_index":9.6,"wind_gusts":33.1,"aqi":73,"pm10":30.5,"pm2_5":29.2,"mosquito_risk":3,"arthritis_risk":5,"migraine_risk":7,"frizz_risk":1,"updated_at":"2026-03-16T22:35:05.648976+05:30"},{"city":"Silchar","state":"Assam","latitude":24.8333,"longitude":92.7789,"temp":19.9,"humidity":90,"rain":0.0,"pressure":1009.4,"uv_index":7.85,"wind_gusts":48.6,"aqi":68,"pm10":29.7,"pm2_5":25.4,"mosquito_risk":3,"arthritis_risk":5,"migraine_risk":4,"frizz_risk":1,"updated_at":"2026-03-16T22:35:05.648983+05:30"},{"city":"Dibrugarh","state":"Assam","latitude":27.4728,"longitude":94.912,"temp":18.5,"humidity":93,"rain":0.0,"pressure":998.0,"uv_index":3.25,"wind_gusts":40.7,"aqi":79,"pm10":35.6,"pm2_5":31.0,"mosquito_risk":3,"arthritis_risk":10,"migraine_risk":3,"frizz_risk":1,"updated_at":"2026-03-16T22:35:05.648991+05:30"}]