[{"city":"Delhi","state":"Delhi","latitude":28.6139,"longitude":77.209,"temp":22.7,"humidity":58,"rain":0.0,"pressure":985.1,"uv_index":6.15,"wind_gusts":48.6,"aqi":197,"pm10":327.8,"pm2_5":90.6,"mosquito_risk":0,"arthritis_risk":5,"migraine_risk":7,"frizz_risk":0,"updated_at":"2026-04-07T08:11:43.114518+05:30"},{"city":"Mumbai","state":"Maharashtra","latitude":19.076,"longitude":72.8777,"temp":27.5,"humidity":69,"rain":0.0,"pressure":1011.6,"uv_index":7.95,"wind_gusts":19.8,"aqi":63,"pm10":34.9,"pm2_5":21.4,"mosquito_risk":7,"arthritis_risk":0,"migraine_risk":4,"frizz_risk":1,"updated_at":"2026-04-07T08:11:43.114565+05:30"},{"city":"Bangalore","state":"Karnataka","latitude":12.9716,"longitude":77.5946,"temp":23.0,"humidity":75,"rain":0.0,"pressure":914.0,"uv_index":9.65,"wind_gusts":26.3,"aqi":58,"pm10":27.0,"pm2_5":25.3,"mosquito_risk":3,"arthritis_risk":5,"migraine_risk":7,"frizz_risk":1,"updated_at":"2026-04-07T08:11:43.114581+05:30"},{"city":"Hyderabad","state":"Telangana","latitude":17.385,"longitude":78.4867,"temp":26.9,"humidity":37,"rain":0.0,"pressure":955.5,"uv_index":9.15,"wind_gusts":32.4,"aqi":67,"pm10":37.3,"pm2_5":36.1,"mosquito_risk":4,"arthritis_risk":5,"migraine_risk":7,"frizz_risk":0,"updated_at":"2026-04-07T08:11:43.114591+05:30"},{"city":"Chennai","state":"Tamil Nadu","latitude":13.0827,"longitude":80.2707,"temp":29.3,"humidity":81,"rain":0.0,"pressure":1009.0,"uv_index":9.35,"wind_gusts":37.4,"aqi":71,"pm10":33.1,"pm2_5":27.0,"mosquito_risk":7,"arthritis_risk":0,"migraine_risk":4,"frizz_risk":1,"updated_at":"2026-04-07T08:11:43.114599+05:30"},{"city":"Kolkata","state":"West Bengal","latitude":22.5726,"longitude":88.3639,"temp":24.0,"humidity":91,"rain":0.0,"pressure":1009.3,"uv_index":8.55,"wind_gusts":24.5,"aqi":153,"pm10":47.0,"pm2_5":44.9,"mosquito_risk":3,"arthritis_risk":0,"migraine_risk":4,"frizz_risk":1,"updated_at":"2026-04-07T08:11:43.114608+05:30"},{"city":"Pune","state":"Maharashtra","latitude":18.5204,"longitude":73.8567,"temp":21.8,"humidity":80,"rain":0.0,"pressure":950.7,"uv_index":8.55,"wind_gusts":40.0,"aqi":69,"pm10":41.2,"pm2_5":35.9,"mosquito_risk":3,"arthritis_risk":5,"migraine_risk":7,"frizz_risk":1,"updated_at":"2026-04-07T08:11:43.114617+05:30"},{"city":"Ahmedabad","state":"Gujarat","latitude":23.0225,"longitude":72.5714,"temp":24.8,"humidity":73,"rain":0.0,"pressure":1004.8,"uv_index":7.95,"wind_gusts":42.8,"aqi":51,"pm10":29.4,"pm2_5":16.2,"mosquito_risk":3,"arthritis_risk":5,"migraine_risk":4,"frizz_risk":1,"updated_at":"2026-04-07T08:11:43.114625+05:30"},{"city":"Jaipur","state":"Rajasthan","latitude":26.9124,"longitude":75.7873,"temp":22.5,"humidity":59,"rain":0.0,"pressure":960.7,"uv_index":5.05,"wind_gusts":43.9,"aqi":120,"pm10":103.4,"pm2_5":24.9,"mosquito_risk":0,"arthritis_risk":5,"migraine_risk":3,"frizz_risk":0,"updated_at":"2026-04-07T08:11:43.114631+05:30"},{"city":"Lucknow","state":"Uttar Pradesh","latitude":26.8467,"longitude":80.9462,"temp":23.4,"humidity":59,"rain":0.0,"pressure":996.6,"uv_index":7.45,"wind_gusts":26.6,"aqi":120,"pm10":154.6,"pm2_5":63.6,"mosquito_risk":0,"arthritis_risk":5,"migraine_risk":7,"frizz_risk":0,"updated_at":"2026-04-07T08:11:43.114638+05:30"},{"city":"Kanpur","state":"Uttar Pradesh","latitude":26.4499,"longitude":80.3319,"temp":22.8,"humidity":69,"rain":0.0,"pressure":994.4,"uv_index":6.85,"wind_gusts":29.5,"aqi":156,"pm10":267.3,"pm2_5":78.7,"mosquito_risk":3,"arthritis_risk":5,"migraine_risk":7,"frizz_risk":1,"updated_at":"2026-04-07T08:11:43.114645+05:30"},{"city":"Chandigarh","state":"Chandigarh","latitude":30.7333,"longitude":76.7794,"temp":21.1,"humidity":59,"rain":0.0,"pressure":969.7,"uv_index":6.5,"wind_gusts":56.9,"aqi":53,"pm10":15.5,"pm2_5":11.6,"mosquito_risk":0,"arthritis_risk":5,"migraine_risk":7,"frizz_risk":0,"updated_at":"2026-04-07T08:11:43.114651+05:30"},{"city":"Srinagar","state":"Jammu and Kashmir","latitude":34.0837,"longitude":74.7973,"temp":8.7,"humidity":87,"rain":0.0,"pressure":837.9,"uv_index":7.55,"wind_gusts":32.8,"aqi":82,"pm10":24.2,"pm2_5":21.5,"mosquito_risk":3,"arthritis_risk":10,"migraine_risk":7,"frizz_risk":0,"updated_at":"2026-04-07T08:11:43.114657+05:30"},{"city":"Jammu","state":"Jammu and Kashmir","latitude":32.7266,"longitude":74.857,"temp":22.8,"humidity":44,"rain":0.0,"pressure":971.6,"uv_index":7.25,"wind_gusts":49.0,"aqi":67,"pm10":24.1,"pm2_5":22.3,"mosquito_risk":0,"arthritis_risk":5,"migraine_risk":7,"frizz_risk":0,"updated_at":"2026-04-07T08:11:43.114664+05:30"},{"city":"Amritsar","state":"Punjab","latitude":31.634,"longitude":74.8723,"temp":20.8,"humidity":64,"rain":0.0,"pressure":979.9,"uv_index":4.6,"wind_gusts":54.7,"aqi":80,"pm10":37.3,"pm2_5":35.0,"mosquito_risk":3,"arthritis_risk":5,"migraine_risk":3,"frizz_risk":0,"updated_at":"2026-04-07T08:11:43.114670+05:30"},{"city":"Ludhiana","state":"Punjab","latitude":30.901,"longitude":75.8573,"temp":21.5,"humidity":61,"rain":0.0,"pressure":979.2,"uv_index":4.9,"wind_gusts":56.5,"aqi":97,"pm10":57.9,"pm2_5":40.0,"mosquito_risk":3,"arthritis_risk":5,"migraine_risk":3,"frizz_risk":0,"updated_at":"2026-04-07T08:11:43.114676+05:30"},{"city":"Jalandhar","state":"Punjab","latitude":31.326,"longitude":75.5762,"temp":21.2,"humidity":61,"rain":0.0,"pressure":980.0,"uv_index":6.0,"wind_gusts":63.7,"aqi":86,"pm10":59.3,"pm2_5":38.2,"mosquito_risk":3,"arthritis_risk":5,"migraine_risk":3,"frizz_risk":0,"updated_at":"2026-04-07T08:11:43.114683+05:30"},{"city":"Dehradun","state":"Uttarakhand","latitude":30.6284,"longitude":78.0322,"temp":12.6,"humidity":61,"rain":0.0,"pressure":829.8,"uv_index":6.7,"wind_gusts":41.0,"aqi":37,"pm10":5.6,"pm2_5":4.1,"mosquito_risk":3,"arthritis_risk":5,"migraine_risk":7,"frizz_risk":0,"updated_at":"2026-04-07T08:11:43.114688+05:30"},{"city":"Shimla","state":"Himachal Pradesh","latitude":31.1048,"longitude":77.1734,"temp":12.5,"humidity":56,"rain":0.0,"pressure":783.5,"uv_index":6.7,"wind_gusts":60.5,"aqi":49,"pm10":9.3,"pm2_5":8.0,"mosquito_risk":0,"arthritis_risk":5,"migraine_risk":7,"frizz_risk":0,"updated_at":"2026-04-07T08:11:43.114694+05:30"},{"city":"Manali","state":"Himachal Pradesh","latitude":32.2396,"longitude":77.1887,"temp":12.6,"humidity":54,"rain":0.0,"pressure":816.9,"uv_index":9.35,"wind_gusts":31.0,"aqi":82,"pm10":3.7,"pm2_5":2.6,"mosquito_risk":0,"arthritis_risk":5,"migraine_risk":7,"frizz_risk":0,"updated_at":"2026-04-07T08:11:43.114700+05:30"},{"city":"Gurgaon","state":"Haryana","latitude":28.4595,"longitude":77.0266,"temp":23.1,"humidity":56,"rain":0.0,"pressure":982.9,"uv_index":5.15,"wind_gusts":44.6,"aqi":492,"pm10":270.1,"pm2_5":70.8,"mosquito_risk":0,"arthritis_risk":5,"migraine_risk":3,"frizz_risk":0,"updated_at":"2026-04-07T08:11:43.114706+05:30"},{"city":"Noida","state":"Uttar Pradesh","latitude":28.5355,"longitude":77.391,"temp":22.6,"humidity":61,"rain":0.0,"pressure":986.7,"uv_index":6.2,"wind_gusts":44.3,"aqi":492,"pm10":270.1,"pm2_5":70.8,"mosquito_risk":3,"arthritis_risk":5,"migraine_risk":7,"frizz_risk":0,"updated_at":"2026-04-07T08:11:43.114711+05:30"},{"city":"Ghaziabad","state":"Uttar Pradesh","latitude":28.6692,"longitude":77.4538,"temp":21.5,"humidity":66,"rain":0.0,"pressure":984.6,"uv_index":6.2,"wind_gusts":45.0,"aqi":154,"pm10":251.5,"pm2_5":83.4,"mosquito_risk":3,"arthritis_risk":5,"migraine_risk":7,"frizz_risk":0,"updated_at":"2026-04-07T08:11:43.114717+05:30"},{"city":"Faridabad","state":"Haryana","latitude":28.4089,"longitude":77.3178,"temp":22.8,"humidity":58,"rain":0.0,"pressure":985.7,"uv_index":5.55,"wind_gusts":43.6,"aqi":492,"pm10":270.1,"pm2_5":70.8,"mosquito_risk":0,"arthritis_risk":5,"migraine_risk":3,"frizz_risk":0,"updated_at":"2026-04-07T08:11:43.114722+05:30"},{"city":"Meerut","state":"Uttar Pradesh","latitude":28.9845,"longitude":77.7064,"temp":21.7,"humidity":67,"rain":0.0,"pressure":983.3,"uv_index":6.2,"wind_gusts":39.6,"aqi":154,"pm10":251.5,"pm2_5":83.4,"mosquito_risk":3,"arthritis_risk":5,"migraine_risk":7,"frizz_risk":0,"updated_at":"2026-04-07T08:11:43.114728+05:30"},{"city":"Agra","state":"Uttar Pradesh","latitude":27.1767,"longitude":78.0081,"temp":22.8,"humidity":65,"rain":0.0,"pressure":989.9,"uv_index":5.9,"wind_gusts":40.0,"aqi":305,"pm10":733.9,"pm2_5":88.5,"mosquito_risk":3,"arthritis_risk":5,"migraine_risk":3,"frizz_risk":0,"updated_at":"2026-04-07T08:11:43.114735+05:30"},{"city":"Varanasi","state":"Uttar Pradesh","latitude":25.3176,"longitude":82.9739,"temp":24.6,"humidity":61,"rain":0.0,"pressure":1000.3,"uv_index":8.05,"wind_gusts":23.4,"aqi":79,"pm10":61.7,"pm2_5":39.5,"mosquito_risk":3,"arthritis_risk":5,"migraine_risk":4,"frizz_risk":1,"updated_at":"2026-04-07T08:11:43.114742+05:30"},{"city":"Prayagraj","state":"Uttar Pradesh","latitude":25.4358,"longitude":81.8463,"temp":24.7,"humidity":58,"rain":0.0,"pressure":999.1,"uv_index":7.95,"wind_gusts":18.7,"aqi":88,"pm10":145.8,"pm2_5":43.7,"mosquito_risk":0,"arthritis_risk":5,"migraine_risk":7,"frizz_risk":0,"updated_at":"2026-04-07T08:11:43.114748+05:30"},{"city":"Gorakhpur","state":"Uttar Pradesh","latitude":26.7606,"longitude":83.3732,"temp":25.2,"humidity":52,"rain":0.0,"pressure":1000.0,"uv_index":7.85,"wind_gusts":24.1,"aqi":68,"pm10":27.1,"pm2_5":24.3,"mosquito_risk":4,"arthritis_risk":5,"migraine_risk":4,"frizz_risk":0,"updated_at":"2026-04-07T08:11:43.114754+05:30"},{"city":"Bareilly","state":"Uttar Pradesh","latitude":28.367,"longitude":79.4304,"temp":21.2,"humidity":67,"rain":0.0,"pressure":990.3,"uv_index":7.15,"wind_gusts":46.8,"aqi":70,"pm10":24.6,"pm2_5":21.7,"mosquito_risk":3,"arthritis_risk":5,"migraine_risk":7,"frizz_risk":0,"updated_at":"2026-04-07T08:11:43.114761+05:30"},{"city":"Aligarh","state":"Uttar Pradesh","latitude":27.8974,"longitude":78.088,"temp":22.7,"humidity":62,"rain":0.0,"pressure":987.9,"uv_index":6.75,"wind_gusts":34.9,"aqi":247,"pm10":257.0,"pm2_5":61.7,"mosquito_risk":3,"arthritis_risk":5,"migraine_risk":7,"frizz_risk":0,"updated_at":"2026-04-07T08:11:43.114766+05:30"},{"city":"Moradabad","state":"Uttar Pradesh","latitude":28.8386,"longitude":78.7733,"temp":20.6,"humidity":73,"rain":0.0,"pressure":986.7,"uv_index":7.0,"wind_gusts":36.0,"aqi":96,"pm10":27.9,"pm2_5":27.8,"mosquito_risk":3,"arthritis_risk":5,"migraine_risk":7,"frizz_risk":0,"updated_at":"2026-04-07T08:11:43.114771+05:30"},{"city":"Saharanpur","state":"Uttar Pradesh","latitude":29.9637,"longitude":77.546,"temp":21.2,"humidity":61,"rain":0.0,"pressure":977.5,"uv_index":6.0,"wind_gusts":39.2,"aqi":73,"pm10":24.3,"pm2_5":21.2,"mosquito_risk":3,"arthritis_risk":5,"migraine_risk":3,"frizz_risk":0,"updated_at":"2026-04-07T08:11:43.114776+05:30"},{"city":"Jhansi","state":"Uttar Pradesh","latitude":25.4484,"longitude":78.5685,"temp":23.4,"humidity":59,"rain":0.0,"pressure":980.2,"uv_index":7.65,"wind_gusts":28.8,"aqi":66,"pm10":76.4,"pm2_5":20.2,"mosquito_risk":0,"arthritis_risk":5,"migraine_risk":7,"frizz_risk":0,"updated_at":"2026-04-07T08:11:46.365741+05:30"},{"city":"Surat","state":"Gujarat","latitude":21.1702,"longitude":72.8311,"temp":26.5,"humidity":75,"rain":0.0,"pressure":1009.9,"uv_index":7.7,"wind_gusts":38.9,"aqi":75,"pm10":37.5,"pm2_5":30.6,"mosquito_risk":7,"arthritis_risk":0,"migraine_risk":4,"frizz_risk":1,"updated_at":"2026-04-07T08:11:46.365769+05:30"},{"city":"Vadodara","state":"Gujarat","latitude":22.3072,"longitude":73.1812,"temp":25.7,"humidity":74,"rain":0.0,"pressure":1007.5,"uv_index":8.0,"wind_gusts":46.4,"aqi":56,"pm10":18.3,"pm2_5":15.4,"mosquito_risk":7,"arthritis_risk":5,"migraine_risk":4,"frizz_risk":1,"updated_at":"2026-04-07T08:11:46.365777+05:30"},{"city":"Rajkot","state":"Gujarat","latitude":22.3039,"longitude":70.8022,"temp":24.5,"humidity":82,"rain":0.0,"pressure":996.4,"uv_index":7.7,"wind_gusts":53.6,"aqi":51,"pm10":25.7,"pm2_5":12.3,"mosquito_risk":3,"arthritis_risk":5,"migraine_risk":7,"frizz_risk":1,"updated_at":"2026-04-07T08:11:46.365784+05:30"},{"city":"Thane","state":"Maharashtra","latitude":19.2183,"longitude":72.9781,"temp":26.9,"humidity":70,"rain":0.0,"pressure":1011.2,"uv_index":7.95,"wind_gusts":34.6,"aqi":63,"pm10":34.9,"pm2_5":21.4,"mosquito_risk":7,"arthritis_risk":0,"migraine_risk":4,"frizz_risk":1,"updated_at":"2026-04-07T08:11:46.365791+05:30"},{"city":"Nagpur","state":"Maharashtra","latitude":21.1458,"longitude":79.0882,"temp":24.8,"humidity":55,"rain":0.0,"pressure":974.8,"uv_index":8.75,"wind_gusts":21.6,"aqi":58,"pm10":27.4,"pm2_5":23.2,"mosquito_risk":0,"arthritis_risk":5,"migraine_risk":7,"frizz_risk":0,"updated_at":"2026-04-07T08:11:46.365798+05:30"},{"city":"Nashik","state":"Maharashtra","latitude":19.9975,"longitude":73.7898,"temp":21.4,"humidity":84,"rain":0.0,"pressure":948.0,"uv_index":8.2,"wind_gusts":39.2,"aqi":53,"pm10":29.6,"pm2_5":16.6,"mosquito_risk":3,"arthritis_risk":5,"migraine_risk":7,"frizz_risk":1,"updated_at":"2026-04-07T08:11:46.365805+05:30"},{"city":"Aurangabad","state":"Maharashtra","latitude":19.8762,"longitude":75.3433,"temp":22.6,"humidity":61,"rain":0.0,"pressure":946.3,"uv_index":8.85,"wind_gusts":38.5,"aqi":57,"pm10":21.6,"pm2_5":13.0,"mosquito_risk":3,"arthritis_risk":5,"migraine_risk":7,"frizz_risk":0,"updated_at":"2026-04-07T08:11:46.365810+05:30"},{"city":"Solapur","state":"Maharashtra","latitude":17.6599,"longitude":75.9064,"temp":24.5,"humidity":68,"rain":0.0,"pressure":959.9,"uv_index":9.0,"wind_gusts":27.4,"aqi":51,"pm10":25.0,"pm2_5":21.8,"mosquito_risk":3,"arthritis_risk":5,"migraine_risk":7,"frizz_risk":1,"updated_at":"2026-04-07T08:11:46.365817+05:30"},{"city":"Kolhapur","state":"Maharashtra","latitude":16.705,"longitude":74.2433,"temp":20.1,"humidity":80,"rain":0.0,"pressure":950.1,"uv_index":9.05,"wind_gusts":40.7,"aqi":55,"pm10":28.7,"pm2_5":27.0,"mosquito_risk":3,"arthritis_risk":5,"migraine_risk":7,"frizz_risk":1,"updated_at":"2026-04-07T08:11:46.365823+05:30"},{"city":"Goa","state":"Goa","latitude":15.2993,"longitude":74.124,"temp":26.2,"humidity":71,"rain":0.0,"pressure":1001.2,"uv_index":9.0,"wind_gusts":33.1,"aqi":59,"pm10":32.0,"pm2_5":27.4,"mosquito_risk":7,"arthritis_risk":5,"migraine_risk":4,"frizz_risk":1,"updated_at":"2026-04-07T08:11:46.365829+05:30"},{"city":"Jodhpur","state":"Rajasthan","latitude":26.2389,"longitude":73.0243,"temp":21.8,"humidity":71,"rain":0.0,"pressure":983.5,"uv_index":7.9,"wind_gusts":54.0,"aqi":94,"pm10":101.3,"pm2_5":25.1,"mosquito_risk":3,"arthritis_risk":5,"migraine_risk":7,"frizz_risk":1,"updated_at":"2026-04-07T08:11:46.365835+05:30"},{"city":"Udaipur","state":"Rajasthan","latitude":24.5854,"longitude":73.7125,"temp":21.3,"humidity":73,"rain":0.0,"pressure":947.4,"uv_index":8.5,"wind_gusts":61.2,"aqi":39,"pm10":41.7,"pm2_5":15.8,"mosquito_risk":3,"arthritis_risk":5,"migraine_risk":7,"frizz_risk":1,"updated_at":"2026-04-07T08:11:46.365840+05:30"},{"city":"Kota","state":"Rajasthan","latitude":25.2138,"longitude":75.8648,"temp":25.1,"humidity":44,"rain":0.0,"pressure":980.4,"uv_index":7.5,"wind_gusts":50.0,"aqi":60,"pm10":15.2,"pm2_5":11.8,"mosquito_risk":4,"arthritis_risk":5,"migraine_risk":7,"frizz_risk":0,"updated_at":"2026-04-07T08:11:46.365846+05:30"},{"city":"Bikaner","state":"Rajasthan","latitude":28.0229,"longitude":73.3119,"temp":21.7,"humidity":78,"rain":0.0,"pressure":980.7,"uv_index":7.5,"wind_gusts":45.4,"aqi":89,"pm10":108.5,"pm2_5":44.6,"mosquito_risk":3,"arthritis_risk":5,"migraine_risk":7,"frizz_risk":1,"updated_at":"2026-04-07T08:11:46.365851+05:30"},{"city":"Ajmer","state":"Rajasthan","latitude":26.4499,"longitude":74.6399,"temp":20.9,"humidity":70,"rain":0.0,"pressure":954.7,"uv_index":7.8,"wind_gusts":57.6,"aqi":52,"pm10":50.8,"pm2_5":18.0,"mosquito_risk":3,"arthritis_risk":5,"migraine_risk":7,"frizz_risk":0,"updated_at":"2026-04-07T08:11:46.365857+05:30"},{"city":"Gwalior","state":"Madhya Pradesh","latitude":26.2183,"longitude":78.1828,"temp":24.2,"humidity":60,"rain":0.0,"pressure":985.1,"uv_index":6.95,"wind_gusts":35.3,"aqi":77,"pm10":118.3,"pm2_5":27.8,"mosquito_risk":0,"arthritis_risk":5,"migraine_risk":7,"frizz_risk":0,"updated_at":"2026-04-07T08:11:46.365862+05:30"},{"city":"Indore","state":"Madhya Pradesh","latitude":22.7196,"longitude":75.8577,"temp":22.8,"humidity":71,"rain":0.0,"pressure":950.1,"uv_index":8.4,"wind_gusts":40.7,"aqi":55,"pm10":22.3,"pm2_5":16.5,"mosquito_risk":3,"arthritis_risk":5,"migraine_risk":7,"frizz_risk":1,"updated_at":"2026-04-07T08:11:46.365868+05:30"},{"city":"Bhopal","state":"Madhya Pradesh","latitude":23.2599,"longitude":77.4126,"temp":24.2,"humidity":48,"rain":0.0,"pressure":955.8,"uv_index":8.4,"wind_gusts":44.3,"aqi":54,"pm10":18.5,"pm2_5":16.2,"mosquito_risk":0,"arthritis_risk":5,"migraine_risk":7,"frizz_risk":0,"updated_at":"2026-04-07T08:11:46.365873+05:30"},{"city":"Jabalpur","state":"Madhya Pradesh","latitude":23.1815,"longitude":79.9864,"temp":25.1,"humidity":50,"rain":0.0,"pressure":963.4,"uv_index":8.5,"wind_gusts":34.6,"aqi":66,"pm10":27.5,"pm2_5":17.1,"mosquito_risk":4,"arthritis_risk":5,"migraine_risk":7,"frizz_risk":0,"updated_at":"2026-04-07T08:11:46.365879+05:30"},{"city":"Ujjain","state":"Madhya Pradesh","latitude":23.1765,"longitude":75.7885,"temp":22.7,"humidity":73,"rain":0.0,"pressure":955.9,"uv_index":8.3,"wind_gusts":42.5,"aqi":50,"pm10":21.4,"pm2_5":15.7,"mosquito_risk":3,"arthritis_risk":5,"migraine_risk":7,"frizz_risk":1,"updated_at":"2026-04-07T08:11:46.365884+05:30"},{"city":"Visakhapatnam","state":"Andhra Pradesh","latitude":17.6868,"longitude":83.2185,"temp":27.8,"humidity":83,"rain":0.0,"pressure":1006.0,"uv_index":9.1,"wind_gusts":31.3,"aqi":80,"pm10":31.1,"pm2_5":26.3,"mosquito_risk":7,"arthritis_risk":5,"migraine_risk":4,"frizz_risk":1,"updated_at":"2026-04-07T08:11:46.365890+05:30"},{"city":"Vijayawada","state":"Andhra Pradesh","latitude":16.5062,"longitude":80.648,"temp":28.2,"humidity":81,"rain":0.0,"pressure":1005.1,"uv_index":9.15,"wind_gusts":30.6,"aqi":76,"pm10":29.6,"pm2_5":25.3,"mosquito_risk":7,"arthritis_risk":5,"migraine_risk":4,"frizz_risk":1,"updated_at":"2026-04-07T08:11:46.365896+05:30"},{"city":"Guntur","state":"Andhra Pradesh","latitude":16.3067,"longitude":80.4365,"temp":29.0,"humidity":79,"rain":0.0,"pressure":1006.1,"uv_index":9.2,"wind_gusts":29.9,"aqi":89,"pm10":33.8,"pm2_5":29.8,"mosquito_risk":7,"arthritis_risk":5,"migraine_risk":4,"frizz_risk":1,"updated_at":"2026-04-07T08:11:46.365901+05:30"},{"city":"Nellore","state":"Andhra Pradesh","latitude":14.4426,"longitude":79.9865,"temp":29.1,"humidity":82,"rain":0.0,"pressure":1007.7,"uv_index":9.3,"wind_gusts":36.7,"aqi":81,"pm10":33.4,"pm2_5":30.4,"mosquito_risk":7,"arthritis_risk":5,"migraine_risk":4,"frizz_risk":1,"updated_at":"2026-04-07T08:11:46.365908+05:30"},{"city":"Kurnool","state":"Andhra Pradesh","latitude":15.8281,"longitude":78.0373,"temp":27.5,"humidity":52,"rain":0.0,"pressure":979.4,"uv_index":9.2,"wind_gusts":23.4,"aqi":57,"pm10":13.2,"pm2_5":12.5,"mosquito_risk":4,"arthritis_risk":5,"migraine_risk":7,"frizz_risk":1,"updated_at":"2026-04-07T08:11:46.365914+05:30"},{"city":"Kakinada","state":"Andhra Pradesh","latitude":16.9891,"longitude":82.2475,"temp":28.7,"humidity":79,"rain":0.0,"pressure":1009.8,"uv_index":9.15,"wind_gusts":24.5,"aqi":57,"pm10":22.4,"pm2_5":16.4,"mosquito_risk":7,"arthritis_risk":0,"migraine_risk":4,"frizz_risk":1,"updated_at":"2026-04-07T08:11:46.365919+05:30"},{"city":"Tirupati","state":"Andhra Pradesh","latitude":13.6288,"longitude":79.4192,"temp":28.5,"humidity":75,"rain":0.0,"pressure":993.9,"uv_index":9.4,"wind_gusts":28.1,"aqi":110,"pm10":42.8,"pm2_5":39.7,"mosquito_risk":7,"arthritis_risk":5,"migraine_risk":7,"frizz_risk":1,"updated_at":"2026-04-07T08:11:46.365925+05:30"},{"city":"Warangal","state":"Telangana","latitude":17.9689,"longitude":79.5941,"temp":27.2,"humidity":81,"rain":0.0,"pressure":980.8,"uv_index":9.05,"wind_gusts":31.3,"aqi":96,"pm10":38.0,"pm2_5":34.6,"mosquito_risk":7,"arthritis_risk":5,"migraine_risk":7,"frizz_risk":1,"updated_at":"2026-04-07T08:11:46.365930+05:30"},{"city":"Nizamabad","state":"Telangana","latitude":18.6725,"longitude":78.0941,"temp":25.1,"humidity":57,"rain":0.0,"pressure":967.4,"uv_index":8.95,"wind_gusts":30.2,"aqi":61,"pm10":27.9,"pm2_5":24.7,"mosquito_risk":4,"arthritis_risk":5,"migraine_risk":7,"frizz_risk":0,"updated_at":"2026-04-07T08:11:46.365936+05:30"},{"city":"Mysore","state":"Karnataka","latitude":12.2958,"longitude":76.6396,"temp":22.3,"humidity":81,"rain":0.0,"pressure":930.8,"uv_index":9.55,"wind_gusts":41.0,"aqi":58,"pm10":25.1,"pm2_5":22.1,"mosquito_risk":3,"arthritis_risk":5,"migraine_risk":7,"frizz_risk":1,"updated_at":"2026-04-07T08:11:46.365941+05:30"},{"city":"Mangalore","state":"Karnataka","latitude":12.9141,"longitude":74.856,"temp":28.2,"humidity":77,"rain":0.0,"pressure":1009.8,"uv_index":9.15,"wind_gusts":31.0,"aqi":60,"pm10":33.6,"pm2_5":25.4,"mosquito_risk":7,"arthritis_risk":0,"migraine_risk":4,"frizz_risk":1,"updated_at":"2026-04-07T08:11:46.365947+05:30"},{"city":"Hubli-Dharwad","state":"Karnataka","latitude":15.3647,"longitude":75.124,"temp":20.5,"humidity":80,"rain":0.0,"pressure":943.0,"uv_index":9.2,"wind_gusts":38.9,"aqi":41,"pm10":18.6,"pm2_5":13.1,"mosquito_risk":3,"arthritis_risk":5,"migraine_risk":7,"frizz_risk":1,"updated_at":"2026-04-07T08:11:46.365952+05:30"},{"city":"Belgaum","state":"Karnataka","latitude":15.8497,"longitude":74.4977,"temp":19.5,"humidity":82,"rain":0.0,"pressure":927.4,"uv_index":9.25,"wind_gusts":34.2,"aqi":52,"pm10":19.6,"pm2_5":17.0,"mosquito_risk":3,"arthritis_risk":10,"migraine_risk":7,"frizz_risk":1,"updated_at":"2026-04-07T08:11:49.619014+05:30"},{"city":"Coimbatore","state":"Tamil Nadu","latitude":11.0168,"longitude":76.9558,"temp":25.9,"humidity":70,"rain":0.0,"pressure":964.5,"uv_index":9.5,"wind_gusts":55.4,"aqi":67,"pm10":26.1,"pm2_5":21.9,"mosquito_risk":7,"arthritis_risk":5,"migraine_risk":7,"frizz_risk":1,"updated_at":"2026-04-07T08:11:49.619043+05:30"},{"city":"Madurai","state":"Tamil Nadu","latitude":9.9252,"longitude":78.1198,"temp":28.5,"humidity":84,"rain":0.0,"pressure":995.2,"uv_index":8.6,"wind_gusts":36.0,"aqi":101,"pm10":44.0,"pm2_5":40.9,"mosquito_risk":7,"arthritis_risk":5,"migraine_risk":7,"frizz_risk":1,"updated_at":"2026-04-07T08:11:49.619052+05:30"},{"city":"Trichy","state":"Tamil Nadu","latitude":10.7905,"longitude":78.7047,"temp":27.6,"humidity":81,"rain":0.0,"pressure":1002.2,"uv_index":9.0,"wind_gusts":31.7,"aqi":91,"pm10":34.1,"pm2_5":32.2,"mosquito_risk":7,"arthritis_risk":5,"migraine_risk":4,"frizz_risk":1,"updated_at":"2026-04-07T08:11:49.619060+05:30"},{"city":"Salem","state":"Tamil Nadu","latitude":11.6643,"longitude":78.146,"temp":28.3,"humidity":67,"rain":0.0,"pressure":979.8,"uv_index":9.45,"wind_gusts":30.2,"aqi":73,"pm10":27.2,"pm2_5":22.0,"mosquito_risk":7,"arthritis_risk":5,"migraine_risk":7,"frizz_risk":1,"updated_at":"2026-04-07T08:11:49.619068+05:30"},{"city":"Tirunelveli","state":"Tamil Nadu","latitude":8.7139,"longitude":77.7567,"temp":28.6,"humidity":66,"rain":0.0,"pressure":1005.0,"uv_index":9.0,"wind_gusts":21.2,"aqi":73,"pm10":29.7,"pm2_5":21.8,"mosquito_risk":7,"arthritis_risk":5,"migraine_risk":4,"frizz_risk":1,"updated_at":"2026-04-07T08:11:49.619075+05:30"},{"city":"Vellore","state":"Tamil Nadu","latitude":12.9165,"longitude":79.1325,"temp":28.0,"humidity":75,"rain":0.0,"pressure":986.9,"uv_index":9.45,"wind_gusts":24.8,"aqi":123,"pm10":62.6,"pm2_5":59.0,"mosquito_risk":7,"arthritis_risk":5,"migraine_risk":7,"frizz_risk":1,"updated_at":"2026-04-07T08:11:49.619082+05:30"},{"city":"Erode","state":"Tamil Nadu","latitude":11.341,"longitude":77.7172,"temp":28.4,"humidity":71,"rain":0.0,"pressure":991.6,"uv_index":9.4,"wind_gusts":38.9,"aqi":69,"pm10":26.4,"pm2_5":21.8,"mosquito_risk":7,"arthritis_risk":5,"migraine_risk":7,"frizz_risk":1,"updated_at":"2026-04-07T08:11:49.619090+05:30"},{"city":"Kochi","state":"Kerala","latitude":9.9312,"longitude":76.2673,"temp":29.5,"humidity":67,"rain":0.0,"pressure":1011.1,"uv_index":9.15,"wind_gusts":40.3,"aqi":70,"pm10":29.0,"pm2_5":21.9,"mosquito_risk":7,"arthritis_risk":0,"migraine_risk":4,"frizz_risk":1,"updated_at":"2026-04-07T08:11:49.619097+05:30"},{"city":"Thiruvananthapuram","state":"Kerala","latitude":8.5241,"longitude":76.9366,"temp":28.3,"humidity":84,"rain":0.0,"pressure":1010.2,"uv_index":8.5,"wind_gusts":51.1,"aqi":63,"pm10":29.2,"pm2_5":18.5,"mosquito_risk":7,"arthritis_risk":0,"migraine_risk":4,"frizz_risk":1,"updated_at":"2026-04-07T08:11:49.619104+05:30"},{"city":"Kozhikode","state":"Kerala","latitude":11.2588,"longitude":75.7804,"temp":28.1,"humidity":72,"rain":0.0,"pressure":1010.6,"uv_index":9.15,"wind_gusts":37.4,"aqi":60,"pm10":28.9,"pm2_5":15.7,"mosquito_risk":7,"arthritis_risk":0,"migraine_risk":4,"frizz_risk":1,"updated_at":"2026-04-07T08:11:49.619111+05:30"},{"city":"Thrissur","state":"Kerala","latitude":10.5276,"longitude":76.2144,"temp":28.2,"humidity":78,"rain":0.0,"pressure":1009.7,"uv_index":9.2,"wind_gusts":39.6,"aqi":66,"pm10":30.6,"pm2_5":21.9,"mosquito_risk":7,"arthritis_risk":0,"migraine_risk":4,"frizz_risk":1,"updated_at":"2026-04-07T08:11:49.619118+05:30"},{"city":"Kannur","state":"Kerala","latitude":11.8745,"longitude":75.3704,"temp":27.3,"humidity":70,"rain":0.0,"pressure":1010.2,"uv_index":9.15,"wind_gusts":40.0,"aqi":58,"pm10":26.8,"pm2_5":17.5,"mosquito_risk":7,"arthritis_risk":0,"migraine_risk":4,"frizz_risk":1,"updated_at":"2026-04-07T08:11:49.619125+05:30"},{"city":"Patna","state":"Bihar","latitude":25.5941,"longitude":85.1376,"temp":25.1,"humidity":62,"rain":0.0,"pressure":1003.2,"uv_index":8.2,"wind_gusts":29.2,"aqi":76,"pm10":36.6,"pm2_5":30.5,"mosquito_risk":7,"arthritis_risk":5,"migraine_risk":4,"frizz_risk":1,"updated_at":"2026-04-07T08:11:49.619132+05:30"},{"city":"Gaya","state":"Bihar","latitude":24.7914,"longitude":85.0002,"temp":24.7,"humidity":70,"rain":0.0,"pressure":996.6,"uv_index":8.3,"wind_gusts":25.2,"aqi":63,"pm10":24.5,"pm2_5":20.3,"mosquito_risk":3,"arthritis_risk":5,"migraine_risk":7,"frizz_risk":1,"updated_at":"2026-04-07T08:11:49.619139+05:30"},{"city":"Muzaffarpur","state":"Bihar","latitude":26.1209,"longitude":85.3647,"temp":24.9,"humidity":64,"rain":0.0,"pressure":1003.1,"uv_index":8.2,"wind_gusts":27.4,"aqi":90,"pm10":50.4,"pm2_5":44.8,"mosquito_risk":3,"arthritis_risk":5,"migraine_risk":4,"frizz_risk":1,"updated_at":"2026-04-07T08:11:49.619146+05:30"},{"city":"Bhagalpur","state":"Bihar","latitude":25.2425,"longitude":87.0117,"temp":25.6,"humidity":70,"rain":0.0,"pressure":1003.9,"uv_index":8.25,"wind_gusts":22.0,"aqi":72,"pm10":25.9,"pm2_5":21.1,"mosquito_risk":7,"arthritis_risk":5,"migraine_risk":4,"frizz_risk":1,"updated_at":"2026-04-07T08:11:49.619153+05:30"},{"city":"Ranchi","state":"Jharkhand","latitude":23.3441,"longitude":85.3096,"temp":22.8,"humidity":73,"rain":0.0,"pressure":940.1,"uv_index":8.9,"wind_gusts":31.0,"aqi":67,"pm10":32.8,"pm2_5":25.9,"mosquito_risk":3,"arthritis_risk":5,"migraine_risk":7,"frizz_risk":1,"updated_at":"2026-04-07T08:11:49.619159+05:30"},{"city":"Jamshedpur","state":"Jharkhand","latitude":22.8046,"longitude":86.2029,"temp":24.3,"humidity":84,"rain":0.0,"pressure":993.9,"uv_index":8.75,"wind_gusts":33.1,"aqi":105,"pm10":48.7,"pm2_5":41.9,"mosquito_risk":3,"arthritis_risk":5,"migraine_risk":7,"frizz_risk":1,"updated_at":"2026-04-07T08:11:49.619167+05:30"},{"city":"Dhanbad","state":"Jharkhand","latitude":23.7957,"longitude":86.4304,"temp":24.8,"humidity":72,"rain":0.0,"pressure":982.7,"uv_index":8.65,"wind_gusts":27.7,"aqi":123,"pm10":56.2,"pm2_5":50.1,"mosquito_risk":3,"arthritis_risk":5,"migraine_risk":7,"frizz_risk":1,"updated_at":"2026-04-07T08:11:49.619174+05:30"},{"city":"Bokaro","state":"Jharkhand","latitude":23.6693,"longitude":86.1511,"temp":25.0,"humidity":71,"rain":0.0,"pressure":986.7,"uv_index":8.7,"wind_gusts":26.6,"aqi":106,"pm10":52.0,"pm2_5":44.7,"mosquito_risk":7,"arthritis_risk":5,"migraine_risk":7,"frizz_risk":1,"updated_at":"2026-04-07T08:11:49.619181+05:30"},{"city":"Bhubaneswar","state":"Odisha","latitude":20.2961,"longitude":85.8245,"temp":24.6,"humidity":86,"rain":0.0,"pressure":1005.7,"uv_index":8.95,"wind_gusts":42.8,"aqi":80,"pm10":24.7,"pm2_5":22.1,"mosquito_risk":3,"arthritis_risk":5,"migraine_risk":4,"frizz_risk":1,"updated_at":"2026-04-07T08:11:49.619188+05:30"},{"city":"Cuttack","state":"Odisha","latitude":20.4625,"longitude":85.8828,"temp":25.0,"humidity":86,"rain":0.0,"pressure":1007.4,"uv_index":9.0,"wind_gusts":37.8,"aqi":80,"pm10":24.7,"pm2_5":22.1,"mosquito_risk":7,"arthritis_risk":5,"migraine_risk":4,"frizz_risk":1,"updated_at":"2026-04-07T08:11:49.619195+05:30"},{"city":"Rourkela","state":"Odisha","latitude":22.2604,"longitude":84.8536,"temp":23.0,"humidity":84,"rain":0.0,"pressure":988.2,"uv_index":8.7,"wind_gusts":25.2,"aqi":92,"pm10":38.4,"pm2_5":32.4,"mosquito_risk":3,"arthritis_risk":5,"migraine_risk":7,"frizz_risk":1,"updated_at":"2026-04-07T08:11:49.619202+05:30"},{"city":"Raipur","state":"Chhattisgarh","latitude":21.2514,"longitude":81.6296,"temp":25.4,"humidity":73,"rain":0.0,"pressure":977.2,"uv_index":8.8,"wind_gusts":25.9,"aqi":131,"pm10":69.2,"pm2_5":63.8,"mosquito_risk":7,"arthritis_risk":5,"migraine_risk":7,"frizz_risk":1,"updated_at":"2026-04-07T08:11:49.619209+05:30"},{"city":"Bhilai","state":"Chhattisgarh","latitude":21.1938,"longitude":81.3509,"temp":25.7,"humidity":74,"rain":0.0,"pressure":977.5,"uv_index":8.8,"wind_gusts":22.0,"aqi":129,"pm10":75.7,"pm2_5":70.3,"mosquito_risk":7,"arthritis_risk":5,"migraine_risk":7,"frizz_risk":1,"updated_at":"2026-04-07T08:11:49.619215+05:30"},{"city":"Guwahati","state":"Assam","latitude":26.1158,"longitude":91.7086,"temp":24.8,"humidity":86,"rain":0.0,"pressure":1004.4,"uv_index":8.15,"wind_gusts":41.8,"aqi":101,"pm10":51.6,"pm2_5":41.6,"mosquito_risk":3,"arthritis_risk":5,"migraine_risk":4,"frizz_risk":1,"updated_at":"2026-04-07T08:11:49.619223+05:30"},{"city":"Agartala","state":"Tripura","latitude":23.8315,"longitude":91.2868,"temp":24.5,"humidity":87,"rain":0.0,"pressure":1009.5,"uv_index":8.45,"wind_gusts":38.9,"aqi":162,"pm10":83.1,"pm2_5":78.7,"mosquito_risk":3,"arthritis_risk":0,"migraine_risk":4,"frizz_risk":1,"updated_at":"2026-04-07T08:11:49.619230+05:30"},{"city":"Shillong","state":"Meghalaya","latitude":25.5788,"longitude":91.8933,"temp":16.2,"humidity":62,"rain":0.0,"pressure":858.0,"uv_index":8.0,"wind_gusts":39.2,"aqi":95,"pm10":35.9,"pm2_5":28.5,"mosquito_risk":3,"arthritis_risk":5,"migraine_risk":7,"frizz_risk":0,"updated_at":"2026-04-07T08:11:49.619237+05:30"},{"city":"Imphal","state":"Manipur","latitude":24.817,"longitude":93.9368,"temp":17.2,"humidity":92,"rain":0.9,"pressure":926.8,"uv_index":5.1,"wind_gusts":43.9,"aqi":112,"pm10":62.9,"pm2_5":56.2,"mosquito_risk":6,"arthritis_risk":10,"migraine_risk":3,"frizz_risk":0,"updated_at":"2026-04-07T08:11:49.619244+05:30"},{"city":"Aizawl","state":"Mizoram","latitude":23.7271,"longitude":92.7176,"temp":18.8,"humidity":87,"rain":0.0,"pressure":895.4,"uv_index":7.4,"wind_gusts":43.9,"aqi":107,"pm10":40.0,"pm2_5":35.7,"mosquito_risk":3,"arthritis_risk":10,"migraine_risk":7,"frizz_risk":1,"updated_at":"2026-04-07T08:11:49.619252+05:30"},{"city":"Kohima","state":"Nagaland","latitude":25.6701,"longitude":94.1077,"temp":15.5,"humidity":81,"rain":0.3,"pressure":857.3,"uv_index":4.55,"wind_gusts":59.4,"aqi":87,"pm10":41.7,"pm2_5":33.9,"mosquito_risk":6,"arthritis_risk":10,"migraine_risk":3,"frizz_risk":0,"updated_at":"2026-04-07T08:11:49.619259+05:30"},{"city":"Gangtok","state":"Sikkim","latitude":27.3314,"longitude":88.6138,"temp":14.9,"humidity":62,"rain":0.0,"pressure":838.7,"uv_index":8.5,"wind_gusts":25.9,"aqi":70,"pm10":27.6,"pm2_5":16.9,"mosquito_risk":3,"arthritis_risk":5,"migraine_risk":7,"frizz_risk":0,"updated_at":"2026-04-07T08:11:49.619266+05:30"},{"city":"Siliguri","state":"West Bengal","latitude":26.7271,"longitude":88.3953,"temp":23.6,"humidity":58,"rain":0.0,"pressure":996.7,"uv_index":8.1,"wind_gusts":26.3,"aqi":95,"pm10":37.7,"pm2_5":32.6,"mosquito_risk":0,"arthritis_risk":5,"migraine_risk":7,"frizz_risk":0,"updated_at":"2026-04-07T08:11:52.869668+05:30"},{"city":"Durgapur","state":"West Bengal","latitude":23.5204,"longitude":87.3119,"temp":24.8,"humidity":85,"rain":0.0,"pressure":998.1,"uv_index":8.55,"wind_gusts":16.9,"aqi":127,"pm10":61.5,"pm2_5":56.1,"mosquito_risk":3,"arthritis_risk":5,"migraine_risk":7,"frizz_risk":1,"updated_at":"2026-04-07T08:11:52.869697+05:30"},{"city":"Asansol","state":"West Bengal","latitude":23.6739,"longitude":86.9524,"temp":25.6,"humidity":77,"rain":0.0,"pressure":996.5,"uv_index":8.4,"wind_gusts":15.8,"aqi":114,"pm10":54.0,"pm2_5":48.7,"mosquito_risk":7,"arthritis_risk":5,"migraine_risk":7,"frizz_risk":1,"updated_at":"2026-04-07T08:11:52.869707+05:30"},{"city":"Pondicherry","state":"Puducherry","latitude":11.9139,"longitude":79.8145,"temp":27.7,"humidity":86,"rain":0.0,"pressure":1010.5,"uv_index":8.9,"wind_gusts":28.1,"aqi":76,"pm10":33.9,"pm2_5":30.6,"mosquito_risk":7,"arthritis_risk":0,"migraine_risk":4,"frizz_risk":1,"updated_at":"2026-04-07T08:11:52.869715+05:30"},{"city":"Port Blair","state":"Andaman and Nicobar Islands","latitude":11.6234,"longitude":92.7265,"temp":28.4,"humidity":70,"rain":0.0,"pressure":1010.4,"uv_index":9.25,"wind_gusts":13.0,"aqi":25,"pm10":6.8,"pm2_5":4.4,"mosquito_risk":7,"arthritis_risk":0,"migraine_risk":4,"frizz_risk":1,"updated_at":"2026-04-07T08:11:52.869723+05:30"},{"city":"Haridwar","state":"Uttarakhand","latitude":29.9457,"longitude":78.1642,"temp":22.5,"humidity":60,"rain":0.0,"pressure":976.4,"uv_index":6.45,"wind_gusts":49.7,"aqi":57,"pm10":18.3,"pm2_5":15.5,"mosquito_risk":0,"arthritis_risk":5,"migraine_risk":7,"frizz_risk":0,"updated_at":"2026-04-07T08:11:52.869730+05:30"},{"city":"Rishikesh","state":"Uttarakhand","latitude":30.0869,"longitude":78.2676,"temp":22.2,"humidity":58,"rain":0.0,"pressure":969.2,"uv_index":6.6,"wind_gusts":34.2,"aqi":48,"pm10":13.9,"pm2_5":10.9,"mosquito_risk":0,"arthritis_risk":5,"migraine_risk":7,"frizz_risk":0,"updated_at":"2026-04-07T08:11:52.869738+05:30"},{"city":"Nainital","state":"Uttarakhand","latitude":29.3919,"longitude":79.4542,"temp":17.6,"humidity":50,"rain":0.0,"pressure":807.3,"uv_index":5.9,"wind_gusts":33.1,"aqi":52,"pm10":13.7,"pm2_5":10.5,"mosquito_risk":0,"arthritis_risk":5,"migraine_risk":3,"frizz_risk":0,"updated_at":"2026-04-07T08:11:52.869745+05:30"},{"city":"Mussoorie","state":"Uttarakhand","latitude":30.4599,"longitude":78.0664,"temp":14.8,"humidity":57,"rain":0.0,"pressure":802.8,"uv_index":5.4,"wind_gusts":45.4,"aqi":54,"pm10":13.6,"pm2_5":12.0,"mosquito_risk":0,"arthritis_risk":5,"migraine_risk":3,"frizz_risk":0,"updated_at":"2026-04-07T08:11:52.869752+05:30"},{"city":"Dharamshala","state":"Himachal Pradesh","latitude":32.219,"longitude":76.3234,"temp":18.1,"humidity":56,"rain":0.0,"pressure":867.9,"uv_index":7.0,"wind_gusts":50.0,"aqi":59,"pm10":3.8,"pm2_5":3.2,"mosquito_risk":0,"arthritis_risk":5,"migraine_risk":7,"frizz_risk":0,"updated_at":"2026-04-07T08:11:52.869759+05:30"},{"city":"Dalhousie","state":"Himachal Pradesh","latitude":32.5387,"longitude":75.971,"temp":14.1,"humidity":52,"rain":0.0,"pressure":801.6,"uv_index":5.35,"wind_gusts":40.0,"aqi":52,"pm10":11.6,"pm2_5":10.2,"mosquito_risk":0,"arthritis_risk":5,"migraine_risk":3,"frizz_risk":0,"updated_at":"2026-04-07T08:11:52.869767+05:30"},{"city":"Patiala","state":"Punjab","latitude":30.3398,"longitude":76.3869,"temp":21.8,"humidity":56,"rain":0.0,"pressure":979.2,"uv_index":6.45,"wind_gusts":48.2,"aqi":114,"pm10":302.7,"pm2_5":52.3,"mosquito_risk":0,"arthritis_risk":5,"migraine_risk":7,"frizz_risk":0,"updated_at":"2026-04-07T08:11:52.869774+05:30"},{"city":"Bhatinda","state":"Punjab","latitude":30.211,"longitude":74.9455,"temp":21.6,"humidity":62,"rain":0.0,"pressure":982.9,"uv_index":6.05,"wind_gusts":51.1,"aqi":68,"pm10":50.5,"pm2_5":14.5,"mosquito_risk":3,"arthritis_risk":5,"migraine_risk":7,"frizz_risk":0,"updated_at":"2026-04-07T08:11:52.869781+05:30"},{"city":"Rohtak","state":"Haryana","latitude":28.8955,"longitude":76.6066,"temp":22.4,"humidity":58,"rain":0.0,"pressure":983.4,"uv_index":5.05,"wind_gusts":42.1,"aqi":335,"pm10":429.3,"pm2_5":88.5,"mosquito_risk":0,"arthritis_risk":5,"migraine_risk":3,"frizz_risk":0,"updated_at":"2026-04-07T08:11:52.869788+05:30"},{"city":"Panipat","state":"Haryana","latitude":29.3909,"longitude":76.9635,"temp":21.4,"humidity":66,"rain":0.0,"pressure":982.0,"uv_index":6.1,"wind_gusts":41.4,"aqi":419,"pm10":761.8,"pm2_5":116.6,"mosquito_risk":3,"arthritis_risk":5,"migraine_risk":7,"frizz_risk":0,"updated_at":"2026-04-07T08:11:52.869795+05:30"},{"city":"Mathura","state":"Uttar Pradesh","latitude":27.4924,"longitude":77.6737,"temp":23.0,"humidity":61,"rain":0.0,"pressure":988.5,"uv_index":5.6,"wind_gusts":36.4,"aqi":199,"pm10":694.8,"pm2_5":75.0,"mosquito_risk":3,"arthritis_risk":5,"migraine_risk":3,"frizz_risk":0,"updated_at":"2026-04-07T08:11:52.869802+05:30"},{"city":"Vrindavan","state":"Uttar Pradesh","latitude":27.5823,"longitude":77.7027,"temp":22.4,"humidity":62,"rain":0.0,"pressure":989.1,"uv_index":5.75,"wind_gusts":35.6,"aqi":199,"pm10":694.8,"pm2_5":75.0,"mosquito_risk":3,"arthritis_risk":5,"migraine_risk":3,"frizz_risk":0,"updated_at":"2026-04-07T08:11:52.869808+05:30"},{"city":"Ayodhya","state":"Uttar Pradesh","latitude":26.7922,"longitude":82.1998,"temp":24.4,"humidity":54,"rain":0.0,"pressure":998.1,"uv_index":7.6,"wind_gusts":23.8,"aqi":79,"pm10":65.9,"pm2_5":36.6,"mosquito_risk":0,"arthritis_risk":5,"migraine_risk":7,"frizz_risk":0,"updated_at":"2026-04-07T08:11:52.869815+05:30"},{"city":"Ratlam","state":"Madhya Pradesh","latitude":23.3315,"longitude":75.0367,"temp":22.6,"humidity":79,"rain":0.0,"pressure":956.7,"uv_index":8.25,"wind_gusts":41.4,"aqi":49,"pm10":22.3,"pm2_5":13.7,"mosquito_risk":3,"arthritis_risk":5,"migraine_risk":7,"frizz_risk":1,"updated_at":"2026-04-07T08:11:52.869822+05:30"},{"city":"Sagar","state":"Madhya Pradesh","latitude":23.8388,"longitude":78.7378,"temp":24.2,"humidity":53,"rain":0.0,"pressure":952.1,"uv_index":8.35,"wind_gusts":32.8,"aqi":50,"pm10":35.4,"pm2_5":14.1,"mosquito_risk":0,"arthritis_risk":5,"migraine_risk":7,"frizz_risk":0,"updated_at":"2026-04-07T08:11:52.869829+05:30"},{"city":"Satna","state":"Madhya Pradesh","latitude":24.6005,"longitude":80.8322,"temp":24.1,"humidity":57,"rain":0.0,"pressure":974.1,"uv_index":8.3,"wind_gusts":19.8,"aqi":67,"pm10":38.5,"pm2_5":18.6,"mosquito_risk":0,"arthritis_risk":5,"migraine_risk":7,"frizz_risk":0,"updated_at":"2026-04-07T08:11:52.869835+05:30"},{"city":"Akola","state":"Maharashtra","latitude":20.7002,"longitude":77.0082,"temp":24.9,"humidity":65,"rain":0.0,"pressure":978.1,"uv_index":8.7,"wind_gusts":34.2,"aqi":56,"pm10":20.5,"pm2_5":17.9,"mosquito_risk":3,"arthritis_risk":5,"migraine_risk":7,"frizz_risk":1,"updated_at":"2026-04-07T08:11:52.869843+05:30"},{"city":"Amravati","state":"Maharashtra","latitude":20.9374,"longitude":77.7796,"temp":25.2,"humidity":57,"rain":0.0,"pressure":969.6,"uv_index":8.7,"wind_gusts":29.2,"aqi":55,"pm10":16.6,"pm2_5":14.7,"mosquito_risk":4,"arthritis_risk":5,"migraine_risk":7,"frizz_risk":1,"updated_at":"2026-04-07T08:11:52.869851+05:30"},{"city":"Latur","state":"Maharashtra","latitude":18.4088,"longitude":76.5604,"temp":23.1,"humidity":66,"rain":0.0,"pressure":942.0,"uv_index":9.0,"wind_gusts":26.6,"aqi":55,"pm10":18.6,"pm2_5":13.9,"mosquito_risk":3,"arthritis_risk":5,"migraine_risk":7,"frizz_risk":1,"updated_at":"2026-04-07T08:11:52.869859+05:30"},{"city":"Nanded","state":"Maharashtra","latitude":19.1383,"longitude":77.3091,"temp":24.6,"humidity":63,"rain":0.0,"pressure":971.4,"uv_index":8.85,"wind_gusts":24.8,"aqi":59,"pm10":24.6,"pm2_5":22.2,"mosquito_risk":3,"arthritis_risk":5,"migraine_risk":7,"frizz_risk":1,"updated_at":"2026-04-07T08:11:52.869865+05:30"},{"city":"Gulbarga","state":"Karnataka","latitude":17.3297,"longitude":76.8343,"temp":26.0,"humidity":49,"rain":0.0,"pressure":961.4,"uv_index":9.05,"wind_gusts":27.7,"aqi":44,"pm10":19.4,"pm2_5":17.8,"mosquito_risk":4,"arthritis_risk":5,"migraine_risk":7,"frizz_risk":0,"updated_at":"2026-04-07T08:11:52.869871+05:30"},{"city":"Bidar","state":"Karnataka","latitude":17.9104,"longitude":77.5199,"temp":24.7,"humidity":54,"rain":0.0,"pressure":937.9,"uv_index":9.05,"wind_gusts":31.0,"aqi":59,"pm10":24.3,"pm2_5":20.0,"mosquito_risk":0,"arthritis_risk":5,"migraine_risk":7,"frizz_risk":0,"updated_at":"2026-04-07T08:11:52.869878+05:30"},{"city":"Hospet","state":"Karnataka","latitude":15.2689,"longitude":76.3909,"temp":23.2,"humidity":70,"rain":0.0,"pressure":958.6,"uv_index":9.25,"wind_gusts":26.6,"aqi":38,"pm10":18.3,"pm2_5":12.7,"mosquito_risk":3,"arthritis_risk":5,"migraine_risk":7,"frizz_risk":1,"updated_at":"2026-04-07T08:11:52.869885+05:30"},{"city":"Tirupur","state":"Tamil Nadu","latitude":11.1085,"longitude":77.3411,"temp":27.0,"humidity":71,"rain":0.0,"pressure":977.9,"uv_index":9.5,"wind_gusts":45.4,"aqi":73,"pm10":29.5,"pm2_5":25.7,"mosquito_risk":7,"arthritis_risk":5,"migraine_risk":7,"frizz_risk":1,"updated_at":"2026-04-07T08:11:52.869891+05:30"},{"city":"Alappuzha","state":"Kerala","latitude":9.4981,"longitude":76.3388,"temp":29.5,"humidity":72,"rain":0.0,"pressure":1011.1,"uv_index":8.75,"wind_gusts":40.3,"aqi":71,"pm10":27.6,"pm2_5":18.9,"mosquito_risk":7,"arthritis_risk":0,"migraine_risk":4,"frizz_risk":1,"updated_at":"2026-04-07T08:11:52.869898+05:30"},{"city":"Munnar","state":"Kerala","latitude":10.0889,"longitude":77.0595,"temp":21.2,"humidity":87,"rain":0.0,"pressure":859.0,"uv_index":9.15,"wind_gusts":38.9,"aqi":67,"pm10":30.5,"pm2_5":22.9,"mosquito_risk":3,"arthritis_risk":5,"migraine_risk":7,"frizz_risk":1,"updated_at":"2026-04-07T08:11:52.869905+05:30"},{"city":"Silchar","state":"Assam","latitude":24.8333,"longitude":92.7789,"temp":23.6,"humidity":89,"rain":0.0,"pressure":1009.0,"uv_index":7.4,"wind_gusts":26.3,"aqi":155,"pm10":75.9,"pm2_5":65.9,"mosquito_risk":3,"arthritis_risk":0,"migraine_risk":4,"frizz_risk":1,"updated_at":"2026-04-07T08:11:52.869911+05:30"},{"city":"Dibrugarh","state":"Assam","latitude":27.4728,"longitude":94.912,"temp":20.9,"humidity":84,"rain":0.0,"pressure":1000.4,"uv_index":5.65,"wind_gusts":29.5,"aqi":82,"pm10":39.7,"pm2_5":30.3,"mosquito_risk":3,"arthritis_risk":5,"migraine_risk":0,"frizz_risk":1,"updated_at":"2026-04-07T08:11:52.869918+05:30"}]