[{"city":"Delhi","state":"Delhi","latitude":28.6139,"longitude":77.209,"temp":19.0,"humidity":88,"rain":0.0,"pressure":986.4,"uv_index":6.55,"wind_gusts":26.3,"aqi":154,"pm10":196.0,"pm2_5":87.3,"mosquito_risk":3,"arthritis_risk":10,"migraine_risk":7,"frizz_risk":1,"updated_at":"2026-03-24T05:06:03.419918+05:30"},{"city":"Mumbai","state":"Maharashtra","latitude":19.076,"longitude":72.8777,"temp":27.5,"humidity":81,"rain":0.0,"pressure":1008.3,"uv_index":7.95,"wind_gusts":27.0,"aqi":99,"pm10":53.4,"pm2_5":32.8,"mosquito_risk":7,"arthritis_risk":0,"migraine_risk":4,"frizz_risk":1,"updated_at":"2026-03-24T05:06:03.419955+05:30"},{"city":"Bangalore","state":"Karnataka","latitude":12.9716,"longitude":77.5946,"temp":21.4,"humidity":86,"rain":0.0,"pressure":911.6,"uv_index":9.5,"wind_gusts":38.9,"aqi":80,"pm10":32.2,"pm2_5":28.0,"mosquito_risk":3,"arthritis_risk":5,"migraine_risk":7,"frizz_risk":1,"updated_at":"2026-03-24T05:06:03.419970+05:30"},{"city":"Hyderabad","state":"Telangana","latitude":17.385,"longitude":78.4867,"temp":23.1,"humidity":81,"rain":0.0,"pressure":953.5,"uv_index":8.95,"wind_gusts":20.2,"aqi":87,"pm10":27.9,"pm2_5":21.2,"mosquito_risk":3,"arthritis_risk":5,"migraine_risk":7,"frizz_risk":1,"updated_at":"2026-03-24T05:06:03.419980+05:30"},{"city":"Chennai","state":"Tamil Nadu","latitude":13.0827,"longitude":80.2707,"temp":25.7,"humidity":83,"rain":0.0,"pressure":1008.4,"uv_index":9.25,"wind_gusts":33.5,"aqi":35,"pm10":14.5,"pm2_5":9.1,"mosquito_risk":7,"arthritis_risk":0,"migraine_risk":4,"frizz_risk":1,"updated_at":"2026-03-24T05:06:03.419989+05:30"},{"city":"Kolkata","state":"West Bengal","latitude":22.5726,"longitude":88.3639,"temp":21.9,"humidity":96,"rain":0.0,"pressure":1009.2,"uv_index":8.3,"wind_gusts":20.9,"aqi":152,"pm10":69.8,"pm2_5":62.9,"mosquito_risk":3,"arthritis_risk":0,"migraine_risk":4,"frizz_risk":1,"updated_at":"2026-03-24T05:06:03.419998+05:30"},{"city":"Pune","state":"Maharashtra","latitude":18.5204,"longitude":73.8567,"temp":23.0,"humidity":56,"rain":0.0,"pressure":948.2,"uv_index":8.5,"wind_gusts":28.1,"aqi":94,"pm10":60.5,"pm2_5":48.7,"mosquito_risk":0,"arthritis_risk":5,"migraine_risk":7,"frizz_risk":0,"updated_at":"2026-03-24T05:06:03.420010+05:30"},{"city":"Ahmedabad","state":"Gujarat","latitude":23.0225,"longitude":72.5714,"temp":23.0,"humidity":69,"rain":0.0,"pressure":1003.5,"uv_index":7.75,"wind_gusts":15.5,"aqi":77,"pm10":21.9,"pm2_5":18.4,"mosquito_risk":3,"arthritis_risk":5,"migraine_risk":4,"frizz_risk":1,"updated_at":"2026-03-24T05:06:03.420018+05:30"},{"city":"Jaipur","state":"Rajasthan","latitude":26.9124,"longitude":75.7873,"temp":20.3,"humidity":79,"rain":0.0,"pressure":962.1,"uv_index":7.25,"wind_gusts":14.8,"aqi":131,"pm10":167.6,"pm2_5":55.2,"mosquito_risk":3,"arthritis_risk":5,"migraine_risk":7,"frizz_risk":1,"updated_at":"2026-03-24T05:06:03.420025+05:30"},{"city":"Lucknow","state":"Uttar Pradesh","latitude":26.8467,"longitude":80.9462,"temp":19.6,"humidity":80,"rain":0.0,"pressure":997.5,"uv_index":7.1,"wind_gusts":29.2,"aqi":149,"pm10":116.9,"pm2_5":39.9,"mosquito_risk":3,"arthritis_risk":5,"migraine_risk":7,"frizz_risk":0,"updated_at":"2026-03-24T05:06:03.420033+05:30"},{"city":"Kanpur","state":"Uttar Pradesh","latitude":26.4499,"longitude":80.3319,"temp":18.8,"humidity":84,"rain":0.0,"pressure":995.6,"uv_index":7.0,"wind_gusts":26.3,"aqi":173,"pm10":122.5,"pm2_5":43.2,"mosquito_risk":3,"arthritis_risk":10,"migraine_risk":7,"frizz_risk":0,"updated_at":"2026-03-24T05:06:03.420039+05:30"},{"city":"Chandigarh","state":"Chandigarh","latitude":30.7333,"longitude":76.7794,"temp":15.7,"humidity":84,"rain":0.0,"pressure":971.8,"uv_index":6.5,"wind_gusts":34.9,"aqi":109,"pm10":32.8,"pm2_5":28.9,"mosquito_risk":3,"arthritis_risk":10,"migraine_risk":7,"frizz_risk":0,"updated_at":"2026-03-24T05:06:03.420046+05:30"},{"city":"Srinagar","state":"Jammu and Kashmir","latitude":34.0837,"longitude":74.7973,"temp":7.0,"humidity":93,"rain":0.0,"pressure":842.6,"uv_index":7.55,"wind_gusts":15.1,"aqi":76,"pm10":28.1,"pm2_5":24.9,"mosquito_risk":3,"arthritis_risk":10,"migraine_risk":7,"frizz_risk":0,"updated_at":"2026-03-24T05:06:03.420053+05:30"},{"city":"Jammu","state":"Jammu and Kashmir","latitude":32.7266,"longitude":74.857,"temp":16.3,"humidity":77,"rain":0.0,"pressure":976.6,"uv_index":7.2,"wind_gusts":32.4,"aqi":78,"pm10":16.8,"pm2_5":15.9,"mosquito_risk":3,"arthritis_risk":5,"migraine_risk":7,"frizz_risk":0,"updated_at":"2026-03-24T05:06:03.420061+05:30"},{"city":"Amritsar","state":"Punjab","latitude":31.634,"longitude":74.8723,"temp":16.2,"humidity":90,"rain":0.0,"pressure":984.4,"uv_index":7.15,"wind_gusts":27.0,"aqi":121,"pm10":84.3,"pm2_5":68.9,"mosquito_risk":3,"arthritis_risk":10,"migraine_risk":7,"frizz_risk":0,"updated_at":"2026-03-24T05:06:03.420068+05:30"},{"city":"Ludhiana","state":"Punjab","latitude":30.901,"longitude":75.8573,"temp":16.6,"humidity":86,"rain":0.0,"pressure":982.1,"uv_index":6.65,"wind_gusts":31.0,"aqi":154,"pm10":108.7,"pm2_5":90.3,"mosquito_risk":3,"arthritis_risk":10,"migraine_risk":7,"frizz_risk":0,"updated_at":"2026-03-24T05:06:03.420073+05:30"},{"city":"Jalandhar","state":"Punjab","latitude":31.326,"longitude":75.5762,"temp":15.9,"humidity":92,"rain":0.0,"pressure":983.4,"uv_index":6.95,"wind_gusts":30.6,"aqi":143,"pm10":93.8,"pm2_5":78.9,"mosquito_risk":3,"arthritis_risk":10,"migraine_risk":7,"frizz_risk":0,"updated_at":"2026-03-24T05:06:03.420082+05:30"},{"city":"Dehradun","state":"Uttarakhand","latitude":30.6284,"longitude":78.0322,"temp":8.7,"humidity":80,"rain":0.0,"pressure":828.4,"uv_index":6.95,"wind_gusts":34.2,"aqi":53,"pm10":9.2,"pm2_5":9.0,"mosquito_risk":3,"arthritis_risk":5,"migraine_risk":7,"frizz_risk":0,"updated_at":"2026-03-24T05:06:03.420088+05:30"},{"city":"Shimla","state":"Himachal Pradesh","latitude":31.1048,"longitude":77.1734,"temp":6.9,"humidity":83,"rain":0.0,"pressure":781.5,"uv_index":7.0,"wind_gusts":50.4,"aqi":65,"pm10":16.2,"pm2_5":14.8,"mosquito_risk":3,"arthritis_risk":10,"migraine_risk":7,"frizz_risk":0,"updated_at":"2026-03-24T05:06:03.420095+05:30"},{"city":"Manali","state":"Himachal Pradesh","latitude":32.2396,"longitude":77.1887,"temp":9.3,"humidity":52,"rain":0.0,"pressure":816.8,"uv_index":9.15,"wind_gusts":27.7,"aqi":94,"pm10":2.1,"pm2_5":1.8,"mosquito_risk":0,"arthritis_risk":5,"migraine_risk":7,"frizz_risk":1,"updated_at":"2026-03-24T05:06:03.420102+05:30"},{"city":"Gurgaon","state":"Haryana","latitude":28.4595,"longitude":77.0266,"temp":17.9,"humidity":93,"rain":0.0,"pressure":984.8,"uv_index":6.65,"wind_gusts":24.5,"aqi":198,"pm10":414.4,"pm2_5":122.9,"mosquito_risk":3,"arthritis_risk":10,"migraine_risk":7,"frizz_risk":1,"updated_at":"2026-03-24T05:06:03.420110+05:30"},{"city":"Noida","state":"Uttar Pradesh","latitude":28.5355,"longitude":77.391,"temp":18.4,"humidity":93,"rain":0.0,"pressure":988.0,"uv_index":6.55,"wind_gusts":25.2,"aqi":198,"pm10":414.4,"pm2_5":122.9,"mosquito_risk":3,"arthritis_risk":10,"migraine_risk":7,"frizz_risk":1,"updated_at":"2026-03-24T05:06:03.420117+05:30"},{"city":"Ghaziabad","state":"Uttar Pradesh","latitude":28.6692,"longitude":77.4538,"temp":17.7,"humidity":93,"rain":0.0,"pressure":986.1,"uv_index":6.25,"wind_gusts":25.2,"aqi":150,"pm10":182.5,"pm2_5":77.5,"mosquito_risk":3,"arthritis_risk":10,"migraine_risk":7,"frizz_risk":1,"updated_at":"2026-03-24T05:06:03.420124+05:30"},{"city":"Faridabad","state":"Haryana","latitude":28.4089,"longitude":77.3178,"temp":17.6,"humidity":92,"rain":0.0,"pressure":987.3,"uv_index":6.6,"wind_gusts":23.0,"aqi":198,"pm10":414.4,"pm2_5":122.9,"mosquito_risk":3,"arthritis_risk":10,"migraine_risk":7,"frizz_risk":1,"updated_at":"2026-03-24T05:06:03.420130+05:30"},{"city":"Meerut","state":"Uttar Pradesh","latitude":28.9845,"longitude":77.7064,"temp":16.1,"humidity":98,"rain":0.0,"pressure":984.9,"uv_index":6.45,"wind_gusts":27.4,"aqi":150,"pm10":182.5,"pm2_5":77.5,"mosquito_risk":3,"arthritis_risk":10,"migraine_risk":7,"frizz_risk":0,"updated_at":"2026-03-24T05:06:03.420136+05:30"},{"city":"Agra","state":"Uttar Pradesh","latitude":27.1767,"longitude":78.0081,"temp":17.8,"humidity":93,"rain":0.0,"pressure":991.5,"uv_index":6.45,"wind_gusts":23.0,"aqi":181,"pm10":191.9,"pm2_5":64.5,"mosquito_risk":3,"arthritis_risk":10,"migraine_risk":7,"frizz_risk":1,"updated_at":"2026-03-24T05:06:03.420142+05:30"},{"city":"Varanasi","state":"Uttar Pradesh","latitude":25.3176,"longitude":82.9739,"temp":19.8,"humidity":75,"rain":0.0,"pressure":1001.2,"uv_index":7.7,"wind_gusts":24.1,"aqi":129,"pm10":135.0,"pm2_5":62.2,"mosquito_risk":3,"arthritis_risk":5,"migraine_risk":4,"frizz_risk":0,"updated_at":"2026-03-24T05:06:03.420151+05:30"},{"city":"Prayagraj","state":"Uttar Pradesh","latitude":25.4358,"longitude":81.8463,"temp":20.9,"humidity":72,"rain":0.0,"pressure":999.8,"uv_index":7.6,"wind_gusts":21.2,"aqi":124,"pm10":77.1,"pm2_5":49.0,"mosquito_risk":3,"arthritis_risk":5,"migraine_risk":7,"frizz_risk":0,"updated_at":"2026-03-24T05:06:03.420158+05:30"},{"city":"Gorakhpur","state":"Uttar Pradesh","latitude":26.7606,"longitude":83.3732,"temp":18.3,"humidity":90,"rain":0.0,"pressure":1000.6,"uv_index":7.45,"wind_gusts":31.7,"aqi":152,"pm10":111.5,"pm2_5":76.1,"mosquito_risk":3,"arthritis_risk":10,"migraine_risk":4,"frizz_risk":1,"updated_at":"2026-03-24T05:06:03.420164+05:30"},{"city":"Bareilly","state":"Uttar Pradesh","latitude":28.367,"longitude":79.4304,"temp":17.3,"humidity":97,"rain":0.0,"pressure":990.5,"uv_index":6.8,"wind_gusts":27.0,"aqi":113,"pm10":66.8,"pm2_5":59.1,"mosquito_risk":3,"arthritis_risk":10,"migraine_risk":7,"frizz_risk":1,"updated_at":"2026-03-24T05:06:03.420170+05:30"},{"city":"Aligarh","state":"Uttar Pradesh","latitude":27.8974,"longitude":78.088,"temp":17.0,"humidity":95,"rain":0.0,"pressure":989.2,"uv_index":6.7,"wind_gusts":21.6,"aqi":155,"pm10":197.4,"pm2_5":89.9,"mosquito_risk":3,"arthritis_risk":10,"migraine_risk":7,"frizz_risk":1,"updated_at":"2026-03-24T05:06:03.420179+05:30"},{"city":"Moradabad","state":"Uttar Pradesh","latitude":28.8386,"longitude":78.7733,"temp":16.4,"humidity":97,"rain":0.0,"pressure":987.4,"uv_index":6.6,"wind_gusts":28.4,"aqi":132,"pm10":109.9,"pm2_5":75.7,"mosquito_risk":3,"arthritis_risk":10,"migraine_risk":7,"frizz_risk":0,"updated_at":"2026-03-24T05:06:03.420185+05:30"},{"city":"Saharanpur","state":"Uttar Pradesh","latitude":29.9637,"longitude":77.546,"temp":15.2,"humidity":97,"rain":0.0,"pressure":979.1,"uv_index":6.25,"wind_gusts":36.4,"aqi":155,"pm10":130.9,"pm2_5":123.9,"mosquito_risk":3,"arthritis_risk":10,"migraine_risk":7,"frizz_risk":0,"updated_at":"2026-03-24T05:06:03.420191+05:30"},{"city":"Jhansi","state":"Uttar Pradesh","latitude":25.4484,"longitude":78.5685,"temp":18.3,"humidity":83,"rain":0.0,"pressure":981.0,"uv_index":7.55,"wind_gusts":26.6,"aqi":105,"pm10":196.0,"pm2_5":54.7,"mosquito_risk":3,"arthritis_risk":10,"migraine_risk":7,"frizz_risk":0,"updated_at":"2026-03-24T05:06:06.639502+05:30"},{"city":"Surat","state":"Gujarat","latitude":21.1702,"longitude":72.8311,"temp":24.7,"humidity":79,"rain":0.0,"pressure":1007.6,"uv_index":7.05,"wind_gusts":20.5,"aqi":131,"pm10":65.9,"pm2_5":52.7,"mosquito_risk":3,"arthritis_risk":5,"migraine_risk":4,"frizz_risk":1,"updated_at":"2026-03-24T05:06:06.639529+05:30"},{"city":"Vadodara","state":"Gujarat","latitude":22.3072,"longitude":73.1812,"temp":23.7,"humidity":63,"rain":0.0,"pressure":1005.6,"uv_index":7.7,"wind_gusts":20.9,"aqi":87,"pm10":46.3,"pm2_5":35.2,"mosquito_risk":3,"arthritis_risk":5,"migraine_risk":4,"frizz_risk":1,"updated_at":"2026-03-24T05:06:06.639538+05:30"},{"city":"Rajkot","state":"Gujarat","latitude":22.3039,"longitude":70.8022,"temp":21.5,"humidity":95,"rain":0.0,"pressure":995.7,"uv_index":7.3,"wind_gusts":21.2,"aqi":57,"pm10":6.5,"pm2_5":4.9,"mosquito_risk":3,"arthritis_risk":5,"migraine_risk":7,"frizz_risk":1,"updated_at":"2026-03-24T05:06:06.639545+05:30"},{"city":"Thane","state":"Maharashtra","latitude":19.2183,"longitude":72.9781,"temp":25.2,"humidity":80,"rain":0.0,"pressure":1007.9,"uv_index":7.75,"wind_gusts":41.8,"aqi":99,"pm10":53.4,"pm2_5":32.8,"mosquito_risk":7,"arthritis_risk":5,"migraine_risk":4,"frizz_risk":1,"updated_at":"2026-03-24T05:06:06.639552+05:30"},{"city":"Nagpur","state":"Maharashtra","latitude":21.1458,"longitude":79.0882,"temp":23.0,"humidity":60,"rain":0.0,"pressure":973.9,"uv_index":8.45,"wind_gusts":21.2,"aqi":79,"pm10":49.9,"pm2_5":33.6,"mosquito_risk":0,"arthritis_risk":5,"migraine_risk":7,"frizz_risk":0,"updated_at":"2026-03-24T05:06:06.639559+05:30"},{"city":"Nashik","state":"Maharashtra","latitude":19.9975,"longitude":73.7898,"temp":23.3,"humidity":58,"rain":0.0,"pressure":945.9,"uv_index":8.05,"wind_gusts":31.3,"aqi":64,"pm10":55.5,"pm2_5":30.6,"mosquito_risk":0,"arthritis_risk":5,"migraine_risk":7,"frizz_risk":0,"updated_at":"2026-03-24T05:06:06.639565+05:30"},{"city":"Aurangabad","state":"Maharashtra","latitude":19.8762,"longitude":75.3433,"temp":24.2,"humidity":51,"rain":0.0,"pressure":944.4,"uv_index":8.55,"wind_gusts":23.8,"aqi":60,"pm10":31.3,"pm2_5":17.8,"mosquito_risk":0,"arthritis_risk":5,"migraine_risk":7,"frizz_risk":0,"updated_at":"2026-03-24T05:06:06.639572+05:30"},{"city":"Solapur","state":"Maharashtra","latitude":17.6599,"longitude":75.9064,"temp":22.8,"humidity":62,"rain":0.0,"pressure":956.7,"uv_index":8.8,"wind_gusts":20.9,"aqi":91,"pm10":43.8,"pm2_5":35.9,"mosquito_risk":3,"arthritis_risk":5,"migraine_risk":7,"frizz_risk":0,"updated_at":"2026-03-24T05:06:06.639578+05:30"},{"city":"Kolhapur","state":"Maharashtra","latitude":16.705,"longitude":74.2433,"temp":18.5,"humidity":90,"rain":0.0,"pressure":947.1,"uv_index":8.95,"wind_gusts":43.9,"aqi":102,"pm10":56.3,"pm2_5":50.1,"mosquito_risk":3,"arthritis_risk":10,"migraine_risk":7,"frizz_risk":1,"updated_at":"2026-03-24T05:06:06.639585+05:30"},{"city":"Goa","state":"Goa","latitude":15.2993,"longitude":74.124,"temp":27.5,"humidity":83,"rain":0.0,"pressure":997.9,"uv_index":8.9,"wind_gusts":30.6,"aqi":91,"pm10":62.4,"pm2_5":49.1,"mosquito_risk":7,"arthritis_risk":5,"migraine_risk":7,"frizz_risk":1,"updated_at":"2026-03-24T05:06:06.639592+05:30"},{"city":"Jodhpur","state":"Rajasthan","latitude":26.2389,"longitude":73.0243,"temp":24.6,"humidity":51,"rain":0.0,"pressure":984.6,"uv_index":7.1,"wind_gusts":15.1,"aqi":73,"pm10":45.2,"pm2_5":21.9,"mosquito_risk":0,"arthritis_risk":5,"migraine_risk":7,"frizz_risk":0,"updated_at":"2026-03-24T05:06:06.639598+05:30"},{"city":"Udaipur","state":"Rajasthan","latitude":24.5854,"longitude":73.7125,"temp":19.3,"humidity":67,"rain":0.0,"pressure":947.6,"uv_index":8.1,"wind_gusts":23.8,"aqi":56,"pm10":39.1,"pm2_5":15.3,"mosquito_risk":3,"arthritis_risk":5,"migraine_risk":7,"frizz_risk":0,"updated_at":"2026-03-24T05:06:06.639635+05:30"},{"city":"Kota","state":"Rajasthan","latitude":25.2138,"longitude":75.8648,"temp":20.0,"humidity":85,"rain":0.0,"pressure":981.2,"uv_index":7.65,"wind_gusts":15.1,"aqi":97,"pm10":114.3,"pm2_5":51.6,"mosquito_risk":3,"arthritis_risk":5,"migraine_risk":7,"frizz_risk":1,"updated_at":"2026-03-24T05:06:06.639647+05:30"},{"city":"Bikaner","state":"Rajasthan","latitude":28.0229,"longitude":73.3119,"temp":23.5,"humidity":56,"rain":0.0,"pressure":983.9,"uv_index":7.15,"wind_gusts":19.1,"aqi":67,"pm10":54.7,"pm2_5":19.8,"mosquito_risk":0,"arthritis_risk":5,"migraine_risk":7,"frizz_risk":0,"updated_at":"2026-03-24T05:06:06.639654+05:30"},{"city":"Ajmer","state":"Rajasthan","latitude":26.4499,"longitude":74.6399,"temp":21.9,"humidity":71,"rain":0.0,"pressure":956.4,"uv_index":7.6,"wind_gusts":23.8,"aqi":88,"pm10":150.4,"pm2_5":44.7,"mosquito_risk":3,"arthritis_risk":5,"migraine_risk":7,"frizz_risk":1,"updated_at":"2026-03-24T05:06:06.639661+05:30"},{"city":"Gwalior","state":"Madhya Pradesh","latitude":26.2183,"longitude":78.1828,"temp":19.0,"humidity":90,"rain":0.0,"pressure":986.8,"uv_index":7.2,"wind_gusts":27.0,"aqi":116,"pm10":184.4,"pm2_5":50.6,"mosquito_risk":3,"arthritis_risk":10,"migraine_risk":7,"frizz_risk":1,"updated_at":"2026-03-24T05:06:06.639668+05:30"},{"city":"Indore","state":"Madhya Pradesh","latitude":22.7196,"longitude":75.8577,"temp":20.2,"humidity":66,"rain":0.0,"pressure":948.4,"uv_index":8.1,"wind_gusts":24.8,"aqi":61,"pm10":23.1,"pm2_5":15.9,"mosquito_risk":3,"arthritis_risk":5,"migraine_risk":7,"frizz_risk":0,"updated_at":"2026-03-24T05:06:06.639674+05:30"},{"city":"Bhopal","state":"Madhya Pradesh","latitude":23.2599,"longitude":77.4126,"temp":20.3,"humidity":70,"rain":0.0,"pressure":954.5,"uv_index":8.05,"wind_gusts":30.6,"aqi":59,"pm10":61.9,"pm2_5":32.9,"mosquito_risk":3,"arthritis_risk":5,"migraine_risk":7,"frizz_risk":0,"updated_at":"2026-03-24T05:06:06.639680+05:30"},{"city":"Jabalpur","state":"Madhya Pradesh","latitude":23.1815,"longitude":79.9864,"temp":20.9,"humidity":68,"rain":0.0,"pressure":962.9,"uv_index":8.15,"wind_gusts":25.9,"aqi":70,"pm10":48.4,"pm2_5":32.4,"mosquito_risk":3,"arthritis_risk":5,"migraine_risk":7,"frizz_risk":0,"updated_at":"2026-03-24T05:06:06.639686+05:30"},{"city":"Ujjain","state":"Madhya Pradesh","latitude":23.1765,"longitude":75.7885,"temp":20.2,"humidity":65,"rain":0.0,"pressure":954.4,"uv_index":8.0,"wind_gusts":16.2,"aqi":67,"pm10":26.0,"pm2_5":19.0,"mosquito_risk":3,"arthritis_risk":5,"migraine_risk":7,"frizz_risk":0,"updated_at":"2026-03-24T05:06:06.639692+05:30"},{"city":"Visakhapatnam","state":"Andhra Pradesh","latitude":17.6868,"longitude":83.2185,"temp":23.8,"humidity":93,"rain":0.0,"pressure":1005.6,"uv_index":8.95,"wind_gusts":36.7,"aqi":90,"pm10":48.0,"pm2_5":43.4,"mosquito_risk":3,"arthritis_risk":5,"migraine_risk":4,"frizz_risk":1,"updated_at":"2026-03-24T05:06:06.639698+05:30"},{"city":"Vijayawada","state":"Andhra Pradesh","latitude":16.5062,"longitude":80.648,"temp":24.0,"humidity":92,"rain":0.0,"pressure":1004.2,"uv_index":9.0,"wind_gusts":23.8,"aqi":63,"pm10":26.4,"pm2_5":20.9,"mosquito_risk":3,"arthritis_risk":5,"migraine_risk":4,"frizz_risk":1,"updated_at":"2026-03-24T05:06:06.639704+05:30"},{"city":"Guntur","state":"Andhra Pradesh","latitude":16.3067,"longitude":80.4365,"temp":23.8,"humidity":95,"rain":0.0,"pressure":1005.3,"uv_index":9.0,"wind_gusts":29.2,"aqi":61,"pm10":20.8,"pm2_5":16.2,"mosquito_risk":3,"arthritis_risk":5,"migraine_risk":4,"frizz_risk":1,"updated_at":"2026-03-24T05:06:06.639710+05:30"},{"city":"Nellore","state":"Andhra Pradesh","latitude":14.4426,"longitude":79.9865,"temp":24.6,"humidity":90,"rain":0.0,"pressure":1007.1,"uv_index":9.15,"wind_gusts":31.0,"aqi":43,"pm10":12.8,"pm2_5":8.0,"mosquito_risk":3,"arthritis_risk":5,"migraine_risk":4,"frizz_risk":1,"updated_at":"2026-03-24T05:06:06.639717+05:30"},{"city":"Kurnool","state":"Andhra Pradesh","latitude":15.8281,"longitude":78.0373,"temp":25.7,"humidity":74,"rain":0.0,"pressure":977.2,"uv_index":9.0,"wind_gusts":22.3,"aqi":62,"pm10":11.6,"pm2_5":9.3,"mosquito_risk":7,"arthritis_risk":5,"migraine_risk":7,"frizz_risk":1,"updated_at":"2026-03-24T05:06:06.639724+05:30"},{"city":"Kakinada","state":"Andhra Pradesh","latitude":16.9891,"longitude":82.2475,"temp":22.5,"humidity":98,"rain":0.0,"pressure":1009.3,"uv_index":8.95,"wind_gusts":28.8,"aqi":52,"pm10":22.1,"pm2_5":14.8,"mosquito_risk":3,"arthritis_risk":0,"migraine_risk":4,"frizz_risk":1,"updated_at":"2026-03-24T05:06:06.639731+05:30"},{"city":"Tirupati","state":"Andhra Pradesh","latitude":13.6288,"longitude":79.4192,"temp":22.6,"humidity":89,"rain":0.0,"pressure":993.1,"uv_index":9.25,"wind_gusts":27.7,"aqi":63,"pm10":27.0,"pm2_5":23.6,"mosquito_risk":3,"arthritis_risk":5,"migraine_risk":7,"frizz_risk":1,"updated_at":"2026-03-24T05:06:06.639737+05:30"},{"city":"Warangal","state":"Telangana","latitude":17.9689,"longitude":79.5941,"temp":23.1,"humidity":86,"rain":0.0,"pressure":979.5,"uv_index":8.8,"wind_gusts":27.7,"aqi":107,"pm10":22.2,"pm2_5":20.0,"mosquito_risk":3,"arthritis_risk":5,"migraine_risk":7,"frizz_risk":1,"updated_at":"2026-03-24T05:06:06.639742+05:30"},{"city":"Nizamabad","state":"Telangana","latitude":18.6725,"longitude":78.0941,"temp":25.1,"humidity":65,"rain":0.0,"pressure":964.9,"uv_index":8.75,"wind_gusts":30.6,"aqi":111,"pm10":38.0,"pm2_5":33.5,"mosquito_risk":7,"arthritis_risk":5,"migraine_risk":7,"frizz_risk":1,"updated_at":"2026-03-24T05:06:06.639748+05:30"},{"city":"Mysore","state":"Karnataka","latitude":12.2958,"longitude":76.6396,"temp":21.7,"humidity":91,"rain":0.0,"pressure":928.3,"uv_index":9.45,"wind_gusts":45.7,"aqi":97,"pm10":49.0,"pm2_5":43.9,"mosquito_risk":3,"arthritis_risk":5,"migraine_risk":7,"frizz_risk":1,"updated_at":"2026-03-24T05:06:06.639754+05:30"},{"city":"Mangalore","state":"Karnataka","latitude":12.9141,"longitude":74.856,"temp":28.4,"humidity":80,"rain":0.0,"pressure":1006.8,"uv_index":9.1,"wind_gusts":22.0,"aqi":76,"pm10":39.0,"pm2_5":32.0,"mosquito_risk":7,"arthritis_risk":5,"migraine_risk":4,"frizz_risk":1,"updated_at":"2026-03-24T05:06:06.639760+05:30"},{"city":"Hubli-Dharwad","state":"Karnataka","latitude":15.3647,"longitude":75.124,"temp":22.2,"humidity":90,"rain":0.0,"pressure":940.4,"uv_index":9.0,"wind_gusts":43.2,"aqi":93,"pm10":39.9,"pm2_5":34.1,"mosquito_risk":3,"arthritis_risk":5,"migraine_risk":7,"frizz_risk":1,"updated_at":"2026-03-24T05:06:06.639766+05:30"},{"city":"Belgaum","state":"Karnataka","latitude":15.8497,"longitude":74.4977,"temp":21.1,"humidity":98,"rain":0.0,"pressure":925.2,"uv_index":9.05,"wind_gusts":42.5,"aqi":89,"pm10":51.8,"pm2_5":42.0,"mosquito_risk":3,"arthritis_risk":5,"migraine_risk":7,"frizz_risk":1,"updated_at":"2026-03-24T05:06:09.862163+05:30"},{"city":"Coimbatore","state":"Tamil Nadu","latitude":11.0168,"longitude":76.9558,"temp":22.3,"humidity":79,"rain":0.0,"pressure":962.4,"uv_index":9.4,"wind_gusts":31.7,"aqi":73,"pm10":25.8,"pm2_5":22.5,"mosquito_risk":3,"arthritis_risk":5,"migraine_risk":7,"frizz_risk":1,"updated_at":"2026-03-24T05:06:09.862194+05:30"},{"city":"Madurai","state":"Tamil Nadu","latitude":9.9252,"longitude":78.1198,"temp":24.8,"humidity":86,"rain":0.0,"pressure":994.2,"uv_index":9.35,"wind_gusts":27.7,"aqi":57,"pm10":24.9,"pm2_5":22.8,"mosquito_risk":3,"arthritis_risk":5,"migraine_risk":7,"frizz_risk":1,"updated_at":"2026-03-24T05:06:09.862204+05:30"},{"city":"Trichy","state":"Tamil Nadu","latitude":10.7905,"longitude":78.7047,"temp":23.6,"humidity":95,"rain":0.0,"pressure":1001.1,"uv_index":9.3,"wind_gusts":23.0,"aqi":55,"pm10":20.0,"pm2_5":18.0,"mosquito_risk":3,"arthritis_risk":5,"migraine_risk":4,"frizz_risk":1,"updated_at":"2026-03-24T05:06:09.862212+05:30"},{"city":"Salem","state":"Tamil Nadu","latitude":11.6643,"longitude":78.146,"temp":23.6,"humidity":87,"rain":0.0,"pressure":978.4,"uv_index":9.35,"wind_gusts":24.5,"aqi":75,"pm10":33.6,"pm2_5":31.3,"mosquito_risk":3,"arthritis_risk":5,"migraine_risk":7,"frizz_risk":1,"updated_at":"2026-03-24T05:06:09.862219+05:30"},{"city":"Tirunelveli","state":"Tamil Nadu","latitude":8.7139,"longitude":77.7567,"temp":25.3,"humidity":82,"rain":0.0,"pressure":1004.1,"uv_index":9.35,"wind_gusts":38.5,"aqi":59,"pm10":21.4,"pm2_5":19.2,"mosquito_risk":7,"arthritis_risk":5,"migraine_risk":4,"frizz_risk":1,"updated_at":"2026-03-24T05:06:09.862226+05:30"},{"city":"Vellore","state":"Tamil Nadu","latitude":12.9165,"longitude":79.1325,"temp":22.1,"humidity":90,"rain":0.0,"pressure":985.8,"uv_index":9.3,"wind_gusts":32.8,"aqi":72,"pm10":35.6,"pm2_5":32.2,"mosquito_risk":3,"arthritis_risk":5,"migraine_risk":7,"frizz_risk":1,"updated_at":"2026-03-24T05:06:09.862233+05:30"},{"city":"Erode","state":"Tamil Nadu","latitude":11.341,"longitude":77.7172,"temp":24.3,"humidity":87,"rain":0.0,"pressure":990.4,"uv_index":9.35,"wind_gusts":19.8,"aqi":57,"pm10":18.8,"pm2_5":16.9,"mosquito_risk":3,"arthritis_risk":5,"migraine_risk":7,"frizz_risk":1,"updated_at":"2026-03-24T05:06:09.862240+05:30"},{"city":"Kochi","state":"Kerala","latitude":9.9312,"longitude":76.2673,"temp":27.1,"humidity":84,"rain":0.0,"pressure":1008.9,"uv_index":9.15,"wind_gusts":35.6,"aqi":85,"pm10":44.2,"pm2_5":37.0,"mosquito_risk":7,"arthritis_risk":0,"migraine_risk":4,"frizz_risk":1,"updated_at":"2026-03-24T05:06:09.862246+05:30"},{"city":"Thiruvananthapuram","state":"Kerala","latitude":8.5241,"longitude":76.9366,"temp":28.3,"humidity":80,"rain":0.0,"pressure":1007.7,"uv_index":9.2,"wind_gusts":32.0,"aqi":62,"pm10":28.9,"pm2_5":18.7,"mosquito_risk":7,"arthritis_risk":5,"migraine_risk":4,"frizz_risk":1,"updated_at":"2026-03-24T05:06:09.862253+05:30"},{"city":"Kozhikode","state":"Kerala","latitude":11.2588,"longitude":75.7804,"temp":27.3,"humidity":85,"rain":0.0,"pressure":1008.1,"uv_index":9.1,"wind_gusts":28.4,"aqi":68,"pm10":35.0,"pm2_5":24.8,"mosquito_risk":7,"arthritis_risk":0,"migraine_risk":4,"frizz_risk":1,"updated_at":"2026-03-24T05:06:09.862260+05:30"},{"city":"Thrissur","state":"Kerala","latitude":10.5276,"longitude":76.2144,"temp":25.2,"humidity":85,"rain":0.0,"pressure":1007.4,"uv_index":9.15,"wind_gusts":39.6,"aqi":81,"pm10":49.0,"pm2_5":40.9,"mosquito_risk":7,"arthritis_risk":5,"migraine_risk":4,"frizz_risk":1,"updated_at":"2026-03-24T05:06:09.862267+05:30"},{"city":"Kannur","state":"Kerala","latitude":11.8745,"longitude":75.3704,"temp":27.9,"humidity":81,"rain":0.0,"pressure":1007.3,"uv_index":9.1,"wind_gusts":28.4,"aqi":68,"pm10":30.4,"pm2_5":24.9,"mosquito_risk":7,"arthritis_risk":5,"migraine_risk":4,"frizz_risk":1,"updated_at":"2026-03-24T05:06:09.862274+05:30"},{"city":"Patna","state":"Bihar","latitude":25.5941,"longitude":85.1376,"temp":21.4,"humidity":82,"rain":0.0,"pressure":1003.3,"uv_index":7.9,"wind_gusts":35.3,"aqi":153,"pm10":114.8,"pm2_5":94.8,"mosquito_risk":3,"arthritis_risk":5,"migraine_risk":4,"frizz_risk":1,"updated_at":"2026-03-24T05:06:09.862280+05:30"},{"city":"Gaya","state":"Bihar","latitude":24.7914,"longitude":85.0002,"temp":20.2,"humidity":77,"rain":0.0,"pressure":996.7,"uv_index":7.95,"wind_gusts":20.9,"aqi":106,"pm10":116.2,"pm2_5":50.4,"mosquito_risk":3,"arthritis_risk":5,"migraine_risk":7,"frizz_risk":1,"updated_at":"2026-03-24T05:06:09.862286+05:30"},{"city":"Muzaffarpur","state":"Bihar","latitude":26.1209,"longitude":85.3647,"temp":20.1,"humidity":83,"rain":0.0,"pressure":1003.4,"uv_index":7.85,"wind_gusts":30.6,"aqi":154,"pm10":109.0,"pm2_5":94.3,"mosquito_risk":3,"arthritis_risk":5,"migraine_risk":4,"frizz_risk":1,"updated_at":"2026-03-24T05:06:09.862293+05:30"},{"city":"Bhagalpur","state":"Bihar","latitude":25.2425,"longitude":87.0117,"temp":21.1,"humidity":79,"rain":0.0,"pressure":1004.0,"uv_index":7.85,"wind_gusts":28.4,"aqi":137,"pm10":64.0,"pm2_5":60.1,"mosquito_risk":3,"arthritis_risk":5,"migraine_risk":4,"frizz_risk":1,"updated_at":"2026-03-24T05:06:09.862299+05:30"},{"city":"Ranchi","state":"Jharkhand","latitude":23.3441,"longitude":85.3096,"temp":19.7,"humidity":61,"rain":0.0,"pressure":939.4,"uv_index":8.3,"wind_gusts":32.0,"aqi":68,"pm10":63.3,"pm2_5":26.0,"mosquito_risk":3,"arthritis_risk":5,"migraine_risk":7,"frizz_risk":0,"updated_at":"2026-03-24T05:06:09.862306+05:30"},{"city":"Jamshedpur","state":"Jharkhand","latitude":22.8046,"longitude":86.2029,"temp":22.6,"humidity":76,"rain":0.0,"pressure":993.5,"uv_index":8.45,"wind_gusts":27.0,"aqi":135,"pm10":75.4,"pm2_5":68.0,"mosquito_risk":3,"arthritis_risk":5,"migraine_risk":7,"frizz_risk":1,"updated_at":"2026-03-24T05:06:09.862312+05:30"},{"city":"Dhanbad","state":"Jharkhand","latitude":23.7957,"longitude":86.4304,"temp":21.6,"humidity":66,"rain":0.0,"pressure":982.3,"uv_index":8.35,"wind_gusts":28.8,"aqi":159,"pm10":143.0,"pm2_5":134.6,"mosquito_risk":3,"arthritis_risk":5,"migraine_risk":7,"frizz_risk":0,"updated_at":"2026-03-24T05:06:09.862319+05:30"},{"city":"Bokaro","state":"Jharkhand","latitude":23.6693,"longitude":86.1511,"temp":22.7,"humidity":58,"rain":0.0,"pressure":986.6,"uv_index":8.35,"wind_gusts":24.5,"aqi":154,"pm10":126.2,"pm2_5":103.6,"mosquito_risk":0,"arthritis_risk":5,"migraine_risk":7,"frizz_risk":0,"updated_at":"2026-03-24T05:06:09.862326+05:30"},{"city":"Bhubaneswar","state":"Odisha","latitude":20.2961,"longitude":85.8245,"temp":24.3,"humidity":94,"rain":0.0,"pressure":1004.9,"uv_index":8.75,"wind_gusts":31.3,"aqi":114,"pm10":36.0,"pm2_5":27.8,"mosquito_risk":3,"arthritis_risk":5,"migraine_risk":4,"frizz_risk":1,"updated_at":"2026-03-24T05:06:09.862333+05:30"},{"city":"Cuttack","state":"Odisha","latitude":20.4625,"longitude":85.8828,"temp":24.1,"humidity":95,"rain":0.0,"pressure":1006.9,"uv_index":8.75,"wind_gusts":26.6,"aqi":114,"pm10":36.0,"pm2_5":27.8,"mosquito_risk":3,"arthritis_risk":5,"migraine_risk":4,"frizz_risk":1,"updated_at":"2026-03-24T05:06:09.862339+05:30"},{"city":"Rourkela","state":"Odisha","latitude":22.2604,"longitude":84.8536,"temp":18.6,"humidity":81,"rain":0.0,"pressure":987.2,"uv_index":8.0,"wind_gusts":21.2,"aqi":90,"pm10":44.0,"pm2_5":29.6,"mosquito_risk":3,"arthritis_risk":10,"migraine_risk":7,"frizz_risk":0,"updated_at":"2026-03-24T05:06:09.862346+05:30"},{"city":"Raipur","state":"Chhattisgarh","latitude":21.2514,"longitude":81.6296,"temp":23.0,"humidity":51,"rain":0.0,"pressure":975.8,"uv_index":8.5,"wind_gusts":20.5,"aqi":112,"pm10":68.2,"pm2_5":56.0,"mosquito_risk":0,"arthritis_risk":5,"migraine_risk":7,"frizz_risk":0,"updated_at":"2026-03-24T05:06:09.862352+05:30"},{"city":"Bhilai","state":"Chhattisgarh","latitude":21.1938,"longitude":81.3509,"temp":22.6,"humidity":56,"rain":0.0,"pressure":976.1,"uv_index":8.5,"wind_gusts":17.6,"aqi":117,"pm10":78.2,"pm2_5":66.1,"mosquito_risk":0,"arthritis_risk":5,"migraine_risk":7,"frizz_risk":0,"updated_at":"2026-03-24T05:06:09.862358+05:30"},{"city":"Guwahati","state":"Assam","latitude":26.1158,"longitude":91.7086,"temp":20.7,"humidity":84,"rain":0.0,"pressure":1005.0,"uv_index":7.75,"wind_gusts":29.2,"aqi":87,"pm10":34.7,"pm2_5":32.9,"mosquito_risk":3,"arthritis_risk":5,"migraine_risk":4,"frizz_risk":1,"updated_at":"2026-03-24T05:06:09.862364+05:30"},{"city":"Agartala","state":"Tripura","latitude":23.8315,"longitude":91.2868,"temp":19.8,"humidity":80,"rain":0.0,"pressure":1009.6,"uv_index":8.05,"wind_gusts":15.5,"aqi":159,"pm10":72.6,"pm2_5":68.9,"mosquito_risk":3,"arthritis_risk":0,"migraine_risk":4,"frizz_risk":1,"updated_at":"2026-03-24T05:06:09.862371+05:30"},{"city":"Shillong","state":"Meghalaya","latitude":25.5788,"longitude":91.8933,"temp":7.9,"humidity":77,"rain":0.0,"pressure":853.9,"uv_index":6.05,"wind_gusts":40.3,"aqi":75,"pm10":23.9,"pm2_5":22.6,"mosquito_risk":3,"arthritis_risk":5,"migraine_risk":7,"frizz_risk":0,"updated_at":"2026-03-24T05:06:09.862377+05:30"},{"city":"Imphal","state":"Manipur","latitude":24.817,"longitude":93.9368,"temp":12.3,"humidity":90,"rain":0.0,"pressure":924.3,"uv_index":8.2,"wind_gusts":43.2,"aqi":82,"pm10":44.8,"pm2_5":42.3,"mosquito_risk":3,"arthritis_risk":10,"migraine_risk":7,"frizz_risk":0,"updated_at":"2026-03-24T05:06:09.862384+05:30"},{"city":"Aizawl","state":"Mizoram","latitude":23.7271,"longitude":92.7176,"temp":12.2,"humidity":82,"rain":0.0,"pressure":892.6,"uv_index":8.35,"wind_gusts":31.7,"aqi":87,"pm10":45.8,"pm2_5":41.0,"mosquito_risk":3,"arthritis_risk":10,"migraine_risk":7,"frizz_risk":0,"updated_at":"2026-03-24T05:06:09.862391+05:30"},{"city":"Kohima","state":"Nagaland","latitude":25.6701,"longitude":94.1077,"temp":10.8,"humidity":90,"rain":0.0,"pressure":854.2,"uv_index":7.9,"wind_gusts":55.4,"aqi":69,"pm10":28.7,"pm2_5":26.7,"mosquito_risk":3,"arthritis_risk":10,"migraine_risk":7,"frizz_risk":0,"updated_at":"2026-03-24T05:06:09.862397+05:30"},{"city":"Gangtok","state":"Sikkim","latitude":27.3314,"longitude":88.6138,"temp":11.2,"humidity":88,"rain":0.0,"pressure":836.2,"uv_index":2.3,"wind_gusts":18.0,"aqi":76,"pm10":32.4,"pm2_5":29.8,"mosquito_risk":3,"arthritis_risk":10,"migraine_risk":3,"frizz_risk":0,"updated_at":"2026-03-24T05:06:09.862403+05:30"},{"city":"Siliguri","state":"West Bengal","latitude":26.7271,"longitude":88.3953,"temp":17.7,"humidity":72,"rain":0.0,"pressure":996.8,"uv_index":6.4,"wind_gusts":37.8,"aqi":104,"pm10":50.5,"pm2_5":47.3,"mosquito_risk":3,"arthritis_risk":5,"migraine_risk":7,"frizz_risk":0,"updated_at":"2026-03-24T05:06:13.086065+05:30"},{"city":"Durgapur","state":"West Bengal","latitude":23.5204,"longitude":87.3119,"temp":21.3,"humidity":86,"rain":0.0,"pressure":997.9,"uv_index":8.0,"wind_gusts":21.2,"aqi":157,"pm10":106.4,"pm2_5":99.7,"mosquito_risk":3,"arthritis_risk":5,"migraine_risk":7,"frizz_risk":1,"updated_at":"2026-03-24T05:06:13.086094+05:30"},{"city":"Asansol","state":"West Bengal","latitude":23.6739,"longitude":86.9524,"temp":22.0,"humidity":77,"rain":0.0,"pressure":996.4,"uv_index":8.0,"wind_gusts":23.4,"aqi":150,"pm10":99.2,"pm2_5":92.9,"mosquito_risk":3,"arthritis_risk":5,"migraine_risk":7,"frizz_risk":1,"updated_at":"2026-03-24T05:06:13.086104+05:30"},{"city":"Pondicherry","state":"Puducherry","latitude":11.9139,"longitude":79.8145,"temp":23.7,"humidity":97,"rain":0.0,"pressure":1009.6,"uv_index":9.2,"wind_gusts":30.2,"aqi":29,"pm10":9.3,"pm2_5":5.8,"mosquito_risk":3,"arthritis_risk":0,"migraine_risk":4,"frizz_risk":1,"updated_at":"2026-03-24T05:06:13.086113+05:30"},{"city":"Port Blair","state":"Andaman and Nicobar Islands","latitude":11.6234,"longitude":92.7265,"temp":27.2,"humidity":82,"rain":0.0,"pressure":1007.2,"uv_index":9.15,"wind_gusts":25.6,"aqi":40,"pm10":11.2,"pm2_5":6.8,"mosquito_risk":7,"arthritis_risk":5,"migraine_risk":4,"frizz_risk":1,"updated_at":"2026-03-24T05:06:13.086121+05:30"},{"city":"Haridwar","state":"Uttarakhand","latitude":29.9457,"longitude":78.1642,"temp":16.1,"humidity":91,"rain":0.0,"pressure":977.6,"uv_index":6.4,"wind_gusts":32.0,"aqi":115,"pm10":48.8,"pm2_5":44.0,"mosquito_risk":3,"arthritis_risk":10,"migraine_risk":7,"frizz_risk":0,"updated_at":"2026-03-24T05:06:13.086129+05:30"},{"city":"Rishikesh","state":"Uttarakhand","latitude":30.0869,"longitude":78.2676,"temp":16.6,"humidity":79,"rain":0.0,"pressure":970.2,"uv_index":6.45,"wind_gusts":30.6,"aqi":85,"pm10":36.8,"pm2_5":34.0,"mosquito_risk":3,"arthritis_risk":5,"migraine_risk":7,"frizz_risk":0,"updated_at":"2026-03-24T05:06:13.086136+05:30"},{"city":"Nainital","state":"Uttarakhand","latitude":29.3919,"longitude":79.4542,"temp":12.6,"humidity":72,"rain":0.0,"pressure":805.0,"uv_index":7.3,"wind_gusts":49.0,"aqi":89,"pm10":48.9,"pm2_5":42.1,"mosquito_risk":3,"arthritis_risk":5,"migraine_risk":7,"frizz_risk":0,"updated_at":"2026-03-24T05:06:13.086144+05:30"},{"city":"Mussoorie","state":"Uttarakhand","latitude":30.4599,"longitude":78.0664,"temp":10.7,"humidity":74,"rain":0.0,"pressure":801.2,"uv_index":6.8,"wind_gusts":45.0,"aqi":83,"pm10":23.6,"pm2_5":22.9,"mosquito_risk":3,"arthritis_risk":5,"migraine_risk":7,"frizz_risk":0,"updated_at":"2026-03-24T05:06:13.086151+05:30"},{"city":"Dharamshala","state":"Himachal Pradesh","latitude":32.219,"longitude":76.3234,"temp":14.8,"humidity":47,"rain":0.0,"pressure":869.6,"uv_index":7.05,"wind_gusts":28.4,"aqi":58,"pm10":4.7,"pm2_5":3.4,"mosquito_risk":0,"arthritis_risk":5,"migraine_risk":7,"frizz_risk":0,"updated_at":"2026-03-24T05:06:13.086158+05:30"},{"city":"Dalhousie","state":"Himachal Pradesh","latitude":32.5387,"longitude":75.971,"temp":10.5,"humidity":51,"rain":0.0,"pressure":802.4,"uv_index":7.35,"wind_gusts":25.2,"aqi":79,"pm10":15.5,"pm2_5":13.8,"mosquito_risk":0,"arthritis_risk":5,"migraine_risk":7,"frizz_risk":0,"updated_at":"2026-03-24T05:06:13.086165+05:30"},{"city":"Patiala","state":"Punjab","latitude":30.3398,"longitude":76.3869,"temp":15.2,"humidity":95,"rain":0.0,"pressure":981.4,"uv_index":6.4,"wind_gusts":33.1,"aqi":153,"pm10":124.3,"pm2_5":100.4,"mosquito_risk":3,"arthritis_risk":10,"migraine_risk":7,"frizz_risk":0,"updated_at":"2026-03-24T05:06:13.086172+05:30"},{"city":"Bhatinda","state":"Punjab","latitude":30.211,"longitude":74.9455,"temp":18.2,"humidity":84,"rain":0.0,"pressure":986.8,"uv_index":6.7,"wind_gusts":26.3,"aqi":136,"pm10":106.9,"pm2_5":54.4,"mosquito_risk":3,"arthritis_risk":10,"migraine_risk":7,"frizz_risk":0,"updated_at":"2026-03-24T05:06:13.086178+05:30"},{"city":"Rohtak","state":"Haryana","latitude":28.8955,"longitude":76.6066,"temp":17.6,"humidity":95,"rain":0.0,"pressure":985.0,"uv_index":6.05,"wind_gusts":25.2,"aqi":152,"pm10":222.6,"pm2_5":87.8,"mosquito_risk":3,"arthritis_risk":10,"migraine_risk":7,"frizz_risk":1,"updated_at":"2026-03-24T05:06:13.086184+05:30"},{"city":"Panipat","state":"Haryana","latitude":29.3909,"longitude":76.9635,"temp":16.2,"humidity":98,"rain":0.0,"pressure":983.6,"uv_index":6.35,"wind_gusts":27.4,"aqi":150,"pm10":175.1,"pm2_5":74.0,"mosquito_risk":3,"arthritis_risk":10,"migraine_risk":7,"frizz_risk":0,"updated_at":"2026-03-24T05:06:13.086191+05:30"},{"city":"Mathura","state":"Uttar Pradesh","latitude":27.4924,"longitude":77.6737,"temp":17.5,"humidity":94,"rain":0.0,"pressure":990.4,"uv_index":6.6,"wind_gusts":21.2,"aqi":154,"pm10":151.3,"pm2_5":65.9,"mosquito_risk":3,"arthritis_risk":10,"migraine_risk":7,"frizz_risk":1,"updated_at":"2026-03-24T05:06:13.086198+05:30"},{"city":"Vrindavan","state":"Uttar Pradesh","latitude":27.5823,"longitude":77.7027,"temp":17.3,"humidity":95,"rain":0.0,"pressure":990.9,"uv_index":6.6,"wind_gusts":21.6,"aqi":154,"pm10":151.3,"pm2_5":65.9,"mosquito_risk":3,"arthritis_risk":10,"migraine_risk":7,"frizz_risk":1,"updated_at":"2026-03-24T05:06:13.086204+05:30"},{"city":"Ayodhya","state":"Uttar Pradesh","latitude":26.7922,"longitude":82.1998,"temp":18.3,"humidity":84,"rain":0.0,"pressure":998.9,"uv_index":7.25,"wind_gusts":33.5,"aqi":148,"pm10":68.9,"pm2_5":41.3,"mosquito_risk":3,"arthritis_risk":10,"migraine_risk":7,"frizz_risk":0,"updated_at":"2026-03-24T05:06:13.086210+05:30"},{"city":"Ratlam","state":"Madhya Pradesh","latitude":23.3315,"longitude":75.0367,"temp":21.9,"humidity":56,"rain":0.0,"pressure":955.3,"uv_index":8.0,"wind_gusts":18.7,"aqi":58,"pm10":20.7,"pm2_5":15.0,"mosquito_risk":0,"arthritis_risk":5,"migraine_risk":7,"frizz_risk":0,"updated_at":"2026-03-24T05:06:13.086217+05:30"},{"city":"Sagar","state":"Madhya Pradesh","latitude":23.8388,"longitude":78.7378,"temp":21.4,"humidity":63,"rain":0.0,"pressure":951.2,"uv_index":8.0,"wind_gusts":28.1,"aqi":61,"pm10":87.5,"pm2_5":32.4,"mosquito_risk":3,"arthritis_risk":5,"migraine_risk":7,"frizz_risk":0,"updated_at":"2026-03-24T05:06:13.086224+05:30"},{"city":"Satna","state":"Madhya Pradesh","latitude":24.6005,"longitude":80.8322,"temp":20.8,"humidity":72,"rain":0.0,"pressure":973.8,"uv_index":7.65,"wind_gusts":26.3,"aqi":73,"pm10":112.2,"pm2_5":39.2,"mosquito_risk":3,"arthritis_risk":5,"migraine_risk":7,"frizz_risk":0,"updated_at":"2026-03-24T05:06:13.086230+05:30"},{"city":"Akola","state":"Maharashtra","latitude":20.7002,"longitude":77.0082,"temp":22.6,"humidity":69,"rain":0.0,"pressure":975.5,"uv_index":8.4,"wind_gusts":21.6,"aqi":74,"pm10":35.0,"pm2_5":32.7,"mosquito_risk":3,"arthritis_risk":5,"migraine_risk":7,"frizz_risk":1,"updated_at":"2026-03-24T05:06:13.086236+05:30"},{"city":"Amravati","state":"Maharashtra","latitude":20.9374,"longitude":77.7796,"temp":23.2,"humidity":61,"rain":0.0,"pressure":967.6,"uv_index":8.4,"wind_gusts":23.8,"aqi":75,"pm10":50.2,"pm2_5":45.1,"mosquito_risk":3,"arthritis_risk":5,"migraine_risk":7,"frizz_risk":0,"updated_at":"2026-03-24T05:06:13.086243+05:30"},{"city":"Latur","state":"Maharashtra","latitude":18.4088,"longitude":76.5604,"temp":22.9,"humidity":53,"rain":0.0,"pressure":939.3,"uv_index":8.75,"wind_gusts":19.4,"aqi":94,"pm10":51.8,"pm2_5":39.9,"mosquito_risk":0,"arthritis_risk":5,"migraine_risk":7,"frizz_risk":0,"updated_at":"2026-03-24T05:06:13.086250+05:30"},{"city":"Nanded","state":"Maharashtra","latitude":19.1383,"longitude":77.3091,"temp":23.5,"humidity":66,"rain":0.0,"pressure":968.8,"uv_index":8.6,"wind_gusts":20.9,"aqi":105,"pm10":39.7,"pm2_5":33.2,"mosquito_risk":3,"arthritis_risk":5,"migraine_risk":7,"frizz_risk":1,"updated_at":"2026-03-24T05:06:13.086256+05:30"},{"city":"Gulbarga","state":"Karnataka","latitude":17.3297,"longitude":76.8343,"temp":25.6,"humidity":60,"rain":0.0,"pressure":958.9,"uv_index":8.85,"wind_gusts":37.4,"aqi":89,"pm10":29.8,"pm2_5":25.4,"mosquito_risk":4,"arthritis_risk":5,"migraine_risk":7,"frizz_risk":1,"updated_at":"2026-03-24T05:06:13.086262+05:30"},{"city":"Bidar","state":"Karnataka","latitude":17.9104,"longitude":77.5199,"temp":24.6,"humidity":60,"rain":0.0,"pressure":935.5,"uv_index":8.85,"wind_gusts":34.9,"aqi":100,"pm10":37.6,"pm2_5":33.1,"mosquito_risk":0,"arthritis_risk":5,"migraine_risk":7,"frizz_risk":1,"updated_at":"2026-03-24T05:06:13.086269+05:30"},{"city":"Hospet","state":"Karnataka","latitude":15.2689,"longitude":76.3909,"temp":24.9,"humidity":83,"rain":0.0,"pressure":955.9,"uv_index":9.05,"wind_gusts":26.3,"aqi":104,"pm10":45.4,"pm2_5":39.1,"mosquito_risk":3,"arthritis_risk":5,"migraine_risk":7,"frizz_risk":1,"updated_at":"2026-03-24T05:06:13.086275+05:30"},{"city":"Tirupur","state":"Tamil Nadu","latitude":11.1085,"longitude":77.3411,"temp":24.3,"humidity":85,"rain":0.0,"pressure":976.3,"uv_index":9.45,"wind_gusts":26.3,"aqi":67,"pm10":27.6,"pm2_5":24.9,"mosquito_risk":3,"arthritis_risk":5,"migraine_risk":7,"frizz_risk":1,"updated_at":"2026-03-24T05:06:13.086281+05:30"},{"city":"Alappuzha","state":"Kerala","latitude":9.4981,"longitude":76.3388,"temp":27.0,"humidity":83,"rain":0.0,"pressure":1008.9,"uv_index":9.15,"wind_gusts":32.0,"aqi":79,"pm10":41.3,"pm2_5":28.7,"mosquito_risk":7,"arthritis_risk":0,"migraine_risk":4,"frizz_risk":1,"updated_at":"2026-03-24T05:06:13.086287+05:30"},{"city":"Munnar","state":"Kerala","latitude":10.0889,"longitude":77.0595,"temp":17.6,"humidity":92,"rain":0.0,"pressure":855.2,"uv_index":9.7,"wind_gusts":30.6,"aqi":66,"pm10":26.7,"pm2_5":23.9,"mosquito_risk":3,"arthritis_risk":10,"migraine_risk":7,"frizz_risk":1,"updated_at":"2026-03-24T05:06:13.086294+05:30"},{"city":"Silchar","state":"Assam","latitude":24.8333,"longitude":92.7789,"temp":18.6,"humidity":83,"rain":0.0,"pressure":1008.6,"uv_index":8.0,"wind_gusts":20.5,"aqi":121,"pm10":52.5,"pm2_5":50.1,"mosquito_risk":3,"arthritis_risk":5,"migraine_risk":4,"frizz_risk":0,"updated_at":"2026-03-24T05:06:13.086301+05:30"},{"city":"Dibrugarh","state":"Assam","latitude":27.4728,"longitude":94.912,"temp":19.4,"humidity":93,"rain":0.0,"pressure":999.8,"uv_index":7.35,"wind_gusts":12.2,"aqi":69,"pm10":28.6,"pm2_5":28.2,"mosquito_risk":3,"arthritis_risk":10,"migraine_risk":7,"frizz_risk":1,"updated_at":"2026-03-24T05:06:13.086308+05:30"}]