[{"city":"Delhi","state":"Delhi","latitude":28.6139,"longitude":77.209,"temp":35.2,"humidity":58,"rain":0.0,"pressure":974.3,"uv_index":7.75,"wind_gusts":23.0,"aqi":123,"pm10":47.7,"pm2_5":41.8,"no2":11.7,"co":422.0,"o3":229.0,"so2":37.7,"mosquito_risk":0,"arthritis_risk":5,"migraine_risk":10,"frizz_risk":1,"updated_at":"2026-07-06T13:53:10.062735+05:30"},{"city":"Mumbai","state":"Maharashtra","latitude":19.076,"longitude":72.8777,"temp":27.0,"humidity":90,"rain":0.5,"pressure":998.8,"uv_index":0.6,"wind_gusts":77.8,"aqi":41,"pm10":9.5,"pm2_5":6.2,"no2":6.1,"co":169.0,"o3":51.0,"so2":3.7,"mosquito_risk":10,"arthritis_risk":5,"migraine_risk":3,"frizz_risk":1,"updated_at":"2026-07-06T13:53:10.062770+05:30"},{"city":"Bangalore","state":"Karnataka","latitude":12.9716,"longitude":77.5946,"temp":29.8,"humidity":46,"rain":0.0,"pressure":909.9,"uv_index":7.6,"wind_gusts":69.8,"aqi":27,"pm10":5.7,"pm2_5":3.2,"no2":2.3,"co":181.0,"o3":77.0,"so2":2.2,"mosquito_risk":4,"arthritis_risk":5,"migraine_risk":7,"frizz_risk":1,"updated_at":"2026-07-06T13:53:10.062785+05:30"},{"city":"Hyderabad","state":"Telangana","latitude":17.385,"longitude":78.4867,"temp":28.2,"humidity":67,"rain":0.0,"pressure":946.6,"uv_index":5.75,"wind_gusts":62.6,"aqi":25,"pm10":7.5,"pm2_5":4.4,"no2":1.2,"co":177.0,"o3":80.0,"so2":2.5,"mosquito_risk":7,"arthritis_risk":5,"migraine_risk":3,"frizz_risk":1,"updated_at":"2026-07-06T13:53:10.062795+05:30"},{"city":"Chennai","state":"Tamil Nadu","latitude":13.0827,"longitude":80.2707,"temp":38.4,"humidity":32,"rain":0.0,"pressure":1001.5,"uv_index":8.25,"wind_gusts":58.3,"aqi":54,"pm10":25.1,"pm2_5":16.9,"no2":2.5,"co":173.0,"o3":121.0,"so2":5.5,"mosquito_risk":0,"arthritis_risk":5,"migraine_risk":7,"frizz_risk":1,"updated_at":"2026-07-06T13:53:10.062803+05:30"},{"city":"Kolkata","state":"West Bengal","latitude":22.5726,"longitude":88.3639,"temp":30.8,"humidity":72,"rain":0.0,"pressure":994.3,"uv_index":4.1,"wind_gusts":44.6,"aqi":44,"pm10":16.5,"pm2_5":12.4,"no2":2.2,"co":221.0,"o3":83.0,"so2":4.6,"mosquito_risk":3,"arthritis_risk":5,"migraine_risk":3,"frizz_risk":1,"updated_at":"2026-07-06T13:53:10.062810+05:30"},{"city":"Pune","state":"Maharashtra","latitude":18.5204,"longitude":73.8567,"temp":26.2,"humidity":82,"rain":0.1,"pressure":939.5,"uv_index":1.05,"wind_gusts":61.2,"aqi":24,"pm10":2.0,"pm2_5":1.8,"no2":5.0,"co":144.0,"o3":50.0,"so2":3.0,"mosquito_risk":10,"arthritis_risk":5,"migraine_risk":3,"frizz_risk":1,"updated_at":"2026-07-06T13:53:10.062817+05:30"},{"city":"Ahmedabad","state":"Gujarat","latitude":23.0225,"longitude":72.5714,"temp":33.1,"humidity":66,"rain":0.0,"pressure":991.5,"uv_index":8.05,"wind_gusts":44.3,"aqi":96,"pm10":117.3,"pm2_5":46.3,"no2":1.8,"co":222.0,"o3":92.0,"so2":4.3,"mosquito_risk":3,"arthritis_risk":5,"migraine_risk":7,"frizz_risk":1,"updated_at":"2026-07-06T13:53:10.062823+05:30"},{"city":"Jaipur","state":"Rajasthan","latitude":26.9124,"longitude":75.7873,"temp":34.3,"humidity":55,"rain":0.0,"pressure":951.7,"uv_index":8.1,"wind_gusts":26.3,"aqi":64,"pm10":31.8,"pm2_5":12.1,"no2":1.6,"co":313.0,"o3":151.0,"so2":5.9,"mosquito_risk":0,"arthritis_risk":5,"migraine_risk":7,"frizz_risk":1,"updated_at":"2026-07-06T13:53:10.062830+05:30"},{"city":"Lucknow","state":"Uttar Pradesh","latitude":26.8467,"longitude":80.9462,"temp":34.8,"humidity":59,"rain":0.0,"pressure":983.4,"uv_index":6.6,"wind_gusts":49.0,"aqi":83,"pm10":10.9,"pm2_5":10.6,"no2":1.5,"co":240.0,"o3":128.0,"so2":3.1,"mosquito_risk":0,"arthritis_risk":5,"migraine_risk":7,"frizz_risk":1,"updated_at":"2026-07-06T13:53:10.062840+05:30"},{"city":"Kanpur","state":"Uttar Pradesh","latitude":26.4499,"longitude":80.3319,"temp":35.4,"humidity":54,"rain":0.0,"pressure":981.4,"uv_index":7.65,"wind_gusts":42.1,"aqi":70,"pm10":37.4,"pm2_5":11.3,"no2":1.3,"co":235.0,"o3":129.0,"so2":3.0,"mosquito_risk":0,"arthritis_risk":5,"migraine_risk":10,"frizz_risk":1,"updated_at":"2026-07-06T13:53:10.062848+05:30"},{"city":"Chandigarh","state":"Chandigarh","latitude":30.7333,"longitude":76.7794,"temp":31.7,"humidity":70,"rain":0.0,"pressure":961.4,"uv_index":6.0,"wind_gusts":24.8,"aqi":130,"pm10":65.0,"pm2_5":49.7,"no2":3.1,"co":374.0,"o3":178.0,"so2":12.8,"mosquito_risk":3,"arthritis_risk":5,"migraine_risk":3,"frizz_risk":1,"updated_at":"2026-07-06T13:53:10.062854+05:30"},{"city":"Srinagar","state":"Jammu and Kashmir","latitude":34.0837,"longitude":74.7973,"temp":31.9,"humidity":37,"rain":0.0,"pressure":838.5,"uv_index":9.1,"wind_gusts":33.8,"aqi":88,"pm10":32.9,"pm2_5":23.3,"no2":1.0,"co":270.0,"o3":167.0,"so2":3.5,"mosquito_risk":0,"arthritis_risk":5,"migraine_risk":7,"frizz_risk":0,"updated_at":"2026-07-06T13:53:10.062861+05:30"},{"city":"Jammu","state":"Jammu and Kashmir","latitude":32.7266,"longitude":74.857,"temp":34.9,"humidity":54,"rain":0.1,"pressure":964.4,"uv_index":8.15,"wind_gusts":31.0,"aqi":154,"pm10":77.8,"pm2_5":57.9,"no2":1.8,"co":331.0,"o3":182.0,"so2":6.0,"mosquito_risk":3,"arthritis_risk":5,"migraine_risk":7,"frizz_risk":1,"updated_at":"2026-07-06T13:53:10.062867+05:30"},{"city":"Amritsar","state":"Punjab","latitude":31.634,"longitude":74.8723,"temp":34.5,"humidity":61,"rain":0.0,"pressure":972.2,"uv_index":8.05,"wind_gusts":32.4,"aqi":164,"pm10":85.7,"pm2_5":57.0,"no2":2.3,"co":407.0,"o3":186.0,"so2":9.2,"mosquito_risk":3,"arthritis_risk":5,"migraine_risk":7,"frizz_risk":1,"updated_at":"2026-07-06T13:53:10.062873+05:30"},{"city":"Ludhiana","state":"Punjab","latitude":30.901,"longitude":75.8573,"temp":33.3,"humidity":64,"rain":0.0,"pressure":970.4,"uv_index":7.7,"wind_gusts":41.8,"aqi":158,"pm10":123.4,"pm2_5":50.4,"no2":2.5,"co":388.0,"o3":181.0,"so2":12.2,"mosquito_risk":3,"arthritis_risk":5,"migraine_risk":7,"frizz_risk":1,"updated_at":"2026-07-06T13:53:10.062879+05:30"},{"city":"Jalandhar","state":"Punjab","latitude":31.326,"longitude":75.5762,"temp":32.9,"humidity":63,"rain":0.0,"pressure":971.4,"uv_index":7.7,"wind_gusts":38.2,"aqi":164,"pm10":103.4,"pm2_5":46.4,"no2":2.0,"co":378.0,"o3":181.0,"so2":9.8,"mosquito_risk":3,"arthritis_risk":5,"migraine_risk":7,"frizz_risk":1,"updated_at":"2026-07-06T13:53:10.062885+05:30"},{"city":"Dehradun","state":"Uttarakhand","latitude":30.6284,"longitude":78.0322,"temp":24.0,"humidity":73,"rain":0.1,"pressure":828.1,"uv_index":7.1,"wind_gusts":24.8,"aqi":57,"pm10":8.9,"pm2_5":8.7,"no2":2.2,"co":265.0,"o3":132.0,"so2":3.5,"mosquito_risk":6,"arthritis_risk":5,"migraine_risk":7,"frizz_risk":1,"updated_at":"2026-07-06T13:53:10.062891+05:30"},{"city":"Shimla","state":"Himachal Pradesh","latitude":31.1048,"longitude":77.1734,"temp":21.8,"humidity":70,"rain":0.0,"pressure":783.4,"uv_index":7.15,"wind_gusts":20.9,"aqi":106,"pm10":26.8,"pm2_5":24.5,"no2":1.7,"co":283.0,"o3":154.0,"so2":7.0,"mosquito_risk":3,"arthritis_risk":5,"migraine_risk":7,"frizz_risk":1,"updated_at":"2026-07-06T13:53:10.062897+05:30"},{"city":"Manali","state":"Himachal Pradesh","latitude":32.2396,"longitude":77.1887,"temp":25.1,"humidity":79,"rain":0.0,"pressure":816.8,"uv_index":7.7,"wind_gusts":30.6,"aqi":47,"pm10":11.9,"pm2_5":11.7,"no2":6.5,"co":192.0,"o3":129.0,"so2":0.7,"mosquito_risk":7,"arthritis_risk":5,"migraine_risk":7,"frizz_risk":1,"updated_at":"2026-07-06T13:53:10.062905+05:30"},{"city":"Gurgaon","state":"Haryana","latitude":28.4595,"longitude":77.0266,"temp":35.6,"humidity":54,"rain":0.0,"pressure":972.8,"uv_index":7.75,"wind_gusts":23.0,"aqi":128,"pm10":30.5,"pm2_5":25.8,"no2":7.1,"co":419.0,"o3":179.0,"so2":17.0,"mosquito_risk":0,"arthritis_risk":5,"migraine_risk":10,"frizz_risk":1,"updated_at":"2026-07-06T13:53:10.062911+05:30"},{"city":"Noida","state":"Uttar Pradesh","latitude":28.5355,"longitude":77.391,"temp":35.9,"humidity":54,"rain":0.0,"pressure":975.7,"uv_index":7.75,"wind_gusts":21.2,"aqi":128,"pm10":30.5,"pm2_5":25.8,"no2":7.1,"co":331.0,"o3":179.0,"so2":17.0,"mosquito_risk":0,"arthritis_risk":5,"migraine_risk":10,"frizz_risk":1,"updated_at":"2026-07-06T13:53:10.062917+05:30"},{"city":"Ghaziabad","state":"Uttar Pradesh","latitude":28.6692,"longitude":77.4538,"temp":35.4,"humidity":57,"rain":0.0,"pressure":974.1,"uv_index":7.75,"wind_gusts":20.2,"aqi":100,"pm10":28.8,"pm2_5":27.9,"no2":4.9,"co":286.0,"o3":188.0,"so2":19.4,"mosquito_risk":0,"arthritis_risk":5,"migraine_risk":10,"frizz_risk":1,"updated_at":"2026-07-06T13:53:10.062925+05:30"},{"city":"Faridabad","state":"Haryana","latitude":28.4089,"longitude":77.3178,"temp":36.2,"humidity":53,"rain":0.0,"pressure":974.9,"uv_index":7.8,"wind_gusts":21.2,"aqi":128,"pm10":30.5,"pm2_5":25.8,"no2":7.1,"co":335.0,"o3":179.0,"so2":17.0,"mosquito_risk":0,"arthritis_risk":5,"migraine_risk":10,"frizz_risk":1,"updated_at":"2026-07-06T13:53:10.062931+05:30"},{"city":"Meerut","state":"Uttar Pradesh","latitude":28.9845,"longitude":77.7064,"temp":34.3,"humidity":63,"rain":0.0,"pressure":973.1,"uv_index":6.95,"wind_gusts":19.8,"aqi":100,"pm10":28.8,"pm2_5":27.9,"no2":4.9,"co":289.0,"o3":188.0,"so2":19.4,"mosquito_risk":3,"arthritis_risk":5,"migraine_risk":7,"frizz_risk":1,"updated_at":"2026-07-06T13:53:10.062937+05:30"},{"city":"Agra","state":"Uttar Pradesh","latitude":27.1767,"longitude":78.0081,"temp":35.4,"humidity":56,"rain":0.0,"pressure":978.3,"uv_index":7.95,"wind_gusts":26.3,"aqi":90,"pm10":18.0,"pm2_5":17.8,"no2":1.6,"co":272.0,"o3":156.0,"so2":5.0,"mosquito_risk":0,"arthritis_risk":5,"migraine_risk":10,"frizz_risk":1,"updated_at":"2026-07-06T13:53:10.062944+05:30"},{"city":"Varanasi","state":"Uttar Pradesh","latitude":25.3176,"longitude":82.9739,"temp":30.1,"humidity":77,"rain":0.1,"pressure":986.0,"uv_index":5.1,"wind_gusts":44.6,"aqi":63,"pm10":10.8,"pm2_5":10.8,"no2":6.4,"co":253.0,"o3":92.0,"so2":5.3,"mosquito_risk":6,"arthritis_risk":5,"migraine_risk":3,"frizz_risk":1,"updated_at":"2026-07-06T13:53:10.062950+05:30"},{"city":"Prayagraj","state":"Uttar Pradesh","latitude":25.4358,"longitude":81.8463,"temp":30.8,"humidity":79,"rain":0.0,"pressure":984.8,"uv_index":6.7,"wind_gusts":46.8,"aqi":67,"pm10":10.9,"pm2_5":10.8,"no2":4.0,"co":238.0,"o3":112.0,"so2":3.4,"mosquito_risk":3,"arthritis_risk":5,"migraine_risk":7,"frizz_risk":1,"updated_at":"2026-07-06T13:53:10.062957+05:30"},{"city":"Gorakhpur","state":"Uttar Pradesh","latitude":26.7606,"longitude":83.3732,"temp":35.2,"humidity":58,"rain":0.0,"pressure":986.9,"uv_index":4.6,"wind_gusts":52.9,"aqi":67,"pm10":8.9,"pm2_5":8.8,"no2":2.0,"co":198.0,"o3":111.0,"so2":3.1,"mosquito_risk":0,"arthritis_risk":5,"migraine_risk":6,"frizz_risk":1,"updated_at":"2026-07-06T13:53:10.062963+05:30"},{"city":"Bareilly","state":"Uttar Pradesh","latitude":28.367,"longitude":79.4304,"temp":35.0,"humidity":62,"rain":0.0,"pressure":977.7,"uv_index":2.85,"wind_gusts":16.6,"aqi":79,"pm10":29.5,"pm2_5":27.8,"no2":2.3,"co":238.0,"o3":190.0,"so2":11.3,"mosquito_risk":3,"arthritis_risk":5,"migraine_risk":3,"frizz_risk":1,"updated_at":"2026-07-06T13:53:10.062971+05:30"},{"city":"Aligarh","state":"Uttar Pradesh","latitude":27.8974,"longitude":78.088,"temp":35.5,"humidity":58,"rain":0.0,"pressure":976.5,"uv_index":3.3,"wind_gusts":23.4,"aqi":96,"pm10":29.5,"pm2_5":27.0,"no2":3.1,"co":294.0,"o3":183.0,"so2":13.8,"mosquito_risk":0,"arthritis_risk":5,"migraine_risk":6,"frizz_risk":1,"updated_at":"2026-07-06T13:53:10.062976+05:30"},{"city":"Moradabad","state":"Uttar Pradesh","latitude":28.8386,"longitude":78.7733,"temp":35.4,"humidity":56,"rain":0.0,"pressure":975.0,"uv_index":7.65,"wind_gusts":31.0,"aqi":87,"pm10":28.0,"pm2_5":27.6,"no2":3.0,"co":259.0,"o3":172.0,"so2":11.3,"mosquito_risk":0,"arthritis_risk":5,"migraine_risk":10,"frizz_risk":1,"updated_at":"2026-07-06T13:53:10.062982+05:30"},{"city":"Saharanpur","state":"Uttar Pradesh","latitude":29.9637,"longitude":77.546,"temp":33.4,"humidity":65,"rain":0.0,"pressure":968.0,"uv_index":7.35,"wind_gusts":20.5,"aqi":92,"pm10":31.2,"pm2_5":30.6,"no2":2.3,"co":323.0,"o3":169.0,"so2":7.4,"mosquito_risk":3,"arthritis_risk":5,"migraine_risk":7,"frizz_risk":1,"updated_at":"2026-07-06T13:53:10.062988+05:30"},{"city":"Jhansi","state":"Uttar Pradesh","latitude":25.4484,"longitude":78.5685,"temp":35.1,"humidity":57,"rain":0.0,"pressure":968.0,"uv_index":8.4,"wind_gusts":36.4,"aqi":55,"pm10":12.4,"pm2_5":12.1,"no2":1.5,"co":196.0,"o3":147.0,"so2":7.5,"mosquito_risk":0,"arthritis_risk":5,"migraine_risk":10,"frizz_risk":1,"updated_at":"2026-07-06T13:53:13.435875+05:30"},{"city":"Surat","state":"Gujarat","latitude":21.1702,"longitude":72.8311,"temp":31.2,"humidity":77,"rain":0.0,"pressure":996.0,"uv_index":1.25,"wind_gusts":32.4,"aqi":96,"pm10":83.6,"pm2_5":54.0,"no2":34.5,"co":224.0,"o3":44.0,"so2":86.8,"mosquito_risk":3,"arthritis_risk":5,"migraine_risk":3,"frizz_risk":1,"updated_at":"2026-07-06T13:53:13.435903+05:30"},{"city":"Vadodara","state":"Gujarat","latitude":22.3072,"longitude":73.1812,"temp":32.3,"humidity":71,"rain":0.0,"pressure":993.8,"uv_index":6.6,"wind_gusts":28.1,"aqi":81,"pm10":63.1,"pm2_5":32.8,"no2":4.9,"co":257.0,"o3":109.0,"so2":9.3,"mosquito_risk":3,"arthritis_risk":5,"migraine_risk":7,"frizz_risk":1,"updated_at":"2026-07-06T13:53:13.435913+05:30"},{"city":"Rajkot","state":"Gujarat","latitude":22.3039,"longitude":70.8022,"temp":28.6,"humidity":88,"rain":0.1,"pressure":984.8,"uv_index":6.0,"wind_gusts":40.7,"aqi":90,"pm10":102.0,"pm2_5":40.9,"no2":1.2,"co":119.0,"o3":92.0,"so2":4.9,"mosquito_risk":10,"arthritis_risk":5,"migraine_risk":3,"frizz_risk":1,"updated_at":"2026-07-06T13:53:13.435921+05:30"},{"city":"Thane","state":"Maharashtra","latitude":19.2183,"longitude":72.9781,"temp":26.8,"humidity":95,"rain":0.3,"pressure":997.8,"uv_index":0.9,"wind_gusts":50.8,"aqi":41,"pm10":9.5,"pm2_5":6.2,"no2":6.1,"co":172.0,"o3":51.0,"so2":3.7,"mosquito_risk":10,"arthritis_risk":5,"migraine_risk":3,"frizz_risk":1,"updated_at":"2026-07-06T13:53:13.435928+05:30"},{"city":"Nagpur","state":"Maharashtra","latitude":21.1458,"longitude":79.0882,"temp":31.9,"humidity":61,"rain":0.0,"pressure":963.4,"uv_index":6.85,"wind_gusts":41.4,"aqi":52,"pm10":15.1,"pm2_5":14.3,"no2":8.3,"co":174.0,"o3":104.0,"so2":30.8,"mosquito_risk":3,"arthritis_risk":5,"migraine_risk":7,"frizz_risk":1,"updated_at":"2026-07-06T13:53:13.435935+05:30"},{"city":"Nashik","state":"Maharashtra","latitude":19.9975,"longitude":73.7898,"temp":25.9,"humidity":82,"rain":0.0,"pressure":935.9,"uv_index":2.45,"wind_gusts":52.9,"aqi":20,"pm10":3.6,"pm2_5":2.8,"no2":9.5,"co":157.0,"o3":44.0,"so2":2.4,"mosquito_risk":7,"arthritis_risk":5,"migraine_risk":3,"frizz_risk":1,"updated_at":"2026-07-06T13:53:13.435942+05:30"},{"city":"Aurangabad","state":"Maharashtra","latitude":19.8762,"longitude":75.3433,"temp":25.0,"humidity":91,"rain":0.2,"pressure":934.7,"uv_index":4.65,"wind_gusts":49.7,"aqi":24,"pm10":3.6,"pm2_5":3.4,"no2":5.5,"co":121.0,"o3":58.0,"so2":3.9,"mosquito_risk":10,"arthritis_risk":5,"migraine_risk":3,"frizz_risk":1,"updated_at":"2026-07-06T13:53:13.435949+05:30"},{"city":"Solapur","state":"Maharashtra","latitude":17.6599,"longitude":75.9064,"temp":30.0,"humidity":59,"rain":0.0,"pressure":950.2,"uv_index":2.4,"wind_gusts":69.1,"aqi":27,"pm10":4.6,"pm2_5":2.7,"no2":1.0,"co":103.0,"o3":67.0,"so2":1.2,"mosquito_risk":4,"arthritis_risk":5,"migraine_risk":3,"frizz_risk":1,"updated_at":"2026-07-06T13:53:13.435957+05:30"},{"city":"Kolhapur","state":"Maharashtra","latitude":16.705,"longitude":74.2433,"temp":25.4,"humidity":87,"rain":0.1,"pressure":942.6,"uv_index":2.55,"wind_gusts":72.0,"aqi":25,"pm10":7.7,"pm2_5":4.8,"no2":3.1,"co":130.0,"o3":60.0,"so2":1.6,"mosquito_risk":10,"arthritis_risk":5,"migraine_risk":3,"frizz_risk":1,"updated_at":"2026-07-06T13:53:13.435963+05:30"},{"city":"Goa","state":"Goa","latitude":15.2993,"longitude":74.124,"temp":26.8,"humidity":93,"rain":0.2,"pressure":995.3,"uv_index":4.2,"wind_gusts":41.8,"aqi":56,"pm10":28.4,"pm2_5":14.2,"no2":0.9,"co":145.0,"o3":62.0,"so2":0.7,"mosquito_risk":10,"arthritis_risk":5,"migraine_risk":3,"frizz_risk":1,"updated_at":"2026-07-06T13:53:13.435970+05:30"},{"city":"Jodhpur","state":"Rajasthan","latitude":26.2389,"longitude":73.0243,"temp":35.8,"humidity":54,"rain":0.0,"pressure":973.6,"uv_index":8.3,"wind_gusts":19.1,"aqi":82,"pm10":194.6,"pm2_5":52.6,"no2":0.7,"co":159.0,"o3":112.0,"so2":3.7,"mosquito_risk":0,"arthritis_risk":5,"migraine_risk":10,"frizz_risk":1,"updated_at":"2026-07-06T13:53:13.435977+05:30"},{"city":"Udaipur","state":"Rajasthan","latitude":24.5854,"longitude":73.7125,"temp":30.4,"humidity":68,"rain":0.1,"pressure":938.3,"uv_index":6.9,"wind_gusts":19.4,"aqi":62,"pm10":29.8,"pm2_5":16.2,"no2":1.1,"co":184.0,"o3":123.0,"so2":3.8,"mosquito_risk":6,"arthritis_risk":5,"migraine_risk":7,"frizz_risk":1,"updated_at":"2026-07-06T13:53:13.435983+05:30"},{"city":"Kota","state":"Rajasthan","latitude":25.2138,"longitude":75.8648,"temp":35.1,"humidity":54,"rain":0.0,"pressure":968.9,"uv_index":7.5,"wind_gusts":25.2,"aqi":77,"pm10":22.9,"pm2_5":22.5,"no2":3.4,"co":243.0,"o3":157.0,"so2":21.5,"mosquito_risk":0,"arthritis_risk":5,"migraine_risk":10,"frizz_risk":1,"updated_at":"2026-07-06T13:53:13.435990+05:30"},{"city":"Bikaner","state":"Rajasthan","latitude":28.0229,"longitude":73.3119,"temp":40.8,"humidity":31,"rain":0.0,"pressure":971.8,"uv_index":8.3,"wind_gusts":35.6,"aqi":92,"pm10":124.8,"pm2_5":39.9,"no2":0.4,"co":179.0,"o3":112.0,"so2":3.4,"mosquito_risk":0,"arthritis_risk":5,"migraine_risk":10,"frizz_risk":1,"updated_at":"2026-07-06T13:53:13.435996+05:30"},{"city":"Ajmer","state":"Rajasthan","latitude":26.4499,"longitude":74.6399,"temp":32.0,"humidity":64,"rain":0.0,"pressure":946.7,"uv_index":7.2,"wind_gusts":27.4,"aqi":53,"pm10":14.7,"pm2_5":13.5,"no2":1.1,"co":208.0,"o3":140.0,"so2":4.4,"mosquito_risk":3,"arthritis_risk":5,"migraine_risk":7,"frizz_risk":1,"updated_at":"2026-07-06T13:53:13.436003+05:30"},{"city":"Gwalior","state":"Madhya Pradesh","latitude":26.2183,"longitude":78.1828,"temp":34.6,"humidity":58,"rain":0.0,"pressure":973.4,"uv_index":8.15,"wind_gusts":31.7,"aqi":57,"pm10":11.6,"pm2_5":11.2,"no2":0.9,"co":206.0,"o3":131.0,"so2":3.1,"mosquito_risk":0,"arthritis_risk":5,"migraine_risk":7,"frizz_risk":1,"updated_at":"2026-07-06T13:53:13.436009+05:30"},{"city":"Indore","state":"Madhya Pradesh","latitude":22.7196,"longitude":75.8577,"temp":29.4,"humidity":72,"rain":0.0,"pressure":938.3,"uv_index":5.95,"wind_gusts":24.8,"aqi":150,"pm10":29.8,"pm2_5":27.9,"no2":1.2,"co":354.0,"o3":131.0,"so2":2.5,"mosquito_risk":7,"arthritis_risk":5,"migraine_risk":3,"frizz_risk":1,"updated_at":"2026-07-06T13:53:13.436016+05:30"},{"city":"Bhopal","state":"Madhya Pradesh","latitude":23.2599,"longitude":77.4126,"temp":31.7,"humidity":64,"rain":0.0,"pressure":943.8,"uv_index":7.55,"wind_gusts":36.0,"aqi":85,"pm10":12.3,"pm2_5":11.9,"no2":1.3,"co":265.0,"o3":125.0,"so2":2.1,"mosquito_risk":3,"arthritis_risk":5,"migraine_risk":7,"frizz_risk":1,"updated_at":"2026-07-06T13:53:13.436022+05:30"},{"city":"Jabalpur","state":"Madhya Pradesh","latitude":23.1815,"longitude":79.9864,"temp":30.6,"humidity":70,"rain":0.0,"pressure":950.6,"uv_index":8.1,"wind_gusts":28.1,"aqi":48,"pm10":6.3,"pm2_5":6.2,"no2":1.3,"co":200.0,"o3":120.0,"so2":2.1,"mosquito_risk":3,"arthritis_risk":5,"migraine_risk":7,"frizz_risk":1,"updated_at":"2026-07-06T13:53:13.436029+05:30"},{"city":"Ujjain","state":"Madhya Pradesh","latitude":23.1765,"longitude":75.7885,"temp":31.5,"humidity":66,"rain":0.0,"pressure":944.2,"uv_index":7.85,"wind_gusts":23.4,"aqi":138,"pm10":32.9,"pm2_5":29.9,"no2":1.2,"co":260.0,"o3":124.0,"so2":3.1,"mosquito_risk":3,"arthritis_risk":5,"migraine_risk":7,"frizz_risk":1,"updated_at":"2026-07-06T13:53:13.436035+05:30"},{"city":"Visakhapatnam","state":"Andhra Pradesh","latitude":17.6868,"longitude":83.2185,"temp":33.5,"humidity":54,"rain":0.0,"pressure":995.0,"uv_index":8.85,"wind_gusts":61.2,"aqi":47,"pm10":16.1,"pm2_5":13.5,"no2":9.3,"co":227.0,"o3":89.0,"so2":26.9,"mosquito_risk":0,"arthritis_risk":5,"migraine_risk":7,"frizz_risk":1,"updated_at":"2026-07-06T13:53:13.436042+05:30"},{"city":"Vijayawada","state":"Andhra Pradesh","latitude":16.5062,"longitude":80.648,"temp":35.5,"humidity":46,"rain":0.0,"pressure":995.5,"uv_index":4.95,"wind_gusts":50.8,"aqi":41,"pm10":12.8,"pm2_5":6.7,"no2":1.0,"co":107.0,"o3":81.0,"so2":3.0,"mosquito_risk":0,"arthritis_risk":5,"migraine_risk":6,"frizz_risk":1,"updated_at":"2026-07-06T13:53:13.436048+05:30"},{"city":"Guntur","state":"Andhra Pradesh","latitude":16.3067,"longitude":80.4365,"temp":36.4,"humidity":41,"rain":0.0,"pressure":996.8,"uv_index":5.65,"wind_gusts":58.3,"aqi":37,"pm10":12.0,"pm2_5":6.3,"no2":0.9,"co":107.0,"o3":80.0,"so2":2.8,"mosquito_risk":0,"arthritis_risk":5,"migraine_risk":6,"frizz_risk":1,"updated_at":"2026-07-06T13:53:13.436055+05:30"},{"city":"Nellore","state":"Andhra Pradesh","latitude":14.4426,"longitude":79.9865,"temp":38.2,"humidity":33,"rain":0.0,"pressure":999.2,"uv_index":8.45,"wind_gusts":57.2,"aqi":38,"pm10":13.9,"pm2_5":6.1,"no2":1.4,"co":98.0,"o3":83.0,"so2":2.5,"mosquito_risk":0,"arthritis_risk":5,"migraine_risk":10,"frizz_risk":1,"updated_at":"2026-07-06T13:53:13.436062+05:30"},{"city":"Kurnool","state":"Andhra Pradesh","latitude":15.8281,"longitude":78.0373,"temp":34.7,"humidity":44,"rain":0.0,"pressure":970.9,"uv_index":3.45,"wind_gusts":68.8,"aqi":27,"pm10":5.1,"pm2_5":3.1,"no2":0.6,"co":104.0,"o3":78.0,"so2":1.7,"mosquito_risk":0,"arthritis_risk":5,"migraine_risk":3,"frizz_risk":1,"updated_at":"2026-07-06T13:53:13.436069+05:30"},{"city":"Kakinada","state":"Andhra Pradesh","latitude":16.9891,"longitude":82.2475,"temp":34.3,"humidity":52,"rain":0.0,"pressure":999.5,"uv_index":7.1,"wind_gusts":60.8,"aqi":51,"pm10":13.3,"pm2_5":9.3,"no2":1.6,"co":128.0,"o3":88.0,"so2":3.4,"mosquito_risk":0,"arthritis_risk":5,"migraine_risk":7,"frizz_risk":1,"updated_at":"2026-07-06T13:53:13.436076+05:30"},{"city":"Tirupati","state":"Andhra Pradesh","latitude":13.6288,"longitude":79.4192,"temp":38.1,"humidity":30,"rain":0.0,"pressure":985.3,"uv_index":8.55,"wind_gusts":57.6,"aqi":36,"pm10":8.4,"pm2_5":4.0,"no2":0.7,"co":116.0,"o3":82.0,"so2":1.3,"mosquito_risk":0,"arthritis_risk":5,"migraine_risk":10,"frizz_risk":1,"updated_at":"2026-07-06T13:53:13.436083+05:30"},{"city":"Warangal","state":"Telangana","latitude":17.9689,"longitude":79.5941,"temp":29.2,"humidity":71,"rain":0.0,"pressure":971.8,"uv_index":3.5,"wind_gusts":45.0,"aqi":24,"pm10":7.2,"pm2_5":4.9,"no2":1.1,"co":115.0,"o3":78.0,"so2":2.3,"mosquito_risk":7,"arthritis_risk":5,"migraine_risk":3,"frizz_risk":1,"updated_at":"2026-07-06T13:53:13.436090+05:30"},{"city":"Nizamabad","state":"Telangana","latitude":18.6725,"longitude":78.0941,"temp":26.9,"humidity":83,"rain":0.1,"pressure":957.7,"uv_index":2.75,"wind_gusts":43.9,"aqi":22,"pm10":6.3,"pm2_5":3.9,"no2":1.6,"co":120.0,"o3":72.0,"so2":2.9,"mosquito_risk":10,"arthritis_risk":5,"migraine_risk":3,"frizz_risk":1,"updated_at":"2026-07-06T13:53:13.436096+05:30"},{"city":"Mysore","state":"Karnataka","latitude":12.2958,"longitude":76.6396,"temp":27.9,"humidity":59,"rain":0.0,"pressure":927.1,"uv_index":7.1,"wind_gusts":68.8,"aqi":26,"pm10":3.1,"pm2_5":1.8,"no2":1.1,"co":110.0,"o3":69.0,"so2":1.1,"mosquito_risk":4,"arthritis_risk":5,"migraine_risk":7,"frizz_risk":1,"updated_at":"2026-07-06T13:53:13.436103+05:30"},{"city":"Mangalore","state":"Karnataka","latitude":12.9141,"longitude":74.856,"temp":29.1,"humidity":75,"rain":0.0,"pressure":1005.6,"uv_index":7.05,"wind_gusts":60.5,"aqi":57,"pm10":24.5,"pm2_5":12.4,"no2":0.9,"co":117.0,"o3":60.0,"so2":1.0,"mosquito_risk":7,"arthritis_risk":5,"migraine_risk":4,"frizz_risk":1,"updated_at":"2026-07-06T13:53:13.436110+05:30"},{"city":"Hubli-Dharwad","state":"Karnataka","latitude":15.3647,"longitude":75.124,"temp":25.9,"humidity":77,"rain":0.2,"pressure":937.2,"uv_index":4.45,"wind_gusts":63.7,"aqi":25,"pm10":4.2,"pm2_5":2.4,"no2":1.7,"co":106.0,"o3":59.0,"so2":0.8,"mosquito_risk":10,"arthritis_risk":5,"migraine_risk":3,"frizz_risk":1,"updated_at":"2026-07-06T13:53:13.436116+05:30"},{"city":"Belgaum","state":"Karnataka","latitude":15.8497,"longitude":74.4977,"temp":22.9,"humidity":93,"rain":0.2,"pressure":921.2,"uv_index":2.1,"wind_gusts":69.5,"aqi":25,"pm10":3.9,"pm2_5":2.3,"no2":1.5,"co":102.0,"o3":58.0,"so2":1.1,"mosquito_risk":6,"arthritis_risk":5,"migraine_risk":3,"frizz_risk":1,"updated_at":"2026-07-06T13:53:16.813911+05:30"},{"city":"Coimbatore","state":"Tamil Nadu","latitude":11.0168,"longitude":76.9558,"temp":30.0,"humidity":57,"rain":0.0,"pressure":960.6,"uv_index":8.8,"wind_gusts":72.0,"aqi":28,"pm10":10.4,"pm2_5":5.8,"no2":1.3,"co":134.0,"o3":69.0,"so2":1.4,"mosquito_risk":4,"arthritis_risk":5,"migraine_risk":7,"frizz_risk":1,"updated_at":"2026-07-06T13:53:16.813942+05:30"},{"city":"Madurai","state":"Tamil Nadu","latitude":9.9252,"longitude":78.1198,"temp":37.5,"humidity":30,"rain":0.0,"pressure":990.0,"uv_index":8.7,"wind_gusts":74.2,"aqi":62,"pm10":25.6,"pm2_5":11.8,"no2":1.3,"co":113.0,"o3":92.0,"so2":1.7,"mosquito_risk":0,"arthritis_risk":5,"migraine_risk":10,"frizz_risk":1,"updated_at":"2026-07-06T13:53:16.813953+05:30"},{"city":"Trichy","state":"Tamil Nadu","latitude":10.7905,"longitude":78.7047,"temp":38.5,"humidity":28,"rain":0.0,"pressure":995.7,"uv_index":8.6,"wind_gusts":69.5,"aqi":45,"pm10":24.2,"pm2_5":11.9,"no2":1.1,"co":110.0,"o3":89.0,"so2":1.7,"mosquito_risk":0,"arthritis_risk":5,"migraine_risk":10,"frizz_risk":1,"updated_at":"2026-07-06T13:53:16.813963+05:30"},{"city":"Salem","state":"Tamil Nadu","latitude":11.6643,"longitude":78.146,"temp":34.5,"humidity":40,"rain":0.0,"pressure":974.3,"uv_index":8.85,"wind_gusts":43.2,"aqi":52,"pm10":17.0,"pm2_5":9.7,"no2":1.6,"co":117.0,"o3":100.0,"so2":4.4,"mosquito_risk":0,"arthritis_risk":5,"migraine_risk":7,"frizz_risk":1,"updated_at":"2026-07-06T13:53:16.813971+05:30"},{"city":"Tirunelveli","state":"Tamil Nadu","latitude":8.7139,"longitude":77.7567,"temp":36.8,"humidity":31,"rain":0.0,"pressure":1001.2,"uv_index":8.65,"wind_gusts":59.8,"aqi":47,"pm10":21.4,"pm2_5":11.7,"no2":0.9,"co":104.0,"o3":76.0,"so2":1.2,"mosquito_risk":0,"arthritis_risk":5,"migraine_risk":7,"frizz_risk":1,"updated_at":"2026-07-06T13:53:16.813979+05:30"},{"city":"Vellore","state":"Tamil Nadu","latitude":12.9165,"longitude":79.1325,"temp":36.7,"humidity":32,"rain":0.0,"pressure":979.6,"uv_index":8.6,"wind_gusts":60.1,"aqi":38,"pm10":7.5,"pm2_5":3.9,"no2":1.0,"co":108.0,"o3":84.0,"so2":1.7,"mosquito_risk":0,"arthritis_risk":5,"migraine_risk":10,"frizz_risk":1,"updated_at":"2026-07-06T13:53:16.813986+05:30"},{"city":"Erode","state":"Tamil Nadu","latitude":11.341,"longitude":77.7172,"temp":35.4,"humidity":40,"rain":0.0,"pressure":986.0,"uv_index":8.8,"wind_gusts":64.8,"aqi":49,"pm10":15.0,"pm2_5":8.6,"no2":1.2,"co":121.0,"o3":85.0,"so2":1.6,"mosquito_risk":0,"arthritis_risk":5,"migraine_risk":10,"frizz_risk":1,"updated_at":"2026-07-06T13:53:16.813994+05:30"},{"city":"Kochi","state":"Kerala","latitude":9.9312,"longitude":76.2673,"temp":29.9,"humidity":70,"rain":0.0,"pressure":1009.2,"uv_index":8.4,"wind_gusts":40.3,"aqi":58,"pm10":32.8,"pm2_5":17.9,"no2":1.5,"co":101.0,"o3":75.0,"so2":2.4,"mosquito_risk":7,"arthritis_risk":0,"migraine_risk":4,"frizz_risk":1,"updated_at":"2026-07-06T13:53:16.814002+05:30"},{"city":"Thiruvananthapuram","state":"Kerala","latitude":8.5241,"longitude":76.9366,"temp":29.3,"humidity":74,"rain":0.0,"pressure":1008.6,"uv_index":8.4,"wind_gusts":46.8,"aqi":56,"pm10":28.3,"pm2_5":14.9,"no2":1.2,"co":93.0,"o3":70.0,"so2":1.0,"mosquito_risk":7,"arthritis_risk":0,"migraine_risk":4,"frizz_risk":1,"updated_at":"2026-07-06T13:53:16.814009+05:30"},{"city":"Kozhikode","state":"Kerala","latitude":11.2588,"longitude":75.7804,"temp":27.7,"humidity":81,"rain":0.0,"pressure":1008.4,"uv_index":8.15,"wind_gusts":35.6,"aqi":58,"pm10":33.3,"pm2_5":17.0,"no2":0.5,"co":120.0,"o3":61.0,"so2":0.7,"mosquito_risk":7,"arthritis_risk":0,"migraine_risk":4,"frizz_risk":1,"updated_at":"2026-07-06T13:53:16.814016+05:30"},{"city":"Thrissur","state":"Kerala","latitude":10.5276,"longitude":76.2144,"temp":29.2,"humidity":74,"rain":0.0,"pressure":1007.3,"uv_index":8.5,"wind_gusts":50.0,"aqi":55,"pm10":29.1,"pm2_5":15.5,"no2":0.9,"co":100.0,"o3":67.0,"so2":1.4,"mosquito_risk":7,"arthritis_risk":5,"migraine_risk":4,"frizz_risk":1,"updated_at":"2026-07-06T13:53:16.814025+05:30"},{"city":"Kannur","state":"Kerala","latitude":11.8745,"longitude":75.3704,"temp":29.1,"humidity":73,"rain":0.0,"pressure":1007.3,"uv_index":7.95,"wind_gusts":38.5,"aqi":56,"pm10":23.9,"pm2_5":12.9,"no2":1.5,"co":110.0,"o3":59.0,"so2":1.1,"mosquito_risk":7,"arthritis_risk":5,"migraine_risk":4,"frizz_risk":1,"updated_at":"2026-07-06T13:53:16.814032+05:30"},{"city":"Patna","state":"Bihar","latitude":25.5941,"longitude":85.1376,"temp":32.0,"humidity":66,"rain":0.0,"pressure":988.7,"uv_index":4.05,"wind_gusts":53.3,"aqi":51,"pm10":12.1,"pm2_5":11.7,"no2":3.7,"co":202.0,"o3":102.0,"so2":4.7,"mosquito_risk":3,"arthritis_risk":5,"migraine_risk":3,"frizz_risk":1,"updated_at":"2026-07-06T13:53:16.814039+05:30"},{"city":"Gaya","state":"Bihar","latitude":24.7914,"longitude":85.0002,"temp":33.1,"humidity":62,"rain":0.0,"pressure":981.2,"uv_index":6.9,"wind_gusts":50.8,"aqi":51,"pm10":10.7,"pm2_5":10.5,"no2":2.5,"co":203.0,"o3":104.0,"so2":4.7,"mosquito_risk":3,"arthritis_risk":5,"migraine_risk":7,"frizz_risk":1,"updated_at":"2026-07-06T13:53:16.814046+05:30"},{"city":"Muzaffarpur","state":"Bihar","latitude":26.1209,"longitude":85.3647,"temp":32.5,"humidity":69,"rain":0.1,"pressure":989.4,"uv_index":6.15,"wind_gusts":55.1,"aqi":50,"pm10":11.2,"pm2_5":10.8,"no2":3.1,"co":185.0,"o3":106.0,"so2":4.1,"mosquito_risk":6,"arthritis_risk":5,"migraine_risk":7,"frizz_risk":1,"updated_at":"2026-07-06T13:53:16.814053+05:30"},{"city":"Bhagalpur","state":"Bihar","latitude":25.2425,"longitude":87.0117,"temp":33.8,"humidity":59,"rain":0.1,"pressure":989.6,"uv_index":6.6,"wind_gusts":55.1,"aqi":41,"pm10":9.9,"pm2_5":9.5,"no2":2.5,"co":178.0,"o3":105.0,"so2":4.2,"mosquito_risk":3,"arthritis_risk":5,"migraine_risk":7,"frizz_risk":1,"updated_at":"2026-07-06T13:53:16.814060+05:30"},{"city":"Ranchi","state":"Jharkhand","latitude":23.3441,"longitude":85.3096,"temp":25.6,"humidity":90,"rain":0.2,"pressure":925.8,"uv_index":7.25,"wind_gusts":33.8,"aqi":53,"pm10":8.5,"pm2_5":8.4,"no2":16.4,"co":310.0,"o3":69.0,"so2":23.4,"mosquito_risk":10,"arthritis_risk":5,"migraine_risk":7,"frizz_risk":1,"updated_at":"2026-07-06T13:53:16.814068+05:30"},{"city":"Jamshedpur","state":"Jharkhand","latitude":22.8046,"longitude":86.2029,"temp":30.4,"humidity":74,"rain":0.0,"pressure":977.9,"uv_index":2.05,"wind_gusts":26.3,"aqi":54,"pm10":10.7,"pm2_5":10.6,"no2":2.5,"co":340.0,"o3":114.0,"so2":7.1,"mosquito_risk":3,"arthritis_risk":5,"migraine_risk":3,"frizz_risk":1,"updated_at":"2026-07-06T13:53:16.814076+05:30"},{"city":"Dhanbad","state":"Jharkhand","latitude":23.7957,"longitude":86.4304,"temp":29.7,"humidity":77,"rain":0.2,"pressure":967.6,"uv_index":4.55,"wind_gusts":50.8,"aqi":61,"pm10":13.2,"pm2_5":13.2,"no2":17.7,"co":230.0,"o3":78.0,"so2":43.0,"mosquito_risk":10,"arthritis_risk":5,"migraine_risk":3,"frizz_risk":1,"updated_at":"2026-07-06T13:53:16.814084+05:30"},{"city":"Bokaro","state":"Jharkhand","latitude":23.6693,"longitude":86.1511,"temp":28.5,"humidity":81,"rain":0.1,"pressure":971.0,"uv_index":5.6,"wind_gusts":46.8,"aqi":61,"pm10":11.3,"pm2_5":11.2,"no2":17.5,"co":224.0,"o3":76.0,"so2":45.0,"mosquito_risk":10,"arthritis_risk":5,"migraine_risk":3,"frizz_risk":1,"updated_at":"2026-07-06T13:53:16.814092+05:30"},{"city":"Bhubaneswar","state":"Odisha","latitude":20.2961,"longitude":85.8245,"temp":32.2,"humidity":64,"rain":0.0,"pressure":991.9,"uv_index":7.15,"wind_gusts":54.7,"aqi":28,"pm10":7.2,"pm2_5":6.7,"no2":5.6,"co":143.0,"o3":49.0,"so2":2.9,"mosquito_risk":3,"arthritis_risk":5,"migraine_risk":7,"frizz_risk":1,"updated_at":"2026-07-06T13:53:16.814099+05:30"},{"city":"Cuttack","state":"Odisha","latitude":20.4625,"longitude":85.8828,"temp":32.2,"humidity":65,"rain":0.0,"pressure":993.6,"uv_index":5.6,"wind_gusts":54.4,"aqi":28,"pm10":7.2,"pm2_5":6.7,"no2":5.6,"co":145.0,"o3":49.0,"so2":2.9,"mosquito_risk":3,"arthritis_risk":5,"migraine_risk":3,"frizz_risk":1,"updated_at":"2026-07-06T13:53:16.814106+05:30"},{"city":"Rourkela","state":"Odisha","latitude":22.2604,"longitude":84.8536,"temp":29.0,"humidity":84,"rain":0.0,"pressure":972.5,"uv_index":1.5,"wind_gusts":40.7,"aqi":62,"pm10":7.3,"pm2_5":7.2,"no2":2.5,"co":237.0,"o3":96.0,"so2":3.9,"mosquito_risk":7,"arthritis_risk":5,"migraine_risk":3,"frizz_risk":1,"updated_at":"2026-07-06T13:53:16.814113+05:30"},{"city":"Raipur","state":"Chhattisgarh","latitude":21.2514,"longitude":81.6296,"temp":26.3,"humidity":89,"rain":0.2,"pressure":964.8,"uv_index":1.5,"wind_gusts":46.1,"aqi":64,"pm10":15.1,"pm2_5":14.8,"no2":18.2,"co":331.0,"o3":50.0,"so2":50.2,"mosquito_risk":10,"arthritis_risk":5,"migraine_risk":3,"frizz_risk":1,"updated_at":"2026-07-06T13:53:16.814120+05:30"},{"city":"Bhilai","state":"Chhattisgarh","latitude":21.1938,"longitude":81.3509,"temp":25.6,"humidity":93,"rain":0.2,"pressure":965.3,"uv_index":2.4,"wind_gusts":48.6,"aqi":59,"pm10":12.7,"pm2_5":12.4,"no2":14.1,"co":458.0,"o3":58.0,"so2":40.5,"mosquito_risk":10,"arthritis_risk":5,"migraine_risk":3,"frizz_risk":1,"updated_at":"2026-07-06T13:53:16.814128+05:30"},{"city":"Guwahati","state":"Assam","latitude":26.1158,"longitude":91.7086,"temp":33.4,"humidity":66,"rain":0.1,"pressure":992.1,"uv_index":7.5,"wind_gusts":27.0,"aqi":32,"pm10":7.6,"pm2_5":7.6,"no2":1.7,"co":209.0,"o3":97.0,"so2":1.4,"mosquito_risk":6,"arthritis_risk":5,"migraine_risk":7,"frizz_risk":1,"updated_at":"2026-07-06T13:53:16.814135+05:30"},{"city":"Agartala","state":"Tripura","latitude":23.8315,"longitude":91.2868,"temp":27.2,"humidity":95,"rain":0.3,"pressure":998.7,"uv_index":3.25,"wind_gusts":42.5,"aqi":31,"pm10":6.2,"pm2_5":5.3,"no2":2.3,"co":136.0,"o3":86.0,"so2":1.1,"mosquito_risk":10,"arthritis_risk":5,"migraine_risk":3,"frizz_risk":1,"updated_at":"2026-07-06T13:53:16.814142+05:30"},{"city":"Shillong","state":"Meghalaya","latitude":25.5788,"longitude":91.8933,"temp":25.8,"humidity":67,"rain":0.0,"pressure":853.5,"uv_index":4.3,"wind_gusts":41.0,"aqi":31,"pm10":3.9,"pm2_5":3.5,"no2":0.9,"co":136.0,"o3":80.0,"so2":1.2,"mosquito_risk":7,"arthritis_risk":5,"migraine_risk":3,"frizz_risk":1,"updated_at":"2026-07-06T13:53:16.814149+05:30"},{"city":"Imphal","state":"Manipur","latitude":24.817,"longitude":93.9368,"temp":28.5,"humidity":77,"rain":0.0,"pressure":917.6,"uv_index":8.45,"wind_gusts":27.7,"aqi":29,"pm10":2.8,"pm2_5":2.8,"no2":1.6,"co":154.0,"o3":68.0,"so2":0.7,"mosquito_risk":7,"arthritis_risk":5,"migraine_risk":7,"frizz_risk":1,"updated_at":"2026-07-06T13:53:16.814157+05:30"},{"city":"Aizawl","state":"Mizoram","latitude":23.7271,"longitude":92.7176,"temp":21.4,"humidity":92,"rain":0.2,"pressure":887.4,"uv_index":4.1,"wind_gusts":41.8,"aqi":25,"pm10":1.7,"pm2_5":1.6,"no2":1.3,"co":114.0,"o3":57.0,"so2":0.5,"mosquito_risk":6,"arthritis_risk":5,"migraine_risk":3,"frizz_risk":1,"updated_at":"2026-07-06T13:53:16.814164+05:30"},{"city":"Kohima","state":"Nagaland","latitude":25.6701,"longitude":94.1077,"temp":25.1,"humidity":81,"rain":0.1,"pressure":851.5,"uv_index":9.2,"wind_gusts":21.6,"aqi":27,"pm10":3.0,"pm2_5":3.0,"no2":1.9,"co":120.0,"o3":66.0,"so2":0.5,"mosquito_risk":10,"arthritis_risk":5,"migraine_risk":7,"frizz_risk":1,"updated_at":"2026-07-06T13:53:16.814172+05:30"},{"city":"Gangtok","state":"Sikkim","latitude":27.3314,"longitude":88.6138,"temp":21.5,"humidity":91,"rain":0.1,"pressure":834.2,"uv_index":6.9,"wind_gusts":26.6,"aqi":37,"pm10":2.8,"pm2_5":2.5,"no2":1.2,"co":173.0,"o3":88.0,"so2":0.8,"mosquito_risk":6,"arthritis_risk":5,"migraine_risk":7,"frizz_risk":1,"updated_at":"2026-07-06T13:53:16.814179+05:30"},{"city":"Siliguri","state":"West Bengal","latitude":26.7271,"longitude":88.3953,"temp":30.2,"humidity":76,"rain":0.1,"pressure":984.6,"uv_index":7.6,"wind_gusts":42.5,"aqi":41,"pm10":3.3,"pm2_5":3.2,"no2":1.2,"co":179.0,"o3":94.0,"so2":1.4,"mosquito_risk":6,"arthritis_risk":5,"migraine_risk":7,"frizz_risk":1,"updated_at":"2026-07-06T13:53:20.168393+05:30"},{"city":"Durgapur","state":"West Bengal","latitude":23.5204,"longitude":87.3119,"temp":31.2,"humidity":74,"rain":0.1,"pressure":982.5,"uv_index":6.2,"wind_gusts":53.6,"aqi":53,"pm10":16.5,"pm2_5":16.5,"no2":16.1,"co":251.0,"o3":80.0,"so2":26.6,"mosquito_risk":6,"arthritis_risk":5,"migraine_risk":7,"frizz_risk":1,"updated_at":"2026-07-06T13:53:20.168419+05:30"},{"city":"Asansol","state":"West Bengal","latitude":23.6739,"longitude":86.9524,"temp":30.7,"humidity":77,"rain":0.0,"pressure":981.2,"uv_index":6.75,"wind_gusts":50.8,"aqi":52,"pm10":14.4,"pm2_5":14.3,"no2":15.8,"co":289.0,"o3":81.0,"so2":26.6,"mosquito_risk":3,"arthritis_risk":5,"migraine_risk":7,"frizz_risk":1,"updated_at":"2026-07-06T13:53:20.168429+05:30"},{"city":"Pondicherry","state":"Puducherry","latitude":11.9139,"longitude":79.8145,"temp":36.3,"humidity":41,"rain":0.0,"pressure":1003.9,"uv_index":8.75,"wind_gusts":53.3,"aqi":57,"pm10":33.1,"pm2_5":20.5,"no2":2.7,"co":126.0,"o3":120.0,"so2":10.2,"mosquito_risk":0,"arthritis_risk":5,"migraine_risk":7,"frizz_risk":1,"updated_at":"2026-07-06T13:53:20.168437+05:30"},{"city":"Port Blair","state":"Andaman and Nicobar Islands","latitude":11.6234,"longitude":92.7265,"temp":31.3,"humidity":64,"rain":0.0,"pressure":1006.3,"uv_index":8.6,"wind_gusts":39.6,"aqi":39,"pm10":16.8,"pm2_5":10.0,"no2":0.2,"co":92.0,"o3":55.0,"so2":0.6,"mosquito_risk":3,"arthritis_risk":5,"migraine_risk":4,"frizz_risk":1,"updated_at":"2026-07-06T13:53:20.168444+05:30"},{"city":"Haridwar","state":"Uttarakhand","latitude":29.9457,"longitude":78.1642,"temp":34.7,"humidity":57,"rain":0.0,"pressure":966.2,"uv_index":6.7,"wind_gusts":20.9,"aqi":79,"pm10":26.7,"pm2_5":25.9,"no2":1.4,"co":261.0,"o3":152.0,"so2":5.2,"mosquito_risk":0,"arthritis_risk":5,"migraine_risk":7,"frizz_risk":1,"updated_at":"2026-07-06T13:53:20.168451+05:30"},{"city":"Rishikesh","state":"Uttarakhand","latitude":30.0869,"longitude":78.2676,"temp":32.6,"humidity":62,"rain":0.0,"pressure":959.2,"uv_index":6.8,"wind_gusts":24.1,"aqi":81,"pm10":19.3,"pm2_5":18.9,"no2":1.0,"co":249.0,"o3":141.0,"so2":3.9,"mosquito_risk":3,"arthritis_risk":5,"migraine_risk":7,"frizz_risk":1,"updated_at":"2026-07-06T13:53:20.168458+05:30"},{"city":"Nainital","state":"Uttarakhand","latitude":29.3919,"longitude":79.4542,"temp":24.1,"humidity":65,"rain":0.1,"pressure":804.1,"uv_index":5.0,"wind_gusts":23.8,"aqi":48,"pm10":12.3,"pm2_5":11.9,"no2":0.9,"co":162.0,"o3":122.0,"so2":1.8,"mosquito_risk":6,"arthritis_risk":5,"migraine_risk":3,"frizz_risk":1,"updated_at":"2026-07-06T13:53:20.168465+05:30"},{"city":"Mussoorie","state":"Uttarakhand","latitude":30.4599,"longitude":78.0664,"temp":22.3,"humidity":78,"rain":0.0,"pressure":801.4,"uv_index":7.8,"wind_gusts":31.7,"aqi":82,"pm10":17.6,"pm2_5":17.0,"no2":2.0,"co":264.0,"o3":136.0,"so2":5.0,"mosquito_risk":3,"arthritis_risk":5,"migraine_risk":7,"frizz_risk":1,"updated_at":"2026-07-06T13:53:20.168471+05:30"},{"city":"Dharamshala","state":"Himachal Pradesh","latitude":32.219,"longitude":76.3234,"temp":25.4,"humidity":80,"rain":0.0,"pressure":865.3,"uv_index":7.7,"wind_gusts":31.7,"aqi":44,"pm10":9.8,"pm2_5":9.3,"no2":1.0,"co":326.0,"o3":130.0,"so2":1.8,"mosquito_risk":7,"arthritis_risk":5,"migraine_risk":7,"frizz_risk":1,"updated_at":"2026-07-06T13:53:20.168477+05:30"},{"city":"Dalhousie","state":"Himachal Pradesh","latitude":32.5387,"longitude":75.971,"temp":21.9,"humidity":87,"rain":0.0,"pressure":802.6,"uv_index":7.65,"wind_gusts":20.9,"aqi":86,"pm10":25.7,"pm2_5":23.2,"no2":1.8,"co":298.0,"o3":165.0,"so2":4.4,"mosquito_risk":3,"arthritis_risk":5,"migraine_risk":7,"frizz_risk":1,"updated_at":"2026-07-06T13:53:20.168485+05:30"},{"city":"Patiala","state":"Punjab","latitude":30.3398,"longitude":76.3869,"temp":32.6,"humidity":74,"rain":0.0,"pressure":970.1,"uv_index":5.85,"wind_gusts":34.9,"aqi":148,"pm10":55.5,"pm2_5":40.3,"no2":2.3,"co":316.0,"o3":183.0,"so2":14.0,"mosquito_risk":3,"arthritis_risk":5,"migraine_risk":3,"frizz_risk":1,"updated_at":"2026-07-06T13:53:20.168491+05:30"},{"city":"Bhatinda","state":"Punjab","latitude":30.211,"longitude":74.9455,"temp":36.3,"humidity":55,"rain":0.0,"pressure":974.9,"uv_index":7.3,"wind_gusts":32.8,"aqi":170,"pm10":343.7,"pm2_5":95.9,"no2":3.3,"co":353.0,"o3":205.0,"so2":17.5,"mosquito_risk":0,"arthritis_risk":5,"migraine_risk":10,"frizz_risk":1,"updated_at":"2026-07-06T13:53:20.168498+05:30"},{"city":"Rohtak","state":"Haryana","latitude":28.8955,"longitude":76.6066,"temp":34.8,"humidity":58,"rain":0.1,"pressure":973.4,"uv_index":7.1,"wind_gusts":19.4,"aqi":146,"pm10":50.1,"pm2_5":34.0,"no2":5.7,"co":356.0,"o3":184.0,"so2":13.8,"mosquito_risk":3,"arthritis_risk":5,"migraine_risk":7,"frizz_risk":1,"updated_at":"2026-07-06T13:53:20.168504+05:30"},{"city":"Panipat","state":"Haryana","latitude":29.3909,"longitude":76.9635,"temp":34.1,"humidity":63,"rain":0.0,"pressure":972.3,"uv_index":7.5,"wind_gusts":23.8,"aqi":135,"pm10":44.2,"pm2_5":33.3,"no2":7.8,"co":294.0,"o3":165.0,"so2":22.9,"mosquito_risk":3,"arthritis_risk":5,"migraine_risk":7,"frizz_risk":1,"updated_at":"2026-07-06T13:53:20.168511+05:30"},{"city":"Mathura","state":"Uttar Pradesh","latitude":27.4924,"longitude":77.6737,"temp":35.5,"humidity":56,"rain":0.0,"pressure":977.6,"uv_index":5.8,"wind_gusts":22.0,"aqi":92,"pm10":17.6,"pm2_5":17.1,"no2":2.5,"co":265.0,"o3":158.0,"so2":3.9,"mosquito_risk":0,"arthritis_risk":5,"migraine_risk":6,"frizz_risk":1,"updated_at":"2026-07-06T13:53:20.168517+05:30"},{"city":"Vrindavan","state":"Uttar Pradesh","latitude":27.5823,"longitude":77.7027,"temp":35.7,"humidity":55,"rain":0.0,"pressure":978.0,"uv_index":4.45,"wind_gusts":22.0,"aqi":92,"pm10":17.6,"pm2_5":17.1,"no2":2.5,"co":265.0,"o3":158.0,"so2":3.9,"mosquito_risk":0,"arthritis_risk":5,"migraine_risk":6,"frizz_risk":1,"updated_at":"2026-07-06T13:53:20.168523+05:30"},{"city":"Ayodhya","state":"Uttar Pradesh","latitude":26.7922,"longitude":82.1998,"temp":35.2,"humidity":56,"rain":0.0,"pressure":984.9,"uv_index":4.85,"wind_gusts":49.3,"aqi":74,"pm10":13.3,"pm2_5":13.1,"no2":1.6,"co":190.0,"o3":135.0,"so2":3.2,"mosquito_risk":0,"arthritis_risk":5,"migraine_risk":6,"frizz_risk":1,"updated_at":"2026-07-06T13:53:20.168530+05:30"},{"city":"Ratlam","state":"Madhya Pradesh","latitude":23.3315,"longitude":75.0367,"temp":29.3,"humidity":80,"rain":0.0,"pressure":945.4,"uv_index":8.3,"wind_gusts":27.4,"aqi":104,"pm10":32.9,"pm2_5":28.5,"no2":1.0,"co":210.0,"o3":118.0,"so2":3.1,"mosquito_risk":7,"arthritis_risk":5,"migraine_risk":7,"frizz_risk":1,"updated_at":"2026-07-06T13:53:20.168536+05:30"},{"city":"Sagar","state":"Madhya Pradesh","latitude":23.8388,"longitude":78.7378,"temp":31.6,"humidity":61,"rain":0.0,"pressure":940.0,"uv_index":8.0,"wind_gusts":24.8,"aqi":46,"pm10":6.1,"pm2_5":6.0,"no2":0.8,"co":197.0,"o3":120.0,"so2":1.7,"mosquito_risk":3,"arthritis_risk":5,"migraine_risk":7,"frizz_risk":1,"updated_at":"2026-07-06T13:53:20.168542+05:30"},{"city":"Satna","state":"Madhya Pradesh","latitude":24.6005,"longitude":80.8322,"temp":29.1,"humidity":79,"rain":0.2,"pressure":960.4,"uv_index":5.3,"wind_gusts":31.3,"aqi":64,"pm10":9.7,"pm2_5":9.6,"no2":0.7,"co":210.0,"o3":134.0,"so2":3.1,"mosquito_risk":10,"arthritis_risk":5,"migraine_risk":3,"frizz_risk":1,"updated_at":"2026-07-06T13:53:20.168569+05:30"},{"city":"Akola","state":"Maharashtra","latitude":20.7002,"longitude":77.0082,"temp":32.3,"humidity":56,"rain":0.1,"pressure":965.3,"uv_index":2.5,"wind_gusts":42.8,"aqi":28,"pm10":11.1,"pm2_5":10.2,"no2":1.8,"co":139.0,"o3":113.0,"so2":10.2,"mosquito_risk":3,"arthritis_risk":5,"migraine_risk":3,"frizz_risk":1,"updated_at":"2026-07-06T13:53:20.168577+05:30"},{"city":"Amravati","state":"Maharashtra","latitude":20.9374,"longitude":77.7796,"temp":31.6,"humidity":61,"rain":0.0,"pressure":958.0,"uv_index":7.1,"wind_gusts":38.2,"aqi":26,"pm10":8.3,"pm2_5":7.7,"no2":2.3,"co":147.0,"o3":97.0,"so2":9.2,"mosquito_risk":3,"arthritis_risk":5,"migraine_risk":7,"frizz_risk":1,"updated_at":"2026-07-06T13:53:20.168584+05:30"},{"city":"Latur","state":"Maharashtra","latitude":18.4088,"longitude":76.5604,"temp":26.4,"humidity":80,"rain":0.0,"pressure":932.3,"uv_index":6.0,"wind_gusts":60.8,"aqi":24,"pm10":2.8,"pm2_5":2.1,"no2":0.9,"co":119.0,"o3":69.0,"so2":1.3,"mosquito_risk":7,"arthritis_risk":5,"migraine_risk":3,"frizz_risk":1,"updated_at":"2026-07-06T13:53:20.168591+05:30"},{"city":"Nanded","state":"Maharashtra","latitude":19.1383,"longitude":77.3091,"temp":25.9,"humidity":91,"rain":0.2,"pressure":960.8,"uv_index":4.6,"wind_gusts":40.3,"aqi":23,"pm10":4.4,"pm2_5":3.6,"no2":2.5,"co":119.0,"o3":67.0,"so2":3.7,"mosquito_risk":10,"arthritis_risk":5,"migraine_risk":3,"frizz_risk":1,"updated_at":"2026-07-06T13:53:20.168598+05:30"},{"city":"Gulbarga","state":"Karnataka","latitude":17.3297,"longitude":76.8343,"temp":31.1,"humidity":53,"rain":0.0,"pressure":952.1,"uv_index":2.4,"wind_gusts":73.4,"aqi":27,"pm10":6.4,"pm2_5":3.1,"no2":1.2,"co":109.0,"o3":76.0,"so2":1.6,"mosquito_risk":0,"arthritis_risk":5,"migraine_risk":3,"frizz_risk":1,"updated_at":"2026-07-06T13:53:20.168604+05:30"},{"city":"Bidar","state":"Karnataka","latitude":17.9104,"longitude":77.5199,"temp":28.4,"humidity":64,"rain":0.0,"pressure":929.0,"uv_index":2.85,"wind_gusts":62.6,"aqi":25,"pm10":2.9,"pm2_5":2.3,"no2":1.3,"co":114.0,"o3":69.0,"so2":1.2,"mosquito_risk":7,"arthritis_risk":5,"migraine_risk":3,"frizz_risk":1,"updated_at":"2026-07-06T13:53:20.168610+05:30"},{"city":"Hospet","state":"Karnataka","latitude":15.2689,"longitude":76.3909,"temp":29.3,"humidity":60,"rain":0.1,"pressure":951.5,"uv_index":6.35,"wind_gusts":73.4,"aqi":26,"pm10":6.4,"pm2_5":3.3,"no2":0.9,"co":104.0,"o3":68.0,"so2":1.2,"mosquito_risk":7,"arthritis_risk":5,"migraine_risk":7,"frizz_risk":1,"updated_at":"2026-07-06T13:53:20.168616+05:30"},{"city":"Tirupur","state":"Tamil Nadu","latitude":11.1085,"longitude":77.3411,"temp":32.7,"humidity":48,"rain":0.0,"pressure":972.8,"uv_index":8.9,"wind_gusts":72.7,"aqi":51,"pm10":14.2,"pm2_5":7.9,"no2":1.2,"co":126.0,"o3":80.0,"so2":1.8,"mosquito_risk":0,"arthritis_risk":5,"migraine_risk":7,"frizz_risk":1,"updated_at":"2026-07-06T13:53:20.168623+05:30"},{"city":"Alappuzha","state":"Kerala","latitude":9.4981,"longitude":76.3388,"temp":29.8,"humidity":71,"rain":0.0,"pressure":1009.4,"uv_index":8.35,"wind_gusts":40.0,"aqi":60,"pm10":31.0,"pm2_5":16.8,"no2":1.6,"co":91.0,"o3":70.0,"so2":1.8,"mosquito_risk":7,"arthritis_risk":0,"migraine_risk":4,"frizz_risk":1,"updated_at":"2026-07-06T13:53:20.168629+05:30"},{"city":"Munnar","state":"Kerala","latitude":10.0889,"longitude":77.0595,"temp":17.3,"humidity":91,"rain":0.3,"pressure":856.5,"uv_index":6.3,"wind_gusts":60.8,"aqi":35,"pm10":22.2,"pm2_5":11.4,"no2":0.6,"co":106.0,"o3":73.0,"so2":1.3,"mosquito_risk":6,"arthritis_risk":10,"migraine_risk":7,"frizz_risk":0,"updated_at":"2026-07-06T13:53:20.168636+05:30"},{"city":"Silchar","state":"Assam","latitude":24.8333,"longitude":92.7789,"temp":32.9,"humidity":64,"rain":0.1,"pressure":996.8,"uv_index":7.95,"wind_gusts":25.9,"aqi":47,"pm10":5.9,"pm2_5":5.6,"no2":1.1,"co":158.0,"o3":92.0,"so2":2.2,"mosquito_risk":6,"arthritis_risk":5,"migraine_risk":7,"frizz_risk":1,"updated_at":"2026-07-06T13:53:20.168642+05:30"},{"city":"Dibrugarh","state":"Assam","latitude":27.4728,"longitude":94.912,"temp":34.5,"humidity":62,"rain":0.0,"pressure":985.1,"uv_index":8.2,"wind_gusts":32.8,"aqi":47,"pm10":11.2,"pm2_5":10.6,"no2":1.0,"co":145.0,"o3":109.0,"so2":1.2,"mosquito_risk":3,"arthritis_risk":5,"migraine_risk":7,"frizz_risk":1,"updated_at":"2026-07-06T13:53:20.168648+05:30"}]