[{"city":"Delhi","state":"Delhi","latitude":28.6139,"longitude":77.209,"temp":34.9,"humidity":51,"rain":0.0,"pressure":977.4,"uv_index":7.75,"wind_gusts":28.4,"aqi":166,"pm10":290.6,"pm2_5":102.4,"no2":60.8,"co":743.0,"o3":30.0,"so2":21.0,"mosquito_risk":0,"arthritis_risk":5,"migraine_risk":7,"frizz_risk":1,"updated_at":"2026-06-27T22:43:03.199269+05:30"},{"city":"Mumbai","state":"Maharashtra","latitude":19.076,"longitude":72.8777,"temp":28.8,"humidity":83,"rain":0.0,"pressure":1006.3,"uv_index":7.15,"wind_gusts":31.3,"aqi":60,"pm10":30.6,"pm2_5":16.4,"no2":12.9,"co":832.0,"o3":38.0,"so2":7.4,"mosquito_risk":7,"arthritis_risk":5,"migraine_risk":4,"frizz_risk":1,"updated_at":"2026-06-27T22:43:03.199311+05:30"},{"city":"Bangalore","state":"Karnataka","latitude":12.9716,"longitude":77.5946,"temp":22.0,"humidity":93,"rain":0.0,"pressure":911.1,"uv_index":9.1,"wind_gusts":37.1,"aqi":40,"pm10":10.9,"pm2_5":9.4,"no2":24.8,"co":499.0,"o3":36.0,"so2":6.0,"mosquito_risk":3,"arthritis_risk":5,"migraine_risk":7,"frizz_risk":1,"updated_at":"2026-06-27T22:43:03.199324+05:30"},{"city":"Hyderabad","state":"Telangana","latitude":17.385,"longitude":78.4867,"temp":25.6,"humidity":85,"rain":0.0,"pressure":951.5,"uv_index":7.65,"wind_gusts":35.6,"aqi":81,"pm10":41.1,"pm2_5":34.6,"no2":31.2,"co":481.0,"o3":48.0,"so2":7.3,"mosquito_risk":7,"arthritis_risk":5,"migraine_risk":7,"frizz_risk":1,"updated_at":"2026-06-27T22:43:03.199331+05:30"},{"city":"Chennai","state":"Tamil Nadu","latitude":13.0827,"longitude":80.2707,"temp":30.1,"humidity":77,"rain":0.0,"pressure":1005.0,"uv_index":8.15,"wind_gusts":41.4,"aqi":75,"pm10":29.0,"pm2_5":20.4,"no2":8.1,"co":228.0,"o3":97.0,"so2":4.4,"mosquito_risk":3,"arthritis_risk":5,"migraine_risk":4,"frizz_risk":1,"updated_at":"2026-06-27T22:43:03.199338+05:30"},{"city":"Kolkata","state":"West Bengal","latitude":22.5726,"longitude":88.3639,"temp":28.2,"humidity":88,"rain":0.0,"pressure":1003.2,"uv_index":8.9,"wind_gusts":26.6,"aqi":73,"pm10":27.4,"pm2_5":24.4,"no2":10.3,"co":356.0,"o3":69.0,"so2":6.8,"mosquito_risk":7,"arthritis_risk":5,"migraine_risk":4,"frizz_risk":1,"updated_at":"2026-06-27T22:43:03.199344+05:30"},{"city":"Pune","state":"Maharashtra","latitude":18.5204,"longitude":73.8567,"temp":24.4,"humidity":88,"rain":0.0,"pressure":946.3,"uv_index":8.25,"wind_gusts":41.0,"aqi":45,"pm10":15.2,"pm2_5":11.3,"no2":16.0,"co":243.0,"o3":42.0,"so2":10.2,"mosquito_risk":3,"arthritis_risk":5,"migraine_risk":7,"frizz_risk":1,"updated_at":"2026-06-27T22:43:03.199350+05:30"},{"city":"Ahmedabad","state":"Gujarat","latitude":23.0225,"longitude":72.5714,"temp":31.6,"humidity":62,"rain":0.0,"pressure":998.8,"uv_index":7.85,"wind_gusts":37.4,"aqi":74,"pm10":51.3,"pm2_5":27.0,"no2":14.0,"co":197.0,"o3":59.0,"so2":5.4,"mosquito_risk":3,"arthritis_risk":5,"migraine_risk":7,"frizz_risk":1,"updated_at":"2026-06-27T22:43:03.199356+05:30"},{"city":"Jaipur","state":"Rajasthan","latitude":26.9124,"longitude":75.7873,"temp":31.7,"humidity":61,"rain":0.0,"pressure":955.3,"uv_index":8.2,"wind_gusts":27.7,"aqi":130,"pm10":210.9,"pm2_5":57.5,"no2":22.6,"co":638.0,"o3":44.0,"so2":7.4,"mosquito_risk":3,"arthritis_risk":5,"migraine_risk":7,"frizz_risk":1,"updated_at":"2026-06-27T22:43:03.199361+05:30"},{"city":"Lucknow","state":"Uttar Pradesh","latitude":26.8467,"longitude":80.9462,"temp":35.3,"humidity":52,"rain":0.0,"pressure":987.9,"uv_index":8.3,"wind_gusts":27.7,"aqi":130,"pm10":122.9,"pm2_5":61.0,"no2":27.5,"co":346.0,"o3":79.0,"so2":12.1,"mosquito_risk":0,"arthritis_risk":5,"migraine_risk":10,"frizz_risk":1,"updated_at":"2026-06-27T22:43:03.199370+05:30"},{"city":"Kanpur","state":"Uttar Pradesh","latitude":26.4499,"longitude":80.3319,"temp":35.4,"humidity":48,"rain":0.0,"pressure":986.4,"uv_index":8.3,"wind_gusts":33.1,"aqi":127,"pm10":132.2,"pm2_5":54.4,"no2":24.7,"co":459.0,"o3":70.0,"so2":9.2,"mosquito_risk":0,"arthritis_risk":5,"migraine_risk":10,"frizz_risk":1,"updated_at":"2026-06-27T22:43:03.199375+05:30"},{"city":"Chandigarh","state":"Chandigarh","latitude":30.7333,"longitude":76.7794,"temp":30.2,"humidity":67,"rain":0.0,"pressure":963.0,"uv_index":7.8,"wind_gusts":28.8,"aqi":154,"pm10":111.1,"pm2_5":81.7,"no2":43.5,"co":1239.0,"o3":85.0,"so2":16.8,"mosquito_risk":3,"arthritis_risk":5,"migraine_risk":7,"frizz_risk":1,"updated_at":"2026-06-27T22:43:03.199381+05:30"},{"city":"Srinagar","state":"Jammu and Kashmir","latitude":34.0837,"longitude":74.7973,"temp":23.2,"humidity":59,"rain":0.0,"pressure":838.3,"uv_index":9.1,"wind_gusts":28.4,"aqi":78,"pm10":37.0,"pm2_5":35.6,"no2":34.6,"co":987.0,"o3":27.0,"so2":1.5,"mosquito_risk":0,"arthritis_risk":5,"migraine_risk":7,"frizz_risk":0,"updated_at":"2026-06-27T22:43:03.199387+05:30"},{"city":"Jammu","state":"Jammu and Kashmir","latitude":32.7266,"longitude":74.857,"temp":31.5,"humidity":61,"rain":0.0,"pressure":965.7,"uv_index":8.65,"wind_gusts":27.4,"aqi":136,"pm10":81.0,"pm2_5":65.9,"no2":64.2,"co":714.0,"o3":30.0,"so2":7.3,"mosquito_risk":3,"arthritis_risk":5,"migraine_risk":7,"frizz_risk":1,"updated_at":"2026-06-27T22:43:03.199392+05:30"},{"city":"Amritsar","state":"Punjab","latitude":31.634,"longitude":74.8723,"temp":31.7,"humidity":67,"rain":0.0,"pressure":973.6,"uv_index":8.45,"wind_gusts":16.6,"aqi":167,"pm10":108.5,"pm2_5":89.6,"no2":55.3,"co":917.0,"o3":55.0,"so2":11.0,"mosquito_risk":3,"arthritis_risk":5,"migraine_risk":7,"frizz_risk":1,"updated_at":"2026-06-27T22:43:03.199397+05:30"},{"city":"Ludhiana","state":"Punjab","latitude":30.901,"longitude":75.8573,"temp":34.0,"humidity":51,"rain":0.0,"pressure":972.4,"uv_index":8.05,"wind_gusts":27.7,"aqi":158,"pm10":123.4,"pm2_5":81.5,"no2":35.1,"co":1317.0,"o3":69.0,"so2":11.1,"mosquito_risk":0,"arthritis_risk":5,"migraine_risk":7,"frizz_risk":1,"updated_at":"2026-06-27T22:43:03.199402+05:30"},{"city":"Jalandhar","state":"Punjab","latitude":31.326,"longitude":75.5762,"temp":33.3,"humidity":58,"rain":0.0,"pressure":973.2,"uv_index":8.25,"wind_gusts":25.2,"aqi":162,"pm10":115.0,"pm2_5":83.1,"no2":41.3,"co":901.0,"o3":61.0,"so2":8.6,"mosquito_risk":0,"arthritis_risk":5,"migraine_risk":7,"frizz_risk":1,"updated_at":"2026-06-27T22:43:03.199407+05:30"},{"city":"Dehradun","state":"Uttarakhand","latitude":30.6284,"longitude":78.0322,"temp":18.4,"humidity":96,"rain":0.0,"pressure":828.3,"uv_index":8.1,"wind_gusts":34.6,"aqi":78,"pm10":47.1,"pm2_5":31.3,"no2":27.4,"co":221.0,"o3":67.0,"so2":1.9,"mosquito_risk":3,"arthritis_risk":10,"migraine_risk":7,"frizz_risk":1,"updated_at":"2026-06-27T22:43:03.199413+05:30"},{"city":"Shimla","state":"Himachal Pradesh","latitude":31.1048,"longitude":77.1734,"temp":15.6,"humidity":89,"rain":0.0,"pressure":782.0,"uv_index":7.35,"wind_gusts":33.5,"aqi":102,"pm10":77.8,"pm2_5":60.5,"no2":31.3,"co":490.0,"o3":55.0,"so2":3.1,"mosquito_risk":3,"arthritis_risk":10,"migraine_risk":7,"frizz_risk":0,"updated_at":"2026-06-27T22:43:03.199421+05:30"},{"city":"Manali","state":"Himachal Pradesh","latitude":32.2396,"longitude":77.1887,"temp":18.1,"humidity":84,"rain":0.0,"pressure":817.3,"uv_index":8.7,"wind_gusts":35.6,"aqi":46,"pm10":8.4,"pm2_5":8.2,"no2":89.0,"co":321.0,"o3":8.0,"so2":0.0,"mosquito_risk":3,"arthritis_risk":10,"migraine_risk":7,"frizz_risk":0,"updated_at":"2026-06-27T22:43:03.199427+05:30"},{"city":"Gurgaon","state":"Haryana","latitude":28.4595,"longitude":77.0266,"temp":33.9,"humidity":47,"rain":0.0,"pressure":975.8,"uv_index":7.8,"wind_gusts":27.7,"aqi":240,"pm10":194.6,"pm2_5":78.0,"no2":58.0,"co":1332.0,"o3":22.0,"so2":15.4,"mosquito_risk":0,"arthritis_risk":5,"migraine_risk":7,"frizz_risk":1,"updated_at":"2026-06-27T22:43:03.199433+05:30"},{"city":"Noida","state":"Uttar Pradesh","latitude":28.5355,"longitude":77.391,"temp":31.5,"humidity":73,"rain":0.0,"pressure":978.5,"uv_index":7.8,"wind_gusts":23.4,"aqi":240,"pm10":194.6,"pm2_5":78.0,"no2":58.0,"co":1863.0,"o3":22.0,"so2":15.4,"mosquito_risk":3,"arthritis_risk":5,"migraine_risk":7,"frizz_risk":1,"updated_at":"2026-06-27T22:43:03.199438+05:30"},{"city":"Ghaziabad","state":"Uttar Pradesh","latitude":28.6692,"longitude":77.4538,"temp":31.3,"humidity":69,"rain":0.0,"pressure":976.9,"uv_index":7.75,"wind_gusts":20.2,"aqi":166,"pm10":278.5,"pm2_5":105.2,"no2":42.5,"co":593.0,"o3":73.0,"so2":24.7,"mosquito_risk":3,"arthritis_risk":5,"migraine_risk":7,"frizz_risk":1,"updated_at":"2026-06-27T22:43:03.199443+05:30"},{"city":"Faridabad","state":"Haryana","latitude":28.4089,"longitude":77.3178,"temp":33.8,"humidity":49,"rain":0.0,"pressure":978.1,"uv_index":7.8,"wind_gusts":31.0,"aqi":240,"pm10":194.6,"pm2_5":78.0,"no2":58.0,"co":1149.0,"o3":22.0,"so2":15.4,"mosquito_risk":0,"arthritis_risk":5,"migraine_risk":7,"frizz_risk":1,"updated_at":"2026-06-27T22:43:03.199450+05:30"},{"city":"Meerut","state":"Uttar Pradesh","latitude":28.9845,"longitude":77.7064,"temp":33.3,"humidity":57,"rain":0.0,"pressure":975.9,"uv_index":7.7,"wind_gusts":27.7,"aqi":166,"pm10":278.5,"pm2_5":105.2,"no2":42.5,"co":540.0,"o3":73.0,"so2":24.7,"mosquito_risk":0,"arthritis_risk":5,"migraine_risk":7,"frizz_risk":1,"updated_at":"2026-06-27T22:43:03.199456+05:30"},{"city":"Agra","state":"Uttar Pradesh","latitude":27.1767,"longitude":78.0081,"temp":35.1,"humidity":42,"rain":0.0,"pressure":982.3,"uv_index":8.1,"wind_gusts":31.7,"aqi":140,"pm10":162.1,"pm2_5":71.7,"no2":43.2,"co":351.0,"o3":40.0,"so2":11.3,"mosquito_risk":0,"arthritis_risk":5,"migraine_risk":10,"frizz_risk":1,"updated_at":"2026-06-27T22:43:03.199461+05:30"},{"city":"Varanasi","state":"Uttar Pradesh","latitude":25.3176,"longitude":82.9739,"temp":34.0,"humidity":55,"rain":0.0,"pressure":992.7,"uv_index":8.8,"wind_gusts":31.0,"aqi":119,"pm10":68.0,"pm2_5":65.7,"no2":31.9,"co":979.0,"o3":65.0,"so2":14.1,"mosquito_risk":0,"arthritis_risk":5,"migraine_risk":7,"frizz_risk":1,"updated_at":"2026-06-27T22:43:03.199467+05:30"},{"city":"Prayagraj","state":"Uttar Pradesh","latitude":25.4358,"longitude":81.8463,"temp":35.2,"humidity":49,"rain":0.0,"pressure":990.9,"uv_index":8.7,"wind_gusts":37.1,"aqi":103,"pm10":77.8,"pm2_5":61.0,"no2":30.3,"co":237.0,"o3":62.0,"so2":11.6,"mosquito_risk":0,"arthritis_risk":5,"migraine_risk":10,"frizz_risk":1,"updated_at":"2026-06-27T22:43:03.199472+05:30"},{"city":"Gorakhpur","state":"Uttar Pradesh","latitude":26.7606,"longitude":83.3732,"temp":31.8,"humidity":78,"rain":0.0,"pressure":992.1,"uv_index":8.65,"wind_gusts":30.2,"aqi":159,"pm10":107.1,"pm2_5":94.1,"no2":53.7,"co":834.0,"o3":32.0,"so2":16.4,"mosquito_risk":3,"arthritis_risk":5,"migraine_risk":7,"frizz_risk":1,"updated_at":"2026-06-27T22:43:03.199478+05:30"},{"city":"Bareilly","state":"Uttar Pradesh","latitude":28.367,"longitude":79.4304,"temp":33.8,"humidity":47,"rain":0.0,"pressure":981.1,"uv_index":8.1,"wind_gusts":25.9,"aqi":159,"pm10":116.6,"pm2_5":65.4,"no2":24.0,"co":487.0,"o3":100.0,"so2":14.8,"mosquito_risk":0,"arthritis_risk":5,"migraine_risk":7,"frizz_risk":1,"updated_at":"2026-06-27T22:43:03.199485+05:30"},{"city":"Aligarh","state":"Uttar Pradesh","latitude":27.8974,"longitude":78.088,"temp":33.6,"humidity":55,"rain":0.0,"pressure":980.0,"uv_index":7.95,"wind_gusts":31.7,"aqi":178,"pm10":281.3,"pm2_5":87.3,"no2":31.9,"co":645.0,"o3":59.0,"so2":8.6,"mosquito_risk":0,"arthritis_risk":5,"migraine_risk":7,"frizz_risk":1,"updated_at":"2026-06-27T22:43:03.199490+05:30"},{"city":"Moradabad","state":"Uttar Pradesh","latitude":28.8386,"longitude":78.7733,"temp":33.8,"humidity":50,"rain":0.0,"pressure":978.2,"uv_index":7.9,"wind_gusts":32.8,"aqi":163,"pm10":169.5,"pm2_5":105.0,"no2":46.4,"co":705.0,"o3":63.0,"so2":18.4,"mosquito_risk":0,"arthritis_risk":5,"migraine_risk":7,"frizz_risk":1,"updated_at":"2026-06-27T22:43:03.199495+05:30"},{"city":"Saharanpur","state":"Uttar Pradesh","latitude":29.9637,"longitude":77.546,"temp":32.6,"humidity":52,"rain":0.0,"pressure":970.1,"uv_index":7.45,"wind_gusts":28.4,"aqi":166,"pm10":234.7,"pm2_5":94.8,"no2":36.0,"co":455.0,"o3":61.0,"so2":14.3,"mosquito_risk":0,"arthritis_risk":5,"migraine_risk":7,"frizz_risk":1,"updated_at":"2026-06-27T22:43:03.199500+05:30"},{"city":"Jhansi","state":"Uttar Pradesh","latitude":25.4484,"longitude":78.5685,"temp":33.7,"humidity":52,"rain":0.0,"pressure":973.6,"uv_index":8.45,"wind_gusts":25.2,"aqi":88,"pm10":47.6,"pm2_5":27.9,"no2":9.6,"co":180.0,"o3":68.0,"so2":3.1,"mosquito_risk":0,"arthritis_risk":5,"migraine_risk":7,"frizz_risk":1,"updated_at":"2026-06-27T22:43:06.646117+05:30"},{"city":"Surat","state":"Gujarat","latitude":21.1702,"longitude":72.8311,"temp":30.1,"humidity":76,"rain":0.0,"pressure":1003.7,"uv_index":7.6,"wind_gusts":39.2,"aqi":84,"pm10":44.5,"pm2_5":25.7,"no2":21.3,"co":218.0,"o3":32.0,"so2":33.7,"mosquito_risk":3,"arthritis_risk":5,"migraine_risk":4,"frizz_risk":1,"updated_at":"2026-06-27T22:43:06.646148+05:30"},{"city":"Vadodara","state":"Gujarat","latitude":22.3072,"longitude":73.1812,"temp":32.6,"humidity":52,"rain":0.0,"pressure":1001.3,"uv_index":7.85,"wind_gusts":37.8,"aqi":78,"pm10":35.5,"pm2_5":21.8,"no2":16.8,"co":156.0,"o3":44.0,"so2":14.8,"mosquito_risk":0,"arthritis_risk":5,"migraine_risk":4,"frizz_risk":1,"updated_at":"2026-06-27T22:43:06.646156+05:30"},{"city":"Rajkot","state":"Gujarat","latitude":22.3039,"longitude":70.8022,"temp":29.4,"humidity":71,"rain":0.0,"pressure":991.2,"uv_index":7.55,"wind_gusts":43.2,"aqi":67,"pm10":30.3,"pm2_5":14.4,"no2":6.3,"co":116.0,"o3":53.0,"so2":6.3,"mosquito_risk":7,"arthritis_risk":5,"migraine_risk":7,"frizz_risk":1,"updated_at":"2026-06-27T22:43:06.646164+05:30"},{"city":"Thane","state":"Maharashtra","latitude":19.2183,"longitude":72.9781,"temp":28.2,"humidity":88,"rain":0.0,"pressure":1005.7,"uv_index":7.4,"wind_gusts":28.8,"aqi":60,"pm10":30.6,"pm2_5":16.4,"no2":12.9,"co":678.0,"o3":38.0,"so2":7.4,"mosquito_risk":7,"arthritis_risk":5,"migraine_risk":4,"frizz_risk":1,"updated_at":"2026-06-27T22:43:06.646172+05:30"},{"city":"Nagpur","state":"Maharashtra","latitude":21.1458,"longitude":79.0882,"temp":27.1,"humidity":93,"rain":0.0,"pressure":970.2,"uv_index":8.75,"wind_gusts":37.1,"aqi":95,"pm10":27.4,"pm2_5":24.6,"no2":16.7,"co":425.0,"o3":70.0,"so2":11.9,"mosquito_risk":7,"arthritis_risk":5,"migraine_risk":7,"frizz_risk":1,"updated_at":"2026-06-27T22:43:06.646179+05:30"},{"city":"Nashik","state":"Maharashtra","latitude":19.9975,"longitude":73.7898,"temp":25.3,"humidity":86,"rain":0.0,"pressure":943.6,"uv_index":7.7,"wind_gusts":29.2,"aqi":57,"pm10":21.7,"pm2_5":13.1,"no2":7.5,"co":174.0,"o3":54.0,"so2":4.0,"mosquito_risk":7,"arthritis_risk":5,"migraine_risk":7,"frizz_risk":1,"updated_at":"2026-06-27T22:43:06.646185+05:30"},{"city":"Aurangabad","state":"Maharashtra","latitude":19.8762,"longitude":75.3433,"temp":26.5,"humidity":79,"rain":0.0,"pressure":941.8,"uv_index":8.25,"wind_gusts":29.2,"aqi":68,"pm10":24.8,"pm2_5":17.8,"no2":9.8,"co":249.0,"o3":61.0,"so2":3.4,"mosquito_risk":7,"arthritis_risk":5,"migraine_risk":7,"frizz_risk":1,"updated_at":"2026-06-27T22:43:06.646191+05:30"},{"city":"Solapur","state":"Maharashtra","latitude":17.6599,"longitude":75.9064,"temp":25.6,"humidity":91,"rain":0.0,"pressure":955.5,"uv_index":3.5,"wind_gusts":38.9,"aqi":49,"pm10":14.5,"pm2_5":11.1,"no2":8.7,"co":200.0,"o3":53.0,"so2":2.3,"mosquito_risk":7,"arthritis_risk":5,"migraine_risk":3,"frizz_risk":1,"updated_at":"2026-06-27T22:43:06.646198+05:30"},{"city":"Kolhapur","state":"Maharashtra","latitude":16.705,"longitude":74.2433,"temp":23.7,"humidity":91,"rain":0.0,"pressure":946.5,"uv_index":7.4,"wind_gusts":35.6,"aqi":32,"pm10":10.4,"pm2_5":9.0,"no2":10.5,"co":180.0,"o3":35.0,"so2":3.1,"mosquito_risk":3,"arthritis_risk":5,"migraine_risk":7,"frizz_risk":1,"updated_at":"2026-06-27T22:43:06.646205+05:30"},{"city":"Goa","state":"Goa","latitude":15.2993,"longitude":74.124,"temp":25.4,"humidity":99,"rain":0.1,"pressure":997.3,"uv_index":5.75,"wind_gusts":29.9,"aqi":50,"pm10":14.8,"pm2_5":10.8,"no2":5.7,"co":308.0,"o3":46.0,"so2":1.4,"mosquito_risk":10,"arthritis_risk":5,"migraine_risk":3,"frizz_risk":1,"updated_at":"2026-06-27T22:43:06.646212+05:30"},{"city":"Jodhpur","state":"Rajasthan","latitude":26.2389,"longitude":73.0243,"temp":31.6,"humidity":58,"rain":0.0,"pressure":978.5,"uv_index":8.4,"wind_gusts":37.1,"aqi":103,"pm10":143.9,"pm2_5":39.7,"no2":10.2,"co":166.0,"o3":56.0,"so2":2.9,"mosquito_risk":0,"arthritis_risk":5,"migraine_risk":7,"frizz_risk":1,"updated_at":"2026-06-27T22:43:06.646218+05:30"},{"city":"Udaipur","state":"Rajasthan","latitude":24.5854,"longitude":73.7125,"temp":26.6,"humidity":85,"rain":0.0,"pressure":943.2,"uv_index":8.55,"wind_gusts":34.9,"aqi":68,"pm10":46.7,"pm2_5":25.5,"no2":16.3,"co":292.0,"o3":26.0,"so2":1.5,"mosquito_risk":7,"arthritis_risk":5,"migraine_risk":7,"frizz_risk":1,"updated_at":"2026-06-27T22:43:06.646224+05:30"},{"city":"Kota","state":"Rajasthan","latitude":25.2138,"longitude":75.8648,"temp":27.8,"humidity":86,"rain":0.0,"pressure":975.2,"uv_index":8.3,"wind_gusts":49.0,"aqi":82,"pm10":37.7,"pm2_5":24.6,"no2":9.3,"co":217.0,"o3":65.0,"so2":4.7,"mosquito_risk":7,"arthritis_risk":5,"migraine_risk":7,"frizz_risk":1,"updated_at":"2026-06-27T22:43:06.646230+05:30"},{"city":"Bikaner","state":"Rajasthan","latitude":28.0229,"longitude":73.3119,"temp":35.3,"humidity":39,"rain":0.0,"pressure":975.7,"uv_index":8.45,"wind_gusts":33.1,"aqi":93,"pm10":110.1,"pm2_5":39.6,"no2":3.1,"co":160.0,"o3":64.0,"so2":2.5,"mosquito_risk":0,"arthritis_risk":5,"migraine_risk":10,"frizz_risk":1,"updated_at":"2026-06-27T22:43:06.646236+05:30"},{"city":"Ajmer","state":"Rajasthan","latitude":26.4499,"longitude":74.6399,"temp":29.6,"humidity":65,"rain":0.0,"pressure":951.0,"uv_index":8.35,"wind_gusts":38.2,"aqi":86,"pm10":83.1,"pm2_5":37.5,"no2":10.1,"co":201.0,"o3":59.0,"so2":4.4,"mosquito_risk":7,"arthritis_risk":5,"migraine_risk":7,"frizz_risk":1,"updated_at":"2026-06-27T22:43:06.646243+05:30"},{"city":"Gwalior","state":"Madhya Pradesh","latitude":26.2183,"longitude":78.1828,"temp":33.7,"humidity":53,"rain":0.0,"pressure":978.4,"uv_index":8.25,"wind_gusts":36.4,"aqi":87,"pm10":61.7,"pm2_5":34.1,"no2":18.8,"co":174.0,"o3":46.0,"so2":4.1,"mosquito_risk":0,"arthritis_risk":5,"migraine_risk":7,"frizz_risk":1,"updated_at":"2026-06-27T22:43:06.646249+05:30"},{"city":"Indore","state":"Madhya Pradesh","latitude":22.7196,"longitude":75.8577,"temp":25.6,"humidity":94,"rain":0.0,"pressure":945.3,"uv_index":8.2,"wind_gusts":31.7,"aqi":86,"pm10":33.9,"pm2_5":26.1,"no2":15.0,"co":587.0,"o3":57.0,"so2":5.2,"mosquito_risk":7,"arthritis_risk":5,"migraine_risk":7,"frizz_risk":1,"updated_at":"2026-06-27T22:43:06.646255+05:30"},{"city":"Bhopal","state":"Madhya Pradesh","latitude":23.2599,"longitude":77.4126,"temp":26.7,"humidity":89,"rain":0.0,"pressure":950.6,"uv_index":8.65,"wind_gusts":23.0,"aqi":87,"pm10":38.1,"pm2_5":30.4,"no2":11.7,"co":319.0,"o3":66.0,"so2":4.0,"mosquito_risk":7,"arthritis_risk":5,"migraine_risk":7,"frizz_risk":1,"updated_at":"2026-06-27T22:43:06.646261+05:30"},{"city":"Jabalpur","state":"Madhya Pradesh","latitude":23.1815,"longitude":79.9864,"temp":27.5,"humidity":89,"rain":0.0,"pressure":958.3,"uv_index":8.85,"wind_gusts":39.6,"aqi":69,"pm10":19.1,"pm2_5":18.0,"no2":9.7,"co":247.0,"o3":80.0,"so2":3.0,"mosquito_risk":7,"arthritis_risk":5,"migraine_risk":7,"frizz_risk":1,"updated_at":"2026-06-27T22:43:06.646266+05:30"},{"city":"Ujjain","state":"Madhya Pradesh","latitude":23.1765,"longitude":75.7885,"temp":25.7,"humidity":91,"rain":0.0,"pressure":950.8,"uv_index":8.5,"wind_gusts":32.8,"aqi":84,"pm10":35.3,"pm2_5":26.9,"no2":10.2,"co":342.0,"o3":55.0,"so2":3.4,"mosquito_risk":7,"arthritis_risk":5,"migraine_risk":7,"frizz_risk":1,"updated_at":"2026-06-27T22:43:06.646272+05:30"},{"city":"Visakhapatnam","state":"Andhra Pradesh","latitude":17.6868,"longitude":83.2185,"temp":28.0,"humidity":91,"rain":0.0,"pressure":1000.6,"uv_index":8.4,"wind_gusts":31.3,"aqi":89,"pm10":36.7,"pm2_5":28.3,"no2":25.6,"co":393.0,"o3":78.0,"so2":38.5,"mosquito_risk":7,"arthritis_risk":5,"migraine_risk":4,"frizz_risk":1,"updated_at":"2026-06-27T22:43:06.646277+05:30"},{"city":"Vijayawada","state":"Andhra Pradesh","latitude":16.5062,"longitude":80.648,"temp":30.2,"humidity":73,"rain":0.0,"pressure":999.7,"uv_index":8.45,"wind_gusts":40.0,"aqi":84,"pm10":42.7,"pm2_5":37.1,"no2":19.9,"co":358.0,"o3":56.0,"so2":6.5,"mosquito_risk":3,"arthritis_risk":5,"migraine_risk":7,"frizz_risk":1,"updated_at":"2026-06-27T22:43:06.646283+05:30"},{"city":"Guntur","state":"Andhra Pradesh","latitude":16.3067,"longitude":80.4365,"temp":29.8,"humidity":75,"rain":0.0,"pressure":1000.9,"uv_index":7.7,"wind_gusts":34.9,"aqi":84,"pm10":48.5,"pm2_5":39.8,"no2":26.1,"co":554.0,"o3":51.0,"so2":7.8,"mosquito_risk":7,"arthritis_risk":5,"migraine_risk":4,"frizz_risk":1,"updated_at":"2026-06-27T22:43:06.646289+05:30"},{"city":"Nellore","state":"Andhra Pradesh","latitude":14.4426,"longitude":79.9865,"temp":29.7,"humidity":74,"rain":0.0,"pressure":1004.1,"uv_index":8.6,"wind_gusts":48.2,"aqi":72,"pm10":30.2,"pm2_5":21.7,"no2":6.8,"co":170.0,"o3":104.0,"so2":6.5,"mosquito_risk":7,"arthritis_risk":5,"migraine_risk":4,"frizz_risk":1,"updated_at":"2026-06-27T22:43:06.646296+05:30"},{"city":"Kurnool","state":"Andhra Pradesh","latitude":15.8281,"longitude":78.0373,"temp":25.2,"humidity":93,"rain":0.3,"pressure":975.8,"uv_index":7.7,"wind_gusts":49.0,"aqi":60,"pm10":18.5,"pm2_5":12.9,"no2":8.5,"co":166.0,"o3":76.0,"so2":3.7,"mosquito_risk":10,"arthritis_risk":5,"migraine_risk":7,"frizz_risk":1,"updated_at":"2026-06-27T22:43:06.646303+05:30"},{"city":"Kakinada","state":"Andhra Pradesh","latitude":16.9891,"longitude":82.2475,"temp":27.2,"humidity":99,"rain":0.0,"pressure":1004.4,"uv_index":6.6,"wind_gusts":41.8,"aqi":70,"pm10":39.1,"pm2_5":27.1,"no2":4.8,"co":586.0,"o3":108.0,"so2":4.9,"mosquito_risk":7,"arthritis_risk":5,"migraine_risk":4,"frizz_risk":1,"updated_at":"2026-06-27T22:43:06.646310+05:30"},{"city":"Tirupati","state":"Andhra Pradesh","latitude":13.6288,"longitude":79.4192,"temp":25.4,"humidity":91,"rain":0.2,"pressure":990.3,"uv_index":8.7,"wind_gusts":30.2,"aqi":56,"pm10":34.5,"pm2_5":26.0,"no2":20.6,"co":187.0,"o3":54.0,"so2":5.0,"mosquito_risk":10,"arthritis_risk":5,"migraine_risk":7,"frizz_risk":1,"updated_at":"2026-06-27T22:43:06.646316+05:30"},{"city":"Warangal","state":"Telangana","latitude":17.9689,"longitude":79.5941,"temp":27.4,"humidity":88,"rain":0.0,"pressure":975.9,"uv_index":8.15,"wind_gusts":36.0,"aqi":90,"pm10":36.4,"pm2_5":30.4,"no2":13.4,"co":430.0,"o3":57.0,"so2":3.6,"mosquito_risk":7,"arthritis_risk":5,"migraine_risk":7,"frizz_risk":1,"updated_at":"2026-06-27T22:43:06.646321+05:30"},{"city":"Nizamabad","state":"Telangana","latitude":18.6725,"longitude":78.0941,"temp":26.8,"humidity":84,"rain":0.0,"pressure":962.2,"uv_index":8.1,"wind_gusts":36.7,"aqi":101,"pm10":47.4,"pm2_5":38.0,"no2":18.7,"co":330.0,"o3":47.0,"so2":4.6,"mosquito_risk":7,"arthritis_risk":5,"migraine_risk":7,"frizz_risk":1,"updated_at":"2026-06-27T22:43:06.646327+05:30"},{"city":"Mysore","state":"Karnataka","latitude":12.2958,"longitude":76.6396,"temp":22.0,"humidity":94,"rain":0.0,"pressure":928.2,"uv_index":8.7,"wind_gusts":42.1,"aqi":31,"pm10":7.5,"pm2_5":6.6,"no2":13.2,"co":174.0,"o3":39.0,"so2":2.5,"mosquito_risk":3,"arthritis_risk":5,"migraine_risk":7,"frizz_risk":1,"updated_at":"2026-06-27T22:43:06.646332+05:30"},{"city":"Mangalore","state":"Karnataka","latitude":12.9141,"longitude":74.856,"temp":25.5,"humidity":96,"rain":0.1,"pressure":1007.1,"uv_index":8.7,"wind_gusts":37.1,"aqi":42,"pm10":15.8,"pm2_5":10.6,"no2":7.9,"co":213.0,"o3":37.0,"so2":2.3,"mosquito_risk":10,"arthritis_risk":5,"migraine_risk":4,"frizz_risk":1,"updated_at":"2026-06-27T22:43:06.646338+05:30"},{"city":"Hubli-Dharwad","state":"Karnataka","latitude":15.3647,"longitude":75.124,"temp":23.3,"humidity":91,"rain":0.0,"pressure":940.0,"uv_index":7.85,"wind_gusts":43.2,"aqi":24,"pm10":4.3,"pm2_5":3.5,"no2":7.0,"co":132.0,"o3":40.0,"so2":1.3,"mosquito_risk":3,"arthritis_risk":5,"migraine_risk":7,"frizz_risk":1,"updated_at":"2026-06-27T22:43:06.646344+05:30"},{"city":"Belgaum","state":"Karnataka","latitude":15.8497,"longitude":74.4977,"temp":22.7,"humidity":91,"rain":0.0,"pressure":924.5,"uv_index":8.45,"wind_gusts":42.8,"aqi":23,"pm10":5.0,"pm2_5":4.1,"no2":6.4,"co":128.0,"o3":42.0,"so2":1.8,"mosquito_risk":3,"arthritis_risk":5,"migraine_risk":7,"frizz_risk":1,"updated_at":"2026-06-27T22:43:09.897881+05:30"},{"city":"Coimbatore","state":"Tamil Nadu","latitude":11.0168,"longitude":76.9558,"temp":24.2,"humidity":91,"rain":0.0,"pressure":961.5,"uv_index":8.8,"wind_gusts":46.8,"aqi":34,"pm10":7.0,"pm2_5":5.7,"no2":8.5,"co":187.0,"o3":38.0,"so2":2.7,"mosquito_risk":3,"arthritis_risk":5,"migraine_risk":7,"frizz_risk":1,"updated_at":"2026-06-27T22:43:09.897912+05:30"},{"city":"Madurai","state":"Tamil Nadu","latitude":9.9252,"longitude":78.1198,"temp":31.0,"humidity":54,"rain":0.0,"pressure":992.2,"uv_index":8.7,"wind_gusts":47.9,"aqi":70,"pm10":28.1,"pm2_5":20.7,"no2":25.2,"co":194.0,"o3":43.0,"so2":5.9,"mosquito_risk":0,"arthritis_risk":5,"migraine_risk":7,"frizz_risk":1,"updated_at":"2026-06-27T22:43:09.897922+05:30"},{"city":"Trichy","state":"Tamil Nadu","latitude":10.7905,"longitude":78.7047,"temp":27.7,"humidity":83,"rain":0.1,"pressure":999.3,"uv_index":7.9,"wind_gusts":38.9,"aqi":52,"pm10":23.3,"pm2_5":17.9,"no2":15.1,"co":326.0,"o3":62.0,"so2":4.9,"mosquito_risk":10,"arthritis_risk":5,"migraine_risk":7,"frizz_risk":1,"updated_at":"2026-06-27T22:43:09.897930+05:30"},{"city":"Salem","state":"Tamil Nadu","latitude":11.6643,"longitude":78.146,"temp":24.7,"humidity":94,"rain":0.1,"pressure":977.1,"uv_index":8.45,"wind_gusts":31.7,"aqi":58,"pm10":24.6,"pm2_5":18.6,"no2":19.2,"co":401.0,"o3":52.0,"so2":5.9,"mosquito_risk":6,"arthritis_risk":5,"migraine_risk":7,"frizz_risk":1,"updated_at":"2026-06-27T22:43:09.897938+05:30"},{"city":"Tirunelveli","state":"Tamil Nadu","latitude":8.7139,"longitude":77.7567,"temp":29.6,"humidity":63,"rain":0.0,"pressure":1002.8,"uv_index":8.65,"wind_gusts":37.1,"aqi":38,"pm10":11.0,"pm2_5":8.5,"no2":8.3,"co":159.0,"o3":44.0,"so2":2.2,"mosquito_risk":7,"arthritis_risk":5,"migraine_risk":4,"frizz_risk":1,"updated_at":"2026-06-27T22:43:09.897945+05:30"},{"city":"Vellore","state":"Tamil Nadu","latitude":12.9165,"longitude":79.1325,"temp":25.1,"humidity":93,"rain":0.2,"pressure":984.0,"uv_index":8.95,"wind_gusts":41.8,"aqi":62,"pm10":30.7,"pm2_5":20.5,"no2":15.0,"co":175.0,"o3":61.0,"so2":5.2,"mosquito_risk":10,"arthritis_risk":5,"migraine_risk":7,"frizz_risk":1,"updated_at":"2026-06-27T22:43:09.897951+05:30"},{"city":"Erode","state":"Tamil Nadu","latitude":11.341,"longitude":77.7172,"temp":26.2,"humidity":93,"rain":0.2,"pressure":988.9,"uv_index":8.05,"wind_gusts":34.9,"aqi":53,"pm10":12.0,"pm2_5":9.6,"no2":12.2,"co":177.0,"o3":43.0,"so2":2.9,"mosquito_risk":10,"arthritis_risk":5,"migraine_risk":7,"frizz_risk":1,"updated_at":"2026-06-27T22:43:09.897957+05:30"},{"city":"Kochi","state":"Kerala","latitude":9.9312,"longitude":76.2673,"temp":25.3,"humidity":93,"rain":0.1,"pressure":1010.1,"uv_index":8.55,"wind_gusts":36.0,"aqi":57,"pm10":13.4,"pm2_5":9.7,"no2":15.7,"co":203.0,"o3":28.0,"so2":3.5,"mosquito_risk":10,"arthritis_risk":0,"migraine_risk":4,"frizz_risk":1,"updated_at":"2026-06-27T22:43:09.897963+05:30"},{"city":"Thiruvananthapuram","state":"Kerala","latitude":8.5241,"longitude":76.9366,"temp":24.2,"humidity":98,"rain":0.1,"pressure":1009.3,"uv_index":8.35,"wind_gusts":39.6,"aqi":40,"pm10":12.6,"pm2_5":6.6,"no2":2.9,"co":172.0,"o3":50.0,"so2":1.1,"mosquito_risk":6,"arthritis_risk":0,"migraine_risk":4,"frizz_risk":1,"updated_at":"2026-06-27T22:43:09.897969+05:30"},{"city":"Kozhikode","state":"Kerala","latitude":11.2588,"longitude":75.7804,"temp":24.9,"humidity":98,"rain":0.1,"pressure":1009.0,"uv_index":8.6,"wind_gusts":37.8,"aqi":29,"pm10":12.5,"pm2_5":6.0,"no2":1.4,"co":185.0,"o3":53.0,"so2":0.8,"mosquito_risk":6,"arthritis_risk":0,"migraine_risk":4,"frizz_risk":1,"updated_at":"2026-06-27T22:43:09.897976+05:30"},{"city":"Thrissur","state":"Kerala","latitude":10.5276,"longitude":76.2144,"temp":24.3,"humidity":99,"rain":0.1,"pressure":1008.3,"uv_index":8.55,"wind_gusts":33.8,"aqi":58,"pm10":15.9,"pm2_5":12.9,"no2":15.5,"co":240.0,"o3":24.0,"so2":3.6,"mosquito_risk":6,"arthritis_risk":0,"migraine_risk":4,"frizz_risk":1,"updated_at":"2026-06-27T22:43:09.897982+05:30"},{"city":"Kannur","state":"Kerala","latitude":11.8745,"longitude":75.3704,"temp":25.4,"humidity":96,"rain":0.1,"pressure":1007.9,"uv_index":8.65,"wind_gusts":36.0,"aqi":38,"pm10":13.5,"pm2_5":9.1,"no2":10.8,"co":168.0,"o3":31.0,"so2":2.0,"mosquito_risk":10,"arthritis_risk":5,"migraine_risk":4,"frizz_risk":1,"updated_at":"2026-06-27T22:43:09.897989+05:30"},{"city":"Patna","state":"Bihar","latitude":25.5941,"longitude":85.1376,"temp":28.2,"humidity":90,"rain":0.2,"pressure":996.2,"uv_index":8.6,"wind_gusts":32.8,"aqi":153,"pm10":77.1,"pm2_5":69.6,"no2":30.7,"co":451.0,"o3":78.0,"so2":16.7,"mosquito_risk":10,"arthritis_risk":5,"migraine_risk":7,"frizz_risk":1,"updated_at":"2026-06-27T22:43:09.897995+05:30"},{"city":"Gaya","state":"Bihar","latitude":24.7914,"longitude":85.0002,"temp":29.3,"humidity":87,"rain":0.1,"pressure":990.2,"uv_index":8.75,"wind_gusts":31.7,"aqi":126,"pm10":88.0,"pm2_5":84.5,"no2":26.2,"co":363.0,"o3":85.0,"so2":16.2,"mosquito_risk":10,"arthritis_risk":5,"migraine_risk":7,"frizz_risk":1,"updated_at":"2026-06-27T22:43:09.898002+05:30"},{"city":"Muzaffarpur","state":"Bihar","latitude":26.1209,"longitude":85.3647,"temp":28.6,"humidity":80,"rain":0.0,"pressure":996.5,"uv_index":8.6,"wind_gusts":35.3,"aqi":155,"pm10":83.8,"pm2_5":76.1,"no2":27.9,"co":602.0,"o3":82.0,"so2":14.9,"mosquito_risk":7,"arthritis_risk":5,"migraine_risk":7,"frizz_risk":1,"updated_at":"2026-06-27T22:43:09.898008+05:30"},{"city":"Bhagalpur","state":"Bihar","latitude":25.2425,"longitude":87.0117,"temp":30.8,"humidity":71,"rain":0.0,"pressure":997.2,"uv_index":7.7,"wind_gusts":26.6,"aqi":128,"pm10":53.4,"pm2_5":51.0,"no2":14.5,"co":345.0,"o3":112.0,"so2":17.8,"mosquito_risk":3,"arthritis_risk":5,"migraine_risk":7,"frizz_risk":1,"updated_at":"2026-06-27T22:43:09.898014+05:30"},{"city":"Ranchi","state":"Jharkhand","latitude":23.3441,"longitude":85.3096,"temp":25.3,"humidity":88,"rain":0.0,"pressure":935.1,"uv_index":9.0,"wind_gusts":21.6,"aqi":125,"pm10":54.1,"pm2_5":52.5,"no2":19.0,"co":298.0,"o3":74.0,"so2":8.3,"mosquito_risk":7,"arthritis_risk":5,"migraine_risk":7,"frizz_risk":1,"updated_at":"2026-06-27T22:43:09.898021+05:30"},{"city":"Jamshedpur","state":"Jharkhand","latitude":22.8046,"longitude":86.2029,"temp":29.0,"humidity":84,"rain":0.0,"pressure":987.9,"uv_index":9.05,"wind_gusts":30.2,"aqi":130,"pm10":48.1,"pm2_5":45.5,"no2":19.5,"co":717.0,"o3":74.0,"so2":22.9,"mosquito_risk":7,"arthritis_risk":5,"migraine_risk":7,"frizz_risk":1,"updated_at":"2026-06-27T22:43:09.898027+05:30"},{"city":"Dhanbad","state":"Jharkhand","latitude":23.7957,"longitude":86.4304,"temp":29.7,"humidity":78,"rain":0.0,"pressure":976.8,"uv_index":8.9,"wind_gusts":22.7,"aqi":159,"pm10":74.5,"pm2_5":72.2,"no2":45.5,"co":1556.0,"o3":67.0,"so2":114.5,"mosquito_risk":7,"arthritis_risk":5,"migraine_risk":7,"frizz_risk":1,"updated_at":"2026-06-27T22:43:09.898033+05:30"},{"city":"Bokaro","state":"Jharkhand","latitude":23.6693,"longitude":86.1511,"temp":30.0,"humidity":76,"rain":0.0,"pressure":980.6,"uv_index":9.1,"wind_gusts":23.8,"aqi":160,"pm10":80.1,"pm2_5":77.5,"no2":40.5,"co":1523.0,"o3":78.0,"so2":103.9,"mosquito_risk":7,"arthritis_risk":5,"migraine_risk":7,"frizz_risk":1,"updated_at":"2026-06-27T22:43:09.898040+05:30"},{"city":"Bhubaneswar","state":"Odisha","latitude":20.2961,"longitude":85.8245,"temp":28.2,"humidity":92,"rain":0.0,"pressure":999.5,"uv_index":9.0,"wind_gusts":36.4,"aqi":78,"pm10":29.3,"pm2_5":27.5,"no2":8.7,"co":259.0,"o3":116.0,"so2":9.3,"mosquito_risk":7,"arthritis_risk":5,"migraine_risk":7,"frizz_risk":1,"updated_at":"2026-06-27T22:43:09.898046+05:30"},{"city":"Cuttack","state":"Odisha","latitude":20.4625,"longitude":85.8828,"temp":28.7,"humidity":90,"rain":0.0,"pressure":1001.3,"uv_index":8.9,"wind_gusts":30.6,"aqi":78,"pm10":29.3,"pm2_5":27.5,"no2":8.7,"co":292.0,"o3":116.0,"so2":9.3,"mosquito_risk":7,"arthritis_risk":5,"migraine_risk":4,"frizz_risk":1,"updated_at":"2026-06-27T22:43:09.898052+05:30"},{"city":"Rourkela","state":"Odisha","latitude":22.2604,"longitude":84.8536,"temp":30.0,"humidity":76,"rain":0.0,"pressure":982.2,"uv_index":8.95,"wind_gusts":34.6,"aqi":112,"pm10":37.1,"pm2_5":34.6,"no2":13.0,"co":319.0,"o3":104.0,"so2":23.9,"mosquito_risk":7,"arthritis_risk":5,"migraine_risk":7,"frizz_risk":1,"updated_at":"2026-06-27T22:43:09.898058+05:30"},{"city":"Raipur","state":"Chhattisgarh","latitude":21.2514,"longitude":81.6296,"temp":29.2,"humidity":84,"rain":0.0,"pressure":971.3,"uv_index":8.9,"wind_gusts":40.7,"aqi":112,"pm10":36.3,"pm2_5":34.9,"no2":29.3,"co":396.0,"o3":62.0,"so2":49.1,"mosquito_risk":7,"arthritis_risk":5,"migraine_risk":7,"frizz_risk":1,"updated_at":"2026-06-27T22:43:09.898064+05:30"},{"city":"Bhilai","state":"Chhattisgarh","latitude":21.1938,"longitude":81.3509,"temp":29.3,"humidity":76,"rain":0.0,"pressure":971.8,"uv_index":8.9,"wind_gusts":54.4,"aqi":107,"pm10":33.9,"pm2_5":32.7,"no2":24.3,"co":612.0,"o3":70.0,"so2":41.3,"mosquito_risk":7,"arthritis_risk":5,"migraine_risk":7,"frizz_risk":1,"updated_at":"2026-06-27T22:43:09.898071+05:30"},{"city":"Guwahati","state":"Assam","latitude":26.1158,"longitude":91.7086,"temp":28.2,"humidity":83,"rain":0.0,"pressure":998.0,"uv_index":8.7,"wind_gusts":37.4,"aqi":78,"pm10":29.8,"pm2_5":28.0,"no2":8.6,"co":360.0,"o3":73.0,"so2":3.6,"mosquito_risk":7,"arthritis_risk":5,"migraine_risk":7,"frizz_risk":1,"updated_at":"2026-06-27T22:43:09.898077+05:30"},{"city":"Agartala","state":"Tripura","latitude":23.8315,"longitude":91.2868,"temp":27.9,"humidity":84,"rain":0.0,"pressure":1004.0,"uv_index":8.05,"wind_gusts":29.5,"aqi":57,"pm10":13.9,"pm2_5":12.5,"no2":8.7,"co":178.0,"o3":42.0,"so2":2.0,"mosquito_risk":7,"arthritis_risk":5,"migraine_risk":4,"frizz_risk":1,"updated_at":"2026-06-27T22:43:09.898084+05:30"},{"city":"Shillong","state":"Meghalaya","latitude":25.5788,"longitude":91.8933,"temp":20.7,"humidity":93,"rain":0.0,"pressure":856.2,"uv_index":6.65,"wind_gusts":25.6,"aqi":52,"pm10":7.4,"pm2_5":6.9,"no2":6.8,"co":210.0,"o3":73.0,"so2":1.7,"mosquito_risk":3,"arthritis_risk":5,"migraine_risk":7,"frizz_risk":1,"updated_at":"2026-06-27T22:43:09.898090+05:30"},{"city":"Imphal","state":"Manipur","latitude":24.817,"longitude":93.9368,"temp":23.9,"humidity":91,"rain":0.0,"pressure":921.4,"uv_index":8.05,"wind_gusts":30.6,"aqi":59,"pm10":30.0,"pm2_5":28.5,"no2":21.5,"co":398.0,"o3":22.0,"so2":3.2,"mosquito_risk":3,"arthritis_risk":5,"migraine_risk":7,"frizz_risk":1,"updated_at":"2026-06-27T22:43:09.898096+05:30"},{"city":"Aizawl","state":"Mizoram","latitude":23.7271,"longitude":92.7176,"temp":20.8,"humidity":92,"rain":0.0,"pressure":891.3,"uv_index":9.05,"wind_gusts":24.1,"aqi":38,"pm10":6.5,"pm2_5":5.9,"no2":4.4,"co":146.0,"o3":46.0,"so2":1.0,"mosquito_risk":3,"arthritis_risk":5,"migraine_risk":7,"frizz_risk":1,"updated_at":"2026-06-27T22:43:09.898102+05:30"},{"city":"Kohima","state":"Nagaland","latitude":25.6701,"longitude":94.1077,"temp":19.8,"humidity":96,"rain":0.0,"pressure":853.4,"uv_index":8.5,"wind_gusts":24.8,"aqi":49,"pm10":16.0,"pm2_5":14.6,"no2":12.0,"co":354.0,"o3":32.0,"so2":1.3,"mosquito_risk":3,"arthritis_risk":10,"migraine_risk":7,"frizz_risk":1,"updated_at":"2026-06-27T22:43:09.898108+05:30"},{"city":"Gangtok","state":"Sikkim","latitude":27.3314,"longitude":88.6138,"temp":19.0,"humidity":96,"rain":0.8,"pressure":836.4,"uv_index":8.95,"wind_gusts":39.2,"aqi":81,"pm10":14.0,"pm2_5":13.5,"no2":14.3,"co":447.0,"o3":98.0,"so2":2.8,"mosquito_risk":6,"arthritis_risk":10,"migraine_risk":7,"frizz_risk":1,"updated_at":"2026-06-27T22:43:09.898114+05:30"},{"city":"Siliguri","state":"West Bengal","latitude":26.7271,"longitude":88.3953,"temp":25.6,"humidity":95,"rain":0.0,"pressure":990.0,"uv_index":8.65,"wind_gusts":25.9,"aqi":88,"pm10":28.6,"pm2_5":26.0,"no2":9.9,"co":529.0,"o3":115.0,"so2":4.6,"mosquito_risk":7,"arthritis_risk":5,"migraine_risk":7,"frizz_risk":1,"updated_at":"2026-06-27T22:43:13.152764+05:30"},{"city":"Durgapur","state":"West Bengal","latitude":23.5204,"longitude":87.3119,"temp":29.1,"humidity":82,"rain":0.0,"pressure":991.8,"uv_index":9.0,"wind_gusts":25.9,"aqi":144,"pm10":39.6,"pm2_5":37.6,"no2":24.1,"co":638.0,"o3":64.0,"so2":32.2,"mosquito_risk":7,"arthritis_risk":5,"migraine_risk":7,"frizz_risk":1,"updated_at":"2026-06-27T22:43:13.152797+05:30"},{"city":"Asansol","state":"West Bengal","latitude":23.6739,"longitude":86.9524,"temp":29.8,"humidity":79,"rain":0.0,"pressure":990.3,"uv_index":9.05,"wind_gusts":32.0,"aqi":139,"pm10":45.6,"pm2_5":43.5,"no2":25.6,"co":411.0,"o3":68.0,"so2":33.6,"mosquito_risk":7,"arthritis_risk":5,"migraine_risk":7,"frizz_risk":1,"updated_at":"2026-06-27T22:43:13.152806+05:30"},{"city":"Pondicherry","state":"Puducherry","latitude":11.9139,"longitude":79.8145,"temp":29.9,"humidity":71,"rain":0.0,"pressure":1007.0,"uv_index":8.35,"wind_gusts":45.0,"aqi":70,"pm10":23.4,"pm2_5":16.7,"no2":9.0,"co":214.0,"o3":81.0,"so2":5.8,"mosquito_risk":7,"arthritis_risk":5,"migraine_risk":4,"frizz_risk":1,"updated_at":"2026-06-27T22:43:13.152815+05:30"},{"city":"Port Blair","state":"Andaman and Nicobar Islands","latitude":11.6234,"longitude":92.7265,"temp":25.7,"humidity":96,"rain":0.0,"pressure":1007.9,"uv_index":8.65,"wind_gusts":40.0,"aqi":19,"pm10":5.7,"pm2_5":3.4,"no2":0.3,"co":90.0,"o3":42.0,"so2":0.2,"mosquito_risk":7,"arthritis_risk":5,"migraine_risk":4,"frizz_risk":1,"updated_at":"2026-06-27T22:43:13.152822+05:30"},{"city":"Haridwar","state":"Uttarakhand","latitude":29.9457,"longitude":78.1642,"temp":31.4,"humidity":60,"rain":0.0,"pressure":968.8,"uv_index":7.6,"wind_gusts":27.7,"aqi":149,"pm10":113.2,"pm2_5":75.7,"no2":29.5,"co":430.0,"o3":92.0,"so2":16.4,"mosquito_risk":0,"arthritis_risk":5,"migraine_risk":7,"frizz_risk":1,"updated_at":"2026-06-27T22:43:13.152829+05:30"},{"city":"Rishikesh","state":"Uttarakhand","latitude":30.0869,"longitude":78.2676,"temp":29.5,"humidity":65,"rain":0.0,"pressure":961.7,"uv_index":7.7,"wind_gusts":27.4,"aqi":118,"pm10":88.9,"pm2_5":54.1,"no2":21.1,"co":397.0,"o3":90.0,"so2":9.1,"mosquito_risk":7,"arthritis_risk":5,"migraine_risk":7,"frizz_risk":1,"updated_at":"2026-06-27T22:43:13.152836+05:30"},{"city":"Nainital","state":"Uttarakhand","latitude":29.3919,"longitude":79.4542,"temp":17.4,"humidity":86,"rain":0.0,"pressure":804.3,"uv_index":6.85,"wind_gusts":28.8,"aqi":126,"pm10":82.9,"pm2_5":43.0,"no2":15.3,"co":373.0,"o3":94.0,"so2":7.3,"mosquito_risk":3,"arthritis_risk":10,"migraine_risk":7,"frizz_risk":0,"updated_at":"2026-06-27T22:43:13.152843+05:30"},{"city":"Mussoorie","state":"Uttarakhand","latitude":30.4599,"longitude":78.0664,"temp":17.8,"humidity":87,"rain":0.0,"pressure":801.7,"uv_index":8.15,"wind_gusts":40.7,"aqi":123,"pm10":92.2,"pm2_5":59.6,"no2":32.9,"co":381.0,"o3":94.0,"so2":12.3,"mosquito_risk":3,"arthritis_risk":10,"migraine_risk":7,"frizz_risk":0,"updated_at":"2026-06-27T22:43:13.152849+05:30"},{"city":"Dharamshala","state":"Himachal Pradesh","latitude":32.219,"longitude":76.3234,"temp":23.2,"humidity":76,"rain":0.0,"pressure":866.4,"uv_index":8.5,"wind_gusts":33.1,"aqi":66,"pm10":13.6,"pm2_5":12.8,"no2":16.1,"co":362.0,"o3":63.0,"so2":0.4,"mosquito_risk":3,"arthritis_risk":5,"migraine_risk":7,"frizz_risk":1,"updated_at":"2026-06-27T22:43:13.152855+05:30"},{"city":"Dalhousie","state":"Himachal Pradesh","latitude":32.5387,"longitude":75.971,"temp":16.8,"humidity":93,"rain":0.0,"pressure":801.8,"uv_index":8.2,"wind_gusts":33.1,"aqi":123,"pm10":74.0,"pm2_5":53.1,"no2":26.4,"co":562.0,"o3":87.0,"so2":2.9,"mosquito_risk":3,"arthritis_risk":10,"migraine_risk":7,"frizz_risk":0,"updated_at":"2026-06-27T22:43:13.152862+05:30"},{"city":"Patiala","state":"Punjab","latitude":30.3398,"longitude":76.3869,"temp":32.9,"humidity":57,"rain":0.0,"pressure":972.1,"uv_index":7.7,"wind_gusts":27.0,"aqi":164,"pm10":320.4,"pm2_5":126.7,"no2":44.1,"co":645.0,"o3":51.0,"so2":11.2,"mosquito_risk":0,"arthritis_risk":5,"migraine_risk":7,"frizz_risk":1,"updated_at":"2026-06-27T22:43:13.152869+05:30"},{"city":"Bhatinda","state":"Punjab","latitude":30.211,"longitude":74.9455,"temp":33.4,"humidity":61,"rain":0.0,"pressure":977.1,"uv_index":8.3,"wind_gusts":25.9,"aqi":154,"pm10":120.6,"pm2_5":95.9,"no2":65.9,"co":561.0,"o3":32.0,"so2":12.1,"mosquito_risk":3,"arthritis_risk":5,"migraine_risk":7,"frizz_risk":1,"updated_at":"2026-06-27T22:43:13.152874+05:30"},{"city":"Rohtak","state":"Haryana","latitude":28.8955,"longitude":76.6066,"temp":32.1,"humidity":65,"rain":0.0,"pressure":975.8,"uv_index":7.75,"wind_gusts":24.8,"aqi":181,"pm10":294.3,"pm2_5":101.7,"no2":76.6,"co":941.0,"o3":8.0,"so2":13.9,"mosquito_risk":3,"arthritis_risk":5,"migraine_risk":7,"frizz_risk":1,"updated_at":"2026-06-27T22:43:13.152880+05:30"},{"city":"Panipat","state":"Haryana","latitude":29.3909,"longitude":76.9635,"temp":32.1,"humidity":59,"rain":0.0,"pressure":974.4,"uv_index":7.65,"wind_gusts":23.0,"aqi":480,"pm10":510.4,"pm2_5":128.5,"no2":52.9,"co":683.0,"o3":34.0,"so2":11.0,"mosquito_risk":0,"arthritis_risk":5,"migraine_risk":7,"frizz_risk":1,"updated_at":"2026-06-27T22:43:13.152887+05:30"},{"city":"Mathura","state":"Uttar Pradesh","latitude":27.4924,"longitude":77.6737,"temp":33.3,"humidity":55,"rain":0.0,"pressure":981.2,"uv_index":8.05,"wind_gusts":34.6,"aqi":153,"pm10":158.3,"pm2_5":67.5,"no2":54.2,"co":574.0,"o3":28.0,"so2":6.9,"mosquito_risk":0,"arthritis_risk":5,"migraine_risk":7,"frizz_risk":1,"updated_at":"2026-06-27T22:43:13.152893+05:30"},{"city":"Vrindavan","state":"Uttar Pradesh","latitude":27.5823,"longitude":77.7027,"temp":32.7,"humidity":57,"rain":0.0,"pressure":981.6,"uv_index":8.0,"wind_gusts":34.6,"aqi":153,"pm10":158.3,"pm2_5":67.5,"no2":54.2,"co":605.0,"o3":28.0,"so2":6.9,"mosquito_risk":0,"arthritis_risk":5,"migraine_risk":7,"frizz_risk":1,"updated_at":"2026-06-27T22:43:13.152899+05:30"},{"city":"Ayodhya","state":"Uttar Pradesh","latitude":26.7922,"longitude":82.1998,"temp":32.1,"humidity":75,"rain":0.0,"pressure":990.1,"uv_index":8.4,"wind_gusts":29.2,"aqi":139,"pm10":125.7,"pm2_5":92.7,"no2":58.7,"co":914.0,"o3":29.0,"so2":15.0,"mosquito_risk":3,"arthritis_risk":5,"migraine_risk":7,"frizz_risk":1,"updated_at":"2026-06-27T22:43:13.152905+05:30"},{"city":"Ratlam","state":"Madhya Pradesh","latitude":23.3315,"longitude":75.0367,"temp":26.1,"humidity":96,"rain":0.0,"pressure":951.9,"uv_index":8.2,"wind_gusts":31.3,"aqi":80,"pm10":39.0,"pm2_5":27.9,"no2":8.5,"co":299.0,"o3":55.0,"so2":3.2,"mosquito_risk":7,"arthritis_risk":5,"migraine_risk":7,"frizz_risk":1,"updated_at":"2026-06-27T22:43:13.152911+05:30"},{"city":"Sagar","state":"Madhya Pradesh","latitude":23.8388,"longitude":78.7378,"temp":28.1,"humidity":81,"rain":0.0,"pressure":947.2,"uv_index":8.65,"wind_gusts":27.4,"aqi":64,"pm10":26.1,"pm2_5":21.2,"no2":9.1,"co":208.0,"o3":73.0,"so2":2.7,"mosquito_risk":7,"arthritis_risk":5,"migraine_risk":7,"frizz_risk":1,"updated_at":"2026-06-27T22:43:13.152917+05:30"},{"city":"Satna","state":"Madhya Pradesh","latitude":24.6005,"longitude":80.8322,"temp":30.1,"humidity":67,"rain":0.0,"pressure":967.9,"uv_index":8.8,"wind_gusts":31.3,"aqi":77,"pm10":36.1,"pm2_5":24.0,"no2":10.5,"co":244.0,"o3":79.0,"so2":3.4,"mosquito_risk":3,"arthritis_risk":5,"migraine_risk":7,"frizz_risk":1,"updated_at":"2026-06-27T22:43:13.152923+05:30"},{"city":"Akola","state":"Maharashtra","latitude":20.7002,"longitude":77.0082,"temp":27.2,"humidity":90,"rain":0.0,"pressure":972.5,"uv_index":8.0,"wind_gusts":38.9,"aqi":83,"pm10":25.8,"pm2_5":19.7,"no2":9.3,"co":220.0,"o3":75.0,"so2":3.9,"mosquito_risk":7,"arthritis_risk":5,"migraine_risk":7,"frizz_risk":1,"updated_at":"2026-06-27T22:43:13.152930+05:30"},{"city":"Amravati","state":"Maharashtra","latitude":20.9374,"longitude":77.7796,"temp":27.2,"humidity":85,"rain":0.0,"pressure":964.7,"uv_index":8.55,"wind_gusts":34.2,"aqi":80,"pm10":26.1,"pm2_5":20.6,"no2":10.4,"co":238.0,"o3":72.0,"so2":4.5,"mosquito_risk":7,"arthritis_risk":5,"migraine_risk":7,"frizz_risk":1,"updated_at":"2026-06-27T22:43:13.152937+05:30"},{"city":"Latur","state":"Maharashtra","latitude":18.4088,"longitude":76.5604,"temp":25.2,"humidity":89,"rain":0.0,"pressure":938.1,"uv_index":7.7,"wind_gusts":31.7,"aqi":84,"pm10":41.8,"pm2_5":29.4,"no2":16.6,"co":221.0,"o3":57.0,"so2":4.1,"mosquito_risk":7,"arthritis_risk":5,"migraine_risk":7,"frizz_risk":1,"updated_at":"2026-06-27T22:43:13.152943+05:30"},{"city":"Nanded","state":"Maharashtra","latitude":19.1383,"longitude":77.3091,"temp":26.6,"humidity":83,"rain":0.0,"pressure":966.4,"uv_index":6.35,"wind_gusts":36.4,"aqi":97,"pm10":42.7,"pm2_5":28.1,"no2":12.3,"co":235.0,"o3":62.0,"so2":3.0,"mosquito_risk":7,"arthritis_risk":5,"migraine_risk":7,"frizz_risk":1,"updated_at":"2026-06-27T22:43:13.152949+05:30"},{"city":"Gulbarga","state":"Karnataka","latitude":17.3297,"longitude":76.8343,"temp":25.0,"humidity":93,"rain":0.0,"pressure":957.4,"uv_index":5.7,"wind_gusts":31.7,"aqi":51,"pm10":22.4,"pm2_5":16.4,"no2":15.1,"co":185.0,"o3":54.0,"so2":3.7,"mosquito_risk":7,"arthritis_risk":5,"migraine_risk":3,"frizz_risk":1,"updated_at":"2026-06-27T22:43:13.152956+05:30"},{"city":"Bidar","state":"Karnataka","latitude":17.9104,"longitude":77.5199,"temp":24.3,"humidity":93,"rain":0.0,"pressure":934.2,"uv_index":2.45,"wind_gusts":36.0,"aqi":87,"pm10":37.7,"pm2_5":30.2,"no2":22.9,"co":261.0,"o3":48.0,"so2":4.2,"mosquito_risk":3,"arthritis_risk":5,"migraine_risk":3,"frizz_risk":1,"updated_at":"2026-06-27T22:43:13.152961+05:30"},{"city":"Hospet","state":"Karnataka","latitude":15.2689,"longitude":76.3909,"temp":24.9,"humidity":85,"rain":0.0,"pressure":954.9,"uv_index":7.85,"wind_gusts":47.9,"aqi":29,"pm10":7.1,"pm2_5":6.0,"no2":10.2,"co":188.0,"o3":37.0,"so2":1.7,"mosquito_risk":3,"arthritis_risk":5,"migraine_risk":7,"frizz_risk":1,"updated_at":"2026-06-27T22:43:13.152967+05:30"},{"city":"Tirupur","state":"Tamil Nadu","latitude":11.1085,"longitude":77.3411,"temp":25.8,"humidity":83,"rain":0.0,"pressure":974.9,"uv_index":8.6,"wind_gusts":50.0,"aqi":55,"pm10":14.6,"pm2_5":12.1,"no2":15.4,"co":159.0,"o3":38.0,"so2":4.0,"mosquito_risk":7,"arthritis_risk":5,"migraine_risk":7,"frizz_risk":1,"updated_at":"2026-06-27T22:43:13.152973+05:30"},{"city":"Alappuzha","state":"Kerala","latitude":9.4981,"longitude":76.3388,"temp":24.9,"humidity":94,"rain":0.1,"pressure":1010.4,"uv_index":8.5,"wind_gusts":37.4,"aqi":51,"pm10":13.0,"pm2_5":7.7,"no2":9.7,"co":92.0,"o3":40.0,"so2":2.2,"mosquito_risk":6,"arthritis_risk":0,"migraine_risk":4,"frizz_risk":1,"updated_at":"2026-06-27T22:43:13.152979+05:30"},{"city":"Munnar","state":"Kerala","latitude":10.0889,"longitude":77.0595,"temp":17.0,"humidity":99,"rain":0.0,"pressure":856.9,"uv_index":9.05,"wind_gusts":34.2,"aqi":28,"pm10":6.6,"pm2_5":5.7,"no2":8.9,"co":120.0,"o3":37.0,"so2":1.7,"mosquito_risk":3,"arthritis_risk":10,"migraine_risk":7,"frizz_risk":1,"updated_at":"2026-06-27T22:43:13.152985+05:30"},{"city":"Silchar","state":"Assam","latitude":24.8333,"longitude":92.7789,"temp":25.8,"humidity":100,"rain":0.1,"pressure":1003.3,"uv_index":8.75,"wind_gusts":24.5,"aqi":77,"pm10":22.9,"pm2_5":20.7,"no2":8.3,"co":239.0,"o3":64.0,"so2":3.6,"mosquito_risk":10,"arthritis_risk":5,"migraine_risk":4,"frizz_risk":1,"updated_at":"2026-06-27T22:43:13.152991+05:30"},{"city":"Dibrugarh","state":"Assam","latitude":27.4728,"longitude":94.912,"temp":25.5,"humidity":98,"rain":0.1,"pressure":991.0,"uv_index":8.4,"wind_gusts":34.6,"aqi":66,"pm10":15.9,"pm2_5":14.7,"no2":6.0,"co":269.0,"o3":90.0,"so2":1.7,"mosquito_risk":10,"arthritis_risk":5,"migraine_risk":7,"frizz_risk":1,"updated_at":"2026-06-27T22:43:13.152997+05:30"}]