[{"city":"Delhi","state":"Delhi","latitude":28.6139,"longitude":77.209,"temp":21.1,"humidity":51,"rain":0.0,"pressure":987.7,"uv_index":5.5,"aqi":159,"mosquito_risk":0,"arthritis_risk":5,"migraine_risk":3,"frizz_risk":0,"updated_at":"2026-02-25T20:23:01.363038+05:30"},{"city":"Mumbai","state":"Maharashtra","latitude":19.076,"longitude":72.8777,"temp":26.8,"humidity":75,"rain":0.0,"pressure":1011.5,"uv_index":7.25,"aqi":154,"mosquito_risk":7,"arthritis_risk":0,"migraine_risk":4,"frizz_risk":1,"updated_at":"2026-02-25T20:23:01.363088+05:30"},{"city":"Bangalore","state":"Karnataka","latitude":12.9716,"longitude":77.5946,"temp":24.6,"humidity":48,"rain":0.0,"pressure":913.5,"uv_index":8.75,"aqi":133,"mosquito_risk":0,"arthritis_risk":5,"migraine_risk":7,"frizz_risk":0,"updated_at":"2026-02-25T20:23:01.363103+05:30"},{"city":"Hyderabad","state":"Telangana","latitude":17.385,"longitude":78.4867,"temp":23.3,"humidity":76,"rain":0.0,"pressure":956.3,"uv_index":8.05,"aqi":150,"mosquito_risk":3,"arthritis_risk":5,"migraine_risk":7,"frizz_risk":1,"updated_at":"2026-02-25T20:23:01.363114+05:30"},{"city":"Chennai","state":"Tamil Nadu","latitude":13.0827,"longitude":80.2707,"temp":26.5,"humidity":76,"rain":0.0,"pressure":1010.9,"uv_index":8.55,"aqi":59,"mosquito_risk":7,"arthritis_risk":0,"migraine_risk":4,"frizz_risk":1,"updated_at":"2026-02-25T20:23:01.363123+05:30"},{"city":"Kolkata","state":"West Bengal","latitude":22.5726,"longitude":88.3639,"temp":24.9,"humidity":58,"rain":0.0,"pressure":1008.8,"uv_index":7.35,"aqi":177,"mosquito_risk":0,"arthritis_risk":0,"migraine_risk":4,"frizz_risk":1,"updated_at":"2026-02-25T20:23:01.363132+05:30"},{"city":"Pune","state":"Maharashtra","latitude":18.5204,"longitude":73.8567,"temp":24.1,"humidity":39,"rain":0.0,"pressure":950.9,"uv_index":7.75,"aqi":151,"mosquito_risk":0,"arthritis_risk":5,"migraine_risk":7,"frizz_risk":0,"updated_at":"2026-02-25T20:23:01.363140+05:30"},{"city":"Ahmedabad","state":"Gujarat","latitude":23.0225,"longitude":72.5714,"temp":29.2,"humidity":36,"rain":0.0,"pressure":1004.4,"uv_index":7.0,"aqi":114,"mosquito_risk":4,"arthritis_risk":5,"migraine_risk":4,"frizz_risk":0,"updated_at":"2026-02-25T20:23:01.363148+05:30"},{"city":"Jaipur","state":"Rajasthan","latitude":26.9124,"longitude":75.7873,"temp":23.5,"humidity":33,"rain":0.0,"pressure":963.6,"uv_index":6.35,"aqi":123,"mosquito_risk":0,"arthritis_risk":5,"migraine_risk":7,"frizz_risk":0,"updated_at":"2026-02-25T20:23:01.363155+05:30"},{"city":"Lucknow","state":"Uttar Pradesh","latitude":26.8467,"longitude":80.9462,"temp":22.0,"humidity":55,"rain":0.0,"pressure":998.0,"uv_index":5.95,"aqi":162,"mosquito_risk":0,"arthritis_risk":5,"migraine_risk":3,"frizz_risk":0,"updated_at":"2026-02-25T20:23:01.363168+05:30"},{"city":"Kanpur","state":"Uttar Pradesh","latitude":26.4499,"longitude":80.3319,"temp":21.9,"humidity":62,"rain":0.0,"pressure":996.5,"uv_index":5.95,"aqi":160,"mosquito_risk":3,"arthritis_risk":5,"migraine_risk":3,"frizz_risk":0,"updated_at":"2026-02-25T20:23:01.363176+05:30"},{"city":"Chandigarh","state":"Chandigarh","latitude":30.7333,"longitude":76.7794,"temp":18.4,"humidity":74,"rain":0.0,"pressure":972.9,"uv_index":5.45,"aqi":152,"mosquito_risk":3,"arthritis_risk":5,"migraine_risk":3,"frizz_risk":0,"updated_at":"2026-02-25T20:23:01.363184+05:30"},{"city":"Srinagar","state":"Jammu and Kashmir","latitude":34.0837,"longitude":74.7973,"temp":8.6,"humidity":80,"rain":0.0,"pressure":839.8,"uv_index":6.3,"aqi":162,"mosquito_risk":3,"arthritis_risk":5,"migraine_risk":7,"frizz_risk":0,"updated_at":"2026-02-25T20:23:01.363192+05:30"},{"city":"Jammu","state":"Jammu and Kashmir","latitude":32.7266,"longitude":74.857,"temp":21.0,"humidity":75,"rain":0.0,"pressure":976.8,"uv_index":6.0,"aqi":152,"mosquito_risk":3,"arthritis_risk":5,"migraine_risk":3,"frizz_risk":1,"updated_at":"2026-02-25T20:23:01.363200+05:30"},{"city":"Amritsar","state":"Punjab","latitude":31.634,"longitude":74.8723,"temp":19.9,"humidity":74,"rain":0.0,"pressure":985.2,"uv_index":5.95,"aqi":190,"mosquito_risk":3,"arthritis_risk":5,"migraine_risk":3,"frizz_risk":0,"updated_at":"2026-02-25T20:23:01.363208+05:30"},{"city":"Ludhiana","state":"Punjab","latitude":30.901,"longitude":75.8573,"temp":19.7,"humidity":71,"rain":0.0,"pressure":983.3,"uv_index":5.65,"aqi":179,"mosquito_risk":3,"arthritis_risk":5,"migraine_risk":3,"frizz_risk":0,"updated_at":"2026-02-25T20:23:01.363215+05:30"},{"city":"Jalandhar","state":"Punjab","latitude":31.326,"longitude":75.5762,"temp":19.6,"humidity":79,"rain":0.0,"pressure":984.6,"uv_index":5.8,"aqi":185,"mosquito_risk":3,"arthritis_risk":5,"migraine_risk":3,"frizz_risk":0,"updated_at":"2026-02-25T20:23:01.363225+05:30"},{"city":"Dehradun","state":"Uttarakhand","latitude":30.6284,"longitude":78.0322,"temp":11.7,"humidity":92,"rain":0.0,"pressure":830.4,"uv_index":5.75,"aqi":128,"mosquito_risk":3,"arthritis_risk":10,"migraine_risk":3,"frizz_risk":0,"updated_at":"2026-02-25T20:23:01.363232+05:30"},{"city":"Shimla","state":"Himachal Pradesh","latitude":31.1048,"longitude":77.1734,"temp":10.1,"humidity":81,"rain":0.0,"pressure":784.2,"uv_index":5.85,"aqi":130,"mosquito_risk":3,"arthritis_risk":10,"migraine_risk":3,"frizz_risk":0,"updated_at":"2026-02-25T20:23:01.363239+05:30"},{"city":"Manali","state":"Himachal Pradesh","latitude":32.2396,"longitude":77.1887,"temp":12.3,"humidity":85,"rain":0.0,"pressure":819.1,"uv_index":7.5,"aqi":94,"mosquito_risk":3,"arthritis_risk":10,"migraine_risk":7,"frizz_risk":0,"updated_at":"2026-02-25T20:23:01.363250+05:30"},{"city":"Gurgaon","state":"Haryana","latitude":28.4595,"longitude":77.0266,"temp":17.6,"humidity":61,"rain":0.0,"pressure":986.0,"uv_index":5.65,"aqi":164,"mosquito_risk":3,"arthritis_risk":5,"migraine_risk":3,"frizz_risk":0,"updated_at":"2026-02-25T20:23:01.363258+05:30"},{"city":"Noida","state":"Uttar Pradesh","latitude":28.5355,"longitude":77.391,"temp":21.3,"humidity":47,"rain":0.0,"pressure":989.2,"uv_index":5.55,"aqi":164,"mosquito_risk":0,"arthritis_risk":5,"migraine_risk":3,"frizz_risk":0,"updated_at":"2026-02-25T20:23:01.363265+05:30"},{"city":"Ghaziabad","state":"Uttar Pradesh","latitude":28.6692,"longitude":77.4538,"temp":20.6,"humidity":60,"rain":0.0,"pressure":987.3,"uv_index":5.5,"aqi":157,"mosquito_risk":0,"arthritis_risk":5,"migraine_risk":3,"frizz_risk":0,"updated_at":"2026-02-25T20:23:01.363272+05:30"},{"city":"Faridabad","state":"Haryana","latitude":28.4089,"longitude":77.3178,"temp":19.7,"humidity":46,"rain":0.0,"pressure":988.4,"uv_index":5.55,"aqi":164,"mosquito_risk":0,"arthritis_risk":5,"migraine_risk":3,"frizz_risk":0,"updated_at":"2026-02-25T20:23:01.363279+05:30"},{"city":"Meerut","state":"Uttar Pradesh","latitude":28.9845,"longitude":77.7064,"temp":18.3,"humidity":69,"rain":0.0,"pressure":985.9,"uv_index":5.35,"aqi":157,"mosquito_risk":3,"arthritis_risk":5,"migraine_risk":3,"frizz_risk":0,"updated_at":"2026-02-25T20:23:01.363286+05:30"},{"city":"Agra","state":"Uttar Pradesh","latitude":27.1767,"longitude":78.0081,"temp":20.5,"humidity":66,"rain":0.0,"pressure":992.4,"uv_index":5.85,"aqi":170,"mosquito_risk":3,"arthritis_risk":5,"migraine_risk":3,"frizz_risk":0,"updated_at":"2026-02-25T20:23:01.363293+05:30"},{"city":"Varanasi","state":"Uttar Pradesh","latitude":25.3176,"longitude":82.9739,"temp":19.2,"humidity":73,"rain":0.0,"pressure":1002.5,"uv_index":6.65,"aqi":153,"mosquito_risk":3,"arthritis_risk":5,"migraine_risk":4,"frizz_risk":0,"updated_at":"2026-02-25T20:23:01.363300+05:30"},{"city":"Prayagraj","state":"Uttar Pradesh","latitude":25.4358,"longitude":81.8463,"temp":21.3,"humidity":55,"rain":0.0,"pressure":1000.9,"uv_index":6.5,"aqi":162,"mosquito_risk":0,"arthritis_risk":5,"migraine_risk":4,"frizz_risk":0,"updated_at":"2026-02-25T20:23:01.363308+05:30"},{"city":"Gorakhpur","state":"Uttar Pradesh","latitude":26.7606,"longitude":83.3732,"temp":19.8,"humidity":70,"rain":0.0,"pressure":1001.3,"uv_index":6.35,"aqi":172,"mosquito_risk":3,"arthritis_risk":5,"migraine_risk":4,"frizz_risk":0,"updated_at":"2026-02-25T20:23:01.363315+05:30"},{"city":"Bareilly","state":"Uttar Pradesh","latitude":28.367,"longitude":79.4304,"temp":17.7,"humidity":59,"rain":0.0,"pressure":991.1,"uv_index":5.65,"aqi":167,"mosquito_risk":0,"arthritis_risk":5,"migraine_risk":3,"frizz_risk":0,"updated_at":"2026-02-25T20:23:01.363324+05:30"},{"city":"Aligarh","state":"Uttar Pradesh","latitude":27.8974,"longitude":78.088,"temp":18.6,"humidity":68,"rain":0.0,"pressure":990.2,"uv_index":5.6,"aqi":163,"mosquito_risk":3,"arthritis_risk":5,"migraine_risk":3,"frizz_risk":0,"updated_at":"2026-02-25T20:23:01.363331+05:30"},{"city":"Moradabad","state":"Uttar Pradesh","latitude":28.8386,"longitude":78.7733,"temp":17.8,"humidity":65,"rain":0.0,"pressure":987.9,"uv_index":5.5,"aqi":171,"mosquito_risk":3,"arthritis_risk":5,"migraine_risk":3,"frizz_risk":0,"updated_at":"2026-02-25T20:23:01.363337+05:30"},{"city":"Saharanpur","state":"Uttar Pradesh","latitude":29.9637,"longitude":77.546,"temp":18.8,"humidity":68,"rain":0.0,"pressure":979.7,"uv_index":5.15,"aqi":165,"mosquito_risk":3,"arthritis_risk":5,"migraine_risk":3,"frizz_risk":0,"updated_at":"2026-02-25T20:23:01.363345+05:30"},{"city":"Jhansi","state":"Uttar Pradesh","latitude":25.4484,"longitude":78.5685,"temp":20.3,"humidity":61,"rain":0.0,"pressure":982.2,"uv_index":6.45,"aqi":111,"mosquito_risk":3,"arthritis_risk":5,"migraine_risk":7,"frizz_risk":0,"updated_at":"2026-02-25T20:23:04.607254+05:30"},{"city":"Surat","state":"Gujarat","latitude":21.1702,"longitude":72.8311,"temp":25.0,"humidity":71,"rain":0.0,"pressure":1009.3,"uv_index":6.95,"aqi":145,"mosquito_risk":7,"arthritis_risk":0,"migraine_risk":4,"frizz_risk":1,"updated_at":"2026-02-25T20:23:04.607286+05:30"},{"city":"Vadodara","state":"Gujarat","latitude":22.3072,"longitude":73.1812,"temp":27.5,"humidity":38,"rain":0.0,"pressure":1006.5,"uv_index":7.05,"aqi":139,"mosquito_risk":4,"arthritis_risk":5,"migraine_risk":4,"frizz_risk":0,"updated_at":"2026-02-25T20:23:04.607297+05:30"},{"city":"Rajkot","state":"Gujarat","latitude":22.3039,"longitude":70.8022,"temp":28.0,"humidity":36,"rain":0.0,"pressure":996.6,"uv_index":6.95,"aqi":86,"mosquito_risk":4,"arthritis_risk":5,"migraine_risk":7,"frizz_risk":0,"updated_at":"2026-02-25T20:23:04.607305+05:30"},{"city":"Thane","state":"Maharashtra","latitude":19.2183,"longitude":72.9781,"temp":25.5,"humidity":78,"rain":0.0,"pressure":1010.9,"uv_index":7.25,"aqi":154,"mosquito_risk":7,"arthritis_risk":0,"migraine_risk":4,"frizz_risk":1,"updated_at":"2026-02-25T20:23:04.607313+05:30"},{"city":"Nagpur","state":"Maharashtra","latitude":21.1458,"longitude":79.0882,"temp":23.1,"humidity":66,"rain":0.0,"pressure":976.9,"uv_index":7.0,"aqi":120,"mosquito_risk":3,"arthritis_risk":5,"migraine_risk":7,"frizz_risk":1,"updated_at":"2026-02-25T20:23:04.607321+05:30"},{"city":"Nashik","state":"Maharashtra","latitude":19.9975,"longitude":73.7898,"temp":24.2,"humidity":45,"rain":0.0,"pressure":948.3,"uv_index":7.4,"aqi":102,"mosquito_risk":0,"arthritis_risk":5,"migraine_risk":7,"frizz_risk":0,"updated_at":"2026-02-25T20:23:04.607329+05:30"},{"city":"Aurangabad","state":"Maharashtra","latitude":19.8762,"longitude":75.3433,"temp":24.8,"humidity":51,"rain":0.0,"pressure":946.1,"uv_index":7.55,"aqi":117,"mosquito_risk":0,"arthritis_risk":5,"migraine_risk":7,"frizz_risk":0,"updated_at":"2026-02-25T20:23:04.607336+05:30"},{"city":"Solapur","state":"Maharashtra","latitude":17.6599,"longitude":75.9064,"temp":26.4,"humidity":59,"rain":0.0,"pressure":959.2,"uv_index":7.8,"aqi":126,"mosquito_risk":4,"arthritis_risk":5,"migraine_risk":7,"frizz_risk":1,"updated_at":"2026-02-25T20:23:04.607344+05:30"},{"city":"Kolhapur","state":"Maharashtra","latitude":16.705,"longitude":74.2433,"temp":23.0,"humidity":48,"rain":0.0,"pressure":950.2,"uv_index":8.15,"aqi":151,"mosquito_risk":0,"arthritis_risk":5,"migraine_risk":7,"frizz_risk":0,"updated_at":"2026-02-25T20:23:04.607352+05:30"},{"city":"Goa","state":"Goa","latitude":15.2993,"longitude":74.124,"temp":27.1,"humidity":79,"rain":0.0,"pressure":1000.3,"uv_index":8.2,"aqi":141,"mosquito_risk":7,"arthritis_risk":5,"migraine_risk":4,"frizz_risk":1,"updated_at":"2026-02-25T20:23:04.607360+05:30"},{"city":"Jodhpur","state":"Rajasthan","latitude":26.2389,"longitude":73.0243,"temp":24.3,"humidity":37,"rain":0.0,"pressure":986.0,"uv_index":6.6,"aqi":95,"mosquito_risk":0,"arthritis_risk":5,"migraine_risk":7,"frizz_risk":0,"updated_at":"2026-02-25T20:23:04.607367+05:30"},{"city":"Udaipur","state":"Rajasthan","latitude":24.5854,"longitude":73.7125,"temp":23.4,"humidity":48,"rain":0.0,"pressure":949.6,"uv_index":7.25,"aqi":74,"mosquito_risk":0,"arthritis_risk":5,"migraine_risk":7,"frizz_risk":0,"updated_at":"2026-02-25T20:23:04.607374+05:30"},{"city":"Kota","state":"Rajasthan","latitude":25.2138,"longitude":75.8648,"temp":21.8,"humidity":60,"rain":0.0,"pressure":982.5,"uv_index":6.65,"aqi":92,"mosquito_risk":0,"arthritis_risk":5,"migraine_risk":7,"frizz_risk":0,"updated_at":"2026-02-25T20:23:04.607381+05:30"},{"city":"Bikaner","state":"Rajasthan","latitude":28.0229,"longitude":73.3119,"temp":25.9,"humidity":32,"rain":0.0,"pressure":985.5,"uv_index":6.25,"aqi":96,"mosquito_risk":4,"arthritis_risk":5,"migraine_risk":7,"frizz_risk":0,"updated_at":"2026-02-25T20:23:04.607389+05:30"},{"city":"Ajmer","state":"Rajasthan","latitude":26.4499,"longitude":74.6399,"temp":21.0,"humidity":42,"rain":0.0,"pressure":957.6,"uv_index":6.6,"aqi":109,"mosquito_risk":0,"arthritis_risk":5,"migraine_risk":7,"frizz_risk":0,"updated_at":"2026-02-25T20:23:04.607396+05:30"},{"city":"Gwalior","state":"Madhya Pradesh","latitude":26.2183,"longitude":78.1828,"temp":22.0,"humidity":60,"rain":0.0,"pressure":987.6,"uv_index":6.2,"aqi":134,"mosquito_risk":0,"arthritis_risk":5,"migraine_risk":7,"frizz_risk":0,"updated_at":"2026-02-25T20:23:04.607404+05:30"},{"city":"Indore","state":"Madhya Pradesh","latitude":22.7196,"longitude":75.8577,"temp":19.5,"humidity":65,"rain":0.0,"pressure":950.4,"uv_index":7.15,"aqi":91,"mosquito_risk":3,"arthritis_risk":5,"migraine_risk":7,"frizz_risk":0,"updated_at":"2026-02-25T20:23:04.607412+05:30"},{"city":"Bhopal","state":"Madhya Pradesh","latitude":23.2599,"longitude":77.4126,"temp":21.3,"humidity":51,"rain":0.0,"pressure":956.8,"uv_index":7.05,"aqi":75,"mosquito_risk":0,"arthritis_risk":5,"migraine_risk":7,"frizz_risk":0,"updated_at":"2026-02-25T20:23:04.607420+05:30"},{"city":"Jabalpur","state":"Madhya Pradesh","latitude":23.1815,"longitude":79.9864,"temp":23.5,"humidity":43,"rain":0.0,"pressure":965.0,"uv_index":7.1,"aqi":91,"mosquito_risk":0,"arthritis_risk":5,"migraine_risk":7,"frizz_risk":0,"updated_at":"2026-02-25T20:23:04.607428+05:30"},{"city":"Ujjain","state":"Madhya Pradesh","latitude":23.1765,"longitude":75.7885,"temp":21.2,"humidity":54,"rain":0.0,"pressure":956.5,"uv_index":7.1,"aqi":100,"mosquito_risk":0,"arthritis_risk":5,"migraine_risk":7,"frizz_risk":0,"updated_at":"2026-02-25T20:23:04.607436+05:30"},{"city":"Visakhapatnam","state":"Andhra Pradesh","latitude":17.6868,"longitude":83.2185,"temp":25.5,"humidity":78,"rain":0.0,"pressure":1007.6,"uv_index":8.05,"aqi":128,"mosquito_risk":7,"arthritis_risk":5,"migraine_risk":4,"frizz_risk":1,"updated_at":"2026-02-25T20:23:04.607444+05:30"},{"city":"Vijayawada","state":"Andhra Pradesh","latitude":16.5062,"longitude":80.648,"temp":27.6,"humidity":63,"rain":0.0,"pressure":1006.0,"uv_index":8.15,"aqi":106,"mosquito_risk":7,"arthritis_risk":5,"migraine_risk":4,"frizz_risk":1,"updated_at":"2026-02-25T20:23:04.607451+05:30"},{"city":"Guntur","state":"Andhra Pradesh","latitude":16.3067,"longitude":80.4365,"temp":26.1,"humidity":73,"rain":0.0,"pressure":1007.5,"uv_index":8.15,"aqi":110,"mosquito_risk":7,"arthritis_risk":5,"migraine_risk":4,"frizz_risk":1,"updated_at":"2026-02-25T20:23:04.607459+05:30"},{"city":"Nellore","state":"Andhra Pradesh","latitude":14.4426,"longitude":79.9865,"temp":25.4,"humidity":80,"rain":0.0,"pressure":1009.4,"uv_index":8.35,"aqi":61,"mosquito_risk":7,"arthritis_risk":0,"migraine_risk":4,"frizz_risk":1,"updated_at":"2026-02-25T20:23:04.607468+05:30"},{"city":"Kurnool","state":"Andhra Pradesh","latitude":15.8281,"longitude":78.0373,"temp":27.7,"humidity":51,"rain":0.0,"pressure":979.5,"uv_index":8.15,"aqi":108,"mosquito_risk":4,"arthritis_risk":5,"migraine_risk":7,"frizz_risk":1,"updated_at":"2026-02-25T20:23:04.607476+05:30"},{"city":"Kakinada","state":"Andhra Pradesh","latitude":16.9891,"longitude":82.2475,"temp":24.6,"humidity":82,"rain":0.0,"pressure":1011.3,"uv_index":8.05,"aqi":63,"mosquito_risk":3,"arthritis_risk":0,"migraine_risk":4,"frizz_risk":1,"updated_at":"2026-02-25T20:23:04.607484+05:30"},{"city":"Tirupati","state":"Andhra Pradesh","latitude":13.6288,"longitude":79.4192,"temp":25.0,"humidity":74,"rain":0.0,"pressure":995.1,"uv_index":8.5,"aqi":83,"mosquito_risk":7,"arthritis_risk":5,"migraine_risk":7,"frizz_risk":1,"updated_at":"2026-02-25T20:23:04.607491+05:30"},{"city":"Warangal","state":"Telangana","latitude":17.9689,"longitude":79.5941,"temp":24.9,"humidity":67,"rain":0.0,"pressure":981.8,"uv_index":7.8,"aqi":154,"mosquito_risk":3,"arthritis_risk":5,"migraine_risk":7,"frizz_risk":1,"updated_at":"2026-02-25T20:23:04.607499+05:30"},{"city":"Nizamabad","state":"Telangana","latitude":18.6725,"longitude":78.0941,"temp":24.9,"humidity":57,"rain":0.0,"pressure":968.1,"uv_index":7.75,"aqi":156,"mosquito_risk":0,"arthritis_risk":5,"migraine_risk":7,"frizz_risk":0,"updated_at":"2026-02-25T20:23:04.607506+05:30"},{"city":"Mysore","state":"Karnataka","latitude":12.2958,"longitude":76.6396,"temp":24.3,"humidity":68,"rain":0.0,"pressure":930.5,"uv_index":8.85,"aqi":146,"mosquito_risk":3,"arthritis_risk":5,"migraine_risk":7,"frizz_risk":1,"updated_at":"2026-02-25T20:23:04.607514+05:30"},{"city":"Mangalore","state":"Karnataka","latitude":12.9141,"longitude":74.856,"temp":28.8,"humidity":79,"rain":0.0,"pressure":1009.1,"uv_index":8.45,"aqi":118,"mosquito_risk":7,"arthritis_risk":0,"migraine_risk":4,"frizz_risk":1,"updated_at":"2026-02-25T20:23:04.607521+05:30"},{"city":"Hubli-Dharwad","state":"Karnataka","latitude":15.3647,"longitude":75.124,"temp":24.5,"humidity":72,"rain":0.0,"pressure":943.0,"uv_index":8.35,"aqi":132,"mosquito_risk":3,"arthritis_risk":5,"migraine_risk":7,"frizz_risk":1,"updated_at":"2026-02-25T20:23:04.607529+05:30"},{"city":"Belgaum","state":"Karnataka","latitude":15.8497,"longitude":74.4977,"temp":24.5,"humidity":46,"rain":0.0,"pressure":928.0,"uv_index":8.4,"aqi":137,"mosquito_risk":0,"arthritis_risk":5,"migraine_risk":7,"frizz_risk":0,"updated_at":"2026-02-25T20:23:07.849313+05:30"},{"city":"Coimbatore","state":"Tamil Nadu","latitude":11.0168,"longitude":76.9558,"temp":23.9,"humidity":81,"rain":0.0,"pressure":964.4,"uv_index":8.9,"aqi":103,"mosquito_risk":3,"arthritis_risk":5,"migraine_risk":7,"frizz_risk":1,"updated_at":"2026-02-25T20:23:07.849347+05:30"},{"city":"Madurai","state":"Tamil Nadu","latitude":9.9252,"longitude":78.1198,"temp":25.0,"humidity":84,"rain":0.0,"pressure":996.3,"uv_index":8.85,"aqi":107,"mosquito_risk":7,"arthritis_risk":5,"migraine_risk":7,"frizz_risk":1,"updated_at":"2026-02-25T20:23:07.849357+05:30"},{"city":"Trichy","state":"Tamil Nadu","latitude":10.7905,"longitude":78.7047,"temp":27.3,"humidity":73,"rain":0.0,"pressure":1002.5,"uv_index":8.75,"aqi":82,"mosquito_risk":7,"arthritis_risk":5,"migraine_risk":4,"frizz_risk":1,"updated_at":"2026-02-25T20:23:07.849366+05:30"},{"city":"Salem","state":"Tamil Nadu","latitude":11.6643,"longitude":78.146,"temp":26.5,"humidity":71,"rain":0.0,"pressure":979.9,"uv_index":8.75,"aqi":139,"mosquito_risk":7,"arthritis_risk":5,"migraine_risk":7,"frizz_risk":1,"updated_at":"2026-02-25T20:23:07.849375+05:30"},{"city":"Tirunelveli","state":"Tamil Nadu","latitude":8.7139,"longitude":77.7567,"temp":25.7,"humidity":89,"rain":0.0,"pressure":1006.2,"uv_index":8.9,"aqi":81,"mosquito_risk":7,"arthritis_risk":5,"migraine_risk":4,"frizz_risk":1,"updated_at":"2026-02-25T20:23:07.849383+05:30"},{"city":"Vellore","state":"Tamil Nadu","latitude":12.9165,"longitude":79.1325,"temp":26.0,"humidity":67,"rain":0.0,"pressure":987.7,"uv_index":8.6,"aqi":94,"mosquito_risk":7,"arthritis_risk":5,"migraine_risk":7,"frizz_risk":1,"updated_at":"2026-02-25T20:23:07.849392+05:30"},{"city":"Erode","state":"Tamil Nadu","latitude":11.341,"longitude":77.7172,"temp":28.2,"humidity":69,"rain":0.0,"pressure":991.6,"uv_index":8.8,"aqi":117,"mosquito_risk":7,"arthritis_risk":5,"migraine_risk":7,"frizz_risk":1,"updated_at":"2026-02-25T20:23:07.849400+05:30"},{"city":"Kochi","state":"Kerala","latitude":9.9312,"longitude":76.2673,"temp":28.2,"humidity":79,"rain":0.0,"pressure":1011.1,"uv_index":8.65,"aqi":97,"mosquito_risk":7,"arthritis_risk":0,"migraine_risk":4,"frizz_risk":1,"updated_at":"2026-02-25T20:23:07.849408+05:30"},{"city":"Thiruvananthapuram","state":"Kerala","latitude":8.5241,"longitude":76.9366,"temp":28.0,"humidity":78,"rain":0.0,"pressure":1010.4,"uv_index":8.7,"aqi":106,"mosquito_risk":7,"arthritis_risk":0,"migraine_risk":4,"frizz_risk":1,"updated_at":"2026-02-25T20:23:07.849416+05:30"},{"city":"Kozhikode","state":"Kerala","latitude":11.2588,"longitude":75.7804,"temp":28.3,"humidity":79,"rain":0.0,"pressure":1010.4,"uv_index":8.55,"aqi":100,"mosquito_risk":7,"arthritis_risk":0,"migraine_risk":4,"frizz_risk":1,"updated_at":"2026-02-25T20:23:07.849423+05:30"},{"city":"Thrissur","state":"Kerala","latitude":10.5276,"longitude":76.2144,"temp":27.4,"humidity":82,"rain":0.0,"pressure":1009.7,"uv_index":8.55,"aqi":80,"mosquito_risk":7,"arthritis_risk":0,"migraine_risk":4,"frizz_risk":1,"updated_at":"2026-02-25T20:23:07.849433+05:30"},{"city":"Kannur","state":"Kerala","latitude":11.8745,"longitude":75.3704,"temp":28.0,"humidity":78,"rain":0.0,"pressure":1009.7,"uv_index":8.55,"aqi":98,"mosquito_risk":7,"arthritis_risk":0,"migraine_risk":4,"frizz_risk":1,"updated_at":"2026-02-25T20:23:07.849440+05:30"},{"city":"Patna","state":"Bihar","latitude":25.5941,"longitude":85.1376,"temp":21.7,"humidity":65,"rain":0.0,"pressure":1005.0,"uv_index":6.8,"aqi":164,"mosquito_risk":3,"arthritis_risk":5,"migraine_risk":4,"frizz_risk":0,"updated_at":"2026-02-25T20:23:07.849448+05:30"},{"city":"Gaya","state":"Bihar","latitude":24.7914,"longitude":85.0002,"temp":21.1,"humidity":62,"rain":0.0,"pressure":998.6,"uv_index":6.9,"aqi":153,"mosquito_risk":3,"arthritis_risk":5,"migraine_risk":7,"frizz_risk":0,"updated_at":"2026-02-25T20:23:07.849456+05:30"},{"city":"Muzaffarpur","state":"Bihar","latitude":26.1209,"longitude":85.3647,"temp":20.5,"humidity":68,"rain":0.0,"pressure":1004.7,"uv_index":6.75,"aqi":170,"mosquito_risk":3,"arthritis_risk":5,"migraine_risk":4,"frizz_risk":0,"updated_at":"2026-02-25T20:23:07.849464+05:30"},{"city":"Bhagalpur","state":"Bihar","latitude":25.2425,"longitude":87.0117,"temp":20.1,"humidity":63,"rain":0.0,"pressure":1005.3,"uv_index":6.85,"aqi":157,"mosquito_risk":3,"arthritis_risk":5,"migraine_risk":4,"frizz_risk":0,"updated_at":"2026-02-25T20:23:07.849472+05:30"},{"city":"Ranchi","state":"Jharkhand","latitude":23.3441,"longitude":85.3096,"temp":17.5,"humidity":52,"rain":0.0,"pressure":940.6,"uv_index":7.55,"aqi":119,"mosquito_risk":0,"arthritis_risk":5,"migraine_risk":7,"frizz_risk":0,"updated_at":"2026-02-25T20:23:07.849480+05:30"},{"city":"Jamshedpur","state":"Jharkhand","latitude":22.8046,"longitude":86.2029,"temp":24.5,"humidity":52,"rain":0.0,"pressure":994.1,"uv_index":7.45,"aqi":151,"mosquito_risk":0,"arthritis_risk":5,"migraine_risk":7,"frizz_risk":0,"updated_at":"2026-02-25T20:23:07.849488+05:30"},{"city":"Dhanbad","state":"Jharkhand","latitude":23.7957,"longitude":86.4304,"temp":23.4,"humidity":38,"rain":0.0,"pressure":983.6,"uv_index":7.35,"aqi":150,"mosquito_risk":0,"arthritis_risk":5,"migraine_risk":7,"frizz_risk":0,"updated_at":"2026-02-25T20:23:07.849496+05:30"},{"city":"Bokaro","state":"Jharkhand","latitude":23.6693,"longitude":86.1511,"temp":21.3,"humidity":45,"rain":0.0,"pressure":988.0,"uv_index":7.35,"aqi":144,"mosquito_risk":0,"arthritis_risk":5,"migraine_risk":7,"frizz_risk":0,"updated_at":"2026-02-25T20:23:07.849504+05:30"},{"city":"Bhubaneswar","state":"Odisha","latitude":20.2961,"longitude":85.8245,"temp":24.1,"humidity":77,"rain":0.0,"pressure":1006.3,"uv_index":7.75,"aqi":155,"mosquito_risk":3,"arthritis_risk":5,"migraine_risk":4,"frizz_risk":1,"updated_at":"2026-02-25T20:23:07.849512+05:30"},{"city":"Cuttack","state":"Odisha","latitude":20.4625,"longitude":85.8828,"temp":24.8,"humidity":76,"rain":0.0,"pressure":1008.1,"uv_index":7.8,"aqi":155,"mosquito_risk":3,"arthritis_risk":0,"migraine_risk":4,"frizz_risk":1,"updated_at":"2026-02-25T20:23:07.849519+05:30"},{"city":"Rourkela","state":"Odisha","latitude":22.2604,"longitude":84.8536,"temp":25.0,"humidity":26,"rain":0.0,"pressure":988.3,"uv_index":7.35,"aqi":116,"mosquito_risk":4,"arthritis_risk":5,"migraine_risk":7,"frizz_risk":0,"updated_at":"2026-02-25T20:23:07.849527+05:30"},{"city":"Raipur","state":"Chhattisgarh","latitude":21.2514,"longitude":81.6296,"temp":24.2,"humidity":52,"rain":0.0,"pressure":978.0,"uv_index":7.45,"aqi":155,"mosquito_risk":0,"arthritis_risk":5,"migraine_risk":7,"frizz_risk":0,"updated_at":"2026-02-25T20:23:07.849534+05:30"},{"city":"Bhilai","state":"Chhattisgarh","latitude":21.1938,"longitude":81.3509,"temp":22.9,"humidity":57,"rain":0.0,"pressure":978.2,"uv_index":7.5,"aqi":155,"mosquito_risk":0,"arthritis_risk":5,"migraine_risk":7,"frizz_risk":0,"updated_at":"2026-02-25T20:23:07.849542+05:30"},{"city":"Guwahati","state":"Assam","latitude":26.1158,"longitude":91.7086,"temp":21.0,"humidity":79,"rain":0.0,"pressure":1003.8,"uv_index":6.75,"aqi":155,"mosquito_risk":3,"arthritis_risk":5,"migraine_risk":4,"frizz_risk":1,"updated_at":"2026-02-25T20:23:07.849549+05:30"},{"city":"Agartala","state":"Tripura","latitude":23.8315,"longitude":91.2868,"temp":21.8,"humidity":60,"rain":0.0,"pressure":1008.6,"uv_index":7.1,"aqi":157,"mosquito_risk":0,"arthritis_risk":0,"migraine_risk":4,"frizz_risk":0,"updated_at":"2026-02-25T20:23:07.849557+05:30"},{"city":"Shillong","state":"Meghalaya","latitude":25.5788,"longitude":91.8933,"temp":8.9,"humidity":89,"rain":0.0,"pressure":854.4,"uv_index":6.15,"aqi":123,"mosquito_risk":3,"arthritis_risk":10,"migraine_risk":7,"frizz_risk":0,"updated_at":"2026-02-25T20:23:07.849565+05:30"},{"city":"Imphal","state":"Manipur","latitude":24.817,"longitude":93.9368,"temp":14.2,"humidity":62,"rain":0.0,"pressure":923.6,"uv_index":7.3,"aqi":165,"mosquito_risk":3,"arthritis_risk":5,"migraine_risk":7,"frizz_risk":0,"updated_at":"2026-02-25T20:23:07.849573+05:30"},{"city":"Aizawl","state":"Mizoram","latitude":23.7271,"longitude":92.7176,"temp":15.7,"humidity":57,"rain":0.0,"pressure":892.7,"uv_index":7.3,"aqi":156,"mosquito_risk":0,"arthritis_risk":5,"migraine_risk":7,"frizz_risk":0,"updated_at":"2026-02-25T20:23:07.849581+05:30"},{"city":"Kohima","state":"Nagaland","latitude":25.6701,"longitude":94.1077,"temp":12.1,"humidity":77,"rain":0.0,"pressure":854.0,"uv_index":6.65,"aqi":157,"mosquito_risk":3,"arthritis_risk":5,"migraine_risk":7,"frizz_risk":0,"updated_at":"2026-02-25T20:23:07.849588+05:30"},{"city":"Gangtok","state":"Sikkim","latitude":27.3314,"longitude":88.6138,"temp":11.9,"humidity":72,"rain":0.0,"pressure":836.7,"uv_index":7.05,"aqi":128,"mosquito_risk":3,"arthritis_risk":5,"migraine_risk":7,"frizz_risk":0,"updated_at":"2026-02-25T20:23:07.849596+05:30"},{"city":"Siliguri","state":"West Bengal","latitude":26.7271,"longitude":88.3953,"temp":19.1,"humidity":59,"rain":0.0,"pressure":996.6,"uv_index":6.75,"aqi":165,"mosquito_risk":0,"arthritis_risk":5,"migraine_risk":7,"frizz_risk":0,"updated_at":"2026-02-25T20:23:11.092688+05:30"},{"city":"Durgapur","state":"West Bengal","latitude":23.5204,"longitude":87.3119,"temp":25.0,"humidity":38,"rain":0.0,"pressure":998.6,"uv_index":7.3,"aqi":156,"mosquito_risk":4,"arthritis_risk":5,"migraine_risk":7,"frizz_risk":0,"updated_at":"2026-02-25T20:23:11.092721+05:30"},{"city":"Asansol","state":"West Bengal","latitude":23.6739,"longitude":86.9524,"temp":24.9,"humidity":37,"rain":0.0,"pressure":997.1,"uv_index":7.3,"aqi":147,"mosquito_risk":0,"arthritis_risk":5,"migraine_risk":7,"frizz_risk":0,"updated_at":"2026-02-25T20:23:11.092732+05:30"},{"city":"Pondicherry","state":"Puducherry","latitude":11.9139,"longitude":79.8145,"temp":25.5,"humidity":89,"rain":0.0,"pressure":1011.7,"uv_index":8.6,"aqi":52,"mosquito_risk":7,"arthritis_risk":0,"migraine_risk":4,"frizz_risk":1,"updated_at":"2026-02-25T20:23:11.092742+05:30"},{"city":"Port Blair","state":"Andaman and Nicobar Islands","latitude":11.6234,"longitude":92.7265,"temp":26.9,"humidity":83,"rain":0.0,"pressure":1007.9,"uv_index":8.55,"aqi":27,"mosquito_risk":7,"arthritis_risk":5,"migraine_risk":4,"frizz_risk":1,"updated_at":"2026-02-25T20:23:11.092751+05:30"},{"city":"Haridwar","state":"Uttarakhand","latitude":29.9457,"longitude":78.1642,"temp":20.7,"humidity":64,"rain":0.0,"pressure":978.4,"uv_index":5.3,"aqi":150,"mosquito_risk":3,"arthritis_risk":5,"migraine_risk":3,"frizz_risk":0,"updated_at":"2026-02-25T20:23:11.092759+05:30"},{"city":"Rishikesh","state":"Uttarakhand","latitude":30.0869,"longitude":78.2676,"temp":19.9,"humidity":66,"rain":0.0,"pressure":970.9,"uv_index":5.35,"aqi":141,"mosquito_risk":3,"arthritis_risk":5,"migraine_risk":3,"frizz_risk":0,"updated_at":"2026-02-25T20:23:11.092770+05:30"},{"city":"Nainital","state":"Uttarakhand","latitude":29.3919,"longitude":79.4542,"temp":13.5,"humidity":55,"rain":0.0,"pressure":806.1,"uv_index":6.1,"aqi":133,"mosquito_risk":0,"arthritis_risk":5,"migraine_risk":7,"frizz_risk":0,"updated_at":"2026-02-25T20:23:11.092779+05:30"},{"city":"Mussoorie","state":"Uttarakhand","latitude":30.4599,"longitude":78.0664,"temp":12.1,"humidity":85,"rain":0.0,"pressure":802.7,"uv_index":5.65,"aqi":153,"mosquito_risk":3,"arthritis_risk":10,"migraine_risk":3,"frizz_risk":0,"updated_at":"2026-02-25T20:23:11.092788+05:30"},{"city":"Dharamshala","state":"Himachal Pradesh","latitude":32.219,"longitude":76.3234,"temp":15.8,"humidity":74,"rain":0.0,"pressure":870.6,"uv_index":5.9,"aqi":113,"mosquito_risk":3,"arthritis_risk":5,"migraine_risk":3,"frizz_risk":0,"updated_at":"2026-02-25T20:23:11.092796+05:30"},{"city":"Dalhousie","state":"Himachal Pradesh","latitude":32.5387,"longitude":75.971,"temp":12.9,"humidity":79,"rain":0.0,"pressure":804.2,"uv_index":6.1,"aqi":130,"mosquito_risk":3,"arthritis_risk":5,"migraine_risk":7,"frizz_risk":0,"updated_at":"2026-02-25T20:23:11.092806+05:30"},{"city":"Patiala","state":"Punjab","latitude":30.3398,"longitude":76.3869,"temp":18.2,"humidity":72,"rain":0.0,"pressure":982.6,"uv_index":5.35,"aqi":172,"mosquito_risk":3,"arthritis_risk":5,"migraine_risk":3,"frizz_risk":0,"updated_at":"2026-02-25T20:23:11.092815+05:30"},{"city":"Bhatinda","state":"Punjab","latitude":30.211,"longitude":74.9455,"temp":20.4,"humidity":67,"rain":0.0,"pressure":988.3,"uv_index":6.0,"aqi":156,"mosquito_risk":3,"arthritis_risk":5,"migraine_risk":3,"frizz_risk":0,"updated_at":"2026-02-25T20:23:11.092823+05:30"},{"city":"Rohtak","state":"Haryana","latitude":28.8955,"longitude":76.6066,"temp":18.2,"humidity":65,"rain":0.0,"pressure":986.5,"uv_index":5.55,"aqi":160,"mosquito_risk":3,"arthritis_risk":5,"migraine_risk":3,"frizz_risk":0,"updated_at":"2026-02-25T20:23:11.092832+05:30"},{"city":"Panipat","state":"Haryana","latitude":29.3909,"longitude":76.9635,"temp":17.9,"humidity":72,"rain":0.0,"pressure":984.9,"uv_index":5.3,"aqi":163,"mosquito_risk":3,"arthritis_risk":5,"migraine_risk":3,"frizz_risk":0,"updated_at":"2026-02-25T20:23:11.092840+05:30"},{"city":"Mathura","state":"Uttar Pradesh","latitude":27.4924,"longitude":77.6737,"temp":19.1,"humidity":65,"rain":0.0,"pressure":991.6,"uv_index":5.75,"aqi":161,"mosquito_risk":3,"arthritis_risk":5,"migraine_risk":3,"frizz_risk":0,"updated_at":"2026-02-25T20:23:11.092848+05:30"},{"city":"Vrindavan","state":"Uttar Pradesh","latitude":27.5823,"longitude":77.7027,"temp":19.4,"humidity":63,"rain":0.0,"pressure":992.0,"uv_index":5.75,"aqi":161,"mosquito_risk":3,"arthritis_risk":5,"migraine_risk":3,"frizz_risk":0,"updated_at":"2026-02-25T20:23:11.092861+05:30"},{"city":"Ayodhya","state":"Uttar Pradesh","latitude":26.7922,"longitude":82.1998,"temp":20.2,"humidity":65,"rain":0.0,"pressure":999.6,"uv_index":6.1,"aqi":169,"mosquito_risk":3,"arthritis_risk":5,"migraine_risk":7,"frizz_risk":0,"updated_at":"2026-02-25T20:23:11.092869+05:30"},{"city":"Ratlam","state":"Madhya Pradesh","latitude":23.3315,"longitude":75.0367,"temp":20.5,"humidity":64,"rain":0.0,"pressure":956.9,"uv_index":7.05,"aqi":96,"mosquito_risk":3,"arthritis_risk":5,"migraine_risk":7,"frizz_risk":0,"updated_at":"2026-02-25T20:23:11.092878+05:30"},{"city":"Sagar","state":"Madhya Pradesh","latitude":23.8388,"longitude":78.7378,"temp":21.7,"humidity":46,"rain":0.0,"pressure":953.5,"uv_index":6.95,"aqi":95,"mosquito_risk":0,"arthritis_risk":5,"migraine_risk":7,"frizz_risk":0,"updated_at":"2026-02-25T20:23:11.092888+05:30"},{"city":"Satna","state":"Madhya Pradesh","latitude":24.6005,"longitude":80.8322,"temp":20.9,"humidity":44,"rain":0.0,"pressure":975.6,"uv_index":6.9,"aqi":106,"mosquito_risk":0,"arthritis_risk":5,"migraine_risk":7,"frizz_risk":0,"updated_at":"2026-02-25T20:23:11.092896+05:30"},{"city":"Akola","state":"Maharashtra","latitude":20.7002,"longitude":77.0082,"temp":26.1,"humidity":52,"rain":0.0,"pressure":978.0,"uv_index":7.45,"aqi":117,"mosquito_risk":4,"arthritis_risk":5,"migraine_risk":7,"frizz_risk":0,"updated_at":"2026-02-25T20:23:11.092905+05:30"},{"city":"Amravati","state":"Maharashtra","latitude":20.9374,"longitude":77.7796,"temp":23.7,"humidity":62,"rain":0.0,"pressure":970.5,"uv_index":7.4,"aqi":117,"mosquito_risk":3,"arthritis_risk":5,"migraine_risk":7,"frizz_risk":0,"updated_at":"2026-02-25T20:23:11.092914+05:30"},{"city":"Latur","state":"Maharashtra","latitude":18.4088,"longitude":76.5604,"temp":24.3,"humidity":60,"rain":0.0,"pressure":942.3,"uv_index":6.95,"aqi":144,"mosquito_risk":0,"arthritis_risk":5,"migraine_risk":7,"frizz_risk":1,"updated_at":"2026-02-25T20:23:11.092923+05:30"},{"city":"Nanded","state":"Maharashtra","latitude":19.1383,"longitude":77.3091,"temp":26.1,"humidity":59,"rain":0.0,"pressure":971.8,"uv_index":7.65,"aqi":152,"mosquito_risk":4,"arthritis_risk":5,"migraine_risk":7,"frizz_risk":1,"updated_at":"2026-02-25T20:23:11.092931+05:30"},{"city":"Gulbarga","state":"Karnataka","latitude":17.3297,"longitude":76.8343,"temp":25.5,"humidity":62,"rain":0.0,"pressure":961.6,"uv_index":5.6,"aqi":137,"mosquito_risk":7,"arthritis_risk":5,"migraine_risk":3,"frizz_risk":1,"updated_at":"2026-02-25T20:23:11.092939+05:30"},{"city":"Bidar","state":"Karnataka","latitude":17.9104,"longitude":77.5199,"temp":24.2,"humidity":64,"rain":0.0,"pressure":938.2,"uv_index":7.9,"aqi":152,"mosquito_risk":3,"arthritis_risk":5,"migraine_risk":7,"frizz_risk":1,"updated_at":"2026-02-25T20:23:11.092947+05:30"},{"city":"Hospet","state":"Karnataka","latitude":15.2689,"longitude":76.3909,"temp":28.0,"humidity":48,"rain":0.0,"pressure":958.0,"uv_index":8.2,"aqi":143,"mosquito_risk":4,"arthritis_risk":5,"migraine_risk":7,"frizz_risk":0,"updated_at":"2026-02-25T20:23:11.092955+05:30"},{"city":"Tirupur","state":"Tamil Nadu","latitude":11.1085,"longitude":77.3411,"temp":26.2,"humidity":78,"rain":0.0,"pressure":978.0,"uv_index":8.9,"aqi":123,"mosquito_risk":7,"arthritis_risk":5,"migraine_risk":7,"frizz_risk":1,"updated_at":"2026-02-25T20:23:11.092963+05:30"},{"city":"Alappuzha","state":"Kerala","latitude":9.4981,"longitude":76.3388,"temp":28.3,"humidity":78,"rain":0.0,"pressure":1011.2,"uv_index":8.6,"aqi":106,"mosquito_risk":7,"arthritis_risk":0,"migraine_risk":4,"frizz_risk":1,"updated_at":"2026-02-25T20:23:11.092971+05:30"},{"city":"Munnar","state":"Kerala","latitude":10.0889,"longitude":77.0595,"temp":20.1,"humidity":97,"rain":0.0,"pressure":858.5,"uv_index":9.15,"aqi":97,"mosquito_risk":3,"arthritis_risk":5,"migraine_risk":7,"frizz_risk":1,"updated_at":"2026-02-25T20:23:11.092980+05:30"},{"city":"Silchar","state":"Assam","latitude":24.8333,"longitude":92.7789,"temp":21.7,"humidity":65,"rain":0.0,"pressure":1006.9,"uv_index":7.05,"aqi":160,"mosquito_risk":3,"arthritis_risk":5,"migraine_risk":4,"frizz_risk":0,"updated_at":"2026-02-25T20:23:11.092989+05:30"},{"city":"Dibrugarh","state":"Assam","latitude":27.4728,"longitude":94.912,"temp":22.3,"humidity":78,"rain":0.0,"pressure":997.6,"uv_index":6.75,"aqi":147,"mosquito_risk":3,"arthritis_risk":5,"migraine_risk":7,"frizz_risk":1,"updated_at":"2026-02-25T20:23:11.092997+05:30"}]