[{"city":"Delhi","state":"Delhi","latitude":28.6139,"longitude":77.209,"temp":28.2,"humidity":88,"rain":0.0,"pressure":976.9,"uv_index":7.15,"wind_gusts":26.3,"aqi":134,"pm10":63.8,"pm2_5":45.1,"no2":33.4,"co":665.0,"o3":68.0,"so2":30.6,"mosquito_risk":7,"arthritis_risk":5,"migraine_risk":7,"frizz_risk":1,"updated_at":"2026-07-03T01:50:09.455056+05:30"},{"city":"Mumbai","state":"Maharashtra","latitude":19.076,"longitude":72.8777,"temp":25.5,"humidity":94,"rain":0.3,"pressure":1005.2,"uv_index":0.7,"wind_gusts":45.0,"aqi":40,"pm10":20.5,"pm2_5":10.3,"no2":5.2,"co":158.0,"o3":52.0,"so2":4.2,"mosquito_risk":10,"arthritis_risk":5,"migraine_risk":0,"frizz_risk":1,"updated_at":"2026-07-03T01:50:09.455131+05:30"},{"city":"Bangalore","state":"Karnataka","latitude":12.9716,"longitude":77.5946,"temp":21.3,"humidity":86,"rain":0.0,"pressure":910.7,"uv_index":8.25,"wind_gusts":61.9,"aqi":19,"pm10":4.0,"pm2_5":3.3,"no2":9.4,"co":171.0,"o3":38.0,"so2":3.6,"mosquito_risk":3,"arthritis_risk":5,"migraine_risk":7,"frizz_risk":1,"updated_at":"2026-07-03T01:50:09.455151+05:30"},{"city":"Hyderabad","state":"Telangana","latitude":17.385,"longitude":78.4867,"temp":24.4,"humidity":83,"rain":0.1,"pressure":949.7,"uv_index":8.1,"wind_gusts":61.6,"aqi":24,"pm10":5.2,"pm2_5":4.0,"no2":7.9,"co":166.0,"o3":39.0,"so2":4.1,"mosquito_risk":6,"arthritis_risk":5,"migraine_risk":7,"frizz_risk":1,"updated_at":"2026-07-03T01:50:09.455162+05:30"},{"city":"Chennai","state":"Tamil Nadu","latitude":13.0827,"longitude":80.2707,"temp":27.5,"humidity":84,"rain":0.0,"pressure":1004.8,"uv_index":8.45,"wind_gusts":47.9,"aqi":37,"pm10":7.7,"pm2_5":7.2,"no2":15.7,"co":365.0,"o3":37.0,"so2":8.6,"mosquito_risk":7,"arthritis_risk":5,"migraine_risk":4,"frizz_risk":1,"updated_at":"2026-07-03T01:50:09.455173+05:30"},{"city":"Kolkata","state":"West Bengal","latitude":22.5726,"longitude":88.3639,"temp":27.1,"humidity":96,"rain":0.0,"pressure":998.8,"uv_index":7.1,"wind_gusts":36.4,"aqi":61,"pm10":30.3,"pm2_5":28.7,"no2":17.1,"co":320.0,"o3":45.0,"so2":9.0,"mosquito_risk":7,"arthritis_risk":5,"migraine_risk":7,"frizz_risk":1,"updated_at":"2026-07-03T01:50:09.455182+05:30"},{"city":"Pune","state":"Maharashtra","latitude":18.5204,"longitude":73.8567,"temp":22.2,"humidity":92,"rain":0.1,"pressure":944.6,"uv_index":0.85,"wind_gusts":46.4,"aqi":19,"pm10":2.5,"pm2_5":2.2,"no2":7.1,"co":135.0,"o3":41.0,"so2":4.9,"mosquito_risk":6,"arthritis_risk":5,"migraine_risk":3,"frizz_risk":1,"updated_at":"2026-07-03T01:50:09.455191+05:30"},{"city":"Ahmedabad","state":"Gujarat","latitude":23.0225,"longitude":72.5714,"temp":28.7,"humidity":82,"rain":0.0,"pressure":996.5,"uv_index":3.25,"wind_gusts":30.6,"aqi":58,"pm10":19.3,"pm2_5":12.1,"no2":14.4,"co":192.0,"o3":34.0,"so2":5.4,"mosquito_risk":7,"arthritis_risk":5,"migraine_risk":3,"frizz_risk":1,"updated_at":"2026-07-03T01:50:09.455200+05:30"},{"city":"Jaipur","state":"Rajasthan","latitude":26.9124,"longitude":75.7873,"temp":26.5,"humidity":94,"rain":0.0,"pressure":953.7,"uv_index":7.9,"wind_gusts":24.8,"aqi":134,"pm10":107.1,"pm2_5":48.7,"no2":20.4,"co":270.0,"o3":47.0,"so2":7.4,"mosquito_risk":7,"arthritis_risk":5,"migraine_risk":7,"frizz_risk":1,"updated_at":"2026-07-03T01:50:09.455208+05:30"},{"city":"Lucknow","state":"Uttar Pradesh","latitude":26.8467,"longitude":80.9462,"temp":27.0,"humidity":95,"rain":0.5,"pressure":988.4,"uv_index":6.85,"wind_gusts":28.1,"aqi":91,"pm10":34.6,"pm2_5":34.6,"no2":14.2,"co":445.0,"o3":75.0,"so2":6.6,"mosquito_risk":10,"arthritis_risk":5,"migraine_risk":7,"frizz_risk":1,"updated_at":"2026-07-03T01:50:09.455221+05:30"},{"city":"Kanpur","state":"Uttar Pradesh","latitude":26.4499,"longitude":80.3319,"temp":26.7,"humidity":96,"rain":0.4,"pressure":986.6,"uv_index":7.4,"wind_gusts":26.6,"aqi":89,"pm10":27.7,"pm2_5":27.6,"no2":13.3,"co":344.0,"o3":89.0,"so2":6.2,"mosquito_risk":10,"arthritis_risk":5,"migraine_risk":7,"frizz_risk":1,"updated_at":"2026-07-03T01:50:09.455229+05:30"},{"city":"Chandigarh","state":"Chandigarh","latitude":30.7333,"longitude":76.7794,"temp":27.4,"humidity":82,"rain":0.0,"pressure":964.0,"uv_index":7.7,"wind_gusts":28.1,"aqi":111,"pm10":49.8,"pm2_5":45.3,"no2":43.2,"co":387.0,"o3":39.0,"so2":8.7,"mosquito_risk":7,"arthritis_risk":5,"migraine_risk":7,"frizz_risk":1,"updated_at":"2026-07-03T01:50:09.455238+05:30"},{"city":"Srinagar","state":"Jammu and Kashmir","latitude":34.0837,"longitude":74.7973,"temp":19.7,"humidity":90,"rain":0.0,"pressure":838.8,"uv_index":9.05,"wind_gusts":28.1,"aqi":83,"pm10":26.8,"pm2_5":25.5,"no2":33.9,"co":1000.0,"o3":13.0,"so2":2.1,"mosquito_risk":3,"arthritis_risk":10,"migraine_risk":7,"frizz_risk":1,"updated_at":"2026-07-03T01:50:09.455249+05:30"},{"city":"Jammu","state":"Jammu and Kashmir","latitude":32.7266,"longitude":74.857,"temp":27.8,"humidity":80,"rain":0.0,"pressure":967.8,"uv_index":8.6,"wind_gusts":23.8,"aqi":128,"pm10":89.2,"pm2_5":62.9,"no2":66.6,"co":323.0,"o3":11.0,"so2":6.3,"mosquito_risk":7,"arthritis_risk":5,"migraine_risk":7,"frizz_risk":1,"updated_at":"2026-07-03T01:50:09.455257+05:30"},{"city":"Amritsar","state":"Punjab","latitude":31.634,"longitude":74.8723,"temp":28.1,"humidity":86,"rain":0.0,"pressure":975.1,"uv_index":8.45,"wind_gusts":32.8,"aqi":170,"pm10":130.9,"pm2_5":83.4,"no2":25.9,"co":508.0,"o3":62.0,"so2":8.3,"mosquito_risk":7,"arthritis_risk":5,"migraine_risk":7,"frizz_risk":1,"updated_at":"2026-07-03T01:50:09.455265+05:30"},{"city":"Ludhiana","state":"Punjab","latitude":30.901,"longitude":75.8573,"temp":28.0,"humidity":88,"rain":0.0,"pressure":973.3,"uv_index":7.95,"wind_gusts":25.6,"aqi":153,"pm10":151.8,"pm2_5":65.0,"no2":30.2,"co":511.0,"o3":62.0,"so2":11.9,"mosquito_risk":7,"arthritis_risk":5,"migraine_risk":7,"frizz_risk":1,"updated_at":"2026-07-03T01:50:09.455273+05:30"},{"city":"Jalandhar","state":"Punjab","latitude":31.326,"longitude":75.5762,"temp":27.7,"humidity":86,"rain":0.0,"pressure":974.2,"uv_index":8.2,"wind_gusts":26.6,"aqi":160,"pm10":122.9,"pm2_5":81.5,"no2":38.1,"co":534.0,"o3":51.0,"so2":12.6,"mosquito_risk":7,"arthritis_risk":5,"migraine_risk":7,"frizz_risk":1,"updated_at":"2026-07-03T01:50:09.455280+05:30"},{"city":"Dehradun","state":"Uttarakhand","latitude":30.6284,"longitude":78.0322,"temp":17.9,"humidity":99,"rain":0.3,"pressure":828.4,"uv_index":8.0,"wind_gusts":23.8,"aqi":47,"pm10":11.1,"pm2_5":10.7,"no2":19.2,"co":223.0,"o3":71.0,"so2":1.4,"mosquito_risk":6,"arthritis_risk":10,"migraine_risk":7,"frizz_risk":1,"updated_at":"2026-07-03T01:50:09.455289+05:30"},{"city":"Shimla","state":"Himachal Pradesh","latitude":31.1048,"longitude":77.1734,"temp":14.9,"humidity":98,"rain":0.0,"pressure":781.7,"uv_index":8.05,"wind_gusts":28.4,"aqi":53,"pm10":27.2,"pm2_5":19.1,"no2":18.1,"co":300.0,"o3":68.0,"so2":0.1,"mosquito_risk":3,"arthritis_risk":10,"migraine_risk":7,"frizz_risk":0,"updated_at":"2026-07-03T01:50:09.455297+05:30"},{"city":"Manali","state":"Himachal Pradesh","latitude":32.2396,"longitude":77.1887,"temp":19.5,"humidity":85,"rain":0.1,"pressure":817.6,"uv_index":9.5,"wind_gusts":29.9,"aqi":52,"pm10":2.9,"pm2_5":2.9,"no2":52.3,"co":326.0,"o3":73.0,"so2":0.1,"mosquito_risk":6,"arthritis_risk":10,"migraine_risk":7,"frizz_risk":1,"updated_at":"2026-07-03T01:50:09.455307+05:30"},{"city":"Gurgaon","state":"Haryana","latitude":28.4595,"longitude":77.0266,"temp":28.0,"humidity":88,"rain":0.0,"pressure":975.3,"uv_index":7.7,"wind_gusts":24.1,"aqi":153,"pm10":77.8,"pm2_5":54.2,"no2":33.4,"co":798.0,"o3":71.0,"so2":23.4,"mosquito_risk":7,"arthritis_risk":5,"migraine_risk":7,"frizz_risk":1,"updated_at":"2026-07-03T01:50:09.455315+05:30"},{"city":"Noida","state":"Uttar Pradesh","latitude":28.5355,"longitude":77.391,"temp":28.2,"humidity":87,"rain":0.0,"pressure":978.3,"uv_index":7.0,"wind_gusts":23.0,"aqi":153,"pm10":77.8,"pm2_5":54.2,"no2":33.4,"co":582.0,"o3":71.0,"so2":23.4,"mosquito_risk":7,"arthritis_risk":5,"migraine_risk":7,"frizz_risk":1,"updated_at":"2026-07-03T01:50:09.455323+05:30"},{"city":"Ghaziabad","state":"Uttar Pradesh","latitude":28.6692,"longitude":77.4538,"temp":27.9,"humidity":88,"rain":0.0,"pressure":976.7,"uv_index":6.9,"wind_gusts":29.9,"aqi":97,"pm10":47.7,"pm2_5":46.1,"no2":24.2,"co":431.0,"o3":59.0,"so2":9.7,"mosquito_risk":7,"arthritis_risk":5,"migraine_risk":7,"frizz_risk":1,"updated_at":"2026-07-03T01:50:09.455330+05:30"},{"city":"Faridabad","state":"Haryana","latitude":28.4089,"longitude":77.3178,"temp":28.0,"humidity":89,"rain":0.0,"pressure":977.5,"uv_index":6.45,"wind_gusts":26.3,"aqi":153,"pm10":77.8,"pm2_5":54.2,"no2":33.4,"co":565.0,"o3":71.0,"so2":23.4,"mosquito_risk":7,"arthritis_risk":5,"migraine_risk":7,"frizz_risk":1,"updated_at":"2026-07-03T01:50:09.455337+05:30"},{"city":"Meerut","state":"Uttar Pradesh","latitude":28.9845,"longitude":77.7064,"temp":26.3,"humidity":94,"rain":0.0,"pressure":975.9,"uv_index":7.0,"wind_gusts":26.6,"aqi":97,"pm10":47.7,"pm2_5":46.1,"no2":24.2,"co":473.0,"o3":59.0,"so2":9.7,"mosquito_risk":7,"arthritis_risk":5,"migraine_risk":7,"frizz_risk":1,"updated_at":"2026-07-03T01:50:09.455345+05:30"},{"city":"Agra","state":"Uttar Pradesh","latitude":27.1767,"longitude":78.0081,"temp":28.3,"humidity":81,"rain":0.0,"pressure":981.5,"uv_index":5.85,"wind_gusts":18.0,"aqi":95,"pm10":41.8,"pm2_5":29.0,"no2":20.4,"co":638.0,"o3":71.0,"so2":8.5,"mosquito_risk":7,"arthritis_risk":5,"migraine_risk":3,"frizz_risk":1,"updated_at":"2026-07-03T01:50:09.455352+05:30"},{"city":"Varanasi","state":"Uttar Pradesh","latitude":25.3176,"longitude":82.9739,"temp":27.8,"humidity":91,"rain":0.0,"pressure":991.0,"uv_index":5.6,"wind_gusts":30.6,"aqi":100,"pm10":30.6,"pm2_5":30.6,"no2":15.7,"co":385.0,"o3":74.0,"so2":9.1,"mosquito_risk":7,"arthritis_risk":5,"migraine_risk":3,"frizz_risk":1,"updated_at":"2026-07-03T01:50:09.455359+05:30"},{"city":"Prayagraj","state":"Uttar Pradesh","latitude":25.4358,"longitude":81.8463,"temp":26.5,"humidity":95,"rain":0.3,"pressure":990.1,"uv_index":6.65,"wind_gusts":29.2,"aqi":90,"pm10":28.2,"pm2_5":28.2,"no2":13.3,"co":382.0,"o3":84.0,"so2":6.2,"mosquito_risk":10,"arthritis_risk":5,"migraine_risk":7,"frizz_risk":1,"updated_at":"2026-07-03T01:50:09.455367+05:30"},{"city":"Gorakhpur","state":"Uttar Pradesh","latitude":26.7606,"longitude":83.3732,"temp":28.2,"humidity":88,"rain":0.0,"pressure":991.3,"uv_index":7.35,"wind_gusts":34.9,"aqi":105,"pm10":39.7,"pm2_5":39.7,"no2":18.2,"co":444.0,"o3":65.0,"so2":7.4,"mosquito_risk":7,"arthritis_risk":5,"migraine_risk":7,"frizz_risk":1,"updated_at":"2026-07-03T01:50:09.455375+05:30"},{"city":"Bareilly","state":"Uttar Pradesh","latitude":28.367,"longitude":79.4304,"temp":28.0,"humidity":92,"rain":0.0,"pressure":981.2,"uv_index":7.4,"wind_gusts":26.6,"aqi":103,"pm10":67.8,"pm2_5":66.8,"no2":36.2,"co":590.0,"o3":43.0,"so2":13.6,"mosquito_risk":7,"arthritis_risk":5,"migraine_risk":7,"frizz_risk":1,"updated_at":"2026-07-03T01:50:09.455384+05:30"},{"city":"Aligarh","state":"Uttar Pradesh","latitude":27.8974,"longitude":78.088,"temp":28.4,"humidity":88,"rain":0.0,"pressure":979.2,"uv_index":7.1,"wind_gusts":26.6,"aqi":101,"pm10":34.7,"pm2_5":27.8,"no2":18.8,"co":519.0,"o3":72.0,"so2":6.9,"mosquito_risk":7,"arthritis_risk":5,"migraine_risk":7,"frizz_risk":1,"updated_at":"2026-07-03T01:50:09.455391+05:30"},{"city":"Moradabad","state":"Uttar Pradesh","latitude":28.8386,"longitude":78.7733,"temp":28.2,"humidity":88,"rain":0.0,"pressure":978.2,"uv_index":7.25,"wind_gusts":25.2,"aqi":111,"pm10":90.1,"pm2_5":87.3,"no2":52.1,"co":601.0,"o3":34.0,"so2":17.4,"mosquito_risk":7,"arthritis_risk":5,"migraine_risk":7,"frizz_risk":1,"updated_at":"2026-07-03T01:50:09.455398+05:30"},{"city":"Saharanpur","state":"Uttar Pradesh","latitude":29.9637,"longitude":77.546,"temp":27.5,"humidity":87,"rain":0.0,"pressure":970.9,"uv_index":7.25,"wind_gusts":27.0,"aqi":111,"pm10":65.0,"pm2_5":60.3,"no2":32.3,"co":458.0,"o3":60.0,"so2":11.4,"mosquito_risk":7,"arthritis_risk":5,"migraine_risk":7,"frizz_risk":1,"updated_at":"2026-07-03T01:50:09.455408+05:30"},{"city":"Jhansi","state":"Uttar Pradesh","latitude":25.4484,"longitude":78.5685,"temp":26.8,"humidity":96,"rain":0.5,"pressure":972.2,"uv_index":7.15,"wind_gusts":23.8,"aqi":92,"pm10":27.4,"pm2_5":19.3,"no2":7.1,"co":234.0,"o3":76.0,"so2":2.0,"mosquito_risk":10,"arthritis_risk":5,"migraine_risk":7,"frizz_risk":1,"updated_at":"2026-07-03T01:50:12.728129+05:30"},{"city":"Surat","state":"Gujarat","latitude":21.1702,"longitude":72.8311,"temp":26.1,"humidity":96,"rain":0.1,"pressure":1001.6,"uv_index":2.6,"wind_gusts":31.0,"aqi":60,"pm10":18.5,"pm2_5":14.8,"no2":28.4,"co":381.0,"o3":22.0,"so2":39.3,"mosquito_risk":10,"arthritis_risk":5,"migraine_risk":0,"frizz_risk":1,"updated_at":"2026-07-03T01:50:12.728163+05:30"},{"city":"Vadodara","state":"Gujarat","latitude":22.3072,"longitude":73.1812,"temp":27.1,"humidity":89,"rain":0.0,"pressure":999.1,"uv_index":4.8,"wind_gusts":38.2,"aqi":48,"pm10":11.9,"pm2_5":9.5,"no2":12.7,"co":171.0,"o3":40.0,"so2":4.5,"mosquito_risk":7,"arthritis_risk":5,"migraine_risk":3,"frizz_risk":1,"updated_at":"2026-07-03T01:50:12.728173+05:30"},{"city":"Rajkot","state":"Gujarat","latitude":22.3039,"longitude":70.8022,"temp":26.6,"humidity":93,"rain":0.0,"pressure":989.1,"uv_index":6.05,"wind_gusts":38.9,"aqi":51,"pm10":21.9,"pm2_5":11.2,"no2":6.3,"co":114.0,"o3":43.0,"so2":5.9,"mosquito_risk":7,"arthritis_risk":5,"migraine_risk":7,"frizz_risk":1,"updated_at":"2026-07-03T01:50:12.728182+05:30"},{"city":"Thane","state":"Maharashtra","latitude":19.2183,"longitude":72.9781,"temp":24.0,"humidity":99,"rain":0.2,"pressure":1004.5,"uv_index":0.6,"wind_gusts":37.4,"aqi":40,"pm10":20.5,"pm2_5":10.3,"no2":5.2,"co":206.0,"o3":52.0,"so2":4.2,"mosquito_risk":6,"arthritis_risk":5,"migraine_risk":0,"frizz_risk":1,"updated_at":"2026-07-03T01:50:12.728190+05:30"},{"city":"Nagpur","state":"Maharashtra","latitude":21.1458,"longitude":79.0882,"temp":25.5,"humidity":90,"rain":0.0,"pressure":967.5,"uv_index":3.85,"wind_gusts":36.0,"aqi":54,"pm10":7.7,"pm2_5":7.4,"no2":12.0,"co":202.0,"o3":50.0,"so2":8.6,"mosquito_risk":7,"arthritis_risk":5,"migraine_risk":3,"frizz_risk":1,"updated_at":"2026-07-03T01:50:12.728197+05:30"},{"city":"Nashik","state":"Maharashtra","latitude":19.9975,"longitude":73.7898,"temp":22.0,"humidity":97,"rain":0.1,"pressure":941.0,"uv_index":0.3,"wind_gusts":43.2,"aqi":19,"pm10":2.4,"pm2_5":2.0,"no2":10.8,"co":140.0,"o3":35.0,"so2":6.5,"mosquito_risk":6,"arthritis_risk":5,"migraine_risk":3,"frizz_risk":1,"updated_at":"2026-07-03T01:50:12.728205+05:30"},{"city":"Aurangabad","state":"Maharashtra","latitude":19.8762,"longitude":75.3433,"temp":23.0,"humidity":94,"rain":0.0,"pressure":939.6,"uv_index":1.45,"wind_gusts":46.8,"aqi":20,"pm10":2.5,"pm2_5":2.2,"no2":8.5,"co":142.0,"o3":40.0,"so2":8.9,"mosquito_risk":3,"arthritis_risk":5,"migraine_risk":3,"frizz_risk":1,"updated_at":"2026-07-03T01:50:12.728212+05:30"},{"city":"Solapur","state":"Maharashtra","latitude":17.6599,"longitude":75.9064,"temp":23.7,"humidity":90,"rain":0.2,"pressure":954.4,"uv_index":4.7,"wind_gusts":54.0,"aqi":21,"pm10":3.9,"pm2_5":3.1,"no2":5.6,"co":130.0,"o3":40.0,"so2":2.3,"mosquito_risk":6,"arthritis_risk":5,"migraine_risk":3,"frizz_risk":1,"updated_at":"2026-07-03T01:50:12.728219+05:30"},{"city":"Kolhapur","state":"Maharashtra","latitude":16.705,"longitude":74.2433,"temp":22.4,"humidity":92,"rain":0.0,"pressure":945.8,"uv_index":2.1,"wind_gusts":50.8,"aqi":20,"pm10":3.5,"pm2_5":2.7,"no2":3.6,"co":123.0,"o3":46.0,"so2":1.7,"mosquito_risk":3,"arthritis_risk":5,"migraine_risk":3,"frizz_risk":1,"updated_at":"2026-07-03T01:50:12.728226+05:30"},{"city":"Goa","state":"Goa","latitude":15.2993,"longitude":74.124,"temp":23.6,"humidity":98,"rain":0.0,"pressure":997.6,"uv_index":4.2,"wind_gusts":28.4,"aqi":42,"pm10":19.3,"pm2_5":10.9,"no2":2.7,"co":236.0,"o3":48.0,"so2":0.8,"mosquito_risk":3,"arthritis_risk":5,"migraine_risk":3,"frizz_risk":1,"updated_at":"2026-07-03T01:50:12.728234+05:30"},{"city":"Jodhpur","state":"Rajasthan","latitude":26.2389,"longitude":73.0243,"temp":30.1,"humidity":68,"rain":0.0,"pressure":976.5,"uv_index":8.4,"wind_gusts":45.4,"aqi":123,"pm10":103.4,"pm2_5":31.1,"no2":6.5,"co":125.0,"o3":56.0,"so2":1.9,"mosquito_risk":3,"arthritis_risk":5,"migraine_risk":7,"frizz_risk":1,"updated_at":"2026-07-03T01:50:12.728242+05:30"},{"city":"Udaipur","state":"Rajasthan","latitude":24.5854,"longitude":73.7125,"temp":25.2,"humidity":89,"rain":0.0,"pressure":940.9,"uv_index":6.85,"wind_gusts":29.2,"aqi":60,"pm10":18.6,"pm2_5":14.3,"no2":6.2,"co":139.0,"o3":70.0,"so2":5.1,"mosquito_risk":7,"arthritis_risk":5,"migraine_risk":7,"frizz_risk":1,"updated_at":"2026-07-03T01:50:12.728250+05:30"},{"city":"Kota","state":"Rajasthan","latitude":25.2138,"longitude":75.8648,"temp":28.2,"humidity":82,"rain":0.0,"pressure":972.7,"uv_index":7.9,"wind_gusts":30.6,"aqi":71,"pm10":26.8,"pm2_5":19.9,"no2":7.6,"co":262.0,"o3":73.0,"so2":3.9,"mosquito_risk":7,"arthritis_risk":5,"migraine_risk":7,"frizz_risk":1,"updated_at":"2026-07-03T01:50:12.728257+05:30"},{"city":"Bikaner","state":"Rajasthan","latitude":28.0229,"longitude":73.3119,"temp":31.8,"humidity":55,"rain":0.0,"pressure":974.6,"uv_index":8.45,"wind_gusts":41.8,"aqi":156,"pm10":93.4,"pm2_5":42.8,"no2":4.2,"co":152.0,"o3":59.0,"so2":1.7,"mosquito_risk":0,"arthritis_risk":5,"migraine_risk":7,"frizz_risk":1,"updated_at":"2026-07-03T01:50:12.728264+05:30"},{"city":"Ajmer","state":"Rajasthan","latitude":26.4499,"longitude":74.6399,"temp":27.2,"humidity":83,"rain":0.2,"pressure":949.0,"uv_index":6.2,"wind_gusts":43.2,"aqi":95,"pm10":59.8,"pm2_5":33.2,"no2":11.7,"co":161.0,"o3":54.0,"so2":4.1,"mosquito_risk":10,"arthritis_risk":5,"migraine_risk":7,"frizz_risk":1,"updated_at":"2026-07-03T01:50:12.728272+05:30"},{"city":"Gwalior","state":"Madhya Pradesh","latitude":26.2183,"longitude":78.1828,"temp":28.8,"humidity":83,"rain":0.0,"pressure":977.1,"uv_index":8.15,"wind_gusts":22.3,"aqi":101,"pm10":53.3,"pm2_5":27.6,"no2":15.4,"co":542.0,"o3":66.0,"so2":4.5,"mosquito_risk":7,"arthritis_risk":5,"migraine_risk":7,"frizz_risk":1,"updated_at":"2026-07-03T01:50:12.728279+05:30"},{"city":"Indore","state":"Madhya Pradesh","latitude":22.7196,"longitude":75.8577,"temp":23.8,"humidity":96,"rain":0.0,"pressure":942.5,"uv_index":1.6,"wind_gusts":34.9,"aqi":53,"pm10":12.9,"pm2_5":12.7,"no2":11.7,"co":315.0,"o3":48.0,"so2":5.2,"mosquito_risk":3,"arthritis_risk":5,"migraine_risk":3,"frizz_risk":1,"updated_at":"2026-07-03T01:50:12.728287+05:30"},{"city":"Bhopal","state":"Madhya Pradesh","latitude":23.2599,"longitude":77.4126,"temp":24.3,"humidity":98,"rain":0.0,"pressure":947.6,"uv_index":5.2,"wind_gusts":36.4,"aqi":65,"pm10":20.3,"pm2_5":16.9,"no2":7.9,"co":345.0,"o3":66.0,"so2":2.3,"mosquito_risk":3,"arthritis_risk":5,"migraine_risk":3,"frizz_risk":1,"updated_at":"2026-07-03T01:50:12.728294+05:30"},{"city":"Jabalpur","state":"Madhya Pradesh","latitude":23.1815,"longitude":79.9864,"temp":24.7,"humidity":98,"rain":0.1,"pressure":955.1,"uv_index":7.65,"wind_gusts":23.8,"aqi":69,"pm10":26.0,"pm2_5":19.8,"no2":9.5,"co":216.0,"o3":67.0,"so2":2.9,"mosquito_risk":6,"arthritis_risk":5,"migraine_risk":7,"frizz_risk":1,"updated_at":"2026-07-03T01:50:12.728301+05:30"},{"city":"Ujjain","state":"Madhya Pradesh","latitude":23.1765,"longitude":75.7885,"temp":24.0,"humidity":97,"rain":0.0,"pressure":948.1,"uv_index":7.8,"wind_gusts":40.0,"aqi":53,"pm10":14.7,"pm2_5":14.3,"no2":7.4,"co":248.0,"o3":61.0,"so2":4.3,"mosquito_risk":3,"arthritis_risk":5,"migraine_risk":7,"frizz_risk":1,"updated_at":"2026-07-03T01:50:12.728309+05:30"},{"city":"Visakhapatnam","state":"Andhra Pradesh","latitude":17.6868,"longitude":83.2185,"temp":26.7,"humidity":82,"rain":0.0,"pressure":997.3,"uv_index":1.55,"wind_gusts":47.5,"aqi":49,"pm10":12.3,"pm2_5":10.1,"no2":15.8,"co":231.0,"o3":42.0,"so2":25.9,"mosquito_risk":7,"arthritis_risk":5,"migraine_risk":3,"frizz_risk":1,"updated_at":"2026-07-03T01:50:12.728316+05:30"},{"city":"Vijayawada","state":"Andhra Pradesh","latitude":16.5062,"longitude":80.648,"temp":27.7,"humidity":78,"rain":0.0,"pressure":998.6,"uv_index":4.65,"wind_gusts":58.0,"aqi":43,"pm10":13.2,"pm2_5":11.1,"no2":11.3,"co":163.0,"o3":44.0,"so2":7.2,"mosquito_risk":7,"arthritis_risk":5,"migraine_risk":3,"frizz_risk":1,"updated_at":"2026-07-03T01:50:12.728322+05:30"},{"city":"Guntur","state":"Andhra Pradesh","latitude":16.3067,"longitude":80.4365,"temp":28.1,"humidity":76,"rain":0.0,"pressure":999.9,"uv_index":4.65,"wind_gusts":47.5,"aqi":39,"pm10":9.8,"pm2_5":8.4,"no2":11.5,"co":150.0,"o3":41.0,"so2":7.7,"mosquito_risk":7,"arthritis_risk":5,"migraine_risk":3,"frizz_risk":1,"updated_at":"2026-07-03T01:50:12.728330+05:30"},{"city":"Nellore","state":"Andhra Pradesh","latitude":14.4426,"longitude":79.9865,"temp":28.2,"humidity":73,"rain":0.0,"pressure":1003.4,"uv_index":8.65,"wind_gusts":49.7,"aqi":30,"pm10":4.8,"pm2_5":3.1,"no2":5.5,"co":157.0,"o3":45.0,"so2":4.4,"mosquito_risk":7,"arthritis_risk":5,"migraine_risk":4,"frizz_risk":1,"updated_at":"2026-07-03T01:50:12.728337+05:30"},{"city":"Kurnool","state":"Andhra Pradesh","latitude":15.8281,"longitude":78.0373,"temp":26.4,"humidity":76,"rain":0.0,"pressure":974.8,"uv_index":4.55,"wind_gusts":53.3,"aqi":24,"pm10":5.7,"pm2_5":3.7,"no2":7.7,"co":133.0,"o3":39.0,"so2":2.1,"mosquito_risk":7,"arthritis_risk":5,"migraine_risk":3,"frizz_risk":1,"updated_at":"2026-07-03T01:50:12.728346+05:30"},{"city":"Kakinada","state":"Andhra Pradesh","latitude":16.9891,"longitude":82.2475,"temp":26.2,"humidity":90,"rain":0.1,"pressure":1002.4,"uv_index":6.65,"wind_gusts":54.7,"aqi":39,"pm10":17.8,"pm2_5":13.4,"no2":9.0,"co":224.0,"o3":51.0,"so2":5.8,"mosquito_risk":10,"arthritis_risk":5,"migraine_risk":4,"frizz_risk":1,"updated_at":"2026-07-03T01:50:12.728353+05:30"},{"city":"Tirupati","state":"Andhra Pradesh","latitude":13.6288,"longitude":79.4192,"temp":28.9,"humidity":59,"rain":0.0,"pressure":989.1,"uv_index":8.0,"wind_gusts":51.5,"aqi":21,"pm10":5.0,"pm2_5":3.4,"no2":4.7,"co":100.0,"o3":46.0,"so2":1.4,"mosquito_risk":4,"arthritis_risk":5,"migraine_risk":7,"frizz_risk":1,"updated_at":"2026-07-03T01:50:12.728360+05:30"},{"city":"Warangal","state":"Telangana","latitude":17.9689,"longitude":79.5941,"temp":25.0,"humidity":92,"rain":0.2,"pressure":974.6,"uv_index":1.2,"wind_gusts":53.3,"aqi":30,"pm10":8.6,"pm2_5":7.3,"no2":9.8,"co":191.0,"o3":38.0,"so2":3.1,"mosquito_risk":10,"arthritis_risk":5,"migraine_risk":3,"frizz_risk":1,"updated_at":"2026-07-03T01:50:12.728367+05:30"},{"city":"Nizamabad","state":"Telangana","latitude":18.6725,"longitude":78.0941,"temp":23.8,"humidity":96,"rain":0.1,"pressure":960.6,"uv_index":1.05,"wind_gusts":52.9,"aqi":30,"pm10":7.4,"pm2_5":5.9,"no2":8.0,"co":152.0,"o3":39.0,"so2":4.8,"mosquito_risk":6,"arthritis_risk":5,"migraine_risk":3,"frizz_risk":1,"updated_at":"2026-07-03T01:50:12.728374+05:30"},{"city":"Mysore","state":"Karnataka","latitude":12.2958,"longitude":76.6396,"temp":21.5,"humidity":92,"rain":0.0,"pressure":928.1,"uv_index":5.1,"wind_gusts":55.1,"aqi":20,"pm10":2.8,"pm2_5":2.3,"no2":5.5,"co":127.0,"o3":40.0,"so2":1.7,"mosquito_risk":3,"arthritis_risk":5,"migraine_risk":3,"frizz_risk":1,"updated_at":"2026-07-03T01:50:12.728381+05:30"},{"city":"Mangalore","state":"Karnataka","latitude":12.9141,"longitude":74.856,"temp":25.3,"humidity":94,"rain":0.1,"pressure":1007.4,"uv_index":8.5,"wind_gusts":46.8,"aqi":30,"pm10":15.8,"pm2_5":9.0,"no2":4.6,"co":120.0,"o3":39.0,"so2":1.6,"mosquito_risk":10,"arthritis_risk":5,"migraine_risk":4,"frizz_risk":1,"updated_at":"2026-07-03T01:50:12.728388+05:30"},{"city":"Hubli-Dharwad","state":"Karnataka","latitude":15.3647,"longitude":75.124,"temp":22.0,"humidity":97,"rain":0.0,"pressure":939.4,"uv_index":7.1,"wind_gusts":64.8,"aqi":20,"pm10":1.0,"pm2_5":0.9,"no2":3.7,"co":105.0,"o3":43.0,"so2":1.0,"mosquito_risk":3,"arthritis_risk":5,"migraine_risk":7,"frizz_risk":1,"updated_at":"2026-07-03T01:50:12.728396+05:30"},{"city":"Belgaum","state":"Karnataka","latitude":15.8497,"longitude":74.4977,"temp":21.4,"humidity":98,"rain":0.0,"pressure":923.8,"uv_index":2.5,"wind_gusts":61.6,"aqi":21,"pm10":3.6,"pm2_5":2.5,"no2":3.8,"co":107.0,"o3":44.0,"so2":1.6,"mosquito_risk":3,"arthritis_risk":5,"migraine_risk":3,"frizz_risk":1,"updated_at":"2026-07-03T01:50:16.044938+05:30"},{"city":"Coimbatore","state":"Tamil Nadu","latitude":11.0168,"longitude":76.9558,"temp":22.4,"humidity":96,"rain":0.0,"pressure":961.3,"uv_index":8.35,"wind_gusts":61.9,"aqi":18,"pm10":5.3,"pm2_5":4.0,"no2":6.2,"co":172.0,"o3":36.0,"so2":2.5,"mosquito_risk":3,"arthritis_risk":5,"migraine_risk":7,"frizz_risk":1,"updated_at":"2026-07-03T01:50:16.044972+05:30"},{"city":"Madurai","state":"Tamil Nadu","latitude":9.9252,"longitude":78.1198,"temp":28.9,"humidity":61,"rain":0.0,"pressure":992.3,"uv_index":8.7,"wind_gusts":63.7,"aqi":37,"pm10":7.3,"pm2_5":6.6,"no2":11.9,"co":123.0,"o3":27.0,"so2":4.0,"mosquito_risk":7,"arthritis_risk":5,"migraine_risk":7,"frizz_risk":1,"updated_at":"2026-07-03T01:50:16.044983+05:30"},{"city":"Trichy","state":"Tamil Nadu","latitude":10.7905,"longitude":78.7047,"temp":29.0,"humidity":62,"rain":0.0,"pressure":998.6,"uv_index":7.85,"wind_gusts":65.9,"aqi":24,"pm10":6.1,"pm2_5":4.0,"no2":4.4,"co":114.0,"o3":41.0,"so2":2.2,"mosquito_risk":7,"arthritis_risk":5,"migraine_risk":7,"frizz_risk":1,"updated_at":"2026-07-03T01:50:16.044993+05:30"},{"city":"Salem","state":"Tamil Nadu","latitude":11.6643,"longitude":78.146,"temp":26.0,"humidity":77,"rain":0.0,"pressure":976.8,"uv_index":8.75,"wind_gusts":36.4,"aqi":34,"pm10":10.7,"pm2_5":9.5,"no2":16.5,"co":359.0,"o3":28.0,"so2":6.8,"mosquito_risk":7,"arthritis_risk":5,"migraine_risk":7,"frizz_risk":1,"updated_at":"2026-07-03T01:50:16.045002+05:30"},{"city":"Tirunelveli","state":"Tamil Nadu","latitude":8.7139,"longitude":77.7567,"temp":28.6,"humidity":64,"rain":0.0,"pressure":1003.3,"uv_index":8.45,"wind_gusts":54.4,"aqi":23,"pm10":6.0,"pm2_5":5.0,"no2":7.5,"co":139.0,"o3":30.0,"so2":2.3,"mosquito_risk":7,"arthritis_risk":5,"migraine_risk":4,"frizz_risk":1,"updated_at":"2026-07-03T01:50:16.045010+05:30"},{"city":"Vellore","state":"Tamil Nadu","latitude":12.9165,"longitude":79.1325,"temp":28.5,"humidity":61,"rain":0.0,"pressure":982.7,"uv_index":8.3,"wind_gusts":48.2,"aqi":24,"pm10":5.8,"pm2_5":4.7,"no2":9.8,"co":150.0,"o3":39.0,"so2":3.5,"mosquito_risk":7,"arthritis_risk":5,"migraine_risk":7,"frizz_risk":1,"updated_at":"2026-07-03T01:50:16.045018+05:30"},{"city":"Erode","state":"Tamil Nadu","latitude":11.341,"longitude":77.7172,"temp":25.2,"humidity":82,"rain":0.0,"pressure":988.7,"uv_index":8.8,"wind_gusts":54.4,"aqi":28,"pm10":10.7,"pm2_5":9.6,"no2":15.0,"co":152.0,"o3":29.0,"so2":3.6,"mosquito_risk":7,"arthritis_risk":5,"migraine_risk":7,"frizz_risk":1,"updated_at":"2026-07-03T01:50:16.045026+05:30"},{"city":"Kochi","state":"Kerala","latitude":9.9312,"longitude":76.2673,"temp":24.7,"humidity":96,"rain":0.1,"pressure":1010.6,"uv_index":6.75,"wind_gusts":42.8,"aqi":46,"pm10":10.2,"pm2_5":8.3,"no2":11.9,"co":174.0,"o3":25.0,"so2":3.5,"mosquito_risk":6,"arthritis_risk":0,"migraine_risk":4,"frizz_risk":1,"updated_at":"2026-07-03T01:50:16.045034+05:30"},{"city":"Thiruvananthapuram","state":"Kerala","latitude":8.5241,"longitude":76.9366,"temp":24.5,"humidity":94,"rain":0.1,"pressure":1010.2,"uv_index":7.4,"wind_gusts":44.6,"aqi":40,"pm10":10.1,"pm2_5":5.8,"no2":2.6,"co":122.0,"o3":40.0,"so2":1.1,"mosquito_risk":6,"arthritis_risk":0,"migraine_risk":4,"frizz_risk":1,"updated_at":"2026-07-03T01:50:16.045042+05:30"},{"city":"Kozhikode","state":"Kerala","latitude":11.2588,"longitude":75.7804,"temp":24.1,"humidity":99,"rain":0.1,"pressure":1009.7,"uv_index":2.85,"wind_gusts":43.6,"aqi":25,"pm10":10.5,"pm2_5":5.1,"no2":0.9,"co":169.0,"o3":53.0,"so2":0.6,"mosquito_risk":6,"arthritis_risk":0,"migraine_risk":0,"frizz_risk":1,"updated_at":"2026-07-03T01:50:16.045049+05:30"},{"city":"Thrissur","state":"Kerala","latitude":10.5276,"longitude":76.2144,"temp":23.9,"humidity":99,"rain":0.1,"pressure":1008.8,"uv_index":2.75,"wind_gusts":35.3,"aqi":40,"pm10":10.7,"pm2_5":8.8,"no2":9.1,"co":257.0,"o3":29.0,"so2":2.8,"mosquito_risk":6,"arthritis_risk":0,"migraine_risk":0,"frizz_risk":1,"updated_at":"2026-07-03T01:50:16.045058+05:30"},{"city":"Kannur","state":"Kerala","latitude":11.8745,"longitude":75.3704,"temp":24.3,"humidity":98,"rain":0.1,"pressure":1008.7,"uv_index":2.4,"wind_gusts":43.6,"aqi":25,"pm10":12.8,"pm2_5":7.1,"no2":4.9,"co":147.0,"o3":38.0,"so2":1.2,"mosquito_risk":6,"arthritis_risk":0,"migraine_risk":0,"frizz_risk":1,"updated_at":"2026-07-03T01:50:16.045065+05:30"},{"city":"Patna","state":"Bihar","latitude":25.5941,"longitude":85.1376,"temp":27.6,"humidity":94,"rain":0.0,"pressure":994.2,"uv_index":7.1,"wind_gusts":37.4,"aqi":91,"pm10":28.9,"pm2_5":28.6,"no2":15.6,"co":365.0,"o3":75.0,"so2":14.6,"mosquito_risk":7,"arthritis_risk":5,"migraine_risk":7,"frizz_risk":1,"updated_at":"2026-07-03T01:50:16.045073+05:30"},{"city":"Gaya","state":"Bihar","latitude":24.7914,"longitude":85.0002,"temp":26.9,"humidity":92,"rain":0.0,"pressure":987.1,"uv_index":6.4,"wind_gusts":32.4,"aqi":78,"pm10":24.5,"pm2_5":24.3,"no2":13.1,"co":339.0,"o3":72.0,"so2":10.9,"mosquito_risk":7,"arthritis_risk":5,"migraine_risk":7,"frizz_risk":1,"updated_at":"2026-07-03T01:50:16.045080+05:30"},{"city":"Muzaffarpur","state":"Bihar","latitude":26.1209,"longitude":85.3647,"temp":28.1,"humidity":88,"rain":0.0,"pressure":994.5,"uv_index":6.65,"wind_gusts":32.8,"aqi":89,"pm10":31.2,"pm2_5":31.1,"no2":17.2,"co":442.0,"o3":66.0,"so2":11.4,"mosquito_risk":7,"arthritis_risk":5,"migraine_risk":7,"frizz_risk":1,"updated_at":"2026-07-03T01:50:16.045087+05:30"},{"city":"Bhagalpur","state":"Bihar","latitude":25.2425,"longitude":87.0117,"temp":27.8,"humidity":90,"rain":0.0,"pressure":995.3,"uv_index":7.9,"wind_gusts":32.8,"aqi":85,"pm10":30.6,"pm2_5":30.3,"no2":15.0,"co":365.0,"o3":67.0,"so2":9.8,"mosquito_risk":7,"arthritis_risk":5,"migraine_risk":7,"frizz_risk":1,"updated_at":"2026-07-03T01:50:16.045095+05:30"},{"city":"Ranchi","state":"Jharkhand","latitude":23.3441,"longitude":85.3096,"temp":23.1,"humidity":99,"rain":0.0,"pressure":930.9,"uv_index":7.5,"wind_gusts":39.6,"aqi":80,"pm10":8.9,"pm2_5":8.8,"no2":7.5,"co":291.0,"o3":74.0,"so2":5.4,"mosquito_risk":3,"arthritis_risk":5,"migraine_risk":7,"frizz_risk":1,"updated_at":"2026-07-03T01:50:16.045103+05:30"},{"city":"Jamshedpur","state":"Jharkhand","latitude":22.8046,"longitude":86.2029,"temp":25.8,"humidity":96,"rain":0.0,"pressure":983.9,"uv_index":7.0,"wind_gusts":34.6,"aqi":80,"pm10":23.4,"pm2_5":22.9,"no2":12.9,"co":318.0,"o3":57.0,"so2":10.1,"mosquito_risk":7,"arthritis_risk":5,"migraine_risk":7,"frizz_risk":1,"updated_at":"2026-07-03T01:50:16.045130+05:30"},{"city":"Dhanbad","state":"Jharkhand","latitude":23.7957,"longitude":86.4304,"temp":26.1,"humidity":93,"rain":0.0,"pressure":973.4,"uv_index":8.05,"wind_gusts":32.4,"aqi":111,"pm10":38.6,"pm2_5":38.2,"no2":42.4,"co":344.0,"o3":40.0,"so2":99.1,"mosquito_risk":7,"arthritis_risk":5,"migraine_risk":7,"frizz_risk":1,"updated_at":"2026-07-03T01:50:16.045139+05:30"},{"city":"Bokaro","state":"Jharkhand","latitude":23.6693,"longitude":86.1511,"temp":25.7,"humidity":96,"rain":0.1,"pressure":977.1,"uv_index":7.75,"wind_gusts":34.6,"aqi":111,"pm10":41.8,"pm2_5":41.3,"no2":43.0,"co":420.0,"o3":39.0,"so2":104.2,"mosquito_risk":10,"arthritis_risk":5,"migraine_risk":7,"frizz_risk":1,"updated_at":"2026-07-03T01:50:16.045147+05:30"},{"city":"Bhubaneswar","state":"Odisha","latitude":20.2961,"longitude":85.8245,"temp":26.0,"humidity":97,"rain":0.0,"pressure":994.2,"uv_index":7.3,"wind_gusts":25.2,"aqi":64,"pm10":20.1,"pm2_5":19.9,"no2":13.0,"co":361.0,"o3":62.0,"so2":4.7,"mosquito_risk":7,"arthritis_risk":5,"migraine_risk":7,"frizz_risk":1,"updated_at":"2026-07-03T01:50:16.045154+05:30"},{"city":"Cuttack","state":"Odisha","latitude":20.4625,"longitude":85.8828,"temp":26.2,"humidity":97,"rain":0.0,"pressure":995.9,"uv_index":7.3,"wind_gusts":31.0,"aqi":64,"pm10":20.1,"pm2_5":19.9,"no2":13.0,"co":319.0,"o3":62.0,"so2":4.7,"mosquito_risk":7,"arthritis_risk":5,"migraine_risk":7,"frizz_risk":1,"updated_at":"2026-07-03T01:50:16.045161+05:30"},{"city":"Rourkela","state":"Odisha","latitude":22.2604,"longitude":84.8536,"temp":25.3,"humidity":99,"rain":0.0,"pressure":977.3,"uv_index":7.55,"wind_gusts":33.8,"aqi":119,"pm10":44.6,"pm2_5":44.5,"no2":15.9,"co":431.0,"o3":85.0,"so2":22.4,"mosquito_risk":7,"arthritis_risk":5,"migraine_risk":7,"frizz_risk":1,"updated_at":"2026-07-03T01:50:16.045168+05:30"},{"city":"Raipur","state":"Chhattisgarh","latitude":21.2514,"longitude":81.6296,"temp":25.1,"humidity":97,"rain":0.0,"pressure":968.0,"uv_index":2.95,"wind_gusts":29.5,"aqi":76,"pm10":14.8,"pm2_5":14.5,"no2":23.6,"co":252.0,"o3":52.0,"so2":33.4,"mosquito_risk":7,"arthritis_risk":5,"migraine_risk":3,"frizz_risk":1,"updated_at":"2026-07-03T01:50:16.045175+05:30"},{"city":"Bhilai","state":"Chhattisgarh","latitude":21.1938,"longitude":81.3509,"temp":24.8,"humidity":97,"rain":0.1,"pressure":968.5,"uv_index":3.15,"wind_gusts":35.3,"aqi":67,"pm10":12.1,"pm2_5":11.8,"no2":18.8,"co":585.0,"o3":55.0,"so2":25.5,"mosquito_risk":6,"arthritis_risk":5,"migraine_risk":3,"frizz_risk":1,"updated_at":"2026-07-03T01:50:16.045183+05:30"},{"city":"Guwahati","state":"Assam","latitude":26.1158,"longitude":91.7086,"temp":26.6,"humidity":94,"rain":0.1,"pressure":997.0,"uv_index":8.65,"wind_gusts":27.7,"aqi":32,"pm10":7.9,"pm2_5":7.8,"no2":12.3,"co":229.0,"o3":26.0,"so2":1.2,"mosquito_risk":10,"arthritis_risk":5,"migraine_risk":7,"frizz_risk":1,"updated_at":"2026-07-03T01:50:16.045190+05:30"},{"city":"Agartala","state":"Tripura","latitude":23.8315,"longitude":91.2868,"temp":26.5,"humidity":94,"rain":0.0,"pressure":1001.1,"uv_index":6.05,"wind_gusts":29.5,"aqi":52,"pm10":14.4,"pm2_5":13.7,"no2":16.1,"co":198.0,"o3":32.0,"so2":3.8,"mosquito_risk":7,"arthritis_risk":5,"migraine_risk":4,"frizz_risk":1,"updated_at":"2026-07-03T01:50:16.045197+05:30"},{"city":"Shillong","state":"Meghalaya","latitude":25.5788,"longitude":91.8933,"temp":19.1,"humidity":94,"rain":0.0,"pressure":853.6,"uv_index":8.8,"wind_gusts":27.4,"aqi":28,"pm10":5.8,"pm2_5":5.7,"no2":6.8,"co":270.0,"o3":54.0,"so2":2.6,"mosquito_risk":3,"arthritis_risk":10,"migraine_risk":7,"frizz_risk":1,"updated_at":"2026-07-03T01:50:16.045205+05:30"},{"city":"Imphal","state":"Manipur","latitude":24.817,"longitude":93.9368,"temp":23.3,"humidity":96,"rain":0.0,"pressure":919.6,"uv_index":8.8,"wind_gusts":23.8,"aqi":38,"pm10":10.6,"pm2_5":10.4,"no2":9.4,"co":562.0,"o3":40.0,"so2":2.3,"mosquito_risk":3,"arthritis_risk":5,"migraine_risk":7,"frizz_risk":1,"updated_at":"2026-07-03T01:50:16.045212+05:30"},{"city":"Aizawl","state":"Mizoram","latitude":23.7271,"longitude":92.7176,"temp":20.6,"humidity":100,"rain":0.0,"pressure":888.5,"uv_index":8.0,"wind_gusts":19.1,"aqi":33,"pm10":6.7,"pm2_5":6.6,"no2":11.8,"co":190.0,"o3":18.0,"so2":0.8,"mosquito_risk":3,"arthritis_risk":5,"migraine_risk":7,"frizz_risk":1,"updated_at":"2026-07-03T01:50:16.045219+05:30"},{"city":"Kohima","state":"Nagaland","latitude":25.6701,"longitude":94.1077,"temp":19.5,"humidity":95,"rain":0.1,"pressure":852.1,"uv_index":8.55,"wind_gusts":27.0,"aqi":23,"pm10":4.8,"pm2_5":4.8,"no2":7.5,"co":232.0,"o3":31.0,"so2":0.6,"mosquito_risk":6,"arthritis_risk":10,"migraine_risk":7,"frizz_risk":1,"updated_at":"2026-07-03T01:50:16.045226+05:30"},{"city":"Gangtok","state":"Sikkim","latitude":27.3314,"longitude":88.6138,"temp":19.2,"humidity":93,"rain":0.0,"pressure":835.1,"uv_index":8.95,"wind_gusts":32.0,"aqi":39,"pm10":8.5,"pm2_5":8.4,"no2":6.5,"co":304.0,"o3":87.0,"so2":1.4,"mosquito_risk":3,"arthritis_risk":10,"migraine_risk":7,"frizz_risk":1,"updated_at":"2026-07-03T01:50:16.045233+05:30"},{"city":"Siliguri","state":"West Bengal","latitude":26.7271,"longitude":88.3953,"temp":27.1,"humidity":94,"rain":0.0,"pressure":987.7,"uv_index":8.65,"wind_gusts":23.4,"aqi":70,"pm10":31.1,"pm2_5":31.0,"no2":18.9,"co":530.0,"o3":70.0,"so2":5.9,"mosquito_risk":7,"arthritis_risk":5,"migraine_risk":7,"frizz_risk":1,"updated_at":"2026-07-03T01:50:19.308282+05:30"},{"city":"Durgapur","state":"West Bengal","latitude":23.5204,"longitude":87.3119,"temp":26.6,"humidity":96,"rain":0.0,"pressure":988.6,"uv_index":6.35,"wind_gusts":33.8,"aqi":100,"pm10":37.0,"pm2_5":36.7,"no2":29.3,"co":415.0,"o3":44.0,"so2":27.9,"mosquito_risk":7,"arthritis_risk":5,"migraine_risk":7,"frizz_risk":1,"updated_at":"2026-07-03T01:50:19.308317+05:30"},{"city":"Asansol","state":"West Bengal","latitude":23.6739,"longitude":86.9524,"temp":26.1,"humidity":95,"rain":0.1,"pressure":987.3,"uv_index":5.15,"wind_gusts":33.8,"aqi":96,"pm10":31.4,"pm2_5":31.1,"no2":31.6,"co":357.0,"o3":48.0,"so2":35.4,"mosquito_risk":10,"arthritis_risk":5,"migraine_risk":3,"frizz_risk":1,"updated_at":"2026-07-03T01:50:19.308328+05:30"},{"city":"Pondicherry","state":"Puducherry","latitude":11.9139,"longitude":79.8145,"temp":29.7,"humidity":64,"rain":0.0,"pressure":1006.4,"uv_index":7.9,"wind_gusts":36.7,"aqi":55,"pm10":15.6,"pm2_5":13.9,"no2":17.4,"co":234.0,"o3":42.0,"so2":9.4,"mosquito_risk":7,"arthritis_risk":5,"migraine_risk":4,"frizz_risk":1,"updated_at":"2026-07-03T01:50:19.308338+05:30"},{"city":"Port Blair","state":"Andaman and Nicobar Islands","latitude":11.6234,"longitude":92.7265,"temp":26.5,"humidity":93,"rain":0.0,"pressure":1005.1,"uv_index":7.45,"wind_gusts":52.6,"aqi":40,"pm10":15.9,"pm2_5":8.5,"no2":0.2,"co":92.0,"o3":66.0,"so2":0.5,"mosquito_risk":7,"arthritis_risk":5,"migraine_risk":4,"frizz_risk":1,"updated_at":"2026-07-03T01:50:19.308346+05:30"},{"city":"Haridwar","state":"Uttarakhand","latitude":29.9457,"longitude":78.1642,"temp":26.4,"humidity":92,"rain":0.0,"pressure":969.2,"uv_index":7.1,"wind_gusts":21.2,"aqi":89,"pm10":55.1,"pm2_5":51.1,"no2":26.6,"co":334.0,"o3":66.0,"so2":9.4,"mosquito_risk":7,"arthritis_risk":5,"migraine_risk":7,"frizz_risk":1,"updated_at":"2026-07-03T01:50:19.308355+05:30"},{"city":"Rishikesh","state":"Uttarakhand","latitude":30.0869,"longitude":78.2676,"temp":25.0,"humidity":96,"rain":0.0,"pressure":962.0,"uv_index":7.0,"wind_gusts":18.4,"aqi":58,"pm10":30.6,"pm2_5":27.0,"no2":10.9,"co":322.0,"o3":101.0,"so2":5.6,"mosquito_risk":7,"arthritis_risk":5,"migraine_risk":7,"frizz_risk":1,"updated_at":"2026-07-03T01:50:19.308362+05:30"},{"city":"Nainital","state":"Uttarakhand","latitude":29.3919,"longitude":79.4542,"temp":15.7,"humidity":98,"rain":0.0,"pressure":802.7,"uv_index":7.65,"wind_gusts":25.9,"aqi":81,"pm10":43.7,"pm2_5":41.0,"no2":20.3,"co":411.0,"o3":57.0,"so2":2.7,"mosquito_risk":3,"arthritis_risk":10,"migraine_risk":7,"frizz_risk":0,"updated_at":"2026-07-03T01:50:19.308370+05:30"},{"city":"Mussoorie","state":"Uttarakhand","latitude":30.4599,"longitude":78.0664,"temp":16.8,"humidity":100,"rain":0.1,"pressure":801.3,"uv_index":7.95,"wind_gusts":28.1,"aqi":61,"pm10":30.0,"pm2_5":27.3,"no2":19.6,"co":269.0,"o3":83.0,"so2":8.2,"mosquito_risk":6,"arthritis_risk":10,"migraine_risk":7,"frizz_risk":1,"updated_at":"2026-07-03T01:50:19.308378+05:30"},{"city":"Dharamshala","state":"Himachal Pradesh","latitude":32.219,"longitude":76.3234,"temp":22.3,"humidity":90,"rain":0.0,"pressure":866.5,"uv_index":8.45,"wind_gusts":38.9,"aqi":30,"pm10":10.1,"pm2_5":9.2,"no2":12.7,"co":403.0,"o3":72.0,"so2":0.1,"mosquito_risk":3,"arthritis_risk":5,"migraine_risk":7,"frizz_risk":1,"updated_at":"2026-07-03T01:50:19.308387+05:30"},{"city":"Dalhousie","state":"Himachal Pradesh","latitude":32.5387,"longitude":75.971,"temp":16.9,"humidity":93,"rain":0.0,"pressure":802.1,"uv_index":8.15,"wind_gusts":32.0,"aqi":84,"pm10":34.2,"pm2_5":24.5,"no2":33.2,"co":420.0,"o3":43.0,"so2":1.6,"mosquito_risk":3,"arthritis_risk":10,"migraine_risk":7,"frizz_risk":0,"updated_at":"2026-07-03T01:50:19.308395+05:30"},{"city":"Patiala","state":"Punjab","latitude":30.3398,"longitude":76.3869,"temp":28.1,"humidity":85,"rain":0.0,"pressure":972.9,"uv_index":7.6,"wind_gusts":30.2,"aqi":136,"pm10":265.4,"pm2_5":62.2,"no2":21.4,"co":472.0,"o3":71.0,"so2":11.7,"mosquito_risk":7,"arthritis_risk":5,"migraine_risk":7,"frizz_risk":1,"updated_at":"2026-07-03T01:50:19.308402+05:30"},{"city":"Bhatinda","state":"Punjab","latitude":30.211,"longitude":74.9455,"temp":29.3,"humidity":79,"rain":0.0,"pressure":977.4,"uv_index":8.25,"wind_gusts":40.0,"aqi":187,"pm10":395.8,"pm2_5":114.1,"no2":18.8,"co":420.0,"o3":74.0,"so2":7.2,"mosquito_risk":7,"arthritis_risk":5,"migraine_risk":7,"frizz_risk":1,"updated_at":"2026-07-03T01:50:19.308409+05:30"},{"city":"Rohtak","state":"Haryana","latitude":28.8955,"longitude":76.6066,"temp":28.4,"humidity":83,"rain":0.0,"pressure":975.8,"uv_index":6.0,"wind_gusts":31.7,"aqi":157,"pm10":406.1,"pm2_5":86.4,"no2":36.9,"co":840.0,"o3":63.0,"so2":28.5,"mosquito_risk":7,"arthritis_risk":5,"migraine_risk":3,"frizz_risk":1,"updated_at":"2026-07-03T01:50:19.308416+05:30"},{"city":"Panipat","state":"Haryana","latitude":29.3909,"longitude":76.9635,"temp":26.8,"humidity":90,"rain":0.1,"pressure":975.0,"uv_index":6.4,"wind_gusts":31.7,"aqi":245,"pm10":1158.6,"pm2_5":163.9,"no2":22.5,"co":463.0,"o3":70.0,"so2":10.2,"mosquito_risk":10,"arthritis_risk":5,"migraine_risk":7,"frizz_risk":1,"updated_at":"2026-07-03T01:50:19.308423+05:30"},{"city":"Mathura","state":"Uttar Pradesh","latitude":27.4924,"longitude":77.6737,"temp":28.4,"humidity":83,"rain":0.0,"pressure":980.5,"uv_index":6.15,"wind_gusts":23.8,"aqi":118,"pm10":43.2,"pm2_5":30.2,"no2":17.7,"co":516.0,"o3":81.0,"so2":6.9,"mosquito_risk":7,"arthritis_risk":5,"migraine_risk":7,"frizz_risk":1,"updated_at":"2026-07-03T01:50:19.308430+05:30"},{"city":"Vrindavan","state":"Uttar Pradesh","latitude":27.5823,"longitude":77.7027,"temp":28.6,"humidity":80,"rain":0.0,"pressure":981.0,"uv_index":7.6,"wind_gusts":22.3,"aqi":118,"pm10":43.2,"pm2_5":30.2,"no2":17.7,"co":495.0,"o3":81.0,"so2":6.9,"mosquito_risk":7,"arthritis_risk":5,"migraine_risk":7,"frizz_risk":1,"updated_at":"2026-07-03T01:50:19.308437+05:30"},{"city":"Ayodhya","state":"Uttar Pradesh","latitude":26.7922,"longitude":82.1998,"temp":28.6,"humidity":86,"rain":0.0,"pressure":989.2,"uv_index":7.3,"wind_gusts":29.5,"aqi":107,"pm10":31.1,"pm2_5":31.1,"no2":13.8,"co":544.0,"o3":77.0,"so2":5.0,"mosquito_risk":7,"arthritis_risk":5,"migraine_risk":7,"frizz_risk":1,"updated_at":"2026-07-03T01:50:19.308444+05:30"},{"city":"Ratlam","state":"Madhya Pradesh","latitude":23.3315,"longitude":75.0367,"temp":24.2,"humidity":97,"rain":0.0,"pressure":949.3,"uv_index":3.6,"wind_gusts":33.8,"aqi":48,"pm10":16.1,"pm2_5":15.5,"no2":6.9,"co":200.0,"o3":63.0,"so2":5.1,"mosquito_risk":3,"arthritis_risk":5,"migraine_risk":3,"frizz_risk":1,"updated_at":"2026-07-03T01:50:19.308451+05:30"},{"city":"Sagar","state":"Madhya Pradesh","latitude":23.8388,"longitude":78.7378,"temp":24.0,"humidity":98,"rain":0.0,"pressure":944.1,"uv_index":8.4,"wind_gusts":31.7,"aqi":71,"pm10":26.0,"pm2_5":20.5,"no2":7.4,"co":211.0,"o3":78.0,"so2":2.1,"mosquito_risk":3,"arthritis_risk":5,"migraine_risk":7,"frizz_risk":1,"updated_at":"2026-07-03T01:50:19.308457+05:30"},{"city":"Satna","state":"Madhya Pradesh","latitude":24.6005,"longitude":80.8322,"temp":24.9,"humidity":97,"rain":0.1,"pressure":965.1,"uv_index":8.35,"wind_gusts":30.2,"aqi":74,"pm10":25.9,"pm2_5":21.6,"no2":11.8,"co":232.0,"o3":71.0,"so2":4.9,"mosquito_risk":6,"arthritis_risk":5,"migraine_risk":7,"frizz_risk":1,"updated_at":"2026-07-03T01:50:19.308464+05:30"},{"city":"Akola","state":"Maharashtra","latitude":20.7002,"longitude":77.0082,"temp":25.0,"humidity":94,"rain":0.0,"pressure":969.9,"uv_index":4.85,"wind_gusts":34.6,"aqi":24,"pm10":5.1,"pm2_5":5.0,"no2":11.2,"co":153.0,"o3":36.0,"so2":7.7,"mosquito_risk":7,"arthritis_risk":5,"migraine_risk":3,"frizz_risk":1,"updated_at":"2026-07-03T01:50:19.308472+05:30"},{"city":"Amravati","state":"Maharashtra","latitude":20.9374,"longitude":77.7796,"temp":24.6,"humidity":98,"rain":0.2,"pressure":961.9,"uv_index":2.1,"wind_gusts":44.6,"aqi":24,"pm10":5.6,"pm2_5":5.5,"no2":11.7,"co":164.0,"o3":37.0,"so2":8.1,"mosquito_risk":6,"arthritis_risk":5,"migraine_risk":3,"frizz_risk":1,"updated_at":"2026-07-03T01:50:19.308480+05:30"},{"city":"Latur","state":"Maharashtra","latitude":18.4088,"longitude":76.5604,"temp":23.2,"humidity":94,"rain":0.1,"pressure":936.1,"uv_index":1.1,"wind_gusts":49.0,"aqi":23,"pm10":3.9,"pm2_5":3.2,"no2":5.7,"co":143.0,"o3":41.0,"so2":2.3,"mosquito_risk":6,"arthritis_risk":5,"migraine_risk":3,"frizz_risk":1,"updated_at":"2026-07-03T01:50:19.308487+05:30"},{"city":"Nanded","state":"Maharashtra","latitude":19.1383,"longitude":77.3091,"temp":24.6,"humidity":90,"rain":0.0,"pressure":964.3,"uv_index":0.8,"wind_gusts":43.6,"aqi":26,"pm10":5.4,"pm2_5":4.2,"no2":6.6,"co":143.0,"o3":40.0,"so2":3.3,"mosquito_risk":3,"arthritis_risk":5,"migraine_risk":3,"frizz_risk":1,"updated_at":"2026-07-03T01:50:19.308494+05:30"},{"city":"Gulbarga","state":"Karnataka","latitude":17.3297,"longitude":76.8343,"temp":24.0,"humidity":90,"rain":0.1,"pressure":956.1,"uv_index":2.1,"wind_gusts":46.4,"aqi":21,"pm10":4.8,"pm2_5":3.3,"no2":6.3,"co":144.0,"o3":40.0,"so2":2.6,"mosquito_risk":6,"arthritis_risk":5,"migraine_risk":3,"frizz_risk":1,"updated_at":"2026-07-03T01:50:19.308501+05:30"},{"city":"Bidar","state":"Karnataka","latitude":17.9104,"longitude":77.5199,"temp":22.8,"humidity":95,"rain":0.2,"pressure":931.8,"uv_index":3.75,"wind_gusts":59.4,"aqi":22,"pm10":4.3,"pm2_5":3.4,"no2":6.2,"co":128.0,"o3":41.0,"so2":2.2,"mosquito_risk":6,"arthritis_risk":5,"migraine_risk":3,"frizz_risk":1,"updated_at":"2026-07-03T01:50:19.308508+05:30"},{"city":"Hospet","state":"Karnataka","latitude":15.2689,"longitude":76.3909,"temp":23.4,"humidity":90,"rain":0.0,"pressure":954.3,"uv_index":5.5,"wind_gusts":62.6,"aqi":20,"pm10":1.7,"pm2_5":1.6,"no2":5.0,"co":120.0,"o3":42.0,"so2":1.5,"mosquito_risk":3,"arthritis_risk":5,"migraine_risk":3,"frizz_risk":1,"updated_at":"2026-07-03T01:50:19.308515+05:30"},{"city":"Tirupur","state":"Tamil Nadu","latitude":11.1085,"longitude":77.3411,"temp":23.5,"humidity":90,"rain":0.0,"pressure":974.9,"uv_index":8.65,"wind_gusts":58.0,"aqi":32,"pm10":13.0,"pm2_5":12.0,"no2":19.1,"co":138.0,"o3":22.0,"so2":4.7,"mosquito_risk":3,"arthritis_risk":5,"migraine_risk":7,"frizz_risk":1,"updated_at":"2026-07-03T01:50:19.308521+05:30"},{"city":"Alappuzha","state":"Kerala","latitude":9.4981,"longitude":76.3388,"temp":24.8,"humidity":96,"rain":0.1,"pressure":1010.6,"uv_index":8.4,"wind_gusts":41.4,"aqi":41,"pm10":9.1,"pm2_5":6.2,"no2":6.7,"co":82.0,"o3":35.0,"so2":2.2,"mosquito_risk":6,"arthritis_risk":0,"migraine_risk":4,"frizz_risk":1,"updated_at":"2026-07-03T01:50:19.308527+05:30"},{"city":"Munnar","state":"Kerala","latitude":10.0889,"longitude":77.0595,"temp":17.1,"humidity":100,"rain":0.1,"pressure":857.0,"uv_index":1.2,"wind_gusts":46.4,"aqi":20,"pm10":1.6,"pm2_5":1.4,"no2":4.1,"co":88.0,"o3":35.0,"so2":1.7,"mosquito_risk":6,"arthritis_risk":10,"migraine_risk":3,"frizz_risk":1,"updated_at":"2026-07-03T01:50:19.308535+05:30"},{"city":"Silchar","state":"Assam","latitude":24.8333,"longitude":92.7789,"temp":25.4,"humidity":96,"rain":0.2,"pressure":1001.0,"uv_index":8.75,"wind_gusts":19.8,"aqi":72,"pm10":15.9,"pm2_5":15.5,"no2":7.0,"co":185.0,"o3":51.0,"so2":3.7,"mosquito_risk":10,"arthritis_risk":5,"migraine_risk":4,"frizz_risk":1,"updated_at":"2026-07-03T01:50:19.308542+05:30"},{"city":"Dibrugarh","state":"Assam","latitude":27.4728,"longitude":94.912,"temp":26.1,"humidity":98,"rain":0.2,"pressure":990.8,"uv_index":8.85,"wind_gusts":24.1,"aqi":48,"pm10":17.3,"pm2_5":16.9,"no2":18.4,"co":303.0,"o3":26.0,"so2":1.4,"mosquito_risk":10,"arthritis_risk":5,"migraine_risk":7,"frizz_risk":1,"updated_at":"2026-07-03T01:50:19.308548+05:30"}]