[{"city":"Delhi","state":"Delhi","latitude":28.6139,"longitude":77.209,"temp":25.7,"humidity":59,"rain":0.0,"pressure":985.0,"uv_index":6.85,"wind_gusts":23.8,"aqi":152,"pm10":135.5,"pm2_5":51.8,"mosquito_risk":4,"arthritis_risk":5,"migraine_risk":7,"frizz_risk":1,"updated_at":"2026-04-01T22:29:24.542513+05:30"},{"city":"Mumbai","state":"Maharashtra","latitude":19.076,"longitude":72.8777,"temp":27.6,"humidity":74,"rain":0.0,"pressure":1009.7,"uv_index":7.85,"wind_gusts":23.8,"aqi":63,"pm10":24.8,"pm2_5":14.6,"mosquito_risk":7,"arthritis_risk":0,"migraine_risk":4,"frizz_risk":1,"updated_at":"2026-04-01T22:29:24.542559+05:30"},{"city":"Bangalore","state":"Karnataka","latitude":12.9716,"longitude":77.5946,"temp":25.4,"humidity":47,"rain":0.0,"pressure":912.8,"uv_index":9.55,"wind_gusts":28.8,"aqi":85,"pm10":17.6,"pm2_5":15.5,"mosquito_risk":4,"arthritis_risk":5,"migraine_risk":7,"frizz_risk":0,"updated_at":"2026-04-01T22:29:24.542575+05:30"},{"city":"Hyderabad","state":"Telangana","latitude":17.385,"longitude":78.4867,"temp":27.1,"humidity":65,"rain":0.0,"pressure":955.0,"uv_index":9.1,"wind_gusts":27.0,"aqi":98,"pm10":37.0,"pm2_5":33.6,"mosquito_risk":7,"arthritis_risk":5,"migraine_risk":7,"frizz_risk":1,"updated_at":"2026-04-01T22:29:24.542586+05:30"},{"city":"Chennai","state":"Tamil Nadu","latitude":13.0827,"longitude":80.2707,"temp":27.3,"humidity":75,"rain":0.0,"pressure":1009.5,"uv_index":9.3,"wind_gusts":29.5,"aqi":41,"pm10":10.4,"pm2_5":7.8,"mosquito_risk":7,"arthritis_risk":0,"migraine_risk":4,"frizz_risk":1,"updated_at":"2026-04-01T22:29:24.542595+05:30"},{"city":"Kolkata","state":"West Bengal","latitude":22.5726,"longitude":88.3639,"temp":27.1,"humidity":89,"rain":0.0,"pressure":1007.2,"uv_index":8.6,"wind_gusts":19.4,"aqi":102,"pm10":31.3,"pm2_5":28.3,"mosquito_risk":7,"arthritis_risk":5,"migraine_risk":4,"frizz_risk":1,"updated_at":"2026-04-01T22:29:24.542604+05:30"},{"city":"Pune","state":"Maharashtra","latitude":18.5204,"longitude":73.8567,"temp":26.7,"humidity":85,"rain":0.0,"pressure":949.4,"uv_index":8.4,"wind_gusts":32.0,"aqi":145,"pm10":51.6,"pm2_5":44.5,"mosquito_risk":7,"arthritis_risk":5,"migraine_risk":7,"frizz_risk":1,"updated_at":"2026-04-01T22:29:24.542616+05:30"},{"city":"Ahmedabad","state":"Gujarat","latitude":23.0225,"longitude":72.5714,"temp":28.8,"humidity":45,"rain":0.0,"pressure":1002.5,"uv_index":7.85,"wind_gusts":25.9,"aqi":66,"pm10":25.8,"pm2_5":18.3,"mosquito_risk":4,"arthritis_risk":5,"migraine_risk":4,"frizz_risk":0,"updated_at":"2026-04-01T22:29:24.542623+05:30"},{"city":"Jaipur","state":"Rajasthan","latitude":26.9124,"longitude":75.7873,"temp":25.7,"humidity":56,"rain":0.0,"pressure":961.1,"uv_index":6.85,"wind_gusts":31.0,"aqi":118,"pm10":102.4,"pm2_5":28.6,"mosquito_risk":4,"arthritis_risk":5,"migraine_risk":7,"frizz_risk":1,"updated_at":"2026-04-01T22:29:24.542631+05:30"},{"city":"Lucknow","state":"Uttar Pradesh","latitude":26.8467,"longitude":80.9462,"temp":27.5,"humidity":51,"rain":0.0,"pressure":995.1,"uv_index":7.3,"wind_gusts":27.4,"aqi":88,"pm10":129.0,"pm2_5":31.9,"mosquito_risk":4,"arthritis_risk":5,"migraine_risk":7,"frizz_risk":1,"updated_at":"2026-04-01T22:29:24.542639+05:30"},{"city":"Kanpur","state":"Uttar Pradesh","latitude":26.4499,"longitude":80.3319,"temp":26.9,"humidity":57,"rain":0.0,"pressure":993.5,"uv_index":7.35,"wind_gusts":28.8,"aqi":119,"pm10":344.6,"pm2_5":51.9,"mosquito_risk":4,"arthritis_risk":5,"migraine_risk":7,"frizz_risk":1,"updated_at":"2026-04-01T22:29:24.542647+05:30"},{"city":"Chandigarh","state":"Chandigarh","latitude":30.7333,"longitude":76.7794,"temp":21.7,"humidity":66,"rain":0.0,"pressure":971.4,"uv_index":6.5,"wind_gusts":16.6,"aqi":79,"pm10":60.8,"pm2_5":39.0,"mosquito_risk":3,"arthritis_risk":5,"migraine_risk":7,"frizz_risk":0,"updated_at":"2026-04-01T22:29:24.542654+05:30"},{"city":"Srinagar","state":"Jammu and Kashmir","latitude":34.0837,"longitude":74.7973,"temp":11.1,"humidity":74,"rain":0.0,"pressure":841.9,"uv_index":7.1,"wind_gusts":20.5,"aqi":91,"pm10":68.9,"pm2_5":52.5,"mosquito_risk":3,"arthritis_risk":5,"migraine_risk":7,"frizz_risk":0,"updated_at":"2026-04-01T22:29:24.542662+05:30"},{"city":"Jammu","state":"Jammu and Kashmir","latitude":32.7266,"longitude":74.857,"temp":23.2,"humidity":61,"rain":0.0,"pressure":975.9,"uv_index":6.5,"wind_gusts":20.5,"aqi":80,"pm10":80.3,"pm2_5":46.6,"mosquito_risk":3,"arthritis_risk":5,"migraine_risk":7,"frizz_risk":0,"updated_at":"2026-04-01T22:29:24.542670+05:30"},{"city":"Amritsar","state":"Punjab","latitude":31.634,"longitude":74.8723,"temp":23.9,"humidity":59,"rain":0.0,"pressure":984.0,"uv_index":6.35,"wind_gusts":14.4,"aqi":122,"pm10":112.5,"pm2_5":61.0,"mosquito_risk":0,"arthritis_risk":5,"migraine_risk":7,"frizz_risk":0,"updated_at":"2026-04-01T22:29:24.542678+05:30"},{"city":"Ludhiana","state":"Punjab","latitude":30.901,"longitude":75.8573,"temp":24.1,"humidity":57,"rain":0.0,"pressure":981.6,"uv_index":6.35,"wind_gusts":18.4,"aqi":119,"pm10":88.9,"pm2_5":70.1,"mosquito_risk":0,"arthritis_risk":5,"migraine_risk":7,"frizz_risk":0,"updated_at":"2026-04-01T22:29:24.542687+05:30"},{"city":"Jalandhar","state":"Punjab","latitude":31.326,"longitude":75.5762,"temp":22.7,"humidity":64,"rain":0.0,"pressure":982.9,"uv_index":7.05,"wind_gusts":14.8,"aqi":110,"pm10":102.9,"pm2_5":57.5,"mosquito_risk":3,"arthritis_risk":5,"migraine_risk":7,"frizz_risk":0,"updated_at":"2026-04-01T22:29:24.542696+05:30"},{"city":"Dehradun","state":"Uttarakhand","latitude":30.6284,"longitude":78.0322,"temp":14.8,"humidity":61,"rain":0.0,"pressure":831.7,"uv_index":6.4,"wind_gusts":32.0,"aqi":55,"pm10":28.1,"pm2_5":13.0,"mosquito_risk":3,"arthritis_risk":5,"migraine_risk":7,"frizz_risk":0,"updated_at":"2026-04-01T22:29:24.542703+05:30"},{"city":"Shimla","state":"Himachal Pradesh","latitude":31.1048,"longitude":77.1734,"temp":12.3,"humidity":66,"rain":0.0,"pressure":785.4,"uv_index":6.15,"wind_gusts":30.2,"aqi":71,"pm10":38.0,"pm2_5":22.8,"mosquito_risk":3,"arthritis_risk":5,"migraine_risk":7,"frizz_risk":0,"updated_at":"2026-04-01T22:29:24.542710+05:30"},{"city":"Manali","state":"Himachal Pradesh","latitude":32.2396,"longitude":77.1887,"temp":13.6,"humidity":81,"rain":0.0,"pressure":821.3,"uv_index":8.65,"wind_gusts":29.9,"aqi":97,"pm10":19.2,"pm2_5":10.2,"mosquito_risk":3,"arthritis_risk":10,"migraine_risk":7,"frizz_risk":0,"updated_at":"2026-04-01T22:29:24.542718+05:30"},{"city":"Gurgaon","state":"Haryana","latitude":28.4595,"longitude":77.0266,"temp":24.2,"humidity":68,"rain":0.0,"pressure":983.3,"uv_index":6.9,"wind_gusts":30.6,"aqi":506,"pm10":311.1,"pm2_5":82.0,"mosquito_risk":3,"arthritis_risk":5,"migraine_risk":7,"frizz_risk":1,"updated_at":"2026-04-01T22:29:24.542725+05:30"},{"city":"Noida","state":"Uttar Pradesh","latitude":28.5355,"longitude":77.391,"temp":25.3,"humidity":62,"rain":0.0,"pressure":986.4,"uv_index":6.85,"wind_gusts":22.3,"aqi":506,"pm10":311.1,"pm2_5":82.0,"mosquito_risk":7,"arthritis_risk":5,"migraine_risk":7,"frizz_risk":1,"updated_at":"2026-04-01T22:29:24.542732+05:30"},{"city":"Ghaziabad","state":"Uttar Pradesh","latitude":28.6692,"longitude":77.4538,"temp":23.2,"humidity":73,"rain":0.0,"pressure":984.6,"uv_index":6.85,"wind_gusts":22.7,"aqi":144,"pm10":214.7,"pm2_5":74.7,"mosquito_risk":3,"arthritis_risk":5,"migraine_risk":7,"frizz_risk":1,"updated_at":"2026-04-01T22:29:24.542740+05:30"},{"city":"Faridabad","state":"Haryana","latitude":28.4089,"longitude":77.3178,"temp":24.0,"humidity":62,"rain":0.0,"pressure":985.5,"uv_index":6.9,"wind_gusts":26.6,"aqi":506,"pm10":311.1,"pm2_5":82.0,"mosquito_risk":3,"arthritis_risk":5,"migraine_risk":7,"frizz_risk":1,"updated_at":"2026-04-01T22:29:24.542747+05:30"},{"city":"Meerut","state":"Uttar Pradesh","latitude":28.9845,"longitude":77.7064,"temp":22.1,"humidity":72,"rain":0.0,"pressure":983.6,"uv_index":6.4,"wind_gusts":24.1,"aqi":144,"pm10":214.7,"pm2_5":74.7,"mosquito_risk":3,"arthritis_risk":5,"migraine_risk":7,"frizz_risk":1,"updated_at":"2026-04-01T22:29:24.542753+05:30"},{"city":"Agra","state":"Uttar Pradesh","latitude":27.1767,"longitude":78.0081,"temp":26.5,"humidity":62,"rain":0.0,"pressure":989.5,"uv_index":7.25,"wind_gusts":28.8,"aqi":445,"pm10":689.2,"pm2_5":92.4,"mosquito_risk":7,"arthritis_risk":5,"migraine_risk":7,"frizz_risk":1,"updated_at":"2026-04-01T22:29:24.542760+05:30"},{"city":"Varanasi","state":"Uttar Pradesh","latitude":25.3176,"longitude":82.9739,"temp":27.0,"humidity":63,"rain":0.0,"pressure":998.9,"uv_index":7.7,"wind_gusts":25.6,"aqi":89,"pm10":38.1,"pm2_5":29.2,"mosquito_risk":7,"arthritis_risk":5,"migraine_risk":7,"frizz_risk":1,"updated_at":"2026-04-01T22:29:24.542769+05:30"},{"city":"Prayagraj","state":"Uttar Pradesh","latitude":25.4358,"longitude":81.8463,"temp":28.7,"humidity":56,"rain":0.0,"pressure":997.5,"uv_index":7.9,"wind_gusts":36.0,"aqi":68,"pm10":39.1,"pm2_5":29.2,"mosquito_risk":4,"arthritis_risk":5,"migraine_risk":7,"frizz_risk":1,"updated_at":"2026-04-01T22:29:24.542776+05:30"},{"city":"Gorakhpur","state":"Uttar Pradesh","latitude":26.7606,"longitude":83.3732,"temp":25.9,"humidity":56,"rain":0.0,"pressure":997.9,"uv_index":7.75,"wind_gusts":23.8,"aqi":114,"pm10":31.2,"pm2_5":19.4,"mosquito_risk":4,"arthritis_risk":5,"migraine_risk":7,"frizz_risk":1,"updated_at":"2026-04-01T22:29:24.542785+05:30"},{"city":"Bareilly","state":"Uttar Pradesh","latitude":28.367,"longitude":79.4304,"temp":24.1,"humidity":64,"rain":0.0,"pressure":988.6,"uv_index":7.1,"wind_gusts":27.4,"aqi":105,"pm10":84.8,"pm2_5":37.0,"mosquito_risk":3,"arthritis_risk":5,"migraine_risk":7,"frizz_risk":1,"updated_at":"2026-04-01T22:29:24.542793+05:30"},{"city":"Aligarh","state":"Uttar Pradesh","latitude":27.8974,"longitude":78.088,"temp":25.4,"humidity":54,"rain":0.0,"pressure":987.3,"uv_index":7.0,"wind_gusts":21.6,"aqi":321,"pm10":309.2,"pm2_5":66.1,"mosquito_risk":4,"arthritis_risk":5,"migraine_risk":7,"frizz_risk":0,"updated_at":"2026-04-01T22:29:24.542800+05:30"},{"city":"Moradabad","state":"Uttar Pradesh","latitude":28.8386,"longitude":78.7733,"temp":23.4,"humidity":63,"rain":0.0,"pressure":985.5,"uv_index":6.9,"wind_gusts":27.4,"aqi":116,"pm10":66.4,"pm2_5":40.2,"mosquito_risk":3,"arthritis_risk":5,"migraine_risk":7,"frizz_risk":0,"updated_at":"2026-04-01T22:29:24.542806+05:30"},{"city":"Saharanpur","state":"Uttar Pradesh","latitude":29.9637,"longitude":77.546,"temp":20.9,"humidity":72,"rain":0.0,"pressure":978.3,"uv_index":6.0,"wind_gusts":21.2,"aqi":94,"pm10":98.5,"pm2_5":46.6,"mosquito_risk":3,"arthritis_risk":5,"migraine_risk":3,"frizz_risk":0,"updated_at":"2026-04-01T22:29:24.542812+05:30"},{"city":"Jhansi","state":"Uttar Pradesh","latitude":25.4484,"longitude":78.5685,"temp":27.4,"humidity":58,"rain":0.0,"pressure":979.8,"uv_index":7.8,"wind_gusts":32.0,"aqi":63,"pm10":43.3,"pm2_5":24.0,"mosquito_risk":4,"arthritis_risk":5,"migraine_risk":7,"frizz_risk":1,"updated_at":"2026-04-01T22:29:27.770710+05:30"},{"city":"Surat","state":"Gujarat","latitude":21.1702,"longitude":72.8311,"temp":26.7,"humidity":72,"rain":0.0,"pressure":1007.6,"uv_index":7.65,"wind_gusts":25.2,"aqi":88,"pm10":29.3,"pm2_5":23.2,"mosquito_risk":7,"arthritis_risk":5,"migraine_risk":4,"frizz_risk":1,"updated_at":"2026-04-01T22:29:27.770751+05:30"},{"city":"Vadodara","state":"Gujarat","latitude":22.3072,"longitude":73.1812,"temp":27.8,"humidity":60,"rain":0.0,"pressure":1004.7,"uv_index":7.85,"wind_gusts":29.2,"aqi":95,"pm10":31.1,"pm2_5":25.1,"mosquito_risk":4,"arthritis_risk":5,"migraine_risk":4,"frizz_risk":1,"updated_at":"2026-04-01T22:29:27.770762+05:30"},{"city":"Rajkot","state":"Gujarat","latitude":22.3039,"longitude":70.8022,"temp":25.2,"humidity":64,"rain":0.0,"pressure":995.8,"uv_index":7.1,"wind_gusts":33.8,"aqi":107,"pm10":23.2,"pm2_5":13.9,"mosquito_risk":7,"arthritis_risk":5,"migraine_risk":7,"frizz_risk":1,"updated_at":"2026-04-01T22:29:27.770770+05:30"},{"city":"Thane","state":"Maharashtra","latitude":19.2183,"longitude":72.9781,"temp":26.1,"humidity":76,"rain":0.0,"pressure":1009.2,"uv_index":7.85,"wind_gusts":34.2,"aqi":63,"pm10":24.8,"pm2_5":14.6,"mosquito_risk":7,"arthritis_risk":0,"migraine_risk":4,"frizz_risk":1,"updated_at":"2026-04-01T22:29:27.770778+05:30"},{"city":"Nagpur","state":"Maharashtra","latitude":21.1458,"longitude":79.0882,"temp":27.6,"humidity":69,"rain":0.0,"pressure":974.6,"uv_index":8.6,"wind_gusts":48.6,"aqi":152,"pm10":53.2,"pm2_5":46.6,"mosquito_risk":7,"arthritis_risk":5,"migraine_risk":7,"frizz_risk":1,"updated_at":"2026-04-01T22:29:27.770786+05:30"},{"city":"Nashik","state":"Maharashtra","latitude":19.9975,"longitude":73.7898,"temp":24.6,"humidity":76,"rain":0.0,"pressure":946.7,"uv_index":8.1,"wind_gusts":32.0,"aqi":73,"pm10":19.1,"pm2_5":13.3,"mosquito_risk":3,"arthritis_risk":5,"migraine_risk":7,"frizz_risk":1,"updated_at":"2026-04-01T22:29:27.770793+05:30"},{"city":"Aurangabad","state":"Maharashtra","latitude":19.8762,"longitude":75.3433,"temp":27.0,"humidity":64,"rain":0.0,"pressure":945.3,"uv_index":8.8,"wind_gusts":45.7,"aqi":115,"pm10":44.1,"pm2_5":37.4,"mosquito_risk":7,"arthritis_risk":5,"migraine_risk":7,"frizz_risk":1,"updated_at":"2026-04-01T22:29:27.770799+05:30"},{"city":"Solapur","state":"Maharashtra","latitude":17.6599,"longitude":75.9064,"temp":28.3,"humidity":58,"rain":0.0,"pressure":958.4,"uv_index":8.9,"wind_gusts":25.2,"aqi":123,"pm10":37.6,"pm2_5":33.9,"mosquito_risk":4,"arthritis_risk":5,"migraine_risk":7,"frizz_risk":1,"updated_at":"2026-04-01T22:29:27.770807+05:30"},{"city":"Kolhapur","state":"Maharashtra","latitude":16.705,"longitude":74.2433,"temp":24.8,"humidity":87,"rain":0.0,"pressure":948.7,"uv_index":8.95,"wind_gusts":34.2,"aqi":140,"pm10":48.4,"pm2_5":45.1,"mosquito_risk":3,"arthritis_risk":5,"migraine_risk":7,"frizz_risk":1,"updated_at":"2026-04-01T22:29:27.770814+05:30"},{"city":"Goa","state":"Goa","latitude":15.2993,"longitude":74.124,"temp":28.5,"humidity":79,"rain":0.0,"pressure":998.8,"uv_index":8.85,"wind_gusts":32.8,"aqi":71,"pm10":30.0,"pm2_5":22.1,"mosquito_risk":7,"arthritis_risk":5,"migraine_risk":7,"frizz_risk":1,"updated_at":"2026-04-01T22:29:27.770821+05:30"},{"city":"Jodhpur","state":"Rajasthan","latitude":26.2389,"longitude":73.0243,"temp":27.5,"humidity":35,"rain":0.0,"pressure":983.8,"uv_index":7.8,"wind_gusts":33.1,"aqi":92,"pm10":152.7,"pm2_5":26.2,"mosquito_risk":4,"arthritis_risk":5,"migraine_risk":7,"frizz_risk":0,"updated_at":"2026-04-01T22:29:27.770829+05:30"},{"city":"Udaipur","state":"Rajasthan","latitude":24.5854,"longitude":73.7125,"temp":26.0,"humidity":44,"rain":0.0,"pressure":947.4,"uv_index":8.4,"wind_gusts":36.7,"aqi":53,"pm10":19.6,"pm2_5":10.7,"mosquito_risk":4,"arthritis_risk":5,"migraine_risk":7,"frizz_risk":0,"updated_at":"2026-04-01T22:29:27.770836+05:30"},{"city":"Kota","state":"Rajasthan","latitude":25.2138,"longitude":75.8648,"temp":29.1,"humidity":50,"rain":0.0,"pressure":979.8,"uv_index":7.45,"wind_gusts":22.7,"aqi":62,"pm10":36.8,"pm2_5":23.2,"mosquito_risk":4,"arthritis_risk":5,"migraine_risk":7,"frizz_risk":1,"updated_at":"2026-04-01T22:29:27.770848+05:30"},{"city":"Bikaner","state":"Rajasthan","latitude":28.0229,"longitude":73.3119,"temp":28.2,"humidity":29,"rain":0.0,"pressure":982.7,"uv_index":6.95,"wind_gusts":19.4,"aqi":69,"pm10":28.3,"pm2_5":11.9,"mosquito_risk":4,"arthritis_risk":5,"migraine_risk":7,"frizz_risk":0,"updated_at":"2026-04-01T22:29:27.770863+05:30"},{"city":"Ajmer","state":"Rajasthan","latitude":26.4499,"longitude":74.6399,"temp":27.2,"humidity":56,"rain":0.0,"pressure":955.6,"uv_index":7.15,"wind_gusts":26.6,"aqi":59,"pm10":41.1,"pm2_5":24.6,"mosquito_risk":4,"arthritis_risk":5,"migraine_risk":7,"frizz_risk":1,"updated_at":"2026-04-01T22:29:27.770876+05:30"},{"city":"Gwalior","state":"Madhya Pradesh","latitude":26.2183,"longitude":78.1828,"temp":27.3,"humidity":64,"rain":0.0,"pressure":985.2,"uv_index":7.5,"wind_gusts":35.3,"aqi":75,"pm10":82.4,"pm2_5":28.5,"mosquito_risk":7,"arthritis_risk":5,"migraine_risk":7,"frizz_risk":1,"updated_at":"2026-04-01T22:29:27.770884+05:30"},{"city":"Indore","state":"Madhya Pradesh","latitude":22.7196,"longitude":75.8577,"temp":27.5,"humidity":58,"rain":0.0,"pressure":949.0,"uv_index":8.3,"wind_gusts":35.3,"aqi":92,"pm10":44.7,"pm2_5":37.0,"mosquito_risk":4,"arthritis_risk":5,"migraine_risk":7,"frizz_risk":1,"updated_at":"2026-04-01T22:29:27.770891+05:30"},{"city":"Bhopal","state":"Madhya Pradesh","latitude":23.2599,"longitude":77.4126,"temp":25.4,"humidity":68,"rain":0.0,"pressure":955.0,"uv_index":8.25,"wind_gusts":39.2,"aqi":79,"pm10":33.3,"pm2_5":24.8,"mosquito_risk":7,"arthritis_risk":5,"migraine_risk":7,"frizz_risk":1,"updated_at":"2026-04-01T22:29:27.770898+05:30"},{"city":"Jabalpur","state":"Madhya Pradesh","latitude":23.1815,"longitude":79.9864,"temp":24.7,"humidity":69,"rain":0.0,"pressure":963.8,"uv_index":8.25,"wind_gusts":40.7,"aqi":74,"pm10":33.9,"pm2_5":27.8,"mosquito_risk":3,"arthritis_risk":5,"migraine_risk":7,"frizz_risk":1,"updated_at":"2026-04-01T22:29:27.770905+05:30"},{"city":"Ujjain","state":"Madhya Pradesh","latitude":23.1765,"longitude":75.7885,"temp":26.1,"humidity":63,"rain":0.0,"pressure":954.4,"uv_index":8.2,"wind_gusts":30.2,"aqi":79,"pm10":38.6,"pm2_5":34.2,"mosquito_risk":7,"arthritis_risk":5,"migraine_risk":7,"frizz_risk":1,"updated_at":"2026-04-01T22:29:27.770912+05:30"},{"city":"Visakhapatnam","state":"Andhra Pradesh","latitude":17.6868,"longitude":83.2185,"temp":26.1,"humidity":84,"rain":0.0,"pressure":1006.6,"uv_index":9.05,"wind_gusts":35.6,"aqi":68,"pm10":19.1,"pm2_5":16.2,"mosquito_risk":7,"arthritis_risk":5,"migraine_risk":4,"frizz_risk":1,"updated_at":"2026-04-01T22:29:27.770919+05:30"},{"city":"Vijayawada","state":"Andhra Pradesh","latitude":16.5062,"longitude":80.648,"temp":27.2,"humidity":73,"rain":0.0,"pressure":1004.9,"uv_index":9.05,"wind_gusts":29.5,"aqi":57,"pm10":14.3,"pm2_5":12.9,"mosquito_risk":7,"arthritis_risk":5,"migraine_risk":4,"frizz_risk":1,"updated_at":"2026-04-01T22:29:27.770926+05:30"},{"city":"Guntur","state":"Andhra Pradesh","latitude":16.3067,"longitude":80.4365,"temp":26.1,"humidity":83,"rain":0.0,"pressure":1006.1,"uv_index":9.1,"wind_gusts":29.9,"aqi":54,"pm10":13.0,"pm2_5":11.7,"mosquito_risk":7,"arthritis_risk":5,"migraine_risk":4,"frizz_risk":1,"updated_at":"2026-04-01T22:29:27.770948+05:30"},{"city":"Nellore","state":"Andhra Pradesh","latitude":14.4426,"longitude":79.9865,"temp":26.0,"humidity":81,"rain":0.0,"pressure":1008.2,"uv_index":9.2,"wind_gusts":29.9,"aqi":43,"pm10":8.7,"pm2_5":6.4,"mosquito_risk":7,"arthritis_risk":0,"migraine_risk":4,"frizz_risk":1,"updated_at":"2026-04-01T22:29:27.770957+05:30"},{"city":"Kurnool","state":"Andhra Pradesh","latitude":15.8281,"longitude":78.0373,"temp":31.5,"humidity":37,"rain":0.0,"pressure":977.6,"uv_index":9.1,"wind_gusts":23.0,"aqi":73,"pm10":27.6,"pm2_5":23.6,"mosquito_risk":0,"arthritis_risk":5,"migraine_risk":7,"frizz_risk":0,"updated_at":"2026-04-01T22:29:27.770965+05:30"},{"city":"Kakinada","state":"Andhra Pradesh","latitude":16.9891,"longitude":82.2475,"temp":25.7,"humidity":84,"rain":0.0,"pressure":1010.4,"uv_index":9.05,"wind_gusts":35.3,"aqi":51,"pm10":10.9,"pm2_5":8.2,"mosquito_risk":7,"arthritis_risk":0,"migraine_risk":4,"frizz_risk":1,"updated_at":"2026-04-01T22:29:27.770972+05:30"},{"city":"Tirupati","state":"Andhra Pradesh","latitude":13.6288,"longitude":79.4192,"temp":25.9,"humidity":64,"rain":0.0,"pressure":993.9,"uv_index":9.35,"wind_gusts":31.7,"aqi":69,"pm10":14.1,"pm2_5":13.0,"mosquito_risk":7,"arthritis_risk":5,"migraine_risk":7,"frizz_risk":1,"updated_at":"2026-04-01T22:29:27.770979+05:30"},{"city":"Warangal","state":"Telangana","latitude":17.9689,"longitude":79.5941,"temp":29.5,"humidity":62,"rain":0.0,"pressure":980.1,"uv_index":8.9,"wind_gusts":30.6,"aqi":104,"pm10":41.2,"pm2_5":37.8,"mosquito_risk":7,"arthritis_risk":5,"migraine_risk":7,"frizz_risk":1,"updated_at":"2026-04-01T22:29:27.770985+05:30"},{"city":"Nizamabad","state":"Telangana","latitude":18.6725,"longitude":78.0941,"temp":26.3,"humidity":73,"rain":0.0,"pressure":966.6,"uv_index":8.85,"wind_gusts":23.0,"aqi":131,"pm10":52.5,"pm2_5":47.0,"mosquito_risk":7,"arthritis_risk":5,"migraine_risk":7,"frizz_risk":1,"updated_at":"2026-04-01T22:29:27.770992+05:30"},{"city":"Mysore","state":"Karnataka","latitude":12.2958,"longitude":76.6396,"temp":24.9,"humidity":74,"rain":0.0,"pressure":929.2,"uv_index":9.5,"wind_gusts":27.7,"aqi":104,"pm10":25.1,"pm2_5":22.4,"mosquito_risk":3,"arthritis_risk":5,"migraine_risk":7,"frizz_risk":1,"updated_at":"2026-04-01T22:29:27.770999+05:30"},{"city":"Mangalore","state":"Karnataka","latitude":12.9141,"longitude":74.856,"temp":29.8,"humidity":81,"rain":0.0,"pressure":1007.3,"uv_index":9.1,"wind_gusts":22.3,"aqi":86,"pm10":36.8,"pm2_5":31.1,"mosquito_risk":7,"arthritis_risk":5,"migraine_risk":4,"frizz_risk":1,"updated_at":"2026-04-01T22:29:27.771005+05:30"},{"city":"Hubli-Dharwad","state":"Karnataka","latitude":15.3647,"longitude":75.124,"temp":25.6,"humidity":83,"rain":0.0,"pressure":941.8,"uv_index":9.15,"wind_gusts":37.4,"aqi":127,"pm10":37.1,"pm2_5":34.5,"mosquito_risk":7,"arthritis_risk":5,"migraine_risk":7,"frizz_risk":1,"updated_at":"2026-04-01T22:29:27.771012+05:30"},{"city":"Belgaum","state":"Karnataka","latitude":15.8497,"longitude":74.4977,"temp":23.7,"humidity":93,"rain":0.0,"pressure":926.5,"uv_index":9.2,"wind_gusts":26.6,"aqi":118,"pm10":46.3,"pm2_5":42.4,"mosquito_risk":3,"arthritis_risk":5,"migraine_risk":7,"frizz_risk":1,"updated_at":"2026-04-01T22:29:30.996221+05:30"},{"city":"Coimbatore","state":"Tamil Nadu","latitude":11.0168,"longitude":76.9558,"temp":26.2,"humidity":83,"rain":0.0,"pressure":963.0,"uv_index":9.45,"wind_gusts":34.2,"aqi":79,"pm10":31.4,"pm2_5":26.2,"mosquito_risk":7,"arthritis_risk":5,"migraine_risk":7,"frizz_risk":1,"updated_at":"2026-04-01T22:29:30.996252+05:30"},{"city":"Madurai","state":"Tamil Nadu","latitude":9.9252,"longitude":78.1198,"temp":27.1,"humidity":72,"rain":0.0,"pressure":994.8,"uv_index":8.9,"wind_gusts":24.8,"aqi":58,"pm10":16.9,"pm2_5":15.2,"mosquito_risk":7,"arthritis_risk":5,"migraine_risk":7,"frizz_risk":1,"updated_at":"2026-04-01T22:29:30.996263+05:30"},{"city":"Trichy","state":"Tamil Nadu","latitude":10.7905,"longitude":78.7047,"temp":26.7,"humidity":76,"rain":0.0,"pressure":1001.6,"uv_index":9.15,"wind_gusts":26.3,"aqi":70,"pm10":14.9,"pm2_5":13.7,"mosquito_risk":7,"arthritis_risk":5,"migraine_risk":4,"frizz_risk":1,"updated_at":"2026-04-01T22:29:30.996272+05:30"},{"city":"Salem","state":"Tamil Nadu","latitude":11.6643,"longitude":78.146,"temp":28.1,"humidity":62,"rain":0.0,"pressure":978.5,"uv_index":9.4,"wind_gusts":31.0,"aqi":108,"pm10":25.8,"pm2_5":22.8,"mosquito_risk":7,"arthritis_risk":5,"migraine_risk":7,"frizz_risk":1,"updated_at":"2026-04-01T22:29:30.996279+05:30"},{"city":"Tirunelveli","state":"Tamil Nadu","latitude":8.7139,"longitude":77.7567,"temp":27.6,"humidity":73,"rain":0.0,"pressure":1005.0,"uv_index":9.35,"wind_gusts":41.0,"aqi":51,"pm10":10.5,"pm2_5":9.3,"mosquito_risk":7,"arthritis_risk":5,"migraine_risk":4,"frizz_risk":1,"updated_at":"2026-04-01T22:29:30.996287+05:30"},{"city":"Vellore","state":"Tamil Nadu","latitude":12.9165,"longitude":79.1325,"temp":26.2,"humidity":67,"rain":0.0,"pressure":986.8,"uv_index":9.4,"wind_gusts":32.8,"aqi":60,"pm10":14.8,"pm2_5":13.3,"mosquito_risk":7,"arthritis_risk":5,"migraine_risk":7,"frizz_risk":1,"updated_at":"2026-04-01T22:29:30.996294+05:30"},{"city":"Erode","state":"Tamil Nadu","latitude":11.341,"longitude":77.7172,"temp":29.6,"humidity":56,"rain":0.0,"pressure":990.1,"uv_index":9.35,"wind_gusts":21.2,"aqi":86,"pm10":27.1,"pm2_5":24.4,"mosquito_risk":4,"arthritis_risk":5,"migraine_risk":7,"frizz_risk":1,"updated_at":"2026-04-01T22:29:30.996302+05:30"},{"city":"Kochi","state":"Kerala","latitude":9.9312,"longitude":76.2673,"temp":29.4,"humidity":80,"rain":0.0,"pressure":1009.7,"uv_index":9.2,"wind_gusts":28.4,"aqi":112,"pm10":31.4,"pm2_5":29.7,"mosquito_risk":7,"arthritis_risk":0,"migraine_risk":4,"frizz_risk":1,"updated_at":"2026-04-01T22:29:30.996309+05:30"},{"city":"Thiruvananthapuram","state":"Kerala","latitude":8.5241,"longitude":76.9366,"temp":29.1,"humidity":78,"rain":0.0,"pressure":1009.2,"uv_index":9.15,"wind_gusts":28.4,"aqi":102,"pm10":17.8,"pm2_5":13.0,"mosquito_risk":7,"arthritis_risk":0,"migraine_risk":4,"frizz_risk":1,"updated_at":"2026-04-01T22:29:30.996316+05:30"},{"city":"Kozhikode","state":"Kerala","latitude":11.2588,"longitude":75.7804,"temp":29.9,"humidity":79,"rain":0.0,"pressure":1008.4,"uv_index":9.15,"wind_gusts":25.9,"aqi":67,"pm10":30.4,"pm2_5":23.5,"mosquito_risk":7,"arthritis_risk":0,"migraine_risk":4,"frizz_risk":1,"updated_at":"2026-04-01T22:29:30.996323+05:30"},{"city":"Thrissur","state":"Kerala","latitude":10.5276,"longitude":76.2144,"temp":28.5,"humidity":86,"rain":0.0,"pressure":1007.7,"uv_index":9.2,"wind_gusts":33.8,"aqi":85,"pm10":25.1,"pm2_5":21.2,"mosquito_risk":7,"arthritis_risk":5,"migraine_risk":4,"frizz_risk":1,"updated_at":"2026-04-01T22:29:30.996330+05:30"},{"city":"Kannur","state":"Kerala","latitude":11.8745,"longitude":75.3704,"temp":29.5,"humidity":78,"rain":0.0,"pressure":1007.7,"uv_index":9.1,"wind_gusts":26.3,"aqi":85,"pm10":41.3,"pm2_5":37.4,"mosquito_risk":7,"arthritis_risk":5,"migraine_risk":4,"frizz_risk":1,"updated_at":"2026-04-01T22:29:30.996337+05:30"},{"city":"Patna","state":"Bihar","latitude":25.5941,"longitude":85.1376,"temp":28.0,"humidity":61,"rain":0.0,"pressure":1001.0,"uv_index":8.2,"wind_gusts":25.2,"aqi":159,"pm10":36.6,"pm2_5":27.5,"mosquito_risk":7,"arthritis_risk":5,"migraine_risk":4,"frizz_risk":1,"updated_at":"2026-04-01T22:29:30.996344+05:30"},{"city":"Gaya","state":"Bihar","latitude":24.7914,"longitude":85.0002,"temp":29.1,"humidity":57,"rain":0.0,"pressure":995.1,"uv_index":7.95,"wind_gusts":31.3,"aqi":95,"pm10":49.4,"pm2_5":30.7,"mosquito_risk":4,"arthritis_risk":5,"migraine_risk":7,"frizz_risk":1,"updated_at":"2026-04-01T22:29:30.996351+05:30"},{"city":"Muzaffarpur","state":"Bihar","latitude":26.1209,"longitude":85.3647,"temp":26.0,"humidity":60,"rain":0.0,"pressure":1000.9,"uv_index":8.15,"wind_gusts":39.2,"aqi":161,"pm10":41.4,"pm2_5":36.0,"mosquito_risk":4,"arthritis_risk":5,"migraine_risk":4,"frizz_risk":1,"updated_at":"2026-04-01T22:29:30.996357+05:30"},{"city":"Bhagalpur","state":"Bihar","latitude":25.2425,"longitude":87.0117,"temp":26.7,"humidity":77,"rain":0.0,"pressure":1001.6,"uv_index":8.25,"wind_gusts":32.0,"aqi":153,"pm10":53.8,"pm2_5":43.1,"mosquito_risk":7,"arthritis_risk":5,"migraine_risk":4,"frizz_risk":1,"updated_at":"2026-04-01T22:29:30.996364+05:30"},{"city":"Ranchi","state":"Jharkhand","latitude":23.3441,"longitude":85.3096,"temp":25.8,"humidity":55,"rain":0.0,"pressure":939.8,"uv_index":8.85,"wind_gusts":31.3,"aqi":88,"pm10":70.3,"pm2_5":32.7,"mosquito_risk":4,"arthritis_risk":5,"migraine_risk":7,"frizz_risk":0,"updated_at":"2026-04-01T22:29:30.996371+05:30"},{"city":"Jamshedpur","state":"Jharkhand","latitude":22.8046,"longitude":86.2029,"temp":30.7,"humidity":57,"rain":0.0,"pressure":991.8,"uv_index":8.7,"wind_gusts":20.5,"aqi":122,"pm10":80.6,"pm2_5":48.5,"mosquito_risk":0,"arthritis_risk":5,"migraine_risk":7,"frizz_risk":1,"updated_at":"2026-04-01T22:29:30.996378+05:30"},{"city":"Dhanbad","state":"Jharkhand","latitude":23.7957,"longitude":86.4304,"temp":30.5,"humidity":42,"rain":0.0,"pressure":981.1,"uv_index":8.6,"wind_gusts":23.8,"aqi":160,"pm10":102.0,"pm2_5":64.5,"mosquito_risk":0,"arthritis_risk":5,"migraine_risk":7,"frizz_risk":1,"updated_at":"2026-04-01T22:29:30.996385+05:30"},{"city":"Bokaro","state":"Jharkhand","latitude":23.6693,"longitude":86.1511,"temp":30.0,"humidity":43,"rain":0.0,"pressure":985.5,"uv_index":8.6,"wind_gusts":28.4,"aqi":152,"pm10":101.7,"pm2_5":56.7,"mosquito_risk":4,"arthritis_risk":5,"migraine_risk":7,"frizz_risk":0,"updated_at":"2026-04-01T22:29:30.996392+05:30"},{"city":"Bhubaneswar","state":"Odisha","latitude":20.2961,"longitude":85.8245,"temp":26.5,"humidity":87,"rain":0.0,"pressure":1004.7,"uv_index":8.85,"wind_gusts":30.2,"aqi":91,"pm10":26.6,"pm2_5":24.4,"mosquito_risk":7,"arthritis_risk":5,"migraine_risk":4,"frizz_risk":1,"updated_at":"2026-04-01T22:29:30.996398+05:30"},{"city":"Cuttack","state":"Odisha","latitude":20.4625,"longitude":85.8828,"temp":27.1,"humidity":82,"rain":0.0,"pressure":1006.5,"uv_index":8.9,"wind_gusts":24.8,"aqi":91,"pm10":26.6,"pm2_5":24.4,"mosquito_risk":7,"arthritis_risk":5,"migraine_risk":4,"frizz_risk":1,"updated_at":"2026-04-01T22:29:30.996405+05:30"},{"city":"Rourkela","state":"Odisha","latitude":22.2604,"longitude":84.8536,"temp":27.7,"humidity":76,"rain":0.0,"pressure":986.0,"uv_index":8.6,"wind_gusts":14.0,"aqi":134,"pm10":104.1,"pm2_5":58.8,"mosquito_risk":7,"arthritis_risk":5,"migraine_risk":7,"frizz_risk":1,"updated_at":"2026-04-01T22:29:30.996411+05:30"},{"city":"Raipur","state":"Chhattisgarh","latitude":21.2514,"longitude":81.6296,"temp":29.5,"humidity":48,"rain":0.0,"pressure":975.4,"uv_index":8.7,"wind_gusts":18.0,"aqi":146,"pm10":60.1,"pm2_5":53.3,"mosquito_risk":4,"arthritis_risk":5,"migraine_risk":7,"frizz_risk":1,"updated_at":"2026-04-01T22:29:30.996417+05:30"},{"city":"Bhilai","state":"Chhattisgarh","latitude":21.1938,"longitude":81.3509,"temp":28.9,"humidity":47,"rain":0.0,"pressure":975.4,"uv_index":8.7,"wind_gusts":19.1,"aqi":127,"pm10":50.3,"pm2_5":46.2,"mosquito_risk":4,"arthritis_risk":5,"migraine_risk":7,"frizz_risk":1,"updated_at":"2026-04-01T22:29:30.996423+05:30"},{"city":"Guwahati","state":"Assam","latitude":26.1158,"longitude":91.7086,"temp":23.1,"humidity":88,"rain":0.0,"pressure":1003.2,"uv_index":8.05,"wind_gusts":34.6,"aqi":99,"pm10":38.1,"pm2_5":34.9,"mosquito_risk":3,"arthritis_risk":5,"migraine_risk":4,"frizz_risk":1,"updated_at":"2026-04-01T22:29:30.996429+05:30"},{"city":"Agartala","state":"Tripura","latitude":23.8315,"longitude":91.2868,"temp":25.3,"humidity":87,"rain":0.0,"pressure":1007.3,"uv_index":8.35,"wind_gusts":23.4,"aqi":90,"pm10":39.1,"pm2_5":35.2,"mosquito_risk":7,"arthritis_risk":5,"migraine_risk":4,"frizz_risk":1,"updated_at":"2026-04-01T22:29:30.996436+05:30"},{"city":"Shillong","state":"Meghalaya","latitude":25.5788,"longitude":91.8933,"temp":15.5,"humidity":89,"rain":0.0,"pressure":856.8,"uv_index":8.45,"wind_gusts":58.3,"aqi":79,"pm10":27.1,"pm2_5":24.2,"mosquito_risk":3,"arthritis_risk":10,"migraine_risk":7,"frizz_risk":0,"updated_at":"2026-04-01T22:29:30.996443+05:30"},{"city":"Imphal","state":"Manipur","latitude":24.817,"longitude":93.9368,"temp":19.0,"humidity":85,"rain":0.0,"pressure":924.7,"uv_index":8.7,"wind_gusts":63.4,"aqi":97,"pm10":59.3,"pm2_5":49.4,"mosquito_risk":3,"arthritis_risk":10,"migraine_risk":7,"frizz_risk":1,"updated_at":"2026-04-01T22:29:30.996450+05:30"},{"city":"Aizawl","state":"Mizoram","latitude":23.7271,"longitude":92.7176,"temp":19.8,"humidity":84,"rain":0.0,"pressure":894.2,"uv_index":8.6,"wind_gusts":41.4,"aqi":87,"pm10":38.6,"pm2_5":29.9,"mosquito_risk":3,"arthritis_risk":10,"migraine_risk":7,"frizz_risk":1,"updated_at":"2026-04-01T22:29:30.996456+05:30"},{"city":"Kohima","state":"Nagaland","latitude":25.6701,"longitude":94.1077,"temp":16.1,"humidity":80,"rain":0.0,"pressure":855.9,"uv_index":8.55,"wind_gusts":81.7,"aqi":75,"pm10":44.9,"pm2_5":36.1,"mosquito_risk":3,"arthritis_risk":5,"migraine_risk":7,"frizz_risk":0,"updated_at":"2026-04-01T22:29:30.996463+05:30"},{"city":"Gangtok","state":"Sikkim","latitude":27.3314,"longitude":88.6138,"temp":15.1,"humidity":81,"rain":0.0,"pressure":837.1,"uv_index":8.45,"wind_gusts":20.2,"aqi":89,"pm10":36.2,"pm2_5":31.4,"mosquito_risk":3,"arthritis_risk":10,"migraine_risk":7,"frizz_risk":0,"updated_at":"2026-04-01T22:29:30.996469+05:30"},{"city":"Siliguri","state":"West Bengal","latitude":26.7271,"longitude":88.3953,"temp":21.5,"humidity":82,"rain":0.0,"pressure":994.4,"uv_index":8.05,"wind_gusts":32.4,"aqi":153,"pm10":78.0,"pm2_5":70.8,"mosquito_risk":3,"arthritis_risk":5,"migraine_risk":7,"frizz_risk":1,"updated_at":"2026-04-01T22:29:34.224083+05:30"},{"city":"Durgapur","state":"West Bengal","latitude":23.5204,"longitude":87.3119,"temp":29.2,"humidity":66,"rain":0.0,"pressure":996.0,"uv_index":8.55,"wind_gusts":21.2,"aqi":153,"pm10":76.8,"pm2_5":60.3,"mosquito_risk":7,"arthritis_risk":5,"migraine_risk":7,"frizz_risk":1,"updated_at":"2026-04-01T22:29:34.224114+05:30"},{"city":"Asansol","state":"West Bengal","latitude":23.6739,"longitude":86.9524,"temp":30.1,"humidity":57,"rain":0.0,"pressure":994.7,"uv_index":8.6,"wind_gusts":22.0,"aqi":152,"pm10":76.6,"pm2_5":52.9,"mosquito_risk":0,"arthritis_risk":5,"migraine_risk":7,"frizz_risk":1,"updated_at":"2026-04-01T22:29:34.224124+05:30"},{"city":"Pondicherry","state":"Puducherry","latitude":11.9139,"longitude":79.8145,"temp":25.0,"humidity":85,"rain":0.0,"pressure":1010.6,"uv_index":8.8,"wind_gusts":26.6,"aqi":37,"pm10":10.0,"pm2_5":7.2,"mosquito_risk":7,"arthritis_risk":0,"migraine_risk":4,"frizz_risk":1,"updated_at":"2026-04-01T22:29:34.224132+05:30"},{"city":"Port Blair","state":"Andaman and Nicobar Islands","latitude":11.6234,"longitude":92.7265,"temp":28.5,"humidity":81,"rain":0.0,"pressure":1009.3,"uv_index":3.85,"wind_gusts":13.0,"aqi":43,"pm10":14.9,"pm2_5":13.1,"mosquito_risk":7,"arthritis_risk":0,"migraine_risk":0,"frizz_risk":1,"updated_at":"2026-04-01T22:29:34.224140+05:30"},{"city":"Haridwar","state":"Uttarakhand","latitude":29.9457,"longitude":78.1642,"temp":21.2,"humidity":71,"rain":0.0,"pressure":976.6,"uv_index":6.5,"wind_gusts":28.4,"aqi":71,"pm10":59.3,"pm2_5":32.4,"mosquito_risk":3,"arthritis_risk":5,"migraine_risk":7,"frizz_risk":0,"updated_at":"2026-04-01T22:29:34.224148+05:30"},{"city":"Rishikesh","state":"Uttarakhand","latitude":30.0869,"longitude":78.2676,"temp":21.1,"humidity":60,"rain":0.0,"pressure":969.2,"uv_index":6.5,"wind_gusts":32.0,"aqi":66,"pm10":42.0,"pm2_5":21.0,"mosquito_risk":0,"arthritis_risk":5,"migraine_risk":7,"frizz_risk":0,"updated_at":"2026-04-01T22:29:34.224156+05:30"},{"city":"Nainital","state":"Uttarakhand","latitude":29.3919,"longitude":79.4542,"temp":19.5,"humidity":41,"rain":0.0,"pressure":808.0,"uv_index":7.55,"wind_gusts":36.7,"aqi":102,"pm10":44.5,"pm2_5":22.9,"mosquito_risk":0,"arthritis_risk":5,"migraine_risk":7,"frizz_risk":0,"updated_at":"2026-04-01T22:29:34.224163+05:30"},{"city":"Mussoorie","state":"Uttarakhand","latitude":30.4599,"longitude":78.0664,"temp":16.6,"humidity":49,"rain":0.0,"pressure":804.5,"uv_index":6.45,"wind_gusts":38.9,"aqi":69,"pm10":55.5,"pm2_5":28.8,"mosquito_risk":0,"arthritis_risk":5,"migraine_risk":7,"frizz_risk":0,"updated_at":"2026-04-01T22:29:34.224171+05:30"},{"city":"Dharamshala","state":"Himachal Pradesh","latitude":32.219,"longitude":76.3234,"temp":19.1,"humidity":46,"rain":0.0,"pressure":871.2,"uv_index":5.85,"wind_gusts":24.5,"aqi":60,"pm10":29.6,"pm2_5":16.0,"mosquito_risk":0,"arthritis_risk":5,"migraine_risk":3,"frizz_risk":0,"updated_at":"2026-04-01T22:29:34.224178+05:30"},{"city":"Dalhousie","state":"Himachal Pradesh","latitude":32.5387,"longitude":75.971,"temp":15.1,"humidity":60,"rain":0.0,"pressure":804.9,"uv_index":6.3,"wind_gusts":20.9,"aqi":56,"pm10":48.1,"pm2_5":31.9,"mosquito_risk":0,"arthritis_risk":5,"migraine_risk":7,"frizz_risk":0,"updated_at":"2026-04-01T22:29:34.224186+05:30"},{"city":"Patiala","state":"Punjab","latitude":30.3398,"longitude":76.3869,"temp":22.6,"humidity":67,"rain":0.0,"pressure":980.8,"uv_index":5.65,"wind_gusts":16.2,"aqi":111,"pm10":99.0,"pm2_5":63.1,"mosquito_risk":3,"arthritis_risk":5,"migraine_risk":3,"frizz_risk":1,"updated_at":"2026-04-01T22:29:34.224193+05:30"},{"city":"Bhatinda","state":"Punjab","latitude":30.211,"longitude":74.9455,"temp":23.6,"humidity":65,"rain":0.0,"pressure":986.3,"uv_index":5.9,"wind_gusts":24.1,"aqi":109,"pm10":188.6,"pm2_5":51.3,"mosquito_risk":3,"arthritis_risk":5,"migraine_risk":3,"frizz_risk":1,"updated_at":"2026-04-01T22:29:34.224200+05:30"},{"city":"Rohtak","state":"Haryana","latitude":28.8955,"longitude":76.6066,"temp":22.8,"humidity":77,"rain":0.0,"pressure":983.8,"uv_index":6.45,"wind_gusts":26.3,"aqi":164,"pm10":356.7,"pm2_5":79.4,"mosquito_risk":3,"arthritis_risk":5,"migraine_risk":7,"frizz_risk":1,"updated_at":"2026-04-01T22:29:34.224207+05:30"},{"city":"Panipat","state":"Haryana","latitude":29.3909,"longitude":76.9635,"temp":21.4,"humidity":75,"rain":0.0,"pressure":982.6,"uv_index":6.15,"wind_gusts":15.1,"aqi":140,"pm10":272.9,"pm2_5":63.1,"mosquito_risk":3,"arthritis_risk":5,"migraine_risk":7,"frizz_risk":1,"updated_at":"2026-04-01T22:29:34.224214+05:30"},{"city":"Mathura","state":"Uttar Pradesh","latitude":27.4924,"longitude":77.6737,"temp":25.9,"humidity":63,"rain":0.0,"pressure":988.4,"uv_index":7.15,"wind_gusts":30.6,"aqi":409,"pm10":302.7,"pm2_5":62.6,"mosquito_risk":7,"arthritis_risk":5,"migraine_risk":7,"frizz_risk":1,"updated_at":"2026-04-01T22:29:34.224220+05:30"},{"city":"Vrindavan","state":"Uttar Pradesh","latitude":27.5823,"longitude":77.7027,"temp":25.0,"humidity":67,"rain":0.0,"pressure":988.9,"uv_index":7.1,"wind_gusts":26.3,"aqi":409,"pm10":302.7,"pm2_5":62.6,"mosquito_risk":7,"arthritis_risk":5,"migraine_risk":7,"frizz_risk":1,"updated_at":"2026-04-01T22:29:34.224228+05:30"},{"city":"Ayodhya","state":"Uttar Pradesh","latitude":26.7922,"longitude":82.1998,"temp":26.9,"humidity":57,"rain":0.0,"pressure":996.6,"uv_index":7.55,"wind_gusts":25.6,"aqi":79,"pm10":55.4,"pm2_5":21.4,"mosquito_risk":4,"arthritis_risk":5,"migraine_risk":7,"frizz_risk":1,"updated_at":"2026-04-01T22:29:34.224234+05:30"},{"city":"Ratlam","state":"Madhya Pradesh","latitude":23.3315,"longitude":75.0367,"temp":27.6,"humidity":48,"rain":0.0,"pressure":955.3,"uv_index":8.15,"wind_gusts":34.2,"aqi":87,"pm10":27.0,"pm2_5":24.2,"mosquito_risk":4,"arthritis_risk":5,"migraine_risk":7,"frizz_risk":0,"updated_at":"2026-04-01T22:29:34.224242+05:30"},{"city":"Sagar","state":"Madhya Pradesh","latitude":23.8388,"longitude":78.7378,"temp":26.7,"humidity":53,"rain":0.0,"pressure":952.0,"uv_index":8.25,"wind_gusts":33.1,"aqi":61,"pm10":25.1,"pm2_5":17.9,"mosquito_risk":4,"arthritis_risk":5,"migraine_risk":7,"frizz_risk":1,"updated_at":"2026-04-01T22:29:34.224249+05:30"},{"city":"Satna","state":"Madhya Pradesh","latitude":24.6005,"longitude":80.8322,"temp":28.4,"humidity":51,"rain":0.0,"pressure":973.4,"uv_index":8.15,"wind_gusts":26.6,"aqi":82,"pm10":30.4,"pm2_5":19.0,"mosquito_risk":4,"arthritis_risk":5,"migraine_risk":7,"frizz_risk":1,"updated_at":"2026-04-01T22:29:34.224255+05:30"},{"city":"Akola","state":"Maharashtra","latitude":20.7002,"longitude":77.0082,"temp":28.0,"humidity":70,"rain":0.0,"pressure":976.2,"uv_index":8.55,"wind_gusts":27.0,"aqi":95,"pm10":33.8,"pm2_5":27.3,"mosquito_risk":7,"arthritis_risk":5,"migraine_risk":7,"frizz_risk":1,"updated_at":"2026-04-01T22:29:34.224262+05:30"},{"city":"Amravati","state":"Maharashtra","latitude":20.9374,"longitude":77.7796,"temp":26.8,"humidity":66,"rain":0.0,"pressure":968.7,"uv_index":8.6,"wind_gusts":27.0,"aqi":91,"pm10":33.5,"pm2_5":27.8,"mosquito_risk":7,"arthritis_risk":5,"migraine_risk":7,"frizz_risk":1,"updated_at":"2026-04-01T22:29:34.224270+05:30"},{"city":"Latur","state":"Maharashtra","latitude":18.4088,"longitude":76.5604,"temp":26.5,"humidity":62,"rain":0.0,"pressure":940.9,"uv_index":8.85,"wind_gusts":25.6,"aqi":110,"pm10":42.7,"pm2_5":38.3,"mosquito_risk":7,"arthritis_risk":5,"migraine_risk":7,"frizz_risk":1,"updated_at":"2026-04-01T22:29:34.224276+05:30"},{"city":"Nanded","state":"Maharashtra","latitude":19.1383,"longitude":77.3091,"temp":26.9,"humidity":68,"rain":0.0,"pressure":969.8,"uv_index":8.75,"wind_gusts":23.0,"aqi":112,"pm10":43.2,"pm2_5":37.1,"mosquito_risk":7,"arthritis_risk":5,"migraine_risk":7,"frizz_risk":1,"updated_at":"2026-04-01T22:29:34.224282+05:30"},{"city":"Gulbarga","state":"Karnataka","latitude":17.3297,"longitude":76.8343,"temp":27.4,"humidity":65,"rain":0.0,"pressure":960.5,"uv_index":8.95,"wind_gusts":24.1,"aqi":118,"pm10":40.3,"pm2_5":34.6,"mosquito_risk":7,"arthritis_risk":5,"migraine_risk":7,"frizz_risk":1,"updated_at":"2026-04-01T22:29:34.224289+05:30"},{"city":"Bidar","state":"Karnataka","latitude":17.9104,"longitude":77.5199,"temp":25.6,"humidity":70,"rain":0.0,"pressure":937.1,"uv_index":8.95,"wind_gusts":26.6,"aqi":110,"pm10":47.5,"pm2_5":41.6,"mosquito_risk":7,"arthritis_risk":5,"migraine_risk":7,"frizz_risk":1,"updated_at":"2026-04-01T22:29:34.224296+05:30"},{"city":"Hospet","state":"Karnataka","latitude":15.2689,"longitude":76.3909,"temp":30.0,"humidity":57,"rain":0.0,"pressure":956.2,"uv_index":9.15,"wind_gusts":23.4,"aqi":154,"pm10":38.1,"pm2_5":34.2,"mosquito_risk":4,"arthritis_risk":5,"migraine_risk":7,"frizz_risk":1,"updated_at":"2026-04-01T22:29:34.224302+05:30"},{"city":"Tirupur","state":"Tamil Nadu","latitude":11.1085,"longitude":77.3411,"temp":29.2,"humidity":47,"rain":0.0,"pressure":976.5,"uv_index":9.45,"wind_gusts":21.6,"aqi":88,"pm10":34.7,"pm2_5":29.7,"mosquito_risk":4,"arthritis_risk":5,"migraine_risk":7,"frizz_risk":1,"updated_at":"2026-04-01T22:29:34.224309+05:30"},{"city":"Alappuzha","state":"Kerala","latitude":9.4981,"longitude":76.3388,"temp":28.6,"humidity":82,"rain":0.0,"pressure":1010.2,"uv_index":9.15,"wind_gusts":26.6,"aqi":128,"pm10":27.4,"pm2_5":23.4,"mosquito_risk":7,"arthritis_risk":0,"migraine_risk":4,"frizz_risk":1,"updated_at":"2026-04-01T22:29:34.224316+05:30"},{"city":"Munnar","state":"Kerala","latitude":10.0889,"longitude":77.0595,"temp":21.9,"humidity":79,"rain":0.0,"pressure":858.0,"uv_index":9.75,"wind_gusts":30.6,"aqi":67,"pm10":33.9,"pm2_5":27.8,"mosquito_risk":3,"arthritis_risk":5,"migraine_risk":7,"frizz_risk":1,"updated_at":"2026-04-01T22:29:34.224324+05:30"},{"city":"Silchar","state":"Assam","latitude":24.8333,"longitude":92.7789,"temp":23.2,"humidity":89,"rain":0.0,"pressure":1007.5,"uv_index":8.4,"wind_gusts":35.3,"aqi":114,"pm10":69.4,"pm2_5":61.2,"mosquito_risk":3,"arthritis_risk":5,"migraine_risk":4,"frizz_risk":1,"updated_at":"2026-04-01T22:29:34.224330+05:30"},{"city":"Dibrugarh","state":"Assam","latitude":27.4728,"longitude":94.912,"temp":22.1,"humidity":91,"rain":0.0,"pressure":997.2,"uv_index":7.65,"wind_gusts":31.3,"aqi":106,"pm10":37.6,"pm2_5":31.4,"mosquito_risk":3,"arthritis_risk":5,"migraine_risk":7,"frizz_risk":1,"updated_at":"2026-04-01T22:29:34.224337+05:30"}]