[{"city":"Delhi","state":"Delhi","latitude":28.6139,"longitude":77.209,"temp":31.7,"humidity":21,"rain":0.0,"pressure":977.5,"uv_index":7.7,"wind_gusts":41.8,"aqi":484,"pm10":672.4,"pm2_5":157.9,"no2":28.4,"co":492.0,"o3":59.0,"so2":16.6,"mosquito_risk":0,"arthritis_risk":5,"migraine_risk":7,"frizz_risk":0,"updated_at":"2026-05-24T02:26:44.152815+05:30"},{"city":"Mumbai","state":"Maharashtra","latitude":19.076,"longitude":72.8777,"temp":30.5,"humidity":75,"rain":0.0,"pressure":1008.9,"uv_index":7.65,"wind_gusts":36.4,"aqi":41,"pm10":9.1,"pm2_5":6.2,"no2":5.1,"co":212.0,"o3":55.0,"so2":4.1,"mosquito_risk":3,"arthritis_risk":0,"migraine_risk":4,"frizz_risk":1,"updated_at":"2026-05-24T02:26:44.152854+05:30"},{"city":"Bangalore","state":"Karnataka","latitude":12.9716,"longitude":77.5946,"temp":21.4,"humidity":94,"rain":0.0,"pressure":911.9,"uv_index":6.2,"wind_gusts":43.9,"aqi":44,"pm10":12.7,"pm2_5":11.6,"no2":21.0,"co":262.0,"o3":44.0,"so2":5.1,"mosquito_risk":3,"arthritis_risk":5,"migraine_risk":7,"frizz_risk":1,"updated_at":"2026-05-24T02:26:44.152867+05:30"},{"city":"Hyderabad","state":"Telangana","latitude":17.385,"longitude":78.4867,"temp":29.5,"humidity":55,"rain":0.0,"pressure":951.8,"uv_index":9.25,"wind_gusts":47.5,"aqi":78,"pm10":21.2,"pm2_5":18.3,"no2":7.6,"co":208.0,"o3":92.0,"so2":4.6,"mosquito_risk":4,"arthritis_risk":5,"migraine_risk":7,"frizz_risk":1,"updated_at":"2026-05-24T02:26:44.152875+05:30"},{"city":"Chennai","state":"Tamil Nadu","latitude":13.0827,"longitude":80.2707,"temp":31.4,"humidity":60,"rain":0.0,"pressure":1004.2,"uv_index":8.55,"wind_gusts":64.4,"aqi":75,"pm10":29.3,"pm2_5":25.4,"no2":11.9,"co":299.0,"o3":82.0,"so2":8.9,"mosquito_risk":0,"arthritis_risk":5,"migraine_risk":4,"frizz_risk":1,"updated_at":"2026-05-24T02:26:44.152881+05:30"},{"city":"Kolkata","state":"West Bengal","latitude":22.5726,"longitude":88.3639,"temp":29.4,"humidity":89,"rain":0.0,"pressure":1002.0,"uv_index":9.0,"wind_gusts":38.9,"aqi":96,"pm10":26.2,"pm2_5":21.1,"no2":5.1,"co":230.0,"o3":91.0,"so2":4.6,"mosquito_risk":7,"arthritis_risk":5,"migraine_risk":4,"frizz_risk":1,"updated_at":"2026-05-24T02:26:44.152887+05:30"},{"city":"Pune","state":"Maharashtra","latitude":18.5204,"longitude":73.8567,"temp":26.0,"humidity":86,"rain":0.0,"pressure":949.0,"uv_index":8.35,"wind_gusts":41.0,"aqi":39,"pm10":10.4,"pm2_5":9.5,"no2":12.2,"co":174.0,"o3":40.0,"so2":8.8,"mosquito_risk":7,"arthritis_risk":5,"migraine_risk":7,"frizz_risk":1,"updated_at":"2026-05-24T02:26:44.152892+05:30"},{"city":"Ahmedabad","state":"Gujarat","latitude":23.0225,"longitude":72.5714,"temp":32.7,"humidity":48,"rain":0.0,"pressure":1001.3,"uv_index":8.1,"wind_gusts":36.4,"aqi":74,"pm10":22.4,"pm2_5":17.5,"no2":4.9,"co":156.0,"o3":60.0,"so2":3.4,"mosquito_risk":0,"arthritis_risk":5,"migraine_risk":4,"frizz_risk":1,"updated_at":"2026-05-24T02:26:44.152898+05:30"},{"city":"Jaipur","state":"Rajasthan","latitude":26.9124,"longitude":75.7873,"temp":31.9,"humidity":23,"rain":0.0,"pressure":956.7,"uv_index":8.25,"wind_gusts":50.0,"aqi":179,"pm10":359.5,"pm2_5":81.3,"no2":7.2,"co":213.0,"o3":65.0,"so2":5.1,"mosquito_risk":0,"arthritis_risk":5,"migraine_risk":7,"frizz_risk":0,"updated_at":"2026-05-24T02:26:44.152907+05:30"},{"city":"Lucknow","state":"Uttar Pradesh","latitude":26.8467,"longitude":80.9462,"temp":32.4,"humidity":29,"rain":0.0,"pressure":987.4,"uv_index":8.2,"wind_gusts":47.9,"aqi":171,"pm10":423.8,"pm2_5":109.4,"no2":14.4,"co":345.0,"o3":76.0,"so2":8.8,"mosquito_risk":0,"arthritis_risk":5,"migraine_risk":7,"frizz_risk":0,"updated_at":"2026-05-24T02:26:44.152912+05:30"},{"city":"Kanpur","state":"Uttar Pradesh","latitude":26.4499,"longitude":80.3319,"temp":33.3,"humidity":26,"rain":0.0,"pressure":986.2,"uv_index":8.2,"wind_gusts":48.2,"aqi":471,"pm10":642.6,"pm2_5":134.6,"no2":15.0,"co":283.0,"o3":64.0,"so2":8.3,"mosquito_risk":0,"arthritis_risk":5,"migraine_risk":7,"frizz_risk":0,"updated_at":"2026-05-24T02:26:44.152917+05:30"},{"city":"Chandigarh","state":"Chandigarh","latitude":30.7333,"longitude":76.7794,"temp":28.2,"humidity":26,"rain":0.0,"pressure":963.3,"uv_index":7.75,"wind_gusts":48.2,"aqi":84,"pm10":36.4,"pm2_5":27.6,"no2":24.7,"co":292.0,"o3":47.0,"so2":7.2,"mosquito_risk":4,"arthritis_risk":5,"migraine_risk":7,"frizz_risk":0,"updated_at":"2026-05-24T02:26:44.152923+05:30"},{"city":"Srinagar","state":"Jammu and Kashmir","latitude":34.0837,"longitude":74.7973,"temp":11.4,"humidity":95,"rain":0.0,"pressure":840.8,"uv_index":8.9,"wind_gusts":29.5,"aqi":67,"pm10":47.1,"pm2_5":39.3,"no2":36.1,"co":664.0,"o3":15.0,"so2":2.1,"mosquito_risk":3,"arthritis_risk":10,"migraine_risk":7,"frizz_risk":0,"updated_at":"2026-05-24T02:26:44.152928+05:30"},{"city":"Jammu","state":"Jammu and Kashmir","latitude":32.7266,"longitude":74.857,"temp":25.2,"humidity":38,"rain":0.0,"pressure":968.4,"uv_index":8.55,"wind_gusts":32.8,"aqi":73,"pm10":27.8,"pm2_5":20.7,"no2":20.9,"co":273.0,"o3":36.0,"so2":2.1,"mosquito_risk":4,"arthritis_risk":5,"migraine_risk":7,"frizz_risk":0,"updated_at":"2026-05-24T02:26:44.152934+05:30"},{"city":"Amritsar","state":"Punjab","latitude":31.634,"longitude":74.8723,"temp":28.0,"humidity":37,"rain":0.0,"pressure":975.8,"uv_index":8.45,"wind_gusts":23.8,"aqi":129,"pm10":65.0,"pm2_5":50.8,"no2":33.9,"co":348.0,"o3":32.0,"so2":8.1,"mosquito_risk":4,"arthritis_risk":5,"migraine_risk":7,"frizz_risk":0,"updated_at":"2026-05-24T02:26:44.152939+05:30"},{"city":"Ludhiana","state":"Punjab","latitude":30.901,"longitude":75.8573,"temp":28.1,"humidity":34,"rain":0.0,"pressure":973.8,"uv_index":8.0,"wind_gusts":26.3,"aqi":103,"pm10":49.0,"pm2_5":35.7,"no2":19.5,"co":474.0,"o3":53.0,"so2":6.7,"mosquito_risk":4,"arthritis_risk":5,"migraine_risk":7,"frizz_risk":0,"updated_at":"2026-05-24T02:26:44.152945+05:30"},{"city":"Jalandhar","state":"Punjab","latitude":31.326,"longitude":75.5762,"temp":28.4,"humidity":32,"rain":0.0,"pressure":974.8,"uv_index":8.2,"wind_gusts":24.8,"aqi":109,"pm10":52.5,"pm2_5":33.3,"no2":21.4,"co":425.0,"o3":63.0,"so2":5.8,"mosquito_risk":4,"arthritis_risk":5,"migraine_risk":7,"frizz_risk":0,"updated_at":"2026-05-24T02:26:44.152950+05:30"},{"city":"Dehradun","state":"Uttarakhand","latitude":30.6284,"longitude":78.0322,"temp":12.9,"humidity":56,"rain":0.0,"pressure":823.6,"uv_index":7.95,"wind_gusts":52.9,"aqi":60,"pm10":38.4,"pm2_5":17.5,"no2":31.9,"co":201.0,"o3":22.0,"so2":0.6,"mosquito_risk":0,"arthritis_risk":5,"migraine_risk":7,"frizz_risk":0,"updated_at":"2026-05-24T02:26:44.152955+05:30"},{"city":"Shimla","state":"Himachal Pradesh","latitude":31.1048,"longitude":77.1734,"temp":14.8,"humidity":35,"rain":0.0,"pressure":781.1,"uv_index":8.25,"wind_gusts":69.5,"aqi":66,"pm10":35.0,"pm2_5":19.2,"no2":23.0,"co":182.0,"o3":45.0,"so2":1.4,"mosquito_risk":0,"arthritis_risk":5,"migraine_risk":7,"frizz_risk":1,"updated_at":"2026-05-24T02:26:44.152963+05:30"},{"city":"Manali","state":"Himachal Pradesh","latitude":32.2396,"longitude":77.1887,"temp":8.5,"humidity":58,"rain":0.0,"pressure":811.9,"uv_index":9.0,"wind_gusts":47.5,"aqi":40,"pm10":20.5,"pm2_5":5.6,"no2":31.7,"co":227.0,"o3":83.0,"so2":0.0,"mosquito_risk":0,"arthritis_risk":5,"migraine_risk":7,"frizz_risk":0,"updated_at":"2026-05-24T02:26:44.152968+05:30"},{"city":"Gurgaon","state":"Haryana","latitude":28.4595,"longitude":77.0266,"temp":28.2,"humidity":34,"rain":0.0,"pressure":975.9,"uv_index":7.85,"wind_gusts":39.2,"aqi":886,"pm10":670.6,"pm2_5":149.9,"no2":39.9,"co":503.0,"o3":36.0,"so2":18.0,"mosquito_risk":4,"arthritis_risk":5,"migraine_risk":7,"frizz_risk":0,"updated_at":"2026-05-24T02:26:44.152987+05:30"},{"city":"Noida","state":"Uttar Pradesh","latitude":28.5355,"longitude":77.391,"temp":30.6,"humidity":26,"rain":0.0,"pressure":978.7,"uv_index":7.75,"wind_gusts":37.8,"aqi":886,"pm10":670.6,"pm2_5":149.9,"no2":39.9,"co":516.0,"o3":36.0,"so2":18.0,"mosquito_risk":0,"arthritis_risk":5,"migraine_risk":7,"frizz_risk":0,"updated_at":"2026-05-24T02:26:44.152993+05:30"},{"city":"Ghaziabad","state":"Uttar Pradesh","latitude":28.6692,"longitude":77.4538,"temp":30.9,"humidity":22,"rain":0.0,"pressure":977.0,"uv_index":7.7,"wind_gusts":40.7,"aqi":318,"pm10":558.8,"pm2_5":131.8,"no2":19.1,"co":417.0,"o3":76.0,"so2":16.6,"mosquito_risk":0,"arthritis_risk":5,"migraine_risk":7,"frizz_risk":0,"updated_at":"2026-05-24T02:26:44.152998+05:30"},{"city":"Faridabad","state":"Haryana","latitude":28.4089,"longitude":77.3178,"temp":31.4,"humidity":23,"rain":0.0,"pressure":978.2,"uv_index":7.8,"wind_gusts":43.6,"aqi":886,"pm10":670.6,"pm2_5":149.9,"no2":39.9,"co":493.0,"o3":36.0,"so2":18.0,"mosquito_risk":0,"arthritis_risk":5,"migraine_risk":7,"frizz_risk":0,"updated_at":"2026-05-24T02:26:44.153003+05:30"},{"city":"Meerut","state":"Uttar Pradesh","latitude":28.9845,"longitude":77.7064,"temp":30.3,"humidity":23,"rain":0.0,"pressure":975.4,"uv_index":7.65,"wind_gusts":47.5,"aqi":318,"pm10":558.8,"pm2_5":131.8,"no2":19.1,"co":295.0,"o3":76.0,"so2":16.6,"mosquito_risk":0,"arthritis_risk":5,"migraine_risk":7,"frizz_risk":0,"updated_at":"2026-05-24T02:26:44.153008+05:30"},{"city":"Agra","state":"Uttar Pradesh","latitude":27.1767,"longitude":78.0081,"temp":32.0,"humidity":28,"rain":0.0,"pressure":982.5,"uv_index":8.05,"wind_gusts":38.9,"aqi":648,"pm10":499.2,"pm2_5":88.2,"no2":23.4,"co":434.0,"o3":33.0,"so2":6.8,"mosquito_risk":0,"arthritis_risk":5,"migraine_risk":7,"frizz_risk":0,"updated_at":"2026-05-24T02:26:44.153012+05:30"},{"city":"Varanasi","state":"Uttar Pradesh","latitude":25.3176,"longitude":82.9739,"temp":33.3,"humidity":28,"rain":0.0,"pressure":991.6,"uv_index":8.7,"wind_gusts":43.9,"aqi":154,"pm10":130.9,"pm2_5":65.2,"no2":34.5,"co":619.0,"o3":41.0,"so2":13.5,"mosquito_risk":0,"arthritis_risk":5,"migraine_risk":7,"frizz_risk":0,"updated_at":"2026-05-24T02:26:44.153018+05:30"},{"city":"Prayagraj","state":"Uttar Pradesh","latitude":25.4358,"longitude":81.8463,"temp":32.8,"humidity":31,"rain":0.0,"pressure":990.5,"uv_index":8.6,"wind_gusts":45.7,"aqi":152,"pm10":247.7,"pm2_5":75.7,"no2":29.6,"co":365.0,"o3":47.0,"so2":11.3,"mosquito_risk":0,"arthritis_risk":5,"migraine_risk":7,"frizz_risk":0,"updated_at":"2026-05-24T02:26:44.153024+05:30"},{"city":"Gorakhpur","state":"Uttar Pradesh","latitude":26.7606,"longitude":83.3732,"temp":27.5,"humidity":69,"rain":0.0,"pressure":990.9,"uv_index":8.55,"wind_gusts":31.7,"aqi":155,"pm10":120.1,"pm2_5":75.7,"no2":40.4,"co":316.0,"o3":44.0,"so2":14.0,"mosquito_risk":7,"arthritis_risk":5,"migraine_risk":7,"frizz_risk":1,"updated_at":"2026-05-24T02:26:44.153031+05:30"},{"city":"Bareilly","state":"Uttar Pradesh","latitude":28.367,"longitude":79.4304,"temp":29.2,"humidity":36,"rain":0.0,"pressure":980.4,"uv_index":8.0,"wind_gusts":43.9,"aqi":134,"pm10":149.5,"pm2_5":59.3,"no2":21.8,"co":306.0,"o3":55.0,"so2":10.2,"mosquito_risk":4,"arthritis_risk":5,"migraine_risk":7,"frizz_risk":0,"updated_at":"2026-05-24T02:26:44.153036+05:30"},{"city":"Aligarh","state":"Uttar Pradesh","latitude":27.8974,"longitude":78.088,"temp":30.2,"humidity":28,"rain":0.0,"pressure":979.9,"uv_index":7.9,"wind_gusts":41.4,"aqi":601,"pm10":618.4,"pm2_5":143.9,"no2":28.4,"co":379.0,"o3":37.0,"so2":11.6,"mosquito_risk":0,"arthritis_risk":5,"migraine_risk":7,"frizz_risk":0,"updated_at":"2026-05-24T02:26:44.153041+05:30"},{"city":"Moradabad","state":"Uttar Pradesh","latitude":28.8386,"longitude":78.7733,"temp":29.0,"humidity":28,"rain":0.0,"pressure":977.1,"uv_index":7.85,"wind_gusts":48.6,"aqi":124,"pm10":221.7,"pm2_5":72.2,"no2":21.5,"co":340.0,"o3":55.0,"so2":8.9,"mosquito_risk":4,"arthritis_risk":5,"migraine_risk":7,"frizz_risk":0,"updated_at":"2026-05-24T02:26:44.153045+05:30"},{"city":"Saharanpur","state":"Uttar Pradesh","latitude":29.9637,"longitude":77.546,"temp":28.8,"humidity":25,"rain":0.0,"pressure":969.3,"uv_index":7.4,"wind_gusts":46.8,"aqi":107,"pm10":107.6,"pm2_5":45.1,"no2":16.1,"co":297.0,"o3":66.0,"so2":8.7,"mosquito_risk":4,"arthritis_risk":5,"migraine_risk":7,"frizz_risk":0,"updated_at":"2026-05-24T02:26:44.153050+05:30"},{"city":"Jhansi","state":"Uttar Pradesh","latitude":25.4484,"longitude":78.5685,"temp":32.2,"humidity":30,"rain":0.0,"pressure":973.5,"uv_index":8.45,"wind_gusts":46.1,"aqi":91,"pm10":83.8,"pm2_5":40.2,"no2":3.8,"co":176.0,"o3":71.0,"so2":2.5,"mosquito_risk":0,"arthritis_risk":5,"migraine_risk":7,"frizz_risk":0,"updated_at":"2026-05-24T02:26:47.466132+05:30"},{"city":"Surat","state":"Gujarat","latitude":21.1702,"longitude":72.8311,"temp":30.2,"humidity":82,"rain":0.0,"pressure":1006.8,"uv_index":7.7,"wind_gusts":42.5,"aqi":56,"pm10":15.0,"pm2_5":11.5,"no2":14.1,"co":236.0,"o3":36.0,"so2":24.1,"mosquito_risk":3,"arthritis_risk":5,"migraine_risk":4,"frizz_risk":1,"updated_at":"2026-05-24T02:26:47.466164+05:30"},{"city":"Vadodara","state":"Gujarat","latitude":22.3072,"longitude":73.1812,"temp":30.7,"humidity":75,"rain":0.0,"pressure":1003.5,"uv_index":8.1,"wind_gusts":48.2,"aqi":60,"pm10":13.0,"pm2_5":10.8,"no2":18.6,"co":128.0,"o3":25.0,"so2":19.4,"mosquito_risk":3,"arthritis_risk":5,"migraine_risk":4,"frizz_risk":1,"updated_at":"2026-05-24T02:26:47.466172+05:30"},{"city":"Rajkot","state":"Gujarat","latitude":22.3039,"longitude":70.8022,"temp":29.0,"humidity":74,"rain":0.0,"pressure":994.2,"uv_index":7.7,"wind_gusts":50.8,"aqi":68,"pm10":27.4,"pm2_5":18.5,"no2":5.5,"co":119.0,"o3":45.0,"so2":6.1,"mosquito_risk":7,"arthritis_risk":5,"migraine_risk":7,"frizz_risk":1,"updated_at":"2026-05-24T02:26:47.466179+05:30"},{"city":"Thane","state":"Maharashtra","latitude":19.2183,"longitude":72.9781,"temp":30.0,"humidity":78,"rain":0.0,"pressure":1008.3,"uv_index":7.5,"wind_gusts":36.4,"aqi":41,"pm10":9.1,"pm2_5":6.2,"no2":5.1,"co":324.0,"o3":55.0,"so2":4.1,"mosquito_risk":7,"arthritis_risk":0,"migraine_risk":4,"frizz_risk":1,"updated_at":"2026-05-24T02:26:47.466185+05:30"},{"city":"Nagpur","state":"Maharashtra","latitude":21.1458,"longitude":79.0882,"temp":35.0,"humidity":22,"rain":0.0,"pressure":970.1,"uv_index":8.9,"wind_gusts":43.9,"aqi":67,"pm10":29.3,"pm2_5":21.0,"no2":10.1,"co":216.0,"o3":70.0,"so2":6.2,"mosquito_risk":0,"arthritis_risk":5,"migraine_risk":7,"frizz_risk":0,"updated_at":"2026-05-24T02:26:47.466192+05:30"},{"city":"Nashik","state":"Maharashtra","latitude":19.9975,"longitude":73.7898,"temp":25.2,"humidity":88,"rain":0.0,"pressure":946.1,"uv_index":7.85,"wind_gusts":40.3,"aqi":38,"pm10":6.8,"pm2_5":5.4,"no2":7.1,"co":148.0,"o3":44.0,"so2":4.9,"mosquito_risk":7,"arthritis_risk":5,"migraine_risk":7,"frizz_risk":1,"updated_at":"2026-05-24T02:26:47.466198+05:30"},{"city":"Aurangabad","state":"Maharashtra","latitude":19.8762,"longitude":75.3433,"temp":28.4,"humidity":64,"rain":0.0,"pressure":944.4,"uv_index":9.05,"wind_gusts":44.3,"aqi":56,"pm10":10.7,"pm2_5":8.4,"no2":8.9,"co":164.0,"o3":52.0,"so2":6.4,"mosquito_risk":7,"arthritis_risk":5,"migraine_risk":7,"frizz_risk":1,"updated_at":"2026-05-24T02:26:47.466204+05:30"},{"city":"Solapur","state":"Maharashtra","latitude":17.6599,"longitude":75.9064,"temp":29.0,"humidity":67,"rain":0.0,"pressure":957.6,"uv_index":8.2,"wind_gusts":42.1,"aqi":57,"pm10":11.3,"pm2_5":10.8,"no2":12.4,"co":218.0,"o3":41.0,"so2":2.3,"mosquito_risk":7,"arthritis_risk":5,"migraine_risk":7,"frizz_risk":1,"updated_at":"2026-05-24T02:26:47.466211+05:30"},{"city":"Kolhapur","state":"Maharashtra","latitude":16.705,"longitude":74.2433,"temp":24.5,"humidity":93,"rain":0.0,"pressure":948.7,"uv_index":8.9,"wind_gusts":42.5,"aqi":43,"pm10":10.8,"pm2_5":9.6,"no2":9.0,"co":154.0,"o3":38.0,"so2":2.4,"mosquito_risk":3,"arthritis_risk":5,"migraine_risk":7,"frizz_risk":1,"updated_at":"2026-05-24T02:26:47.466217+05:30"},{"city":"Goa","state":"Goa","latitude":15.2993,"longitude":74.124,"temp":26.5,"humidity":98,"rain":0.0,"pressure":999.5,"uv_index":6.8,"wind_gusts":32.0,"aqi":37,"pm10":16.6,"pm2_5":13.2,"no2":6.3,"co":275.0,"o3":43.0,"so2":1.2,"mosquito_risk":7,"arthritis_risk":5,"migraine_risk":7,"frizz_risk":1,"updated_at":"2026-05-24T02:26:47.466222+05:30"},{"city":"Jodhpur","state":"Rajasthan","latitude":26.2389,"longitude":73.0243,"temp":33.7,"humidity":28,"rain":0.0,"pressure":980.1,"uv_index":8.4,"wind_gusts":56.9,"aqi":180,"pm10":275.7,"pm2_5":69.8,"no2":4.6,"co":134.0,"o3":55.0,"so2":3.1,"mosquito_risk":0,"arthritis_risk":5,"migraine_risk":7,"frizz_risk":0,"updated_at":"2026-05-24T02:26:47.466227+05:30"},{"city":"Udaipur","state":"Rajasthan","latitude":24.5854,"longitude":73.7125,"temp":31.4,"humidity":28,"rain":0.0,"pressure":945.3,"uv_index":8.8,"wind_gusts":54.4,"aqi":97,"pm10":90.1,"pm2_5":32.9,"no2":3.0,"co":136.0,"o3":70.0,"so2":2.6,"mosquito_risk":0,"arthritis_risk":5,"migraine_risk":7,"frizz_risk":0,"updated_at":"2026-05-24T02:26:47.466232+05:30"},{"city":"Kota","state":"Rajasthan","latitude":25.2138,"longitude":75.8648,"temp":34.5,"humidity":24,"rain":0.0,"pressure":975.6,"uv_index":8.4,"wind_gusts":42.5,"aqi":104,"pm10":91.0,"pm2_5":38.5,"no2":8.2,"co":157.0,"o3":56.0,"so2":3.2,"mosquito_risk":0,"arthritis_risk":5,"migraine_risk":7,"frizz_risk":0,"updated_at":"2026-05-24T02:26:47.466239+05:30"},{"city":"Bikaner","state":"Rajasthan","latitude":28.0229,"longitude":73.3119,"temp":31.4,"humidity":20,"rain":0.0,"pressure":977.3,"uv_index":8.45,"wind_gusts":55.1,"aqi":123,"pm10":68.9,"pm2_5":30.7,"no2":7.0,"co":312.0,"o3":47.0,"so2":2.6,"mosquito_risk":0,"arthritis_risk":5,"migraine_risk":7,"frizz_risk":0,"updated_at":"2026-05-24T02:26:47.466244+05:30"},{"city":"Ajmer","state":"Rajasthan","latitude":26.4499,"longitude":74.6399,"temp":31.5,"humidity":31,"rain":0.0,"pressure":952.7,"uv_index":8.4,"wind_gusts":61.9,"aqi":127,"pm10":102.4,"pm2_5":39.8,"no2":3.3,"co":152.0,"o3":66.0,"so2":3.2,"mosquito_risk":0,"arthritis_risk":5,"migraine_risk":7,"frizz_risk":0,"updated_at":"2026-05-24T02:26:47.466250+05:30"},{"city":"Gwalior","state":"Madhya Pradesh","latitude":26.2183,"longitude":78.1828,"temp":32.7,"humidity":28,"rain":0.0,"pressure":978.6,"uv_index":8.25,"wind_gusts":42.8,"aqi":101,"pm10":85.0,"pm2_5":40.5,"no2":5.5,"co":188.0,"o3":66.0,"so2":3.0,"mosquito_risk":0,"arthritis_risk":5,"migraine_risk":7,"frizz_risk":0,"updated_at":"2026-05-24T02:26:47.466255+05:30"},{"city":"Indore","state":"Madhya Pradesh","latitude":22.7196,"longitude":75.8577,"temp":31.0,"humidity":38,"rain":0.0,"pressure":947.5,"uv_index":8.7,"wind_gusts":45.0,"aqi":73,"pm10":71.7,"pm2_5":32.8,"no2":3.6,"co":209.0,"o3":87.0,"so2":3.7,"mosquito_risk":0,"arthritis_risk":5,"migraine_risk":7,"frizz_risk":0,"updated_at":"2026-05-24T02:26:47.466259+05:30"},{"city":"Bhopal","state":"Madhya Pradesh","latitude":23.2599,"longitude":77.4126,"temp":33.0,"humidity":24,"rain":0.0,"pressure":951.8,"uv_index":8.7,"wind_gusts":44.6,"aqi":78,"pm10":55.3,"pm2_5":33.3,"no2":6.7,"co":224.0,"o3":64.0,"so2":4.5,"mosquito_risk":0,"arthritis_risk":5,"migraine_risk":7,"frizz_risk":0,"updated_at":"2026-05-24T02:26:47.466264+05:30"},{"city":"Jabalpur","state":"Madhya Pradesh","latitude":23.1815,"longitude":79.9864,"temp":32.3,"humidity":24,"rain":0.0,"pressure":958.3,"uv_index":8.85,"wind_gusts":40.7,"aqi":72,"pm10":78.5,"pm2_5":38.2,"no2":26.1,"co":304.0,"o3":45.0,"so2":5.3,"mosquito_risk":0,"arthritis_risk":5,"migraine_risk":7,"frizz_risk":0,"updated_at":"2026-05-24T02:26:47.466269+05:30"},{"city":"Ujjain","state":"Madhya Pradesh","latitude":23.1765,"longitude":75.7885,"temp":31.7,"humidity":32,"rain":0.0,"pressure":952.8,"uv_index":8.65,"wind_gusts":46.8,"aqi":76,"pm10":69.4,"pm2_5":32.2,"no2":3.1,"co":200.0,"o3":82.0,"so2":3.9,"mosquito_risk":0,"arthritis_risk":5,"migraine_risk":7,"frizz_risk":0,"updated_at":"2026-05-24T02:26:47.466275+05:30"},{"city":"Visakhapatnam","state":"Andhra Pradesh","latitude":17.6868,"longitude":83.2185,"temp":30.1,"humidity":87,"rain":0.0,"pressure":999.1,"uv_index":9.05,"wind_gusts":31.3,"aqi":119,"pm10":49.2,"pm2_5":43.0,"no2":32.0,"co":318.0,"o3":79.0,"so2":30.2,"mosquito_risk":3,"arthritis_risk":5,"migraine_risk":7,"frizz_risk":1,"updated_at":"2026-05-24T02:26:47.466280+05:30"},{"city":"Vijayawada","state":"Andhra Pradesh","latitude":16.5062,"longitude":80.648,"temp":33.3,"humidity":42,"rain":0.0,"pressure":997.9,"uv_index":9.1,"wind_gusts":48.2,"aqi":93,"pm10":29.3,"pm2_5":26.5,"no2":7.6,"co":228.0,"o3":95.0,"so2":6.2,"mosquito_risk":0,"arthritis_risk":5,"migraine_risk":7,"frizz_risk":1,"updated_at":"2026-05-24T02:26:47.466285+05:30"},{"city":"Guntur","state":"Andhra Pradesh","latitude":16.3067,"longitude":80.4365,"temp":33.2,"humidity":42,"rain":0.0,"pressure":999.1,"uv_index":9.15,"wind_gusts":50.8,"aqi":87,"pm10":28.7,"pm2_5":25.5,"no2":5.7,"co":215.0,"o3":101.0,"so2":5.5,"mosquito_risk":0,"arthritis_risk":5,"migraine_risk":7,"frizz_risk":1,"updated_at":"2026-05-24T02:26:47.466290+05:30"},{"city":"Nellore","state":"Andhra Pradesh","latitude":14.4426,"longitude":79.9865,"temp":32.0,"humidity":54,"rain":0.0,"pressure":1002.5,"uv_index":7.0,"wind_gusts":49.7,"aqi":66,"pm10":25.0,"pm2_5":21.5,"no2":6.3,"co":187.0,"o3":97.0,"so2":8.2,"mosquito_risk":0,"arthritis_risk":5,"migraine_risk":4,"frizz_risk":1,"updated_at":"2026-05-24T02:26:47.466296+05:30"},{"city":"Kurnool","state":"Andhra Pradesh","latitude":15.8281,"longitude":78.0373,"temp":28.7,"humidity":67,"rain":0.0,"pressure":976.1,"uv_index":8.0,"wind_gusts":58.3,"aqi":56,"pm10":20.8,"pm2_5":18.6,"no2":9.1,"co":208.0,"o3":85.0,"so2":2.3,"mosquito_risk":7,"arthritis_risk":5,"migraine_risk":7,"frizz_risk":1,"updated_at":"2026-05-24T02:26:47.466302+05:30"},{"city":"Kakinada","state":"Andhra Pradesh","latitude":16.9891,"longitude":82.2475,"temp":31.9,"humidity":72,"rain":0.0,"pressure":1002.3,"uv_index":8.4,"wind_gusts":34.2,"aqi":95,"pm10":29.8,"pm2_5":23.2,"no2":5.2,"co":413.0,"o3":111.0,"so2":4.2,"mosquito_risk":3,"arthritis_risk":5,"migraine_risk":4,"frizz_risk":1,"updated_at":"2026-05-24T02:26:47.466308+05:30"},{"city":"Tirupati","state":"Andhra Pradesh","latitude":13.6288,"longitude":79.4192,"temp":29.3,"humidity":59,"rain":0.0,"pressure":988.2,"uv_index":8.65,"wind_gusts":44.6,"aqi":67,"pm10":22.6,"pm2_5":19.0,"no2":6.1,"co":171.0,"o3":87.0,"so2":2.8,"mosquito_risk":4,"arthritis_risk":5,"migraine_risk":7,"frizz_risk":1,"updated_at":"2026-05-24T02:26:47.466313+05:30"},{"city":"Warangal","state":"Telangana","latitude":17.9689,"longitude":79.5941,"temp":33.6,"humidity":36,"rain":0.0,"pressure":975.2,"uv_index":9.15,"wind_gusts":51.8,"aqi":94,"pm10":30.9,"pm2_5":27.6,"no2":8.4,"co":219.0,"o3":87.0,"so2":4.6,"mosquito_risk":0,"arthritis_risk":5,"migraine_risk":7,"frizz_risk":1,"updated_at":"2026-05-24T02:26:47.466318+05:30"},{"city":"Nizamabad","state":"Telangana","latitude":18.6725,"longitude":78.0941,"temp":32.5,"humidity":38,"rain":0.0,"pressure":963.1,"uv_index":9.1,"wind_gusts":45.4,"aqi":74,"pm10":32.7,"pm2_5":28.3,"no2":9.6,"co":176.0,"o3":74.0,"so2":5.6,"mosquito_risk":0,"arthritis_risk":5,"migraine_risk":7,"frizz_risk":1,"updated_at":"2026-05-24T02:26:47.466323+05:30"},{"city":"Mysore","state":"Karnataka","latitude":12.2958,"longitude":76.6396,"temp":21.7,"humidity":96,"rain":0.0,"pressure":929.0,"uv_index":7.65,"wind_gusts":42.5,"aqi":31,"pm10":8.0,"pm2_5":7.3,"no2":9.6,"co":263.0,"o3":48.0,"so2":2.2,"mosquito_risk":3,"arthritis_risk":5,"migraine_risk":7,"frizz_risk":1,"updated_at":"2026-05-24T02:26:47.466328+05:30"},{"city":"Mangalore","state":"Karnataka","latitude":12.9141,"longitude":74.856,"temp":25.1,"humidity":96,"rain":0.0,"pressure":1009.3,"uv_index":7.25,"wind_gusts":37.1,"aqi":41,"pm10":17.5,"pm2_5":13.5,"no2":9.5,"co":296.0,"o3":38.0,"so2":2.5,"mosquito_risk":7,"arthritis_risk":0,"migraine_risk":4,"frizz_risk":1,"updated_at":"2026-05-24T02:26:47.466334+05:30"},{"city":"Hubli-Dharwad","state":"Karnataka","latitude":15.3647,"longitude":75.124,"temp":24.2,"humidity":94,"rain":0.0,"pressure":941.9,"uv_index":9.05,"wind_gusts":40.0,"aqi":22,"pm10":5.4,"pm2_5":4.1,"no2":4.1,"co":132.0,"o3":42.0,"so2":1.1,"mosquito_risk":3,"arthritis_risk":5,"migraine_risk":7,"frizz_risk":1,"updated_at":"2026-05-24T02:26:47.466339+05:30"},{"city":"Belgaum","state":"Karnataka","latitude":15.8497,"longitude":74.4977,"temp":23.1,"humidity":97,"rain":0.0,"pressure":926.6,"uv_index":8.1,"wind_gusts":39.6,"aqi":26,"pm10":8.0,"pm2_5":6.3,"no2":5.9,"co":137.0,"o3":41.0,"so2":1.4,"mosquito_risk":3,"arthritis_risk":5,"migraine_risk":7,"frizz_risk":1,"updated_at":"2026-05-24T02:26:50.759789+05:30"},{"city":"Coimbatore","state":"Tamil Nadu","latitude":11.0168,"longitude":76.9558,"temp":24.9,"humidity":90,"rain":0.0,"pressure":962.0,"uv_index":6.4,"wind_gusts":51.1,"aqi":29,"pm10":7.1,"pm2_5":6.0,"no2":5.9,"co":215.0,"o3":53.0,"so2":2.6,"mosquito_risk":3,"arthritis_risk":5,"migraine_risk":7,"frizz_risk":1,"updated_at":"2026-05-24T02:26:50.759821+05:30"},{"city":"Madurai","state":"Tamil Nadu","latitude":9.9252,"longitude":78.1198,"temp":28.2,"humidity":69,"rain":0.0,"pressure":992.6,"uv_index":8.9,"wind_gusts":44.3,"aqi":54,"pm10":19.2,"pm2_5":18.1,"no2":30.3,"co":258.0,"o3":13.0,"so2":5.4,"mosquito_risk":7,"arthritis_risk":5,"migraine_risk":7,"frizz_risk":1,"updated_at":"2026-05-24T02:26:50.759830+05:30"},{"city":"Trichy","state":"Tamil Nadu","latitude":10.7905,"longitude":78.7047,"temp":28.4,"humidity":73,"rain":0.0,"pressure":998.9,"uv_index":7.2,"wind_gusts":45.7,"aqi":49,"pm10":12.3,"pm2_5":10.0,"no2":9.5,"co":156.0,"o3":56.0,"so2":3.4,"mosquito_risk":7,"arthritis_risk":5,"migraine_risk":7,"frizz_risk":1,"updated_at":"2026-05-24T02:26:50.759836+05:30"},{"city":"Salem","state":"Tamil Nadu","latitude":11.6643,"longitude":78.146,"temp":27.8,"humidity":70,"rain":0.0,"pressure":977.0,"uv_index":6.8,"wind_gusts":39.6,"aqi":56,"pm10":29.8,"pm2_5":23.2,"no2":26.4,"co":187.0,"o3":36.0,"so2":7.6,"mosquito_risk":7,"arthritis_risk":5,"migraine_risk":7,"frizz_risk":1,"updated_at":"2026-05-24T02:26:50.759843+05:30"},{"city":"Tirunelveli","state":"Tamil Nadu","latitude":8.7139,"longitude":77.7567,"temp":29.2,"humidity":67,"rain":0.0,"pressure":1003.1,"uv_index":8.85,"wind_gusts":36.7,"aqi":31,"pm10":10.7,"pm2_5":8.9,"no2":7.6,"co":143.0,"o3":40.0,"so2":2.2,"mosquito_risk":7,"arthritis_risk":5,"migraine_risk":4,"frizz_risk":1,"updated_at":"2026-05-24T02:26:50.759849+05:30"},{"city":"Vellore","state":"Tamil Nadu","latitude":12.9165,"longitude":79.1325,"temp":28.5,"humidity":67,"rain":0.0,"pressure":982.7,"uv_index":8.95,"wind_gusts":66.6,"aqi":68,"pm10":22.9,"pm2_5":20.4,"no2":9.9,"co":310.0,"o3":64.0,"so2":3.2,"mosquito_risk":7,"arthritis_risk":5,"migraine_risk":7,"frizz_risk":1,"updated_at":"2026-05-24T02:26:50.759854+05:30"},{"city":"Erode","state":"Tamil Nadu","latitude":11.341,"longitude":77.7172,"temp":27.7,"humidity":75,"rain":0.0,"pressure":988.8,"uv_index":7.4,"wind_gusts":46.4,"aqi":40,"pm10":15.2,"pm2_5":13.0,"no2":16.4,"co":208.0,"o3":35.0,"so2":3.1,"mosquito_risk":7,"arthritis_risk":5,"migraine_risk":7,"frizz_risk":1,"updated_at":"2026-05-24T02:26:50.759860+05:30"},{"city":"Kochi","state":"Kerala","latitude":9.9312,"longitude":76.2673,"temp":26.4,"humidity":96,"rain":0.0,"pressure":1010.7,"uv_index":7.95,"wind_gusts":33.1,"aqi":60,"pm10":25.4,"pm2_5":22.3,"no2":21.7,"co":181.0,"o3":21.0,"so2":4.9,"mosquito_risk":7,"arthritis_risk":0,"migraine_risk":4,"frizz_risk":1,"updated_at":"2026-05-24T02:26:50.759866+05:30"},{"city":"Thiruvananthapuram","state":"Kerala","latitude":8.5241,"longitude":76.9366,"temp":25.1,"humidity":94,"rain":0.0,"pressure":1010.0,"uv_index":8.3,"wind_gusts":42.8,"aqi":41,"pm10":14.1,"pm2_5":9.1,"no2":4.5,"co":158.0,"o3":50.0,"so2":1.8,"mosquito_risk":7,"arthritis_risk":0,"migraine_risk":4,"frizz_risk":1,"updated_at":"2026-05-24T02:26:50.759871+05:30"},{"city":"Kozhikode","state":"Kerala","latitude":11.2588,"longitude":75.7804,"temp":26.1,"humidity":95,"rain":0.1,"pressure":1009.7,"uv_index":8.55,"wind_gusts":36.7,"aqi":31,"pm10":13.9,"pm2_5":8.5,"no2":1.6,"co":151.0,"o3":68.0,"so2":0.8,"mosquito_risk":10,"arthritis_risk":0,"migraine_risk":4,"frizz_risk":1,"updated_at":"2026-05-24T02:26:50.759877+05:30"},{"city":"Thrissur","state":"Kerala","latitude":10.5276,"longitude":76.2144,"temp":25.3,"humidity":98,"rain":0.1,"pressure":1009.3,"uv_index":7.75,"wind_gusts":34.6,"aqi":62,"pm10":25.6,"pm2_5":22.9,"no2":16.9,"co":389.0,"o3":28.0,"so2":4.1,"mosquito_risk":10,"arthritis_risk":0,"migraine_risk":4,"frizz_risk":1,"updated_at":"2026-05-24T02:26:50.759883+05:30"},{"city":"Kannur","state":"Kerala","latitude":11.8745,"longitude":75.3704,"temp":26.0,"humidity":95,"rain":0.1,"pressure":1009.0,"uv_index":8.5,"wind_gusts":40.7,"aqi":37,"pm10":11.9,"pm2_5":8.8,"no2":8.8,"co":201.0,"o3":42.0,"so2":1.8,"mosquito_risk":10,"arthritis_risk":0,"migraine_risk":4,"frizz_risk":1,"updated_at":"2026-05-24T02:26:50.759889+05:30"},{"city":"Patna","state":"Bihar","latitude":25.5941,"longitude":85.1376,"temp":28.9,"humidity":69,"rain":0.0,"pressure":993.9,"uv_index":8.8,"wind_gusts":25.9,"aqi":160,"pm10":126.2,"pm2_5":88.2,"no2":40.7,"co":545.0,"o3":64.0,"so2":24.0,"mosquito_risk":7,"arthritis_risk":5,"migraine_risk":7,"frizz_risk":1,"updated_at":"2026-05-24T02:26:50.759894+05:30"},{"city":"Gaya","state":"Bihar","latitude":24.7914,"longitude":85.0002,"temp":29.4,"humidity":48,"rain":0.0,"pressure":988.0,"uv_index":8.9,"wind_gusts":34.6,"aqi":158,"pm10":145.3,"pm2_5":69.4,"no2":28.7,"co":578.0,"o3":45.0,"so2":9.2,"mosquito_risk":4,"arthritis_risk":5,"migraine_risk":7,"frizz_risk":1,"updated_at":"2026-05-24T02:26:50.759900+05:30"},{"city":"Muzaffarpur","state":"Bihar","latitude":26.1209,"longitude":85.3647,"temp":28.4,"humidity":82,"rain":0.0,"pressure":994.4,"uv_index":8.8,"wind_gusts":33.1,"aqi":157,"pm10":91.0,"pm2_5":71.2,"no2":17.6,"co":674.0,"o3":93.0,"so2":17.6,"mosquito_risk":7,"arthritis_risk":5,"migraine_risk":7,"frizz_risk":1,"updated_at":"2026-05-24T02:26:50.759905+05:30"},{"city":"Bhagalpur","state":"Bihar","latitude":25.2425,"longitude":87.0117,"temp":29.5,"humidity":72,"rain":0.0,"pressure":995.7,"uv_index":8.8,"wind_gusts":33.8,"aqi":151,"pm10":72.6,"pm2_5":58.3,"no2":17.9,"co":438.0,"o3":78.0,"so2":16.9,"mosquito_risk":7,"arthritis_risk":5,"migraine_risk":7,"frizz_risk":1,"updated_at":"2026-05-24T02:26:50.759910+05:30"},{"city":"Ranchi","state":"Jharkhand","latitude":23.3441,"longitude":85.3096,"temp":26.1,"humidity":57,"rain":0.0,"pressure":934.0,"uv_index":9.25,"wind_gusts":28.1,"aqi":123,"pm10":142.0,"pm2_5":51.3,"no2":20.1,"co":234.0,"o3":69.0,"so2":6.9,"mosquito_risk":4,"arthritis_risk":5,"migraine_risk":7,"frizz_risk":1,"updated_at":"2026-05-24T02:26:50.759915+05:30"},{"city":"Jamshedpur","state":"Jharkhand","latitude":22.8046,"longitude":86.2029,"temp":29.0,"humidity":88,"rain":0.0,"pressure":986.6,"uv_index":9.1,"wind_gusts":42.5,"aqi":152,"pm10":56.1,"pm2_5":46.0,"no2":16.2,"co":429.0,"o3":77.0,"so2":20.2,"mosquito_risk":7,"arthritis_risk":5,"migraine_risk":7,"frizz_risk":1,"updated_at":"2026-05-24T02:26:50.759921+05:30"},{"city":"Dhanbad","state":"Jharkhand","latitude":23.7957,"longitude":86.4304,"temp":29.0,"humidity":88,"rain":0.0,"pressure":975.6,"uv_index":8.9,"wind_gusts":32.4,"aqi":162,"pm10":67.3,"pm2_5":59.0,"no2":39.4,"co":648.0,"o3":61.0,"so2":88.8,"mosquito_risk":7,"arthritis_risk":5,"migraine_risk":7,"frizz_risk":1,"updated_at":"2026-05-24T02:26:50.759926+05:30"},{"city":"Bokaro","state":"Jharkhand","latitude":23.6693,"longitude":86.1511,"temp":29.2,"humidity":68,"rain":0.0,"pressure":979.2,"uv_index":9.05,"wind_gusts":29.5,"aqi":163,"pm10":128.1,"pm2_5":80.6,"no2":51.4,"co":1447.0,"o3":33.0,"so2":63.9,"mosquito_risk":7,"arthritis_risk":5,"migraine_risk":7,"frizz_risk":1,"updated_at":"2026-05-24T02:26:50.759932+05:30"},{"city":"Bhubaneswar","state":"Odisha","latitude":20.2961,"longitude":85.8245,"temp":28.9,"humidity":95,"rain":0.0,"pressure":998.5,"uv_index":9.15,"wind_gusts":44.6,"aqi":84,"pm10":22.8,"pm2_5":17.6,"no2":4.9,"co":252.0,"o3":89.0,"so2":4.0,"mosquito_risk":7,"arthritis_risk":5,"migraine_risk":7,"frizz_risk":1,"updated_at":"2026-05-24T02:26:50.759936+05:30"},{"city":"Cuttack","state":"Odisha","latitude":20.4625,"longitude":85.8828,"temp":28.9,"humidity":95,"rain":0.0,"pressure":1000.3,"uv_index":9.2,"wind_gusts":40.0,"aqi":84,"pm10":22.8,"pm2_5":17.6,"no2":4.9,"co":273.0,"o3":89.0,"so2":4.0,"mosquito_risk":7,"arthritis_risk":5,"migraine_risk":4,"frizz_risk":1,"updated_at":"2026-05-24T02:26:50.759941+05:30"},{"city":"Rourkela","state":"Odisha","latitude":22.2604,"longitude":84.8536,"temp":29.2,"humidity":75,"rain":0.0,"pressure":980.9,"uv_index":9.0,"wind_gusts":54.7,"aqi":156,"pm10":100.1,"pm2_5":64.7,"no2":39.3,"co":306.0,"o3":36.0,"so2":16.2,"mosquito_risk":7,"arthritis_risk":5,"migraine_risk":7,"frizz_risk":1,"updated_at":"2026-05-24T02:26:50.759946+05:30"},{"city":"Raipur","state":"Chhattisgarh","latitude":21.2514,"longitude":81.6296,"temp":32.2,"humidity":26,"rain":0.0,"pressure":970.3,"uv_index":9.0,"wind_gusts":44.3,"aqi":119,"pm10":61.2,"pm2_5":47.4,"no2":48.5,"co":478.0,"o3":21.0,"so2":38.3,"mosquito_risk":0,"arthritis_risk":5,"migraine_risk":7,"frizz_risk":0,"updated_at":"2026-05-24T02:26:50.759951+05:30"},{"city":"Bhilai","state":"Chhattisgarh","latitude":21.1938,"longitude":81.3509,"temp":32.1,"humidity":30,"rain":0.0,"pressure":970.8,"uv_index":9.0,"wind_gusts":31.0,"aqi":102,"pm10":56.9,"pm2_5":43.5,"no2":39.3,"co":623.0,"o3":32.0,"so2":33.5,"mosquito_risk":0,"arthritis_risk":5,"migraine_risk":7,"frizz_risk":0,"updated_at":"2026-05-24T02:26:50.759956+05:30"},{"city":"Guwahati","state":"Assam","latitude":26.1158,"longitude":91.7086,"temp":23.0,"humidity":98,"rain":0.0,"pressure":998.1,"uv_index":8.75,"wind_gusts":23.0,"aqi":56,"pm10":18.5,"pm2_5":12.7,"no2":5.9,"co":340.0,"o3":85.0,"so2":2.6,"mosquito_risk":3,"arthritis_risk":5,"migraine_risk":7,"frizz_risk":1,"updated_at":"2026-05-24T02:26:50.759961+05:30"},{"city":"Agartala","state":"Tripura","latitude":23.8315,"longitude":91.2868,"temp":26.8,"humidity":90,"rain":0.0,"pressure":1003.4,"uv_index":8.35,"wind_gusts":43.2,"aqi":74,"pm10":27.6,"pm2_5":21.5,"no2":6.0,"co":190.0,"o3":58.0,"so2":2.1,"mosquito_risk":7,"arthritis_risk":5,"migraine_risk":4,"frizz_risk":1,"updated_at":"2026-05-24T02:26:50.759966+05:30"},{"city":"Shillong","state":"Meghalaya","latitude":25.5788,"longitude":91.8933,"temp":20.2,"humidity":91,"rain":0.0,"pressure":854.4,"uv_index":8.8,"wind_gusts":52.6,"aqi":42,"pm10":1.9,"pm2_5":1.4,"no2":4.5,"co":191.0,"o3":73.0,"so2":2.4,"mosquito_risk":3,"arthritis_risk":5,"migraine_risk":7,"frizz_risk":1,"updated_at":"2026-05-24T02:26:50.759971+05:30"},{"city":"Imphal","state":"Manipur","latitude":24.817,"longitude":93.9368,"temp":21.1,"humidity":97,"rain":0.1,"pressure":921.5,"uv_index":9.3,"wind_gusts":34.6,"aqi":53,"pm10":8.0,"pm2_5":6.1,"no2":6.3,"co":269.0,"o3":57.0,"so2":2.3,"mosquito_risk":6,"arthritis_risk":5,"migraine_risk":7,"frizz_risk":1,"updated_at":"2026-05-24T02:26:50.759977+05:30"},{"city":"Aizawl","state":"Mizoram","latitude":23.7271,"longitude":92.7176,"temp":19.5,"humidity":93,"rain":0.0,"pressure":890.8,"uv_index":8.5,"wind_gusts":44.6,"aqi":59,"pm10":16.8,"pm2_5":11.5,"no2":1.9,"co":177.0,"o3":57.0,"so2":0.8,"mosquito_risk":3,"arthritis_risk":10,"migraine_risk":7,"frizz_risk":1,"updated_at":"2026-05-24T02:26:50.759982+05:30"},{"city":"Kohima","state":"Nagaland","latitude":25.6701,"longitude":94.1077,"temp":16.3,"humidity":90,"rain":0.0,"pressure":851.7,"uv_index":9.3,"wind_gusts":34.9,"aqi":27,"pm10":9.7,"pm2_5":6.8,"no2":4.2,"co":220.0,"o3":59.0,"so2":1.3,"mosquito_risk":3,"arthritis_risk":10,"migraine_risk":7,"frizz_risk":0,"updated_at":"2026-05-24T02:26:50.759987+05:30"},{"city":"Gangtok","state":"Sikkim","latitude":27.3314,"longitude":88.6138,"temp":16.1,"humidity":83,"rain":0.1,"pressure":834.0,"uv_index":9.15,"wind_gusts":36.7,"aqi":79,"pm10":22.4,"pm2_5":10.7,"no2":2.7,"co":443.0,"o3":138.0,"so2":3.3,"mosquito_risk":6,"arthritis_risk":10,"migraine_risk":7,"frizz_risk":0,"updated_at":"2026-05-24T02:26:50.759992+05:30"},{"city":"Siliguri","state":"West Bengal","latitude":26.7271,"longitude":88.3953,"temp":22.5,"humidity":98,"rain":0.1,"pressure":989.7,"uv_index":8.7,"wind_gusts":24.8,"aqi":78,"pm10":45.3,"pm2_5":24.3,"no2":7.7,"co":407.0,"o3":116.0,"so2":4.7,"mosquito_risk":6,"arthritis_risk":5,"migraine_risk":7,"frizz_risk":1,"updated_at":"2026-05-24T02:26:54.046926+05:30"},{"city":"Durgapur","state":"West Bengal","latitude":23.5204,"longitude":87.3119,"temp":28.7,"humidity":92,"rain":0.0,"pressure":990.7,"uv_index":9.0,"wind_gusts":35.3,"aqi":154,"pm10":42.3,"pm2_5":37.8,"no2":16.6,"co":323.0,"o3":72.0,"so2":26.9,"mosquito_risk":7,"arthritis_risk":5,"migraine_risk":7,"frizz_risk":1,"updated_at":"2026-05-24T02:26:54.046958+05:30"},{"city":"Asansol","state":"West Bengal","latitude":23.6739,"longitude":86.9524,"temp":28.6,"humidity":93,"rain":0.0,"pressure":989.3,"uv_index":8.85,"wind_gusts":33.8,"aqi":152,"pm10":40.0,"pm2_5":36.0,"no2":14.8,"co":418.0,"o3":75.0,"so2":24.4,"mosquito_risk":7,"arthritis_risk":5,"migraine_risk":7,"frizz_risk":1,"updated_at":"2026-05-24T02:26:54.046968+05:30"},{"city":"Pondicherry","state":"Puducherry","latitude":11.9139,"longitude":79.8145,"temp":29.4,"humidity":68,"rain":0.0,"pressure":1006.5,"uv_index":8.8,"wind_gusts":32.8,"aqi":68,"pm10":30.4,"pm2_5":24.4,"no2":12.8,"co":321.0,"o3":80.0,"so2":5.5,"mosquito_risk":7,"arthritis_risk":5,"migraine_risk":4,"frizz_risk":1,"updated_at":"2026-05-24T02:26:54.046975+05:30"},{"city":"Port Blair","state":"Andaman and Nicobar Islands","latitude":11.6234,"longitude":92.7265,"temp":27.1,"humidity":90,"rain":0.0,"pressure":1006.2,"uv_index":8.0,"wind_gusts":33.5,"aqi":33,"pm10":10.3,"pm2_5":5.9,"no2":0.2,"co":114.0,"o3":80.0,"so2":0.5,"mosquito_risk":7,"arthritis_risk":5,"migraine_risk":4,"frizz_risk":1,"updated_at":"2026-05-24T02:26:54.046982+05:30"},{"city":"Haridwar","state":"Uttarakhand","latitude":29.9457,"longitude":78.1642,"temp":24.0,"humidity":48,"rain":0.0,"pressure":967.0,"uv_index":7.55,"wind_gusts":53.3,"aqi":88,"pm10":36.2,"pm2_5":26.5,"no2":16.0,"co":287.0,"o3":71.0,"so2":8.6,"mosquito_risk":0,"arthritis_risk":5,"migraine_risk":7,"frizz_risk":0,"updated_at":"2026-05-24T02:26:54.046988+05:30"},{"city":"Rishikesh","state":"Uttarakhand","latitude":30.0869,"longitude":78.2676,"temp":20.5,"humidity":62,"rain":0.0,"pressure":959.4,"uv_index":7.65,"wind_gusts":48.2,"aqi":87,"pm10":37.4,"pm2_5":23.6,"no2":13.8,"co":315.0,"o3":94.0,"so2":7.7,"mosquito_risk":3,"arthritis_risk":5,"migraine_risk":7,"frizz_risk":0,"updated_at":"2026-05-24T02:26:54.046995+05:30"},{"city":"Nainital","state":"Uttarakhand","latitude":29.3919,"longitude":79.4542,"temp":14.4,"humidity":54,"rain":0.0,"pressure":800.3,"uv_index":8.5,"wind_gusts":45.4,"aqi":103,"pm10":42.0,"pm2_5":22.0,"no2":11.0,"co":247.0,"o3":101.0,"so2":5.9,"mosquito_risk":0,"arthritis_risk":5,"migraine_risk":7,"frizz_risk":0,"updated_at":"2026-05-24T02:26:54.047001+05:30"},{"city":"Mussoorie","state":"Uttarakhand","latitude":30.4599,"longitude":78.0664,"temp":16.3,"humidity":36,"rain":0.0,"pressure":798.8,"uv_index":7.9,"wind_gusts":72.0,"aqi":78,"pm10":48.0,"pm2_5":28.0,"no2":33.9,"co":195.0,"o3":45.0,"so2":5.7,"mosquito_risk":0,"arthritis_risk":5,"migraine_risk":7,"frizz_risk":0,"updated_at":"2026-05-24T02:26:54.047008+05:30"},{"city":"Dharamshala","state":"Himachal Pradesh","latitude":32.219,"longitude":76.3234,"temp":22.1,"humidity":33,"rain":0.0,"pressure":866.2,"uv_index":8.4,"wind_gusts":54.0,"aqi":52,"pm10":25.6,"pm2_5":10.0,"no2":15.4,"co":175.0,"o3":24.0,"so2":0.2,"mosquito_risk":0,"arthritis_risk":5,"migraine_risk":7,"frizz_risk":0,"updated_at":"2026-05-24T02:26:54.047014+05:30"},{"city":"Dalhousie","state":"Himachal Pradesh","latitude":32.5387,"longitude":75.971,"temp":11.7,"humidity":59,"rain":0.0,"pressure":799.0,"uv_index":8.7,"wind_gusts":44.6,"aqi":68,"pm10":42.6,"pm2_5":23.5,"no2":43.6,"co":328.0,"o3":0.0,"so2":1.2,"mosquito_risk":0,"arthritis_risk":5,"migraine_risk":7,"frizz_risk":0,"updated_at":"2026-05-24T02:26:54.047021+05:30"},{"city":"Patiala","state":"Punjab","latitude":30.3398,"longitude":76.3869,"temp":29.2,"humidity":29,"rain":0.0,"pressure":972.9,"uv_index":7.65,"wind_gusts":41.0,"aqi":406,"pm10":470.3,"pm2_5":100.1,"no2":13.4,"co":386.0,"o3":67.0,"so2":7.2,"mosquito_risk":4,"arthritis_risk":5,"migraine_risk":7,"frizz_risk":0,"updated_at":"2026-05-24T02:26:54.047027+05:30"},{"city":"Bhatinda","state":"Punjab","latitude":30.211,"longitude":74.9455,"temp":30.8,"humidity":31,"rain":0.0,"pressure":979.0,"uv_index":8.3,"wind_gusts":29.2,"aqi":90,"pm10":59.1,"pm2_5":35.7,"no2":18.5,"co":346.0,"o3":67.0,"so2":8.4,"mosquito_risk":0,"arthritis_risk":5,"migraine_risk":7,"frizz_risk":0,"updated_at":"2026-05-24T02:26:54.047032+05:30"},{"city":"Rohtak","state":"Haryana","latitude":28.8955,"longitude":76.6066,"temp":30.1,"humidity":24,"rain":0.0,"pressure":976.3,"uv_index":7.75,"wind_gusts":34.2,"aqi":665,"pm10":806.5,"pm2_5":168.6,"no2":29.1,"co":306.0,"o3":50.0,"so2":8.6,"mosquito_risk":0,"arthritis_risk":5,"migraine_risk":7,"frizz_risk":0,"updated_at":"2026-05-24T02:26:54.047037+05:30"},{"city":"Panipat","state":"Haryana","latitude":29.3909,"longitude":76.9635,"temp":30.0,"humidity":25,"rain":0.0,"pressure":974.6,"uv_index":7.6,"wind_gusts":44.3,"aqi":1431,"pm10":1490.1,"pm2_5":246.8,"no2":14.2,"co":293.0,"o3":74.0,"so2":7.9,"mosquito_risk":4,"arthritis_risk":5,"migraine_risk":7,"frizz_risk":0,"updated_at":"2026-05-24T02:26:54.047043+05:30"},{"city":"Mathura","state":"Uttar Pradesh","latitude":27.4924,"longitude":77.6737,"temp":31.3,"humidity":30,"rain":0.0,"pressure":981.4,"uv_index":8.0,"wind_gusts":37.1,"aqi":561,"pm10":265.4,"pm2_5":65.9,"no2":28.6,"co":326.0,"o3":28.0,"so2":5.3,"mosquito_risk":0,"arthritis_risk":5,"migraine_risk":7,"frizz_risk":0,"updated_at":"2026-05-24T02:26:54.047048+05:30"},{"city":"Vrindavan","state":"Uttar Pradesh","latitude":27.5823,"longitude":77.7027,"temp":31.0,"humidity":31,"rain":0.0,"pressure":981.7,"uv_index":8.0,"wind_gusts":36.0,"aqi":561,"pm10":265.4,"pm2_5":65.9,"no2":28.6,"co":325.0,"o3":28.0,"so2":5.3,"mosquito_risk":0,"arthritis_risk":5,"migraine_risk":7,"frizz_risk":0,"updated_at":"2026-05-24T02:26:54.047053+05:30"},{"city":"Ayodhya","state":"Uttar Pradesh","latitude":26.7922,"longitude":82.1998,"temp":30.4,"humidity":37,"rain":0.0,"pressure":988.9,"uv_index":8.35,"wind_gusts":32.4,"aqi":154,"pm10":285.9,"pm2_5":82.4,"no2":17.2,"co":256.0,"o3":70.0,"so2":10.7,"mosquito_risk":0,"arthritis_risk":5,"migraine_risk":7,"frizz_risk":0,"updated_at":"2026-05-24T02:26:54.047058+05:30"},{"city":"Ratlam","state":"Madhya Pradesh","latitude":23.3315,"longitude":75.0367,"temp":30.1,"humidity":49,"rain":0.0,"pressure":954.3,"uv_index":8.55,"wind_gusts":49.7,"aqi":76,"pm10":60.5,"pm2_5":30.0,"no2":4.5,"co":169.0,"o3":74.0,"so2":6.3,"mosquito_risk":0,"arthritis_risk":5,"migraine_risk":7,"frizz_risk":1,"updated_at":"2026-05-24T02:26:54.047064+05:30"},{"city":"Sagar","state":"Madhya Pradesh","latitude":23.8388,"longitude":78.7378,"temp":31.5,"humidity":29,"rain":0.0,"pressure":947.7,"uv_index":8.75,"wind_gusts":50.8,"aqi":75,"pm10":57.2,"pm2_5":32.0,"no2":10.7,"co":220.0,"o3":61.0,"so2":4.3,"mosquito_risk":0,"arthritis_risk":5,"migraine_risk":7,"frizz_risk":0,"updated_at":"2026-05-24T02:26:54.047069+05:30"},{"city":"Satna","state":"Madhya Pradesh","latitude":24.6005,"longitude":80.8322,"temp":32.8,"humidity":30,"rain":0.0,"pressure":967.6,"uv_index":8.8,"wind_gusts":48.2,"aqi":107,"pm10":93.1,"pm2_5":43.1,"no2":17.6,"co":207.0,"o3":48.0,"so2":3.8,"mosquito_risk":0,"arthritis_risk":5,"migraine_risk":7,"frizz_risk":0,"updated_at":"2026-05-24T02:26:54.047075+05:30"},{"city":"Akola","state":"Maharashtra","latitude":20.7002,"longitude":77.0082,"temp":33.3,"humidity":44,"rain":0.0,"pressure":973.5,"uv_index":8.85,"wind_gusts":52.2,"aqi":64,"pm10":25.1,"pm2_5":20.8,"no2":7.3,"co":190.0,"o3":91.0,"so2":11.9,"mosquito_risk":0,"arthritis_risk":5,"migraine_risk":7,"frizz_risk":1,"updated_at":"2026-05-24T02:26:54.047082+05:30"},{"city":"Amravati","state":"Maharashtra","latitude":20.9374,"longitude":77.7796,"temp":33.2,"humidity":37,"rain":0.0,"pressure":965.7,"uv_index":8.85,"wind_gusts":50.4,"aqi":66,"pm10":23.5,"pm2_5":18.7,"no2":8.5,"co":174.0,"o3":77.0,"so2":8.8,"mosquito_risk":0,"arthritis_risk":5,"migraine_risk":7,"frizz_risk":1,"updated_at":"2026-05-24T02:26:54.047088+05:30"},{"city":"Latur","state":"Maharashtra","latitude":18.4088,"longitude":76.5604,"temp":29.4,"humidity":58,"rain":0.0,"pressure":939.6,"uv_index":9.05,"wind_gusts":40.3,"aqi":65,"pm10":21.8,"pm2_5":20.7,"no2":15.2,"co":231.0,"o3":50.0,"so2":3.4,"mosquito_risk":4,"arthritis_risk":5,"migraine_risk":7,"frizz_risk":1,"updated_at":"2026-05-24T02:26:54.047094+05:30"},{"city":"Nanded","state":"Maharashtra","latitude":19.1383,"longitude":77.3091,"temp":33.3,"humidity":38,"rain":0.0,"pressure":967.2,"uv_index":8.85,"wind_gusts":45.7,"aqi":67,"pm10":25.3,"pm2_5":21.2,"no2":5.9,"co":183.0,"o3":82.0,"so2":3.9,"mosquito_risk":0,"arthritis_risk":5,"migraine_risk":7,"frizz_risk":1,"updated_at":"2026-05-24T02:26:54.047099+05:30"},{"city":"Gulbarga","state":"Karnataka","latitude":17.3297,"longitude":76.8343,"temp":28.5,"humidity":63,"rain":0.0,"pressure":958.6,"uv_index":9.05,"wind_gusts":54.4,"aqi":56,"pm10":17.3,"pm2_5":16.2,"no2":13.3,"co":235.0,"o3":56.0,"so2":2.6,"mosquito_risk":7,"arthritis_risk":5,"migraine_risk":7,"frizz_risk":1,"updated_at":"2026-05-24T02:26:54.047105+05:30"},{"city":"Bidar","state":"Karnataka","latitude":17.9104,"longitude":77.5199,"temp":28.6,"humidity":57,"rain":0.0,"pressure":934.7,"uv_index":9.1,"wind_gusts":43.6,"aqi":76,"pm10":22.5,"pm2_5":20.3,"no2":9.0,"co":237.0,"o3":81.0,"so2":3.3,"mosquito_risk":4,"arthritis_risk":5,"migraine_risk":7,"frizz_risk":1,"updated_at":"2026-05-24T02:26:54.047110+05:30"},{"city":"Hospet","state":"Karnataka","latitude":15.2689,"longitude":76.3909,"temp":25.2,"humidity":90,"rain":0.0,"pressure":956.7,"uv_index":6.5,"wind_gusts":46.4,"aqi":31,"pm10":5.9,"pm2_5":5.3,"no2":8.8,"co":196.0,"o3":36.0,"so2":1.4,"mosquito_risk":7,"arthritis_risk":5,"migraine_risk":7,"frizz_risk":1,"updated_at":"2026-05-24T02:26:54.047115+05:30"},{"city":"Tirupur","state":"Tamil Nadu","latitude":11.1085,"longitude":77.3411,"temp":25.4,"humidity":88,"rain":0.0,"pressure":975.4,"uv_index":6.35,"wind_gusts":51.5,"aqi":41,"pm10":16.4,"pm2_5":14.0,"no2":17.7,"co":184.0,"o3":35.0,"so2":3.5,"mosquito_risk":7,"arthritis_risk":5,"migraine_risk":7,"frizz_risk":1,"updated_at":"2026-05-24T02:26:54.047120+05:30"},{"city":"Alappuzha","state":"Kerala","latitude":9.4981,"longitude":76.3388,"temp":26.4,"humidity":94,"rain":0.1,"pressure":1010.8,"uv_index":8.65,"wind_gusts":34.2,"aqi":50,"pm10":18.5,"pm2_5":13.8,"no2":12.4,"co":97.0,"o3":45.0,"so2":3.4,"mosquito_risk":10,"arthritis_risk":0,"migraine_risk":4,"frizz_risk":1,"updated_at":"2026-05-24T02:26:54.047126+05:30"},{"city":"Munnar","state":"Kerala","latitude":10.0889,"longitude":77.0595,"temp":17.1,"humidity":99,"rain":0.0,"pressure":857.8,"uv_index":7.7,"wind_gusts":32.8,"aqi":29,"pm10":9.5,"pm2_5":8.8,"no2":8.3,"co":133.0,"o3":32.0,"so2":1.3,"mosquito_risk":3,"arthritis_risk":10,"migraine_risk":7,"frizz_risk":1,"updated_at":"2026-05-24T02:26:54.047131+05:30"},{"city":"Silchar","state":"Assam","latitude":24.8333,"longitude":92.7789,"temp":24.5,"humidity":99,"rain":0.0,"pressure":1003.3,"uv_index":8.95,"wind_gusts":36.4,"aqi":54,"pm10":27.0,"pm2_5":15.3,"no2":4.6,"co":259.0,"o3":75.0,"so2":2.1,"mosquito_risk":3,"arthritis_risk":5,"migraine_risk":4,"frizz_risk":1,"updated_at":"2026-05-24T02:26:54.047137+05:30"},{"city":"Dibrugarh","state":"Assam","latitude":27.4728,"longitude":94.912,"temp":22.9,"humidity":99,"rain":0.3,"pressure":992.8,"uv_index":7.3,"wind_gusts":37.1,"aqi":52,"pm10":15.4,"pm2_5":11.4,"no2":5.9,"co":238.0,"o3":94.0,"so2":1.7,"mosquito_risk":6,"arthritis_risk":5,"migraine_risk":7,"frizz_risk":1,"updated_at":"2026-05-24T02:26:54.047143+05:30"}]