[{"city":"Delhi","state":"Delhi","latitude":28.6139,"longitude":77.209,"temp":21.5,"humidity":79,"rain":0.0,"pressure":985.6,"uv_index":5.6,"wind_gusts":35.3,"aqi":127,"pm10":159.3,"pm2_5":57.7,"mosquito_risk":3,"arthritis_risk":5,"migraine_risk":3,"frizz_risk":1,"updated_at":"2026-04-04T21:06:18.756483+05:30"},{"city":"Mumbai","state":"Maharashtra","latitude":19.076,"longitude":72.8777,"temp":27.5,"humidity":78,"rain":0.0,"pressure":1010.3,"uv_index":7.9,"wind_gusts":20.9,"aqi":72,"pm10":50.2,"pm2_5":18.7,"mosquito_risk":7,"arthritis_risk":0,"migraine_risk":4,"frizz_risk":1,"updated_at":"2026-04-04T21:06:18.756527+05:30"},{"city":"Bangalore","state":"Karnataka","latitude":12.9716,"longitude":77.5946,"temp":25.2,"humidity":70,"rain":0.0,"pressure":912.9,"uv_index":9.1,"wind_gusts":24.5,"aqi":130,"pm10":58.9,"pm2_5":55.8,"mosquito_risk":7,"arthritis_risk":5,"migraine_risk":7,"frizz_risk":1,"updated_at":"2026-04-04T21:06:18.756543+05:30"},{"city":"Hyderabad","state":"Telangana","latitude":17.385,"longitude":78.4867,"temp":27.4,"humidity":64,"rain":0.0,"pressure":954.3,"uv_index":7.95,"wind_gusts":43.9,"aqi":156,"pm10":57.7,"pm2_5":49.6,"mosquito_risk":7,"arthritis_risk":5,"migraine_risk":7,"frizz_risk":1,"updated_at":"2026-04-04T21:06:18.756553+05:30"},{"city":"Chennai","state":"Tamil Nadu","latitude":13.0827,"longitude":80.2707,"temp":29.1,"humidity":80,"rain":0.0,"pressure":1007.4,"uv_index":8.75,"wind_gusts":31.0,"aqi":82,"pm10":16.9,"pm2_5":13.3,"mosquito_risk":7,"arthritis_risk":5,"migraine_risk":4,"frizz_risk":1,"updated_at":"2026-04-04T21:06:18.756562+05:30"},{"city":"Kolkata","state":"West Bengal","latitude":22.5726,"longitude":88.3639,"temp":28.5,"humidity":81,"rain":0.0,"pressure":1005.0,"uv_index":8.55,"wind_gusts":20.5,"aqi":186,"pm10":58.9,"pm2_5":55.2,"mosquito_risk":7,"arthritis_risk":5,"migraine_risk":4,"frizz_risk":1,"updated_at":"2026-04-04T21:06:18.756571+05:30"},{"city":"Pune","state":"Maharashtra","latitude":18.5204,"longitude":73.8567,"temp":24.8,"humidity":68,"rain":0.0,"pressure":949.6,"uv_index":8.5,"wind_gusts":40.0,"aqi":134,"pm10":27.4,"pm2_5":23.3,"mosquito_risk":3,"arthritis_risk":5,"migraine_risk":7,"frizz_risk":1,"updated_at":"2026-04-04T21:06:18.756583+05:30"},{"city":"Ahmedabad","state":"Gujarat","latitude":23.0225,"longitude":72.5714,"temp":28.2,"humidity":40,"rain":0.0,"pressure":1003.4,"uv_index":7.5,"wind_gusts":24.8,"aqi":68,"pm10":22.9,"pm2_5":15.5,"mosquito_risk":4,"arthritis_risk":5,"migraine_risk":4,"frizz_risk":0,"updated_at":"2026-04-04T21:06:18.756591+05:30"},{"city":"Jaipur","state":"Rajasthan","latitude":26.9124,"longitude":75.7873,"temp":22.7,"humidity":72,"rain":0.0,"pressure":961.5,"uv_index":7.45,"wind_gusts":41.4,"aqi":81,"pm10":70.1,"pm2_5":23.9,"mosquito_risk":3,"arthritis_risk":5,"migraine_risk":7,"frizz_risk":1,"updated_at":"2026-04-04T21:06:18.756599+05:30"},{"city":"Lucknow","state":"Uttar Pradesh","latitude":26.8467,"longitude":80.9462,"temp":25.4,"humidity":64,"rain":0.0,"pressure":995.5,"uv_index":6.3,"wind_gusts":52.2,"aqi":155,"pm10":231.4,"pm2_5":57.4,"mosquito_risk":7,"arthritis_risk":5,"migraine_risk":7,"frizz_risk":1,"updated_at":"2026-04-04T21:06:18.756607+05:30"},{"city":"Kanpur","state":"Uttar Pradesh","latitude":26.4499,"longitude":80.3319,"temp":23.7,"humidity":75,"rain":0.0,"pressure":994.4,"uv_index":6.75,"wind_gusts":39.6,"aqi":280,"pm10":462.9,"pm2_5":75.2,"mosquito_risk":3,"arthritis_risk":5,"migraine_risk":7,"frizz_risk":1,"updated_at":"2026-04-04T21:06:18.756615+05:30"},{"city":"Chandigarh","state":"Chandigarh","latitude":30.7333,"longitude":76.7794,"temp":19.6,"humidity":89,"rain":0.0,"pressure":971.3,"uv_index":5.9,"wind_gusts":28.8,"aqi":91,"pm10":84.3,"pm2_5":43.4,"mosquito_risk":3,"arthritis_risk":10,"migraine_risk":3,"frizz_risk":1,"updated_at":"2026-04-04T21:06:18.756623+05:30"},{"city":"Srinagar","state":"Jammu and Kashmir","latitude":34.0837,"longitude":74.7973,"temp":8.2,"humidity":84,"rain":0.0,"pressure":840.9,"uv_index":5.25,"wind_gusts":29.5,"aqi":63,"pm10":37.0,"pm2_5":34.7,"mosquito_risk":3,"arthritis_risk":10,"migraine_risk":3,"frizz_risk":0,"updated_at":"2026-04-04T21:06:18.756630+05:30"},{"city":"Jammu","state":"Jammu and Kashmir","latitude":32.7266,"longitude":74.857,"temp":18.4,"humidity":81,"rain":0.0,"pressure":975.4,"uv_index":6.55,"wind_gusts":46.4,"aqi":63,"pm10":110.1,"pm2_5":46.6,"mosquito_risk":3,"arthritis_risk":10,"migraine_risk":7,"frizz_risk":0,"updated_at":"2026-04-04T21:06:18.756638+05:30"},{"city":"Amritsar","state":"Punjab","latitude":31.634,"longitude":74.8723,"temp":17.5,"humidity":95,"rain":0.0,"pressure":984.0,"uv_index":6.15,"wind_gusts":32.0,"aqi":84,"pm10":85.2,"pm2_5":42.5,"mosquito_risk":3,"arthritis_risk":10,"migraine_risk":7,"frizz_risk":1,"updated_at":"2026-04-04T21:06:18.756645+05:30"},{"city":"Ludhiana","state":"Punjab","latitude":30.901,"longitude":75.8573,"temp":19.3,"humidity":87,"rain":0.0,"pressure":981.8,"uv_index":6.7,"wind_gusts":28.4,"aqi":120,"pm10":78.2,"pm2_5":36.9,"mosquito_risk":3,"arthritis_risk":10,"migraine_risk":7,"frizz_risk":1,"updated_at":"2026-04-04T21:06:18.756653+05:30"},{"city":"Jalandhar","state":"Punjab","latitude":31.326,"longitude":75.5762,"temp":18.3,"humidity":90,"rain":0.0,"pressure":983.1,"uv_index":6.75,"wind_gusts":34.2,"aqi":102,"pm10":93.8,"pm2_5":33.1,"mosquito_risk":3,"arthritis_risk":10,"migraine_risk":7,"frizz_risk":1,"updated_at":"2026-04-04T21:06:18.756661+05:30"},{"city":"Dehradun","state":"Uttarakhand","latitude":30.6284,"longitude":78.0322,"temp":12.9,"humidity":67,"rain":0.0,"pressure":829.7,"uv_index":3.85,"wind_gusts":34.2,"aqi":49,"pm10":24.2,"pm2_5":11.8,"mosquito_risk":3,"arthritis_risk":5,"migraine_risk":3,"frizz_risk":0,"updated_at":"2026-04-04T21:06:18.756668+05:30"},{"city":"Shimla","state":"Himachal Pradesh","latitude":31.1048,"longitude":77.1734,"temp":10.5,"humidity":94,"rain":0.0,"pressure":783.2,"uv_index":5.55,"wind_gusts":49.7,"aqi":54,"pm10":23.3,"pm2_5":12.9,"mosquito_risk":3,"arthritis_risk":10,"migraine_risk":3,"frizz_risk":0,"updated_at":"2026-04-04T21:06:18.756675+05:30"},{"city":"Manali","state":"Himachal Pradesh","latitude":32.2396,"longitude":77.1887,"temp":13.5,"humidity":55,"rain":0.0,"pressure":818.0,"uv_index":7.2,"wind_gusts":31.3,"aqi":71,"pm10":15.3,"pm2_5":6.3,"mosquito_risk":0,"arthritis_risk":5,"migraine_risk":7,"frizz_risk":0,"updated_at":"2026-04-04T21:06:18.756682+05:30"},{"city":"Gurgaon","state":"Haryana","latitude":28.4595,"longitude":77.0266,"temp":19.7,"humidity":88,"rain":0.0,"pressure":983.9,"uv_index":6.2,"wind_gusts":28.8,"aqi":390,"pm10":94.5,"pm2_5":46.2,"mosquito_risk":3,"arthritis_risk":10,"migraine_risk":7,"frizz_risk":1,"updated_at":"2026-04-04T21:06:18.756689+05:30"},{"city":"Noida","state":"Uttar Pradesh","latitude":28.5355,"longitude":77.391,"temp":22.4,"humidity":79,"rain":0.0,"pressure":987.1,"uv_index":5.7,"wind_gusts":29.9,"aqi":390,"pm10":94.5,"pm2_5":46.2,"mosquito_risk":3,"arthritis_risk":5,"migraine_risk":3,"frizz_risk":1,"updated_at":"2026-04-04T21:06:18.756696+05:30"},{"city":"Ghaziabad","state":"Uttar Pradesh","latitude":28.6692,"longitude":77.4538,"temp":21.9,"humidity":86,"rain":0.0,"pressure":985.0,"uv_index":5.55,"wind_gusts":29.9,"aqi":140,"pm10":212.8,"pm2_5":58.2,"mosquito_risk":3,"arthritis_risk":5,"migraine_risk":3,"frizz_risk":1,"updated_at":"2026-04-04T21:06:18.756703+05:30"},{"city":"Faridabad","state":"Haryana","latitude":28.4089,"longitude":77.3178,"temp":20.1,"humidity":84,"rain":0.0,"pressure":986.6,"uv_index":5.8,"wind_gusts":29.5,"aqi":390,"pm10":94.5,"pm2_5":46.2,"mosquito_risk":3,"arthritis_risk":5,"migraine_risk":3,"frizz_risk":1,"updated_at":"2026-04-04T21:06:18.756710+05:30"},{"city":"Meerut","state":"Uttar Pradesh","latitude":28.9845,"longitude":77.7064,"temp":20.7,"humidity":90,"rain":0.0,"pressure":983.6,"uv_index":6.45,"wind_gusts":46.4,"aqi":140,"pm10":212.8,"pm2_5":58.2,"mosquito_risk":3,"arthritis_risk":5,"migraine_risk":7,"frizz_risk":1,"updated_at":"2026-04-04T21:06:18.756717+05:30"},{"city":"Agra","state":"Uttar Pradesh","latitude":27.1767,"longitude":78.0081,"temp":22.1,"humidity":82,"rain":0.0,"pressure":990.1,"uv_index":6.8,"wind_gusts":35.6,"aqi":502,"pm10":171.8,"pm2_5":44.8,"mosquito_risk":3,"arthritis_risk":5,"migraine_risk":7,"frizz_risk":1,"updated_at":"2026-04-04T21:06:18.756724+05:30"},{"city":"Varanasi","state":"Uttar Pradesh","latitude":25.3176,"longitude":82.9739,"temp":27.6,"humidity":69,"rain":0.0,"pressure":998.3,"uv_index":6.05,"wind_gusts":24.8,"aqi":75,"pm10":42.1,"pm2_5":36.0,"mosquito_risk":7,"arthritis_risk":5,"migraine_risk":7,"frizz_risk":1,"updated_at":"2026-04-04T21:06:18.756733+05:30"},{"city":"Prayagraj","state":"Uttar Pradesh","latitude":25.4358,"longitude":81.8463,"temp":25.3,"humidity":78,"rain":0.0,"pressure":997.6,"uv_index":5.45,"wind_gusts":37.1,"aqi":88,"pm10":90.6,"pm2_5":43.0,"mosquito_risk":7,"arthritis_risk":5,"migraine_risk":3,"frizz_risk":1,"updated_at":"2026-04-04T21:06:18.756741+05:30"},{"city":"Gorakhpur","state":"Uttar Pradesh","latitude":26.7606,"longitude":83.3732,"temp":29.0,"humidity":45,"rain":0.0,"pressure":996.7,"uv_index":6.8,"wind_gusts":37.1,"aqi":98,"pm10":79.9,"pm2_5":40.9,"mosquito_risk":4,"arthritis_risk":5,"migraine_risk":7,"frizz_risk":0,"updated_at":"2026-04-04T21:06:18.756750+05:30"},{"city":"Bareilly","state":"Uttar Pradesh","latitude":28.367,"longitude":79.4304,"temp":23.8,"humidity":76,"rain":0.0,"pressure":988.3,"uv_index":5.35,"wind_gusts":24.5,"aqi":103,"pm10":37.6,"pm2_5":27.1,"mosquito_risk":3,"arthritis_risk":5,"migraine_risk":3,"frizz_risk":1,"updated_at":"2026-04-04T21:06:18.756758+05:30"},{"city":"Aligarh","state":"Uttar Pradesh","latitude":27.8974,"longitude":78.088,"temp":22.0,"humidity":82,"rain":0.0,"pressure":987.6,"uv_index":5.3,"wind_gusts":40.7,"aqi":567,"pm10":957.4,"pm2_5":130.9,"mosquito_risk":3,"arthritis_risk":5,"migraine_risk":3,"frizz_risk":1,"updated_at":"2026-04-04T21:06:18.756764+05:30"},{"city":"Moradabad","state":"Uttar Pradesh","latitude":28.8386,"longitude":78.7733,"temp":21.1,"humidity":88,"rain":0.0,"pressure":985.4,"uv_index":6.0,"wind_gusts":31.0,"aqi":119,"pm10":57.2,"pm2_5":27.0,"mosquito_risk":3,"arthritis_risk":5,"migraine_risk":3,"frizz_risk":1,"updated_at":"2026-04-04T21:06:18.756770+05:30"},{"city":"Saharanpur","state":"Uttar Pradesh","latitude":29.9637,"longitude":77.546,"temp":21.3,"humidity":84,"rain":0.0,"pressure":977.7,"uv_index":5.6,"wind_gusts":29.5,"aqi":149,"pm10":75.7,"pm2_5":33.2,"mosquito_risk":3,"arthritis_risk":5,"migraine_risk":3,"frizz_risk":1,"updated_at":"2026-04-04T21:06:18.756779+05:30"},{"city":"Jhansi","state":"Uttar Pradesh","latitude":25.4484,"longitude":78.5685,"temp":26.3,"humidity":60,"rain":0.0,"pressure":980.1,"uv_index":7.15,"wind_gusts":45.0,"aqi":83,"pm10":28.6,"pm2_5":15.5,"mosquito_risk":4,"arthritis_risk":5,"migraine_risk":7,"frizz_risk":1,"updated_at":"2026-04-04T21:06:21.977361+05:30"},{"city":"Surat","state":"Gujarat","latitude":21.1702,"longitude":72.8311,"temp":26.8,"humidity":80,"rain":0.0,"pressure":1008.4,"uv_index":7.6,"wind_gusts":25.6,"aqi":77,"pm10":42.8,"pm2_5":24.9,"mosquito_risk":7,"arthritis_risk":0,"migraine_risk":4,"frizz_risk":1,"updated_at":"2026-04-04T21:06:21.977395+05:30"},{"city":"Vadodara","state":"Gujarat","latitude":22.3072,"longitude":73.1812,"temp":27.9,"humidity":59,"rain":0.0,"pressure":1005.4,"uv_index":7.85,"wind_gusts":25.9,"aqi":77,"pm10":50.5,"pm2_5":27.2,"mosquito_risk":4,"arthritis_risk":5,"migraine_risk":4,"frizz_risk":1,"updated_at":"2026-04-04T21:06:21.977405+05:30"},{"city":"Rajkot","state":"Gujarat","latitude":22.3039,"longitude":70.8022,"temp":26.0,"humidity":34,"rain":0.0,"pressure":996.1,"uv_index":7.55,"wind_gusts":34.9,"aqi":107,"pm10":21.0,"pm2_5":14.4,"mosquito_risk":4,"arthritis_risk":5,"migraine_risk":7,"frizz_risk":0,"updated_at":"2026-04-04T21:06:21.977413+05:30"},{"city":"Thane","state":"Maharashtra","latitude":19.2183,"longitude":72.9781,"temp":26.6,"humidity":80,"rain":0.0,"pressure":1009.7,"uv_index":7.9,"wind_gusts":36.7,"aqi":72,"pm10":50.2,"pm2_5":18.7,"mosquito_risk":7,"arthritis_risk":0,"migraine_risk":4,"frizz_risk":1,"updated_at":"2026-04-04T21:06:21.977420+05:30"},{"city":"Nagpur","state":"Maharashtra","latitude":21.1458,"longitude":79.0882,"temp":25.2,"humidity":74,"rain":0.0,"pressure":974.7,"uv_index":7.65,"wind_gusts":35.3,"aqi":144,"pm10":61.2,"pm2_5":56.1,"mosquito_risk":7,"arthritis_risk":5,"migraine_risk":7,"frizz_risk":1,"updated_at":"2026-04-04T21:06:21.977427+05:30"},{"city":"Nashik","state":"Maharashtra","latitude":19.9975,"longitude":73.7898,"temp":23.3,"humidity":75,"rain":0.0,"pressure":946.9,"uv_index":8.15,"wind_gusts":37.4,"aqi":57,"pm10":25.6,"pm2_5":11.3,"mosquito_risk":3,"arthritis_risk":5,"migraine_risk":7,"frizz_risk":1,"updated_at":"2026-04-04T21:06:21.977434+05:30"},{"city":"Aurangabad","state":"Maharashtra","latitude":19.8762,"longitude":75.3433,"temp":27.2,"humidity":53,"rain":0.0,"pressure":944.7,"uv_index":8.85,"wind_gusts":36.7,"aqi":83,"pm10":18.5,"pm2_5":13.2,"mosquito_risk":4,"arthritis_risk":5,"migraine_risk":7,"frizz_risk":1,"updated_at":"2026-04-04T21:06:21.977441+05:30"},{"city":"Solapur","state":"Maharashtra","latitude":17.6599,"longitude":75.9064,"temp":30.1,"humidity":49,"rain":0.0,"pressure":956.9,"uv_index":8.9,"wind_gusts":22.0,"aqi":128,"pm10":40.5,"pm2_5":34.1,"mosquito_risk":0,"arthritis_risk":5,"migraine_risk":7,"frizz_risk":1,"updated_at":"2026-04-04T21:06:21.977448+05:30"},{"city":"Kolhapur","state":"Maharashtra","latitude":16.705,"longitude":74.2433,"temp":23.4,"humidity":73,"rain":0.0,"pressure":948.9,"uv_index":8.95,"wind_gusts":44.6,"aqi":85,"pm10":27.1,"pm2_5":21.0,"mosquito_risk":3,"arthritis_risk":5,"migraine_risk":7,"frizz_risk":1,"updated_at":"2026-04-04T21:06:21.977455+05:30"},{"city":"Goa","state":"Goa","latitude":15.2993,"longitude":74.124,"temp":27.8,"humidity":75,"rain":0.0,"pressure":999.8,"uv_index":8.15,"wind_gusts":36.4,"aqi":65,"pm10":37.1,"pm2_5":17.3,"mosquito_risk":7,"arthritis_risk":5,"migraine_risk":7,"frizz_risk":1,"updated_at":"2026-04-04T21:06:21.977462+05:30"},{"city":"Jodhpur","state":"Rajasthan","latitude":26.2389,"longitude":73.0243,"temp":25.9,"humidity":38,"rain":0.0,"pressure":984.6,"uv_index":7.6,"wind_gusts":28.4,"aqi":97,"pm10":137.4,"pm2_5":23.6,"mosquito_risk":4,"arthritis_risk":5,"migraine_risk":7,"frizz_risk":0,"updated_at":"2026-04-04T21:06:21.977469+05:30"},{"city":"Udaipur","state":"Rajasthan","latitude":24.5854,"longitude":73.7125,"temp":22.9,"humidity":42,"rain":0.0,"pressure":947.6,"uv_index":7.5,"wind_gusts":37.8,"aqi":63,"pm10":12.9,"pm2_5":7.4,"mosquito_risk":0,"arthritis_risk":5,"migraine_risk":7,"frizz_risk":0,"updated_at":"2026-04-04T21:06:21.977476+05:30"},{"city":"Kota","state":"Rajasthan","latitude":25.2138,"longitude":75.8648,"temp":26.1,"humidity":58,"rain":0.0,"pressure":979.4,"uv_index":7.8,"wind_gusts":34.2,"aqi":67,"pm10":32.1,"pm2_5":15.7,"mosquito_risk":4,"arthritis_risk":5,"migraine_risk":7,"frizz_risk":1,"updated_at":"2026-04-04T21:06:21.977482+05:30"},{"city":"Bikaner","state":"Rajasthan","latitude":28.0229,"longitude":73.3119,"temp":24.5,"humidity":43,"rain":0.0,"pressure":984.2,"uv_index":7.15,"wind_gusts":30.2,"aqi":93,"pm10":21.7,"pm2_5":11.0,"mosquito_risk":0,"arthritis_risk":5,"migraine_risk":7,"frizz_risk":0,"updated_at":"2026-04-04T21:06:21.977488+05:30"},{"city":"Ajmer","state":"Rajasthan","latitude":26.4499,"longitude":74.6399,"temp":23.8,"humidity":45,"rain":0.0,"pressure":955.9,"uv_index":7.65,"wind_gusts":36.0,"aqi":74,"pm10":25.1,"pm2_5":12.6,"mosquito_risk":0,"arthritis_risk":5,"migraine_risk":7,"frizz_risk":0,"updated_at":"2026-04-04T21:06:21.977495+05:30"},{"city":"Gwalior","state":"Madhya Pradesh","latitude":26.2183,"longitude":78.1828,"temp":23.0,"humidity":75,"rain":0.0,"pressure":985.5,"uv_index":7.3,"wind_gusts":29.5,"aqi":108,"pm10":39.9,"pm2_5":17.2,"mosquito_risk":3,"arthritis_risk":5,"migraine_risk":7,"frizz_risk":1,"updated_at":"2026-04-04T21:06:21.977501+05:30"},{"city":"Indore","state":"Madhya Pradesh","latitude":22.7196,"longitude":75.8577,"temp":23.7,"humidity":75,"rain":0.0,"pressure":948.9,"uv_index":8.35,"wind_gusts":38.9,"aqi":64,"pm10":27.9,"pm2_5":17.3,"mosquito_risk":3,"arthritis_risk":5,"migraine_risk":7,"frizz_risk":1,"updated_at":"2026-04-04T21:06:21.977507+05:30"},{"city":"Bhopal","state":"Madhya Pradesh","latitude":23.2599,"longitude":77.4126,"temp":24.6,"humidity":68,"rain":0.0,"pressure":954.8,"uv_index":8.3,"wind_gusts":34.6,"aqi":70,"pm10":29.7,"pm2_5":20.1,"mosquito_risk":3,"arthritis_risk":5,"migraine_risk":7,"frizz_risk":1,"updated_at":"2026-04-04T21:06:21.977513+05:30"},{"city":"Jabalpur","state":"Madhya Pradesh","latitude":23.1815,"longitude":79.9864,"temp":27.1,"humidity":61,"rain":0.0,"pressure":963.1,"uv_index":6.8,"wind_gusts":30.6,"aqi":76,"pm10":24.2,"pm2_5":21.2,"mosquito_risk":7,"arthritis_risk":5,"migraine_risk":7,"frizz_risk":1,"updated_at":"2026-04-04T21:06:21.977519+05:30"},{"city":"Ujjain","state":"Madhya Pradesh","latitude":23.1765,"longitude":75.7885,"temp":24.2,"humidity":69,"rain":0.0,"pressure":954.7,"uv_index":8.25,"wind_gusts":33.8,"aqi":64,"pm10":41.2,"pm2_5":22.2,"mosquito_risk":3,"arthritis_risk":5,"migraine_risk":7,"frizz_risk":1,"updated_at":"2026-04-04T21:06:21.977527+05:30"},{"city":"Visakhapatnam","state":"Andhra Pradesh","latitude":17.6868,"longitude":83.2185,"temp":27.5,"humidity":81,"rain":0.0,"pressure":1004.5,"uv_index":8.4,"wind_gusts":36.7,"aqi":60,"pm10":16.7,"pm2_5":13.5,"mosquito_risk":7,"arthritis_risk":5,"migraine_risk":4,"frizz_risk":1,"updated_at":"2026-04-04T21:06:21.977533+05:30"},{"city":"Vijayawada","state":"Andhra Pradesh","latitude":16.5062,"longitude":80.648,"temp":28.9,"humidity":62,"rain":0.0,"pressure":1002.9,"uv_index":8.8,"wind_gusts":19.8,"aqi":68,"pm10":26.8,"pm2_5":26.0,"mosquito_risk":7,"arthritis_risk":5,"migraine_risk":4,"frizz_risk":1,"updated_at":"2026-04-04T21:06:21.977540+05:30"},{"city":"Guntur","state":"Andhra Pradesh","latitude":16.3067,"longitude":80.4365,"temp":28.2,"humidity":67,"rain":0.0,"pressure":1004.1,"uv_index":8.6,"wind_gusts":30.6,"aqi":70,"pm10":31.4,"pm2_5":29.9,"mosquito_risk":7,"arthritis_risk":5,"migraine_risk":4,"frizz_risk":1,"updated_at":"2026-04-04T21:06:21.977546+05:30"},{"city":"Nellore","state":"Andhra Pradesh","latitude":14.4426,"longitude":79.9865,"temp":27.8,"humidity":88,"rain":0.0,"pressure":1006.3,"uv_index":8.75,"wind_gusts":31.0,"aqi":82,"pm10":17.9,"pm2_5":15.0,"mosquito_risk":7,"arthritis_risk":5,"migraine_risk":4,"frizz_risk":1,"updated_at":"2026-04-04T21:06:21.977553+05:30"},{"city":"Kurnool","state":"Andhra Pradesh","latitude":15.8281,"longitude":78.0373,"temp":32.6,"humidity":42,"rain":0.0,"pressure":976.7,"uv_index":8.15,"wind_gusts":22.0,"aqi":130,"pm10":27.8,"pm2_5":23.1,"mosquito_risk":0,"arthritis_risk":5,"migraine_risk":7,"frizz_risk":1,"updated_at":"2026-04-04T21:06:21.977560+05:30"},{"city":"Kakinada","state":"Andhra Pradesh","latitude":16.9891,"longitude":82.2475,"temp":27.6,"humidity":72,"rain":0.0,"pressure":1008.2,"uv_index":8.5,"wind_gusts":34.6,"aqi":36,"pm10":13.6,"pm2_5":10.3,"mosquito_risk":7,"arthritis_risk":0,"migraine_risk":4,"frizz_risk":1,"updated_at":"2026-04-04T21:06:21.977567+05:30"},{"city":"Tirupati","state":"Andhra Pradesh","latitude":13.6288,"longitude":79.4192,"temp":29.3,"humidity":67,"rain":0.0,"pressure":992.2,"uv_index":8.8,"wind_gusts":26.3,"aqi":94,"pm10":26.8,"pm2_5":25.6,"mosquito_risk":7,"arthritis_risk":5,"migraine_risk":7,"frizz_risk":1,"updated_at":"2026-04-04T21:06:21.977573+05:30"},{"city":"Warangal","state":"Telangana","latitude":17.9689,"longitude":79.5941,"temp":25.1,"humidity":80,"rain":0.0,"pressure":980.0,"uv_index":8.0,"wind_gusts":37.1,"aqi":151,"pm10":72.9,"pm2_5":64.7,"mosquito_risk":7,"arthritis_risk":5,"migraine_risk":7,"frizz_risk":1,"updated_at":"2026-04-04T21:06:21.977579+05:30"},{"city":"Nizamabad","state":"Telangana","latitude":18.6725,"longitude":78.0941,"temp":27.9,"humidity":67,"rain":0.0,"pressure":965.5,"uv_index":8.2,"wind_gusts":29.2,"aqi":127,"pm10":61.0,"pm2_5":54.5,"mosquito_risk":7,"arthritis_risk":5,"migraine_risk":7,"frizz_risk":1,"updated_at":"2026-04-04T21:06:21.977586+05:30"},{"city":"Mysore","state":"Karnataka","latitude":12.2958,"longitude":76.6396,"temp":24.1,"humidity":81,"rain":0.0,"pressure":929.8,"uv_index":9.05,"wind_gusts":32.0,"aqi":118,"pm10":23.5,"pm2_5":22.4,"mosquito_risk":3,"arthritis_risk":5,"migraine_risk":7,"frizz_risk":1,"updated_at":"2026-04-04T21:06:21.977593+05:30"},{"city":"Mangalore","state":"Karnataka","latitude":12.9141,"longitude":74.856,"temp":28.9,"humidity":79,"rain":0.0,"pressure":1008.9,"uv_index":8.1,"wind_gusts":20.5,"aqi":60,"pm10":22.1,"pm2_5":17.5,"mosquito_risk":7,"arthritis_risk":0,"migraine_risk":4,"frizz_risk":1,"updated_at":"2026-04-04T21:06:21.977599+05:30"},{"city":"Hubli-Dharwad","state":"Karnataka","latitude":15.3647,"longitude":75.124,"temp":25.2,"humidity":73,"rain":0.0,"pressure":942.0,"uv_index":8.6,"wind_gusts":41.8,"aqi":110,"pm10":18.7,"pm2_5":16.5,"mosquito_risk":7,"arthritis_risk":5,"migraine_risk":7,"frizz_risk":1,"updated_at":"2026-04-04T21:06:21.977606+05:30"},{"city":"Belgaum","state":"Karnataka","latitude":15.8497,"longitude":74.4977,"temp":23.0,"humidity":81,"rain":0.0,"pressure":926.7,"uv_index":9.1,"wind_gusts":37.8,"aqi":74,"pm10":23.5,"pm2_5":15.2,"mosquito_risk":3,"arthritis_risk":5,"migraine_risk":7,"frizz_risk":1,"updated_at":"2026-04-04T21:06:25.188015+05:30"},{"city":"Coimbatore","state":"Tamil Nadu","latitude":11.0168,"longitude":76.9558,"temp":25.0,"humidity":80,"rain":0.0,"pressure":963.3,"uv_index":8.95,"wind_gusts":50.4,"aqi":84,"pm10":17.6,"pm2_5":16.9,"mosquito_risk":7,"arthritis_risk":5,"migraine_risk":7,"frizz_risk":1,"updated_at":"2026-04-04T21:06:25.188046+05:30"},{"city":"Madurai","state":"Tamil Nadu","latitude":9.9252,"longitude":78.1198,"temp":28.0,"humidity":73,"rain":0.0,"pressure":994.2,"uv_index":8.6,"wind_gusts":28.1,"aqi":131,"pm10":34.6,"pm2_5":33.2,"mosquito_risk":7,"arthritis_risk":5,"migraine_risk":7,"frizz_risk":1,"updated_at":"2026-04-04T21:06:25.188056+05:30"},{"city":"Trichy","state":"Tamil Nadu","latitude":10.7905,"longitude":78.7047,"temp":28.0,"humidity":72,"rain":0.0,"pressure":1001.0,"uv_index":9.15,"wind_gusts":29.9,"aqi":102,"pm10":29.9,"pm2_5":28.8,"mosquito_risk":7,"arthritis_risk":5,"migraine_risk":4,"frizz_risk":1,"updated_at":"2026-04-04T21:06:25.188064+05:30"},{"city":"Salem","state":"Tamil Nadu","latitude":11.6643,"longitude":78.146,"temp":27.9,"humidity":71,"rain":0.0,"pressure":978.4,"uv_index":8.5,"wind_gusts":41.0,"aqi":168,"pm10":36.4,"pm2_5":32.5,"mosquito_risk":7,"arthritis_risk":5,"migraine_risk":7,"frizz_risk":1,"updated_at":"2026-04-04T21:06:25.188071+05:30"},{"city":"Tirunelveli","state":"Tamil Nadu","latitude":8.7139,"longitude":77.7567,"temp":28.4,"humidity":70,"rain":0.0,"pressure":1004.2,"uv_index":8.45,"wind_gusts":24.5,"aqi":62,"pm10":19.2,"pm2_5":18.3,"mosquito_risk":7,"arthritis_risk":5,"migraine_risk":4,"frizz_risk":1,"updated_at":"2026-04-04T21:06:25.188079+05:30"},{"city":"Vellore","state":"Tamil Nadu","latitude":12.9165,"longitude":79.1325,"temp":27.3,"humidity":73,"rain":0.0,"pressure":985.5,"uv_index":8.75,"wind_gusts":26.6,"aqi":131,"pm10":34.7,"pm2_5":33.2,"mosquito_risk":7,"arthritis_risk":5,"migraine_risk":7,"frizz_risk":1,"updated_at":"2026-04-04T21:06:25.188085+05:30"},{"city":"Erode","state":"Tamil Nadu","latitude":11.341,"longitude":77.7172,"temp":28.0,"humidity":77,"rain":0.0,"pressure":989.8,"uv_index":8.8,"wind_gusts":39.6,"aqi":138,"pm10":24.9,"pm2_5":23.5,"mosquito_risk":7,"arthritis_risk":5,"migraine_risk":7,"frizz_risk":1,"updated_at":"2026-04-04T21:06:25.188093+05:30"},{"city":"Kochi","state":"Kerala","latitude":9.9312,"longitude":76.2673,"temp":28.6,"humidity":81,"rain":0.0,"pressure":1010.4,"uv_index":8.7,"wind_gusts":21.2,"aqi":62,"pm10":17.9,"pm2_5":15.7,"mosquito_risk":7,"arthritis_risk":0,"migraine_risk":4,"frizz_risk":1,"updated_at":"2026-04-04T21:06:25.188100+05:30"},{"city":"Thiruvananthapuram","state":"Kerala","latitude":8.5241,"longitude":76.9366,"temp":29.0,"humidity":79,"rain":0.0,"pressure":1009.4,"uv_index":8.55,"wind_gusts":29.5,"aqi":59,"pm10":14.5,"pm2_5":10.3,"mosquito_risk":7,"arthritis_risk":0,"migraine_risk":4,"frizz_risk":1,"updated_at":"2026-04-04T21:06:25.188107+05:30"},{"city":"Kozhikode","state":"Kerala","latitude":11.2588,"longitude":75.7804,"temp":28.8,"humidity":78,"rain":0.0,"pressure":1009.8,"uv_index":8.25,"wind_gusts":26.3,"aqi":53,"pm10":15.3,"pm2_5":11.1,"mosquito_risk":7,"arthritis_risk":0,"migraine_risk":4,"frizz_risk":1,"updated_at":"2026-04-04T21:06:25.188114+05:30"},{"city":"Thrissur","state":"Kerala","latitude":10.5276,"longitude":76.2144,"temp":27.8,"humidity":85,"rain":0.0,"pressure":1008.8,"uv_index":8.5,"wind_gusts":28.1,"aqi":53,"pm10":25.1,"pm2_5":23.2,"mosquito_risk":7,"arthritis_risk":0,"migraine_risk":4,"frizz_risk":1,"updated_at":"2026-04-04T21:06:25.188123+05:30"},{"city":"Kannur","state":"Kerala","latitude":11.8745,"longitude":75.3704,"temp":28.1,"humidity":81,"rain":0.0,"pressure":1009.3,"uv_index":8.2,"wind_gusts":24.1,"aqi":60,"pm10":14.6,"pm2_5":12.0,"mosquito_risk":7,"arthritis_risk":0,"migraine_risk":4,"frizz_risk":1,"updated_at":"2026-04-04T21:06:25.188130+05:30"},{"city":"Patna","state":"Bihar","latitude":25.5941,"longitude":85.1376,"temp":29.6,"humidity":56,"rain":0.0,"pressure":999.3,"uv_index":7.95,"wind_gusts":34.6,"aqi":116,"pm10":40.6,"pm2_5":28.0,"mosquito_risk":4,"arthritis_risk":5,"migraine_risk":7,"frizz_risk":1,"updated_at":"2026-04-04T21:06:25.188136+05:30"},{"city":"Gaya","state":"Bihar","latitude":24.7914,"longitude":85.0002,"temp":28.4,"humidity":56,"rain":0.0,"pressure":993.5,"uv_index":8.4,"wind_gusts":22.7,"aqi":102,"pm10":28.0,"pm2_5":25.4,"mosquito_risk":4,"arthritis_risk":5,"migraine_risk":7,"frizz_risk":1,"updated_at":"2026-04-04T21:06:25.188142+05:30"},{"city":"Muzaffarpur","state":"Bihar","latitude":26.1209,"longitude":85.3647,"temp":28.6,"humidity":47,"rain":0.0,"pressure":998.7,"uv_index":7.9,"wind_gusts":32.8,"aqi":111,"pm10":57.5,"pm2_5":33.3,"mosquito_risk":4,"arthritis_risk":5,"migraine_risk":7,"frizz_risk":1,"updated_at":"2026-04-04T21:06:25.188148+05:30"},{"city":"Bhagalpur","state":"Bihar","latitude":25.2425,"longitude":87.0117,"temp":28.1,"humidity":62,"rain":0.0,"pressure":999.3,"uv_index":8.25,"wind_gusts":27.0,"aqi":130,"pm10":44.6,"pm2_5":26.8,"mosquito_risk":7,"arthritis_risk":5,"migraine_risk":7,"frizz_risk":1,"updated_at":"2026-04-04T21:06:25.188154+05:30"},{"city":"Ranchi","state":"Jharkhand","latitude":23.3441,"longitude":85.3096,"temp":24.7,"humidity":62,"rain":0.0,"pressure":938.3,"uv_index":8.2,"wind_gusts":37.8,"aqi":100,"pm10":23.3,"pm2_5":21.0,"mosquito_risk":3,"arthritis_risk":5,"migraine_risk":7,"frizz_risk":1,"updated_at":"2026-04-04T21:06:25.188160+05:30"},{"city":"Jamshedpur","state":"Jharkhand","latitude":22.8046,"longitude":86.2029,"temp":31.4,"humidity":44,"rain":0.0,"pressure":990.3,"uv_index":8.5,"wind_gusts":21.2,"aqi":136,"pm10":32.4,"pm2_5":29.0,"mosquito_risk":0,"arthritis_risk":5,"migraine_risk":7,"frizz_risk":1,"updated_at":"2026-04-04T21:06:25.188167+05:30"},{"city":"Dhanbad","state":"Jharkhand","latitude":23.7957,"longitude":86.4304,"temp":31.0,"humidity":33,"rain":0.0,"pressure":979.3,"uv_index":8.55,"wind_gusts":19.8,"aqi":94,"pm10":29.2,"pm2_5":25.8,"mosquito_risk":0,"arthritis_risk":5,"migraine_risk":7,"frizz_risk":0,"updated_at":"2026-04-04T21:06:25.188174+05:30"},{"city":"Bokaro","state":"Jharkhand","latitude":23.6693,"longitude":86.1511,"temp":30.6,"humidity":35,"rain":0.0,"pressure":983.8,"uv_index":8.15,"wind_gusts":20.2,"aqi":97,"pm10":27.6,"pm2_5":24.9,"mosquito_risk":0,"arthritis_risk":5,"migraine_risk":7,"frizz_risk":0,"updated_at":"2026-04-04T21:06:25.188181+05:30"},{"city":"Bhubaneswar","state":"Odisha","latitude":20.2961,"longitude":85.8245,"temp":28.0,"humidity":83,"rain":0.0,"pressure":1003.4,"uv_index":8.95,"wind_gusts":26.3,"aqi":154,"pm10":27.0,"pm2_5":24.5,"mosquito_risk":7,"arthritis_risk":5,"migraine_risk":4,"frizz_risk":1,"updated_at":"2026-04-04T21:06:25.188188+05:30"},{"city":"Cuttack","state":"Odisha","latitude":20.4625,"longitude":85.8828,"temp":29.2,"humidity":75,"rain":0.0,"pressure":1005.3,"uv_index":9.0,"wind_gusts":31.7,"aqi":154,"pm10":27.0,"pm2_5":24.5,"mosquito_risk":7,"arthritis_risk":5,"migraine_risk":4,"frizz_risk":1,"updated_at":"2026-04-04T21:06:25.188194+05:30"},{"city":"Rourkela","state":"Odisha","latitude":22.2604,"longitude":84.8536,"temp":27.3,"humidity":66,"rain":0.0,"pressure":986.2,"uv_index":8.45,"wind_gusts":59.4,"aqi":131,"pm10":37.3,"pm2_5":34.1,"mosquito_risk":7,"arthritis_risk":5,"migraine_risk":7,"frizz_risk":1,"updated_at":"2026-04-04T21:06:25.188200+05:30"},{"city":"Raipur","state":"Chhattisgarh","latitude":21.2514,"longitude":81.6296,"temp":26.3,"humidity":74,"rain":0.0,"pressure":977.2,"uv_index":7.75,"wind_gusts":41.4,"aqi":136,"pm10":72.9,"pm2_5":65.9,"mosquito_risk":7,"arthritis_risk":5,"migraine_risk":7,"frizz_risk":1,"updated_at":"2026-04-04T21:06:25.188206+05:30"},{"city":"Bhilai","state":"Chhattisgarh","latitude":21.1938,"longitude":81.3509,"temp":26.3,"humidity":77,"rain":0.0,"pressure":977.5,"uv_index":8.15,"wind_gusts":37.8,"aqi":111,"pm10":53.4,"pm2_5":48.2,"mosquito_risk":7,"arthritis_risk":5,"migraine_risk":7,"frizz_risk":1,"updated_at":"2026-04-04T21:06:25.188212+05:30"},{"city":"Guwahati","state":"Assam","latitude":26.1158,"longitude":91.7086,"temp":26.8,"humidity":84,"rain":0.0,"pressure":1000.5,"uv_index":8.25,"wind_gusts":31.0,"aqi":121,"pm10":64.0,"pm2_5":56.3,"mosquito_risk":7,"arthritis_risk":5,"migraine_risk":4,"frizz_risk":1,"updated_at":"2026-04-04T21:06:25.188219+05:30"},{"city":"Agartala","state":"Tripura","latitude":23.8315,"longitude":91.2868,"temp":28.0,"humidity":83,"rain":0.0,"pressure":1004.8,"uv_index":8.45,"wind_gusts":25.6,"aqi":120,"pm10":41.9,"pm2_5":39.0,"mosquito_risk":7,"arthritis_risk":5,"migraine_risk":4,"frizz_risk":1,"updated_at":"2026-04-04T21:06:25.188226+05:30"},{"city":"Shillong","state":"Meghalaya","latitude":25.5788,"longitude":91.8933,"temp":15.9,"humidity":86,"rain":0.0,"pressure":855.9,"uv_index":8.4,"wind_gusts":55.1,"aqi":91,"pm10":40.0,"pm2_5":35.3,"mosquito_risk":3,"arthritis_risk":10,"migraine_risk":7,"frizz_risk":0,"updated_at":"2026-04-04T21:06:25.188233+05:30"},{"city":"Imphal","state":"Manipur","latitude":24.817,"longitude":93.9368,"temp":20.1,"humidity":78,"rain":0.0,"pressure":923.1,"uv_index":8.75,"wind_gusts":76.0,"aqi":123,"pm10":54.7,"pm2_5":45.5,"mosquito_risk":3,"arthritis_risk":5,"migraine_risk":7,"frizz_risk":1,"updated_at":"2026-04-04T21:06:25.188240+05:30"},{"city":"Aizawl","state":"Mizoram","latitude":23.7271,"longitude":92.7176,"temp":21.2,"humidity":82,"rain":0.0,"pressure":892.7,"uv_index":8.55,"wind_gusts":55.1,"aqi":108,"pm10":44.1,"pm2_5":37.3,"mosquito_risk":3,"arthritis_risk":5,"migraine_risk":7,"frizz_risk":1,"updated_at":"2026-04-04T21:06:25.188246+05:30"},{"city":"Kohima","state":"Nagaland","latitude":25.6701,"longitude":94.1077,"temp":17.0,"humidity":82,"rain":0.0,"pressure":854.5,"uv_index":8.55,"wind_gusts":74.2,"aqi":99,"pm10":45.1,"pm2_5":36.0,"mosquito_risk":3,"arthritis_risk":10,"migraine_risk":7,"frizz_risk":0,"updated_at":"2026-04-04T21:06:25.188253+05:30"},{"city":"Gangtok","state":"Sikkim","latitude":27.3314,"longitude":88.6138,"temp":16.7,"humidity":94,"rain":0.0,"pressure":837.0,"uv_index":8.45,"wind_gusts":18.4,"aqi":127,"pm10":55.8,"pm2_5":47.0,"mosquito_risk":3,"arthritis_risk":10,"migraine_risk":7,"frizz_risk":0,"updated_at":"2026-04-04T21:06:25.188259+05:30"},{"city":"Siliguri","state":"West Bengal","latitude":26.7271,"longitude":88.3953,"temp":23.4,"humidity":77,"rain":0.0,"pressure":992.5,"uv_index":8.2,"wind_gusts":28.8,"aqi":161,"pm10":90.3,"pm2_5":74.5,"mosquito_risk":3,"arthritis_risk":5,"migraine_risk":7,"frizz_risk":1,"updated_at":"2026-04-04T21:06:28.404406+05:30"},{"city":"Durgapur","state":"West Bengal","latitude":23.5204,"longitude":87.3119,"temp":30.8,"humidity":54,"rain":0.0,"pressure":993.8,"uv_index":8.35,"wind_gusts":15.8,"aqi":112,"pm10":62.9,"pm2_5":60.5,"mosquito_risk":0,"arthritis_risk":5,"migraine_risk":7,"frizz_risk":1,"updated_at":"2026-04-04T21:06:28.404440+05:30"},{"city":"Asansol","state":"West Bengal","latitude":23.6739,"longitude":86.9524,"temp":32.4,"humidity":48,"rain":0.0,"pressure":992.4,"uv_index":8.45,"wind_gusts":15.5,"aqi":92,"pm10":37.0,"pm2_5":33.3,"mosquito_risk":0,"arthritis_risk":5,"migraine_risk":7,"frizz_risk":1,"updated_at":"2026-04-04T21:06:28.404451+05:30"},{"city":"Pondicherry","state":"Puducherry","latitude":11.9139,"longitude":79.8145,"temp":28.1,"humidity":90,"rain":0.0,"pressure":1008.6,"uv_index":8.9,"wind_gusts":23.8,"aqi":74,"pm10":14.7,"pm2_5":10.6,"mosquito_risk":7,"arthritis_risk":0,"migraine_risk":4,"frizz_risk":1,"updated_at":"2026-04-04T21:06:28.404461+05:30"},{"city":"Port Blair","state":"Andaman and Nicobar Islands","latitude":11.6234,"longitude":92.7265,"temp":29.0,"humidity":71,"rain":0.0,"pressure":1007.4,"uv_index":8.75,"wind_gusts":18.7,"aqi":45,"pm10":16.4,"pm2_5":9.7,"mosquito_risk":7,"arthritis_risk":5,"migraine_risk":4,"frizz_risk":1,"updated_at":"2026-04-04T21:06:28.404471+05:30"},{"city":"Haridwar","state":"Uttarakhand","latitude":29.9457,"longitude":78.1642,"temp":20.2,"humidity":83,"rain":0.0,"pressure":976.0,"uv_index":5.55,"wind_gusts":37.1,"aqi":89,"pm10":35.7,"pm2_5":19.2,"mosquito_risk":3,"arthritis_risk":5,"migraine_risk":3,"frizz_risk":1,"updated_at":"2026-04-04T21:06:28.404479+05:30"},{"city":"Rishikesh","state":"Uttarakhand","latitude":30.0869,"longitude":78.2676,"temp":20.2,"humidity":64,"rain":0.0,"pressure":968.4,"uv_index":6.05,"wind_gusts":25.6,"aqi":59,"pm10":25.6,"pm2_5":12.8,"mosquito_risk":3,"arthritis_risk":5,"migraine_risk":7,"frizz_risk":0,"updated_at":"2026-04-04T21:06:28.404488+05:30"},{"city":"Nainital","state":"Uttarakhand","latitude":29.3919,"longitude":79.4542,"temp":17.7,"humidity":48,"rain":0.0,"pressure":806.6,"uv_index":4.95,"wind_gusts":39.2,"aqi":66,"pm10":29.7,"pm2_5":17.9,"mosquito_risk":0,"arthritis_risk":5,"migraine_risk":3,"frizz_risk":0,"updated_at":"2026-04-04T21:06:28.404496+05:30"},{"city":"Mussoorie","state":"Uttarakhand","latitude":30.4599,"longitude":78.0664,"temp":14.3,"humidity":56,"rain":0.0,"pressure":802.3,"uv_index":5.1,"wind_gusts":47.2,"aqi":63,"pm10":27.4,"pm2_5":14.9,"mosquito_risk":0,"arthritis_risk":5,"migraine_risk":3,"frizz_risk":0,"updated_at":"2026-04-04T21:06:28.404505+05:30"},{"city":"Dharamshala","state":"Himachal Pradesh","latitude":32.219,"longitude":76.3234,"temp":15.0,"humidity":75,"rain":0.0,"pressure":869.7,"uv_index":5.7,"wind_gusts":47.5,"aqi":48,"pm10":12.2,"pm2_5":8.2,"mosquito_risk":3,"arthritis_risk":5,"migraine_risk":3,"frizz_risk":0,"updated_at":"2026-04-04T21:06:28.404513+05:30"},{"city":"Dalhousie","state":"Himachal Pradesh","latitude":32.5387,"longitude":75.971,"temp":11.6,"humidity":77,"rain":0.1,"pressure":802.8,"uv_index":5.65,"wind_gusts":52.6,"aqi":68,"pm10":70.8,"pm2_5":29.7,"mosquito_risk":6,"arthritis_risk":5,"migraine_risk":3,"frizz_risk":0,"updated_at":"2026-04-04T21:06:28.404522+05:30"},{"city":"Patiala","state":"Punjab","latitude":30.3398,"longitude":76.3869,"temp":20.3,"humidity":82,"rain":0.0,"pressure":980.9,"uv_index":5.4,"wind_gusts":27.4,"aqi":169,"pm10":185.3,"pm2_5":45.6,"mosquito_risk":3,"arthritis_risk":5,"migraine_risk":3,"frizz_risk":1,"updated_at":"2026-04-04T21:06:28.404531+05:30"},{"city":"Bhatinda","state":"Punjab","latitude":30.211,"longitude":74.9455,"temp":18.7,"humidity":87,"rain":0.0,"pressure":986.8,"uv_index":6.95,"wind_gusts":32.8,"aqi":88,"pm10":77.5,"pm2_5":27.8,"mosquito_risk":3,"arthritis_risk":10,"migraine_risk":7,"frizz_risk":1,"updated_at":"2026-04-04T21:06:28.404539+05:30"},{"city":"Rohtak","state":"Haryana","latitude":28.8955,"longitude":76.6066,"temp":19.5,"humidity":85,"rain":0.0,"pressure":984.2,"uv_index":6.55,"wind_gusts":24.5,"aqi":93,"pm10":118.7,"pm2_5":53.4,"mosquito_risk":3,"arthritis_risk":10,"migraine_risk":7,"frizz_risk":1,"updated_at":"2026-04-04T21:06:28.404548+05:30"},{"city":"Panipat","state":"Haryana","latitude":29.3909,"longitude":76.9635,"temp":20.9,"humidity":83,"rain":0.0,"pressure":982.7,"uv_index":5.75,"wind_gusts":27.0,"aqi":199,"pm10":358.6,"pm2_5":77.5,"mosquito_risk":3,"arthritis_risk":5,"migraine_risk":3,"frizz_risk":1,"updated_at":"2026-04-04T21:06:28.404556+05:30"},{"city":"Mathura","state":"Uttar Pradesh","latitude":27.4924,"longitude":77.6737,"temp":21.6,"humidity":83,"rain":0.0,"pressure":989.0,"uv_index":5.25,"wind_gusts":40.7,"aqi":461,"pm10":299.9,"pm2_5":58.2,"mosquito_risk":3,"arthritis_risk":5,"migraine_risk":3,"frizz_risk":1,"updated_at":"2026-04-04T21:06:28.404565+05:30"},{"city":"Vrindavan","state":"Uttar Pradesh","latitude":27.5823,"longitude":77.7027,"temp":21.0,"humidity":85,"rain":0.0,"pressure":989.5,"uv_index":5.45,"wind_gusts":45.7,"aqi":461,"pm10":299.9,"pm2_5":58.2,"mosquito_risk":3,"arthritis_risk":5,"migraine_risk":3,"frizz_risk":1,"updated_at":"2026-04-04T21:06:28.404573+05:30"},{"city":"Ayodhya","state":"Uttar Pradesh","latitude":26.7922,"longitude":82.1998,"temp":27.2,"humidity":62,"rain":0.0,"pressure":996.1,"uv_index":7.2,"wind_gusts":35.3,"aqi":114,"pm10":109.2,"pm2_5":47.4,"mosquito_risk":7,"arthritis_risk":5,"migraine_risk":7,"frizz_risk":1,"updated_at":"2026-04-04T21:06:28.404581+05:30"},{"city":"Ratlam","state":"Madhya Pradesh","latitude":23.3315,"longitude":75.0367,"temp":24.9,"humidity":57,"rain":0.0,"pressure":955.5,"uv_index":8.1,"wind_gusts":36.7,"aqi":61,"pm10":46.9,"pm2_5":22.3,"mosquito_risk":0,"arthritis_risk":5,"migraine_risk":7,"frizz_risk":0,"updated_at":"2026-04-04T21:06:28.404587+05:30"},{"city":"Sagar","state":"Madhya Pradesh","latitude":23.8388,"longitude":78.7378,"temp":24.1,"humidity":67,"rain":0.0,"pressure":951.7,"uv_index":8.3,"wind_gusts":36.0,"aqi":66,"pm10":21.2,"pm2_5":15.0,"mosquito_risk":3,"arthritis_risk":5,"migraine_risk":7,"frizz_risk":1,"updated_at":"2026-04-04T21:06:28.404593+05:30"},{"city":"Satna","state":"Madhya Pradesh","latitude":24.6005,"longitude":80.8322,"temp":26.8,"humidity":62,"rain":0.0,"pressure":973.5,"uv_index":5.05,"wind_gusts":28.8,"aqi":86,"pm10":26.6,"pm2_5":18.7,"mosquito_risk":7,"arthritis_risk":5,"migraine_risk":3,"frizz_risk":1,"updated_at":"2026-04-04T21:06:28.404600+05:30"},{"city":"Akola","state":"Maharashtra","latitude":20.7002,"longitude":77.0082,"temp":29.5,"humidity":47,"rain":0.0,"pressure":975.8,"uv_index":7.25,"wind_gusts":25.6,"aqi":112,"pm10":44.1,"pm2_5":37.1,"mosquito_risk":4,"arthritis_risk":5,"migraine_risk":7,"frizz_risk":1,"updated_at":"2026-04-04T21:06:28.404607+05:30"},{"city":"Amravati","state":"Maharashtra","latitude":20.9374,"longitude":77.7796,"temp":27.6,"humidity":62,"rain":0.0,"pressure":968.1,"uv_index":7.7,"wind_gusts":41.4,"aqi":113,"pm10":42.3,"pm2_5":36.0,"mosquito_risk":7,"arthritis_risk":5,"migraine_risk":7,"frizz_risk":1,"updated_at":"2026-04-04T21:06:28.404614+05:30"},{"city":"Latur","state":"Maharashtra","latitude":18.4088,"longitude":76.5604,"temp":27.1,"humidity":59,"rain":0.0,"pressure":939.7,"uv_index":8.9,"wind_gusts":28.8,"aqi":119,"pm10":42.3,"pm2_5":37.4,"mosquito_risk":4,"arthritis_risk":5,"migraine_risk":7,"frizz_risk":1,"updated_at":"2026-04-04T21:06:28.404620+05:30"},{"city":"Nanded","state":"Maharashtra","latitude":19.1383,"longitude":77.3091,"temp":28.6,"humidity":59,"rain":0.0,"pressure":968.5,"uv_index":8.25,"wind_gusts":21.2,"aqi":110,"pm10":45.3,"pm2_5":39.7,"mosquito_risk":4,"arthritis_risk":5,"migraine_risk":7,"frizz_risk":1,"updated_at":"2026-04-04T21:06:28.404627+05:30"},{"city":"Gulbarga","state":"Karnataka","latitude":17.3297,"longitude":76.8343,"temp":29.5,"humidity":57,"rain":0.0,"pressure":959.0,"uv_index":8.45,"wind_gusts":32.0,"aqi":158,"pm10":56.1,"pm2_5":46.9,"mosquito_risk":4,"arthritis_risk":5,"migraine_risk":7,"frizz_risk":1,"updated_at":"2026-04-04T21:06:28.404633+05:30"},{"city":"Bidar","state":"Karnataka","latitude":17.9104,"longitude":77.5199,"temp":28.5,"humidity":58,"rain":0.0,"pressure":936.2,"uv_index":8.6,"wind_gusts":31.3,"aqi":135,"pm10":52.3,"pm2_5":45.4,"mosquito_risk":4,"arthritis_risk":5,"migraine_risk":7,"frizz_risk":1,"updated_at":"2026-04-04T21:06:28.404639+05:30"},{"city":"Hospet","state":"Karnataka","latitude":15.2689,"longitude":76.3909,"temp":30.5,"humidity":51,"rain":0.0,"pressure":956.7,"uv_index":8.1,"wind_gusts":22.7,"aqi":135,"pm10":51.5,"pm2_5":43.4,"mosquito_risk":0,"arthritis_risk":5,"migraine_risk":7,"frizz_risk":1,"updated_at":"2026-04-04T21:06:28.404646+05:30"},{"city":"Tirupur","state":"Tamil Nadu","latitude":11.1085,"longitude":77.3411,"temp":27.4,"humidity":73,"rain":0.0,"pressure":976.4,"uv_index":8.6,"wind_gusts":31.3,"aqi":115,"pm10":24.6,"pm2_5":23.4,"mosquito_risk":7,"arthritis_risk":5,"migraine_risk":7,"frizz_risk":1,"updated_at":"2026-04-04T21:06:28.404652+05:30"},{"city":"Alappuzha","state":"Kerala","latitude":9.4981,"longitude":76.3388,"temp":28.6,"humidity":82,"rain":0.0,"pressure":1010.5,"uv_index":9.15,"wind_gusts":21.6,"aqi":63,"pm10":17.9,"pm2_5":15.0,"mosquito_risk":7,"arthritis_risk":0,"migraine_risk":4,"frizz_risk":1,"updated_at":"2026-04-04T21:06:28.404658+05:30"},{"city":"Munnar","state":"Kerala","latitude":10.0889,"longitude":77.0595,"temp":20.7,"humidity":97,"rain":0.0,"pressure":858.2,"uv_index":6.2,"wind_gusts":33.5,"aqi":58,"pm10":19.3,"pm2_5":18.9,"mosquito_risk":3,"arthritis_risk":5,"migraine_risk":7,"frizz_risk":1,"updated_at":"2026-04-04T21:06:28.404665+05:30"},{"city":"Silchar","state":"Assam","latitude":24.8333,"longitude":92.7789,"temp":26.4,"humidity":83,"rain":0.0,"pressure":1004.1,"uv_index":8.45,"wind_gusts":26.6,"aqi":133,"pm10":83.8,"pm2_5":73.3,"mosquito_risk":7,"arthritis_risk":5,"migraine_risk":4,"frizz_risk":1,"updated_at":"2026-04-04T21:06:28.404672+05:30"},{"city":"Dibrugarh","state":"Assam","latitude":27.4728,"longitude":94.912,"temp":24.9,"humidity":86,"rain":0.0,"pressure":994.9,"uv_index":8.3,"wind_gusts":14.8,"aqi":111,"pm10":54.8,"pm2_5":49.2,"mosquito_risk":3,"arthritis_risk":5,"migraine_risk":7,"frizz_risk":1,"updated_at":"2026-04-04T21:06:28.404678+05:30"}]