[{"city":"Delhi","state":"Delhi","latitude":28.6139,"longitude":77.209,"temp":33.6,"humidity":35,"rain":0.0,"pressure":981.4,"uv_index":7.6,"wind_gusts":32.0,"aqi":211,"pm10":219.3,"pm2_5":63.1,"no2":16.2,"co":491.0,"o3":194.0,"so2":24.5,"mosquito_risk":0,"arthritis_risk":5,"migraine_risk":7,"frizz_risk":0,"updated_at":"2026-05-10T18:55:01.378205+05:30"},{"city":"Mumbai","state":"Maharashtra","latitude":19.076,"longitude":72.8777,"temp":32.7,"humidity":53,"rain":0.0,"pressure":1003.1,"uv_index":7.9,"wind_gusts":46.8,"aqi":164,"pm10":49.0,"pm2_5":29.0,"no2":21.5,"co":351.0,"o3":117.0,"so2":12.6,"mosquito_risk":0,"arthritis_risk":5,"migraine_risk":4,"frizz_risk":1,"updated_at":"2026-05-10T18:55:01.378257+05:30"},{"city":"Bangalore","state":"Karnataka","latitude":12.9716,"longitude":77.5946,"temp":29.1,"humidity":38,"rain":0.0,"pressure":909.9,"uv_index":9.5,"wind_gusts":43.9,"aqi":84,"pm10":29.3,"pm2_5":20.6,"no2":23.9,"co":330.0,"o3":97.0,"so2":6.6,"mosquito_risk":4,"arthritis_risk":5,"migraine_risk":7,"frizz_risk":0,"updated_at":"2026-05-10T18:55:01.378274+05:30"},{"city":"Hyderabad","state":"Telangana","latitude":17.385,"longitude":78.4867,"temp":34.0,"humidity":31,"rain":0.0,"pressure":951.4,"uv_index":9.25,"wind_gusts":38.9,"aqi":112,"pm10":51.1,"pm2_5":24.2,"no2":8.2,"co":329.0,"o3":135.0,"so2":6.5,"mosquito_risk":0,"arthritis_risk":5,"migraine_risk":7,"frizz_risk":0,"updated_at":"2026-05-10T18:55:01.378286+05:30"},{"city":"Chennai","state":"Tamil Nadu","latitude":13.0827,"longitude":80.2707,"temp":29.4,"humidity":71,"rain":0.0,"pressure":1005.1,"uv_index":9.0,"wind_gusts":40.0,"aqi":24,"pm10":5.7,"pm2_5":3.9,"no2":4.6,"co":164.0,"o3":45.0,"so2":4.1,"mosquito_risk":7,"arthritis_risk":5,"migraine_risk":4,"frizz_risk":1,"updated_at":"2026-05-10T18:55:01.378296+05:30"},{"city":"Kolkata","state":"West Bengal","latitude":22.5726,"longitude":88.3639,"temp":26.6,"humidity":84,"rain":0.0,"pressure":1007.1,"uv_index":8.5,"wind_gusts":19.1,"aqi":203,"pm10":54.9,"pm2_5":48.7,"no2":14.6,"co":924.0,"o3":123.0,"so2":17.0,"mosquito_risk":7,"arthritis_risk":5,"migraine_risk":4,"frizz_risk":1,"updated_at":"2026-05-10T18:55:01.378305+05:30"},{"city":"Pune","state":"Maharashtra","latitude":18.5204,"longitude":73.8567,"temp":37.1,"humidity":15,"rain":0.0,"pressure":944.4,"uv_index":8.5,"wind_gusts":36.4,"aqi":126,"pm10":24.2,"pm2_5":11.9,"no2":6.5,"co":249.0,"o3":134.0,"so2":5.2,"mosquito_risk":0,"arthritis_risk":5,"migraine_risk":10,"frizz_risk":0,"updated_at":"2026-05-10T18:55:01.378314+05:30"},{"city":"Ahmedabad","state":"Gujarat","latitude":23.0225,"longitude":72.5714,"temp":42.1,"humidity":13,"rain":0.0,"pressure":997.0,"uv_index":8.1,"wind_gusts":34.2,"aqi":86,"pm10":67.5,"pm2_5":18.6,"no2":11.8,"co":246.0,"o3":111.0,"so2":5.1,"mosquito_risk":0,"arthritis_risk":5,"migraine_risk":10,"frizz_risk":0,"updated_at":"2026-05-10T18:55:01.378328+05:30"},{"city":"Jaipur","state":"Rajasthan","latitude":26.9124,"longitude":75.7873,"temp":36.0,"humidity":23,"rain":0.0,"pressure":957.7,"uv_index":8.15,"wind_gusts":28.4,"aqi":173,"pm10":198.8,"pm2_5":47.3,"no2":11.8,"co":340.0,"o3":144.0,"so2":8.6,"mosquito_risk":0,"arthritis_risk":5,"migraine_risk":10,"frizz_risk":0,"updated_at":"2026-05-10T18:55:01.378337+05:30"},{"city":"Lucknow","state":"Uttar Pradesh","latitude":26.8467,"longitude":80.9462,"temp":32.5,"humidity":35,"rain":0.0,"pressure":992.4,"uv_index":8.05,"wind_gusts":35.3,"aqi":184,"pm10":57.9,"pm2_5":39.3,"no2":8.3,"co":375.0,"o3":154.0,"so2":10.2,"mosquito_risk":0,"arthritis_risk":5,"migraine_risk":7,"frizz_risk":0,"updated_at":"2026-05-10T18:55:01.378346+05:30"},{"city":"Kanpur","state":"Uttar Pradesh","latitude":26.4499,"longitude":80.3319,"temp":33.4,"humidity":34,"rain":0.0,"pressure":990.3,"uv_index":8.1,"wind_gusts":33.8,"aqi":197,"pm10":119.7,"pm2_5":41.4,"no2":6.6,"co":341.0,"o3":166.0,"so2":9.9,"mosquito_risk":0,"arthritis_risk":5,"migraine_risk":7,"frizz_risk":0,"updated_at":"2026-05-10T18:55:01.378354+05:30"},{"city":"Chandigarh","state":"Chandigarh","latitude":30.7333,"longitude":76.7794,"temp":31.4,"humidity":44,"rain":0.0,"pressure":967.5,"uv_index":7.7,"wind_gusts":39.2,"aqi":189,"pm10":150.9,"pm2_5":54.7,"no2":11.1,"co":517.0,"o3":176.0,"so2":10.4,"mosquito_risk":0,"arthritis_risk":5,"migraine_risk":7,"frizz_risk":1,"updated_at":"2026-05-10T18:55:01.378362+05:30"},{"city":"Srinagar","state":"Jammu and Kashmir","latitude":34.0837,"longitude":74.7973,"temp":21.9,"humidity":59,"rain":0.0,"pressure":841.1,"uv_index":8.25,"wind_gusts":18.0,"aqi":138,"pm10":75.9,"pm2_5":32.2,"no2":14.6,"co":741.0,"o3":132.0,"so2":6.2,"mosquito_risk":0,"arthritis_risk":5,"migraine_risk":7,"frizz_risk":0,"updated_at":"2026-05-10T18:55:01.378370+05:30"},{"city":"Jammu","state":"Jammu and Kashmir","latitude":32.7266,"longitude":74.857,"temp":32.5,"humidity":39,"rain":0.0,"pressure":971.6,"uv_index":8.2,"wind_gusts":33.8,"aqi":176,"pm10":224.9,"pm2_5":69.2,"no2":11.5,"co":414.0,"o3":155.0,"so2":12.0,"mosquito_risk":0,"arthritis_risk":5,"migraine_risk":7,"frizz_risk":1,"updated_at":"2026-05-10T18:55:01.378378+05:30"},{"city":"Amritsar","state":"Punjab","latitude":31.634,"longitude":74.8723,"temp":34.3,"humidity":38,"rain":0.0,"pressure":978.9,"uv_index":8.35,"wind_gusts":29.9,"aqi":186,"pm10":299.0,"pm2_5":81.0,"no2":4.3,"co":462.0,"o3":176.0,"so2":13.7,"mosquito_risk":0,"arthritis_risk":5,"migraine_risk":7,"frizz_risk":1,"updated_at":"2026-05-10T18:55:01.378385+05:30"},{"city":"Ludhiana","state":"Punjab","latitude":30.901,"longitude":75.8573,"temp":33.9,"humidity":36,"rain":0.0,"pressure":976.8,"uv_index":7.95,"wind_gusts":34.9,"aqi":186,"pm10":304.5,"pm2_5":77.8,"no2":7.5,"co":446.0,"o3":165.0,"so2":9.2,"mosquito_risk":0,"arthritis_risk":5,"migraine_risk":7,"frizz_risk":1,"updated_at":"2026-05-10T18:55:01.378392+05:30"},{"city":"Jalandhar","state":"Punjab","latitude":31.326,"longitude":75.5762,"temp":32.3,"humidity":44,"rain":0.0,"pressure":978.0,"uv_index":8.15,"wind_gusts":33.5,"aqi":176,"pm10":310.1,"pm2_5":77.3,"no2":8.9,"co":440.0,"o3":159.0,"so2":10.3,"mosquito_risk":0,"arthritis_risk":5,"migraine_risk":7,"frizz_risk":1,"updated_at":"2026-05-10T18:55:01.378398+05:30"},{"city":"Dehradun","state":"Uttarakhand","latitude":30.6284,"longitude":78.0322,"temp":17.8,"humidity":78,"rain":0.0,"pressure":830.8,"uv_index":8.05,"wind_gusts":26.6,"aqi":147,"pm10":74.7,"pm2_5":39.8,"no2":5.7,"co":300.0,"o3":157.0,"so2":3.6,"mosquito_risk":3,"arthritis_risk":5,"migraine_risk":7,"frizz_risk":0,"updated_at":"2026-05-10T18:55:01.378410+05:30"},{"city":"Shimla","state":"Himachal Pradesh","latitude":31.1048,"longitude":77.1734,"temp":16.3,"humidity":70,"rain":0.0,"pressure":785.5,"uv_index":8.05,"wind_gusts":39.2,"aqi":174,"pm10":126.7,"pm2_5":62.4,"no2":6.8,"co":313.0,"o3":178.0,"so2":12.9,"mosquito_risk":3,"arthritis_risk":5,"migraine_risk":7,"frizz_risk":0,"updated_at":"2026-05-10T18:55:01.378418+05:30"},{"city":"Manali","state":"Himachal Pradesh","latitude":32.2396,"longitude":77.1887,"temp":15.4,"humidity":87,"rain":0.0,"pressure":818.2,"uv_index":9.75,"wind_gusts":46.8,"aqi":168,"pm10":49.9,"pm2_5":21.6,"no2":15.6,"co":307.0,"o3":172.0,"so2":1.9,"mosquito_risk":3,"arthritis_risk":10,"migraine_risk":7,"frizz_risk":0,"updated_at":"2026-05-10T18:55:01.378425+05:30"},{"city":"Gurgaon","state":"Haryana","latitude":28.4595,"longitude":77.0266,"temp":33.9,"humidity":33,"rain":0.0,"pressure":979.5,"uv_index":7.7,"wind_gusts":32.0,"aqi":690,"pm10":536.4,"pm2_5":92.4,"no2":16.1,"co":493.0,"o3":189.0,"so2":21.4,"mosquito_risk":0,"arthritis_risk":5,"migraine_risk":7,"frizz_risk":0,"updated_at":"2026-05-10T18:55:01.378432+05:30"},{"city":"Noida","state":"Uttar Pradesh","latitude":28.5355,"longitude":77.391,"temp":31.2,"humidity":48,"rain":0.0,"pressure":982.7,"uv_index":7.65,"wind_gusts":31.3,"aqi":690,"pm10":536.4,"pm2_5":92.4,"no2":16.1,"co":483.0,"o3":189.0,"so2":21.4,"mosquito_risk":0,"arthritis_risk":5,"migraine_risk":7,"frizz_risk":1,"updated_at":"2026-05-10T18:55:01.378439+05:30"},{"city":"Ghaziabad","state":"Uttar Pradesh","latitude":28.6692,"longitude":77.4538,"temp":31.1,"humidity":43,"rain":0.0,"pressure":981.3,"uv_index":7.6,"wind_gusts":34.2,"aqi":179,"pm10":140.2,"pm2_5":50.5,"no2":8.0,"co":338.0,"o3":163.0,"so2":9.1,"mosquito_risk":0,"arthritis_risk":5,"migraine_risk":7,"frizz_risk":1,"updated_at":"2026-05-10T18:55:01.378446+05:30"},{"city":"Faridabad","state":"Haryana","latitude":28.4089,"longitude":77.3178,"temp":32.7,"humidity":37,"rain":0.0,"pressure":982.0,"uv_index":7.65,"wind_gusts":33.8,"aqi":690,"pm10":536.4,"pm2_5":92.4,"no2":16.1,"co":482.0,"o3":189.0,"so2":21.4,"mosquito_risk":0,"arthritis_risk":5,"migraine_risk":7,"frizz_risk":0,"updated_at":"2026-05-10T18:55:01.378453+05:30"},{"city":"Meerut","state":"Uttar Pradesh","latitude":28.9845,"longitude":77.7064,"temp":29.0,"humidity":53,"rain":0.0,"pressure":980.2,"uv_index":7.55,"wind_gusts":34.6,"aqi":179,"pm10":140.2,"pm2_5":50.5,"no2":8.0,"co":387.0,"o3":163.0,"so2":9.1,"mosquito_risk":4,"arthritis_risk":5,"migraine_risk":7,"frizz_risk":1,"updated_at":"2026-05-10T18:55:01.378460+05:30"},{"city":"Agra","state":"Uttar Pradesh","latitude":27.1767,"longitude":78.0081,"temp":33.0,"humidity":40,"rain":0.0,"pressure":986.0,"uv_index":7.95,"wind_gusts":24.1,"aqi":555,"pm10":360.4,"pm2_5":70.1,"no2":8.9,"co":423.0,"o3":158.0,"so2":12.8,"mosquito_risk":0,"arthritis_risk":5,"migraine_risk":7,"frizz_risk":1,"updated_at":"2026-05-10T18:55:01.378467+05:30"},{"city":"Varanasi","state":"Uttar Pradesh","latitude":25.3176,"longitude":82.9739,"temp":31.3,"humidity":39,"rain":0.0,"pressure":996.1,"uv_index":8.55,"wind_gusts":29.9,"aqi":204,"pm10":56.7,"pm2_5":38.5,"no2":8.2,"co":361.0,"o3":172.0,"so2":12.8,"mosquito_risk":0,"arthritis_risk":5,"migraine_risk":7,"frizz_risk":0,"updated_at":"2026-05-10T18:55:01.378474+05:30"},{"city":"Prayagraj","state":"Uttar Pradesh","latitude":25.4358,"longitude":81.8463,"temp":33.2,"humidity":32,"rain":0.0,"pressure":993.9,"uv_index":8.45,"wind_gusts":32.8,"aqi":202,"pm10":55.9,"pm2_5":36.7,"no2":8.8,"co":471.0,"o3":158.0,"so2":10.4,"mosquito_risk":0,"arthritis_risk":5,"migraine_risk":7,"frizz_risk":0,"updated_at":"2026-05-10T18:55:01.378483+05:30"},{"city":"Gorakhpur","state":"Uttar Pradesh","latitude":26.7606,"longitude":83.3732,"temp":28.8,"humidity":54,"rain":0.0,"pressure":997.0,"uv_index":8.4,"wind_gusts":33.8,"aqi":155,"pm10":38.2,"pm2_5":29.2,"no2":8.5,"co":374.0,"o3":139.0,"so2":6.4,"mosquito_risk":4,"arthritis_risk":5,"migraine_risk":7,"frizz_risk":1,"updated_at":"2026-05-10T18:55:01.378491+05:30"},{"city":"Bareilly","state":"Uttar Pradesh","latitude":28.367,"longitude":79.4304,"temp":29.8,"humidity":54,"rain":0.0,"pressure":986.0,"uv_index":7.9,"wind_gusts":29.5,"aqi":176,"pm10":112.9,"pm2_5":47.0,"no2":10.3,"co":389.0,"o3":147.0,"so2":7.8,"mosquito_risk":4,"arthritis_risk":5,"migraine_risk":7,"frizz_risk":1,"updated_at":"2026-05-10T18:55:01.378498+05:30"},{"city":"Aligarh","state":"Uttar Pradesh","latitude":27.8974,"longitude":78.088,"temp":31.9,"humidity":40,"rain":0.0,"pressure":984.0,"uv_index":7.75,"wind_gusts":31.7,"aqi":264,"pm10":263.6,"pm2_5":61.2,"no2":8.3,"co":341.0,"o3":162.0,"so2":13.9,"mosquito_risk":0,"arthritis_risk":5,"migraine_risk":7,"frizz_risk":1,"updated_at":"2026-05-10T18:55:01.378505+05:30"},{"city":"Moradabad","state":"Uttar Pradesh","latitude":28.8386,"longitude":78.7733,"temp":30.0,"humidity":55,"rain":0.0,"pressure":983.0,"uv_index":7.75,"wind_gusts":32.4,"aqi":191,"pm10":65.4,"pm2_5":47.6,"no2":13.9,"co":418.0,"o3":157.0,"so2":17.0,"mosquito_risk":4,"arthritis_risk":5,"migraine_risk":7,"frizz_risk":1,"updated_at":"2026-05-10T18:55:01.378512+05:30"},{"city":"Saharanpur","state":"Uttar Pradesh","latitude":29.9637,"longitude":77.546,"temp":28.2,"humidity":64,"rain":0.0,"pressure":974.6,"uv_index":7.35,"wind_gusts":31.7,"aqi":168,"pm10":98.7,"pm2_5":54.4,"no2":13.8,"co":435.0,"o3":144.0,"so2":11.5,"mosquito_risk":7,"arthritis_risk":5,"migraine_risk":7,"frizz_risk":1,"updated_at":"2026-05-10T18:55:01.378519+05:30"},{"city":"Jhansi","state":"Uttar Pradesh","latitude":25.4484,"longitude":78.5685,"temp":33.3,"humidity":36,"rain":0.0,"pressure":975.8,"uv_index":8.4,"wind_gusts":27.0,"aqi":187,"pm10":118.7,"pm2_5":39.5,"no2":3.6,"co":323.0,"o3":158.0,"so2":14.3,"mosquito_risk":0,"arthritis_risk":5,"migraine_risk":7,"frizz_risk":1,"updated_at":"2026-05-10T18:55:04.623141+05:30"},{"city":"Surat","state":"Gujarat","latitude":21.1702,"longitude":72.8311,"temp":40.2,"humidity":15,"rain":0.0,"pressure":1001.5,"uv_index":7.75,"wind_gusts":34.9,"aqi":91,"pm10":65.0,"pm2_5":51.9,"no2":54.0,"co":334.0,"o3":84.0,"so2":96.6,"mosquito_risk":0,"arthritis_risk":5,"migraine_risk":7,"frizz_risk":0,"updated_at":"2026-05-10T18:55:04.623194+05:30"},{"city":"Vadodara","state":"Gujarat","latitude":22.3072,"longitude":73.1812,"temp":41.2,"humidity":15,"rain":0.0,"pressure":998.8,"uv_index":8.1,"wind_gusts":29.5,"aqi":130,"pm10":45.1,"pm2_5":20.7,"no2":13.1,"co":277.0,"o3":143.0,"so2":11.1,"mosquito_risk":0,"arthritis_risk":5,"migraine_risk":10,"frizz_risk":0,"updated_at":"2026-05-10T18:55:04.623206+05:30"},{"city":"Rajkot","state":"Gujarat","latitude":22.3039,"longitude":70.8022,"temp":37.2,"humidity":18,"rain":0.0,"pressure":991.1,"uv_index":7.7,"wind_gusts":38.9,"aqi":73,"pm10":45.4,"pm2_5":14.3,"no2":3.1,"co":160.0,"o3":114.0,"so2":6.2,"mosquito_risk":0,"arthritis_risk":5,"migraine_risk":10,"frizz_risk":0,"updated_at":"2026-05-10T18:55:04.623215+05:30"},{"city":"Thane","state":"Maharashtra","latitude":19.2183,"longitude":72.9781,"temp":34.7,"humidity":42,"rain":0.0,"pressure":1002.1,"uv_index":7.9,"wind_gusts":45.4,"aqi":164,"pm10":49.0,"pm2_5":29.0,"no2":21.5,"co":230.0,"o3":117.0,"so2":12.6,"mosquito_risk":0,"arthritis_risk":5,"migraine_risk":4,"frizz_risk":1,"updated_at":"2026-05-10T18:55:04.623222+05:30"},{"city":"Nagpur","state":"Maharashtra","latitude":21.1458,"longitude":79.0882,"temp":36.9,"humidity":19,"rain":0.0,"pressure":969.3,"uv_index":8.9,"wind_gusts":29.2,"aqi":182,"pm10":71.5,"pm2_5":36.7,"no2":13.9,"co":260.0,"o3":157.0,"so2":22.1,"mosquito_risk":0,"arthritis_risk":5,"migraine_risk":10,"frizz_risk":0,"updated_at":"2026-05-10T18:55:04.623230+05:30"},{"city":"Nashik","state":"Maharashtra","latitude":19.9975,"longitude":73.7898,"temp":36.0,"humidity":17,"rain":0.0,"pressure":942.4,"uv_index":8.2,"wind_gusts":45.7,"aqi":123,"pm10":30.7,"pm2_5":19.6,"no2":3.5,"co":209.0,"o3":161.0,"so2":12.2,"mosquito_risk":0,"arthritis_risk":5,"migraine_risk":10,"frizz_risk":0,"updated_at":"2026-05-10T18:55:04.623238+05:30"},{"city":"Aurangabad","state":"Maharashtra","latitude":19.8762,"longitude":75.3433,"temp":36.7,"humidity":15,"rain":0.0,"pressure":940.9,"uv_index":9.05,"wind_gusts":45.0,"aqi":115,"pm10":31.0,"pm2_5":12.6,"no2":3.8,"co":224.0,"o3":133.0,"so2":4.0,"mosquito_risk":0,"arthritis_risk":5,"migraine_risk":10,"frizz_risk":0,"updated_at":"2026-05-10T18:55:04.623245+05:30"},{"city":"Solapur","state":"Maharashtra","latitude":17.6599,"longitude":75.9064,"temp":38.5,"humidity":14,"rain":0.0,"pressure":952.9,"uv_index":9.05,"wind_gusts":38.5,"aqi":134,"pm10":30.6,"pm2_5":15.8,"no2":4.6,"co":258.0,"o3":143.0,"so2":8.2,"mosquito_risk":0,"arthritis_risk":5,"migraine_risk":10,"frizz_risk":0,"updated_at":"2026-05-10T18:55:04.623252+05:30"},{"city":"Kolhapur","state":"Maharashtra","latitude":16.705,"longitude":74.2433,"temp":34.2,"humidity":29,"rain":0.0,"pressure":944.4,"uv_index":8.95,"wind_gusts":44.3,"aqi":155,"pm10":57.4,"pm2_5":39.8,"no2":12.2,"co":233.0,"o3":141.0,"so2":7.2,"mosquito_risk":0,"arthritis_risk":5,"migraine_risk":7,"frizz_risk":0,"updated_at":"2026-05-10T18:55:04.623260+05:30"},{"city":"Goa","state":"Goa","latitude":15.2993,"longitude":74.124,"temp":32.0,"humidity":62,"rain":0.0,"pressure":994.4,"uv_index":6.85,"wind_gusts":48.6,"aqi":105,"pm10":39.2,"pm2_5":23.5,"no2":3.3,"co":238.0,"o3":113.0,"so2":3.8,"mosquito_risk":3,"arthritis_risk":5,"migraine_risk":7,"frizz_risk":1,"updated_at":"2026-05-10T18:55:04.623267+05:30"},{"city":"Jodhpur","state":"Rajasthan","latitude":26.2389,"longitude":73.0243,"temp":41.1,"humidity":11,"rain":0.0,"pressure":978.7,"uv_index":8.4,"wind_gusts":35.3,"aqi":104,"pm10":48.3,"pm2_5":12.6,"no2":7.6,"co":187.0,"o3":120.0,"so2":3.2,"mosquito_risk":0,"arthritis_risk":5,"migraine_risk":10,"frizz_risk":0,"updated_at":"2026-05-10T18:55:04.623274+05:30"},{"city":"Udaipur","state":"Rajasthan","latitude":24.5854,"longitude":73.7125,"temp":36.3,"humidity":15,"rain":0.0,"pressure":943.9,"uv_index":8.8,"wind_gusts":38.5,"aqi":89,"pm10":24.8,"pm2_5":8.4,"no2":2.4,"co":180.0,"o3":121.0,"so2":2.4,"mosquito_risk":0,"arthritis_risk":5,"migraine_risk":10,"frizz_risk":0,"updated_at":"2026-05-10T18:55:04.623282+05:30"},{"city":"Kota","state":"Rajasthan","latitude":25.2138,"longitude":75.8648,"temp":37.0,"humidity":23,"rain":0.0,"pressure":975.6,"uv_index":8.35,"wind_gusts":35.6,"aqi":160,"pm10":88.7,"pm2_5":32.4,"no2":5.3,"co":289.0,"o3":144.0,"so2":9.4,"mosquito_risk":0,"arthritis_risk":5,"migraine_risk":10,"frizz_risk":0,"updated_at":"2026-05-10T18:55:04.623289+05:30"},{"city":"Bikaner","state":"Rajasthan","latitude":28.0229,"longitude":73.3119,"temp":40.5,"humidity":17,"rain":0.0,"pressure":977.4,"uv_index":8.3,"wind_gusts":32.0,"aqi":144,"pm10":77.1,"pm2_5":20.3,"no2":2.6,"co":298.0,"o3":133.0,"so2":10.1,"mosquito_risk":0,"arthritis_risk":5,"migraine_risk":10,"frizz_risk":0,"updated_at":"2026-05-10T18:55:04.623296+05:30"},{"city":"Ajmer","state":"Rajasthan","latitude":26.4499,"longitude":74.6399,"temp":37.3,"humidity":19,"rain":0.0,"pressure":952.1,"uv_index":8.3,"wind_gusts":32.4,"aqi":144,"pm10":85.2,"pm2_5":27.0,"no2":5.2,"co":321.0,"o3":134.0,"so2":6.5,"mosquito_risk":0,"arthritis_risk":5,"migraine_risk":10,"frizz_risk":0,"updated_at":"2026-05-10T18:55:04.623304+05:30"},{"city":"Gwalior","state":"Madhya Pradesh","latitude":26.2183,"longitude":78.1828,"temp":33.7,"humidity":34,"rain":0.0,"pressure":981.0,"uv_index":8.15,"wind_gusts":24.1,"aqi":169,"pm10":139.2,"pm2_5":41.6,"no2":3.6,"co":348.0,"o3":154.0,"so2":7.8,"mosquito_risk":0,"arthritis_risk":5,"migraine_risk":7,"frizz_risk":0,"updated_at":"2026-05-10T18:55:04.623311+05:30"},{"city":"Indore","state":"Madhya Pradesh","latitude":22.7196,"longitude":75.8577,"temp":37.5,"humidity":12,"rain":0.0,"pressure":944.9,"uv_index":8.65,"wind_gusts":47.5,"aqi":134,"pm10":53.0,"pm2_5":20.7,"no2":4.7,"co":254.0,"o3":142.0,"so2":5.4,"mosquito_risk":0,"arthritis_risk":5,"migraine_risk":10,"frizz_risk":0,"updated_at":"2026-05-10T18:55:04.623318+05:30"},{"city":"Bhopal","state":"Madhya Pradesh","latitude":23.2599,"longitude":77.4126,"temp":36.2,"humidity":12,"rain":0.0,"pressure":950.8,"uv_index":8.65,"wind_gusts":46.1,"aqi":126,"pm10":74.7,"pm2_5":25.0,"no2":2.4,"co":268.0,"o3":135.0,"so2":3.6,"mosquito_risk":0,"arthritis_risk":5,"migraine_risk":10,"frizz_risk":0,"updated_at":"2026-05-10T18:55:04.623325+05:30"},{"city":"Jabalpur","state":"Madhya Pradesh","latitude":23.1815,"longitude":79.9864,"temp":34.5,"humidity":25,"rain":0.0,"pressure":958.5,"uv_index":8.8,"wind_gusts":32.8,"aqi":150,"pm10":82.9,"pm2_5":28.6,"no2":6.2,"co":249.0,"o3":140.0,"so2":5.0,"mosquito_risk":0,"arthritis_risk":5,"migraine_risk":7,"frizz_risk":0,"updated_at":"2026-05-10T18:55:04.623332+05:30"},{"city":"Ujjain","state":"Madhya Pradesh","latitude":23.1765,"longitude":75.7885,"temp":37.2,"humidity":13,"rain":0.0,"pressure":950.7,"uv_index":8.6,"wind_gusts":40.7,"aqi":132,"pm10":48.2,"pm2_5":20.8,"no2":4.6,"co":225.0,"o3":137.0,"so2":5.8,"mosquito_risk":0,"arthritis_risk":5,"migraine_risk":10,"frizz_risk":0,"updated_at":"2026-05-10T18:55:04.623340+05:30"},{"city":"Visakhapatnam","state":"Andhra Pradesh","latitude":17.6868,"longitude":83.2185,"temp":29.4,"humidity":70,"rain":0.0,"pressure":1003.2,"uv_index":9.1,"wind_gusts":36.4,"aqi":68,"pm10":14.7,"pm2_5":12.3,"no2":22.7,"co":425.0,"o3":36.0,"so2":13.8,"mosquito_risk":7,"arthritis_risk":5,"migraine_risk":4,"frizz_risk":1,"updated_at":"2026-05-10T18:55:04.623347+05:30"},{"city":"Vijayawada","state":"Andhra Pradesh","latitude":16.5062,"longitude":80.648,"temp":31.0,"humidity":62,"rain":0.0,"pressure":1001.1,"uv_index":9.1,"wind_gusts":37.8,"aqi":48,"pm10":8.9,"pm2_5":6.7,"no2":4.4,"co":156.0,"o3":67.0,"so2":6.3,"mosquito_risk":3,"arthritis_risk":5,"migraine_risk":4,"frizz_risk":1,"updated_at":"2026-05-10T18:55:04.623354+05:30"},{"city":"Guntur","state":"Andhra Pradesh","latitude":16.3067,"longitude":80.4365,"temp":31.1,"humidity":63,"rain":0.0,"pressure":1002.1,"uv_index":8.9,"wind_gusts":45.4,"aqi":55,"pm10":16.5,"pm2_5":10.8,"no2":4.0,"co":156.0,"o3":88.0,"so2":6.2,"mosquito_risk":3,"arthritis_risk":5,"migraine_risk":4,"frizz_risk":1,"updated_at":"2026-05-10T18:55:04.623362+05:30"},{"city":"Nellore","state":"Andhra Pradesh","latitude":14.4426,"longitude":79.9865,"temp":29.7,"humidity":67,"rain":0.0,"pressure":1004.0,"uv_index":9.15,"wind_gusts":39.2,"aqi":29,"pm10":5.9,"pm2_5":4.1,"no2":2.2,"co":139.0,"o3":48.0,"so2":1.8,"mosquito_risk":7,"arthritis_risk":5,"migraine_risk":4,"frizz_risk":1,"updated_at":"2026-05-10T18:55:04.623371+05:30"},{"city":"Kurnool","state":"Andhra Pradesh","latitude":15.8281,"longitude":78.0373,"temp":34.0,"humidity":34,"rain":0.0,"pressure":974.0,"uv_index":9.1,"wind_gusts":49.7,"aqi":65,"pm10":44.7,"pm2_5":19.4,"no2":3.0,"co":215.0,"o3":120.0,"so2":2.8,"mosquito_risk":0,"arthritis_risk":5,"migraine_risk":7,"frizz_risk":0,"updated_at":"2026-05-10T18:55:04.623379+05:30"},{"city":"Kakinada","state":"Andhra Pradesh","latitude":16.9891,"longitude":82.2475,"temp":29.2,"humidity":74,"rain":0.0,"pressure":1006.3,"uv_index":9.05,"wind_gusts":37.8,"aqi":31,"pm10":7.5,"pm2_5":5.1,"no2":1.1,"co":159.0,"o3":59.0,"so2":0.5,"mosquito_risk":7,"arthritis_risk":5,"migraine_risk":4,"frizz_risk":1,"updated_at":"2026-05-10T18:55:04.623386+05:30"},{"city":"Tirupati","state":"Andhra Pradesh","latitude":13.6288,"longitude":79.4192,"temp":29.5,"humidity":60,"rain":0.0,"pressure":989.1,"uv_index":9.25,"wind_gusts":42.8,"aqi":58,"pm10":6.2,"pm2_5":4.7,"no2":3.9,"co":151.0,"o3":51.0,"so2":1.1,"mosquito_risk":4,"arthritis_risk":5,"migraine_risk":7,"frizz_risk":1,"updated_at":"2026-05-10T18:55:04.623393+05:30"},{"city":"Warangal","state":"Telangana","latitude":17.9689,"longitude":79.5941,"temp":34.2,"humidity":36,"rain":0.0,"pressure":976.0,"uv_index":9.15,"wind_gusts":40.0,"aqi":92,"pm10":59.0,"pm2_5":27.7,"no2":5.1,"co":313.0,"o3":133.0,"so2":7.0,"mosquito_risk":0,"arthritis_risk":5,"migraine_risk":7,"frizz_risk":1,"updated_at":"2026-05-10T18:55:04.623400+05:30"},{"city":"Nizamabad","state":"Telangana","latitude":18.6725,"longitude":78.0941,"temp":33.5,"humidity":35,"rain":0.0,"pressure":961.6,"uv_index":9.1,"wind_gusts":29.9,"aqi":125,"pm10":48.7,"pm2_5":26.7,"no2":10.0,"co":238.0,"o3":132.0,"so2":5.2,"mosquito_risk":0,"arthritis_risk":5,"migraine_risk":7,"frizz_risk":1,"updated_at":"2026-05-10T18:55:04.623407+05:30"},{"city":"Mysore","state":"Karnataka","latitude":12.2958,"longitude":76.6396,"temp":29.5,"humidity":41,"rain":0.0,"pressure":925.6,"uv_index":9.3,"wind_gusts":34.6,"aqi":103,"pm10":29.0,"pm2_5":19.6,"no2":16.2,"co":285.0,"o3":121.0,"so2":5.2,"mosquito_risk":4,"arthritis_risk":5,"migraine_risk":7,"frizz_risk":0,"updated_at":"2026-05-10T18:55:04.623413+05:30"},{"city":"Mangalore","state":"Karnataka","latitude":12.9141,"longitude":74.856,"temp":29.6,"humidity":84,"rain":0.0,"pressure":1003.3,"uv_index":8.85,"wind_gusts":37.1,"aqi":78,"pm10":23.7,"pm2_5":17.0,"no2":4.4,"co":247.0,"o3":105.0,"so2":2.8,"mosquito_risk":7,"arthritis_risk":5,"migraine_risk":4,"frizz_risk":1,"updated_at":"2026-05-10T18:55:04.623420+05:30"},{"city":"Hubli-Dharwad","state":"Karnataka","latitude":15.3647,"longitude":75.124,"temp":33.8,"humidity":26,"rain":0.0,"pressure":938.1,"uv_index":8.1,"wind_gusts":40.0,"aqi":120,"pm10":43.4,"pm2_5":21.5,"no2":6.6,"co":223.0,"o3":137.0,"so2":3.9,"mosquito_risk":0,"arthritis_risk":5,"migraine_risk":7,"frizz_risk":0,"updated_at":"2026-05-10T18:55:04.623427+05:30"},{"city":"Belgaum","state":"Karnataka","latitude":15.8497,"longitude":74.4977,"temp":27.4,"humidity":64,"rain":0.0,"pressure":923.3,"uv_index":8.35,"wind_gusts":41.8,"aqi":159,"pm10":48.7,"pm2_5":30.6,"no2":12.4,"co":235.0,"o3":132.0,"so2":6.0,"mosquito_risk":7,"arthritis_risk":5,"migraine_risk":7,"frizz_risk":1,"updated_at":"2026-05-10T18:55:07.856987+05:30"},{"city":"Coimbatore","state":"Tamil Nadu","latitude":11.0168,"longitude":76.9558,"temp":27.4,"humidity":78,"rain":0.0,"pressure":959.0,"uv_index":9.1,"wind_gusts":30.6,"aqi":85,"pm10":24.7,"pm2_5":18.9,"no2":14.1,"co":324.0,"o3":110.0,"so2":6.4,"mosquito_risk":7,"arthritis_risk":5,"migraine_risk":7,"frizz_risk":1,"updated_at":"2026-05-10T18:55:07.857020+05:30"},{"city":"Madurai","state":"Tamil Nadu","latitude":9.9252,"longitude":78.1198,"temp":28.4,"humidity":74,"rain":0.0,"pressure":990.7,"uv_index":5.15,"wind_gusts":29.5,"aqi":56,"pm10":18.4,"pm2_5":17.7,"no2":8.9,"co":498.0,"o3":97.0,"so2":5.3,"mosquito_risk":7,"arthritis_risk":5,"migraine_risk":3,"frizz_risk":1,"updated_at":"2026-05-10T18:55:07.857031+05:30"},{"city":"Trichy","state":"Tamil Nadu","latitude":10.7905,"longitude":78.7047,"temp":26.4,"humidity":86,"rain":0.0,"pressure":998.0,"uv_index":2.45,"wind_gusts":37.1,"aqi":49,"pm10":14.2,"pm2_5":13.8,"no2":10.5,"co":326.0,"o3":79.0,"so2":12.8,"mosquito_risk":7,"arthritis_risk":5,"migraine_risk":3,"frizz_risk":1,"updated_at":"2026-05-10T18:55:07.857040+05:30"},{"city":"Salem","state":"Tamil Nadu","latitude":11.6643,"longitude":78.146,"temp":29.0,"humidity":63,"rain":0.0,"pressure":975.3,"uv_index":8.95,"wind_gusts":24.5,"aqi":64,"pm10":19.4,"pm2_5":15.1,"no2":7.1,"co":253.0,"o3":112.0,"so2":8.1,"mosquito_risk":7,"arthritis_risk":5,"migraine_risk":7,"frizz_risk":1,"updated_at":"2026-05-10T18:55:07.857048+05:30"},{"city":"Tirunelveli","state":"Tamil Nadu","latitude":8.7139,"longitude":77.7567,"temp":27.2,"humidity":91,"rain":0.1,"pressure":1000.8,"uv_index":4.3,"wind_gusts":26.6,"aqi":55,"pm10":13.7,"pm2_5":13.2,"no2":7.3,"co":215.0,"o3":85.0,"so2":4.3,"mosquito_risk":10,"arthritis_risk":5,"migraine_risk":0,"frizz_risk":1,"updated_at":"2026-05-10T18:55:07.857056+05:30"},{"city":"Vellore","state":"Tamil Nadu","latitude":12.9165,"longitude":79.1325,"temp":29.3,"humidity":63,"rain":0.0,"pressure":982.3,"uv_index":9.25,"wind_gusts":36.0,"aqi":67,"pm10":12.4,"pm2_5":11.1,"no2":6.9,"co":185.0,"o3":88.0,"so2":7.0,"mosquito_risk":7,"arthritis_risk":5,"migraine_risk":7,"frizz_risk":1,"updated_at":"2026-05-10T18:55:07.857064+05:30"},{"city":"Erode","state":"Tamil Nadu","latitude":11.341,"longitude":77.7172,"temp":29.0,"humidity":71,"rain":0.0,"pressure":986.6,"uv_index":8.65,"wind_gusts":29.2,"aqi":80,"pm10":22.2,"pm2_5":17.9,"no2":8.9,"co":249.0,"o3":115.0,"so2":5.7,"mosquito_risk":7,"arthritis_risk":5,"migraine_risk":7,"frizz_risk":1,"updated_at":"2026-05-10T18:55:07.857071+05:30"},{"city":"Kochi","state":"Kerala","latitude":9.9312,"longitude":76.2673,"temp":28.2,"humidity":85,"rain":0.0,"pressure":1005.5,"uv_index":8.75,"wind_gusts":25.9,"aqi":107,"pm10":18.9,"pm2_5":16.8,"no2":11.7,"co":364.0,"o3":93.0,"so2":3.8,"mosquito_risk":7,"arthritis_risk":5,"migraine_risk":4,"frizz_risk":1,"updated_at":"2026-05-10T18:55:07.857078+05:30"},{"city":"Thiruvananthapuram","state":"Kerala","latitude":8.5241,"longitude":76.9366,"temp":26.2,"humidity":93,"rain":0.0,"pressure":1005.1,"uv_index":5.4,"wind_gusts":21.2,"aqi":79,"pm10":8.1,"pm2_5":6.0,"no2":3.4,"co":367.0,"o3":106.0,"so2":1.2,"mosquito_risk":7,"arthritis_risk":5,"migraine_risk":0,"frizz_risk":1,"updated_at":"2026-05-10T18:55:07.857086+05:30"},{"city":"Kozhikode","state":"Kerala","latitude":11.2588,"longitude":75.7804,"temp":28.7,"humidity":85,"rain":0.0,"pressure":1004.8,"uv_index":8.7,"wind_gusts":33.5,"aqi":72,"pm10":14.3,"pm2_5":8.5,"no2":1.0,"co":288.0,"o3":105.0,"so2":0.6,"mosquito_risk":7,"arthritis_risk":5,"migraine_risk":4,"frizz_risk":1,"updated_at":"2026-05-10T18:55:07.857093+05:30"},{"city":"Thrissur","state":"Kerala","latitude":10.5276,"longitude":76.2144,"temp":28.5,"humidity":80,"rain":0.0,"pressure":1003.8,"uv_index":9.0,"wind_gusts":30.2,"aqi":71,"pm10":14.2,"pm2_5":13.2,"no2":9.7,"co":397.0,"o3":90.0,"so2":2.7,"mosquito_risk":7,"arthritis_risk":5,"migraine_risk":4,"frizz_risk":1,"updated_at":"2026-05-10T18:55:07.857101+05:30"},{"city":"Kannur","state":"Kerala","latitude":11.8745,"longitude":75.3704,"temp":29.2,"humidity":79,"rain":0.0,"pressure":1004.3,"uv_index":8.1,"wind_gusts":39.6,"aqi":89,"pm10":20.8,"pm2_5":13.6,"no2":6.2,"co":285.0,"o3":104.0,"so2":2.0,"mosquito_risk":7,"arthritis_risk":5,"migraine_risk":4,"frizz_risk":1,"updated_at":"2026-05-10T18:55:07.857108+05:30"},{"city":"Patna","state":"Bihar","latitude":25.5941,"longitude":85.1376,"temp":27.9,"humidity":65,"rain":0.0,"pressure":1000.4,"uv_index":8.65,"wind_gusts":29.5,"aqi":198,"pm10":61.5,"pm2_5":47.7,"no2":11.3,"co":415.0,"o3":161.0,"so2":13.3,"mosquito_risk":7,"arthritis_risk":5,"migraine_risk":4,"frizz_risk":1,"updated_at":"2026-05-10T18:55:07.857115+05:30"},{"city":"Gaya","state":"Bihar","latitude":24.7914,"longitude":85.0002,"temp":28.8,"humidity":48,"rain":0.0,"pressure":993.3,"uv_index":8.7,"wind_gusts":21.6,"aqi":199,"pm10":61.7,"pm2_5":44.9,"no2":6.2,"co":323.0,"o3":175.0,"so2":14.3,"mosquito_risk":4,"arthritis_risk":5,"migraine_risk":7,"frizz_risk":1,"updated_at":"2026-05-10T18:55:07.857122+05:30"},{"city":"Muzaffarpur","state":"Bihar","latitude":26.1209,"longitude":85.3647,"temp":27.4,"humidity":61,"rain":0.0,"pressure":1000.8,"uv_index":8.65,"wind_gusts":34.2,"aqi":177,"pm10":60.8,"pm2_5":48.1,"no2":13.5,"co":425.0,"o3":142.0,"so2":11.1,"mosquito_risk":7,"arthritis_risk":5,"migraine_risk":4,"frizz_risk":1,"updated_at":"2026-05-10T18:55:07.857128+05:30"},{"city":"Bhagalpur","state":"Bihar","latitude":25.2425,"longitude":87.0117,"temp":27.7,"humidity":60,"rain":0.0,"pressure":1002.0,"uv_index":8.6,"wind_gusts":24.5,"aqi":194,"pm10":55.6,"pm2_5":45.2,"no2":9.7,"co":345.0,"o3":155.0,"so2":8.5,"mosquito_risk":4,"arthritis_risk":5,"migraine_risk":4,"frizz_risk":1,"updated_at":"2026-05-10T18:55:07.857134+05:30"},{"city":"Ranchi","state":"Jharkhand","latitude":23.3441,"longitude":85.3096,"temp":23.1,"humidity":67,"rain":0.0,"pressure":938.0,"uv_index":9.15,"wind_gusts":38.2,"aqi":163,"pm10":69.6,"pm2_5":39.3,"no2":5.3,"co":284.0,"o3":160.0,"so2":9.1,"mosquito_risk":3,"arthritis_risk":5,"migraine_risk":7,"frizz_risk":1,"updated_at":"2026-05-10T18:55:07.857141+05:30"},{"city":"Jamshedpur","state":"Jharkhand","latitude":22.8046,"longitude":86.2029,"temp":27.0,"humidity":72,"rain":0.0,"pressure":991.8,"uv_index":8.95,"wind_gusts":49.3,"aqi":188,"pm10":53.9,"pm2_5":43.8,"no2":8.4,"co":254.0,"o3":167.0,"so2":18.4,"mosquito_risk":7,"arthritis_risk":5,"migraine_risk":7,"frizz_risk":1,"updated_at":"2026-05-10T18:55:07.857148+05:30"},{"city":"Dhanbad","state":"Jharkhand","latitude":23.7957,"longitude":86.4304,"temp":27.0,"humidity":66,"rain":0.0,"pressure":980.8,"uv_index":8.9,"wind_gusts":30.2,"aqi":219,"pm10":92.4,"pm2_5":76.4,"no2":33.6,"co":394.0,"o3":185.0,"so2":72.2,"mosquito_risk":7,"arthritis_risk":5,"migraine_risk":7,"frizz_risk":1,"updated_at":"2026-05-10T18:55:07.857154+05:30"},{"city":"Bokaro","state":"Jharkhand","latitude":23.6693,"longitude":86.1511,"temp":26.7,"humidity":67,"rain":0.0,"pressure":984.5,"uv_index":8.9,"wind_gusts":50.4,"aqi":212,"pm10":89.4,"pm2_5":66.4,"no2":31.1,"co":1936.0,"o3":186.0,"so2":70.6,"mosquito_risk":7,"arthritis_risk":5,"migraine_risk":7,"frizz_risk":1,"updated_at":"2026-05-10T18:55:07.857162+05:30"},{"city":"Bhubaneswar","state":"Odisha","latitude":20.2961,"longitude":85.8245,"temp":26.4,"humidity":79,"rain":0.0,"pressure":1003.5,"uv_index":9.05,"wind_gusts":35.6,"aqi":60,"pm10":19.0,"pm2_5":13.3,"no2":10.2,"co":213.0,"o3":76.0,"so2":5.9,"mosquito_risk":7,"arthritis_risk":5,"migraine_risk":4,"frizz_risk":1,"updated_at":"2026-05-10T18:55:07.857193+05:30"},{"city":"Cuttack","state":"Odisha","latitude":20.4625,"longitude":85.8828,"temp":26.1,"humidity":85,"rain":0.0,"pressure":1005.1,"uv_index":9.1,"wind_gusts":47.2,"aqi":60,"pm10":19.0,"pm2_5":13.3,"no2":10.2,"co":232.0,"o3":76.0,"so2":5.9,"mosquito_risk":7,"arthritis_risk":5,"migraine_risk":4,"frizz_risk":1,"updated_at":"2026-05-10T18:55:07.857201+05:30"},{"city":"Rourkela","state":"Odisha","latitude":22.2604,"longitude":84.8536,"temp":29.9,"humidity":49,"rain":0.0,"pressure":984.3,"uv_index":8.9,"wind_gusts":25.9,"aqi":171,"pm10":82.9,"pm2_5":50.6,"no2":8.2,"co":580.0,"o3":165.0,"so2":33.0,"mosquito_risk":4,"arthritis_risk":5,"migraine_risk":7,"frizz_risk":1,"updated_at":"2026-05-10T18:55:07.857208+05:30"},{"city":"Raipur","state":"Chhattisgarh","latitude":21.2514,"longitude":81.6296,"temp":34.4,"humidity":31,"rain":0.0,"pressure":972.3,"uv_index":8.9,"wind_gusts":27.0,"aqi":206,"pm10":76.6,"pm2_5":43.8,"no2":15.8,"co":337.0,"o3":192.0,"so2":8.2,"mosquito_risk":0,"arthritis_risk":5,"migraine_risk":7,"frizz_risk":0,"updated_at":"2026-05-10T18:55:07.857214+05:30"},{"city":"Bhilai","state":"Chhattisgarh","latitude":21.1938,"longitude":81.3509,"temp":34.6,"humidity":30,"rain":0.0,"pressure":972.5,"uv_index":8.95,"wind_gusts":23.8,"aqi":189,"pm10":74.5,"pm2_5":41.4,"no2":21.7,"co":401.0,"o3":165.0,"so2":7.5,"mosquito_risk":0,"arthritis_risk":5,"migraine_risk":7,"frizz_risk":0,"updated_at":"2026-05-10T18:55:07.857221+05:30"},{"city":"Guwahati","state":"Assam","latitude":26.1158,"longitude":91.7086,"temp":24.4,"humidity":81,"rain":0.0,"pressure":1002.8,"uv_index":8.65,"wind_gusts":27.7,"aqi":91,"pm10":57.5,"pm2_5":43.1,"no2":11.3,"co":338.0,"o3":87.0,"so2":3.1,"mosquito_risk":3,"arthritis_risk":5,"migraine_risk":4,"frizz_risk":1,"updated_at":"2026-05-10T18:55:07.857228+05:30"},{"city":"Agartala","state":"Tripura","latitude":23.8315,"longitude":91.2868,"temp":24.9,"humidity":92,"rain":0.0,"pressure":1007.7,"uv_index":8.25,"wind_gusts":40.3,"aqi":194,"pm10":49.2,"pm2_5":43.9,"no2":12.6,"co":504.0,"o3":141.0,"so2":6.1,"mosquito_risk":3,"arthritis_risk":5,"migraine_risk":4,"frizz_risk":1,"updated_at":"2026-05-10T18:55:07.857234+05:30"},{"city":"Shillong","state":"Meghalaya","latitude":25.5788,"longitude":91.8933,"temp":16.4,"humidity":87,"rain":0.0,"pressure":857.5,"uv_index":8.45,"wind_gusts":24.5,"aqi":115,"pm10":47.5,"pm2_5":33.6,"no2":7.7,"co":397.0,"o3":120.0,"so2":4.1,"mosquito_risk":3,"arthritis_risk":10,"migraine_risk":7,"frizz_risk":0,"updated_at":"2026-05-10T18:55:07.857241+05:30"},{"city":"Imphal","state":"Manipur","latitude":24.817,"longitude":93.9368,"temp":21.7,"humidity":80,"rain":0.0,"pressure":925.1,"uv_index":7.85,"wind_gusts":23.4,"aqi":96,"pm10":42.8,"pm2_5":34.6,"no2":27.4,"co":580.0,"o3":47.0,"so2":4.4,"mosquito_risk":3,"arthritis_risk":5,"migraine_risk":7,"frizz_risk":1,"updated_at":"2026-05-10T18:55:07.857248+05:30"},{"city":"Aizawl","state":"Mizoram","latitude":23.7271,"longitude":92.7176,"temp":18.1,"humidity":87,"rain":0.1,"pressure":893.6,"uv_index":6.35,"wind_gusts":14.8,"aqi":109,"pm10":47.5,"pm2_5":39.8,"no2":5.9,"co":337.0,"o3":86.0,"so2":3.4,"mosquito_risk":6,"arthritis_risk":10,"migraine_risk":7,"frizz_risk":0,"updated_at":"2026-05-10T18:55:07.857255+05:30"},{"city":"Kohima","state":"Nagaland","latitude":25.6701,"longitude":94.1077,"temp":18.8,"humidity":83,"rain":0.0,"pressure":856.9,"uv_index":8.35,"wind_gusts":26.3,"aqi":71,"pm10":32.9,"pm2_5":23.5,"no2":9.9,"co":355.0,"o3":76.0,"so2":2.0,"mosquito_risk":3,"arthritis_risk":10,"migraine_risk":7,"frizz_risk":0,"updated_at":"2026-05-10T18:55:07.857262+05:30"},{"city":"Gangtok","state":"Sikkim","latitude":27.3314,"longitude":88.6138,"temp":14.3,"humidity":84,"rain":0.1,"pressure":838.5,"uv_index":7.7,"wind_gusts":32.4,"aqi":81,"pm10":19.2,"pm2_5":13.0,"no2":8.9,"co":309.0,"o3":105.0,"so2":1.3,"mosquito_risk":6,"arthritis_risk":10,"migraine_risk":7,"frizz_risk":0,"updated_at":"2026-05-10T18:55:07.857268+05:30"},{"city":"Siliguri","state":"West Bengal","latitude":26.7271,"longitude":88.3953,"temp":25.0,"humidity":75,"rain":0.0,"pressure":994.3,"uv_index":8.05,"wind_gusts":26.6,"aqi":114,"pm10":44.6,"pm2_5":27.2,"no2":11.8,"co":1237.0,"o3":126.0,"so2":3.9,"mosquito_risk":7,"arthritis_risk":5,"migraine_risk":7,"frizz_risk":1,"updated_at":"2026-05-10T18:55:11.094006+05:30"},{"city":"Durgapur","state":"West Bengal","latitude":23.5204,"longitude":87.3119,"temp":26.5,"humidity":77,"rain":0.0,"pressure":996.1,"uv_index":8.9,"wind_gusts":23.4,"aqi":213,"pm10":112.5,"pm2_5":97.8,"no2":40.7,"co":388.0,"o3":178.0,"so2":87.6,"mosquito_risk":7,"arthritis_risk":5,"migraine_risk":7,"frizz_risk":1,"updated_at":"2026-05-10T18:55:11.094039+05:30"},{"city":"Asansol","state":"West Bengal","latitude":23.6739,"longitude":86.9524,"temp":27.0,"humidity":69,"rain":0.0,"pressure":994.5,"uv_index":8.9,"wind_gusts":29.2,"aqi":213,"pm10":94.3,"pm2_5":81.3,"no2":38.2,"co":831.0,"o3":174.0,"so2":85.2,"mosquito_risk":7,"arthritis_risk":5,"migraine_risk":7,"frizz_risk":1,"updated_at":"2026-05-10T18:55:11.094050+05:30"},{"city":"Pondicherry","state":"Puducherry","latitude":11.9139,"longitude":79.8145,"temp":28.0,"humidity":84,"rain":0.0,"pressure":1006.1,"uv_index":8.85,"wind_gusts":41.8,"aqi":29,"pm10":5.4,"pm2_5":3.6,"no2":2.3,"co":241.0,"o3":50.0,"so2":0.2,"mosquito_risk":7,"arthritis_risk":5,"migraine_risk":4,"frizz_risk":1,"updated_at":"2026-05-10T18:55:11.094059+05:30"},{"city":"Port Blair","state":"Andaman and Nicobar Islands","latitude":11.6234,"longitude":92.7265,"temp":28.0,"humidity":81,"rain":0.0,"pressure":1006.2,"uv_index":8.1,"wind_gusts":27.0,"aqi":27,"pm10":3.2,"pm2_5":2.2,"no2":0.5,"co":172.0,"o3":54.0,"so2":0.1,"mosquito_risk":7,"arthritis_risk":5,"migraine_risk":4,"frizz_risk":1,"updated_at":"2026-05-10T18:55:11.094068+05:30"},{"city":"Haridwar","state":"Uttarakhand","latitude":29.9457,"longitude":78.1642,"temp":27.8,"humidity":60,"rain":0.0,"pressure":973.1,"uv_index":7.5,"wind_gusts":26.3,"aqi":164,"pm10":95.9,"pm2_5":50.4,"no2":8.9,"co":363.0,"o3":155.0,"so2":6.9,"mosquito_risk":4,"arthritis_risk":5,"migraine_risk":7,"frizz_risk":1,"updated_at":"2026-05-10T18:55:11.094076+05:30"},{"city":"Rishikesh","state":"Uttarakhand","latitude":30.0869,"longitude":78.2676,"temp":27.0,"humidity":66,"rain":0.0,"pressure":965.9,"uv_index":7.55,"wind_gusts":25.2,"aqi":160,"pm10":71.0,"pm2_5":39.5,"no2":3.8,"co":349.0,"o3":165.0,"so2":4.5,"mosquito_risk":7,"arthritis_risk":5,"migraine_risk":7,"frizz_risk":1,"updated_at":"2026-05-10T18:55:11.094084+05:30"},{"city":"Nainital","state":"Uttarakhand","latitude":29.3919,"longitude":79.4542,"temp":15.4,"humidity":82,"rain":0.0,"pressure":805.7,"uv_index":7.4,"wind_gusts":28.8,"aqi":154,"pm10":51.1,"pm2_5":33.9,"no2":5.9,"co":290.0,"o3":162.0,"so2":5.1,"mosquito_risk":3,"arthritis_risk":10,"migraine_risk":7,"frizz_risk":0,"updated_at":"2026-05-10T18:55:11.094091+05:30"},{"city":"Mussoorie","state":"Uttarakhand","latitude":30.4599,"longitude":78.0664,"temp":16.2,"humidity":80,"rain":0.0,"pressure":803.5,"uv_index":7.95,"wind_gusts":37.8,"aqi":158,"pm10":77.3,"pm2_5":40.9,"no2":7.0,"co":341.0,"o3":162.0,"so2":7.6,"mosquito_risk":3,"arthritis_risk":5,"migraine_risk":7,"frizz_risk":0,"updated_at":"2026-05-10T18:55:11.094099+05:30"},{"city":"Dharamshala","state":"Himachal Pradesh","latitude":32.219,"longitude":76.3234,"temp":21.7,"humidity":68,"rain":0.0,"pressure":869.7,"uv_index":7.7,"wind_gusts":35.6,"aqi":146,"pm10":134.1,"pm2_5":50.5,"no2":5.0,"co":348.0,"o3":148.0,"so2":5.0,"mosquito_risk":3,"arthritis_risk":5,"migraine_risk":7,"frizz_risk":0,"updated_at":"2026-05-10T18:55:11.094106+05:30"},{"city":"Dalhousie","state":"Himachal Pradesh","latitude":32.5387,"longitude":75.971,"temp":17.7,"humidity":79,"rain":0.0,"pressure":805.8,"uv_index":7.95,"wind_gusts":37.1,"aqi":167,"pm10":202.1,"pm2_5":61.0,"no2":12.2,"co":413.0,"o3":154.0,"so2":7.7,"mosquito_risk":3,"arthritis_risk":5,"migraine_risk":7,"frizz_risk":0,"updated_at":"2026-05-10T18:55:11.094114+05:30"},{"city":"Patiala","state":"Punjab","latitude":30.3398,"longitude":76.3869,"temp":31.9,"humidity":56,"rain":0.0,"pressure":976.3,"uv_index":7.55,"wind_gusts":34.9,"aqi":375,"pm10":278.5,"pm2_5":70.8,"no2":5.8,"co":348.0,"o3":167.0,"so2":8.9,"mosquito_risk":0,"arthritis_risk":5,"migraine_risk":7,"frizz_risk":1,"updated_at":"2026-05-10T18:55:11.094122+05:30"},{"city":"Bhatinda","state":"Punjab","latitude":30.211,"longitude":74.9455,"temp":36.3,"humidity":27,"rain":0.0,"pressure":981.0,"uv_index":8.25,"wind_gusts":30.2,"aqi":401,"pm10":568.1,"pm2_5":99.7,"no2":6.1,"co":392.0,"o3":183.0,"so2":17.4,"mosquito_risk":0,"arthritis_risk":5,"migraine_risk":10,"frizz_risk":0,"updated_at":"2026-05-10T18:55:11.094129+05:30"},{"city":"Rohtak","state":"Haryana","latitude":28.8955,"longitude":76.6066,"temp":32.8,"humidity":38,"rain":0.0,"pressure":979.7,"uv_index":7.65,"wind_gusts":30.6,"aqi":350,"pm10":368.8,"pm2_5":81.7,"no2":11.9,"co":422.0,"o3":215.0,"so2":22.9,"mosquito_risk":0,"arthritis_risk":5,"migraine_risk":7,"frizz_risk":1,"updated_at":"2026-05-10T18:55:11.094136+05:30"},{"city":"Panipat","state":"Haryana","latitude":29.3909,"longitude":76.9635,"temp":30.6,"humidity":48,"rain":0.0,"pressure":978.9,"uv_index":7.5,"wind_gusts":32.8,"aqi":624,"pm10":499.2,"pm2_5":87.3,"no2":8.3,"co":371.0,"o3":195.0,"so2":18.5,"mosquito_risk":0,"arthritis_risk":5,"migraine_risk":7,"frizz_risk":1,"updated_at":"2026-05-10T18:55:11.094143+05:30"},{"city":"Mathura","state":"Uttar Pradesh","latitude":27.4924,"longitude":77.6737,"temp":31.9,"humidity":44,"rain":0.0,"pressure":985.0,"uv_index":7.9,"wind_gusts":27.4,"aqi":487,"pm10":316.6,"pm2_5":63.6,"no2":10.0,"co":362.0,"o3":157.0,"so2":9.2,"mosquito_risk":0,"arthritis_risk":5,"migraine_risk":7,"frizz_risk":1,"updated_at":"2026-05-10T18:55:11.094150+05:30"},{"city":"Vrindavan","state":"Uttar Pradesh","latitude":27.5823,"longitude":77.7027,"temp":32.3,"humidity":39,"rain":0.0,"pressure":985.5,"uv_index":7.9,"wind_gusts":27.7,"aqi":487,"pm10":316.6,"pm2_5":63.6,"no2":10.0,"co":356.0,"o3":157.0,"so2":9.2,"mosquito_risk":0,"arthritis_risk":5,"migraine_risk":7,"frizz_risk":1,"updated_at":"2026-05-10T18:55:11.094157+05:30"},{"city":"Ayodhya","state":"Uttar Pradesh","latitude":26.7922,"longitude":82.1998,"temp":29.6,"humidity":48,"rain":0.0,"pressure":994.4,"uv_index":8.2,"wind_gusts":37.1,"aqi":168,"pm10":45.3,"pm2_5":34.8,"no2":13.1,"co":346.0,"o3":134.0,"so2":7.8,"mosquito_risk":4,"arthritis_risk":5,"migraine_risk":7,"frizz_risk":1,"updated_at":"2026-05-10T18:55:11.094184+05:30"},{"city":"Ratlam","state":"Madhya Pradesh","latitude":23.3315,"longitude":75.0367,"temp":36.8,"humidity":16,"rain":0.0,"pressure":951.3,"uv_index":8.5,"wind_gusts":38.2,"aqi":131,"pm10":43.7,"pm2_5":17.0,"no2":2.1,"co":201.0,"o3":148.0,"so2":6.1,"mosquito_risk":0,"arthritis_risk":5,"migraine_risk":10,"frizz_risk":0,"updated_at":"2026-05-10T18:55:11.094193+05:30"},{"city":"Sagar","state":"Madhya Pradesh","latitude":23.8388,"longitude":78.7378,"temp":33.0,"humidity":32,"rain":0.0,"pressure":948.2,"uv_index":8.65,"wind_gusts":37.1,"aqi":133,"pm10":81.0,"pm2_5":25.7,"no2":1.7,"co":254.0,"o3":149.0,"so2":4.7,"mosquito_risk":0,"arthritis_risk":5,"migraine_risk":7,"frizz_risk":0,"updated_at":"2026-05-10T18:55:11.094200+05:30"},{"city":"Satna","state":"Madhya Pradesh","latitude":24.6005,"longitude":80.8322,"temp":33.3,"humidity":30,"rain":0.0,"pressure":969.0,"uv_index":8.65,"wind_gusts":37.1,"aqi":187,"pm10":47.1,"pm2_5":28.3,"no2":3.0,"co":285.0,"o3":191.0,"so2":8.6,"mosquito_risk":0,"arthritis_risk":5,"migraine_risk":7,"frizz_risk":0,"updated_at":"2026-05-10T18:55:11.094208+05:30"},{"city":"Akola","state":"Maharashtra","latitude":20.7002,"longitude":77.0082,"temp":37.9,"humidity":16,"rain":0.0,"pressure":970.5,"uv_index":8.85,"wind_gusts":42.1,"aqi":155,"pm10":44.6,"pm2_5":20.0,"no2":12.0,"co":197.0,"o3":133.0,"so2":9.2,"mosquito_risk":0,"arthritis_risk":5,"migraine_risk":10,"frizz_risk":0,"updated_at":"2026-05-10T18:55:11.094215+05:30"},{"city":"Amravati","state":"Maharashtra","latitude":20.9374,"longitude":77.7796,"temp":36.8,"humidity":16,"rain":0.0,"pressure":963.4,"uv_index":8.85,"wind_gusts":40.3,"aqi":160,"pm10":47.3,"pm2_5":21.4,"no2":12.3,"co":201.0,"o3":136.0,"so2":6.0,"mosquito_risk":0,"arthritis_risk":5,"migraine_risk":10,"frizz_risk":0,"updated_at":"2026-05-10T18:55:11.094223+05:30"},{"city":"Latur","state":"Maharashtra","latitude":18.4088,"longitude":76.5604,"temp":35.9,"humidity":16,"rain":0.0,"pressure":936.5,"uv_index":9.05,"wind_gusts":41.0,"aqi":142,"pm10":27.8,"pm2_5":15.5,"no2":8.0,"co":242.0,"o3":144.0,"so2":9.8,"mosquito_risk":0,"arthritis_risk":5,"migraine_risk":10,"frizz_risk":0,"updated_at":"2026-05-10T18:55:11.094231+05:30"},{"city":"Nanded","state":"Maharashtra","latitude":19.1383,"longitude":77.3091,"temp":36.2,"humidity":19,"rain":0.0,"pressure":964.4,"uv_index":9.0,"wind_gusts":36.7,"aqi":157,"pm10":43.7,"pm2_5":22.9,"no2":8.9,"co":260.0,"o3":137.0,"so2":6.0,"mosquito_risk":0,"arthritis_risk":5,"migraine_risk":10,"frizz_risk":0,"updated_at":"2026-05-10T18:55:11.094238+05:30"},{"city":"Gulbarga","state":"Karnataka","latitude":17.3297,"longitude":76.8343,"temp":35.2,"humidity":25,"rain":0.0,"pressure":955.4,"uv_index":9.1,"wind_gusts":31.7,"aqi":123,"pm10":37.1,"pm2_5":19.5,"no2":6.7,"co":236.0,"o3":144.0,"so2":6.4,"mosquito_risk":0,"arthritis_risk":5,"migraine_risk":10,"frizz_risk":0,"updated_at":"2026-05-10T18:55:11.094245+05:30"},{"city":"Bidar","state":"Karnataka","latitude":17.9104,"longitude":77.5199,"temp":32.5,"humidity":31,"rain":0.0,"pressure":933.1,"uv_index":9.1,"wind_gusts":32.4,"aqi":116,"pm10":36.1,"pm2_5":20.3,"no2":8.2,"co":231.0,"o3":139.0,"so2":4.5,"mosquito_risk":0,"arthritis_risk":5,"migraine_risk":7,"frizz_risk":0,"updated_at":"2026-05-10T18:55:11.094252+05:30"},{"city":"Hospet","state":"Karnataka","latitude":15.2689,"longitude":76.3909,"temp":32.6,"humidity":42,"rain":0.0,"pressure":952.8,"uv_index":8.85,"wind_gusts":35.3,"aqi":102,"pm10":45.4,"pm2_5":23.1,"no2":8.6,"co":265.0,"o3":133.0,"so2":7.7,"mosquito_risk":0,"arthritis_risk":5,"migraine_risk":7,"frizz_risk":1,"updated_at":"2026-05-10T18:55:11.094258+05:30"},{"city":"Tirupur","state":"Tamil Nadu","latitude":11.1085,"longitude":77.3411,"temp":29.1,"humidity":65,"rain":0.0,"pressure":972.4,"uv_index":9.15,"wind_gusts":24.8,"aqi":98,"pm10":24.9,"pm2_5":22.0,"no2":16.5,"co":265.0,"o3":122.0,"so2":8.4,"mosquito_risk":7,"arthritis_risk":5,"migraine_risk":7,"frizz_risk":1,"updated_at":"2026-05-10T18:55:11.094265+05:30"},{"city":"Alappuzha","state":"Kerala","latitude":9.4981,"longitude":76.3388,"temp":27.8,"humidity":86,"rain":0.0,"pressure":1005.6,"uv_index":7.8,"wind_gusts":23.8,"aqi":91,"pm10":14.5,"pm2_5":12.4,"no2":11.3,"co":231.0,"o3":84.0,"so2":3.4,"mosquito_risk":7,"arthritis_risk":5,"migraine_risk":4,"frizz_risk":1,"updated_at":"2026-05-10T18:55:11.094273+05:30"},{"city":"Munnar","state":"Kerala","latitude":10.0889,"longitude":77.0595,"temp":19.0,"humidity":96,"rain":0.0,"pressure":854.7,"uv_index":9.2,"wind_gusts":23.4,"aqi":44,"pm10":14.4,"pm2_5":13.4,"no2":8.0,"co":246.0,"o3":82.0,"so2":2.9,"mosquito_risk":3,"arthritis_risk":10,"migraine_risk":7,"frizz_risk":1,"updated_at":"2026-05-10T18:55:11.094280+05:30"},{"city":"Silchar","state":"Assam","latitude":24.8333,"longitude":92.7789,"temp":27.7,"humidity":74,"rain":0.0,"pressure":1006.0,"uv_index":7.95,"wind_gusts":19.1,"aqi":150,"pm10":76.6,"pm2_5":65.2,"no2":14.6,"co":586.0,"o3":108.0,"so2":11.8,"mosquito_risk":7,"arthritis_risk":5,"migraine_risk":4,"frizz_risk":1,"updated_at":"2026-05-10T18:55:11.094287+05:30"},{"city":"Dibrugarh","state":"Assam","latitude":27.4728,"longitude":94.912,"temp":26.0,"humidity":77,"rain":0.0,"pressure":996.6,"uv_index":8.8,"wind_gusts":38.2,"aqi":117,"pm10":32.5,"pm2_5":27.1,"no2":11.1,"co":386.0,"o3":94.0,"so2":2.8,"mosquito_risk":7,"arthritis_risk":5,"migraine_risk":7,"frizz_risk":1,"updated_at":"2026-05-10T18:55:11.094294+05:30"}]