[{"city":"Delhi","state":"Delhi","latitude":28.6139,"longitude":77.209,"temp":37.0,"humidity":25,"rain":0.0,"pressure":974.6,"uv_index":7.6,"wind_gusts":36.0,"aqi":204,"pm10":334.3,"pm2_5":71.2,"no2":6.4,"co":420.0,"o3":227.0,"so2":24.4,"mosquito_risk":0,"arthritis_risk":5,"migraine_risk":10,"frizz_risk":0,"updated_at":"2026-05-02T17:19:16.378218+05:30"},{"city":"Mumbai","state":"Maharashtra","latitude":19.076,"longitude":72.8777,"temp":31.3,"humidity":65,"rain":0.0,"pressure":1005.0,"uv_index":7.9,"wind_gusts":42.1,"aqi":74,"pm10":55.8,"pm2_5":22.7,"no2":6.5,"co":217.0,"o3":90.0,"so2":16.3,"mosquito_risk":3,"arthritis_risk":5,"migraine_risk":4,"frizz_risk":1,"updated_at":"2026-05-02T17:19:16.378265+05:30"},{"city":"Bangalore","state":"Karnataka","latitude":12.9716,"longitude":77.5946,"temp":32.3,"humidity":34,"rain":0.0,"pressure":908.9,"uv_index":9.5,"wind_gusts":33.1,"aqi":121,"pm10":30.7,"pm2_5":16.4,"no2":7.3,"co":339.0,"o3":158.0,"so2":5.0,"mosquito_risk":0,"arthritis_risk":5,"migraine_risk":7,"frizz_risk":0,"updated_at":"2026-05-02T17:19:16.378287+05:30"},{"city":"Hyderabad","state":"Telangana","latitude":17.385,"longitude":78.4867,"temp":38.7,"humidity":16,"rain":0.0,"pressure":948.1,"uv_index":9.25,"wind_gusts":32.8,"aqi":83,"pm10":35.0,"pm2_5":13.1,"no2":0.5,"co":257.0,"o3":130.0,"so2":2.7,"mosquito_risk":0,"arthritis_risk":5,"migraine_risk":10,"frizz_risk":0,"updated_at":"2026-05-02T17:19:16.378298+05:30"},{"city":"Chennai","state":"Tamil Nadu","latitude":13.0827,"longitude":80.2707,"temp":32.8,"humidity":67,"rain":0.0,"pressure":1001.7,"uv_index":9.2,"wind_gusts":54.7,"aqi":95,"pm10":21.6,"pm2_5":16.2,"no2":4.5,"co":232.0,"o3":121.0,"so2":6.1,"mosquito_risk":3,"arthritis_risk":5,"migraine_risk":4,"frizz_risk":1,"updated_at":"2026-05-02T17:19:16.378308+05:30"},{"city":"Kolkata","state":"West Bengal","latitude":22.5726,"longitude":88.3639,"temp":25.9,"humidity":87,"rain":0.0,"pressure":1000.7,"uv_index":8.85,"wind_gusts":42.8,"aqi":66,"pm10":33.3,"pm2_5":25.0,"no2":8.8,"co":506.0,"o3":124.0,"so2":7.9,"mosquito_risk":7,"arthritis_risk":5,"migraine_risk":4,"frizz_risk":1,"updated_at":"2026-05-02T17:19:16.378317+05:30"},{"city":"Pune","state":"Maharashtra","latitude":18.5204,"longitude":73.8567,"temp":33.2,"humidity":35,"rain":0.0,"pressure":945.1,"uv_index":8.5,"wind_gusts":48.6,"aqi":60,"pm10":66.6,"pm2_5":17.5,"no2":2.0,"co":178.0,"o3":107.0,"so2":2.7,"mosquito_risk":0,"arthritis_risk":5,"migraine_risk":7,"frizz_risk":0,"updated_at":"2026-05-02T17:19:16.378325+05:30"},{"city":"Ahmedabad","state":"Gujarat","latitude":23.0225,"longitude":72.5714,"temp":41.2,"humidity":21,"rain":0.0,"pressure":993.4,"uv_index":8.1,"wind_gusts":51.1,"aqi":57,"pm10":191.4,"pm2_5":31.3,"no2":2.7,"co":166.0,"o3":121.0,"so2":3.0,"mosquito_risk":0,"arthritis_risk":5,"migraine_risk":10,"frizz_risk":0,"updated_at":"2026-05-02T17:19:16.378335+05:30"},{"city":"Jaipur","state":"Rajasthan","latitude":26.9124,"longitude":75.7873,"temp":39.5,"humidity":12,"rain":0.0,"pressure":952.0,"uv_index":8.15,"wind_gusts":35.6,"aqi":119,"pm10":213.3,"pm2_5":31.0,"no2":0.0,"co":169.0,"o3":124.0,"so2":2.2,"mosquito_risk":0,"arthritis_risk":5,"migraine_risk":10,"frizz_risk":0,"updated_at":"2026-05-02T17:19:16.378344+05:30"},{"city":"Lucknow","state":"Uttar Pradesh","latitude":26.8467,"longitude":80.9462,"temp":34.8,"humidity":34,"rain":0.0,"pressure":986.0,"uv_index":8.1,"wind_gusts":40.7,"aqi":161,"pm10":94.5,"pm2_5":30.7,"no2":2.3,"co":304.0,"o3":178.0,"so2":7.8,"mosquito_risk":0,"arthritis_risk":5,"migraine_risk":7,"frizz_risk":1,"updated_at":"2026-05-02T17:19:16.378352+05:30"},{"city":"Kanpur","state":"Uttar Pradesh","latitude":26.4499,"longitude":80.3319,"temp":33.5,"humidity":37,"rain":0.0,"pressure":984.4,"uv_index":8.1,"wind_gusts":37.1,"aqi":168,"pm10":153.7,"pm2_5":37.1,"no2":1.6,"co":254.0,"o3":184.0,"so2":8.2,"mosquito_risk":0,"arthritis_risk":5,"migraine_risk":7,"frizz_risk":1,"updated_at":"2026-05-02T17:19:16.378360+05:30"},{"city":"Chandigarh","state":"Chandigarh","latitude":30.7333,"longitude":76.7794,"temp":33.5,"humidity":26,"rain":0.0,"pressure":961.8,"uv_index":7.6,"wind_gusts":33.8,"aqi":165,"pm10":41.1,"pm2_5":22.6,"no2":1.7,"co":303.0,"o3":175.0,"so2":14.7,"mosquito_risk":0,"arthritis_risk":5,"migraine_risk":7,"frizz_risk":0,"updated_at":"2026-05-02T17:19:16.378371+05:30"},{"city":"Srinagar","state":"Jammu and Kashmir","latitude":34.0837,"longitude":74.7973,"temp":16.7,"humidity":76,"rain":0.0,"pressure":838.7,"uv_index":8.8,"wind_gusts":36.0,"aqi":100,"pm10":12.8,"pm2_5":8.5,"no2":4.7,"co":289.0,"o3":130.0,"so2":2.1,"mosquito_risk":3,"arthritis_risk":5,"migraine_risk":7,"frizz_risk":0,"updated_at":"2026-05-02T17:19:16.378379+05:30"},{"city":"Jammu","state":"Jammu and Kashmir","latitude":32.7266,"longitude":74.857,"temp":34.2,"humidity":23,"rain":0.0,"pressure":965.9,"uv_index":8.4,"wind_gusts":31.0,"aqi":120,"pm10":25.6,"pm2_5":13.1,"no2":1.5,"co":231.0,"o3":161.0,"so2":3.3,"mosquito_risk":0,"arthritis_risk":5,"migraine_risk":7,"frizz_risk":0,"updated_at":"2026-05-02T17:19:16.378387+05:30"},{"city":"Amritsar","state":"Punjab","latitude":31.634,"longitude":74.8723,"temp":35.5,"humidity":21,"rain":0.0,"pressure":973.4,"uv_index":8.25,"wind_gusts":29.9,"aqi":152,"pm10":36.6,"pm2_5":17.8,"no2":2.1,"co":262.0,"o3":190.0,"so2":7.4,"mosquito_risk":0,"arthritis_risk":5,"migraine_risk":10,"frizz_risk":0,"updated_at":"2026-05-02T17:19:16.378394+05:30"},{"city":"Ludhiana","state":"Punjab","latitude":30.901,"longitude":75.8573,"temp":35.8,"humidity":21,"rain":0.0,"pressure":971.4,"uv_index":7.85,"wind_gusts":36.0,"aqi":152,"pm10":59.6,"pm2_5":20.5,"no2":0.6,"co":244.0,"o3":158.0,"so2":4.4,"mosquito_risk":0,"arthritis_risk":5,"migraine_risk":10,"frizz_risk":0,"updated_at":"2026-05-02T17:19:16.378401+05:30"},{"city":"Jalandhar","state":"Punjab","latitude":31.326,"longitude":75.5762,"temp":35.1,"humidity":23,"rain":0.0,"pressure":972.5,"uv_index":8.05,"wind_gusts":36.7,"aqi":134,"pm10":58.8,"pm2_5":19.3,"no2":0.8,"co":295.0,"o3":162.0,"so2":4.8,"mosquito_risk":0,"arthritis_risk":5,"migraine_risk":10,"frizz_risk":0,"updated_at":"2026-05-02T17:19:16.378409+05:30"},{"city":"Dehradun","state":"Uttarakhand","latitude":30.6284,"longitude":78.0322,"temp":19.0,"humidity":64,"rain":0.0,"pressure":826.1,"uv_index":8.05,"wind_gusts":44.6,"aqi":139,"pm10":49.6,"pm2_5":24.5,"no2":0.0,"co":263.0,"o3":169.0,"so2":6.0,"mosquito_risk":3,"arthritis_risk":5,"migraine_risk":7,"frizz_risk":0,"updated_at":"2026-05-02T17:19:16.378419+05:30"},{"city":"Shimla","state":"Himachal Pradesh","latitude":31.1048,"longitude":77.1734,"temp":17.7,"humidity":44,"rain":0.0,"pressure":781.4,"uv_index":8.1,"wind_gusts":44.6,"aqi":151,"pm10":34.3,"pm2_5":18.6,"no2":0.4,"co":216.0,"o3":173.0,"so2":11.9,"mosquito_risk":0,"arthritis_risk":5,"migraine_risk":7,"frizz_risk":0,"updated_at":"2026-05-02T17:19:16.378427+05:30"},{"city":"Manali","state":"Himachal Pradesh","latitude":32.2396,"longitude":77.1887,"temp":14.7,"humidity":75,"rain":0.0,"pressure":813.8,"uv_index":10.3,"wind_gusts":39.2,"aqi":138,"pm10":10.9,"pm2_5":6.4,"no2":0.5,"co":158.0,"o3":171.0,"so2":0.5,"mosquito_risk":3,"arthritis_risk":5,"migraine_risk":7,"frizz_risk":0,"updated_at":"2026-05-02T17:19:16.378435+05:30"},{"city":"Gurgaon","state":"Haryana","latitude":28.4595,"longitude":77.0266,"temp":37.4,"humidity":21,"rain":0.0,"pressure":973.0,"uv_index":7.7,"wind_gusts":26.6,"aqi":815,"pm10":614.7,"pm2_5":93.1,"no2":4.1,"co":312.0,"o3":225.0,"so2":20.5,"mosquito_risk":0,"arthritis_risk":5,"migraine_risk":10,"frizz_risk":0,"updated_at":"2026-05-02T17:19:16.378442+05:30"},{"city":"Noida","state":"Uttar Pradesh","latitude":28.5355,"longitude":77.391,"temp":36.0,"humidity":30,"rain":0.0,"pressure":976.1,"uv_index":7.65,"wind_gusts":24.8,"aqi":815,"pm10":614.7,"pm2_5":93.1,"no2":4.1,"co":420.0,"o3":225.0,"so2":20.5,"mosquito_risk":0,"arthritis_risk":5,"migraine_risk":10,"frizz_risk":0,"updated_at":"2026-05-02T17:19:16.378450+05:30"},{"city":"Ghaziabad","state":"Uttar Pradesh","latitude":28.6692,"longitude":77.4538,"temp":36.2,"humidity":26,"rain":0.0,"pressure":974.7,"uv_index":7.6,"wind_gusts":25.2,"aqi":168,"pm10":292.4,"pm2_5":60.1,"no2":4.3,"co":303.0,"o3":211.0,"so2":14.3,"mosquito_risk":0,"arthritis_risk":5,"migraine_risk":10,"frizz_risk":0,"updated_at":"2026-05-02T17:19:16.378457+05:30"},{"city":"Faridabad","state":"Haryana","latitude":28.4089,"longitude":77.3178,"temp":37.5,"humidity":20,"rain":0.0,"pressure":975.2,"uv_index":7.65,"wind_gusts":26.3,"aqi":815,"pm10":614.7,"pm2_5":93.1,"no2":4.1,"co":300.0,"o3":225.0,"so2":20.5,"mosquito_risk":0,"arthritis_risk":5,"migraine_risk":10,"frizz_risk":0,"updated_at":"2026-05-02T17:19:16.378464+05:30"},{"city":"Meerut","state":"Uttar Pradesh","latitude":28.9845,"longitude":77.7064,"temp":33.9,"humidity":34,"rain":0.0,"pressure":974.0,"uv_index":7.5,"wind_gusts":29.5,"aqi":168,"pm10":292.4,"pm2_5":60.1,"no2":4.3,"co":269.0,"o3":211.0,"so2":14.3,"mosquito_risk":0,"arthritis_risk":5,"migraine_risk":7,"frizz_risk":0,"updated_at":"2026-05-02T17:19:16.378472+05:30"},{"city":"Agra","state":"Uttar Pradesh","latitude":27.1767,"longitude":78.0081,"temp":34.8,"humidity":28,"rain":0.0,"pressure":979.9,"uv_index":7.95,"wind_gusts":45.7,"aqi":689,"pm10":845.6,"pm2_5":88.5,"no2":1.9,"co":200.0,"o3":166.0,"so2":7.1,"mosquito_risk":0,"arthritis_risk":5,"migraine_risk":7,"frizz_risk":0,"updated_at":"2026-05-02T17:19:16.378479+05:30"},{"city":"Varanasi","state":"Uttar Pradesh","latitude":25.3176,"longitude":82.9739,"temp":35.2,"humidity":32,"rain":0.0,"pressure":989.8,"uv_index":8.6,"wind_gusts":34.2,"aqi":189,"pm10":73.8,"pm2_5":34.2,"no2":3.1,"co":333.0,"o3":202.0,"so2":13.7,"mosquito_risk":0,"arthritis_risk":5,"migraine_risk":10,"frizz_risk":1,"updated_at":"2026-05-02T17:19:16.378486+05:30"},{"city":"Prayagraj","state":"Uttar Pradesh","latitude":25.4358,"longitude":81.8463,"temp":36.5,"humidity":31,"rain":0.0,"pressure":987.9,"uv_index":8.5,"wind_gusts":37.1,"aqi":186,"pm10":72.6,"pm2_5":33.6,"no2":3.0,"co":269.0,"o3":199.0,"so2":11.2,"mosquito_risk":0,"arthritis_risk":5,"migraine_risk":10,"frizz_risk":1,"updated_at":"2026-05-02T17:19:16.378496+05:30"},{"city":"Gorakhpur","state":"Uttar Pradesh","latitude":26.7606,"longitude":83.3732,"temp":31.5,"humidity":44,"rain":0.0,"pressure":990.6,"uv_index":8.45,"wind_gusts":31.3,"aqi":150,"pm10":87.8,"pm2_5":30.7,"no2":1.9,"co":324.0,"o3":184.0,"so2":5.5,"mosquito_risk":0,"arthritis_risk":5,"migraine_risk":7,"frizz_risk":1,"updated_at":"2026-05-02T17:19:16.378503+05:30"},{"city":"Bareilly","state":"Uttar Pradesh","latitude":28.367,"longitude":79.4304,"temp":33.6,"humidity":34,"rain":0.0,"pressure":979.5,"uv_index":7.9,"wind_gusts":32.8,"aqi":164,"pm10":258.0,"pm2_5":57.3,"no2":1.5,"co":270.0,"o3":195.0,"so2":11.8,"mosquito_risk":0,"arthritis_risk":5,"migraine_risk":7,"frizz_risk":0,"updated_at":"2026-05-02T17:19:16.378510+05:30"},{"city":"Aligarh","state":"Uttar Pradesh","latitude":27.8974,"longitude":78.088,"temp":35.0,"humidity":31,"rain":0.0,"pressure":977.6,"uv_index":7.75,"wind_gusts":30.6,"aqi":434,"pm10":381.8,"pm2_5":58.9,"no2":1.8,"co":266.0,"o3":178.0,"so2":11.4,"mosquito_risk":0,"arthritis_risk":5,"migraine_risk":7,"frizz_risk":0,"updated_at":"2026-05-02T17:19:16.378517+05:30"},{"city":"Moradabad","state":"Uttar Pradesh","latitude":28.8386,"longitude":78.7733,"temp":33.4,"humidity":35,"rain":0.0,"pressure":976.6,"uv_index":7.7,"wind_gusts":31.3,"aqi":172,"pm10":213.7,"pm2_5":51.1,"no2":3.0,"co":283.0,"o3":197.0,"so2":20.2,"mosquito_risk":0,"arthritis_risk":5,"migraine_risk":7,"frizz_risk":0,"updated_at":"2026-05-02T17:19:16.378524+05:30"},{"city":"Saharanpur","state":"Uttar Pradesh","latitude":29.9637,"longitude":77.546,"temp":32.2,"humidity":38,"rain":0.0,"pressure":968.6,"uv_index":7.35,"wind_gusts":31.7,"aqi":172,"pm10":143.4,"pm2_5":34.8,"no2":4.6,"co":274.0,"o3":169.0,"so2":7.0,"mosquito_risk":0,"arthritis_risk":5,"migraine_risk":7,"frizz_risk":0,"updated_at":"2026-05-02T17:19:16.378530+05:30"},{"city":"Jhansi","state":"Uttar Pradesh","latitude":25.4484,"longitude":78.5685,"temp":38.4,"humidity":17,"rain":0.0,"pressure":969.6,"uv_index":8.4,"wind_gusts":43.2,"aqi":73,"pm10":86.8,"pm2_5":21.7,"no2":1.2,"co":156.0,"o3":128.0,"so2":5.8,"mosquito_risk":0,"arthritis_risk":5,"migraine_risk":10,"frizz_risk":0,"updated_at":"2026-05-02T17:19:19.707364+05:30"},{"city":"Surat","state":"Gujarat","latitude":21.1702,"longitude":72.8311,"temp":31.9,"humidity":63,"rain":0.0,"pressure":1001.1,"uv_index":7.7,"wind_gusts":54.4,"aqi":65,"pm10":36.1,"pm2_5":19.2,"no2":13.1,"co":216.0,"o3":69.0,"so2":31.7,"mosquito_risk":3,"arthritis_risk":5,"migraine_risk":4,"frizz_risk":1,"updated_at":"2026-05-02T17:19:19.707395+05:30"},{"city":"Vadodara","state":"Gujarat","latitude":22.3072,"longitude":73.1812,"temp":37.8,"humidity":40,"rain":0.0,"pressure":996.8,"uv_index":8.05,"wind_gusts":50.4,"aqi":57,"pm10":51.8,"pm2_5":18.7,"no2":2.6,"co":193.0,"o3":121.0,"so2":6.8,"mosquito_risk":0,"arthritis_risk":5,"migraine_risk":10,"frizz_risk":1,"updated_at":"2026-05-02T17:19:19.707405+05:30"},{"city":"Rajkot","state":"Gujarat","latitude":22.3039,"longitude":70.8022,"temp":39.6,"humidity":19,"rain":0.0,"pressure":987.5,"uv_index":7.75,"wind_gusts":55.8,"aqi":53,"pm10":83.8,"pm2_5":20.5,"no2":1.4,"co":141.0,"o3":114.0,"so2":4.9,"mosquito_risk":0,"arthritis_risk":5,"migraine_risk":10,"frizz_risk":0,"updated_at":"2026-05-02T17:19:19.707414+05:30"},{"city":"Thane","state":"Maharashtra","latitude":19.2183,"longitude":72.9781,"temp":32.5,"humidity":59,"rain":0.0,"pressure":1004.1,"uv_index":7.9,"wind_gusts":40.3,"aqi":74,"pm10":55.8,"pm2_5":22.7,"no2":6.5,"co":212.0,"o3":90.0,"so2":16.3,"mosquito_risk":0,"arthritis_risk":5,"migraine_risk":4,"frizz_risk":1,"updated_at":"2026-05-02T17:19:19.707422+05:30"},{"city":"Nagpur","state":"Maharashtra","latitude":21.1458,"longitude":79.0882,"temp":40.5,"humidity":15,"rain":0.0,"pressure":966.1,"uv_index":8.95,"wind_gusts":63.0,"aqi":99,"pm10":45.5,"pm2_5":15.7,"no2":4.4,"co":155.0,"o3":127.0,"so2":11.6,"mosquito_risk":0,"arthritis_risk":5,"migraine_risk":10,"frizz_risk":0,"updated_at":"2026-05-02T17:19:19.707430+05:30"},{"city":"Nashik","state":"Maharashtra","latitude":19.9975,"longitude":73.7898,"temp":33.8,"humidity":33,"rain":0.0,"pressure":942.2,"uv_index":8.25,"wind_gusts":45.4,"aqi":65,"pm10":41.3,"pm2_5":15.7,"no2":1.1,"co":156.0,"o3":104.0,"so2":3.1,"mosquito_risk":0,"arthritis_risk":5,"migraine_risk":7,"frizz_risk":0,"updated_at":"2026-05-02T17:19:19.707437+05:30"},{"city":"Aurangabad","state":"Maharashtra","latitude":19.8762,"longitude":75.3433,"temp":37.9,"humidity":17,"rain":0.0,"pressure":939.6,"uv_index":9.05,"wind_gusts":40.3,"aqi":57,"pm10":51.2,"pm2_5":15.1,"no2":0.9,"co":158.0,"o3":108.0,"so2":1.7,"mosquito_risk":0,"arthritis_risk":5,"migraine_risk":10,"frizz_risk":0,"updated_at":"2026-05-02T17:19:19.707445+05:30"},{"city":"Solapur","state":"Maharashtra","latitude":17.6599,"longitude":75.9064,"temp":39.5,"humidity":12,"rain":0.0,"pressure":951.4,"uv_index":9.05,"wind_gusts":41.0,"aqi":53,"pm10":46.3,"pm2_5":13.6,"no2":0.8,"co":147.0,"o3":116.0,"so2":1.4,"mosquito_risk":0,"arthritis_risk":5,"migraine_risk":10,"frizz_risk":0,"updated_at":"2026-05-02T17:19:19.707452+05:30"},{"city":"Kolhapur","state":"Maharashtra","latitude":16.705,"longitude":74.2433,"temp":31.7,"humidity":41,"rain":0.0,"pressure":945.0,"uv_index":8.95,"wind_gusts":50.4,"aqi":65,"pm10":54.5,"pm2_5":17.6,"no2":2.1,"co":161.0,"o3":96.0,"so2":1.5,"mosquito_risk":0,"arthritis_risk":5,"migraine_risk":7,"frizz_risk":1,"updated_at":"2026-05-02T17:19:19.707459+05:30"},{"city":"Goa","state":"Goa","latitude":15.2993,"longitude":74.124,"temp":32.2,"humidity":59,"rain":0.0,"pressure":995.0,"uv_index":8.95,"wind_gusts":40.7,"aqi":70,"pm10":65.9,"pm2_5":17.9,"no2":0.8,"co":138.0,"o3":77.0,"so2":0.8,"mosquito_risk":0,"arthritis_risk":5,"migraine_risk":7,"frizz_risk":1,"updated_at":"2026-05-02T17:19:19.707466+05:30"},{"city":"Jodhpur","state":"Rajasthan","latitude":26.2389,"longitude":73.0243,"temp":41.8,"humidity":13,"rain":0.0,"pressure":973.6,"uv_index":8.3,"wind_gusts":37.8,"aqi":121,"pm10":230.0,"pm2_5":31.5,"no2":0.9,"co":145.0,"o3":122.0,"so2":2.4,"mosquito_risk":0,"arthritis_risk":5,"migraine_risk":10,"frizz_risk":0,"updated_at":"2026-05-02T17:19:19.707474+05:30"},{"city":"Udaipur","state":"Rajasthan","latitude":24.5854,"longitude":73.7125,"temp":37.7,"humidity":16,"rain":0.0,"pressure":940.1,"uv_index":8.8,"wind_gusts":40.7,"aqi":56,"pm10":134.1,"pm2_5":24.4,"no2":0.7,"co":143.0,"o3":128.0,"so2":2.6,"mosquito_risk":0,"arthritis_risk":5,"migraine_risk":10,"frizz_risk":0,"updated_at":"2026-05-02T17:19:19.707481+05:30"},{"city":"Kota","state":"Rajasthan","latitude":25.2138,"longitude":75.8648,"temp":40.2,"humidity":17,"rain":0.0,"pressure":970.5,"uv_index":8.35,"wind_gusts":40.3,"aqi":65,"pm10":72.2,"pm2_5":20.2,"no2":0.5,"co":162.0,"o3":123.0,"so2":2.9,"mosquito_risk":0,"arthritis_risk":5,"migraine_risk":10,"frizz_risk":0,"updated_at":"2026-05-02T17:19:19.707488+05:30"},{"city":"Bikaner","state":"Rajasthan","latitude":28.0229,"longitude":73.3119,"temp":41.2,"humidity":12,"rain":0.0,"pressure":972.2,"uv_index":8.25,"wind_gusts":40.3,"aqi":66,"pm10":105.0,"pm2_5":21.0,"no2":0.1,"co":151.0,"o3":122.0,"so2":5.0,"mosquito_risk":0,"arthritis_risk":5,"migraine_risk":10,"frizz_risk":0,"updated_at":"2026-05-02T17:19:19.707495+05:30"},{"city":"Ajmer","state":"Rajasthan","latitude":26.4499,"longitude":74.6399,"temp":38.5,"humidity":14,"rain":0.0,"pressure":947.3,"uv_index":8.3,"wind_gusts":43.6,"aqi":64,"pm10":92.7,"pm2_5":21.8,"no2":0.4,"co":151.0,"o3":118.0,"so2":2.9,"mosquito_risk":0,"arthritis_risk":5,"migraine_risk":10,"frizz_risk":0,"updated_at":"2026-05-02T17:19:19.707502+05:30"},{"city":"Gwalior","state":"Madhya Pradesh","latitude":26.2183,"longitude":78.1828,"temp":38.7,"humidity":15,"rain":0.0,"pressure":975.1,"uv_index":8.15,"wind_gusts":44.6,"aqi":105,"pm10":106.2,"pm2_5":27.1,"no2":1.0,"co":188.0,"o3":144.0,"so2":3.3,"mosquito_risk":0,"arthritis_risk":5,"migraine_risk":10,"frizz_risk":0,"updated_at":"2026-05-02T17:19:19.707509+05:30"},{"city":"Indore","state":"Madhya Pradesh","latitude":22.7196,"longitude":75.8577,"temp":38.2,"humidity":15,"rain":0.0,"pressure":942.3,"uv_index":8.65,"wind_gusts":53.3,"aqi":59,"pm10":54.7,"pm2_5":16.2,"no2":1.1,"co":176.0,"o3":111.0,"so2":2.6,"mosquito_risk":0,"arthritis_risk":5,"migraine_risk":10,"frizz_risk":0,"updated_at":"2026-05-02T17:19:19.707516+05:30"},{"city":"Bhopal","state":"Madhya Pradesh","latitude":23.2599,"longitude":77.4126,"temp":34.9,"humidity":26,"rain":0.0,"pressure":947.9,"uv_index":8.7,"wind_gusts":60.1,"aqi":64,"pm10":76.6,"pm2_5":20.0,"no2":0.6,"co":175.0,"o3":115.0,"so2":2.6,"mosquito_risk":0,"arthritis_risk":5,"migraine_risk":7,"frizz_risk":0,"updated_at":"2026-05-02T17:19:19.707523+05:30"},{"city":"Jabalpur","state":"Madhya Pradesh","latitude":23.1815,"longitude":79.9864,"temp":36.7,"humidity":22,"rain":0.0,"pressure":955.4,"uv_index":8.85,"wind_gusts":45.4,"aqi":81,"pm10":60.3,"pm2_5":18.0,"no2":1.6,"co":158.0,"o3":119.0,"so2":3.3,"mosquito_risk":0,"arthritis_risk":5,"migraine_risk":10,"frizz_risk":0,"updated_at":"2026-05-02T17:19:19.707531+05:30"},{"city":"Ujjain","state":"Madhya Pradesh","latitude":23.1765,"longitude":75.7885,"temp":38.7,"humidity":14,"rain":0.0,"pressure":947.6,"uv_index":8.6,"wind_gusts":49.7,"aqi":57,"pm10":45.8,"pm2_5":13.9,"no2":0.6,"co":147.0,"o3":109.0,"so2":2.4,"mosquito_risk":0,"arthritis_risk":5,"migraine_risk":10,"frizz_risk":0,"updated_at":"2026-05-02T17:19:19.707538+05:30"},{"city":"Visakhapatnam","state":"Andhra Pradesh","latitude":17.6868,"longitude":83.2185,"temp":31.2,"humidity":75,"rain":0.0,"pressure":998.3,"uv_index":8.85,"wind_gusts":59.0,"aqi":62,"pm10":21.5,"pm2_5":17.2,"no2":10.1,"co":288.0,"o3":93.0,"so2":8.8,"mosquito_risk":3,"arthritis_risk":5,"migraine_risk":7,"frizz_risk":1,"updated_at":"2026-05-02T17:19:19.707545+05:30"},{"city":"Vijayawada","state":"Andhra Pradesh","latitude":16.5062,"longitude":80.648,"temp":36.7,"humidity":39,"rain":0.0,"pressure":996.0,"uv_index":9.2,"wind_gusts":34.2,"aqi":116,"pm10":37.8,"pm2_5":21.2,"no2":3.6,"co":262.0,"o3":162.0,"so2":7.5,"mosquito_risk":0,"arthritis_risk":5,"migraine_risk":10,"frizz_risk":1,"updated_at":"2026-05-02T17:19:19.707552+05:30"},{"city":"Guntur","state":"Andhra Pradesh","latitude":16.3067,"longitude":80.4365,"temp":37.0,"humidity":39,"rain":0.0,"pressure":996.9,"uv_index":9.2,"wind_gusts":35.3,"aqi":119,"pm10":38.3,"pm2_5":18.5,"no2":2.5,"co":261.0,"o3":148.0,"so2":6.0,"mosquito_risk":0,"arthritis_risk":5,"migraine_risk":10,"frizz_risk":1,"updated_at":"2026-05-02T17:19:19.707559+05:30"},{"city":"Nellore","state":"Andhra Pradesh","latitude":14.4426,"longitude":79.9865,"temp":35.8,"humidity":50,"rain":0.0,"pressure":998.6,"uv_index":9.2,"wind_gusts":49.3,"aqi":152,"pm10":31.7,"pm2_5":17.0,"no2":2.0,"co":255.0,"o3":152.0,"so2":3.4,"mosquito_risk":0,"arthritis_risk":5,"migraine_risk":10,"frizz_risk":1,"updated_at":"2026-05-02T17:19:19.707566+05:30"},{"city":"Kurnool","state":"Andhra Pradesh","latitude":15.8281,"longitude":78.0373,"temp":40.5,"humidity":14,"rain":0.0,"pressure":970.6,"uv_index":9.2,"wind_gusts":32.8,"aqi":89,"pm10":34.8,"pm2_5":14.3,"no2":0.5,"co":149.0,"o3":149.0,"so2":5.9,"mosquito_risk":0,"arthritis_risk":5,"migraine_risk":10,"frizz_risk":0,"updated_at":"2026-05-02T17:19:19.707574+05:30"},{"city":"Kakinada","state":"Andhra Pradesh","latitude":16.9891,"longitude":82.2475,"temp":34.3,"humidity":57,"rain":0.0,"pressure":1001.4,"uv_index":9.15,"wind_gusts":43.6,"aqi":52,"pm10":20.7,"pm2_5":15.0,"no2":2.2,"co":240.0,"o3":105.0,"so2":2.6,"mosquito_risk":0,"arthritis_risk":5,"migraine_risk":4,"frizz_risk":1,"updated_at":"2026-05-02T17:19:19.707581+05:30"},{"city":"Tirupati","state":"Andhra Pradesh","latitude":13.6288,"longitude":79.4192,"temp":40.5,"humidity":17,"rain":0.0,"pressure":984.4,"uv_index":9.3,"wind_gusts":38.9,"aqi":140,"pm10":36.0,"pm2_5":17.0,"no2":5.5,"co":157.0,"o3":150.0,"so2":3.5,"mosquito_risk":0,"arthritis_risk":5,"migraine_risk":10,"frizz_risk":0,"updated_at":"2026-05-02T17:19:19.707588+05:30"},{"city":"Warangal","state":"Telangana","latitude":17.9689,"longitude":79.5941,"temp":39.1,"humidity":19,"rain":0.0,"pressure":972.4,"uv_index":9.15,"wind_gusts":32.4,"aqi":107,"pm10":42.0,"pm2_5":16.0,"no2":0.7,"co":147.0,"o3":135.0,"so2":6.2,"mosquito_risk":0,"arthritis_risk":5,"migraine_risk":10,"frizz_risk":0,"updated_at":"2026-05-02T17:19:19.707595+05:30"},{"city":"Nizamabad","state":"Telangana","latitude":18.6725,"longitude":78.0941,"temp":40.3,"humidity":12,"rain":0.0,"pressure":958.1,"uv_index":9.1,"wind_gusts":31.7,"aqi":70,"pm10":41.0,"pm2_5":15.5,"no2":0.6,"co":168.0,"o3":130.0,"so2":2.1,"mosquito_risk":0,"arthritis_risk":5,"migraine_risk":10,"frizz_risk":0,"updated_at":"2026-05-02T17:19:19.707602+05:30"},{"city":"Mysore","state":"Karnataka","latitude":12.2958,"longitude":76.6396,"temp":32.3,"humidity":36,"rain":0.0,"pressure":925.8,"uv_index":9.4,"wind_gusts":48.6,"aqi":97,"pm10":27.1,"pm2_5":15.7,"no2":5.7,"co":196.0,"o3":138.0,"so2":1.8,"mosquito_risk":0,"arthritis_risk":5,"migraine_risk":7,"frizz_risk":0,"updated_at":"2026-05-02T17:19:19.707609+05:30"},{"city":"Mangalore","state":"Karnataka","latitude":12.9141,"longitude":74.856,"temp":31.2,"humidity":64,"rain":0.0,"pressure":1003.8,"uv_index":9.05,"wind_gusts":43.6,"aqi":65,"pm10":31.0,"pm2_5":14.4,"no2":1.3,"co":138.0,"o3":80.0,"so2":1.0,"mosquito_risk":3,"arthritis_risk":5,"migraine_risk":4,"frizz_risk":1,"updated_at":"2026-05-02T17:19:19.707616+05:30"},{"city":"Hubli-Dharwad","state":"Karnataka","latitude":15.3647,"longitude":75.124,"temp":31.9,"humidity":45,"rain":0.0,"pressure":937.6,"uv_index":9.2,"wind_gusts":52.6,"aqi":59,"pm10":50.8,"pm2_5":17.6,"no2":2.0,"co":168.0,"o3":115.0,"so2":1.6,"mosquito_risk":0,"arthritis_risk":5,"migraine_risk":7,"frizz_risk":1,"updated_at":"2026-05-02T17:19:19.707623+05:30"},{"city":"Belgaum","state":"Karnataka","latitude":15.8497,"longitude":74.4977,"temp":29.4,"humidity":54,"rain":0.0,"pressure":923.4,"uv_index":9.2,"wind_gusts":49.0,"aqi":61,"pm10":56.2,"pm2_5":17.2,"no2":1.6,"co":150.0,"o3":90.0,"so2":1.4,"mosquito_risk":4,"arthritis_risk":5,"migraine_risk":7,"frizz_risk":1,"updated_at":"2026-05-02T17:19:22.976647+05:30"},{"city":"Coimbatore","state":"Tamil Nadu","latitude":11.0168,"longitude":76.9558,"temp":29.6,"humidity":64,"rain":0.0,"pressure":958.8,"uv_index":9.1,"wind_gusts":52.6,"aqi":101,"pm10":22.2,"pm2_5":18.5,"no2":4.3,"co":268.0,"o3":119.0,"so2":2.5,"mosquito_risk":7,"arthritis_risk":5,"migraine_risk":7,"frizz_risk":1,"updated_at":"2026-05-02T17:19:22.976680+05:30"},{"city":"Madurai","state":"Tamil Nadu","latitude":9.9252,"longitude":78.1198,"temp":32.2,"humidity":52,"rain":0.0,"pressure":989.9,"uv_index":9.2,"wind_gusts":51.1,"aqi":142,"pm10":24.3,"pm2_5":19.4,"no2":4.0,"co":216.0,"o3":157.0,"so2":3.6,"mosquito_risk":0,"arthritis_risk":5,"migraine_risk":7,"frizz_risk":1,"updated_at":"2026-05-02T17:19:22.976690+05:30"},{"city":"Trichy","state":"Tamil Nadu","latitude":10.7905,"longitude":78.7047,"temp":34.4,"humidity":46,"rain":0.0,"pressure":995.8,"uv_index":9.2,"wind_gusts":56.2,"aqi":117,"pm10":22.0,"pm2_5":18.0,"no2":3.5,"co":241.0,"o3":152.0,"so2":3.4,"mosquito_risk":0,"arthritis_risk":5,"migraine_risk":7,"frizz_risk":1,"updated_at":"2026-05-02T17:19:22.976699+05:30"},{"city":"Salem","state":"Tamil Nadu","latitude":11.6643,"longitude":78.146,"temp":33.4,"humidity":41,"rain":0.0,"pressure":973.5,"uv_index":9.25,"wind_gusts":61.6,"aqi":162,"pm10":33.2,"pm2_5":25.2,"no2":4.4,"co":258.0,"o3":183.0,"so2":10.4,"mosquito_risk":0,"arthritis_risk":5,"migraine_risk":7,"frizz_risk":1,"updated_at":"2026-05-02T17:19:22.976707+05:30"},{"city":"Tirunelveli","state":"Tamil Nadu","latitude":8.7139,"longitude":77.7567,"temp":35.6,"humidity":40,"rain":0.0,"pressure":999.4,"uv_index":9.1,"wind_gusts":33.5,"aqi":59,"pm10":18.1,"pm2_5":15.1,"no2":3.4,"co":219.0,"o3":107.0,"so2":1.0,"mosquito_risk":0,"arthritis_risk":5,"migraine_risk":10,"frizz_risk":1,"updated_at":"2026-05-02T17:19:22.976715+05:30"},{"city":"Vellore","state":"Tamil Nadu","latitude":12.9165,"longitude":79.1325,"temp":36.5,"humidity":32,"rain":0.0,"pressure":978.7,"uv_index":9.3,"wind_gusts":44.6,"aqi":142,"pm10":34.3,"pm2_5":20.6,"no2":4.3,"co":228.0,"o3":156.0,"so2":3.7,"mosquito_risk":0,"arthritis_risk":5,"migraine_risk":10,"frizz_risk":1,"updated_at":"2026-05-02T17:19:22.976723+05:30"},{"city":"Erode","state":"Tamil Nadu","latitude":11.341,"longitude":77.7172,"temp":33.8,"humidity":44,"rain":0.0,"pressure":985.2,"uv_index":9.25,"wind_gusts":62.3,"aqi":136,"pm10":27.5,"pm2_5":20.3,"no2":5.2,"co":263.0,"o3":156.0,"so2":1.7,"mosquito_risk":0,"arthritis_risk":5,"migraine_risk":7,"frizz_risk":1,"updated_at":"2026-05-02T17:19:22.976731+05:30"},{"city":"Kochi","state":"Kerala","latitude":9.9312,"longitude":76.2673,"temp":28.2,"humidity":83,"rain":0.1,"pressure":1006.9,"uv_index":8.1,"wind_gusts":29.9,"aqi":74,"pm10":20.3,"pm2_5":14.3,"no2":7.3,"co":213.0,"o3":81.0,"so2":1.5,"mosquito_risk":10,"arthritis_risk":5,"migraine_risk":4,"frizz_risk":1,"updated_at":"2026-05-02T17:19:22.976739+05:30"},{"city":"Thiruvananthapuram","state":"Kerala","latitude":8.5241,"longitude":76.9366,"temp":26.8,"humidity":87,"rain":0.0,"pressure":1006.5,"uv_index":7.1,"wind_gusts":34.6,"aqi":52,"pm10":16.8,"pm2_5":11.2,"no2":1.9,"co":182.0,"o3":94.0,"so2":0.6,"mosquito_risk":7,"arthritis_risk":5,"migraine_risk":4,"frizz_risk":1,"updated_at":"2026-05-02T17:19:22.976747+05:30"},{"city":"Kozhikode","state":"Kerala","latitude":11.2588,"longitude":75.7804,"temp":28.9,"humidity":84,"rain":0.0,"pressure":1005.5,"uv_index":8.7,"wind_gusts":39.6,"aqi":59,"pm10":28.6,"pm2_5":16.2,"no2":0.7,"co":147.0,"o3":73.0,"so2":0.6,"mosquito_risk":7,"arthritis_risk":5,"migraine_risk":4,"frizz_risk":1,"updated_at":"2026-05-02T17:19:22.976754+05:30"},{"city":"Thrissur","state":"Kerala","latitude":10.5276,"longitude":76.2144,"temp":29.8,"humidity":73,"rain":0.0,"pressure":1004.7,"uv_index":7.8,"wind_gusts":37.4,"aqi":70,"pm10":17.6,"pm2_5":12.8,"no2":2.3,"co":204.0,"o3":90.0,"so2":1.3,"mosquito_risk":7,"arthritis_risk":5,"migraine_risk":4,"frizz_risk":1,"updated_at":"2026-05-02T17:19:22.976763+05:30"},{"city":"Kannur","state":"Kerala","latitude":11.8745,"longitude":75.3704,"temp":31.3,"humidity":68,"rain":0.0,"pressure":1004.5,"uv_index":9.0,"wind_gusts":50.4,"aqi":76,"pm10":27.4,"pm2_5":15.3,"no2":1.4,"co":139.0,"o3":81.0,"so2":0.7,"mosquito_risk":3,"arthritis_risk":5,"migraine_risk":4,"frizz_risk":1,"updated_at":"2026-05-02T17:19:22.976770+05:30"},{"city":"Patna","state":"Bihar","latitude":25.5941,"longitude":85.1376,"temp":30.4,"humidity":54,"rain":0.0,"pressure":993.9,"uv_index":8.65,"wind_gusts":29.9,"aqi":168,"pm10":91.3,"pm2_5":40.9,"no2":5.3,"co":334.0,"o3":187.0,"so2":12.2,"mosquito_risk":0,"arthritis_risk":5,"migraine_risk":7,"frizz_risk":1,"updated_at":"2026-05-02T17:19:22.976777+05:30"},{"city":"Gaya","state":"Bihar","latitude":24.7914,"longitude":85.0002,"temp":31.8,"humidity":46,"rain":0.0,"pressure":987.1,"uv_index":8.75,"wind_gusts":27.0,"aqi":174,"pm10":96.6,"pm2_5":36.8,"no2":2.8,"co":365.0,"o3":184.0,"so2":12.5,"mosquito_risk":0,"arthritis_risk":5,"migraine_risk":7,"frizz_risk":1,"updated_at":"2026-05-02T17:19:22.976783+05:30"},{"city":"Muzaffarpur","state":"Bihar","latitude":26.1209,"longitude":85.3647,"temp":28.8,"humidity":57,"rain":0.0,"pressure":994.2,"uv_index":8.65,"wind_gusts":30.6,"aqi":162,"pm10":75.9,"pm2_5":37.4,"no2":6.3,"co":339.0,"o3":175.0,"so2":9.8,"mosquito_risk":4,"arthritis_risk":5,"migraine_risk":7,"frizz_risk":1,"updated_at":"2026-05-02T17:19:22.976790+05:30"},{"city":"Bhagalpur","state":"Bihar","latitude":25.2425,"longitude":87.0117,"temp":27.5,"humidity":64,"rain":0.0,"pressure":995.7,"uv_index":8.65,"wind_gusts":29.9,"aqi":162,"pm10":75.2,"pm2_5":46.3,"no2":6.8,"co":358.0,"o3":191.0,"so2":5.4,"mosquito_risk":7,"arthritis_risk":5,"migraine_risk":7,"frizz_risk":1,"updated_at":"2026-05-02T17:19:22.976796+05:30"},{"city":"Ranchi","state":"Jharkhand","latitude":23.3441,"longitude":85.3096,"temp":28.9,"humidity":45,"rain":0.0,"pressure":932.3,"uv_index":9.2,"wind_gusts":46.8,"aqi":162,"pm10":61.5,"pm2_5":28.1,"no2":2.7,"co":209.0,"o3":163.0,"so2":9.7,"mosquito_risk":4,"arthritis_risk":5,"migraine_risk":7,"frizz_risk":0,"updated_at":"2026-05-02T17:19:22.976804+05:30"},{"city":"Jamshedpur","state":"Jharkhand","latitude":22.8046,"longitude":86.2029,"temp":31.6,"humidity":39,"rain":0.0,"pressure":984.3,"uv_index":9.0,"wind_gusts":45.4,"aqi":202,"pm10":75.9,"pm2_5":44.7,"no2":13.8,"co":365.0,"o3":187.0,"so2":39.6,"mosquito_risk":0,"arthritis_risk":5,"migraine_risk":7,"frizz_risk":1,"updated_at":"2026-05-02T17:19:22.976810+05:30"},{"city":"Dhanbad","state":"Jharkhand","latitude":23.7957,"longitude":86.4304,"temp":29.4,"humidity":64,"rain":0.0,"pressure":973.9,"uv_index":9.0,"wind_gusts":29.5,"aqi":183,"pm10":96.4,"pm2_5":59.8,"no2":16.6,"co":470.0,"o3":228.0,"so2":42.6,"mosquito_risk":7,"arthritis_risk":5,"migraine_risk":7,"frizz_risk":1,"updated_at":"2026-05-02T17:19:22.976817+05:30"},{"city":"Bokaro","state":"Jharkhand","latitude":23.6693,"longitude":86.1511,"temp":30.2,"humidity":59,"rain":0.0,"pressure":977.5,"uv_index":8.85,"wind_gusts":40.0,"aqi":163,"pm10":86.1,"pm2_5":41.2,"no2":16.1,"co":481.0,"o3":185.0,"so2":38.3,"mosquito_risk":0,"arthritis_risk":5,"migraine_risk":7,"frizz_risk":1,"updated_at":"2026-05-02T17:19:22.976825+05:30"},{"city":"Bhubaneswar","state":"Odisha","latitude":20.2961,"longitude":85.8245,"temp":31.5,"humidity":71,"rain":0.0,"pressure":996.6,"uv_index":9.05,"wind_gusts":54.7,"aqi":81,"pm10":33.9,"pm2_5":19.4,"no2":4.9,"co":289.0,"o3":127.0,"so2":4.3,"mosquito_risk":3,"arthritis_risk":5,"migraine_risk":7,"frizz_risk":1,"updated_at":"2026-05-02T17:19:22.976832+05:30"},{"city":"Cuttack","state":"Odisha","latitude":20.4625,"longitude":85.8828,"temp":32.0,"humidity":69,"rain":0.0,"pressure":998.3,"uv_index":9.1,"wind_gusts":49.7,"aqi":81,"pm10":33.9,"pm2_5":19.4,"no2":4.9,"co":293.0,"o3":127.0,"so2":4.3,"mosquito_risk":3,"arthritis_risk":5,"migraine_risk":7,"frizz_risk":1,"updated_at":"2026-05-02T17:19:22.976838+05:30"},{"city":"Rourkela","state":"Odisha","latitude":22.2604,"longitude":84.8536,"temp":34.5,"humidity":34,"rain":0.0,"pressure":978.1,"uv_index":8.95,"wind_gusts":56.9,"aqi":181,"pm10":59.5,"pm2_5":24.7,"no2":5.6,"co":385.0,"o3":170.0,"so2":19.2,"mosquito_risk":0,"arthritis_risk":5,"migraine_risk":7,"frizz_risk":1,"updated_at":"2026-05-02T17:19:22.976845+05:30"},{"city":"Raipur","state":"Chhattisgarh","latitude":21.2514,"longitude":81.6296,"temp":34.0,"humidity":30,"rain":0.0,"pressure":968.4,"uv_index":9.0,"wind_gusts":63.0,"aqi":163,"pm10":37.3,"pm2_5":17.1,"no2":7.2,"co":177.0,"o3":166.0,"so2":5.6,"mosquito_risk":0,"arthritis_risk":5,"migraine_risk":7,"frizz_risk":0,"updated_at":"2026-05-02T17:19:22.976851+05:30"},{"city":"Bhilai","state":"Chhattisgarh","latitude":21.1938,"longitude":81.3509,"temp":35.6,"humidity":27,"rain":0.0,"pressure":968.7,"uv_index":9.0,"wind_gusts":51.5,"aqi":148,"pm10":41.0,"pm2_5":16.9,"no2":6.9,"co":321.0,"o3":156.0,"so2":5.1,"mosquito_risk":0,"arthritis_risk":5,"migraine_risk":10,"frizz_risk":0,"updated_at":"2026-05-02T17:19:22.976858+05:30"},{"city":"Guwahati","state":"Assam","latitude":26.1158,"longitude":91.7086,"temp":22.5,"humidity":86,"rain":0.1,"pressure":998.0,"uv_index":4.3,"wind_gusts":22.0,"aqi":62,"pm10":18.8,"pm2_5":15.8,"no2":4.6,"co":332.0,"o3":113.0,"so2":2.2,"mosquito_risk":6,"arthritis_risk":5,"migraine_risk":3,"frizz_risk":1,"updated_at":"2026-05-02T17:19:22.976866+05:30"},{"city":"Agartala","state":"Tripura","latitude":23.8315,"longitude":91.2868,"temp":20.8,"humidity":98,"rain":0.2,"pressure":1003.4,"uv_index":8.8,"wind_gusts":38.2,"aqi":45,"pm10":19.2,"pm2_5":13.2,"no2":6.8,"co":220.0,"o3":85.0,"so2":2.2,"mosquito_risk":6,"arthritis_risk":5,"migraine_risk":4,"frizz_risk":1,"updated_at":"2026-05-02T17:19:22.976872+05:30"},{"city":"Shillong","state":"Meghalaya","latitude":25.5788,"longitude":91.8933,"temp":15.9,"humidity":95,"rain":0.1,"pressure":852.1,"uv_index":5.85,"wind_gusts":37.4,"aqi":49,"pm10":8.7,"pm2_5":6.1,"no2":4.4,"co":238.0,"o3":105.0,"so2":1.3,"mosquito_risk":6,"arthritis_risk":10,"migraine_risk":3,"frizz_risk":0,"updated_at":"2026-05-02T17:19:22.976879+05:30"},{"city":"Imphal","state":"Manipur","latitude":24.817,"longitude":93.9368,"temp":20.6,"humidity":80,"rain":0.0,"pressure":919.5,"uv_index":6.3,"wind_gusts":30.2,"aqi":56,"pm10":10.3,"pm2_5":6.7,"no2":4.6,"co":280.0,"o3":80.0,"so2":1.2,"mosquito_risk":3,"arthritis_risk":5,"migraine_risk":7,"frizz_risk":1,"updated_at":"2026-05-02T17:19:22.976886+05:30"},{"city":"Aizawl","state":"Mizoram","latitude":23.7271,"longitude":92.7176,"temp":19.3,"humidity":79,"rain":0.0,"pressure":889.1,"uv_index":9.0,"wind_gusts":43.6,"aqi":38,"pm10":12.6,"pm2_5":8.2,"no2":2.9,"co":173.0,"o3":79.0,"so2":0.5,"mosquito_risk":3,"arthritis_risk":5,"migraine_risk":7,"frizz_risk":0,"updated_at":"2026-05-02T17:19:22.976893+05:30"},{"city":"Kohima","state":"Nagaland","latitude":25.6701,"longitude":94.1077,"temp":16.4,"humidity":97,"rain":0.1,"pressure":850.9,"uv_index":6.0,"wind_gusts":28.4,"aqi":47,"pm10":11.0,"pm2_5":7.5,"no2":5.1,"co":233.0,"o3":83.0,"so2":0.7,"mosquito_risk":6,"arthritis_risk":10,"migraine_risk":3,"frizz_risk":0,"updated_at":"2026-05-02T17:19:22.976901+05:30"},{"city":"Gangtok","state":"Sikkim","latitude":27.3314,"longitude":88.6138,"temp":16.2,"humidity":72,"rain":0.0,"pressure":832.1,"uv_index":4.0,"wind_gusts":25.9,"aqi":65,"pm10":6.9,"pm2_5":5.7,"no2":2.6,"co":308.0,"o3":120.0,"so2":0.7,"mosquito_risk":3,"arthritis_risk":5,"migraine_risk":3,"frizz_risk":0,"updated_at":"2026-05-02T17:19:22.976907+05:30"},{"city":"Siliguri","state":"West Bengal","latitude":26.7271,"longitude":88.3953,"temp":23.0,"humidity":82,"rain":0.0,"pressure":988.5,"uv_index":2.75,"wind_gusts":22.0,"aqi":71,"pm10":9.5,"pm2_5":8.4,"no2":3.1,"co":460.0,"o3":131.0,"so2":1.4,"mosquito_risk":3,"arthritis_risk":5,"migraine_risk":3,"frizz_risk":1,"updated_at":"2026-05-02T17:19:26.254264+05:30"},{"city":"Durgapur","state":"West Bengal","latitude":23.5204,"longitude":87.3119,"temp":27.2,"humidity":73,"rain":0.0,"pressure":989.5,"uv_index":8.9,"wind_gusts":27.7,"aqi":187,"pm10":96.4,"pm2_5":73.3,"no2":22.3,"co":934.0,"o3":227.0,"so2":54.1,"mosquito_risk":7,"arthritis_risk":5,"migraine_risk":7,"frizz_risk":1,"updated_at":"2026-05-02T17:19:26.254305+05:30"},{"city":"Asansol","state":"West Bengal","latitude":23.6739,"longitude":86.9524,"temp":29.0,"humidity":66,"rain":0.0,"pressure":987.8,"uv_index":8.95,"wind_gusts":27.7,"aqi":194,"pm10":97.6,"pm2_5":72.4,"no2":19.8,"co":428.0,"o3":241.0,"so2":53.7,"mosquito_risk":7,"arthritis_risk":5,"migraine_risk":7,"frizz_risk":1,"updated_at":"2026-05-02T17:19:26.254319+05:30"},{"city":"Pondicherry","state":"Puducherry","latitude":11.9139,"longitude":79.8145,"temp":31.8,"humidity":72,"rain":0.0,"pressure":1003.3,"uv_index":9.15,"wind_gusts":56.5,"aqi":100,"pm10":21.6,"pm2_5":16.2,"no2":3.4,"co":202.0,"o3":122.0,"so2":3.2,"mosquito_risk":3,"arthritis_risk":5,"migraine_risk":4,"frizz_risk":1,"updated_at":"2026-05-02T17:19:26.254331+05:30"},{"city":"Port Blair","state":"Andaman and Nicobar Islands","latitude":11.6234,"longitude":92.7265,"temp":31.8,"humidity":56,"rain":0.0,"pressure":1004.5,"uv_index":9.0,"wind_gusts":32.8,"aqi":33,"pm10":12.7,"pm2_5":9.2,"no2":0.5,"co":151.0,"o3":59.0,"so2":0.3,"mosquito_risk":0,"arthritis_risk":5,"migraine_risk":4,"frizz_risk":1,"updated_at":"2026-05-02T17:19:26.254340+05:30"},{"city":"Haridwar","state":"Uttarakhand","latitude":29.9457,"longitude":78.1642,"temp":29.0,"humidity":51,"rain":0.0,"pressure":967.4,"uv_index":7.4,"wind_gusts":28.4,"aqi":168,"pm10":85.9,"pm2_5":28.6,"no2":1.8,"co":294.0,"o3":176.0,"so2":6.8,"mosquito_risk":4,"arthritis_risk":5,"migraine_risk":7,"frizz_risk":1,"updated_at":"2026-05-02T17:19:26.254348+05:30"},{"city":"Rishikesh","state":"Uttarakhand","latitude":30.0869,"longitude":78.2676,"temp":28.0,"humidity":53,"rain":0.0,"pressure":960.2,"uv_index":7.5,"wind_gusts":29.2,"aqi":165,"pm10":82.7,"pm2_5":29.6,"no2":0.6,"co":270.0,"o3":179.0,"so2":7.0,"mosquito_risk":4,"arthritis_risk":5,"migraine_risk":7,"frizz_risk":1,"updated_at":"2026-05-02T17:19:26.254356+05:30"},{"city":"Nainital","state":"Uttarakhand","latitude":29.3919,"longitude":79.4542,"temp":15.8,"humidity":76,"rain":0.0,"pressure":800.9,"uv_index":8.1,"wind_gusts":41.4,"aqi":153,"pm10":108.3,"pm2_5":32.5,"no2":1.2,"co":262.0,"o3":181.0,"so2":6.8,"mosquito_risk":3,"arthritis_risk":5,"migraine_risk":7,"frizz_risk":0,"updated_at":"2026-05-02T17:19:26.254363+05:30"},{"city":"Mussoorie","state":"Uttarakhand","latitude":30.4599,"longitude":78.0664,"temp":17.1,"humidity":66,"rain":0.0,"pressure":798.6,"uv_index":7.9,"wind_gusts":47.9,"aqi":174,"pm10":92.9,"pm2_5":33.1,"no2":0.5,"co":261.0,"o3":186.0,"so2":7.9,"mosquito_risk":3,"arthritis_risk":5,"migraine_risk":7,"frizz_risk":0,"updated_at":"2026-05-02T17:19:26.254372+05:30"},{"city":"Dharamshala","state":"Himachal Pradesh","latitude":32.219,"longitude":76.3234,"temp":23.5,"humidity":38,"rain":0.0,"pressure":864.9,"uv_index":8.25,"wind_gusts":46.1,"aqi":123,"pm10":18.2,"pm2_5":10.4,"no2":0.2,"co":189.0,"o3":155.0,"so2":1.3,"mosquito_risk":0,"arthritis_risk":5,"migraine_risk":7,"frizz_risk":0,"updated_at":"2026-05-02T17:19:26.254380+05:30"},{"city":"Dalhousie","state":"Himachal Pradesh","latitude":32.5387,"longitude":75.971,"temp":17.8,"humidity":49,"rain":0.0,"pressure":801.4,"uv_index":8.5,"wind_gusts":42.8,"aqi":140,"pm10":21.7,"pm2_5":10.6,"no2":0.0,"co":191.0,"o3":165.0,"so2":2.5,"mosquito_risk":0,"arthritis_risk":5,"migraine_risk":7,"frizz_risk":0,"updated_at":"2026-05-02T17:19:26.254388+05:30"},{"city":"Patiala","state":"Punjab","latitude":30.3398,"longitude":76.3869,"temp":36.2,"humidity":22,"rain":0.0,"pressure":970.5,"uv_index":7.5,"wind_gusts":33.1,"aqi":253,"pm10":413.5,"pm2_5":51.1,"no2":1.2,"co":260.0,"o3":161.0,"so2":6.8,"mosquito_risk":0,"arthritis_risk":5,"migraine_risk":10,"frizz_risk":0,"updated_at":"2026-05-02T17:19:26.254396+05:30"},{"city":"Bhatinda","state":"Punjab","latitude":30.211,"longitude":74.9455,"temp":39.3,"humidity":16,"rain":0.0,"pressure":974.7,"uv_index":8.15,"wind_gusts":36.0,"aqi":169,"pm10":91.7,"pm2_5":26.9,"no2":1.8,"co":234.0,"o3":179.0,"so2":12.2,"mosquito_risk":0,"arthritis_risk":5,"migraine_risk":10,"frizz_risk":0,"updated_at":"2026-05-02T17:19:26.254403+05:30"},{"city":"Rohtak","state":"Haryana","latitude":28.8955,"longitude":76.6066,"temp":37.8,"humidity":20,"rain":0.0,"pressure":973.4,"uv_index":7.65,"wind_gusts":27.7,"aqi":381,"pm10":406.1,"pm2_5":71.7,"no2":0.1,"co":312.0,"o3":203.0,"so2":11.2,"mosquito_risk":0,"arthritis_risk":5,"migraine_risk":10,"frizz_risk":0,"updated_at":"2026-05-02T17:19:26.254411+05:30"},{"city":"Panipat","state":"Haryana","latitude":29.3909,"longitude":76.9635,"temp":35.9,"humidity":27,"rain":0.0,"pressure":972.7,"uv_index":7.45,"wind_gusts":26.3,"aqi":483,"pm10":545.8,"pm2_5":82.7,"no2":2.2,"co":284.0,"o3":208.0,"so2":20.1,"mosquito_risk":0,"arthritis_risk":5,"migraine_risk":10,"frizz_risk":0,"updated_at":"2026-05-02T17:19:26.254418+05:30"},{"city":"Mathura","state":"Uttar Pradesh","latitude":27.4924,"longitude":77.6737,"temp":36.1,"humidity":25,"rain":0.0,"pressure":978.8,"uv_index":7.9,"wind_gusts":35.6,"aqi":671,"pm10":534.6,"pm2_5":66.1,"no2":2.3,"co":198.0,"o3":165.0,"so2":5.7,"mosquito_risk":0,"arthritis_risk":5,"migraine_risk":10,"frizz_risk":0,"updated_at":"2026-05-02T17:19:26.254425+05:30"},{"city":"Vrindavan","state":"Uttar Pradesh","latitude":27.5823,"longitude":77.7027,"temp":36.5,"humidity":22,"rain":0.0,"pressure":979.1,"uv_index":7.85,"wind_gusts":31.7,"aqi":671,"pm10":534.6,"pm2_5":66.1,"no2":2.3,"co":215.0,"o3":165.0,"so2":5.7,"mosquito_risk":0,"arthritis_risk":5,"migraine_risk":10,"frizz_risk":0,"updated_at":"2026-05-02T17:19:26.254432+05:30"},{"city":"Ayodhya","state":"Uttar Pradesh","latitude":26.7922,"longitude":82.1998,"temp":32.6,"humidity":40,"rain":0.0,"pressure":988.2,"uv_index":8.25,"wind_gusts":31.3,"aqi":150,"pm10":106.9,"pm2_5":29.6,"no2":1.0,"co":305.0,"o3":178.0,"so2":5.6,"mosquito_risk":0,"arthritis_risk":5,"migraine_risk":7,"frizz_risk":1,"updated_at":"2026-05-02T17:19:26.254439+05:30"},{"city":"Ratlam","state":"Madhya Pradesh","latitude":23.3315,"longitude":75.0367,"temp":38.3,"humidity":15,"rain":0.0,"pressure":948.6,"uv_index":8.55,"wind_gusts":47.9,"aqi":55,"pm10":40.0,"pm2_5":12.1,"no2":0.5,"co":142.0,"o3":110.0,"so2":2.2,"mosquito_risk":0,"arthritis_risk":5,"migraine_risk":10,"frizz_risk":0,"updated_at":"2026-05-02T17:19:26.254447+05:30"},{"city":"Sagar","state":"Madhya Pradesh","latitude":23.8388,"longitude":78.7378,"temp":33.8,"humidity":29,"rain":0.0,"pressure":944.4,"uv_index":8.7,"wind_gusts":53.6,"aqi":67,"pm10":75.2,"pm2_5":19.2,"no2":0.4,"co":151.0,"o3":126.0,"so2":3.6,"mosquito_risk":0,"arthritis_risk":5,"migraine_risk":7,"frizz_risk":0,"updated_at":"2026-05-02T17:19:26.254454+05:30"},{"city":"Satna","state":"Madhya Pradesh","latitude":24.6005,"longitude":80.8322,"temp":35.0,"humidity":24,"rain":0.0,"pressure":964.4,"uv_index":8.7,"wind_gusts":66.6,"aqi":113,"pm10":44.5,"pm2_5":13.9,"no2":0.4,"co":161.0,"o3":139.0,"so2":3.5,"mosquito_risk":0,"arthritis_risk":5,"migraine_risk":7,"frizz_risk":0,"updated_at":"2026-05-02T17:19:26.254461+05:30"},{"city":"Akola","state":"Maharashtra","latitude":20.7002,"longitude":77.0082,"temp":39.3,"humidity":21,"rain":0.0,"pressure":968.4,"uv_index":8.9,"wind_gusts":45.0,"aqi":55,"pm10":95.9,"pm2_5":22.8,"no2":1.3,"co":145.0,"o3":108.0,"so2":6.9,"mosquito_risk":0,"arthritis_risk":5,"migraine_risk":10,"frizz_risk":0,"updated_at":"2026-05-02T17:19:26.254469+05:30"},{"city":"Amravati","state":"Maharashtra","latitude":20.9374,"longitude":77.7796,"temp":39.5,"humidity":17,"rain":0.0,"pressure":960.7,"uv_index":8.9,"wind_gusts":42.5,"aqi":53,"pm10":88.0,"pm2_5":21.1,"no2":1.5,"co":148.0,"o3":112.0,"so2":5.7,"mosquito_risk":0,"arthritis_risk":5,"migraine_risk":10,"frizz_risk":0,"updated_at":"2026-05-02T17:19:26.254477+05:30"},{"city":"Latur","state":"Maharashtra","latitude":18.4088,"longitude":76.5604,"temp":39.5,"humidity":11,"rain":0.0,"pressure":934.5,"uv_index":9.05,"wind_gusts":32.8,"aqi":56,"pm10":42.3,"pm2_5":12.5,"no2":0.6,"co":135.0,"o3":116.0,"so2":3.5,"mosquito_risk":0,"arthritis_risk":5,"migraine_risk":10,"frizz_risk":0,"updated_at":"2026-05-02T17:19:26.254484+05:30"},{"city":"Nanded","state":"Maharashtra","latitude":19.1383,"longitude":77.3091,"temp":40.2,"humidity":13,"rain":0.0,"pressure":962.2,"uv_index":8.95,"wind_gusts":31.3,"aqi":61,"pm10":45.3,"pm2_5":14.3,"no2":0.5,"co":153.0,"o3":124.0,"so2":1.5,"mosquito_risk":0,"arthritis_risk":5,"migraine_risk":10,"frizz_risk":0,"updated_at":"2026-05-02T17:19:26.254491+05:30"},{"city":"Gulbarga","state":"Karnataka","latitude":17.3297,"longitude":76.8343,"temp":39.8,"humidity":13,"rain":0.0,"pressure":952.6,"uv_index":9.1,"wind_gusts":41.8,"aqi":55,"pm10":46.3,"pm2_5":13.8,"no2":0.0,"co":151.0,"o3":123.0,"so2":1.8,"mosquito_risk":0,"arthritis_risk":5,"migraine_risk":10,"frizz_risk":0,"updated_at":"2026-05-02T17:19:26.254498+05:30"},{"city":"Bidar","state":"Karnataka","latitude":17.9104,"longitude":77.5199,"temp":38.8,"humidity":12,"rain":0.0,"pressure":930.2,"uv_index":9.1,"wind_gusts":34.9,"aqi":64,"pm10":41.7,"pm2_5":14.0,"no2":1.2,"co":121.0,"o3":127.0,"so2":3.2,"mosquito_risk":0,"arthritis_risk":5,"migraine_risk":10,"frizz_risk":0,"updated_at":"2026-05-02T17:19:26.254504+05:30"},{"city":"Hospet","state":"Karnataka","latitude":15.2689,"longitude":76.3909,"temp":37.8,"humidity":16,"rain":0.0,"pressure":950.7,"uv_index":9.2,"wind_gusts":45.4,"aqi":64,"pm10":45.6,"pm2_5":15.4,"no2":1.5,"co":179.0,"o3":128.0,"so2":1.4,"mosquito_risk":0,"arthritis_risk":5,"migraine_risk":10,"frizz_risk":0,"updated_at":"2026-05-02T17:19:26.254511+05:30"},{"city":"Tirupur","state":"Tamil Nadu","latitude":11.1085,"longitude":77.3411,"temp":32.4,"humidity":53,"rain":0.0,"pressure":971.5,"uv_index":9.3,"wind_gusts":48.2,"aqi":133,"pm10":26.9,"pm2_5":20.7,"no2":5.7,"co":256.0,"o3":143.0,"so2":2.7,"mosquito_risk":0,"arthritis_risk":5,"migraine_risk":7,"frizz_risk":1,"updated_at":"2026-05-02T17:19:26.254518+05:30"},{"city":"Alappuzha","state":"Kerala","latitude":9.4981,"longitude":76.3388,"temp":28.1,"humidity":81,"rain":0.1,"pressure":1007.0,"uv_index":8.2,"wind_gusts":26.3,"aqi":71,"pm10":25.3,"pm2_5":16.9,"no2":4.7,"co":165.0,"o3":95.0,"so2":2.7,"mosquito_risk":10,"arthritis_risk":5,"migraine_risk":4,"frizz_risk":1,"updated_at":"2026-05-02T17:19:26.254525+05:30"},{"city":"Munnar","state":"Kerala","latitude":10.0889,"longitude":77.0595,"temp":19.7,"humidity":92,"rain":0.0,"pressure":855.8,"uv_index":9.2,"wind_gusts":24.8,"aqi":57,"pm10":22.3,"pm2_5":18.0,"no2":4.0,"co":231.0,"o3":105.0,"so2":1.1,"mosquito_risk":3,"arthritis_risk":10,"migraine_risk":7,"frizz_risk":1,"updated_at":"2026-05-02T17:19:26.254533+05:30"},{"city":"Silchar","state":"Assam","latitude":24.8333,"longitude":92.7789,"temp":24.0,"humidity":82,"rain":0.0,"pressure":1001.8,"uv_index":6.75,"wind_gusts":27.7,"aqi":57,"pm10":13.6,"pm2_5":10.6,"no2":4.2,"co":225.0,"o3":73.0,"so2":3.0,"mosquito_risk":3,"arthritis_risk":5,"migraine_risk":4,"frizz_risk":1,"updated_at":"2026-05-02T17:19:26.254540+05:30"},{"city":"Dibrugarh","state":"Assam","latitude":27.4728,"longitude":94.912,"temp":22.2,"humidity":89,"rain":0.1,"pressure":993.0,"uv_index":7.3,"wind_gusts":22.7,"aqi":79,"pm10":18.3,"pm2_5":12.1,"no2":4.4,"co":294.0,"o3":111.0,"so2":1.4,"mosquito_risk":6,"arthritis_risk":5,"migraine_risk":7,"frizz_risk":1,"updated_at":"2026-05-02T17:19:26.254547+05:30"}]