[{"city":"Delhi","state":"Delhi","latitude":28.6139,"longitude":77.209,"temp":16.8,"humidity":82,"rain":0.0,"pressure":982.9,"uv_index":5.6,"aqi":153,"mosquito_risk":3,"arthritis_risk":10,"migraine_risk":3,"frizz_risk":0,"updated_at":"2026-02-27T05:03:52.930460+05:30"},{"city":"Mumbai","state":"Maharashtra","latitude":19.076,"longitude":72.8777,"temp":25.7,"humidity":67,"rain":0.0,"pressure":1009.0,"uv_index":7.3,"aqi":72,"mosquito_risk":7,"arthritis_risk":0,"migraine_risk":4,"frizz_risk":1,"updated_at":"2026-02-27T05:03:52.930507+05:30"},{"city":"Bangalore","state":"Karnataka","latitude":12.9716,"longitude":77.5946,"temp":20.2,"humidity":79,"rain":0.0,"pressure":909.9,"uv_index":8.95,"aqi":114,"mosquito_risk":3,"arthritis_risk":5,"migraine_risk":7,"frizz_risk":1,"updated_at":"2026-02-27T05:03:52.930521+05:30"},{"city":"Hyderabad","state":"Telangana","latitude":17.385,"longitude":78.4867,"temp":21.9,"humidity":72,"rain":0.0,"pressure":951.7,"uv_index":8.15,"aqi":141,"mosquito_risk":3,"arthritis_risk":5,"migraine_risk":7,"frizz_risk":1,"updated_at":"2026-02-27T05:03:52.930530+05:30"},{"city":"Chennai","state":"Tamil Nadu","latitude":13.0827,"longitude":80.2707,"temp":24.4,"humidity":89,"rain":0.0,"pressure":1006.9,"uv_index":8.65,"aqi":96,"mosquito_risk":3,"arthritis_risk":5,"migraine_risk":4,"frizz_risk":1,"updated_at":"2026-02-27T05:03:52.930539+05:30"},{"city":"Kolkata","state":"West Bengal","latitude":22.5726,"longitude":88.3639,"temp":18.2,"humidity":97,"rain":0.0,"pressure":1007.4,"uv_index":7.5,"aqi":169,"mosquito_risk":3,"arthritis_risk":10,"migraine_risk":4,"frizz_risk":1,"updated_at":"2026-02-27T05:03:52.930546+05:30"},{"city":"Pune","state":"Maharashtra","latitude":18.5204,"longitude":73.8567,"temp":15.2,"humidity":85,"rain":0.0,"pressure":946.8,"uv_index":7.85,"aqi":65,"mosquito_risk":3,"arthritis_risk":10,"migraine_risk":7,"frizz_risk":0,"updated_at":"2026-02-27T05:03:52.930552+05:30"},{"city":"Ahmedabad","state":"Gujarat","latitude":23.0225,"longitude":72.5714,"temp":18.4,"humidity":85,"rain":0.0,"pressure":1002.2,"uv_index":7.1,"aqi":63,"mosquito_risk":3,"arthritis_risk":10,"migraine_risk":4,"frizz_risk":0,"updated_at":"2026-02-27T05:03:52.930558+05:30"},{"city":"Jaipur","state":"Rajasthan","latitude":26.9124,"longitude":75.7873,"temp":19.9,"humidity":44,"rain":0.0,"pressure":958.7,"uv_index":6.4,"aqi":84,"mosquito_risk":0,"arthritis_risk":5,"migraine_risk":7,"frizz_risk":0,"updated_at":"2026-02-27T05:03:52.930566+05:30"},{"city":"Lucknow","state":"Uttar Pradesh","latitude":26.8467,"longitude":80.9462,"temp":16.0,"humidity":75,"rain":0.0,"pressure":993.7,"uv_index":6.05,"aqi":137,"mosquito_risk":3,"arthritis_risk":5,"migraine_risk":7,"frizz_risk":0,"updated_at":"2026-02-27T05:03:52.930572+05:30"},{"city":"Kanpur","state":"Uttar Pradesh","latitude":26.4499,"longitude":80.3319,"temp":15.3,"humidity":79,"rain":0.0,"pressure":992.1,"uv_index":6.05,"aqi":144,"mosquito_risk":3,"arthritis_risk":5,"migraine_risk":7,"frizz_risk":0,"updated_at":"2026-02-27T05:03:52.930578+05:30"},{"city":"Chandigarh","state":"Chandigarh","latitude":30.7333,"longitude":76.7794,"temp":14.7,"humidity":70,"rain":0.0,"pressure":967.8,"uv_index":5.45,"aqi":124,"mosquito_risk":3,"arthritis_risk":5,"migraine_risk":3,"frizz_risk":0,"updated_at":"2026-02-27T05:03:52.930583+05:30"},{"city":"Srinagar","state":"Jammu and Kashmir","latitude":34.0837,"longitude":74.7973,"temp":3.5,"humidity":72,"rain":0.0,"pressure":834.7,"uv_index":6.35,"aqi":150,"mosquito_risk":3,"arthritis_risk":5,"migraine_risk":7,"frizz_risk":1,"updated_at":"2026-02-27T05:03:52.930589+05:30"},{"city":"Jammu","state":"Jammu and Kashmir","latitude":32.7266,"longitude":74.857,"temp":14.5,"humidity":84,"rain":0.0,"pressure":972.3,"uv_index":6.1,"aqi":119,"mosquito_risk":3,"arthritis_risk":10,"migraine_risk":7,"frizz_risk":0,"updated_at":"2026-02-27T05:03:52.930595+05:30"},{"city":"Amritsar","state":"Punjab","latitude":31.634,"longitude":74.8723,"temp":15.0,"humidity":84,"rain":0.0,"pressure":980.4,"uv_index":6.05,"aqi":168,"mosquito_risk":3,"arthritis_risk":10,"migraine_risk":7,"frizz_risk":0,"updated_at":"2026-02-27T05:03:52.930601+05:30"},{"city":"Ludhiana","state":"Punjab","latitude":30.901,"longitude":75.8573,"temp":15.9,"humidity":86,"rain":0.0,"pressure":978.2,"uv_index":5.75,"aqi":174,"mosquito_risk":3,"arthritis_risk":10,"migraine_risk":3,"frizz_risk":0,"updated_at":"2026-02-27T05:03:52.930606+05:30"},{"city":"Jalandhar","state":"Punjab","latitude":31.326,"longitude":75.5762,"temp":14.4,"humidity":95,"rain":0.0,"pressure":979.5,"uv_index":5.9,"aqi":177,"mosquito_risk":3,"arthritis_risk":10,"migraine_risk":3,"frizz_risk":0,"updated_at":"2026-02-27T05:03:52.930612+05:30"},{"city":"Dehradun","state":"Uttarakhand","latitude":30.6284,"longitude":78.0322,"temp":8.4,"humidity":73,"rain":0.0,"pressure":824.5,"uv_index":5.85,"aqi":79,"mosquito_risk":3,"arthritis_risk":5,"migraine_risk":3,"frizz_risk":0,"updated_at":"2026-02-27T05:03:52.930618+05:30"},{"city":"Shimla","state":"Himachal Pradesh","latitude":31.1048,"longitude":77.1734,"temp":5.1,"humidity":62,"rain":0.0,"pressure":777.0,"uv_index":5.9,"aqi":95,"mosquito_risk":3,"arthritis_risk":5,"migraine_risk":3,"frizz_risk":1,"updated_at":"2026-02-27T05:03:52.930625+05:30"},{"city":"Manali","state":"Himachal Pradesh","latitude":32.2396,"longitude":77.1887,"temp":9.4,"humidity":54,"rain":0.0,"pressure":813.4,"uv_index":7.35,"aqi":74,"mosquito_risk":0,"arthritis_risk":5,"migraine_risk":7,"frizz_risk":0,"updated_at":"2026-02-27T05:03:52.930630+05:30"},{"city":"Gurgaon","state":"Haryana","latitude":28.4595,"longitude":77.0266,"temp":13.5,"humidity":92,"rain":0.0,"pressure":981.3,"uv_index":5.7,"aqi":191,"mosquito_risk":3,"arthritis_risk":10,"migraine_risk":3,"frizz_risk":0,"updated_at":"2026-02-27T05:03:52.930635+05:30"},{"city":"Noida","state":"Uttar Pradesh","latitude":28.5355,"longitude":77.391,"temp":16.7,"humidity":83,"rain":0.0,"pressure":984.5,"uv_index":5.6,"aqi":191,"mosquito_risk":3,"arthritis_risk":10,"migraine_risk":3,"frizz_risk":0,"updated_at":"2026-02-27T05:03:52.930641+05:30"},{"city":"Ghaziabad","state":"Uttar Pradesh","latitude":28.6692,"longitude":77.4538,"temp":15.9,"humidity":86,"rain":0.0,"pressure":982.4,"uv_index":5.55,"aqi":152,"mosquito_risk":3,"arthritis_risk":10,"migraine_risk":3,"frizz_risk":0,"updated_at":"2026-02-27T05:03:52.930646+05:30"},{"city":"Faridabad","state":"Haryana","latitude":28.4089,"longitude":77.3178,"temp":15.1,"humidity":82,"rain":0.0,"pressure":983.7,"uv_index":5.65,"aqi":191,"mosquito_risk":3,"arthritis_risk":10,"migraine_risk":3,"frizz_risk":0,"updated_at":"2026-02-27T05:03:52.930651+05:30"},{"city":"Meerut","state":"Uttar Pradesh","latitude":28.9845,"longitude":77.7064,"temp":15.2,"humidity":89,"rain":0.0,"pressure":980.6,"uv_index":5.45,"aqi":152,"mosquito_risk":3,"arthritis_risk":10,"migraine_risk":3,"frizz_risk":0,"updated_at":"2026-02-27T05:03:52.930656+05:30"},{"city":"Agra","state":"Uttar Pradesh","latitude":27.1767,"longitude":78.0081,"temp":15.3,"humidity":67,"rain":0.0,"pressure":987.8,"uv_index":5.95,"aqi":152,"mosquito_risk":3,"arthritis_risk":5,"migraine_risk":3,"frizz_risk":0,"updated_at":"2026-02-27T05:03:52.930661+05:30"},{"city":"Varanasi","state":"Uttar Pradesh","latitude":25.3176,"longitude":82.9739,"temp":17.8,"humidity":72,"rain":0.0,"pressure":998.3,"uv_index":6.75,"aqi":125,"mosquito_risk":3,"arthritis_risk":5,"migraine_risk":7,"frizz_risk":0,"updated_at":"2026-02-27T05:03:52.930669+05:30"},{"city":"Prayagraj","state":"Uttar Pradesh","latitude":25.4358,"longitude":81.8463,"temp":17.0,"humidity":82,"rain":0.0,"pressure":996.5,"uv_index":6.6,"aqi":142,"mosquito_risk":3,"arthritis_risk":10,"migraine_risk":7,"frizz_risk":0,"updated_at":"2026-02-27T05:03:52.930674+05:30"},{"city":"Gorakhpur","state":"Uttar Pradesh","latitude":26.7606,"longitude":83.3732,"temp":13.9,"humidity":82,"rain":0.0,"pressure":997.3,"uv_index":6.45,"aqi":153,"mosquito_risk":3,"arthritis_risk":10,"migraine_risk":7,"frizz_risk":0,"updated_at":"2026-02-27T05:03:52.930681+05:30"},{"city":"Bareilly","state":"Uttar Pradesh","latitude":28.367,"longitude":79.4304,"temp":14.8,"humidity":90,"rain":0.0,"pressure":986.4,"uv_index":5.75,"aqi":152,"mosquito_risk":3,"arthritis_risk":10,"migraine_risk":3,"frizz_risk":0,"updated_at":"2026-02-27T05:03:52.930686+05:30"},{"city":"Aligarh","state":"Uttar Pradesh","latitude":27.8974,"longitude":78.088,"temp":15.3,"humidity":80,"rain":0.0,"pressure":985.6,"uv_index":5.7,"aqi":157,"mosquito_risk":3,"arthritis_risk":5,"migraine_risk":3,"frizz_risk":0,"updated_at":"2026-02-27T05:03:52.930691+05:30"},{"city":"Moradabad","state":"Uttar Pradesh","latitude":28.8386,"longitude":78.7733,"temp":14.5,"humidity":91,"rain":0.0,"pressure":983.0,"uv_index":5.6,"aqi":151,"mosquito_risk":3,"arthritis_risk":10,"migraine_risk":3,"frizz_risk":0,"updated_at":"2026-02-27T05:03:52.930696+05:30"},{"city":"Saharanpur","state":"Uttar Pradesh","latitude":29.9637,"longitude":77.546,"temp":13.8,"humidity":92,"rain":0.0,"pressure":974.8,"uv_index":5.25,"aqi":161,"mosquito_risk":3,"arthritis_risk":10,"migraine_risk":3,"frizz_risk":0,"updated_at":"2026-02-27T05:03:52.930701+05:30"},{"city":"Jhansi","state":"Uttar Pradesh","latitude":25.4484,"longitude":78.5685,"temp":16.9,"humidity":81,"rain":0.0,"pressure":977.8,"uv_index":6.55,"aqi":77,"mosquito_risk":3,"arthritis_risk":10,"migraine_risk":7,"frizz_risk":0,"updated_at":"2026-02-27T05:03:56.171061+05:30"},{"city":"Surat","state":"Gujarat","latitude":21.1702,"longitude":72.8311,"temp":23.2,"humidity":69,"rain":0.0,"pressure":1007.4,"uv_index":7.05,"aqi":84,"mosquito_risk":3,"arthritis_risk":5,"migraine_risk":4,"frizz_risk":1,"updated_at":"2026-02-27T05:03:56.171090+05:30"},{"city":"Vadodara","state":"Gujarat","latitude":22.3072,"longitude":73.1812,"temp":19.3,"humidity":90,"rain":0.0,"pressure":1004.8,"uv_index":7.1,"aqi":63,"mosquito_risk":3,"arthritis_risk":10,"migraine_risk":4,"frizz_risk":1,"updated_at":"2026-02-27T05:03:56.171099+05:30"},{"city":"Rajkot","state":"Gujarat","latitude":22.3039,"longitude":70.8022,"temp":19.8,"humidity":84,"rain":0.0,"pressure":994.2,"uv_index":7.0,"aqi":59,"mosquito_risk":3,"arthritis_risk":10,"migraine_risk":7,"frizz_risk":1,"updated_at":"2026-02-27T05:03:56.171106+05:30"},{"city":"Thane","state":"Maharashtra","latitude":19.2183,"longitude":72.9781,"temp":22.1,"humidity":82,"rain":0.0,"pressure":1008.5,"uv_index":7.3,"aqi":72,"mosquito_risk":3,"arthritis_risk":0,"migraine_risk":4,"frizz_risk":1,"updated_at":"2026-02-27T05:03:56.171113+05:30"},{"city":"Nagpur","state":"Maharashtra","latitude":21.1458,"longitude":79.0882,"temp":21.6,"humidity":59,"rain":0.0,"pressure":972.7,"uv_index":7.5,"aqi":103,"mosquito_risk":0,"arthritis_risk":5,"migraine_risk":7,"frizz_risk":0,"updated_at":"2026-02-27T05:03:56.171120+05:30"},{"city":"Nashik","state":"Maharashtra","latitude":19.9975,"longitude":73.7898,"temp":15.9,"humidity":89,"rain":0.0,"pressure":944.1,"uv_index":7.5,"aqi":46,"mosquito_risk":3,"arthritis_risk":10,"migraine_risk":7,"frizz_risk":0,"updated_at":"2026-02-27T05:03:56.171127+05:30"},{"city":"Aurangabad","state":"Maharashtra","latitude":19.8762,"longitude":75.3433,"temp":19.0,"humidity":71,"rain":0.0,"pressure":942.7,"uv_index":7.8,"aqi":65,"mosquito_risk":3,"arthritis_risk":5,"migraine_risk":7,"frizz_risk":0,"updated_at":"2026-02-27T05:03:56.171134+05:30"},{"city":"Solapur","state":"Maharashtra","latitude":17.6599,"longitude":75.9064,"temp":19.1,"humidity":69,"rain":0.0,"pressure":955.7,"uv_index":8.1,"aqi":73,"mosquito_risk":3,"arthritis_risk":5,"migraine_risk":7,"frizz_risk":0,"updated_at":"2026-02-27T05:03:56.171140+05:30"},{"city":"Kolhapur","state":"Maharashtra","latitude":16.705,"longitude":74.2433,"temp":16.0,"humidity":70,"rain":0.0,"pressure":945.9,"uv_index":8.3,"aqi":57,"mosquito_risk":3,"arthritis_risk":5,"migraine_risk":7,"frizz_risk":0,"updated_at":"2026-02-27T05:03:56.171147+05:30"},{"city":"Goa","state":"Goa","latitude":15.2993,"longitude":74.124,"temp":22.9,"humidity":90,"rain":0.0,"pressure":996.9,"uv_index":8.3,"aqi":51,"mosquito_risk":3,"arthritis_risk":5,"migraine_risk":7,"frizz_risk":1,"updated_at":"2026-02-27T05:03:56.171153+05:30"},{"city":"Jodhpur","state":"Rajasthan","latitude":26.2389,"longitude":73.0243,"temp":20.4,"humidity":53,"rain":0.0,"pressure":982.0,"uv_index":6.7,"aqi":71,"mosquito_risk":0,"arthritis_risk":5,"migraine_risk":7,"frizz_risk":0,"updated_at":"2026-02-27T05:03:56.171160+05:30"},{"city":"Udaipur","state":"Rajasthan","latitude":24.5854,"longitude":73.7125,"temp":18.2,"humidity":60,"rain":0.0,"pressure":945.2,"uv_index":7.35,"aqi":67,"mosquito_risk":0,"arthritis_risk":5,"migraine_risk":7,"frizz_risk":0,"updated_at":"2026-02-27T05:03:56.171166+05:30"},{"city":"Kota","state":"Rajasthan","latitude":25.2138,"longitude":75.8648,"temp":19.1,"humidity":75,"rain":0.0,"pressure":977.6,"uv_index":6.75,"aqi":85,"mosquito_risk":3,"arthritis_risk":5,"migraine_risk":7,"frizz_risk":0,"updated_at":"2026-02-27T05:03:56.171172+05:30"},{"city":"Bikaner","state":"Rajasthan","latitude":28.0229,"longitude":73.3119,"temp":20.1,"humidity":46,"rain":0.0,"pressure":980.8,"uv_index":6.35,"aqi":55,"mosquito_risk":0,"arthritis_risk":5,"migraine_risk":7,"frizz_risk":0,"updated_at":"2026-02-27T05:03:56.171179+05:30"},{"city":"Ajmer","state":"Rajasthan","latitude":26.4499,"longitude":74.6399,"temp":19.9,"humidity":49,"rain":0.0,"pressure":953.0,"uv_index":6.7,"aqi":78,"mosquito_risk":0,"arthritis_risk":5,"migraine_risk":7,"frizz_risk":0,"updated_at":"2026-02-27T05:03:56.171185+05:30"},{"city":"Gwalior","state":"Madhya Pradesh","latitude":26.2183,"longitude":78.1828,"temp":18.6,"humidity":71,"rain":0.0,"pressure":983.2,"uv_index":6.25,"aqi":93,"mosquito_risk":3,"arthritis_risk":5,"migraine_risk":7,"frizz_risk":0,"updated_at":"2026-02-27T05:03:56.171191+05:30"},{"city":"Indore","state":"Madhya Pradesh","latitude":22.7196,"longitude":75.8577,"temp":17.6,"humidity":74,"rain":0.0,"pressure":946.4,"uv_index":7.25,"aqi":92,"mosquito_risk":3,"arthritis_risk":5,"migraine_risk":7,"frizz_risk":0,"updated_at":"2026-02-27T05:03:56.171197+05:30"},{"city":"Bhopal","state":"Madhya Pradesh","latitude":23.2599,"longitude":77.4126,"temp":19.0,"humidity":61,"rain":0.0,"pressure":952.0,"uv_index":7.1,"aqi":77,"mosquito_risk":3,"arthritis_risk":5,"migraine_risk":7,"frizz_risk":0,"updated_at":"2026-02-27T05:03:56.171204+05:30"},{"city":"Jabalpur","state":"Madhya Pradesh","latitude":23.1815,"longitude":79.9864,"temp":17.5,"humidity":66,"rain":0.0,"pressure":960.6,"uv_index":7.15,"aqi":70,"mosquito_risk":3,"arthritis_risk":5,"migraine_risk":7,"frizz_risk":0,"updated_at":"2026-02-27T05:03:56.171210+05:30"},{"city":"Ujjain","state":"Madhya Pradesh","latitude":23.1765,"longitude":75.7885,"temp":17.8,"humidity":71,"rain":0.0,"pressure":952.3,"uv_index":7.15,"aqi":100,"mosquito_risk":3,"arthritis_risk":5,"migraine_risk":7,"frizz_risk":0,"updated_at":"2026-02-27T05:03:56.171216+05:30"},{"city":"Visakhapatnam","state":"Andhra Pradesh","latitude":17.6868,"longitude":83.2185,"temp":23.7,"humidity":90,"rain":0.0,"pressure":1004.4,"uv_index":8.15,"aqi":122,"mosquito_risk":3,"arthritis_risk":5,"migraine_risk":4,"frizz_risk":1,"updated_at":"2026-02-27T05:03:56.171222+05:30"},{"city":"Vijayawada","state":"Andhra Pradesh","latitude":16.5062,"longitude":80.648,"temp":23.9,"humidity":95,"rain":0.0,"pressure":1002.6,"uv_index":8.2,"aqi":110,"mosquito_risk":3,"arthritis_risk":5,"migraine_risk":4,"frizz_risk":1,"updated_at":"2026-02-27T05:03:56.171229+05:30"},{"city":"Guntur","state":"Andhra Pradesh","latitude":16.3067,"longitude":80.4365,"temp":23.7,"humidity":95,"rain":0.0,"pressure":1003.6,"uv_index":8.2,"aqi":106,"mosquito_risk":3,"arthritis_risk":5,"migraine_risk":4,"frizz_risk":1,"updated_at":"2026-02-27T05:03:56.171235+05:30"},{"city":"Nellore","state":"Andhra Pradesh","latitude":14.4426,"longitude":79.9865,"temp":24.5,"humidity":87,"rain":0.0,"pressure":1005.7,"uv_index":8.45,"aqi":84,"mosquito_risk":3,"arthritis_risk":5,"migraine_risk":4,"frizz_risk":1,"updated_at":"2026-02-27T05:03:56.171242+05:30"},{"city":"Kurnool","state":"Andhra Pradesh","latitude":15.8281,"longitude":78.0373,"temp":24.0,"humidity":65,"rain":0.0,"pressure":975.8,"uv_index":8.25,"aqi":104,"mosquito_risk":3,"arthritis_risk":5,"migraine_risk":7,"frizz_risk":1,"updated_at":"2026-02-27T05:03:56.171249+05:30"},{"city":"Kakinada","state":"Andhra Pradesh","latitude":16.9891,"longitude":82.2475,"temp":22.5,"humidity":98,"rain":0.0,"pressure":1007.9,"uv_index":8.15,"aqi":81,"mosquito_risk":3,"arthritis_risk":5,"migraine_risk":4,"frizz_risk":1,"updated_at":"2026-02-27T05:03:56.171255+05:30"},{"city":"Tirupati","state":"Andhra Pradesh","latitude":13.6288,"longitude":79.4192,"temp":21.6,"humidity":80,"rain":0.0,"pressure":991.3,"uv_index":8.6,"aqi":102,"mosquito_risk":3,"arthritis_risk":5,"migraine_risk":7,"frizz_risk":1,"updated_at":"2026-02-27T05:03:56.171261+05:30"},{"city":"Warangal","state":"Telangana","latitude":17.9689,"longitude":79.5941,"temp":20.8,"humidity":89,"rain":0.0,"pressure":977.8,"uv_index":7.95,"aqi":155,"mosquito_risk":3,"arthritis_risk":5,"migraine_risk":7,"frizz_risk":1,"updated_at":"2026-02-27T05:03:56.171267+05:30"},{"city":"Nizamabad","state":"Telangana","latitude":18.6725,"longitude":78.0941,"temp":21.0,"humidity":73,"rain":0.0,"pressure":963.3,"uv_index":7.85,"aqi":152,"mosquito_risk":3,"arthritis_risk":5,"migraine_risk":7,"frizz_risk":0,"updated_at":"2026-02-27T05:03:56.171273+05:30"},{"city":"Mysore","state":"Karnataka","latitude":12.2958,"longitude":76.6396,"temp":21.1,"humidity":84,"rain":0.0,"pressure":926.7,"uv_index":8.95,"aqi":114,"mosquito_risk":3,"arthritis_risk":5,"migraine_risk":7,"frizz_risk":1,"updated_at":"2026-02-27T05:03:56.171279+05:30"},{"city":"Mangalore","state":"Karnataka","latitude":12.9141,"longitude":74.856,"temp":28.2,"humidity":76,"rain":0.0,"pressure":1005.3,"uv_index":8.55,"aqi":68,"mosquito_risk":7,"arthritis_risk":5,"migraine_risk":4,"frizz_risk":1,"updated_at":"2026-02-27T05:03:56.171286+05:30"},{"city":"Hubli-Dharwad","state":"Karnataka","latitude":15.3647,"longitude":75.124,"temp":19.6,"humidity":63,"rain":0.0,"pressure":938.7,"uv_index":8.45,"aqi":47,"mosquito_risk":3,"arthritis_risk":5,"migraine_risk":7,"frizz_risk":0,"updated_at":"2026-02-27T05:03:56.171293+05:30"},{"city":"Belgaum","state":"Karnataka","latitude":15.8497,"longitude":74.4977,"temp":18.2,"humidity":64,"rain":0.0,"pressure":923.2,"uv_index":8.55,"aqi":41,"mosquito_risk":3,"arthritis_risk":5,"migraine_risk":7,"frizz_risk":0,"updated_at":"2026-02-27T05:03:59.410135+05:30"},{"city":"Coimbatore","state":"Tamil Nadu","latitude":11.0168,"longitude":76.9558,"temp":21.1,"humidity":83,"rain":0.0,"pressure":960.7,"uv_index":9.0,"aqi":100,"mosquito_risk":3,"arthritis_risk":5,"migraine_risk":7,"frizz_risk":1,"updated_at":"2026-02-27T05:03:59.410165+05:30"},{"city":"Madurai","state":"Tamil Nadu","latitude":9.9252,"longitude":78.1198,"temp":22.5,"humidity":88,"rain":0.0,"pressure":992.3,"uv_index":8.95,"aqi":140,"mosquito_risk":3,"arthritis_risk":5,"migraine_risk":7,"frizz_risk":1,"updated_at":"2026-02-27T05:03:59.410174+05:30"},{"city":"Trichy","state":"Tamil Nadu","latitude":10.7905,"longitude":78.7047,"temp":24.4,"humidity":93,"rain":0.0,"pressure":999.3,"uv_index":8.85,"aqi":102,"mosquito_risk":3,"arthritis_risk":5,"migraine_risk":7,"frizz_risk":1,"updated_at":"2026-02-27T05:03:59.410181+05:30"},{"city":"Salem","state":"Tamil Nadu","latitude":11.6643,"longitude":78.146,"temp":24.0,"humidity":83,"rain":0.0,"pressure":976.7,"uv_index":8.8,"aqi":118,"mosquito_risk":3,"arthritis_risk":5,"migraine_risk":7,"frizz_risk":1,"updated_at":"2026-02-27T05:03:59.410188+05:30"},{"city":"Tirunelveli","state":"Tamil Nadu","latitude":8.7139,"longitude":77.7567,"temp":23.8,"humidity":92,"rain":0.0,"pressure":1002.6,"uv_index":9.0,"aqi":94,"mosquito_risk":3,"arthritis_risk":5,"migraine_risk":4,"frizz_risk":1,"updated_at":"2026-02-27T05:03:59.410195+05:30"},{"city":"Vellore","state":"Tamil Nadu","latitude":12.9165,"longitude":79.1325,"temp":20.9,"humidity":88,"rain":0.0,"pressure":984.3,"uv_index":8.7,"aqi":107,"mosquito_risk":3,"arthritis_risk":5,"migraine_risk":7,"frizz_risk":1,"updated_at":"2026-02-27T05:03:59.410202+05:30"},{"city":"Erode","state":"Tamil Nadu","latitude":11.341,"longitude":77.7172,"temp":24.2,"humidity":86,"rain":0.0,"pressure":988.4,"uv_index":8.9,"aqi":113,"mosquito_risk":3,"arthritis_risk":5,"migraine_risk":7,"frizz_risk":1,"updated_at":"2026-02-27T05:03:59.410208+05:30"},{"city":"Kochi","state":"Kerala","latitude":9.9312,"longitude":76.2673,"temp":26.9,"humidity":84,"rain":0.0,"pressure":1007.4,"uv_index":8.8,"aqi":83,"mosquito_risk":7,"arthritis_risk":5,"migraine_risk":4,"frizz_risk":1,"updated_at":"2026-02-27T05:03:59.410216+05:30"},{"city":"Thiruvananthapuram","state":"Kerala","latitude":8.5241,"longitude":76.9366,"temp":27.4,"humidity":81,"rain":0.0,"pressure":1006.5,"uv_index":8.8,"aqi":67,"mosquito_risk":7,"arthritis_risk":5,"migraine_risk":4,"frizz_risk":1,"updated_at":"2026-02-27T05:03:59.410222+05:30"},{"city":"Kozhikode","state":"Kerala","latitude":11.2588,"longitude":75.7804,"temp":27.1,"humidity":83,"rain":0.0,"pressure":1006.7,"uv_index":8.7,"aqi":68,"mosquito_risk":7,"arthritis_risk":5,"migraine_risk":4,"frizz_risk":1,"updated_at":"2026-02-27T05:03:59.410229+05:30"},{"city":"Thrissur","state":"Kerala","latitude":10.5276,"longitude":76.2144,"temp":24.2,"humidity":87,"rain":0.0,"pressure":1006.1,"uv_index":8.8,"aqi":94,"mosquito_risk":3,"arthritis_risk":5,"migraine_risk":4,"frizz_risk":1,"updated_at":"2026-02-27T05:03:59.410236+05:30"},{"city":"Kannur","state":"Kerala","latitude":11.8745,"longitude":75.3704,"temp":26.5,"humidity":82,"rain":0.0,"pressure":1005.6,"uv_index":8.65,"aqi":75,"mosquito_risk":7,"arthritis_risk":5,"migraine_risk":4,"frizz_risk":1,"updated_at":"2026-02-27T05:03:59.410242+05:30"},{"city":"Patna","state":"Bihar","latitude":25.5941,"longitude":85.1376,"temp":16.1,"humidity":77,"rain":0.0,"pressure":1001.2,"uv_index":6.9,"aqi":152,"mosquito_risk":3,"arthritis_risk":5,"migraine_risk":4,"frizz_risk":0,"updated_at":"2026-02-27T05:03:59.410249+05:30"},{"city":"Gaya","state":"Bihar","latitude":24.7914,"longitude":85.0002,"temp":16.1,"humidity":62,"rain":0.0,"pressure":994.7,"uv_index":7.0,"aqi":118,"mosquito_risk":3,"arthritis_risk":5,"migraine_risk":7,"frizz_risk":0,"updated_at":"2026-02-27T05:03:59.410256+05:30"},{"city":"Muzaffarpur","state":"Bihar","latitude":26.1209,"longitude":85.3647,"temp":15.4,"humidity":79,"rain":0.0,"pressure":1001.0,"uv_index":6.85,"aqi":155,"mosquito_risk":3,"arthritis_risk":5,"migraine_risk":4,"frizz_risk":0,"updated_at":"2026-02-27T05:03:59.410262+05:30"},{"city":"Bhagalpur","state":"Bihar","latitude":25.2425,"longitude":87.0117,"temp":14.4,"humidity":87,"rain":0.0,"pressure":1002.3,"uv_index":6.95,"aqi":136,"mosquito_risk":3,"arthritis_risk":10,"migraine_risk":4,"frizz_risk":0,"updated_at":"2026-02-27T05:03:59.410269+05:30"},{"city":"Ranchi","state":"Jharkhand","latitude":23.3441,"longitude":85.3096,"temp":16.1,"humidity":47,"rain":0.0,"pressure":937.0,"uv_index":7.65,"aqi":83,"mosquito_risk":0,"arthritis_risk":5,"migraine_risk":7,"frizz_risk":0,"updated_at":"2026-02-27T05:03:59.410275+05:30"},{"city":"Jamshedpur","state":"Jharkhand","latitude":22.8046,"longitude":86.2029,"temp":15.2,"humidity":80,"rain":0.0,"pressure":992.1,"uv_index":7.55,"aqi":130,"mosquito_risk":3,"arthritis_risk":5,"migraine_risk":7,"frizz_risk":0,"updated_at":"2026-02-27T05:03:59.410281+05:30"},{"city":"Dhanbad","state":"Jharkhand","latitude":23.7957,"longitude":86.4304,"temp":14.9,"humidity":67,"rain":0.0,"pressure":980.7,"uv_index":7.45,"aqi":127,"mosquito_risk":3,"arthritis_risk":5,"migraine_risk":7,"frizz_risk":0,"updated_at":"2026-02-27T05:03:59.410288+05:30"},{"city":"Bokaro","state":"Jharkhand","latitude":23.6693,"longitude":86.1511,"temp":15.0,"humidity":69,"rain":0.0,"pressure":984.9,"uv_index":7.45,"aqi":132,"mosquito_risk":3,"arthritis_risk":5,"migraine_risk":7,"frizz_risk":0,"updated_at":"2026-02-27T05:03:59.410295+05:30"},{"city":"Bhubaneswar","state":"Odisha","latitude":20.2961,"longitude":85.8245,"temp":21.9,"humidity":96,"rain":0.0,"pressure":1003.5,"uv_index":7.85,"aqi":133,"mosquito_risk":3,"arthritis_risk":5,"migraine_risk":4,"frizz_risk":1,"updated_at":"2026-02-27T05:03:59.410301+05:30"},{"city":"Cuttack","state":"Odisha","latitude":20.4625,"longitude":85.8828,"temp":21.4,"humidity":97,"rain":0.0,"pressure":1005.5,"uv_index":7.9,"aqi":133,"mosquito_risk":3,"arthritis_risk":5,"migraine_risk":4,"frizz_risk":1,"updated_at":"2026-02-27T05:03:59.410308+05:30"},{"city":"Rourkela","state":"Odisha","latitude":22.2604,"longitude":84.8536,"temp":15.5,"humidity":75,"rain":0.0,"pressure":986.0,"uv_index":7.45,"aqi":91,"mosquito_risk":3,"arthritis_risk":5,"migraine_risk":7,"frizz_risk":0,"updated_at":"2026-02-27T05:03:59.410314+05:30"},{"city":"Raipur","state":"Chhattisgarh","latitude":21.2514,"longitude":81.6296,"temp":18.3,"humidity":62,"rain":0.0,"pressure":974.6,"uv_index":7.55,"aqi":128,"mosquito_risk":3,"arthritis_risk":5,"migraine_risk":7,"frizz_risk":0,"updated_at":"2026-02-27T05:03:59.410321+05:30"},{"city":"Bhilai","state":"Chhattisgarh","latitude":21.1938,"longitude":81.3509,"temp":17.3,"humidity":68,"rain":0.0,"pressure":974.8,"uv_index":7.55,"aqi":137,"mosquito_risk":3,"arthritis_risk":5,"migraine_risk":7,"frizz_risk":0,"updated_at":"2026-02-27T05:03:59.410327+05:30"},{"city":"Guwahati","state":"Assam","latitude":26.1158,"longitude":91.7086,"temp":17.8,"humidity":91,"rain":0.0,"pressure":1003.0,"uv_index":6.9,"aqi":150,"mosquito_risk":3,"arthritis_risk":10,"migraine_risk":4,"frizz_risk":1,"updated_at":"2026-02-27T05:03:59.410334+05:30"},{"city":"Agartala","state":"Tripura","latitude":23.8315,"longitude":91.2868,"temp":15.4,"humidity":92,"rain":0.0,"pressure":1007.5,"uv_index":7.25,"aqi":168,"mosquito_risk":3,"arthritis_risk":10,"migraine_risk":4,"frizz_risk":0,"updated_at":"2026-02-27T05:03:59.410341+05:30"},{"city":"Shillong","state":"Meghalaya","latitude":25.5788,"longitude":91.8933,"temp":6.3,"humidity":87,"rain":0.0,"pressure":851.6,"uv_index":5.55,"aqi":122,"mosquito_risk":3,"arthritis_risk":10,"migraine_risk":3,"frizz_risk":0,"updated_at":"2026-02-27T05:03:59.410392+05:30"},{"city":"Imphal","state":"Manipur","latitude":24.817,"longitude":93.9368,"temp":12.0,"humidity":81,"rain":0.0,"pressure":921.9,"uv_index":7.45,"aqi":156,"mosquito_risk":3,"arthritis_risk":10,"migraine_risk":7,"frizz_risk":0,"updated_at":"2026-02-27T05:03:59.410399+05:30"},{"city":"Aizawl","state":"Mizoram","latitude":23.7271,"longitude":92.7176,"temp":12.9,"humidity":79,"rain":0.0,"pressure":890.7,"uv_index":7.4,"aqi":166,"mosquito_risk":3,"arthritis_risk":5,"migraine_risk":7,"frizz_risk":0,"updated_at":"2026-02-27T05:03:59.410407+05:30"},{"city":"Kohima","state":"Nagaland","latitude":25.6701,"longitude":94.1077,"temp":10.3,"humidity":82,"rain":0.0,"pressure":852.0,"uv_index":5.35,"aqi":154,"mosquito_risk":3,"arthritis_risk":10,"migraine_risk":3,"frizz_risk":0,"updated_at":"2026-02-27T05:03:59.410413+05:30"},{"city":"Gangtok","state":"Sikkim","latitude":27.3314,"longitude":88.6138,"temp":10.2,"humidity":77,"rain":0.0,"pressure":833.5,"uv_index":5.05,"aqi":154,"mosquito_risk":3,"arthritis_risk":5,"migraine_risk":3,"frizz_risk":0,"updated_at":"2026-02-27T05:03:59.410424+05:30"},{"city":"Siliguri","state":"West Bengal","latitude":26.7271,"longitude":88.3953,"temp":17.5,"humidity":65,"rain":0.0,"pressure":994.5,"uv_index":6.9,"aqi":162,"mosquito_risk":3,"arthritis_risk":5,"migraine_risk":7,"frizz_risk":0,"updated_at":"2026-02-27T05:04:02.654979+05:30"},{"city":"Durgapur","state":"West Bengal","latitude":23.5204,"longitude":87.3119,"temp":18.0,"humidity":62,"rain":0.0,"pressure":996.4,"uv_index":7.4,"aqi":123,"mosquito_risk":3,"arthritis_risk":5,"migraine_risk":7,"frizz_risk":0,"updated_at":"2026-02-27T05:04:02.655009+05:30"},{"city":"Asansol","state":"West Bengal","latitude":23.6739,"longitude":86.9524,"temp":18.3,"humidity":55,"rain":0.0,"pressure":994.9,"uv_index":7.4,"aqi":108,"mosquito_risk":0,"arthritis_risk":5,"migraine_risk":7,"frizz_risk":0,"updated_at":"2026-02-27T05:04:02.655019+05:30"},{"city":"Pondicherry","state":"Puducherry","latitude":11.9139,"longitude":79.8145,"temp":23.0,"humidity":97,"rain":0.0,"pressure":1008.3,"uv_index":8.7,"aqi":86,"mosquito_risk":3,"arthritis_risk":0,"migraine_risk":4,"frizz_risk":1,"updated_at":"2026-02-27T05:04:02.655027+05:30"},{"city":"Port Blair","state":"Andaman and Nicobar Islands","latitude":11.6234,"longitude":92.7265,"temp":26.2,"humidity":84,"rain":0.0,"pressure":1005.0,"uv_index":8.5,"aqi":28,"mosquito_risk":7,"arthritis_risk":5,"migraine_risk":4,"frizz_risk":1,"updated_at":"2026-02-27T05:04:02.655034+05:30"},{"city":"Haridwar","state":"Uttarakhand","latitude":29.9457,"longitude":78.1642,"temp":14.1,"humidity":92,"rain":0.0,"pressure":973.4,"uv_index":5.3,"aqi":151,"mosquito_risk":3,"arthritis_risk":10,"migraine_risk":3,"frizz_risk":0,"updated_at":"2026-02-27T05:04:02.655041+05:30"},{"city":"Rishikesh","state":"Uttarakhand","latitude":30.0869,"longitude":78.2676,"temp":14.7,"humidity":85,"rain":0.0,"pressure":965.8,"uv_index":5.4,"aqi":121,"mosquito_risk":3,"arthritis_risk":10,"migraine_risk":3,"frizz_risk":0,"updated_at":"2026-02-27T05:04:02.655048+05:30"},{"city":"Nainital","state":"Uttarakhand","latitude":29.3919,"longitude":79.4542,"temp":12.4,"humidity":69,"rain":0.0,"pressure":801.4,"uv_index":6.2,"aqi":132,"mosquito_risk":3,"arthritis_risk":5,"migraine_risk":7,"frizz_risk":0,"updated_at":"2026-02-27T05:04:02.655055+05:30"},{"city":"Mussoorie","state":"Uttarakhand","latitude":30.4599,"longitude":78.0664,"temp":10.4,"humidity":78,"rain":0.0,"pressure":797.5,"uv_index":5.75,"aqi":122,"mosquito_risk":3,"arthritis_risk":5,"migraine_risk":3,"frizz_risk":0,"updated_at":"2026-02-27T05:04:02.655061+05:30"},{"city":"Dharamshala","state":"Himachal Pradesh","latitude":32.219,"longitude":76.3234,"temp":14.3,"humidity":42,"rain":0.0,"pressure":865.7,"uv_index":5.95,"aqi":71,"mosquito_risk":0,"arthritis_risk":5,"migraine_risk":3,"frizz_risk":0,"updated_at":"2026-02-27T05:04:02.655068+05:30"},{"city":"Dalhousie","state":"Himachal Pradesh","latitude":32.5387,"longitude":75.971,"temp":10.6,"humidity":48,"rain":0.0,"pressure":799.0,"uv_index":6.2,"aqi":129,"mosquito_risk":0,"arthritis_risk":5,"migraine_risk":7,"frizz_risk":0,"updated_at":"2026-02-27T05:04:02.655075+05:30"},{"city":"Patiala","state":"Punjab","latitude":30.3398,"longitude":76.3869,"temp":15.0,"humidity":91,"rain":0.0,"pressure":977.3,"uv_index":5.4,"aqi":166,"mosquito_risk":3,"arthritis_risk":10,"migraine_risk":3,"frizz_risk":0,"updated_at":"2026-02-27T05:04:02.655081+05:30"},{"city":"Bhatinda","state":"Punjab","latitude":30.211,"longitude":74.9455,"temp":15.8,"humidity":87,"rain":0.0,"pressure":983.7,"uv_index":6.1,"aqi":162,"mosquito_risk":3,"arthritis_risk":10,"migraine_risk":7,"frizz_risk":0,"updated_at":"2026-02-27T05:04:02.655088+05:30"},{"city":"Rohtak","state":"Haryana","latitude":28.8955,"longitude":76.6066,"temp":14.7,"humidity":89,"rain":0.0,"pressure":981.8,"uv_index":5.6,"aqi":155,"mosquito_risk":3,"arthritis_risk":10,"migraine_risk":3,"frizz_risk":0,"updated_at":"2026-02-27T05:04:02.655095+05:30"},{"city":"Panipat","state":"Haryana","latitude":29.3909,"longitude":76.9635,"temp":15.0,"humidity":90,"rain":0.0,"pressure":979.6,"uv_index":5.4,"aqi":172,"mosquito_risk":3,"arthritis_risk":10,"migraine_risk":3,"frizz_risk":0,"updated_at":"2026-02-27T05:04:02.655101+05:30"},{"city":"Mathura","state":"Uttar Pradesh","latitude":27.4924,"longitude":77.6737,"temp":14.0,"humidity":76,"rain":0.0,"pressure":986.9,"uv_index":5.85,"aqi":145,"mosquito_risk":3,"arthritis_risk":5,"migraine_risk":3,"frizz_risk":0,"updated_at":"2026-02-27T05:04:02.655107+05:30"},{"city":"Vrindavan","state":"Uttar Pradesh","latitude":27.5823,"longitude":77.7027,"temp":15.0,"humidity":72,"rain":0.0,"pressure":987.4,"uv_index":5.8,"aqi":145,"mosquito_risk":3,"arthritis_risk":5,"migraine_risk":3,"frizz_risk":0,"updated_at":"2026-02-27T05:04:02.655114+05:30"},{"city":"Ayodhya","state":"Uttar Pradesh","latitude":26.7922,"longitude":82.1998,"temp":14.5,"humidity":81,"rain":0.0,"pressure":995.5,"uv_index":6.25,"aqi":150,"mosquito_risk":3,"arthritis_risk":10,"migraine_risk":7,"frizz_risk":0,"updated_at":"2026-02-27T05:04:02.655120+05:30"},{"city":"Ratlam","state":"Madhya Pradesh","latitude":23.3315,"longitude":75.0367,"temp":19.0,"humidity":64,"rain":0.0,"pressure":953.4,"uv_index":7.15,"aqi":84,"mosquito_risk":3,"arthritis_risk":5,"migraine_risk":7,"frizz_risk":0,"updated_at":"2026-02-27T05:04:02.655126+05:30"},{"city":"Sagar","state":"Madhya Pradesh","latitude":23.8388,"longitude":78.7378,"temp":18.6,"humidity":58,"rain":0.0,"pressure":948.7,"uv_index":7.05,"aqi":59,"mosquito_risk":0,"arthritis_risk":5,"migraine_risk":7,"frizz_risk":0,"updated_at":"2026-02-27T05:04:02.655133+05:30"},{"city":"Satna","state":"Madhya Pradesh","latitude":24.6005,"longitude":80.8322,"temp":17.3,"humidity":59,"rain":0.0,"pressure":970.8,"uv_index":7.0,"aqi":71,"mosquito_risk":0,"arthritis_risk":5,"migraine_risk":7,"frizz_risk":0,"updated_at":"2026-02-27T05:04:02.655139+05:30"},{"city":"Akola","state":"Maharashtra","latitude":20.7002,"longitude":77.0082,"temp":20.9,"humidity":66,"rain":0.0,"pressure":974.4,"uv_index":7.55,"aqi":121,"mosquito_risk":3,"arthritis_risk":5,"migraine_risk":7,"frizz_risk":0,"updated_at":"2026-02-27T05:04:02.655146+05:30"},{"city":"Amravati","state":"Maharashtra","latitude":20.9374,"longitude":77.7796,"temp":21.3,"humidity":63,"rain":0.0,"pressure":966.0,"uv_index":7.5,"aqi":119,"mosquito_risk":3,"arthritis_risk":5,"migraine_risk":7,"frizz_risk":0,"updated_at":"2026-02-27T05:04:02.655153+05:30"},{"city":"Latur","state":"Maharashtra","latitude":18.4088,"longitude":76.5604,"temp":19.3,"humidity":68,"rain":0.0,"pressure":938.0,"uv_index":8.0,"aqi":115,"mosquito_risk":3,"arthritis_risk":5,"migraine_risk":7,"frizz_risk":0,"updated_at":"2026-02-27T05:04:02.655159+05:30"},{"city":"Nanded","state":"Maharashtra","latitude":19.1383,"longitude":77.3091,"temp":21.5,"humidity":71,"rain":0.0,"pressure":967.6,"uv_index":7.75,"aqi":153,"mosquito_risk":3,"arthritis_risk":5,"migraine_risk":7,"frizz_risk":1,"updated_at":"2026-02-27T05:04:02.655165+05:30"},{"city":"Gulbarga","state":"Karnataka","latitude":17.3297,"longitude":76.8343,"temp":22.5,"humidity":57,"rain":0.0,"pressure":957.5,"uv_index":8.1,"aqi":119,"mosquito_risk":0,"arthritis_risk":5,"migraine_risk":7,"frizz_risk":0,"updated_at":"2026-02-27T05:04:02.655171+05:30"},{"city":"Bidar","state":"Karnataka","latitude":17.9104,"longitude":77.5199,"temp":21.6,"humidity":71,"rain":0.0,"pressure":933.6,"uv_index":8.05,"aqi":150,"mosquito_risk":3,"arthritis_risk":5,"migraine_risk":7,"frizz_risk":1,"updated_at":"2026-02-27T05:04:02.655178+05:30"},{"city":"Hospet","state":"Karnataka","latitude":15.2689,"longitude":76.3909,"temp":22.8,"humidity":68,"rain":0.0,"pressure":954.4,"uv_index":8.4,"aqi":106,"mosquito_risk":3,"arthritis_risk":5,"migraine_risk":7,"frizz_risk":1,"updated_at":"2026-02-27T05:04:02.655184+05:30"},{"city":"Tirupur","state":"Tamil Nadu","latitude":11.1085,"longitude":77.3411,"temp":23.4,"humidity":82,"rain":0.0,"pressure":974.5,"uv_index":9.0,"aqi":131,"mosquito_risk":3,"arthritis_risk":5,"migraine_risk":7,"frizz_risk":1,"updated_at":"2026-02-27T05:04:02.655190+05:30"},{"city":"Alappuzha","state":"Kerala","latitude":9.4981,"longitude":76.3388,"temp":26.5,"humidity":84,"rain":0.0,"pressure":1007.6,"uv_index":8.85,"aqi":89,"mosquito_risk":7,"arthritis_risk":5,"migraine_risk":4,"frizz_risk":1,"updated_at":"2026-02-27T05:04:02.655196+05:30"},{"city":"Munnar","state":"Kerala","latitude":10.0889,"longitude":77.0595,"temp":18.9,"humidity":86,"rain":0.0,"pressure":854.4,"uv_index":6.35,"aqi":87,"mosquito_risk":3,"arthritis_risk":10,"migraine_risk":7,"frizz_risk":1,"updated_at":"2026-02-27T05:04:02.655203+05:30"},{"city":"Silchar","state":"Assam","latitude":24.8333,"longitude":92.7789,"temp":15.6,"humidity":85,"rain":0.0,"pressure":1006.5,"uv_index":7.2,"aqi":163,"mosquito_risk":3,"arthritis_risk":10,"migraine_risk":4,"frizz_risk":0,"updated_at":"2026-02-27T05:04:02.655209+05:30"},{"city":"Dibrugarh","state":"Assam","latitude":27.4728,"longitude":94.912,"temp":19.4,"humidity":80,"rain":0.0,"pressure":997.7,"uv_index":6.95,"aqi":149,"mosquito_risk":3,"arthritis_risk":5,"migraine_risk":7,"frizz_risk":0,"updated_at":"2026-02-27T05:04:02.655215+05:30"}]