[{"city":"Delhi","state":"Delhi","latitude":28.6139,"longitude":77.209,"temp":32.7,"humidity":45,"rain":0.0,"pressure":976.7,"uv_index":7.6,"wind_gusts":46.4,"aqi":477,"pm10":717.1,"pm2_5":99.2,"no2":8.6,"co":556.0,"o3":190.0,"so2":19.0,"mosquito_risk":0,"arthritis_risk":5,"migraine_risk":7,"frizz_risk":1,"updated_at":"2026-05-03T17:15:55.477610+05:30"},{"city":"Mumbai","state":"Maharashtra","latitude":19.076,"longitude":72.8777,"temp":31.1,"humidity":67,"rain":0.0,"pressure":1004.9,"uv_index":7.85,"wind_gusts":39.6,"aqi":71,"pm10":41.2,"pm2_5":19.7,"no2":6.7,"co":230.0,"o3":91.0,"so2":16.6,"mosquito_risk":3,"arthritis_risk":5,"migraine_risk":4,"frizz_risk":1,"updated_at":"2026-05-03T17:15:55.477650+05:30"},{"city":"Bangalore","state":"Karnataka","latitude":12.9716,"longitude":77.5946,"temp":32.3,"humidity":31,"rain":0.0,"pressure":909.4,"uv_index":7.85,"wind_gusts":29.2,"aqi":82,"pm10":47.0,"pm2_5":18.1,"no2":5.2,"co":320.0,"o3":140.0,"so2":4.1,"mosquito_risk":0,"arthritis_risk":5,"migraine_risk":7,"frizz_risk":0,"updated_at":"2026-05-03T17:15:55.477667+05:30"},{"city":"Hyderabad","state":"Telangana","latitude":17.385,"longitude":78.4867,"temp":38.0,"humidity":16,"rain":0.0,"pressure":949.0,"uv_index":9.25,"wind_gusts":33.8,"aqi":74,"pm10":42.3,"pm2_5":15.1,"no2":0.0,"co":245.0,"o3":133.0,"so2":2.7,"mosquito_risk":0,"arthritis_risk":5,"migraine_risk":10,"frizz_risk":0,"updated_at":"2026-05-03T17:15:55.477678+05:30"},{"city":"Chennai","state":"Tamil Nadu","latitude":13.0827,"longitude":80.2707,"temp":34.4,"humidity":50,"rain":0.0,"pressure":1001.4,"uv_index":8.65,"wind_gusts":52.2,"aqi":145,"pm10":38.1,"pm2_5":27.9,"no2":5.2,"co":271.0,"o3":178.0,"so2":7.8,"mosquito_risk":0,"arthritis_risk":5,"migraine_risk":4,"frizz_risk":1,"updated_at":"2026-05-03T17:15:55.477687+05:30"},{"city":"Kolkata","state":"West Bengal","latitude":22.5726,"longitude":88.3639,"temp":25.5,"humidity":86,"rain":0.0,"pressure":1003.3,"uv_index":8.95,"wind_gusts":41.8,"aqi":154,"pm10":72.4,"pm2_5":49.4,"no2":10.7,"co":475.0,"o3":182.0,"so2":18.6,"mosquito_risk":7,"arthritis_risk":5,"migraine_risk":4,"frizz_risk":1,"updated_at":"2026-05-03T17:15:55.477697+05:30"},{"city":"Pune","state":"Maharashtra","latitude":18.5204,"longitude":73.8567,"temp":34.4,"humidity":24,"rain":0.0,"pressure":945.2,"uv_index":8.5,"wind_gusts":48.6,"aqi":62,"pm10":57.5,"pm2_5":15.3,"no2":1.8,"co":182.0,"o3":114.0,"so2":2.3,"mosquito_risk":0,"arthritis_risk":5,"migraine_risk":7,"frizz_risk":0,"updated_at":"2026-05-03T17:15:55.477705+05:30"},{"city":"Ahmedabad","state":"Gujarat","latitude":23.0225,"longitude":72.5714,"temp":38.8,"humidity":30,"rain":0.0,"pressure":993.6,"uv_index":8.1,"wind_gusts":46.8,"aqi":63,"pm10":54.6,"pm2_5":13.1,"no2":2.1,"co":175.0,"o3":127.0,"so2":2.7,"mosquito_risk":0,"arthritis_risk":5,"migraine_risk":10,"frizz_risk":1,"updated_at":"2026-05-03T17:15:55.477719+05:30"},{"city":"Jaipur","state":"Rajasthan","latitude":26.9124,"longitude":75.7873,"temp":38.5,"humidity":15,"rain":0.0,"pressure":952.5,"uv_index":8.15,"wind_gusts":42.5,"aqi":118,"pm10":121.1,"pm2_5":22.3,"no2":0.0,"co":168.0,"o3":140.0,"so2":2.9,"mosquito_risk":0,"arthritis_risk":5,"migraine_risk":10,"frizz_risk":0,"updated_at":"2026-05-03T17:15:55.477727+05:30"},{"city":"Lucknow","state":"Uttar Pradesh","latitude":26.8467,"longitude":80.9462,"temp":34.6,"humidity":39,"rain":0.0,"pressure":987.8,"uv_index":8.1,"wind_gusts":54.4,"aqi":154,"pm10":53.3,"pm2_5":31.4,"no2":2.6,"co":324.0,"o3":179.0,"so2":8.7,"mosquito_risk":0,"arthritis_risk":5,"migraine_risk":7,"frizz_risk":1,"updated_at":"2026-05-03T17:15:55.477736+05:30"},{"city":"Kanpur","state":"Uttar Pradesh","latitude":26.4499,"longitude":80.3319,"temp":37.2,"humidity":26,"rain":0.0,"pressure":985.4,"uv_index":8.1,"wind_gusts":84.2,"aqi":164,"pm10":193.7,"pm2_5":41.6,"no2":2.3,"co":296.0,"o3":186.0,"so2":9.2,"mosquito_risk":0,"arthritis_risk":5,"migraine_risk":10,"frizz_risk":0,"updated_at":"2026-05-03T17:15:55.477745+05:30"},{"city":"Chandigarh","state":"Chandigarh","latitude":30.7333,"longitude":76.7794,"temp":29.6,"humidity":52,"rain":0.0,"pressure":963.8,"uv_index":7.6,"wind_gusts":62.3,"aqi":170,"pm10":143.4,"pm2_5":33.9,"no2":2.2,"co":347.0,"o3":173.0,"so2":7.7,"mosquito_risk":4,"arthritis_risk":5,"migraine_risk":7,"frizz_risk":1,"updated_at":"2026-05-03T17:15:55.477754+05:30"},{"city":"Srinagar","state":"Jammu and Kashmir","latitude":34.0837,"longitude":74.7973,"temp":16.0,"humidity":74,"rain":0.0,"pressure":840.1,"uv_index":8.75,"wind_gusts":46.1,"aqi":84,"pm10":29.4,"pm2_5":14.6,"no2":4.8,"co":281.0,"o3":122.0,"so2":2.6,"mosquito_risk":3,"arthritis_risk":5,"migraine_risk":7,"frizz_risk":0,"updated_at":"2026-05-03T17:15:55.477763+05:30"},{"city":"Jammu","state":"Jammu and Kashmir","latitude":32.7266,"longitude":74.857,"temp":32.5,"humidity":23,"rain":0.0,"pressure":967.6,"uv_index":8.25,"wind_gusts":29.2,"aqi":126,"pm10":46.6,"pm2_5":16.3,"no2":1.3,"co":305.0,"o3":166.0,"so2":3.8,"mosquito_risk":0,"arthritis_risk":5,"migraine_risk":7,"frizz_risk":0,"updated_at":"2026-05-03T17:15:55.477771+05:30"},{"city":"Amritsar","state":"Punjab","latitude":31.634,"longitude":74.8723,"temp":33.8,"humidity":27,"rain":0.0,"pressure":974.8,"uv_index":8.1,"wind_gusts":50.4,"aqi":153,"pm10":222.1,"pm2_5":48.9,"no2":1.7,"co":290.0,"o3":172.0,"so2":7.7,"mosquito_risk":0,"arthritis_risk":5,"migraine_risk":7,"frizz_risk":0,"updated_at":"2026-05-03T17:15:55.477779+05:30"},{"city":"Ludhiana","state":"Punjab","latitude":30.901,"longitude":75.8573,"temp":25.5,"humidity":62,"rain":0.0,"pressure":973.9,"uv_index":7.85,"wind_gusts":50.0,"aqi":163,"pm10":339.9,"pm2_5":55.2,"no2":3.6,"co":419.0,"o3":165.0,"so2":8.2,"mosquito_risk":7,"arthritis_risk":5,"migraine_risk":7,"frizz_risk":1,"updated_at":"2026-05-03T17:15:55.477787+05:30"},{"city":"Jalandhar","state":"Punjab","latitude":31.326,"longitude":75.5762,"temp":27.5,"humidity":53,"rain":0.0,"pressure":974.7,"uv_index":8.05,"wind_gusts":53.3,"aqi":162,"pm10":239.3,"pm2_5":48.1,"no2":2.9,"co":431.0,"o3":170.0,"so2":8.7,"mosquito_risk":4,"arthritis_risk":5,"migraine_risk":7,"frizz_risk":1,"updated_at":"2026-05-03T17:15:55.477794+05:30"},{"city":"Dehradun","state":"Uttarakhand","latitude":30.6284,"longitude":78.0322,"temp":19.4,"humidity":59,"rain":0.0,"pressure":828.0,"uv_index":7.45,"wind_gusts":43.2,"aqi":115,"pm10":78.7,"pm2_5":26.7,"no2":1.2,"co":227.0,"o3":149.0,"so2":3.4,"mosquito_risk":0,"arthritis_risk":5,"migraine_risk":7,"frizz_risk":0,"updated_at":"2026-05-03T17:15:55.477804+05:30"},{"city":"Shimla","state":"Himachal Pradesh","latitude":31.1048,"longitude":77.1734,"temp":18.2,"humidity":38,"rain":0.0,"pressure":782.5,"uv_index":7.65,"wind_gusts":43.6,"aqi":128,"pm10":70.1,"pm2_5":21.8,"no2":0.6,"co":186.0,"o3":167.0,"so2":9.4,"mosquito_risk":0,"arthritis_risk":5,"migraine_risk":7,"frizz_risk":0,"updated_at":"2026-05-03T17:15:55.477812+05:30"},{"city":"Manali","state":"Himachal Pradesh","latitude":32.2396,"longitude":77.1887,"temp":13.4,"humidity":75,"rain":0.0,"pressure":815.6,"uv_index":9.7,"wind_gusts":40.7,"aqi":136,"pm10":21.0,"pm2_5":9.5,"no2":2.8,"co":174.0,"o3":154.0,"so2":0.8,"mosquito_risk":3,"arthritis_risk":5,"migraine_risk":7,"frizz_risk":0,"updated_at":"2026-05-03T17:15:55.477821+05:30"},{"city":"Gurgaon","state":"Haryana","latitude":28.4595,"longitude":77.0266,"temp":33.4,"humidity":39,"rain":0.0,"pressure":975.0,"uv_index":7.7,"wind_gusts":33.5,"aqi":1317,"pm10":1188.4,"pm2_5":132.2,"no2":6.3,"co":493.0,"o3":166.0,"so2":11.4,"mosquito_risk":0,"arthritis_risk":5,"migraine_risk":7,"frizz_risk":1,"updated_at":"2026-05-03T17:15:55.477829+05:30"},{"city":"Noida","state":"Uttar Pradesh","latitude":28.5355,"longitude":77.391,"temp":31.5,"humidity":51,"rain":0.0,"pressure":978.5,"uv_index":7.6,"wind_gusts":35.6,"aqi":1317,"pm10":1188.4,"pm2_5":132.2,"no2":6.3,"co":483.0,"o3":166.0,"so2":11.4,"mosquito_risk":0,"arthritis_risk":5,"migraine_risk":7,"frizz_risk":1,"updated_at":"2026-05-03T17:15:55.477836+05:30"},{"city":"Ghaziabad","state":"Uttar Pradesh","latitude":28.6692,"longitude":77.4538,"temp":31.7,"humidity":49,"rain":0.0,"pressure":976.9,"uv_index":7.6,"wind_gusts":41.4,"aqi":321,"pm10":536.4,"pm2_5":75.4,"no2":4.1,"co":313.0,"o3":173.0,"so2":8.1,"mosquito_risk":0,"arthritis_risk":5,"migraine_risk":7,"frizz_risk":1,"updated_at":"2026-05-03T17:15:55.477843+05:30"},{"city":"Faridabad","state":"Haryana","latitude":28.4089,"longitude":77.3178,"temp":31.8,"humidity":49,"rain":0.0,"pressure":977.6,"uv_index":7.65,"wind_gusts":44.6,"aqi":1317,"pm10":1188.4,"pm2_5":132.2,"no2":6.3,"co":477.0,"o3":166.0,"so2":11.4,"mosquito_risk":0,"arthritis_risk":5,"migraine_risk":7,"frizz_risk":1,"updated_at":"2026-05-03T17:15:55.477850+05:30"},{"city":"Meerut","state":"Uttar Pradesh","latitude":28.9845,"longitude":77.7064,"temp":30.2,"humidity":57,"rain":0.0,"pressure":976.1,"uv_index":7.45,"wind_gusts":49.3,"aqi":321,"pm10":536.4,"pm2_5":75.4,"no2":4.1,"co":343.0,"o3":173.0,"so2":8.1,"mosquito_risk":0,"arthritis_risk":5,"migraine_risk":7,"frizz_risk":1,"updated_at":"2026-05-03T17:15:55.477857+05:30"},{"city":"Agra","state":"Uttar Pradesh","latitude":27.1767,"longitude":78.0081,"temp":30.8,"humidity":45,"rain":0.0,"pressure":981.6,"uv_index":7.95,"wind_gusts":61.9,"aqi":854,"pm10":368.8,"pm2_5":53.3,"no2":2.2,"co":241.0,"o3":155.0,"so2":6.6,"mosquito_risk":0,"arthritis_risk":5,"migraine_risk":7,"frizz_risk":1,"updated_at":"2026-05-03T17:15:55.477864+05:30"},{"city":"Varanasi","state":"Uttar Pradesh","latitude":25.3176,"longitude":82.9739,"temp":34.5,"humidity":40,"rain":0.0,"pressure":992.4,"uv_index":8.65,"wind_gusts":49.0,"aqi":186,"pm10":71.7,"pm2_5":44.4,"no2":3.1,"co":360.0,"o3":217.0,"so2":15.9,"mosquito_risk":0,"arthritis_risk":5,"migraine_risk":7,"frizz_risk":1,"updated_at":"2026-05-03T17:15:55.477871+05:30"},{"city":"Prayagraj","state":"Uttar Pradesh","latitude":25.4358,"longitude":81.8463,"temp":36.2,"humidity":31,"rain":0.0,"pressure":989.9,"uv_index":8.5,"wind_gusts":65.2,"aqi":185,"pm10":59.8,"pm2_5":38.3,"no2":2.8,"co":296.0,"o3":210.0,"so2":12.1,"mosquito_risk":0,"arthritis_risk":5,"migraine_risk":10,"frizz_risk":1,"updated_at":"2026-05-03T17:15:55.477881+05:30"},{"city":"Gorakhpur","state":"Uttar Pradesh","latitude":26.7606,"longitude":83.3732,"temp":31.1,"humidity":49,"rain":0.0,"pressure":993.3,"uv_index":7.95,"wind_gusts":37.8,"aqi":152,"pm10":64.3,"pm2_5":32.6,"no2":2.4,"co":318.0,"o3":175.0,"so2":2.9,"mosquito_risk":0,"arthritis_risk":5,"migraine_risk":7,"frizz_risk":1,"updated_at":"2026-05-03T17:15:55.477888+05:30"},{"city":"Bareilly","state":"Uttar Pradesh","latitude":28.367,"longitude":79.4304,"temp":24.9,"humidity":73,"rain":0.1,"pressure":982.4,"uv_index":7.9,"wind_gusts":51.1,"aqi":164,"pm10":322.2,"pm2_5":55.8,"no2":2.9,"co":324.0,"o3":184.0,"so2":12.7,"mosquito_risk":6,"arthritis_risk":5,"migraine_risk":7,"frizz_risk":1,"updated_at":"2026-05-03T17:15:55.477894+05:30"},{"city":"Aligarh","state":"Uttar Pradesh","latitude":27.8974,"longitude":78.088,"temp":30.6,"humidity":49,"rain":0.0,"pressure":979.9,"uv_index":7.75,"wind_gusts":50.8,"aqi":731,"pm10":694.8,"pm2_5":85.0,"no2":3.4,"co":254.0,"o3":161.0,"so2":10.4,"mosquito_risk":0,"arthritis_risk":5,"migraine_risk":7,"frizz_risk":1,"updated_at":"2026-05-03T17:15:55.477902+05:30"},{"city":"Moradabad","state":"Uttar Pradesh","latitude":28.8386,"longitude":78.7733,"temp":28.0,"humidity":60,"rain":0.0,"pressure":979.1,"uv_index":7.7,"wind_gusts":46.8,"aqi":168,"pm10":200.2,"pm2_5":46.1,"no2":4.6,"co":310.0,"o3":176.0,"so2":14.3,"mosquito_risk":4,"arthritis_risk":5,"migraine_risk":7,"frizz_risk":1,"updated_at":"2026-05-03T17:15:55.477909+05:30"},{"city":"Saharanpur","state":"Uttar Pradesh","latitude":29.9637,"longitude":77.546,"temp":29.7,"humidity":57,"rain":0.0,"pressure":970.5,"uv_index":7.3,"wind_gusts":46.8,"aqi":160,"pm10":151.8,"pm2_5":39.9,"no2":5.7,"co":354.0,"o3":154.0,"so2":8.9,"mosquito_risk":4,"arthritis_risk":5,"migraine_risk":7,"frizz_risk":1,"updated_at":"2026-05-03T17:15:55.477916+05:30"},{"city":"Jhansi","state":"Uttar Pradesh","latitude":25.4484,"longitude":78.5685,"temp":38.0,"humidity":20,"rain":0.0,"pressure":971.2,"uv_index":8.4,"wind_gusts":37.1,"aqi":114,"pm10":95.7,"pm2_5":27.0,"no2":1.9,"co":153.0,"o3":161.0,"so2":21.0,"mosquito_risk":0,"arthritis_risk":5,"migraine_risk":10,"frizz_risk":0,"updated_at":"2026-05-03T17:15:58.742138+05:30"},{"city":"Surat","state":"Gujarat","latitude":21.1702,"longitude":72.8311,"temp":31.8,"humidity":62,"rain":0.0,"pressure":1001.1,"uv_index":7.7,"wind_gusts":56.5,"aqi":63,"pm10":27.5,"pm2_5":15.3,"no2":11.3,"co":230.0,"o3":69.0,"so2":26.9,"mosquito_risk":3,"arthritis_risk":5,"migraine_risk":4,"frizz_risk":1,"updated_at":"2026-05-03T17:15:58.742178+05:30"},{"city":"Vadodara","state":"Gujarat","latitude":22.3072,"longitude":73.1812,"temp":36.4,"humidity":38,"rain":0.0,"pressure":997.0,"uv_index":8.05,"wind_gusts":52.9,"aqi":55,"pm10":23.7,"pm2_5":10.8,"no2":2.0,"co":176.0,"o3":122.0,"so2":3.9,"mosquito_risk":0,"arthritis_risk":5,"migraine_risk":10,"frizz_risk":1,"updated_at":"2026-05-03T17:15:58.742190+05:30"},{"city":"Rajkot","state":"Gujarat","latitude":22.3039,"longitude":70.8022,"temp":38.2,"humidity":28,"rain":0.0,"pressure":986.9,"uv_index":7.7,"wind_gusts":50.8,"aqi":50,"pm10":49.2,"pm2_5":13.7,"no2":1.2,"co":144.0,"o3":116.0,"so2":4.3,"mosquito_risk":0,"arthritis_risk":5,"migraine_risk":10,"frizz_risk":1,"updated_at":"2026-05-03T17:15:58.742199+05:30"},{"city":"Thane","state":"Maharashtra","latitude":19.2183,"longitude":72.9781,"temp":32.8,"humidity":53,"rain":0.0,"pressure":1004.0,"uv_index":7.9,"wind_gusts":39.2,"aqi":71,"pm10":41.2,"pm2_5":19.7,"no2":6.7,"co":219.0,"o3":91.0,"so2":16.6,"mosquito_risk":0,"arthritis_risk":5,"migraine_risk":4,"frizz_risk":1,"updated_at":"2026-05-03T17:15:58.742209+05:30"},{"city":"Nagpur","state":"Maharashtra","latitude":21.1458,"longitude":79.0882,"temp":39.7,"humidity":14,"rain":0.0,"pressure":967.1,"uv_index":8.9,"wind_gusts":39.2,"aqi":95,"pm10":76.6,"pm2_5":20.5,"no2":4.0,"co":154.0,"o3":131.0,"so2":11.9,"mosquito_risk":0,"arthritis_risk":5,"migraine_risk":10,"frizz_risk":0,"updated_at":"2026-05-03T17:15:58.742219+05:30"},{"city":"Nashik","state":"Maharashtra","latitude":19.9975,"longitude":73.7898,"temp":33.8,"humidity":22,"rain":0.0,"pressure":942.2,"uv_index":8.15,"wind_gusts":49.3,"aqi":64,"pm10":43.4,"pm2_5":13.8,"no2":1.0,"co":145.0,"o3":110.0,"so2":3.6,"mosquito_risk":0,"arthritis_risk":5,"migraine_risk":7,"frizz_risk":0,"updated_at":"2026-05-03T17:15:58.742228+05:30"},{"city":"Aurangabad","state":"Maharashtra","latitude":19.8762,"longitude":75.3433,"temp":37.4,"humidity":13,"rain":0.0,"pressure":939.8,"uv_index":9.05,"wind_gusts":50.0,"aqi":57,"pm10":55.8,"pm2_5":14.7,"no2":1.0,"co":156.0,"o3":120.0,"so2":2.3,"mosquito_risk":0,"arthritis_risk":5,"migraine_risk":10,"frizz_risk":0,"updated_at":"2026-05-03T17:15:58.742236+05:30"},{"city":"Solapur","state":"Maharashtra","latitude":17.6599,"longitude":75.9064,"temp":39.5,"humidity":10,"rain":0.0,"pressure":952.3,"uv_index":9.1,"wind_gusts":41.4,"aqi":57,"pm10":56.5,"pm2_5":13.6,"no2":0.7,"co":143.0,"o3":120.0,"so2":1.3,"mosquito_risk":0,"arthritis_risk":5,"migraine_risk":10,"frizz_risk":0,"updated_at":"2026-05-03T17:15:58.742245+05:30"},{"city":"Kolhapur","state":"Maharashtra","latitude":16.705,"longitude":74.2433,"temp":32.9,"humidity":41,"rain":0.0,"pressure":945.2,"uv_index":8.95,"wind_gusts":47.9,"aqi":63,"pm10":45.8,"pm2_5":15.1,"no2":2.0,"co":162.0,"o3":107.0,"so2":1.5,"mosquito_risk":0,"arthritis_risk":5,"migraine_risk":7,"frizz_risk":1,"updated_at":"2026-05-03T17:15:58.742253+05:30"},{"city":"Goa","state":"Goa","latitude":15.2993,"longitude":74.124,"temp":33.4,"humidity":53,"rain":0.0,"pressure":995.1,"uv_index":8.9,"wind_gusts":37.8,"aqi":68,"pm10":49.8,"pm2_5":15.4,"no2":0.7,"co":145.0,"o3":78.0,"so2":0.9,"mosquito_risk":0,"arthritis_risk":5,"migraine_risk":7,"frizz_risk":1,"updated_at":"2026-05-03T17:15:58.742262+05:30"},{"city":"Jodhpur","state":"Rajasthan","latitude":26.2389,"longitude":73.0243,"temp":34.2,"humidity":30,"rain":0.0,"pressure":975.7,"uv_index":8.3,"wind_gusts":57.2,"aqi":125,"pm10":214.2,"pm2_5":30.2,"no2":1.1,"co":165.0,"o3":135.0,"so2":3.2,"mosquito_risk":0,"arthritis_risk":5,"migraine_risk":7,"frizz_risk":0,"updated_at":"2026-05-03T17:15:58.742270+05:30"},{"city":"Udaipur","state":"Rajasthan","latitude":24.5854,"longitude":73.7125,"temp":35.7,"humidity":19,"rain":0.0,"pressure":940.4,"uv_index":8.8,"wind_gusts":39.2,"aqi":68,"pm10":38.2,"pm2_5":12.6,"no2":0.8,"co":148.0,"o3":135.0,"so2":3.9,"mosquito_risk":0,"arthritis_risk":5,"migraine_risk":10,"frizz_risk":0,"updated_at":"2026-05-03T17:15:58.742279+05:30"},{"city":"Kota","state":"Rajasthan","latitude":25.2138,"longitude":75.8648,"temp":40.2,"humidity":14,"rain":0.0,"pressure":970.8,"uv_index":8.35,"wind_gusts":52.2,"aqi":76,"pm10":108.0,"pm2_5":23.6,"no2":1.4,"co":149.0,"o3":134.0,"so2":3.8,"mosquito_risk":0,"arthritis_risk":5,"migraine_risk":10,"frizz_risk":0,"updated_at":"2026-05-03T17:15:58.742287+05:30"},{"city":"Bikaner","state":"Rajasthan","latitude":28.0229,"longitude":73.3119,"temp":40.8,"humidity":10,"rain":0.0,"pressure":972.3,"uv_index":8.25,"wind_gusts":46.4,"aqi":82,"pm10":166.2,"pm2_5":28.4,"no2":0.3,"co":151.0,"o3":139.0,"so2":4.4,"mosquito_risk":0,"arthritis_risk":5,"migraine_risk":10,"frizz_risk":0,"updated_at":"2026-05-03T17:15:58.742296+05:30"},{"city":"Ajmer","state":"Rajasthan","latitude":26.4499,"longitude":74.6399,"temp":38.3,"humidity":12,"rain":0.0,"pressure":947.5,"uv_index":8.3,"wind_gusts":55.4,"aqi":81,"pm10":63.6,"pm2_5":16.2,"no2":0.6,"co":153.0,"o3":136.0,"so2":2.8,"mosquito_risk":0,"arthritis_risk":5,"migraine_risk":10,"frizz_risk":0,"updated_at":"2026-05-03T17:15:58.742304+05:30"},{"city":"Gwalior","state":"Madhya Pradesh","latitude":26.2183,"longitude":78.1828,"temp":39.4,"humidity":16,"rain":0.0,"pressure":975.9,"uv_index":8.15,"wind_gusts":37.1,"aqi":104,"pm10":100.1,"pm2_5":24.7,"no2":0.7,"co":148.0,"o3":142.0,"so2":4.7,"mosquito_risk":0,"arthritis_risk":5,"migraine_risk":10,"frizz_risk":0,"updated_at":"2026-05-03T17:15:58.742312+05:30"},{"city":"Indore","state":"Madhya Pradesh","latitude":22.7196,"longitude":75.8577,"temp":37.3,"humidity":14,"rain":0.0,"pressure":942.7,"uv_index":8.7,"wind_gusts":44.3,"aqi":59,"pm10":28.1,"pm2_5":9.6,"no2":1.2,"co":165.0,"o3":132.0,"so2":2.9,"mosquito_risk":0,"arthritis_risk":5,"migraine_risk":10,"frizz_risk":0,"updated_at":"2026-05-03T17:15:58.742320+05:30"},{"city":"Bhopal","state":"Madhya Pradesh","latitude":23.2599,"longitude":77.4126,"temp":38.8,"humidity":14,"rain":0.0,"pressure":947.4,"uv_index":8.65,"wind_gusts":34.6,"aqi":68,"pm10":91.5,"pm2_5":19.4,"no2":0.4,"co":164.0,"o3":125.0,"so2":2.5,"mosquito_risk":0,"arthritis_risk":5,"migraine_risk":10,"frizz_risk":0,"updated_at":"2026-05-03T17:15:58.742328+05:30"},{"city":"Jabalpur","state":"Madhya Pradesh","latitude":23.1815,"longitude":79.9864,"temp":38.3,"humidity":17,"rain":0.0,"pressure":955.6,"uv_index":8.85,"wind_gusts":28.4,"aqi":85,"pm10":80.6,"pm2_5":19.4,"no2":2.6,"co":155.0,"o3":126.0,"so2":3.2,"mosquito_risk":0,"arthritis_risk":5,"migraine_risk":10,"frizz_risk":0,"updated_at":"2026-05-03T17:15:58.742336+05:30"},{"city":"Ujjain","state":"Madhya Pradesh","latitude":23.1765,"longitude":75.7885,"temp":37.6,"humidity":16,"rain":0.0,"pressure":947.9,"uv_index":8.6,"wind_gusts":41.4,"aqi":56,"pm10":26.8,"pm2_5":9.8,"no2":0.8,"co":142.0,"o3":133.0,"so2":3.5,"mosquito_risk":0,"arthritis_risk":5,"migraine_risk":10,"frizz_risk":0,"updated_at":"2026-05-03T17:15:58.742345+05:30"},{"city":"Visakhapatnam","state":"Andhra Pradesh","latitude":17.6868,"longitude":83.2185,"temp":31.1,"humidity":78,"rain":0.0,"pressure":999.0,"uv_index":9.15,"wind_gusts":47.5,"aqi":65,"pm10":29.3,"pm2_5":23.0,"no2":13.2,"co":332.0,"o3":93.0,"so2":10.7,"mosquito_risk":3,"arthritis_risk":5,"migraine_risk":7,"frizz_risk":1,"updated_at":"2026-05-03T17:15:58.742354+05:30"},{"city":"Vijayawada","state":"Andhra Pradesh","latitude":16.5062,"longitude":80.648,"temp":36.5,"humidity":40,"rain":0.0,"pressure":996.1,"uv_index":9.15,"wind_gusts":33.5,"aqi":155,"pm10":41.8,"pm2_5":27.4,"no2":6.2,"co":281.0,"o3":173.0,"so2":9.0,"mosquito_risk":0,"arthritis_risk":5,"migraine_risk":10,"frizz_risk":1,"updated_at":"2026-05-03T17:15:58.742362+05:30"},{"city":"Guntur","state":"Andhra Pradesh","latitude":16.3067,"longitude":80.4365,"temp":39.7,"humidity":24,"rain":0.0,"pressure":997.1,"uv_index":9.2,"wind_gusts":38.2,"aqi":149,"pm10":41.9,"pm2_5":22.5,"no2":4.4,"co":277.0,"o3":154.0,"so2":5.7,"mosquito_risk":0,"arthritis_risk":5,"migraine_risk":10,"frizz_risk":0,"updated_at":"2026-05-03T17:15:58.742371+05:30"},{"city":"Nellore","state":"Andhra Pradesh","latitude":14.4426,"longitude":79.9865,"temp":36.1,"humidity":44,"rain":0.0,"pressure":999.3,"uv_index":9.2,"wind_gusts":43.6,"aqi":138,"pm10":40.7,"pm2_5":24.1,"no2":2.2,"co":267.0,"o3":172.0,"so2":4.3,"mosquito_risk":0,"arthritis_risk":5,"migraine_risk":10,"frizz_risk":1,"updated_at":"2026-05-03T17:15:58.742380+05:30"},{"city":"Kurnool","state":"Andhra Pradesh","latitude":15.8281,"longitude":78.0373,"temp":40.5,"humidity":15,"rain":0.0,"pressure":971.2,"uv_index":9.15,"wind_gusts":41.4,"aqi":82,"pm10":42.8,"pm2_5":15.1,"no2":0.5,"co":159.0,"o3":136.0,"so2":4.0,"mosquito_risk":0,"arthritis_risk":5,"migraine_risk":10,"frizz_risk":0,"updated_at":"2026-05-03T17:15:58.742389+05:30"},{"city":"Kakinada","state":"Andhra Pradesh","latitude":16.9891,"longitude":82.2475,"temp":34.5,"humidity":60,"rain":0.0,"pressure":1002.0,"uv_index":9.15,"wind_gusts":39.6,"aqi":58,"pm10":29.2,"pm2_5":21.0,"no2":1.6,"co":237.0,"o3":113.0,"so2":2.7,"mosquito_risk":0,"arthritis_risk":5,"migraine_risk":4,"frizz_risk":1,"updated_at":"2026-05-03T17:15:58.742398+05:30"},{"city":"Tirupati","state":"Andhra Pradesh","latitude":13.6288,"longitude":79.4192,"temp":37.7,"humidity":27,"rain":0.0,"pressure":985.4,"uv_index":7.25,"wind_gusts":52.2,"aqi":109,"pm10":40.9,"pm2_5":16.1,"no2":5.8,"co":188.0,"o3":138.0,"so2":2.8,"mosquito_risk":0,"arthritis_risk":5,"migraine_risk":10,"frizz_risk":0,"updated_at":"2026-05-03T17:15:58.742405+05:30"},{"city":"Warangal","state":"Telangana","latitude":17.9689,"longitude":79.5941,"temp":39.3,"humidity":19,"rain":0.0,"pressure":973.0,"uv_index":9.15,"wind_gusts":38.9,"aqi":115,"pm10":50.4,"pm2_5":18.8,"no2":0.9,"co":213.0,"o3":140.0,"so2":8.4,"mosquito_risk":0,"arthritis_risk":5,"migraine_risk":10,"frizz_risk":0,"updated_at":"2026-05-03T17:15:58.742412+05:30"},{"city":"Nizamabad","state":"Telangana","latitude":18.6725,"longitude":78.0941,"temp":38.5,"humidity":15,"rain":0.0,"pressure":959.8,"uv_index":9.1,"wind_gusts":43.6,"aqi":70,"pm10":70.3,"pm2_5":18.6,"no2":0.4,"co":175.0,"o3":125.0,"so2":1.6,"mosquito_risk":0,"arthritis_risk":5,"migraine_risk":10,"frizz_risk":0,"updated_at":"2026-05-03T17:15:58.742419+05:30"},{"city":"Mysore","state":"Karnataka","latitude":12.2958,"longitude":76.6396,"temp":33.7,"humidity":26,"rain":0.0,"pressure":926.0,"uv_index":8.95,"wind_gusts":33.8,"aqi":67,"pm10":50.9,"pm2_5":18.3,"no2":5.1,"co":195.0,"o3":128.0,"so2":1.9,"mosquito_risk":0,"arthritis_risk":5,"migraine_risk":7,"frizz_risk":0,"updated_at":"2026-05-03T17:15:58.742426+05:30"},{"city":"Mangalore","state":"Karnataka","latitude":12.9141,"longitude":74.856,"temp":31.5,"humidity":59,"rain":0.0,"pressure":1004.2,"uv_index":9.0,"wind_gusts":44.6,"aqi":68,"pm10":62.2,"pm2_5":17.4,"no2":1.2,"co":142.0,"o3":77.0,"so2":1.0,"mosquito_risk":0,"arthritis_risk":5,"migraine_risk":4,"frizz_risk":1,"updated_at":"2026-05-03T17:15:58.742433+05:30"},{"city":"Hubli-Dharwad","state":"Karnataka","latitude":15.3647,"longitude":75.124,"temp":33.1,"humidity":34,"rain":0.0,"pressure":938.4,"uv_index":9.15,"wind_gusts":44.3,"aqi":58,"pm10":54.2,"pm2_5":17.1,"no2":2.0,"co":175.0,"o3":120.0,"so2":1.4,"mosquito_risk":0,"arthritis_risk":5,"migraine_risk":7,"frizz_risk":0,"updated_at":"2026-05-03T17:15:58.742440+05:30"},{"city":"Belgaum","state":"Karnataka","latitude":15.8497,"longitude":74.4977,"temp":30.5,"humidity":48,"rain":0.0,"pressure":924.0,"uv_index":9.15,"wind_gusts":46.8,"aqi":60,"pm10":40.4,"pm2_5":14.0,"no2":1.6,"co":155.0,"o3":97.0,"so2":1.4,"mosquito_risk":0,"arthritis_risk":5,"migraine_risk":7,"frizz_risk":1,"updated_at":"2026-05-03T17:16:02.084469+05:30"},{"city":"Coimbatore","state":"Tamil Nadu","latitude":11.0168,"longitude":76.9558,"temp":31.8,"humidity":53,"rain":0.0,"pressure":958.7,"uv_index":9.25,"wind_gusts":49.0,"aqi":66,"pm10":22.5,"pm2_5":13.4,"no2":2.7,"co":208.0,"o3":109.0,"so2":2.0,"mosquito_risk":0,"arthritis_risk":5,"migraine_risk":7,"frizz_risk":1,"updated_at":"2026-05-03T17:16:02.084503+05:30"},{"city":"Madurai","state":"Tamil Nadu","latitude":9.9252,"longitude":78.1198,"temp":33.1,"humidity":47,"rain":0.1,"pressure":989.3,"uv_index":8.9,"wind_gusts":58.7,"aqi":126,"pm10":30.4,"pm2_5":21.8,"no2":3.6,"co":301.0,"o3":162.0,"so2":2.3,"mosquito_risk":3,"arthritis_risk":5,"migraine_risk":7,"frizz_risk":1,"updated_at":"2026-05-03T17:16:02.084516+05:30"},{"city":"Trichy","state":"Tamil Nadu","latitude":10.7905,"longitude":78.7047,"temp":38.5,"humidity":29,"rain":0.0,"pressure":994.4,"uv_index":9.2,"wind_gusts":45.0,"aqi":101,"pm10":31.5,"pm2_5":23.4,"no2":3.8,"co":227.0,"o3":162.0,"so2":3.0,"mosquito_risk":0,"arthritis_risk":5,"migraine_risk":10,"frizz_risk":1,"updated_at":"2026-05-03T17:16:02.084531+05:30"},{"city":"Salem","state":"Tamil Nadu","latitude":11.6643,"longitude":78.146,"temp":37.5,"humidity":26,"rain":0.0,"pressure":972.8,"uv_index":9.25,"wind_gusts":36.4,"aqi":140,"pm10":30.4,"pm2_5":20.1,"no2":3.1,"co":172.0,"o3":180.0,"so2":9.7,"mosquito_risk":0,"arthritis_risk":5,"migraine_risk":10,"frizz_risk":0,"updated_at":"2026-05-03T17:16:02.084541+05:30"},{"city":"Tirunelveli","state":"Tamil Nadu","latitude":8.7139,"longitude":77.7567,"temp":32.5,"humidity":52,"rain":0.0,"pressure":999.5,"uv_index":8.15,"wind_gusts":37.4,"aqi":73,"pm10":21.5,"pm2_5":17.5,"no2":3.0,"co":226.0,"o3":107.0,"so2":1.2,"mosquito_risk":0,"arthritis_risk":5,"migraine_risk":7,"frizz_risk":1,"updated_at":"2026-05-03T17:16:02.084549+05:30"},{"city":"Vellore","state":"Tamil Nadu","latitude":12.9165,"longitude":79.1325,"temp":40.1,"humidity":19,"rain":0.0,"pressure":978.7,"uv_index":9.3,"wind_gusts":39.2,"aqi":103,"pm10":30.5,"pm2_5":13.6,"no2":4.7,"co":174.0,"o3":137.0,"so2":2.4,"mosquito_risk":0,"arthritis_risk":5,"migraine_risk":10,"frizz_risk":0,"updated_at":"2026-05-03T17:16:02.084559+05:30"},{"city":"Erode","state":"Tamil Nadu","latitude":11.341,"longitude":77.7172,"temp":39.6,"humidity":20,"rain":0.0,"pressure":983.7,"uv_index":9.25,"wind_gusts":50.4,"aqi":91,"pm10":26.0,"pm2_5":16.2,"no2":3.3,"co":215.0,"o3":149.0,"so2":1.2,"mosquito_risk":0,"arthritis_risk":5,"migraine_risk":10,"frizz_risk":0,"updated_at":"2026-05-03T17:16:02.084568+05:30"},{"city":"Kochi","state":"Kerala","latitude":9.9312,"longitude":76.2673,"temp":30.2,"humidity":75,"rain":0.0,"pressure":1005.9,"uv_index":9.05,"wind_gusts":35.6,"aqi":95,"pm10":36.4,"pm2_5":20.7,"no2":2.0,"co":155.0,"o3":101.0,"so2":1.4,"mosquito_risk":3,"arthritis_risk":5,"migraine_risk":4,"frizz_risk":1,"updated_at":"2026-05-03T17:16:02.084576+05:30"},{"city":"Thiruvananthapuram","state":"Kerala","latitude":8.5241,"longitude":76.9366,"temp":30.0,"humidity":72,"rain":0.0,"pressure":1005.5,"uv_index":8.65,"wind_gusts":38.2,"aqi":56,"pm10":19.1,"pm2_5":12.4,"no2":1.5,"co":157.0,"o3":81.0,"so2":0.6,"mosquito_risk":7,"arthritis_risk":5,"migraine_risk":4,"frizz_risk":1,"updated_at":"2026-05-03T17:16:02.084585+05:30"},{"city":"Kozhikode","state":"Kerala","latitude":11.2588,"longitude":75.7804,"temp":30.4,"humidity":67,"rain":0.0,"pressure":1005.0,"uv_index":9.0,"wind_gusts":42.8,"aqi":65,"pm10":57.2,"pm2_5":18.7,"no2":0.5,"co":141.0,"o3":76.0,"so2":0.5,"mosquito_risk":3,"arthritis_risk":5,"migraine_risk":4,"frizz_risk":1,"updated_at":"2026-05-03T17:16:02.084593+05:30"},{"city":"Thrissur","state":"Kerala","latitude":10.5276,"longitude":76.2144,"temp":30.9,"humidity":65,"rain":0.0,"pressure":1004.3,"uv_index":8.75,"wind_gusts":34.6,"aqi":93,"pm10":34.2,"pm2_5":17.8,"no2":1.3,"co":144.0,"o3":91.0,"so2":1.1,"mosquito_risk":3,"arthritis_risk":5,"migraine_risk":4,"frizz_risk":1,"updated_at":"2026-05-03T17:16:02.084603+05:30"},{"city":"Kannur","state":"Kerala","latitude":11.8745,"longitude":75.3704,"temp":31.9,"humidity":59,"rain":0.0,"pressure":1004.3,"uv_index":9.0,"wind_gusts":46.8,"aqi":66,"pm10":62.9,"pm2_5":19.4,"no2":1.4,"co":140.0,"o3":83.0,"so2":0.9,"mosquito_risk":0,"arthritis_risk":5,"migraine_risk":4,"frizz_risk":1,"updated_at":"2026-05-03T17:16:02.084611+05:30"},{"city":"Patna","state":"Bihar","latitude":25.5941,"longitude":85.1376,"temp":30.0,"humidity":63,"rain":0.0,"pressure":996.7,"uv_index":8.55,"wind_gusts":41.8,"aqi":166,"pm10":82.7,"pm2_5":64.0,"no2":6.0,"co":380.0,"o3":200.0,"so2":7.2,"mosquito_risk":7,"arthritis_risk":5,"migraine_risk":7,"frizz_risk":1,"updated_at":"2026-05-03T17:16:02.084619+05:30"},{"city":"Gaya","state":"Bihar","latitude":24.7914,"longitude":85.0002,"temp":32.2,"humidity":51,"rain":0.0,"pressure":989.5,"uv_index":8.7,"wind_gusts":38.2,"aqi":200,"pm10":81.3,"pm2_5":54.8,"no2":3.6,"co":378.0,"o3":211.0,"so2":14.6,"mosquito_risk":0,"arthritis_risk":5,"migraine_risk":7,"frizz_risk":1,"updated_at":"2026-05-03T17:16:02.084627+05:30"},{"city":"Muzaffarpur","state":"Bihar","latitude":26.1209,"longitude":85.3647,"temp":27.9,"humidity":71,"rain":0.0,"pressure":997.5,"uv_index":8.7,"wind_gusts":41.4,"aqi":137,"pm10":67.1,"pm2_5":49.6,"no2":6.5,"co":391.0,"o3":171.0,"so2":5.3,"mosquito_risk":7,"arthritis_risk":5,"migraine_risk":7,"frizz_risk":1,"updated_at":"2026-05-03T17:16:02.084635+05:30"},{"city":"Bhagalpur","state":"Bihar","latitude":25.2425,"longitude":87.0117,"temp":27.0,"humidity":71,"rain":0.0,"pressure":998.3,"uv_index":8.65,"wind_gusts":41.8,"aqi":138,"pm10":71.9,"pm2_5":50.9,"no2":6.8,"co":356.0,"o3":181.0,"so2":6.6,"mosquito_risk":7,"arthritis_risk":5,"migraine_risk":7,"frizz_risk":1,"updated_at":"2026-05-03T17:16:02.084644+05:30"},{"city":"Ranchi","state":"Jharkhand","latitude":23.3441,"longitude":85.3096,"temp":30.6,"humidity":35,"rain":0.0,"pressure":934.1,"uv_index":9.25,"wind_gusts":29.2,"aqi":122,"pm10":53.4,"pm2_5":18.9,"no2":2.4,"co":195.0,"o3":146.0,"so2":6.5,"mosquito_risk":0,"arthritis_risk":5,"migraine_risk":7,"frizz_risk":0,"updated_at":"2026-05-03T17:16:02.084652+05:30"},{"city":"Jamshedpur","state":"Jharkhand","latitude":22.8046,"longitude":86.2029,"temp":35.2,"humidity":35,"rain":0.0,"pressure":986.2,"uv_index":9.05,"wind_gusts":32.8,"aqi":192,"pm10":79.4,"pm2_5":49.0,"no2":6.0,"co":430.0,"o3":210.0,"so2":20.5,"mosquito_risk":0,"arthritis_risk":5,"migraine_risk":10,"frizz_risk":1,"updated_at":"2026-05-03T17:16:02.084661+05:30"},{"city":"Dhanbad","state":"Jharkhand","latitude":23.7957,"longitude":86.4304,"temp":29.7,"humidity":65,"rain":0.0,"pressure":976.2,"uv_index":9.0,"wind_gusts":30.6,"aqi":160,"pm10":93.8,"pm2_5":70.5,"no2":19.2,"co":340.0,"o3":220.0,"so2":54.6,"mosquito_risk":7,"arthritis_risk":5,"migraine_risk":7,"frizz_risk":1,"updated_at":"2026-05-03T17:16:02.084669+05:30"},{"city":"Bokaro","state":"Jharkhand","latitude":23.6693,"longitude":86.1511,"temp":28.9,"humidity":68,"rain":0.0,"pressure":980.0,"uv_index":9.0,"wind_gusts":28.4,"aqi":193,"pm10":99.9,"pm2_5":74.7,"no2":19.1,"co":442.0,"o3":266.0,"so2":69.9,"mosquito_risk":7,"arthritis_risk":5,"migraine_risk":7,"frizz_risk":1,"updated_at":"2026-05-03T17:16:02.084678+05:30"},{"city":"Bhubaneswar","state":"Odisha","latitude":20.2961,"longitude":85.8245,"temp":30.5,"humidity":70,"rain":0.0,"pressure":998.7,"uv_index":9.1,"wind_gusts":33.5,"aqi":101,"pm10":37.3,"pm2_5":23.5,"no2":4.7,"co":242.0,"o3":132.0,"so2":5.7,"mosquito_risk":3,"arthritis_risk":5,"migraine_risk":7,"frizz_risk":1,"updated_at":"2026-05-03T17:16:02.084686+05:30"},{"city":"Cuttack","state":"Odisha","latitude":20.4625,"longitude":85.8828,"temp":31.4,"humidity":64,"rain":0.0,"pressure":1000.5,"uv_index":9.15,"wind_gusts":31.7,"aqi":101,"pm10":37.3,"pm2_5":23.5,"no2":4.7,"co":300.0,"o3":132.0,"so2":5.7,"mosquito_risk":3,"arthritis_risk":5,"migraine_risk":4,"frizz_risk":1,"updated_at":"2026-05-03T17:16:02.084695+05:30"},{"city":"Rourkela","state":"Odisha","latitude":22.2604,"longitude":84.8536,"temp":35.7,"humidity":29,"rain":0.0,"pressure":980.1,"uv_index":8.95,"wind_gusts":38.5,"aqi":163,"pm10":63.6,"pm2_5":29.7,"no2":5.3,"co":253.0,"o3":174.0,"so2":22.4,"mosquito_risk":0,"arthritis_risk":5,"migraine_risk":10,"frizz_risk":0,"updated_at":"2026-05-03T17:16:02.084702+05:30"},{"city":"Raipur","state":"Chhattisgarh","latitude":21.2514,"longitude":81.6296,"temp":39.0,"humidity":18,"rain":0.0,"pressure":968.9,"uv_index":9.0,"wind_gusts":32.4,"aqi":169,"pm10":45.2,"pm2_5":19.1,"no2":7.7,"co":187.0,"o3":165.0,"so2":4.8,"mosquito_risk":0,"arthritis_risk":5,"migraine_risk":10,"frizz_risk":0,"updated_at":"2026-05-03T17:16:02.084709+05:30"},{"city":"Bhilai","state":"Chhattisgarh","latitude":21.1938,"longitude":81.3509,"temp":38.5,"humidity":18,"rain":0.0,"pressure":969.2,"uv_index":9.0,"wind_gusts":34.6,"aqi":132,"pm10":46.0,"pm2_5":17.4,"no2":7.2,"co":289.0,"o3":146.0,"so2":4.0,"mosquito_risk":0,"arthritis_risk":5,"migraine_risk":10,"frizz_risk":0,"updated_at":"2026-05-03T17:16:02.084716+05:30"},{"city":"Guwahati","state":"Assam","latitude":26.1158,"longitude":91.7086,"temp":25.4,"humidity":75,"rain":0.0,"pressure":1000.2,"uv_index":7.2,"wind_gusts":25.2,"aqi":69,"pm10":12.2,"pm2_5":8.8,"no2":3.4,"co":297.0,"o3":110.0,"so2":1.0,"mosquito_risk":7,"arthritis_risk":5,"migraine_risk":4,"frizz_risk":1,"updated_at":"2026-05-03T17:16:02.084724+05:30"},{"city":"Agartala","state":"Tripura","latitude":23.8315,"longitude":91.2868,"temp":27.2,"humidity":79,"rain":0.0,"pressure":1004.3,"uv_index":8.7,"wind_gusts":35.3,"aqi":62,"pm10":16.1,"pm2_5":13.2,"no2":8.2,"co":195.0,"o3":95.0,"so2":2.2,"mosquito_risk":7,"arthritis_risk":5,"migraine_risk":4,"frizz_risk":1,"updated_at":"2026-05-03T17:16:02.084731+05:30"},{"city":"Shillong","state":"Meghalaya","latitude":25.5788,"longitude":91.8933,"temp":17.7,"humidity":82,"rain":0.0,"pressure":855.4,"uv_index":6.5,"wind_gusts":24.1,"aqi":68,"pm10":11.9,"pm2_5":8.6,"no2":3.2,"co":273.0,"o3":115.0,"so2":1.1,"mosquito_risk":3,"arthritis_risk":10,"migraine_risk":7,"frizz_risk":0,"updated_at":"2026-05-03T17:16:02.084738+05:30"},{"city":"Imphal","state":"Manipur","latitude":24.817,"longitude":93.9368,"temp":21.8,"humidity":76,"rain":0.0,"pressure":922.2,"uv_index":9.15,"wind_gusts":36.0,"aqi":62,"pm10":24.2,"pm2_5":12.7,"no2":2.2,"co":254.0,"o3":101.0,"so2":1.0,"mosquito_risk":3,"arthritis_risk":5,"migraine_risk":7,"frizz_risk":1,"updated_at":"2026-05-03T17:16:02.084745+05:30"},{"city":"Aizawl","state":"Mizoram","latitude":23.7271,"longitude":92.7176,"temp":19.1,"humidity":85,"rain":0.0,"pressure":891.4,"uv_index":8.5,"wind_gusts":47.5,"aqi":42,"pm10":18.7,"pm2_5":11.9,"no2":1.9,"co":176.0,"o3":85.0,"so2":1.0,"mosquito_risk":3,"arthritis_risk":10,"migraine_risk":7,"frizz_risk":1,"updated_at":"2026-05-03T17:16:02.084752+05:30"},{"city":"Kohima","state":"Nagaland","latitude":25.6701,"longitude":94.1077,"temp":17.1,"humidity":93,"rain":0.0,"pressure":853.7,"uv_index":4.25,"wind_gusts":24.8,"aqi":48,"pm10":12.0,"pm2_5":8.6,"no2":3.2,"co":243.0,"o3":100.0,"so2":0.5,"mosquito_risk":3,"arthritis_risk":10,"migraine_risk":3,"frizz_risk":0,"updated_at":"2026-05-03T17:16:02.084759+05:30"},{"city":"Gangtok","state":"Sikkim","latitude":27.3314,"longitude":88.6138,"temp":15.9,"humidity":89,"rain":0.0,"pressure":835.3,"uv_index":7.95,"wind_gusts":43.2,"aqi":88,"pm10":7.8,"pm2_5":6.8,"no2":3.7,"co":261.0,"o3":128.0,"so2":1.1,"mosquito_risk":3,"arthritis_risk":10,"migraine_risk":7,"frizz_risk":0,"updated_at":"2026-05-03T17:16:02.084767+05:30"},{"city":"Siliguri","state":"West Bengal","latitude":26.7271,"longitude":88.3953,"temp":23.8,"humidity":85,"rain":0.0,"pressure":991.5,"uv_index":8.15,"wind_gusts":28.1,"aqi":104,"pm10":13.2,"pm2_5":10.6,"no2":5.4,"co":471.0,"o3":134.0,"so2":1.6,"mosquito_risk":3,"arthritis_risk":5,"migraine_risk":7,"frizz_risk":1,"updated_at":"2026-05-03T17:16:05.335071+05:30"},{"city":"Durgapur","state":"West Bengal","latitude":23.5204,"longitude":87.3119,"temp":30.7,"humidity":63,"rain":0.0,"pressure":991.5,"uv_index":8.9,"wind_gusts":29.9,"aqi":149,"pm10":73.6,"pm2_5":57.0,"no2":17.2,"co":328.0,"o3":167.0,"so2":41.3,"mosquito_risk":3,"arthritis_risk":5,"migraine_risk":7,"frizz_risk":1,"updated_at":"2026-05-03T17:16:05.335142+05:30"},{"city":"Asansol","state":"West Bengal","latitude":23.6739,"longitude":86.9524,"temp":30.9,"humidity":61,"rain":0.0,"pressure":990.0,"uv_index":8.95,"wind_gusts":29.5,"aqi":153,"pm10":83.8,"pm2_5":64.0,"no2":17.9,"co":329.0,"o3":187.0,"so2":45.7,"mosquito_risk":3,"arthritis_risk":5,"migraine_risk":7,"frizz_risk":1,"updated_at":"2026-05-03T17:16:05.335157+05:30"},{"city":"Pondicherry","state":"Puducherry","latitude":11.9139,"longitude":79.8145,"temp":32.2,"humidity":75,"rain":0.0,"pressure":1003.2,"uv_index":8.55,"wind_gusts":47.9,"aqi":170,"pm10":36.4,"pm2_5":29.8,"no2":4.7,"co":240.0,"o3":187.0,"so2":5.0,"mosquito_risk":3,"arthritis_risk":5,"migraine_risk":4,"frizz_risk":1,"updated_at":"2026-05-03T17:16:05.335166+05:30"},{"city":"Port Blair","state":"Andaman and Nicobar Islands","latitude":11.6234,"longitude":92.7265,"temp":30.7,"humidity":61,"rain":0.1,"pressure":1005.4,"uv_index":8.9,"wind_gusts":25.6,"aqi":28,"pm10":5.7,"pm2_5":4.0,"no2":0.6,"co":156.0,"o3":58.0,"so2":0.4,"mosquito_risk":6,"arthritis_risk":5,"migraine_risk":4,"frizz_risk":1,"updated_at":"2026-05-03T17:16:05.335174+05:30"},{"city":"Haridwar","state":"Uttarakhand","latitude":29.9457,"longitude":78.1642,"temp":29.5,"humidity":53,"rain":0.0,"pressure":969.2,"uv_index":7.35,"wind_gusts":41.4,"aqi":161,"pm10":160.2,"pm2_5":39.5,"no2":3.4,"co":304.0,"o3":160.0,"so2":7.9,"mosquito_risk":4,"arthritis_risk":5,"migraine_risk":7,"frizz_risk":1,"updated_at":"2026-05-03T17:16:05.335182+05:30"},{"city":"Rishikesh","state":"Uttarakhand","latitude":30.0869,"longitude":78.2676,"temp":28.2,"humidity":57,"rain":0.0,"pressure":962.1,"uv_index":7.45,"wind_gusts":37.4,"aqi":156,"pm10":148.5,"pm2_5":36.4,"no2":1.2,"co":265.0,"o3":162.0,"so2":6.6,"mosquito_risk":4,"arthritis_risk":5,"migraine_risk":7,"frizz_risk":1,"updated_at":"2026-05-03T17:16:05.335190+05:30"},{"city":"Nainital","state":"Uttarakhand","latitude":29.3919,"longitude":79.4542,"temp":17.3,"humidity":60,"rain":0.0,"pressure":803.3,"uv_index":8.4,"wind_gusts":40.0,"aqi":152,"pm10":165.8,"pm2_5":39.6,"no2":1.3,"co":244.0,"o3":162.0,"so2":4.3,"mosquito_risk":0,"arthritis_risk":5,"migraine_risk":7,"frizz_risk":0,"updated_at":"2026-05-03T17:16:05.335198+05:30"},{"city":"Mussoorie","state":"Uttarakhand","latitude":30.4599,"longitude":78.0664,"temp":17.4,"humidity":62,"rain":0.0,"pressure":800.6,"uv_index":7.3,"wind_gusts":46.4,"aqi":151,"pm10":164.8,"pm2_5":39.3,"no2":1.0,"co":220.0,"o3":162.0,"so2":6.4,"mosquito_risk":3,"arthritis_risk":5,"migraine_risk":7,"frizz_risk":0,"updated_at":"2026-05-03T17:16:05.335206+05:30"},{"city":"Dharamshala","state":"Himachal Pradesh","latitude":32.219,"longitude":76.3234,"temp":23.7,"humidity":31,"rain":0.0,"pressure":865.9,"uv_index":6.85,"wind_gusts":45.0,"aqi":121,"pm10":44.4,"pm2_5":16.9,"no2":0.2,"co":202.0,"o3":155.0,"so2":3.8,"mosquito_risk":0,"arthritis_risk":5,"migraine_risk":7,"frizz_risk":0,"updated_at":"2026-05-03T17:16:05.335213+05:30"},{"city":"Dalhousie","state":"Himachal Pradesh","latitude":32.5387,"longitude":75.971,"temp":19.4,"humidity":35,"rain":0.0,"pressure":802.4,"uv_index":7.95,"wind_gusts":48.2,"aqi":130,"pm10":53.6,"pm2_5":17.7,"no2":0.9,"co":221.0,"o3":163.0,"so2":4.1,"mosquito_risk":0,"arthritis_risk":5,"migraine_risk":7,"frizz_risk":0,"updated_at":"2026-05-03T17:16:05.335221+05:30"},{"city":"Patiala","state":"Punjab","latitude":30.3398,"longitude":76.3869,"temp":29.9,"humidity":51,"rain":0.0,"pressure":972.8,"uv_index":7.5,"wind_gusts":62.3,"aqi":721,"pm10":705.9,"pm2_5":83.4,"no2":2.4,"co":316.0,"o3":173.0,"so2":9.0,"mosquito_risk":4,"arthritis_risk":5,"migraine_risk":7,"frizz_risk":1,"updated_at":"2026-05-03T17:16:05.335229+05:30"},{"city":"Bhatinda","state":"Punjab","latitude":30.211,"longitude":74.9455,"temp":27.5,"humidity":56,"rain":0.0,"pressure":978.6,"uv_index":8.15,"wind_gusts":56.5,"aqi":226,"pm10":821.4,"pm2_5":107.8,"no2":3.7,"co":252.0,"o3":162.0,"so2":12.7,"mosquito_risk":4,"arthritis_risk":5,"migraine_risk":7,"frizz_risk":1,"updated_at":"2026-05-03T17:16:05.335236+05:30"},{"city":"Rohtak","state":"Haryana","latitude":28.8955,"longitude":76.6066,"temp":35.0,"humidity":31,"rain":0.0,"pressure":975.2,"uv_index":7.65,"wind_gusts":42.1,"aqi":726,"pm10":800.9,"pm2_5":107.6,"no2":5.0,"co":341.0,"o3":190.0,"so2":14.3,"mosquito_risk":0,"arthritis_risk":5,"migraine_risk":7,"frizz_risk":0,"updated_at":"2026-05-03T17:16:05.335243+05:30"},{"city":"Panipat","state":"Haryana","latitude":29.3909,"longitude":76.9635,"temp":31.9,"humidity":50,"rain":0.0,"pressure":974.7,"uv_index":7.45,"wind_gusts":54.0,"aqi":1156,"pm10":1419.3,"pm2_5":152.3,"no2":6.2,"co":321.0,"o3":203.0,"so2":20.7,"mosquito_risk":0,"arthritis_risk":5,"migraine_risk":7,"frizz_risk":1,"updated_at":"2026-05-03T17:16:05.335250+05:30"},{"city":"Mathura","state":"Uttar Pradesh","latitude":27.4924,"longitude":77.6737,"temp":33.2,"humidity":39,"rain":0.0,"pressure":980.6,"uv_index":7.9,"wind_gusts":57.6,"aqi":861,"pm10":530.9,"pm2_5":68.2,"no2":5.0,"co":269.0,"o3":152.0,"so2":5.7,"mosquito_risk":0,"arthritis_risk":5,"migraine_risk":7,"frizz_risk":1,"updated_at":"2026-05-03T17:16:05.335257+05:30"},{"city":"Vrindavan","state":"Uttar Pradesh","latitude":27.5823,"longitude":77.7027,"temp":33.0,"humidity":39,"rain":0.0,"pressure":980.9,"uv_index":7.9,"wind_gusts":58.3,"aqi":861,"pm10":530.9,"pm2_5":68.2,"no2":5.0,"co":258.0,"o3":152.0,"so2":5.7,"mosquito_risk":0,"arthritis_risk":5,"migraine_risk":7,"frizz_risk":1,"updated_at":"2026-05-03T17:16:05.335264+05:30"},{"city":"Ayodhya","state":"Uttar Pradesh","latitude":26.7922,"longitude":82.1998,"temp":32.8,"humidity":44,"rain":0.0,"pressure":990.5,"uv_index":8.25,"wind_gusts":45.7,"aqi":151,"pm10":50.4,"pm2_5":35.3,"no2":2.1,"co":311.0,"o3":181.0,"so2":5.1,"mosquito_risk":0,"arthritis_risk":5,"migraine_risk":7,"frizz_risk":1,"updated_at":"2026-05-03T17:16:05.335271+05:30"},{"city":"Ratlam","state":"Madhya Pradesh","latitude":23.3315,"longitude":75.0367,"temp":36.7,"humidity":20,"rain":0.0,"pressure":949.0,"uv_index":8.5,"wind_gusts":47.9,"aqi":65,"pm10":19.8,"pm2_5":8.7,"no2":0.6,"co":155.0,"o3":137.0,"so2":3.9,"mosquito_risk":0,"arthritis_risk":5,"migraine_risk":10,"frizz_risk":0,"updated_at":"2026-05-03T17:16:05.335278+05:30"},{"city":"Sagar","state":"Madhya Pradesh","latitude":23.8388,"longitude":78.7378,"temp":37.3,"humidity":18,"rain":0.0,"pressure":944.5,"uv_index":8.7,"wind_gusts":33.5,"aqi":72,"pm10":88.7,"pm2_5":19.8,"no2":1.4,"co":147.0,"o3":121.0,"so2":2.3,"mosquito_risk":0,"arthritis_risk":5,"migraine_risk":10,"frizz_risk":0,"updated_at":"2026-05-03T17:16:05.335285+05:30"},{"city":"Satna","state":"Madhya Pradesh","latitude":24.6005,"longitude":80.8322,"temp":36.8,"humidity":21,"rain":0.0,"pressure":965.5,"uv_index":8.7,"wind_gusts":61.6,"aqi":105,"pm10":67.8,"pm2_5":20.5,"no2":0.7,"co":152.0,"o3":150.0,"so2":4.9,"mosquito_risk":0,"arthritis_risk":5,"migraine_risk":10,"frizz_risk":0,"updated_at":"2026-05-03T17:16:05.335292+05:30"},{"city":"Akola","state":"Maharashtra","latitude":20.7002,"longitude":77.0082,"temp":39.5,"humidity":13,"rain":0.0,"pressure":968.9,"uv_index":8.85,"wind_gusts":42.1,"aqi":58,"pm10":57.4,"pm2_5":13.9,"no2":1.3,"co":132.0,"o3":127.0,"so2":7.4,"mosquito_risk":0,"arthritis_risk":5,"migraine_risk":10,"frizz_risk":0,"updated_at":"2026-05-03T17:16:05.335300+05:30"},{"city":"Amravati","state":"Maharashtra","latitude":20.9374,"longitude":77.7796,"temp":39.2,"humidity":14,"rain":0.0,"pressure":961.5,"uv_index":8.85,"wind_gusts":41.4,"aqi":60,"pm10":69.2,"pm2_5":15.8,"no2":1.7,"co":136.0,"o3":124.0,"so2":6.1,"mosquito_risk":0,"arthritis_risk":5,"migraine_risk":10,"frizz_risk":0,"updated_at":"2026-05-03T17:16:05.335308+05:30"},{"city":"Latur","state":"Maharashtra","latitude":18.4088,"longitude":76.5604,"temp":38.5,"humidity":10,"rain":0.0,"pressure":935.5,"uv_index":9.05,"wind_gusts":39.6,"aqi":62,"pm10":62.6,"pm2_5":14.0,"no2":0.3,"co":136.0,"o3":118.0,"so2":2.7,"mosquito_risk":0,"arthritis_risk":5,"migraine_risk":10,"frizz_risk":0,"updated_at":"2026-05-03T17:16:05.335315+05:30"},{"city":"Nanded","state":"Maharashtra","latitude":19.1383,"longitude":77.3091,"temp":40.4,"humidity":10,"rain":0.0,"pressure":962.7,"uv_index":9.0,"wind_gusts":37.8,"aqi":62,"pm10":74.7,"pm2_5":16.5,"no2":0.6,"co":135.0,"o3":121.0,"so2":1.1,"mosquito_risk":0,"arthritis_risk":5,"migraine_risk":10,"frizz_risk":0,"updated_at":"2026-05-03T17:16:05.335322+05:30"},{"city":"Gulbarga","state":"Karnataka","latitude":17.3297,"longitude":76.8343,"temp":39.8,"humidity":11,"rain":0.0,"pressure":953.5,"uv_index":9.1,"wind_gusts":42.1,"aqi":64,"pm10":71.2,"pm2_5":16.8,"no2":0.4,"co":150.0,"o3":128.0,"so2":2.0,"mosquito_risk":0,"arthritis_risk":5,"migraine_risk":10,"frizz_risk":0,"updated_at":"2026-05-03T17:16:05.335329+05:30"},{"city":"Bidar","state":"Karnataka","latitude":17.9104,"longitude":77.5199,"temp":38.6,"humidity":12,"rain":0.0,"pressure":931.1,"uv_index":9.15,"wind_gusts":37.4,"aqi":68,"pm10":72.2,"pm2_5":19.1,"no2":0.9,"co":125.0,"o3":129.0,"so2":3.9,"mosquito_risk":0,"arthritis_risk":5,"migraine_risk":10,"frizz_risk":0,"updated_at":"2026-05-03T17:16:05.335335+05:30"},{"city":"Hospet","state":"Karnataka","latitude":15.2689,"longitude":76.3909,"temp":37.2,"humidity":23,"rain":0.0,"pressure":951.5,"uv_index":9.2,"wind_gusts":37.8,"aqi":58,"pm10":59.8,"pm2_5":17.9,"no2":0.4,"co":170.0,"o3":130.0,"so2":1.6,"mosquito_risk":0,"arthritis_risk":5,"migraine_risk":10,"frizz_risk":0,"updated_at":"2026-05-03T17:16:05.335342+05:30"},{"city":"Tirupur","state":"Tamil Nadu","latitude":11.1085,"longitude":77.3411,"temp":35.0,"humidity":40,"rain":0.0,"pressure":970.9,"uv_index":9.35,"wind_gusts":47.9,"aqi":81,"pm10":25.3,"pm2_5":15.0,"no2":3.6,"co":209.0,"o3":132.0,"so2":1.8,"mosquito_risk":0,"arthritis_risk":5,"migraine_risk":7,"frizz_risk":1,"updated_at":"2026-05-03T17:16:05.335349+05:30"},{"city":"Alappuzha","state":"Kerala","latitude":9.4981,"longitude":76.3388,"temp":30.2,"humidity":75,"rain":0.0,"pressure":1006.2,"uv_index":9.0,"wind_gusts":34.2,"aqi":83,"pm10":34.8,"pm2_5":20.3,"no2":2.3,"co":128.0,"o3":89.0,"so2":1.9,"mosquito_risk":3,"arthritis_risk":5,"migraine_risk":4,"frizz_risk":1,"updated_at":"2026-05-03T17:16:05.335355+05:30"},{"city":"Munnar","state":"Kerala","latitude":10.0889,"longitude":77.0595,"temp":20.0,"humidity":91,"rain":0.0,"pressure":855.8,"uv_index":9.3,"wind_gusts":28.4,"aqi":69,"pm10":25.6,"pm2_5":17.7,"no2":2.7,"co":189.0,"o3":105.0,"so2":1.2,"mosquito_risk":3,"arthritis_risk":5,"migraine_risk":7,"frizz_risk":1,"updated_at":"2026-05-03T17:16:05.335363+05:30"},{"city":"Silchar","state":"Assam","latitude":24.8333,"longitude":92.7789,"temp":24.2,"humidity":86,"rain":0.0,"pressure":1004.4,"uv_index":8.35,"wind_gusts":28.1,"aqi":54,"pm10":27.5,"pm2_5":15.8,"no2":4.2,"co":236.0,"o3":99.0,"so2":3.4,"mosquito_risk":3,"arthritis_risk":5,"migraine_risk":4,"frizz_risk":1,"updated_at":"2026-05-03T17:16:05.335370+05:30"},{"city":"Dibrugarh","state":"Assam","latitude":27.4728,"longitude":94.912,"temp":25.5,"humidity":75,"rain":0.0,"pressure":994.7,"uv_index":8.2,"wind_gusts":22.3,"aqi":61,"pm10":11.8,"pm2_5":10.8,"no2":3.8,"co":232.0,"o3":99.0,"so2":1.0,"mosquito_risk":7,"arthritis_risk":5,"migraine_risk":7,"frizz_risk":1,"updated_at":"2026-05-03T17:16:05.335376+05:30"}]