[{"city":"Delhi","state":"Delhi","latitude":28.6139,"longitude":77.209,"temp":30.6,"humidity":25,"rain":0.0,"pressure":978.1,"uv_index":7.75,"wind_gusts":36.7,"aqi":632,"pm10":715.3,"pm2_5":196.5,"no2":38.4,"co":476.0,"o3":39.0,"so2":17.5,"mosquito_risk":0,"arthritis_risk":5,"migraine_risk":7,"frizz_risk":0,"updated_at":"2026-05-27T05:38:32.679387+05:30"},{"city":"Mumbai","state":"Maharashtra","latitude":19.076,"longitude":72.8777,"temp":29.5,"humidity":77,"rain":0.0,"pressure":1009.0,"uv_index":7.8,"wind_gusts":40.0,"aqi":38,"pm10":9.4,"pm2_5":6.5,"no2":6.0,"co":189.0,"o3":43.0,"so2":4.6,"mosquito_risk":7,"arthritis_risk":0,"migraine_risk":4,"frizz_risk":1,"updated_at":"2026-05-27T05:38:32.679438+05:30"},{"city":"Bangalore","state":"Karnataka","latitude":12.9716,"longitude":77.5946,"temp":21.2,"humidity":96,"rain":0.0,"pressure":911.9,"uv_index":9.25,"wind_gusts":30.6,"aqi":79,"pm10":21.9,"pm2_5":20.5,"no2":17.5,"co":357.0,"o3":41.0,"so2":6.3,"mosquito_risk":3,"arthritis_risk":5,"migraine_risk":7,"frizz_risk":1,"updated_at":"2026-05-27T05:38:32.679454+05:30"},{"city":"Hyderabad","state":"Telangana","latitude":17.385,"longitude":78.4867,"temp":28.9,"humidity":54,"rain":0.0,"pressure":953.1,"uv_index":8.55,"wind_gusts":40.3,"aqi":76,"pm10":14.9,"pm2_5":13.6,"no2":11.5,"co":249.0,"o3":67.0,"so2":4.4,"mosquito_risk":4,"arthritis_risk":5,"migraine_risk":7,"frizz_risk":1,"updated_at":"2026-05-27T05:38:32.679465+05:30"},{"city":"Chennai","state":"Tamil Nadu","latitude":13.0827,"longitude":80.2707,"temp":29.4,"humidity":59,"rain":0.0,"pressure":1006.5,"uv_index":9.0,"wind_gusts":36.0,"aqi":86,"pm10":28.3,"pm2_5":25.1,"no2":20.0,"co":292.0,"o3":45.0,"so2":9.9,"mosquito_risk":4,"arthritis_risk":5,"migraine_risk":4,"frizz_risk":1,"updated_at":"2026-05-27T05:38:32.679473+05:30"},{"city":"Kolkata","state":"West Bengal","latitude":22.5726,"longitude":88.3639,"temp":29.3,"humidity":87,"rain":0.0,"pressure":1002.7,"uv_index":8.9,"wind_gusts":38.9,"aqi":131,"pm10":43.0,"pm2_5":37.4,"no2":8.3,"co":255.0,"o3":75.0,"so2":6.1,"mosquito_risk":7,"arthritis_risk":5,"migraine_risk":4,"frizz_risk":1,"updated_at":"2026-05-27T05:38:32.679481+05:30"},{"city":"Pune","state":"Maharashtra","latitude":18.5204,"longitude":73.8567,"temp":24.5,"humidity":88,"rain":0.0,"pressure":948.6,"uv_index":8.4,"wind_gusts":41.0,"aqi":40,"pm10":8.4,"pm2_5":7.1,"no2":10.9,"co":142.0,"o3":31.0,"so2":8.2,"mosquito_risk":3,"arthritis_risk":5,"migraine_risk":7,"frizz_risk":1,"updated_at":"2026-05-27T05:38:32.679488+05:30"},{"city":"Ahmedabad","state":"Gujarat","latitude":23.0225,"longitude":72.5714,"temp":29.1,"humidity":77,"rain":0.0,"pressure":1002.1,"uv_index":8.15,"wind_gusts":36.0,"aqi":78,"pm10":36.7,"pm2_5":18.5,"no2":5.3,"co":135.0,"o3":42.0,"so2":4.8,"mosquito_risk":7,"arthritis_risk":5,"migraine_risk":4,"frizz_risk":1,"updated_at":"2026-05-27T05:38:32.679496+05:30"},{"city":"Jaipur","state":"Rajasthan","latitude":26.9124,"longitude":75.7873,"temp":32.4,"humidity":36,"rain":0.0,"pressure":956.5,"uv_index":8.25,"wind_gusts":48.2,"aqi":156,"pm10":343.7,"pm2_5":60.1,"no2":3.9,"co":163.0,"o3":75.0,"so2":4.5,"mosquito_risk":0,"arthritis_risk":5,"migraine_risk":7,"frizz_risk":0,"updated_at":"2026-05-27T05:38:32.679523+05:30"},{"city":"Lucknow","state":"Uttar Pradesh","latitude":26.8467,"longitude":80.9462,"temp":28.4,"humidity":66,"rain":0.0,"pressure":989.3,"uv_index":8.2,"wind_gusts":29.9,"aqi":159,"pm10":47.7,"pm2_5":32.9,"no2":16.1,"co":468.0,"o3":87.0,"so2":13.9,"mosquito_risk":7,"arthritis_risk":5,"migraine_risk":7,"frizz_risk":1,"updated_at":"2026-05-27T05:38:32.679531+05:30"},{"city":"Kanpur","state":"Uttar Pradesh","latitude":26.4499,"longitude":80.3319,"temp":30.1,"humidity":30,"rain":0.0,"pressure":987.0,"uv_index":8.2,"wind_gusts":36.0,"aqi":384,"pm10":313.9,"pm2_5":79.4,"no2":41.6,"co":472.0,"o3":36.0,"so2":13.2,"mosquito_risk":0,"arthritis_risk":5,"migraine_risk":7,"frizz_risk":0,"updated_at":"2026-05-27T05:38:32.679539+05:30"},{"city":"Chandigarh","state":"Chandigarh","latitude":30.7333,"longitude":76.7794,"temp":25.6,"humidity":33,"rain":0.0,"pressure":962.9,"uv_index":7.75,"wind_gusts":41.0,"aqi":57,"pm10":26.2,"pm2_5":22.5,"no2":25.1,"co":271.0,"o3":39.0,"so2":5.0,"mosquito_risk":4,"arthritis_risk":5,"migraine_risk":7,"frizz_risk":0,"updated_at":"2026-05-27T05:38:32.679547+05:30"},{"city":"Srinagar","state":"Jammu and Kashmir","latitude":34.0837,"longitude":74.7973,"temp":9.8,"humidity":87,"rain":0.0,"pressure":839.8,"uv_index":9.0,"wind_gusts":23.0,"aqi":76,"pm10":50.9,"pm2_5":38.8,"no2":21.2,"co":254.0,"o3":56.0,"so2":2.7,"mosquito_risk":3,"arthritis_risk":10,"migraine_risk":7,"frizz_risk":0,"updated_at":"2026-05-27T05:38:32.679554+05:30"},{"city":"Jammu","state":"Jammu and Kashmir","latitude":32.7266,"longitude":74.857,"temp":23.9,"humidity":34,"rain":0.0,"pressure":966.9,"uv_index":8.6,"wind_gusts":48.6,"aqi":60,"pm10":22.8,"pm2_5":21.3,"no2":27.2,"co":230.0,"o3":21.0,"so2":2.4,"mosquito_risk":0,"arthritis_risk":5,"migraine_risk":7,"frizz_risk":0,"updated_at":"2026-05-27T05:38:32.679561+05:30"},{"city":"Amritsar","state":"Punjab","latitude":31.634,"longitude":74.8723,"temp":27.4,"humidity":37,"rain":0.0,"pressure":975.5,"uv_index":8.45,"wind_gusts":31.3,"aqi":88,"pm10":64.0,"pm2_5":59.6,"no2":51.4,"co":464.0,"o3":12.0,"so2":9.2,"mosquito_risk":4,"arthritis_risk":5,"migraine_risk":7,"frizz_risk":0,"updated_at":"2026-05-27T05:38:32.679568+05:30"},{"city":"Ludhiana","state":"Punjab","latitude":30.901,"longitude":75.8573,"temp":27.5,"humidity":31,"rain":0.0,"pressure":973.4,"uv_index":8.0,"wind_gusts":38.9,"aqi":65,"pm10":28.3,"pm2_5":26.4,"no2":21.3,"co":497.0,"o3":54.0,"so2":6.5,"mosquito_risk":4,"arthritis_risk":5,"migraine_risk":7,"frizz_risk":0,"updated_at":"2026-05-27T05:38:32.679575+05:30"},{"city":"Jalandhar","state":"Punjab","latitude":31.326,"longitude":75.5762,"temp":26.8,"humidity":35,"rain":0.0,"pressure":974.4,"uv_index":8.25,"wind_gusts":36.4,"aqi":74,"pm10":43.0,"pm2_5":33.8,"no2":27.8,"co":490.0,"o3":43.0,"so2":5.4,"mosquito_risk":4,"arthritis_risk":5,"migraine_risk":7,"frizz_risk":0,"updated_at":"2026-05-27T05:38:32.679582+05:30"},{"city":"Dehradun","state":"Uttarakhand","latitude":30.6284,"longitude":78.0322,"temp":11.4,"humidity":59,"rain":0.0,"pressure":824.0,"uv_index":8.2,"wind_gusts":41.8,"aqi":55,"pm10":19.3,"pm2_5":14.1,"no2":19.5,"co":207.0,"o3":12.0,"so2":0.1,"mosquito_risk":0,"arthritis_risk":5,"migraine_risk":7,"frizz_risk":0,"updated_at":"2026-05-27T05:38:32.679588+05:30"},{"city":"Shimla","state":"Himachal Pradesh","latitude":31.1048,"longitude":77.1734,"temp":12.1,"humidity":42,"rain":0.0,"pressure":779.1,"uv_index":8.3,"wind_gusts":54.7,"aqi":51,"pm10":22.2,"pm2_5":17.4,"no2":18.8,"co":168.0,"o3":49.0,"so2":1.0,"mosquito_risk":0,"arthritis_risk":5,"migraine_risk":7,"frizz_risk":1,"updated_at":"2026-05-27T05:38:32.679597+05:30"},{"city":"Manali","state":"Himachal Pradesh","latitude":32.2396,"longitude":77.1887,"temp":9.6,"humidity":41,"rain":0.0,"pressure":812.1,"uv_index":9.65,"wind_gusts":50.0,"aqi":53,"pm10":23.6,"pm2_5":11.8,"no2":10.3,"co":159.0,"o3":143.0,"so2":0.1,"mosquito_risk":0,"arthritis_risk":5,"migraine_risk":7,"frizz_risk":1,"updated_at":"2026-05-27T05:38:32.679606+05:30"},{"city":"Gurgaon","state":"Haryana","latitude":28.4595,"longitude":77.0266,"temp":27.6,"humidity":38,"rain":0.0,"pressure":976.5,"uv_index":7.85,"wind_gusts":36.4,"aqi":1003,"pm10":935.0,"pm2_5":211.4,"no2":48.2,"co":509.0,"o3":28.0,"so2":24.1,"mosquito_risk":4,"arthritis_risk":5,"migraine_risk":7,"frizz_risk":0,"updated_at":"2026-05-27T05:38:32.679615+05:30"},{"city":"Noida","state":"Uttar Pradesh","latitude":28.5355,"longitude":77.391,"temp":30.2,"humidity":28,"rain":0.0,"pressure":979.4,"uv_index":7.75,"wind_gusts":30.2,"aqi":1003,"pm10":935.0,"pm2_5":211.4,"no2":48.2,"co":562.0,"o3":28.0,"so2":24.1,"mosquito_risk":0,"arthritis_risk":5,"migraine_risk":7,"frizz_risk":0,"updated_at":"2026-05-27T05:38:32.679621+05:30"},{"city":"Ghaziabad","state":"Uttar Pradesh","latitude":28.6692,"longitude":77.4538,"temp":30.1,"humidity":26,"rain":0.0,"pressure":977.7,"uv_index":7.75,"wind_gusts":35.3,"aqi":390,"pm10":467.5,"pm2_5":139.2,"no2":33.7,"co":446.0,"o3":45.0,"so2":18.8,"mosquito_risk":0,"arthritis_risk":5,"migraine_risk":7,"frizz_risk":0,"updated_at":"2026-05-27T05:38:32.679628+05:30"},{"city":"Faridabad","state":"Haryana","latitude":28.4089,"longitude":77.3178,"temp":31.0,"humidity":24,"rain":0.0,"pressure":978.8,"uv_index":7.8,"wind_gusts":38.5,"aqi":1003,"pm10":935.0,"pm2_5":211.4,"no2":48.2,"co":456.0,"o3":28.0,"so2":24.1,"mosquito_risk":0,"arthritis_risk":5,"migraine_risk":7,"frizz_risk":0,"updated_at":"2026-05-27T05:38:32.679635+05:30"},{"city":"Meerut","state":"Uttar Pradesh","latitude":28.9845,"longitude":77.7064,"temp":28.9,"humidity":27,"rain":0.0,"pressure":976.3,"uv_index":7.7,"wind_gusts":27.4,"aqi":390,"pm10":467.5,"pm2_5":139.2,"no2":33.7,"co":366.0,"o3":45.0,"so2":18.8,"mosquito_risk":4,"arthritis_risk":5,"migraine_risk":7,"frizz_risk":0,"updated_at":"2026-05-27T05:38:32.679641+05:30"},{"city":"Agra","state":"Uttar Pradesh","latitude":27.1767,"longitude":78.0081,"temp":30.6,"humidity":36,"rain":0.0,"pressure":982.7,"uv_index":8.05,"wind_gusts":37.1,"aqi":747,"pm10":594.2,"pm2_5":142.5,"no2":75.3,"co":581.0,"o3":6.0,"so2":25.7,"mosquito_risk":0,"arthritis_risk":5,"migraine_risk":7,"frizz_risk":0,"updated_at":"2026-05-27T05:38:32.679648+05:30"},{"city":"Varanasi","state":"Uttar Pradesh","latitude":25.3176,"longitude":82.9739,"temp":28.8,"humidity":74,"rain":0.0,"pressure":993.4,"uv_index":8.7,"wind_gusts":36.0,"aqi":146,"pm10":47.6,"pm2_5":40.2,"no2":16.7,"co":575.0,"o3":79.0,"so2":17.5,"mosquito_risk":7,"arthritis_risk":5,"migraine_risk":7,"frizz_risk":1,"updated_at":"2026-05-27T05:38:32.679655+05:30"},{"city":"Prayagraj","state":"Uttar Pradesh","latitude":25.4358,"longitude":81.8463,"temp":29.6,"humidity":58,"rain":0.0,"pressure":991.4,"uv_index":8.55,"wind_gusts":52.6,"aqi":143,"pm10":42.8,"pm2_5":37.3,"no2":17.3,"co":566.0,"o3":87.0,"so2":19.2,"mosquito_risk":4,"arthritis_risk":5,"migraine_risk":7,"frizz_risk":1,"updated_at":"2026-05-27T05:38:32.679662+05:30"},{"city":"Gorakhpur","state":"Uttar Pradesh","latitude":26.7606,"longitude":83.3732,"temp":24.5,"humidity":78,"rain":0.0,"pressure":994.7,"uv_index":8.55,"wind_gusts":37.4,"aqi":86,"pm10":34.3,"pm2_5":23.1,"no2":7.7,"co":311.0,"o3":118.0,"so2":5.5,"mosquito_risk":3,"arthritis_risk":5,"migraine_risk":7,"frizz_risk":1,"updated_at":"2026-05-27T05:38:32.679671+05:30"},{"city":"Bareilly","state":"Uttar Pradesh","latitude":28.367,"longitude":79.4304,"temp":25.5,"humidity":45,"rain":0.0,"pressure":981.9,"uv_index":8.0,"wind_gusts":31.3,"aqi":136,"pm10":157.9,"pm2_5":63.8,"no2":47.8,"co":601.0,"o3":28.0,"so2":12.5,"mosquito_risk":4,"arthritis_risk":5,"migraine_risk":7,"frizz_risk":0,"updated_at":"2026-05-27T05:38:32.679677+05:30"},{"city":"Aligarh","state":"Uttar Pradesh","latitude":27.8974,"longitude":78.088,"temp":28.7,"humidity":38,"rain":0.0,"pressure":980.2,"uv_index":7.9,"wind_gusts":33.8,"aqi":674,"pm10":758.1,"pm2_5":164.8,"no2":64.8,"co":647.0,"o3":8.0,"so2":18.2,"mosquito_risk":4,"arthritis_risk":5,"migraine_risk":7,"frizz_risk":0,"updated_at":"2026-05-27T05:38:32.679684+05:30"},{"city":"Moradabad","state":"Uttar Pradesh","latitude":28.8386,"longitude":78.7733,"temp":26.1,"humidity":34,"rain":0.0,"pressure":978.7,"uv_index":7.85,"wind_gusts":33.1,"aqi":140,"pm10":80.6,"pm2_5":48.4,"no2":42.8,"co":640.0,"o3":27.0,"so2":9.8,"mosquito_risk":4,"arthritis_risk":5,"migraine_risk":7,"frizz_risk":0,"updated_at":"2026-05-27T05:38:32.679690+05:30"},{"city":"Saharanpur","state":"Uttar Pradesh","latitude":29.9637,"longitude":77.546,"temp":27.6,"humidity":23,"rain":0.0,"pressure":970.2,"uv_index":7.5,"wind_gusts":35.3,"aqi":71,"pm10":39.3,"pm2_5":31.3,"no2":32.8,"co":290.0,"o3":50.0,"so2":9.3,"mosquito_risk":4,"arthritis_risk":5,"migraine_risk":7,"frizz_risk":0,"updated_at":"2026-05-27T05:38:32.679696+05:30"},{"city":"Jhansi","state":"Uttar Pradesh","latitude":25.4484,"longitude":78.5685,"temp":32.2,"humidity":29,"rain":0.0,"pressure":973.4,"uv_index":8.45,"wind_gusts":52.6,"aqi":79,"pm10":36.7,"pm2_5":22.4,"no2":6.8,"co":179.0,"o3":57.0,"so2":6.8,"mosquito_risk":0,"arthritis_risk":5,"migraine_risk":7,"frizz_risk":0,"updated_at":"2026-05-27T05:38:35.937047+05:30"},{"city":"Surat","state":"Gujarat","latitude":21.1702,"longitude":72.8311,"temp":29.1,"humidity":79,"rain":0.0,"pressure":1006.9,"uv_index":7.7,"wind_gusts":45.7,"aqi":66,"pm10":46.7,"pm2_5":23.6,"no2":20.6,"co":364.0,"o3":32.0,"so2":34.9,"mosquito_risk":7,"arthritis_risk":5,"migraine_risk":4,"frizz_risk":1,"updated_at":"2026-05-27T05:38:35.937082+05:30"},{"city":"Vadodara","state":"Gujarat","latitude":22.3072,"longitude":73.1812,"temp":29.5,"humidity":75,"rain":0.0,"pressure":1004.3,"uv_index":8.1,"wind_gusts":40.7,"aqi":69,"pm10":32.8,"pm2_5":19.6,"no2":9.2,"co":146.0,"o3":37.0,"so2":8.0,"mosquito_risk":7,"arthritis_risk":5,"migraine_risk":4,"frizz_risk":1,"updated_at":"2026-05-27T05:38:35.937093+05:30"},{"city":"Rajkot","state":"Gujarat","latitude":22.3039,"longitude":70.8022,"temp":27.4,"humidity":82,"rain":0.0,"pressure":994.1,"uv_index":7.75,"wind_gusts":47.5,"aqi":69,"pm10":41.3,"pm2_5":17.1,"no2":4.1,"co":118.0,"o3":43.0,"so2":3.7,"mosquito_risk":7,"arthritis_risk":5,"migraine_risk":7,"frizz_risk":1,"updated_at":"2026-05-27T05:38:35.937101+05:30"},{"city":"Thane","state":"Maharashtra","latitude":19.2183,"longitude":72.9781,"temp":28.8,"humidity":83,"rain":0.0,"pressure":1008.4,"uv_index":7.8,"wind_gusts":38.2,"aqi":38,"pm10":9.4,"pm2_5":6.5,"no2":6.0,"co":320.0,"o3":43.0,"so2":4.6,"mosquito_risk":7,"arthritis_risk":0,"migraine_risk":4,"frizz_risk":1,"updated_at":"2026-05-27T05:38:35.937110+05:30"},{"city":"Nagpur","state":"Maharashtra","latitude":21.1458,"longitude":79.0882,"temp":33.0,"humidity":34,"rain":0.0,"pressure":971.3,"uv_index":8.9,"wind_gusts":44.3,"aqi":75,"pm10":20.0,"pm2_5":15.1,"no2":11.1,"co":274.0,"o3":67.0,"so2":9.1,"mosquito_risk":0,"arthritis_risk":5,"migraine_risk":7,"frizz_risk":0,"updated_at":"2026-05-27T05:38:35.937117+05:30"},{"city":"Nashik","state":"Maharashtra","latitude":19.9975,"longitude":73.7898,"temp":24.5,"humidity":89,"rain":0.0,"pressure":946.1,"uv_index":8.1,"wind_gusts":40.0,"aqi":23,"pm10":6.4,"pm2_5":5.1,"no2":6.6,"co":143.0,"o3":35.0,"so2":3.8,"mosquito_risk":3,"arthritis_risk":5,"migraine_risk":7,"frizz_risk":1,"updated_at":"2026-05-27T05:38:35.937124+05:30"},{"city":"Aurangabad","state":"Maharashtra","latitude":19.8762,"longitude":75.3433,"temp":25.6,"humidity":81,"rain":0.0,"pressure":944.3,"uv_index":9.0,"wind_gusts":41.0,"aqi":36,"pm10":6.1,"pm2_5":5.0,"no2":9.2,"co":156.0,"o3":33.0,"so2":6.4,"mosquito_risk":7,"arthritis_risk":5,"migraine_risk":7,"frizz_risk":1,"updated_at":"2026-05-27T05:38:35.937131+05:30"},{"city":"Solapur","state":"Maharashtra","latitude":17.6599,"longitude":75.9064,"temp":27.8,"humidity":70,"rain":0.0,"pressure":958.1,"uv_index":8.95,"wind_gusts":38.9,"aqi":47,"pm10":11.0,"pm2_5":9.1,"no2":8.0,"co":188.0,"o3":50.0,"so2":5.3,"mosquito_risk":7,"arthritis_risk":5,"migraine_risk":7,"frizz_risk":1,"updated_at":"2026-05-27T05:38:35.937138+05:30"},{"city":"Kolhapur","state":"Maharashtra","latitude":16.705,"longitude":74.2433,"temp":24.5,"humidity":90,"rain":0.0,"pressure":948.9,"uv_index":8.55,"wind_gusts":41.8,"aqi":27,"pm10":7.6,"pm2_5":5.9,"no2":5.3,"co":166.0,"o3":38.0,"so2":2.3,"mosquito_risk":3,"arthritis_risk":5,"migraine_risk":7,"frizz_risk":1,"updated_at":"2026-05-27T05:38:35.937146+05:30"},{"city":"Goa","state":"Goa","latitude":15.2993,"longitude":74.124,"temp":26.4,"humidity":97,"rain":0.0,"pressure":998.9,"uv_index":6.4,"wind_gusts":29.2,"aqi":40,"pm10":11.7,"pm2_5":9.0,"no2":3.1,"co":183.0,"o3":49.0,"so2":1.1,"mosquito_risk":7,"arthritis_risk":5,"migraine_risk":7,"frizz_risk":1,"updated_at":"2026-05-27T05:38:35.937153+05:30"},{"city":"Jodhpur","state":"Rajasthan","latitude":26.2389,"longitude":73.0243,"temp":31.0,"humidity":52,"rain":0.0,"pressure":980.5,"uv_index":8.45,"wind_gusts":43.2,"aqi":148,"pm10":295.2,"pm2_5":66.6,"no2":3.0,"co":128.0,"o3":53.0,"so2":3.6,"mosquito_risk":0,"arthritis_risk":5,"migraine_risk":7,"frizz_risk":1,"updated_at":"2026-05-27T05:38:35.937161+05:30"},{"city":"Udaipur","state":"Rajasthan","latitude":24.5854,"longitude":73.7125,"temp":27.7,"humidity":63,"rain":0.0,"pressure":945.1,"uv_index":8.85,"wind_gusts":43.2,"aqi":81,"pm10":26.3,"pm2_5":16.6,"no2":4.0,"co":150.0,"o3":54.0,"so2":3.2,"mosquito_risk":7,"arthritis_risk":5,"migraine_risk":7,"frizz_risk":1,"updated_at":"2026-05-27T05:38:35.937168+05:30"},{"city":"Kota","state":"Rajasthan","latitude":25.2138,"longitude":75.8648,"temp":32.5,"humidity":35,"rain":0.0,"pressure":975.6,"uv_index":8.4,"wind_gusts":44.3,"aqi":91,"pm10":30.5,"pm2_5":18.6,"no2":5.5,"co":184.0,"o3":67.0,"so2":5.6,"mosquito_risk":0,"arthritis_risk":5,"migraine_risk":7,"frizz_risk":0,"updated_at":"2026-05-27T05:38:35.937176+05:30"},{"city":"Bikaner","state":"Rajasthan","latitude":28.0229,"longitude":73.3119,"temp":30.1,"humidity":27,"rain":0.0,"pressure":977.8,"uv_index":8.4,"wind_gusts":41.8,"aqi":148,"pm10":103.6,"pm2_5":39.1,"no2":4.0,"co":143.0,"o3":50.0,"so2":2.1,"mosquito_risk":0,"arthritis_risk":5,"migraine_risk":7,"frizz_risk":0,"updated_at":"2026-05-27T05:38:35.937182+05:30"},{"city":"Ajmer","state":"Rajasthan","latitude":26.4499,"longitude":74.6399,"temp":30.5,"humidity":46,"rain":0.0,"pressure":952.3,"uv_index":8.4,"wind_gusts":58.0,"aqi":82,"pm10":43.9,"pm2_5":17.4,"no2":3.4,"co":144.0,"o3":66.0,"so2":3.9,"mosquito_risk":0,"arthritis_risk":5,"migraine_risk":7,"frizz_risk":1,"updated_at":"2026-05-27T05:38:35.937189+05:30"},{"city":"Gwalior","state":"Madhya Pradesh","latitude":26.2183,"longitude":78.1828,"temp":32.0,"humidity":28,"rain":0.0,"pressure":979.0,"uv_index":8.25,"wind_gusts":54.7,"aqi":86,"pm10":44.4,"pm2_5":21.2,"no2":8.4,"co":182.0,"o3":50.0,"so2":3.7,"mosquito_risk":0,"arthritis_risk":5,"migraine_risk":7,"frizz_risk":0,"updated_at":"2026-05-27T05:38:35.937196+05:30"},{"city":"Indore","state":"Madhya Pradesh","latitude":22.7196,"longitude":75.8577,"temp":27.5,"humidity":58,"rain":0.0,"pressure":947.6,"uv_index":8.65,"wind_gusts":47.9,"aqi":67,"pm10":26.1,"pm2_5":15.9,"no2":6.9,"co":194.0,"o3":56.0,"so2":12.4,"mosquito_risk":4,"arthritis_risk":5,"migraine_risk":7,"frizz_risk":1,"updated_at":"2026-05-27T05:38:35.937203+05:30"},{"city":"Bhopal","state":"Madhya Pradesh","latitude":23.2599,"longitude":77.4126,"temp":31.5,"humidity":38,"rain":0.0,"pressure":951.9,"uv_index":8.65,"wind_gusts":42.8,"aqi":68,"pm10":41.4,"pm2_5":22.5,"no2":3.2,"co":197.0,"o3":96.0,"so2":7.8,"mosquito_risk":0,"arthritis_risk":5,"migraine_risk":7,"frizz_risk":0,"updated_at":"2026-05-27T05:38:35.937210+05:30"},{"city":"Jabalpur","state":"Madhya Pradesh","latitude":23.1815,"longitude":79.9864,"temp":31.2,"humidity":25,"rain":0.0,"pressure":958.5,"uv_index":8.8,"wind_gusts":40.0,"aqi":80,"pm10":32.4,"pm2_5":20.7,"no2":11.6,"co":229.0,"o3":50.0,"so2":4.3,"mosquito_risk":0,"arthritis_risk":5,"migraine_risk":7,"frizz_risk":0,"updated_at":"2026-05-27T05:38:35.937218+05:30"},{"city":"Ujjain","state":"Madhya Pradesh","latitude":23.1765,"longitude":75.7885,"temp":27.9,"humidity":60,"rain":0.0,"pressure":953.2,"uv_index":8.55,"wind_gusts":49.3,"aqi":70,"pm10":26.0,"pm2_5":15.5,"no2":7.7,"co":243.0,"o3":46.0,"so2":13.2,"mosquito_risk":4,"arthritis_risk":5,"migraine_risk":7,"frizz_risk":1,"updated_at":"2026-05-27T05:38:35.937225+05:30"},{"city":"Visakhapatnam","state":"Andhra Pradesh","latitude":17.6868,"longitude":83.2185,"temp":29.5,"humidity":88,"rain":0.0,"pressure":1000.0,"uv_index":9.05,"wind_gusts":31.7,"aqi":130,"pm10":49.1,"pm2_5":41.1,"no2":33.7,"co":359.0,"o3":82.0,"so2":43.3,"mosquito_risk":7,"arthritis_risk":5,"migraine_risk":4,"frizz_risk":1,"updated_at":"2026-05-27T05:38:35.937232+05:30"},{"city":"Vijayawada","state":"Andhra Pradesh","latitude":16.5062,"longitude":80.648,"temp":31.9,"humidity":50,"rain":0.0,"pressure":1000.1,"uv_index":9.0,"wind_gusts":39.2,"aqi":125,"pm10":23.1,"pm2_5":20.4,"no2":8.8,"co":240.0,"o3":88.0,"so2":7.2,"mosquito_risk":0,"arthritis_risk":5,"migraine_risk":4,"frizz_risk":1,"updated_at":"2026-05-27T05:38:35.937239+05:30"},{"city":"Guntur","state":"Andhra Pradesh","latitude":16.3067,"longitude":80.4365,"temp":30.4,"humidity":55,"rain":0.0,"pressure":1001.5,"uv_index":8.75,"wind_gusts":40.3,"aqi":105,"pm10":18.6,"pm2_5":16.5,"no2":7.7,"co":249.0,"o3":92.0,"so2":8.2,"mosquito_risk":0,"arthritis_risk":5,"migraine_risk":4,"frizz_risk":1,"updated_at":"2026-05-27T05:38:35.937247+05:30"},{"city":"Nellore","state":"Andhra Pradesh","latitude":14.4426,"longitude":79.9865,"temp":28.7,"humidity":68,"rain":0.0,"pressure":1004.7,"uv_index":9.0,"wind_gusts":56.2,"aqi":72,"pm10":21.6,"pm2_5":18.9,"no2":7.7,"co":182.0,"o3":72.0,"so2":4.6,"mosquito_risk":7,"arthritis_risk":5,"migraine_risk":4,"frizz_risk":1,"updated_at":"2026-05-27T05:38:35.937255+05:30"},{"city":"Kurnool","state":"Andhra Pradesh","latitude":15.8281,"longitude":78.0373,"temp":28.4,"humidity":76,"rain":0.0,"pressure":977.2,"uv_index":4.5,"wind_gusts":40.3,"aqi":56,"pm10":16.2,"pm2_5":14.7,"no2":11.4,"co":191.0,"o3":56.0,"so2":7.2,"mosquito_risk":7,"arthritis_risk":5,"migraine_risk":3,"frizz_risk":1,"updated_at":"2026-05-27T05:38:35.937262+05:30"},{"city":"Kakinada","state":"Andhra Pradesh","latitude":16.9891,"longitude":82.2475,"temp":30.6,"humidity":71,"rain":0.0,"pressure":1004.2,"uv_index":9.05,"wind_gusts":40.3,"aqi":109,"pm10":35.4,"pm2_5":30.4,"no2":8.5,"co":300.0,"o3":100.0,"so2":5.8,"mosquito_risk":3,"arthritis_risk":5,"migraine_risk":4,"frizz_risk":1,"updated_at":"2026-05-27T05:38:35.937269+05:30"},{"city":"Tirupati","state":"Andhra Pradesh","latitude":13.6288,"longitude":79.4192,"temp":27.5,"humidity":64,"rain":0.0,"pressure":989.9,"uv_index":9.05,"wind_gusts":27.7,"aqi":73,"pm10":24.4,"pm2_5":22.7,"no2":21.1,"co":201.0,"o3":29.0,"so2":2.7,"mosquito_risk":7,"arthritis_risk":5,"migraine_risk":7,"frizz_risk":1,"updated_at":"2026-05-27T05:38:35.937276+05:30"},{"city":"Warangal","state":"Telangana","latitude":17.9689,"longitude":79.5941,"temp":31.1,"humidity":50,"rain":0.0,"pressure":977.2,"uv_index":8.75,"wind_gusts":43.6,"aqi":110,"pm10":29.2,"pm2_5":23.3,"no2":8.4,"co":227.0,"o3":92.0,"so2":4.5,"mosquito_risk":0,"arthritis_risk":5,"migraine_risk":7,"frizz_risk":1,"updated_at":"2026-05-27T05:38:35.937283+05:30"},{"city":"Nizamabad","state":"Telangana","latitude":18.6725,"longitude":78.0941,"temp":29.8,"humidity":53,"rain":0.0,"pressure":963.8,"uv_index":8.75,"wind_gusts":35.6,"aqi":89,"pm10":23.1,"pm2_5":19.8,"no2":11.1,"co":212.0,"o3":68.0,"so2":3.8,"mosquito_risk":4,"arthritis_risk":5,"migraine_risk":7,"frizz_risk":1,"updated_at":"2026-05-27T05:38:35.937289+05:30"},{"city":"Mysore","state":"Karnataka","latitude":12.2958,"longitude":76.6396,"temp":22.8,"humidity":90,"rain":0.0,"pressure":929.1,"uv_index":9.05,"wind_gusts":43.6,"aqi":56,"pm10":12.0,"pm2_5":10.2,"no2":7.2,"co":160.0,"o3":48.0,"so2":2.5,"mosquito_risk":3,"arthritis_risk":5,"migraine_risk":7,"frizz_risk":1,"updated_at":"2026-05-27T05:38:35.937296+05:30"},{"city":"Mangalore","state":"Karnataka","latitude":12.9141,"longitude":74.856,"temp":25.6,"humidity":97,"rain":0.0,"pressure":1007.8,"uv_index":7.7,"wind_gusts":28.8,"aqi":60,"pm10":21.1,"pm2_5":17.0,"no2":10.5,"co":238.0,"o3":34.0,"so2":3.1,"mosquito_risk":7,"arthritis_risk":5,"migraine_risk":4,"frizz_risk":1,"updated_at":"2026-05-27T05:38:35.937303+05:30"},{"city":"Hubli-Dharwad","state":"Karnataka","latitude":15.3647,"longitude":75.124,"temp":23.9,"humidity":96,"rain":0.0,"pressure":941.7,"uv_index":6.35,"wind_gusts":39.6,"aqi":28,"pm10":3.7,"pm2_5":3.0,"no2":2.8,"co":138.0,"o3":46.0,"so2":1.0,"mosquito_risk":3,"arthritis_risk":5,"migraine_risk":7,"frizz_risk":1,"updated_at":"2026-05-27T05:38:35.937310+05:30"},{"city":"Belgaum","state":"Karnataka","latitude":15.8497,"longitude":74.4977,"temp":22.9,"humidity":96,"rain":0.0,"pressure":926.3,"uv_index":8.65,"wind_gusts":37.4,"aqi":25,"pm10":6.6,"pm2_5":5.3,"no2":5.0,"co":129.0,"o3":37.0,"so2":1.7,"mosquito_risk":3,"arthritis_risk":5,"migraine_risk":7,"frizz_risk":1,"updated_at":"2026-05-27T05:38:39.186112+05:30"},{"city":"Coimbatore","state":"Tamil Nadu","latitude":11.0168,"longitude":76.9558,"temp":24.5,"humidity":89,"rain":0.0,"pressure":962.0,"uv_index":8.5,"wind_gusts":53.3,"aqi":49,"pm10":9.9,"pm2_5":7.7,"no2":4.2,"co":153.0,"o3":55.0,"so2":3.4,"mosquito_risk":3,"arthritis_risk":5,"migraine_risk":7,"frizz_risk":1,"updated_at":"2026-05-27T05:38:39.186147+05:30"},{"city":"Madurai","state":"Tamil Nadu","latitude":9.9252,"longitude":78.1198,"temp":27.4,"humidity":74,"rain":0.0,"pressure":992.7,"uv_index":8.75,"wind_gusts":26.6,"aqi":104,"pm10":45.2,"pm2_5":40.9,"no2":40.6,"co":217.0,"o3":2.0,"so2":6.7,"mosquito_risk":7,"arthritis_risk":5,"migraine_risk":7,"frizz_risk":1,"updated_at":"2026-05-27T05:38:39.186158+05:30"},{"city":"Trichy","state":"Tamil Nadu","latitude":10.7905,"longitude":78.7047,"temp":28.4,"humidity":68,"rain":0.0,"pressure":999.2,"uv_index":8.05,"wind_gusts":42.8,"aqi":62,"pm10":9.7,"pm2_5":8.5,"no2":10.9,"co":156.0,"o3":39.0,"so2":4.2,"mosquito_risk":7,"arthritis_risk":5,"migraine_risk":7,"frizz_risk":1,"updated_at":"2026-05-27T05:38:39.186167+05:30"},{"city":"Salem","state":"Tamil Nadu","latitude":11.6643,"longitude":78.146,"temp":26.8,"humidity":76,"rain":0.0,"pressure":977.6,"uv_index":8.75,"wind_gusts":35.3,"aqi":81,"pm10":25.1,"pm2_5":23.5,"no2":24.6,"co":239.0,"o3":20.0,"so2":6.3,"mosquito_risk":7,"arthritis_risk":5,"migraine_risk":7,"frizz_risk":1,"updated_at":"2026-05-27T05:38:39.186175+05:30"},{"city":"Tirunelveli","state":"Tamil Nadu","latitude":8.7139,"longitude":77.7567,"temp":28.4,"humidity":69,"rain":0.0,"pressure":1003.4,"uv_index":8.45,"wind_gusts":29.9,"aqi":28,"pm10":6.3,"pm2_5":5.4,"no2":5.2,"co":154.0,"o3":42.0,"so2":1.9,"mosquito_risk":7,"arthritis_risk":5,"migraine_risk":4,"frizz_risk":1,"updated_at":"2026-05-27T05:38:39.186183+05:30"},{"city":"Vellore","state":"Tamil Nadu","latitude":12.9165,"longitude":79.1325,"temp":27.1,"humidity":65,"rain":0.0,"pressure":983.6,"uv_index":9.05,"wind_gusts":36.0,"aqi":88,"pm10":30.4,"pm2_5":28.9,"no2":21.0,"co":319.0,"o3":33.0,"so2":6.4,"mosquito_risk":7,"arthritis_risk":5,"migraine_risk":7,"frizz_risk":1,"updated_at":"2026-05-27T05:38:39.186191+05:30"},{"city":"Erode","state":"Tamil Nadu","latitude":11.341,"longitude":77.7172,"temp":26.6,"humidity":80,"rain":0.0,"pressure":989.2,"uv_index":8.25,"wind_gusts":46.1,"aqi":57,"pm10":12.9,"pm2_5":11.6,"no2":14.0,"co":191.0,"o3":32.0,"so2":3.9,"mosquito_risk":7,"arthritis_risk":5,"migraine_risk":7,"frizz_risk":1,"updated_at":"2026-05-27T05:38:39.186198+05:30"},{"city":"Kochi","state":"Kerala","latitude":9.9312,"longitude":76.2673,"temp":25.9,"humidity":99,"rain":0.0,"pressure":1009.9,"uv_index":8.2,"wind_gusts":29.5,"aqi":57,"pm10":18.6,"pm2_5":16.7,"no2":16.1,"co":271.0,"o3":21.0,"so2":4.6,"mosquito_risk":7,"arthritis_risk":0,"migraine_risk":4,"frizz_risk":1,"updated_at":"2026-05-27T05:38:39.186205+05:30"},{"city":"Thiruvananthapuram","state":"Kerala","latitude":8.5241,"longitude":76.9366,"temp":24.4,"humidity":97,"rain":0.0,"pressure":1009.7,"uv_index":7.65,"wind_gusts":34.2,"aqi":26,"pm10":8.5,"pm2_5":4.9,"no2":1.8,"co":170.0,"o3":54.0,"so2":0.7,"mosquito_risk":3,"arthritis_risk":0,"migraine_risk":4,"frizz_risk":1,"updated_at":"2026-05-27T05:38:39.186213+05:30"},{"city":"Kozhikode","state":"Kerala","latitude":11.2588,"longitude":75.7804,"temp":25.0,"humidity":100,"rain":0.0,"pressure":1008.9,"uv_index":7.55,"wind_gusts":29.5,"aqi":31,"pm10":9.5,"pm2_5":6.2,"no2":1.7,"co":338.0,"o3":61.0,"so2":0.7,"mosquito_risk":7,"arthritis_risk":0,"migraine_risk":4,"frizz_risk":1,"updated_at":"2026-05-27T05:38:39.186219+05:30"},{"city":"Thrissur","state":"Kerala","latitude":10.5276,"longitude":76.2144,"temp":24.6,"humidity":99,"rain":0.0,"pressure":1008.3,"uv_index":8.35,"wind_gusts":30.2,"aqi":56,"pm10":12.4,"pm2_5":11.1,"no2":13.8,"co":289.0,"o3":28.0,"so2":5.9,"mosquito_risk":3,"arthritis_risk":0,"migraine_risk":4,"frizz_risk":1,"updated_at":"2026-05-27T05:38:39.186227+05:30"},{"city":"Kannur","state":"Kerala","latitude":11.8745,"longitude":75.3704,"temp":25.6,"humidity":94,"rain":0.0,"pressure":1008.1,"uv_index":7.7,"wind_gusts":31.0,"aqi":62,"pm10":19.7,"pm2_5":16.3,"no2":10.5,"co":263.0,"o3":31.0,"so2":2.8,"mosquito_risk":7,"arthritis_risk":0,"migraine_risk":4,"frizz_risk":1,"updated_at":"2026-05-27T05:38:39.186234+05:30"},{"city":"Patna","state":"Bihar","latitude":25.5941,"longitude":85.1376,"temp":24.8,"humidity":82,"rain":0.0,"pressure":997.4,"uv_index":8.75,"wind_gusts":44.3,"aqi":87,"pm10":29.4,"pm2_5":25.7,"no2":9.7,"co":368.0,"o3":88.0,"so2":10.2,"mosquito_risk":3,"arthritis_risk":5,"migraine_risk":7,"frizz_risk":1,"updated_at":"2026-05-27T05:38:39.186240+05:30"},{"city":"Gaya","state":"Bihar","latitude":24.7914,"longitude":85.0002,"temp":26.7,"humidity":82,"rain":0.0,"pressure":989.6,"uv_index":8.8,"wind_gusts":37.8,"aqi":130,"pm10":52.2,"pm2_5":49.7,"no2":14.1,"co":407.0,"o3":73.0,"so2":24.6,"mosquito_risk":7,"arthritis_risk":5,"migraine_risk":7,"frizz_risk":1,"updated_at":"2026-05-27T05:38:39.186247+05:30"},{"city":"Muzaffarpur","state":"Bihar","latitude":26.1209,"longitude":85.3647,"temp":23.4,"humidity":93,"rain":0.0,"pressure":998.0,"uv_index":8.75,"wind_gusts":45.4,"aqi":76,"pm10":29.4,"pm2_5":22.9,"no2":7.9,"co":363.0,"o3":99.0,"so2":8.0,"mosquito_risk":3,"arthritis_risk":5,"migraine_risk":7,"frizz_risk":1,"updated_at":"2026-05-27T05:38:39.186254+05:30"},{"city":"Bhagalpur","state":"Bihar","latitude":25.2425,"longitude":87.0117,"temp":23.0,"humidity":94,"rain":0.0,"pressure":999.3,"uv_index":8.75,"wind_gusts":42.5,"aqi":94,"pm10":43.1,"pm2_5":37.4,"no2":12.0,"co":408.0,"o3":72.0,"so2":9.5,"mosquito_risk":3,"arthritis_risk":5,"migraine_risk":7,"frizz_risk":1,"updated_at":"2026-05-27T05:38:39.186260+05:30"},{"city":"Ranchi","state":"Jharkhand","latitude":23.3441,"longitude":85.3096,"temp":24.9,"humidity":82,"rain":0.0,"pressure":934.7,"uv_index":9.0,"wind_gusts":45.7,"aqi":116,"pm10":83.8,"pm2_5":66.4,"no2":17.3,"co":310.0,"o3":71.0,"so2":25.0,"mosquito_risk":3,"arthritis_risk":5,"migraine_risk":7,"frizz_risk":1,"updated_at":"2026-05-27T05:38:39.186266+05:30"},{"city":"Jamshedpur","state":"Jharkhand","latitude":22.8046,"longitude":86.2029,"temp":29.0,"humidity":87,"rain":0.0,"pressure":987.6,"uv_index":9.0,"wind_gusts":54.4,"aqi":153,"pm10":73.6,"pm2_5":65.2,"no2":23.9,"co":388.0,"o3":48.0,"so2":27.4,"mosquito_risk":7,"arthritis_risk":5,"migraine_risk":7,"frizz_risk":1,"updated_at":"2026-05-27T05:38:39.186273+05:30"},{"city":"Dhanbad","state":"Jharkhand","latitude":23.7957,"longitude":86.4304,"temp":28.4,"humidity":91,"rain":0.0,"pressure":976.4,"uv_index":9.0,"wind_gusts":38.5,"aqi":162,"pm10":78.7,"pm2_5":72.9,"no2":43.5,"co":1323.0,"o3":35.0,"so2":114.6,"mosquito_risk":7,"arthritis_risk":5,"migraine_risk":7,"frizz_risk":1,"updated_at":"2026-05-27T05:38:39.186279+05:30"},{"city":"Bokaro","state":"Jharkhand","latitude":23.6693,"longitude":86.1511,"temp":27.5,"humidity":95,"rain":0.0,"pressure":980.1,"uv_index":9.0,"wind_gusts":39.6,"aqi":157,"pm10":94.3,"pm2_5":85.2,"no2":39.5,"co":721.0,"o3":40.0,"so2":102.9,"mosquito_risk":7,"arthritis_risk":5,"migraine_risk":7,"frizz_risk":1,"updated_at":"2026-05-27T05:38:39.186286+05:30"},{"city":"Bhubaneswar","state":"Odisha","latitude":20.2961,"longitude":85.8245,"temp":29.6,"humidity":89,"rain":0.0,"pressure":999.5,"uv_index":9.05,"wind_gusts":41.0,"aqi":116,"pm10":28.4,"pm2_5":21.6,"no2":5.7,"co":214.0,"o3":79.0,"so2":4.7,"mosquito_risk":7,"arthritis_risk":5,"migraine_risk":7,"frizz_risk":1,"updated_at":"2026-05-27T05:38:39.186292+05:30"},{"city":"Cuttack","state":"Odisha","latitude":20.4625,"longitude":85.8828,"temp":29.9,"humidity":89,"rain":0.0,"pressure":1001.4,"uv_index":9.1,"wind_gusts":54.4,"aqi":116,"pm10":28.4,"pm2_5":21.6,"no2":5.7,"co":209.0,"o3":79.0,"so2":4.7,"mosquito_risk":7,"arthritis_risk":5,"migraine_risk":4,"frizz_risk":1,"updated_at":"2026-05-27T05:38:39.186299+05:30"},{"city":"Rourkela","state":"Odisha","latitude":22.2604,"longitude":84.8536,"temp":28.5,"humidity":88,"rain":0.0,"pressure":981.8,"uv_index":8.65,"wind_gusts":49.3,"aqi":153,"pm10":91.3,"pm2_5":71.0,"no2":31.3,"co":326.0,"o3":43.0,"so2":28.1,"mosquito_risk":7,"arthritis_risk":5,"migraine_risk":7,"frizz_risk":1,"updated_at":"2026-05-27T05:38:39.186305+05:30"},{"city":"Raipur","state":"Chhattisgarh","latitude":21.2514,"longitude":81.6296,"temp":31.3,"humidity":38,"rain":0.0,"pressure":971.1,"uv_index":8.95,"wind_gusts":39.2,"aqi":112,"pm10":58.7,"pm2_5":42.1,"no2":39.4,"co":407.0,"o3":37.0,"so2":54.9,"mosquito_risk":0,"arthritis_risk":5,"migraine_risk":7,"frizz_risk":0,"updated_at":"2026-05-27T05:38:39.186312+05:30"},{"city":"Bhilai","state":"Chhattisgarh","latitude":21.1938,"longitude":81.3509,"temp":30.0,"humidity":45,"rain":0.0,"pressure":971.6,"uv_index":8.95,"wind_gusts":42.8,"aqi":103,"pm10":48.4,"pm2_5":35.3,"no2":30.3,"co":498.0,"o3":45.0,"so2":46.0,"mosquito_risk":4,"arthritis_risk":5,"migraine_risk":7,"frizz_risk":1,"updated_at":"2026-05-27T05:38:39.186319+05:30"},{"city":"Guwahati","state":"Assam","latitude":26.1158,"longitude":91.7086,"temp":22.0,"humidity":97,"rain":0.0,"pressure":1002.4,"uv_index":8.7,"wind_gusts":22.7,"aqi":75,"pm10":21.9,"pm2_5":16.1,"no2":9.2,"co":284.0,"o3":45.0,"so2":2.3,"mosquito_risk":3,"arthritis_risk":5,"migraine_risk":4,"frizz_risk":1,"updated_at":"2026-05-27T05:38:39.186325+05:30"},{"city":"Agartala","state":"Tripura","latitude":23.8315,"longitude":91.2868,"temp":24.6,"humidity":90,"rain":0.0,"pressure":1005.6,"uv_index":8.85,"wind_gusts":42.1,"aqi":84,"pm10":26.8,"pm2_5":17.8,"no2":10.5,"co":197.0,"o3":54.0,"so2":2.4,"mosquito_risk":3,"arthritis_risk":5,"migraine_risk":4,"frizz_risk":1,"updated_at":"2026-05-27T05:38:39.186331+05:30"},{"city":"Shillong","state":"Meghalaya","latitude":25.5788,"longitude":91.8933,"temp":16.9,"humidity":97,"rain":0.4,"pressure":856.0,"uv_index":9.15,"wind_gusts":36.7,"aqi":41,"pm10":15.9,"pm2_5":9.4,"no2":6.2,"co":201.0,"o3":59.0,"so2":2.4,"mosquito_risk":6,"arthritis_risk":10,"migraine_risk":7,"frizz_risk":1,"updated_at":"2026-05-27T05:38:39.186338+05:30"},{"city":"Imphal","state":"Manipur","latitude":24.817,"longitude":93.9368,"temp":19.6,"humidity":91,"rain":0.0,"pressure":923.6,"uv_index":9.25,"wind_gusts":32.8,"aqi":74,"pm10":38.9,"pm2_5":35.0,"no2":11.0,"co":384.0,"o3":34.0,"so2":1.4,"mosquito_risk":3,"arthritis_risk":10,"migraine_risk":7,"frizz_risk":1,"updated_at":"2026-05-27T05:38:39.186345+05:30"},{"city":"Aizawl","state":"Mizoram","latitude":23.7271,"longitude":92.7176,"temp":15.6,"humidity":92,"rain":0.0,"pressure":891.3,"uv_index":8.9,"wind_gusts":33.8,"aqi":69,"pm10":29.2,"pm2_5":17.7,"no2":6.3,"co":192.0,"o3":39.0,"so2":1.2,"mosquito_risk":3,"arthritis_risk":10,"migraine_risk":7,"frizz_risk":0,"updated_at":"2026-05-27T05:38:39.186370+05:30"},{"city":"Kohima","state":"Nagaland","latitude":25.6701,"longitude":94.1077,"temp":17.0,"humidity":69,"rain":0.0,"pressure":854.7,"uv_index":6.25,"wind_gusts":31.7,"aqi":57,"pm10":34.8,"pm2_5":28.2,"no2":9.6,"co":241.0,"o3":30.0,"so2":0.4,"mosquito_risk":3,"arthritis_risk":5,"migraine_risk":7,"frizz_risk":0,"updated_at":"2026-05-27T05:38:39.186377+05:30"},{"city":"Gangtok","state":"Sikkim","latitude":27.3314,"longitude":88.6138,"temp":14.7,"humidity":90,"rain":0.0,"pressure":835.9,"uv_index":9.1,"wind_gusts":37.1,"aqi":59,"pm10":16.5,"pm2_5":13.1,"no2":9.8,"co":498.0,"o3":83.0,"so2":2.1,"mosquito_risk":3,"arthritis_risk":10,"migraine_risk":7,"frizz_risk":0,"updated_at":"2026-05-27T05:38:39.186384+05:30"},{"city":"Siliguri","state":"West Bengal","latitude":26.7271,"longitude":88.3953,"temp":21.0,"humidity":99,"rain":0.0,"pressure":993.9,"uv_index":8.65,"wind_gusts":28.8,"aqi":68,"pm10":47.5,"pm2_5":33.2,"no2":13.5,"co":354.0,"o3":90.0,"so2":5.8,"mosquito_risk":3,"arthritis_risk":5,"migraine_risk":7,"frizz_risk":1,"updated_at":"2026-05-27T05:38:42.434375+05:30"},{"city":"Durgapur","state":"West Bengal","latitude":23.5204,"longitude":87.3119,"temp":28.6,"humidity":92,"rain":0.0,"pressure":991.7,"uv_index":8.95,"wind_gusts":36.4,"aqi":158,"pm10":55.4,"pm2_5":50.4,"no2":22.0,"co":503.0,"o3":60.0,"so2":35.7,"mosquito_risk":7,"arthritis_risk":5,"migraine_risk":7,"frizz_risk":1,"updated_at":"2026-05-27T05:38:42.434412+05:30"},{"city":"Asansol","state":"West Bengal","latitude":23.6739,"longitude":86.9524,"temp":28.9,"humidity":92,"rain":0.0,"pressure":990.3,"uv_index":9.0,"wind_gusts":33.5,"aqi":160,"pm10":53.9,"pm2_5":49.8,"no2":22.8,"co":517.0,"o3":53.0,"so2":36.8,"mosquito_risk":7,"arthritis_risk":5,"migraine_risk":7,"frizz_risk":1,"updated_at":"2026-05-27T05:38:42.434423+05:30"},{"city":"Pondicherry","state":"Puducherry","latitude":11.9139,"longitude":79.8145,"temp":28.0,"humidity":78,"rain":0.0,"pressure":1007.3,"uv_index":8.3,"wind_gusts":43.9,"aqi":79,"pm10":18.6,"pm2_5":16.2,"no2":15.9,"co":251.0,"o3":41.0,"so2":6.9,"mosquito_risk":7,"arthritis_risk":5,"migraine_risk":4,"frizz_risk":1,"updated_at":"2026-05-27T05:38:42.434432+05:30"},{"city":"Port Blair","state":"Andaman and Nicobar Islands","latitude":11.6234,"longitude":92.7265,"temp":23.2,"humidity":98,"rain":0.1,"pressure":1008.2,"uv_index":7.85,"wind_gusts":39.2,"aqi":33,"pm10":7.6,"pm2_5":5.2,"no2":0.3,"co":122.0,"o3":75.0,"so2":0.3,"mosquito_risk":6,"arthritis_risk":0,"migraine_risk":4,"frizz_risk":1,"updated_at":"2026-05-27T05:38:42.434440+05:30"},{"city":"Haridwar","state":"Uttarakhand","latitude":29.9457,"longitude":78.1642,"temp":23.2,"humidity":41,"rain":0.0,"pressure":968.8,"uv_index":7.55,"wind_gusts":39.2,"aqi":60,"pm10":29.3,"pm2_5":28.1,"no2":34.2,"co":234.0,"o3":14.0,"so2":4.2,"mosquito_risk":0,"arthritis_risk":5,"migraine_risk":7,"frizz_risk":0,"updated_at":"2026-05-27T05:38:42.434448+05:30"},{"city":"Rishikesh","state":"Uttarakhand","latitude":30.0869,"longitude":78.2676,"temp":20.1,"humidity":54,"rain":0.0,"pressure":960.9,"uv_index":7.65,"wind_gusts":36.7,"aqi":61,"pm10":27.8,"pm2_5":27.1,"no2":25.5,"co":275.0,"o3":32.0,"so2":3.4,"mosquito_risk":0,"arthritis_risk":5,"migraine_risk":7,"frizz_risk":0,"updated_at":"2026-05-27T05:38:42.434456+05:30"},{"city":"Nainital","state":"Uttarakhand","latitude":29.3919,"longitude":79.4542,"temp":15.7,"humidity":35,"rain":0.0,"pressure":802.5,"uv_index":8.5,"wind_gusts":32.8,"aqi":70,"pm10":45.9,"pm2_5":29.5,"no2":19.5,"co":233.0,"o3":72.0,"so2":3.5,"mosquito_risk":0,"arthritis_risk":5,"migraine_risk":7,"frizz_risk":0,"updated_at":"2026-05-27T05:38:42.434463+05:30"},{"city":"Mussoorie","state":"Uttarakhand","latitude":30.4599,"longitude":78.0664,"temp":16.9,"humidity":35,"rain":0.0,"pressure":800.0,"uv_index":8.1,"wind_gusts":52.6,"aqi":58,"pm10":25.1,"pm2_5":21.5,"no2":34.1,"co":167.0,"o3":13.0,"so2":3.0,"mosquito_risk":0,"arthritis_risk":5,"migraine_risk":7,"frizz_risk":0,"updated_at":"2026-05-27T05:38:42.434470+05:30"},{"city":"Dharamshala","state":"Himachal Pradesh","latitude":32.219,"longitude":76.3234,"temp":22.1,"humidity":29,"rain":0.0,"pressure":865.5,"uv_index":8.45,"wind_gusts":46.8,"aqi":47,"pm10":17.5,"pm2_5":11.4,"no2":8.7,"co":163.0,"o3":68.0,"so2":0.1,"mosquito_risk":0,"arthritis_risk":5,"migraine_risk":7,"frizz_risk":0,"updated_at":"2026-05-27T05:38:42.434477+05:30"},{"city":"Dalhousie","state":"Himachal Pradesh","latitude":32.5387,"longitude":75.971,"temp":10.4,"humidity":59,"rain":0.0,"pressure":797.4,"uv_index":8.7,"wind_gusts":42.8,"aqi":58,"pm10":23.8,"pm2_5":20.1,"no2":24.2,"co":217.0,"o3":24.0,"so2":0.5,"mosquito_risk":0,"arthritis_risk":5,"migraine_risk":7,"frizz_risk":0,"updated_at":"2026-05-27T05:38:42.434485+05:30"},{"city":"Patiala","state":"Punjab","latitude":30.3398,"longitude":76.3869,"temp":28.0,"humidity":28,"rain":0.0,"pressure":973.0,"uv_index":7.65,"wind_gusts":40.7,"aqi":485,"pm10":510.4,"pm2_5":78.2,"no2":15.4,"co":364.0,"o3":63.0,"so2":8.5,"mosquito_risk":4,"arthritis_risk":5,"migraine_risk":7,"frizz_risk":0,"updated_at":"2026-05-27T05:38:42.434493+05:30"},{"city":"Bhatinda","state":"Punjab","latitude":30.211,"longitude":74.9455,"temp":28.9,"humidity":38,"rain":0.0,"pressure":978.8,"uv_index":8.3,"wind_gusts":29.9,"aqi":81,"pm10":51.9,"pm2_5":44.7,"no2":27.9,"co":406.0,"o3":46.0,"so2":8.8,"mosquito_risk":4,"arthritis_risk":5,"migraine_risk":7,"frizz_risk":0,"updated_at":"2026-05-27T05:38:42.434499+05:30"},{"city":"Rohtak","state":"Haryana","latitude":28.8955,"longitude":76.6066,"temp":27.6,"humidity":37,"rain":0.0,"pressure":976.8,"uv_index":7.8,"wind_gusts":33.5,"aqi":849,"pm10":972.3,"pm2_5":224.0,"no2":36.8,"co":355.0,"o3":39.0,"so2":7.4,"mosquito_risk":4,"arthritis_risk":5,"migraine_risk":7,"frizz_risk":0,"updated_at":"2026-05-27T05:38:42.434506+05:30"},{"city":"Panipat","state":"Haryana","latitude":29.3909,"longitude":76.9635,"temp":28.9,"humidity":25,"rain":0.0,"pressure":975.2,"uv_index":7.6,"wind_gusts":37.8,"aqi":1594,"pm10":1199.5,"pm2_5":233.3,"no2":21.0,"co":323.0,"o3":52.0,"so2":6.5,"mosquito_risk":4,"arthritis_risk":5,"migraine_risk":7,"frizz_risk":0,"updated_at":"2026-05-27T05:38:42.434512+05:30"},{"city":"Mathura","state":"Uttar Pradesh","latitude":27.4924,"longitude":77.6737,"temp":29.6,"humidity":37,"rain":0.0,"pressure":981.7,"uv_index":8.0,"wind_gusts":34.9,"aqi":636,"pm10":624.0,"pm2_5":135.5,"no2":68.0,"co":488.0,"o3":5.0,"so2":14.5,"mosquito_risk":4,"arthritis_risk":5,"migraine_risk":7,"frizz_risk":0,"updated_at":"2026-05-27T05:38:42.434519+05:30"},{"city":"Vrindavan","state":"Uttar Pradesh","latitude":27.5823,"longitude":77.7027,"temp":28.9,"humidity":39,"rain":0.0,"pressure":982.0,"uv_index":8.0,"wind_gusts":33.5,"aqi":636,"pm10":624.0,"pm2_5":135.5,"no2":68.0,"co":515.0,"o3":5.0,"so2":14.5,"mosquito_risk":4,"arthritis_risk":5,"migraine_risk":7,"frizz_risk":0,"updated_at":"2026-05-27T05:38:42.434526+05:30"},{"city":"Ayodhya","state":"Uttar Pradesh","latitude":26.7922,"longitude":82.1998,"temp":25.5,"humidity":73,"rain":0.0,"pressure":992.3,"uv_index":8.3,"wind_gusts":36.0,"aqi":113,"pm10":33.3,"pm2_5":23.8,"no2":8.2,"co":360.0,"o3":115.0,"so2":7.6,"mosquito_risk":7,"arthritis_risk":5,"migraine_risk":7,"frizz_risk":1,"updated_at":"2026-05-27T05:38:42.434533+05:30"},{"city":"Ratlam","state":"Madhya Pradesh","latitude":23.3315,"longitude":75.0367,"temp":26.6,"humidity":74,"rain":0.0,"pressure":954.2,"uv_index":8.5,"wind_gusts":47.2,"aqi":70,"pm10":26.5,"pm2_5":15.2,"no2":8.6,"co":179.0,"o3":39.0,"so2":13.2,"mosquito_risk":7,"arthritis_risk":5,"migraine_risk":7,"frizz_risk":1,"updated_at":"2026-05-27T05:38:42.434540+05:30"},{"city":"Sagar","state":"Madhya Pradesh","latitude":23.8388,"longitude":78.7378,"temp":30.6,"humidity":31,"rain":0.0,"pressure":947.9,"uv_index":8.7,"wind_gusts":46.1,"aqi":80,"pm10":39.7,"pm2_5":20.7,"no2":4.8,"co":198.0,"o3":78.0,"so2":5.2,"mosquito_risk":0,"arthritis_risk":5,"migraine_risk":7,"frizz_risk":0,"updated_at":"2026-05-27T05:38:42.434547+05:30"},{"city":"Satna","state":"Madhya Pradesh","latitude":24.6005,"longitude":80.8322,"temp":29.5,"humidity":32,"rain":0.0,"pressure":967.2,"uv_index":8.75,"wind_gusts":53.3,"aqi":70,"pm10":26.5,"pm2_5":19.7,"no2":30.3,"co":224.0,"o3":39.0,"so2":4.1,"mosquito_risk":4,"arthritis_risk":5,"migraine_risk":7,"frizz_risk":0,"updated_at":"2026-05-27T05:38:42.434554+05:30"},{"city":"Akola","state":"Maharashtra","latitude":20.7002,"longitude":77.0082,"temp":30.5,"humidity":49,"rain":0.0,"pressure":974.2,"uv_index":8.85,"wind_gusts":46.4,"aqi":55,"pm10":14.8,"pm2_5":12.5,"no2":7.5,"co":171.0,"o3":77.0,"so2":12.7,"mosquito_risk":0,"arthritis_risk":5,"migraine_risk":7,"frizz_risk":1,"updated_at":"2026-05-27T05:38:42.434563+05:30"},{"city":"Amravati","state":"Maharashtra","latitude":20.9374,"longitude":77.7796,"temp":32.1,"humidity":42,"rain":0.0,"pressure":966.1,"uv_index":8.85,"wind_gusts":45.4,"aqi":57,"pm10":17.6,"pm2_5":14.8,"no2":6.9,"co":189.0,"o3":90.0,"so2":13.1,"mosquito_risk":0,"arthritis_risk":5,"migraine_risk":7,"frizz_risk":1,"updated_at":"2026-05-27T05:38:42.434571+05:30"},{"city":"Latur","state":"Maharashtra","latitude":18.4088,"longitude":76.5604,"temp":28.1,"humidity":65,"rain":0.0,"pressure":940.0,"uv_index":8.25,"wind_gusts":37.8,"aqi":62,"pm10":19.9,"pm2_5":18.0,"no2":8.4,"co":235.0,"o3":88.0,"so2":11.1,"mosquito_risk":7,"arthritis_risk":5,"migraine_risk":7,"frizz_risk":1,"updated_at":"2026-05-27T05:38:42.434578+05:30"},{"city":"Nanded","state":"Maharashtra","latitude":19.1383,"longitude":77.3091,"temp":30.2,"humidity":55,"rain":0.0,"pressure":967.9,"uv_index":8.9,"wind_gusts":37.8,"aqi":73,"pm10":21.2,"pm2_5":17.8,"no2":15.5,"co":218.0,"o3":49.0,"so2":3.0,"mosquito_risk":0,"arthritis_risk":5,"migraine_risk":7,"frizz_risk":1,"updated_at":"2026-05-27T05:38:42.434585+05:30"},{"city":"Gulbarga","state":"Karnataka","latitude":17.3297,"longitude":76.8343,"temp":28.7,"humidity":65,"rain":0.0,"pressure":959.0,"uv_index":6.15,"wind_gusts":41.8,"aqi":47,"pm10":10.0,"pm2_5":8.2,"no2":9.4,"co":253.0,"o3":42.0,"so2":4.0,"mosquito_risk":7,"arthritis_risk":5,"migraine_risk":7,"frizz_risk":1,"updated_at":"2026-05-27T05:38:42.434592+05:30"},{"city":"Bidar","state":"Karnataka","latitude":17.9104,"longitude":77.5199,"temp":27.5,"humidity":57,"rain":0.0,"pressure":935.3,"uv_index":8.65,"wind_gusts":46.8,"aqi":75,"pm10":13.7,"pm2_5":12.5,"no2":13.1,"co":228.0,"o3":62.0,"so2":2.5,"mosquito_risk":4,"arthritis_risk":5,"migraine_risk":7,"frizz_risk":1,"updated_at":"2026-05-27T05:38:42.434599+05:30"},{"city":"Hospet","state":"Karnataka","latitude":15.2689,"longitude":76.3909,"temp":25.0,"humidity":90,"rain":0.0,"pressure":956.6,"uv_index":6.8,"wind_gusts":40.3,"aqi":41,"pm10":5.7,"pm2_5":4.8,"no2":4.7,"co":166.0,"o3":41.0,"so2":1.5,"mosquito_risk":7,"arthritis_risk":5,"migraine_risk":7,"frizz_risk":1,"updated_at":"2026-05-27T05:38:42.434606+05:30"},{"city":"Tirupur","state":"Tamil Nadu","latitude":11.1085,"longitude":77.3411,"temp":25.2,"humidity":86,"rain":0.0,"pressure":975.3,"uv_index":8.0,"wind_gusts":57.2,"aqi":58,"pm10":14.7,"pm2_5":13.1,"no2":14.7,"co":152.0,"o3":32.0,"so2":4.6,"mosquito_risk":7,"arthritis_risk":5,"migraine_risk":7,"frizz_risk":1,"updated_at":"2026-05-27T05:38:42.434612+05:30"},{"city":"Alappuzha","state":"Kerala","latitude":9.4981,"longitude":76.3388,"temp":25.5,"humidity":100,"rain":0.0,"pressure":1010.1,"uv_index":7.85,"wind_gusts":29.5,"aqi":43,"pm10":10.1,"pm2_5":8.0,"no2":7.6,"co":212.0,"o3":45.0,"so2":1.9,"mosquito_risk":7,"arthritis_risk":0,"migraine_risk":4,"frizz_risk":1,"updated_at":"2026-05-27T05:38:42.434618+05:30"},{"city":"Munnar","state":"Kerala","latitude":10.0889,"longitude":77.0595,"temp":17.9,"humidity":99,"rain":0.0,"pressure":857.6,"uv_index":6.55,"wind_gusts":28.1,"aqi":49,"pm10":10.2,"pm2_5":9.7,"no2":7.0,"co":122.0,"o3":32.0,"so2":1.7,"mosquito_risk":3,"arthritis_risk":10,"migraine_risk":7,"frizz_risk":1,"updated_at":"2026-05-27T05:38:42.434626+05:30"},{"city":"Silchar","state":"Assam","latitude":24.8333,"longitude":92.7789,"temp":23.6,"humidity":91,"rain":0.0,"pressure":1005.6,"uv_index":8.85,"wind_gusts":31.0,"aqi":93,"pm10":48.1,"pm2_5":39.0,"no2":16.5,"co":313.0,"o3":36.0,"so2":4.7,"mosquito_risk":3,"arthritis_risk":5,"migraine_risk":4,"frizz_risk":1,"updated_at":"2026-05-27T05:38:42.434633+05:30"},{"city":"Dibrugarh","state":"Assam","latitude":27.4728,"longitude":94.912,"temp":22.1,"humidity":92,"rain":0.0,"pressure":996.4,"uv_index":8.9,"wind_gusts":27.7,"aqi":93,"pm10":51.2,"pm2_5":35.4,"no2":18.5,"co":238.0,"o3":35.0,"so2":0.9,"mosquito_risk":3,"arthritis_risk":5,"migraine_risk":7,"frizz_risk":1,"updated_at":"2026-05-27T05:38:42.434640+05:30"}]