[{"city":"Delhi","state":"Delhi","latitude":28.6139,"longitude":77.209,"temp":33.0,"humidity":33,"rain":0.0,"pressure":978.3,"uv_index":7.25,"wind_gusts":32.0,"aqi":698,"pm10":325.0,"pm2_5":58.4,"mosquito_risk":0,"arthritis_risk":5,"migraine_risk":7,"frizz_risk":0,"updated_at":"2026-04-28T19:47:42.638807+05:30"},{"city":"Mumbai","state":"Maharashtra","latitude":19.076,"longitude":72.8777,"temp":29.1,"humidity":77,"rain":0.0,"pressure":1006.0,"uv_index":8.0,"wind_gusts":40.3,"aqi":87,"pm10":38.6,"pm2_5":19.6,"mosquito_risk":7,"arthritis_risk":5,"migraine_risk":4,"frizz_risk":1,"updated_at":"2026-04-28T19:47:42.638854+05:30"},{"city":"Bangalore","state":"Karnataka","latitude":12.9716,"longitude":77.5946,"temp":31.2,"humidity":32,"rain":0.0,"pressure":911.1,"uv_index":9.0,"wind_gusts":36.7,"aqi":180,"pm10":51.9,"pm2_5":39.7,"mosquito_risk":0,"arthritis_risk":5,"migraine_risk":7,"frizz_risk":0,"updated_at":"2026-04-28T19:47:42.638870+05:30"},{"city":"Hyderabad","state":"Telangana","latitude":17.385,"longitude":78.4867,"temp":34.1,"humidity":35,"rain":0.0,"pressure":951.1,"uv_index":8.85,"wind_gusts":34.9,"aqi":178,"pm10":55.9,"pm2_5":47.4,"mosquito_risk":0,"arthritis_risk":5,"migraine_risk":7,"frizz_risk":1,"updated_at":"2026-04-28T19:47:42.638881+05:30"},{"city":"Chennai","state":"Tamil Nadu","latitude":13.0827,"longitude":80.2707,"temp":29.9,"humidity":79,"rain":0.0,"pressure":1005.1,"uv_index":8.25,"wind_gusts":52.9,"aqi":86,"pm10":13.9,"pm2_5":10.5,"mosquito_risk":7,"arthritis_risk":5,"migraine_risk":4,"frizz_risk":1,"updated_at":"2026-04-28T19:47:42.638891+05:30"},{"city":"Kolkata","state":"West Bengal","latitude":22.5726,"longitude":88.3639,"temp":25.6,"humidity":92,"rain":0.3,"pressure":1003.1,"uv_index":8.85,"wind_gusts":54.4,"aqi":77,"pm10":30.6,"pm2_5":26.4,"mosquito_risk":10,"arthritis_risk":5,"migraine_risk":4,"frizz_risk":1,"updated_at":"2026-04-28T19:47:42.638900+05:30"},{"city":"Pune","state":"Maharashtra","latitude":18.5204,"longitude":73.8567,"temp":31.1,"humidity":48,"rain":0.0,"pressure":946.3,"uv_index":8.6,"wind_gusts":43.9,"aqi":132,"pm10":33.3,"pm2_5":24.6,"mosquito_risk":0,"arthritis_risk":5,"migraine_risk":7,"frizz_risk":1,"updated_at":"2026-04-28T19:47:42.638911+05:30"},{"city":"Ahmedabad","state":"Gujarat","latitude":23.0225,"longitude":72.5714,"temp":39.1,"humidity":13,"rain":0.0,"pressure":997.1,"uv_index":8.2,"wind_gusts":50.4,"aqi":61,"pm10":30.3,"pm2_5":12.6,"mosquito_risk":0,"arthritis_risk":5,"migraine_risk":10,"frizz_risk":0,"updated_at":"2026-04-28T19:47:42.638920+05:30"},{"city":"Jaipur","state":"Rajasthan","latitude":26.9124,"longitude":75.7873,"temp":34.6,"humidity":21,"rain":0.0,"pressure":954.8,"uv_index":8.05,"wind_gusts":42.8,"aqi":102,"pm10":92.9,"pm2_5":19.7,"mosquito_risk":0,"arthritis_risk":5,"migraine_risk":7,"frizz_risk":0,"updated_at":"2026-04-28T19:47:42.638927+05:30"},{"city":"Lucknow","state":"Uttar Pradesh","latitude":26.8467,"longitude":80.9462,"temp":35.8,"humidity":26,"rain":0.0,"pressure":987.3,"uv_index":7.9,"wind_gusts":49.7,"aqi":160,"pm10":184.4,"pm2_5":62.2,"mosquito_risk":0,"arthritis_risk":5,"migraine_risk":10,"frizz_risk":0,"updated_at":"2026-04-28T19:47:42.638935+05:30"},{"city":"Kanpur","state":"Uttar Pradesh","latitude":26.4499,"longitude":80.3319,"temp":36.5,"humidity":21,"rain":0.0,"pressure":985.5,"uv_index":7.95,"wind_gusts":32.4,"aqi":198,"pm10":349.2,"pm2_5":68.5,"mosquito_risk":0,"arthritis_risk":5,"migraine_risk":10,"frizz_risk":0,"updated_at":"2026-04-28T19:47:42.638942+05:30"},{"city":"Chandigarh","state":"Chandigarh","latitude":30.7333,"longitude":76.7794,"temp":28.9,"humidity":38,"rain":0.0,"pressure":964.6,"uv_index":4.6,"wind_gusts":37.1,"aqi":59,"pm10":41.6,"pm2_5":19.1,"mosquito_risk":4,"arthritis_risk":5,"migraine_risk":3,"frizz_risk":0,"updated_at":"2026-04-28T19:47:42.638949+05:30"},{"city":"Srinagar","state":"Jammu and Kashmir","latitude":34.0837,"longitude":74.7973,"temp":13.4,"humidity":93,"rain":0.0,"pressure":839.5,"uv_index":5.1,"wind_gusts":18.0,"aqi":83,"pm10":34.2,"pm2_5":29.9,"mosquito_risk":3,"arthritis_risk":10,"migraine_risk":3,"frizz_risk":0,"updated_at":"2026-04-28T19:47:42.638957+05:30"},{"city":"Jammu","state":"Jammu and Kashmir","latitude":32.7266,"longitude":74.857,"temp":27.3,"humidity":48,"rain":0.0,"pressure":969.6,"uv_index":6.6,"wind_gusts":42.1,"aqi":88,"pm10":58.7,"pm2_5":31.1,"mosquito_risk":4,"arthritis_risk":5,"migraine_risk":7,"frizz_risk":0,"updated_at":"2026-04-28T19:47:42.638965+05:30"},{"city":"Amritsar","state":"Punjab","latitude":31.634,"longitude":74.8723,"temp":28.8,"humidity":41,"rain":0.0,"pressure":977.3,"uv_index":6.25,"wind_gusts":39.2,"aqi":79,"pm10":41.7,"pm2_5":22.4,"mosquito_risk":4,"arthritis_risk":5,"migraine_risk":7,"frizz_risk":0,"updated_at":"2026-04-28T19:47:42.638971+05:30"},{"city":"Ludhiana","state":"Punjab","latitude":30.901,"longitude":75.8573,"temp":30.5,"humidity":35,"rain":0.0,"pressure":974.3,"uv_index":6.75,"wind_gusts":37.1,"aqi":81,"pm10":36.4,"pm2_5":20.7,"mosquito_risk":0,"arthritis_risk":5,"migraine_risk":7,"frizz_risk":0,"updated_at":"2026-04-28T19:47:42.638978+05:30"},{"city":"Jalandhar","state":"Punjab","latitude":31.326,"longitude":75.5762,"temp":28.8,"humidity":45,"rain":0.0,"pressure":975.6,"uv_index":7.25,"wind_gusts":37.8,"aqi":81,"pm10":55.5,"pm2_5":22.1,"mosquito_risk":4,"arthritis_risk":5,"migraine_risk":7,"frizz_risk":0,"updated_at":"2026-04-28T19:47:42.638987+05:30"},{"city":"Dehradun","state":"Uttarakhand","latitude":30.6284,"longitude":78.0322,"temp":18.0,"humidity":58,"rain":0.0,"pressure":828.1,"uv_index":4.95,"wind_gusts":32.8,"aqi":81,"pm10":30.9,"pm2_5":13.0,"mosquito_risk":0,"arthritis_risk":5,"migraine_risk":3,"frizz_risk":0,"updated_at":"2026-04-28T19:47:42.638995+05:30"},{"city":"Shimla","state":"Himachal Pradesh","latitude":31.1048,"longitude":77.1734,"temp":11.0,"humidity":90,"rain":0.0,"pressure":779.8,"uv_index":3.75,"wind_gusts":40.3,"aqi":53,"pm10":19.0,"pm2_5":11.3,"mosquito_risk":3,"arthritis_risk":10,"migraine_risk":3,"frizz_risk":0,"updated_at":"2026-04-28T19:47:42.639002+05:30"},{"city":"Manali","state":"Himachal Pradesh","latitude":32.2396,"longitude":77.1887,"temp":11.1,"humidity":80,"rain":0.0,"pressure":814.1,"uv_index":9.85,"wind_gusts":40.7,"aqi":125,"pm10":13.7,"pm2_5":8.8,"mosquito_risk":3,"arthritis_risk":5,"migraine_risk":7,"frizz_risk":0,"updated_at":"2026-04-28T19:47:42.639009+05:30"},{"city":"Gurgaon","state":"Haryana","latitude":28.4595,"longitude":77.0266,"temp":29.1,"humidity":63,"rain":0.0,"pressure":976.5,"uv_index":7.6,"wind_gusts":36.0,"aqi":1275,"pm10":2585.4,"pm2_5":264.5,"mosquito_risk":7,"arthritis_risk":5,"migraine_risk":7,"frizz_risk":1,"updated_at":"2026-04-28T19:47:42.639015+05:30"},{"city":"Noida","state":"Uttar Pradesh","latitude":28.5355,"longitude":77.391,"temp":32.2,"humidity":34,"rain":0.0,"pressure":979.5,"uv_index":7.5,"wind_gusts":31.7,"aqi":1275,"pm10":2585.4,"pm2_5":264.5,"mosquito_risk":0,"arthritis_risk":5,"migraine_risk":7,"frizz_risk":0,"updated_at":"2026-04-28T19:47:42.639022+05:30"},{"city":"Ghaziabad","state":"Uttar Pradesh","latitude":28.6692,"longitude":77.4538,"temp":31.7,"humidity":34,"rain":0.0,"pressure":977.8,"uv_index":7.3,"wind_gusts":33.5,"aqi":567,"pm10":223.5,"pm2_5":43.4,"mosquito_risk":0,"arthritis_risk":5,"migraine_risk":7,"frizz_risk":0,"updated_at":"2026-04-28T19:47:42.639028+05:30"},{"city":"Faridabad","state":"Haryana","latitude":28.4089,"longitude":77.3178,"temp":33.0,"humidity":32,"rain":0.0,"pressure":979.0,"uv_index":7.55,"wind_gusts":37.4,"aqi":1275,"pm10":2585.4,"pm2_5":264.5,"mosquito_risk":0,"arthritis_risk":5,"migraine_risk":7,"frizz_risk":0,"updated_at":"2026-04-28T19:47:42.639033+05:30"},{"city":"Meerut","state":"Uttar Pradesh","latitude":28.9845,"longitude":77.7064,"temp":30.9,"humidity":40,"rain":0.0,"pressure":976.6,"uv_index":7.05,"wind_gusts":37.1,"aqi":567,"pm10":223.5,"pm2_5":43.4,"mosquito_risk":0,"arthritis_risk":5,"migraine_risk":7,"frizz_risk":0,"updated_at":"2026-04-28T19:47:42.639039+05:30"},{"city":"Agra","state":"Uttar Pradesh","latitude":27.1767,"longitude":78.0081,"temp":34.2,"humidity":27,"rain":0.0,"pressure":982.1,"uv_index":7.8,"wind_gusts":38.9,"aqi":736,"pm10":335.3,"pm2_5":74.7,"mosquito_risk":0,"arthritis_risk":5,"migraine_risk":7,"frizz_risk":0,"updated_at":"2026-04-28T19:47:42.639047+05:30"},{"city":"Varanasi","state":"Uttar Pradesh","latitude":25.3176,"longitude":82.9739,"temp":34.7,"humidity":33,"rain":0.0,"pressure":991.5,"uv_index":8.5,"wind_gusts":48.2,"aqi":138,"pm10":132.7,"pm2_5":44.5,"mosquito_risk":0,"arthritis_risk":5,"migraine_risk":7,"frizz_risk":0,"updated_at":"2026-04-28T19:47:42.639056+05:30"},{"city":"Prayagraj","state":"Uttar Pradesh","latitude":25.4358,"longitude":81.8463,"temp":34.8,"humidity":30,"rain":0.0,"pressure":989.8,"uv_index":8.4,"wind_gusts":43.9,"aqi":142,"pm10":131.3,"pm2_5":43.5,"mosquito_risk":0,"arthritis_risk":5,"migraine_risk":7,"frizz_risk":0,"updated_at":"2026-04-28T19:47:42.639062+05:30"},{"city":"Gorakhpur","state":"Uttar Pradesh","latitude":26.7606,"longitude":83.3732,"temp":30.9,"humidity":53,"rain":0.0,"pressure":991.4,"uv_index":8.3,"wind_gusts":28.1,"aqi":167,"pm10":92.4,"pm2_5":44.2,"mosquito_risk":0,"arthritis_risk":5,"migraine_risk":7,"frizz_risk":1,"updated_at":"2026-04-28T19:47:42.639068+05:30"},{"city":"Bareilly","state":"Uttar Pradesh","latitude":28.367,"longitude":79.4304,"temp":33.5,"humidity":30,"rain":0.0,"pressure":981.7,"uv_index":7.7,"wind_gusts":33.1,"aqi":170,"pm10":71.0,"pm2_5":33.2,"mosquito_risk":0,"arthritis_risk":5,"migraine_risk":7,"frizz_risk":0,"updated_at":"2026-04-28T19:47:42.639074+05:30"},{"city":"Aligarh","state":"Uttar Pradesh","latitude":27.8974,"longitude":78.088,"temp":33.2,"humidity":29,"rain":0.0,"pressure":980.5,"uv_index":7.65,"wind_gusts":44.6,"aqi":793,"pm10":1125.0,"pm2_5":115.9,"mosquito_risk":0,"arthritis_risk":5,"migraine_risk":7,"frizz_risk":0,"updated_at":"2026-04-28T19:47:42.639080+05:30"},{"city":"Moradabad","state":"Uttar Pradesh","latitude":28.8386,"longitude":78.7733,"temp":32.2,"humidity":32,"rain":0.0,"pressure":978.9,"uv_index":7.5,"wind_gusts":40.0,"aqi":155,"pm10":73.6,"pm2_5":25.7,"mosquito_risk":0,"arthritis_risk":5,"migraine_risk":7,"frizz_risk":0,"updated_at":"2026-04-28T19:47:42.639086+05:30"},{"city":"Saharanpur","state":"Uttar Pradesh","latitude":29.9637,"longitude":77.546,"temp":29.3,"humidity":44,"rain":0.0,"pressure":971.3,"uv_index":6.65,"wind_gusts":42.5,"aqi":70,"pm10":67.8,"pm2_5":24.0,"mosquito_risk":4,"arthritis_risk":5,"migraine_risk":7,"frizz_risk":0,"updated_at":"2026-04-28T19:47:42.639092+05:30"},{"city":"Jhansi","state":"Uttar Pradesh","latitude":25.4484,"longitude":78.5685,"temp":35.8,"humidity":20,"rain":0.0,"pressure":972.0,"uv_index":8.3,"wind_gusts":33.8,"aqi":105,"pm10":43.1,"pm2_5":20.7,"mosquito_risk":0,"arthritis_risk":5,"migraine_risk":10,"frizz_risk":0,"updated_at":"2026-04-28T19:47:45.883587+05:30"},{"city":"Surat","state":"Gujarat","latitude":21.1702,"longitude":72.8311,"temp":29.4,"humidity":78,"rain":0.0,"pressure":1002.8,"uv_index":7.9,"wind_gusts":44.3,"aqi":77,"pm10":26.1,"pm2_5":18.2,"mosquito_risk":7,"arthritis_risk":5,"migraine_risk":4,"frizz_risk":1,"updated_at":"2026-04-28T19:47:45.883622+05:30"},{"city":"Vadodara","state":"Gujarat","latitude":22.3072,"longitude":73.1812,"temp":34.2,"humidity":33,"rain":0.0,"pressure":999.2,"uv_index":8.15,"wind_gusts":46.4,"aqi":85,"pm10":27.4,"pm2_5":16.0,"mosquito_risk":0,"arthritis_risk":5,"migraine_risk":7,"frizz_risk":0,"updated_at":"2026-04-28T19:47:45.883632+05:30"},{"city":"Rajkot","state":"Gujarat","latitude":22.3039,"longitude":70.8022,"temp":33.5,"humidity":36,"rain":0.0,"pressure":990.3,"uv_index":7.9,"wind_gusts":52.2,"aqi":54,"pm10":37.4,"pm2_5":13.6,"mosquito_risk":0,"arthritis_risk":5,"migraine_risk":7,"frizz_risk":1,"updated_at":"2026-04-28T19:47:45.883641+05:30"},{"city":"Thane","state":"Maharashtra","latitude":19.2183,"longitude":72.9781,"temp":29.8,"humidity":69,"rain":0.0,"pressure":1005.4,"uv_index":8.05,"wind_gusts":37.1,"aqi":87,"pm10":38.6,"pm2_5":19.6,"mosquito_risk":7,"arthritis_risk":5,"migraine_risk":4,"frizz_risk":1,"updated_at":"2026-04-28T19:47:45.883648+05:30"},{"city":"Nagpur","state":"Maharashtra","latitude":21.1458,"longitude":79.0882,"temp":38.0,"humidity":16,"rain":0.0,"pressure":969.0,"uv_index":8.85,"wind_gusts":54.0,"aqi":151,"pm10":36.3,"pm2_5":30.9,"mosquito_risk":0,"arthritis_risk":5,"migraine_risk":10,"frizz_risk":0,"updated_at":"2026-04-28T19:47:45.883655+05:30"},{"city":"Nashik","state":"Maharashtra","latitude":19.9975,"longitude":73.7898,"temp":31.1,"humidity":33,"rain":0.0,"pressure":943.9,"uv_index":8.3,"wind_gusts":45.7,"aqi":72,"pm10":22.5,"pm2_5":11.8,"mosquito_risk":0,"arthritis_risk":5,"migraine_risk":7,"frizz_risk":0,"updated_at":"2026-04-28T19:47:45.883661+05:30"},{"city":"Aurangabad","state":"Maharashtra","latitude":19.8762,"longitude":75.3433,"temp":36.2,"humidity":17,"rain":0.0,"pressure":941.5,"uv_index":9.0,"wind_gusts":42.1,"aqi":103,"pm10":22.2,"pm2_5":17.8,"mosquito_risk":0,"arthritis_risk":5,"migraine_risk":10,"frizz_risk":0,"updated_at":"2026-04-28T19:47:45.883667+05:30"},{"city":"Solapur","state":"Maharashtra","latitude":17.6599,"longitude":75.9064,"temp":36.0,"humidity":20,"rain":0.0,"pressure":953.7,"uv_index":9.05,"wind_gusts":37.8,"aqi":135,"pm10":44.2,"pm2_5":31.8,"mosquito_risk":0,"arthritis_risk":5,"migraine_risk":10,"frizz_risk":0,"updated_at":"2026-04-28T19:47:45.883675+05:30"},{"city":"Kolhapur","state":"Maharashtra","latitude":16.705,"longitude":74.2433,"temp":28.2,"humidity":71,"rain":0.0,"pressure":946.0,"uv_index":6.4,"wind_gusts":50.0,"aqi":95,"pm10":30.4,"pm2_5":21.1,"mosquito_risk":7,"arthritis_risk":5,"migraine_risk":7,"frizz_risk":1,"updated_at":"2026-04-28T19:47:45.883681+05:30"},{"city":"Goa","state":"Goa","latitude":15.2993,"longitude":74.124,"temp":30.5,"humidity":72,"rain":0.0,"pressure":996.0,"uv_index":8.95,"wind_gusts":41.4,"aqi":64,"pm10":51.7,"pm2_5":19.2,"mosquito_risk":3,"arthritis_risk":5,"migraine_risk":7,"frizz_risk":1,"updated_at":"2026-04-28T19:47:45.883687+05:30"},{"city":"Jodhpur","state":"Rajasthan","latitude":26.2389,"longitude":73.0243,"temp":37.5,"humidity":17,"rain":0.0,"pressure":977.1,"uv_index":8.3,"wind_gusts":49.7,"aqi":115,"pm10":268.2,"pm2_5":32.9,"mosquito_risk":0,"arthritis_risk":5,"migraine_risk":10,"frizz_risk":0,"updated_at":"2026-04-28T19:47:45.883694+05:30"},{"city":"Udaipur","state":"Rajasthan","latitude":24.5854,"longitude":73.7125,"temp":33.5,"humidity":21,"rain":0.0,"pressure":942.4,"uv_index":8.75,"wind_gusts":49.0,"aqi":48,"pm10":24.9,"pm2_5":9.4,"mosquito_risk":0,"arthritis_risk":5,"migraine_risk":7,"frizz_risk":0,"updated_at":"2026-04-28T19:47:45.883701+05:30"},{"city":"Kota","state":"Rajasthan","latitude":25.2138,"longitude":75.8648,"temp":34.8,"humidity":18,"rain":0.0,"pressure":972.7,"uv_index":8.3,"wind_gusts":40.7,"aqi":63,"pm10":31.4,"pm2_5":14.8,"mosquito_risk":0,"arthritis_risk":5,"migraine_risk":7,"frizz_risk":0,"updated_at":"2026-04-28T19:47:45.883707+05:30"},{"city":"Bikaner","state":"Rajasthan","latitude":28.0229,"longitude":73.3119,"temp":35.3,"humidity":20,"rain":0.0,"pressure":976.3,"uv_index":8.15,"wind_gusts":49.7,"aqi":57,"pm10":77.8,"pm2_5":21.5,"mosquito_risk":0,"arthritis_risk":5,"migraine_risk":10,"frizz_risk":0,"updated_at":"2026-04-28T19:47:45.883714+05:30"},{"city":"Ajmer","state":"Rajasthan","latitude":26.4499,"longitude":74.6399,"temp":34.8,"humidity":17,"rain":0.0,"pressure":950.0,"uv_index":8.25,"wind_gusts":43.6,"aqi":52,"pm10":44.7,"pm2_5":12.2,"mosquito_risk":0,"arthritis_risk":5,"migraine_risk":7,"frizz_risk":0,"updated_at":"2026-04-28T19:47:45.883720+05:30"},{"city":"Gwalior","state":"Madhya Pradesh","latitude":26.2183,"longitude":78.1828,"temp":36.0,"humidity":20,"rain":0.0,"pressure":977.5,"uv_index":8.05,"wind_gusts":39.6,"aqi":78,"pm10":89.2,"pm2_5":24.7,"mosquito_risk":0,"arthritis_risk":5,"migraine_risk":10,"frizz_risk":0,"updated_at":"2026-04-28T19:47:45.883727+05:30"},{"city":"Indore","state":"Madhya Pradesh","latitude":22.7196,"longitude":75.8577,"temp":34.6,"humidity":17,"rain":0.0,"pressure":944.9,"uv_index":8.6,"wind_gusts":56.9,"aqi":90,"pm10":20.0,"pm2_5":11.0,"mosquito_risk":0,"arthritis_risk":5,"migraine_risk":7,"frizz_risk":0,"updated_at":"2026-04-28T19:47:45.883732+05:30"},{"city":"Bhopal","state":"Madhya Pradesh","latitude":23.2599,"longitude":77.4126,"temp":36.5,"humidity":12,"rain":0.0,"pressure":949.5,"uv_index":8.6,"wind_gusts":52.6,"aqi":107,"pm10":13.1,"pm2_5":9.0,"mosquito_risk":0,"arthritis_risk":5,"migraine_risk":10,"frizz_risk":0,"updated_at":"2026-04-28T19:47:45.883739+05:30"},{"city":"Jabalpur","state":"Madhya Pradesh","latitude":23.1815,"longitude":79.9864,"temp":35.5,"humidity":14,"rain":0.0,"pressure":956.5,"uv_index":8.75,"wind_gusts":46.4,"aqi":110,"pm10":15.5,"pm2_5":13.6,"mosquito_risk":0,"arthritis_risk":5,"migraine_risk":10,"frizz_risk":0,"updated_at":"2026-04-28T19:47:45.883744+05:30"},{"city":"Ujjain","state":"Madhya Pradesh","latitude":23.1765,"longitude":75.7885,"temp":34.3,"humidity":16,"rain":0.0,"pressure":950.3,"uv_index":8.55,"wind_gusts":55.4,"aqi":68,"pm10":22.8,"pm2_5":12.0,"mosquito_risk":0,"arthritis_risk":5,"migraine_risk":7,"frizz_risk":0,"updated_at":"2026-04-28T19:47:45.883751+05:30"},{"city":"Visakhapatnam","state":"Andhra Pradesh","latitude":17.6868,"longitude":83.2185,"temp":27.8,"humidity":90,"rain":0.0,"pressure":1003.5,"uv_index":9.05,"wind_gusts":57.2,"aqi":70,"pm10":20.5,"pm2_5":15.2,"mosquito_risk":7,"arthritis_risk":5,"migraine_risk":4,"frizz_risk":1,"updated_at":"2026-04-28T19:47:45.883757+05:30"},{"city":"Vijayawada","state":"Andhra Pradesh","latitude":16.5062,"longitude":80.648,"temp":31.8,"humidity":60,"rain":0.0,"pressure":1000.1,"uv_index":9.2,"wind_gusts":41.0,"aqi":84,"pm10":25.1,"pm2_5":21.1,"mosquito_risk":0,"arthritis_risk":5,"migraine_risk":4,"frizz_risk":1,"updated_at":"2026-04-28T19:47:45.883764+05:30"},{"city":"Guntur","state":"Andhra Pradesh","latitude":16.3067,"longitude":80.4365,"temp":30.5,"humidity":73,"rain":0.0,"pressure":1001.5,"uv_index":9.25,"wind_gusts":43.6,"aqi":109,"pm10":28.2,"pm2_5":24.3,"mosquito_risk":3,"arthritis_risk":5,"migraine_risk":4,"frizz_risk":1,"updated_at":"2026-04-28T19:47:45.883769+05:30"},{"city":"Nellore","state":"Andhra Pradesh","latitude":14.4426,"longitude":79.9865,"temp":30.0,"humidity":81,"rain":0.0,"pressure":1003.1,"uv_index":9.25,"wind_gusts":48.2,"aqi":127,"pm10":15.8,"pm2_5":13.0,"mosquito_risk":7,"arthritis_risk":5,"migraine_risk":4,"frizz_risk":1,"updated_at":"2026-04-28T19:47:45.883776+05:30"},{"city":"Kurnool","state":"Andhra Pradesh","latitude":15.8281,"longitude":78.0373,"temp":34.0,"humidity":39,"rain":0.0,"pressure":974.7,"uv_index":9.2,"wind_gusts":33.1,"aqi":200,"pm10":61.5,"pm2_5":49.0,"mosquito_risk":0,"arthritis_risk":5,"migraine_risk":7,"frizz_risk":1,"updated_at":"2026-04-28T19:47:45.883783+05:30"},{"city":"Kakinada","state":"Andhra Pradesh","latitude":16.9891,"longitude":82.2475,"temp":28.2,"humidity":80,"rain":0.0,"pressure":1008.0,"uv_index":9.2,"wind_gusts":45.0,"aqi":61,"pm10":19.3,"pm2_5":13.0,"mosquito_risk":7,"arthritis_risk":0,"migraine_risk":4,"frizz_risk":1,"updated_at":"2026-04-28T19:47:45.883790+05:30"},{"city":"Tirupati","state":"Andhra Pradesh","latitude":13.6288,"longitude":79.4192,"temp":34.5,"humidity":34,"rain":0.0,"pressure":988.4,"uv_index":8.6,"wind_gusts":36.4,"aqi":102,"pm10":27.0,"pm2_5":23.9,"mosquito_risk":0,"arthritis_risk":5,"migraine_risk":7,"frizz_risk":1,"updated_at":"2026-04-28T19:47:45.883795+05:30"},{"city":"Warangal","state":"Telangana","latitude":17.9689,"longitude":79.5941,"temp":33.2,"humidity":45,"rain":0.0,"pressure":975.9,"uv_index":9.15,"wind_gusts":40.0,"aqi":150,"pm10":58.8,"pm2_5":48.9,"mosquito_risk":0,"arthritis_risk":5,"migraine_risk":7,"frizz_risk":1,"updated_at":"2026-04-28T19:47:45.883800+05:30"},{"city":"Nizamabad","state":"Telangana","latitude":18.6725,"longitude":78.0941,"temp":34.8,"humidity":24,"rain":0.0,"pressure":961.2,"uv_index":9.1,"wind_gusts":36.0,"aqi":147,"pm10":48.2,"pm2_5":38.3,"mosquito_risk":0,"arthritis_risk":5,"migraine_risk":7,"frizz_risk":0,"updated_at":"2026-04-28T19:47:45.883806+05:30"},{"city":"Mysore","state":"Karnataka","latitude":12.2958,"longitude":76.6396,"temp":29.8,"humidity":42,"rain":0.0,"pressure":927.1,"uv_index":8.35,"wind_gusts":38.5,"aqi":155,"pm10":57.4,"pm2_5":44.4,"mosquito_risk":4,"arthritis_risk":5,"migraine_risk":7,"frizz_risk":0,"updated_at":"2026-04-28T19:47:45.883812+05:30"},{"city":"Mangalore","state":"Karnataka","latitude":12.9141,"longitude":74.856,"temp":30.0,"humidity":73,"rain":0.0,"pressure":1005.5,"uv_index":8.7,"wind_gusts":42.8,"aqi":72,"pm10":32.4,"pm2_5":16.0,"mosquito_risk":7,"arthritis_risk":5,"migraine_risk":4,"frizz_risk":1,"updated_at":"2026-04-28T19:47:45.883818+05:30"},{"city":"Hubli-Dharwad","state":"Karnataka","latitude":15.3647,"longitude":75.124,"temp":28.0,"humidity":68,"rain":0.0,"pressure":939.4,"uv_index":9.2,"wind_gusts":38.2,"aqi":125,"pm10":41.7,"pm2_5":30.7,"mosquito_risk":7,"arthritis_risk":5,"migraine_risk":7,"frizz_risk":1,"updated_at":"2026-04-28T19:47:45.883824+05:30"},{"city":"Belgaum","state":"Karnataka","latitude":15.8497,"longitude":74.4977,"temp":26.1,"humidity":83,"rain":0.0,"pressure":924.5,"uv_index":9.25,"wind_gusts":36.0,"aqi":112,"pm10":32.9,"pm2_5":19.6,"mosquito_risk":7,"arthritis_risk":5,"migraine_risk":7,"frizz_risk":1,"updated_at":"2026-04-28T19:47:49.127204+05:30"},{"city":"Coimbatore","state":"Tamil Nadu","latitude":11.0168,"longitude":76.9558,"temp":29.0,"humidity":67,"rain":0.0,"pressure":960.0,"uv_index":8.2,"wind_gusts":49.0,"aqi":137,"pm10":29.3,"pm2_5":24.3,"mosquito_risk":7,"arthritis_risk":5,"migraine_risk":7,"frizz_risk":1,"updated_at":"2026-04-28T19:47:49.127237+05:30"},{"city":"Madurai","state":"Tamil Nadu","latitude":9.9252,"longitude":78.1198,"temp":31.8,"humidity":57,"rain":0.0,"pressure":991.2,"uv_index":9.2,"wind_gusts":41.4,"aqi":125,"pm10":16.6,"pm2_5":16.1,"mosquito_risk":0,"arthritis_risk":5,"migraine_risk":7,"frizz_risk":1,"updated_at":"2026-04-28T19:47:49.127247+05:30"},{"city":"Trichy","state":"Tamil Nadu","latitude":10.7905,"longitude":78.7047,"temp":32.9,"humidity":53,"rain":0.0,"pressure":997.3,"uv_index":8.25,"wind_gusts":43.2,"aqi":78,"pm10":10.3,"pm2_5":9.9,"mosquito_risk":0,"arthritis_risk":5,"migraine_risk":7,"frizz_risk":1,"updated_at":"2026-04-28T19:47:49.127255+05:30"},{"city":"Salem","state":"Tamil Nadu","latitude":11.6643,"longitude":78.146,"temp":35.0,"humidity":26,"rain":0.0,"pressure":974.7,"uv_index":8.25,"wind_gusts":26.6,"aqi":140,"pm10":22.4,"pm2_5":18.1,"mosquito_risk":0,"arthritis_risk":5,"migraine_risk":7,"frizz_risk":0,"updated_at":"2026-04-28T19:47:49.127262+05:30"},{"city":"Tirunelveli","state":"Tamil Nadu","latitude":8.7139,"longitude":77.7567,"temp":32.2,"humidity":55,"rain":0.0,"pressure":1001.3,"uv_index":9.15,"wind_gusts":43.9,"aqi":78,"pm10":15.1,"pm2_5":13.9,"mosquito_risk":0,"arthritis_risk":5,"migraine_risk":4,"frizz_risk":1,"updated_at":"2026-04-28T19:47:49.127270+05:30"},{"city":"Vellore","state":"Tamil Nadu","latitude":12.9165,"longitude":79.1325,"temp":34.0,"humidity":34,"rain":0.0,"pressure":982.2,"uv_index":8.35,"wind_gusts":37.8,"aqi":97,"pm10":29.7,"pm2_5":27.8,"mosquito_risk":0,"arthritis_risk":5,"migraine_risk":7,"frizz_risk":0,"updated_at":"2026-04-28T19:47:49.127277+05:30"},{"city":"Erode","state":"Tamil Nadu","latitude":11.341,"longitude":77.7172,"temp":36.1,"humidity":26,"rain":0.0,"pressure":986.1,"uv_index":8.35,"wind_gusts":36.4,"aqi":149,"pm10":28.6,"pm2_5":23.1,"mosquito_risk":0,"arthritis_risk":5,"migraine_risk":10,"frizz_risk":0,"updated_at":"2026-04-28T19:47:49.127283+05:30"},{"city":"Kochi","state":"Kerala","latitude":9.9312,"longitude":76.2673,"temp":29.4,"humidity":77,"rain":0.0,"pressure":1007.6,"uv_index":7.55,"wind_gusts":35.3,"aqi":72,"pm10":30.5,"pm2_5":26.4,"mosquito_risk":7,"arthritis_risk":5,"migraine_risk":4,"frizz_risk":1,"updated_at":"2026-04-28T19:47:49.127291+05:30"},{"city":"Thiruvananthapuram","state":"Kerala","latitude":8.5241,"longitude":76.9366,"temp":26.1,"humidity":92,"rain":0.0,"pressure":1007.3,"uv_index":7.7,"wind_gusts":29.9,"aqi":57,"pm10":14.6,"pm2_5":10.9,"mosquito_risk":7,"arthritis_risk":5,"migraine_risk":4,"frizz_risk":1,"updated_at":"2026-04-28T19:47:49.127297+05:30"},{"city":"Kozhikode","state":"Kerala","latitude":11.2588,"longitude":75.7804,"temp":28.3,"humidity":86,"rain":0.0,"pressure":1006.7,"uv_index":7.55,"wind_gusts":37.4,"aqi":63,"pm10":20.5,"pm2_5":14.8,"mosquito_risk":7,"arthritis_risk":5,"migraine_risk":4,"frizz_risk":1,"updated_at":"2026-04-28T19:47:49.127304+05:30"},{"city":"Thrissur","state":"Kerala","latitude":10.5276,"longitude":76.2144,"temp":27.1,"humidity":94,"rain":0.1,"pressure":1006.0,"uv_index":7.05,"wind_gusts":37.4,"aqi":72,"pm10":24.4,"pm2_5":21.8,"mosquito_risk":10,"arthritis_risk":5,"migraine_risk":4,"frizz_risk":1,"updated_at":"2026-04-28T19:47:49.127311+05:30"},{"city":"Kannur","state":"Kerala","latitude":11.8745,"longitude":75.3704,"temp":29.1,"humidity":80,"rain":0.0,"pressure":1006.0,"uv_index":7.3,"wind_gusts":45.0,"aqi":74,"pm10":31.0,"pm2_5":21.0,"mosquito_risk":7,"arthritis_risk":5,"migraine_risk":4,"frizz_risk":1,"updated_at":"2026-04-28T19:47:49.127319+05:30"},{"city":"Patna","state":"Bihar","latitude":25.5941,"longitude":85.1376,"temp":29.7,"humidity":67,"rain":0.0,"pressure":996.6,"uv_index":8.6,"wind_gusts":33.8,"aqi":175,"pm10":82.9,"pm2_5":55.9,"mosquito_risk":7,"arthritis_risk":5,"migraine_risk":7,"frizz_risk":1,"updated_at":"2026-04-28T19:47:49.127326+05:30"},{"city":"Gaya","state":"Bihar","latitude":24.7914,"longitude":85.0002,"temp":31.0,"humidity":58,"rain":0.0,"pressure":989.2,"uv_index":8.7,"wind_gusts":31.0,"aqi":167,"pm10":102.4,"pm2_5":56.5,"mosquito_risk":0,"arthritis_risk":5,"migraine_risk":7,"frizz_risk":1,"updated_at":"2026-04-28T19:47:49.127332+05:30"},{"city":"Muzaffarpur","state":"Bihar","latitude":26.1209,"longitude":85.3647,"temp":29.8,"humidity":62,"rain":0.0,"pressure":996.1,"uv_index":8.55,"wind_gusts":46.1,"aqi":162,"pm10":81.0,"pm2_5":54.6,"mosquito_risk":7,"arthritis_risk":5,"migraine_risk":7,"frizz_risk":1,"updated_at":"2026-04-28T19:47:49.127338+05:30"},{"city":"Bhagalpur","state":"Bihar","latitude":25.2425,"longitude":87.0117,"temp":28.0,"humidity":72,"rain":0.0,"pressure":997.9,"uv_index":8.55,"wind_gusts":35.3,"aqi":159,"pm10":58.6,"pm2_5":39.6,"mosquito_risk":7,"arthritis_risk":5,"migraine_risk":7,"frizz_risk":1,"updated_at":"2026-04-28T19:47:49.127345+05:30"},{"city":"Ranchi","state":"Jharkhand","latitude":23.3441,"longitude":85.3096,"temp":27.0,"humidity":50,"rain":0.0,"pressure":934.0,"uv_index":8.9,"wind_gusts":52.6,"aqi":102,"pm10":47.4,"pm2_5":24.7,"mosquito_risk":4,"arthritis_risk":5,"migraine_risk":7,"frizz_risk":0,"updated_at":"2026-04-28T19:47:49.127351+05:30"},{"city":"Jamshedpur","state":"Jharkhand","latitude":22.8046,"longitude":86.2029,"temp":33.5,"humidity":34,"rain":0.0,"pressure":986.9,"uv_index":8.8,"wind_gusts":37.8,"aqi":201,"pm10":34.1,"pm2_5":23.6,"mosquito_risk":0,"arthritis_risk":5,"migraine_risk":7,"frizz_risk":0,"updated_at":"2026-04-28T19:47:49.127357+05:30"},{"city":"Dhanbad","state":"Jharkhand","latitude":23.7957,"longitude":86.4304,"temp":26.8,"humidity":78,"rain":0.0,"pressure":976.4,"uv_index":8.75,"wind_gusts":37.8,"aqi":176,"pm10":85.4,"pm2_5":61.5,"mosquito_risk":7,"arthritis_risk":5,"migraine_risk":7,"frizz_risk":1,"updated_at":"2026-04-28T19:47:49.127364+05:30"},{"city":"Bokaro","state":"Jharkhand","latitude":23.6693,"longitude":86.1511,"temp":30.9,"humidity":54,"rain":0.0,"pressure":979.8,"uv_index":8.95,"wind_gusts":42.5,"aqi":201,"pm10":87.3,"pm2_5":51.3,"mosquito_risk":0,"arthritis_risk":5,"migraine_risk":7,"frizz_risk":1,"updated_at":"2026-04-28T19:47:49.127371+05:30"},{"city":"Bhubaneswar","state":"Odisha","latitude":20.2961,"longitude":85.8245,"temp":29.6,"humidity":74,"rain":0.0,"pressure":999.1,"uv_index":9.1,"wind_gusts":46.1,"aqi":80,"pm10":22.4,"pm2_5":18.7,"mosquito_risk":7,"arthritis_risk":5,"migraine_risk":7,"frizz_risk":1,"updated_at":"2026-04-28T19:47:49.127378+05:30"},{"city":"Cuttack","state":"Odisha","latitude":20.4625,"longitude":85.8828,"temp":29.9,"humidity":77,"rain":0.0,"pressure":1000.8,"uv_index":9.1,"wind_gusts":45.0,"aqi":80,"pm10":22.4,"pm2_5":18.7,"mosquito_risk":7,"arthritis_risk":5,"migraine_risk":4,"frizz_risk":1,"updated_at":"2026-04-28T19:47:49.127384+05:30"},{"city":"Rourkela","state":"Odisha","latitude":22.2604,"longitude":84.8536,"temp":34.5,"humidity":31,"rain":0.0,"pressure":980.8,"uv_index":8.4,"wind_gusts":49.3,"aqi":134,"pm10":29.0,"pm2_5":21.9,"mosquito_risk":0,"arthritis_risk":5,"migraine_risk":7,"frizz_risk":0,"updated_at":"2026-04-28T19:47:49.127390+05:30"},{"city":"Raipur","state":"Chhattisgarh","latitude":21.2514,"longitude":81.6296,"temp":33.9,"humidity":34,"rain":0.0,"pressure":970.2,"uv_index":8.9,"wind_gusts":52.6,"aqi":165,"pm10":41.0,"pm2_5":36.9,"mosquito_risk":0,"arthritis_risk":5,"migraine_risk":7,"frizz_risk":0,"updated_at":"2026-04-28T19:47:49.127396+05:30"},{"city":"Bhilai","state":"Chhattisgarh","latitude":21.1938,"longitude":81.3509,"temp":32.3,"humidity":39,"rain":0.0,"pressure":970.6,"uv_index":8.9,"wind_gusts":59.8,"aqi":154,"pm10":39.3,"pm2_5":34.8,"mosquito_risk":0,"arthritis_risk":5,"migraine_risk":7,"frizz_risk":1,"updated_at":"2026-04-28T19:47:49.127402+05:30"},{"city":"Guwahati","state":"Assam","latitude":26.1158,"longitude":91.7086,"temp":23.1,"humidity":99,"rain":0.1,"pressure":999.9,"uv_index":7.7,"wind_gusts":31.0,"aqi":71,"pm10":30.5,"pm2_5":23.9,"mosquito_risk":6,"arthritis_risk":5,"migraine_risk":7,"frizz_risk":1,"updated_at":"2026-04-28T19:47:49.127409+05:30"},{"city":"Agartala","state":"Tripura","latitude":23.8315,"longitude":91.2868,"temp":23.0,"humidity":99,"rain":0.0,"pressure":1004.8,"uv_index":4.35,"wind_gusts":45.0,"aqi":68,"pm10":40.0,"pm2_5":31.2,"mosquito_risk":3,"arthritis_risk":5,"migraine_risk":0,"frizz_risk":1,"updated_at":"2026-04-28T19:47:49.127415+05:30"},{"city":"Shillong","state":"Meghalaya","latitude":25.5788,"longitude":91.8933,"temp":16.6,"humidity":96,"rain":0.0,"pressure":854.6,"uv_index":8.85,"wind_gusts":37.1,"aqi":48,"pm10":6.2,"pm2_5":5.3,"mosquito_risk":3,"arthritis_risk":10,"migraine_risk":7,"frizz_risk":0,"updated_at":"2026-04-28T19:47:49.127421+05:30"},{"city":"Imphal","state":"Manipur","latitude":24.817,"longitude":93.9368,"temp":19.3,"humidity":93,"rain":0.1,"pressure":922.3,"uv_index":2.3,"wind_gusts":25.9,"aqi":86,"pm10":19.7,"pm2_5":17.6,"mosquito_risk":6,"arthritis_risk":10,"migraine_risk":3,"frizz_risk":1,"updated_at":"2026-04-28T19:47:49.127428+05:30"},{"city":"Aizawl","state":"Mizoram","latitude":23.7271,"longitude":92.7176,"temp":19.1,"humidity":82,"rain":0.0,"pressure":890.7,"uv_index":5.85,"wind_gusts":47.5,"aqi":82,"pm10":26.0,"pm2_5":17.9,"mosquito_risk":3,"arthritis_risk":10,"migraine_risk":3,"frizz_risk":0,"updated_at":"2026-04-28T19:47:49.127434+05:30"},{"city":"Kohima","state":"Nagaland","latitude":25.6701,"longitude":94.1077,"temp":18.1,"humidity":89,"rain":0.1,"pressure":854.2,"uv_index":8.45,"wind_gusts":30.2,"aqi":49,"pm10":8.0,"pm2_5":4.7,"mosquito_risk":6,"arthritis_risk":10,"migraine_risk":7,"frizz_risk":1,"updated_at":"2026-04-28T19:47:49.127440+05:30"},{"city":"Gangtok","state":"Sikkim","latitude":27.3314,"longitude":88.6138,"temp":14.4,"humidity":99,"rain":0.3,"pressure":834.8,"uv_index":8.45,"wind_gusts":43.6,"aqi":86,"pm10":27.9,"pm2_5":20.4,"mosquito_risk":6,"arthritis_risk":10,"migraine_risk":7,"frizz_risk":0,"updated_at":"2026-04-28T19:47:49.127446+05:30"},{"city":"Siliguri","state":"West Bengal","latitude":26.7271,"longitude":88.3953,"temp":22.7,"humidity":89,"rain":0.0,"pressure":991.3,"uv_index":8.0,"wind_gusts":33.1,"aqi":91,"pm10":46.6,"pm2_5":32.5,"mosquito_risk":3,"arthritis_risk":5,"migraine_risk":7,"frizz_risk":1,"updated_at":"2026-04-28T19:47:52.364854+05:30"},{"city":"Durgapur","state":"West Bengal","latitude":23.5204,"longitude":87.3119,"temp":26.8,"humidity":88,"rain":0.0,"pressure":991.6,"uv_index":8.85,"wind_gusts":31.7,"aqi":165,"pm10":81.0,"pm2_5":59.8,"mosquito_risk":7,"arthritis_risk":5,"migraine_risk":7,"frizz_risk":1,"updated_at":"2026-04-28T19:47:52.364887+05:30"},{"city":"Asansol","state":"West Bengal","latitude":23.6739,"longitude":86.9524,"temp":26.5,"humidity":84,"rain":0.0,"pressure":990.3,"uv_index":8.9,"wind_gusts":38.5,"aqi":166,"pm10":82.7,"pm2_5":62.4,"mosquito_risk":7,"arthritis_risk":5,"migraine_risk":7,"frizz_risk":1,"updated_at":"2026-04-28T19:47:52.364897+05:30"},{"city":"Pondicherry","state":"Puducherry","latitude":11.9139,"longitude":79.8145,"temp":30.0,"humidity":78,"rain":0.0,"pressure":1006.6,"uv_index":8.6,"wind_gusts":46.4,"aqi":60,"pm10":14.5,"pm2_5":10.6,"mosquito_risk":7,"arthritis_risk":5,"migraine_risk":4,"frizz_risk":1,"updated_at":"2026-04-28T19:47:52.364906+05:30"},{"city":"Port Blair","state":"Andaman and Nicobar Islands","latitude":11.6234,"longitude":92.7265,"temp":29.0,"humidity":78,"rain":0.0,"pressure":1006.8,"uv_index":9.1,"wind_gusts":32.0,"aqi":52,"pm10":13.9,"pm2_5":10.6,"mosquito_risk":7,"arthritis_risk":5,"migraine_risk":4,"frizz_risk":1,"updated_at":"2026-04-28T19:47:52.364914+05:30"},{"city":"Haridwar","state":"Uttarakhand","latitude":29.9457,"longitude":78.1642,"temp":26.0,"humidity":64,"rain":0.0,"pressure":969.3,"uv_index":7.0,"wind_gusts":32.0,"aqi":66,"pm10":60.5,"pm2_5":22.8,"mosquito_risk":7,"arthritis_risk":5,"migraine_risk":7,"frizz_risk":1,"updated_at":"2026-04-28T19:47:52.364921+05:30"},{"city":"Rishikesh","state":"Uttarakhand","latitude":30.0869,"longitude":78.2676,"temp":24.1,"humidity":70,"rain":0.0,"pressure":962.2,"uv_index":6.75,"wind_gusts":25.2,"aqi":77,"pm10":80.1,"pm2_5":20.5,"mosquito_risk":3,"arthritis_risk":5,"migraine_risk":7,"frizz_risk":1,"updated_at":"2026-04-28T19:47:52.364928+05:30"},{"city":"Nainital","state":"Uttarakhand","latitude":29.3919,"longitude":79.4542,"temp":15.3,"humidity":71,"rain":0.0,"pressure":802.6,"uv_index":7.8,"wind_gusts":54.4,"aqi":149,"pm10":76.1,"pm2_5":26.7,"mosquito_risk":3,"arthritis_risk":5,"migraine_risk":7,"frizz_risk":0,"updated_at":"2026-04-28T19:47:52.364936+05:30"},{"city":"Mussoorie","state":"Uttarakhand","latitude":30.4599,"longitude":78.0664,"temp":14.6,"humidity":71,"rain":0.0,"pressure":799.9,"uv_index":4.25,"wind_gusts":37.8,"aqi":70,"pm10":64.7,"pm2_5":20.1,"mosquito_risk":3,"arthritis_risk":5,"migraine_risk":3,"frizz_risk":0,"updated_at":"2026-04-28T19:47:52.364943+05:30"},{"city":"Dharamshala","state":"Himachal Pradesh","latitude":32.219,"longitude":76.3234,"temp":18.8,"humidity":66,"rain":0.0,"pressure":866.0,"uv_index":7.45,"wind_gusts":39.6,"aqi":81,"pm10":17.6,"pm2_5":10.8,"mosquito_risk":3,"arthritis_risk":5,"migraine_risk":7,"frizz_risk":0,"updated_at":"2026-04-28T19:47:52.364950+05:30"},{"city":"Dalhousie","state":"Himachal Pradesh","latitude":32.5387,"longitude":75.971,"temp":12.8,"humidity":94,"rain":0.0,"pressure":800.6,"uv_index":7.1,"wind_gusts":27.4,"aqi":87,"pm10":66.1,"pm2_5":30.3,"mosquito_risk":3,"arthritis_risk":10,"migraine_risk":7,"frizz_risk":0,"updated_at":"2026-04-28T19:47:52.364959+05:30"},{"city":"Patiala","state":"Punjab","latitude":30.3398,"longitude":76.3869,"temp":30.3,"humidity":37,"rain":0.0,"pressure":973.7,"uv_index":5.7,"wind_gusts":43.9,"aqi":244,"pm10":431.2,"pm2_5":53.7,"mosquito_risk":0,"arthritis_risk":5,"migraine_risk":3,"frizz_risk":0,"updated_at":"2026-04-28T19:47:52.364966+05:30"},{"city":"Bhatinda","state":"Punjab","latitude":30.211,"longitude":74.9455,"temp":32.5,"humidity":31,"rain":0.0,"pressure":978.7,"uv_index":7.3,"wind_gusts":40.7,"aqi":94,"pm10":59.4,"pm2_5":22.1,"mosquito_risk":0,"arthritis_risk":5,"migraine_risk":7,"frizz_risk":0,"updated_at":"2026-04-28T19:47:52.364973+05:30"},{"city":"Rohtak","state":"Haryana","latitude":28.8955,"longitude":76.6066,"temp":31.0,"humidity":37,"rain":0.0,"pressure":977.1,"uv_index":7.3,"wind_gusts":42.8,"aqi":788,"pm10":607.2,"pm2_5":86.8,"mosquito_risk":0,"arthritis_risk":5,"migraine_risk":7,"frizz_risk":0,"updated_at":"2026-04-28T19:47:52.364980+05:30"},{"city":"Panipat","state":"Haryana","latitude":29.3909,"longitude":76.9635,"temp":32.0,"humidity":30,"rain":0.0,"pressure":975.8,"uv_index":6.5,"wind_gusts":42.5,"aqi":1446,"pm10":1732.3,"pm2_5":182.1,"mosquito_risk":0,"arthritis_risk":5,"migraine_risk":7,"frizz_risk":0,"updated_at":"2026-04-28T19:47:52.364987+05:30"},{"city":"Mathura","state":"Uttar Pradesh","latitude":27.4924,"longitude":77.6737,"temp":32.7,"humidity":33,"rain":0.0,"pressure":981.5,"uv_index":7.75,"wind_gusts":41.4,"aqi":637,"pm10":402.3,"pm2_5":63.1,"mosquito_risk":0,"arthritis_risk":5,"migraine_risk":7,"frizz_risk":0,"updated_at":"2026-04-28T19:47:52.364993+05:30"},{"city":"Vrindavan","state":"Uttar Pradesh","latitude":27.5823,"longitude":77.7027,"temp":32.3,"humidity":35,"rain":0.0,"pressure":982.0,"uv_index":7.75,"wind_gusts":43.9,"aqi":637,"pm10":402.3,"pm2_5":63.1,"mosquito_risk":0,"arthritis_risk":5,"migraine_risk":7,"frizz_risk":0,"updated_at":"2026-04-28T19:47:52.364999+05:30"},{"city":"Ayodhya","state":"Uttar Pradesh","latitude":26.7922,"longitude":82.1998,"temp":32.6,"humidity":39,"rain":0.0,"pressure":989.1,"uv_index":8.1,"wind_gusts":37.8,"aqi":164,"pm10":137.8,"pm2_5":52.2,"mosquito_risk":0,"arthritis_risk":5,"migraine_risk":7,"frizz_risk":1,"updated_at":"2026-04-28T19:47:52.365006+05:30"},{"city":"Ratlam","state":"Madhya Pradesh","latitude":23.3315,"longitude":75.0367,"temp":31.5,"humidity":24,"rain":0.0,"pressure":950.8,"uv_index":8.45,"wind_gusts":50.0,"aqi":67,"pm10":24.6,"pm2_5":11.5,"mosquito_risk":0,"arthritis_risk":5,"migraine_risk":7,"frizz_risk":0,"updated_at":"2026-04-28T19:47:52.365011+05:30"},{"city":"Sagar","state":"Madhya Pradesh","latitude":23.8388,"longitude":78.7378,"temp":34.5,"humidity":13,"rain":0.0,"pressure":945.6,"uv_index":8.6,"wind_gusts":46.8,"aqi":100,"pm10":11.7,"pm2_5":9.3,"mosquito_risk":0,"arthritis_risk":5,"migraine_risk":7,"frizz_risk":0,"updated_at":"2026-04-28T19:47:52.365017+05:30"},{"city":"Satna","state":"Madhya Pradesh","latitude":24.6005,"longitude":80.8322,"temp":34.5,"humidity":25,"rain":0.0,"pressure":965.9,"uv_index":8.65,"wind_gusts":47.5,"aqi":105,"pm10":23.9,"pm2_5":13.7,"mosquito_risk":0,"arthritis_risk":5,"migraine_risk":7,"frizz_risk":0,"updated_at":"2026-04-28T19:47:52.365023+05:30"},{"city":"Akola","state":"Maharashtra","latitude":20.7002,"longitude":77.0082,"temp":37.9,"humidity":15,"rain":0.0,"pressure":970.8,"uv_index":8.85,"wind_gusts":40.3,"aqi":119,"pm10":21.5,"pm2_5":18.5,"mosquito_risk":0,"arthritis_risk":5,"migraine_risk":10,"frizz_risk":0,"updated_at":"2026-04-28T19:47:52.365029+05:30"},{"city":"Amravati","state":"Maharashtra","latitude":20.9374,"longitude":77.7796,"temp":36.4,"humidity":16,"rain":0.0,"pressure":963.2,"uv_index":8.85,"wind_gusts":50.0,"aqi":126,"pm10":20.5,"pm2_5":17.5,"mosquito_risk":0,"arthritis_risk":5,"migraine_risk":10,"frizz_risk":0,"updated_at":"2026-04-28T19:47:52.365036+05:30"},{"city":"Latur","state":"Maharashtra","latitude":18.4088,"longitude":76.5604,"temp":34.5,"humidity":20,"rain":0.0,"pressure":937.1,"uv_index":9.05,"wind_gusts":34.9,"aqi":119,"pm10":43.3,"pm2_5":32.2,"mosquito_risk":0,"arthritis_risk":5,"migraine_risk":7,"frizz_risk":0,"updated_at":"2026-04-28T19:47:52.365043+05:30"},{"city":"Nanded","state":"Maharashtra","latitude":19.1383,"longitude":77.3091,"temp":36.6,"humidity":18,"rain":0.0,"pressure":964.8,"uv_index":8.95,"wind_gusts":32.8,"aqi":123,"pm10":38.8,"pm2_5":29.9,"mosquito_risk":0,"arthritis_risk":5,"migraine_risk":10,"frizz_risk":0,"updated_at":"2026-04-28T19:47:52.365049+05:30"},{"city":"Gulbarga","state":"Karnataka","latitude":17.3297,"longitude":76.8343,"temp":35.8,"humidity":21,"rain":0.0,"pressure":955.8,"uv_index":9.1,"wind_gusts":33.5,"aqi":159,"pm10":34.6,"pm2_5":27.5,"mosquito_risk":0,"arthritis_risk":5,"migraine_risk":10,"frizz_risk":0,"updated_at":"2026-04-28T19:47:52.365054+05:30"},{"city":"Bidar","state":"Karnataka","latitude":17.9104,"longitude":77.5199,"temp":33.6,"humidity":22,"rain":0.0,"pressure":933.2,"uv_index":7.05,"wind_gusts":34.6,"aqi":149,"pm10":48.7,"pm2_5":39.6,"mosquito_risk":0,"arthritis_risk":5,"migraine_risk":7,"frizz_risk":0,"updated_at":"2026-04-28T19:47:52.365060+05:30"},{"city":"Hospet","state":"Karnataka","latitude":15.2689,"longitude":76.3909,"temp":31.9,"humidity":40,"rain":0.0,"pressure":954.7,"uv_index":9.25,"wind_gusts":36.4,"aqi":156,"pm10":47.1,"pm2_5":37.7,"mosquito_risk":0,"arthritis_risk":5,"migraine_risk":7,"frizz_risk":1,"updated_at":"2026-04-28T19:47:52.365066+05:30"},{"city":"Tirupur","state":"Tamil Nadu","latitude":11.1085,"longitude":77.3411,"temp":31.1,"humidity":60,"rain":0.0,"pressure":972.7,"uv_index":8.25,"wind_gusts":38.9,"aqi":155,"pm10":41.9,"pm2_5":32.6,"mosquito_risk":0,"arthritis_risk":5,"migraine_risk":7,"frizz_risk":1,"updated_at":"2026-04-28T19:47:52.365071+05:30"},{"city":"Alappuzha","state":"Kerala","latitude":9.4981,"longitude":76.3388,"temp":27.5,"humidity":92,"rain":0.0,"pressure":1007.7,"uv_index":7.65,"wind_gusts":33.8,"aqi":71,"pm10":30.0,"pm2_5":24.8,"mosquito_risk":7,"arthritis_risk":5,"migraine_risk":4,"frizz_risk":1,"updated_at":"2026-04-28T19:47:52.365078+05:30"},{"city":"Munnar","state":"Kerala","latitude":10.0889,"longitude":77.0595,"temp":18.8,"humidity":100,"rain":0.0,"pressure":856.5,"uv_index":8.75,"wind_gusts":27.7,"aqi":95,"pm10":31.0,"pm2_5":26.4,"mosquito_risk":3,"arthritis_risk":10,"migraine_risk":7,"frizz_risk":1,"updated_at":"2026-04-28T19:47:52.365084+05:30"},{"city":"Silchar","state":"Assam","latitude":24.8333,"longitude":92.7789,"temp":22.6,"humidity":95,"rain":0.0,"pressure":1004.2,"uv_index":1.95,"wind_gusts":34.2,"aqi":84,"pm10":20.7,"pm2_5":18.5,"mosquito_risk":3,"arthritis_risk":5,"migraine_risk":0,"frizz_risk":1,"updated_at":"2026-04-28T19:47:52.365091+05:30"},{"city":"Dibrugarh","state":"Assam","latitude":27.4728,"longitude":94.912,"temp":23.6,"humidity":85,"rain":0.0,"pressure":994.8,"uv_index":7.3,"wind_gusts":20.9,"aqi":104,"pm10":56.2,"pm2_5":45.8,"mosquito_risk":3,"arthritis_risk":5,"migraine_risk":7,"frizz_risk":1,"updated_at":"2026-04-28T19:47:52.365097+05:30"}]