[{"city":"Delhi","state":"Delhi","latitude":28.6139,"longitude":77.209,"temp":36.7,"humidity":41,"rain":0.0,"pressure":974.6,"uv_index":7.7,"wind_gusts":34.2,"aqi":626,"pm10":1214.4,"pm2_5":204.9,"no2":10.2,"co":238.0,"o3":122.0,"so2":10.0,"mosquito_risk":0,"arthritis_risk":5,"migraine_risk":10,"frizz_risk":1,"updated_at":"2026-07-18T16:35:56.737029+05:30"},{"city":"Mumbai","state":"Maharashtra","latitude":19.076,"longitude":72.8777,"temp":28.3,"humidity":79,"rain":0.0,"pressure":1005.2,"uv_index":6.05,"wind_gusts":46.4,"aqi":65,"pm10":29.3,"pm2_5":16.2,"no2":10.5,"co":186.0,"o3":53.0,"so2":6.2,"mosquito_risk":7,"arthritis_risk":5,"migraine_risk":4,"frizz_risk":1,"updated_at":"2026-07-18T16:35:56.737074+05:30"},{"city":"Bangalore","state":"Karnataka","latitude":12.9716,"longitude":77.5946,"temp":26.6,"humidity":59,"rain":0.0,"pressure":909.8,"uv_index":4.6,"wind_gusts":46.1,"aqi":42,"pm10":24.6,"pm2_5":13.9,"no2":13.8,"co":452.0,"o3":53.0,"so2":3.2,"mosquito_risk":4,"arthritis_risk":5,"migraine_risk":3,"frizz_risk":1,"updated_at":"2026-07-18T16:35:56.737088+05:30"},{"city":"Hyderabad","state":"Telangana","latitude":17.385,"longitude":78.4867,"temp":27.4,"humidity":71,"rain":0.0,"pressure":949.5,"uv_index":3.45,"wind_gusts":42.5,"aqi":56,"pm10":15.3,"pm2_5":10.2,"no2":10.4,"co":371.0,"o3":57.0,"so2":3.6,"mosquito_risk":7,"arthritis_risk":5,"migraine_risk":3,"frizz_risk":1,"updated_at":"2026-07-18T16:35:56.737095+05:30"},{"city":"Chennai","state":"Tamil Nadu","latitude":13.0827,"longitude":80.2707,"temp":29.2,"humidity":80,"rain":0.2,"pressure":1003.7,"uv_index":6.7,"wind_gusts":34.9,"aqi":68,"pm10":28.1,"pm2_5":19.2,"no2":16.0,"co":328.0,"o3":94.0,"so2":18.8,"mosquito_risk":10,"arthritis_risk":5,"migraine_risk":4,"frizz_risk":1,"updated_at":"2026-07-18T16:35:56.737103+05:30"},{"city":"Kolkata","state":"West Bengal","latitude":22.5726,"longitude":88.3639,"temp":30.7,"humidity":74,"rain":0.0,"pressure":998.4,"uv_index":8.15,"wind_gusts":38.9,"aqi":67,"pm10":12.7,"pm2_5":10.3,"no2":4.4,"co":430.0,"o3":107.0,"so2":5.0,"mosquito_risk":3,"arthritis_risk":5,"migraine_risk":7,"frizz_risk":1,"updated_at":"2026-07-18T16:35:56.737111+05:30"},{"city":"Pune","state":"Maharashtra","latitude":18.5204,"longitude":73.8567,"temp":25.6,"humidity":75,"rain":0.0,"pressure":945.1,"uv_index":8.05,"wind_gusts":45.7,"aqi":38,"pm10":14.0,"pm2_5":8.4,"no2":6.6,"co":149.0,"o3":47.0,"so2":5.0,"mosquito_risk":7,"arthritis_risk":5,"migraine_risk":7,"frizz_risk":1,"updated_at":"2026-07-18T16:35:56.737117+05:30"},{"city":"Ahmedabad","state":"Gujarat","latitude":23.0225,"longitude":72.5714,"temp":34.8,"humidity":47,"rain":0.3,"pressure":994.9,"uv_index":6.6,"wind_gusts":36.4,"aqi":72,"pm10":29.2,"pm2_5":13.0,"no2":2.4,"co":136.0,"o3":85.0,"so2":3.4,"mosquito_risk":3,"arthritis_risk":5,"migraine_risk":7,"frizz_risk":1,"updated_at":"2026-07-18T16:35:56.737123+05:30"},{"city":"Jaipur","state":"Rajasthan","latitude":26.9124,"longitude":75.7873,"temp":36.0,"humidity":42,"rain":0.0,"pressure":952.9,"uv_index":7.35,"wind_gusts":37.8,"aqi":193,"pm10":234.7,"pm2_5":45.6,"no2":1.3,"co":144.0,"o3":99.0,"so2":2.5,"mosquito_risk":0,"arthritis_risk":5,"migraine_risk":10,"frizz_risk":1,"updated_at":"2026-07-18T16:35:56.737130+05:30"},{"city":"Lucknow","state":"Uttar Pradesh","latitude":26.8467,"longitude":80.9462,"temp":31.0,"humidity":81,"rain":0.0,"pressure":985.5,"uv_index":7.05,"wind_gusts":26.6,"aqi":171,"pm10":185.8,"pm2_5":74.5,"no2":8.8,"co":339.0,"o3":141.0,"so2":7.4,"mosquito_risk":3,"arthritis_risk":5,"migraine_risk":7,"frizz_risk":1,"updated_at":"2026-07-18T16:35:56.737136+05:30"},{"city":"Kanpur","state":"Uttar Pradesh","latitude":26.4499,"longitude":80.3319,"temp":31.6,"humidity":77,"rain":0.0,"pressure":983.9,"uv_index":7.6,"wind_gusts":36.4,"aqi":167,"pm10":156.0,"pm2_5":59.6,"no2":7.2,"co":309.0,"o3":123.0,"so2":6.7,"mosquito_risk":3,"arthritis_risk":5,"migraine_risk":7,"frizz_risk":1,"updated_at":"2026-07-18T16:35:56.737142+05:30"},{"city":"Chandigarh","state":"Chandigarh","latitude":30.7333,"longitude":76.7794,"temp":34.7,"humidity":54,"rain":0.0,"pressure":960.3,"uv_index":7.7,"wind_gusts":30.2,"aqi":151,"pm10":142.5,"pm2_5":63.1,"no2":2.9,"co":425.0,"o3":168.0,"so2":12.3,"mosquito_risk":0,"arthritis_risk":5,"migraine_risk":7,"frizz_risk":1,"updated_at":"2026-07-18T16:35:56.737148+05:30"},{"city":"Srinagar","state":"Jammu and Kashmir","latitude":34.0837,"longitude":74.7973,"temp":35.0,"humidity":34,"rain":0.0,"pressure":838.1,"uv_index":9.05,"wind_gusts":22.7,"aqi":120,"pm10":22.6,"pm2_5":15.5,"no2":1.9,"co":312.0,"o3":147.0,"so2":2.7,"mosquito_risk":0,"arthritis_risk":5,"migraine_risk":7,"frizz_risk":1,"updated_at":"2026-07-18T16:35:56.737154+05:30"},{"city":"Jammu","state":"Jammu and Kashmir","latitude":32.7266,"longitude":74.857,"temp":30.4,"humidity":82,"rain":0.1,"pressure":964.2,"uv_index":8.4,"wind_gusts":27.0,"aqi":150,"pm10":92.9,"pm2_5":52.3,"no2":4.5,"co":292.0,"o3":139.0,"so2":4.8,"mosquito_risk":6,"arthritis_risk":5,"migraine_risk":7,"frizz_risk":1,"updated_at":"2026-07-18T16:35:56.737181+05:30"},{"city":"Amritsar","state":"Punjab","latitude":31.634,"longitude":74.8723,"temp":36.8,"humidity":48,"rain":0.0,"pressure":971.4,"uv_index":6.75,"wind_gusts":17.3,"aqi":169,"pm10":109.7,"pm2_5":52.4,"no2":5.2,"co":212.0,"o3":161.0,"so2":7.6,"mosquito_risk":0,"arthritis_risk":5,"migraine_risk":10,"frizz_risk":1,"updated_at":"2026-07-18T16:35:56.737186+05:30"},{"city":"Ludhiana","state":"Punjab","latitude":30.901,"longitude":75.8573,"temp":37.7,"humidity":41,"rain":0.0,"pressure":969.6,"uv_index":7.75,"wind_gusts":24.8,"aqi":174,"pm10":156.5,"pm2_5":61.2,"no2":3.6,"co":243.0,"o3":138.0,"so2":3.5,"mosquito_risk":0,"arthritis_risk":5,"migraine_risk":10,"frizz_risk":1,"updated_at":"2026-07-18T16:35:56.737194+05:30"},{"city":"Jalandhar","state":"Punjab","latitude":31.326,"longitude":75.5762,"temp":36.5,"humidity":48,"rain":0.0,"pressure":970.6,"uv_index":8.25,"wind_gusts":18.7,"aqi":173,"pm10":160.2,"pm2_5":64.0,"no2":4.9,"co":259.0,"o3":150.0,"so2":4.6,"mosquito_risk":0,"arthritis_risk":5,"migraine_risk":10,"frizz_risk":1,"updated_at":"2026-07-18T16:35:56.737200+05:30"},{"city":"Dehradun","state":"Uttarakhand","latitude":30.6284,"longitude":78.0322,"temp":21.3,"humidity":98,"rain":0.2,"pressure":826.6,"uv_index":7.15,"wind_gusts":25.9,"aqi":91,"pm10":51.1,"pm2_5":26.2,"no2":3.6,"co":268.0,"o3":133.0,"so2":5.2,"mosquito_risk":6,"arthritis_risk":5,"migraine_risk":7,"frizz_risk":1,"updated_at":"2026-07-18T16:35:56.737205+05:30"},{"city":"Shimla","state":"Himachal Pradesh","latitude":31.1048,"longitude":77.1734,"temp":21.5,"humidity":72,"rain":0.1,"pressure":783.0,"uv_index":7.4,"wind_gusts":42.8,"aqi":81,"pm10":87.8,"pm2_5":42.0,"no2":2.9,"co":199.0,"o3":128.0,"so2":8.4,"mosquito_risk":6,"arthritis_risk":5,"migraine_risk":7,"frizz_risk":1,"updated_at":"2026-07-18T16:35:56.737210+05:30"},{"city":"Manali","state":"Himachal Pradesh","latitude":32.2396,"longitude":77.1887,"temp":24.4,"humidity":86,"rain":0.0,"pressure":817.3,"uv_index":7.05,"wind_gusts":31.3,"aqi":59,"pm10":9.7,"pm2_5":6.2,"no2":0.9,"co":217.0,"o3":130.0,"so2":1.1,"mosquito_risk":3,"arthritis_risk":5,"migraine_risk":7,"frizz_risk":1,"updated_at":"2026-07-18T16:35:56.737218+05:30"},{"city":"Gurgaon","state":"Haryana","latitude":28.4595,"longitude":77.0266,"temp":36.8,"humidity":40,"rain":0.0,"pressure":973.2,"uv_index":7.75,"wind_gusts":38.5,"aqi":533,"pm10":905.2,"pm2_5":154.6,"no2":12.4,"co":246.0,"o3":112.0,"so2":7.6,"mosquito_risk":0,"arthritis_risk":5,"migraine_risk":10,"frizz_risk":1,"updated_at":"2026-07-18T16:35:56.737224+05:30"},{"city":"Noida","state":"Uttar Pradesh","latitude":28.5355,"longitude":77.391,"temp":36.0,"humidity":48,"rain":0.0,"pressure":975.8,"uv_index":7.7,"wind_gusts":30.6,"aqi":533,"pm10":905.2,"pm2_5":154.6,"no2":12.4,"co":393.0,"o3":112.0,"so2":7.6,"mosquito_risk":0,"arthritis_risk":5,"migraine_risk":10,"frizz_risk":1,"updated_at":"2026-07-18T16:35:56.737229+05:30"},{"city":"Ghaziabad","state":"Uttar Pradesh","latitude":28.6692,"longitude":77.4538,"temp":36.1,"humidity":46,"rain":0.0,"pressure":974.1,"uv_index":7.7,"wind_gusts":29.2,"aqi":564,"pm10":1013.3,"pm2_5":194.6,"no2":9.4,"co":224.0,"o3":133.0,"so2":12.5,"mosquito_risk":0,"arthritis_risk":5,"migraine_risk":10,"frizz_risk":1,"updated_at":"2026-07-18T16:35:56.737234+05:30"},{"city":"Faridabad","state":"Haryana","latitude":28.4089,"longitude":77.3178,"temp":36.6,"humidity":41,"rain":0.0,"pressure":975.3,"uv_index":7.6,"wind_gusts":38.9,"aqi":533,"pm10":905.2,"pm2_5":154.6,"no2":12.4,"co":218.0,"o3":112.0,"so2":7.6,"mosquito_risk":0,"arthritis_risk":5,"migraine_risk":10,"frizz_risk":1,"updated_at":"2026-07-18T16:35:56.737239+05:30"},{"city":"Meerut","state":"Uttar Pradesh","latitude":28.9845,"longitude":77.7064,"temp":35.0,"humidity":55,"rain":0.0,"pressure":972.8,"uv_index":7.6,"wind_gusts":27.0,"aqi":564,"pm10":1013.3,"pm2_5":194.6,"no2":9.4,"co":228.0,"o3":133.0,"so2":12.5,"mosquito_risk":0,"arthritis_risk":5,"migraine_risk":7,"frizz_risk":1,"updated_at":"2026-07-18T16:35:56.737244+05:30"},{"city":"Agra","state":"Uttar Pradesh","latitude":27.1767,"longitude":78.0081,"temp":37.2,"humidity":41,"rain":0.0,"pressure":979.6,"uv_index":7.6,"wind_gusts":40.0,"aqi":162,"pm10":250.5,"pm2_5":62.9,"no2":9.1,"co":131.0,"o3":100.0,"so2":3.8,"mosquito_risk":0,"arthritis_risk":5,"migraine_risk":10,"frizz_risk":1,"updated_at":"2026-07-18T16:35:56.737250+05:30"},{"city":"Varanasi","state":"Uttar Pradesh","latitude":25.3176,"longitude":82.9739,"temp":31.6,"humidity":76,"rain":0.2,"pressure":989.3,"uv_index":7.4,"wind_gusts":19.4,"aqi":128,"pm10":99.2,"pm2_5":49.4,"no2":7.8,"co":389.0,"o3":143.0,"so2":9.1,"mosquito_risk":6,"arthritis_risk":5,"migraine_risk":7,"frizz_risk":1,"updated_at":"2026-07-18T16:35:56.737256+05:30"},{"city":"Prayagraj","state":"Uttar Pradesh","latitude":25.4358,"longitude":81.8463,"temp":30.7,"humidity":84,"rain":0.1,"pressure":988.0,"uv_index":6.45,"wind_gusts":34.9,"aqi":150,"pm10":151.8,"pm2_5":60.8,"no2":5.6,"co":271.0,"o3":155.0,"so2":8.5,"mosquito_risk":6,"arthritis_risk":5,"migraine_risk":7,"frizz_risk":1,"updated_at":"2026-07-18T16:35:56.737261+05:30"},{"city":"Gorakhpur","state":"Uttar Pradesh","latitude":26.7606,"longitude":83.3732,"temp":32.0,"humidity":72,"rain":0.0,"pressure":989.1,"uv_index":7.85,"wind_gusts":26.3,"aqi":92,"pm10":17.6,"pm2_5":17.5,"no2":8.0,"co":316.0,"o3":110.0,"so2":4.3,"mosquito_risk":3,"arthritis_risk":5,"migraine_risk":7,"frizz_risk":1,"updated_at":"2026-07-18T16:35:56.737266+05:30"},{"city":"Bareilly","state":"Uttar Pradesh","latitude":28.367,"longitude":79.4304,"temp":32.4,"humidity":74,"rain":0.0,"pressure":978.5,"uv_index":5.65,"wind_gusts":29.9,"aqi":163,"pm10":203.5,"pm2_5":81.3,"no2":9.0,"co":345.0,"o3":127.0,"so2":10.3,"mosquito_risk":3,"arthritis_risk":5,"migraine_risk":3,"frizz_risk":1,"updated_at":"2026-07-18T16:35:56.737272+05:30"},{"city":"Aligarh","state":"Uttar Pradesh","latitude":27.8974,"longitude":78.088,"temp":35.2,"humidity":54,"rain":0.0,"pressure":977.4,"uv_index":6.85,"wind_gusts":27.4,"aqi":275,"pm10":722.7,"pm2_5":151.8,"no2":9.3,"co":208.0,"o3":121.0,"so2":8.5,"mosquito_risk":0,"arthritis_risk":5,"migraine_risk":10,"frizz_risk":1,"updated_at":"2026-07-18T16:35:56.737277+05:30"},{"city":"Moradabad","state":"Uttar Pradesh","latitude":28.8386,"longitude":78.7733,"temp":33.2,"humidity":69,"rain":0.0,"pressure":975.2,"uv_index":7.25,"wind_gusts":34.2,"aqi":177,"pm10":215.1,"pm2_5":91.0,"no2":11.8,"co":300.0,"o3":151.0,"so2":12.6,"mosquito_risk":3,"arthritis_risk":5,"migraine_risk":7,"frizz_risk":1,"updated_at":"2026-07-18T16:35:56.737282+05:30"},{"city":"Saharanpur","state":"Uttar Pradesh","latitude":29.9637,"longitude":77.546,"temp":34.3,"humidity":59,"rain":0.0,"pressure":966.9,"uv_index":7.25,"wind_gusts":32.8,"aqi":183,"pm10":355.8,"pm2_5":104.3,"no2":4.8,"co":372.0,"o3":153.0,"so2":12.3,"mosquito_risk":0,"arthritis_risk":5,"migraine_risk":7,"frizz_risk":1,"updated_at":"2026-07-18T16:35:56.737288+05:30"},{"city":"Jhansi","state":"Uttar Pradesh","latitude":25.4484,"longitude":78.5685,"temp":35.7,"humidity":48,"rain":0.0,"pressure":970.3,"uv_index":7.0,"wind_gusts":43.6,"aqi":97,"pm10":63.3,"pm2_5":25.9,"no2":1.8,"co":130.0,"o3":102.0,"so2":3.8,"mosquito_risk":0,"arthritis_risk":5,"migraine_risk":10,"frizz_risk":1,"updated_at":"2026-07-18T16:36:00.132050+05:30"},{"city":"Surat","state":"Gujarat","latitude":21.1702,"longitude":72.8311,"temp":29.8,"humidity":75,"rain":0.0,"pressure":1001.5,"uv_index":7.35,"wind_gusts":43.2,"aqi":73,"pm10":26.7,"pm2_5":18.2,"no2":14.1,"co":243.0,"o3":45.0,"so2":34.1,"mosquito_risk":7,"arthritis_risk":5,"migraine_risk":4,"frizz_risk":1,"updated_at":"2026-07-18T16:36:00.132084+05:30"},{"city":"Vadodara","state":"Gujarat","latitude":22.3072,"longitude":73.1812,"temp":33.5,"humidity":56,"rain":0.0,"pressure":998.0,"uv_index":5.75,"wind_gusts":41.0,"aqi":68,"pm10":40.4,"pm2_5":19.6,"no2":4.5,"co":160.0,"o3":90.0,"so2":7.0,"mosquito_risk":0,"arthritis_risk":5,"migraine_risk":3,"frizz_risk":1,"updated_at":"2026-07-18T16:36:00.132092+05:30"},{"city":"Rajkot","state":"Gujarat","latitude":22.3039,"longitude":70.8022,"temp":33.0,"humidity":53,"rain":0.1,"pressure":987.9,"uv_index":6.05,"wind_gusts":47.2,"aqi":61,"pm10":32.9,"pm2_5":15.7,"no2":1.8,"co":102.0,"o3":74.0,"so2":4.2,"mosquito_risk":3,"arthritis_risk":5,"migraine_risk":7,"frizz_risk":1,"updated_at":"2026-07-18T16:36:00.132100+05:30"},{"city":"Thane","state":"Maharashtra","latitude":19.2183,"longitude":72.9781,"temp":27.6,"humidity":80,"rain":0.2,"pressure":1004.7,"uv_index":6.5,"wind_gusts":35.6,"aqi":65,"pm10":29.3,"pm2_5":16.2,"no2":10.5,"co":183.0,"o3":53.0,"so2":6.2,"mosquito_risk":10,"arthritis_risk":5,"migraine_risk":4,"frizz_risk":1,"updated_at":"2026-07-18T16:36:00.132106+05:30"},{"city":"Nagpur","state":"Maharashtra","latitude":21.1458,"longitude":79.0882,"temp":28.1,"humidity":82,"rain":0.1,"pressure":967.6,"uv_index":1.1,"wind_gusts":34.6,"aqi":73,"pm10":18.9,"pm2_5":14.7,"no2":10.7,"co":265.0,"o3":61.0,"so2":9.9,"mosquito_risk":10,"arthritis_risk":5,"migraine_risk":3,"frizz_risk":1,"updated_at":"2026-07-18T16:36:00.132112+05:30"},{"city":"Nashik","state":"Maharashtra","latitude":19.9975,"longitude":73.7898,"temp":23.8,"humidity":93,"rain":0.2,"pressure":941.7,"uv_index":6.6,"wind_gusts":43.9,"aqi":36,"pm10":13.4,"pm2_5":7.2,"no2":3.4,"co":127.0,"o3":50.0,"so2":1.1,"mosquito_risk":6,"arthritis_risk":5,"migraine_risk":7,"frizz_risk":1,"updated_at":"2026-07-18T16:36:00.132118+05:30"},{"city":"Aurangabad","state":"Maharashtra","latitude":19.8762,"longitude":75.3433,"temp":25.7,"humidity":83,"rain":0.0,"pressure":940.3,"uv_index":7.0,"wind_gusts":40.7,"aqi":43,"pm10":12.3,"pm2_5":7.6,"no2":5.7,"co":147.0,"o3":63.0,"so2":3.6,"mosquito_risk":7,"arthritis_risk":5,"migraine_risk":7,"frizz_risk":1,"updated_at":"2026-07-18T16:36:00.132124+05:30"},{"city":"Solapur","state":"Maharashtra","latitude":17.6599,"longitude":75.9064,"temp":28.1,"humidity":66,"rain":0.1,"pressure":953.9,"uv_index":3.15,"wind_gusts":34.9,"aqi":45,"pm10":14.4,"pm2_5":7.3,"no2":3.1,"co":129.0,"o3":59.0,"so2":2.2,"mosquito_risk":10,"arthritis_risk":5,"migraine_risk":3,"frizz_risk":1,"updated_at":"2026-07-18T16:36:00.132130+05:30"},{"city":"Kolhapur","state":"Maharashtra","latitude":16.705,"longitude":74.2433,"temp":24.8,"humidity":81,"rain":0.1,"pressure":945.8,"uv_index":4.4,"wind_gusts":45.4,"aqi":37,"pm10":10.1,"pm2_5":6.7,"no2":4.7,"co":125.0,"o3":47.0,"so2":1.9,"mosquito_risk":6,"arthritis_risk":5,"migraine_risk":3,"frizz_risk":1,"updated_at":"2026-07-18T16:36:00.132136+05:30"},{"city":"Goa","state":"Goa","latitude":15.2993,"longitude":74.124,"temp":27.2,"humidity":87,"rain":0.0,"pressure":996.9,"uv_index":7.3,"wind_gusts":32.0,"aqi":65,"pm10":21.4,"pm2_5":12.4,"no2":2.5,"co":139.0,"o3":51.0,"so2":1.5,"mosquito_risk":7,"arthritis_risk":5,"migraine_risk":7,"frizz_risk":1,"updated_at":"2026-07-18T16:36:00.132143+05:30"},{"city":"Jodhpur","state":"Rajasthan","latitude":26.2389,"longitude":73.0243,"temp":36.0,"humidity":39,"rain":0.0,"pressure":975.3,"uv_index":8.4,"wind_gusts":45.4,"aqi":128,"pm10":214.2,"pm2_5":42.4,"no2":1.0,"co":109.0,"o3":79.0,"so2":1.5,"mosquito_risk":0,"arthritis_risk":5,"migraine_risk":10,"frizz_risk":1,"updated_at":"2026-07-18T16:36:00.132148+05:30"},{"city":"Udaipur","state":"Rajasthan","latitude":24.5854,"longitude":73.7125,"temp":31.6,"humidity":49,"rain":0.0,"pressure":940.6,"uv_index":7.75,"wind_gusts":36.4,"aqi":77,"pm10":38.4,"pm2_5":15.8,"no2":0.9,"co":114.0,"o3":82.0,"so2":2.2,"mosquito_risk":0,"arthritis_risk":5,"migraine_risk":7,"frizz_risk":1,"updated_at":"2026-07-18T16:36:00.132154+05:30"},{"city":"Kota","state":"Rajasthan","latitude":25.2138,"longitude":75.8648,"temp":36.3,"humidity":43,"rain":0.0,"pressure":971.4,"uv_index":8.3,"wind_gusts":32.4,"aqi":89,"pm10":57.5,"pm2_5":27.8,"no2":1.8,"co":126.0,"o3":118.0,"so2":6.0,"mosquito_risk":0,"arthritis_risk":5,"migraine_risk":10,"frizz_risk":1,"updated_at":"2026-07-18T16:36:00.132161+05:30"},{"city":"Bikaner","state":"Rajasthan","latitude":28.0229,"longitude":73.3119,"temp":38.8,"humidity":32,"rain":0.0,"pressure":973.0,"uv_index":8.35,"wind_gusts":37.8,"aqi":116,"pm10":109.0,"pm2_5":37.8,"no2":0.4,"co":110.0,"o3":82.0,"so2":2.2,"mosquito_risk":0,"arthritis_risk":5,"migraine_risk":10,"frizz_risk":1,"updated_at":"2026-07-18T16:36:00.132167+05:30"},{"city":"Ajmer","state":"Rajasthan","latitude":26.4499,"longitude":74.6399,"temp":33.3,"humidity":45,"rain":0.0,"pressure":948.0,"uv_index":7.95,"wind_gusts":43.2,"aqi":77,"pm10":56.1,"pm2_5":24.9,"no2":1.1,"co":115.0,"o3":89.0,"so2":2.1,"mosquito_risk":0,"arthritis_risk":5,"migraine_risk":7,"frizz_risk":1,"updated_at":"2026-07-18T16:36:00.132173+05:30"},{"city":"Gwalior","state":"Madhya Pradesh","latitude":26.2183,"longitude":78.1828,"temp":36.5,"humidity":43,"rain":0.0,"pressure":975.3,"uv_index":3.4,"wind_gusts":37.1,"aqi":112,"pm10":86.4,"pm2_5":30.6,"no2":3.6,"co":137.0,"o3":90.0,"so2":2.0,"mosquito_risk":0,"arthritis_risk":5,"migraine_risk":6,"frizz_risk":1,"updated_at":"2026-07-18T16:36:00.132179+05:30"},{"city":"Indore","state":"Madhya Pradesh","latitude":22.7196,"longitude":75.8577,"temp":30.8,"humidity":55,"rain":0.0,"pressure":943.0,"uv_index":6.1,"wind_gusts":38.2,"aqi":72,"pm10":39.3,"pm2_5":20.8,"no2":5.2,"co":205.0,"o3":80.0,"so2":3.9,"mosquito_risk":0,"arthritis_risk":5,"migraine_risk":7,"frizz_risk":1,"updated_at":"2026-07-18T16:36:00.132184+05:30"},{"city":"Bhopal","state":"Madhya Pradesh","latitude":23.2599,"longitude":77.4126,"temp":28.9,"humidity":72,"rain":0.0,"pressure":947.8,"uv_index":6.5,"wind_gusts":38.5,"aqi":85,"pm10":56.1,"pm2_5":27.2,"no2":2.7,"co":216.0,"o3":96.0,"so2":4.0,"mosquito_risk":7,"arthritis_risk":5,"migraine_risk":7,"frizz_risk":1,"updated_at":"2026-07-18T16:36:00.132190+05:30"},{"city":"Jabalpur","state":"Madhya Pradesh","latitude":23.1815,"longitude":79.9864,"temp":27.8,"humidity":83,"rain":0.0,"pressure":955.2,"uv_index":8.2,"wind_gusts":34.9,"aqi":87,"pm10":44.1,"pm2_5":27.5,"no2":5.0,"co":232.0,"o3":103.0,"so2":5.1,"mosquito_risk":7,"arthritis_risk":5,"migraine_risk":7,"frizz_risk":1,"updated_at":"2026-07-18T16:36:00.132196+05:30"},{"city":"Ujjain","state":"Madhya Pradesh","latitude":23.1765,"longitude":75.7885,"temp":31.0,"humidity":60,"rain":0.0,"pressure":948.3,"uv_index":7.2,"wind_gusts":36.4,"aqi":74,"pm10":53.0,"pm2_5":24.3,"no2":1.6,"co":159.0,"o3":91.0,"so2":4.1,"mosquito_risk":0,"arthritis_risk":5,"migraine_risk":7,"frizz_risk":1,"updated_at":"2026-07-18T16:36:00.132202+05:30"},{"city":"Visakhapatnam","state":"Andhra Pradesh","latitude":17.6868,"longitude":83.2185,"temp":30.7,"humidity":77,"rain":0.2,"pressure":996.6,"uv_index":5.6,"wind_gusts":39.6,"aqi":84,"pm10":28.5,"pm2_5":20.8,"no2":12.3,"co":313.0,"o3":115.0,"so2":24.4,"mosquito_risk":6,"arthritis_risk":5,"migraine_risk":3,"frizz_risk":1,"updated_at":"2026-07-18T16:36:00.132207+05:30"},{"city":"Vijayawada","state":"Andhra Pradesh","latitude":16.5062,"longitude":80.648,"temp":32.7,"humidity":57,"rain":0.0,"pressure":996.8,"uv_index":4.8,"wind_gusts":38.9,"aqi":70,"pm10":27.0,"pm2_5":15.2,"no2":3.1,"co":162.0,"o3":89.0,"so2":3.9,"mosquito_risk":0,"arthritis_risk":5,"migraine_risk":3,"frizz_risk":1,"updated_at":"2026-07-18T16:36:00.132213+05:30"},{"city":"Guntur","state":"Andhra Pradesh","latitude":16.3067,"longitude":80.4365,"temp":33.7,"humidity":53,"rain":0.0,"pressure":998.2,"uv_index":3.8,"wind_gusts":43.6,"aqi":68,"pm10":29.9,"pm2_5":15.6,"no2":2.5,"co":173.0,"o3":85.0,"so2":3.2,"mosquito_risk":0,"arthritis_risk":5,"migraine_risk":3,"frizz_risk":1,"updated_at":"2026-07-18T16:36:00.132219+05:30"},{"city":"Nellore","state":"Andhra Pradesh","latitude":14.4426,"longitude":79.9865,"temp":33.5,"humidity":49,"rain":0.0,"pressure":1001.0,"uv_index":2.55,"wind_gusts":42.8,"aqi":57,"pm10":18.7,"pm2_5":10.4,"no2":3.5,"co":118.0,"o3":76.0,"so2":4.9,"mosquito_risk":0,"arthritis_risk":5,"migraine_risk":0,"frizz_risk":1,"updated_at":"2026-07-18T16:36:00.132225+05:30"},{"city":"Kurnool","state":"Andhra Pradesh","latitude":15.8281,"longitude":78.0373,"temp":29.7,"humidity":65,"rain":0.0,"pressure":973.3,"uv_index":4.85,"wind_gusts":42.8,"aqi":53,"pm10":34.0,"pm2_5":15.9,"no2":6.1,"co":133.0,"o3":66.0,"so2":11.3,"mosquito_risk":7,"arthritis_risk":5,"migraine_risk":3,"frizz_risk":1,"updated_at":"2026-07-18T16:36:00.132232+05:30"},{"city":"Kakinada","state":"Andhra Pradesh","latitude":16.9891,"longitude":82.2475,"temp":31.2,"humidity":67,"rain":0.1,"pressure":1000.9,"uv_index":7.65,"wind_gusts":47.2,"aqi":75,"pm10":23.3,"pm2_5":15.6,"no2":3.0,"co":185.0,"o3":126.0,"so2":4.5,"mosquito_risk":6,"arthritis_risk":5,"migraine_risk":4,"frizz_risk":1,"updated_at":"2026-07-18T16:36:00.132237+05:30"},{"city":"Tirupati","state":"Andhra Pradesh","latitude":13.6288,"longitude":79.4192,"temp":31.7,"humidity":53,"rain":0.0,"pressure":987.1,"uv_index":3.9,"wind_gusts":38.9,"aqi":57,"pm10":17.9,"pm2_5":10.5,"no2":8.5,"co":235.0,"o3":60.0,"so2":1.9,"mosquito_risk":0,"arthritis_risk":5,"migraine_risk":3,"frizz_risk":1,"updated_at":"2026-07-18T16:36:00.132243+05:30"},{"city":"Warangal","state":"Telangana","latitude":17.9689,"longitude":79.5941,"temp":27.8,"humidity":82,"rain":0.1,"pressure":973.8,"uv_index":4.15,"wind_gusts":38.2,"aqi":68,"pm10":21.6,"pm2_5":14.2,"no2":2.9,"co":174.0,"o3":84.0,"so2":3.1,"mosquito_risk":10,"arthritis_risk":5,"migraine_risk":3,"frizz_risk":1,"updated_at":"2026-07-18T16:36:00.132248+05:30"},{"city":"Nizamabad","state":"Telangana","latitude":18.6725,"longitude":78.0941,"temp":24.7,"humidity":96,"rain":0.2,"pressure":960.9,"uv_index":1.1,"wind_gusts":42.1,"aqi":66,"pm10":35.6,"pm2_5":16.5,"no2":2.0,"co":167.0,"o3":81.0,"so2":4.3,"mosquito_risk":6,"arthritis_risk":5,"migraine_risk":3,"frizz_risk":1,"updated_at":"2026-07-18T16:36:00.132254+05:30"},{"city":"Mysore","state":"Karnataka","latitude":12.2958,"longitude":76.6396,"temp":28.6,"humidity":52,"rain":0.0,"pressure":926.9,"uv_index":3.35,"wind_gusts":50.0,"aqi":33,"pm10":16.1,"pm2_5":8.3,"no2":4.1,"co":147.0,"o3":68.0,"so2":1.7,"mosquito_risk":4,"arthritis_risk":5,"migraine_risk":3,"frizz_risk":1,"updated_at":"2026-07-18T16:36:00.132259+05:30"},{"city":"Mangalore","state":"Karnataka","latitude":12.9141,"longitude":74.856,"temp":25.4,"humidity":91,"rain":0.2,"pressure":1006.8,"uv_index":4.25,"wind_gusts":40.0,"aqi":58,"pm10":20.9,"pm2_5":11.3,"no2":1.4,"co":104.0,"o3":56.0,"so2":1.5,"mosquito_risk":10,"arthritis_risk":5,"migraine_risk":0,"frizz_risk":1,"updated_at":"2026-07-18T16:36:00.132264+05:30"},{"city":"Hubli-Dharwad","state":"Karnataka","latitude":15.3647,"longitude":75.124,"temp":25.2,"humidity":76,"rain":0.0,"pressure":938.8,"uv_index":7.95,"wind_gusts":49.7,"aqi":24,"pm10":10.2,"pm2_5":6.0,"no2":3.3,"co":122.0,"o3":50.0,"so2":1.1,"mosquito_risk":7,"arthritis_risk":5,"migraine_risk":7,"frizz_risk":1,"updated_at":"2026-07-18T16:36:00.132270+05:30"},{"city":"Belgaum","state":"Karnataka","latitude":15.8497,"longitude":74.4977,"temp":24.2,"humidity":79,"rain":0.0,"pressure":923.9,"uv_index":7.0,"wind_gusts":48.6,"aqi":24,"pm10":6.8,"pm2_5":4.0,"no2":3.4,"co":110.0,"o3":46.0,"so2":1.2,"mosquito_risk":3,"arthritis_risk":5,"migraine_risk":7,"frizz_risk":1,"updated_at":"2026-07-18T16:36:03.500809+05:30"},{"city":"Coimbatore","state":"Tamil Nadu","latitude":11.0168,"longitude":76.9558,"temp":29.2,"humidity":61,"rain":0.0,"pressure":959.9,"uv_index":7.0,"wind_gusts":44.6,"aqi":43,"pm10":15.0,"pm2_5":8.3,"no2":4.3,"co":158.0,"o3":60.0,"so2":1.9,"mosquito_risk":7,"arthritis_risk":5,"migraine_risk":7,"frizz_risk":1,"updated_at":"2026-07-18T16:36:03.500841+05:30"},{"city":"Madurai","state":"Tamil Nadu","latitude":9.9252,"longitude":78.1198,"temp":33.4,"humidity":48,"rain":0.0,"pressure":990.6,"uv_index":7.7,"wind_gusts":30.6,"aqi":64,"pm10":30.7,"pm2_5":11.7,"no2":3.5,"co":222.0,"o3":83.0,"so2":1.9,"mosquito_risk":0,"arthritis_risk":5,"migraine_risk":7,"frizz_risk":1,"updated_at":"2026-07-18T16:36:03.500850+05:30"},{"city":"Trichy","state":"Tamil Nadu","latitude":10.7905,"longitude":78.7047,"temp":36.6,"humidity":33,"rain":0.0,"pressure":996.1,"uv_index":7.25,"wind_gusts":54.7,"aqi":53,"pm10":21.0,"pm2_5":10.1,"no2":2.2,"co":137.0,"o3":82.0,"so2":2.0,"mosquito_risk":0,"arthritis_risk":5,"migraine_risk":10,"frizz_risk":1,"updated_at":"2026-07-18T16:36:03.500858+05:30"},{"city":"Salem","state":"Tamil Nadu","latitude":11.6643,"longitude":78.146,"temp":31.2,"humidity":53,"rain":0.1,"pressure":974.7,"uv_index":6.8,"wind_gusts":34.9,"aqi":65,"pm10":27.4,"pm2_5":12.9,"no2":6.8,"co":180.0,"o3":75.0,"so2":4.6,"mosquito_risk":3,"arthritis_risk":5,"migraine_risk":7,"frizz_risk":1,"updated_at":"2026-07-18T16:36:03.500865+05:30"},{"city":"Tirunelveli","state":"Tamil Nadu","latitude":8.7139,"longitude":77.7567,"temp":34.2,"humidity":44,"rain":0.0,"pressure":1001.2,"uv_index":8.7,"wind_gusts":54.0,"aqi":51,"pm10":20.0,"pm2_5":17.2,"no2":2.9,"co":112.0,"o3":85.0,"so2":1.8,"mosquito_risk":0,"arthritis_risk":5,"migraine_risk":4,"frizz_risk":1,"updated_at":"2026-07-18T16:36:03.500872+05:30"},{"city":"Vellore","state":"Tamil Nadu","latitude":12.9165,"longitude":79.1325,"temp":27.7,"humidity":84,"rain":0.1,"pressure":981.0,"uv_index":7.4,"wind_gusts":41.4,"aqi":52,"pm10":46.8,"pm2_5":19.6,"no2":11.4,"co":165.0,"o3":60.0,"so2":2.6,"mosquito_risk":10,"arthritis_risk":5,"migraine_risk":7,"frizz_risk":1,"updated_at":"2026-07-18T16:36:03.500878+05:30"},{"city":"Erode","state":"Tamil Nadu","latitude":11.341,"longitude":77.7172,"temp":33.0,"humidity":46,"rain":0.0,"pressure":986.5,"uv_index":6.35,"wind_gusts":39.2,"aqi":56,"pm10":23.8,"pm2_5":11.4,"no2":5.0,"co":163.0,"o3":78.0,"so2":2.1,"mosquito_risk":0,"arthritis_risk":5,"migraine_risk":7,"frizz_risk":1,"updated_at":"2026-07-18T16:36:03.500885+05:30"},{"city":"Kochi","state":"Kerala","latitude":9.9312,"longitude":76.2673,"temp":28.2,"humidity":78,"rain":0.0,"pressure":1008.6,"uv_index":7.7,"wind_gusts":42.5,"aqi":58,"pm10":12.8,"pm2_5":7.5,"no2":3.6,"co":116.0,"o3":57.0,"so2":2.3,"mosquito_risk":7,"arthritis_risk":0,"migraine_risk":4,"frizz_risk":1,"updated_at":"2026-07-18T16:36:03.500891+05:30"},{"city":"Thiruvananthapuram","state":"Kerala","latitude":8.5241,"longitude":76.9366,"temp":28.1,"humidity":76,"rain":0.0,"pressure":1008.1,"uv_index":8.5,"wind_gusts":48.2,"aqi":61,"pm10":18.0,"pm2_5":10.7,"no2":2.6,"co":99.0,"o3":65.0,"so2":1.0,"mosquito_risk":7,"arthritis_risk":0,"migraine_risk":4,"frizz_risk":1,"updated_at":"2026-07-18T16:36:03.500897+05:30"},{"city":"Kozhikode","state":"Kerala","latitude":11.2588,"longitude":75.7804,"temp":28.5,"humidity":76,"rain":0.0,"pressure":1007.3,"uv_index":7.65,"wind_gusts":36.0,"aqi":54,"pm10":15.4,"pm2_5":8.1,"no2":0.8,"co":96.0,"o3":62.0,"so2":1.1,"mosquito_risk":7,"arthritis_risk":5,"migraine_risk":4,"frizz_risk":1,"updated_at":"2026-07-18T16:36:03.500902+05:30"},{"city":"Thrissur","state":"Kerala","latitude":10.5276,"longitude":76.2144,"temp":28.5,"humidity":75,"rain":0.0,"pressure":1006.8,"uv_index":7.25,"wind_gusts":38.5,"aqi":59,"pm10":10.9,"pm2_5":6.7,"no2":3.4,"co":106.0,"o3":54.0,"so2":1.6,"mosquito_risk":7,"arthritis_risk":5,"migraine_risk":4,"frizz_risk":1,"updated_at":"2026-07-18T16:36:03.500908+05:30"},{"city":"Kannur","state":"Kerala","latitude":11.8745,"longitude":75.3704,"temp":27.2,"humidity":84,"rain":0.0,"pressure":1006.9,"uv_index":7.65,"wind_gusts":33.1,"aqi":54,"pm10":19.8,"pm2_5":11.2,"no2":1.5,"co":106.0,"o3":62.0,"so2":1.3,"mosquito_risk":7,"arthritis_risk":5,"migraine_risk":4,"frizz_risk":1,"updated_at":"2026-07-18T16:36:03.500914+05:30"},{"city":"Patna","state":"Bihar","latitude":25.5941,"longitude":85.1376,"temp":32.4,"humidity":72,"rain":0.0,"pressure":991.6,"uv_index":6.7,"wind_gusts":26.3,"aqi":83,"pm10":21.0,"pm2_5":20.8,"no2":8.4,"co":379.0,"o3":130.0,"so2":8.9,"mosquito_risk":3,"arthritis_risk":5,"migraine_risk":7,"frizz_risk":1,"updated_at":"2026-07-18T16:36:03.500920+05:30"},{"city":"Gaya","state":"Bihar","latitude":24.7914,"longitude":85.0002,"temp":31.3,"humidity":77,"rain":0.1,"pressure":985.4,"uv_index":5.4,"wind_gusts":22.0,"aqi":113,"pm10":30.5,"pm2_5":29.7,"no2":4.1,"co":307.0,"o3":164.0,"so2":9.4,"mosquito_risk":6,"arthritis_risk":5,"migraine_risk":3,"frizz_risk":1,"updated_at":"2026-07-18T16:36:03.500926+05:30"},{"city":"Muzaffarpur","state":"Bihar","latitude":26.1209,"longitude":85.3647,"temp":28.9,"humidity":87,"rain":0.1,"pressure":992.7,"uv_index":7.35,"wind_gusts":28.4,"aqi":77,"pm10":17.8,"pm2_5":17.7,"no2":9.9,"co":318.0,"o3":109.0,"so2":6.9,"mosquito_risk":10,"arthritis_risk":5,"migraine_risk":7,"frizz_risk":1,"updated_at":"2026-07-18T16:36:03.500932+05:30"},{"city":"Bhagalpur","state":"Bihar","latitude":25.2425,"longitude":87.0117,"temp":29.9,"humidity":81,"rain":0.0,"pressure":993.3,"uv_index":7.85,"wind_gusts":34.9,"aqi":85,"pm10":18.7,"pm2_5":18.5,"no2":9.6,"co":349.0,"o3":127.0,"so2":15.2,"mosquito_risk":7,"arthritis_risk":5,"migraine_risk":7,"frizz_risk":1,"updated_at":"2026-07-18T16:36:03.500937+05:30"},{"city":"Ranchi","state":"Jharkhand","latitude":23.3441,"longitude":85.3096,"temp":27.0,"humidity":84,"rain":0.0,"pressure":931.2,"uv_index":8.7,"wind_gusts":26.6,"aqi":72,"pm10":14.3,"pm2_5":14.1,"no2":3.8,"co":315.0,"o3":119.0,"so2":3.9,"mosquito_risk":7,"arthritis_risk":5,"migraine_risk":7,"frizz_risk":1,"updated_at":"2026-07-18T16:36:03.500943+05:30"},{"city":"Jamshedpur","state":"Jharkhand","latitude":22.8046,"longitude":86.2029,"temp":29.2,"humidity":84,"rain":0.1,"pressure":983.1,"uv_index":8.4,"wind_gusts":21.6,"aqi":107,"pm10":24.8,"pm2_5":23.5,"no2":6.7,"co":508.0,"o3":127.0,"so2":13.9,"mosquito_risk":10,"arthritis_risk":5,"migraine_risk":7,"frizz_risk":1,"updated_at":"2026-07-18T16:36:03.500948+05:30"},{"city":"Dhanbad","state":"Jharkhand","latitude":23.7957,"longitude":86.4304,"temp":28.5,"humidity":88,"rain":0.0,"pressure":972.6,"uv_index":7.6,"wind_gusts":31.0,"aqi":152,"pm10":41.2,"pm2_5":39.8,"no2":23.3,"co":394.0,"o3":125.0,"so2":62.0,"mosquito_risk":7,"arthritis_risk":5,"migraine_risk":7,"frizz_risk":1,"updated_at":"2026-07-18T16:36:03.500954+05:30"},{"city":"Bokaro","state":"Jharkhand","latitude":23.6693,"longitude":86.1511,"temp":28.2,"humidity":88,"rain":0.3,"pressure":976.3,"uv_index":7.7,"wind_gusts":28.8,"aqi":128,"pm10":36.1,"pm2_5":35.5,"no2":24.5,"co":400.0,"o3":108.0,"so2":58.6,"mosquito_risk":10,"arthritis_risk":5,"migraine_risk":7,"frizz_risk":1,"updated_at":"2026-07-18T16:36:03.500960+05:30"},{"city":"Bhubaneswar","state":"Odisha","latitude":20.2961,"longitude":85.8245,"temp":29.0,"humidity":87,"rain":0.2,"pressure":995.1,"uv_index":7.55,"wind_gusts":35.3,"aqi":65,"pm10":18.4,"pm2_5":13.8,"no2":4.4,"co":302.0,"o3":112.0,"so2":4.2,"mosquito_risk":10,"arthritis_risk":5,"migraine_risk":7,"frizz_risk":1,"updated_at":"2026-07-18T16:36:03.500965+05:30"},{"city":"Cuttack","state":"Odisha","latitude":20.4625,"longitude":85.8828,"temp":27.7,"humidity":92,"rain":0.1,"pressure":997.2,"uv_index":8.4,"wind_gusts":35.6,"aqi":65,"pm10":18.4,"pm2_5":13.8,"no2":4.4,"co":304.0,"o3":112.0,"so2":4.2,"mosquito_risk":10,"arthritis_risk":5,"migraine_risk":7,"frizz_risk":1,"updated_at":"2026-07-18T16:36:03.500986+05:30"},{"city":"Rourkela","state":"Odisha","latitude":22.2604,"longitude":84.8536,"temp":28.3,"humidity":88,"rain":0.1,"pressure":977.3,"uv_index":7.45,"wind_gusts":27.4,"aqi":79,"pm10":19.2,"pm2_5":18.3,"no2":4.9,"co":397.0,"o3":136.0,"so2":9.1,"mosquito_risk":10,"arthritis_risk":5,"migraine_risk":7,"frizz_risk":1,"updated_at":"2026-07-18T16:36:03.500991+05:30"},{"city":"Raipur","state":"Chhattisgarh","latitude":21.2514,"longitude":81.6296,"temp":28.0,"humidity":85,"rain":0.1,"pressure":968.0,"uv_index":6.95,"wind_gusts":42.8,"aqi":88,"pm10":38.5,"pm2_5":26.5,"no2":23.6,"co":195.0,"o3":69.0,"so2":43.7,"mosquito_risk":10,"arthritis_risk":5,"migraine_risk":7,"frizz_risk":1,"updated_at":"2026-07-18T16:36:03.500997+05:30"},{"city":"Bhilai","state":"Chhattisgarh","latitude":21.1938,"longitude":81.3509,"temp":27.8,"humidity":85,"rain":0.1,"pressure":968.5,"uv_index":6.2,"wind_gusts":36.0,"aqi":83,"pm10":35.5,"pm2_5":23.9,"no2":18.4,"co":701.0,"o3":71.0,"so2":33.4,"mosquito_risk":10,"arthritis_risk":5,"migraine_risk":7,"frizz_risk":1,"updated_at":"2026-07-18T16:36:03.501003+05:30"},{"city":"Guwahati","state":"Assam","latitude":26.1158,"longitude":91.7086,"temp":28.3,"humidity":95,"rain":0.0,"pressure":995.0,"uv_index":7.15,"wind_gusts":20.2,"aqi":52,"pm10":9.4,"pm2_5":8.7,"no2":4.1,"co":302.0,"o3":81.0,"so2":1.7,"mosquito_risk":7,"arthritis_risk":5,"migraine_risk":7,"frizz_risk":1,"updated_at":"2026-07-18T16:36:03.501007+05:30"},{"city":"Agartala","state":"Tripura","latitude":23.8315,"longitude":91.2868,"temp":30.1,"humidity":76,"rain":0.0,"pressure":1000.5,"uv_index":8.05,"wind_gusts":43.2,"aqi":55,"pm10":15.0,"pm2_5":11.4,"no2":5.0,"co":137.0,"o3":70.0,"so2":1.0,"mosquito_risk":3,"arthritis_risk":5,"migraine_risk":4,"frizz_risk":1,"updated_at":"2026-07-18T16:36:03.501013+05:30"},{"city":"Shillong","state":"Meghalaya","latitude":25.5788,"longitude":91.8933,"temp":22.5,"humidity":86,"rain":0.1,"pressure":854.1,"uv_index":2.9,"wind_gusts":41.4,"aqi":37,"pm10":5.2,"pm2_5":4.5,"no2":4.3,"co":148.0,"o3":79.0,"so2":1.8,"mosquito_risk":6,"arthritis_risk":5,"migraine_risk":3,"frizz_risk":1,"updated_at":"2026-07-18T16:36:03.501018+05:30"},{"city":"Imphal","state":"Manipur","latitude":24.817,"longitude":93.9368,"temp":26.8,"humidity":73,"rain":0.0,"pressure":918.9,"uv_index":4.05,"wind_gusts":28.4,"aqi":60,"pm10":13.0,"pm2_5":9.7,"no2":6.1,"co":179.0,"o3":64.0,"so2":1.5,"mosquito_risk":7,"arthritis_risk":5,"migraine_risk":3,"frizz_risk":1,"updated_at":"2026-07-18T16:36:03.501023+05:30"},{"city":"Aizawl","state":"Mizoram","latitude":23.7271,"longitude":92.7176,"temp":23.6,"humidity":75,"rain":0.0,"pressure":889.3,"uv_index":7.35,"wind_gusts":40.3,"aqi":54,"pm10":11.5,"pm2_5":8.3,"no2":2.6,"co":125.0,"o3":61.0,"so2":0.8,"mosquito_risk":3,"arthritis_risk":5,"migraine_risk":7,"frizz_risk":1,"updated_at":"2026-07-18T16:36:03.501029+05:30"},{"city":"Kohima","state":"Nagaland","latitude":25.6701,"longitude":94.1077,"temp":22.0,"humidity":96,"rain":0.0,"pressure":852.4,"uv_index":2.55,"wind_gusts":24.8,"aqi":39,"pm10":9.8,"pm2_5":6.7,"no2":3.6,"co":170.0,"o3":64.0,"so2":0.9,"mosquito_risk":3,"arthritis_risk":5,"migraine_risk":3,"frizz_risk":1,"updated_at":"2026-07-18T16:36:03.501034+05:30"},{"city":"Gangtok","state":"Sikkim","latitude":27.3314,"longitude":88.6138,"temp":21.9,"humidity":87,"rain":0.0,"pressure":835.0,"uv_index":2.6,"wind_gusts":24.8,"aqi":37,"pm10":2.4,"pm2_5":2.4,"no2":5.2,"co":252.0,"o3":77.0,"so2":1.1,"mosquito_risk":3,"arthritis_risk":5,"migraine_risk":3,"frizz_risk":1,"updated_at":"2026-07-18T16:36:03.501040+05:30"},{"city":"Siliguri","state":"West Bengal","latitude":26.7271,"longitude":88.3953,"temp":27.8,"humidity":89,"rain":0.1,"pressure":986.3,"uv_index":6.2,"wind_gusts":31.0,"aqi":63,"pm10":9.6,"pm2_5":9.3,"no2":9.1,"co":398.0,"o3":77.0,"so2":2.8,"mosquito_risk":10,"arthritis_risk":5,"migraine_risk":7,"frizz_risk":1,"updated_at":"2026-07-18T16:36:06.862664+05:30"},{"city":"Durgapur","state":"West Bengal","latitude":23.5204,"longitude":87.3119,"temp":28.8,"humidity":91,"rain":0.2,"pressure":987.3,"uv_index":7.85,"wind_gusts":28.4,"aqi":103,"pm10":31.3,"pm2_5":29.5,"no2":16.0,"co":321.0,"o3":120.0,"so2":30.2,"mosquito_risk":10,"arthritis_risk":5,"migraine_risk":7,"frizz_risk":1,"updated_at":"2026-07-18T16:36:06.862696+05:30"},{"city":"Asansol","state":"West Bengal","latitude":23.6739,"longitude":86.9524,"temp":29.0,"humidity":87,"rain":0.0,"pressure":985.9,"uv_index":8.3,"wind_gusts":29.2,"aqi":115,"pm10":35.4,"pm2_5":33.5,"no2":15.6,"co":577.0,"o3":130.0,"so2":34.6,"mosquito_risk":7,"arthritis_risk":5,"migraine_risk":7,"frizz_risk":1,"updated_at":"2026-07-18T16:36:06.862706+05:30"},{"city":"Pondicherry","state":"Puducherry","latitude":11.9139,"longitude":79.8145,"temp":30.5,"humidity":76,"rain":0.0,"pressure":1004.6,"uv_index":5.9,"wind_gusts":33.5,"aqi":69,"pm10":45.1,"pm2_5":29.5,"no2":13.4,"co":183.0,"o3":106.0,"so2":12.6,"mosquito_risk":3,"arthritis_risk":5,"migraine_risk":0,"frizz_risk":1,"updated_at":"2026-07-18T16:36:06.862713+05:30"},{"city":"Port Blair","state":"Andaman and Nicobar Islands","latitude":11.6234,"longitude":92.7265,"temp":28.8,"humidity":78,"rain":0.0,"pressure":1006.1,"uv_index":8.45,"wind_gusts":38.2,"aqi":46,"pm10":21.9,"pm2_5":10.1,"no2":0.4,"co":110.0,"o3":48.0,"so2":0.5,"mosquito_risk":7,"arthritis_risk":5,"migraine_risk":4,"frizz_risk":1,"updated_at":"2026-07-18T16:36:06.862719+05:30"},{"city":"Haridwar","state":"Uttarakhand","latitude":29.9457,"longitude":78.1642,"temp":29.8,"humidity":89,"rain":0.2,"pressure":966.1,"uv_index":7.45,"wind_gusts":28.4,"aqi":169,"pm10":183.9,"pm2_5":75.2,"no2":3.1,"co":372.0,"o3":162.0,"so2":12.6,"mosquito_risk":10,"arthritis_risk":5,"migraine_risk":7,"frizz_risk":1,"updated_at":"2026-07-18T16:36:06.862725+05:30"},{"city":"Rishikesh","state":"Uttarakhand","latitude":30.0869,"longitude":78.2676,"temp":29.1,"humidity":89,"rain":0.1,"pressure":958.9,"uv_index":7.0,"wind_gusts":28.1,"aqi":157,"pm10":140.6,"pm2_5":63.6,"no2":2.0,"co":323.0,"o3":155.0,"so2":10.9,"mosquito_risk":10,"arthritis_risk":5,"migraine_risk":7,"frizz_risk":1,"updated_at":"2026-07-18T16:36:06.862731+05:30"},{"city":"Nainital","state":"Uttarakhand","latitude":29.3919,"longitude":79.4542,"temp":19.7,"humidity":98,"rain":0.1,"pressure":802.1,"uv_index":6.05,"wind_gusts":26.3,"aqi":134,"pm10":136.0,"pm2_5":57.0,"no2":6.0,"co":254.0,"o3":132.0,"so2":9.8,"mosquito_risk":6,"arthritis_risk":10,"migraine_risk":7,"frizz_risk":1,"updated_at":"2026-07-18T16:36:06.862737+05:30"},{"city":"Mussoorie","state":"Uttarakhand","latitude":30.4599,"longitude":78.0664,"temp":20.1,"humidity":95,"rain":0.2,"pressure":800.0,"uv_index":6.2,"wind_gusts":33.8,"aqi":150,"pm10":95.5,"pm2_5":48.8,"no2":4.0,"co":273.0,"o3":147.0,"so2":9.0,"mosquito_risk":6,"arthritis_risk":5,"migraine_risk":7,"frizz_risk":1,"updated_at":"2026-07-18T16:36:06.862743+05:30"},{"city":"Dharamshala","state":"Himachal Pradesh","latitude":32.219,"longitude":76.3234,"temp":24.2,"humidity":94,"rain":0.0,"pressure":864.8,"uv_index":8.4,"wind_gusts":27.4,"aqi":71,"pm10":28.5,"pm2_5":13.9,"no2":2.8,"co":237.0,"o3":109.0,"so2":1.9,"mosquito_risk":3,"arthritis_risk":5,"migraine_risk":7,"frizz_risk":1,"updated_at":"2026-07-18T16:36:06.862749+05:30"},{"city":"Dalhousie","state":"Himachal Pradesh","latitude":32.5387,"longitude":75.971,"temp":20.8,"humidity":94,"rain":0.1,"pressure":802.5,"uv_index":8.6,"wind_gusts":21.6,"aqi":96,"pm10":68.2,"pm2_5":34.3,"no2":8.0,"co":261.0,"o3":125.0,"so2":3.7,"mosquito_risk":6,"arthritis_risk":5,"migraine_risk":7,"frizz_risk":1,"updated_at":"2026-07-18T16:36:06.862755+05:30"},{"city":"Patiala","state":"Punjab","latitude":30.3398,"longitude":76.3869,"temp":35.7,"humidity":51,"rain":0.0,"pressure":969.3,"uv_index":6.7,"wind_gusts":23.4,"aqi":185,"pm10":728.3,"pm2_5":136.0,"no2":3.6,"co":225.0,"o3":141.0,"so2":6.0,"mosquito_risk":0,"arthritis_risk":5,"migraine_risk":10,"frizz_risk":1,"updated_at":"2026-07-18T16:36:06.862761+05:30"},{"city":"Bhatinda","state":"Punjab","latitude":30.211,"longitude":74.9455,"temp":39.4,"humidity":34,"rain":0.0,"pressure":974.4,"uv_index":8.25,"wind_gusts":32.4,"aqi":174,"pm10":258.9,"pm2_5":74.3,"no2":2.0,"co":137.0,"o3":114.0,"so2":5.6,"mosquito_risk":0,"arthritis_risk":5,"migraine_risk":10,"frizz_risk":1,"updated_at":"2026-07-18T16:36:06.862767+05:30"},{"city":"Rohtak","state":"Haryana","latitude":28.8955,"longitude":76.6066,"temp":36.6,"humidity":44,"rain":0.0,"pressure":973.1,"uv_index":7.65,"wind_gusts":34.2,"aqi":814,"pm10":1236.8,"pm2_5":191.4,"no2":10.4,"co":222.0,"o3":108.0,"so2":4.4,"mosquito_risk":0,"arthritis_risk":5,"migraine_risk":10,"frizz_risk":1,"updated_at":"2026-07-18T16:36:06.862773+05:30"},{"city":"Panipat","state":"Haryana","latitude":29.3909,"longitude":76.9635,"temp":35.0,"humidity":57,"rain":0.0,"pressure":971.5,"uv_index":5.5,"wind_gusts":28.1,"aqi":1144,"pm10":2689.7,"pm2_5":371.6,"no2":8.8,"co":192.0,"o3":106.0,"so2":8.1,"mosquito_risk":0,"arthritis_risk":5,"migraine_risk":3,"frizz_risk":1,"updated_at":"2026-07-18T16:36:06.862779+05:30"},{"city":"Mathura","state":"Uttar Pradesh","latitude":27.4924,"longitude":77.6737,"temp":35.8,"humidity":47,"rain":0.0,"pressure":978.7,"uv_index":7.9,"wind_gusts":32.0,"aqi":453,"pm10":657.5,"pm2_5":107.8,"no2":9.2,"co":186.0,"o3":94.0,"so2":2.9,"mosquito_risk":0,"arthritis_risk":5,"migraine_risk":10,"frizz_risk":1,"updated_at":"2026-07-18T16:36:06.862784+05:30"},{"city":"Vrindavan","state":"Uttar Pradesh","latitude":27.5823,"longitude":77.7027,"temp":35.5,"humidity":51,"rain":0.0,"pressure":979.0,"uv_index":7.55,"wind_gusts":31.3,"aqi":453,"pm10":657.5,"pm2_5":107.8,"no2":9.2,"co":212.0,"o3":94.0,"so2":2.9,"mosquito_risk":0,"arthritis_risk":5,"migraine_risk":10,"frizz_risk":1,"updated_at":"2026-07-18T16:36:06.862789+05:30"},{"city":"Ayodhya","state":"Uttar Pradesh","latitude":26.7922,"longitude":82.1998,"temp":32.0,"humidity":70,"rain":0.0,"pressure":987.2,"uv_index":6.85,"wind_gusts":19.4,"aqi":98,"pm10":23.6,"pm2_5":19.2,"no2":5.4,"co":333.0,"o3":127.0,"so2":3.8,"mosquito_risk":3,"arthritis_risk":5,"migraine_risk":7,"frizz_risk":1,"updated_at":"2026-07-18T16:36:06.862794+05:30"},{"city":"Ratlam","state":"Madhya Pradesh","latitude":23.3315,"longitude":75.0367,"temp":31.8,"humidity":54,"rain":0.0,"pressure":949.0,"uv_index":7.4,"wind_gusts":34.2,"aqi":71,"pm10":55.6,"pm2_5":25.3,"no2":1.3,"co":128.0,"o3":95.0,"so2":3.9,"mosquito_risk":0,"arthritis_risk":5,"migraine_risk":7,"frizz_risk":1,"updated_at":"2026-07-18T16:36:06.862799+05:30"},{"city":"Sagar","state":"Madhya Pradesh","latitude":23.8388,"longitude":78.7378,"temp":29.8,"humidity":71,"rain":0.0,"pressure":943.8,"uv_index":7.25,"wind_gusts":37.8,"aqi":91,"pm10":48.9,"pm2_5":25.8,"no2":2.2,"co":154.0,"o3":106.0,"so2":3.9,"mosquito_risk":7,"arthritis_risk":5,"migraine_risk":7,"frizz_risk":1,"updated_at":"2026-07-18T16:36:06.862804+05:30"},{"city":"Satna","state":"Madhya Pradesh","latitude":24.6005,"longitude":80.8322,"temp":27.3,"humidity":92,"rain":0.3,"pressure":964.5,"uv_index":8.15,"wind_gusts":40.3,"aqi":107,"pm10":101.7,"pm2_5":39.5,"no2":3.1,"co":158.0,"o3":103.0,"so2":3.2,"mosquito_risk":10,"arthritis_risk":5,"migraine_risk":7,"frizz_risk":1,"updated_at":"2026-07-18T16:36:06.862809+05:30"},{"city":"Akola","state":"Maharashtra","latitude":20.7002,"longitude":77.0082,"temp":29.9,"humidity":61,"rain":0.0,"pressure":970.2,"uv_index":5.55,"wind_gusts":33.8,"aqi":59,"pm10":32.5,"pm2_5":15.8,"no2":3.7,"co":128.0,"o3":73.0,"so2":9.1,"mosquito_risk":7,"arthritis_risk":5,"migraine_risk":3,"frizz_risk":1,"updated_at":"2026-07-18T16:36:06.862815+05:30"},{"city":"Amravati","state":"Maharashtra","latitude":20.9374,"longitude":77.7796,"temp":26.2,"humidity":93,"rain":0.1,"pressure":962.1,"uv_index":2.3,"wind_gusts":39.6,"aqi":61,"pm10":31.2,"pm2_5":16.2,"no2":5.2,"co":162.0,"o3":70.0,"so2":11.4,"mosquito_risk":10,"arthritis_risk":5,"migraine_risk":3,"frizz_risk":1,"updated_at":"2026-07-18T16:36:06.862821+05:30"},{"city":"Latur","state":"Maharashtra","latitude":18.4088,"longitude":76.5604,"temp":25.9,"humidity":84,"rain":0.2,"pressure":936.0,"uv_index":2.2,"wind_gusts":34.9,"aqi":51,"pm10":19.0,"pm2_5":10.0,"no2":3.2,"co":142.0,"o3":61.0,"so2":2.3,"mosquito_risk":10,"arthritis_risk":5,"migraine_risk":3,"frizz_risk":1,"updated_at":"2026-07-18T16:36:06.862827+05:30"},{"city":"Nanded","state":"Maharashtra","latitude":19.1383,"longitude":77.3091,"temp":26.8,"humidity":83,"rain":0.1,"pressure":964.7,"uv_index":1.65,"wind_gusts":38.9,"aqi":62,"pm10":26.5,"pm2_5":12.7,"no2":2.1,"co":146.0,"o3":78.0,"so2":2.9,"mosquito_risk":10,"arthritis_risk":5,"migraine_risk":3,"frizz_risk":1,"updated_at":"2026-07-18T16:36:06.862832+05:30"},{"city":"Gulbarga","state":"Karnataka","latitude":17.3297,"longitude":76.8343,"temp":26.6,"humidity":81,"rain":0.1,"pressure":955.3,"uv_index":2.35,"wind_gusts":38.2,"aqi":47,"pm10":16.3,"pm2_5":9.0,"no2":9.6,"co":165.0,"o3":50.0,"so2":3.4,"mosquito_risk":10,"arthritis_risk":5,"migraine_risk":3,"frizz_risk":1,"updated_at":"2026-07-18T16:36:06.862837+05:30"},{"city":"Bidar","state":"Karnataka","latitude":17.9104,"longitude":77.5199,"temp":24.5,"humidity":92,"rain":0.1,"pressure":931.8,"uv_index":2.3,"wind_gusts":36.4,"aqi":57,"pm10":23.5,"pm2_5":12.4,"no2":5.3,"co":164.0,"o3":65.0,"so2":2.5,"mosquito_risk":6,"arthritis_risk":5,"migraine_risk":3,"frizz_risk":1,"updated_at":"2026-07-18T16:36:06.862842+05:30"},{"city":"Hospet","state":"Karnataka","latitude":15.2689,"longitude":76.3909,"temp":25.7,"humidity":89,"rain":0.1,"pressure":953.6,"uv_index":4.95,"wind_gusts":49.3,"aqi":29,"pm10":16.1,"pm2_5":8.4,"no2":7.0,"co":145.0,"o3":53.0,"so2":1.7,"mosquito_risk":10,"arthritis_risk":5,"migraine_risk":3,"frizz_risk":1,"updated_at":"2026-07-18T16:36:06.862847+05:30"},{"city":"Tirupur","state":"Tamil Nadu","latitude":11.1085,"longitude":77.3411,"temp":31.2,"humidity":53,"rain":0.0,"pressure":972.9,"uv_index":6.75,"wind_gusts":50.8,"aqi":58,"pm10":22.2,"pm2_5":11.1,"no2":5.0,"co":147.0,"o3":74.0,"so2":2.6,"mosquito_risk":0,"arthritis_risk":5,"migraine_risk":7,"frizz_risk":1,"updated_at":"2026-07-18T16:36:06.862853+05:30"},{"city":"Alappuzha","state":"Kerala","latitude":9.4981,"longitude":76.3388,"temp":27.7,"humidity":80,"rain":0.0,"pressure":1008.8,"uv_index":7.9,"wind_gusts":41.0,"aqi":58,"pm10":13.4,"pm2_5":8.0,"no2":3.7,"co":86.0,"o3":61.0,"so2":2.2,"mosquito_risk":7,"arthritis_risk":0,"migraine_risk":4,"frizz_risk":1,"updated_at":"2026-07-18T16:36:06.862858+05:30"},{"city":"Munnar","state":"Kerala","latitude":10.0889,"longitude":77.0595,"temp":18.1,"humidity":92,"rain":0.1,"pressure":856.4,"uv_index":7.4,"wind_gusts":42.5,"aqi":30,"pm10":9.9,"pm2_5":5.3,"no2":2.3,"co":105.0,"o3":58.0,"so2":1.3,"mosquito_risk":6,"arthritis_risk":10,"migraine_risk":7,"frizz_risk":1,"updated_at":"2026-07-18T16:36:06.862864+05:30"},{"city":"Silchar","state":"Assam","latitude":24.8333,"longitude":92.7789,"temp":30.4,"humidity":77,"rain":0.0,"pressure":999.1,"uv_index":8.55,"wind_gusts":32.0,"aqi":68,"pm10":17.5,"pm2_5":13.9,"no2":4.3,"co":202.0,"o3":74.0,"so2":3.5,"mosquito_risk":3,"arthritis_risk":5,"migraine_risk":7,"frizz_risk":1,"updated_at":"2026-07-18T16:36:06.862869+05:30"},{"city":"Dibrugarh","state":"Assam","latitude":27.4728,"longitude":94.912,"temp":26.8,"humidity":96,"rain":0.1,"pressure":989.1,"uv_index":1.8,"wind_gusts":33.8,"aqi":62,"pm10":11.9,"pm2_5":11.2,"no2":8.0,"co":200.0,"o3":59.0,"so2":1.4,"mosquito_risk":10,"arthritis_risk":5,"migraine_risk":3,"frizz_risk":1,"updated_at":"2026-07-18T16:36:06.862873+05:30"}]