[{"city":"Delhi","state":"Delhi","latitude":28.6139,"longitude":77.209,"temp":29.8,"humidity":40,"rain":0.0,"pressure":984.9,"uv_index":6.3,"wind_gusts":27.4,"aqi":158,"pm10":273.8,"pm2_5":52.6,"mosquito_risk":4,"arthritis_risk":5,"migraine_risk":7,"frizz_risk":0,"updated_at":"2026-03-24T14:27:19.861275+05:30"},{"city":"Mumbai","state":"Maharashtra","latitude":19.076,"longitude":72.8777,"temp":29.1,"humidity":67,"rain":0.0,"pressure":1007.5,"uv_index":7.9,"wind_gusts":27.4,"aqi":112,"pm10":79.9,"pm2_5":64.0,"mosquito_risk":7,"arthritis_risk":5,"migraine_risk":4,"frizz_risk":1,"updated_at":"2026-03-24T14:27:19.861314+05:30"},{"city":"Bangalore","state":"Karnataka","latitude":12.9716,"longitude":77.5946,"temp":32.0,"humidity":32,"rain":0.0,"pressure":912.2,"uv_index":9.5,"wind_gusts":24.1,"aqi":80,"pm10":31.7,"pm2_5":22.3,"mosquito_risk":0,"arthritis_risk":5,"migraine_risk":7,"frizz_risk":0,"updated_at":"2026-03-24T14:27:19.861328+05:30"},{"city":"Hyderabad","state":"Telangana","latitude":17.385,"longitude":78.4867,"temp":34.2,"humidity":32,"rain":0.0,"pressure":953.5,"uv_index":8.95,"wind_gusts":37.1,"aqi":83,"pm10":37.7,"pm2_5":26.0,"mosquito_risk":0,"arthritis_risk":5,"migraine_risk":7,"frizz_risk":0,"updated_at":"2026-03-24T14:27:19.861338+05:30"},{"city":"Chennai","state":"Tamil Nadu","latitude":13.0827,"longitude":80.2707,"temp":32.5,"humidity":52,"rain":0.0,"pressure":1007.8,"uv_index":9.2,"wind_gusts":33.5,"aqi":35,"pm10":15.1,"pm2_5":9.5,"mosquito_risk":0,"arthritis_risk":5,"migraine_risk":4,"frizz_risk":1,"updated_at":"2026-03-24T14:27:19.861348+05:30"},{"city":"Kolkata","state":"West Bengal","latitude":22.5726,"longitude":88.3639,"temp":30.9,"humidity":57,"rain":0.0,"pressure":1006.6,"uv_index":8.3,"wind_gusts":21.6,"aqi":151,"pm10":52.4,"pm2_5":38.6,"mosquito_risk":0,"arthritis_risk":5,"migraine_risk":4,"frizz_risk":1,"updated_at":"2026-03-24T14:27:19.861357+05:30"},{"city":"Pune","state":"Maharashtra","latitude":18.5204,"longitude":73.8567,"temp":36.4,"humidity":22,"rain":0.0,"pressure":948.3,"uv_index":8.3,"wind_gusts":30.6,"aqi":94,"pm10":29.1,"pm2_5":17.3,"mosquito_risk":0,"arthritis_risk":5,"migraine_risk":10,"frizz_risk":0,"updated_at":"2026-03-24T14:27:19.861368+05:30"},{"city":"Ahmedabad","state":"Gujarat","latitude":23.0225,"longitude":72.5714,"temp":35.2,"humidity":29,"rain":0.0,"pressure":1002.5,"uv_index":7.2,"wind_gusts":17.6,"aqi":73,"pm10":20.0,"pm2_5":8.9,"mosquito_risk":0,"arthritis_risk":5,"migraine_risk":7,"frizz_risk":0,"updated_at":"2026-03-24T14:27:19.861375+05:30"},{"city":"Jaipur","state":"Rajasthan","latitude":26.9124,"longitude":75.7873,"temp":31.3,"humidity":30,"rain":0.0,"pressure":961.5,"uv_index":6.55,"wind_gusts":19.8,"aqi":129,"pm10":119.7,"pm2_5":23.3,"mosquito_risk":0,"arthritis_risk":5,"migraine_risk":7,"frizz_risk":0,"updated_at":"2026-03-24T14:27:19.861383+05:30"},{"city":"Lucknow","state":"Uttar Pradesh","latitude":26.8467,"longitude":80.9462,"temp":31.6,"humidity":37,"rain":0.0,"pressure":994.4,"uv_index":7.05,"wind_gusts":32.8,"aqi":116,"pm10":83.6,"pm2_5":25.5,"mosquito_risk":0,"arthritis_risk":5,"migraine_risk":7,"frizz_risk":0,"updated_at":"2026-03-24T14:27:19.861391+05:30"},{"city":"Kanpur","state":"Uttar Pradesh","latitude":26.4499,"longitude":80.3319,"temp":30.4,"humidity":42,"rain":0.0,"pressure":993.1,"uv_index":7.1,"wind_gusts":28.1,"aqi":135,"pm10":170.9,"pm2_5":31.3,"mosquito_risk":0,"arthritis_risk":5,"migraine_risk":7,"frizz_risk":0,"updated_at":"2026-03-24T14:27:19.861399+05:30"},{"city":"Chandigarh","state":"Chandigarh","latitude":30.7333,"longitude":76.7794,"temp":28.4,"humidity":37,"rain":0.0,"pressure":970.8,"uv_index":6.5,"wind_gusts":34.6,"aqi":104,"pm10":28.3,"pm2_5":21.2,"mosquito_risk":4,"arthritis_risk":5,"migraine_risk":7,"frizz_risk":0,"updated_at":"2026-03-24T14:27:19.861406+05:30"},{"city":"Srinagar","state":"Jammu and Kashmir","latitude":34.0837,"longitude":74.7973,"temp":16.7,"humidity":38,"rain":0.0,"pressure":843.6,"uv_index":7.6,"wind_gusts":16.2,"aqi":71,"pm10":14.7,"pm2_5":8.6,"mosquito_risk":0,"arthritis_risk":5,"migraine_risk":7,"frizz_risk":0,"updated_at":"2026-03-24T14:27:19.861412+05:30"},{"city":"Jammu","state":"Jammu and Kashmir","latitude":32.7266,"longitude":74.857,"temp":28.8,"humidity":41,"rain":0.0,"pressure":975.0,"uv_index":7.15,"wind_gusts":30.6,"aqi":72,"pm10":16.6,"pm2_5":11.2,"mosquito_risk":4,"arthritis_risk":5,"migraine_risk":7,"frizz_risk":0,"updated_at":"2026-03-24T14:27:19.861419+05:30"},{"city":"Amritsar","state":"Punjab","latitude":31.634,"longitude":74.8723,"temp":29.5,"humidity":39,"rain":0.0,"pressure":983.3,"uv_index":7.15,"wind_gusts":25.2,"aqi":132,"pm10":49.0,"pm2_5":28.8,"mosquito_risk":4,"arthritis_risk":5,"migraine_risk":7,"frizz_risk":0,"updated_at":"2026-03-24T14:27:19.861426+05:30"},{"city":"Ludhiana","state":"Punjab","latitude":30.901,"longitude":75.8573,"temp":29.2,"humidity":38,"rain":0.0,"pressure":981.0,"uv_index":6.75,"wind_gusts":29.9,"aqi":155,"pm10":45.5,"pm2_5":26.7,"mosquito_risk":4,"arthritis_risk":5,"migraine_risk":7,"frizz_risk":0,"updated_at":"2026-03-24T14:27:19.861433+05:30"},{"city":"Jalandhar","state":"Punjab","latitude":31.326,"longitude":75.5762,"temp":28.4,"humidity":41,"rain":0.0,"pressure":982.4,"uv_index":6.95,"wind_gusts":28.1,"aqi":146,"pm10":71.7,"pm2_5":27.9,"mosquito_risk":4,"arthritis_risk":5,"migraine_risk":7,"frizz_risk":0,"updated_at":"2026-03-24T14:27:19.861441+05:30"},{"city":"Dehradun","state":"Uttarakhand","latitude":30.6284,"longitude":78.0322,"temp":17.1,"humidity":65,"rain":0.0,"pressure":830.7,"uv_index":6.9,"wind_gusts":34.9,"aqi":46,"pm10":16.4,"pm2_5":9.5,"mosquito_risk":3,"arthritis_risk":5,"migraine_risk":7,"frizz_risk":0,"updated_at":"2026-03-24T14:27:19.861448+05:30"},{"city":"Shimla","state":"Himachal Pradesh","latitude":31.1048,"longitude":77.1734,"temp":16.0,"humidity":50,"rain":0.0,"pressure":785.7,"uv_index":7.0,"wind_gusts":53.3,"aqi":58,"pm10":18.9,"pm2_5":11.8,"mosquito_risk":0,"arthritis_risk":5,"migraine_risk":7,"frizz_risk":0,"updated_at":"2026-03-24T14:27:19.861455+05:30"},{"city":"Manali","state":"Himachal Pradesh","latitude":32.2396,"longitude":77.1887,"temp":18.3,"humidity":38,"rain":0.0,"pressure":819.5,"uv_index":9.15,"wind_gusts":29.5,"aqi":93,"pm10":9.2,"pm2_5":4.6,"mosquito_risk":0,"arthritis_risk":5,"migraine_risk":7,"frizz_risk":0,"updated_at":"2026-03-24T14:27:19.861462+05:30"},{"city":"Gurgaon","state":"Haryana","latitude":28.4595,"longitude":77.0266,"temp":30.1,"humidity":39,"rain":0.0,"pressure":983.4,"uv_index":6.5,"wind_gusts":25.2,"aqi":312,"pm10":903.4,"pm2_5":102.2,"mosquito_risk":0,"arthritis_risk":5,"migraine_risk":7,"frizz_risk":0,"updated_at":"2026-03-24T14:27:19.861469+05:30"},{"city":"Noida","state":"Uttar Pradesh","latitude":28.5355,"longitude":77.391,"temp":29.9,"humidity":41,"rain":0.0,"pressure":986.4,"uv_index":6.35,"wind_gusts":26.6,"aqi":312,"pm10":903.4,"pm2_5":102.2,"mosquito_risk":4,"arthritis_risk":5,"migraine_risk":7,"frizz_risk":0,"updated_at":"2026-03-24T14:27:19.861476+05:30"},{"city":"Ghaziabad","state":"Uttar Pradesh","latitude":28.6692,"longitude":77.4538,"temp":29.5,"humidity":43,"rain":0.0,"pressure":984.6,"uv_index":6.2,"wind_gusts":27.4,"aqi":155,"pm10":230.5,"pm2_5":53.0,"mosquito_risk":4,"arthritis_risk":5,"migraine_risk":7,"frizz_risk":0,"updated_at":"2026-03-24T14:27:19.861482+05:30"},{"city":"Faridabad","state":"Haryana","latitude":28.4089,"longitude":77.3178,"temp":29.9,"humidity":39,"rain":0.0,"pressure":985.6,"uv_index":6.3,"wind_gusts":25.6,"aqi":312,"pm10":903.4,"pm2_5":102.2,"mosquito_risk":4,"arthritis_risk":5,"migraine_risk":7,"frizz_risk":0,"updated_at":"2026-03-24T14:27:19.861488+05:30"},{"city":"Meerut","state":"Uttar Pradesh","latitude":28.9845,"longitude":77.7064,"temp":29.3,"humidity":41,"rain":0.0,"pressure":983.1,"uv_index":6.4,"wind_gusts":30.6,"aqi":155,"pm10":230.5,"pm2_5":53.0,"mosquito_risk":4,"arthritis_risk":5,"migraine_risk":7,"frizz_risk":0,"updated_at":"2026-03-24T14:27:19.861495+05:30"},{"city":"Agra","state":"Uttar Pradesh","latitude":27.1767,"longitude":78.0081,"temp":33.2,"humidity":30,"rain":0.0,"pressure":989.2,"uv_index":6.6,"wind_gusts":28.8,"aqi":155,"pm10":482.4,"pm2_5":59.3,"mosquito_risk":0,"arthritis_risk":5,"migraine_risk":7,"frizz_risk":0,"updated_at":"2026-03-24T14:27:19.861501+05:30"},{"city":"Varanasi","state":"Uttar Pradesh","latitude":25.3176,"longitude":82.9739,"temp":33.2,"humidity":34,"rain":0.0,"pressure":997.9,"uv_index":7.75,"wind_gusts":27.7,"aqi":143,"pm10":93.8,"pm2_5":34.6,"mosquito_risk":0,"arthritis_risk":5,"migraine_risk":7,"frizz_risk":0,"updated_at":"2026-03-24T14:27:19.861510+05:30"},{"city":"Prayagraj","state":"Uttar Pradesh","latitude":25.4358,"longitude":81.8463,"temp":32.6,"humidity":37,"rain":0.0,"pressure":996.6,"uv_index":7.6,"wind_gusts":23.0,"aqi":112,"pm10":89.9,"pm2_5":31.2,"mosquito_risk":0,"arthritis_risk":5,"migraine_risk":7,"frizz_risk":0,"updated_at":"2026-03-24T14:27:19.861517+05:30"},{"city":"Gorakhpur","state":"Uttar Pradesh","latitude":26.7606,"longitude":83.3732,"temp":31.9,"humidity":35,"rain":0.0,"pressure":997.0,"uv_index":7.45,"wind_gusts":34.6,"aqi":151,"pm10":37.4,"pm2_5":19.3,"mosquito_risk":0,"arthritis_risk":5,"migraine_risk":7,"frizz_risk":0,"updated_at":"2026-03-24T14:27:19.861524+05:30"},{"city":"Bareilly","state":"Uttar Pradesh","latitude":28.367,"longitude":79.4304,"temp":29.1,"humidity":46,"rain":0.0,"pressure":988.3,"uv_index":6.75,"wind_gusts":31.0,"aqi":114,"pm10":99.4,"pm2_5":32.5,"mosquito_risk":4,"arthritis_risk":5,"migraine_risk":7,"frizz_risk":1,"updated_at":"2026-03-24T14:27:19.861533+05:30"},{"city":"Aligarh","state":"Uttar Pradesh","latitude":27.8974,"longitude":78.088,"temp":30.5,"humidity":41,"rain":0.0,"pressure":987.2,"uv_index":6.7,"wind_gusts":28.1,"aqi":158,"pm10":471.2,"pm2_5":66.8,"mosquito_risk":0,"arthritis_risk":5,"migraine_risk":7,"frizz_risk":0,"updated_at":"2026-03-24T14:27:19.861540+05:30"},{"city":"Moradabad","state":"Uttar Pradesh","latitude":28.8386,"longitude":78.7733,"temp":29.0,"humidity":45,"rain":0.0,"pressure":985.2,"uv_index":6.6,"wind_gusts":32.4,"aqi":144,"pm10":104.1,"pm2_5":34.2,"mosquito_risk":4,"arthritis_risk":5,"migraine_risk":7,"frizz_risk":0,"updated_at":"2026-03-24T14:27:19.861546+05:30"},{"city":"Saharanpur","state":"Uttar Pradesh","latitude":29.9637,"longitude":77.546,"temp":29.1,"humidity":36,"rain":0.0,"pressure":977.4,"uv_index":6.25,"wind_gusts":38.2,"aqi":161,"pm10":57.6,"pm2_5":35.9,"mosquito_risk":4,"arthritis_risk":5,"migraine_risk":7,"frizz_risk":0,"updated_at":"2026-03-24T14:27:19.861553+05:30"},{"city":"Jhansi","state":"Uttar Pradesh","latitude":25.4484,"longitude":78.5685,"temp":33.5,"humidity":27,"rain":0.0,"pressure":979.1,"uv_index":7.25,"wind_gusts":27.4,"aqi":134,"pm10":93.4,"pm2_5":26.7,"mosquito_risk":0,"arthritis_risk":5,"migraine_risk":7,"frizz_risk":0,"updated_at":"2026-03-24T14:27:23.199722+05:30"},{"city":"Surat","state":"Gujarat","latitude":21.1702,"longitude":72.8311,"temp":34.4,"humidity":38,"rain":0.0,"pressure":1007.0,"uv_index":7.35,"wind_gusts":24.8,"aqi":146,"pm10":48.3,"pm2_5":40.5,"mosquito_risk":0,"arthritis_risk":5,"migraine_risk":4,"frizz_risk":1,"updated_at":"2026-03-24T14:27:23.199751+05:30"},{"city":"Vadodara","state":"Gujarat","latitude":22.3072,"longitude":73.1812,"temp":35.9,"humidity":29,"rain":0.0,"pressure":1004.4,"uv_index":7.85,"wind_gusts":23.4,"aqi":90,"pm10":17.3,"pm2_5":10.5,"mosquito_risk":0,"arthritis_risk":5,"migraine_risk":7,"frizz_risk":0,"updated_at":"2026-03-24T14:27:23.199761+05:30"},{"city":"Rajkot","state":"Gujarat","latitude":22.3039,"longitude":70.8022,"temp":33.9,"humidity":36,"rain":0.0,"pressure":995.2,"uv_index":7.15,"wind_gusts":24.5,"aqi":39,"pm10":23.6,"pm2_5":8.4,"mosquito_risk":0,"arthritis_risk":5,"migraine_risk":7,"frizz_risk":1,"updated_at":"2026-03-24T14:27:23.199769+05:30"},{"city":"Thane","state":"Maharashtra","latitude":19.2183,"longitude":72.9781,"temp":36.9,"humidity":31,"rain":0.0,"pressure":1007.1,"uv_index":7.75,"wind_gusts":41.4,"aqi":112,"pm10":79.9,"pm2_5":64.0,"mosquito_risk":0,"arthritis_risk":5,"migraine_risk":7,"frizz_risk":1,"updated_at":"2026-03-24T14:27:23.199776+05:30"},{"city":"Nagpur","state":"Maharashtra","latitude":21.1458,"longitude":79.0882,"temp":36.4,"humidity":23,"rain":0.0,"pressure":972.6,"uv_index":8.45,"wind_gusts":26.6,"aqi":96,"pm10":44.0,"pm2_5":32.2,"mosquito_risk":0,"arthritis_risk":5,"migraine_risk":10,"frizz_risk":0,"updated_at":"2026-03-24T14:27:23.199783+05:30"},{"city":"Nashik","state":"Maharashtra","latitude":19.9975,"longitude":73.7898,"temp":34.1,"humidity":26,"rain":0.0,"pressure":946.1,"uv_index":8.1,"wind_gusts":36.0,"aqi":72,"pm10":32.9,"pm2_5":14.7,"mosquito_risk":0,"arthritis_risk":5,"migraine_risk":7,"frizz_risk":0,"updated_at":"2026-03-24T14:27:23.199790+05:30"},{"city":"Aurangabad","state":"Maharashtra","latitude":19.8762,"longitude":75.3433,"temp":35.2,"humidity":22,"rain":0.0,"pressure":944.5,"uv_index":8.6,"wind_gusts":29.5,"aqi":58,"pm10":28.7,"pm2_5":13.7,"mosquito_risk":0,"arthritis_risk":5,"migraine_risk":10,"frizz_risk":0,"updated_at":"2026-03-24T14:27:23.199820+05:30"},{"city":"Solapur","state":"Maharashtra","latitude":17.6599,"longitude":75.9064,"temp":37.3,"humidity":21,"rain":0.0,"pressure":956.4,"uv_index":8.8,"wind_gusts":23.8,"aqi":92,"pm10":42.4,"pm2_5":30.5,"mosquito_risk":0,"arthritis_risk":5,"migraine_risk":10,"frizz_risk":0,"updated_at":"2026-03-24T14:27:23.199839+05:30"},{"city":"Kolhapur","state":"Maharashtra","latitude":16.705,"longitude":74.2433,"temp":34.2,"humidity":29,"rain":0.0,"pressure":947.9,"uv_index":8.95,"wind_gusts":48.6,"aqi":114,"pm10":32.5,"pm2_5":24.0,"mosquito_risk":0,"arthritis_risk":5,"migraine_risk":7,"frizz_risk":0,"updated_at":"2026-03-24T14:27:23.199848+05:30"},{"city":"Goa","state":"Goa","latitude":15.2993,"longitude":74.124,"temp":32.0,"humidity":63,"rain":0.0,"pressure":998.0,"uv_index":8.9,"wind_gusts":29.9,"aqi":102,"pm10":40.6,"pm2_5":30.0,"mosquito_risk":3,"arthritis_risk":5,"migraine_risk":7,"frizz_risk":1,"updated_at":"2026-03-24T14:27:23.199855+05:30"},{"city":"Jodhpur","state":"Rajasthan","latitude":26.2389,"longitude":73.0243,"temp":34.9,"humidity":18,"rain":0.0,"pressure":984.0,"uv_index":7.65,"wind_gusts":18.0,"aqi":67,"pm10":32.6,"pm2_5":10.2,"mosquito_risk":0,"arthritis_risk":5,"migraine_risk":7,"frizz_risk":0,"updated_at":"2026-03-24T14:27:23.199862+05:30"},{"city":"Udaipur","state":"Rajasthan","latitude":24.5854,"longitude":73.7125,"temp":33.0,"humidity":22,"rain":0.0,"pressure":947.7,"uv_index":7.45,"wind_gusts":20.5,"aqi":56,"pm10":52.7,"pm2_5":13.8,"mosquito_risk":0,"arthritis_risk":5,"migraine_risk":7,"frizz_risk":0,"updated_at":"2026-03-24T14:27:23.199869+05:30"},{"city":"Kota","state":"Rajasthan","latitude":25.2138,"longitude":75.8648,"temp":35.3,"humidity":23,"rain":0.0,"pressure":979.5,"uv_index":7.65,"wind_gusts":14.0,"aqi":115,"pm10":56.2,"pm2_5":19.7,"mosquito_risk":0,"arthritis_risk":5,"migraine_risk":10,"frizz_risk":0,"updated_at":"2026-03-24T14:27:23.199875+05:30"},{"city":"Bikaner","state":"Rajasthan","latitude":28.0229,"longitude":73.3119,"temp":34.4,"humidity":16,"rain":0.0,"pressure":983.4,"uv_index":7.05,"wind_gusts":15.8,"aqi":63,"pm10":35.6,"pm2_5":14.3,"mosquito_risk":0,"arthritis_risk":5,"migraine_risk":7,"frizz_risk":0,"updated_at":"2026-03-24T14:27:23.199882+05:30"},{"city":"Ajmer","state":"Rajasthan","latitude":26.4499,"longitude":74.6399,"temp":31.7,"humidity":30,"rain":0.0,"pressure":956.0,"uv_index":7.55,"wind_gusts":15.5,"aqi":101,"pm10":38.5,"pm2_5":12.8,"mosquito_risk":0,"arthritis_risk":5,"migraine_risk":7,"frizz_risk":0,"updated_at":"2026-03-24T14:27:23.199889+05:30"},{"city":"Gwalior","state":"Madhya Pradesh","latitude":26.2183,"longitude":78.1828,"temp":32.7,"humidity":29,"rain":0.0,"pressure":984.8,"uv_index":7.25,"wind_gusts":28.4,"aqi":124,"pm10":82.4,"pm2_5":22.4,"mosquito_risk":0,"arthritis_risk":5,"migraine_risk":7,"frizz_risk":0,"updated_at":"2026-03-24T14:27:23.199896+05:30"},{"city":"Indore","state":"Madhya Pradesh","latitude":22.7196,"longitude":75.8577,"temp":33.6,"humidity":27,"rain":0.0,"pressure":948.8,"uv_index":8.15,"wind_gusts":23.0,"aqi":61,"pm10":34.3,"pm2_5":14.5,"mosquito_risk":0,"arthritis_risk":5,"migraine_risk":7,"frizz_risk":0,"updated_at":"2026-03-24T14:27:23.199903+05:30"},{"city":"Bhopal","state":"Madhya Pradesh","latitude":23.2599,"longitude":77.4126,"temp":35.0,"humidity":23,"rain":0.0,"pressure":954.2,"uv_index":8.05,"wind_gusts":31.0,"aqi":73,"pm10":48.5,"pm2_5":18.6,"mosquito_risk":0,"arthritis_risk":5,"migraine_risk":7,"frizz_risk":0,"updated_at":"2026-03-24T14:27:23.199909+05:30"},{"city":"Jabalpur","state":"Madhya Pradesh","latitude":23.1815,"longitude":79.9864,"temp":34.2,"humidity":27,"rain":0.0,"pressure":961.4,"uv_index":8.15,"wind_gusts":29.9,"aqi":79,"pm10":47.0,"pm2_5":19.8,"mosquito_risk":0,"arthritis_risk":5,"migraine_risk":7,"frizz_risk":0,"updated_at":"2026-03-24T14:27:23.199916+05:30"},{"city":"Ujjain","state":"Madhya Pradesh","latitude":23.1765,"longitude":75.7885,"temp":33.3,"humidity":29,"rain":0.0,"pressure":954.4,"uv_index":8.05,"wind_gusts":19.1,"aqi":64,"pm10":40.2,"pm2_5":18.1,"mosquito_risk":0,"arthritis_risk":5,"migraine_risk":7,"frizz_risk":0,"updated_at":"2026-03-24T14:27:23.199923+05:30"},{"city":"Visakhapatnam","state":"Andhra Pradesh","latitude":17.6868,"longitude":83.2185,"temp":31.6,"humidity":55,"rain":0.0,"pressure":1004.7,"uv_index":8.9,"wind_gusts":36.0,"aqi":86,"pm10":28.9,"pm2_5":20.7,"mosquito_risk":0,"arthritis_risk":5,"migraine_risk":4,"frizz_risk":1,"updated_at":"2026-03-24T14:27:23.199929+05:30"},{"city":"Vijayawada","state":"Andhra Pradesh","latitude":16.5062,"longitude":80.648,"temp":34.2,"humidity":46,"rain":0.0,"pressure":1002.7,"uv_index":9.0,"wind_gusts":25.9,"aqi":63,"pm10":27.4,"pm2_5":18.6,"mosquito_risk":0,"arthritis_risk":5,"migraine_risk":4,"frizz_risk":1,"updated_at":"2026-03-24T14:27:23.199935+05:30"},{"city":"Guntur","state":"Andhra Pradesh","latitude":16.3067,"longitude":80.4365,"temp":33.8,"humidity":47,"rain":0.0,"pressure":1004.2,"uv_index":9.0,"wind_gusts":31.7,"aqi":60,"pm10":27.5,"pm2_5":18.3,"mosquito_risk":0,"arthritis_risk":5,"migraine_risk":4,"frizz_risk":1,"updated_at":"2026-03-24T14:27:23.199941+05:30"},{"city":"Nellore","state":"Andhra Pradesh","latitude":14.4426,"longitude":79.9865,"temp":34.7,"humidity":47,"rain":0.0,"pressure":1006.0,"uv_index":9.1,"wind_gusts":31.3,"aqi":41,"pm10":23.2,"pm2_5":15.0,"mosquito_risk":0,"arthritis_risk":5,"migraine_risk":4,"frizz_risk":1,"updated_at":"2026-03-24T14:27:23.199948+05:30"},{"city":"Kurnool","state":"Andhra Pradesh","latitude":15.8281,"longitude":78.0373,"temp":35.6,"humidity":33,"rain":0.0,"pressure":976.7,"uv_index":9.0,"wind_gusts":30.6,"aqi":61,"pm10":32.2,"pm2_5":22.2,"mosquito_risk":0,"arthritis_risk":5,"migraine_risk":10,"frizz_risk":1,"updated_at":"2026-03-24T14:27:23.199956+05:30"},{"city":"Kakinada","state":"Andhra Pradesh","latitude":16.9891,"longitude":82.2475,"temp":33.6,"humidity":49,"rain":0.0,"pressure":1008.1,"uv_index":8.95,"wind_gusts":30.2,"aqi":51,"pm10":20.9,"pm2_5":11.3,"mosquito_risk":0,"arthritis_risk":0,"migraine_risk":4,"frizz_risk":1,"updated_at":"2026-03-24T14:27:23.199962+05:30"},{"city":"Tirupati","state":"Andhra Pradesh","latitude":13.6288,"longitude":79.4192,"temp":33.7,"humidity":41,"rain":0.0,"pressure":991.6,"uv_index":9.25,"wind_gusts":31.3,"aqi":64,"pm10":27.2,"pm2_5":19.3,"mosquito_risk":0,"arthritis_risk":5,"migraine_risk":7,"frizz_risk":1,"updated_at":"2026-03-24T14:27:23.199968+05:30"},{"city":"Warangal","state":"Telangana","latitude":17.9689,"longitude":79.5941,"temp":35.7,"humidity":34,"rain":0.0,"pressure":978.7,"uv_index":8.8,"wind_gusts":28.1,"aqi":90,"pm10":34.3,"pm2_5":25.6,"mosquito_risk":0,"arthritis_risk":5,"migraine_risk":10,"frizz_risk":1,"updated_at":"2026-03-24T14:27:23.199975+05:30"},{"city":"Nizamabad","state":"Telangana","latitude":18.6725,"longitude":78.0941,"temp":35.9,"humidity":26,"rain":0.0,"pressure":964.6,"uv_index":8.75,"wind_gusts":26.3,"aqi":94,"pm10":47.6,"pm2_5":34.6,"mosquito_risk":0,"arthritis_risk":5,"migraine_risk":10,"frizz_risk":0,"updated_at":"2026-03-24T14:27:23.199981+05:30"},{"city":"Mysore","state":"Karnataka","latitude":12.2958,"longitude":76.6396,"temp":34.4,"humidity":29,"rain":0.0,"pressure":928.3,"uv_index":9.45,"wind_gusts":39.2,"aqi":93,"pm10":31.9,"pm2_5":23.1,"mosquito_risk":0,"arthritis_risk":5,"migraine_risk":7,"frizz_risk":0,"updated_at":"2026-03-24T14:27:23.199988+05:30"},{"city":"Mangalore","state":"Karnataka","latitude":12.9141,"longitude":74.856,"temp":28.6,"humidity":82,"rain":0.0,"pressure":1006.3,"uv_index":9.1,"wind_gusts":24.8,"aqi":82,"pm10":50.3,"pm2_5":35.0,"mosquito_risk":7,"arthritis_risk":5,"migraine_risk":4,"frizz_risk":1,"updated_at":"2026-03-24T14:27:23.199994+05:30"},{"city":"Hubli-Dharwad","state":"Karnataka","latitude":15.3647,"longitude":75.124,"temp":31.8,"humidity":47,"rain":0.0,"pressure":940.7,"uv_index":9.1,"wind_gusts":39.6,"aqi":95,"pm10":43.1,"pm2_5":31.9,"mosquito_risk":0,"arthritis_risk":5,"migraine_risk":7,"frizz_risk":1,"updated_at":"2026-03-24T14:27:23.200001+05:30"},{"city":"Belgaum","state":"Karnataka","latitude":15.8497,"longitude":74.4977,"temp":29.7,"humidity":51,"rain":0.0,"pressure":926.0,"uv_index":9.15,"wind_gusts":41.8,"aqi":95,"pm10":36.3,"pm2_5":24.5,"mosquito_risk":4,"arthritis_risk":5,"migraine_risk":7,"frizz_risk":1,"updated_at":"2026-03-24T14:27:26.538033+05:30"},{"city":"Coimbatore","state":"Tamil Nadu","latitude":11.0168,"longitude":76.9558,"temp":35.2,"humidity":30,"rain":0.0,"pressure":961.3,"uv_index":9.4,"wind_gusts":32.8,"aqi":64,"pm10":20.2,"pm2_5":14.1,"mosquito_risk":0,"arthritis_risk":5,"migraine_risk":10,"frizz_risk":0,"updated_at":"2026-03-24T14:27:26.538063+05:30"},{"city":"Madurai","state":"Tamil Nadu","latitude":9.9252,"longitude":78.1198,"temp":36.0,"humidity":34,"rain":0.0,"pressure":992.0,"uv_index":9.35,"wind_gusts":30.2,"aqi":56,"pm10":11.8,"pm2_5":7.6,"mosquito_risk":0,"arthritis_risk":5,"migraine_risk":10,"frizz_risk":1,"updated_at":"2026-03-24T14:27:26.538073+05:30"},{"city":"Trichy","state":"Tamil Nadu","latitude":10.7905,"longitude":78.7047,"temp":34.3,"humidity":45,"rain":0.0,"pressure":999.3,"uv_index":9.3,"wind_gusts":23.4,"aqi":55,"pm10":15.4,"pm2_5":12.3,"mosquito_risk":0,"arthritis_risk":5,"migraine_risk":7,"frizz_risk":1,"updated_at":"2026-03-24T14:27:26.538081+05:30"},{"city":"Salem","state":"Tamil Nadu","latitude":11.6643,"longitude":78.146,"temp":35.6,"humidity":34,"rain":0.0,"pressure":976.8,"uv_index":9.35,"wind_gusts":25.2,"aqi":79,"pm10":40.6,"pm2_5":32.0,"mosquito_risk":0,"arthritis_risk":5,"migraine_risk":10,"frizz_risk":1,"updated_at":"2026-03-24T14:27:26.538088+05:30"},{"city":"Tirunelveli","state":"Tamil Nadu","latitude":8.7139,"longitude":77.7567,"temp":37.2,"humidity":33,"rain":0.0,"pressure":1001.9,"uv_index":9.35,"wind_gusts":37.8,"aqi":53,"pm10":8.6,"pm2_5":5.7,"mosquito_risk":0,"arthritis_risk":5,"migraine_risk":7,"frizz_risk":1,"updated_at":"2026-03-24T14:27:26.538095+05:30"},{"city":"Vellore","state":"Tamil Nadu","latitude":12.9165,"longitude":79.1325,"temp":34.5,"humidity":38,"rain":0.0,"pressure":984.6,"uv_index":9.3,"wind_gusts":35.6,"aqi":68,"pm10":21.1,"pm2_5":12.9,"mosquito_risk":0,"arthritis_risk":5,"migraine_risk":7,"frizz_risk":1,"updated_at":"2026-03-24T14:27:26.538103+05:30"},{"city":"Erode","state":"Tamil Nadu","latitude":11.341,"longitude":77.7172,"temp":35.9,"humidity":36,"rain":0.0,"pressure":988.3,"uv_index":9.3,"wind_gusts":21.6,"aqi":58,"pm10":24.9,"pm2_5":17.6,"mosquito_risk":0,"arthritis_risk":5,"migraine_risk":10,"frizz_risk":1,"updated_at":"2026-03-24T14:27:26.538109+05:30"},{"city":"Kochi","state":"Kerala","latitude":9.9312,"longitude":76.2673,"temp":28.8,"humidity":79,"rain":0.0,"pressure":1007.6,"uv_index":9.15,"wind_gusts":37.1,"aqi":92,"pm10":38.9,"pm2_5":27.3,"mosquito_risk":7,"arthritis_risk":5,"migraine_risk":4,"frizz_risk":1,"updated_at":"2026-03-24T14:27:26.538116+05:30"},{"city":"Thiruvananthapuram","state":"Kerala","latitude":8.5241,"longitude":76.9366,"temp":29.1,"humidity":76,"rain":0.0,"pressure":1006.6,"uv_index":9.2,"wind_gusts":30.2,"aqi":68,"pm10":25.5,"pm2_5":18.7,"mosquito_risk":7,"arthritis_risk":5,"migraine_risk":4,"frizz_risk":1,"updated_at":"2026-03-24T14:27:26.538123+05:30"},{"city":"Kozhikode","state":"Kerala","latitude":11.2588,"longitude":75.7804,"temp":30.2,"humidity":73,"rain":0.0,"pressure":1007.3,"uv_index":9.05,"wind_gusts":31.0,"aqi":73,"pm10":36.1,"pm2_5":24.9,"mosquito_risk":3,"arthritis_risk":5,"migraine_risk":4,"frizz_risk":1,"updated_at":"2026-03-24T14:27:26.538130+05:30"},{"city":"Thrissur","state":"Kerala","latitude":10.5276,"longitude":76.2144,"temp":33.4,"humidity":56,"rain":0.0,"pressure":1006.1,"uv_index":9.15,"wind_gusts":41.4,"aqi":92,"pm10":29.7,"pm2_5":21.0,"mosquito_risk":0,"arthritis_risk":5,"migraine_risk":4,"frizz_risk":1,"updated_at":"2026-03-24T14:27:26.538137+05:30"},{"city":"Kannur","state":"Kerala","latitude":11.8745,"longitude":75.3704,"temp":31.6,"humidity":65,"rain":0.0,"pressure":1006.8,"uv_index":9.05,"wind_gusts":28.4,"aqi":74,"pm10":44.2,"pm2_5":31.1,"mosquito_risk":3,"arthritis_risk":5,"migraine_risk":4,"frizz_risk":1,"updated_at":"2026-03-24T14:27:26.538144+05:30"},{"city":"Patna","state":"Bihar","latitude":25.5941,"longitude":85.1376,"temp":32.3,"humidity":34,"rain":0.0,"pressure":1000.3,"uv_index":7.9,"wind_gusts":34.2,"aqi":158,"pm10":98.7,"pm2_5":37.5,"mosquito_risk":0,"arthritis_risk":5,"migraine_risk":4,"frizz_risk":0,"updated_at":"2026-03-24T14:27:26.538151+05:30"},{"city":"Gaya","state":"Bihar","latitude":24.7914,"longitude":85.0002,"temp":32.3,"humidity":37,"rain":0.0,"pressure":994.0,"uv_index":7.95,"wind_gusts":22.3,"aqi":115,"pm10":104.5,"pm2_5":32.6,"mosquito_risk":0,"arthritis_risk":5,"migraine_risk":7,"frizz_risk":0,"updated_at":"2026-03-24T14:27:26.538158+05:30"},{"city":"Muzaffarpur","state":"Bihar","latitude":26.1209,"longitude":85.3647,"temp":31.6,"humidity":37,"rain":0.0,"pressure":1000.1,"uv_index":7.85,"wind_gusts":35.6,"aqi":159,"pm10":89.4,"pm2_5":39.9,"mosquito_risk":0,"arthritis_risk":5,"migraine_risk":4,"frizz_risk":0,"updated_at":"2026-03-24T14:27:26.538164+05:30"},{"city":"Bhagalpur","state":"Bihar","latitude":25.2425,"longitude":87.0117,"temp":30.8,"humidity":43,"rain":0.0,"pressure":1001.0,"uv_index":7.85,"wind_gusts":36.7,"aqi":146,"pm10":81.0,"pm2_5":35.0,"mosquito_risk":0,"arthritis_risk":5,"migraine_risk":4,"frizz_risk":1,"updated_at":"2026-03-24T14:27:26.538171+05:30"},{"city":"Ranchi","state":"Jharkhand","latitude":23.3441,"longitude":85.3096,"temp":28.5,"humidity":41,"rain":0.0,"pressure":938.8,"uv_index":8.6,"wind_gusts":36.7,"aqi":70,"pm10":48.3,"pm2_5":21.6,"mosquito_risk":4,"arthritis_risk":5,"migraine_risk":7,"frizz_risk":0,"updated_at":"2026-03-24T14:27:26.538177+05:30"},{"city":"Jamshedpur","state":"Jharkhand","latitude":22.8046,"longitude":86.2029,"temp":33.2,"humidity":34,"rain":0.0,"pressure":991.2,"uv_index":8.4,"wind_gusts":32.0,"aqi":130,"pm10":50.8,"pm2_5":29.7,"mosquito_risk":0,"arthritis_risk":5,"migraine_risk":7,"frizz_risk":0,"updated_at":"2026-03-24T14:27:26.538183+05:30"},{"city":"Dhanbad","state":"Jharkhand","latitude":23.7957,"longitude":86.4304,"temp":32.0,"humidity":35,"rain":0.0,"pressure":980.2,"uv_index":8.35,"wind_gusts":23.8,"aqi":164,"pm10":71.5,"pm2_5":38.8,"mosquito_risk":0,"arthritis_risk":5,"migraine_risk":7,"frizz_risk":0,"updated_at":"2026-03-24T14:27:26.538190+05:30"},{"city":"Bokaro","state":"Jharkhand","latitude":23.6693,"longitude":86.1511,"temp":30.7,"humidity":38,"rain":0.0,"pressure":984.5,"uv_index":8.25,"wind_gusts":24.8,"aqi":154,"pm10":57.9,"pm2_5":29.0,"mosquito_risk":0,"arthritis_risk":5,"migraine_risk":7,"frizz_risk":0,"updated_at":"2026-03-24T14:27:26.538197+05:30"},{"city":"Bhubaneswar","state":"Odisha","latitude":20.2961,"longitude":85.8245,"temp":33.4,"humidity":46,"rain":0.0,"pressure":1002.9,"uv_index":8.7,"wind_gusts":32.8,"aqi":87,"pm10":39.9,"pm2_5":26.8,"mosquito_risk":0,"arthritis_risk":5,"migraine_risk":4,"frizz_risk":1,"updated_at":"2026-03-24T14:27:26.538203+05:30"},{"city":"Cuttack","state":"Odisha","latitude":20.4625,"longitude":85.8828,"temp":34.7,"humidity":39,"rain":0.0,"pressure":1004.3,"uv_index":8.75,"wind_gusts":29.2,"aqi":87,"pm10":39.9,"pm2_5":26.8,"mosquito_risk":0,"arthritis_risk":5,"migraine_risk":4,"frizz_risk":1,"updated_at":"2026-03-24T14:27:26.538210+05:30"},{"city":"Rourkela","state":"Odisha","latitude":22.2604,"longitude":84.8536,"temp":32.3,"humidity":40,"rain":0.0,"pressure":985.8,"uv_index":8.4,"wind_gusts":25.9,"aqi":108,"pm10":58.9,"pm2_5":41.3,"mosquito_risk":0,"arthritis_risk":5,"migraine_risk":7,"frizz_risk":1,"updated_at":"2026-03-24T14:27:26.538216+05:30"},{"city":"Raipur","state":"Chhattisgarh","latitude":21.2514,"longitude":81.6296,"temp":36.9,"humidity":22,"rain":0.0,"pressure":974.0,"uv_index":8.5,"wind_gusts":28.1,"aqi":113,"pm10":49.4,"pm2_5":36.2,"mosquito_risk":0,"arthritis_risk":5,"migraine_risk":10,"frizz_risk":0,"updated_at":"2026-03-24T14:27:26.538223+05:30"},{"city":"Bhilai","state":"Chhattisgarh","latitude":21.1938,"longitude":81.3509,"temp":36.9,"humidity":22,"rain":0.0,"pressure":974.2,"uv_index":8.5,"wind_gusts":32.8,"aqi":121,"pm10":45.4,"pm2_5":33.1,"mosquito_risk":0,"arthritis_risk":5,"migraine_risk":10,"frizz_risk":0,"updated_at":"2026-03-24T14:27:26.538229+05:30"},{"city":"Guwahati","state":"Assam","latitude":26.1158,"longitude":91.7086,"temp":26.5,"humidity":71,"rain":0.0,"pressure":1001.7,"uv_index":7.75,"wind_gusts":28.4,"aqi":93,"pm10":35.7,"pm2_5":31.9,"mosquito_risk":7,"arthritis_risk":5,"migraine_risk":4,"frizz_risk":1,"updated_at":"2026-03-24T14:27:26.538235+05:30"},{"city":"Agartala","state":"Tripura","latitude":23.8315,"longitude":91.2868,"temp":29.2,"humidity":51,"rain":0.0,"pressure":1006.6,"uv_index":8.1,"wind_gusts":15.5,"aqi":158,"pm10":63.8,"pm2_5":54.1,"mosquito_risk":4,"arthritis_risk":5,"migraine_risk":4,"frizz_risk":1,"updated_at":"2026-03-24T14:27:26.538243+05:30"},{"city":"Shillong","state":"Meghalaya","latitude":25.5788,"longitude":91.8933,"temp":15.2,"humidity":72,"rain":0.0,"pressure":855.1,"uv_index":7.0,"wind_gusts":37.8,"aqi":80,"pm10":24.0,"pm2_5":21.8,"mosquito_risk":3,"arthritis_risk":5,"migraine_risk":7,"frizz_risk":0,"updated_at":"2026-03-24T14:27:26.538250+05:30"},{"city":"Imphal","state":"Manipur","latitude":24.817,"longitude":93.9368,"temp":21.4,"humidity":54,"rain":0.0,"pressure":922.3,"uv_index":7.85,"wind_gusts":40.3,"aqi":90,"pm10":32.7,"pm2_5":25.6,"mosquito_risk":0,"arthritis_risk":5,"migraine_risk":7,"frizz_risk":0,"updated_at":"2026-03-24T14:27:26.538257+05:30"},{"city":"Aizawl","state":"Mizoram","latitude":23.7271,"longitude":92.7176,"temp":23.5,"humidity":42,"rain":0.0,"pressure":893.1,"uv_index":8.35,"wind_gusts":29.9,"aqi":101,"pm10":42.3,"pm2_5":33.4,"mosquito_risk":0,"arthritis_risk":5,"migraine_risk":7,"frizz_risk":0,"updated_at":"2026-03-24T14:27:26.538263+05:30"},{"city":"Kohima","state":"Nagaland","latitude":25.6701,"longitude":94.1077,"temp":15.8,"humidity":86,"rain":0.0,"pressure":853.5,"uv_index":8.05,"wind_gusts":54.0,"aqi":70,"pm10":22.4,"pm2_5":18.5,"mosquito_risk":3,"arthritis_risk":10,"migraine_risk":7,"frizz_risk":0,"updated_at":"2026-03-24T14:27:26.538270+05:30"},{"city":"Gangtok","state":"Sikkim","latitude":27.3314,"longitude":88.6138,"temp":14.4,"humidity":85,"rain":0.1,"pressure":835.1,"uv_index":4.2,"wind_gusts":16.2,"aqi":94,"pm10":21.5,"pm2_5":17.1,"mosquito_risk":6,"arthritis_risk":10,"migraine_risk":3,"frizz_risk":0,"updated_at":"2026-03-24T14:27:26.538277+05:30"},{"city":"Siliguri","state":"West Bengal","latitude":26.7271,"longitude":88.3953,"temp":20.9,"humidity":85,"rain":0.0,"pressure":994.1,"uv_index":4.3,"wind_gusts":35.3,"aqi":113,"pm10":62.9,"pm2_5":47.3,"mosquito_risk":3,"arthritis_risk":5,"migraine_risk":3,"frizz_risk":1,"updated_at":"2026-03-24T14:27:29.878594+05:30"},{"city":"Durgapur","state":"West Bengal","latitude":23.5204,"longitude":87.3119,"temp":31.8,"humidity":45,"rain":0.0,"pressure":995.4,"uv_index":8.05,"wind_gusts":24.1,"aqi":157,"pm10":80.1,"pm2_5":50.3,"mosquito_risk":0,"arthritis_risk":5,"migraine_risk":7,"frizz_risk":1,"updated_at":"2026-03-24T14:27:29.878626+05:30"},{"city":"Asansol","state":"West Bengal","latitude":23.6739,"longitude":86.9524,"temp":32.0,"humidity":41,"rain":0.0,"pressure":994.0,"uv_index":8.05,"wind_gusts":24.8,"aqi":154,"pm10":78.5,"pm2_5":45.6,"mosquito_risk":0,"arthritis_risk":5,"migraine_risk":7,"frizz_risk":1,"updated_at":"2026-03-24T14:27:29.878638+05:30"},{"city":"Pondicherry","state":"Puducherry","latitude":11.9139,"longitude":79.8145,"temp":33.3,"humidity":53,"rain":0.0,"pressure":1008.3,"uv_index":9.2,"wind_gusts":30.2,"aqi":33,"pm10":10.4,"pm2_5":6.6,"mosquito_risk":0,"arthritis_risk":0,"migraine_risk":4,"frizz_risk":1,"updated_at":"2026-03-24T14:27:29.878647+05:30"},{"city":"Port Blair","state":"Andaman and Nicobar Islands","latitude":11.6234,"longitude":92.7265,"temp":28.2,"humidity":72,"rain":0.0,"pressure":1005.9,"uv_index":9.15,"wind_gusts":22.7,"aqi":69,"pm10":31.3,"pm2_5":19.6,"mosquito_risk":7,"arthritis_risk":5,"migraine_risk":4,"frizz_risk":1,"updated_at":"2026-03-24T14:27:29.878656+05:30"},{"city":"Haridwar","state":"Uttarakhand","latitude":29.9457,"longitude":78.1642,"temp":28.8,"humidity":42,"rain":0.0,"pressure":975.7,"uv_index":6.4,"wind_gusts":34.9,"aqi":112,"pm10":44.7,"pm2_5":31.3,"mosquito_risk":4,"arthritis_risk":5,"migraine_risk":7,"frizz_risk":0,"updated_at":"2026-03-24T14:27:29.878664+05:30"},{"city":"Rishikesh","state":"Uttarakhand","latitude":30.0869,"longitude":78.2676,"temp":27.3,"humidity":47,"rain":0.0,"pressure":968.4,"uv_index":6.45,"wind_gusts":32.4,"aqi":89,"pm10":37.0,"pm2_5":22.8,"mosquito_risk":4,"arthritis_risk":5,"migraine_risk":7,"frizz_risk":0,"updated_at":"2026-03-24T14:27:29.878674+05:30"},{"city":"Nainital","state":"Uttarakhand","latitude":29.3919,"longitude":79.4542,"temp":19.1,"humidity":61,"rain":0.0,"pressure":806.9,"uv_index":7.3,"wind_gusts":55.4,"aqi":99,"pm10":41.9,"pm2_5":24.0,"mosquito_risk":3,"arthritis_risk":5,"migraine_risk":7,"frizz_risk":0,"updated_at":"2026-03-24T14:27:29.878682+05:30"},{"city":"Mussoorie","state":"Uttarakhand","latitude":30.4599,"longitude":78.0664,"temp":18.1,"humidity":58,"rain":0.0,"pressure":803.7,"uv_index":6.8,"wind_gusts":40.0,"aqi":80,"pm10":38.8,"pm2_5":25.8,"mosquito_risk":0,"arthritis_risk":5,"migraine_risk":7,"frizz_risk":0,"updated_at":"2026-03-24T14:27:29.878690+05:30"},{"city":"Dharamshala","state":"Himachal Pradesh","latitude":32.219,"longitude":76.3234,"temp":20.7,"humidity":55,"rain":0.0,"pressure":870.7,"uv_index":7.05,"wind_gusts":27.0,"aqi":74,"pm10":18.9,"pm2_5":8.8,"mosquito_risk":0,"arthritis_risk":5,"migraine_risk":7,"frizz_risk":0,"updated_at":"2026-03-24T14:27:29.878698+05:30"},{"city":"Dalhousie","state":"Himachal Pradesh","latitude":32.5387,"longitude":75.971,"temp":18.7,"humidity":52,"rain":0.0,"pressure":805.5,"uv_index":7.3,"wind_gusts":23.8,"aqi":71,"pm10":21.4,"pm2_5":12.6,"mosquito_risk":0,"arthritis_risk":5,"migraine_risk":7,"frizz_risk":0,"updated_at":"2026-03-24T14:27:29.878707+05:30"},{"city":"Patiala","state":"Punjab","latitude":30.3398,"longitude":76.3869,"temp":29.0,"humidity":38,"rain":0.0,"pressure":980.3,"uv_index":6.4,"wind_gusts":33.1,"aqi":158,"pm10":482.4,"pm2_5":61.7,"mosquito_risk":4,"arthritis_risk":5,"migraine_risk":7,"frizz_risk":0,"updated_at":"2026-03-24T14:27:29.878715+05:30"},{"city":"Bhatinda","state":"Punjab","latitude":30.211,"longitude":74.9455,"temp":31.1,"humidity":34,"rain":0.0,"pressure":986.1,"uv_index":7.0,"wind_gusts":22.7,"aqi":135,"pm10":64.5,"pm2_5":31.1,"mosquito_risk":0,"arthritis_risk":5,"migraine_risk":7,"frizz_risk":0,"updated_at":"2026-03-24T14:27:29.878723+05:30"},{"city":"Rohtak","state":"Haryana","latitude":28.8955,"longitude":76.6066,"temp":30.3,"humidity":37,"rain":0.0,"pressure":983.7,"uv_index":6.25,"wind_gusts":24.8,"aqi":157,"pm10":380.0,"pm2_5":54.4,"mosquito_risk":0,"arthritis_risk":5,"migraine_risk":7,"frizz_risk":0,"updated_at":"2026-03-24T14:27:29.878731+05:30"},{"city":"Panipat","state":"Haryana","latitude":29.3909,"longitude":76.9635,"temp":29.8,"humidity":38,"rain":0.0,"pressure":982.4,"uv_index":5.95,"wind_gusts":29.5,"aqi":154,"pm10":746.9,"pm2_5":81.3,"mosquito_risk":4,"arthritis_risk":5,"migraine_risk":3,"frizz_risk":0,"updated_at":"2026-03-24T14:27:29.878738+05:30"},{"city":"Mathura","state":"Uttar Pradesh","latitude":27.4924,"longitude":77.6737,"temp":31.6,"humidity":37,"rain":0.0,"pressure":988.5,"uv_index":6.45,"wind_gusts":25.6,"aqi":151,"pm10":433.1,"pm2_5":55.6,"mosquito_risk":0,"arthritis_risk":5,"migraine_risk":7,"frizz_risk":0,"updated_at":"2026-03-24T14:27:29.878746+05:30"},{"city":"Vrindavan","state":"Uttar Pradesh","latitude":27.5823,"longitude":77.7027,"temp":31.2,"humidity":39,"rain":0.0,"pressure":988.9,"uv_index":6.45,"wind_gusts":28.1,"aqi":151,"pm10":433.1,"pm2_5":55.6,"mosquito_risk":0,"arthritis_risk":5,"migraine_risk":7,"frizz_risk":0,"updated_at":"2026-03-24T14:27:29.878753+05:30"},{"city":"Ayodhya","state":"Uttar Pradesh","latitude":26.7922,"longitude":82.1998,"temp":32.4,"humidity":34,"rain":0.0,"pressure":995.6,"uv_index":7.2,"wind_gusts":35.6,"aqi":118,"pm10":43.5,"pm2_5":25.5,"mosquito_risk":0,"arthritis_risk":5,"migraine_risk":7,"frizz_risk":0,"updated_at":"2026-03-24T14:27:29.878760+05:30"},{"city":"Ratlam","state":"Madhya Pradesh","latitude":23.3315,"longitude":75.0367,"temp":33.5,"humidity":30,"rain":0.0,"pressure":955.3,"uv_index":8.05,"wind_gusts":22.3,"aqi":57,"pm10":34.7,"pm2_5":15.0,"mosquito_risk":0,"arthritis_risk":5,"migraine_risk":7,"frizz_risk":0,"updated_at":"2026-03-24T14:27:29.878768+05:30"},{"city":"Sagar","state":"Madhya Pradesh","latitude":23.8388,"longitude":78.7378,"temp":33.6,"humidity":26,"rain":0.0,"pressure":951.0,"uv_index":8.05,"wind_gusts":26.3,"aqi":75,"pm10":58.0,"pm2_5":20.5,"mosquito_risk":0,"arthritis_risk":5,"migraine_risk":7,"frizz_risk":0,"updated_at":"2026-03-24T14:27:29.878776+05:30"},{"city":"Satna","state":"Madhya Pradesh","latitude":24.6005,"longitude":80.8322,"temp":33.2,"humidity":29,"rain":0.0,"pressure":971.8,"uv_index":7.5,"wind_gusts":29.9,"aqi":86,"pm10":69.6,"pm2_5":23.5,"mosquito_risk":0,"arthritis_risk":5,"migraine_risk":7,"frizz_risk":0,"updated_at":"2026-03-24T14:27:29.878783+05:30"},{"city":"Akola","state":"Maharashtra","latitude":20.7002,"longitude":77.0082,"temp":36.8,"humidity":24,"rain":0.0,"pressure":975.3,"uv_index":8.45,"wind_gusts":27.7,"aqi":77,"pm10":32.6,"pm2_5":13.9,"mosquito_risk":0,"arthritis_risk":5,"migraine_risk":10,"frizz_risk":0,"updated_at":"2026-03-24T14:27:29.878792+05:30"},{"city":"Amravati","state":"Maharashtra","latitude":20.9374,"longitude":77.7796,"temp":36.5,"humidity":21,"rain":0.0,"pressure":967.3,"uv_index":8.45,"wind_gusts":29.2,"aqi":87,"pm10":33.2,"pm2_5":14.5,"mosquito_risk":0,"arthritis_risk":5,"migraine_risk":10,"frizz_risk":0,"updated_at":"2026-03-24T14:27:29.878821+05:30"},{"city":"Latur","state":"Maharashtra","latitude":18.4088,"longitude":76.5604,"temp":34.8,"humidity":25,"rain":0.0,"pressure":939.9,"uv_index":8.75,"wind_gusts":19.8,"aqi":96,"pm10":46.6,"pm2_5":33.4,"mosquito_risk":0,"arthritis_risk":5,"migraine_risk":7,"frizz_risk":0,"updated_at":"2026-03-24T14:27:29.878831+05:30"},{"city":"Nanded","state":"Maharashtra","latitude":19.1383,"longitude":77.3091,"temp":37.5,"humidity":22,"rain":0.0,"pressure":968.4,"uv_index":8.6,"wind_gusts":22.7,"aqi":99,"pm10":31.8,"pm2_5":20.9,"mosquito_risk":0,"arthritis_risk":5,"migraine_risk":10,"frizz_risk":0,"updated_at":"2026-03-24T14:27:29.878839+05:30"},{"city":"Gulbarga","state":"Karnataka","latitude":17.3297,"longitude":76.8343,"temp":36.6,"humidity":25,"rain":0.0,"pressure":958.0,"uv_index":8.8,"wind_gusts":30.6,"aqi":84,"pm10":36.6,"pm2_5":26.3,"mosquito_risk":0,"arthritis_risk":5,"migraine_risk":10,"frizz_risk":0,"updated_at":"2026-03-24T14:27:29.878847+05:30"},{"city":"Bidar","state":"Karnataka","latitude":17.9104,"longitude":77.5199,"temp":34.4,"humidity":30,"rain":0.0,"pressure":935.9,"uv_index":8.85,"wind_gusts":34.2,"aqi":91,"pm10":39.6,"pm2_5":28.2,"mosquito_risk":0,"arthritis_risk":5,"migraine_risk":7,"frizz_risk":0,"updated_at":"2026-03-24T14:27:29.878854+05:30"},{"city":"Hospet","state":"Karnataka","latitude":15.2689,"longitude":76.3909,"temp":33.5,"humidity":42,"rain":0.0,"pressure":955.8,"uv_index":9.05,"wind_gusts":23.0,"aqi":95,"pm10":34.1,"pm2_5":26.0,"mosquito_risk":0,"arthritis_risk":5,"migraine_risk":7,"frizz_risk":1,"updated_at":"2026-03-24T14:27:29.878862+05:30"},{"city":"Tirupur","state":"Tamil Nadu","latitude":11.1085,"longitude":77.3411,"temp":36.3,"humidity":31,"rain":0.0,"pressure":974.6,"uv_index":9.4,"wind_gusts":28.1,"aqi":65,"pm10":25.9,"pm2_5":18.7,"mosquito_risk":0,"arthritis_risk":5,"migraine_risk":10,"frizz_risk":1,"updated_at":"2026-03-24T14:27:29.878870+05:30"},{"city":"Alappuzha","state":"Kerala","latitude":9.4981,"longitude":76.3388,"temp":28.9,"humidity":78,"rain":0.0,"pressure":1007.6,"uv_index":9.15,"wind_gusts":31.7,"aqi":84,"pm10":43.5,"pm2_5":30.7,"mosquito_risk":7,"arthritis_risk":5,"migraine_risk":4,"frizz_risk":1,"updated_at":"2026-03-24T14:27:29.878878+05:30"},{"city":"Munnar","state":"Kerala","latitude":10.0889,"longitude":77.0595,"temp":31.1,"humidity":35,"rain":0.0,"pressure":859.1,"uv_index":9.65,"wind_gusts":28.8,"aqi":65,"pm10":19.2,"pm2_5":12.2,"mosquito_risk":0,"arthritis_risk":5,"migraine_risk":7,"frizz_risk":0,"updated_at":"2026-03-24T14:27:29.878886+05:30"},{"city":"Silchar","state":"Assam","latitude":24.8333,"longitude":92.7789,"temp":28.7,"humidity":52,"rain":0.0,"pressure":1004.9,"uv_index":8.05,"wind_gusts":19.8,"aqi":125,"pm10":39.9,"pm2_5":34.5,"mosquito_risk":4,"arthritis_risk":5,"migraine_risk":4,"frizz_risk":1,"updated_at":"2026-03-24T14:27:29.878894+05:30"},{"city":"Dibrugarh","state":"Assam","latitude":27.4728,"longitude":94.912,"temp":22.4,"humidity":81,"rain":0.0,"pressure":996.3,"uv_index":7.2,"wind_gusts":15.5,"aqi":78,"pm10":17.5,"pm2_5":14.1,"mosquito_risk":3,"arthritis_risk":5,"migraine_risk":7,"frizz_risk":1,"updated_at":"2026-03-24T14:27:29.878902+05:30"}]