[{"city":"Delhi","state":"Delhi","latitude":28.6139,"longitude":77.209,"temp":39.1,"humidity":36,"rain":0.0,"pressure":976.3,"uv_index":7.8,"wind_gusts":40.7,"aqi":343,"pm10":743.2,"pm2_5":130.4,"no2":10.6,"co":262.0,"o3":118.0,"so2":14.8,"mosquito_risk":0,"arthritis_risk":5,"migraine_risk":10,"frizz_risk":1,"updated_at":"2026-06-10T10:51:33.703647+05:30"},{"city":"Mumbai","state":"Maharashtra","latitude":19.076,"longitude":72.8777,"temp":32.1,"humidity":63,"rain":0.1,"pressure":1007.6,"uv_index":7.1,"wind_gusts":45.4,"aqi":81,"pm10":63.1,"pm2_5":26.5,"no2":5.1,"co":191.0,"o3":80.0,"so2":5.8,"mosquito_risk":6,"arthritis_risk":5,"migraine_risk":4,"frizz_risk":1,"updated_at":"2026-06-10T10:51:33.703694+05:30"},{"city":"Bangalore","state":"Karnataka","latitude":12.9716,"longitude":77.5946,"temp":28.3,"humidity":51,"rain":0.0,"pressure":913.0,"uv_index":5.15,"wind_gusts":54.4,"aqi":19,"pm10":13.4,"pm2_5":6.5,"no2":4.9,"co":294.0,"o3":72.0,"so2":3.2,"mosquito_risk":4,"arthritis_risk":5,"migraine_risk":3,"frizz_risk":1,"updated_at":"2026-06-10T10:51:33.703710+05:30"},{"city":"Hyderabad","state":"Telangana","latitude":17.385,"longitude":78.4867,"temp":31.3,"humidity":58,"rain":0.0,"pressure":951.9,"uv_index":9.0,"wind_gusts":52.2,"aqi":71,"pm10":34.9,"pm2_5":16.8,"no2":2.9,"co":258.0,"o3":86.0,"so2":4.0,"mosquito_risk":0,"arthritis_risk":5,"migraine_risk":7,"frizz_risk":1,"updated_at":"2026-06-10T10:51:33.703720+05:30"},{"city":"Chennai","state":"Tamil Nadu","latitude":13.0827,"longitude":80.2707,"temp":34.8,"humidity":45,"rain":0.0,"pressure":1005.3,"uv_index":8.05,"wind_gusts":45.4,"aqi":51,"pm10":18.7,"pm2_5":10.7,"no2":7.1,"co":193.0,"o3":87.0,"so2":12.5,"mosquito_risk":0,"arthritis_risk":5,"migraine_risk":4,"frizz_risk":1,"updated_at":"2026-06-10T10:51:33.703729+05:30"},{"city":"Kolkata","state":"West Bengal","latitude":22.5726,"longitude":88.3639,"temp":34.9,"humidity":68,"rain":0.0,"pressure":1000.4,"uv_index":8.95,"wind_gusts":45.7,"aqi":132,"pm10":52.4,"pm2_5":39.9,"no2":2.6,"co":468.0,"o3":156.0,"so2":10.8,"mosquito_risk":3,"arthritis_risk":5,"migraine_risk":4,"frizz_risk":1,"updated_at":"2026-06-10T10:51:33.703737+05:30"},{"city":"Pune","state":"Maharashtra","latitude":18.5204,"longitude":73.8567,"temp":31.9,"humidity":48,"rain":0.0,"pressure":948.2,"uv_index":8.2,"wind_gusts":49.0,"aqi":54,"pm10":32.7,"pm2_5":14.0,"no2":2.6,"co":139.0,"o3":78.0,"so2":4.6,"mosquito_risk":0,"arthritis_risk":5,"migraine_risk":7,"frizz_risk":1,"updated_at":"2026-06-10T10:51:33.703743+05:30"},{"city":"Ahmedabad","state":"Gujarat","latitude":23.0225,"longitude":72.5714,"temp":35.7,"humidity":46,"rain":0.0,"pressure":998.6,"uv_index":8.05,"wind_gusts":44.3,"aqi":85,"pm10":67.5,"pm2_5":28.3,"no2":2.2,"co":132.0,"o3":79.0,"so2":4.4,"mosquito_risk":0,"arthritis_risk":5,"migraine_risk":10,"frizz_risk":1,"updated_at":"2026-06-10T10:51:33.703749+05:30"},{"city":"Jaipur","state":"Rajasthan","latitude":26.9124,"longitude":75.7873,"temp":36.0,"humidity":43,"rain":0.0,"pressure":955.0,"uv_index":8.25,"wind_gusts":50.4,"aqi":139,"pm10":307.3,"pm2_5":61.2,"no2":1.7,"co":150.0,"o3":92.0,"so2":3.6,"mosquito_risk":0,"arthritis_risk":5,"migraine_risk":10,"frizz_risk":1,"updated_at":"2026-06-10T10:51:33.703761+05:30"},{"city":"Lucknow","state":"Uttar Pradesh","latitude":26.8467,"longitude":80.9462,"temp":38.4,"humidity":30,"rain":0.0,"pressure":987.4,"uv_index":8.35,"wind_gusts":34.9,"aqi":163,"pm10":363.2,"pm2_5":99.2,"no2":7.3,"co":314.0,"o3":177.0,"so2":11.3,"mosquito_risk":0,"arthritis_risk":5,"migraine_risk":10,"frizz_risk":1,"updated_at":"2026-06-10T10:51:33.703767+05:30"},{"city":"Kanpur","state":"Uttar Pradesh","latitude":26.4499,"longitude":80.3319,"temp":39.4,"humidity":28,"rain":0.0,"pressure":985.9,"uv_index":8.35,"wind_gusts":44.6,"aqi":336,"pm10":1031.9,"pm2_5":154.6,"no2":3.8,"co":165.0,"o3":132.0,"so2":7.1,"mosquito_risk":0,"arthritis_risk":5,"migraine_risk":10,"frizz_risk":1,"updated_at":"2026-06-10T10:51:33.703774+05:30"},{"city":"Chandigarh","state":"Chandigarh","latitude":30.7333,"longitude":76.7794,"temp":36.7,"humidity":27,"rain":0.0,"pressure":962.2,"uv_index":7.85,"wind_gusts":26.6,"aqi":95,"pm10":135.0,"pm2_5":51.9,"no2":5.2,"co":389.0,"o3":197.0,"so2":11.2,"mosquito_risk":0,"arthritis_risk":5,"migraine_risk":10,"frizz_risk":0,"updated_at":"2026-06-10T10:51:33.703781+05:30"},{"city":"Srinagar","state":"Jammu and Kashmir","latitude":34.0837,"longitude":74.7973,"temp":25.0,"humidity":42,"rain":0.0,"pressure":841.0,"uv_index":9.05,"wind_gusts":17.6,"aqi":78,"pm10":26.5,"pm2_5":16.2,"no2":3.8,"co":384.0,"o3":153.0,"so2":4.4,"mosquito_risk":4,"arthritis_risk":5,"migraine_risk":7,"frizz_risk":0,"updated_at":"2026-06-10T10:51:33.703788+05:30"},{"city":"Jammu","state":"Jammu and Kashmir","latitude":32.7266,"longitude":74.857,"temp":39.8,"humidity":16,"rain":0.0,"pressure":965.1,"uv_index":8.65,"wind_gusts":33.5,"aqi":77,"pm10":40.2,"pm2_5":21.8,"no2":6.2,"co":273.0,"o3":168.0,"so2":5.1,"mosquito_risk":0,"arthritis_risk":5,"migraine_risk":10,"frizz_risk":0,"updated_at":"2026-06-10T10:51:33.703794+05:30"},{"city":"Amritsar","state":"Punjab","latitude":31.634,"longitude":74.8723,"temp":38.2,"humidity":30,"rain":0.0,"pressure":972.9,"uv_index":8.5,"wind_gusts":23.4,"aqi":121,"pm10":59.6,"pm2_5":33.2,"no2":4.6,"co":411.0,"o3":166.0,"so2":8.8,"mosquito_risk":0,"arthritis_risk":5,"migraine_risk":10,"frizz_risk":1,"updated_at":"2026-06-10T10:51:33.703801+05:30"},{"city":"Ludhiana","state":"Punjab","latitude":30.901,"longitude":75.8573,"temp":38.8,"humidity":24,"rain":0.0,"pressure":971.0,"uv_index":8.05,"wind_gusts":24.8,"aqi":117,"pm10":172.3,"pm2_5":65.7,"no2":7.7,"co":501.0,"o3":176.0,"so2":12.8,"mosquito_risk":0,"arthritis_risk":5,"migraine_risk":10,"frizz_risk":0,"updated_at":"2026-06-10T10:51:33.703807+05:30"},{"city":"Jalandhar","state":"Punjab","latitude":31.326,"longitude":75.5762,"temp":38.8,"humidity":26,"rain":0.0,"pressure":972.0,"uv_index":8.25,"wind_gusts":25.6,"aqi":112,"pm10":59.0,"pm2_5":38.9,"no2":5.9,"co":432.0,"o3":191.0,"so2":10.3,"mosquito_risk":0,"arthritis_risk":5,"migraine_risk":10,"frizz_risk":0,"updated_at":"2026-06-10T10:51:33.703814+05:30"},{"city":"Dehradun","state":"Uttarakhand","latitude":30.6284,"longitude":78.0322,"temp":24.7,"humidity":51,"rain":0.0,"pressure":829.3,"uv_index":8.3,"wind_gusts":42.1,"aqi":67,"pm10":30.0,"pm2_5":19.7,"no2":1.2,"co":202.0,"o3":162.0,"so2":2.0,"mosquito_risk":0,"arthritis_risk":5,"migraine_risk":7,"frizz_risk":0,"updated_at":"2026-06-10T10:51:33.703823+05:30"},{"city":"Shimla","state":"Himachal Pradesh","latitude":31.1048,"longitude":77.1734,"temp":25.3,"humidity":27,"rain":0.0,"pressure":786.0,"uv_index":8.35,"wind_gusts":49.0,"aqi":75,"pm10":23.8,"pm2_5":15.3,"no2":1.0,"co":195.0,"o3":170.0,"so2":1.4,"mosquito_risk":4,"arthritis_risk":5,"migraine_risk":7,"frizz_risk":0,"updated_at":"2026-06-10T10:51:33.703831+05:30"},{"city":"Manali","state":"Himachal Pradesh","latitude":32.2396,"longitude":77.1887,"temp":26.5,"humidity":30,"rain":0.0,"pressure":818.8,"uv_index":9.65,"wind_gusts":40.0,"aqi":52,"pm10":15.0,"pm2_5":9.5,"no2":7.3,"co":142.0,"o3":131.0,"so2":0.4,"mosquito_risk":4,"arthritis_risk":5,"migraine_risk":7,"frizz_risk":0,"updated_at":"2026-06-10T10:51:33.703837+05:30"},{"city":"Gurgaon","state":"Haryana","latitude":28.4595,"longitude":77.0266,"temp":38.8,"humidity":38,"rain":0.0,"pressure":974.9,"uv_index":7.9,"wind_gusts":42.5,"aqi":1561,"pm10":1493.8,"pm2_5":214.2,"no2":9.3,"co":196.0,"o3":109.0,"so2":11.1,"mosquito_risk":0,"arthritis_risk":5,"migraine_risk":10,"frizz_risk":1,"updated_at":"2026-06-10T10:51:33.703846+05:30"},{"city":"Noida","state":"Uttar Pradesh","latitude":28.5355,"longitude":77.391,"temp":38.0,"humidity":40,"rain":0.0,"pressure":977.9,"uv_index":7.85,"wind_gusts":38.9,"aqi":1561,"pm10":1493.8,"pm2_5":214.2,"no2":9.3,"co":272.0,"o3":109.0,"so2":11.1,"mosquito_risk":0,"arthritis_risk":5,"migraine_risk":10,"frizz_risk":1,"updated_at":"2026-06-10T10:51:33.703852+05:30"},{"city":"Ghaziabad","state":"Uttar Pradesh","latitude":28.6692,"longitude":77.4538,"temp":37.4,"humidity":40,"rain":0.0,"pressure":976.2,"uv_index":7.85,"wind_gusts":32.8,"aqi":194,"pm10":616.5,"pm2_5":122.9,"no2":8.7,"co":253.0,"o3":149.0,"so2":19.9,"mosquito_risk":0,"arthritis_risk":5,"migraine_risk":10,"frizz_risk":1,"updated_at":"2026-06-10T10:51:33.703858+05:30"},{"city":"Faridabad","state":"Haryana","latitude":28.4089,"longitude":77.3178,"temp":37.8,"humidity":40,"rain":0.0,"pressure":977.2,"uv_index":7.9,"wind_gusts":40.7,"aqi":1561,"pm10":1493.8,"pm2_5":214.2,"no2":9.3,"co":235.0,"o3":109.0,"so2":11.1,"mosquito_risk":0,"arthritis_risk":5,"migraine_risk":10,"frizz_risk":1,"updated_at":"2026-06-10T10:51:33.703864+05:30"},{"city":"Meerut","state":"Uttar Pradesh","latitude":28.9845,"longitude":77.7064,"temp":36.9,"humidity":43,"rain":0.0,"pressure":975.0,"uv_index":7.75,"wind_gusts":34.9,"aqi":194,"pm10":616.5,"pm2_5":122.9,"no2":8.7,"co":222.0,"o3":149.0,"so2":19.9,"mosquito_risk":0,"arthritis_risk":5,"migraine_risk":10,"frizz_risk":1,"updated_at":"2026-06-10T10:51:33.703870+05:30"},{"city":"Agra","state":"Uttar Pradesh","latitude":27.1767,"longitude":78.0081,"temp":38.2,"humidity":38,"rain":0.0,"pressure":982.2,"uv_index":8.15,"wind_gusts":45.0,"aqi":1306,"pm10":1005.8,"pm2_5":137.4,"no2":4.2,"co":163.0,"o3":114.0,"so2":5.2,"mosquito_risk":0,"arthritis_risk":5,"migraine_risk":10,"frizz_risk":1,"updated_at":"2026-06-10T10:51:33.703876+05:30"},{"city":"Varanasi","state":"Uttar Pradesh","latitude":25.3176,"longitude":82.9739,"temp":39.7,"humidity":30,"rain":0.0,"pressure":990.9,"uv_index":8.8,"wind_gusts":40.3,"aqi":108,"pm10":55.2,"pm2_5":31.5,"no2":4.1,"co":237.0,"o3":136.0,"so2":10.0,"mosquito_risk":0,"arthritis_risk":5,"migraine_risk":10,"frizz_risk":1,"updated_at":"2026-06-10T10:51:33.703883+05:30"},{"city":"Prayagraj","state":"Uttar Pradesh","latitude":25.4358,"longitude":81.8463,"temp":40.7,"humidity":22,"rain":0.0,"pressure":989.7,"uv_index":8.7,"wind_gusts":51.8,"aqi":116,"pm10":39.8,"pm2_5":25.7,"no2":3.7,"co":183.0,"o3":139.0,"so2":9.1,"mosquito_risk":0,"arthritis_risk":5,"migraine_risk":10,"frizz_risk":0,"updated_at":"2026-06-10T10:51:33.703889+05:30"},{"city":"Gorakhpur","state":"Uttar Pradesh","latitude":26.7606,"longitude":83.3732,"temp":33.6,"humidity":59,"rain":0.0,"pressure":991.5,"uv_index":8.7,"wind_gusts":48.6,"aqi":158,"pm10":89.9,"pm2_5":58.4,"no2":3.4,"co":399.0,"o3":187.0,"so2":12.0,"mosquito_risk":0,"arthritis_risk":5,"migraine_risk":7,"frizz_risk":1,"updated_at":"2026-06-10T10:51:33.703897+05:30"},{"city":"Bareilly","state":"Uttar Pradesh","latitude":28.367,"longitude":79.4304,"temp":35.8,"humidity":41,"rain":0.0,"pressure":980.9,"uv_index":8.1,"wind_gusts":32.0,"aqi":130,"pm10":160.7,"pm2_5":61.5,"no2":4.8,"co":437.0,"o3":203.0,"so2":12.9,"mosquito_risk":0,"arthritis_risk":5,"migraine_risk":10,"frizz_risk":1,"updated_at":"2026-06-10T10:51:33.703903+05:30"},{"city":"Aligarh","state":"Uttar Pradesh","latitude":27.8974,"longitude":78.088,"temp":37.3,"humidity":39,"rain":0.0,"pressure":979.7,"uv_index":8.0,"wind_gusts":34.6,"aqi":845,"pm10":851.2,"pm2_5":143.9,"no2":5.6,"co":202.0,"o3":109.0,"so2":8.5,"mosquito_risk":0,"arthritis_risk":5,"migraine_risk":10,"frizz_risk":1,"updated_at":"2026-06-10T10:51:33.703909+05:30"},{"city":"Moradabad","state":"Uttar Pradesh","latitude":28.8386,"longitude":78.7733,"temp":36.8,"humidity":35,"rain":0.0,"pressure":977.7,"uv_index":7.95,"wind_gusts":34.9,"aqi":158,"pm10":132.7,"pm2_5":57.5,"no2":7.7,"co":369.0,"o3":219.0,"so2":18.0,"mosquito_risk":0,"arthritis_risk":5,"migraine_risk":10,"frizz_risk":1,"updated_at":"2026-06-10T10:51:33.703915+05:30"},{"city":"Saharanpur","state":"Uttar Pradesh","latitude":29.9637,"longitude":77.546,"temp":35.3,"humidity":36,"rain":0.0,"pressure":969.4,"uv_index":7.5,"wind_gusts":27.7,"aqi":141,"pm10":330.6,"pm2_5":83.1,"no2":6.3,"co":396.0,"o3":182.0,"so2":8.8,"mosquito_risk":0,"arthritis_risk":5,"migraine_risk":10,"frizz_risk":1,"updated_at":"2026-06-10T10:51:33.703921+05:30"},{"city":"Jhansi","state":"Uttar Pradesh","latitude":25.4484,"longitude":78.5685,"temp":38.0,"humidity":39,"rain":0.0,"pressure":973.2,"uv_index":8.5,"wind_gusts":44.6,"aqi":72,"pm10":51.9,"pm2_5":30.0,"no2":1.8,"co":150.0,"o3":112.0,"so2":8.8,"mosquito_risk":0,"arthritis_risk":5,"migraine_risk":10,"frizz_risk":1,"updated_at":"2026-06-10T10:51:36.993820+05:30"},{"city":"Surat","state":"Gujarat","latitude":21.1702,"longitude":72.8311,"temp":33.8,"humidity":58,"rain":0.0,"pressure":1004.6,"uv_index":7.6,"wind_gusts":52.9,"aqi":90,"pm10":73.3,"pm2_5":34.0,"no2":11.1,"co":244.0,"o3":62.0,"so2":34.2,"mosquito_risk":0,"arthritis_risk":5,"migraine_risk":4,"frizz_risk":1,"updated_at":"2026-06-10T10:51:36.993856+05:30"},{"city":"Vadodara","state":"Gujarat","latitude":22.3072,"longitude":73.1812,"temp":35.5,"humidity":49,"rain":0.0,"pressure":1001.1,"uv_index":8.0,"wind_gusts":50.0,"aqi":86,"pm10":75.0,"pm2_5":30.5,"no2":2.2,"co":137.0,"o3":78.0,"so2":3.2,"mosquito_risk":0,"arthritis_risk":5,"migraine_risk":7,"frizz_risk":1,"updated_at":"2026-06-10T10:51:36.993867+05:30"},{"city":"Rajkot","state":"Gujarat","latitude":22.3039,"longitude":70.8022,"temp":35.1,"humidity":47,"rain":0.0,"pressure":991.3,"uv_index":7.55,"wind_gusts":48.2,"aqi":81,"pm10":54.8,"pm2_5":24.3,"no2":1.5,"co":107.0,"o3":78.0,"so2":3.7,"mosquito_risk":0,"arthritis_risk":5,"migraine_risk":10,"frizz_risk":1,"updated_at":"2026-06-10T10:51:36.993876+05:30"},{"city":"Thane","state":"Maharashtra","latitude":19.2183,"longitude":72.9781,"temp":32.4,"humidity":65,"rain":0.0,"pressure":1006.9,"uv_index":7.45,"wind_gusts":42.5,"aqi":81,"pm10":63.1,"pm2_5":26.5,"no2":5.1,"co":164.0,"o3":80.0,"so2":5.8,"mosquito_risk":3,"arthritis_risk":5,"migraine_risk":4,"frizz_risk":1,"updated_at":"2026-06-10T10:51:36.993885+05:30"},{"city":"Nagpur","state":"Maharashtra","latitude":21.1458,"longitude":79.0882,"temp":38.1,"humidity":35,"rain":0.0,"pressure":970.3,"uv_index":6.7,"wind_gusts":50.0,"aqi":92,"pm10":61.2,"pm2_5":35.7,"no2":5.4,"co":167.0,"o3":134.0,"so2":20.7,"mosquito_risk":0,"arthritis_risk":5,"migraine_risk":10,"frizz_risk":1,"updated_at":"2026-06-10T10:51:36.993894+05:30"},{"city":"Nashik","state":"Maharashtra","latitude":19.9975,"longitude":73.7898,"temp":31.0,"humidity":56,"rain":0.0,"pressure":945.0,"uv_index":8.05,"wind_gusts":50.4,"aqi":72,"pm10":40.2,"pm2_5":17.5,"no2":2.2,"co":122.0,"o3":72.0,"so2":2.3,"mosquito_risk":0,"arthritis_risk":5,"migraine_risk":7,"frizz_risk":1,"updated_at":"2026-06-10T10:51:36.993901+05:30"},{"city":"Aurangabad","state":"Maharashtra","latitude":19.8762,"longitude":75.3433,"temp":33.1,"humidity":44,"rain":0.0,"pressure":943.8,"uv_index":8.95,"wind_gusts":49.0,"aqi":73,"pm10":50.4,"pm2_5":20.7,"no2":1.9,"co":134.0,"o3":84.0,"so2":4.7,"mosquito_risk":0,"arthritis_risk":5,"migraine_risk":7,"frizz_risk":1,"updated_at":"2026-06-10T10:51:36.993910+05:30"},{"city":"Solapur","state":"Maharashtra","latitude":17.6599,"longitude":75.9064,"temp":32.8,"humidity":47,"rain":0.0,"pressure":956.9,"uv_index":8.35,"wind_gusts":48.6,"aqi":53,"pm10":32.8,"pm2_5":12.2,"no2":1.3,"co":123.0,"o3":77.0,"so2":2.1,"mosquito_risk":0,"arthritis_risk":5,"migraine_risk":7,"frizz_risk":1,"updated_at":"2026-06-10T10:51:36.993919+05:30"},{"city":"Kolhapur","state":"Maharashtra","latitude":16.705,"longitude":74.2433,"temp":28.6,"humidity":65,"rain":0.1,"pressure":948.7,"uv_index":5.75,"wind_gusts":51.5,"aqi":25,"pm10":11.8,"pm2_5":5.9,"no2":2.2,"co":132.0,"o3":68.0,"so2":1.8,"mosquito_risk":10,"arthritis_risk":5,"migraine_risk":3,"frizz_risk":1,"updated_at":"2026-06-10T10:51:36.993927+05:30"},{"city":"Goa","state":"Goa","latitude":15.2993,"longitude":74.124,"temp":25.7,"humidity":99,"rain":0.1,"pressure":999.8,"uv_index":6.3,"wind_gusts":32.4,"aqi":39,"pm10":22.6,"pm2_5":8.8,"no2":1.1,"co":161.0,"o3":61.0,"so2":1.0,"mosquito_risk":10,"arthritis_risk":5,"migraine_risk":7,"frizz_risk":1,"updated_at":"2026-06-10T10:51:36.993935+05:30"},{"city":"Jodhpur","state":"Rajasthan","latitude":26.2389,"longitude":73.0243,"temp":34.3,"humidity":52,"rain":0.0,"pressure":977.7,"uv_index":8.45,"wind_gusts":51.8,"aqi":157,"pm10":249.6,"pm2_5":52.5,"no2":1.2,"co":114.0,"o3":75.0,"so2":2.1,"mosquito_risk":0,"arthritis_risk":5,"migraine_risk":7,"frizz_risk":1,"updated_at":"2026-06-10T10:51:36.993942+05:30"},{"city":"Udaipur","state":"Rajasthan","latitude":24.5854,"longitude":73.7125,"temp":31.9,"humidity":54,"rain":0.0,"pressure":943.8,"uv_index":8.8,"wind_gusts":46.8,"aqi":83,"pm10":65.7,"pm2_5":26.3,"no2":0.9,"co":114.0,"o3":75.0,"so2":2.9,"mosquito_risk":0,"arthritis_risk":5,"migraine_risk":7,"frizz_risk":1,"updated_at":"2026-06-10T10:51:36.993950+05:30"},{"city":"Kota","state":"Rajasthan","latitude":25.2138,"longitude":75.8648,"temp":36.6,"humidity":41,"rain":0.0,"pressure":974.8,"uv_index":8.4,"wind_gusts":39.2,"aqi":76,"pm10":56.3,"pm2_5":30.2,"no2":2.6,"co":148.0,"o3":97.0,"so2":9.0,"mosquito_risk":0,"arthritis_risk":5,"migraine_risk":10,"frizz_risk":1,"updated_at":"2026-06-10T10:51:36.993957+05:30"},{"city":"Bikaner","state":"Rajasthan","latitude":28.0229,"longitude":73.3119,"temp":37.2,"humidity":42,"rain":0.0,"pressure":974.7,"uv_index":8.5,"wind_gusts":47.2,"aqi":120,"pm10":110.8,"pm2_5":47.6,"no2":0.8,"co":117.0,"o3":84.0,"so2":4.6,"mosquito_risk":0,"arthritis_risk":5,"migraine_risk":10,"frizz_risk":1,"updated_at":"2026-06-10T10:51:36.993965+05:30"},{"city":"Ajmer","state":"Rajasthan","latitude":26.4499,"longitude":74.6399,"temp":32.7,"humidity":55,"rain":0.0,"pressure":950.4,"uv_index":8.35,"wind_gusts":52.6,"aqi":73,"pm10":55.9,"pm2_5":26.8,"no2":1.2,"co":127.0,"o3":86.0,"so2":3.2,"mosquito_risk":0,"arthritis_risk":5,"migraine_risk":7,"frizz_risk":1,"updated_at":"2026-06-10T10:51:36.993971+05:30"},{"city":"Gwalior","state":"Madhya Pradesh","latitude":26.2183,"longitude":78.1828,"temp":38.0,"humidity":39,"rain":0.0,"pressure":978.3,"uv_index":8.3,"wind_gusts":47.5,"aqi":77,"pm10":49.7,"pm2_5":26.0,"no2":1.4,"co":148.0,"o3":104.0,"so2":4.1,"mosquito_risk":0,"arthritis_risk":5,"migraine_risk":10,"frizz_risk":1,"updated_at":"2026-06-10T10:51:36.993978+05:30"},{"city":"Indore","state":"Madhya Pradesh","latitude":22.7196,"longitude":75.8577,"temp":34.1,"humidity":46,"rain":0.0,"pressure":946.4,"uv_index":8.6,"wind_gusts":46.8,"aqi":81,"pm10":48.3,"pm2_5":26.5,"no2":2.2,"co":174.0,"o3":84.0,"so2":5.8,"mosquito_risk":0,"arthritis_risk":5,"migraine_risk":7,"frizz_risk":1,"updated_at":"2026-06-10T10:51:36.993985+05:30"},{"city":"Bhopal","state":"Madhya Pradesh","latitude":23.2599,"longitude":77.4126,"temp":34.9,"humidity":46,"rain":0.0,"pressure":951.5,"uv_index":8.65,"wind_gusts":39.6,"aqi":85,"pm10":52.4,"pm2_5":29.9,"no2":1.7,"co":173.0,"o3":98.0,"so2":7.6,"mosquito_risk":0,"arthritis_risk":5,"migraine_risk":7,"frizz_risk":1,"updated_at":"2026-06-10T10:51:36.993992+05:30"},{"city":"Jabalpur","state":"Madhya Pradesh","latitude":23.1815,"longitude":79.9864,"temp":36.9,"humidity":37,"rain":0.0,"pressure":958.4,"uv_index":8.85,"wind_gusts":38.5,"aqi":84,"pm10":46.2,"pm2_5":27.6,"no2":1.7,"co":201.0,"o3":126.0,"so2":5.8,"mosquito_risk":0,"arthritis_risk":5,"migraine_risk":10,"frizz_risk":1,"updated_at":"2026-06-10T10:51:36.993999+05:30"},{"city":"Ujjain","state":"Madhya Pradesh","latitude":23.1765,"longitude":75.7885,"temp":34.0,"humidity":48,"rain":0.0,"pressure":951.6,"uv_index":8.55,"wind_gusts":49.3,"aqi":80,"pm10":49.1,"pm2_5":27.0,"no2":1.7,"co":148.0,"o3":81.0,"so2":5.4,"mosquito_risk":0,"arthritis_risk":5,"migraine_risk":7,"frizz_risk":1,"updated_at":"2026-06-10T10:51:36.994006+05:30"},{"city":"Visakhapatnam","state":"Andhra Pradesh","latitude":17.6868,"longitude":83.2185,"temp":38.1,"humidity":45,"rain":0.0,"pressure":998.2,"uv_index":8.3,"wind_gusts":29.5,"aqi":130,"pm10":75.0,"pm2_5":52.5,"no2":16.8,"co":470.0,"o3":174.0,"so2":57.0,"mosquito_risk":0,"arthritis_risk":5,"migraine_risk":10,"frizz_risk":1,"updated_at":"2026-06-10T10:51:36.994013+05:30"},{"city":"Vijayawada","state":"Andhra Pradesh","latitude":16.5062,"longitude":80.648,"temp":35.8,"humidity":50,"rain":0.0,"pressure":999.2,"uv_index":8.25,"wind_gusts":42.5,"aqi":78,"pm10":41.7,"pm2_5":26.7,"no2":3.8,"co":198.0,"o3":108.0,"so2":7.8,"mosquito_risk":0,"arthritis_risk":5,"migraine_risk":10,"frizz_risk":1,"updated_at":"2026-06-10T10:51:36.994020+05:30"},{"city":"Guntur","state":"Andhra Pradesh","latitude":16.3067,"longitude":80.4365,"temp":35.6,"humidity":50,"rain":0.0,"pressure":1000.5,"uv_index":7.65,"wind_gusts":48.6,"aqi":75,"pm10":35.4,"pm2_5":22.4,"no2":3.6,"co":191.0,"o3":101.0,"so2":6.6,"mosquito_risk":0,"arthritis_risk":5,"migraine_risk":7,"frizz_risk":1,"updated_at":"2026-06-10T10:51:36.994027+05:30"},{"city":"Nellore","state":"Andhra Pradesh","latitude":14.4426,"longitude":79.9865,"temp":35.0,"humidity":47,"rain":0.0,"pressure":1003.6,"uv_index":8.5,"wind_gusts":50.0,"aqi":39,"pm10":19.7,"pm2_5":10.1,"no2":3.7,"co":130.0,"o3":77.0,"so2":6.8,"mosquito_risk":0,"arthritis_risk":5,"migraine_risk":4,"frizz_risk":1,"updated_at":"2026-06-10T10:51:36.994034+05:30"},{"city":"Kurnool","state":"Andhra Pradesh","latitude":15.8281,"longitude":78.0373,"temp":32.5,"humidity":50,"rain":0.0,"pressure":976.4,"uv_index":4.75,"wind_gusts":44.3,"aqi":52,"pm10":22.5,"pm2_5":10.8,"no2":3.4,"co":135.0,"o3":67.0,"so2":7.2,"mosquito_risk":0,"arthritis_risk":5,"migraine_risk":3,"frizz_risk":1,"updated_at":"2026-06-10T10:51:36.994042+05:30"},{"city":"Kakinada","state":"Andhra Pradesh","latitude":16.9891,"longitude":82.2475,"temp":35.9,"humidity":52,"rain":0.0,"pressure":1002.8,"uv_index":8.75,"wind_gusts":40.3,"aqi":83,"pm10":47.8,"pm2_5":32.2,"no2":3.9,"co":244.0,"o3":140.0,"so2":7.7,"mosquito_risk":0,"arthritis_risk":5,"migraine_risk":7,"frizz_risk":1,"updated_at":"2026-06-10T10:51:36.994048+05:30"},{"city":"Tirupati","state":"Andhra Pradesh","latitude":13.6288,"longitude":79.4192,"temp":35.4,"humidity":39,"rain":0.0,"pressure":989.6,"uv_index":7.05,"wind_gusts":42.8,"aqi":32,"pm10":30.2,"pm2_5":12.4,"no2":1.8,"co":123.0,"o3":80.0,"so2":1.6,"mosquito_risk":0,"arthritis_risk":5,"migraine_risk":10,"frizz_risk":1,"updated_at":"2026-06-10T10:51:36.994055+05:30"},{"city":"Warangal","state":"Telangana","latitude":17.9689,"longitude":79.5941,"temp":34.8,"humidity":48,"rain":0.0,"pressure":976.0,"uv_index":8.65,"wind_gusts":45.0,"aqi":92,"pm10":48.3,"pm2_5":27.3,"no2":2.4,"co":174.0,"o3":99.0,"so2":5.1,"mosquito_risk":0,"arthritis_risk":5,"migraine_risk":7,"frizz_risk":1,"updated_at":"2026-06-10T10:51:36.994062+05:30"},{"city":"Nizamabad","state":"Telangana","latitude":18.6725,"longitude":78.0941,"temp":34.8,"humidity":44,"rain":0.0,"pressure":963.4,"uv_index":8.95,"wind_gusts":42.8,"aqi":86,"pm10":64.0,"pm2_5":27.6,"no2":2.1,"co":142.0,"o3":91.0,"so2":5.8,"mosquito_risk":0,"arthritis_risk":5,"migraine_risk":7,"frizz_risk":1,"updated_at":"2026-06-10T10:51:36.994068+05:30"},{"city":"Mysore","state":"Karnataka","latitude":12.2958,"longitude":76.6396,"temp":26.9,"humidity":66,"rain":0.1,"pressure":930.0,"uv_index":4.45,"wind_gusts":53.6,"aqi":20,"pm10":3.3,"pm2_5":2.4,"no2":2.7,"co":129.0,"o3":65.0,"so2":1.7,"mosquito_risk":10,"arthritis_risk":5,"migraine_risk":3,"frizz_risk":1,"updated_at":"2026-06-10T10:51:36.994075+05:30"},{"city":"Mangalore","state":"Karnataka","latitude":12.9141,"longitude":74.856,"temp":26.8,"humidity":88,"rain":0.5,"pressure":1009.3,"uv_index":4.55,"wind_gusts":33.5,"aqi":29,"pm10":8.9,"pm2_5":5.3,"no2":5.6,"co":184.0,"o3":50.0,"so2":1.7,"mosquito_risk":10,"arthritis_risk":0,"migraine_risk":0,"frizz_risk":1,"updated_at":"2026-06-10T10:51:36.994082+05:30"},{"city":"Hubli-Dharwad","state":"Karnataka","latitude":15.3647,"longitude":75.124,"temp":27.4,"humidity":70,"rain":0.0,"pressure":941.8,"uv_index":6.5,"wind_gusts":46.1,"aqi":22,"pm10":8.4,"pm2_5":3.9,"no2":3.0,"co":123.0,"o3":59.0,"so2":1.1,"mosquito_risk":7,"arthritis_risk":5,"migraine_risk":7,"frizz_risk":1,"updated_at":"2026-06-10T10:51:36.994089+05:30"},{"city":"Belgaum","state":"Karnataka","latitude":15.8497,"longitude":74.4977,"temp":27.3,"humidity":67,"rain":0.0,"pressure":927.0,"uv_index":5.95,"wind_gusts":46.4,"aqi":22,"pm10":14.3,"pm2_5":5.9,"no2":2.2,"co":116.0,"o3":64.0,"so2":1.7,"mosquito_risk":7,"arthritis_risk":5,"migraine_risk":3,"frizz_risk":1,"updated_at":"2026-06-10T10:51:40.293618+05:30"},{"city":"Coimbatore","state":"Tamil Nadu","latitude":11.0168,"longitude":76.9558,"temp":27.6,"humidity":70,"rain":0.0,"pressure":963.1,"uv_index":7.0,"wind_gusts":56.2,"aqi":21,"pm10":6.1,"pm2_5":3.7,"no2":3.4,"co":174.0,"o3":58.0,"so2":2.3,"mosquito_risk":7,"arthritis_risk":5,"migraine_risk":7,"frizz_risk":1,"updated_at":"2026-06-10T10:51:40.293656+05:30"},{"city":"Madurai","state":"Tamil Nadu","latitude":9.9252,"longitude":78.1198,"temp":35.1,"humidity":43,"rain":0.0,"pressure":993.1,"uv_index":8.35,"wind_gusts":53.3,"aqi":21,"pm10":7.9,"pm2_5":6.3,"no2":7.5,"co":138.0,"o3":52.0,"so2":4.0,"mosquito_risk":0,"arthritis_risk":5,"migraine_risk":10,"frizz_risk":1,"updated_at":"2026-06-10T10:51:40.293667+05:30"},{"city":"Trichy","state":"Tamil Nadu","latitude":10.7905,"longitude":78.7047,"temp":33.9,"humidity":50,"rain":0.0,"pressure":999.6,"uv_index":8.6,"wind_gusts":60.1,"aqi":19,"pm10":6.8,"pm2_5":4.1,"no2":3.9,"co":131.0,"o3":59.0,"so2":2.9,"mosquito_risk":0,"arthritis_risk":5,"migraine_risk":7,"frizz_risk":1,"updated_at":"2026-06-10T10:51:40.293677+05:30"},{"city":"Salem","state":"Tamil Nadu","latitude":11.6643,"longitude":78.146,"temp":33.6,"humidity":45,"rain":0.0,"pressure":978.0,"uv_index":6.7,"wind_gusts":40.3,"aqi":28,"pm10":10.3,"pm2_5":7.3,"no2":4.9,"co":207.0,"o3":85.0,"so2":8.6,"mosquito_risk":0,"arthritis_risk":5,"migraine_risk":7,"frizz_risk":1,"updated_at":"2026-06-10T10:51:40.293686+05:30"},{"city":"Tirunelveli","state":"Tamil Nadu","latitude":8.7139,"longitude":77.7567,"temp":34.4,"humidity":50,"rain":0.0,"pressure":1004.1,"uv_index":8.7,"wind_gusts":45.7,"aqi":17,"pm10":3.1,"pm2_5":2.3,"no2":3.0,"co":139.0,"o3":54.0,"so2":1.4,"mosquito_risk":0,"arthritis_risk":5,"migraine_risk":4,"frizz_risk":1,"updated_at":"2026-06-10T10:51:40.293694+05:30"},{"city":"Vellore","state":"Tamil Nadu","latitude":12.9165,"longitude":79.1325,"temp":34.8,"humidity":39,"rain":0.0,"pressure":983.4,"uv_index":8.1,"wind_gusts":52.2,"aqi":28,"pm10":25.0,"pm2_5":12.0,"no2":2.3,"co":154.0,"o3":89.0,"so2":2.6,"mosquito_risk":0,"arthritis_risk":5,"migraine_risk":7,"frizz_risk":1,"updated_at":"2026-06-10T10:51:40.293702+05:30"},{"city":"Erode","state":"Tamil Nadu","latitude":11.341,"longitude":77.7172,"temp":32.8,"humidity":49,"rain":0.0,"pressure":989.7,"uv_index":6.65,"wind_gusts":49.7,"aqi":20,"pm10":7.4,"pm2_5":5.0,"no2":3.9,"co":187.0,"o3":70.0,"so2":2.8,"mosquito_risk":0,"arthritis_risk":5,"migraine_risk":7,"frizz_risk":1,"updated_at":"2026-06-10T10:51:40.293710+05:30"},{"city":"Kochi","state":"Kerala","latitude":9.9312,"longitude":76.2673,"temp":27.1,"humidity":86,"rain":0.1,"pressure":1011.7,"uv_index":8.55,"wind_gusts":42.8,"aqi":30,"pm10":12.3,"pm2_5":8.1,"no2":6.9,"co":171.0,"o3":51.0,"so2":3.6,"mosquito_risk":10,"arthritis_risk":0,"migraine_risk":4,"frizz_risk":1,"updated_at":"2026-06-10T10:51:40.293719+05:30"},{"city":"Thiruvananthapuram","state":"Kerala","latitude":8.5241,"longitude":76.9366,"temp":26.8,"humidity":87,"rain":0.0,"pressure":1011.0,"uv_index":8.4,"wind_gusts":49.3,"aqi":30,"pm10":14.3,"pm2_5":7.8,"no2":1.7,"co":112.0,"o3":64.0,"so2":1.1,"mosquito_risk":7,"arthritis_risk":0,"migraine_risk":4,"frizz_risk":1,"updated_at":"2026-06-10T10:51:40.293726+05:30"},{"city":"Kozhikode","state":"Kerala","latitude":11.2588,"longitude":75.7804,"temp":25.1,"humidity":93,"rain":0.2,"pressure":1011.0,"uv_index":6.7,"wind_gusts":36.7,"aqi":27,"pm10":12.2,"pm2_5":5.3,"no2":0.9,"co":205.0,"o3":61.0,"so2":0.9,"mosquito_risk":10,"arthritis_risk":0,"migraine_risk":4,"frizz_risk":1,"updated_at":"2026-06-10T10:51:40.293735+05:30"},{"city":"Thrissur","state":"Kerala","latitude":10.5276,"longitude":76.2144,"temp":26.9,"humidity":88,"rain":0.1,"pressure":1010.0,"uv_index":8.5,"wind_gusts":37.8,"aqi":32,"pm10":10.4,"pm2_5":7.1,"no2":4.4,"co":187.0,"o3":50.0,"so2":2.2,"mosquito_risk":10,"arthritis_risk":0,"migraine_risk":4,"frizz_risk":1,"updated_at":"2026-06-10T10:51:40.293744+05:30"},{"city":"Kannur","state":"Kerala","latitude":11.8745,"longitude":75.3704,"temp":25.7,"humidity":92,"rain":0.1,"pressure":1010.0,"uv_index":8.45,"wind_gusts":31.3,"aqi":27,"pm10":8.6,"pm2_5":5.1,"no2":5.7,"co":155.0,"o3":52.0,"so2":1.6,"mosquito_risk":10,"arthritis_risk":0,"migraine_risk":4,"frizz_risk":1,"updated_at":"2026-06-10T10:51:40.293752+05:30"},{"city":"Patna","state":"Bihar","latitude":25.5941,"longitude":85.1376,"temp":33.6,"humidity":63,"rain":0.0,"pressure":994.7,"uv_index":8.85,"wind_gusts":28.1,"aqi":157,"pm10":79.4,"pm2_5":58.1,"no2":4.2,"co":460.0,"o3":193.0,"so2":16.0,"mosquito_risk":3,"arthritis_risk":5,"migraine_risk":7,"frizz_risk":1,"updated_at":"2026-06-10T10:51:40.293759+05:30"},{"city":"Gaya","state":"Bihar","latitude":24.7914,"longitude":85.0002,"temp":37.0,"humidity":41,"rain":0.0,"pressure":988.0,"uv_index":8.65,"wind_gusts":32.0,"aqi":138,"pm10":116.4,"pm2_5":55.1,"no2":3.7,"co":207.0,"o3":186.0,"so2":12.9,"mosquito_risk":0,"arthritis_risk":5,"migraine_risk":10,"frizz_risk":1,"updated_at":"2026-06-10T10:51:40.293767+05:30"},{"city":"Muzaffarpur","state":"Bihar","latitude":26.1209,"longitude":85.3647,"temp":32.5,"humidity":66,"rain":0.0,"pressure":995.1,"uv_index":8.85,"wind_gusts":38.2,"aqi":158,"pm10":77.1,"pm2_5":58.1,"no2":3.9,"co":484.0,"o3":197.0,"so2":16.2,"mosquito_risk":3,"arthritis_risk":5,"migraine_risk":7,"frizz_risk":1,"updated_at":"2026-06-10T10:51:40.293774+05:30"},{"city":"Bhagalpur","state":"Bihar","latitude":25.2425,"longitude":87.0117,"temp":31.4,"humidity":71,"rain":0.0,"pressure":996.0,"uv_index":8.85,"wind_gusts":39.6,"aqi":157,"pm10":64.3,"pm2_5":51.6,"no2":5.7,"co":481.0,"o3":182.0,"so2":22.1,"mosquito_risk":3,"arthritis_risk":5,"migraine_risk":7,"frizz_risk":1,"updated_at":"2026-06-10T10:51:40.293781+05:30"},{"city":"Ranchi","state":"Jharkhand","latitude":23.3441,"longitude":85.3096,"temp":34.4,"humidity":35,"rain":0.0,"pressure":934.1,"uv_index":8.95,"wind_gusts":42.8,"aqi":126,"pm10":98.7,"pm2_5":40.2,"no2":2.0,"co":175.0,"o3":156.0,"so2":13.2,"mosquito_risk":0,"arthritis_risk":5,"migraine_risk":7,"frizz_risk":1,"updated_at":"2026-06-10T10:51:40.293788+05:30"},{"city":"Jamshedpur","state":"Jharkhand","latitude":22.8046,"longitude":86.2029,"temp":36.1,"humidity":48,"rain":0.0,"pressure":985.1,"uv_index":9.1,"wind_gusts":28.8,"aqi":153,"pm10":76.4,"pm2_5":55.8,"no2":5.5,"co":317.0,"o3":212.0,"so2":36.0,"mosquito_risk":0,"arthritis_risk":5,"migraine_risk":10,"frizz_risk":1,"updated_at":"2026-06-10T10:51:40.293797+05:30"},{"city":"Dhanbad","state":"Jharkhand","latitude":23.7957,"longitude":86.4304,"temp":38.1,"humidity":31,"rain":0.0,"pressure":974.4,"uv_index":9.05,"wind_gusts":29.2,"aqi":159,"pm10":97.6,"pm2_5":57.6,"no2":15.8,"co":184.0,"o3":193.0,"so2":64.2,"mosquito_risk":0,"arthritis_risk":5,"migraine_risk":10,"frizz_risk":1,"updated_at":"2026-06-10T10:51:40.293804+05:30"},{"city":"Bokaro","state":"Jharkhand","latitude":23.6693,"longitude":86.1511,"temp":38.1,"humidity":31,"rain":0.0,"pressure":978.1,"uv_index":8.9,"wind_gusts":31.3,"aqi":157,"pm10":98.3,"pm2_5":48.0,"no2":11.0,"co":193.0,"o3":175.0,"so2":46.7,"mosquito_risk":0,"arthritis_risk":5,"migraine_risk":10,"frizz_risk":1,"updated_at":"2026-06-10T10:51:40.293811+05:30"},{"city":"Bhubaneswar","state":"Odisha","latitude":20.2961,"longitude":85.8245,"temp":36.4,"humidity":57,"rain":0.0,"pressure":996.8,"uv_index":9.05,"wind_gusts":26.3,"aqi":111,"pm10":58.6,"pm2_5":43.0,"no2":3.6,"co":293.0,"o3":185.0,"so2":14.4,"mosquito_risk":0,"arthritis_risk":5,"migraine_risk":10,"frizz_risk":1,"updated_at":"2026-06-10T10:51:40.293818+05:30"},{"city":"Cuttack","state":"Odisha","latitude":20.4625,"longitude":85.8828,"temp":36.1,"humidity":60,"rain":0.0,"pressure":998.4,"uv_index":9.1,"wind_gusts":20.9,"aqi":111,"pm10":58.6,"pm2_5":43.0,"no2":3.6,"co":341.0,"o3":185.0,"so2":14.4,"mosquito_risk":0,"arthritis_risk":5,"migraine_risk":10,"frizz_risk":1,"updated_at":"2026-06-10T10:51:40.293825+05:30"},{"city":"Rourkela","state":"Odisha","latitude":22.2604,"longitude":84.8536,"temp":35.8,"humidity":47,"rain":0.0,"pressure":979.8,"uv_index":9.0,"wind_gusts":34.6,"aqi":121,"pm10":64.0,"pm2_5":44.9,"no2":3.0,"co":312.0,"o3":186.0,"so2":14.9,"mosquito_risk":0,"arthritis_risk":5,"migraine_risk":10,"frizz_risk":1,"updated_at":"2026-06-10T10:51:40.293832+05:30"},{"city":"Raipur","state":"Chhattisgarh","latitude":21.2514,"longitude":81.6296,"temp":38.0,"humidity":36,"rain":0.0,"pressure":970.8,"uv_index":7.9,"wind_gusts":40.7,"aqi":121,"pm10":74.3,"pm2_5":46.3,"no2":10.9,"co":266.0,"o3":121.0,"so2":40.2,"mosquito_risk":0,"arthritis_risk":5,"migraine_risk":10,"frizz_risk":1,"updated_at":"2026-06-10T10:51:40.293839+05:30"},{"city":"Bhilai","state":"Chhattisgarh","latitude":21.1938,"longitude":81.3509,"temp":37.3,"humidity":37,"rain":0.0,"pressure":971.4,"uv_index":6.9,"wind_gusts":42.8,"aqi":114,"pm10":70.8,"pm2_5":43.9,"no2":9.4,"co":411.0,"o3":122.0,"so2":33.7,"mosquito_risk":0,"arthritis_risk":5,"migraine_risk":10,"frizz_risk":1,"updated_at":"2026-06-10T10:51:40.293845+05:30"},{"city":"Guwahati","state":"Assam","latitude":26.1158,"longitude":91.7086,"temp":30.7,"humidity":68,"rain":0.0,"pressure":997.6,"uv_index":8.8,"wind_gusts":26.3,"aqi":84,"pm10":19.2,"pm2_5":14.5,"no2":1.7,"co":337.0,"o3":130.0,"so2":4.1,"mosquito_risk":3,"arthritis_risk":5,"migraine_risk":7,"frizz_risk":1,"updated_at":"2026-06-10T10:51:40.293851+05:30"},{"city":"Agartala","state":"Tripura","latitude":23.8315,"longitude":91.2868,"temp":29.6,"humidity":78,"rain":0.0,"pressure":1002.8,"uv_index":8.45,"wind_gusts":39.6,"aqi":70,"pm10":15.6,"pm2_5":12.1,"no2":3.5,"co":181.0,"o3":117.0,"so2":2.4,"mosquito_risk":7,"arthritis_risk":5,"migraine_risk":4,"frizz_risk":1,"updated_at":"2026-06-10T10:51:40.293857+05:30"},{"city":"Shillong","state":"Meghalaya","latitude":25.5788,"longitude":91.8933,"temp":23.1,"humidity":76,"rain":0.3,"pressure":856.0,"uv_index":6.65,"wind_gusts":32.0,"aqi":42,"pm10":8.5,"pm2_5":6.0,"no2":1.3,"co":238.0,"o3":125.0,"so2":3.6,"mosquito_risk":6,"arthritis_risk":5,"migraine_risk":7,"frizz_risk":1,"updated_at":"2026-06-10T10:51:40.293863+05:30"},{"city":"Imphal","state":"Manipur","latitude":24.817,"longitude":93.9368,"temp":27.8,"humidity":62,"rain":0.0,"pressure":921.2,"uv_index":3.45,"wind_gusts":33.8,"aqi":88,"pm10":49.0,"pm2_5":27.3,"no2":1.5,"co":209.0,"o3":122.0,"so2":3.9,"mosquito_risk":7,"arthritis_risk":5,"migraine_risk":3,"frizz_risk":1,"updated_at":"2026-06-10T10:51:40.293869+05:30"},{"city":"Aizawl","state":"Mizoram","latitude":23.7271,"longitude":92.7176,"temp":25.9,"humidity":63,"rain":0.1,"pressure":891.2,"uv_index":5.85,"wind_gusts":39.6,"aqi":83,"pm10":17.8,"pm2_5":12.3,"no2":0.8,"co":178.0,"o3":106.0,"so2":2.1,"mosquito_risk":10,"arthritis_risk":5,"migraine_risk":3,"frizz_risk":1,"updated_at":"2026-06-10T10:51:40.293876+05:30"},{"city":"Kohima","state":"Nagaland","latitude":25.6701,"longitude":94.1077,"temp":23.6,"humidity":76,"rain":0.1,"pressure":854.1,"uv_index":7.35,"wind_gusts":23.8,"aqi":58,"pm10":38.0,"pm2_5":20.9,"no2":1.5,"co":215.0,"o3":115.0,"so2":2.7,"mosquito_risk":6,"arthritis_risk":5,"migraine_risk":7,"frizz_risk":1,"updated_at":"2026-06-10T10:51:40.293882+05:30"},{"city":"Gangtok","state":"Sikkim","latitude":27.3314,"longitude":88.6138,"temp":24.0,"humidity":55,"rain":0.1,"pressure":836.8,"uv_index":9.2,"wind_gusts":36.0,"aqi":89,"pm10":23.7,"pm2_5":18.1,"no2":1.0,"co":274.0,"o3":158.0,"so2":3.8,"mosquito_risk":3,"arthritis_risk":5,"migraine_risk":7,"frizz_risk":0,"updated_at":"2026-06-10T10:51:40.293889+05:30"},{"city":"Siliguri","state":"West Bengal","latitude":26.7271,"longitude":88.3953,"temp":30.0,"humidity":65,"rain":0.0,"pressure":988.9,"uv_index":8.75,"wind_gusts":30.6,"aqi":115,"pm10":38.6,"pm2_5":29.5,"no2":2.5,"co":449.0,"o3":173.0,"so2":5.7,"mosquito_risk":7,"arthritis_risk":5,"migraine_risk":7,"frizz_risk":1,"updated_at":"2026-06-10T10:51:43.602174+05:30"},{"city":"Durgapur","state":"West Bengal","latitude":23.5204,"longitude":87.3119,"temp":35.8,"humidity":56,"rain":0.0,"pressure":988.9,"uv_index":9.0,"wind_gusts":31.7,"aqi":170,"pm10":108.5,"pm2_5":89.2,"no2":20.0,"co":531.0,"o3":237.0,"so2":81.7,"mosquito_risk":0,"arthritis_risk":5,"migraine_risk":10,"frizz_risk":1,"updated_at":"2026-06-10T10:51:43.602210+05:30"},{"city":"Asansol","state":"West Bengal","latitude":23.6739,"longitude":86.9524,"temp":37.4,"humidity":40,"rain":0.0,"pressure":987.5,"uv_index":9.0,"wind_gusts":32.0,"aqi":160,"pm10":97.6,"pm2_5":71.2,"no2":18.9,"co":398.0,"o3":213.0,"so2":73.8,"mosquito_risk":0,"arthritis_risk":5,"migraine_risk":10,"frizz_risk":1,"updated_at":"2026-06-10T10:51:43.602222+05:30"},{"city":"Pondicherry","state":"Puducherry","latitude":11.9139,"longitude":79.8145,"temp":35.1,"humidity":42,"rain":0.0,"pressure":1007.2,"uv_index":8.05,"wind_gusts":51.1,"aqi":48,"pm10":11.3,"pm2_5":8.7,"no2":5.3,"co":180.0,"o3":86.0,"so2":9.5,"mosquito_risk":0,"arthritis_risk":5,"migraine_risk":7,"frizz_risk":1,"updated_at":"2026-06-10T10:51:43.602231+05:30"},{"city":"Port Blair","state":"Andaman and Nicobar Islands","latitude":11.6234,"longitude":92.7265,"temp":28.3,"humidity":85,"rain":0.1,"pressure":1007.2,"uv_index":6.0,"wind_gusts":44.6,"aqi":27,"pm10":7.1,"pm2_5":4.1,"no2":0.3,"co":93.0,"o3":59.0,"so2":0.4,"mosquito_risk":10,"arthritis_risk":5,"migraine_risk":0,"frizz_risk":1,"updated_at":"2026-06-10T10:51:43.602240+05:30"},{"city":"Haridwar","state":"Uttarakhand","latitude":29.9457,"longitude":78.1642,"temp":35.2,"humidity":39,"rain":0.0,"pressure":968.0,"uv_index":7.65,"wind_gusts":36.0,"aqi":101,"pm10":175.6,"pm2_5":54.2,"no2":3.1,"co":280.0,"o3":185.0,"so2":10.5,"mosquito_risk":0,"arthritis_risk":5,"migraine_risk":10,"frizz_risk":1,"updated_at":"2026-06-10T10:51:43.602248+05:30"},{"city":"Rishikesh","state":"Uttarakhand","latitude":30.0869,"longitude":78.2676,"temp":34.9,"humidity":38,"rain":0.0,"pressure":961.1,"uv_index":7.75,"wind_gusts":32.0,"aqi":80,"pm10":77.3,"pm2_5":31.0,"no2":1.8,"co":251.0,"o3":192.0,"so2":11.0,"mosquito_risk":0,"arthritis_risk":5,"migraine_risk":7,"frizz_risk":1,"updated_at":"2026-06-10T10:51:43.602255+05:30"},{"city":"Nainital","state":"Uttarakhand","latitude":29.3919,"longitude":79.4542,"temp":21.5,"humidity":56,"rain":0.1,"pressure":805.8,"uv_index":7.45,"wind_gusts":36.7,"aqi":79,"pm10":79.9,"pm2_5":31.4,"no2":0.9,"co":259.0,"o3":184.0,"so2":6.9,"mosquito_risk":3,"arthritis_risk":5,"migraine_risk":7,"frizz_risk":0,"updated_at":"2026-06-10T10:51:43.602263+05:30"},{"city":"Mussoorie","state":"Uttarakhand","latitude":30.4599,"longitude":78.0664,"temp":23.3,"humidity":43,"rain":0.0,"pressure":802.9,"uv_index":8.15,"wind_gusts":44.6,"aqi":81,"pm10":86.8,"pm2_5":33.4,"no2":2.7,"co":215.0,"o3":185.0,"so2":9.3,"mosquito_risk":0,"arthritis_risk":5,"migraine_risk":7,"frizz_risk":0,"updated_at":"2026-06-10T10:51:43.602271+05:30"},{"city":"Dharamshala","state":"Himachal Pradesh","latitude":32.219,"longitude":76.3234,"temp":29.1,"humidity":30,"rain":0.0,"pressure":867.1,"uv_index":8.55,"wind_gusts":42.1,"aqi":61,"pm10":30.0,"pm2_5":18.7,"no2":0.4,"co":201.0,"o3":166.0,"so2":1.5,"mosquito_risk":4,"arthritis_risk":5,"migraine_risk":7,"frizz_risk":0,"updated_at":"2026-06-10T10:51:43.602278+05:30"},{"city":"Dalhousie","state":"Himachal Pradesh","latitude":32.5387,"longitude":75.971,"temp":26.0,"humidity":31,"rain":0.0,"pressure":805.1,"uv_index":8.75,"wind_gusts":36.0,"aqi":88,"pm10":33.8,"pm2_5":23.0,"no2":1.8,"co":211.0,"o3":188.0,"so2":2.7,"mosquito_risk":4,"arthritis_risk":5,"migraine_risk":7,"frizz_risk":0,"updated_at":"2026-06-10T10:51:43.602286+05:30"},{"city":"Patiala","state":"Punjab","latitude":30.3398,"longitude":76.3869,"temp":38.0,"humidity":28,"rain":0.0,"pressure":971.0,"uv_index":7.65,"wind_gusts":31.7,"aqi":360,"pm10":912.7,"pm2_5":159.3,"no2":5.4,"co":317.0,"o3":141.0,"so2":9.2,"mosquito_risk":0,"arthritis_risk":5,"migraine_risk":10,"frizz_risk":1,"updated_at":"2026-06-10T10:51:43.602294+05:30"},{"city":"Bhatinda","state":"Punjab","latitude":30.211,"longitude":74.9455,"temp":40.0,"humidity":31,"rain":0.0,"pressure":975.7,"uv_index":8.35,"wind_gusts":33.5,"aqi":154,"pm10":222.1,"pm2_5":75.9,"no2":10.2,"co":298.0,"o3":127.0,"so2":15.5,"mosquito_risk":0,"arthritis_risk":5,"migraine_risk":10,"frizz_risk":1,"updated_at":"2026-06-10T10:51:43.602302+05:30"},{"city":"Rohtak","state":"Haryana","latitude":28.8955,"longitude":76.6066,"temp":38.1,"humidity":41,"rain":0.0,"pressure":974.7,"uv_index":7.8,"wind_gusts":39.2,"aqi":623,"pm10":1359.7,"pm2_5":182.1,"no2":3.9,"co":165.0,"o3":99.0,"so2":4.4,"mosquito_risk":0,"arthritis_risk":5,"migraine_risk":10,"frizz_risk":1,"updated_at":"2026-06-10T10:51:43.602326+05:30"},{"city":"Panipat","state":"Haryana","latitude":29.3909,"longitude":76.9635,"temp":37.3,"humidity":42,"rain":0.0,"pressure":973.3,"uv_index":7.7,"wind_gusts":25.6,"aqi":1315,"pm10":2466.1,"pm2_5":313.9,"no2":4.5,"co":172.0,"o3":103.0,"so2":10.9,"mosquito_risk":0,"arthritis_risk":5,"migraine_risk":10,"frizz_risk":1,"updated_at":"2026-06-10T10:51:43.602333+05:30"},{"city":"Mathura","state":"Uttar Pradesh","latitude":27.4924,"longitude":77.6737,"temp":36.9,"humidity":44,"rain":0.0,"pressure":980.9,"uv_index":8.1,"wind_gusts":30.6,"aqi":904,"pm10":663.1,"pm2_5":108.5,"no2":4.3,"co":177.0,"o3":102.0,"so2":3.9,"mosquito_risk":0,"arthritis_risk":5,"migraine_risk":10,"frizz_risk":1,"updated_at":"2026-06-10T10:51:43.602339+05:30"},{"city":"Vrindavan","state":"Uttar Pradesh","latitude":27.5823,"longitude":77.7027,"temp":36.9,"humidity":44,"rain":0.0,"pressure":981.3,"uv_index":8.1,"wind_gusts":31.3,"aqi":904,"pm10":663.1,"pm2_5":108.5,"no2":4.3,"co":164.0,"o3":102.0,"so2":3.9,"mosquito_risk":0,"arthritis_risk":5,"migraine_risk":10,"frizz_risk":1,"updated_at":"2026-06-10T10:51:43.602346+05:30"},{"city":"Ayodhya","state":"Uttar Pradesh","latitude":26.7922,"longitude":82.1998,"temp":34.3,"humidity":56,"rain":0.0,"pressure":989.4,"uv_index":8.45,"wind_gusts":35.3,"aqi":156,"pm10":102.2,"pm2_5":61.5,"no2":3.8,"co":515.0,"o3":192.0,"so2":13.8,"mosquito_risk":0,"arthritis_risk":5,"migraine_risk":7,"frizz_risk":1,"updated_at":"2026-06-10T10:51:43.602353+05:30"},{"city":"Ratlam","state":"Madhya Pradesh","latitude":23.3315,"longitude":75.0367,"temp":33.5,"humidity":50,"rain":0.0,"pressure":952.7,"uv_index":8.5,"wind_gusts":47.9,"aqi":81,"pm10":50.5,"pm2_5":26.9,"no2":1.6,"co":128.0,"o3":78.0,"so2":4.8,"mosquito_risk":0,"arthritis_risk":5,"migraine_risk":7,"frizz_risk":1,"updated_at":"2026-06-10T10:51:43.602360+05:30"},{"city":"Sagar","state":"Madhya Pradesh","latitude":23.8388,"longitude":78.7378,"temp":35.5,"humidity":42,"rain":0.0,"pressure":947.7,"uv_index":8.7,"wind_gusts":42.8,"aqi":80,"pm10":54.8,"pm2_5":30.6,"no2":1.2,"co":158.0,"o3":115.0,"so2":6.9,"mosquito_risk":0,"arthritis_risk":5,"migraine_risk":10,"frizz_risk":1,"updated_at":"2026-06-10T10:51:43.602366+05:30"},{"city":"Satna","state":"Madhya Pradesh","latitude":24.6005,"longitude":80.8322,"temp":38.4,"humidity":31,"rain":0.0,"pressure":966.9,"uv_index":8.8,"wind_gusts":68.8,"aqi":78,"pm10":43.5,"pm2_5":24.2,"no2":1.7,"co":164.0,"o3":120.0,"so2":6.2,"mosquito_risk":0,"arthritis_risk":5,"migraine_risk":10,"frizz_risk":1,"updated_at":"2026-06-10T10:51:43.602373+05:30"},{"city":"Akola","state":"Maharashtra","latitude":20.7002,"longitude":77.0082,"temp":36.3,"humidity":40,"rain":0.0,"pressure":973.3,"uv_index":8.8,"wind_gusts":49.7,"aqi":80,"pm10":56.6,"pm2_5":28.1,"no2":2.4,"co":129.0,"o3":84.0,"so2":6.9,"mosquito_risk":0,"arthritis_risk":5,"migraine_risk":10,"frizz_risk":1,"updated_at":"2026-06-10T10:51:43.602381+05:30"},{"city":"Amravati","state":"Maharashtra","latitude":20.9374,"longitude":77.7796,"temp":35.5,"humidity":42,"rain":0.0,"pressure":965.3,"uv_index":8.75,"wind_gusts":47.9,"aqi":80,"pm10":58.4,"pm2_5":29.3,"no2":2.7,"co":133.0,"o3":86.0,"so2":8.1,"mosquito_risk":0,"arthritis_risk":5,"migraine_risk":10,"frizz_risk":1,"updated_at":"2026-06-10T10:51:43.602388+05:30"},{"city":"Latur","state":"Maharashtra","latitude":18.4088,"longitude":76.5604,"temp":32.1,"humidity":50,"rain":0.0,"pressure":939.6,"uv_index":8.9,"wind_gusts":42.1,"aqi":68,"pm10":61.0,"pm2_5":23.0,"no2":1.4,"co":128.0,"o3":79.0,"so2":2.6,"mosquito_risk":0,"arthritis_risk":5,"migraine_risk":7,"frizz_risk":1,"updated_at":"2026-06-10T10:51:43.602396+05:30"},{"city":"Nanded","state":"Maharashtra","latitude":19.1383,"longitude":77.3091,"temp":35.0,"humidity":44,"rain":0.0,"pressure":967.3,"uv_index":8.85,"wind_gusts":42.5,"aqi":82,"pm10":72.2,"pm2_5":29.1,"no2":2.0,"co":139.0,"o3":88.0,"so2":4.5,"mosquito_risk":0,"arthritis_risk":5,"migraine_risk":7,"frizz_risk":1,"updated_at":"2026-06-10T10:51:43.602403+05:30"},{"city":"Gulbarga","state":"Karnataka","latitude":17.3297,"longitude":76.8343,"temp":31.9,"humidity":53,"rain":0.0,"pressure":958.3,"uv_index":8.95,"wind_gusts":44.6,"aqi":59,"pm10":24.1,"pm2_5":10.0,"no2":2.1,"co":131.0,"o3":74.0,"so2":2.5,"mosquito_risk":0,"arthritis_risk":5,"migraine_risk":7,"frizz_risk":1,"updated_at":"2026-06-10T10:51:43.602410+05:30"},{"city":"Bidar","state":"Karnataka","latitude":17.9104,"longitude":77.5199,"temp":31.8,"humidity":54,"rain":0.0,"pressure":935.1,"uv_index":9.0,"wind_gusts":49.7,"aqi":75,"pm10":53.7,"pm2_5":22.4,"no2":2.0,"co":136.0,"o3":84.0,"so2":3.4,"mosquito_risk":0,"arthritis_risk":5,"migraine_risk":7,"frizz_risk":1,"updated_at":"2026-06-10T10:51:43.602417+05:30"},{"city":"Hospet","state":"Karnataka","latitude":15.2689,"longitude":76.3909,"temp":28.4,"humidity":65,"rain":0.0,"pressure":956.7,"uv_index":6.25,"wind_gusts":51.8,"aqi":24,"pm10":15.1,"pm2_5":6.5,"no2":2.8,"co":126.0,"o3":59.0,"so2":1.9,"mosquito_risk":7,"arthritis_risk":5,"migraine_risk":7,"frizz_risk":1,"updated_at":"2026-06-10T10:51:43.602423+05:30"},{"city":"Tirupur","state":"Tamil Nadu","latitude":11.1085,"longitude":77.3411,"temp":30.9,"humidity":57,"rain":0.0,"pressure":976.3,"uv_index":8.4,"wind_gusts":59.0,"aqi":24,"pm10":8.2,"pm2_5":5.8,"no2":5.1,"co":146.0,"o3":66.0,"so2":3.6,"mosquito_risk":0,"arthritis_risk":5,"migraine_risk":7,"frizz_risk":1,"updated_at":"2026-06-10T10:51:43.602430+05:30"},{"city":"Alappuzha","state":"Kerala","latitude":9.4981,"longitude":76.3388,"temp":26.2,"humidity":91,"rain":0.2,"pressure":1011.9,"uv_index":8.4,"wind_gusts":43.2,"aqi":29,"pm10":13.6,"pm2_5":8.4,"no2":4.7,"co":94.0,"o3":63.0,"so2":3.1,"mosquito_risk":10,"arthritis_risk":0,"migraine_risk":4,"frizz_risk":1,"updated_at":"2026-06-10T10:51:43.602437+05:30"},{"city":"Munnar","state":"Kerala","latitude":10.0889,"longitude":77.0595,"temp":17.7,"humidity":95,"rain":0.1,"pressure":858.6,"uv_index":9.0,"wind_gusts":42.5,"aqi":16,"pm10":4.3,"pm2_5":2.7,"no2":2.5,"co":104.0,"o3":51.0,"so2":1.0,"mosquito_risk":6,"arthritis_risk":10,"migraine_risk":7,"frizz_risk":1,"updated_at":"2026-06-10T10:51:43.602444+05:30"},{"city":"Silchar","state":"Assam","latitude":24.8333,"longitude":92.7789,"temp":31.6,"humidity":65,"rain":0.0,"pressure":1001.6,"uv_index":2.55,"wind_gusts":41.4,"aqi":93,"pm10":39.7,"pm2_5":25.8,"no2":1.9,"co":261.0,"o3":112.0,"so2":4.2,"mosquito_risk":3,"arthritis_risk":5,"migraine_risk":0,"frizz_risk":1,"updated_at":"2026-06-10T10:51:43.602450+05:30"},{"city":"Dibrugarh","state":"Assam","latitude":27.4728,"longitude":94.912,"temp":27.5,"humidity":88,"rain":0.0,"pressure":992.1,"uv_index":8.7,"wind_gusts":26.3,"aqi":87,"pm10":31.4,"pm2_5":22.8,"no2":1.2,"co":234.0,"o3":142.0,"so2":3.1,"mosquito_risk":7,"arthritis_risk":5,"migraine_risk":7,"frizz_risk":1,"updated_at":"2026-06-10T10:51:43.602457+05:30"}]