[{"city":"Delhi","state":"Delhi","latitude":28.6139,"longitude":77.209,"temp":29.8,"humidity":64,"rain":0.0,"pressure":978.0,"uv_index":7.75,"wind_gusts":39.2,"aqi":168,"pm10":244.9,"pm2_5":99.0,"no2":64.6,"co":971.0,"o3":36.0,"so2":37.4,"mosquito_risk":7,"arthritis_risk":5,"migraine_risk":7,"frizz_risk":1,"updated_at":"2026-06-06T01:35:04.904594+05:30"},{"city":"Mumbai","state":"Maharashtra","latitude":19.076,"longitude":72.8777,"temp":28.2,"humidity":88,"rain":0.1,"pressure":1005.1,"uv_index":7.75,"wind_gusts":41.8,"aqi":72,"pm10":40.0,"pm2_5":17.8,"no2":6.2,"co":164.0,"o3":47.0,"so2":5.3,"mosquito_risk":10,"arthritis_risk":5,"migraine_risk":4,"frizz_risk":1,"updated_at":"2026-06-06T01:35:04.904640+05:30"},{"city":"Bangalore","state":"Karnataka","latitude":12.9716,"longitude":77.5946,"temp":21.1,"humidity":92,"rain":0.0,"pressure":909.6,"uv_index":8.45,"wind_gusts":38.2,"aqi":19,"pm10":4.1,"pm2_5":3.4,"no2":7.9,"co":232.0,"o3":37.0,"so2":3.6,"mosquito_risk":3,"arthritis_risk":5,"migraine_risk":7,"frizz_risk":1,"updated_at":"2026-06-06T01:35:04.904656+05:30"},{"city":"Hyderabad","state":"Telangana","latitude":17.385,"longitude":78.4867,"temp":27.2,"humidity":76,"rain":0.0,"pressure":949.6,"uv_index":9.15,"wind_gusts":38.9,"aqi":67,"pm10":18.5,"pm2_5":14.8,"no2":9.6,"co":234.0,"o3":79.0,"so2":5.3,"mosquito_risk":7,"arthritis_risk":5,"migraine_risk":7,"frizz_risk":1,"updated_at":"2026-06-06T01:35:04.904666+05:30"},{"city":"Chennai","state":"Tamil Nadu","latitude":13.0827,"longitude":80.2707,"temp":31.7,"humidity":60,"rain":0.0,"pressure":1003.2,"uv_index":8.95,"wind_gusts":42.1,"aqi":53,"pm10":12.1,"pm2_5":10.7,"no2":20.4,"co":361.0,"o3":40.0,"so2":9.4,"mosquito_risk":0,"arthritis_risk":5,"migraine_risk":4,"frizz_risk":1,"updated_at":"2026-06-06T01:35:04.904674+05:30"},{"city":"Kolkata","state":"West Bengal","latitude":22.5726,"longitude":88.3639,"temp":28.4,"humidity":90,"rain":0.0,"pressure":1000.6,"uv_index":8.1,"wind_gusts":28.4,"aqi":137,"pm10":48.7,"pm2_5":44.7,"no2":13.8,"co":575.0,"o3":73.0,"so2":7.6,"mosquito_risk":7,"arthritis_risk":5,"migraine_risk":4,"frizz_risk":1,"updated_at":"2026-06-06T01:35:04.904683+05:30"},{"city":"Pune","state":"Maharashtra","latitude":18.5204,"longitude":73.8567,"temp":25.5,"humidity":85,"rain":0.0,"pressure":945.2,"uv_index":8.35,"wind_gusts":42.5,"aqi":43,"pm10":18.6,"pm2_5":11.4,"no2":10.7,"co":141.0,"o3":35.0,"so2":7.8,"mosquito_risk":7,"arthritis_risk":5,"migraine_risk":7,"frizz_risk":1,"updated_at":"2026-06-06T01:35:04.904690+05:30"},{"city":"Ahmedabad","state":"Gujarat","latitude":23.0225,"longitude":72.5714,"temp":32.6,"humidity":59,"rain":0.0,"pressure":997.3,"uv_index":8.05,"wind_gusts":35.3,"aqi":84,"pm10":53.0,"pm2_5":25.8,"no2":6.1,"co":172.0,"o3":57.0,"so2":4.9,"mosquito_risk":0,"arthritis_risk":5,"migraine_risk":7,"frizz_risk":1,"updated_at":"2026-06-06T01:35:04.904696+05:30"},{"city":"Jaipur","state":"Rajasthan","latitude":26.9124,"longitude":75.7873,"temp":28.3,"humidity":53,"rain":0.0,"pressure":955.2,"uv_index":8.25,"wind_gusts":28.8,"aqi":117,"pm10":134.1,"pm2_5":58.7,"no2":27.3,"co":259.0,"o3":37.0,"so2":11.0,"mosquito_risk":4,"arthritis_risk":5,"migraine_risk":7,"frizz_risk":1,"updated_at":"2026-06-06T01:35:04.904708+05:30"},{"city":"Lucknow","state":"Uttar Pradesh","latitude":26.8467,"longitude":80.9462,"temp":30.1,"humidity":65,"rain":0.0,"pressure":988.0,"uv_index":8.3,"wind_gusts":41.4,"aqi":155,"pm10":224.0,"pm2_5":90.8,"no2":21.8,"co":448.0,"o3":72.0,"so2":15.3,"mosquito_risk":3,"arthritis_risk":5,"migraine_risk":7,"frizz_risk":1,"updated_at":"2026-06-06T01:35:04.904715+05:30"},{"city":"Kanpur","state":"Uttar Pradesh","latitude":26.4499,"longitude":80.3319,"temp":30.9,"humidity":59,"rain":0.0,"pressure":986.8,"uv_index":8.3,"wind_gusts":34.6,"aqi":159,"pm10":256.1,"pm2_5":87.3,"no2":26.6,"co":390.0,"o3":44.0,"so2":10.1,"mosquito_risk":0,"arthritis_risk":5,"migraine_risk":7,"frizz_risk":1,"updated_at":"2026-06-06T01:35:04.904722+05:30"},{"city":"Chandigarh","state":"Chandigarh","latitude":30.7333,"longitude":76.7794,"temp":24.6,"humidity":84,"rain":0.0,"pressure":963.4,"uv_index":7.8,"wind_gusts":28.8,"aqi":134,"pm10":97.1,"pm2_5":70.8,"no2":57.0,"co":1049.0,"o3":21.0,"so2":10.2,"mosquito_risk":3,"arthritis_risk":5,"migraine_risk":7,"frizz_risk":1,"updated_at":"2026-06-06T01:35:04.904730+05:30"},{"city":"Srinagar","state":"Jammu and Kashmir","latitude":34.0837,"longitude":74.7973,"temp":13.8,"humidity":99,"rain":0.0,"pressure":840.2,"uv_index":9.0,"wind_gusts":20.2,"aqi":80,"pm10":43.7,"pm2_5":41.1,"no2":27.8,"co":861.0,"o3":28.0,"so2":0.0,"mosquito_risk":3,"arthritis_risk":10,"migraine_risk":7,"frizz_risk":0,"updated_at":"2026-06-06T01:35:04.904737+05:30"},{"city":"Jammu","state":"Jammu and Kashmir","latitude":32.7266,"longitude":74.857,"temp":22.9,"humidity":74,"rain":0.0,"pressure":966.9,"uv_index":8.6,"wind_gusts":28.4,"aqi":108,"pm10":47.6,"pm2_5":41.6,"no2":50.2,"co":505.0,"o3":3.0,"so2":3.5,"mosquito_risk":3,"arthritis_risk":5,"migraine_risk":7,"frizz_risk":1,"updated_at":"2026-06-06T01:35:04.904744+05:30"},{"city":"Amritsar","state":"Punjab","latitude":31.634,"longitude":74.8723,"temp":28.2,"humidity":54,"rain":0.0,"pressure":975.2,"uv_index":8.45,"wind_gusts":20.9,"aqi":136,"pm10":112.0,"pm2_5":94.5,"no2":76.3,"co":741.0,"o3":13.0,"so2":13.6,"mosquito_risk":4,"arthritis_risk":5,"migraine_risk":7,"frizz_risk":1,"updated_at":"2026-06-06T01:35:04.904750+05:30"},{"city":"Ludhiana","state":"Punjab","latitude":30.901,"longitude":75.8573,"temp":29.1,"humidity":56,"rain":0.0,"pressure":973.3,"uv_index":8.05,"wind_gusts":26.6,"aqi":150,"pm10":123.9,"pm2_5":83.6,"no2":49.1,"co":700.0,"o3":57.0,"so2":14.3,"mosquito_risk":4,"arthritis_risk":5,"migraine_risk":7,"frizz_risk":1,"updated_at":"2026-06-06T01:35:04.904757+05:30"},{"city":"Jalandhar","state":"Punjab","latitude":31.326,"longitude":75.5762,"temp":28.8,"humidity":58,"rain":0.0,"pressure":974.1,"uv_index":8.25,"wind_gusts":22.3,"aqi":142,"pm10":109.2,"pm2_5":89.6,"no2":69.3,"co":1044.0,"o3":20.0,"so2":10.7,"mosquito_risk":4,"arthritis_risk":5,"migraine_risk":7,"frizz_risk":1,"updated_at":"2026-06-06T01:35:04.904763+05:30"},{"city":"Dehradun","state":"Uttarakhand","latitude":30.6284,"longitude":78.0322,"temp":13.4,"humidity":90,"rain":0.0,"pressure":825.0,"uv_index":8.2,"wind_gusts":36.7,"aqi":69,"pm10":36.2,"pm2_5":24.8,"no2":29.6,"co":242.0,"o3":35.0,"so2":0.6,"mosquito_risk":3,"arthritis_risk":10,"migraine_risk":7,"frizz_risk":0,"updated_at":"2026-06-06T01:35:04.904770+05:30"},{"city":"Shimla","state":"Himachal Pradesh","latitude":31.1048,"longitude":77.1734,"temp":12.7,"humidity":73,"rain":0.0,"pressure":780.2,"uv_index":8.35,"wind_gusts":41.8,"aqi":90,"pm10":81.0,"pm2_5":42.3,"no2":21.6,"co":280.0,"o3":86.0,"so2":4.1,"mosquito_risk":3,"arthritis_risk":5,"migraine_risk":7,"frizz_risk":0,"updated_at":"2026-06-06T01:35:04.904779+05:30"},{"city":"Manali","state":"Himachal Pradesh","latitude":32.2396,"longitude":77.1887,"temp":11.7,"humidity":92,"rain":0.0,"pressure":814.4,"uv_index":9.45,"wind_gusts":37.1,"aqi":53,"pm10":4.7,"pm2_5":4.6,"no2":16.7,"co":241.0,"o3":116.0,"so2":0.0,"mosquito_risk":3,"arthritis_risk":10,"migraine_risk":7,"frizz_risk":0,"updated_at":"2026-06-06T01:35:04.904787+05:30"},{"city":"Gurgaon","state":"Haryana","latitude":28.4595,"longitude":77.0266,"temp":28.2,"humidity":63,"rain":0.0,"pressure":976.3,"uv_index":7.85,"wind_gusts":33.5,"aqi":403,"pm10":530.9,"pm2_5":113.9,"no2":40.5,"co":1010.0,"o3":52.0,"so2":15.5,"mosquito_risk":7,"arthritis_risk":5,"migraine_risk":7,"frizz_risk":1,"updated_at":"2026-06-06T01:35:04.904794+05:30"},{"city":"Noida","state":"Uttar Pradesh","latitude":28.5355,"longitude":77.391,"temp":27.2,"humidity":83,"rain":0.0,"pressure":979.3,"uv_index":7.8,"wind_gusts":18.7,"aqi":403,"pm10":530.9,"pm2_5":113.9,"no2":40.5,"co":1535.0,"o3":52.0,"so2":15.5,"mosquito_risk":7,"arthritis_risk":5,"migraine_risk":7,"frizz_risk":1,"updated_at":"2026-06-06T01:35:04.904800+05:30"},{"city":"Ghaziabad","state":"Uttar Pradesh","latitude":28.6692,"longitude":77.4538,"temp":26.2,"humidity":90,"rain":0.0,"pressure":977.6,"uv_index":7.75,"wind_gusts":25.9,"aqi":165,"pm10":195.1,"pm2_5":93.1,"no2":38.9,"co":809.0,"o3":53.0,"so2":16.4,"mosquito_risk":7,"arthritis_risk":5,"migraine_risk":7,"frizz_risk":1,"updated_at":"2026-06-06T01:35:04.904807+05:30"},{"city":"Faridabad","state":"Haryana","latitude":28.4089,"longitude":77.3178,"temp":28.5,"humidity":73,"rain":0.0,"pressure":978.6,"uv_index":7.8,"wind_gusts":34.2,"aqi":403,"pm10":530.9,"pm2_5":113.9,"no2":40.5,"co":1020.0,"o3":52.0,"so2":15.5,"mosquito_risk":7,"arthritis_risk":5,"migraine_risk":7,"frizz_risk":1,"updated_at":"2026-06-06T01:35:04.904814+05:30"},{"city":"Meerut","state":"Uttar Pradesh","latitude":28.9845,"longitude":77.7064,"temp":26.9,"humidity":81,"rain":0.0,"pressure":976.2,"uv_index":7.7,"wind_gusts":28.1,"aqi":165,"pm10":195.1,"pm2_5":93.1,"no2":38.9,"co":847.0,"o3":53.0,"so2":16.4,"mosquito_risk":7,"arthritis_risk":5,"migraine_risk":7,"frizz_risk":1,"updated_at":"2026-06-06T01:35:04.904822+05:30"},{"city":"Agra","state":"Uttar Pradesh","latitude":27.1767,"longitude":78.0081,"temp":27.9,"humidity":75,"rain":0.0,"pressure":982.8,"uv_index":8.1,"wind_gusts":26.6,"aqi":152,"pm10":390.2,"pm2_5":124.3,"no2":58.3,"co":674.0,"o3":35.0,"so2":22.0,"mosquito_risk":7,"arthritis_risk":5,"migraine_risk":7,"frizz_risk":1,"updated_at":"2026-06-06T01:35:04.904829+05:30"},{"city":"Varanasi","state":"Uttar Pradesh","latitude":25.3176,"longitude":82.9739,"temp":25.1,"humidity":91,"rain":0.3,"pressure":992.8,"uv_index":7.2,"wind_gusts":58.0,"aqi":136,"pm10":77.8,"pm2_5":50.1,"no2":17.4,"co":979.0,"o3":83.0,"so2":14.9,"mosquito_risk":10,"arthritis_risk":5,"migraine_risk":7,"frizz_risk":1,"updated_at":"2026-06-06T01:35:04.904836+05:30"},{"city":"Prayagraj","state":"Uttar Pradesh","latitude":25.4358,"longitude":81.8463,"temp":31.2,"humidity":57,"rain":0.0,"pressure":990.2,"uv_index":8.35,"wind_gusts":43.6,"aqi":145,"pm10":115.3,"pm2_5":58.1,"no2":14.0,"co":350.0,"o3":92.0,"so2":10.6,"mosquito_risk":0,"arthritis_risk":5,"migraine_risk":7,"frizz_risk":1,"updated_at":"2026-06-06T01:35:04.904843+05:30"},{"city":"Gorakhpur","state":"Uttar Pradesh","latitude":26.7606,"longitude":83.3732,"temp":29.0,"humidity":75,"rain":0.0,"pressure":991.2,"uv_index":8.7,"wind_gusts":25.9,"aqi":158,"pm10":90.1,"pm2_5":68.0,"no2":34.5,"co":805.0,"o3":52.0,"so2":12.1,"mosquito_risk":7,"arthritis_risk":5,"migraine_risk":7,"frizz_risk":1,"updated_at":"2026-06-06T01:35:04.904856+05:30"},{"city":"Bareilly","state":"Uttar Pradesh","latitude":28.367,"longitude":79.4304,"temp":27.7,"humidity":79,"rain":0.0,"pressure":981.8,"uv_index":8.1,"wind_gusts":21.2,"aqi":133,"pm10":80.6,"pm2_5":67.1,"no2":25.9,"co":488.0,"o3":80.0,"so2":19.0,"mosquito_risk":7,"arthritis_risk":5,"migraine_risk":7,"frizz_risk":1,"updated_at":"2026-06-06T01:35:04.904862+05:30"},{"city":"Aligarh","state":"Uttar Pradesh","latitude":27.8974,"longitude":78.088,"temp":27.4,"humidity":83,"rain":0.0,"pressure":980.6,"uv_index":7.95,"wind_gusts":25.2,"aqi":347,"pm10":300.8,"pm2_5":121.5,"no2":47.1,"co":746.0,"o3":49.0,"so2":22.4,"mosquito_risk":7,"arthritis_risk":5,"migraine_risk":7,"frizz_risk":1,"updated_at":"2026-06-06T01:35:04.904868+05:30"},{"city":"Moradabad","state":"Uttar Pradesh","latitude":28.8386,"longitude":78.7733,"temp":27.2,"humidity":80,"rain":0.0,"pressure":978.5,"uv_index":7.9,"wind_gusts":29.9,"aqi":157,"pm10":179.7,"pm2_5":141.1,"no2":80.1,"co":650.0,"o3":34.0,"so2":26.9,"mosquito_risk":7,"arthritis_risk":5,"migraine_risk":7,"frizz_risk":1,"updated_at":"2026-06-06T01:35:04.904874+05:30"},{"city":"Saharanpur","state":"Uttar Pradesh","latitude":29.9637,"longitude":77.546,"temp":25.7,"humidity":81,"rain":0.0,"pressure":970.4,"uv_index":7.5,"wind_gusts":25.2,"aqi":153,"pm10":142.5,"pm2_5":99.4,"no2":52.0,"co":729.0,"o3":36.0,"so2":14.3,"mosquito_risk":7,"arthritis_risk":5,"migraine_risk":7,"frizz_risk":1,"updated_at":"2026-06-06T01:35:04.904880+05:30"},{"city":"Jhansi","state":"Uttar Pradesh","latitude":25.4484,"longitude":78.5685,"temp":29.1,"humidity":54,"rain":0.0,"pressure":973.5,"uv_index":8.45,"wind_gusts":29.9,"aqi":75,"pm10":53.8,"pm2_5":30.5,"no2":20.6,"co":214.0,"o3":35.0,"so2":5.4,"mosquito_risk":4,"arthritis_risk":5,"migraine_risk":7,"frizz_risk":1,"updated_at":"2026-06-06T01:35:08.205728+05:30"},{"city":"Surat","state":"Gujarat","latitude":21.1702,"longitude":72.8311,"temp":29.9,"humidity":82,"rain":0.0,"pressure":1002.7,"uv_index":7.6,"wind_gusts":45.4,"aqi":88,"pm10":47.5,"pm2_5":24.9,"no2":15.3,"co":254.0,"o3":37.0,"so2":26.4,"mosquito_risk":7,"arthritis_risk":5,"migraine_risk":4,"frizz_risk":1,"updated_at":"2026-06-06T01:35:08.205762+05:30"},{"city":"Vadodara","state":"Gujarat","latitude":22.3072,"longitude":73.1812,"temp":30.9,"humidity":70,"rain":0.0,"pressure":999.8,"uv_index":8.0,"wind_gusts":40.0,"aqi":81,"pm10":37.7,"pm2_5":23.5,"no2":16.0,"co":142.0,"o3":32.0,"so2":16.7,"mosquito_risk":3,"arthritis_risk":5,"migraine_risk":7,"frizz_risk":1,"updated_at":"2026-06-06T01:35:08.205774+05:30"},{"city":"Rajkot","state":"Gujarat","latitude":22.3039,"longitude":70.8022,"temp":29.7,"humidity":69,"rain":0.0,"pressure":989.7,"uv_index":7.6,"wind_gusts":43.6,"aqi":79,"pm10":41.1,"pm2_5":20.0,"no2":4.5,"co":106.0,"o3":46.0,"so2":4.4,"mosquito_risk":7,"arthritis_risk":5,"migraine_risk":7,"frizz_risk":1,"updated_at":"2026-06-06T01:35:08.205784+05:30"},{"city":"Thane","state":"Maharashtra","latitude":19.2183,"longitude":72.9781,"temp":28.5,"humidity":86,"rain":0.0,"pressure":1004.4,"uv_index":7.75,"wind_gusts":40.0,"aqi":72,"pm10":40.0,"pm2_5":17.8,"no2":6.2,"co":181.0,"o3":47.0,"so2":5.3,"mosquito_risk":7,"arthritis_risk":5,"migraine_risk":4,"frizz_risk":1,"updated_at":"2026-06-06T01:35:08.205793+05:30"},{"city":"Nagpur","state":"Maharashtra","latitude":21.1458,"longitude":79.0882,"temp":32.0,"humidity":37,"rain":0.0,"pressure":968.5,"uv_index":8.9,"wind_gusts":45.4,"aqi":95,"pm10":55.8,"pm2_5":35.9,"no2":21.0,"co":304.0,"o3":45.0,"so2":10.5,"mosquito_risk":0,"arthritis_risk":5,"migraine_risk":7,"frizz_risk":0,"updated_at":"2026-06-06T01:35:08.205803+05:30"},{"city":"Nashik","state":"Maharashtra","latitude":19.9975,"longitude":73.7898,"temp":25.3,"humidity":88,"rain":0.0,"pressure":942.6,"uv_index":8.05,"wind_gusts":37.8,"aqi":57,"pm10":25.9,"pm2_5":13.9,"no2":6.4,"co":123.0,"o3":42.0,"so2":3.5,"mosquito_risk":7,"arthritis_risk":5,"migraine_risk":7,"frizz_risk":1,"updated_at":"2026-06-06T01:35:08.205812+05:30"},{"city":"Aurangabad","state":"Maharashtra","latitude":19.8762,"longitude":75.3433,"temp":28.0,"humidity":67,"rain":0.0,"pressure":941.3,"uv_index":8.95,"wind_gusts":40.7,"aqi":63,"pm10":25.8,"pm2_5":15.7,"no2":6.3,"co":133.0,"o3":48.0,"so2":5.2,"mosquito_risk":7,"arthritis_risk":5,"migraine_risk":7,"frizz_risk":1,"updated_at":"2026-06-06T01:35:08.205822+05:30"},{"city":"Solapur","state":"Maharashtra","latitude":17.6599,"longitude":75.9064,"temp":22.8,"humidity":94,"rain":0.0,"pressure":955.0,"uv_index":8.95,"wind_gusts":51.5,"aqi":55,"pm10":17.2,"pm2_5":13.0,"no2":12.4,"co":192.0,"o3":43.0,"so2":2.9,"mosquito_risk":3,"arthritis_risk":5,"migraine_risk":7,"frizz_risk":1,"updated_at":"2026-06-06T01:35:08.205831+05:30"},{"city":"Kolhapur","state":"Maharashtra","latitude":16.705,"longitude":74.2433,"temp":24.7,"humidity":86,"rain":0.0,"pressure":945.5,"uv_index":8.75,"wind_gusts":45.7,"aqi":33,"pm10":7.3,"pm2_5":5.8,"no2":5.8,"co":117.0,"o3":43.0,"so2":2.3,"mosquito_risk":3,"arthritis_risk":5,"migraine_risk":7,"frizz_risk":1,"updated_at":"2026-06-06T01:35:08.205839+05:30"},{"city":"Goa","state":"Goa","latitude":15.2993,"longitude":74.124,"temp":25.9,"humidity":95,"rain":0.0,"pressure":995.7,"uv_index":7.7,"wind_gusts":26.6,"aqi":28,"pm10":14.3,"pm2_5":10.0,"no2":4.4,"co":424.0,"o3":50.0,"so2":1.0,"mosquito_risk":7,"arthritis_risk":5,"migraine_risk":7,"frizz_risk":1,"updated_at":"2026-06-06T01:35:08.205848+05:30"},{"city":"Jodhpur","state":"Rajasthan","latitude":26.2389,"longitude":73.0243,"temp":31.5,"humidity":56,"rain":0.0,"pressure":977.2,"uv_index":8.45,"wind_gusts":32.8,"aqi":150,"pm10":102.7,"pm2_5":34.5,"no2":7.7,"co":132.0,"o3":51.0,"so2":2.6,"mosquito_risk":0,"arthritis_risk":5,"migraine_risk":7,"frizz_risk":1,"updated_at":"2026-06-06T01:35:08.205857+05:30"},{"city":"Udaipur","state":"Rajasthan","latitude":24.5854,"longitude":73.7125,"temp":28.4,"humidity":61,"rain":0.0,"pressure":942.4,"uv_index":8.8,"wind_gusts":28.4,"aqi":81,"pm10":73.8,"pm2_5":30.6,"no2":7.5,"co":236.0,"o3":58.0,"so2":2.8,"mosquito_risk":7,"arthritis_risk":5,"migraine_risk":7,"frizz_risk":1,"updated_at":"2026-06-06T01:35:08.205866+05:30"},{"city":"Kota","state":"Rajasthan","latitude":25.2138,"longitude":75.8648,"temp":28.2,"humidity":59,"rain":0.0,"pressure":974.4,"uv_index":8.4,"wind_gusts":29.9,"aqi":98,"pm10":80.1,"pm2_5":42.8,"no2":14.1,"co":275.0,"o3":57.0,"so2":6.7,"mosquito_risk":4,"arthritis_risk":5,"migraine_risk":7,"frizz_risk":1,"updated_at":"2026-06-06T01:35:08.205875+05:30"},{"city":"Bikaner","state":"Rajasthan","latitude":28.0229,"longitude":73.3119,"temp":29.7,"humidity":50,"rain":0.0,"pressure":975.6,"uv_index":8.5,"wind_gusts":27.7,"aqi":144,"pm10":122.5,"pm2_5":43.3,"no2":5.0,"co":219.0,"o3":57.0,"so2":3.3,"mosquito_risk":4,"arthritis_risk":5,"migraine_risk":7,"frizz_risk":1,"updated_at":"2026-06-06T01:35:08.205883+05:30"},{"city":"Ajmer","state":"Rajasthan","latitude":26.4499,"longitude":74.6399,"temp":28.0,"humidity":62,"rain":0.0,"pressure":949.9,"uv_index":8.35,"wind_gusts":33.8,"aqi":96,"pm10":113.6,"pm2_5":46.3,"no2":15.7,"co":189.0,"o3":38.0,"so2":3.8,"mosquito_risk":7,"arthritis_risk":5,"migraine_risk":7,"frizz_risk":1,"updated_at":"2026-06-06T01:35:08.205891+05:30"},{"city":"Gwalior","state":"Madhya Pradesh","latitude":26.2183,"longitude":78.1828,"temp":27.9,"humidity":63,"rain":0.0,"pressure":978.6,"uv_index":8.25,"wind_gusts":47.2,"aqi":83,"pm10":118.5,"pm2_5":44.4,"no2":23.1,"co":197.0,"o3":51.0,"so2":7.6,"mosquito_risk":7,"arthritis_risk":5,"migraine_risk":7,"frizz_risk":1,"updated_at":"2026-06-06T01:35:08.205900+05:30"},{"city":"Indore","state":"Madhya Pradesh","latitude":22.7196,"longitude":75.8577,"temp":27.0,"humidity":72,"rain":0.0,"pressure":944.1,"uv_index":8.65,"wind_gusts":31.7,"aqi":94,"pm10":72.9,"pm2_5":54.0,"no2":21.3,"co":458.0,"o3":36.0,"so2":8.7,"mosquito_risk":7,"arthritis_risk":5,"migraine_risk":7,"frizz_risk":1,"updated_at":"2026-06-06T01:35:08.205909+05:30"},{"city":"Bhopal","state":"Madhya Pradesh","latitude":23.2599,"longitude":77.4126,"temp":27.2,"humidity":63,"rain":0.0,"pressure":949.4,"uv_index":8.65,"wind_gusts":36.0,"aqi":94,"pm10":67.5,"pm2_5":39.2,"no2":17.3,"co":318.0,"o3":43.0,"so2":5.2,"mosquito_risk":7,"arthritis_risk":5,"migraine_risk":7,"frizz_risk":1,"updated_at":"2026-06-06T01:35:08.205917+05:30"},{"city":"Jabalpur","state":"Madhya Pradesh","latitude":23.1815,"longitude":79.9864,"temp":28.7,"humidity":56,"rain":0.0,"pressure":956.9,"uv_index":8.85,"wind_gusts":37.8,"aqi":84,"pm10":77.3,"pm2_5":38.5,"no2":15.0,"co":254.0,"o3":46.0,"so2":3.7,"mosquito_risk":4,"arthritis_risk":5,"migraine_risk":7,"frizz_risk":1,"updated_at":"2026-06-06T01:35:08.205926+05:30"},{"city":"Ujjain","state":"Madhya Pradesh","latitude":23.1765,"longitude":75.7885,"temp":28.3,"humidity":65,"rain":0.0,"pressure":949.6,"uv_index":8.6,"wind_gusts":34.2,"aqi":90,"pm10":57.5,"pm2_5":39.0,"no2":8.0,"co":306.0,"o3":62.0,"so2":6.5,"mosquito_risk":7,"arthritis_risk":5,"migraine_risk":7,"frizz_risk":1,"updated_at":"2026-06-06T01:35:08.205936+05:30"},{"city":"Visakhapatnam","state":"Andhra Pradesh","latitude":17.6868,"longitude":83.2185,"temp":30.1,"humidity":86,"rain":0.0,"pressure":997.2,"uv_index":9.0,"wind_gusts":39.2,"aqi":92,"pm10":33.4,"pm2_5":28.6,"no2":29.5,"co":409.0,"o3":70.0,"so2":36.4,"mosquito_risk":3,"arthritis_risk":5,"migraine_risk":7,"frizz_risk":1,"updated_at":"2026-06-06T01:35:08.205945+05:30"},{"city":"Vijayawada","state":"Andhra Pradesh","latitude":16.5062,"longitude":80.648,"temp":31.6,"humidity":60,"rain":0.0,"pressure":997.3,"uv_index":9.0,"wind_gusts":34.6,"aqi":61,"pm10":11.4,"pm2_5":10.0,"no2":7.0,"co":238.0,"o3":68.0,"so2":3.3,"mosquito_risk":0,"arthritis_risk":5,"migraine_risk":7,"frizz_risk":1,"updated_at":"2026-06-06T01:35:08.205953+05:30"},{"city":"Guntur","state":"Andhra Pradesh","latitude":16.3067,"longitude":80.4365,"temp":30.7,"humidity":62,"rain":0.0,"pressure":998.7,"uv_index":9.0,"wind_gusts":33.8,"aqi":57,"pm10":12.1,"pm2_5":10.8,"no2":8.0,"co":183.0,"o3":69.0,"so2":3.1,"mosquito_risk":3,"arthritis_risk":5,"migraine_risk":7,"frizz_risk":1,"updated_at":"2026-06-06T01:35:08.205962+05:30"},{"city":"Nellore","state":"Andhra Pradesh","latitude":14.4426,"longitude":79.9865,"temp":30.3,"humidity":60,"rain":0.0,"pressure":1001.9,"uv_index":8.6,"wind_gusts":38.9,"aqi":39,"pm10":8.9,"pm2_5":6.8,"no2":8.0,"co":178.0,"o3":46.0,"so2":2.7,"mosquito_risk":0,"arthritis_risk":5,"migraine_risk":4,"frizz_risk":1,"updated_at":"2026-06-06T01:35:08.205972+05:30"},{"city":"Kurnool","state":"Andhra Pradesh","latitude":15.8281,"longitude":78.0373,"temp":28.3,"humidity":68,"rain":0.0,"pressure":974.0,"uv_index":7.9,"wind_gusts":57.2,"aqi":38,"pm10":6.3,"pm2_5":5.8,"no2":13.3,"co":182.0,"o3":37.0,"so2":5.3,"mosquito_risk":7,"arthritis_risk":5,"migraine_risk":7,"frizz_risk":1,"updated_at":"2026-06-06T01:35:08.205981+05:30"},{"city":"Kakinada","state":"Andhra Pradesh","latitude":16.9891,"longitude":82.2475,"temp":30.3,"humidity":71,"rain":0.0,"pressure":1001.6,"uv_index":9.05,"wind_gusts":39.2,"aqi":66,"pm10":16.5,"pm2_5":11.8,"no2":2.8,"co":341.0,"o3":101.0,"so2":3.0,"mosquito_risk":3,"arthritis_risk":5,"migraine_risk":4,"frizz_risk":1,"updated_at":"2026-06-06T01:35:08.205990+05:30"},{"city":"Tirupati","state":"Andhra Pradesh","latitude":13.6288,"longitude":79.4192,"temp":28.4,"humidity":67,"rain":0.0,"pressure":987.6,"uv_index":8.8,"wind_gusts":31.0,"aqi":43,"pm10":16.6,"pm2_5":15.4,"no2":24.6,"co":237.0,"o3":17.0,"so2":3.1,"mosquito_risk":7,"arthritis_risk":5,"migraine_risk":7,"frizz_risk":1,"updated_at":"2026-06-06T01:35:08.205998+05:30"},{"city":"Warangal","state":"Telangana","latitude":17.9689,"longitude":79.5941,"temp":29.3,"humidity":62,"rain":0.0,"pressure":973.7,"uv_index":7.55,"wind_gusts":31.7,"aqi":97,"pm10":56.0,"pm2_5":41.4,"no2":12.9,"co":309.0,"o3":68.0,"so2":5.8,"mosquito_risk":7,"arthritis_risk":5,"migraine_risk":7,"frizz_risk":1,"updated_at":"2026-06-06T01:35:08.206007+05:30"},{"city":"Nizamabad","state":"Telangana","latitude":18.6725,"longitude":78.0941,"temp":29.6,"humidity":58,"rain":0.0,"pressure":960.5,"uv_index":8.95,"wind_gusts":36.0,"aqi":94,"pm10":41.0,"pm2_5":30.4,"no2":13.4,"co":224.0,"o3":70.0,"so2":4.9,"mosquito_risk":4,"arthritis_risk":5,"migraine_risk":7,"frizz_risk":1,"updated_at":"2026-06-06T01:35:08.206015+05:30"},{"city":"Mysore","state":"Karnataka","latitude":12.2958,"longitude":76.6396,"temp":22.2,"humidity":88,"rain":0.0,"pressure":926.8,"uv_index":7.7,"wind_gusts":41.8,"aqi":21,"pm10":3.1,"pm2_5":2.6,"no2":5.6,"co":142.0,"o3":38.0,"so2":1.6,"mosquito_risk":3,"arthritis_risk":5,"migraine_risk":7,"frizz_risk":1,"updated_at":"2026-06-06T01:35:08.206023+05:30"},{"city":"Mangalore","state":"Karnataka","latitude":12.9141,"longitude":74.856,"temp":24.2,"humidity":99,"rain":0.3,"pressure":1005.7,"uv_index":0.9,"wind_gusts":30.2,"aqi":24,"pm10":8.2,"pm2_5":5.0,"no2":2.4,"co":136.0,"o3":53.0,"so2":1.1,"mosquito_risk":6,"arthritis_risk":5,"migraine_risk":0,"frizz_risk":1,"updated_at":"2026-06-06T01:35:08.206031+05:30"},{"city":"Hubli-Dharwad","state":"Karnataka","latitude":15.3647,"longitude":75.124,"temp":23.7,"humidity":90,"rain":0.0,"pressure":938.6,"uv_index":8.0,"wind_gusts":36.7,"aqi":23,"pm10":2.9,"pm2_5":2.0,"no2":2.8,"co":120.0,"o3":50.0,"so2":0.7,"mosquito_risk":3,"arthritis_risk":5,"migraine_risk":7,"frizz_risk":1,"updated_at":"2026-06-06T01:35:08.206040+05:30"},{"city":"Belgaum","state":"Karnataka","latitude":15.8497,"longitude":74.4977,"temp":22.7,"humidity":94,"rain":0.0,"pressure":923.2,"uv_index":8.9,"wind_gusts":37.8,"aqi":25,"pm10":4.2,"pm2_5":3.0,"no2":3.9,"co":116.0,"o3":49.0,"so2":2.0,"mosquito_risk":3,"arthritis_risk":5,"migraine_risk":7,"frizz_risk":1,"updated_at":"2026-06-06T01:35:11.500065+05:30"},{"city":"Coimbatore","state":"Tamil Nadu","latitude":11.0168,"longitude":76.9558,"temp":24.0,"humidity":89,"rain":0.0,"pressure":960.3,"uv_index":8.85,"wind_gusts":59.0,"aqi":17,"pm10":3.7,"pm2_5":2.8,"no2":5.2,"co":175.0,"o3":35.0,"so2":2.0,"mosquito_risk":3,"arthritis_risk":5,"migraine_risk":7,"frizz_risk":1,"updated_at":"2026-06-06T01:35:11.500097+05:30"},{"city":"Madurai","state":"Tamil Nadu","latitude":9.9252,"longitude":78.1198,"temp":29.3,"humidity":57,"rain":0.0,"pressure":991.3,"uv_index":8.4,"wind_gusts":68.0,"aqi":20,"pm10":4.7,"pm2_5":4.6,"no2":8.8,"co":156.0,"o3":27.0,"so2":3.4,"mosquito_risk":4,"arthritis_risk":5,"migraine_risk":7,"frizz_risk":1,"updated_at":"2026-06-06T01:35:11.500108+05:30"},{"city":"Trichy","state":"Tamil Nadu","latitude":10.7905,"longitude":78.7047,"temp":29.1,"humidity":57,"rain":0.0,"pressure":997.6,"uv_index":8.7,"wind_gusts":47.5,"aqi":18,"pm10":5.3,"pm2_5":4.2,"no2":8.1,"co":122.0,"o3":29.0,"so2":2.9,"mosquito_risk":4,"arthritis_risk":5,"migraine_risk":7,"frizz_risk":1,"updated_at":"2026-06-06T01:35:11.500118+05:30"},{"city":"Salem","state":"Tamil Nadu","latitude":11.6643,"longitude":78.146,"temp":27.2,"humidity":70,"rain":0.0,"pressure":975.9,"uv_index":8.85,"wind_gusts":42.1,"aqi":30,"pm10":9.7,"pm2_5":8.9,"no2":16.8,"co":203.0,"o3":24.0,"so2":5.6,"mosquito_risk":7,"arthritis_risk":5,"migraine_risk":7,"frizz_risk":1,"updated_at":"2026-06-06T01:35:11.500127+05:30"},{"city":"Tirunelveli","state":"Tamil Nadu","latitude":8.7139,"longitude":77.7567,"temp":28.8,"humidity":66,"rain":0.0,"pressure":1002.3,"uv_index":8.25,"wind_gusts":49.0,"aqi":15,"pm10":4.8,"pm2_5":3.9,"no2":7.8,"co":122.0,"o3":26.0,"so2":1.8,"mosquito_risk":7,"arthritis_risk":5,"migraine_risk":4,"frizz_risk":1,"updated_at":"2026-06-06T01:35:11.500136+05:30"},{"city":"Vellore","state":"Tamil Nadu","latitude":12.9165,"longitude":79.1325,"temp":28.8,"humidity":59,"rain":0.0,"pressure":981.4,"uv_index":8.95,"wind_gusts":50.0,"aqi":40,"pm10":18.0,"pm2_5":16.9,"no2":21.7,"co":164.0,"o3":21.0,"so2":5.2,"mosquito_risk":4,"arthritis_risk":5,"migraine_risk":7,"frizz_risk":1,"updated_at":"2026-06-06T01:35:11.500144+05:30"},{"city":"Erode","state":"Tamil Nadu","latitude":11.341,"longitude":77.7172,"temp":26.5,"humidity":75,"rain":0.0,"pressure":987.4,"uv_index":8.8,"wind_gusts":55.4,"aqi":18,"pm10":6.4,"pm2_5":5.7,"no2":10.6,"co":156.0,"o3":29.0,"so2":3.5,"mosquito_risk":7,"arthritis_risk":5,"migraine_risk":7,"frizz_risk":1,"updated_at":"2026-06-06T01:35:11.500153+05:30"},{"city":"Kochi","state":"Kerala","latitude":9.9312,"longitude":76.2673,"temp":25.1,"humidity":93,"rain":0.1,"pressure":1009.1,"uv_index":7.95,"wind_gusts":36.7,"aqi":41,"pm10":15.1,"pm2_5":9.8,"no2":13.9,"co":97.0,"o3":24.0,"so2":3.2,"mosquito_risk":10,"arthritis_risk":0,"migraine_risk":4,"frizz_risk":1,"updated_at":"2026-06-06T01:35:11.500161+05:30"},{"city":"Thiruvananthapuram","state":"Kerala","latitude":8.5241,"longitude":76.9366,"temp":24.6,"humidity":100,"rain":0.1,"pressure":1008.3,"uv_index":7.5,"wind_gusts":46.1,"aqi":25,"pm10":13.9,"pm2_5":6.6,"no2":1.3,"co":89.0,"o3":43.0,"so2":0.4,"mosquito_risk":6,"arthritis_risk":0,"migraine_risk":4,"frizz_risk":1,"updated_at":"2026-06-06T01:35:11.500169+05:30"},{"city":"Kozhikode","state":"Kerala","latitude":11.2588,"longitude":75.7804,"temp":23.7,"humidity":100,"rain":0.0,"pressure":1007.5,"uv_index":0.9,"wind_gusts":29.9,"aqi":24,"pm10":19.4,"pm2_5":7.8,"no2":0.9,"co":163.0,"o3":57.0,"so2":0.4,"mosquito_risk":3,"arthritis_risk":5,"migraine_risk":0,"frizz_risk":1,"updated_at":"2026-06-06T01:35:11.500177+05:30"},{"city":"Thrissur","state":"Kerala","latitude":10.5276,"longitude":76.2144,"temp":24.7,"humidity":99,"rain":0.1,"pressure":1006.9,"uv_index":7.85,"wind_gusts":31.7,"aqi":36,"pm10":14.8,"pm2_5":9.7,"no2":11.8,"co":232.0,"o3":26.0,"so2":2.9,"mosquito_risk":6,"arthritis_risk":5,"migraine_risk":4,"frizz_risk":1,"updated_at":"2026-06-06T01:35:11.500186+05:30"},{"city":"Kannur","state":"Kerala","latitude":11.8745,"longitude":75.3704,"temp":24.8,"humidity":96,"rain":0.1,"pressure":1006.4,"uv_index":0.55,"wind_gusts":22.7,"aqi":25,"pm10":13.3,"pm2_5":7.0,"no2":3.9,"co":196.0,"o3":46.0,"so2":1.0,"mosquito_risk":6,"arthritis_risk":5,"migraine_risk":0,"frizz_risk":1,"updated_at":"2026-06-06T01:35:11.500194+05:30"},{"city":"Patna","state":"Bihar","latitude":25.5941,"longitude":85.1376,"temp":29.6,"humidity":71,"rain":0.0,"pressure":994.6,"uv_index":8.9,"wind_gusts":23.8,"aqi":171,"pm10":88.2,"pm2_5":82.7,"no2":11.3,"co":442.0,"o3":121.0,"so2":17.0,"mosquito_risk":7,"arthritis_risk":5,"migraine_risk":7,"frizz_risk":1,"updated_at":"2026-06-06T01:35:11.500202+05:30"},{"city":"Gaya","state":"Bihar","latitude":24.7914,"longitude":85.0002,"temp":29.0,"humidity":67,"rain":0.0,"pressure":987.8,"uv_index":8.7,"wind_gusts":31.0,"aqi":159,"pm10":95.2,"pm2_5":82.2,"no2":26.7,"co":522.0,"o3":59.0,"so2":11.8,"mosquito_risk":7,"arthritis_risk":5,"migraine_risk":7,"frizz_risk":1,"updated_at":"2026-06-06T01:35:11.500209+05:30"},{"city":"Muzaffarpur","state":"Bihar","latitude":26.1209,"longitude":85.3647,"temp":28.7,"humidity":72,"rain":0.0,"pressure":995.1,"uv_index":8.9,"wind_gusts":28.4,"aqi":169,"pm10":79.4,"pm2_5":74.7,"no2":11.6,"co":438.0,"o3":113.0,"so2":14.1,"mosquito_risk":7,"arthritis_risk":5,"migraine_risk":7,"frizz_risk":1,"updated_at":"2026-06-06T01:35:11.500216+05:30"},{"city":"Bhagalpur","state":"Bihar","latitude":25.2425,"longitude":87.0117,"temp":28.2,"humidity":82,"rain":0.0,"pressure":996.4,"uv_index":8.9,"wind_gusts":33.1,"aqi":164,"pm10":82.7,"pm2_5":78.5,"no2":18.4,"co":398.0,"o3":80.0,"so2":14.8,"mosquito_risk":7,"arthritis_risk":5,"migraine_risk":7,"frizz_risk":1,"updated_at":"2026-06-06T01:35:11.500224+05:30"},{"city":"Ranchi","state":"Jharkhand","latitude":23.3441,"longitude":85.3096,"temp":25.6,"humidity":77,"rain":0.0,"pressure":932.9,"uv_index":8.8,"wind_gusts":25.9,"aqi":114,"pm10":63.6,"pm2_5":49.1,"no2":16.6,"co":284.0,"o3":73.0,"so2":5.4,"mosquito_risk":7,"arthritis_risk":5,"migraine_risk":7,"frizz_risk":1,"updated_at":"2026-06-06T01:35:11.500232+05:30"},{"city":"Jamshedpur","state":"Jharkhand","latitude":22.8046,"longitude":86.2029,"temp":28.8,"humidity":86,"rain":0.0,"pressure":985.2,"uv_index":7.55,"wind_gusts":36.4,"aqi":152,"pm10":69.8,"pm2_5":63.6,"no2":23.5,"co":490.0,"o3":77.0,"so2":21.1,"mosquito_risk":7,"arthritis_risk":5,"migraine_risk":7,"frizz_risk":1,"updated_at":"2026-06-06T01:35:11.500239+05:30"},{"city":"Dhanbad","state":"Jharkhand","latitude":23.7957,"longitude":86.4304,"temp":28.7,"humidity":83,"rain":0.0,"pressure":974.9,"uv_index":7.2,"wind_gusts":33.8,"aqi":167,"pm10":97.1,"pm2_5":91.7,"no2":63.5,"co":787.0,"o3":42.0,"so2":158.8,"mosquito_risk":7,"arthritis_risk":5,"migraine_risk":7,"frizz_risk":1,"updated_at":"2026-06-06T01:35:11.500247+05:30"},{"city":"Bokaro","state":"Jharkhand","latitude":23.6693,"longitude":86.1511,"temp":28.0,"humidity":90,"rain":0.0,"pressure":978.5,"uv_index":8.55,"wind_gusts":34.6,"aqi":161,"pm10":103.6,"pm2_5":92.0,"no2":58.2,"co":603.0,"o3":40.0,"so2":123.6,"mosquito_risk":7,"arthritis_risk":5,"migraine_risk":7,"frizz_risk":1,"updated_at":"2026-06-06T01:35:11.500255+05:30"},{"city":"Bhubaneswar","state":"Odisha","latitude":20.2961,"longitude":85.8245,"temp":29.7,"humidity":89,"rain":0.0,"pressure":996.1,"uv_index":9.1,"wind_gusts":29.9,"aqi":111,"pm10":38.5,"pm2_5":36.2,"no2":8.9,"co":360.0,"o3":115.0,"so2":8.6,"mosquito_risk":7,"arthritis_risk":5,"migraine_risk":7,"frizz_risk":1,"updated_at":"2026-06-06T01:35:11.500262+05:30"},{"city":"Cuttack","state":"Odisha","latitude":20.4625,"longitude":85.8828,"temp":29.9,"humidity":88,"rain":0.0,"pressure":998.0,"uv_index":9.15,"wind_gusts":29.2,"aqi":111,"pm10":38.5,"pm2_5":36.2,"no2":8.9,"co":425.0,"o3":115.0,"so2":8.6,"mosquito_risk":7,"arthritis_risk":5,"migraine_risk":7,"frizz_risk":1,"updated_at":"2026-06-06T01:35:11.500270+05:30"},{"city":"Rourkela","state":"Odisha","latitude":22.2604,"longitude":84.8536,"temp":29.4,"humidity":67,"rain":0.0,"pressure":979.6,"uv_index":8.8,"wind_gusts":42.5,"aqi":141,"pm10":105.2,"pm2_5":86.8,"no2":31.7,"co":390.0,"o3":61.0,"so2":21.7,"mosquito_risk":7,"arthritis_risk":5,"migraine_risk":7,"frizz_risk":1,"updated_at":"2026-06-06T01:35:11.500278+05:30"},{"city":"Raipur","state":"Chhattisgarh","latitude":21.2514,"longitude":81.6296,"temp":32.8,"humidity":39,"rain":0.0,"pressure":968.9,"uv_index":9.0,"wind_gusts":38.5,"aqi":113,"pm10":60.5,"pm2_5":42.4,"no2":39.6,"co":550.0,"o3":45.0,"so2":57.3,"mosquito_risk":0,"arthritis_risk":5,"migraine_risk":7,"frizz_risk":1,"updated_at":"2026-06-06T01:35:11.500286+05:30"},{"city":"Bhilai","state":"Chhattisgarh","latitude":21.1938,"longitude":81.3509,"temp":31.5,"humidity":45,"rain":0.0,"pressure":969.2,"uv_index":9.0,"wind_gusts":43.6,"aqi":110,"pm10":56.1,"pm2_5":36.8,"no2":30.2,"co":667.0,"o3":49.0,"so2":40.7,"mosquito_risk":0,"arthritis_risk":5,"migraine_risk":7,"frizz_risk":1,"updated_at":"2026-06-06T01:35:11.500293+05:30"},{"city":"Guwahati","state":"Assam","latitude":26.1158,"longitude":91.7086,"temp":25.7,"humidity":96,"rain":0.0,"pressure":997.7,"uv_index":8.8,"wind_gusts":24.5,"aqi":93,"pm10":36.1,"pm2_5":32.8,"no2":8.7,"co":486.0,"o3":68.0,"so2":2.5,"mosquito_risk":7,"arthritis_risk":5,"migraine_risk":7,"frizz_risk":1,"updated_at":"2026-06-06T01:35:11.500301+05:30"},{"city":"Agartala","state":"Tripura","latitude":23.8315,"longitude":91.2868,"temp":25.2,"humidity":97,"rain":0.0,"pressure":1001.9,"uv_index":8.85,"wind_gusts":19.1,"aqi":111,"pm10":38.3,"pm2_5":36.3,"no2":20.6,"co":650.0,"o3":59.0,"so2":3.5,"mosquito_risk":7,"arthritis_risk":5,"migraine_risk":4,"frizz_risk":1,"updated_at":"2026-06-06T01:35:11.500309+05:30"},{"city":"Shillong","state":"Meghalaya","latitude":25.5788,"longitude":91.8933,"temp":17.1,"humidity":100,"rain":0.0,"pressure":853.3,"uv_index":8.85,"wind_gusts":21.6,"aqi":69,"pm10":23.1,"pm2_5":21.3,"no2":7.2,"co":297.0,"o3":65.0,"so2":2.2,"mosquito_risk":3,"arthritis_risk":10,"migraine_risk":7,"frizz_risk":1,"updated_at":"2026-06-06T01:35:11.500317+05:30"},{"city":"Imphal","state":"Manipur","latitude":24.817,"longitude":93.9368,"temp":22.0,"humidity":95,"rain":0.0,"pressure":919.3,"uv_index":9.25,"wind_gusts":30.6,"aqi":129,"pm10":75.4,"pm2_5":72.4,"no2":31.4,"co":860.0,"o3":9.0,"so2":2.0,"mosquito_risk":3,"arthritis_risk":5,"migraine_risk":7,"frizz_risk":1,"updated_at":"2026-06-06T01:35:11.500324+05:30"},{"city":"Aizawl","state":"Mizoram","latitude":23.7271,"longitude":92.7176,"temp":19.7,"humidity":98,"rain":0.0,"pressure":888.3,"uv_index":8.35,"wind_gusts":26.6,"aqi":103,"pm10":35.7,"pm2_5":31.4,"no2":4.7,"co":367.0,"o3":67.0,"so2":1.8,"mosquito_risk":3,"arthritis_risk":10,"migraine_risk":7,"frizz_risk":1,"updated_at":"2026-06-06T01:35:11.500332+05:30"},{"city":"Kohima","state":"Nagaland","latitude":25.6701,"longitude":94.1077,"temp":17.7,"humidity":95,"rain":0.0,"pressure":851.6,"uv_index":9.05,"wind_gusts":25.2,"aqi":67,"pm10":25.0,"pm2_5":23.7,"no2":14.7,"co":294.0,"o3":13.0,"so2":0.3,"mosquito_risk":3,"arthritis_risk":10,"migraine_risk":7,"frizz_risk":1,"updated_at":"2026-06-06T01:35:11.500341+05:30"},{"city":"Gangtok","state":"Sikkim","latitude":27.3314,"longitude":88.6138,"temp":17.3,"humidity":93,"rain":0.1,"pressure":835.1,"uv_index":9.2,"wind_gusts":36.7,"aqi":58,"pm10":8.2,"pm2_5":7.7,"no2":10.0,"co":383.0,"o3":87.0,"so2":2.2,"mosquito_risk":6,"arthritis_risk":10,"migraine_risk":7,"frizz_risk":1,"updated_at":"2026-06-06T01:35:11.500348+05:30"},{"city":"Siliguri","state":"West Bengal","latitude":26.7271,"longitude":88.3953,"temp":23.4,"humidity":99,"rain":0.1,"pressure":989.7,"uv_index":8.8,"wind_gusts":22.0,"aqi":130,"pm10":40.4,"pm2_5":35.5,"no2":12.8,"co":374.0,"o3":107.0,"so2":4.2,"mosquito_risk":6,"arthritis_risk":5,"migraine_risk":7,"frizz_risk":1,"updated_at":"2026-06-06T01:35:14.804563+05:30"},{"city":"Durgapur","state":"West Bengal","latitude":23.5204,"longitude":87.3119,"temp":27.8,"humidity":93,"rain":0.0,"pressure":989.8,"uv_index":9.05,"wind_gusts":34.9,"aqi":166,"pm10":74.0,"pm2_5":71.7,"no2":26.7,"co":660.0,"o3":68.0,"so2":37.6,"mosquito_risk":7,"arthritis_risk":5,"migraine_risk":7,"frizz_risk":1,"updated_at":"2026-06-06T01:35:14.804596+05:30"},{"city":"Asansol","state":"West Bengal","latitude":23.6739,"longitude":86.9524,"temp":27.8,"humidity":93,"rain":0.0,"pressure":988.4,"uv_index":8.9,"wind_gusts":35.3,"aqi":164,"pm10":60.8,"pm2_5":58.7,"no2":22.3,"co":645.0,"o3":83.0,"so2":36.3,"mosquito_risk":7,"arthritis_risk":5,"migraine_risk":7,"frizz_risk":1,"updated_at":"2026-06-06T01:35:14.804607+05:30"},{"city":"Pondicherry","state":"Puducherry","latitude":11.9139,"longitude":79.8145,"temp":29.7,"humidity":61,"rain":0.0,"pressure":1004.9,"uv_index":8.85,"wind_gusts":44.3,"aqi":51,"pm10":14.1,"pm2_5":12.7,"no2":16.3,"co":352.0,"o3":48.0,"so2":4.0,"mosquito_risk":7,"arthritis_risk":5,"migraine_risk":4,"frizz_risk":1,"updated_at":"2026-06-06T01:35:14.804617+05:30"},{"city":"Port Blair","state":"Andaman and Nicobar Islands","latitude":11.6234,"longitude":92.7265,"temp":26.2,"humidity":98,"rain":0.0,"pressure":1003.6,"uv_index":5.65,"wind_gusts":47.5,"aqi":26,"pm10":6.1,"pm2_5":3.9,"no2":0.2,"co":91.0,"o3":60.0,"so2":0.2,"mosquito_risk":7,"arthritis_risk":5,"migraine_risk":0,"frizz_risk":1,"updated_at":"2026-06-06T01:35:14.804627+05:30"},{"city":"Haridwar","state":"Uttarakhand","latitude":29.9457,"longitude":78.1642,"temp":24.0,"humidity":79,"rain":0.0,"pressure":968.7,"uv_index":7.6,"wind_gusts":23.4,"aqi":136,"pm10":130.4,"pm2_5":82.2,"no2":41.4,"co":373.0,"o3":58.0,"so2":11.7,"mosquito_risk":3,"arthritis_risk":5,"migraine_risk":7,"frizz_risk":1,"updated_at":"2026-06-06T01:35:14.804636+05:30"},{"city":"Rishikesh","state":"Uttarakhand","latitude":30.0869,"longitude":78.2676,"temp":22.3,"humidity":81,"rain":0.0,"pressure":961.5,"uv_index":7.7,"wind_gusts":28.1,"aqi":114,"pm10":79.9,"pm2_5":41.4,"no2":14.1,"co":400.0,"o3":104.0,"so2":5.1,"mosquito_risk":3,"arthritis_risk":5,"migraine_risk":7,"frizz_risk":1,"updated_at":"2026-06-06T01:35:14.804645+05:30"},{"city":"Nainital","state":"Uttarakhand","latitude":29.3919,"longitude":79.4542,"temp":13.2,"humidity":89,"rain":0.0,"pressure":800.9,"uv_index":8.05,"wind_gusts":25.6,"aqi":88,"pm10":47.1,"pm2_5":37.4,"no2":27.8,"co":311.0,"o3":45.0,"so2":3.2,"mosquito_risk":3,"arthritis_risk":10,"migraine_risk":7,"frizz_risk":0,"updated_at":"2026-06-06T01:35:14.804654+05:30"},{"city":"Mussoorie","state":"Uttarakhand","latitude":30.4599,"longitude":78.0664,"temp":14.1,"humidity":72,"rain":0.0,"pressure":798.5,"uv_index":8.1,"wind_gusts":42.8,"aqi":94,"pm10":68.5,"pm2_5":45.1,"no2":46.3,"co":256.0,"o3":39.0,"so2":7.6,"mosquito_risk":3,"arthritis_risk":5,"migraine_risk":7,"frizz_risk":0,"updated_at":"2026-06-06T01:35:14.804663+05:30"},{"city":"Dharamshala","state":"Himachal Pradesh","latitude":32.219,"longitude":76.3234,"temp":21.1,"humidity":58,"rain":0.0,"pressure":865.8,"uv_index":8.5,"wind_gusts":38.5,"aqi":50,"pm10":13.1,"pm2_5":11.6,"no2":13.1,"co":232.0,"o3":49.0,"so2":0.0,"mosquito_risk":0,"arthritis_risk":5,"migraine_risk":7,"frizz_risk":0,"updated_at":"2026-06-06T01:35:14.804672+05:30"},{"city":"Dalhousie","state":"Himachal Pradesh","latitude":32.5387,"longitude":75.971,"temp":12.3,"humidity":80,"rain":0.0,"pressure":799.3,"uv_index":8.75,"wind_gusts":32.4,"aqi":74,"pm10":39.0,"pm2_5":35.3,"no2":44.6,"co":357.0,"o3":0.0,"so2":0.4,"mosquito_risk":3,"arthritis_risk":5,"migraine_risk":7,"frizz_risk":0,"updated_at":"2026-06-06T01:35:14.804681+05:30"},{"city":"Patiala","state":"Punjab","latitude":30.3398,"longitude":76.3869,"temp":27.8,"humidity":66,"rain":0.0,"pressure":972.8,"uv_index":7.7,"wind_gusts":30.6,"aqi":155,"pm10":197.0,"pm2_5":83.6,"no2":27.6,"co":860.0,"o3":51.0,"so2":10.1,"mosquito_risk":7,"arthritis_risk":5,"migraine_risk":7,"frizz_risk":1,"updated_at":"2026-06-06T01:35:14.804690+05:30"},{"city":"Bhatinda","state":"Punjab","latitude":30.211,"longitude":74.9455,"temp":31.1,"humidity":47,"rain":0.0,"pressure":978.1,"uv_index":8.35,"wind_gusts":21.6,"aqi":160,"pm10":133.2,"pm2_5":78.0,"no2":58.5,"co":447.0,"o3":33.0,"so2":11.8,"mosquito_risk":0,"arthritis_risk":5,"migraine_risk":7,"frizz_risk":1,"updated_at":"2026-06-06T01:35:14.804698+05:30"},{"city":"Rohtak","state":"Haryana","latitude":28.8955,"longitude":76.6066,"temp":28.0,"humidity":68,"rain":0.0,"pressure":976.4,"uv_index":7.8,"wind_gusts":26.6,"aqi":175,"pm10":329.7,"pm2_5":78.5,"no2":35.3,"co":629.0,"o3":48.0,"so2":10.3,"mosquito_risk":7,"arthritis_risk":5,"migraine_risk":7,"frizz_risk":1,"updated_at":"2026-06-06T01:35:14.804707+05:30"},{"city":"Panipat","state":"Haryana","latitude":29.3909,"longitude":76.9635,"temp":26.8,"humidity":85,"rain":0.0,"pressure":975.0,"uv_index":7.65,"wind_gusts":35.6,"aqi":435,"pm10":300.8,"pm2_5":101.3,"no2":53.2,"co":777.0,"o3":20.0,"so2":11.9,"mosquito_risk":7,"arthritis_risk":5,"migraine_risk":7,"frizz_risk":1,"updated_at":"2026-06-06T01:35:14.804716+05:30"},{"city":"Mathura","state":"Uttar Pradesh","latitude":27.4924,"longitude":77.6737,"temp":27.3,"humidity":75,"rain":0.0,"pressure":981.8,"uv_index":8.05,"wind_gusts":24.5,"aqi":189,"pm10":309.2,"pm2_5":89.4,"no2":51.5,"co":723.0,"o3":36.0,"so2":11.2,"mosquito_risk":7,"arthritis_risk":5,"migraine_risk":7,"frizz_risk":1,"updated_at":"2026-06-06T01:35:14.804724+05:30"},{"city":"Vrindavan","state":"Uttar Pradesh","latitude":27.5823,"longitude":77.7027,"temp":27.6,"humidity":74,"rain":0.0,"pressure":982.1,"uv_index":8.05,"wind_gusts":24.8,"aqi":189,"pm10":309.2,"pm2_5":89.4,"no2":51.5,"co":912.0,"o3":36.0,"so2":11.2,"mosquito_risk":7,"arthritis_risk":5,"migraine_risk":7,"frizz_risk":1,"updated_at":"2026-06-06T01:35:14.804733+05:30"},{"city":"Ayodhya","state":"Uttar Pradesh","latitude":26.7922,"longitude":82.1998,"temp":28.2,"humidity":80,"rain":0.0,"pressure":989.3,"uv_index":8.35,"wind_gusts":30.2,"aqi":156,"pm10":87.1,"pm2_5":58.2,"no2":15.4,"co":517.0,"o3":92.0,"so2":11.5,"mosquito_risk":7,"arthritis_risk":5,"migraine_risk":7,"frizz_risk":1,"updated_at":"2026-06-06T01:35:14.804741+05:30"},{"city":"Ratlam","state":"Madhya Pradesh","latitude":23.3315,"longitude":75.0367,"temp":28.5,"humidity":67,"rain":0.0,"pressure":950.9,"uv_index":8.55,"wind_gusts":37.4,"aqi":86,"pm10":49.4,"pm2_5":32.7,"no2":5.7,"co":222.0,"o3":65.0,"so2":8.2,"mosquito_risk":7,"arthritis_risk":5,"migraine_risk":7,"frizz_risk":1,"updated_at":"2026-06-06T01:35:14.804750+05:30"},{"city":"Sagar","state":"Madhya Pradesh","latitude":23.8388,"longitude":78.7378,"temp":26.9,"humidity":59,"rain":0.0,"pressure":945.9,"uv_index":8.7,"wind_gusts":40.7,"aqi":83,"pm10":39.5,"pm2_5":24.2,"no2":12.9,"co":186.0,"o3":49.0,"so2":2.8,"mosquito_risk":4,"arthritis_risk":5,"migraine_risk":7,"frizz_risk":1,"updated_at":"2026-06-06T01:35:14.804758+05:30"},{"city":"Satna","state":"Madhya Pradesh","latitude":24.6005,"longitude":80.8322,"temp":29.4,"humidity":55,"rain":0.0,"pressure":966.6,"uv_index":8.6,"wind_gusts":31.7,"aqi":105,"pm10":58.7,"pm2_5":34.7,"no2":12.0,"co":152.0,"o3":57.0,"so2":3.0,"mosquito_risk":4,"arthritis_risk":5,"migraine_risk":7,"frizz_risk":1,"updated_at":"2026-06-06T01:35:14.804767+05:30"},{"city":"Akola","state":"Maharashtra","latitude":20.7002,"longitude":77.0082,"temp":30.0,"humidity":55,"rain":0.0,"pressure":971.5,"uv_index":8.8,"wind_gusts":54.7,"aqi":83,"pm10":38.5,"pm2_5":25.3,"no2":11.2,"co":181.0,"o3":64.0,"so2":7.4,"mosquito_risk":4,"arthritis_risk":5,"migraine_risk":7,"frizz_risk":1,"updated_at":"2026-06-06T01:35:14.804777+05:30"},{"city":"Amravati","state":"Maharashtra","latitude":20.9374,"longitude":77.7796,"temp":31.7,"humidity":42,"rain":0.0,"pressure":963.0,"uv_index":8.85,"wind_gusts":47.2,"aqi":90,"pm10":42.0,"pm2_5":27.3,"no2":18.8,"co":310.0,"o3":44.0,"so2":5.8,"mosquito_risk":0,"arthritis_risk":5,"migraine_risk":7,"frizz_risk":1,"updated_at":"2026-06-06T01:35:14.804786+05:30"},{"city":"Latur","state":"Maharashtra","latitude":18.4088,"longitude":76.5604,"temp":26.9,"humidity":67,"rain":0.0,"pressure":936.5,"uv_index":7.0,"wind_gusts":45.4,"aqi":65,"pm10":24.2,"pm2_5":17.1,"no2":8.8,"co":198.0,"o3":72.0,"so2":4.4,"mosquito_risk":7,"arthritis_risk":5,"migraine_risk":7,"frizz_risk":1,"updated_at":"2026-06-06T01:35:14.804795+05:30"},{"city":"Nanded","state":"Maharashtra","latitude":19.1383,"longitude":77.3091,"temp":31.7,"humidity":46,"rain":0.0,"pressure":964.4,"uv_index":8.9,"wind_gusts":34.6,"aqi":87,"pm10":40.4,"pm2_5":26.6,"no2":11.1,"co":179.0,"o3":77.0,"so2":8.6,"mosquito_risk":0,"arthritis_risk":5,"migraine_risk":7,"frizz_risk":1,"updated_at":"2026-06-06T01:35:14.804803+05:30"},{"city":"Gulbarga","state":"Karnataka","latitude":17.3297,"longitude":76.8343,"temp":25.6,"humidity":81,"rain":0.0,"pressure":955.2,"uv_index":9.0,"wind_gusts":60.1,"aqi":55,"pm10":22.0,"pm2_5":15.8,"no2":12.7,"co":195.0,"o3":55.0,"so2":3.4,"mosquito_risk":7,"arthritis_risk":5,"migraine_risk":7,"frizz_risk":1,"updated_at":"2026-06-06T01:35:14.804812+05:30"},{"city":"Bidar","state":"Karnataka","latitude":17.9104,"longitude":77.5199,"temp":26.2,"humidity":68,"rain":0.0,"pressure":932.1,"uv_index":8.7,"wind_gusts":44.6,"aqi":78,"pm10":32.8,"pm2_5":22.7,"no2":13.4,"co":176.0,"o3":69.0,"so2":3.5,"mosquito_risk":7,"arthritis_risk":5,"migraine_risk":7,"frizz_risk":1,"updated_at":"2026-06-06T01:35:14.804821+05:30"},{"city":"Hospet","state":"Karnataka","latitude":15.2689,"longitude":76.3909,"temp":24.8,"humidity":85,"rain":0.0,"pressure":953.6,"uv_index":6.9,"wind_gusts":46.1,"aqi":22,"pm10":4.3,"pm2_5":3.6,"no2":8.0,"co":152.0,"o3":39.0,"so2":1.6,"mosquito_risk":3,"arthritis_risk":5,"migraine_risk":7,"frizz_risk":1,"updated_at":"2026-06-06T01:35:14.804830+05:30"},{"city":"Tirupur","state":"Tamil Nadu","latitude":11.1085,"longitude":77.3411,"temp":25.4,"humidity":82,"rain":0.0,"pressure":973.8,"uv_index":8.9,"wind_gusts":65.5,"aqi":20,"pm10":7.8,"pm2_5":7.0,"no2":12.1,"co":144.0,"o3":27.0,"so2":4.0,"mosquito_risk":7,"arthritis_risk":5,"migraine_risk":7,"frizz_risk":1,"updated_at":"2026-06-06T01:35:14.804838+05:30"},{"city":"Alappuzha","state":"Kerala","latitude":9.4981,"longitude":76.3388,"temp":25.7,"humidity":91,"rain":0.1,"pressure":1009.0,"uv_index":8.0,"wind_gusts":40.7,"aqi":33,"pm10":17.1,"pm2_5":8.1,"no2":5.5,"co":84.0,"o3":40.0,"so2":1.2,"mosquito_risk":10,"arthritis_risk":0,"migraine_risk":4,"frizz_risk":1,"updated_at":"2026-06-06T01:35:14.804846+05:30"},{"city":"Munnar","state":"Kerala","latitude":10.0889,"longitude":77.0595,"temp":17.0,"humidity":98,"rain":0.0,"pressure":855.9,"uv_index":8.45,"wind_gusts":46.8,"aqi":15,"pm10":1.2,"pm2_5":1.1,"no2":5.7,"co":103.0,"o3":27.0,"so2":1.8,"mosquito_risk":3,"arthritis_risk":10,"migraine_risk":7,"frizz_risk":1,"updated_at":"2026-06-06T01:35:14.804855+05:30"},{"city":"Silchar","state":"Assam","latitude":24.8333,"longitude":92.7789,"temp":25.3,"humidity":100,"rain":0.0,"pressure":1000.4,"uv_index":8.95,"wind_gusts":21.6,"aqi":99,"pm10":71.9,"pm2_5":64.5,"no2":22.8,"co":985.0,"o3":59.0,"so2":10.1,"mosquito_risk":7,"arthritis_risk":5,"migraine_risk":4,"frizz_risk":1,"updated_at":"2026-06-06T01:35:14.804864+05:30"},{"city":"Dibrugarh","state":"Assam","latitude":27.4728,"longitude":94.912,"temp":25.0,"humidity":90,"rain":0.0,"pressure":991.4,"uv_index":8.95,"wind_gusts":28.8,"aqi":97,"pm10":48.4,"pm2_5":46.1,"no2":28.6,"co":614.0,"o3":21.0,"so2":2.6,"mosquito_risk":7,"arthritis_risk":5,"migraine_risk":7,"frizz_risk":1,"updated_at":"2026-06-06T01:35:14.804872+05:30"}]