[{"city":"Delhi","state":"Delhi","latitude":28.6139,"longitude":77.209,"temp":34.7,"humidity":32,"rain":0.0,"pressure":981.9,"uv_index":6.8,"wind_gusts":29.2,"aqi":195,"pm10":160.2,"pm2_5":41.0,"mosquito_risk":0,"arthritis_risk":5,"migraine_risk":7,"frizz_risk":0,"updated_at":"2026-04-17T17:31:17.704683+05:30"},{"city":"Mumbai","state":"Maharashtra","latitude":19.076,"longitude":72.8777,"temp":29.8,"humidity":79,"rain":0.0,"pressure":1006.9,"uv_index":7.05,"wind_gusts":22.3,"aqi":153,"pm10":81.3,"pm2_5":26.8,"mosquito_risk":7,"arthritis_risk":5,"migraine_risk":4,"frizz_risk":1,"updated_at":"2026-04-17T17:31:17.704732+05:30"},{"city":"Bangalore","state":"Karnataka","latitude":12.9716,"longitude":77.5946,"temp":34.3,"humidity":22,"rain":0.0,"pressure":910.7,"uv_index":9.2,"wind_gusts":34.9,"aqi":157,"pm10":20.3,"pm2_5":16.8,"mosquito_risk":0,"arthritis_risk":5,"migraine_risk":7,"frizz_risk":0,"updated_at":"2026-04-17T17:31:17.704749+05:30"},{"city":"Hyderabad","state":"Telangana","latitude":17.385,"longitude":78.4867,"temp":34.8,"humidity":41,"rain":0.0,"pressure":951.7,"uv_index":9.2,"wind_gusts":40.0,"aqi":157,"pm10":32.2,"pm2_5":27.6,"mosquito_risk":0,"arthritis_risk":5,"migraine_risk":7,"frizz_risk":1,"updated_at":"2026-04-17T17:31:17.704759+05:30"},{"city":"Chennai","state":"Tamil Nadu","latitude":13.0827,"longitude":80.2707,"temp":31.9,"humidity":66,"rain":0.0,"pressure":1005.3,"uv_index":8.95,"wind_gusts":33.1,"aqi":35,"pm10":11.9,"pm2_5":8.2,"mosquito_risk":3,"arthritis_risk":5,"migraine_risk":4,"frizz_risk":1,"updated_at":"2026-04-17T17:31:17.704769+05:30"},{"city":"Kolkata","state":"West Bengal","latitude":22.5726,"longitude":88.3639,"temp":32.6,"humidity":64,"rain":0.0,"pressure":1004.0,"uv_index":8.85,"wind_gusts":24.1,"aqi":67,"pm10":24.2,"pm2_5":20.6,"mosquito_risk":3,"arthritis_risk":5,"migraine_risk":4,"frizz_risk":1,"updated_at":"2026-04-17T17:31:17.704777+05:30"},{"city":"Pune","state":"Maharashtra","latitude":18.5204,"longitude":73.8567,"temp":35.0,"humidity":31,"rain":0.0,"pressure":947.3,"uv_index":7.85,"wind_gusts":42.1,"aqi":142,"pm10":22.5,"pm2_5":16.4,"mosquito_risk":0,"arthritis_risk":5,"migraine_risk":7,"frizz_risk":0,"updated_at":"2026-04-17T17:31:17.704786+05:30"},{"city":"Ahmedabad","state":"Gujarat","latitude":23.0225,"longitude":72.5714,"temp":39.4,"humidity":13,"rain":0.0,"pressure":999.7,"uv_index":7.55,"wind_gusts":21.6,"aqi":80,"pm10":31.9,"pm2_5":11.5,"mosquito_risk":0,"arthritis_risk":5,"migraine_risk":10,"frizz_risk":0,"updated_at":"2026-04-17T17:31:17.704794+05:30"},{"city":"Jaipur","state":"Rajasthan","latitude":26.9124,"longitude":75.7873,"temp":38.0,"humidity":17,"rain":0.0,"pressure":958.4,"uv_index":7.55,"wind_gusts":28.4,"aqi":96,"pm10":134.1,"pm2_5":22.6,"mosquito_risk":0,"arthritis_risk":5,"migraine_risk":10,"frizz_risk":0,"updated_at":"2026-04-17T17:31:17.704802+05:30"},{"city":"Lucknow","state":"Uttar Pradesh","latitude":26.8467,"longitude":80.9462,"temp":37.2,"humidity":22,"rain":0.0,"pressure":991.4,"uv_index":7.35,"wind_gusts":19.4,"aqi":175,"pm10":56.8,"pm2_5":21.8,"mosquito_risk":0,"arthritis_risk":5,"migraine_risk":10,"frizz_risk":0,"updated_at":"2026-04-17T17:31:17.704809+05:30"},{"city":"Kanpur","state":"Uttar Pradesh","latitude":26.4499,"longitude":80.3319,"temp":35.1,"humidity":41,"rain":0.0,"pressure":989.7,"uv_index":7.85,"wind_gusts":15.8,"aqi":152,"pm10":191.4,"pm2_5":30.4,"mosquito_risk":0,"arthritis_risk":5,"migraine_risk":10,"frizz_risk":1,"updated_at":"2026-04-17T17:31:17.704817+05:30"},{"city":"Chandigarh","state":"Chandigarh","latitude":30.7333,"longitude":76.7794,"temp":31.0,"humidity":35,"rain":0.0,"pressure":969.2,"uv_index":7.2,"wind_gusts":34.2,"aqi":108,"pm10":67.1,"pm2_5":17.4,"mosquito_risk":0,"arthritis_risk":5,"migraine_risk":7,"frizz_risk":0,"updated_at":"2026-04-17T17:31:17.704825+05:30"},{"city":"Srinagar","state":"Jammu and Kashmir","latitude":34.0837,"longitude":74.7973,"temp":12.6,"humidity":83,"rain":0.0,"pressure":845.0,"uv_index":5.75,"wind_gusts":25.6,"aqi":74,"pm10":13.9,"pm2_5":9.0,"mosquito_risk":3,"arthritis_risk":10,"migraine_risk":3,"frizz_risk":0,"updated_at":"2026-04-17T17:31:17.704833+05:30"},{"city":"Jammu","state":"Jammu and Kashmir","latitude":32.7266,"longitude":74.857,"temp":31.9,"humidity":29,"rain":0.0,"pressure":974.4,"uv_index":4.95,"wind_gusts":47.9,"aqi":72,"pm10":51.8,"pm2_5":16.1,"mosquito_risk":0,"arthritis_risk":5,"migraine_risk":3,"frizz_risk":0,"updated_at":"2026-04-17T17:31:17.704840+05:30"},{"city":"Amritsar","state":"Punjab","latitude":31.634,"longitude":74.8723,"temp":32.3,"humidity":26,"rain":0.0,"pressure":982.0,"uv_index":7.25,"wind_gusts":32.0,"aqi":92,"pm10":37.6,"pm2_5":14.2,"mosquito_risk":0,"arthritis_risk":5,"migraine_risk":7,"frizz_risk":0,"updated_at":"2026-04-17T17:31:17.704847+05:30"},{"city":"Ludhiana","state":"Punjab","latitude":30.901,"longitude":75.8573,"temp":31.9,"humidity":28,"rain":0.0,"pressure":979.8,"uv_index":7.4,"wind_gusts":38.5,"aqi":115,"pm10":31.0,"pm2_5":14.2,"mosquito_risk":0,"arthritis_risk":5,"migraine_risk":7,"frizz_risk":0,"updated_at":"2026-04-17T17:31:17.704854+05:30"},{"city":"Jalandhar","state":"Punjab","latitude":31.326,"longitude":75.5762,"temp":30.9,"humidity":29,"rain":0.0,"pressure":981.6,"uv_index":6.85,"wind_gusts":38.2,"aqi":94,"pm10":52.4,"pm2_5":13.6,"mosquito_risk":0,"arthritis_risk":5,"migraine_risk":7,"frizz_risk":0,"updated_at":"2026-04-17T17:31:17.704862+05:30"},{"city":"Dehradun","state":"Uttarakhand","latitude":30.6284,"longitude":78.0322,"temp":23.0,"humidity":36,"rain":0.0,"pressure":833.6,"uv_index":6.8,"wind_gusts":33.5,"aqi":95,"pm10":38.8,"pm2_5":12.5,"mosquito_risk":0,"arthritis_risk":5,"migraine_risk":7,"frizz_risk":0,"updated_at":"2026-04-17T17:31:17.704870+05:30"},{"city":"Shimla","state":"Himachal Pradesh","latitude":31.1048,"longitude":77.1734,"temp":19.0,"humidity":45,"rain":0.0,"pressure":788.5,"uv_index":6.95,"wind_gusts":35.6,"aqi":81,"pm10":30.2,"pm2_5":12.1,"mosquito_risk":0,"arthritis_risk":5,"migraine_risk":7,"frizz_risk":0,"updated_at":"2026-04-17T17:31:17.704876+05:30"},{"city":"Manali","state":"Himachal Pradesh","latitude":32.2396,"longitude":77.1887,"temp":15.0,"humidity":88,"rain":0.2,"pressure":824.3,"uv_index":9.45,"wind_gusts":32.8,"aqi":99,"pm10":16.5,"pm2_5":6.7,"mosquito_risk":6,"arthritis_risk":10,"migraine_risk":7,"frizz_risk":0,"updated_at":"2026-04-17T17:31:17.704883+05:30"},{"city":"Gurgaon","state":"Haryana","latitude":28.4595,"longitude":77.0266,"temp":33.5,"humidity":38,"rain":0.0,"pressure":980.4,"uv_index":6.75,"wind_gusts":25.6,"aqi":318,"pm10":426.5,"pm2_5":55.4,"mosquito_risk":0,"arthritis_risk":5,"migraine_risk":7,"frizz_risk":1,"updated_at":"2026-04-17T17:31:17.704890+05:30"},{"city":"Noida","state":"Uttar Pradesh","latitude":28.5355,"longitude":77.391,"temp":35.4,"humidity":31,"rain":0.0,"pressure":983.2,"uv_index":6.8,"wind_gusts":23.0,"aqi":318,"pm10":426.5,"pm2_5":55.4,"mosquito_risk":0,"arthritis_risk":5,"migraine_risk":10,"frizz_risk":0,"updated_at":"2026-04-17T17:31:17.704897+05:30"},{"city":"Ghaziabad","state":"Uttar Pradesh","latitude":28.6692,"longitude":77.4538,"temp":34.6,"humidity":32,"rain":0.0,"pressure":981.5,"uv_index":6.65,"wind_gusts":27.4,"aqi":202,"pm10":170.0,"pm2_5":43.2,"mosquito_risk":0,"arthritis_risk":5,"migraine_risk":7,"frizz_risk":0,"updated_at":"2026-04-17T17:31:17.704903+05:30"},{"city":"Faridabad","state":"Haryana","latitude":28.4089,"longitude":77.3178,"temp":36.5,"humidity":24,"rain":0.0,"pressure":982.5,"uv_index":6.7,"wind_gusts":34.2,"aqi":318,"pm10":426.5,"pm2_5":55.4,"mosquito_risk":0,"arthritis_risk":5,"migraine_risk":10,"frizz_risk":0,"updated_at":"2026-04-17T17:31:17.704910+05:30"},{"city":"Meerut","state":"Uttar Pradesh","latitude":28.9845,"longitude":77.7064,"temp":35.2,"humidity":28,"rain":0.0,"pressure":980.5,"uv_index":6.4,"wind_gusts":16.2,"aqi":202,"pm10":170.0,"pm2_5":43.2,"mosquito_risk":0,"arthritis_risk":5,"migraine_risk":10,"frizz_risk":0,"updated_at":"2026-04-17T17:31:17.704916+05:30"},{"city":"Agra","state":"Uttar Pradesh","latitude":27.1767,"longitude":78.0081,"temp":38.1,"humidity":23,"rain":0.0,"pressure":985.6,"uv_index":6.4,"wind_gusts":17.6,"aqi":197,"pm10":161.6,"pm2_5":35.5,"mosquito_risk":0,"arthritis_risk":5,"migraine_risk":10,"frizz_risk":0,"updated_at":"2026-04-17T17:31:17.704923+05:30"},{"city":"Varanasi","state":"Uttar Pradesh","latitude":25.3176,"longitude":82.9739,"temp":38.2,"humidity":22,"rain":0.0,"pressure":994.8,"uv_index":8.45,"wind_gusts":23.8,"aqi":165,"pm10":58.4,"pm2_5":22.5,"mosquito_risk":0,"arthritis_risk":5,"migraine_risk":10,"frizz_risk":0,"updated_at":"2026-04-17T17:31:17.704930+05:30"},{"city":"Prayagraj","state":"Uttar Pradesh","latitude":25.4358,"longitude":81.8463,"temp":38.4,"humidity":18,"rain":0.0,"pressure":993.5,"uv_index":8.3,"wind_gusts":24.1,"aqi":174,"pm10":60.1,"pm2_5":21.6,"mosquito_risk":0,"arthritis_risk":5,"migraine_risk":10,"frizz_risk":0,"updated_at":"2026-04-17T17:31:17.704937+05:30"},{"city":"Gorakhpur","state":"Uttar Pradesh","latitude":26.7606,"longitude":83.3732,"temp":35.6,"humidity":33,"rain":0.0,"pressure":995.0,"uv_index":7.7,"wind_gusts":27.0,"aqi":180,"pm10":65.4,"pm2_5":38.2,"mosquito_risk":0,"arthritis_risk":5,"migraine_risk":10,"frizz_risk":1,"updated_at":"2026-04-17T17:31:17.704944+05:30"},{"city":"Bareilly","state":"Uttar Pradesh","latitude":28.367,"longitude":79.4304,"temp":34.0,"humidity":39,"rain":0.0,"pressure":985.4,"uv_index":6.85,"wind_gusts":22.7,"aqi":166,"pm10":60.8,"pm2_5":24.3,"mosquito_risk":0,"arthritis_risk":5,"migraine_risk":7,"frizz_risk":1,"updated_at":"2026-04-17T17:31:17.704951+05:30"},{"city":"Aligarh","state":"Uttar Pradesh","latitude":27.8974,"longitude":78.088,"temp":36.4,"humidity":21,"rain":0.0,"pressure":984.1,"uv_index":6.5,"wind_gusts":34.9,"aqi":161,"pm10":223.5,"pm2_5":40.7,"mosquito_risk":0,"arthritis_risk":5,"migraine_risk":10,"frizz_risk":0,"updated_at":"2026-04-17T17:31:17.704958+05:30"},{"city":"Moradabad","state":"Uttar Pradesh","latitude":28.8386,"longitude":78.7733,"temp":34.4,"humidity":34,"rain":0.0,"pressure":982.5,"uv_index":5.9,"wind_gusts":17.6,"aqi":178,"pm10":77.1,"pm2_5":26.9,"mosquito_risk":0,"arthritis_risk":5,"migraine_risk":3,"frizz_risk":1,"updated_at":"2026-04-17T17:31:17.704964+05:30"},{"city":"Saharanpur","state":"Uttar Pradesh","latitude":29.9637,"longitude":77.546,"temp":33.3,"humidity":37,"rain":0.0,"pressure":975.2,"uv_index":6.1,"wind_gusts":26.6,"aqi":115,"pm10":57.7,"pm2_5":18.7,"mosquito_risk":0,"arthritis_risk":5,"migraine_risk":7,"frizz_risk":1,"updated_at":"2026-04-17T17:31:17.704970+05:30"},{"city":"Jhansi","state":"Uttar Pradesh","latitude":25.4484,"longitude":78.5685,"temp":40.3,"humidity":15,"rain":0.0,"pressure":974.8,"uv_index":7.85,"wind_gusts":20.9,"aqi":149,"pm10":72.2,"pm2_5":19.0,"mosquito_risk":0,"arthritis_risk":5,"migraine_risk":10,"frizz_risk":0,"updated_at":"2026-04-17T17:31:29.802630+05:30"},{"city":"Surat","state":"Gujarat","latitude":21.1702,"longitude":72.8311,"temp":33.1,"humidity":37,"rain":0.0,"pressure":1004.9,"uv_index":7.6,"wind_gusts":23.4,"aqi":101,"pm10":78.5,"pm2_5":52.0,"mosquito_risk":0,"arthritis_risk":5,"migraine_risk":4,"frizz_risk":1,"updated_at":"2026-04-17T17:31:29.802665+05:30"},{"city":"Vadodara","state":"Gujarat","latitude":22.3072,"longitude":73.1812,"temp":38.3,"humidity":17,"rain":0.0,"pressure":1002.0,"uv_index":7.8,"wind_gusts":22.7,"aqi":105,"pm10":34.0,"pm2_5":15.7,"mosquito_risk":0,"arthritis_risk":5,"migraine_risk":7,"frizz_risk":0,"updated_at":"2026-04-17T17:31:29.802675+05:30"},{"city":"Rajkot","state":"Gujarat","latitude":22.3039,"longitude":70.8022,"temp":38.1,"humidity":17,"rain":0.0,"pressure":992.7,"uv_index":7.85,"wind_gusts":30.2,"aqi":72,"pm10":59.8,"pm2_5":17.9,"mosquito_risk":0,"arthritis_risk":5,"migraine_risk":10,"frizz_risk":0,"updated_at":"2026-04-17T17:31:29.802683+05:30"},{"city":"Thane","state":"Maharashtra","latitude":19.2183,"longitude":72.9781,"temp":30.7,"humidity":66,"rain":0.0,"pressure":1006.4,"uv_index":7.1,"wind_gusts":32.8,"aqi":153,"pm10":81.3,"pm2_5":26.8,"mosquito_risk":3,"arthritis_risk":5,"migraine_risk":4,"frizz_risk":1,"updated_at":"2026-04-17T17:31:29.802689+05:30"},{"city":"Nagpur","state":"Maharashtra","latitude":21.1458,"longitude":79.0882,"temp":38.7,"humidity":20,"rain":0.0,"pressure":969.6,"uv_index":8.25,"wind_gusts":22.3,"aqi":213,"pm10":41.9,"pm2_5":26.7,"mosquito_risk":0,"arthritis_risk":5,"migraine_risk":10,"frizz_risk":0,"updated_at":"2026-04-17T17:31:29.802696+05:30"},{"city":"Nashik","state":"Maharashtra","latitude":19.9975,"longitude":73.7898,"temp":34.2,"humidity":29,"rain":0.0,"pressure":945.0,"uv_index":7.35,"wind_gusts":33.5,"aqi":92,"pm10":25.4,"pm2_5":12.9,"mosquito_risk":0,"arthritis_risk":5,"migraine_risk":7,"frizz_risk":0,"updated_at":"2026-04-17T17:31:29.802703+05:30"},{"city":"Aurangabad","state":"Maharashtra","latitude":19.8762,"longitude":75.3433,"temp":37.6,"humidity":14,"rain":0.0,"pressure":942.7,"uv_index":8.1,"wind_gusts":34.6,"aqi":111,"pm10":11.9,"pm2_5":8.5,"mosquito_risk":0,"arthritis_risk":5,"migraine_risk":10,"frizz_risk":0,"updated_at":"2026-04-17T17:31:29.802709+05:30"},{"city":"Solapur","state":"Maharashtra","latitude":17.6599,"longitude":75.9064,"temp":39.9,"humidity":18,"rain":0.0,"pressure":954.1,"uv_index":8.5,"wind_gusts":22.0,"aqi":157,"pm10":37.6,"pm2_5":30.6,"mosquito_risk":0,"arthritis_risk":5,"migraine_risk":10,"frizz_risk":0,"updated_at":"2026-04-17T17:31:29.802716+05:30"},{"city":"Kolhapur","state":"Maharashtra","latitude":16.705,"longitude":74.2433,"temp":32.1,"humidity":47,"rain":0.0,"pressure":946.2,"uv_index":8.2,"wind_gusts":40.7,"aqi":130,"pm10":25.1,"pm2_5":21.4,"mosquito_risk":0,"arthritis_risk":5,"migraine_risk":7,"frizz_risk":1,"updated_at":"2026-04-17T17:31:29.802723+05:30"},{"city":"Goa","state":"Goa","latitude":15.2993,"longitude":74.124,"temp":30.3,"humidity":68,"rain":0.0,"pressure":995.9,"uv_index":8.6,"wind_gusts":33.1,"aqi":69,"pm10":34.0,"pm2_5":15.9,"mosquito_risk":3,"arthritis_risk":5,"migraine_risk":7,"frizz_risk":1,"updated_at":"2026-04-17T17:31:29.802730+05:30"},{"city":"Jodhpur","state":"Rajasthan","latitude":26.2389,"longitude":73.0243,"temp":38.3,"humidity":14,"rain":0.0,"pressure":980.6,"uv_index":8.15,"wind_gusts":32.8,"aqi":92,"pm10":127.6,"pm2_5":15.8,"mosquito_risk":0,"arthritis_risk":5,"migraine_risk":10,"frizz_risk":0,"updated_at":"2026-04-17T17:31:29.802736+05:30"},{"city":"Udaipur","state":"Rajasthan","latitude":24.5854,"longitude":73.7125,"temp":36.2,"humidity":14,"rain":0.0,"pressure":945.9,"uv_index":7.85,"wind_gusts":28.8,"aqi":72,"pm10":16.4,"pm2_5":5.7,"mosquito_risk":0,"arthritis_risk":5,"migraine_risk":10,"frizz_risk":0,"updated_at":"2026-04-17T17:31:29.802742+05:30"},{"city":"Kota","state":"Rajasthan","latitude":25.2138,"longitude":75.8648,"temp":40.6,"humidity":16,"rain":0.0,"pressure":975.6,"uv_index":7.15,"wind_gusts":27.0,"aqi":96,"pm10":38.0,"pm2_5":15.1,"mosquito_risk":0,"arthritis_risk":5,"migraine_risk":10,"frizz_risk":0,"updated_at":"2026-04-17T17:31:29.802748+05:30"},{"city":"Bikaner","state":"Rajasthan","latitude":28.0229,"longitude":73.3119,"temp":40.9,"humidity":12,"rain":0.0,"pressure":978.4,"uv_index":8.0,"wind_gusts":27.4,"aqi":79,"pm10":32.7,"pm2_5":10.4,"mosquito_risk":0,"arthritis_risk":5,"migraine_risk":10,"frizz_risk":0,"updated_at":"2026-04-17T17:31:29.802755+05:30"},{"city":"Ajmer","state":"Rajasthan","latitude":26.4499,"longitude":74.6399,"temp":37.4,"humidity":22,"rain":0.0,"pressure":953.0,"uv_index":7.8,"wind_gusts":31.7,"aqi":81,"pm10":27.8,"pm2_5":10.5,"mosquito_risk":0,"arthritis_risk":5,"migraine_risk":10,"frizz_risk":0,"updated_at":"2026-04-17T17:31:29.802761+05:30"},{"city":"Gwalior","state":"Madhya Pradesh","latitude":26.2183,"longitude":78.1828,"temp":39.0,"humidity":19,"rain":0.0,"pressure":980.6,"uv_index":7.15,"wind_gusts":25.2,"aqi":139,"pm10":86.8,"pm2_5":20.0,"mosquito_risk":0,"arthritis_risk":5,"migraine_risk":10,"frizz_risk":0,"updated_at":"2026-04-17T17:31:29.802768+05:30"},{"city":"Indore","state":"Madhya Pradesh","latitude":22.7196,"longitude":75.8577,"temp":35.9,"humidity":22,"rain":0.0,"pressure":947.2,"uv_index":7.75,"wind_gusts":27.0,"aqi":133,"pm10":26.1,"pm2_5":16.3,"mosquito_risk":0,"arthritis_risk":5,"migraine_risk":10,"frizz_risk":0,"updated_at":"2026-04-17T17:31:29.802774+05:30"},{"city":"Bhopal","state":"Madhya Pradesh","latitude":23.2599,"longitude":77.4126,"temp":39.0,"humidity":18,"rain":0.0,"pressure":951.8,"uv_index":7.8,"wind_gusts":29.2,"aqi":132,"pm10":28.5,"pm2_5":14.2,"mosquito_risk":0,"arthritis_risk":5,"migraine_risk":10,"frizz_risk":0,"updated_at":"2026-04-17T17:31:29.802780+05:30"},{"city":"Jabalpur","state":"Madhya Pradesh","latitude":23.1815,"longitude":79.9864,"temp":38.2,"humidity":23,"rain":0.0,"pressure":959.2,"uv_index":8.65,"wind_gusts":24.5,"aqi":151,"pm10":42.6,"pm2_5":15.8,"mosquito_risk":0,"arthritis_risk":5,"migraine_risk":10,"frizz_risk":0,"updated_at":"2026-04-17T17:31:29.802786+05:30"},{"city":"Ujjain","state":"Madhya Pradesh","latitude":23.1765,"longitude":75.7885,"temp":36.3,"humidity":21,"rain":0.0,"pressure":952.9,"uv_index":7.85,"wind_gusts":27.7,"aqi":117,"pm10":24.0,"pm2_5":15.0,"mosquito_risk":0,"arthritis_risk":5,"migraine_risk":10,"frizz_risk":0,"updated_at":"2026-04-17T17:31:29.802794+05:30"},{"city":"Visakhapatnam","state":"Andhra Pradesh","latitude":17.6868,"longitude":83.2185,"temp":30.2,"humidity":73,"rain":0.0,"pressure":1001.1,"uv_index":9.2,"wind_gusts":37.1,"aqi":47,"pm10":16.6,"pm2_5":12.4,"mosquito_risk":3,"arthritis_risk":5,"migraine_risk":4,"frizz_risk":1,"updated_at":"2026-04-17T17:31:29.802801+05:30"},{"city":"Vijayawada","state":"Andhra Pradesh","latitude":16.5062,"longitude":80.648,"temp":35.6,"humidity":48,"rain":0.0,"pressure":999.7,"uv_index":9.15,"wind_gusts":23.4,"aqi":49,"pm10":21.8,"pm2_5":17.6,"mosquito_risk":0,"arthritis_risk":5,"migraine_risk":10,"frizz_risk":1,"updated_at":"2026-04-17T17:31:29.802807+05:30"},{"city":"Guntur","state":"Andhra Pradesh","latitude":16.3067,"longitude":80.4365,"temp":34.0,"humidity":54,"rain":0.0,"pressure":1001.2,"uv_index":9.2,"wind_gusts":26.6,"aqi":74,"pm10":25.0,"pm2_5":20.2,"mosquito_risk":0,"arthritis_risk":5,"migraine_risk":4,"frizz_risk":1,"updated_at":"2026-04-17T17:31:29.802813+05:30"},{"city":"Nellore","state":"Andhra Pradesh","latitude":14.4426,"longitude":79.9865,"temp":32.7,"humidity":60,"rain":0.0,"pressure":1003.2,"uv_index":9.3,"wind_gusts":33.8,"aqi":86,"pm10":20.3,"pm2_5":16.1,"mosquito_risk":0,"arthritis_risk":5,"migraine_risk":4,"frizz_risk":1,"updated_at":"2026-04-17T17:31:29.802820+05:30"},{"city":"Kurnool","state":"Andhra Pradesh","latitude":15.8281,"longitude":78.0373,"temp":41.0,"humidity":16,"rain":0.0,"pressure":973.0,"uv_index":9.2,"wind_gusts":27.0,"aqi":157,"pm10":26.6,"pm2_5":22.5,"mosquito_risk":0,"arthritis_risk":5,"migraine_risk":10,"frizz_risk":0,"updated_at":"2026-04-17T17:31:29.802828+05:30"},{"city":"Kakinada","state":"Andhra Pradesh","latitude":16.9891,"longitude":82.2475,"temp":34.3,"humidity":53,"rain":0.0,"pressure":1004.5,"uv_index":9.2,"wind_gusts":30.6,"aqi":31,"pm10":11.5,"pm2_5":7.7,"mosquito_risk":0,"arthritis_risk":5,"migraine_risk":4,"frizz_risk":1,"updated_at":"2026-04-17T17:31:29.802834+05:30"},{"city":"Tirupati","state":"Andhra Pradesh","latitude":13.6288,"longitude":79.4192,"temp":35.3,"humidity":43,"rain":0.0,"pressure":989.3,"uv_index":9.25,"wind_gusts":31.7,"aqi":114,"pm10":29.4,"pm2_5":25.6,"mosquito_risk":0,"arthritis_risk":5,"migraine_risk":10,"frizz_risk":1,"updated_at":"2026-04-17T17:31:29.802840+05:30"},{"city":"Warangal","state":"Telangana","latitude":17.9689,"longitude":79.5941,"temp":35.0,"humidity":47,"rain":0.0,"pressure":975.8,"uv_index":9.1,"wind_gusts":26.6,"aqi":123,"pm10":33.8,"pm2_5":28.6,"mosquito_risk":0,"arthritis_risk":5,"migraine_risk":7,"frizz_risk":1,"updated_at":"2026-04-17T17:31:29.802846+05:30"},{"city":"Nizamabad","state":"Telangana","latitude":18.6725,"longitude":78.0941,"temp":40.1,"humidity":17,"rain":0.0,"pressure":961.9,"uv_index":9.05,"wind_gusts":22.7,"aqi":153,"pm10":26.7,"pm2_5":20.5,"mosquito_risk":0,"arthritis_risk":5,"migraine_risk":10,"frizz_risk":0,"updated_at":"2026-04-17T17:31:29.802852+05:30"},{"city":"Mysore","state":"Karnataka","latitude":12.2958,"longitude":76.6396,"temp":35.2,"humidity":23,"rain":0.0,"pressure":926.6,"uv_index":9.3,"wind_gusts":38.9,"aqi":148,"pm10":25.1,"pm2_5":21.1,"mosquito_risk":0,"arthritis_risk":5,"migraine_risk":10,"frizz_risk":0,"updated_at":"2026-04-17T17:31:29.802858+05:30"},{"city":"Mangalore","state":"Karnataka","latitude":12.9141,"longitude":74.856,"temp":29.9,"humidity":84,"rain":0.0,"pressure":1004.0,"uv_index":9.15,"wind_gusts":25.2,"aqi":86,"pm10":32.5,"pm2_5":21.0,"mosquito_risk":7,"arthritis_risk":5,"migraine_risk":4,"frizz_risk":1,"updated_at":"2026-04-17T17:31:29.802865+05:30"},{"city":"Hubli-Dharwad","state":"Karnataka","latitude":15.3647,"longitude":75.124,"temp":36.5,"humidity":23,"rain":0.0,"pressure":938.8,"uv_index":9.15,"wind_gusts":33.1,"aqi":141,"pm10":29.7,"pm2_5":24.3,"mosquito_risk":0,"arthritis_risk":5,"migraine_risk":10,"frizz_risk":0,"updated_at":"2026-04-17T17:31:29.802871+05:30"},{"city":"Belgaum","state":"Karnataka","latitude":15.8497,"longitude":74.4977,"temp":30.2,"humidity":61,"rain":0.0,"pressure":924.6,"uv_index":8.95,"wind_gusts":39.2,"aqi":139,"pm10":26.6,"pm2_5":20.5,"mosquito_risk":3,"arthritis_risk":5,"migraine_risk":7,"frizz_risk":1,"updated_at":"2026-04-17T17:31:38.629427+05:30"},{"city":"Coimbatore","state":"Tamil Nadu","latitude":11.0168,"longitude":76.9558,"temp":36.0,"humidity":25,"rain":0.0,"pressure":959.1,"uv_index":9.05,"wind_gusts":38.2,"aqi":147,"pm10":25.7,"pm2_5":21.4,"mosquito_risk":0,"arthritis_risk":5,"migraine_risk":10,"frizz_risk":0,"updated_at":"2026-04-17T17:31:38.629462+05:30"},{"city":"Madurai","state":"Tamil Nadu","latitude":9.9252,"longitude":78.1198,"temp":36.7,"humidity":35,"rain":0.0,"pressure":989.9,"uv_index":9.35,"wind_gusts":28.8,"aqi":111,"pm10":22.6,"pm2_5":17.8,"mosquito_risk":0,"arthritis_risk":5,"migraine_risk":10,"frizz_risk":1,"updated_at":"2026-04-17T17:31:38.629473+05:30"},{"city":"Trichy","state":"Tamil Nadu","latitude":10.7905,"longitude":78.7047,"temp":35.6,"humidity":44,"rain":0.0,"pressure":996.8,"uv_index":9.25,"wind_gusts":20.2,"aqi":90,"pm10":24.0,"pm2_5":20.0,"mosquito_risk":0,"arthritis_risk":5,"migraine_risk":10,"frizz_risk":1,"updated_at":"2026-04-17T17:31:38.629482+05:30"},{"city":"Salem","state":"Tamil Nadu","latitude":11.6643,"longitude":78.146,"temp":36.6,"humidity":31,"rain":0.0,"pressure":974.6,"uv_index":9.05,"wind_gusts":24.1,"aqi":117,"pm10":22.1,"pm2_5":17.1,"mosquito_risk":0,"arthritis_risk":5,"migraine_risk":10,"frizz_risk":1,"updated_at":"2026-04-17T17:31:38.629490+05:30"},{"city":"Tirunelveli","state":"Tamil Nadu","latitude":8.7139,"longitude":77.7567,"temp":34.2,"humidity":50,"rain":0.0,"pressure":1000.2,"uv_index":8.8,"wind_gusts":43.2,"aqi":115,"pm10":27.5,"pm2_5":22.8,"mosquito_risk":0,"arthritis_risk":5,"migraine_risk":4,"frizz_risk":1,"updated_at":"2026-04-17T17:31:38.629498+05:30"},{"city":"Vellore","state":"Tamil Nadu","latitude":12.9165,"longitude":79.1325,"temp":34.3,"humidity":44,"rain":0.0,"pressure":982.4,"uv_index":8.8,"wind_gusts":27.7,"aqi":123,"pm10":31.0,"pm2_5":27.6,"mosquito_risk":0,"arthritis_risk":5,"migraine_risk":7,"frizz_risk":1,"updated_at":"2026-04-17T17:31:38.629506+05:30"},{"city":"Erode","state":"Tamil Nadu","latitude":11.341,"longitude":77.7172,"temp":37.9,"humidity":33,"rain":0.0,"pressure":985.7,"uv_index":9.3,"wind_gusts":28.8,"aqi":130,"pm10":20.3,"pm2_5":16.2,"mosquito_risk":0,"arthritis_risk":5,"migraine_risk":10,"frizz_risk":1,"updated_at":"2026-04-17T17:31:38.629514+05:30"},{"city":"Kochi","state":"Kerala","latitude":9.9312,"longitude":76.2673,"temp":30.2,"humidity":81,"rain":0.0,"pressure":1005.9,"uv_index":8.9,"wind_gusts":29.9,"aqi":99,"pm10":41.2,"pm2_5":31.0,"mosquito_risk":3,"arthritis_risk":5,"migraine_risk":4,"frizz_risk":1,"updated_at":"2026-04-17T17:31:38.629521+05:30"},{"city":"Thiruvananthapuram","state":"Kerala","latitude":8.5241,"longitude":76.9366,"temp":29.8,"humidity":83,"rain":0.0,"pressure":1005.1,"uv_index":8.85,"wind_gusts":28.4,"aqi":95,"pm10":29.3,"pm2_5":20.3,"mosquito_risk":7,"arthritis_risk":5,"migraine_risk":4,"frizz_risk":1,"updated_at":"2026-04-17T17:31:38.629529+05:30"},{"city":"Kozhikode","state":"Kerala","latitude":11.2588,"longitude":75.7804,"temp":31.3,"humidity":75,"rain":0.0,"pressure":1004.6,"uv_index":8.85,"wind_gusts":32.8,"aqi":103,"pm10":49.4,"pm2_5":25.4,"mosquito_risk":3,"arthritis_risk":5,"migraine_risk":4,"frizz_risk":1,"updated_at":"2026-04-17T17:31:38.629536+05:30"},{"city":"Thrissur","state":"Kerala","latitude":10.5276,"longitude":76.2144,"temp":32.0,"humidity":70,"rain":0.0,"pressure":1004.1,"uv_index":8.6,"wind_gusts":41.8,"aqi":99,"pm10":40.3,"pm2_5":29.7,"mosquito_risk":3,"arthritis_risk":5,"migraine_risk":4,"frizz_risk":1,"updated_at":"2026-04-17T17:31:38.629543+05:30"},{"city":"Kannur","state":"Kerala","latitude":11.8745,"longitude":75.3704,"temp":31.4,"humidity":72,"rain":0.0,"pressure":1004.5,"uv_index":8.2,"wind_gusts":30.6,"aqi":107,"pm10":44.1,"pm2_5":26.2,"mosquito_risk":3,"arthritis_risk":5,"migraine_risk":4,"frizz_risk":1,"updated_at":"2026-04-17T17:31:38.629549+05:30"},{"city":"Patna","state":"Bihar","latitude":25.5941,"longitude":85.1376,"temp":34.7,"humidity":43,"rain":0.0,"pressure":998.4,"uv_index":8.25,"wind_gusts":25.2,"aqi":182,"pm10":72.9,"pm2_5":48.5,"mosquito_risk":0,"arthritis_risk":5,"migraine_risk":7,"frizz_risk":1,"updated_at":"2026-04-17T17:31:38.629556+05:30"},{"city":"Gaya","state":"Bihar","latitude":24.7914,"longitude":85.0002,"temp":36.8,"humidity":33,"rain":0.0,"pressure":991.1,"uv_index":8.45,"wind_gusts":15.5,"aqi":176,"pm10":59.8,"pm2_5":35.5,"mosquito_risk":0,"arthritis_risk":5,"migraine_risk":10,"frizz_risk":1,"updated_at":"2026-04-17T17:31:38.629562+05:30"},{"city":"Muzaffarpur","state":"Bihar","latitude":26.1209,"longitude":85.3647,"temp":33.0,"humidity":53,"rain":0.0,"pressure":998.8,"uv_index":8.45,"wind_gusts":24.8,"aqi":176,"pm10":75.0,"pm2_5":51.9,"mosquito_risk":0,"arthritis_risk":5,"migraine_risk":7,"frizz_risk":1,"updated_at":"2026-04-17T17:31:38.629568+05:30"},{"city":"Bhagalpur","state":"Bihar","latitude":25.2425,"longitude":87.0117,"temp":31.3,"humidity":67,"rain":0.0,"pressure":999.6,"uv_index":8.55,"wind_gusts":21.6,"aqi":162,"pm10":80.1,"pm2_5":58.4,"mosquito_risk":3,"arthritis_risk":5,"migraine_risk":7,"frizz_risk":1,"updated_at":"2026-04-17T17:31:38.629575+05:30"},{"city":"Ranchi","state":"Jharkhand","latitude":23.3441,"longitude":85.3096,"temp":34.8,"humidity":18,"rain":0.0,"pressure":937.1,"uv_index":9.15,"wind_gusts":38.5,"aqi":162,"pm10":50.3,"pm2_5":15.5,"mosquito_risk":0,"arthritis_risk":5,"migraine_risk":7,"frizz_risk":0,"updated_at":"2026-04-17T17:31:38.629581+05:30"},{"city":"Jamshedpur","state":"Jharkhand","latitude":22.8046,"longitude":86.2029,"temp":34.3,"humidity":49,"rain":0.0,"pressure":988.6,"uv_index":9.0,"wind_gusts":26.6,"aqi":116,"pm10":61.9,"pm2_5":39.0,"mosquito_risk":0,"arthritis_risk":5,"migraine_risk":7,"frizz_risk":1,"updated_at":"2026-04-17T17:31:38.629587+05:30"},{"city":"Dhanbad","state":"Jharkhand","latitude":23.7957,"longitude":86.4304,"temp":34.2,"humidity":44,"rain":0.0,"pressure":977.7,"uv_index":8.9,"wind_gusts":27.7,"aqi":151,"pm10":93.6,"pm2_5":61.0,"mosquito_risk":0,"arthritis_risk":5,"migraine_risk":7,"frizz_risk":1,"updated_at":"2026-04-17T17:31:38.629593+05:30"},{"city":"Bokaro","state":"Jharkhand","latitude":23.6693,"longitude":86.1511,"temp":34.2,"humidity":45,"rain":0.0,"pressure":981.9,"uv_index":8.9,"wind_gusts":24.1,"aqi":156,"pm10":92.7,"pm2_5":49.9,"mosquito_risk":0,"arthritis_risk":5,"migraine_risk":7,"frizz_risk":1,"updated_at":"2026-04-17T17:31:38.629599+05:30"},{"city":"Bhubaneswar","state":"Odisha","latitude":20.2961,"longitude":85.8245,"temp":30.3,"humidity":76,"rain":0.0,"pressure":1001.2,"uv_index":9.1,"wind_gusts":26.6,"aqi":83,"pm10":18.5,"pm2_5":15.5,"mosquito_risk":3,"arthritis_risk":5,"migraine_risk":4,"frizz_risk":1,"updated_at":"2026-04-17T17:31:38.629605+05:30"},{"city":"Cuttack","state":"Odisha","latitude":20.4625,"longitude":85.8828,"temp":32.9,"humidity":67,"rain":0.0,"pressure":1002.7,"uv_index":9.15,"wind_gusts":25.2,"aqi":83,"pm10":18.5,"pm2_5":15.5,"mosquito_risk":3,"arthritis_risk":5,"migraine_risk":4,"frizz_risk":1,"updated_at":"2026-04-17T17:31:38.629612+05:30"},{"city":"Rourkela","state":"Odisha","latitude":22.2604,"longitude":84.8536,"temp":34.6,"humidity":52,"rain":0.0,"pressure":982.2,"uv_index":8.9,"wind_gusts":43.2,"aqi":189,"pm10":73.8,"pm2_5":35.2,"mosquito_risk":0,"arthritis_risk":5,"migraine_risk":7,"frizz_risk":1,"updated_at":"2026-04-17T17:31:38.629618+05:30"},{"city":"Raipur","state":"Chhattisgarh","latitude":21.2514,"longitude":81.6296,"temp":37.8,"humidity":29,"rain":0.0,"pressure":971.7,"uv_index":8.95,"wind_gusts":39.6,"aqi":216,"pm10":49.8,"pm2_5":29.0,"mosquito_risk":0,"arthritis_risk":5,"migraine_risk":10,"frizz_risk":1,"updated_at":"2026-04-17T17:31:38.629624+05:30"},{"city":"Bhilai","state":"Chhattisgarh","latitude":21.1938,"longitude":81.3509,"temp":37.1,"humidity":33,"rain":0.0,"pressure":972.1,"uv_index":8.95,"wind_gusts":42.5,"aqi":193,"pm10":42.5,"pm2_5":23.1,"mosquito_risk":0,"arthritis_risk":5,"migraine_risk":10,"frizz_risk":1,"updated_at":"2026-04-17T17:31:38.629631+05:30"},{"city":"Guwahati","state":"Assam","latitude":26.1158,"longitude":91.7086,"temp":30.3,"humidity":64,"rain":0.0,"pressure":1000.3,"uv_index":8.55,"wind_gusts":22.3,"aqi":152,"pm10":66.6,"pm2_5":50.8,"mosquito_risk":3,"arthritis_risk":5,"migraine_risk":4,"frizz_risk":1,"updated_at":"2026-04-17T17:31:38.629637+05:30"},{"city":"Agartala","state":"Tripura","latitude":23.8315,"longitude":91.2868,"temp":30.6,"humidity":72,"rain":0.0,"pressure":1004.6,"uv_index":8.75,"wind_gusts":19.4,"aqi":132,"pm10":37.3,"pm2_5":31.8,"mosquito_risk":3,"arthritis_risk":5,"migraine_risk":4,"frizz_risk":1,"updated_at":"2026-04-17T17:31:38.629643+05:30"},{"city":"Shillong","state":"Meghalaya","latitude":25.5788,"longitude":91.8933,"temp":18.7,"humidity":69,"rain":0.0,"pressure":857.2,"uv_index":6.65,"wind_gusts":28.1,"aqi":125,"pm10":63.6,"pm2_5":48.7,"mosquito_risk":3,"arthritis_risk":5,"migraine_risk":7,"frizz_risk":0,"updated_at":"2026-04-17T17:31:38.629649+05:30"},{"city":"Imphal","state":"Manipur","latitude":24.817,"longitude":93.9368,"temp":22.8,"humidity":73,"rain":0.0,"pressure":923.2,"uv_index":9.1,"wind_gusts":40.3,"aqi":149,"pm10":78.2,"pm2_5":60.1,"mosquito_risk":3,"arthritis_risk":5,"migraine_risk":7,"frizz_risk":1,"updated_at":"2026-04-17T17:31:38.629655+05:30"},{"city":"Aizawl","state":"Mizoram","latitude":23.7271,"longitude":92.7176,"temp":25.0,"humidity":63,"rain":0.0,"pressure":893.1,"uv_index":9.0,"wind_gusts":36.0,"aqi":156,"pm10":73.8,"pm2_5":61.2,"mosquito_risk":7,"arthritis_risk":5,"migraine_risk":7,"frizz_risk":1,"updated_at":"2026-04-17T17:31:38.629661+05:30"},{"city":"Kohima","state":"Nagaland","latitude":25.6701,"longitude":94.1077,"temp":18.4,"humidity":87,"rain":0.0,"pressure":855.7,"uv_index":8.4,"wind_gusts":52.2,"aqi":129,"pm10":68.5,"pm2_5":43.7,"mosquito_risk":3,"arthritis_risk":10,"migraine_risk":7,"frizz_risk":1,"updated_at":"2026-04-17T17:31:38.629667+05:30"},{"city":"Gangtok","state":"Sikkim","latitude":27.3314,"longitude":88.6138,"temp":18.1,"humidity":85,"rain":0.0,"pressure":838.8,"uv_index":8.85,"wind_gusts":19.8,"aqi":129,"pm10":75.4,"pm2_5":48.9,"mosquito_risk":3,"arthritis_risk":10,"migraine_risk":7,"frizz_risk":0,"updated_at":"2026-04-17T17:31:38.629674+05:30"},{"city":"Siliguri","state":"West Bengal","latitude":26.7271,"longitude":88.3953,"temp":25.6,"humidity":71,"rain":0.0,"pressure":993.6,"uv_index":8.5,"wind_gusts":18.4,"aqi":161,"pm10":95.7,"pm2_5":59.4,"mosquito_risk":7,"arthritis_risk":5,"migraine_risk":7,"frizz_risk":1,"updated_at":"2026-04-17T17:31:45.692426+05:30"},{"city":"Durgapur","state":"West Bengal","latitude":23.5204,"longitude":87.3119,"temp":33.3,"humidity":53,"rain":0.0,"pressure":993.2,"uv_index":8.85,"wind_gusts":19.8,"aqi":122,"pm10":69.8,"pm2_5":52.7,"mosquito_risk":0,"arthritis_risk":5,"migraine_risk":7,"frizz_risk":1,"updated_at":"2026-04-17T17:31:45.692460+05:30"},{"city":"Asansol","state":"West Bengal","latitude":23.6739,"longitude":86.9524,"temp":33.0,"humidity":54,"rain":0.0,"pressure":991.7,"uv_index":8.9,"wind_gusts":21.2,"aqi":128,"pm10":77.8,"pm2_5":54.9,"mosquito_risk":0,"arthritis_risk":5,"migraine_risk":7,"frizz_risk":1,"updated_at":"2026-04-17T17:31:45.692471+05:30"},{"city":"Pondicherry","state":"Puducherry","latitude":11.9139,"longitude":79.8145,"temp":32.8,"humidity":60,"rain":0.0,"pressure":1006.1,"uv_index":8.6,"wind_gusts":27.4,"aqi":32,"pm10":11.1,"pm2_5":7.6,"mosquito_risk":0,"arthritis_risk":5,"migraine_risk":4,"frizz_risk":1,"updated_at":"2026-04-17T17:31:45.692479+05:30"},{"city":"Port Blair","state":"Andaman and Nicobar Islands","latitude":11.6234,"longitude":92.7265,"temp":29.4,"humidity":70,"rain":0.0,"pressure":1006.7,"uv_index":9.2,"wind_gusts":20.9,"aqi":47,"pm10":12.0,"pm2_5":8.4,"mosquito_risk":7,"arthritis_risk":5,"migraine_risk":4,"frizz_risk":1,"updated_at":"2026-04-17T17:31:45.692487+05:30"},{"city":"Haridwar","state":"Uttarakhand","latitude":29.9457,"longitude":78.1642,"temp":33.6,"humidity":38,"rain":0.0,"pressure":973.8,"uv_index":5.95,"wind_gusts":24.8,"aqi":104,"pm10":53.9,"pm2_5":15.8,"mosquito_risk":0,"arthritis_risk":5,"migraine_risk":3,"frizz_risk":1,"updated_at":"2026-04-17T17:31:45.692495+05:30"},{"city":"Rishikesh","state":"Uttarakhand","latitude":30.0869,"longitude":78.2676,"temp":32.6,"humidity":41,"rain":0.0,"pressure":966.8,"uv_index":6.05,"wind_gusts":24.8,"aqi":102,"pm10":39.7,"pm2_5":10.9,"mosquito_risk":0,"arthritis_risk":5,"migraine_risk":7,"frizz_risk":1,"updated_at":"2026-04-17T17:31:45.692501+05:30"},{"city":"Nainital","state":"Uttarakhand","latitude":29.3919,"longitude":79.4542,"temp":25.8,"humidity":36,"rain":0.0,"pressure":809.7,"uv_index":7.65,"wind_gusts":56.2,"aqi":142,"pm10":35.6,"pm2_5":14.0,"mosquito_risk":4,"arthritis_risk":5,"migraine_risk":7,"frizz_risk":0,"updated_at":"2026-04-17T17:31:45.692509+05:30"},{"city":"Mussoorie","state":"Uttarakhand","latitude":30.4599,"longitude":78.0664,"temp":24.0,"humidity":36,"rain":0.0,"pressure":806.5,"uv_index":6.65,"wind_gusts":43.6,"aqi":106,"pm10":69.8,"pm2_5":17.3,"mosquito_risk":0,"arthritis_risk":5,"migraine_risk":7,"frizz_risk":0,"updated_at":"2026-04-17T17:31:45.692516+05:30"},{"city":"Dharamshala","state":"Himachal Pradesh","latitude":32.219,"longitude":76.3234,"temp":22.0,"humidity":50,"rain":0.0,"pressure":872.2,"uv_index":6.9,"wind_gusts":36.7,"aqi":71,"pm10":25.8,"pm2_5":9.3,"mosquito_risk":0,"arthritis_risk":5,"migraine_risk":7,"frizz_risk":0,"updated_at":"2026-04-17T17:31:45.692524+05:30"},{"city":"Dalhousie","state":"Himachal Pradesh","latitude":32.5387,"longitude":75.971,"temp":21.0,"humidity":40,"rain":0.0,"pressure":807.6,"uv_index":5.15,"wind_gusts":34.2,"aqi":81,"pm10":29.6,"pm2_5":10.7,"mosquito_risk":0,"arthritis_risk":5,"migraine_risk":3,"frizz_risk":0,"updated_at":"2026-04-17T17:31:45.692531+05:30"},{"city":"Patiala","state":"Punjab","latitude":30.3398,"longitude":76.3869,"temp":33.1,"humidity":27,"rain":0.0,"pressure":978.5,"uv_index":7.2,"wind_gusts":34.9,"aqi":137,"pm10":374.4,"pm2_5":44.5,"mosquito_risk":0,"arthritis_risk":5,"migraine_risk":7,"frizz_risk":0,"updated_at":"2026-04-17T17:31:45.692538+05:30"},{"city":"Bhatinda","state":"Punjab","latitude":30.211,"longitude":74.9455,"temp":36.5,"humidity":19,"rain":0.0,"pressure":983.1,"uv_index":7.8,"wind_gusts":43.6,"aqi":133,"pm10":307.3,"pm2_5":42.7,"mosquito_risk":0,"arthritis_risk":5,"migraine_risk":10,"frizz_risk":0,"updated_at":"2026-04-17T17:31:45.692546+05:30"},{"city":"Rohtak","state":"Haryana","latitude":28.8955,"longitude":76.6066,"temp":32.0,"humidity":47,"rain":0.0,"pressure":980.9,"uv_index":6.55,"wind_gusts":25.6,"aqi":190,"pm10":248.7,"pm2_5":45.9,"mosquito_risk":0,"arthritis_risk":5,"migraine_risk":7,"frizz_risk":1,"updated_at":"2026-04-17T17:31:45.692552+05:30"},{"city":"Panipat","state":"Haryana","latitude":29.3909,"longitude":76.9635,"temp":34.5,"humidity":29,"rain":0.0,"pressure":979.8,"uv_index":6.8,"wind_gusts":19.8,"aqi":461,"pm10":358.6,"pm2_5":65.7,"mosquito_risk":0,"arthritis_risk":5,"migraine_risk":7,"frizz_risk":0,"updated_at":"2026-04-17T17:31:45.692559+05:30"},{"city":"Mathura","state":"Uttar Pradesh","latitude":27.4924,"longitude":77.6737,"temp":37.0,"humidity":21,"rain":0.0,"pressure":985.1,"uv_index":6.75,"wind_gusts":23.8,"aqi":179,"pm10":136.0,"pm2_5":31.5,"mosquito_risk":0,"arthritis_risk":5,"migraine_risk":10,"frizz_risk":0,"updated_at":"2026-04-17T17:31:45.692566+05:30"},{"city":"Vrindavan","state":"Uttar Pradesh","latitude":27.5823,"longitude":77.7027,"temp":36.6,"humidity":23,"rain":0.0,"pressure":985.6,"uv_index":6.6,"wind_gusts":29.5,"aqi":179,"pm10":136.0,"pm2_5":31.5,"mosquito_risk":0,"arthritis_risk":5,"migraine_risk":10,"frizz_risk":0,"updated_at":"2026-04-17T17:31:45.692572+05:30"},{"city":"Ayodhya","state":"Uttar Pradesh","latitude":26.7922,"longitude":82.1998,"temp":36.7,"humidity":32,"rain":0.0,"pressure":993.0,"uv_index":7.05,"wind_gusts":27.4,"aqi":175,"pm10":47.4,"pm2_5":28.5,"mosquito_risk":0,"arthritis_risk":5,"migraine_risk":10,"frizz_risk":1,"updated_at":"2026-04-17T17:31:45.692577+05:30"},{"city":"Ratlam","state":"Madhya Pradesh","latitude":23.3315,"longitude":75.0367,"temp":33.2,"humidity":35,"rain":0.0,"pressure":953.7,"uv_index":7.5,"wind_gusts":28.1,"aqi":111,"pm10":17.6,"pm2_5":9.7,"mosquito_risk":0,"arthritis_risk":5,"migraine_risk":7,"frizz_risk":0,"updated_at":"2026-04-17T17:31:45.692584+05:30"},{"city":"Sagar","state":"Madhya Pradesh","latitude":23.8388,"longitude":78.7378,"temp":38.0,"humidity":21,"rain":0.0,"pressure":948.5,"uv_index":7.75,"wind_gusts":22.7,"aqi":137,"pm10":38.9,"pm2_5":14.4,"mosquito_risk":0,"arthritis_risk":5,"migraine_risk":10,"frizz_risk":0,"updated_at":"2026-04-17T17:31:45.692589+05:30"},{"city":"Satna","state":"Madhya Pradesh","latitude":24.6005,"longitude":80.8322,"temp":40.3,"humidity":13,"rain":0.0,"pressure":969.0,"uv_index":8.6,"wind_gusts":16.9,"aqi":158,"pm10":81.5,"pm2_5":19.0,"mosquito_risk":0,"arthritis_risk":5,"migraine_risk":10,"frizz_risk":0,"updated_at":"2026-04-17T17:31:45.692595+05:30"},{"city":"Akola","state":"Maharashtra","latitude":20.7002,"longitude":77.0082,"temp":40.4,"humidity":13,"rain":0.0,"pressure":972.1,"uv_index":8.05,"wind_gusts":26.3,"aqi":139,"pm10":13.7,"pm2_5":11.2,"mosquito_risk":0,"arthritis_risk":5,"migraine_risk":10,"frizz_risk":0,"updated_at":"2026-04-17T17:31:45.692602+05:30"},{"city":"Amravati","state":"Maharashtra","latitude":20.9374,"longitude":77.7796,"temp":39.6,"humidity":19,"rain":0.0,"pressure":964.2,"uv_index":8.15,"wind_gusts":17.3,"aqi":142,"pm10":15.2,"pm2_5":11.2,"mosquito_risk":0,"arthritis_risk":5,"migraine_risk":10,"frizz_risk":0,"updated_at":"2026-04-17T17:31:45.692608+05:30"},{"city":"Latur","state":"Maharashtra","latitude":18.4088,"longitude":76.5604,"temp":37.0,"humidity":20,"rain":0.0,"pressure":937.9,"uv_index":8.6,"wind_gusts":31.7,"aqi":154,"pm10":31.4,"pm2_5":25.9,"mosquito_risk":0,"arthritis_risk":5,"migraine_risk":10,"frizz_risk":0,"updated_at":"2026-04-17T17:31:45.692615+05:30"},{"city":"Nanded","state":"Maharashtra","latitude":19.1383,"longitude":77.3091,"temp":39.7,"humidity":21,"rain":0.0,"pressure":965.5,"uv_index":8.65,"wind_gusts":18.4,"aqi":143,"pm10":22.3,"pm2_5":17.4,"mosquito_risk":0,"arthritis_risk":5,"migraine_risk":10,"frizz_risk":0,"updated_at":"2026-04-17T17:31:45.692620+05:30"},{"city":"Gulbarga","state":"Karnataka","latitude":17.3297,"longitude":76.8343,"temp":39.4,"humidity":19,"rain":0.0,"pressure":955.9,"uv_index":8.65,"wind_gusts":37.4,"aqi":169,"pm10":32.6,"pm2_5":28.2,"mosquito_risk":0,"arthritis_risk":5,"migraine_risk":10,"frizz_risk":0,"updated_at":"2026-04-17T17:31:45.692626+05:30"},{"city":"Bidar","state":"Karnataka","latitude":17.9104,"longitude":77.5199,"temp":32.1,"humidity":42,"rain":0.0,"pressure":934.4,"uv_index":8.85,"wind_gusts":49.0,"aqi":165,"pm10":35.5,"pm2_5":29.8,"mosquito_risk":0,"arthritis_risk":5,"migraine_risk":7,"frizz_risk":1,"updated_at":"2026-04-17T17:31:45.692631+05:30"},{"city":"Hospet","state":"Karnataka","latitude":15.2689,"longitude":76.3909,"temp":36.5,"humidity":28,"rain":0.0,"pressure":953.4,"uv_index":9.25,"wind_gusts":22.7,"aqi":163,"pm10":32.9,"pm2_5":28.3,"mosquito_risk":0,"arthritis_risk":5,"migraine_risk":10,"frizz_risk":0,"updated_at":"2026-04-17T17:31:45.692637+05:30"},{"city":"Tirupur","state":"Tamil Nadu","latitude":11.1085,"longitude":77.3411,"temp":37.5,"humidity":28,"rain":0.0,"pressure":972.3,"uv_index":8.95,"wind_gusts":32.8,"aqi":147,"pm10":22.8,"pm2_5":18.2,"mosquito_risk":0,"arthritis_risk":5,"migraine_risk":10,"frizz_risk":0,"updated_at":"2026-04-17T17:31:45.692643+05:30"},{"city":"Alappuzha","state":"Kerala","latitude":9.4981,"longitude":76.3388,"temp":30.3,"humidity":79,"rain":0.0,"pressure":1005.6,"uv_index":8.25,"wind_gusts":28.4,"aqi":104,"pm10":40.2,"pm2_5":28.5,"mosquito_risk":3,"arthritis_risk":5,"migraine_risk":4,"frizz_risk":1,"updated_at":"2026-04-17T17:31:45.692648+05:30"},{"city":"Munnar","state":"Kerala","latitude":10.0889,"longitude":77.0595,"temp":28.0,"humidity":60,"rain":0.0,"pressure":857.1,"uv_index":9.05,"wind_gusts":28.4,"aqi":96,"pm10":26.1,"pm2_5":21.2,"mosquito_risk":4,"arthritis_risk":5,"migraine_risk":7,"frizz_risk":1,"updated_at":"2026-04-17T17:31:45.692655+05:30"},{"city":"Silchar","state":"Assam","latitude":24.8333,"longitude":92.7789,"temp":30.9,"humidity":62,"rain":0.0,"pressure":1003.4,"uv_index":8.75,"wind_gusts":19.4,"aqi":156,"pm10":102.2,"pm2_5":73.1,"mosquito_risk":3,"arthritis_risk":5,"migraine_risk":4,"frizz_risk":1,"updated_at":"2026-04-17T17:31:45.692660+05:30"},{"city":"Dibrugarh","state":"Assam","latitude":27.4728,"longitude":94.912,"temp":29.3,"humidity":62,"rain":0.0,"pressure":994.9,"uv_index":8.65,"wind_gusts":11.5,"aqi":149,"pm10":74.3,"pm2_5":49.1,"mosquito_risk":7,"arthritis_risk":5,"migraine_risk":7,"frizz_risk":1,"updated_at":"2026-04-17T17:31:45.692667+05:30"}]