[{"city":"Delhi","state":"Delhi","latitude":28.6139,"longitude":77.209,"temp":23.0,"humidity":79,"rain":0.0,"pressure":983.3,"uv_index":7.55,"wind_gusts":30.2,"aqi":156,"pm10":75.0,"pm2_5":26.7,"no2":13.9,"co":520.0,"o3":99.0,"so2":12.3,"mosquito_risk":3,"arthritis_risk":5,"migraine_risk":7,"frizz_risk":1,"updated_at":"2026-05-05T01:47:57.381285+05:30"},{"city":"Mumbai","state":"Maharashtra","latitude":19.076,"longitude":72.8777,"temp":28.9,"humidity":76,"rain":0.0,"pressure":1007.2,"uv_index":7.85,"wind_gusts":40.0,"aqi":60,"pm10":42.0,"pm2_5":16.4,"no2":7.8,"co":189.0,"o3":65.0,"so2":16.2,"mosquito_risk":7,"arthritis_risk":5,"migraine_risk":4,"frizz_risk":1,"updated_at":"2026-05-05T01:47:57.381350+05:30"},{"city":"Bangalore","state":"Karnataka","latitude":12.9716,"longitude":77.5946,"temp":23.5,"humidity":68,"rain":0.0,"pressure":910.5,"uv_index":8.2,"wind_gusts":37.4,"aqi":83,"pm10":43.0,"pm2_5":22.7,"no2":13.0,"co":280.0,"o3":83.0,"so2":6.7,"mosquito_risk":3,"arthritis_risk":5,"migraine_risk":7,"frizz_risk":1,"updated_at":"2026-05-05T01:47:57.381369+05:30"},{"city":"Hyderabad","state":"Telangana","latitude":17.385,"longitude":78.4867,"temp":28.2,"humidity":58,"rain":0.0,"pressure":951.6,"uv_index":9.25,"wind_gusts":41.0,"aqi":77,"pm10":38.1,"pm2_5":28.6,"no2":7.6,"co":303.0,"o3":111.0,"so2":7.0,"mosquito_risk":4,"arthritis_risk":5,"migraine_risk":7,"frizz_risk":1,"updated_at":"2026-05-05T01:47:57.381381+05:30"},{"city":"Chennai","state":"Tamil Nadu","latitude":13.0827,"longitude":80.2707,"temp":28.2,"humidity":74,"rain":0.0,"pressure":1005.2,"uv_index":8.5,"wind_gusts":42.5,"aqi":69,"pm10":32.2,"pm2_5":22.4,"no2":5.4,"co":230.0,"o3":105.0,"so2":4.1,"mosquito_risk":7,"arthritis_risk":5,"migraine_risk":4,"frizz_risk":1,"updated_at":"2026-05-05T01:47:57.381390+05:30"},{"city":"Kolkata","state":"West Bengal","latitude":22.5726,"longitude":88.3639,"temp":22.5,"humidity":98,"rain":0.0,"pressure":1009.1,"uv_index":8.85,"wind_gusts":36.0,"aqi":81,"pm10":41.6,"pm2_5":36.8,"no2":24.0,"co":363.0,"o3":26.0,"so2":9.6,"mosquito_risk":3,"arthritis_risk":0,"migraine_risk":4,"frizz_risk":1,"updated_at":"2026-05-05T01:47:57.381404+05:30"},{"city":"Pune","state":"Maharashtra","latitude":18.5204,"longitude":73.8567,"temp":22.8,"humidity":92,"rain":0.0,"pressure":946.8,"uv_index":8.5,"wind_gusts":45.4,"aqi":55,"pm10":21.7,"pm2_5":11.1,"no2":10.7,"co":232.0,"o3":51.0,"so2":10.3,"mosquito_risk":3,"arthritis_risk":5,"migraine_risk":7,"frizz_risk":1,"updated_at":"2026-05-05T01:47:57.381413+05:30"},{"city":"Ahmedabad","state":"Gujarat","latitude":23.0225,"longitude":72.5714,"temp":28.9,"humidity":77,"rain":0.0,"pressure":999.0,"uv_index":8.1,"wind_gusts":28.4,"aqi":65,"pm10":27.3,"pm2_5":16.5,"no2":10.3,"co":178.0,"o3":50.0,"so2":8.5,"mosquito_risk":7,"arthritis_risk":5,"migraine_risk":7,"frizz_risk":1,"updated_at":"2026-05-05T01:47:57.381424+05:30"},{"city":"Jaipur","state":"Rajasthan","latitude":26.9124,"longitude":75.7873,"temp":24.8,"humidity":59,"rain":0.0,"pressure":958.6,"uv_index":8.1,"wind_gusts":53.6,"aqi":194,"pm10":307.3,"pm2_5":63.8,"no2":4.3,"co":287.0,"o3":122.0,"so2":5.7,"mosquito_risk":0,"arthritis_risk":5,"migraine_risk":7,"frizz_risk":1,"updated_at":"2026-05-05T01:47:57.381432+05:30"},{"city":"Lucknow","state":"Uttar Pradesh","latitude":26.8467,"longitude":80.9462,"temp":22.5,"humidity":84,"rain":0.0,"pressure":994.9,"uv_index":6.95,"wind_gusts":26.3,"aqi":89,"pm10":46.0,"pm2_5":36.3,"no2":10.3,"co":422.0,"o3":105.0,"so2":9.5,"mosquito_risk":3,"arthritis_risk":5,"migraine_risk":7,"frizz_risk":1,"updated_at":"2026-05-05T01:47:57.381441+05:30"},{"city":"Kanpur","state":"Uttar Pradesh","latitude":26.4499,"longitude":80.3319,"temp":23.5,"humidity":82,"rain":0.0,"pressure":992.5,"uv_index":7.2,"wind_gusts":32.0,"aqi":195,"pm10":46.8,"pm2_5":36.1,"no2":8.2,"co":447.0,"o3":107.0,"so2":8.8,"mosquito_risk":3,"arthritis_risk":5,"migraine_risk":7,"frizz_risk":1,"updated_at":"2026-05-05T01:47:57.381448+05:30"},{"city":"Chandigarh","state":"Chandigarh","latitude":30.7333,"longitude":76.7794,"temp":20.0,"humidity":58,"rain":0.0,"pressure":968.8,"uv_index":7.6,"wind_gusts":32.8,"aqi":90,"pm10":47.5,"pm2_5":27.9,"no2":21.0,"co":501.0,"o3":54.0,"so2":4.2,"mosquito_risk":0,"arthritis_risk":5,"migraine_risk":7,"frizz_risk":0,"updated_at":"2026-05-05T01:47:57.381456+05:30"},{"city":"Srinagar","state":"Jammu and Kashmir","latitude":34.0837,"longitude":74.7973,"temp":8.7,"humidity":94,"rain":0.0,"pressure":841.5,"uv_index":8.75,"wind_gusts":30.6,"aqi":67,"pm10":39.7,"pm2_5":29.9,"no2":14.5,"co":554.0,"o3":86.0,"so2":3.4,"mosquito_risk":3,"arthritis_risk":10,"migraine_risk":7,"frizz_risk":0,"updated_at":"2026-05-05T01:47:57.381465+05:30"},{"city":"Jammu","state":"Jammu and Kashmir","latitude":32.7266,"longitude":74.857,"temp":19.2,"humidity":68,"rain":0.0,"pressure":973.4,"uv_index":8.3,"wind_gusts":32.0,"aqi":98,"pm10":68.7,"pm2_5":48.1,"no2":36.9,"co":354.0,"o3":21.0,"so2":3.8,"mosquito_risk":3,"arthritis_risk":5,"migraine_risk":7,"frizz_risk":0,"updated_at":"2026-05-05T01:47:57.381472+05:30"},{"city":"Amritsar","state":"Punjab","latitude":31.634,"longitude":74.8723,"temp":22.7,"humidity":56,"rain":0.0,"pressure":981.2,"uv_index":8.2,"wind_gusts":29.5,"aqi":112,"pm10":56.0,"pm2_5":32.8,"no2":5.8,"co":363.0,"o3":102.0,"so2":7.1,"mosquito_risk":0,"arthritis_risk":5,"migraine_risk":7,"frizz_risk":0,"updated_at":"2026-05-05T01:47:57.381480+05:30"},{"city":"Ludhiana","state":"Punjab","latitude":30.901,"longitude":75.8573,"temp":22.0,"humidity":70,"rain":0.0,"pressure":978.9,"uv_index":7.8,"wind_gusts":26.3,"aqi":124,"pm10":49.8,"pm2_5":31.9,"no2":11.6,"co":419.0,"o3":81.0,"so2":6.0,"mosquito_risk":3,"arthritis_risk":5,"migraine_risk":7,"frizz_risk":1,"updated_at":"2026-05-05T01:47:57.381493+05:30"},{"city":"Jalandhar","state":"Punjab","latitude":31.326,"longitude":75.5762,"temp":21.2,"humidity":65,"rain":0.0,"pressure":980.2,"uv_index":7.95,"wind_gusts":24.8,"aqi":125,"pm10":46.9,"pm2_5":36.4,"no2":11.9,"co":382.0,"o3":80.0,"so2":13.3,"mosquito_risk":3,"arthritis_risk":5,"migraine_risk":7,"frizz_risk":0,"updated_at":"2026-05-05T01:47:57.381500+05:30"},{"city":"Dehradun","state":"Uttarakhand","latitude":30.6284,"longitude":78.0322,"temp":8.7,"humidity":91,"rain":0.0,"pressure":827.7,"uv_index":7.95,"wind_gusts":37.4,"aqi":61,"pm10":36.2,"pm2_5":15.1,"no2":27.5,"co":192.0,"o3":51.0,"so2":0.5,"mosquito_risk":3,"arthritis_risk":10,"migraine_risk":7,"frizz_risk":0,"updated_at":"2026-05-05T01:47:57.381510+05:30"},{"city":"Shimla","state":"Himachal Pradesh","latitude":31.1048,"longitude":77.1734,"temp":4.9,"humidity":94,"rain":0.0,"pressure":778.8,"uv_index":8.05,"wind_gusts":30.2,"aqi":69,"pm10":36.3,"pm2_5":15.0,"no2":14.7,"co":258.0,"o3":83.0,"so2":0.6,"mosquito_risk":3,"arthritis_risk":10,"migraine_risk":7,"frizz_risk":0,"updated_at":"2026-05-05T01:47:57.381517+05:30"},{"city":"Manali","state":"Himachal Pradesh","latitude":32.2396,"longitude":77.1887,"temp":7.3,"humidity":82,"rain":0.0,"pressure":815.4,"uv_index":9.2,"wind_gusts":36.7,"aqi":99,"pm10":17.4,"pm2_5":7.4,"no2":7.5,"co":235.0,"o3":134.0,"so2":0.9,"mosquito_risk":3,"arthritis_risk":10,"migraine_risk":7,"frizz_risk":0,"updated_at":"2026-05-05T01:47:57.381524+05:30"},{"city":"Gurgaon","state":"Haryana","latitude":28.4595,"longitude":77.0266,"temp":23.3,"humidity":77,"rain":0.0,"pressure":981.4,"uv_index":7.65,"wind_gusts":36.0,"aqi":1035,"pm10":1203.3,"pm2_5":134.1,"no2":13.8,"co":506.0,"o3":96.0,"so2":11.9,"mosquito_risk":3,"arthritis_risk":5,"migraine_risk":7,"frizz_risk":1,"updated_at":"2026-05-05T01:47:57.381531+05:30"},{"city":"Noida","state":"Uttar Pradesh","latitude":28.5355,"longitude":77.391,"temp":22.5,"humidity":80,"rain":0.0,"pressure":984.6,"uv_index":7.55,"wind_gusts":39.2,"aqi":1035,"pm10":1203.3,"pm2_5":134.1,"no2":13.8,"co":467.0,"o3":96.0,"so2":11.9,"mosquito_risk":3,"arthritis_risk":5,"migraine_risk":7,"frizz_risk":1,"updated_at":"2026-05-05T01:47:57.381537+05:30"},{"city":"Ghaziabad","state":"Uttar Pradesh","latitude":28.6692,"longitude":77.4538,"temp":22.8,"humidity":78,"rain":0.0,"pressure":982.9,"uv_index":7.5,"wind_gusts":30.6,"aqi":110,"pm10":51.1,"pm2_5":21.2,"no2":6.5,"co":423.0,"o3":105.0,"so2":6.9,"mosquito_risk":3,"arthritis_risk":5,"migraine_risk":7,"frizz_risk":1,"updated_at":"2026-05-05T01:47:57.381545+05:30"},{"city":"Faridabad","state":"Haryana","latitude":28.4089,"longitude":77.3178,"temp":22.9,"humidity":80,"rain":0.0,"pressure":984.1,"uv_index":7.6,"wind_gusts":40.3,"aqi":1035,"pm10":1203.3,"pm2_5":134.1,"no2":13.8,"co":491.0,"o3":96.0,"so2":11.9,"mosquito_risk":3,"arthritis_risk":5,"migraine_risk":7,"frizz_risk":1,"updated_at":"2026-05-05T01:47:57.381552+05:30"},{"city":"Meerut","state":"Uttar Pradesh","latitude":28.9845,"longitude":77.7064,"temp":22.4,"humidity":79,"rain":0.0,"pressure":982.1,"uv_index":7.45,"wind_gusts":39.2,"aqi":110,"pm10":51.1,"pm2_5":21.2,"no2":6.5,"co":470.0,"o3":105.0,"so2":6.9,"mosquito_risk":3,"arthritis_risk":5,"migraine_risk":7,"frizz_risk":1,"updated_at":"2026-05-05T01:47:57.381559+05:30"},{"city":"Agra","state":"Uttar Pradesh","latitude":27.1767,"longitude":78.0081,"temp":25.5,"humidity":74,"rain":0.0,"pressure":987.7,"uv_index":7.75,"wind_gusts":59.8,"aqi":928,"pm10":321.3,"pm2_5":75.4,"no2":14.6,"co":427.0,"o3":86.0,"so2":13.0,"mosquito_risk":7,"arthritis_risk":5,"migraine_risk":7,"frizz_risk":1,"updated_at":"2026-05-05T01:47:57.381566+05:30"},{"city":"Varanasi","state":"Uttar Pradesh","latitude":25.3176,"longitude":82.9739,"temp":22.8,"humidity":92,"rain":0.0,"pressure":998.8,"uv_index":8.2,"wind_gusts":29.2,"aqi":145,"pm10":64.0,"pm2_5":57.9,"no2":15.2,"co":444.0,"o3":103.0,"so2":18.6,"mosquito_risk":3,"arthritis_risk":5,"migraine_risk":7,"frizz_risk":1,"updated_at":"2026-05-05T01:47:57.381573+05:30"},{"city":"Prayagraj","state":"Uttar Pradesh","latitude":25.4358,"longitude":81.8463,"temp":23.4,"humidity":81,"rain":0.0,"pressure":996.3,"uv_index":5.25,"wind_gusts":31.7,"aqi":137,"pm10":61.0,"pm2_5":55.4,"no2":12.9,"co":454.0,"o3":109.0,"so2":17.7,"mosquito_risk":3,"arthritis_risk":5,"migraine_risk":3,"frizz_risk":1,"updated_at":"2026-05-05T01:47:57.381583+05:30"},{"city":"Gorakhpur","state":"Uttar Pradesh","latitude":26.7606,"longitude":83.3732,"temp":21.0,"humidity":85,"rain":0.0,"pressure":1000.0,"uv_index":8.05,"wind_gusts":24.5,"aqi":92,"pm10":44.2,"pm2_5":37.4,"no2":11.5,"co":438.0,"o3":97.0,"so2":8.7,"mosquito_risk":3,"arthritis_risk":5,"migraine_risk":4,"frizz_risk":1,"updated_at":"2026-05-05T01:47:57.381590+05:30"},{"city":"Bareilly","state":"Uttar Pradesh","latitude":28.367,"longitude":79.4304,"temp":22.0,"humidity":87,"rain":0.0,"pressure":988.0,"uv_index":7.25,"wind_gusts":27.7,"aqi":84,"pm10":36.6,"pm2_5":24.6,"no2":13.1,"co":461.0,"o3":79.0,"so2":5.7,"mosquito_risk":3,"arthritis_risk":5,"migraine_risk":7,"frizz_risk":1,"updated_at":"2026-05-05T01:47:57.381597+05:30"},{"city":"Aligarh","state":"Uttar Pradesh","latitude":27.8974,"longitude":78.088,"temp":24.1,"humidity":74,"rain":0.0,"pressure":985.6,"uv_index":7.7,"wind_gusts":43.2,"aqi":455,"pm10":229.6,"pm2_5":46.9,"no2":8.3,"co":441.0,"o3":97.0,"so2":10.4,"mosquito_risk":3,"arthritis_risk":5,"migraine_risk":7,"frizz_risk":1,"updated_at":"2026-05-05T01:47:57.381604+05:30"},{"city":"Moradabad","state":"Uttar Pradesh","latitude":28.8386,"longitude":78.7733,"temp":21.7,"humidity":86,"rain":0.0,"pressure":984.6,"uv_index":7.65,"wind_gusts":29.9,"aqi":92,"pm10":65.7,"pm2_5":31.3,"no2":13.2,"co":717.0,"o3":89.0,"so2":10.9,"mosquito_risk":3,"arthritis_risk":5,"migraine_risk":7,"frizz_risk":1,"updated_at":"2026-05-05T01:47:57.381611+05:30"},{"city":"Saharanpur","state":"Uttar Pradesh","latitude":29.9637,"longitude":77.546,"temp":20.6,"humidity":64,"rain":0.0,"pressure":976.3,"uv_index":7.2,"wind_gusts":30.2,"aqi":105,"pm10":58.6,"pm2_5":37.0,"no2":18.3,"co":383.0,"o3":62.0,"so2":7.3,"mosquito_risk":3,"arthritis_risk":5,"migraine_risk":7,"frizz_risk":0,"updated_at":"2026-05-05T01:47:57.381618+05:30"},{"city":"Jhansi","state":"Uttar Pradesh","latitude":25.4484,"longitude":78.5685,"temp":24.5,"humidity":80,"rain":0.0,"pressure":977.7,"uv_index":8.35,"wind_gusts":39.2,"aqi":114,"pm10":85.4,"pm2_5":36.4,"no2":3.1,"co":338.0,"o3":130.0,"so2":9.5,"mosquito_risk":3,"arthritis_risk":5,"migraine_risk":7,"frizz_risk":1,"updated_at":"2026-05-05T01:48:00.778226+05:30"},{"city":"Surat","state":"Gujarat","latitude":21.1702,"longitude":72.8311,"temp":29.0,"humidity":76,"rain":0.0,"pressure":1004.5,"uv_index":7.7,"wind_gusts":41.8,"aqi":62,"pm10":43.9,"pm2_5":18.7,"no2":13.2,"co":220.0,"o3":59.0,"so2":22.8,"mosquito_risk":7,"arthritis_risk":5,"migraine_risk":4,"frizz_risk":1,"updated_at":"2026-05-05T01:48:00.778257+05:30"},{"city":"Vadodara","state":"Gujarat","latitude":22.3072,"longitude":73.1812,"temp":28.4,"humidity":80,"rain":0.0,"pressure":1001.9,"uv_index":8.05,"wind_gusts":37.4,"aqi":59,"pm10":32.4,"pm2_5":15.8,"no2":12.0,"co":219.0,"o3":52.0,"so2":17.5,"mosquito_risk":7,"arthritis_risk":5,"migraine_risk":4,"frizz_risk":1,"updated_at":"2026-05-05T01:48:00.778267+05:30"},{"city":"Rajkot","state":"Gujarat","latitude":22.3039,"longitude":70.8022,"temp":25.8,"humidity":90,"rain":0.0,"pressure":990.9,"uv_index":7.7,"wind_gusts":47.9,"aqi":54,"pm10":38.2,"pm2_5":14.9,"no2":2.7,"co":152.0,"o3":65.0,"so2":2.4,"mosquito_risk":7,"arthritis_risk":5,"migraine_risk":7,"frizz_risk":1,"updated_at":"2026-05-05T01:48:00.778275+05:30"},{"city":"Thane","state":"Maharashtra","latitude":19.2183,"longitude":72.9781,"temp":28.8,"humidity":76,"rain":0.0,"pressure":1006.6,"uv_index":7.85,"wind_gusts":38.5,"aqi":60,"pm10":42.0,"pm2_5":16.4,"no2":7.8,"co":214.0,"o3":65.0,"so2":16.2,"mosquito_risk":7,"arthritis_risk":5,"migraine_risk":4,"frizz_risk":1,"updated_at":"2026-05-05T01:48:00.778283+05:30"},{"city":"Nagpur","state":"Maharashtra","latitude":21.1458,"longitude":79.0882,"temp":30.5,"humidity":22,"rain":0.0,"pressure":970.1,"uv_index":8.9,"wind_gusts":52.9,"aqi":69,"pm10":75.4,"pm2_5":48.5,"no2":40.0,"co":302.0,"o3":35.0,"so2":19.1,"mosquito_risk":0,"arthritis_risk":5,"migraine_risk":7,"frizz_risk":0,"updated_at":"2026-05-05T01:48:00.778291+05:30"},{"city":"Nashik","state":"Maharashtra","latitude":19.9975,"longitude":73.7898,"temp":23.0,"humidity":91,"rain":0.0,"pressure":943.9,"uv_index":8.15,"wind_gusts":38.2,"aqi":58,"pm10":27.8,"pm2_5":14.9,"no2":13.2,"co":200.0,"o3":50.0,"so2":14.0,"mosquito_risk":3,"arthritis_risk":5,"migraine_risk":7,"frizz_risk":1,"updated_at":"2026-05-05T01:48:00.778298+05:30"},{"city":"Aurangabad","state":"Maharashtra","latitude":19.8762,"longitude":75.3433,"temp":26.1,"humidity":56,"rain":0.0,"pressure":942.5,"uv_index":9.05,"wind_gusts":32.8,"aqi":57,"pm10":33.3,"pm2_5":15.1,"no2":9.2,"co":174.0,"o3":70.0,"so2":12.4,"mosquito_risk":4,"arthritis_risk":5,"migraine_risk":7,"frizz_risk":1,"updated_at":"2026-05-05T01:48:00.778306+05:30"},{"city":"Solapur","state":"Maharashtra","latitude":17.6599,"longitude":75.9064,"temp":28.4,"humidity":39,"rain":0.0,"pressure":955.5,"uv_index":9.1,"wind_gusts":49.7,"aqi":54,"pm10":24.0,"pm2_5":11.3,"no2":5.4,"co":178.0,"o3":66.0,"so2":3.4,"mosquito_risk":4,"arthritis_risk":5,"migraine_risk":7,"frizz_risk":0,"updated_at":"2026-05-05T01:48:00.778339+05:30"},{"city":"Kolhapur","state":"Maharashtra","latitude":16.705,"longitude":74.2433,"temp":22.7,"humidity":95,"rain":0.0,"pressure":946.5,"uv_index":9.0,"wind_gusts":46.8,"aqi":57,"pm10":26.2,"pm2_5":13.8,"no2":7.8,"co":172.0,"o3":49.0,"so2":2.2,"mosquito_risk":3,"arthritis_risk":5,"migraine_risk":7,"frizz_risk":1,"updated_at":"2026-05-05T01:48:00.778348+05:30"},{"city":"Goa","state":"Goa","latitude":15.2993,"longitude":74.124,"temp":27.4,"humidity":87,"rain":0.0,"pressure":997.0,"uv_index":8.95,"wind_gusts":35.6,"aqi":65,"pm10":48.7,"pm2_5":22.5,"no2":7.3,"co":228.0,"o3":55.0,"so2":2.0,"mosquito_risk":7,"arthritis_risk":5,"migraine_risk":7,"frizz_risk":1,"updated_at":"2026-05-05T01:48:00.778356+05:30"},{"city":"Jodhpur","state":"Rajasthan","latitude":26.2389,"longitude":73.0243,"temp":27.5,"humidity":45,"rain":0.0,"pressure":979.9,"uv_index":8.3,"wind_gusts":36.0,"aqi":91,"pm10":137.8,"pm2_5":30.0,"no2":7.7,"co":218.0,"o3":73.0,"so2":3.6,"mosquito_risk":4,"arthritis_risk":5,"migraine_risk":7,"frizz_risk":0,"updated_at":"2026-05-05T01:48:00.778363+05:30"},{"city":"Udaipur","state":"Rajasthan","latitude":24.5854,"longitude":73.7125,"temp":23.8,"humidity":64,"rain":0.0,"pressure":943.6,"uv_index":8.75,"wind_gusts":57.6,"aqi":64,"pm10":70.1,"pm2_5":28.3,"no2":9.7,"co":292.0,"o3":83.0,"so2":8.5,"mosquito_risk":3,"arthritis_risk":5,"migraine_risk":7,"frizz_risk":1,"updated_at":"2026-05-05T01:48:00.778371+05:30"},{"city":"Kota","state":"Rajasthan","latitude":25.2138,"longitude":75.8648,"temp":26.0,"humidity":50,"rain":0.0,"pressure":976.9,"uv_index":8.3,"wind_gusts":46.4,"aqi":70,"pm10":49.0,"pm2_5":32.0,"no2":4.2,"co":305.0,"o3":119.0,"so2":13.0,"mosquito_risk":4,"arthritis_risk":5,"migraine_risk":7,"frizz_risk":0,"updated_at":"2026-05-05T01:48:00.778378+05:30"},{"city":"Bikaner","state":"Rajasthan","latitude":28.0229,"longitude":73.3119,"temp":27.5,"humidity":39,"rain":0.0,"pressure":979.3,"uv_index":8.2,"wind_gusts":33.1,"aqi":105,"pm10":87.1,"pm2_5":34.7,"no2":3.2,"co":197.0,"o3":111.0,"so2":5.0,"mosquito_risk":4,"arthritis_risk":5,"migraine_risk":7,"frizz_risk":0,"updated_at":"2026-05-05T01:48:00.778385+05:30"},{"city":"Ajmer","state":"Rajasthan","latitude":26.4499,"longitude":74.6399,"temp":24.2,"humidity":49,"rain":0.0,"pressure":952.7,"uv_index":8.2,"wind_gusts":41.0,"aqi":68,"pm10":56.7,"pm2_5":32.5,"no2":2.6,"co":246.0,"o3":124.0,"so2":5.6,"mosquito_risk":0,"arthritis_risk":5,"migraine_risk":7,"frizz_risk":0,"updated_at":"2026-05-05T01:48:00.778393+05:30"},{"city":"Gwalior","state":"Madhya Pradesh","latitude":26.2183,"longitude":78.1828,"temp":26.3,"humidity":64,"rain":0.0,"pressure":982.7,"uv_index":8.1,"wind_gusts":37.8,"aqi":110,"pm10":110.8,"pm2_5":38.9,"no2":3.0,"co":324.0,"o3":139.0,"so2":7.6,"mosquito_risk":7,"arthritis_risk":5,"migraine_risk":7,"frizz_risk":1,"updated_at":"2026-05-05T01:48:00.778402+05:30"},{"city":"Indore","state":"Madhya Pradesh","latitude":22.7196,"longitude":75.8577,"temp":26.6,"humidity":53,"rain":0.0,"pressure":946.2,"uv_index":8.65,"wind_gusts":41.8,"aqi":59,"pm10":34.8,"pm2_5":21.4,"no2":6.8,"co":409.0,"o3":88.0,"so2":7.3,"mosquito_risk":4,"arthritis_risk":5,"migraine_risk":7,"frizz_risk":1,"updated_at":"2026-05-05T01:48:00.778409+05:30"},{"city":"Bhopal","state":"Madhya Pradesh","latitude":23.2599,"longitude":77.4126,"temp":26.8,"humidity":47,"rain":0.0,"pressure":951.8,"uv_index":8.65,"wind_gusts":46.1,"aqi":51,"pm10":26.9,"pm2_5":16.8,"no2":4.8,"co":218.0,"o3":90.0,"so2":6.4,"mosquito_risk":4,"arthritis_risk":5,"migraine_risk":7,"frizz_risk":0,"updated_at":"2026-05-05T01:48:00.778415+05:30"},{"city":"Jabalpur","state":"Madhya Pradesh","latitude":23.1815,"longitude":79.9864,"temp":25.9,"humidity":60,"rain":0.0,"pressure":960.0,"uv_index":8.1,"wind_gusts":72.0,"aqi":60,"pm10":41.3,"pm2_5":25.5,"no2":8.4,"co":229.0,"o3":116.0,"so2":9.2,"mosquito_risk":4,"arthritis_risk":5,"migraine_risk":7,"frizz_risk":1,"updated_at":"2026-05-05T01:48:00.778423+05:30"},{"city":"Ujjain","state":"Madhya Pradesh","latitude":23.1765,"longitude":75.7885,"temp":25.7,"humidity":57,"rain":0.0,"pressure":951.5,"uv_index":8.55,"wind_gusts":41.0,"aqi":59,"pm10":33.2,"pm2_5":19.9,"no2":3.8,"co":419.0,"o3":83.0,"so2":5.0,"mosquito_risk":4,"arthritis_risk":5,"migraine_risk":7,"frizz_risk":1,"updated_at":"2026-05-05T01:48:00.778430+05:30"},{"city":"Visakhapatnam","state":"Andhra Pradesh","latitude":17.6868,"longitude":83.2185,"temp":26.9,"humidity":90,"rain":0.0,"pressure":1003.1,"uv_index":9.2,"wind_gusts":35.3,"aqi":84,"pm10":30.4,"pm2_5":23.3,"no2":23.3,"co":1235.0,"o3":61.0,"so2":3.3,"mosquito_risk":7,"arthritis_risk":5,"migraine_risk":4,"frizz_risk":1,"updated_at":"2026-05-05T01:48:00.778437+05:30"},{"city":"Vijayawada","state":"Andhra Pradesh","latitude":16.5062,"longitude":80.648,"temp":28.9,"humidity":83,"rain":0.0,"pressure":1001.2,"uv_index":9.2,"wind_gusts":34.9,"aqi":86,"pm10":21.0,"pm2_5":17.1,"no2":6.3,"co":199.0,"o3":75.0,"so2":4.0,"mosquito_risk":7,"arthritis_risk":5,"migraine_risk":4,"frizz_risk":1,"updated_at":"2026-05-05T01:48:00.778444+05:30"},{"city":"Guntur","state":"Andhra Pradesh","latitude":16.3067,"longitude":80.4365,"temp":29.0,"humidity":85,"rain":0.0,"pressure":1002.4,"uv_index":9.2,"wind_gusts":38.2,"aqi":85,"pm10":21.1,"pm2_5":16.6,"no2":5.6,"co":192.0,"o3":78.0,"so2":3.6,"mosquito_risk":7,"arthritis_risk":5,"migraine_risk":4,"frizz_risk":1,"updated_at":"2026-05-05T01:48:00.778451+05:30"},{"city":"Nellore","state":"Andhra Pradesh","latitude":14.4426,"longitude":79.9865,"temp":29.2,"humidity":82,"rain":0.0,"pressure":1003.6,"uv_index":8.85,"wind_gusts":37.4,"aqi":80,"pm10":22.9,"pm2_5":18.6,"no2":7.0,"co":220.0,"o3":92.0,"so2":8.9,"mosquito_risk":7,"arthritis_risk":5,"migraine_risk":4,"frizz_risk":1,"updated_at":"2026-05-05T01:48:00.778459+05:30"},{"city":"Kurnool","state":"Andhra Pradesh","latitude":15.8281,"longitude":78.0373,"temp":30.1,"humidity":44,"rain":0.0,"pressure":974.5,"uv_index":9.2,"wind_gusts":42.8,"aqi":71,"pm10":35.2,"pm2_5":26.0,"no2":7.3,"co":249.0,"o3":96.0,"so2":5.3,"mosquito_risk":0,"arthritis_risk":5,"migraine_risk":7,"frizz_risk":1,"updated_at":"2026-05-05T01:48:00.778467+05:30"},{"city":"Kakinada","state":"Andhra Pradesh","latitude":16.9891,"longitude":82.2475,"temp":27.2,"humidity":91,"rain":0.0,"pressure":1006.5,"uv_index":9.15,"wind_gusts":31.0,"aqi":77,"pm10":25.8,"pm2_5":17.7,"no2":1.7,"co":266.0,"o3":93.0,"so2":1.1,"mosquito_risk":7,"arthritis_risk":5,"migraine_risk":4,"frizz_risk":1,"updated_at":"2026-05-05T01:48:00.778475+05:30"},{"city":"Tirupati","state":"Andhra Pradesh","latitude":13.6288,"longitude":79.4192,"temp":28.5,"humidity":64,"rain":0.0,"pressure":989.2,"uv_index":7.95,"wind_gusts":31.7,"aqi":97,"pm10":31.7,"pm2_5":24.9,"no2":9.4,"co":291.0,"o3":100.0,"so2":6.6,"mosquito_risk":7,"arthritis_risk":5,"migraine_risk":7,"frizz_risk":1,"updated_at":"2026-05-05T01:48:00.778482+05:30"},{"city":"Warangal","state":"Telangana","latitude":17.9689,"longitude":79.5941,"temp":28.4,"humidity":72,"rain":0.0,"pressure":977.0,"uv_index":9.15,"wind_gusts":42.8,"aqi":90,"pm10":35.7,"pm2_5":29.8,"no2":8.0,"co":263.0,"o3":101.0,"so2":12.0,"mosquito_risk":7,"arthritis_risk":5,"migraine_risk":7,"frizz_risk":1,"updated_at":"2026-05-05T01:48:00.778489+05:30"},{"city":"Nizamabad","state":"Telangana","latitude":18.6725,"longitude":78.0941,"temp":28.8,"humidity":35,"rain":0.0,"pressure":961.9,"uv_index":9.1,"wind_gusts":31.7,"aqi":79,"pm10":40.0,"pm2_5":28.3,"no2":13.5,"co":283.0,"o3":84.0,"so2":7.0,"mosquito_risk":4,"arthritis_risk":5,"migraine_risk":7,"frizz_risk":0,"updated_at":"2026-05-05T01:48:00.778496+05:30"},{"city":"Mysore","state":"Karnataka","latitude":12.2958,"longitude":76.6396,"temp":23.0,"humidity":94,"rain":0.0,"pressure":927.4,"uv_index":9.15,"wind_gusts":40.7,"aqi":65,"pm10":27.6,"pm2_5":17.3,"no2":10.3,"co":181.0,"o3":57.0,"so2":2.6,"mosquito_risk":3,"arthritis_risk":5,"migraine_risk":7,"frizz_risk":1,"updated_at":"2026-05-05T01:48:00.778502+05:30"},{"city":"Mangalore","state":"Karnataka","latitude":12.9141,"longitude":74.856,"temp":28.6,"humidity":78,"rain":0.0,"pressure":1006.0,"uv_index":7.5,"wind_gusts":44.3,"aqi":67,"pm10":45.9,"pm2_5":16.8,"no2":2.5,"co":171.0,"o3":62.0,"so2":1.3,"mosquito_risk":7,"arthritis_risk":5,"migraine_risk":4,"frizz_risk":1,"updated_at":"2026-05-05T01:48:00.778510+05:30"},{"city":"Hubli-Dharwad","state":"Karnataka","latitude":15.3647,"longitude":75.124,"temp":22.6,"humidity":97,"rain":0.0,"pressure":939.6,"uv_index":9.2,"wind_gusts":52.9,"aqi":54,"pm10":25.9,"pm2_5":12.7,"no2":5.3,"co":186.0,"o3":52.0,"so2":1.6,"mosquito_risk":3,"arthritis_risk":5,"migraine_risk":7,"frizz_risk":1,"updated_at":"2026-05-05T01:48:00.778517+05:30"},{"city":"Belgaum","state":"Karnataka","latitude":15.8497,"longitude":74.4977,"temp":21.3,"humidity":100,"rain":0.0,"pressure":924.3,"uv_index":9.2,"wind_gusts":50.4,"aqi":56,"pm10":28.9,"pm2_5":17.1,"no2":8.7,"co":154.0,"o3":42.0,"so2":1.0,"mosquito_risk":3,"arthritis_risk":5,"migraine_risk":7,"frizz_risk":1,"updated_at":"2026-05-05T01:48:04.076810+05:30"},{"city":"Coimbatore","state":"Tamil Nadu","latitude":11.0168,"longitude":76.9558,"temp":24.6,"humidity":87,"rain":0.0,"pressure":960.7,"uv_index":9.2,"wind_gusts":34.6,"aqi":64,"pm10":26.0,"pm2_5":13.5,"no2":7.0,"co":222.0,"o3":71.0,"so2":3.3,"mosquito_risk":3,"arthritis_risk":5,"migraine_risk":7,"frizz_risk":1,"updated_at":"2026-05-05T01:48:04.076844+05:30"},{"city":"Madurai","state":"Tamil Nadu","latitude":9.9252,"longitude":78.1198,"temp":29.9,"humidity":54,"rain":0.0,"pressure":991.5,"uv_index":3.9,"wind_gusts":38.9,"aqi":85,"pm10":28.0,"pm2_5":22.1,"no2":13.9,"co":256.0,"o3":67.0,"so2":4.6,"mosquito_risk":4,"arthritis_risk":5,"migraine_risk":3,"frizz_risk":1,"updated_at":"2026-05-05T01:48:04.076855+05:30"},{"city":"Trichy","state":"Tamil Nadu","latitude":10.7905,"longitude":78.7047,"temp":30.1,"humidity":55,"rain":0.0,"pressure":998.1,"uv_index":6.25,"wind_gusts":55.4,"aqi":78,"pm10":35.7,"pm2_5":27.6,"no2":11.5,"co":253.0,"o3":93.0,"so2":6.5,"mosquito_risk":0,"arthritis_risk":5,"migraine_risk":7,"frizz_risk":1,"updated_at":"2026-05-05T01:48:04.076864+05:30"},{"city":"Salem","state":"Tamil Nadu","latitude":11.6643,"longitude":78.146,"temp":27.0,"humidity":68,"rain":0.0,"pressure":976.1,"uv_index":9.3,"wind_gusts":47.2,"aqi":78,"pm10":44.4,"pm2_5":29.7,"no2":12.2,"co":247.0,"o3":89.0,"so2":7.2,"mosquito_risk":7,"arthritis_risk":5,"migraine_risk":7,"frizz_risk":1,"updated_at":"2026-05-05T01:48:04.076872+05:30"},{"city":"Tirunelveli","state":"Tamil Nadu","latitude":8.7139,"longitude":77.7567,"temp":28.4,"humidity":71,"rain":0.0,"pressure":1001.9,"uv_index":3.45,"wind_gusts":32.0,"aqi":75,"pm10":39.8,"pm2_5":21.4,"no2":9.4,"co":309.0,"o3":46.0,"so2":2.7,"mosquito_risk":7,"arthritis_risk":5,"migraine_risk":0,"frizz_risk":1,"updated_at":"2026-05-05T01:48:04.076880+05:30"},{"city":"Vellore","state":"Tamil Nadu","latitude":12.9165,"longitude":79.1325,"temp":27.7,"humidity":67,"rain":0.0,"pressure":982.2,"uv_index":7.6,"wind_gusts":43.6,"aqi":101,"pm10":45.1,"pm2_5":34.7,"no2":8.2,"co":292.0,"o3":97.0,"so2":8.8,"mosquito_risk":7,"arthritis_risk":5,"migraine_risk":7,"frizz_risk":1,"updated_at":"2026-05-05T01:48:04.076888+05:30"},{"city":"Erode","state":"Tamil Nadu","latitude":11.341,"longitude":77.7172,"temp":28.9,"humidity":69,"rain":0.0,"pressure":987.9,"uv_index":8.6,"wind_gusts":46.1,"aqi":73,"pm10":22.4,"pm2_5":16.0,"no2":12.4,"co":230.0,"o3":60.0,"so2":3.0,"mosquito_risk":7,"arthritis_risk":5,"migraine_risk":7,"frizz_risk":1,"updated_at":"2026-05-05T01:48:04.076896+05:30"},{"city":"Kochi","state":"Kerala","latitude":9.9312,"longitude":76.2673,"temp":26.1,"humidity":93,"rain":0.0,"pressure":1008.3,"uv_index":6.8,"wind_gusts":29.2,"aqi":95,"pm10":38.5,"pm2_5":22.6,"no2":15.0,"co":279.0,"o3":46.0,"so2":4.4,"mosquito_risk":7,"arthritis_risk":0,"migraine_risk":4,"frizz_risk":1,"updated_at":"2026-05-05T01:48:04.076904+05:30"},{"city":"Thiruvananthapuram","state":"Kerala","latitude":8.5241,"longitude":76.9366,"temp":24.6,"humidity":94,"rain":0.0,"pressure":1007.5,"uv_index":6.55,"wind_gusts":38.2,"aqi":72,"pm10":47.8,"pm2_5":19.8,"no2":5.3,"co":317.0,"o3":67.0,"so2":3.0,"mosquito_risk":3,"arthritis_risk":5,"migraine_risk":4,"frizz_risk":1,"updated_at":"2026-05-05T01:48:04.076911+05:30"},{"city":"Kozhikode","state":"Kerala","latitude":11.2588,"longitude":75.7804,"temp":25.2,"humidity":97,"rain":0.0,"pressure":1007.6,"uv_index":6.7,"wind_gusts":36.7,"aqi":66,"pm10":41.3,"pm2_5":14.8,"no2":2.0,"co":265.0,"o3":73.0,"so2":1.2,"mosquito_risk":7,"arthritis_risk":5,"migraine_risk":4,"frizz_risk":1,"updated_at":"2026-05-05T01:48:04.076919+05:30"},{"city":"Thrissur","state":"Kerala","latitude":10.5276,"longitude":76.2144,"temp":24.5,"humidity":99,"rain":0.0,"pressure":1006.8,"uv_index":7.35,"wind_gusts":27.7,"aqi":88,"pm10":32.8,"pm2_5":19.7,"no2":13.1,"co":198.0,"o3":47.0,"so2":3.0,"mosquito_risk":3,"arthritis_risk":5,"migraine_risk":4,"frizz_risk":1,"updated_at":"2026-05-05T01:48:04.076927+05:30"},{"city":"Kannur","state":"Kerala","latitude":11.8745,"longitude":75.3704,"temp":26.0,"humidity":95,"rain":0.0,"pressure":1006.7,"uv_index":8.7,"wind_gusts":40.7,"aqi":67,"pm10":46.1,"pm2_5":16.6,"no2":4.7,"co":294.0,"o3":51.0,"so2":1.2,"mosquito_risk":7,"arthritis_risk":5,"migraine_risk":4,"frizz_risk":1,"updated_at":"2026-05-05T01:48:04.076934+05:30"},{"city":"Patna","state":"Bihar","latitude":25.5941,"longitude":85.1376,"temp":22.5,"humidity":95,"rain":0.0,"pressure":1002.5,"uv_index":8.7,"wind_gusts":34.6,"aqi":126,"pm10":61.9,"pm2_5":55.8,"no2":14.2,"co":380.0,"o3":97.0,"so2":12.7,"mosquito_risk":3,"arthritis_risk":5,"migraine_risk":4,"frizz_risk":1,"updated_at":"2026-05-05T01:48:04.076942+05:30"},{"city":"Gaya","state":"Bihar","latitude":24.7914,"longitude":85.0002,"temp":22.9,"humidity":92,"rain":0.0,"pressure":994.7,"uv_index":8.5,"wind_gusts":29.5,"aqi":158,"pm10":59.4,"pm2_5":55.1,"no2":12.5,"co":403.0,"o3":133.0,"so2":27.8,"mosquito_risk":3,"arthritis_risk":5,"migraine_risk":7,"frizz_risk":1,"updated_at":"2026-05-05T01:48:04.076949+05:30"},{"city":"Muzaffarpur","state":"Bihar","latitude":26.1209,"longitude":85.3647,"temp":22.0,"humidity":92,"rain":0.0,"pressure":1003.3,"uv_index":8.7,"wind_gusts":29.9,"aqi":111,"pm10":47.7,"pm2_5":42.7,"no2":14.7,"co":410.0,"o3":79.0,"so2":10.9,"mosquito_risk":3,"arthritis_risk":5,"migraine_risk":4,"frizz_risk":1,"updated_at":"2026-05-05T01:48:04.076956+05:30"},{"city":"Bhagalpur","state":"Bihar","latitude":25.2425,"longitude":87.0117,"temp":22.9,"humidity":93,"rain":0.0,"pressure":1003.2,"uv_index":8.7,"wind_gusts":30.6,"aqi":114,"pm10":48.5,"pm2_5":44.1,"no2":13.7,"co":287.0,"o3":95.0,"so2":9.4,"mosquito_risk":3,"arthritis_risk":5,"migraine_risk":4,"frizz_risk":1,"updated_at":"2026-05-05T01:48:04.076962+05:30"},{"city":"Ranchi","state":"Jharkhand","latitude":23.3441,"longitude":85.3096,"temp":19.9,"humidity":98,"rain":0.0,"pressure":938.5,"uv_index":9.25,"wind_gusts":45.4,"aqi":138,"pm10":40.7,"pm2_5":32.0,"no2":6.0,"co":293.0,"o3":131.0,"so2":11.4,"mosquito_risk":3,"arthritis_risk":10,"migraine_risk":7,"frizz_risk":1,"updated_at":"2026-05-05T01:48:04.076970+05:30"},{"city":"Jamshedpur","state":"Jharkhand","latitude":22.8046,"longitude":86.2029,"temp":23.0,"humidity":94,"rain":0.1,"pressure":993.2,"uv_index":8.7,"wind_gusts":34.6,"aqi":104,"pm10":37.7,"pm2_5":30.4,"no2":16.3,"co":608.0,"o3":62.0,"so2":17.6,"mosquito_risk":6,"arthritis_risk":5,"migraine_risk":7,"frizz_risk":1,"updated_at":"2026-05-05T01:48:04.076976+05:30"},{"city":"Dhanbad","state":"Jharkhand","latitude":23.7957,"longitude":86.4304,"temp":22.6,"humidity":97,"rain":0.4,"pressure":980.3,"uv_index":9.0,"wind_gusts":45.0,"aqi":153,"pm10":69.8,"pm2_5":61.5,"no2":61.3,"co":482.0,"o3":24.0,"so2":77.1,"mosquito_risk":6,"arthritis_risk":5,"migraine_risk":7,"frizz_risk":1,"updated_at":"2026-05-05T01:48:04.076984+05:30"},{"city":"Bokaro","state":"Jharkhand","latitude":23.6693,"longitude":86.1511,"temp":22.6,"humidity":94,"rain":0.1,"pressure":984.6,"uv_index":9.0,"wind_gusts":42.8,"aqi":155,"pm10":74.7,"pm2_5":66.6,"no2":47.3,"co":957.0,"o3":49.0,"so2":70.3,"mosquito_risk":6,"arthritis_risk":5,"migraine_risk":7,"frizz_risk":1,"updated_at":"2026-05-05T01:48:04.076991+05:30"},{"city":"Bhubaneswar","state":"Odisha","latitude":20.2961,"longitude":85.8245,"temp":26.4,"humidity":95,"rain":0.0,"pressure":1003.4,"uv_index":9.1,"wind_gusts":34.9,"aqi":67,"pm10":21.3,"pm2_5":16.0,"no2":7.7,"co":184.0,"o3":66.0,"so2":3.5,"mosquito_risk":7,"arthritis_risk":5,"migraine_risk":4,"frizz_risk":1,"updated_at":"2026-05-05T01:48:04.076997+05:30"},{"city":"Cuttack","state":"Odisha","latitude":20.4625,"longitude":85.8828,"temp":26.4,"humidity":96,"rain":0.0,"pressure":1005.3,"uv_index":9.15,"wind_gusts":36.7,"aqi":67,"pm10":21.3,"pm2_5":16.0,"no2":7.7,"co":191.0,"o3":66.0,"so2":3.5,"mosquito_risk":7,"arthritis_risk":5,"migraine_risk":4,"frizz_risk":1,"updated_at":"2026-05-05T01:48:04.077004+05:30"},{"city":"Rourkela","state":"Odisha","latitude":22.2604,"longitude":84.8536,"temp":23.9,"humidity":87,"rain":0.0,"pressure":986.3,"uv_index":8.8,"wind_gusts":52.6,"aqi":108,"pm10":44.5,"pm2_5":33.4,"no2":12.4,"co":496.0,"o3":106.0,"so2":34.0,"mosquito_risk":3,"arthritis_risk":5,"migraine_risk":7,"frizz_risk":1,"updated_at":"2026-05-05T01:48:04.077012+05:30"},{"city":"Raipur","state":"Chhattisgarh","latitude":21.2514,"longitude":81.6296,"temp":28.0,"humidity":46,"rain":0.0,"pressure":973.2,"uv_index":8.95,"wind_gusts":47.9,"aqi":98,"pm10":46.7,"pm2_5":34.0,"no2":12.9,"co":277.0,"o3":91.0,"so2":5.5,"mosquito_risk":4,"arthritis_risk":5,"migraine_risk":7,"frizz_risk":0,"updated_at":"2026-05-05T01:48:04.077019+05:30"},{"city":"Bhilai","state":"Chhattisgarh","latitude":21.1938,"longitude":81.3509,"temp":28.0,"humidity":46,"rain":0.0,"pressure":973.4,"uv_index":8.95,"wind_gusts":54.4,"aqi":102,"pm10":47.1,"pm2_5":35.0,"no2":17.8,"co":278.0,"o3":86.0,"so2":6.2,"mosquito_risk":4,"arthritis_risk":5,"migraine_risk":7,"frizz_risk":0,"updated_at":"2026-05-05T01:48:04.077027+05:30"},{"city":"Guwahati","state":"Assam","latitude":26.1158,"longitude":91.7086,"temp":21.7,"humidity":92,"rain":0.0,"pressure":1005.1,"uv_index":8.65,"wind_gusts":23.8,"aqi":80,"pm10":23.4,"pm2_5":19.5,"no2":9.9,"co":312.0,"o3":61.0,"so2":1.5,"mosquito_risk":3,"arthritis_risk":5,"migraine_risk":4,"frizz_risk":1,"updated_at":"2026-05-05T01:48:04.077034+05:30"},{"city":"Agartala","state":"Tripura","latitude":23.8315,"longitude":91.2868,"temp":22.9,"humidity":96,"rain":0.0,"pressure":1009.0,"uv_index":6.7,"wind_gusts":19.4,"aqi":69,"pm10":34.1,"pm2_5":27.8,"no2":16.3,"co":374.0,"o3":50.0,"so2":1.3,"mosquito_risk":3,"arthritis_risk":0,"migraine_risk":4,"frizz_risk":1,"updated_at":"2026-05-05T01:48:04.077042+05:30"},{"city":"Shillong","state":"Meghalaya","latitude":25.5788,"longitude":91.8933,"temp":13.6,"humidity":99,"rain":0.0,"pressure":857.1,"uv_index":7.7,"wind_gusts":25.2,"aqi":57,"pm10":20.8,"pm2_5":17.1,"no2":9.0,"co":271.0,"o3":64.0,"so2":0.3,"mosquito_risk":3,"arthritis_risk":10,"migraine_risk":7,"frizz_risk":0,"updated_at":"2026-05-05T01:48:04.077050+05:30"},{"city":"Imphal","state":"Manipur","latitude":24.817,"longitude":93.9368,"temp":16.6,"humidity":94,"rain":0.0,"pressure":924.7,"uv_index":9.15,"wind_gusts":31.7,"aqi":91,"pm10":44.1,"pm2_5":38.5,"no2":23.1,"co":432.0,"o3":40.0,"so2":1.0,"mosquito_risk":3,"arthritis_risk":10,"migraine_risk":7,"frizz_risk":0,"updated_at":"2026-05-05T01:48:04.077057+05:30"},{"city":"Aizawl","state":"Mizoram","latitude":23.7271,"longitude":92.7176,"temp":15.7,"humidity":99,"rain":0.0,"pressure":893.3,"uv_index":8.45,"wind_gusts":24.8,"aqi":51,"pm10":31.7,"pm2_5":21.6,"no2":10.0,"co":337.0,"o3":28.0,"so2":0.3,"mosquito_risk":3,"arthritis_risk":10,"migraine_risk":7,"frizz_risk":0,"updated_at":"2026-05-05T01:48:04.077065+05:30"},{"city":"Kohima","state":"Nagaland","latitude":25.6701,"longitude":94.1077,"temp":13.1,"humidity":92,"rain":0.0,"pressure":854.9,"uv_index":9.15,"wind_gusts":31.0,"aqi":68,"pm10":16.7,"pm2_5":11.9,"no2":8.0,"co":230.0,"o3":64.0,"so2":1.0,"mosquito_risk":3,"arthritis_risk":10,"migraine_risk":7,"frizz_risk":0,"updated_at":"2026-05-05T01:48:04.077071+05:30"},{"city":"Gangtok","state":"Sikkim","latitude":27.3314,"longitude":88.6138,"temp":12.7,"humidity":98,"rain":0.3,"pressure":837.7,"uv_index":8.9,"wind_gusts":39.2,"aqi":58,"pm10":16.0,"pm2_5":12.2,"no2":8.0,"co":354.0,"o3":100.0,"so2":0.8,"mosquito_risk":6,"arthritis_risk":10,"migraine_risk":7,"frizz_risk":0,"updated_at":"2026-05-05T01:48:04.077078+05:30"},{"city":"Siliguri","state":"West Bengal","latitude":26.7271,"longitude":88.3953,"temp":21.1,"humidity":96,"rain":0.1,"pressure":996.1,"uv_index":8.6,"wind_gusts":25.6,"aqi":84,"pm10":45.3,"pm2_5":36.2,"no2":18.3,"co":300.0,"o3":84.0,"so2":4.1,"mosquito_risk":6,"arthritis_risk":5,"migraine_risk":7,"frizz_risk":1,"updated_at":"2026-05-05T01:48:07.382870+05:30"},{"city":"Durgapur","state":"West Bengal","latitude":23.5204,"longitude":87.3119,"temp":22.5,"humidity":97,"rain":0.1,"pressure":997.4,"uv_index":8.8,"wind_gusts":34.2,"aqi":134,"pm10":63.3,"pm2_5":57.4,"no2":35.2,"co":362.0,"o3":47.0,"so2":38.0,"mosquito_risk":6,"arthritis_risk":5,"migraine_risk":7,"frizz_risk":1,"updated_at":"2026-05-05T01:48:07.382902+05:30"},{"city":"Asansol","state":"West Bengal","latitude":23.6739,"longitude":86.9524,"temp":22.8,"humidity":96,"rain":0.3,"pressure":995.5,"uv_index":8.9,"wind_gusts":41.4,"aqi":145,"pm10":68.9,"pm2_5":59.8,"no2":42.4,"co":346.0,"o3":36.0,"so2":55.8,"mosquito_risk":6,"arthritis_risk":5,"migraine_risk":7,"frizz_risk":1,"updated_at":"2026-05-05T01:48:07.382912+05:30"},{"city":"Pondicherry","state":"Puducherry","latitude":11.9139,"longitude":79.8145,"temp":26.3,"humidity":85,"rain":0.0,"pressure":1006.4,"uv_index":8.6,"wind_gusts":32.4,"aqi":66,"pm10":33.9,"pm2_5":23.5,"no2":8.0,"co":312.0,"o3":96.0,"so2":10.7,"mosquito_risk":7,"arthritis_risk":5,"migraine_risk":4,"frizz_risk":1,"updated_at":"2026-05-05T01:48:07.382921+05:30"},{"city":"Port Blair","state":"Andaman and Nicobar Islands","latitude":11.6234,"longitude":92.7265,"temp":27.2,"humidity":88,"rain":0.0,"pressure":1006.0,"uv_index":8.65,"wind_gusts":39.2,"aqi":24,"pm10":8.2,"pm2_5":6.0,"no2":0.3,"co":167.0,"o3":56.0,"so2":0.2,"mosquito_risk":7,"arthritis_risk":5,"migraine_risk":4,"frizz_risk":1,"updated_at":"2026-05-05T01:48:07.382929+05:30"},{"city":"Haridwar","state":"Uttarakhand","latitude":29.9457,"longitude":78.1642,"temp":18.8,"humidity":73,"rain":0.0,"pressure":974.8,"uv_index":6.9,"wind_gusts":34.2,"aqi":100,"pm10":62.6,"pm2_5":38.4,"no2":21.4,"co":236.0,"o3":53.0,"so2":5.3,"mosquito_risk":3,"arthritis_risk":5,"migraine_risk":7,"frizz_risk":0,"updated_at":"2026-05-05T01:48:07.382937+05:30"},{"city":"Rishikesh","state":"Uttarakhand","latitude":30.0869,"longitude":78.2676,"temp":16.4,"humidity":85,"rain":0.0,"pressure":967.2,"uv_index":6.95,"wind_gusts":26.3,"aqi":85,"pm10":40.6,"pm2_5":20.2,"no2":11.2,"co":257.0,"o3":76.0,"so2":1.5,"mosquito_risk":3,"arthritis_risk":10,"migraine_risk":7,"frizz_risk":0,"updated_at":"2026-05-05T01:48:07.382946+05:30"},{"city":"Nainital","state":"Uttarakhand","latitude":29.3919,"longitude":79.4542,"temp":9.9,"humidity":77,"rain":0.0,"pressure":803.3,"uv_index":8.3,"wind_gusts":29.5,"aqi":75,"pm10":36.1,"pm2_5":17.3,"no2":11.4,"co":238.0,"o3":77.0,"so2":2.3,"mosquito_risk":3,"arthritis_risk":5,"migraine_risk":7,"frizz_risk":0,"updated_at":"2026-05-05T01:48:07.382953+05:30"},{"city":"Mussoorie","state":"Uttarakhand","latitude":30.4599,"longitude":78.0664,"temp":7.9,"humidity":80,"rain":0.0,"pressure":799.2,"uv_index":7.85,"wind_gusts":48.6,"aqi":87,"pm10":67.5,"pm2_5":34.2,"no2":34.7,"co":208.0,"o3":40.0,"so2":8.5,"mosquito_risk":3,"arthritis_risk":5,"migraine_risk":7,"frizz_risk":0,"updated_at":"2026-05-05T01:48:07.382960+05:30"},{"city":"Dharamshala","state":"Himachal Pradesh","latitude":32.219,"longitude":76.3234,"temp":16.5,"humidity":51,"rain":0.0,"pressure":868.7,"uv_index":8.2,"wind_gusts":41.0,"aqi":52,"pm10":21.7,"pm2_5":7.4,"no2":6.3,"co":227.0,"o3":95.0,"so2":0.2,"mosquito_risk":0,"arthritis_risk":5,"migraine_risk":7,"frizz_risk":0,"updated_at":"2026-05-05T01:48:07.382967+05:30"},{"city":"Dalhousie","state":"Himachal Pradesh","latitude":32.5387,"longitude":75.971,"temp":7.4,"humidity":87,"rain":0.0,"pressure":800.9,"uv_index":8.45,"wind_gusts":40.3,"aqi":81,"pm10":77.5,"pm2_5":31.3,"no2":30.9,"co":437.0,"o3":49.0,"so2":2.1,"mosquito_risk":3,"arthritis_risk":10,"migraine_risk":7,"frizz_risk":0,"updated_at":"2026-05-05T01:48:07.382975+05:30"},{"city":"Patiala","state":"Punjab","latitude":30.3398,"longitude":76.3869,"temp":23.3,"humidity":53,"rain":0.0,"pressure":978.4,"uv_index":7.45,"wind_gusts":42.5,"aqi":165,"pm10":45.9,"pm2_5":27.1,"no2":7.0,"co":281.0,"o3":96.0,"so2":5.2,"mosquito_risk":0,"arthritis_risk":5,"migraine_risk":7,"frizz_risk":0,"updated_at":"2026-05-05T01:48:07.382982+05:30"},{"city":"Bhatinda","state":"Punjab","latitude":30.211,"longitude":74.9455,"temp":24.1,"humidity":63,"rain":0.0,"pressure":983.2,"uv_index":8.1,"wind_gusts":31.7,"aqi":459,"pm10":112.0,"pm2_5":32.4,"no2":6.6,"co":311.0,"o3":105.0,"so2":7.5,"mosquito_risk":3,"arthritis_risk":5,"migraine_risk":7,"frizz_risk":1,"updated_at":"2026-05-05T01:48:07.382989+05:30"},{"city":"Rohtak","state":"Haryana","latitude":28.8955,"longitude":76.6066,"temp":23.2,"humidity":77,"rain":0.0,"pressure":982.0,"uv_index":7.35,"wind_gusts":33.1,"aqi":558,"pm10":184.4,"pm2_5":38.0,"no2":14.7,"co":403.0,"o3":96.0,"so2":15.9,"mosquito_risk":3,"arthritis_risk":5,"migraine_risk":7,"frizz_risk":1,"updated_at":"2026-05-05T01:48:07.382995+05:30"},{"city":"Panipat","state":"Haryana","latitude":29.3909,"longitude":76.9635,"temp":22.3,"humidity":80,"rain":0.0,"pressure":980.7,"uv_index":7.25,"wind_gusts":31.0,"aqi":917,"pm10":111.3,"pm2_5":28.2,"no2":7.9,"co":349.0,"o3":103.0,"so2":7.9,"mosquito_risk":3,"arthritis_risk":5,"migraine_risk":7,"frizz_risk":1,"updated_at":"2026-05-05T01:48:07.383003+05:30"},{"city":"Mathura","state":"Uttar Pradesh","latitude":27.4924,"longitude":77.6737,"temp":24.8,"humidity":73,"rain":0.0,"pressure":986.9,"uv_index":7.8,"wind_gusts":71.3,"aqi":765,"pm10":323.2,"pm2_5":76.4,"no2":13.0,"co":405.0,"o3":84.0,"so2":10.1,"mosquito_risk":3,"arthritis_risk":5,"migraine_risk":7,"frizz_risk":1,"updated_at":"2026-05-05T01:48:07.383009+05:30"},{"city":"Vrindavan","state":"Uttar Pradesh","latitude":27.5823,"longitude":77.7027,"temp":24.8,"humidity":72,"rain":0.0,"pressure":987.3,"uv_index":7.75,"wind_gusts":71.3,"aqi":765,"pm10":323.2,"pm2_5":76.4,"no2":13.0,"co":419.0,"o3":84.0,"so2":10.1,"mosquito_risk":3,"arthritis_risk":5,"migraine_risk":7,"frizz_risk":1,"updated_at":"2026-05-05T01:48:07.383016+05:30"},{"city":"Ayodhya","state":"Uttar Pradesh","latitude":26.7922,"longitude":82.1998,"temp":21.3,"humidity":79,"rain":0.0,"pressure":997.9,"uv_index":7.7,"wind_gusts":23.4,"aqi":91,"pm10":46.7,"pm2_5":38.6,"no2":11.6,"co":410.0,"o3":97.0,"so2":8.2,"mosquito_risk":3,"arthritis_risk":5,"migraine_risk":7,"frizz_risk":1,"updated_at":"2026-05-05T01:48:07.383022+05:30"},{"city":"Ratlam","state":"Madhya Pradesh","latitude":23.3315,"longitude":75.0367,"temp":25.9,"humidity":56,"rain":0.0,"pressure":952.5,"uv_index":8.45,"wind_gusts":38.9,"aqi":56,"pm10":29.6,"pm2_5":17.9,"no2":3.3,"co":287.0,"o3":92.0,"so2":8.2,"mosquito_risk":4,"arthritis_risk":5,"migraine_risk":7,"frizz_risk":1,"updated_at":"2026-05-05T01:48:07.383029+05:30"},{"city":"Sagar","state":"Madhya Pradesh","latitude":23.8388,"longitude":78.7378,"temp":25.1,"humidity":66,"rain":0.0,"pressure":949.9,"uv_index":8.65,"wind_gusts":51.5,"aqi":68,"pm10":43.8,"pm2_5":28.5,"no2":4.7,"co":316.0,"o3":125.0,"so2":9.2,"mosquito_risk":7,"arthritis_risk":5,"migraine_risk":7,"frizz_risk":1,"updated_at":"2026-05-05T01:48:07.383036+05:30"},{"city":"Satna","state":"Madhya Pradesh","latitude":24.6005,"longitude":80.8322,"temp":23.5,"humidity":82,"rain":0.0,"pressure":971.0,"uv_index":8.7,"wind_gusts":46.4,"aqi":115,"pm10":53.0,"pm2_5":43.4,"no2":10.3,"co":371.0,"o3":114.0,"so2":16.1,"mosquito_risk":3,"arthritis_risk":5,"migraine_risk":7,"frizz_risk":1,"updated_at":"2026-05-05T01:48:07.383043+05:30"},{"city":"Akola","state":"Maharashtra","latitude":20.7002,"longitude":77.0082,"temp":30.1,"humidity":32,"rain":0.0,"pressure":972.6,"uv_index":8.85,"wind_gusts":37.1,"aqi":52,"pm10":33.1,"pm2_5":17.0,"no2":8.0,"co":193.0,"o3":81.0,"so2":14.5,"mosquito_risk":0,"arthritis_risk":5,"migraine_risk":7,"frizz_risk":0,"updated_at":"2026-05-05T01:48:07.383050+05:30"},{"city":"Amravati","state":"Maharashtra","latitude":20.9374,"longitude":77.7796,"temp":29.2,"humidity":18,"rain":0.0,"pressure":964.0,"uv_index":8.85,"wind_gusts":38.9,"aqi":53,"pm10":33.1,"pm2_5":18.3,"no2":11.7,"co":306.0,"o3":73.0,"so2":11.4,"mosquito_risk":4,"arthritis_risk":5,"migraine_risk":7,"frizz_risk":0,"updated_at":"2026-05-05T01:48:07.383059+05:30"},{"city":"Latur","state":"Maharashtra","latitude":18.4088,"longitude":76.5604,"temp":28.1,"humidity":28,"rain":0.0,"pressure":937.8,"uv_index":9.05,"wind_gusts":35.6,"aqi":57,"pm10":30.7,"pm2_5":17.2,"no2":7.5,"co":201.0,"o3":92.0,"so2":6.7,"mosquito_risk":4,"arthritis_risk":5,"migraine_risk":7,"frizz_risk":0,"updated_at":"2026-05-05T01:48:07.383066+05:30"},{"city":"Nanded","state":"Maharashtra","latitude":19.1383,"longitude":77.3091,"temp":29.0,"humidity":19,"rain":0.0,"pressure":965.8,"uv_index":9.0,"wind_gusts":27.4,"aqi":66,"pm10":67.3,"pm2_5":37.4,"no2":31.7,"co":318.0,"o3":33.0,"so2":6.7,"mosquito_risk":4,"arthritis_risk":5,"migraine_risk":7,"frizz_risk":0,"updated_at":"2026-05-05T01:48:07.383072+05:30"},{"city":"Gulbarga","state":"Karnataka","latitude":17.3297,"longitude":76.8343,"temp":29.8,"humidity":20,"rain":0.0,"pressure":956.5,"uv_index":9.1,"wind_gusts":37.4,"aqi":56,"pm10":23.7,"pm2_5":11.5,"no2":6.7,"co":251.0,"o3":66.0,"so2":3.1,"mosquito_risk":4,"arthritis_risk":5,"migraine_risk":7,"frizz_risk":0,"updated_at":"2026-05-05T01:48:07.383079+05:30"},{"city":"Bidar","state":"Karnataka","latitude":17.9104,"longitude":77.5199,"temp":26.7,"humidity":25,"rain":0.0,"pressure":932.8,"uv_index":9.15,"wind_gusts":33.5,"aqi":72,"pm10":34.1,"pm2_5":23.7,"no2":13.3,"co":407.0,"o3":85.0,"so2":7.5,"mosquito_risk":4,"arthritis_risk":5,"migraine_risk":7,"frizz_risk":0,"updated_at":"2026-05-05T01:48:07.383085+05:30"},{"city":"Hospet","state":"Karnataka","latitude":15.2689,"longitude":76.3909,"temp":25.8,"humidity":75,"rain":0.0,"pressure":954.8,"uv_index":9.25,"wind_gusts":37.4,"aqi":57,"pm10":21.9,"pm2_5":12.7,"no2":6.7,"co":183.0,"o3":57.0,"so2":2.4,"mosquito_risk":7,"arthritis_risk":5,"migraine_risk":7,"frizz_risk":1,"updated_at":"2026-05-05T01:48:07.383091+05:30"},{"city":"Tirupur","state":"Tamil Nadu","latitude":11.1085,"longitude":77.3411,"temp":26.5,"humidity":79,"rain":0.0,"pressure":974.1,"uv_index":9.15,"wind_gusts":42.1,"aqi":70,"pm10":27.6,"pm2_5":17.3,"no2":10.9,"co":195.0,"o3":65.0,"so2":5.0,"mosquito_risk":7,"arthritis_risk":5,"migraine_risk":7,"frizz_risk":1,"updated_at":"2026-05-05T01:48:07.383098+05:30"},{"city":"Alappuzha","state":"Kerala","latitude":9.4981,"longitude":76.3388,"temp":25.7,"humidity":96,"rain":0.0,"pressure":1008.3,"uv_index":7.15,"wind_gusts":29.5,"aqi":83,"pm10":36.6,"pm2_5":19.6,"no2":11.5,"co":187.0,"o3":61.0,"so2":3.6,"mosquito_risk":7,"arthritis_risk":0,"migraine_risk":4,"frizz_risk":1,"updated_at":"2026-05-05T01:48:07.383104+05:30"},{"city":"Munnar","state":"Kerala","latitude":10.0889,"longitude":77.0595,"temp":18.0,"humidity":93,"rain":0.0,"pressure":855.9,"uv_index":5.8,"wind_gusts":25.2,"aqi":70,"pm10":9.9,"pm2_5":7.3,"no2":7.3,"co":259.0,"o3":52.0,"so2":1.1,"mosquito_risk":3,"arthritis_risk":10,"migraine_risk":3,"frizz_risk":1,"updated_at":"2026-05-05T01:48:07.383111+05:30"},{"city":"Silchar","state":"Assam","latitude":24.8333,"longitude":92.7789,"temp":20.9,"humidity":93,"rain":0.0,"pressure":1008.0,"uv_index":8.5,"wind_gusts":19.4,"aqi":90,"pm10":41.8,"pm2_5":32.7,"no2":12.6,"co":343.0,"o3":74.0,"so2":5.7,"mosquito_risk":3,"arthritis_risk":0,"migraine_risk":4,"frizz_risk":1,"updated_at":"2026-05-05T01:48:07.383118+05:30"},{"city":"Dibrugarh","state":"Assam","latitude":27.4728,"longitude":94.912,"temp":21.7,"humidity":93,"rain":0.0,"pressure":998.2,"uv_index":8.8,"wind_gusts":32.0,"aqi":76,"pm10":19.6,"pm2_5":18.7,"no2":20.9,"co":329.0,"o3":7.0,"so2":0.7,"mosquito_risk":3,"arthritis_risk":5,"migraine_risk":7,"frizz_risk":1,"updated_at":"2026-05-05T01:48:07.383124+05:30"}]