[{"city":"Delhi","state":"Delhi","latitude":28.6139,"longitude":77.209,"temp":25.5,"humidity":43,"rain":0.0,"pressure":987.6,"uv_index":7.05,"wind_gusts":25.6,"aqi":158,"pm10":280.3,"pm2_5":55.6,"mosquito_risk":4,"arthritis_risk":5,"migraine_risk":7,"frizz_risk":0,"updated_at":"2026-04-09T19:18:33.967978+05:30"},{"city":"Mumbai","state":"Maharashtra","latitude":19.076,"longitude":72.8777,"temp":28.0,"humidity":79,"rain":0.0,"pressure":1009.8,"uv_index":7.95,"wind_gusts":19.4,"aqi":82,"pm10":131.8,"pm2_5":31.5,"mosquito_risk":7,"arthritis_risk":0,"migraine_risk":4,"frizz_risk":1,"updated_at":"2026-04-09T19:18:33.968053+05:30"},{"city":"Bangalore","state":"Karnataka","latitude":12.9716,"longitude":77.5946,"temp":31.0,"humidity":36,"rain":0.0,"pressure":912.1,"uv_index":9.6,"wind_gusts":27.4,"aqi":170,"pm10":31.3,"pm2_5":21.6,"mosquito_risk":0,"arthritis_risk":5,"migraine_risk":7,"frizz_risk":0,"updated_at":"2026-04-09T19:18:33.968070+05:30"},{"city":"Hyderabad","state":"Telangana","latitude":17.385,"longitude":78.4867,"temp":33.2,"humidity":28,"rain":0.0,"pressure":953.5,"uv_index":9.15,"wind_gusts":28.8,"aqi":125,"pm10":43.1,"pm2_5":22.3,"mosquito_risk":0,"arthritis_risk":5,"migraine_risk":7,"frizz_risk":0,"updated_at":"2026-04-09T19:18:33.968081+05:30"},{"city":"Chennai","state":"Tamil Nadu","latitude":13.0827,"longitude":80.2707,"temp":30.2,"humidity":75,"rain":0.0,"pressure":1006.7,"uv_index":9.35,"wind_gusts":37.1,"aqi":67,"pm10":24.8,"pm2_5":19.7,"mosquito_risk":3,"arthritis_risk":5,"migraine_risk":4,"frizz_risk":1,"updated_at":"2026-04-09T19:18:33.968091+05:30"},{"city":"Kolkata","state":"West Bengal","latitude":22.5726,"longitude":88.3639,"temp":25.2,"humidity":80,"rain":0.0,"pressure":1008.2,"uv_index":8.45,"wind_gusts":14.4,"aqi":159,"pm10":65.9,"pm2_5":47.8,"mosquito_risk":7,"arthritis_risk":0,"migraine_risk":4,"frizz_risk":1,"updated_at":"2026-04-09T19:18:33.968100+05:30"},{"city":"Pune","state":"Maharashtra","latitude":18.5204,"longitude":73.8567,"temp":28.8,"humidity":49,"rain":0.0,"pressure":949.8,"uv_index":8.5,"wind_gusts":36.4,"aqi":84,"pm10":107.3,"pm2_5":37.5,"mosquito_risk":4,"arthritis_risk":5,"migraine_risk":7,"frizz_risk":1,"updated_at":"2026-04-09T19:18:33.968113+05:30"},{"city":"Ahmedabad","state":"Gujarat","latitude":23.0225,"longitude":72.5714,"temp":33.5,"humidity":29,"rain":0.0,"pressure":1003.7,"uv_index":8.0,"wind_gusts":16.9,"aqi":132,"pm10":61.2,"pm2_5":25.3,"mosquito_risk":0,"arthritis_risk":5,"migraine_risk":4,"frizz_risk":0,"updated_at":"2026-04-09T19:18:33.968124+05:30"},{"city":"Jaipur","state":"Rajasthan","latitude":26.9124,"longitude":75.7873,"temp":27.0,"humidity":30,"rain":0.0,"pressure":963.7,"uv_index":7.75,"wind_gusts":27.0,"aqi":145,"pm10":150.4,"pm2_5":28.1,"mosquito_risk":4,"arthritis_risk":5,"migraine_risk":7,"frizz_risk":0,"updated_at":"2026-04-09T19:18:33.968132+05:30"},{"city":"Lucknow","state":"Uttar Pradesh","latitude":26.8467,"longitude":80.9462,"temp":26.7,"humidity":36,"rain":0.0,"pressure":997.0,"uv_index":7.55,"wind_gusts":37.1,"aqi":124,"pm10":117.1,"pm2_5":29.3,"mosquito_risk":4,"arthritis_risk":5,"migraine_risk":7,"frizz_risk":0,"updated_at":"2026-04-09T19:18:33.968141+05:30"},{"city":"Kanpur","state":"Uttar Pradesh","latitude":26.4499,"longitude":80.3319,"temp":25.6,"humidity":44,"rain":0.0,"pressure":995.6,"uv_index":7.6,"wind_gusts":31.7,"aqi":137,"pm10":363.2,"pm2_5":52.5,"mosquito_risk":4,"arthritis_risk":5,"migraine_risk":7,"frizz_risk":0,"updated_at":"2026-04-09T19:18:33.968149+05:30"},{"city":"Chandigarh","state":"Chandigarh","latitude":30.7333,"longitude":76.7794,"temp":22.0,"humidity":49,"rain":0.0,"pressure":974.4,"uv_index":7.05,"wind_gusts":25.6,"aqi":134,"pm10":33.2,"pm2_5":24.6,"mosquito_risk":0,"arthritis_risk":5,"migraine_risk":7,"frizz_risk":0,"updated_at":"2026-04-09T19:18:33.968157+05:30"},{"city":"Srinagar","state":"Jammu and Kashmir","latitude":34.0837,"longitude":74.7973,"temp":10.6,"humidity":75,"rain":0.0,"pressure":843.1,"uv_index":7.9,"wind_gusts":22.0,"aqi":115,"pm10":13.3,"pm2_5":10.4,"mosquito_risk":3,"arthritis_risk":5,"migraine_risk":7,"frizz_risk":0,"updated_at":"2026-04-09T19:18:33.968165+05:30"},{"city":"Jammu","state":"Jammu and Kashmir","latitude":32.7266,"longitude":74.857,"temp":22.4,"humidity":55,"rain":0.0,"pressure":979.5,"uv_index":7.65,"wind_gusts":27.4,"aqi":109,"pm10":30.0,"pm2_5":17.9,"mosquito_risk":0,"arthritis_risk":5,"migraine_risk":7,"frizz_risk":0,"updated_at":"2026-04-09T19:18:33.968173+05:30"},{"city":"Amritsar","state":"Punjab","latitude":31.634,"longitude":74.8723,"temp":21.7,"humidity":58,"rain":0.0,"pressure":987.6,"uv_index":7.6,"wind_gusts":18.0,"aqi":114,"pm10":32.0,"pm2_5":22.5,"mosquito_risk":0,"arthritis_risk":5,"migraine_risk":7,"frizz_risk":0,"updated_at":"2026-04-09T19:18:33.968180+05:30"},{"city":"Ludhiana","state":"Punjab","latitude":30.901,"longitude":75.8573,"temp":23.5,"humidity":44,"rain":0.0,"pressure":985.0,"uv_index":7.25,"wind_gusts":22.0,"aqi":116,"pm10":37.4,"pm2_5":22.3,"mosquito_risk":0,"arthritis_risk":5,"migraine_risk":7,"frizz_risk":0,"updated_at":"2026-04-09T19:18:33.968187+05:30"},{"city":"Jalandhar","state":"Punjab","latitude":31.326,"longitude":75.5762,"temp":23.1,"humidity":47,"rain":0.0,"pressure":986.5,"uv_index":7.4,"wind_gusts":21.2,"aqi":108,"pm10":40.0,"pm2_5":20.4,"mosquito_risk":0,"arthritis_risk":5,"migraine_risk":7,"frizz_risk":0,"updated_at":"2026-04-09T19:18:33.968197+05:30"},{"city":"Dehradun","state":"Uttarakhand","latitude":30.6284,"longitude":78.0322,"temp":11.8,"humidity":74,"rain":0.0,"pressure":831.1,"uv_index":7.3,"wind_gusts":22.3,"aqi":122,"pm10":28.5,"pm2_5":16.6,"mosquito_risk":3,"arthritis_risk":5,"migraine_risk":7,"frizz_risk":0,"updated_at":"2026-04-09T19:18:33.968205+05:30"},{"city":"Shimla","state":"Himachal Pradesh","latitude":31.1048,"longitude":77.1734,"temp":9.4,"humidity":73,"rain":0.0,"pressure":784.7,"uv_index":7.4,"wind_gusts":27.4,"aqi":132,"pm10":40.6,"pm2_5":28.3,"mosquito_risk":3,"arthritis_risk":5,"migraine_risk":7,"frizz_risk":0,"updated_at":"2026-04-09T19:18:33.968212+05:30"},{"city":"Manali","state":"Himachal Pradesh","latitude":32.2396,"longitude":77.1887,"temp":10.9,"humidity":80,"rain":0.0,"pressure":819.3,"uv_index":9.7,"wind_gusts":27.7,"aqi":152,"pm10":10.5,"pm2_5":6.9,"mosquito_risk":3,"arthritis_risk":5,"migraine_risk":7,"frizz_risk":0,"updated_at":"2026-04-09T19:18:33.968220+05:30"},{"city":"Gurgaon","state":"Haryana","latitude":28.4595,"longitude":77.0266,"temp":24.0,"humidity":52,"rain":0.0,"pressure":986.1,"uv_index":7.15,"wind_gusts":20.5,"aqi":170,"pm10":864.3,"pm2_5":112.0,"mosquito_risk":0,"arthritis_risk":5,"migraine_risk":7,"frizz_risk":0,"updated_at":"2026-04-09T19:18:33.968227+05:30"},{"city":"Noida","state":"Uttar Pradesh","latitude":28.5355,"longitude":77.391,"temp":25.1,"humidity":47,"rain":0.0,"pressure":989.1,"uv_index":7.1,"wind_gusts":25.6,"aqi":170,"pm10":864.3,"pm2_5":112.0,"mosquito_risk":4,"arthritis_risk":5,"migraine_risk":7,"frizz_risk":0,"updated_at":"2026-04-09T19:18:33.968234+05:30"},{"city":"Ghaziabad","state":"Uttar Pradesh","latitude":28.6692,"longitude":77.4538,"temp":23.8,"humidity":51,"rain":0.0,"pressure":987.3,"uv_index":7.05,"wind_gusts":26.3,"aqi":155,"pm10":190.9,"pm2_5":46.4,"mosquito_risk":0,"arthritis_risk":5,"migraine_risk":7,"frizz_risk":0,"updated_at":"2026-04-09T19:18:33.968241+05:30"},{"city":"Faridabad","state":"Haryana","latitude":28.4089,"longitude":77.3178,"temp":24.6,"humidity":48,"rain":0.0,"pressure":988.2,"uv_index":7.15,"wind_gusts":22.0,"aqi":170,"pm10":864.3,"pm2_5":112.0,"mosquito_risk":0,"arthritis_risk":5,"migraine_risk":7,"frizz_risk":0,"updated_at":"2026-04-09T19:18:33.968247+05:30"},{"city":"Meerut","state":"Uttar Pradesh","latitude":28.9845,"longitude":77.7064,"temp":23.0,"humidity":53,"rain":0.0,"pressure":986.3,"uv_index":6.95,"wind_gusts":29.9,"aqi":155,"pm10":190.9,"pm2_5":46.4,"mosquito_risk":0,"arthritis_risk":5,"migraine_risk":7,"frizz_risk":0,"updated_at":"2026-04-09T19:18:33.968253+05:30"},{"city":"Agra","state":"Uttar Pradesh","latitude":27.1767,"longitude":78.0081,"temp":25.7,"humidity":47,"rain":0.0,"pressure":992.0,"uv_index":7.45,"wind_gusts":19.8,"aqi":606,"pm10":508.5,"pm2_5":69.2,"mosquito_risk":4,"arthritis_risk":5,"migraine_risk":7,"frizz_risk":0,"updated_at":"2026-04-09T19:18:33.968261+05:30"},{"city":"Varanasi","state":"Uttar Pradesh","latitude":25.3176,"longitude":82.9739,"temp":26.4,"humidity":38,"rain":0.0,"pressure":1000.6,"uv_index":8.15,"wind_gusts":36.0,"aqi":147,"pm10":57.9,"pm2_5":26.5,"mosquito_risk":4,"arthritis_risk":5,"migraine_risk":4,"frizz_risk":0,"updated_at":"2026-04-09T19:18:33.968275+05:30"},{"city":"Prayagraj","state":"Uttar Pradesh","latitude":25.4358,"longitude":81.8463,"temp":26.7,"humidity":42,"rain":0.0,"pressure":999.6,"uv_index":8.05,"wind_gusts":36.4,"aqi":137,"pm10":66.4,"pm2_5":24.3,"mosquito_risk":4,"arthritis_risk":5,"migraine_risk":7,"frizz_risk":0,"updated_at":"2026-04-09T19:18:33.968282+05:30"},{"city":"Gorakhpur","state":"Uttar Pradesh","latitude":26.7606,"longitude":83.3732,"temp":26.5,"humidity":31,"rain":0.0,"pressure":999.8,"uv_index":7.95,"wind_gusts":29.5,"aqi":146,"pm10":30.2,"pm2_5":17.8,"mosquito_risk":4,"arthritis_risk":5,"migraine_risk":7,"frizz_risk":0,"updated_at":"2026-04-09T19:18:33.968289+05:30"},{"city":"Bareilly","state":"Uttar Pradesh","latitude":28.367,"longitude":79.4304,"temp":23.4,"humidity":48,"rain":0.0,"pressure":991.0,"uv_index":7.35,"wind_gusts":33.5,"aqi":120,"pm10":26.2,"pm2_5":17.2,"mosquito_risk":0,"arthritis_risk":5,"migraine_risk":7,"frizz_risk":0,"updated_at":"2026-04-09T19:18:33.968295+05:30"},{"city":"Aligarh","state":"Uttar Pradesh","latitude":27.8974,"longitude":78.088,"temp":24.4,"humidity":48,"rain":0.0,"pressure":989.9,"uv_index":7.25,"wind_gusts":28.4,"aqi":140,"pm10":438.7,"pm2_5":68.0,"mosquito_risk":0,"arthritis_risk":5,"migraine_risk":7,"frizz_risk":0,"updated_at":"2026-04-09T19:18:33.968302+05:30"},{"city":"Moradabad","state":"Uttar Pradesh","latitude":28.8386,"longitude":78.7733,"temp":22.4,"humidity":52,"rain":0.0,"pressure":988.1,"uv_index":7.15,"wind_gusts":29.9,"aqi":117,"pm10":44.9,"pm2_5":23.4,"mosquito_risk":0,"arthritis_risk":5,"migraine_risk":7,"frizz_risk":0,"updated_at":"2026-04-09T19:18:33.968311+05:30"},{"city":"Saharanpur","state":"Uttar Pradesh","latitude":29.9637,"longitude":77.546,"temp":21.7,"humidity":54,"rain":0.0,"pressure":980.8,"uv_index":6.75,"wind_gusts":29.9,"aqi":123,"pm10":68.5,"pm2_5":25.3,"mosquito_risk":0,"arthritis_risk":5,"migraine_risk":7,"frizz_risk":0,"updated_at":"2026-04-09T19:18:33.968317+05:30"},{"city":"Jhansi","state":"Uttar Pradesh","latitude":25.4484,"longitude":78.5685,"temp":27.0,"humidity":41,"rain":0.0,"pressure":981.5,"uv_index":8.0,"wind_gusts":27.4,"aqi":118,"pm10":112.7,"pm2_5":31.8,"mosquito_risk":4,"arthritis_risk":5,"migraine_risk":7,"frizz_risk":0,"updated_at":"2026-04-09T19:18:37.299258+05:30"},{"city":"Surat","state":"Gujarat","latitude":21.1702,"longitude":72.8311,"temp":27.2,"humidity":61,"rain":0.0,"pressure":1008.7,"uv_index":7.7,"wind_gusts":28.1,"aqi":91,"pm10":108.7,"pm2_5":43.2,"mosquito_risk":7,"arthritis_risk":0,"migraine_risk":4,"frizz_risk":1,"updated_at":"2026-04-09T19:18:37.299294+05:30"},{"city":"Vadodara","state":"Gujarat","latitude":22.3072,"longitude":73.1812,"temp":31.3,"humidity":48,"rain":0.0,"pressure":1006.0,"uv_index":8.0,"wind_gusts":20.5,"aqi":119,"pm10":42.8,"pm2_5":24.4,"mosquito_risk":0,"arthritis_risk":5,"migraine_risk":4,"frizz_risk":1,"updated_at":"2026-04-09T19:18:37.299305+05:30"},{"city":"Rajkot","state":"Gujarat","latitude":22.3039,"longitude":70.8022,"temp":33.1,"humidity":37,"rain":0.0,"pressure":995.3,"uv_index":7.7,"wind_gusts":21.2,"aqi":112,"pm10":55.5,"pm2_5":20.3,"mosquito_risk":0,"arthritis_risk":5,"migraine_risk":7,"frizz_risk":1,"updated_at":"2026-04-09T19:18:37.299313+05:30"},{"city":"Thane","state":"Maharashtra","latitude":19.2183,"longitude":72.9781,"temp":27.7,"humidity":75,"rain":0.0,"pressure":1009.3,"uv_index":7.95,"wind_gusts":33.8,"aqi":82,"pm10":131.8,"pm2_5":31.5,"mosquito_risk":7,"arthritis_risk":0,"migraine_risk":4,"frizz_risk":1,"updated_at":"2026-04-09T19:18:37.299321+05:30"},{"city":"Nagpur","state":"Maharashtra","latitude":21.1458,"longitude":79.0882,"temp":29.5,"humidity":56,"rain":0.0,"pressure":973.7,"uv_index":8.75,"wind_gusts":20.5,"aqi":125,"pm10":38.2,"pm2_5":18.9,"mosquito_risk":4,"arthritis_risk":5,"migraine_risk":7,"frizz_risk":1,"updated_at":"2026-04-09T19:18:37.299328+05:30"},{"city":"Nashik","state":"Maharashtra","latitude":19.9975,"longitude":73.7898,"temp":27.7,"humidity":41,"rain":0.0,"pressure":947.4,"uv_index":8.2,"wind_gusts":27.0,"aqi":68,"pm10":88.5,"pm2_5":24.3,"mosquito_risk":4,"arthritis_risk":5,"migraine_risk":7,"frizz_risk":0,"updated_at":"2026-04-09T19:18:37.299335+05:30"},{"city":"Aurangabad","state":"Maharashtra","latitude":19.8762,"longitude":75.3433,"temp":30.7,"humidity":33,"rain":0.0,"pressure":945.4,"uv_index":8.9,"wind_gusts":29.2,"aqi":74,"pm10":45.3,"pm2_5":16.9,"mosquito_risk":0,"arthritis_risk":5,"migraine_risk":7,"frizz_risk":0,"updated_at":"2026-04-09T19:18:37.299342+05:30"},{"city":"Solapur","state":"Maharashtra","latitude":17.6599,"longitude":75.9064,"temp":34.1,"humidity":24,"rain":0.0,"pressure":956.9,"uv_index":8.95,"wind_gusts":23.8,"aqi":77,"pm10":101.7,"pm2_5":31.4,"mosquito_risk":0,"arthritis_risk":5,"migraine_risk":7,"frizz_risk":0,"updated_at":"2026-04-09T19:18:37.299350+05:30"},{"city":"Kolhapur","state":"Maharashtra","latitude":16.705,"longitude":74.2433,"temp":26.2,"humidity":68,"rain":0.0,"pressure":948.9,"uv_index":9.0,"wind_gusts":38.5,"aqi":81,"pm10":69.8,"pm2_5":26.5,"mosquito_risk":7,"arthritis_risk":5,"migraine_risk":7,"frizz_risk":1,"updated_at":"2026-04-09T19:18:37.299357+05:30"},{"city":"Goa","state":"Goa","latitude":15.2993,"longitude":74.124,"temp":28.7,"humidity":75,"rain":0.0,"pressure":998.9,"uv_index":8.95,"wind_gusts":36.0,"aqi":71,"pm10":58.6,"pm2_5":16.8,"mosquito_risk":7,"arthritis_risk":5,"migraine_risk":7,"frizz_risk":1,"updated_at":"2026-04-09T19:18:37.299364+05:30"},{"city":"Jodhpur","state":"Rajasthan","latitude":26.2389,"longitude":73.0243,"temp":28.7,"humidity":23,"rain":0.0,"pressure":986.9,"uv_index":8.0,"wind_gusts":28.4,"aqi":102,"pm10":99.4,"pm2_5":15.7,"mosquito_risk":4,"arthritis_risk":5,"migraine_risk":7,"frizz_risk":0,"updated_at":"2026-04-09T19:18:37.299371+05:30"},{"city":"Udaipur","state":"Rajasthan","latitude":24.5854,"longitude":73.7125,"temp":26.6,"humidity":18,"rain":0.0,"pressure":950.1,"uv_index":8.5,"wind_gusts":36.4,"aqi":113,"pm10":60.3,"pm2_5":14.2,"mosquito_risk":4,"arthritis_risk":5,"migraine_risk":7,"frizz_risk":0,"updated_at":"2026-04-09T19:18:37.299378+05:30"},{"city":"Kota","state":"Rajasthan","latitude":25.2138,"longitude":75.8648,"temp":28.2,"humidity":37,"rain":0.0,"pressure":981.8,"uv_index":8.0,"wind_gusts":24.8,"aqi":130,"pm10":76.1,"pm2_5":25.5,"mosquito_risk":4,"arthritis_risk":5,"migraine_risk":7,"frizz_risk":0,"updated_at":"2026-04-09T19:18:37.299384+05:30"},{"city":"Bikaner","state":"Rajasthan","latitude":28.0229,"longitude":73.3119,"temp":29.2,"humidity":21,"rain":0.0,"pressure":986.9,"uv_index":7.8,"wind_gusts":21.6,"aqi":114,"pm10":66.1,"pm2_5":16.1,"mosquito_risk":4,"arthritis_risk":5,"migraine_risk":7,"frizz_risk":0,"updated_at":"2026-04-09T19:18:37.299391+05:30"},{"city":"Ajmer","state":"Rajasthan","latitude":26.4499,"longitude":74.6399,"temp":26.7,"humidity":26,"rain":0.0,"pressure":958.4,"uv_index":7.95,"wind_gusts":28.8,"aqi":117,"pm10":39.9,"pm2_5":12.8,"mosquito_risk":4,"arthritis_risk":5,"migraine_risk":7,"frizz_risk":0,"updated_at":"2026-04-09T19:18:37.299396+05:30"},{"city":"Gwalior","state":"Madhya Pradesh","latitude":26.2183,"longitude":78.1828,"temp":27.0,"humidity":47,"rain":0.0,"pressure":987.2,"uv_index":7.7,"wind_gusts":28.8,"aqi":111,"pm10":95.9,"pm2_5":26.8,"mosquito_risk":4,"arthritis_risk":5,"migraine_risk":7,"frizz_risk":0,"updated_at":"2026-04-09T19:18:37.299402+05:30"},{"city":"Indore","state":"Madhya Pradesh","latitude":22.7196,"longitude":75.8577,"temp":28.7,"humidity":37,"rain":0.0,"pressure":950.2,"uv_index":8.4,"wind_gusts":22.7,"aqi":110,"pm10":35.9,"pm2_5":18.7,"mosquito_risk":4,"arthritis_risk":5,"migraine_risk":7,"frizz_risk":0,"updated_at":"2026-04-09T19:18:37.299408+05:30"},{"city":"Bhopal","state":"Madhya Pradesh","latitude":23.2599,"longitude":77.4126,"temp":29.7,"humidity":26,"rain":0.0,"pressure":955.9,"uv_index":8.4,"wind_gusts":26.6,"aqi":110,"pm10":54.8,"pm2_5":21.1,"mosquito_risk":4,"arthritis_risk":5,"migraine_risk":7,"frizz_risk":0,"updated_at":"2026-04-09T19:18:37.299414+05:30"},{"city":"Jabalpur","state":"Madhya Pradesh","latitude":23.1815,"longitude":79.9864,"temp":29.1,"humidity":35,"rain":0.0,"pressure":963.6,"uv_index":8.55,"wind_gusts":27.0,"aqi":119,"pm10":58.6,"pm2_5":26.3,"mosquito_risk":4,"arthritis_risk":5,"migraine_risk":7,"frizz_risk":0,"updated_at":"2026-04-09T19:18:37.299420+05:30"},{"city":"Ujjain","state":"Madhya Pradesh","latitude":23.1765,"longitude":75.7885,"temp":28.5,"humidity":30,"rain":0.0,"pressure":956.2,"uv_index":8.35,"wind_gusts":22.0,"aqi":96,"pm10":46.3,"pm2_5":21.2,"mosquito_risk":4,"arthritis_risk":5,"migraine_risk":7,"frizz_risk":0,"updated_at":"2026-04-09T19:18:37.299426+05:30"},{"city":"Visakhapatnam","state":"Andhra Pradesh","latitude":17.6868,"longitude":83.2185,"temp":28.8,"humidity":81,"rain":0.0,"pressure":1004.4,"uv_index":9.1,"wind_gusts":43.2,"aqi":94,"pm10":33.1,"pm2_5":28.9,"mosquito_risk":7,"arthritis_risk":5,"migraine_risk":4,"frizz_risk":1,"updated_at":"2026-04-09T19:18:37.299433+05:30"},{"city":"Vijayawada","state":"Andhra Pradesh","latitude":16.5062,"longitude":80.648,"temp":32.7,"humidity":55,"rain":0.0,"pressure":1002.2,"uv_index":9.15,"wind_gusts":33.1,"aqi":94,"pm10":34.3,"pm2_5":31.3,"mosquito_risk":0,"arthritis_risk":5,"migraine_risk":4,"frizz_risk":1,"updated_at":"2026-04-09T19:18:37.299439+05:30"},{"city":"Guntur","state":"Andhra Pradesh","latitude":16.3067,"longitude":80.4365,"temp":30.9,"humidity":69,"rain":0.0,"pressure":1003.6,"uv_index":9.15,"wind_gusts":31.7,"aqi":119,"pm10":41.1,"pm2_5":35.6,"mosquito_risk":3,"arthritis_risk":5,"migraine_risk":4,"frizz_risk":1,"updated_at":"2026-04-09T19:18:37.299446+05:30"},{"city":"Nellore","state":"Andhra Pradesh","latitude":14.4426,"longitude":79.9865,"temp":29.9,"humidity":74,"rain":0.0,"pressure":1005.2,"uv_index":9.3,"wind_gusts":34.9,"aqi":119,"pm10":26.5,"pm2_5":22.0,"mosquito_risk":7,"arthritis_risk":5,"migraine_risk":4,"frizz_risk":1,"updated_at":"2026-04-09T19:18:37.299453+05:30"},{"city":"Kurnool","state":"Andhra Pradesh","latitude":15.8281,"longitude":78.0373,"temp":35.6,"humidity":24,"rain":0.0,"pressure":975.7,"uv_index":9.2,"wind_gusts":27.7,"aqi":135,"pm10":42.4,"pm2_5":22.0,"mosquito_risk":0,"arthritis_risk":5,"migraine_risk":10,"frizz_risk":0,"updated_at":"2026-04-09T19:18:37.299460+05:30"},{"city":"Kakinada","state":"Andhra Pradesh","latitude":16.9891,"longitude":82.2475,"temp":30.2,"humidity":71,"rain":0.0,"pressure":1007.8,"uv_index":9.1,"wind_gusts":28.4,"aqi":77,"pm10":26.1,"pm2_5":20.2,"mosquito_risk":3,"arthritis_risk":5,"migraine_risk":4,"frizz_risk":1,"updated_at":"2026-04-09T19:18:37.299467+05:30"},{"city":"Tirupati","state":"Andhra Pradesh","latitude":13.6288,"longitude":79.4192,"temp":32.5,"humidity":53,"rain":0.0,"pressure":990.7,"uv_index":9.4,"wind_gusts":29.2,"aqi":129,"pm10":34.6,"pm2_5":32.1,"mosquito_risk":0,"arthritis_risk":5,"migraine_risk":7,"frizz_risk":1,"updated_at":"2026-04-09T19:18:37.299474+05:30"},{"city":"Warangal","state":"Telangana","latitude":17.9689,"longitude":79.5941,"temp":32.6,"humidity":53,"rain":0.0,"pressure":978.6,"uv_index":9.0,"wind_gusts":24.5,"aqi":137,"pm10":56.8,"pm2_5":35.3,"mosquito_risk":0,"arthritis_risk":5,"migraine_risk":7,"frizz_risk":1,"updated_at":"2026-04-09T19:18:37.299480+05:30"},{"city":"Nizamabad","state":"Telangana","latitude":18.6725,"longitude":78.0941,"temp":30.8,"humidity":37,"rain":0.0,"pressure":965.4,"uv_index":8.95,"wind_gusts":26.3,"aqi":89,"pm10":84.1,"pm2_5":34.5,"mosquito_risk":0,"arthritis_risk":5,"migraine_risk":7,"frizz_risk":0,"updated_at":"2026-04-09T19:18:37.299486+05:30"},{"city":"Mysore","state":"Karnataka","latitude":12.2958,"longitude":76.6396,"temp":29.3,"humidity":50,"rain":0.0,"pressure":928.5,"uv_index":9.5,"wind_gusts":41.8,"aqi":128,"pm10":29.3,"pm2_5":19.3,"mosquito_risk":4,"arthritis_risk":5,"migraine_risk":7,"frizz_risk":1,"updated_at":"2026-04-09T19:18:37.299492+05:30"},{"city":"Mangalore","state":"Karnataka","latitude":12.9141,"longitude":74.856,"temp":29.6,"humidity":78,"rain":0.0,"pressure":1007.1,"uv_index":9.15,"wind_gusts":33.5,"aqi":75,"pm10":56.7,"pm2_5":18.9,"mosquito_risk":7,"arthritis_risk":5,"migraine_risk":4,"frizz_risk":1,"updated_at":"2026-04-09T19:18:37.299498+05:30"},{"city":"Hubli-Dharwad","state":"Karnataka","latitude":15.3647,"longitude":75.124,"temp":27.9,"humidity":64,"rain":0.0,"pressure":941.4,"uv_index":9.2,"wind_gusts":38.9,"aqi":69,"pm10":43.1,"pm2_5":18.6,"mosquito_risk":7,"arthritis_risk":5,"migraine_risk":7,"frizz_risk":1,"updated_at":"2026-04-09T19:18:37.299505+05:30"},{"city":"Belgaum","state":"Karnataka","latitude":15.8497,"longitude":74.4977,"temp":25.9,"humidity":68,"rain":0.0,"pressure":926.8,"uv_index":9.2,"wind_gusts":38.2,"aqi":75,"pm10":49.1,"pm2_5":17.9,"mosquito_risk":7,"arthritis_risk":5,"migraine_risk":7,"frizz_risk":1,"updated_at":"2026-04-09T19:18:40.628965+05:30"},{"city":"Coimbatore","state":"Tamil Nadu","latitude":11.0168,"longitude":76.9558,"temp":27.8,"humidity":68,"rain":0.0,"pressure":961.7,"uv_index":9.45,"wind_gusts":42.1,"aqi":67,"pm10":18.1,"pm2_5":12.7,"mosquito_risk":7,"arthritis_risk":5,"migraine_risk":7,"frizz_risk":1,"updated_at":"2026-04-09T19:18:40.629020+05:30"},{"city":"Madurai","state":"Tamil Nadu","latitude":9.9252,"longitude":78.1198,"temp":32.6,"humidity":52,"rain":0.0,"pressure":992.6,"uv_index":9.4,"wind_gusts":23.8,"aqi":132,"pm10":31.2,"pm2_5":28.4,"mosquito_risk":0,"arthritis_risk":5,"migraine_risk":7,"frizz_risk":1,"updated_at":"2026-04-09T19:18:40.629031+05:30"},{"city":"Trichy","state":"Tamil Nadu","latitude":10.7905,"longitude":78.7047,"temp":32.5,"humidity":57,"rain":0.0,"pressure":998.7,"uv_index":9.35,"wind_gusts":22.7,"aqi":98,"pm10":24.8,"pm2_5":22.6,"mosquito_risk":0,"arthritis_risk":5,"migraine_risk":7,"frizz_risk":1,"updated_at":"2026-04-09T19:18:40.629040+05:30"},{"city":"Salem","state":"Tamil Nadu","latitude":11.6643,"longitude":78.146,"temp":33.5,"humidity":46,"rain":0.0,"pressure":976.2,"uv_index":9.15,"wind_gusts":36.4,"aqi":159,"pm10":24.2,"pm2_5":21.3,"mosquito_risk":0,"arthritis_risk":5,"migraine_risk":7,"frizz_risk":1,"updated_at":"2026-04-09T19:18:40.629048+05:30"},{"city":"Tirunelveli","state":"Tamil Nadu","latitude":8.7139,"longitude":77.7567,"temp":28.2,"humidity":73,"rain":0.0,"pressure":1003.3,"uv_index":9.3,"wind_gusts":19.8,"aqi":106,"pm10":28.1,"pm2_5":24.4,"mosquito_risk":7,"arthritis_risk":5,"migraine_risk":4,"frizz_risk":1,"updated_at":"2026-04-09T19:18:40.629057+05:30"},{"city":"Vellore","state":"Tamil Nadu","latitude":12.9165,"longitude":79.1325,"temp":32.2,"humidity":49,"rain":0.0,"pressure":983.9,"uv_index":9.4,"wind_gusts":20.2,"aqi":119,"pm10":31.5,"pm2_5":29.3,"mosquito_risk":0,"arthritis_risk":5,"migraine_risk":7,"frizz_risk":1,"updated_at":"2026-04-09T19:18:40.629064+05:30"},{"city":"Erode","state":"Tamil Nadu","latitude":11.341,"longitude":77.7172,"temp":34.7,"humidity":41,"rain":0.0,"pressure":987.5,"uv_index":8.85,"wind_gusts":20.2,"aqi":121,"pm10":18.0,"pm2_5":15.8,"mosquito_risk":0,"arthritis_risk":5,"migraine_risk":7,"frizz_risk":1,"updated_at":"2026-04-09T19:18:40.629071+05:30"},{"city":"Kochi","state":"Kerala","latitude":9.9312,"longitude":76.2673,"temp":29.7,"humidity":76,"rain":0.0,"pressure":1008.6,"uv_index":8.4,"wind_gusts":25.6,"aqi":65,"pm10":32.7,"pm2_5":18.5,"mosquito_risk":7,"arthritis_risk":0,"migraine_risk":4,"frizz_risk":1,"updated_at":"2026-04-09T19:18:40.629079+05:30"},{"city":"Thiruvananthapuram","state":"Kerala","latitude":8.5241,"longitude":76.9366,"temp":29.3,"humidity":79,"rain":0.0,"pressure":1007.9,"uv_index":9.15,"wind_gusts":34.9,"aqi":52,"pm10":28.4,"pm2_5":16.2,"mosquito_risk":7,"arthritis_risk":5,"migraine_risk":4,"frizz_risk":1,"updated_at":"2026-04-09T19:18:40.629086+05:30"},{"city":"Kozhikode","state":"Kerala","latitude":11.2588,"longitude":75.7804,"temp":29.7,"humidity":77,"rain":0.0,"pressure":1007.8,"uv_index":9.15,"wind_gusts":27.4,"aqi":68,"pm10":45.1,"pm2_5":16.7,"mosquito_risk":7,"arthritis_risk":5,"migraine_risk":4,"frizz_risk":1,"updated_at":"2026-04-09T19:18:40.629094+05:30"},{"city":"Thrissur","state":"Kerala","latitude":10.5276,"longitude":76.2144,"temp":29.4,"humidity":76,"rain":0.0,"pressure":1007.0,"uv_index":8.6,"wind_gusts":30.6,"aqi":64,"pm10":32.8,"pm2_5":17.2,"mosquito_risk":7,"arthritis_risk":5,"migraine_risk":4,"frizz_risk":1,"updated_at":"2026-04-09T19:18:40.629101+05:30"},{"city":"Kannur","state":"Kerala","latitude":11.8745,"longitude":75.3704,"temp":29.6,"humidity":76,"rain":0.0,"pressure":1007.3,"uv_index":9.15,"wind_gusts":32.8,"aqi":73,"pm10":49.8,"pm2_5":19.2,"mosquito_risk":7,"arthritis_risk":5,"migraine_risk":4,"frizz_risk":1,"updated_at":"2026-04-09T19:18:40.629108+05:30"},{"city":"Patna","state":"Bihar","latitude":25.5941,"longitude":85.1376,"temp":28.0,"humidity":41,"rain":0.0,"pressure":1002.6,"uv_index":8.3,"wind_gusts":27.0,"aqi":150,"pm10":41.9,"pm2_5":26.3,"mosquito_risk":4,"arthritis_risk":5,"migraine_risk":4,"frizz_risk":0,"updated_at":"2026-04-09T19:18:40.629116+05:30"},{"city":"Gaya","state":"Bihar","latitude":24.7914,"longitude":85.0002,"temp":26.7,"humidity":42,"rain":0.0,"pressure":996.4,"uv_index":8.4,"wind_gusts":24.1,"aqi":153,"pm10":43.5,"pm2_5":23.7,"mosquito_risk":4,"arthritis_risk":5,"migraine_risk":7,"frizz_risk":0,"updated_at":"2026-04-09T19:18:40.629123+05:30"},{"city":"Muzaffarpur","state":"Bihar","latitude":26.1209,"longitude":85.3647,"temp":27.0,"humidity":56,"rain":0.0,"pressure":1002.5,"uv_index":8.15,"wind_gusts":19.4,"aqi":141,"pm10":44.5,"pm2_5":28.8,"mosquito_risk":4,"arthritis_risk":5,"migraine_risk":4,"frizz_risk":1,"updated_at":"2026-04-09T19:18:40.629129+05:30"},{"city":"Bhagalpur","state":"Bihar","latitude":25.2425,"longitude":87.0117,"temp":25.7,"humidity":66,"rain":0.0,"pressure":1003.7,"uv_index":7.9,"wind_gusts":23.4,"aqi":147,"pm10":53.8,"pm2_5":37.3,"mosquito_risk":7,"arthritis_risk":5,"migraine_risk":4,"frizz_risk":1,"updated_at":"2026-04-09T19:18:40.629136+05:30"},{"city":"Ranchi","state":"Jharkhand","latitude":23.3441,"longitude":85.3096,"temp":25.7,"humidity":40,"rain":0.0,"pressure":940.1,"uv_index":9.0,"wind_gusts":31.0,"aqi":111,"pm10":42.4,"pm2_5":20.7,"mosquito_risk":4,"arthritis_risk":5,"migraine_risk":7,"frizz_risk":0,"updated_at":"2026-04-09T19:18:40.629142+05:30"},{"city":"Jamshedpur","state":"Jharkhand","latitude":22.8046,"longitude":86.2029,"temp":27.6,"humidity":63,"rain":0.0,"pressure":992.8,"uv_index":8.8,"wind_gusts":15.8,"aqi":136,"pm10":75.2,"pm2_5":38.8,"mosquito_risk":7,"arthritis_risk":5,"migraine_risk":7,"frizz_risk":1,"updated_at":"2026-04-09T19:18:40.629148+05:30"},{"city":"Dhanbad","state":"Jharkhand","latitude":23.7957,"longitude":86.4304,"temp":26.8,"humidity":55,"rain":0.0,"pressure":982.0,"uv_index":8.7,"wind_gusts":23.0,"aqi":144,"pm10":49.9,"pm2_5":32.2,"mosquito_risk":4,"arthritis_risk":5,"migraine_risk":7,"frizz_risk":1,"updated_at":"2026-04-09T19:18:40.629155+05:30"},{"city":"Bokaro","state":"Jharkhand","latitude":23.6693,"longitude":86.1511,"temp":26.3,"humidity":67,"rain":0.0,"pressure":986.3,"uv_index":8.7,"wind_gusts":23.8,"aqi":146,"pm10":53.8,"pm2_5":31.7,"mosquito_risk":7,"arthritis_risk":5,"migraine_risk":7,"frizz_risk":1,"updated_at":"2026-04-09T19:18:40.629162+05:30"},{"city":"Bhubaneswar","state":"Odisha","latitude":20.2961,"longitude":85.8245,"temp":26.5,"humidity":87,"rain":0.0,"pressure":1004.1,"uv_index":8.9,"wind_gusts":32.8,"aqi":106,"pm10":43.1,"pm2_5":36.1,"mosquito_risk":7,"arthritis_risk":5,"migraine_risk":4,"frizz_risk":1,"updated_at":"2026-04-09T19:18:40.629168+05:30"},{"city":"Cuttack","state":"Odisha","latitude":20.4625,"longitude":85.8828,"temp":27.3,"humidity":85,"rain":0.0,"pressure":1005.9,"uv_index":9.0,"wind_gusts":31.7,"aqi":106,"pm10":43.1,"pm2_5":36.1,"mosquito_risk":7,"arthritis_risk":5,"migraine_risk":4,"frizz_risk":1,"updated_at":"2026-04-09T19:18:40.629175+05:30"},{"city":"Rourkela","state":"Odisha","latitude":22.2604,"longitude":84.8536,"temp":28.6,"humidity":59,"rain":0.0,"pressure":986.4,"uv_index":8.75,"wind_gusts":19.1,"aqi":113,"pm10":63.8,"pm2_5":31.7,"mosquito_risk":4,"arthritis_risk":5,"migraine_risk":7,"frizz_risk":1,"updated_at":"2026-04-09T19:18:40.629182+05:30"},{"city":"Raipur","state":"Chhattisgarh","latitude":21.2514,"longitude":81.6296,"temp":33.0,"humidity":25,"rain":0.0,"pressure":975.0,"uv_index":8.8,"wind_gusts":27.4,"aqi":125,"pm10":90.1,"pm2_5":47.8,"mosquito_risk":0,"arthritis_risk":5,"migraine_risk":7,"frizz_risk":0,"updated_at":"2026-04-09T19:18:40.629188+05:30"},{"city":"Bhilai","state":"Chhattisgarh","latitude":21.1938,"longitude":81.3509,"temp":32.2,"humidity":28,"rain":0.0,"pressure":975.4,"uv_index":8.8,"wind_gusts":28.4,"aqi":117,"pm10":77.5,"pm2_5":39.7,"mosquito_risk":0,"arthritis_risk":5,"migraine_risk":7,"frizz_risk":0,"updated_at":"2026-04-09T19:18:40.629194+05:30"},{"city":"Guwahati","state":"Assam","latitude":26.1158,"longitude":91.7086,"temp":22.7,"humidity":86,"rain":0.0,"pressure":1004.4,"uv_index":8.05,"wind_gusts":24.8,"aqi":95,"pm10":35.2,"pm2_5":30.7,"mosquito_risk":3,"arthritis_risk":5,"migraine_risk":4,"frizz_risk":1,"updated_at":"2026-04-09T19:18:40.629200+05:30"},{"city":"Agartala","state":"Tripura","latitude":23.8315,"longitude":91.2868,"temp":23.2,"humidity":92,"rain":0.0,"pressure":1008.7,"uv_index":8.45,"wind_gusts":19.1,"aqi":126,"pm10":52.5,"pm2_5":50.8,"mosquito_risk":3,"arthritis_risk":0,"migraine_risk":4,"frizz_risk":1,"updated_at":"2026-04-09T19:18:40.629206+05:30"},{"city":"Shillong","state":"Meghalaya","latitude":25.5788,"longitude":91.8933,"temp":12.2,"humidity":93,"rain":0.0,"pressure":855.5,"uv_index":8.3,"wind_gusts":35.6,"aqi":92,"pm10":36.6,"pm2_5":31.1,"mosquito_risk":3,"arthritis_risk":10,"migraine_risk":7,"frizz_risk":0,"updated_at":"2026-04-09T19:18:40.629212+05:30"},{"city":"Imphal","state":"Manipur","latitude":24.817,"longitude":93.9368,"temp":16.7,"humidity":94,"rain":0.1,"pressure":924.0,"uv_index":7.55,"wind_gusts":47.9,"aqi":86,"pm10":40.9,"pm2_5":38.0,"mosquito_risk":6,"arthritis_risk":10,"migraine_risk":7,"frizz_risk":0,"updated_at":"2026-04-09T19:18:40.629220+05:30"},{"city":"Aizawl","state":"Mizoram","latitude":23.7271,"longitude":92.7176,"temp":17.7,"humidity":93,"rain":0.0,"pressure":893.6,"uv_index":6.4,"wind_gusts":47.5,"aqi":71,"pm10":28.3,"pm2_5":24.4,"mosquito_risk":3,"arthritis_risk":10,"migraine_risk":7,"frizz_risk":1,"updated_at":"2026-04-09T19:18:40.629226+05:30"},{"city":"Kohima","state":"Nagaland","latitude":25.6701,"longitude":94.1077,"temp":14.0,"humidity":82,"rain":0.0,"pressure":854.6,"uv_index":6.7,"wind_gusts":67.0,"aqi":79,"pm10":28.9,"pm2_5":23.8,"mosquito_risk":3,"arthritis_risk":10,"migraine_risk":7,"frizz_risk":0,"updated_at":"2026-04-09T19:18:40.629233+05:30"},{"city":"Gangtok","state":"Sikkim","latitude":27.3314,"longitude":88.6138,"temp":12.2,"humidity":86,"rain":0.0,"pressure":836.3,"uv_index":6.15,"wind_gusts":20.2,"aqi":107,"pm10":19.0,"pm2_5":16.8,"mosquito_risk":3,"arthritis_risk":10,"migraine_risk":7,"frizz_risk":0,"updated_at":"2026-04-09T19:18:40.629239+05:30"},{"city":"Siliguri","state":"West Bengal","latitude":26.7271,"longitude":88.3953,"temp":19.1,"humidity":87,"rain":0.0,"pressure":996.2,"uv_index":5.95,"wind_gusts":21.6,"aqi":115,"pm10":42.1,"pm2_5":36.2,"mosquito_risk":3,"arthritis_risk":10,"migraine_risk":3,"frizz_risk":1,"updated_at":"2026-04-09T19:18:43.959060+05:30"},{"city":"Durgapur","state":"West Bengal","latitude":23.5204,"longitude":87.3119,"temp":26.7,"humidity":66,"rain":0.0,"pressure":997.1,"uv_index":8.7,"wind_gusts":18.0,"aqi":133,"pm10":90.3,"pm2_5":55.5,"mosquito_risk":7,"arthritis_risk":5,"migraine_risk":7,"frizz_risk":1,"updated_at":"2026-04-09T19:18:43.959095+05:30"},{"city":"Asansol","state":"West Bengal","latitude":23.6739,"longitude":86.9524,"temp":27.3,"humidity":64,"rain":0.0,"pressure":995.6,"uv_index":8.7,"wind_gusts":18.4,"aqi":129,"pm10":62.2,"pm2_5":38.2,"mosquito_risk":7,"arthritis_risk":5,"migraine_risk":7,"frizz_risk":1,"updated_at":"2026-04-09T19:18:43.959105+05:30"},{"city":"Pondicherry","state":"Puducherry","latitude":11.9139,"longitude":79.8145,"temp":29.8,"humidity":79,"rain":0.0,"pressure":1007.8,"uv_index":9.3,"wind_gusts":27.7,"aqi":137,"pm10":27.0,"pm2_5":21.3,"mosquito_risk":7,"arthritis_risk":5,"migraine_risk":4,"frizz_risk":1,"updated_at":"2026-04-09T19:18:43.959112+05:30"},{"city":"Port Blair","state":"Andaman and Nicobar Islands","latitude":11.6234,"longitude":92.7265,"temp":28.7,"humidity":78,"rain":0.0,"pressure":1009.2,"uv_index":9.25,"wind_gusts":13.0,"aqi":35,"pm10":6.5,"pm2_5":5.1,"mosquito_risk":7,"arthritis_risk":0,"migraine_risk":4,"frizz_risk":1,"updated_at":"2026-04-09T19:18:43.959120+05:30"},{"city":"Haridwar","state":"Uttarakhand","latitude":29.9457,"longitude":78.1642,"temp":21.9,"humidity":52,"rain":0.0,"pressure":979.0,"uv_index":6.9,"wind_gusts":30.6,"aqi":126,"pm10":33.5,"pm2_5":18.2,"mosquito_risk":0,"arthritis_risk":5,"migraine_risk":7,"frizz_risk":0,"updated_at":"2026-04-09T19:18:43.959129+05:30"},{"city":"Rishikesh","state":"Uttarakhand","latitude":30.0869,"longitude":78.2676,"temp":20.3,"humidity":59,"rain":0.0,"pressure":971.4,"uv_index":6.95,"wind_gusts":28.8,"aqi":125,"pm10":27.0,"pm2_5":13.4,"mosquito_risk":0,"arthritis_risk":5,"migraine_risk":7,"frizz_risk":0,"updated_at":"2026-04-09T19:18:43.959137+05:30"},{"city":"Nainital","state":"Uttarakhand","latitude":29.3919,"longitude":79.4542,"temp":15.1,"humidity":56,"rain":0.0,"pressure":807.0,"uv_index":7.8,"wind_gusts":39.2,"aqi":112,"pm10":22.2,"pm2_5":12.3,"mosquito_risk":0,"arthritis_risk":5,"migraine_risk":7,"frizz_risk":0,"updated_at":"2026-04-09T19:18:43.959145+05:30"},{"city":"Mussoorie","state":"Uttarakhand","latitude":30.4599,"longitude":78.0664,"temp":12.2,"humidity":71,"rain":0.0,"pressure":803.2,"uv_index":6.85,"wind_gusts":26.6,"aqi":123,"pm10":25.9,"pm2_5":15.9,"mosquito_risk":3,"arthritis_risk":5,"migraine_risk":7,"frizz_risk":0,"updated_at":"2026-04-09T19:18:43.959153+05:30"},{"city":"Dharamshala","state":"Himachal Pradesh","latitude":32.219,"longitude":76.3234,"temp":14.9,"humidity":71,"rain":0.0,"pressure":871.7,"uv_index":7.5,"wind_gusts":23.4,"aqi":122,"pm10":19.2,"pm2_5":11.0,"mosquito_risk":3,"arthritis_risk":5,"migraine_risk":7,"frizz_risk":0,"updated_at":"2026-04-09T19:18:43.959160+05:30"},{"city":"Dalhousie","state":"Himachal Pradesh","latitude":32.5387,"longitude":75.971,"temp":12.8,"humidity":64,"rain":0.0,"pressure":805.4,"uv_index":7.65,"wind_gusts":18.7,"aqi":112,"pm10":28.1,"pm2_5":15.6,"mosquito_risk":3,"arthritis_risk":5,"migraine_risk":7,"frizz_risk":0,"updated_at":"2026-04-09T19:18:43.959168+05:30"},{"city":"Patiala","state":"Punjab","latitude":30.3398,"longitude":76.3869,"temp":23.0,"humidity":47,"rain":0.0,"pressure":984.0,"uv_index":6.9,"wind_gusts":27.0,"aqi":119,"pm10":508.5,"pm2_5":65.0,"mosquito_risk":0,"arthritis_risk":5,"migraine_risk":7,"frizz_risk":0,"updated_at":"2026-04-09T19:18:43.959176+05:30"},{"city":"Bhatinda","state":"Punjab","latitude":30.211,"longitude":74.9455,"temp":23.6,"humidity":47,"rain":0.0,"pressure":989.8,"uv_index":7.6,"wind_gusts":27.4,"aqi":135,"pm10":41.1,"pm2_5":22.2,"mosquito_risk":0,"arthritis_risk":5,"migraine_risk":7,"frizz_risk":0,"updated_at":"2026-04-09T19:18:43.959182+05:30"},{"city":"Rohtak","state":"Haryana","latitude":28.8955,"longitude":76.6066,"temp":23.5,"humidity":47,"rain":0.0,"pressure":986.6,"uv_index":7.05,"wind_gusts":32.0,"aqi":145,"pm10":441.4,"pm2_5":64.5,"mosquito_risk":0,"arthritis_risk":5,"migraine_risk":7,"frizz_risk":0,"updated_at":"2026-04-09T19:18:43.959189+05:30"},{"city":"Panipat","state":"Haryana","latitude":29.3909,"longitude":76.9635,"temp":22.8,"humidity":48,"rain":0.0,"pressure":985.4,"uv_index":6.9,"wind_gusts":29.9,"aqi":151,"pm10":901.5,"pm2_5":103.4,"mosquito_risk":0,"arthritis_risk":5,"migraine_risk":7,"frizz_risk":0,"updated_at":"2026-04-09T19:18:43.959195+05:30"},{"city":"Mathura","state":"Uttar Pradesh","latitude":27.4924,"longitude":77.6737,"temp":26.4,"humidity":45,"rain":0.0,"pressure":991.1,"uv_index":7.4,"wind_gusts":25.6,"aqi":383,"pm10":353.0,"pm2_5":55.9,"mosquito_risk":4,"arthritis_risk":5,"migraine_risk":7,"frizz_risk":0,"updated_at":"2026-04-09T19:18:43.959201+05:30"},{"city":"Vrindavan","state":"Uttar Pradesh","latitude":27.5823,"longitude":77.7027,"temp":24.8,"humidity":51,"rain":0.0,"pressure":991.5,"uv_index":7.35,"wind_gusts":27.0,"aqi":383,"pm10":353.0,"pm2_5":55.9,"mosquito_risk":0,"arthritis_risk":5,"migraine_risk":7,"frizz_risk":0,"updated_at":"2026-04-09T19:18:43.959208+05:30"},{"city":"Ayodhya","state":"Uttar Pradesh","latitude":26.7922,"longitude":82.1998,"temp":25.7,"humidity":33,"rain":0.0,"pressure":998.5,"uv_index":7.75,"wind_gusts":36.0,"aqi":113,"pm10":34.7,"pm2_5":19.0,"mosquito_risk":4,"arthritis_risk":5,"migraine_risk":7,"frizz_risk":0,"updated_at":"2026-04-09T19:18:43.959215+05:30"},{"city":"Ratlam","state":"Madhya Pradesh","latitude":23.3315,"longitude":75.0367,"temp":28.2,"humidity":41,"rain":0.0,"pressure":957.1,"uv_index":8.3,"wind_gusts":27.0,"aqi":93,"pm10":47.8,"pm2_5":19.5,"mosquito_risk":4,"arthritis_risk":5,"migraine_risk":7,"frizz_risk":0,"updated_at":"2026-04-09T19:18:43.959221+05:30"},{"city":"Sagar","state":"Madhya Pradesh","latitude":23.8388,"longitude":78.7378,"temp":28.7,"humidity":29,"rain":0.0,"pressure":952.6,"uv_index":8.4,"wind_gusts":25.9,"aqi":107,"pm10":69.8,"pm2_5":25.7,"mosquito_risk":4,"arthritis_risk":5,"migraine_risk":7,"frizz_risk":0,"updated_at":"2026-04-09T19:18:43.959227+05:30"},{"city":"Satna","state":"Madhya Pradesh","latitude":24.6005,"longitude":80.8322,"temp":28.0,"humidity":30,"rain":0.0,"pressure":974.6,"uv_index":8.4,"wind_gusts":26.6,"aqi":116,"pm10":80.3,"pm2_5":23.6,"mosquito_risk":4,"arthritis_risk":5,"migraine_risk":7,"frizz_risk":0,"updated_at":"2026-04-09T19:18:43.959234+05:30"},{"city":"Akola","state":"Maharashtra","latitude":20.7002,"longitude":77.0082,"temp":32.4,"humidity":37,"rain":0.0,"pressure":976.1,"uv_index":8.7,"wind_gusts":25.6,"aqi":92,"pm10":37.0,"pm2_5":18.3,"mosquito_risk":0,"arthritis_risk":5,"migraine_risk":7,"frizz_risk":0,"updated_at":"2026-04-09T19:18:43.959241+05:30"},{"city":"Amravati","state":"Maharashtra","latitude":20.9374,"longitude":77.7796,"temp":32.1,"humidity":32,"rain":0.0,"pressure":967.9,"uv_index":8.7,"wind_gusts":20.2,"aqi":104,"pm10":38.0,"pm2_5":19.3,"mosquito_risk":0,"arthritis_risk":5,"migraine_risk":7,"frizz_risk":0,"updated_at":"2026-04-09T19:18:43.959248+05:30"},{"city":"Latur","state":"Maharashtra","latitude":18.4088,"longitude":76.5604,"temp":29.4,"humidity":40,"rain":0.0,"pressure":940.4,"uv_index":8.95,"wind_gusts":28.4,"aqi":84,"pm10":97.3,"pm2_5":36.2,"mosquito_risk":4,"arthritis_risk":5,"migraine_risk":7,"frizz_risk":0,"updated_at":"2026-04-09T19:18:43.959255+05:30"},{"city":"Nanded","state":"Maharashtra","latitude":19.1383,"longitude":77.3091,"temp":31.4,"humidity":41,"rain":0.0,"pressure":969.3,"uv_index":8.85,"wind_gusts":22.3,"aqi":80,"pm10":97.1,"pm2_5":32.5,"mosquito_risk":0,"arthritis_risk":5,"migraine_risk":7,"frizz_risk":1,"updated_at":"2026-04-09T19:18:43.959261+05:30"},{"city":"Gulbarga","state":"Karnataka","latitude":17.3297,"longitude":76.8343,"temp":34.5,"humidity":22,"rain":0.0,"pressure":958.8,"uv_index":9.0,"wind_gusts":31.3,"aqi":95,"pm10":68.5,"pm2_5":24.7,"mosquito_risk":0,"arthritis_risk":5,"migraine_risk":7,"frizz_risk":0,"updated_at":"2026-04-09T19:18:43.959267+05:30"},{"city":"Bidar","state":"Karnataka","latitude":17.9104,"longitude":77.5199,"temp":31.5,"humidity":30,"rain":0.0,"pressure":936.3,"uv_index":9.0,"wind_gusts":32.4,"aqi":89,"pm10":63.1,"pm2_5":27.7,"mosquito_risk":0,"arthritis_risk":5,"migraine_risk":7,"frizz_risk":0,"updated_at":"2026-04-09T19:18:43.959273+05:30"},{"city":"Hospet","state":"Karnataka","latitude":15.2689,"longitude":76.3909,"temp":33.9,"humidity":32,"rain":0.0,"pressure":955.5,"uv_index":9.2,"wind_gusts":23.4,"aqi":85,"pm10":54.7,"pm2_5":22.9,"mosquito_risk":0,"arthritis_risk":5,"migraine_risk":7,"frizz_risk":0,"updated_at":"2026-04-09T19:18:43.959281+05:30"},{"city":"Tirupur","state":"Tamil Nadu","latitude":11.1085,"longitude":77.3411,"temp":31.1,"humidity":56,"rain":0.0,"pressure":974.7,"uv_index":9.3,"wind_gusts":34.2,"aqi":110,"pm10":17.1,"pm2_5":14.6,"mosquito_risk":0,"arthritis_risk":5,"migraine_risk":7,"frizz_risk":1,"updated_at":"2026-04-09T19:18:43.959287+05:30"},{"city":"Alappuzha","state":"Kerala","latitude":9.4981,"longitude":76.3388,"temp":29.7,"humidity":77,"rain":0.0,"pressure":1008.8,"uv_index":8.45,"wind_gusts":25.6,"aqi":66,"pm10":39.0,"pm2_5":20.0,"mosquito_risk":7,"arthritis_risk":0,"migraine_risk":4,"frizz_risk":1,"updated_at":"2026-04-09T19:18:43.959293+05:30"},{"city":"Munnar","state":"Kerala","latitude":10.0889,"longitude":77.0595,"temp":22.3,"humidity":92,"rain":0.0,"pressure":857.7,"uv_index":9.15,"wind_gusts":33.8,"aqi":86,"pm10":24.5,"pm2_5":21.2,"mosquito_risk":3,"arthritis_risk":5,"migraine_risk":7,"frizz_risk":1,"updated_at":"2026-04-09T19:18:43.959300+05:30"},{"city":"Silchar","state":"Assam","latitude":24.8333,"longitude":92.7789,"temp":22.1,"humidity":91,"rain":0.0,"pressure":1008.0,"uv_index":6.0,"wind_gusts":23.4,"aqi":98,"pm10":54.2,"pm2_5":49.9,"mosquito_risk":3,"arthritis_risk":0,"migraine_risk":0,"frizz_risk":1,"updated_at":"2026-04-09T19:18:43.959306+05:30"},{"city":"Dibrugarh","state":"Assam","latitude":27.4728,"longitude":94.912,"temp":22.6,"humidity":83,"rain":0.0,"pressure":998.4,"uv_index":4.9,"wind_gusts":16.9,"aqi":93,"pm10":36.8,"pm2_5":29.0,"mosquito_risk":3,"arthritis_risk":5,"migraine_risk":3,"frizz_risk":1,"updated_at":"2026-04-09T19:18:43.959312+05:30"}]