[{"city":"Delhi","state":"Delhi","latitude":28.6139,"longitude":77.209,"temp":24.8,"humidity":70,"rain":0.0,"pressure":987.7,"uv_index":5.5,"wind_gusts":25.6,"aqi":175,"pm10":542.0,"pm2_5":127.6,"mosquito_risk":3,"arthritis_risk":5,"migraine_risk":3,"frizz_risk":1,"updated_at":"2026-03-10T00:28:09.686472+05:30"},{"city":"Mumbai","state":"Maharashtra","latitude":19.076,"longitude":72.8777,"temp":29.6,"humidity":61,"rain":0.0,"pressure":1008.8,"uv_index":7.55,"wind_gusts":24.5,"aqi":176,"pm10":29.9,"pm2_5":29.3,"mosquito_risk":7,"arthritis_risk":0,"migraine_risk":4,"frizz_risk":1,"updated_at":"2026-03-10T00:28:09.686513+05:30"},{"city":"Bangalore","state":"Karnataka","latitude":12.9716,"longitude":77.5946,"temp":21.6,"humidity":79,"rain":0.0,"pressure":913.9,"uv_index":9.2,"wind_gusts":38.2,"aqi":101,"pm10":40.4,"pm2_5":36.3,"mosquito_risk":3,"arthritis_risk":5,"migraine_risk":7,"frizz_risk":1,"updated_at":"2026-03-10T00:28:09.686528+05:30"},{"city":"Hyderabad","state":"Telangana","latitude":17.385,"longitude":78.4867,"temp":23.6,"humidity":82,"rain":0.0,"pressure":956.6,"uv_index":8.55,"wind_gusts":31.3,"aqi":106,"pm10":47.7,"pm2_5":43.0,"mosquito_risk":3,"arthritis_risk":5,"migraine_risk":7,"frizz_risk":1,"updated_at":"2026-03-10T00:28:09.686538+05:30"},{"city":"Chennai","state":"Tamil Nadu","latitude":13.0827,"longitude":80.2707,"temp":25.7,"humidity":75,"rain":0.0,"pressure":1011.7,"uv_index":8.95,"wind_gusts":34.6,"aqi":89,"pm10":35.2,"pm2_5":26.0,"mosquito_risk":7,"arthritis_risk":0,"migraine_risk":4,"frizz_risk":1,"updated_at":"2026-03-10T00:28:09.686565+05:30"},{"city":"Kolkata","state":"West Bengal","latitude":22.5726,"longitude":88.3639,"temp":24.2,"humidity":95,"rain":0.0,"pressure":1012.1,"uv_index":7.9,"wind_gusts":16.6,"aqi":131,"pm10":60.3,"pm2_5":54.6,"mosquito_risk":3,"arthritis_risk":0,"migraine_risk":4,"frizz_risk":1,"updated_at":"2026-03-10T00:28:09.686575+05:30"},{"city":"Pune","state":"Maharashtra","latitude":18.5204,"longitude":73.8567,"temp":22.5,"humidity":48,"rain":0.0,"pressure":950.1,"uv_index":8.1,"wind_gusts":31.0,"aqi":89,"pm10":21.2,"pm2_5":18.8,"mosquito_risk":0,"arthritis_risk":5,"migraine_risk":7,"frizz_risk":0,"updated_at":"2026-03-10T00:28:09.686587+05:30"},{"city":"Ahmedabad","state":"Gujarat","latitude":23.0225,"longitude":72.5714,"temp":26.1,"humidity":37,"rain":0.0,"pressure":1005.9,"uv_index":7.35,"wind_gusts":21.6,"aqi":62,"pm10":18.4,"pm2_5":17.1,"mosquito_risk":4,"arthritis_risk":5,"migraine_risk":4,"frizz_risk":0,"updated_at":"2026-03-10T00:28:09.686594+05:30"},{"city":"Jaipur","state":"Rajasthan","latitude":26.9124,"longitude":75.7873,"temp":26.4,"humidity":22,"rain":0.0,"pressure":964.4,"uv_index":6.75,"wind_gusts":27.7,"aqi":77,"pm10":98.5,"pm2_5":32.7,"mosquito_risk":4,"arthritis_risk":5,"migraine_risk":7,"frizz_risk":0,"updated_at":"2026-03-10T00:28:09.686608+05:30"},{"city":"Lucknow","state":"Uttar Pradesh","latitude":26.8467,"longitude":80.9462,"temp":24.4,"humidity":83,"rain":0.0,"pressure":999.2,"uv_index":6.55,"wind_gusts":22.0,"aqi":175,"pm10":149.9,"pm2_5":109.9,"mosquito_risk":3,"arthritis_risk":5,"migraine_risk":7,"frizz_risk":1,"updated_at":"2026-03-10T00:28:09.686616+05:30"},{"city":"Kanpur","state":"Uttar Pradesh","latitude":26.4499,"longitude":80.3319,"temp":25.6,"humidity":64,"rain":0.0,"pressure":996.7,"uv_index":6.55,"wind_gusts":18.0,"aqi":163,"pm10":197.9,"pm2_5":88.5,"mosquito_risk":7,"arthritis_risk":5,"migraine_risk":7,"frizz_risk":1,"updated_at":"2026-03-10T00:28:09.686623+05:30"},{"city":"Chandigarh","state":"Chandigarh","latitude":30.7333,"longitude":76.7794,"temp":23.0,"humidity":71,"rain":0.0,"pressure":973.6,"uv_index":5.95,"wind_gusts":24.1,"aqi":104,"pm10":64.7,"pm2_5":56.6,"mosquito_risk":3,"arthritis_risk":5,"migraine_risk":3,"frizz_risk":1,"updated_at":"2026-03-10T00:28:09.686630+05:30"},{"city":"Srinagar","state":"Jammu and Kashmir","latitude":34.0837,"longitude":74.7973,"temp":10.4,"humidity":78,"rain":0.0,"pressure":845.1,"uv_index":6.5,"wind_gusts":25.2,"aqi":142,"pm10":110.1,"pm2_5":76.8,"mosquito_risk":3,"arthritis_risk":5,"migraine_risk":7,"frizz_risk":0,"updated_at":"2026-03-10T00:28:09.686637+05:30"},{"city":"Jammu","state":"Jammu and Kashmir","latitude":32.7266,"longitude":74.857,"temp":21.2,"humidity":78,"rain":0.0,"pressure":977.4,"uv_index":6.55,"wind_gusts":18.0,"aqi":93,"pm10":50.4,"pm2_5":43.5,"mosquito_risk":3,"arthritis_risk":5,"migraine_risk":7,"frizz_risk":1,"updated_at":"2026-03-10T00:28:09.686645+05:30"},{"city":"Amritsar","state":"Punjab","latitude":31.634,"longitude":74.8723,"temp":23.7,"humidity":77,"rain":0.0,"pressure":985.5,"uv_index":6.5,"wind_gusts":13.3,"aqi":164,"pm10":155.1,"pm2_5":134.6,"mosquito_risk":3,"arthritis_risk":5,"migraine_risk":7,"frizz_risk":1,"updated_at":"2026-03-10T00:28:09.686651+05:30"},{"city":"Ludhiana","state":"Punjab","latitude":30.901,"longitude":75.8573,"temp":23.2,"humidity":74,"rain":0.0,"pressure":983.7,"uv_index":6.15,"wind_gusts":18.7,"aqi":158,"pm10":186.7,"pm2_5":129.0,"mosquito_risk":3,"arthritis_risk":5,"migraine_risk":7,"frizz_risk":1,"updated_at":"2026-03-10T00:28:09.686657+05:30"},{"city":"Jalandhar","state":"Punjab","latitude":31.326,"longitude":75.5762,"temp":22.4,"humidity":85,"rain":0.0,"pressure":984.8,"uv_index":6.35,"wind_gusts":16.2,"aqi":160,"pm10":150.9,"pm2_5":118.3,"mosquito_risk":3,"arthritis_risk":5,"migraine_risk":7,"frizz_risk":1,"updated_at":"2026-03-10T00:28:09.686666+05:30"},{"city":"Dehradun","state":"Uttarakhand","latitude":30.6284,"longitude":78.0322,"temp":14.4,"humidity":93,"rain":0.0,"pressure":834.0,"uv_index":6.3,"wind_gusts":28.4,"aqi":84,"pm10":47.0,"pm2_5":34.2,"mosquito_risk":3,"arthritis_risk":10,"migraine_risk":7,"frizz_risk":0,"updated_at":"2026-03-10T00:28:09.686673+05:30"},{"city":"Shimla","state":"Himachal Pradesh","latitude":31.1048,"longitude":77.1734,"temp":13.1,"humidity":70,"rain":0.0,"pressure":788.0,"uv_index":6.35,"wind_gusts":48.2,"aqi":69,"pm10":48.7,"pm2_5":32.7,"mosquito_risk":3,"arthritis_risk":5,"migraine_risk":7,"frizz_risk":0,"updated_at":"2026-03-10T00:28:09.686680+05:30"},{"city":"Manali","state":"Himachal Pradesh","latitude":32.2396,"longitude":77.1887,"temp":17.7,"humidity":35,"rain":0.0,"pressure":826.1,"uv_index":8.05,"wind_gusts":35.6,"aqi":49,"pm10":29.9,"pm2_5":15.8,"mosquito_risk":0,"arthritis_risk":5,"migraine_risk":7,"frizz_risk":0,"updated_at":"2026-03-10T00:28:09.686686+05:30"},{"city":"Gurgaon","state":"Haryana","latitude":28.4595,"longitude":77.0266,"temp":21.3,"humidity":82,"rain":0.0,"pressure":985.8,"uv_index":5.85,"wind_gusts":24.5,"aqi":482,"pm10":419.1,"pm2_5":113.2,"mosquito_risk":3,"arthritis_risk":5,"migraine_risk":3,"frizz_risk":1,"updated_at":"2026-03-10T00:28:09.686693+05:30"},{"city":"Noida","state":"Uttar Pradesh","latitude":28.5355,"longitude":77.391,"temp":24.3,"humidity":72,"rain":0.0,"pressure":989.3,"uv_index":5.45,"wind_gusts":24.8,"aqi":482,"pm10":419.1,"pm2_5":113.2,"mosquito_risk":3,"arthritis_risk":5,"migraine_risk":3,"frizz_risk":1,"updated_at":"2026-03-10T00:28:09.686699+05:30"},{"city":"Ghaziabad","state":"Uttar Pradesh","latitude":28.6692,"longitude":77.4538,"temp":23.1,"humidity":81,"rain":0.0,"pressure":987.5,"uv_index":5.3,"wind_gusts":24.1,"aqi":162,"pm10":438.7,"pm2_5":116.4,"mosquito_risk":3,"arthritis_risk":5,"migraine_risk":3,"frizz_risk":1,"updated_at":"2026-03-10T00:28:09.686706+05:30"},{"city":"Faridabad","state":"Haryana","latitude":28.4089,"longitude":77.3178,"temp":22.3,"humidity":73,"rain":0.0,"pressure":988.4,"uv_index":5.85,"wind_gusts":23.0,"aqi":482,"pm10":419.1,"pm2_5":113.2,"mosquito_risk":3,"arthritis_risk":5,"migraine_risk":3,"frizz_risk":1,"updated_at":"2026-03-10T00:28:09.686712+05:30"},{"city":"Meerut","state":"Uttar Pradesh","latitude":28.9845,"longitude":77.7064,"temp":22.2,"humidity":84,"rain":0.0,"pressure":986.4,"uv_index":5.7,"wind_gusts":25.2,"aqi":162,"pm10":438.7,"pm2_5":116.4,"mosquito_risk":3,"arthritis_risk":5,"migraine_risk":3,"frizz_risk":1,"updated_at":"2026-03-10T00:28:09.686718+05:30"},{"city":"Agra","state":"Uttar Pradesh","latitude":27.1767,"longitude":78.0081,"temp":24.4,"humidity":69,"rain":0.0,"pressure":992.5,"uv_index":6.4,"wind_gusts":19.8,"aqi":183,"pm10":238.0,"pm2_5":106.2,"mosquito_risk":3,"arthritis_risk":5,"migraine_risk":7,"frizz_risk":1,"updated_at":"2026-03-10T00:28:09.686725+05:30"},{"city":"Varanasi","state":"Uttar Pradesh","latitude":25.3176,"longitude":82.9739,"temp":22.8,"humidity":92,"rain":0.0,"pressure":1003.4,"uv_index":7.2,"wind_gusts":14.8,"aqi":185,"pm10":146.7,"pm2_5":141.1,"mosquito_risk":3,"arthritis_risk":5,"migraine_risk":4,"frizz_risk":1,"updated_at":"2026-03-10T00:28:09.686734+05:30"},{"city":"Prayagraj","state":"Uttar Pradesh","latitude":25.4358,"longitude":81.8463,"temp":23.0,"humidity":84,"rain":0.0,"pressure":1001.4,"uv_index":7.05,"wind_gusts":15.1,"aqi":188,"pm10":136.9,"pm2_5":131.8,"mosquito_risk":3,"arthritis_risk":5,"migraine_risk":4,"frizz_risk":1,"updated_at":"2026-03-10T00:28:09.686741+05:30"},{"city":"Gorakhpur","state":"Uttar Pradesh","latitude":26.7606,"longitude":83.3732,"temp":21.8,"humidity":91,"rain":0.0,"pressure":1003.8,"uv_index":6.9,"wind_gusts":27.0,"aqi":203,"pm10":138.8,"pm2_5":129.5,"mosquito_risk":3,"arthritis_risk":5,"migraine_risk":4,"frizz_risk":1,"updated_at":"2026-03-10T00:28:09.686749+05:30"},{"city":"Bareilly","state":"Uttar Pradesh","latitude":28.367,"longitude":79.4304,"temp":21.8,"humidity":88,"rain":0.0,"pressure":991.9,"uv_index":6.2,"wind_gusts":16.6,"aqi":169,"pm10":121.1,"pm2_5":91.0,"mosquito_risk":3,"arthritis_risk":5,"migraine_risk":7,"frizz_risk":1,"updated_at":"2026-03-10T00:28:09.686756+05:30"},{"city":"Aligarh","state":"Uttar Pradesh","latitude":27.8974,"longitude":78.088,"temp":22.1,"humidity":80,"rain":0.0,"pressure":990.1,"uv_index":6.15,"wind_gusts":23.8,"aqi":177,"pm10":253.3,"pm2_5":133.6,"mosquito_risk":3,"arthritis_risk":5,"migraine_risk":7,"frizz_risk":1,"updated_at":"2026-03-10T00:28:09.686762+05:30"},{"city":"Moradabad","state":"Uttar Pradesh","latitude":28.8386,"longitude":78.7733,"temp":22.6,"humidity":81,"rain":0.0,"pressure":988.7,"uv_index":6.05,"wind_gusts":18.0,"aqi":175,"pm10":132.7,"pm2_5":103.1,"mosquito_risk":3,"arthritis_risk":5,"migraine_risk":7,"frizz_risk":1,"updated_at":"2026-03-10T00:28:09.686768+05:30"},{"city":"Saharanpur","state":"Uttar Pradesh","latitude":29.9637,"longitude":77.546,"temp":20.6,"humidity":89,"rain":0.0,"pressure":980.8,"uv_index":5.65,"wind_gusts":23.8,"aqi":161,"pm10":219.3,"pm2_5":114.3,"mosquito_risk":3,"arthritis_risk":5,"migraine_risk":3,"frizz_risk":1,"updated_at":"2026-03-10T00:28:09.686773+05:30"},{"city":"Jhansi","state":"Uttar Pradesh","latitude":25.4484,"longitude":78.5685,"temp":23.8,"humidity":53,"rain":0.0,"pressure":982.1,"uv_index":7.0,"wind_gusts":25.6,"aqi":70,"pm10":59.1,"pm2_5":30.2,"mosquito_risk":0,"arthritis_risk":5,"migraine_risk":7,"frizz_risk":0,"updated_at":"2026-03-10T00:28:12.956673+05:30"},{"city":"Surat","state":"Gujarat","latitude":21.1702,"longitude":72.8311,"temp":28.2,"humidity":42,"rain":0.0,"pressure":1008.7,"uv_index":7.25,"wind_gusts":23.8,"aqi":99,"pm10":34.7,"pm2_5":34.0,"mosquito_risk":4,"arthritis_risk":0,"migraine_risk":4,"frizz_risk":0,"updated_at":"2026-03-10T00:28:12.956707+05:30"},{"city":"Vadodara","state":"Gujarat","latitude":22.3072,"longitude":73.1812,"temp":26.0,"humidity":47,"rain":0.0,"pressure":1007.1,"uv_index":7.4,"wind_gusts":17.3,"aqi":79,"pm10":29.7,"pm2_5":28.6,"mosquito_risk":4,"arthritis_risk":5,"migraine_risk":4,"frizz_risk":0,"updated_at":"2026-03-10T00:28:12.956718+05:30"},{"city":"Rajkot","state":"Gujarat","latitude":22.3039,"longitude":70.8022,"temp":24.7,"humidity":55,"rain":0.0,"pressure":998.2,"uv_index":7.2,"wind_gusts":23.0,"aqi":84,"pm10":27.0,"pm2_5":24.5,"mosquito_risk":0,"arthritis_risk":5,"migraine_risk":7,"frizz_risk":0,"updated_at":"2026-03-10T00:28:12.956727+05:30"},{"city":"Thane","state":"Maharashtra","latitude":19.2183,"longitude":72.9781,"temp":28.6,"humidity":47,"rain":0.0,"pressure":1008.4,"uv_index":7.55,"wind_gusts":37.1,"aqi":176,"pm10":29.9,"pm2_5":29.3,"mosquito_risk":4,"arthritis_risk":0,"migraine_risk":4,"frizz_risk":1,"updated_at":"2026-03-10T00:28:12.956734+05:30"},{"city":"Nagpur","state":"Maharashtra","latitude":21.1458,"longitude":79.0882,"temp":24.9,"humidity":36,"rain":0.0,"pressure":976.2,"uv_index":7.95,"wind_gusts":26.6,"aqi":89,"pm10":59.3,"pm2_5":48.7,"mosquito_risk":0,"arthritis_risk":5,"migraine_risk":7,"frizz_risk":0,"updated_at":"2026-03-10T00:28:12.956742+05:30"},{"city":"Nashik","state":"Maharashtra","latitude":19.9975,"longitude":73.7898,"temp":26.3,"humidity":32,"rain":0.0,"pressure":948.2,"uv_index":7.75,"wind_gusts":31.0,"aqi":96,"pm10":15.9,"pm2_5":14.7,"mosquito_risk":4,"arthritis_risk":5,"migraine_risk":7,"frizz_risk":0,"updated_at":"2026-03-10T00:28:12.956749+05:30"},{"city":"Aurangabad","state":"Maharashtra","latitude":19.8762,"longitude":75.3433,"temp":23.8,"humidity":47,"rain":0.0,"pressure":946.4,"uv_index":8.25,"wind_gusts":34.2,"aqi":78,"pm10":39.2,"pm2_5":36.0,"mosquito_risk":0,"arthritis_risk":5,"migraine_risk":7,"frizz_risk":0,"updated_at":"2026-03-10T00:28:12.956756+05:30"},{"city":"Solapur","state":"Maharashtra","latitude":17.6599,"longitude":75.9064,"temp":23.5,"humidity":53,"rain":0.0,"pressure":959.2,"uv_index":8.45,"wind_gusts":25.9,"aqi":118,"pm10":31.1,"pm2_5":27.8,"mosquito_risk":0,"arthritis_risk":5,"migraine_risk":7,"frizz_risk":0,"updated_at":"2026-03-10T00:28:12.956763+05:30"},{"city":"Kolhapur","state":"Maharashtra","latitude":16.705,"longitude":74.2433,"temp":25.1,"humidity":40,"rain":0.0,"pressure":949.4,"uv_index":8.6,"wind_gusts":38.5,"aqi":132,"pm10":54.2,"pm2_5":51.9,"mosquito_risk":4,"arthritis_risk":5,"migraine_risk":7,"frizz_risk":0,"updated_at":"2026-03-10T00:28:12.956771+05:30"},{"city":"Goa","state":"Goa","latitude":15.2993,"longitude":74.124,"temp":26.9,"humidity":91,"rain":0.0,"pressure":999.1,"uv_index":8.65,"wind_gusts":36.0,"aqi":135,"pm10":58.1,"pm2_5":53.2,"mosquito_risk":7,"arthritis_risk":5,"migraine_risk":7,"frizz_risk":1,"updated_at":"2026-03-10T00:28:12.956779+05:30"},{"city":"Jodhpur","state":"Rajasthan","latitude":26.2389,"longitude":73.0243,"temp":26.6,"humidity":26,"rain":0.0,"pressure":987.8,"uv_index":7.1,"wind_gusts":23.4,"aqi":62,"pm10":79.2,"pm2_5":26.5,"mosquito_risk":4,"arthritis_risk":5,"migraine_risk":7,"frizz_risk":0,"updated_at":"2026-03-10T00:28:12.956786+05:30"},{"city":"Udaipur","state":"Rajasthan","latitude":24.5854,"longitude":73.7125,"temp":21.0,"humidity":32,"rain":0.0,"pressure":951.0,"uv_index":7.7,"wind_gusts":17.3,"aqi":57,"pm10":13.3,"pm2_5":11.5,"mosquito_risk":0,"arthritis_risk":5,"migraine_risk":7,"frizz_risk":0,"updated_at":"2026-03-10T00:28:12.956793+05:30"},{"city":"Kota","state":"Rajasthan","latitude":25.2138,"longitude":75.8648,"temp":23.5,"humidity":46,"rain":0.0,"pressure":982.9,"uv_index":7.1,"wind_gusts":17.3,"aqi":69,"pm10":36.8,"pm2_5":31.2,"mosquito_risk":0,"arthritis_risk":5,"migraine_risk":7,"frizz_risk":0,"updated_at":"2026-03-10T00:28:12.956800+05:30"},{"city":"Bikaner","state":"Rajasthan","latitude":28.0229,"longitude":73.3119,"temp":25.4,"humidity":32,"rain":0.0,"pressure":986.5,"uv_index":6.7,"wind_gusts":22.7,"aqi":52,"pm10":21.6,"pm2_5":11.5,"mosquito_risk":4,"arthritis_risk":5,"migraine_risk":7,"frizz_risk":0,"updated_at":"2026-03-10T00:28:12.956806+05:30"},{"city":"Ajmer","state":"Rajasthan","latitude":26.4499,"longitude":74.6399,"temp":24.2,"humidity":29,"rain":0.0,"pressure":959.3,"uv_index":7.05,"wind_gusts":22.7,"aqi":53,"pm10":39.0,"pm2_5":17.6,"mosquito_risk":0,"arthritis_risk":5,"migraine_risk":7,"frizz_risk":0,"updated_at":"2026-03-10T00:28:12.956813+05:30"},{"city":"Gwalior","state":"Madhya Pradesh","latitude":26.2183,"longitude":78.1828,"temp":24.7,"humidity":61,"rain":0.0,"pressure":987.6,"uv_index":6.7,"wind_gusts":21.2,"aqi":77,"pm10":142.0,"pm2_5":45.9,"mosquito_risk":3,"arthritis_risk":5,"migraine_risk":7,"frizz_risk":1,"updated_at":"2026-03-10T00:28:12.956820+05:30"},{"city":"Indore","state":"Madhya Pradesh","latitude":22.7196,"longitude":75.8577,"temp":21.5,"humidity":49,"rain":0.0,"pressure":951.1,"uv_index":7.65,"wind_gusts":26.6,"aqi":76,"pm10":42.1,"pm2_5":32.8,"mosquito_risk":0,"arthritis_risk":5,"migraine_risk":7,"frizz_risk":0,"updated_at":"2026-03-10T00:28:12.956827+05:30"},{"city":"Bhopal","state":"Madhya Pradesh","latitude":23.2599,"longitude":77.4126,"temp":23.9,"humidity":43,"rain":0.0,"pressure":957.1,"uv_index":7.5,"wind_gusts":20.5,"aqi":69,"pm10":56.3,"pm2_5":34.0,"mosquito_risk":0,"arthritis_risk":5,"migraine_risk":7,"frizz_risk":0,"updated_at":"2026-03-10T00:28:12.956833+05:30"},{"city":"Jabalpur","state":"Madhya Pradesh","latitude":23.1815,"longitude":79.9864,"temp":23.6,"humidity":51,"rain":0.0,"pressure":964.9,"uv_index":7.65,"wind_gusts":21.6,"aqi":94,"pm10":56.9,"pm2_5":35.3,"mosquito_risk":0,"arthritis_risk":5,"migraine_risk":7,"frizz_risk":0,"updated_at":"2026-03-10T00:28:12.956840+05:30"},{"city":"Ujjain","state":"Madhya Pradesh","latitude":23.1765,"longitude":75.7885,"temp":23.6,"humidity":49,"rain":0.0,"pressure":957.4,"uv_index":7.55,"wind_gusts":18.4,"aqi":92,"pm10":56.5,"pm2_5":50.6,"mosquito_risk":0,"arthritis_risk":5,"migraine_risk":7,"frizz_risk":0,"updated_at":"2026-03-10T00:28:12.956847+05:30"},{"city":"Visakhapatnam","state":"Andhra Pradesh","latitude":17.6868,"longitude":83.2185,"temp":24.5,"humidity":88,"rain":0.0,"pressure":1008.9,"uv_index":8.2,"wind_gusts":33.5,"aqi":106,"pm10":58.7,"pm2_5":47.3,"mosquito_risk":3,"arthritis_risk":0,"migraine_risk":4,"frizz_risk":1,"updated_at":"2026-03-10T00:28:12.956854+05:30"},{"city":"Vijayawada","state":"Andhra Pradesh","latitude":16.5062,"longitude":80.648,"temp":24.6,"humidity":85,"rain":0.0,"pressure":1007.4,"uv_index":8.6,"wind_gusts":25.6,"aqi":101,"pm10":52.3,"pm2_5":45.1,"mosquito_risk":3,"arthritis_risk":5,"migraine_risk":4,"frizz_risk":1,"updated_at":"2026-03-10T00:28:12.956861+05:30"},{"city":"Guntur","state":"Andhra Pradesh","latitude":16.3067,"longitude":80.4365,"temp":24.2,"humidity":87,"rain":0.0,"pressure":1008.7,"uv_index":8.65,"wind_gusts":27.7,"aqi":96,"pm10":49.5,"pm2_5":43.0,"mosquito_risk":3,"arthritis_risk":0,"migraine_risk":4,"frizz_risk":1,"updated_at":"2026-03-10T00:28:12.956868+05:30"},{"city":"Nellore","state":"Andhra Pradesh","latitude":14.4426,"longitude":79.9865,"temp":24.0,"humidity":85,"rain":0.0,"pressure":1010.4,"uv_index":8.8,"wind_gusts":34.2,"aqi":83,"pm10":39.1,"pm2_5":29.1,"mosquito_risk":3,"arthritis_risk":0,"migraine_risk":4,"frizz_risk":1,"updated_at":"2026-03-10T00:28:12.956875+05:30"},{"city":"Kurnool","state":"Andhra Pradesh","latitude":15.8281,"longitude":78.0373,"temp":26.5,"humidity":69,"rain":0.0,"pressure":980.2,"uv_index":8.65,"wind_gusts":34.6,"aqi":111,"pm10":37.1,"pm2_5":32.9,"mosquito_risk":7,"arthritis_risk":5,"migraine_risk":7,"frizz_risk":1,"updated_at":"2026-03-10T00:28:12.956882+05:30"},{"city":"Kakinada","state":"Andhra Pradesh","latitude":16.9891,"longitude":82.2475,"temp":22.8,"humidity":89,"rain":0.0,"pressure":1012.6,"uv_index":8.55,"wind_gusts":30.2,"aqi":96,"pm10":54.8,"pm2_5":40.0,"mosquito_risk":3,"arthritis_risk":0,"migraine_risk":4,"frizz_risk":1,"updated_at":"2026-03-10T00:28:12.956889+05:30"},{"city":"Tirupati","state":"Andhra Pradesh","latitude":13.6288,"longitude":79.4192,"temp":22.5,"humidity":81,"rain":0.0,"pressure":996.2,"uv_index":8.95,"wind_gusts":36.7,"aqi":100,"pm10":60.8,"pm2_5":50.4,"mosquito_risk":3,"arthritis_risk":5,"migraine_risk":7,"frizz_risk":1,"updated_at":"2026-03-10T00:28:12.956896+05:30"},{"city":"Warangal","state":"Telangana","latitude":17.9689,"longitude":79.5941,"temp":25.0,"humidity":86,"rain":0.0,"pressure":982.4,"uv_index":8.4,"wind_gusts":28.1,"aqi":111,"pm10":51.6,"pm2_5":47.8,"mosquito_risk":7,"arthritis_risk":5,"migraine_risk":7,"frizz_risk":1,"updated_at":"2026-03-10T00:28:12.956902+05:30"},{"city":"Nizamabad","state":"Telangana","latitude":18.6725,"longitude":78.0941,"temp":24.8,"humidity":57,"rain":0.0,"pressure":967.7,"uv_index":8.3,"wind_gusts":31.3,"aqi":124,"pm10":55.4,"pm2_5":49.9,"mosquito_risk":0,"arthritis_risk":5,"migraine_risk":7,"frizz_risk":0,"updated_at":"2026-03-10T00:28:12.956909+05:30"},{"city":"Mysore","state":"Karnataka","latitude":12.2958,"longitude":76.6396,"temp":23.0,"humidity":66,"rain":0.0,"pressure":930.2,"uv_index":9.25,"wind_gusts":38.2,"aqi":122,"pm10":38.5,"pm2_5":34.7,"mosquito_risk":3,"arthritis_risk":5,"migraine_risk":7,"frizz_risk":1,"updated_at":"2026-03-10T00:28:12.956915+05:30"},{"city":"Mangalore","state":"Karnataka","latitude":12.9141,"longitude":74.856,"temp":28.4,"humidity":82,"rain":0.0,"pressure":1008.3,"uv_index":8.85,"wind_gusts":26.3,"aqi":120,"pm10":38.8,"pm2_5":33.6,"mosquito_risk":7,"arthritis_risk":0,"migraine_risk":4,"frizz_risk":1,"updated_at":"2026-03-10T00:28:12.956922+05:30"},{"city":"Hubli-Dharwad","state":"Karnataka","latitude":15.3647,"longitude":75.124,"temp":26.4,"humidity":34,"rain":0.0,"pressure":942.2,"uv_index":8.8,"wind_gusts":37.1,"aqi":122,"pm10":38.5,"pm2_5":33.3,"mosquito_risk":4,"arthritis_risk":5,"migraine_risk":7,"frizz_risk":0,"updated_at":"2026-03-10T00:28:12.956929+05:30"},{"city":"Belgaum","state":"Karnataka","latitude":15.8497,"longitude":74.4977,"temp":24.8,"humidity":36,"rain":0.0,"pressure":927.2,"uv_index":8.85,"wind_gusts":44.6,"aqi":112,"pm10":39.1,"pm2_5":34.9,"mosquito_risk":0,"arthritis_risk":5,"migraine_risk":7,"frizz_risk":0,"updated_at":"2026-03-10T00:28:16.226316+05:30"},{"city":"Coimbatore","state":"Tamil Nadu","latitude":11.0168,"longitude":76.9558,"temp":24.5,"humidity":68,"rain":0.0,"pressure":964.7,"uv_index":9.25,"wind_gusts":49.0,"aqi":110,"pm10":48.0,"pm2_5":42.6,"mosquito_risk":3,"arthritis_risk":5,"migraine_risk":7,"frizz_risk":1,"updated_at":"2026-03-10T00:28:16.226345+05:30"},{"city":"Madurai","state":"Tamil Nadu","latitude":9.9252,"longitude":78.1198,"temp":24.1,"humidity":82,"rain":0.0,"pressure":996.4,"uv_index":9.2,"wind_gusts":38.2,"aqi":98,"pm10":50.8,"pm2_5":43.3,"mosquito_risk":3,"arthritis_risk":5,"migraine_risk":7,"frizz_risk":1,"updated_at":"2026-03-10T00:28:16.226355+05:30"},{"city":"Trichy","state":"Tamil Nadu","latitude":10.7905,"longitude":78.7047,"temp":23.5,"humidity":88,"rain":0.0,"pressure":1003.6,"uv_index":9.1,"wind_gusts":35.6,"aqi":92,"pm10":46.8,"pm2_5":40.3,"mosquito_risk":3,"arthritis_risk":5,"migraine_risk":4,"frizz_risk":1,"updated_at":"2026-03-10T00:28:16.226363+05:30"},{"city":"Salem","state":"Tamil Nadu","latitude":11.6643,"longitude":78.146,"temp":23.8,"humidity":76,"rain":0.0,"pressure":980.6,"uv_index":9.15,"wind_gusts":34.9,"aqi":114,"pm10":58.8,"pm2_5":50.8,"mosquito_risk":3,"arthritis_risk":5,"migraine_risk":7,"frizz_risk":1,"updated_at":"2026-03-10T00:28:16.226371+05:30"},{"city":"Tirunelveli","state":"Tamil Nadu","latitude":8.7139,"longitude":77.7567,"temp":25.7,"humidity":72,"rain":0.0,"pressure":1006.4,"uv_index":9.15,"wind_gusts":37.8,"aqi":96,"pm10":49.4,"pm2_5":38.8,"mosquito_risk":7,"arthritis_risk":5,"migraine_risk":4,"frizz_risk":1,"updated_at":"2026-03-10T00:28:16.226378+05:30"},{"city":"Vellore","state":"Tamil Nadu","latitude":12.9165,"longitude":79.1325,"temp":22.3,"humidity":79,"rain":0.0,"pressure":989.0,"uv_index":9.0,"wind_gusts":41.8,"aqi":111,"pm10":71.2,"pm2_5":61.2,"mosquito_risk":3,"arthritis_risk":5,"migraine_risk":7,"frizz_risk":1,"updated_at":"2026-03-10T00:28:16.226385+05:30"},{"city":"Erode","state":"Tamil Nadu","latitude":11.341,"longitude":77.7172,"temp":25.4,"humidity":74,"rain":0.0,"pressure":992.4,"uv_index":9.15,"wind_gusts":31.3,"aqi":110,"pm10":49.4,"pm2_5":43.8,"mosquito_risk":7,"arthritis_risk":5,"migraine_risk":7,"frizz_risk":1,"updated_at":"2026-03-10T00:28:16.226392+05:30"},{"city":"Kochi","state":"Kerala","latitude":9.9312,"longitude":76.2673,"temp":26.4,"humidity":88,"rain":0.0,"pressure":1010.9,"uv_index":8.9,"wind_gusts":28.8,"aqi":132,"pm10":47.1,"pm2_5":44.9,"mosquito_risk":7,"arthritis_risk":0,"migraine_risk":4,"frizz_risk":1,"updated_at":"2026-03-10T00:28:16.226400+05:30"},{"city":"Thiruvananthapuram","state":"Kerala","latitude":8.5241,"longitude":76.9366,"temp":27.9,"humidity":77,"rain":0.0,"pressure":1009.5,"uv_index":9.05,"wind_gusts":27.4,"aqi":108,"pm10":38.0,"pm2_5":25.8,"mosquito_risk":7,"arthritis_risk":0,"migraine_risk":4,"frizz_risk":1,"updated_at":"2026-03-10T00:28:16.226407+05:30"},{"city":"Kozhikode","state":"Kerala","latitude":11.2588,"longitude":75.7804,"temp":27.0,"humidity":87,"rain":0.0,"pressure":1009.9,"uv_index":8.55,"wind_gusts":24.5,"aqi":100,"pm10":33.9,"pm2_5":30.6,"mosquito_risk":7,"arthritis_risk":0,"migraine_risk":4,"frizz_risk":1,"updated_at":"2026-03-10T00:28:16.226414+05:30"},{"city":"Thrissur","state":"Kerala","latitude":10.5276,"longitude":76.2144,"temp":24.9,"humidity":89,"rain":0.0,"pressure":1009.2,"uv_index":9.0,"wind_gusts":40.0,"aqi":124,"pm10":47.5,"pm2_5":45.8,"mosquito_risk":3,"arthritis_risk":0,"migraine_risk":4,"frizz_risk":1,"updated_at":"2026-03-10T00:28:16.226422+05:30"},{"city":"Kannur","state":"Kerala","latitude":11.8745,"longitude":75.3704,"temp":27.8,"humidity":84,"rain":0.0,"pressure":1008.7,"uv_index":8.9,"wind_gusts":27.0,"aqi":117,"pm10":32.7,"pm2_5":30.5,"mosquito_risk":7,"arthritis_risk":0,"migraine_risk":4,"frizz_risk":1,"updated_at":"2026-03-10T00:28:16.226428+05:30"},{"city":"Patna","state":"Bihar","latitude":25.5941,"longitude":85.1376,"temp":24.1,"humidity":85,"rain":0.0,"pressure":1006.7,"uv_index":7.4,"wind_gusts":29.5,"aqi":184,"pm10":121.5,"pm2_5":115.5,"mosquito_risk":3,"arthritis_risk":5,"migraine_risk":4,"frizz_risk":1,"updated_at":"2026-03-10T00:28:16.226434+05:30"},{"city":"Gaya","state":"Bihar","latitude":24.7914,"longitude":85.0002,"temp":22.5,"humidity":94,"rain":0.0,"pressure":999.7,"uv_index":7.5,"wind_gusts":25.9,"aqi":182,"pm10":110.1,"pm2_5":104.3,"mosquito_risk":3,"arthritis_risk":5,"migraine_risk":7,"frizz_risk":1,"updated_at":"2026-03-10T00:28:16.226441+05:30"},{"city":"Muzaffarpur","state":"Bihar","latitude":26.1209,"longitude":85.3647,"temp":22.8,"humidity":90,"rain":0.0,"pressure":1006.8,"uv_index":7.3,"wind_gusts":34.2,"aqi":185,"pm10":122.5,"pm2_5":115.7,"mosquito_risk":3,"arthritis_risk":5,"migraine_risk":4,"frizz_risk":1,"updated_at":"2026-03-10T00:28:16.226448+05:30"},{"city":"Bhagalpur","state":"Bihar","latitude":25.2425,"longitude":87.0117,"temp":23.8,"humidity":91,"rain":0.0,"pressure":1007.3,"uv_index":3.9,"wind_gusts":25.9,"aqi":173,"pm10":110.8,"pm2_5":102.0,"mosquito_risk":3,"arthritis_risk":5,"migraine_risk":0,"frizz_risk":1,"updated_at":"2026-03-10T00:28:16.226455+05:30"},{"city":"Ranchi","state":"Jharkhand","latitude":23.3441,"longitude":85.3096,"temp":20.8,"humidity":94,"rain":0.0,"pressure":942.3,"uv_index":8.15,"wind_gusts":25.6,"aqi":168,"pm10":82.2,"pm2_5":75.9,"mosquito_risk":3,"arthritis_risk":5,"migraine_risk":7,"frizz_risk":1,"updated_at":"2026-03-10T00:28:16.226461+05:30"},{"city":"Jamshedpur","state":"Jharkhand","latitude":22.8046,"longitude":86.2029,"temp":23.2,"humidity":86,"rain":0.0,"pressure":996.8,"uv_index":8.0,"wind_gusts":31.3,"aqi":158,"pm10":44.9,"pm2_5":41.2,"mosquito_risk":3,"arthritis_risk":5,"migraine_risk":7,"frizz_risk":1,"updated_at":"2026-03-10T00:28:16.226468+05:30"},{"city":"Dhanbad","state":"Jharkhand","latitude":23.7957,"longitude":86.4304,"temp":22.5,"humidity":86,"rain":0.0,"pressure":985.8,"uv_index":7.75,"wind_gusts":28.8,"aqi":173,"pm10":102.9,"pm2_5":92.2,"mosquito_risk":3,"arthritis_risk":5,"migraine_risk":7,"frizz_risk":1,"updated_at":"2026-03-10T00:28:16.226474+05:30"},{"city":"Bokaro","state":"Jharkhand","latitude":23.6693,"longitude":86.1511,"temp":22.5,"humidity":89,"rain":0.0,"pressure":990.0,"uv_index":7.8,"wind_gusts":25.6,"aqi":179,"pm10":100.8,"pm2_5":90.3,"mosquito_risk":3,"arthritis_risk":5,"migraine_risk":7,"frizz_risk":1,"updated_at":"2026-03-10T00:28:16.226481+05:30"},{"city":"Bhubaneswar","state":"Odisha","latitude":20.2961,"longitude":85.8245,"temp":24.8,"humidity":87,"rain":0.0,"pressure":1008.1,"uv_index":8.3,"wind_gusts":32.8,"aqi":91,"pm10":39.0,"pm2_5":34.3,"mosquito_risk":3,"arthritis_risk":0,"migraine_risk":4,"frizz_risk":1,"updated_at":"2026-03-10T00:28:16.226487+05:30"},{"city":"Cuttack","state":"Odisha","latitude":20.4625,"longitude":85.8828,"temp":25.4,"humidity":84,"rain":0.0,"pressure":1010.0,"uv_index":8.35,"wind_gusts":30.6,"aqi":91,"pm10":39.0,"pm2_5":34.3,"mosquito_risk":7,"arthritis_risk":0,"migraine_risk":4,"frizz_risk":1,"updated_at":"2026-03-10T00:28:16.226494+05:30"},{"city":"Rourkela","state":"Odisha","latitude":22.2604,"longitude":84.8536,"temp":25.4,"humidity":76,"rain":0.0,"pressure":990.0,"uv_index":7.9,"wind_gusts":26.6,"aqi":164,"pm10":87.1,"pm2_5":77.1,"mosquito_risk":7,"arthritis_risk":5,"migraine_risk":7,"frizz_risk":1,"updated_at":"2026-03-10T00:28:16.226501+05:30"},{"city":"Raipur","state":"Chhattisgarh","latitude":21.2514,"longitude":81.6296,"temp":27.3,"humidity":35,"rain":0.0,"pressure":977.6,"uv_index":8.0,"wind_gusts":24.8,"aqi":163,"pm10":140.6,"pm2_5":118.5,"mosquito_risk":4,"arthritis_risk":5,"migraine_risk":7,"frizz_risk":0,"updated_at":"2026-03-10T00:28:16.226508+05:30"},{"city":"Bhilai","state":"Chhattisgarh","latitude":21.1938,"longitude":81.3509,"temp":25.8,"humidity":43,"rain":0.0,"pressure":977.9,"uv_index":8.05,"wind_gusts":24.5,"aqi":157,"pm10":117.6,"pm2_5":97.6,"mosquito_risk":4,"arthritis_risk":5,"migraine_risk":7,"frizz_risk":0,"updated_at":"2026-03-10T00:28:16.226515+05:30"},{"city":"Guwahati","state":"Assam","latitude":26.1158,"longitude":91.7086,"temp":23.7,"humidity":81,"rain":0.0,"pressure":1008.1,"uv_index":7.3,"wind_gusts":11.5,"aqi":154,"pm10":69.8,"pm2_5":65.2,"mosquito_risk":3,"arthritis_risk":0,"migraine_risk":4,"frizz_risk":1,"updated_at":"2026-03-10T00:28:16.226521+05:30"},{"city":"Agartala","state":"Tripura","latitude":23.8315,"longitude":91.2868,"temp":23.1,"humidity":79,"rain":0.0,"pressure":1012.4,"uv_index":7.7,"wind_gusts":12.2,"aqi":162,"pm10":111.5,"pm2_5":101.5,"mosquito_risk":3,"arthritis_risk":0,"migraine_risk":4,"frizz_risk":1,"updated_at":"2026-03-10T00:28:16.226528+05:30"},{"city":"Shillong","state":"Meghalaya","latitude":25.5788,"longitude":91.8933,"temp":10.9,"humidity":95,"rain":0.0,"pressure":859.4,"uv_index":6.45,"wind_gusts":22.0,"aqi":154,"pm10":78.0,"pm2_5":71.2,"mosquito_risk":3,"arthritis_risk":10,"migraine_risk":7,"frizz_risk":0,"updated_at":"2026-03-10T00:28:16.226535+05:30"},{"city":"Imphal","state":"Manipur","latitude":24.817,"longitude":93.9368,"temp":15.5,"humidity":96,"rain":0.0,"pressure":928.2,"uv_index":7.95,"wind_gusts":31.0,"aqi":161,"pm10":115.0,"pm2_5":110.4,"mosquito_risk":3,"arthritis_risk":10,"migraine_risk":7,"frizz_risk":0,"updated_at":"2026-03-10T00:28:16.226542+05:30"},{"city":"Aizawl","state":"Mizoram","latitude":23.7271,"longitude":92.7176,"temp":16.1,"humidity":85,"rain":0.0,"pressure":896.5,"uv_index":7.85,"wind_gusts":26.3,"aqi":165,"pm10":95.2,"pm2_5":86.8,"mosquito_risk":3,"arthritis_risk":10,"migraine_risk":7,"frizz_risk":0,"updated_at":"2026-03-10T00:28:16.226566+05:30"},{"city":"Kohima","state":"Nagaland","latitude":25.6701,"longitude":94.1077,"temp":14.4,"humidity":77,"rain":0.0,"pressure":859.1,"uv_index":7.0,"wind_gusts":53.3,"aqi":154,"pm10":73.3,"pm2_5":69.6,"mosquito_risk":3,"arthritis_risk":5,"migraine_risk":7,"frizz_risk":0,"updated_at":"2026-03-10T00:28:16.226574+05:30"},{"city":"Gangtok","state":"Sikkim","latitude":27.3314,"longitude":88.6138,"temp":13.5,"humidity":73,"rain":0.0,"pressure":841.6,"uv_index":4.8,"wind_gusts":16.9,"aqi":158,"pm10":89.6,"pm2_5":74.5,"mosquito_risk":3,"arthritis_risk":5,"migraine_risk":3,"frizz_risk":0,"updated_at":"2026-03-10T00:28:16.226580+05:30"},{"city":"Siliguri","state":"West Bengal","latitude":26.7271,"longitude":88.3953,"temp":21.2,"humidity":58,"rain":0.0,"pressure":1000.7,"uv_index":7.35,"wind_gusts":18.4,"aqi":164,"pm10":114.8,"pm2_5":91.3,"mosquito_risk":0,"arthritis_risk":5,"migraine_risk":4,"frizz_risk":0,"updated_at":"2026-03-10T00:28:19.497240+05:30"},{"city":"Durgapur","state":"West Bengal","latitude":23.5204,"longitude":87.3119,"temp":23.4,"humidity":90,"rain":0.0,"pressure":1001.5,"uv_index":7.8,"wind_gusts":25.2,"aqi":164,"pm10":87.5,"pm2_5":78.5,"mosquito_risk":3,"arthritis_risk":5,"migraine_risk":4,"frizz_risk":1,"updated_at":"2026-03-10T00:28:19.497270+05:30"},{"city":"Asansol","state":"West Bengal","latitude":23.6739,"longitude":86.9524,"temp":23.0,"humidity":89,"rain":0.0,"pressure":1000.1,"uv_index":7.55,"wind_gusts":25.6,"aqi":165,"pm10":92.4,"pm2_5":82.2,"mosquito_risk":3,"arthritis_risk":5,"migraine_risk":4,"frizz_risk":1,"updated_at":"2026-03-10T00:28:19.497280+05:30"},{"city":"Pondicherry","state":"Puducherry","latitude":11.9139,"longitude":79.8145,"temp":24.2,"humidity":86,"rain":0.0,"pressure":1012.7,"uv_index":8.95,"wind_gusts":33.1,"aqi":85,"pm10":32.2,"pm2_5":23.5,"mosquito_risk":3,"arthritis_risk":0,"migraine_risk":4,"frizz_risk":1,"updated_at":"2026-03-10T00:28:19.497289+05:30"},{"city":"Port Blair","state":"Andaman and Nicobar Islands","latitude":11.6234,"longitude":92.7265,"temp":27.6,"humidity":80,"rain":0.0,"pressure":1009.3,"uv_index":8.9,"wind_gusts":23.8,"aqi":85,"pm10":30.9,"pm2_5":26.5,"mosquito_risk":7,"arthritis_risk":0,"migraine_risk":4,"frizz_risk":1,"updated_at":"2026-03-10T00:28:19.497296+05:30"},{"city":"Haridwar","state":"Uttarakhand","latitude":29.9457,"longitude":78.1642,"temp":22.0,"humidity":91,"rain":0.0,"pressure":979.6,"uv_index":5.8,"wind_gusts":24.5,"aqi":156,"pm10":80.6,"pm2_5":68.5,"mosquito_risk":3,"arthritis_risk":5,"migraine_risk":3,"frizz_risk":1,"updated_at":"2026-03-10T00:28:19.497304+05:30"},{"city":"Rishikesh","state":"Uttarakhand","latitude":30.0869,"longitude":78.2676,"temp":21.1,"humidity":88,"rain":0.0,"pressure":972.4,"uv_index":5.85,"wind_gusts":24.8,"aqi":151,"pm10":82.0,"pm2_5":59.8,"mosquito_risk":3,"arthritis_risk":5,"migraine_risk":3,"frizz_risk":1,"updated_at":"2026-03-10T00:28:19.497312+05:30"},{"city":"Nainital","state":"Uttarakhand","latitude":29.3919,"longitude":79.4542,"temp":17.5,"humidity":83,"rain":0.0,"pressure":810.2,"uv_index":6.65,"wind_gusts":54.0,"aqi":160,"pm10":117.8,"pm2_5":85.4,"mosquito_risk":3,"arthritis_risk":10,"migraine_risk":7,"frizz_risk":0,"updated_at":"2026-03-10T00:28:19.497320+05:30"},{"city":"Mussoorie","state":"Uttarakhand","latitude":30.4599,"longitude":78.0664,"temp":16.0,"humidity":79,"rain":0.0,"pressure":806.7,"uv_index":6.2,"wind_gusts":40.7,"aqi":141,"pm10":90.3,"pm2_5":66.6,"mosquito_risk":3,"arthritis_risk":5,"migraine_risk":7,"frizz_risk":0,"updated_at":"2026-03-10T00:28:19.497328+05:30"},{"city":"Dharamshala","state":"Himachal Pradesh","latitude":32.219,"longitude":76.3234,"temp":21.5,"humidity":43,"rain":0.0,"pressure":874.1,"uv_index":6.4,"wind_gusts":23.0,"aqi":49,"pm10":35.9,"pm2_5":20.0,"mosquito_risk":0,"arthritis_risk":5,"migraine_risk":7,"frizz_risk":0,"updated_at":"2026-03-10T00:28:19.497335+05:30"},{"city":"Dalhousie","state":"Himachal Pradesh","latitude":32.5387,"longitude":75.971,"temp":18.1,"humidity":48,"rain":0.0,"pressure":808.2,"uv_index":6.65,"wind_gusts":22.0,"aqi":78,"pm10":53.9,"pm2_5":42.8,"mosquito_risk":0,"arthritis_risk":5,"migraine_risk":7,"frizz_risk":0,"updated_at":"2026-03-10T00:28:19.497344+05:30"},{"city":"Patiala","state":"Punjab","latitude":30.3398,"longitude":76.3869,"temp":21.9,"humidity":78,"rain":0.0,"pressure":983.1,"uv_index":5.25,"wind_gusts":20.9,"aqi":165,"pm10":217.9,"pm2_5":117.6,"mosquito_risk":3,"arthritis_risk":5,"migraine_risk":3,"frizz_risk":1,"updated_at":"2026-03-10T00:28:19.497351+05:30"},{"city":"Bhatinda","state":"Punjab","latitude":30.211,"longitude":74.9455,"temp":23.0,"humidity":67,"rain":0.0,"pressure":988.3,"uv_index":6.35,"wind_gusts":20.5,"aqi":155,"pm10":120.6,"pm2_5":95.7,"mosquito_risk":3,"arthritis_risk":5,"migraine_risk":7,"frizz_risk":1,"updated_at":"2026-03-10T00:28:19.497357+05:30"},{"city":"Rohtak","state":"Haryana","latitude":28.8955,"longitude":76.6066,"temp":21.0,"humidity":83,"rain":0.0,"pressure":986.3,"uv_index":6.05,"wind_gusts":25.9,"aqi":187,"pm10":568.1,"pm2_5":132.7,"mosquito_risk":3,"arthritis_risk":5,"migraine_risk":7,"frizz_risk":1,"updated_at":"2026-03-10T00:28:19.497364+05:30"},{"city":"Panipat","state":"Haryana","latitude":29.3909,"longitude":76.9635,"temp":20.9,"humidity":87,"rain":0.0,"pressure":985.2,"uv_index":5.75,"wind_gusts":25.6,"aqi":539,"pm10":581.1,"pm2_5":137.4,"mosquito_risk":3,"arthritis_risk":5,"migraine_risk":3,"frizz_risk":1,"updated_at":"2026-03-10T00:28:19.497371+05:30"},{"city":"Mathura","state":"Uttar Pradesh","latitude":27.4924,"longitude":77.6737,"temp":21.7,"humidity":73,"rain":0.0,"pressure":991.7,"uv_index":6.3,"wind_gusts":23.8,"aqi":158,"pm10":231.9,"pm2_5":103.1,"mosquito_risk":3,"arthritis_risk":5,"migraine_risk":7,"frizz_risk":1,"updated_at":"2026-03-10T00:28:19.497378+05:30"},{"city":"Vrindavan","state":"Uttar Pradesh","latitude":27.5823,"longitude":77.7027,"temp":20.9,"humidity":80,"rain":0.0,"pressure":992.2,"uv_index":6.25,"wind_gusts":25.2,"aqi":158,"pm10":231.9,"pm2_5":103.1,"mosquito_risk":3,"arthritis_risk":5,"migraine_risk":7,"frizz_risk":1,"updated_at":"2026-03-10T00:28:19.497385+05:30"},{"city":"Ayodhya","state":"Uttar Pradesh","latitude":26.7922,"longitude":82.1998,"temp":23.2,"humidity":89,"rain":0.0,"pressure":1001.6,"uv_index":6.7,"wind_gusts":18.7,"aqi":198,"pm10":152.7,"pm2_5":144.4,"mosquito_risk":3,"arthritis_risk":5,"migraine_risk":4,"frizz_risk":1,"updated_at":"2026-03-10T00:28:19.497392+05:30"},{"city":"Ratlam","state":"Madhya Pradesh","latitude":23.3315,"longitude":75.0367,"temp":20.3,"humidity":72,"rain":0.0,"pressure":957.6,"uv_index":7.5,"wind_gusts":12.2,"aqi":76,"pm10":37.1,"pm2_5":35.4,"mosquito_risk":3,"arthritis_risk":5,"migraine_risk":7,"frizz_risk":0,"updated_at":"2026-03-10T00:28:19.497399+05:30"},{"city":"Sagar","state":"Madhya Pradesh","latitude":23.8388,"longitude":78.7378,"temp":24.2,"humidity":40,"rain":0.0,"pressure":953.7,"uv_index":7.5,"wind_gusts":17.3,"aqi":60,"pm10":29.3,"pm2_5":15.4,"mosquito_risk":0,"arthritis_risk":5,"migraine_risk":7,"frizz_risk":0,"updated_at":"2026-03-10T00:28:19.497405+05:30"},{"city":"Satna","state":"Madhya Pradesh","latitude":24.6005,"longitude":80.8322,"temp":23.6,"humidity":68,"rain":0.0,"pressure":975.9,"uv_index":7.45,"wind_gusts":18.7,"aqi":127,"pm10":91.5,"pm2_5":33.9,"mosquito_risk":3,"arthritis_risk":5,"migraine_risk":7,"frizz_risk":1,"updated_at":"2026-03-10T00:28:19.497412+05:30"},{"city":"Akola","state":"Maharashtra","latitude":20.7002,"longitude":77.0082,"temp":26.2,"humidity":53,"rain":0.0,"pressure":977.6,"uv_index":7.95,"wind_gusts":16.9,"aqi":66,"pm10":37.3,"pm2_5":32.7,"mosquito_risk":4,"arthritis_risk":5,"migraine_risk":7,"frizz_risk":0,"updated_at":"2026-03-10T00:28:19.497419+05:30"},{"city":"Amravati","state":"Maharashtra","latitude":20.9374,"longitude":77.7796,"temp":23.4,"humidity":57,"rain":0.0,"pressure":970.0,"uv_index":7.9,"wind_gusts":24.8,"aqi":61,"pm10":42.3,"pm2_5":36.0,"mosquito_risk":0,"arthritis_risk":5,"migraine_risk":7,"frizz_risk":0,"updated_at":"2026-03-10T00:28:19.497426+05:30"},{"city":"Latur","state":"Maharashtra","latitude":18.4088,"longitude":76.5604,"temp":23.7,"humidity":45,"rain":0.0,"pressure":942.3,"uv_index":8.4,"wind_gusts":29.5,"aqi":101,"pm10":46.1,"pm2_5":37.1,"mosquito_risk":0,"arthritis_risk":5,"migraine_risk":7,"frizz_risk":0,"updated_at":"2026-03-10T00:28:19.497433+05:30"},{"city":"Nanded","state":"Maharashtra","latitude":19.1383,"longitude":77.3091,"temp":26.6,"humidity":44,"rain":0.0,"pressure":971.3,"uv_index":8.15,"wind_gusts":29.5,"aqi":80,"pm10":58.0,"pm2_5":47.3,"mosquito_risk":4,"arthritis_risk":5,"migraine_risk":7,"frizz_risk":0,"updated_at":"2026-03-10T00:28:19.497439+05:30"},{"city":"Gulbarga","state":"Karnataka","latitude":17.3297,"longitude":76.8343,"temp":26.6,"humidity":46,"rain":0.0,"pressure":961.8,"uv_index":8.5,"wind_gusts":34.6,"aqi":122,"pm10":37.6,"pm2_5":34.3,"mosquito_risk":4,"arthritis_risk":5,"migraine_risk":7,"frizz_risk":0,"updated_at":"2026-03-10T00:28:19.497445+05:30"},{"city":"Bidar","state":"Karnataka","latitude":17.9104,"longitude":77.5199,"temp":23.9,"humidity":60,"rain":0.0,"pressure":938.3,"uv_index":8.45,"wind_gusts":33.5,"aqi":111,"pm10":43.5,"pm2_5":39.7,"mosquito_risk":0,"arthritis_risk":5,"migraine_risk":7,"frizz_risk":0,"updated_at":"2026-03-10T00:28:19.497451+05:30"},{"city":"Hospet","state":"Karnataka","latitude":15.2689,"longitude":76.3909,"temp":27.1,"humidity":57,"rain":0.0,"pressure":958.3,"uv_index":8.75,"wind_gusts":35.3,"aqi":111,"pm10":46.1,"pm2_5":40.6,"mosquito_risk":4,"arthritis_risk":5,"migraine_risk":7,"frizz_risk":1,"updated_at":"2026-03-10T00:28:19.497457+05:30"},{"city":"Tirupur","state":"Tamil Nadu","latitude":11.1085,"longitude":77.3411,"temp":25.3,"humidity":65,"rain":0.0,"pressure":978.6,"uv_index":9.25,"wind_gusts":39.2,"aqi":113,"pm10":50.3,"pm2_5":45.3,"mosquito_risk":7,"arthritis_risk":5,"migraine_risk":7,"frizz_risk":1,"updated_at":"2026-03-10T00:28:19.497464+05:30"},{"city":"Alappuzha","state":"Kerala","latitude":9.4981,"longitude":76.3388,"temp":26.8,"humidity":86,"rain":0.0,"pressure":1010.8,"uv_index":8.95,"wind_gusts":25.9,"aqi":124,"pm10":47.3,"pm2_5":44.6,"mosquito_risk":7,"arthritis_risk":0,"migraine_risk":4,"frizz_risk":1,"updated_at":"2026-03-10T00:28:19.497470+05:30"},{"city":"Munnar","state":"Kerala","latitude":10.0889,"longitude":77.0595,"temp":19.8,"humidity":81,"rain":0.0,"pressure":857.5,"uv_index":9.55,"wind_gusts":24.8,"aqi":97,"pm10":48.1,"pm2_5":41.0,"mosquito_risk":3,"arthritis_risk":10,"migraine_risk":7,"frizz_risk":1,"updated_at":"2026-03-10T00:28:19.497477+05:30"},{"city":"Silchar","state":"Assam","latitude":24.8333,"longitude":92.7789,"temp":22.6,"humidity":92,"rain":0.0,"pressure":1011.4,"uv_index":7.65,"wind_gusts":14.0,"aqi":171,"pm10":136.4,"pm2_5":126.2,"mosquito_risk":3,"arthritis_risk":0,"migraine_risk":4,"frizz_risk":1,"updated_at":"2026-03-10T00:28:19.497484+05:30"},{"city":"Dibrugarh","state":"Assam","latitude":27.4728,"longitude":94.912,"temp":22.8,"humidity":90,"rain":0.0,"pressure":1002.5,"uv_index":7.4,"wind_gusts":15.8,"aqi":162,"pm10":82.4,"pm2_5":75.0,"mosquito_risk":3,"arthritis_risk":5,"migraine_risk":4,"frizz_risk":1,"updated_at":"2026-03-10T00:28:19.497490+05:30"}]