[{"city":"Delhi","state":"Delhi","latitude":28.6139,"longitude":77.209,"temp":18.0,"humidity":80,"rain":0.0,"pressure":983.7,"uv_index":5.85,"wind_gusts":21.2,"aqi":347,"pm10":255.2,"pm2_5":68.9,"mosquito_risk":3,"arthritis_risk":5,"migraine_risk":3,"frizz_risk":0,"updated_at":"2026-03-17T05:05:18.134791+05:30"},{"city":"Mumbai","state":"Maharashtra","latitude":19.076,"longitude":72.8777,"temp":26.7,"humidity":76,"rain":0.0,"pressure":1008.6,"uv_index":7.7,"wind_gusts":18.4,"aqi":101,"pm10":102.9,"pm2_5":37.3,"mosquito_risk":7,"arthritis_risk":0,"migraine_risk":4,"frizz_risk":1,"updated_at":"2026-03-17T05:05:18.134847+05:30"},{"city":"Bangalore","state":"Karnataka","latitude":12.9716,"longitude":77.5946,"temp":19.9,"humidity":85,"rain":0.0,"pressure":910.6,"uv_index":9.35,"wind_gusts":41.0,"aqi":99,"pm10":30.9,"pm2_5":29.6,"mosquito_risk":3,"arthritis_risk":10,"migraine_risk":7,"frizz_risk":1,"updated_at":"2026-03-17T05:05:18.134864+05:30"},{"city":"Hyderabad","state":"Telangana","latitude":17.385,"longitude":78.4867,"temp":21.0,"humidity":89,"rain":0.0,"pressure":952.7,"uv_index":7.65,"wind_gusts":20.9,"aqi":99,"pm10":17.6,"pm2_5":13.5,"mosquito_risk":3,"arthritis_risk":5,"migraine_risk":7,"frizz_risk":1,"updated_at":"2026-03-17T05:05:18.134874+05:30"},{"city":"Chennai","state":"Tamil Nadu","latitude":13.0827,"longitude":80.2707,"temp":25.9,"humidity":85,"rain":0.0,"pressure":1008.1,"uv_index":9.1,"wind_gusts":32.0,"aqi":35,"pm10":10.8,"pm2_5":8.0,"mosquito_risk":7,"arthritis_risk":0,"migraine_risk":4,"frizz_risk":1,"updated_at":"2026-03-17T05:05:18.134883+05:30"},{"city":"Kolkata","state":"West Bengal","latitude":22.5726,"longitude":88.3639,"temp":23.0,"humidity":94,"rain":0.0,"pressure":1007.0,"uv_index":7.85,"wind_gusts":56.2,"aqi":79,"pm10":44.8,"pm2_5":40.6,"mosquito_risk":3,"arthritis_risk":5,"migraine_risk":4,"frizz_risk":1,"updated_at":"2026-03-17T05:05:18.134892+05:30"},{"city":"Pune","state":"Maharashtra","latitude":18.5204,"longitude":73.8567,"temp":17.2,"humidity":74,"rain":0.0,"pressure":947.0,"uv_index":8.25,"wind_gusts":37.1,"aqi":86,"pm10":66.8,"pm2_5":37.6,"mosquito_risk":3,"arthritis_risk":5,"migraine_risk":7,"frizz_risk":0,"updated_at":"2026-03-17T05:05:18.134905+05:30"},{"city":"Ahmedabad","state":"Gujarat","latitude":23.0225,"longitude":72.5714,"temp":22.0,"humidity":61,"rain":0.0,"pressure":1002.0,"uv_index":7.55,"wind_gusts":19.8,"aqi":57,"pm10":28.7,"pm2_5":14.6,"mosquito_risk":3,"arthritis_risk":5,"migraine_risk":4,"frizz_risk":0,"updated_at":"2026-03-17T05:05:18.134912+05:30"},{"city":"Jaipur","state":"Rajasthan","latitude":26.9124,"longitude":75.7873,"temp":19.8,"humidity":65,"rain":0.0,"pressure":959.1,"uv_index":6.85,"wind_gusts":38.5,"aqi":218,"pm10":532.7,"pm2_5":109.0,"mosquito_risk":3,"arthritis_risk":5,"migraine_risk":7,"frizz_risk":0,"updated_at":"2026-03-17T05:05:18.134919+05:30"},{"city":"Lucknow","state":"Uttar Pradesh","latitude":26.8467,"longitude":80.9462,"temp":19.8,"humidity":67,"rain":0.0,"pressure":994.2,"uv_index":6.45,"wind_gusts":22.0,"aqi":89,"pm10":47.1,"pm2_5":30.5,"mosquito_risk":3,"arthritis_risk":5,"migraine_risk":7,"frizz_risk":0,"updated_at":"2026-03-17T05:05:18.134927+05:30"},{"city":"Kanpur","state":"Uttar Pradesh","latitude":26.4499,"longitude":80.3319,"temp":19.8,"humidity":72,"rain":0.0,"pressure":992.3,"uv_index":6.7,"wind_gusts":25.9,"aqi":122,"pm10":232.4,"pm2_5":49.5,"mosquito_risk":3,"arthritis_risk":5,"migraine_risk":7,"frizz_risk":0,"updated_at":"2026-03-17T05:05:18.134934+05:30"},{"city":"Chandigarh","state":"Chandigarh","latitude":30.7333,"longitude":76.7794,"temp":13.3,"humidity":66,"rain":0.0,"pressure":969.4,"uv_index":5.65,"wind_gusts":17.6,"aqi":61,"pm10":21.3,"pm2_5":11.6,"mosquito_risk":3,"arthritis_risk":5,"migraine_risk":3,"frizz_risk":0,"updated_at":"2026-03-17T05:05:18.134941+05:30"},{"city":"Srinagar","state":"Jammu and Kashmir","latitude":34.0837,"longitude":74.7973,"temp":2.3,"humidity":89,"rain":0.0,"pressure":838.2,"uv_index":6.8,"wind_gusts":15.5,"aqi":79,"pm10":19.0,"pm2_5":17.8,"mosquito_risk":3,"arthritis_risk":10,"migraine_risk":7,"frizz_risk":0,"updated_at":"2026-03-17T05:05:18.134948+05:30"},{"city":"Jammu","state":"Jammu and Kashmir","latitude":32.7266,"longitude":74.857,"temp":12.4,"humidity":70,"rain":0.0,"pressure":975.2,"uv_index":6.75,"wind_gusts":16.2,"aqi":67,"pm10":31.2,"pm2_5":28.9,"mosquito_risk":3,"arthritis_risk":5,"migraine_risk":7,"frizz_risk":0,"updated_at":"2026-03-17T05:05:18.134955+05:30"},{"city":"Amritsar","state":"Punjab","latitude":31.634,"longitude":74.8723,"temp":10.6,"humidity":90,"rain":0.0,"pressure":983.6,"uv_index":6.55,"wind_gusts":17.3,"aqi":81,"pm10":48.1,"pm2_5":30.6,"mosquito_risk":3,"arthritis_risk":10,"migraine_risk":7,"frizz_risk":0,"updated_at":"2026-03-17T05:05:18.134962+05:30"},{"city":"Ludhiana","state":"Punjab","latitude":30.901,"longitude":75.8573,"temp":11.5,"humidity":78,"rain":0.0,"pressure":980.6,"uv_index":6.3,"wind_gusts":14.4,"aqi":76,"pm10":43.5,"pm2_5":23.6,"mosquito_risk":3,"arthritis_risk":5,"migraine_risk":7,"frizz_risk":0,"updated_at":"2026-03-17T05:05:18.134971+05:30"},{"city":"Jalandhar","state":"Punjab","latitude":31.326,"longitude":75.5762,"temp":11.2,"humidity":85,"rain":0.0,"pressure":982.0,"uv_index":6.4,"wind_gusts":16.6,"aqi":70,"pm10":51.5,"pm2_5":20.1,"mosquito_risk":3,"arthritis_risk":10,"migraine_risk":7,"frizz_risk":0,"updated_at":"2026-03-17T05:05:18.134979+05:30"},{"city":"Dehradun","state":"Uttarakhand","latitude":30.6284,"longitude":78.0322,"temp":7.9,"humidity":47,"rain":0.0,"pressure":826.7,"uv_index":5.2,"wind_gusts":23.8,"aqi":40,"pm10":14.4,"pm2_5":5.5,"mosquito_risk":0,"arthritis_risk":5,"migraine_risk":3,"frizz_risk":1,"updated_at":"2026-03-17T05:05:18.134986+05:30"},{"city":"Shimla","state":"Himachal Pradesh","latitude":31.1048,"longitude":77.1734,"temp":6.7,"humidity":58,"rain":0.0,"pressure":779.7,"uv_index":5.65,"wind_gusts":23.0,"aqi":60,"pm10":23.4,"pm2_5":10.5,"mosquito_risk":0,"arthritis_risk":5,"migraine_risk":3,"frizz_risk":1,"updated_at":"2026-03-17T05:05:18.134993+05:30"},{"city":"Manali","state":"Himachal Pradesh","latitude":32.2396,"longitude":77.1887,"temp":5.6,"humidity":30,"rain":0.0,"pressure":813.6,"uv_index":8.55,"wind_gusts":29.9,"aqi":47,"pm10":8.5,"pm2_5":3.3,"mosquito_risk":0,"arthritis_risk":5,"migraine_risk":7,"frizz_risk":1,"updated_at":"2026-03-17T05:05:18.135000+05:30"},{"city":"Gurgaon","state":"Haryana","latitude":28.4595,"longitude":77.0266,"temp":15.6,"humidity":88,"rain":0.0,"pressure":982.1,"uv_index":5.4,"wind_gusts":20.2,"aqi":1711,"pm10":812.1,"pm2_5":129.0,"mosquito_risk":3,"arthritis_risk":10,"migraine_risk":3,"frizz_risk":0,"updated_at":"2026-03-17T05:05:18.135006+05:30"},{"city":"Noida","state":"Uttar Pradesh","latitude":28.5355,"longitude":77.391,"temp":18.0,"humidity":81,"rain":0.0,"pressure":985.3,"uv_index":5.45,"wind_gusts":20.5,"aqi":1711,"pm10":812.1,"pm2_5":129.0,"mosquito_risk":3,"arthritis_risk":10,"migraine_risk":3,"frizz_risk":0,"updated_at":"2026-03-17T05:05:18.135013+05:30"},{"city":"Ghaziabad","state":"Uttar Pradesh","latitude":28.6692,"longitude":77.4538,"temp":16.8,"humidity":84,"rain":0.0,"pressure":983.3,"uv_index":5.6,"wind_gusts":21.2,"aqi":114,"pm10":83.6,"pm2_5":45.3,"mosquito_risk":3,"arthritis_risk":10,"migraine_risk":3,"frizz_risk":0,"updated_at":"2026-03-17T05:05:18.135019+05:30"},{"city":"Faridabad","state":"Haryana","latitude":28.4089,"longitude":77.3178,"temp":16.9,"humidity":88,"rain":0.0,"pressure":984.4,"uv_index":5.3,"wind_gusts":20.5,"aqi":1711,"pm10":812.1,"pm2_5":129.0,"mosquito_risk":3,"arthritis_risk":10,"migraine_risk":3,"frizz_risk":0,"updated_at":"2026-03-17T05:05:18.135025+05:30"},{"city":"Meerut","state":"Uttar Pradesh","latitude":28.9845,"longitude":77.7064,"temp":15.6,"humidity":85,"rain":0.0,"pressure":982.0,"uv_index":5.8,"wind_gusts":17.6,"aqi":114,"pm10":83.6,"pm2_5":45.3,"mosquito_risk":3,"arthritis_risk":10,"migraine_risk":3,"frizz_risk":0,"updated_at":"2026-03-17T05:05:18.135032+05:30"},{"city":"Agra","state":"Uttar Pradesh","latitude":27.1767,"longitude":78.0081,"temp":18.1,"humidity":82,"rain":0.0,"pressure":988.2,"uv_index":6.55,"wind_gusts":16.2,"aqi":800,"pm10":566.2,"pm2_5":91.0,"mosquito_risk":3,"arthritis_risk":10,"migraine_risk":7,"frizz_risk":0,"updated_at":"2026-03-17T05:05:18.135041+05:30"},{"city":"Varanasi","state":"Uttar Pradesh","latitude":25.3176,"longitude":82.9739,"temp":20.4,"humidity":81,"rain":0.0,"pressure":998.7,"uv_index":7.35,"wind_gusts":18.0,"aqi":151,"pm10":76.6,"pm2_5":58.7,"mosquito_risk":3,"arthritis_risk":5,"migraine_risk":7,"frizz_risk":1,"updated_at":"2026-03-17T05:05:18.135050+05:30"},{"city":"Prayagraj","state":"Uttar Pradesh","latitude":25.4358,"longitude":81.8463,"temp":21.0,"humidity":78,"rain":0.0,"pressure":997.1,"uv_index":7.2,"wind_gusts":20.9,"aqi":144,"pm10":50.8,"pm2_5":34.5,"mosquito_risk":3,"arthritis_risk":5,"migraine_risk":7,"frizz_risk":1,"updated_at":"2026-03-17T05:05:18.135057+05:30"},{"city":"Gorakhpur","state":"Uttar Pradesh","latitude":26.7606,"longitude":83.3732,"temp":18.9,"humidity":68,"rain":0.0,"pressure":998.1,"uv_index":7.05,"wind_gusts":29.5,"aqi":97,"pm10":69.6,"pm2_5":43.0,"mosquito_risk":3,"arthritis_risk":5,"migraine_risk":7,"frizz_risk":0,"updated_at":"2026-03-17T05:05:18.135063+05:30"},{"city":"Bareilly","state":"Uttar Pradesh","latitude":28.367,"longitude":79.4304,"temp":17.8,"humidity":70,"rain":0.0,"pressure":987.1,"uv_index":5.3,"wind_gusts":16.9,"aqi":97,"pm10":49.2,"pm2_5":30.6,"mosquito_risk":3,"arthritis_risk":5,"migraine_risk":3,"frizz_risk":0,"updated_at":"2026-03-17T05:05:18.135070+05:30"},{"city":"Aligarh","state":"Uttar Pradesh","latitude":27.8974,"longitude":78.088,"temp":17.3,"humidity":85,"rain":0.0,"pressure":986.1,"uv_index":5.6,"wind_gusts":18.0,"aqi":464,"pm10":217.0,"pm2_5":62.9,"mosquito_risk":3,"arthritis_risk":10,"migraine_risk":3,"frizz_risk":0,"updated_at":"2026-03-17T05:05:18.135076+05:30"},{"city":"Moradabad","state":"Uttar Pradesh","latitude":28.8386,"longitude":78.7733,"temp":17.0,"humidity":73,"rain":0.0,"pressure":984.2,"uv_index":5.0,"wind_gusts":17.3,"aqi":105,"pm10":61.2,"pm2_5":36.3,"mosquito_risk":3,"arthritis_risk":5,"migraine_risk":3,"frizz_risk":0,"updated_at":"2026-03-17T05:05:18.135082+05:30"},{"city":"Saharanpur","state":"Uttar Pradesh","latitude":29.9637,"longitude":77.546,"temp":16.4,"humidity":68,"rain":0.0,"pressure":976.4,"uv_index":4.8,"wind_gusts":15.5,"aqi":116,"pm10":56.7,"pm2_5":44.6,"mosquito_risk":3,"arthritis_risk":5,"migraine_risk":3,"frizz_risk":0,"updated_at":"2026-03-17T05:05:18.135088+05:30"},{"city":"Jhansi","state":"Uttar Pradesh","latitude":25.4484,"longitude":78.5685,"temp":22.3,"humidity":44,"rain":0.0,"pressure":977.7,"uv_index":7.2,"wind_gusts":25.9,"aqi":92,"pm10":83.8,"pm2_5":27.8,"mosquito_risk":0,"arthritis_risk":5,"migraine_risk":7,"frizz_risk":0,"updated_at":"2026-03-17T05:05:21.354345+05:30"},{"city":"Surat","state":"Gujarat","latitude":21.1702,"longitude":72.8311,"temp":25.3,"humidity":87,"rain":0.0,"pressure":1007.0,"uv_index":7.4,"wind_gusts":26.3,"aqi":97,"pm10":40.7,"pm2_5":28.6,"mosquito_risk":7,"arthritis_risk":5,"migraine_risk":4,"frizz_risk":1,"updated_at":"2026-03-17T05:05:21.354377+05:30"},{"city":"Vadodara","state":"Gujarat","latitude":22.3072,"longitude":73.1812,"temp":22.9,"humidity":88,"rain":0.0,"pressure":1004.5,"uv_index":7.5,"wind_gusts":25.9,"aqi":73,"pm10":34.0,"pm2_5":23.0,"mosquito_risk":3,"arthritis_risk":5,"migraine_risk":4,"frizz_risk":1,"updated_at":"2026-03-17T05:05:21.354388+05:30"},{"city":"Rajkot","state":"Gujarat","latitude":22.3039,"longitude":70.8022,"temp":22.5,"humidity":87,"rain":0.0,"pressure":994.1,"uv_index":7.35,"wind_gusts":24.5,"aqi":58,"pm10":36.3,"pm2_5":14.1,"mosquito_risk":3,"arthritis_risk":5,"migraine_risk":7,"frizz_risk":1,"updated_at":"2026-03-17T05:05:21.354397+05:30"},{"city":"Thane","state":"Maharashtra","latitude":19.2183,"longitude":72.9781,"temp":24.4,"humidity":89,"rain":0.0,"pressure":1008.1,"uv_index":7.7,"wind_gusts":30.6,"aqi":101,"pm10":102.9,"pm2_5":37.3,"mosquito_risk":3,"arthritis_risk":0,"migraine_risk":4,"frizz_risk":1,"updated_at":"2026-03-17T05:05:21.354405+05:30"},{"city":"Nagpur","state":"Maharashtra","latitude":21.1458,"longitude":79.0882,"temp":24.0,"humidity":66,"rain":0.0,"pressure":972.7,"uv_index":8.05,"wind_gusts":21.2,"aqi":100,"pm10":51.2,"pm2_5":46.4,"mosquito_risk":3,"arthritis_risk":5,"migraine_risk":7,"frizz_risk":1,"updated_at":"2026-03-17T05:05:21.354414+05:30"},{"city":"Nashik","state":"Maharashtra","latitude":19.9975,"longitude":73.7898,"temp":19.1,"humidity":71,"rain":0.0,"pressure":944.8,"uv_index":7.9,"wind_gusts":27.4,"aqi":76,"pm10":88.2,"pm2_5":30.0,"mosquito_risk":3,"arthritis_risk":5,"migraine_risk":7,"frizz_risk":0,"updated_at":"2026-03-17T05:05:21.354422+05:30"},{"city":"Aurangabad","state":"Maharashtra","latitude":19.8762,"longitude":75.3433,"temp":21.2,"humidity":62,"rain":0.0,"pressure":943.5,"uv_index":8.4,"wind_gusts":29.2,"aqi":63,"pm10":48.2,"pm2_5":19.5,"mosquito_risk":3,"arthritis_risk":5,"migraine_risk":7,"frizz_risk":0,"updated_at":"2026-03-17T05:05:21.354429+05:30"},{"city":"Solapur","state":"Maharashtra","latitude":17.6599,"longitude":75.9064,"temp":22.4,"humidity":58,"rain":0.0,"pressure":956.3,"uv_index":8.5,"wind_gusts":24.8,"aqi":89,"pm10":36.4,"pm2_5":34.1,"mosquito_risk":0,"arthritis_risk":5,"migraine_risk":7,"frizz_risk":0,"updated_at":"2026-03-17T05:05:21.354437+05:30"},{"city":"Kolhapur","state":"Maharashtra","latitude":16.705,"longitude":74.2433,"temp":19.4,"humidity":84,"rain":0.0,"pressure":946.7,"uv_index":8.7,"wind_gusts":44.3,"aqi":90,"pm10":43.0,"pm2_5":34.5,"mosquito_risk":3,"arthritis_risk":10,"migraine_risk":7,"frizz_risk":1,"updated_at":"2026-03-17T05:05:21.354445+05:30"},{"city":"Goa","state":"Goa","latitude":15.2993,"longitude":74.124,"temp":26.6,"humidity":80,"rain":0.0,"pressure":997.3,"uv_index":8.75,"wind_gusts":36.7,"aqi":81,"pm10":44.6,"pm2_5":29.5,"mosquito_risk":7,"arthritis_risk":5,"migraine_risk":7,"frizz_risk":1,"updated_at":"2026-03-17T05:05:21.354454+05:30"},{"city":"Jodhpur","state":"Rajasthan","latitude":26.2389,"longitude":73.0243,"temp":20.9,"humidity":60,"rain":0.0,"pressure":982.4,"uv_index":6.0,"wind_gusts":30.6,"aqi":106,"pm10":246.8,"pm2_5":70.5,"mosquito_risk":0,"arthritis_risk":5,"migraine_risk":3,"frizz_risk":0,"updated_at":"2026-03-17T05:05:21.354461+05:30"},{"city":"Udaipur","state":"Rajasthan","latitude":24.5854,"longitude":73.7125,"temp":20.9,"humidity":35,"rain":0.0,"pressure":945.3,"uv_index":7.85,"wind_gusts":34.2,"aqi":39,"pm10":50.3,"pm2_5":10.5,"mosquito_risk":0,"arthritis_risk":5,"migraine_risk":7,"frizz_risk":0,"updated_at":"2026-03-17T05:05:21.354469+05:30"},{"city":"Kota","state":"Rajasthan","latitude":25.2138,"longitude":75.8648,"temp":20.3,"humidity":41,"rain":0.0,"pressure":978.3,"uv_index":7.3,"wind_gusts":28.1,"aqi":58,"pm10":59.6,"pm2_5":18.5,"mosquito_risk":0,"arthritis_risk":5,"migraine_risk":7,"frizz_risk":0,"updated_at":"2026-03-17T05:05:21.354476+05:30"},{"city":"Bikaner","state":"Rajasthan","latitude":28.0229,"longitude":73.3119,"temp":19.6,"humidity":71,"rain":0.0,"pressure":982.9,"uv_index":6.7,"wind_gusts":19.8,"aqi":67,"pm10":78.2,"pm2_5":33.2,"mosquito_risk":3,"arthritis_risk":5,"migraine_risk":7,"frizz_risk":0,"updated_at":"2026-03-17T05:05:21.354483+05:30"},{"city":"Ajmer","state":"Rajasthan","latitude":26.4499,"longitude":74.6399,"temp":20.0,"humidity":61,"rain":0.0,"pressure":953.9,"uv_index":6.9,"wind_gusts":37.4,"aqi":85,"pm10":332.5,"pm2_5":86.8,"mosquito_risk":3,"arthritis_risk":5,"migraine_risk":7,"frizz_risk":0,"updated_at":"2026-03-17T05:05:21.354490+05:30"},{"city":"Gwalior","state":"Madhya Pradesh","latitude":26.2183,"longitude":78.1828,"temp":21.1,"humidity":65,"rain":0.0,"pressure":983.3,"uv_index":6.9,"wind_gusts":30.6,"aqi":98,"pm10":148.1,"pm2_5":35.5,"mosquito_risk":3,"arthritis_risk":5,"migraine_risk":7,"frizz_risk":0,"updated_at":"2026-03-17T05:05:21.354498+05:30"},{"city":"Indore","state":"Madhya Pradesh","latitude":22.7196,"longitude":75.8577,"temp":20.2,"humidity":63,"rain":0.0,"pressure":947.4,"uv_index":7.75,"wind_gusts":31.0,"aqi":59,"pm10":21.8,"pm2_5":14.6,"mosquito_risk":3,"arthritis_risk":5,"migraine_risk":7,"frizz_risk":0,"updated_at":"2026-03-17T05:05:21.354505+05:30"},{"city":"Bhopal","state":"Madhya Pradesh","latitude":23.2599,"longitude":77.4126,"temp":20.7,"humidity":51,"rain":0.0,"pressure":953.2,"uv_index":7.7,"wind_gusts":29.9,"aqi":48,"pm10":12.3,"pm2_5":10.8,"mosquito_risk":0,"arthritis_risk":5,"migraine_risk":7,"frizz_risk":0,"updated_at":"2026-03-17T05:05:21.354513+05:30"},{"city":"Jabalpur","state":"Madhya Pradesh","latitude":23.1815,"longitude":79.9864,"temp":21.1,"humidity":48,"rain":0.0,"pressure":961.2,"uv_index":7.75,"wind_gusts":25.6,"aqi":56,"pm10":22.5,"pm2_5":17.9,"mosquito_risk":0,"arthritis_risk":5,"migraine_risk":7,"frizz_risk":0,"updated_at":"2026-03-17T05:05:21.354521+05:30"},{"city":"Ujjain","state":"Madhya Pradesh","latitude":23.1765,"longitude":75.7885,"temp":20.6,"humidity":64,"rain":0.0,"pressure":953.2,"uv_index":7.65,"wind_gusts":26.3,"aqi":57,"pm10":26.0,"pm2_5":16.5,"mosquito_risk":3,"arthritis_risk":5,"migraine_risk":7,"frizz_risk":0,"updated_at":"2026-03-17T05:05:21.354529+05:30"},{"city":"Visakhapatnam","state":"Andhra Pradesh","latitude":17.6868,"longitude":83.2185,"temp":24.1,"humidity":87,"rain":0.0,"pressure":1005.5,"uv_index":8.7,"wind_gusts":40.0,"aqi":57,"pm10":20.1,"pm2_5":17.3,"mosquito_risk":3,"arthritis_risk":5,"migraine_risk":4,"frizz_risk":1,"updated_at":"2026-03-17T05:05:21.354537+05:30"},{"city":"Vijayawada","state":"Andhra Pradesh","latitude":16.5062,"longitude":80.648,"temp":23.4,"humidity":88,"rain":0.0,"pressure":1004.0,"uv_index":8.8,"wind_gusts":28.4,"aqi":47,"pm10":14.6,"pm2_5":12.7,"mosquito_risk":3,"arthritis_risk":5,"migraine_risk":4,"frizz_risk":1,"updated_at":"2026-03-17T05:05:21.354544+05:30"},{"city":"Guntur","state":"Andhra Pradesh","latitude":16.3067,"longitude":80.4365,"temp":23.3,"humidity":90,"rain":0.0,"pressure":1005.0,"uv_index":8.8,"wind_gusts":28.1,"aqi":45,"pm10":13.0,"pm2_5":11.3,"mosquito_risk":3,"arthritis_risk":5,"migraine_risk":4,"frizz_risk":1,"updated_at":"2026-03-17T05:05:21.354552+05:30"},{"city":"Nellore","state":"Andhra Pradesh","latitude":14.4426,"longitude":79.9865,"temp":24.7,"humidity":89,"rain":0.0,"pressure":1006.9,"uv_index":8.95,"wind_gusts":29.9,"aqi":40,"pm10":9.0,"pm2_5":6.7,"mosquito_risk":3,"arthritis_risk":5,"migraine_risk":4,"frizz_risk":1,"updated_at":"2026-03-17T05:05:21.354560+05:30"},{"city":"Kurnool","state":"Andhra Pradesh","latitude":15.8281,"longitude":78.0373,"temp":25.1,"humidity":74,"rain":0.0,"pressure":976.9,"uv_index":8.3,"wind_gusts":32.0,"aqi":79,"pm10":10.6,"pm2_5":9.7,"mosquito_risk":7,"arthritis_risk":5,"migraine_risk":7,"frizz_risk":1,"updated_at":"2026-03-17T05:05:21.354569+05:30"},{"city":"Kakinada","state":"Andhra Pradesh","latitude":16.9891,"longitude":82.2475,"temp":22.3,"humidity":93,"rain":0.0,"pressure":1009.2,"uv_index":8.75,"wind_gusts":28.1,"aqi":38,"pm10":16.2,"pm2_5":12.9,"mosquito_risk":3,"arthritis_risk":0,"migraine_risk":4,"frizz_risk":1,"updated_at":"2026-03-17T05:05:21.354576+05:30"},{"city":"Tirupati","state":"Andhra Pradesh","latitude":13.6288,"longitude":79.4192,"temp":23.2,"humidity":90,"rain":0.0,"pressure":992.7,"uv_index":9.1,"wind_gusts":27.4,"aqi":56,"pm10":17.1,"pm2_5":14.6,"mosquito_risk":3,"arthritis_risk":5,"migraine_risk":7,"frizz_risk":1,"updated_at":"2026-03-17T05:05:21.354584+05:30"},{"city":"Warangal","state":"Telangana","latitude":17.9689,"longitude":79.5941,"temp":22.5,"humidity":87,"rain":0.0,"pressure":978.9,"uv_index":8.25,"wind_gusts":32.8,"aqi":69,"pm10":14.2,"pm2_5":12.6,"mosquito_risk":3,"arthritis_risk":5,"migraine_risk":7,"frizz_risk":1,"updated_at":"2026-03-17T05:05:21.354592+05:30"},{"city":"Nizamabad","state":"Telangana","latitude":18.6725,"longitude":78.0941,"temp":24.0,"humidity":69,"rain":0.0,"pressure":964.3,"uv_index":8.45,"wind_gusts":31.7,"aqi":135,"pm10":35.6,"pm2_5":32.4,"mosquito_risk":3,"arthritis_risk":5,"migraine_risk":7,"frizz_risk":1,"updated_at":"2026-03-17T05:05:21.354599+05:30"},{"city":"Mysore","state":"Karnataka","latitude":12.2958,"longitude":76.6396,"temp":19.9,"humidity":92,"rain":0.0,"pressure":927.4,"uv_index":9.35,"wind_gusts":36.4,"aqi":122,"pm10":59.6,"pm2_5":55.5,"mosquito_risk":3,"arthritis_risk":10,"migraine_risk":7,"frizz_risk":1,"updated_at":"2026-03-17T05:05:21.354607+05:30"},{"city":"Mangalore","state":"Karnataka","latitude":12.9141,"longitude":74.856,"temp":27.2,"humidity":81,"rain":0.0,"pressure":1006.0,"uv_index":8.95,"wind_gusts":19.8,"aqi":103,"pm10":43.8,"pm2_5":34.6,"mosquito_risk":7,"arthritis_risk":5,"migraine_risk":4,"frizz_risk":1,"updated_at":"2026-03-17T05:05:21.354614+05:30"},{"city":"Hubli-Dharwad","state":"Karnataka","latitude":15.3647,"longitude":75.124,"temp":20.8,"humidity":95,"rain":0.0,"pressure":939.6,"uv_index":8.85,"wind_gusts":32.0,"aqi":90,"pm10":26.7,"pm2_5":18.5,"mosquito_risk":3,"arthritis_risk":5,"migraine_risk":7,"frizz_risk":1,"updated_at":"2026-03-17T05:05:21.354621+05:30"},{"city":"Belgaum","state":"Karnataka","latitude":15.8497,"longitude":74.4977,"temp":19.6,"humidity":98,"rain":0.0,"pressure":924.2,"uv_index":8.95,"wind_gusts":31.0,"aqi":78,"pm10":41.1,"pm2_5":29.9,"mosquito_risk":3,"arthritis_risk":10,"migraine_risk":7,"frizz_risk":1,"updated_at":"2026-03-17T05:05:24.574452+05:30"},{"city":"Coimbatore","state":"Tamil Nadu","latitude":11.0168,"longitude":76.9558,"temp":21.3,"humidity":96,"rain":0.0,"pressure":961.5,"uv_index":9.3,"wind_gusts":29.9,"aqi":99,"pm10":48.4,"pm2_5":44.4,"mosquito_risk":3,"arthritis_risk":5,"migraine_risk":7,"frizz_risk":1,"updated_at":"2026-03-17T05:05:24.574484+05:30"},{"city":"Madurai","state":"Tamil Nadu","latitude":9.9252,"longitude":78.1198,"temp":24.0,"humidity":87,"rain":0.0,"pressure":993.2,"uv_index":7.0,"wind_gusts":21.2,"aqi":52,"pm10":16.6,"pm2_5":15.1,"mosquito_risk":3,"arthritis_risk":5,"migraine_risk":7,"frizz_risk":1,"updated_at":"2026-03-17T05:05:24.574496+05:30"},{"city":"Trichy","state":"Tamil Nadu","latitude":10.7905,"longitude":78.7047,"temp":25.0,"humidity":93,"rain":0.0,"pressure":1000.4,"uv_index":9.2,"wind_gusts":22.7,"aqi":54,"pm10":15.9,"pm2_5":12.8,"mosquito_risk":7,"arthritis_risk":5,"migraine_risk":4,"frizz_risk":1,"updated_at":"2026-03-17T05:05:24.574506+05:30"},{"city":"Salem","state":"Tamil Nadu","latitude":11.6643,"longitude":78.146,"temp":24.1,"humidity":88,"rain":0.0,"pressure":977.7,"uv_index":9.25,"wind_gusts":25.9,"aqi":69,"pm10":22.9,"pm2_5":21.3,"mosquito_risk":3,"arthritis_risk":5,"migraine_risk":7,"frizz_risk":1,"updated_at":"2026-03-17T05:05:24.574514+05:30"},{"city":"Tirunelveli","state":"Tamil Nadu","latitude":8.7139,"longitude":77.7567,"temp":24.1,"humidity":89,"rain":0.0,"pressure":1003.2,"uv_index":7.15,"wind_gusts":36.0,"aqi":60,"pm10":25.6,"pm2_5":24.4,"mosquito_risk":3,"arthritis_risk":5,"migraine_risk":4,"frizz_risk":1,"updated_at":"2026-03-17T05:05:24.574523+05:30"},{"city":"Vellore","state":"Tamil Nadu","latitude":12.9165,"longitude":79.1325,"temp":22.7,"humidity":92,"rain":0.0,"pressure":985.5,"uv_index":9.15,"wind_gusts":32.0,"aqi":71,"pm10":21.4,"pm2_5":18.7,"mosquito_risk":3,"arthritis_risk":5,"migraine_risk":7,"frizz_risk":1,"updated_at":"2026-03-17T05:05:24.574531+05:30"},{"city":"Erode","state":"Tamil Nadu","latitude":11.341,"longitude":77.7172,"temp":25.2,"humidity":84,"rain":0.0,"pressure":989.5,"uv_index":9.25,"wind_gusts":29.9,"aqi":51,"pm10":8.0,"pm2_5":6.8,"mosquito_risk":7,"arthritis_risk":5,"migraine_risk":7,"frizz_risk":1,"updated_at":"2026-03-17T05:05:24.574539+05:30"},{"city":"Kochi","state":"Kerala","latitude":9.9312,"longitude":76.2673,"temp":27.2,"humidity":81,"rain":0.0,"pressure":1008.2,"uv_index":8.75,"wind_gusts":32.0,"aqi":85,"pm10":27.9,"pm2_5":26.3,"mosquito_risk":7,"arthritis_risk":0,"migraine_risk":4,"frizz_risk":1,"updated_at":"2026-03-17T05:05:24.574547+05:30"},{"city":"Thiruvananthapuram","state":"Kerala","latitude":8.5241,"longitude":76.9366,"temp":27.1,"humidity":85,"rain":0.0,"pressure":1007.1,"uv_index":8.2,"wind_gusts":22.7,"aqi":54,"pm10":12.9,"pm2_5":11.6,"mosquito_risk":7,"arthritis_risk":5,"migraine_risk":4,"frizz_risk":1,"updated_at":"2026-03-17T05:05:24.574555+05:30"},{"city":"Kozhikode","state":"Kerala","latitude":11.2588,"longitude":75.7804,"temp":25.4,"humidity":84,"rain":0.0,"pressure":1007.7,"uv_index":9.0,"wind_gusts":28.4,"aqi":91,"pm10":43.4,"pm2_5":37.4,"mosquito_risk":7,"arthritis_risk":5,"migraine_risk":4,"frizz_risk":1,"updated_at":"2026-03-17T05:05:24.574563+05:30"},{"city":"Thrissur","state":"Kerala","latitude":10.5276,"longitude":76.2144,"temp":24.7,"humidity":93,"rain":0.0,"pressure":1006.7,"uv_index":8.25,"wind_gusts":34.2,"aqi":86,"pm10":31.0,"pm2_5":28.5,"mosquito_risk":3,"arthritis_risk":5,"migraine_risk":4,"frizz_risk":1,"updated_at":"2026-03-17T05:05:24.574571+05:30"},{"city":"Kannur","state":"Kerala","latitude":11.8745,"longitude":75.3704,"temp":25.4,"humidity":86,"rain":0.0,"pressure":1007.0,"uv_index":9.0,"wind_gusts":29.5,"aqi":103,"pm10":48.2,"pm2_5":42.7,"mosquito_risk":7,"arthritis_risk":5,"migraine_risk":4,"frizz_risk":1,"updated_at":"2026-03-17T05:05:24.574579+05:30"},{"city":"Patna","state":"Bihar","latitude":25.5941,"longitude":85.1376,"temp":23.0,"humidity":74,"rain":0.0,"pressure":1001.5,"uv_index":7.5,"wind_gusts":25.9,"aqi":152,"pm10":95.2,"pm2_5":79.6,"mosquito_risk":3,"arthritis_risk":5,"migraine_risk":4,"frizz_risk":1,"updated_at":"2026-03-17T05:05:24.574587+05:30"},{"city":"Gaya","state":"Bihar","latitude":24.7914,"longitude":85.0002,"temp":21.2,"humidity":80,"rain":0.0,"pressure":994.8,"uv_index":7.6,"wind_gusts":27.7,"aqi":116,"pm10":44.7,"pm2_5":38.9,"mosquito_risk":3,"arthritis_risk":5,"migraine_risk":7,"frizz_risk":1,"updated_at":"2026-03-17T05:05:24.574595+05:30"},{"city":"Muzaffarpur","state":"Bihar","latitude":26.1209,"longitude":85.3647,"temp":19.5,"humidity":82,"rain":0.0,"pressure":1001.6,"uv_index":7.45,"wind_gusts":34.2,"aqi":157,"pm10":102.7,"pm2_5":83.8,"mosquito_risk":3,"arthritis_risk":10,"migraine_risk":4,"frizz_risk":1,"updated_at":"2026-03-17T05:05:24.574603+05:30"},{"city":"Bhagalpur","state":"Bihar","latitude":25.2425,"longitude":87.0117,"temp":22.4,"humidity":85,"rain":0.0,"pressure":1001.9,"uv_index":7.5,"wind_gusts":27.7,"aqi":147,"pm10":56.7,"pm2_5":52.5,"mosquito_risk":3,"arthritis_risk":5,"migraine_risk":4,"frizz_risk":1,"updated_at":"2026-03-17T05:05:24.574610+05:30"},{"city":"Ranchi","state":"Jharkhand","latitude":23.3441,"longitude":85.3096,"temp":20.2,"humidity":82,"rain":0.0,"pressure":938.0,"uv_index":8.2,"wind_gusts":47.9,"aqi":118,"pm10":55.5,"pm2_5":48.7,"mosquito_risk":3,"arthritis_risk":5,"migraine_risk":7,"frizz_risk":1,"updated_at":"2026-03-17T05:05:24.574618+05:30"},{"city":"Jamshedpur","state":"Jharkhand","latitude":22.8046,"longitude":86.2029,"temp":21.7,"humidity":85,"rain":0.0,"pressure":992.0,"uv_index":8.15,"wind_gusts":39.6,"aqi":119,"pm10":62.9,"pm2_5":54.4,"mosquito_risk":3,"arthritis_risk":5,"migraine_risk":7,"frizz_risk":1,"updated_at":"2026-03-17T05:05:24.574625+05:30"},{"city":"Dhanbad","state":"Jharkhand","latitude":23.7957,"longitude":86.4304,"temp":22.2,"humidity":77,"rain":0.0,"pressure":980.4,"uv_index":8.0,"wind_gusts":47.2,"aqi":150,"pm10":95.0,"pm2_5":86.8,"mosquito_risk":3,"arthritis_risk":5,"migraine_risk":7,"frizz_risk":1,"updated_at":"2026-03-17T05:05:24.574633+05:30"},{"city":"Bokaro","state":"Jharkhand","latitude":23.6693,"longitude":86.1511,"temp":23.0,"humidity":72,"rain":0.0,"pressure":984.4,"uv_index":8.0,"wind_gusts":53.3,"aqi":132,"pm10":81.3,"pm2_5":73.1,"mosquito_risk":3,"arthritis_risk":5,"migraine_risk":7,"frizz_risk":1,"updated_at":"2026-03-17T05:05:24.574640+05:30"},{"city":"Bhubaneswar","state":"Odisha","latitude":20.2961,"longitude":85.8245,"temp":24.0,"humidity":90,"rain":0.0,"pressure":1003.8,"uv_index":8.45,"wind_gusts":35.3,"aqi":70,"pm10":14.2,"pm2_5":11.8,"mosquito_risk":3,"arthritis_risk":5,"migraine_risk":4,"frizz_risk":1,"updated_at":"2026-03-17T05:05:24.574647+05:30"},{"city":"Cuttack","state":"Odisha","latitude":20.4625,"longitude":85.8828,"temp":23.9,"humidity":92,"rain":0.0,"pressure":1005.9,"uv_index":8.5,"wind_gusts":30.6,"aqi":70,"pm10":14.2,"pm2_5":11.8,"mosquito_risk":3,"arthritis_risk":5,"migraine_risk":4,"frizz_risk":1,"updated_at":"2026-03-17T05:05:24.574654+05:30"},{"city":"Rourkela","state":"Odisha","latitude":22.2604,"longitude":84.8536,"temp":22.3,"humidity":79,"rain":0.0,"pressure":987.6,"uv_index":8.05,"wind_gusts":48.6,"aqi":142,"pm10":75.4,"pm2_5":65.2,"mosquito_risk":3,"arthritis_risk":5,"migraine_risk":7,"frizz_risk":1,"updated_at":"2026-03-17T05:05:24.574661+05:30"},{"city":"Raipur","state":"Chhattisgarh","latitude":21.2514,"longitude":81.6296,"temp":25.0,"humidity":66,"rain":0.0,"pressure":974.8,"uv_index":8.15,"wind_gusts":31.3,"aqi":135,"pm10":74.7,"pm2_5":68.2,"mosquito_risk":7,"arthritis_risk":5,"migraine_risk":7,"frizz_risk":1,"updated_at":"2026-03-17T05:05:24.574668+05:30"},{"city":"Bhilai","state":"Chhattisgarh","latitude":21.1938,"longitude":81.3509,"temp":24.5,"humidity":70,"rain":0.0,"pressure":975.2,"uv_index":8.15,"wind_gusts":34.9,"aqi":129,"pm10":68.5,"pm2_5":62.2,"mosquito_risk":3,"arthritis_risk":5,"migraine_risk":7,"frizz_risk":1,"updated_at":"2026-03-17T05:05:24.574676+05:30"},{"city":"Guwahati","state":"Assam","latitude":26.1158,"longitude":91.7086,"temp":19.6,"humidity":89,"rain":0.0,"pressure":1003.4,"uv_index":7.5,"wind_gusts":45.4,"aqi":80,"pm10":32.5,"pm2_5":27.0,"mosquito_risk":3,"arthritis_risk":10,"migraine_risk":4,"frizz_risk":1,"updated_at":"2026-03-17T05:05:24.574682+05:30"},{"city":"Agartala","state":"Tripura","latitude":23.8315,"longitude":91.2868,"temp":20.8,"humidity":92,"rain":0.0,"pressure":1008.0,"uv_index":7.9,"wind_gusts":43.6,"aqi":70,"pm10":9.3,"pm2_5":7.5,"mosquito_risk":3,"arthritis_risk":0,"migraine_risk":4,"frizz_risk":1,"updated_at":"2026-03-17T05:05:24.574690+05:30"},{"city":"Shillong","state":"Meghalaya","latitude":25.5788,"longitude":91.8933,"temp":12.4,"humidity":86,"rain":0.0,"pressure":854.3,"uv_index":7.2,"wind_gusts":77.8,"aqi":58,"pm10":20.9,"pm2_5":16.3,"mosquito_risk":3,"arthritis_risk":10,"migraine_risk":7,"frizz_risk":0,"updated_at":"2026-03-17T05:05:24.574699+05:30"},{"city":"Imphal","state":"Manipur","latitude":24.817,"longitude":93.9368,"temp":15.5,"humidity":83,"rain":0.5,"pressure":925.4,"uv_index":8.1,"wind_gusts":91.4,"aqi":92,"pm10":55.6,"pm2_5":46.2,"mosquito_risk":6,"arthritis_risk":10,"migraine_risk":7,"frizz_risk":0,"updated_at":"2026-03-17T05:05:24.574707+05:30"},{"city":"Aizawl","state":"Mizoram","latitude":23.7271,"longitude":92.7176,"temp":15.5,"humidity":92,"rain":0.0,"pressure":894.0,"uv_index":7.95,"wind_gusts":61.9,"aqi":94,"pm10":45.1,"pm2_5":35.0,"mosquito_risk":3,"arthritis_risk":10,"migraine_risk":7,"frizz_risk":0,"updated_at":"2026-03-17T05:05:24.574714+05:30"},{"city":"Kohima","state":"Nagaland","latitude":25.6701,"longitude":94.1077,"temp":14.4,"humidity":70,"rain":0.0,"pressure":854.5,"uv_index":8.05,"wind_gusts":99.4,"aqi":78,"pm10":41.3,"pm2_5":33.8,"mosquito_risk":3,"arthritis_risk":5,"migraine_risk":7,"frizz_risk":0,"updated_at":"2026-03-17T05:05:24.574722+05:30"},{"city":"Gangtok","state":"Sikkim","latitude":27.3314,"longitude":88.6138,"temp":9.7,"humidity":62,"rain":0.0,"pressure":834.3,"uv_index":7.55,"wind_gusts":19.4,"aqi":80,"pm10":59.8,"pm2_5":33.8,"mosquito_risk":3,"arthritis_risk":5,"migraine_risk":7,"frizz_risk":0,"updated_at":"2026-03-17T05:05:24.574730+05:30"},{"city":"Siliguri","state":"West Bengal","latitude":26.7271,"longitude":88.3953,"temp":17.9,"humidity":63,"rain":0.0,"pressure":994.6,"uv_index":7.4,"wind_gusts":43.2,"aqi":114,"pm10":77.8,"pm2_5":58.7,"mosquito_risk":3,"arthritis_risk":5,"migraine_risk":7,"frizz_risk":0,"updated_at":"2026-03-17T05:05:27.801665+05:30"},{"city":"Durgapur","state":"West Bengal","latitude":23.5204,"longitude":87.3119,"temp":22.2,"humidity":89,"rain":0.0,"pressure":996.0,"uv_index":8.0,"wind_gusts":47.9,"aqi":153,"pm10":75.2,"pm2_5":68.7,"mosquito_risk":3,"arthritis_risk":5,"migraine_risk":7,"frizz_risk":1,"updated_at":"2026-03-17T05:05:27.801697+05:30"},{"city":"Asansol","state":"West Bengal","latitude":23.6739,"longitude":86.9524,"temp":22.6,"humidity":82,"rain":0.0,"pressure":994.4,"uv_index":8.0,"wind_gusts":46.8,"aqi":143,"pm10":74.7,"pm2_5":68.2,"mosquito_risk":3,"arthritis_risk":5,"migraine_risk":7,"frizz_risk":1,"updated_at":"2026-03-17T05:05:27.801710+05:30"},{"city":"Pondicherry","state":"Puducherry","latitude":11.9139,"longitude":79.8145,"temp":23.9,"humidity":97,"rain":0.0,"pressure":1009.3,"uv_index":9.05,"wind_gusts":28.1,"aqi":32,"pm10":9.7,"pm2_5":6.5,"mosquito_risk":3,"arthritis_risk":0,"migraine_risk":4,"frizz_risk":1,"updated_at":"2026-03-17T05:05:27.801719+05:30"},{"city":"Port Blair","state":"Andaman and Nicobar Islands","latitude":11.6234,"longitude":92.7265,"temp":27.3,"humidity":80,"rain":0.0,"pressure":1008.1,"uv_index":9.0,"wind_gusts":19.1,"aqi":81,"pm10":14.0,"pm2_5":11.9,"mosquito_risk":7,"arthritis_risk":0,"migraine_risk":4,"frizz_risk":1,"updated_at":"2026-03-17T05:05:27.801728+05:30"},{"city":"Haridwar","state":"Uttarakhand","latitude":29.9457,"longitude":78.1642,"temp":17.3,"humidity":58,"rain":0.0,"pressure":974.9,"uv_index":4.75,"wind_gusts":18.4,"aqi":67,"pm10":15.8,"pm2_5":11.1,"mosquito_risk":0,"arthritis_risk":5,"migraine_risk":3,"frizz_risk":0,"updated_at":"2026-03-17T05:05:27.801736+05:30"},{"city":"Rishikesh","state":"Uttarakhand","latitude":30.0869,"longitude":78.2676,"temp":16.2,"humidity":52,"rain":0.0,"pressure":967.6,"uv_index":4.65,"wind_gusts":19.8,"aqi":56,"pm10":21.8,"pm2_5":11.9,"mosquito_risk":0,"arthritis_risk":5,"migraine_risk":3,"frizz_risk":0,"updated_at":"2026-03-17T05:05:27.801745+05:30"},{"city":"Nainital","state":"Uttarakhand","latitude":29.3919,"longitude":79.4542,"temp":14.4,"humidity":43,"rain":0.0,"pressure":804.0,"uv_index":4.85,"wind_gusts":37.8,"aqi":61,"pm10":19.4,"pm2_5":10.8,"mosquito_risk":0,"arthritis_risk":5,"migraine_risk":3,"frizz_risk":0,"updated_at":"2026-03-17T05:05:27.801753+05:30"},{"city":"Mussoorie","state":"Uttarakhand","latitude":30.4599,"longitude":78.0664,"temp":10.6,"humidity":45,"rain":0.0,"pressure":799.5,"uv_index":5.55,"wind_gusts":30.2,"aqi":57,"pm10":16.8,"pm2_5":11.2,"mosquito_risk":0,"arthritis_risk":5,"migraine_risk":3,"frizz_risk":1,"updated_at":"2026-03-17T05:05:27.801761+05:30"},{"city":"Dharamshala","state":"Himachal Pradesh","latitude":32.219,"longitude":76.3234,"temp":13.5,"humidity":23,"rain":0.0,"pressure":867.2,"uv_index":5.75,"wind_gusts":26.6,"aqi":47,"pm10":6.8,"pm2_5":3.8,"mosquito_risk":0,"arthritis_risk":5,"migraine_risk":3,"frizz_risk":1,"updated_at":"2026-03-17T05:05:27.801769+05:30"},{"city":"Dalhousie","state":"Himachal Pradesh","latitude":32.5387,"longitude":75.971,"temp":9.1,"humidity":24,"rain":0.0,"pressure":800.2,"uv_index":6.15,"wind_gusts":24.8,"aqi":56,"pm10":18.7,"pm2_5":14.5,"mosquito_risk":0,"arthritis_risk":5,"migraine_risk":7,"frizz_risk":1,"updated_at":"2026-03-17T05:05:27.801778+05:30"},{"city":"Patiala","state":"Punjab","latitude":30.3398,"longitude":76.3869,"temp":12.8,"humidity":80,"rain":0.0,"pressure":979.4,"uv_index":5.75,"wind_gusts":16.9,"aqi":77,"pm10":38.4,"pm2_5":33.3,"mosquito_risk":3,"arthritis_risk":5,"migraine_risk":3,"frizz_risk":0,"updated_at":"2026-03-17T05:05:27.801787+05:30"},{"city":"Bhatinda","state":"Punjab","latitude":30.211,"longitude":74.9455,"temp":12.7,"humidity":83,"rain":0.0,"pressure":985.7,"uv_index":6.55,"wind_gusts":19.1,"aqi":91,"pm10":71.0,"pm2_5":32.1,"mosquito_risk":3,"arthritis_risk":10,"migraine_risk":7,"frizz_risk":0,"updated_at":"2026-03-17T05:05:27.801795+05:30"},{"city":"Rohtak","state":"Haryana","latitude":28.8955,"longitude":76.6066,"temp":14.3,"humidity":84,"rain":0.0,"pressure":982.6,"uv_index":5.85,"wind_gusts":24.1,"aqi":604,"pm10":383.7,"pm2_5":90.3,"mosquito_risk":3,"arthritis_risk":10,"migraine_risk":3,"frizz_risk":0,"updated_at":"2026-03-17T05:05:27.801803+05:30"},{"city":"Panipat","state":"Haryana","latitude":29.3909,"longitude":76.9635,"temp":13.7,"humidity":86,"rain":0.0,"pressure":981.2,"uv_index":5.9,"wind_gusts":16.6,"aqi":317,"pm10":280.3,"pm2_5":70.3,"mosquito_risk":3,"arthritis_risk":10,"migraine_risk":3,"frizz_risk":0,"updated_at":"2026-03-17T05:05:27.801811+05:30"},{"city":"Mathura","state":"Uttar Pradesh","latitude":27.4924,"longitude":77.6737,"temp":16.8,"humidity":84,"rain":0.0,"pressure":987.3,"uv_index":6.1,"wind_gusts":17.6,"aqi":751,"pm10":299.0,"pm2_5":71.9,"mosquito_risk":3,"arthritis_risk":10,"migraine_risk":7,"frizz_risk":0,"updated_at":"2026-03-17T05:05:27.801819+05:30"},{"city":"Vrindavan","state":"Uttar Pradesh","latitude":27.5823,"longitude":77.7027,"temp":16.8,"humidity":85,"rain":0.0,"pressure":987.9,"uv_index":6.1,"wind_gusts":18.0,"aqi":751,"pm10":299.0,"pm2_5":71.9,"mosquito_risk":3,"arthritis_risk":10,"migraine_risk":7,"frizz_risk":0,"updated_at":"2026-03-17T05:05:27.801872+05:30"},{"city":"Ayodhya","state":"Uttar Pradesh","latitude":26.7922,"longitude":82.1998,"temp":18.7,"humidity":66,"rain":0.0,"pressure":996.3,"uv_index":6.5,"wind_gusts":25.2,"aqi":92,"pm10":72.2,"pm2_5":50.3,"mosquito_risk":3,"arthritis_risk":5,"migraine_risk":7,"frizz_risk":0,"updated_at":"2026-03-17T05:05:27.801884+05:30"},{"city":"Ratlam","state":"Madhya Pradesh","latitude":23.3315,"longitude":75.0367,"temp":22.3,"humidity":51,"rain":0.0,"pressure":954.1,"uv_index":7.6,"wind_gusts":33.1,"aqi":55,"pm10":31.0,"pm2_5":16.2,"mosquito_risk":0,"arthritis_risk":5,"migraine_risk":7,"frizz_risk":0,"updated_at":"2026-03-17T05:05:27.801894+05:30"},{"city":"Sagar","state":"Madhya Pradesh","latitude":23.8388,"longitude":78.7378,"temp":20.8,"humidity":44,"rain":0.0,"pressure":949.6,"uv_index":7.65,"wind_gusts":31.3,"aqi":38,"pm10":7.8,"pm2_5":7.4,"mosquito_risk":0,"arthritis_risk":5,"migraine_risk":7,"frizz_risk":0,"updated_at":"2026-03-17T05:05:27.801902+05:30"},{"city":"Satna","state":"Madhya Pradesh","latitude":24.6005,"longitude":80.8322,"temp":22.0,"humidity":72,"rain":0.0,"pressure":971.6,"uv_index":7.55,"wind_gusts":35.3,"aqi":87,"pm10":74.3,"pm2_5":58.6,"mosquito_risk":3,"arthritis_risk":5,"migraine_risk":7,"frizz_risk":1,"updated_at":"2026-03-17T05:05:27.801910+05:30"},{"city":"Akola","state":"Maharashtra","latitude":20.7002,"longitude":77.0082,"temp":22.9,"humidity":59,"rain":0.0,"pressure":974.9,"uv_index":8.05,"wind_gusts":25.9,"aqi":68,"pm10":31.7,"pm2_5":21.0,"mosquito_risk":0,"arthritis_risk":5,"migraine_risk":7,"frizz_risk":0,"updated_at":"2026-03-17T05:05:27.801917+05:30"},{"city":"Amravati","state":"Maharashtra","latitude":20.9374,"longitude":77.7796,"temp":22.1,"humidity":55,"rain":0.0,"pressure":966.9,"uv_index":8.05,"wind_gusts":31.0,"aqi":75,"pm10":40.7,"pm2_5":31.3,"mosquito_risk":0,"arthritis_risk":5,"migraine_risk":7,"frizz_risk":0,"updated_at":"2026-03-17T05:05:27.801923+05:30"},{"city":"Latur","state":"Maharashtra","latitude":18.4088,"longitude":76.5604,"temp":21.2,"humidity":64,"rain":0.0,"pressure":939.1,"uv_index":8.5,"wind_gusts":25.2,"aqi":90,"pm10":47.7,"pm2_5":43.1,"mosquito_risk":3,"arthritis_risk":5,"migraine_risk":7,"frizz_risk":0,"updated_at":"2026-03-17T05:05:27.801929+05:30"},{"city":"Nanded","state":"Maharashtra","latitude":19.1383,"longitude":77.3091,"temp":23.1,"humidity":60,"rain":0.0,"pressure":968.4,"uv_index":8.3,"wind_gusts":19.8,"aqi":99,"pm10":47.6,"pm2_5":44.0,"mosquito_risk":0,"arthritis_risk":5,"migraine_risk":7,"frizz_risk":0,"updated_at":"2026-03-17T05:05:27.801934+05:30"},{"city":"Gulbarga","state":"Karnataka","latitude":17.3297,"longitude":76.8343,"temp":24.7,"humidity":61,"rain":0.0,"pressure":958.1,"uv_index":7.65,"wind_gusts":29.9,"aqi":115,"pm10":52.9,"pm2_5":46.0,"mosquito_risk":3,"arthritis_risk":5,"migraine_risk":7,"frizz_risk":1,"updated_at":"2026-03-17T05:05:27.801940+05:30"},{"city":"Bidar","state":"Karnataka","latitude":17.9104,"longitude":77.5199,"temp":23.1,"humidity":65,"rain":0.0,"pressure":934.8,"uv_index":7.9,"wind_gusts":28.8,"aqi":131,"pm10":38.6,"pm2_5":34.8,"mosquito_risk":3,"arthritis_risk":5,"migraine_risk":7,"frizz_risk":1,"updated_at":"2026-03-17T05:05:27.801946+05:30"},{"city":"Hospet","state":"Karnataka","latitude":15.2689,"longitude":76.3909,"temp":24.4,"humidity":78,"rain":0.0,"pressure":955.4,"uv_index":8.65,"wind_gusts":46.8,"aqi":122,"pm10":40.4,"pm2_5":36.7,"mosquito_risk":3,"arthritis_risk":5,"migraine_risk":7,"frizz_risk":1,"updated_at":"2026-03-17T05:05:27.801951+05:30"},{"city":"Tirupur","state":"Tamil Nadu","latitude":11.1085,"longitude":77.3411,"temp":23.1,"humidity":87,"rain":0.0,"pressure":975.4,"uv_index":9.35,"wind_gusts":34.2,"aqi":78,"pm10":29.1,"pm2_5":26.9,"mosquito_risk":3,"arthritis_risk":5,"migraine_risk":7,"frizz_risk":1,"updated_at":"2026-03-17T05:05:27.801957+05:30"},{"city":"Alappuzha","state":"Kerala","latitude":9.4981,"longitude":76.3388,"temp":27.3,"humidity":82,"rain":0.0,"pressure":1008.3,"uv_index":9.05,"wind_gusts":30.2,"aqi":83,"pm10":28.1,"pm2_5":25.8,"mosquito_risk":7,"arthritis_risk":0,"migraine_risk":4,"frizz_risk":1,"updated_at":"2026-03-17T05:05:27.801963+05:30"},{"city":"Munnar","state":"Kerala","latitude":10.0889,"longitude":77.0595,"temp":16.8,"humidity":92,"rain":0.0,"pressure":854.4,"uv_index":9.6,"wind_gusts":29.2,"aqi":79,"pm10":30.3,"pm2_5":29.1,"mosquito_risk":3,"arthritis_risk":10,"migraine_risk":7,"frizz_risk":0,"updated_at":"2026-03-17T05:05:27.801969+05:30"},{"city":"Silchar","state":"Assam","latitude":24.8333,"longitude":92.7789,"temp":19.4,"humidity":92,"rain":2.6,"pressure":1008.6,"uv_index":7.9,"wind_gusts":43.2,"aqi":73,"pm10":38.3,"pm2_5":32.5,"mosquito_risk":6,"arthritis_risk":5,"migraine_risk":4,"frizz_risk":1,"updated_at":"2026-03-17T05:05:27.801976+05:30"},{"city":"Dibrugarh","state":"Assam","latitude":27.4728,"longitude":94.912,"temp":18.4,"humidity":93,"rain":0.0,"pressure":997.4,"uv_index":5.75,"wind_gusts":42.8,"aqi":87,"pm10":43.7,"pm2_5":33.3,"mosquito_risk":3,"arthritis_risk":10,"migraine_risk":3,"frizz_risk":1,"updated_at":"2026-03-17T05:05:27.801982+05:30"}]