[{"city":"Delhi","state":"Delhi","latitude":28.6139,"longitude":77.209,"temp":28.3,"humidity":53,"rain":0.0,"pressure":985.9,"uv_index":5.5,"wind_gusts":34.9,"aqi":158,"pm10":172.8,"pm2_5":37.7,"mosquito_risk":4,"arthritis_risk":5,"migraine_risk":3,"frizz_risk":1,"updated_at":"2026-04-04T12:43:07.868436+05:30"},{"city":"Mumbai","state":"Maharashtra","latitude":19.076,"longitude":72.8777,"temp":28.2,"humidity":69,"rain":0.0,"pressure":1010.8,"uv_index":7.9,"wind_gusts":19.8,"aqi":71,"pm10":39.2,"pm2_5":21.0,"mosquito_risk":7,"arthritis_risk":0,"migraine_risk":4,"frizz_risk":1,"updated_at":"2026-04-04T12:43:07.868481+05:30"},{"city":"Bangalore","state":"Karnataka","latitude":12.9716,"longitude":77.5946,"temp":28.2,"humidity":57,"rain":0.0,"pressure":913.2,"uv_index":9.1,"wind_gusts":25.9,"aqi":80,"pm10":25.3,"pm2_5":22.2,"mosquito_risk":4,"arthritis_risk":5,"migraine_risk":7,"frizz_risk":1,"updated_at":"2026-04-04T12:43:07.868497+05:30"},{"city":"Hyderabad","state":"Telangana","latitude":17.385,"longitude":78.4867,"temp":34.2,"humidity":35,"rain":0.0,"pressure":954.5,"uv_index":7.85,"wind_gusts":30.6,"aqi":72,"pm10":25.5,"pm2_5":19.3,"mosquito_risk":0,"arthritis_risk":5,"migraine_risk":7,"frizz_risk":1,"updated_at":"2026-04-04T12:43:07.868508+05:30"},{"city":"Chennai","state":"Tamil Nadu","latitude":13.0827,"longitude":80.2707,"temp":35.4,"humidity":46,"rain":0.0,"pressure":1007.3,"uv_index":8.8,"wind_gusts":33.8,"aqi":48,"pm10":21.5,"pm2_5":17.6,"mosquito_risk":0,"arthritis_risk":5,"migraine_risk":7,"frizz_risk":1,"updated_at":"2026-04-04T12:43:07.868516+05:30"},{"city":"Kolkata","state":"West Bengal","latitude":22.5726,"longitude":88.3639,"temp":34.8,"humidity":59,"rain":0.0,"pressure":1004.8,"uv_index":8.55,"wind_gusts":20.2,"aqi":82,"pm10":36.8,"pm2_5":32.4,"mosquito_risk":0,"arthritis_risk":5,"migraine_risk":4,"frizz_risk":1,"updated_at":"2026-04-04T12:43:07.868525+05:30"},{"city":"Pune","state":"Maharashtra","latitude":18.5204,"longitude":73.8567,"temp":34.1,"humidity":29,"rain":0.0,"pressure":950.3,"uv_index":8.5,"wind_gusts":40.0,"aqi":93,"pm10":30.0,"pm2_5":14.4,"mosquito_risk":0,"arthritis_risk":5,"migraine_risk":7,"frizz_risk":0,"updated_at":"2026-04-04T12:43:07.868538+05:30"},{"city":"Ahmedabad","state":"Gujarat","latitude":23.0225,"longitude":72.5714,"temp":32.0,"humidity":29,"rain":0.0,"pressure":1004.9,"uv_index":7.6,"wind_gusts":24.5,"aqi":54,"pm10":27.8,"pm2_5":11.5,"mosquito_risk":0,"arthritis_risk":5,"migraine_risk":4,"frizz_risk":0,"updated_at":"2026-04-04T12:43:07.868546+05:30"},{"city":"Jaipur","state":"Rajasthan","latitude":26.9124,"longitude":75.7873,"temp":28.8,"humidity":42,"rain":0.0,"pressure":962.2,"uv_index":7.4,"wind_gusts":30.6,"aqi":85,"pm10":143.4,"pm2_5":30.4,"mosquito_risk":4,"arthritis_risk":5,"migraine_risk":7,"frizz_risk":0,"updated_at":"2026-04-04T12:43:07.868553+05:30"},{"city":"Lucknow","state":"Uttar Pradesh","latitude":26.8467,"longitude":80.9462,"temp":34.9,"humidity":31,"rain":0.0,"pressure":994.6,"uv_index":6.35,"wind_gusts":37.1,"aqi":154,"pm10":191.9,"pm2_5":50.4,"mosquito_risk":0,"arthritis_risk":5,"migraine_risk":7,"frizz_risk":0,"updated_at":"2026-04-04T12:43:07.868561+05:30"},{"city":"Kanpur","state":"Uttar Pradesh","latitude":26.4499,"longitude":80.3319,"temp":33.1,"humidity":42,"rain":0.0,"pressure":993.5,"uv_index":6.5,"wind_gusts":31.0,"aqi":247,"pm10":431.2,"pm2_5":77.8,"mosquito_risk":0,"arthritis_risk":5,"migraine_risk":7,"frizz_risk":1,"updated_at":"2026-04-04T12:43:07.868568+05:30"},{"city":"Chandigarh","state":"Chandigarh","latitude":30.7333,"longitude":76.7794,"temp":27.2,"humidity":51,"rain":0.0,"pressure":972.3,"uv_index":5.9,"wind_gusts":36.7,"aqi":102,"pm10":116.2,"pm2_5":28.1,"mosquito_risk":4,"arthritis_risk":5,"migraine_risk":3,"frizz_risk":1,"updated_at":"2026-04-04T12:43:07.868575+05:30"},{"city":"Srinagar","state":"Jammu and Kashmir","latitude":34.0837,"longitude":74.7973,"temp":11.0,"humidity":86,"rain":0.2,"pressure":841.6,"uv_index":5.35,"wind_gusts":26.3,"aqi":67,"pm10":7.6,"pm2_5":7.2,"mosquito_risk":6,"arthritis_risk":10,"migraine_risk":3,"frizz_risk":0,"updated_at":"2026-04-04T12:43:07.868583+05:30"},{"city":"Jammu","state":"Jammu and Kashmir","latitude":32.7266,"longitude":74.857,"temp":20.4,"humidity":82,"rain":0.0,"pressure":977.6,"uv_index":6.8,"wind_gusts":30.6,"aqi":56,"pm10":37.0,"pm2_5":10.4,"mosquito_risk":3,"arthritis_risk":5,"migraine_risk":7,"frizz_risk":1,"updated_at":"2026-04-04T12:43:07.868590+05:30"},{"city":"Amritsar","state":"Punjab","latitude":31.634,"longitude":74.8723,"temp":21.5,"humidity":77,"rain":0.0,"pressure":985.2,"uv_index":6.15,"wind_gusts":21.2,"aqi":82,"pm10":106.2,"pm2_5":26.9,"mosquito_risk":3,"arthritis_risk":5,"migraine_risk":7,"frizz_risk":1,"updated_at":"2026-04-04T12:43:07.868596+05:30"},{"city":"Ludhiana","state":"Punjab","latitude":30.901,"longitude":75.8573,"temp":26.8,"humidity":49,"rain":0.0,"pressure":982.7,"uv_index":5.9,"wind_gusts":28.1,"aqi":138,"pm10":111.5,"pm2_5":32.2,"mosquito_risk":4,"arthritis_risk":5,"migraine_risk":3,"frizz_risk":0,"updated_at":"2026-04-04T12:43:07.868603+05:30"},{"city":"Jalandhar","state":"Punjab","latitude":31.326,"longitude":75.5762,"temp":24.8,"humidity":63,"rain":0.0,"pressure":984.1,"uv_index":6.45,"wind_gusts":25.2,"aqi":107,"pm10":127.6,"pm2_5":31.7,"mosquito_risk":3,"arthritis_risk":5,"migraine_risk":7,"frizz_risk":1,"updated_at":"2026-04-04T12:43:07.868612+05:30"},{"city":"Dehradun","state":"Uttarakhand","latitude":30.6284,"longitude":78.0322,"temp":17.4,"humidity":64,"rain":0.0,"pressure":833.5,"uv_index":4.35,"wind_gusts":35.3,"aqi":45,"pm10":18.9,"pm2_5":5.6,"mosquito_risk":3,"arthritis_risk":5,"migraine_risk":3,"frizz_risk":0,"updated_at":"2026-04-04T12:43:07.868619+05:30"},{"city":"Shimla","state":"Himachal Pradesh","latitude":31.1048,"longitude":77.1734,"temp":13.9,"humidity":76,"rain":0.0,"pressure":786.4,"uv_index":4.5,"wind_gusts":50.4,"aqi":56,"pm10":21.8,"pm2_5":6.2,"mosquito_risk":3,"arthritis_risk":5,"migraine_risk":3,"frizz_risk":0,"updated_at":"2026-04-04T12:43:07.868626+05:30"},{"city":"Manali","state":"Himachal Pradesh","latitude":32.2396,"longitude":77.1887,"temp":15.3,"humidity":70,"rain":0.0,"pressure":821.1,"uv_index":7.3,"wind_gusts":30.2,"aqi":50,"pm10":12.5,"pm2_5":5.4,"mosquito_risk":3,"arthritis_risk":5,"migraine_risk":7,"frizz_risk":0,"updated_at":"2026-04-04T12:43:07.868633+05:30"},{"city":"Gurgaon","state":"Haryana","latitude":28.4595,"longitude":77.0266,"temp":27.9,"humidity":54,"rain":0.0,"pressure":984.8,"uv_index":5.45,"wind_gusts":34.2,"aqi":399,"pm10":392.1,"pm2_5":55.8,"mosquito_risk":4,"arthritis_risk":5,"migraine_risk":3,"frizz_risk":1,"updated_at":"2026-04-04T12:43:07.868640+05:30"},{"city":"Noida","state":"Uttar Pradesh","latitude":28.5355,"longitude":77.391,"temp":28.2,"humidity":54,"rain":0.0,"pressure":987.4,"uv_index":5.5,"wind_gusts":31.7,"aqi":399,"pm10":392.1,"pm2_5":55.8,"mosquito_risk":4,"arthritis_risk":5,"migraine_risk":3,"frizz_risk":1,"updated_at":"2026-04-04T12:43:07.868646+05:30"},{"city":"Ghaziabad","state":"Uttar Pradesh","latitude":28.6692,"longitude":77.4538,"temp":27.7,"humidity":58,"rain":0.0,"pressure":985.8,"uv_index":5.55,"wind_gusts":27.0,"aqi":173,"pm10":140.6,"pm2_5":35.5,"mosquito_risk":4,"arthritis_risk":5,"migraine_risk":3,"frizz_risk":1,"updated_at":"2026-04-04T12:43:07.868652+05:30"},{"city":"Faridabad","state":"Haryana","latitude":28.4089,"longitude":77.3178,"temp":28.7,"humidity":52,"rain":0.0,"pressure":986.5,"uv_index":5.7,"wind_gusts":35.3,"aqi":399,"pm10":392.1,"pm2_5":55.8,"mosquito_risk":4,"arthritis_risk":5,"migraine_risk":3,"frizz_risk":1,"updated_at":"2026-04-04T12:43:07.868658+05:30"},{"city":"Meerut","state":"Uttar Pradesh","latitude":28.9845,"longitude":77.7064,"temp":27.7,"humidity":62,"rain":0.0,"pressure":984.7,"uv_index":5.85,"wind_gusts":32.4,"aqi":173,"pm10":140.6,"pm2_5":35.5,"mosquito_risk":7,"arthritis_risk":5,"migraine_risk":3,"frizz_risk":1,"updated_at":"2026-04-04T12:43:07.868664+05:30"},{"city":"Agra","state":"Uttar Pradesh","latitude":27.1767,"longitude":78.0081,"temp":31.8,"humidity":41,"rain":0.0,"pressure":990.4,"uv_index":6.55,"wind_gusts":34.6,"aqi":586,"pm10":523.4,"pm2_5":68.5,"mosquito_risk":0,"arthritis_risk":5,"migraine_risk":7,"frizz_risk":1,"updated_at":"2026-04-04T12:43:07.868671+05:30"},{"city":"Varanasi","state":"Uttar Pradesh","latitude":25.3176,"longitude":82.9739,"temp":35.2,"humidity":42,"rain":0.0,"pressure":997.8,"uv_index":6.05,"wind_gusts":33.1,"aqi":78,"pm10":72.6,"pm2_5":28.0,"mosquito_risk":0,"arthritis_risk":5,"migraine_risk":10,"frizz_risk":1,"updated_at":"2026-04-04T12:43:07.868680+05:30"},{"city":"Prayagraj","state":"Uttar Pradesh","latitude":25.4358,"longitude":81.8463,"temp":35.7,"humidity":37,"rain":0.0,"pressure":996.4,"uv_index":5.45,"wind_gusts":32.8,"aqi":81,"pm10":171.4,"pm2_5":48.4,"mosquito_risk":0,"arthritis_risk":5,"migraine_risk":6,"frizz_risk":1,"updated_at":"2026-04-04T12:43:07.868689+05:30"},{"city":"Gorakhpur","state":"Uttar Pradesh","latitude":26.7606,"longitude":83.3732,"temp":38.2,"humidity":24,"rain":0.0,"pressure":996.3,"uv_index":6.8,"wind_gusts":45.7,"aqi":82,"pm10":59.8,"pm2_5":23.6,"mosquito_risk":0,"arthritis_risk":5,"migraine_risk":10,"frizz_risk":0,"updated_at":"2026-04-04T12:43:07.868697+05:30"},{"city":"Bareilly","state":"Uttar Pradesh","latitude":28.367,"longitude":79.4304,"temp":28.3,"humidity":55,"rain":0.0,"pressure":990.0,"uv_index":5.3,"wind_gusts":30.6,"aqi":125,"pm10":44.8,"pm2_5":23.5,"mosquito_risk":4,"arthritis_risk":5,"migraine_risk":3,"frizz_risk":1,"updated_at":"2026-04-04T12:43:07.868704+05:30"},{"city":"Aligarh","state":"Uttar Pradesh","latitude":27.8974,"longitude":78.088,"temp":29.2,"humidity":51,"rain":0.0,"pressure":988.5,"uv_index":5.3,"wind_gusts":29.2,"aqi":515,"pm10":376.3,"pm2_5":54.1,"mosquito_risk":4,"arthritis_risk":5,"migraine_risk":3,"frizz_risk":1,"updated_at":"2026-04-04T12:43:07.868711+05:30"},{"city":"Moradabad","state":"Uttar Pradesh","latitude":28.8386,"longitude":78.7733,"temp":28.1,"humidity":63,"rain":0.0,"pressure":986.9,"uv_index":5.75,"wind_gusts":30.6,"aqi":150,"pm10":76.8,"pm2_5":32.6,"mosquito_risk":7,"arthritis_risk":5,"migraine_risk":3,"frizz_risk":1,"updated_at":"2026-04-04T12:43:07.868717+05:30"},{"city":"Saharanpur","state":"Uttar Pradesh","latitude":29.9637,"longitude":77.546,"temp":27.5,"humidity":57,"rain":0.0,"pressure":979.4,"uv_index":6.15,"wind_gusts":38.5,"aqi":157,"pm10":157.4,"pm2_5":39.0,"mosquito_risk":4,"arthritis_risk":5,"migraine_risk":7,"frizz_risk":1,"updated_at":"2026-04-04T12:43:07.868723+05:30"},{"city":"Jhansi","state":"Uttar Pradesh","latitude":25.4484,"longitude":78.5685,"temp":33.1,"humidity":39,"rain":0.0,"pressure":979.4,"uv_index":6.6,"wind_gusts":38.2,"aqi":69,"pm10":149.5,"pm2_5":38.8,"mosquito_risk":0,"arthritis_risk":5,"migraine_risk":7,"frizz_risk":1,"updated_at":"2026-04-04T12:43:11.080896+05:30"},{"city":"Surat","state":"Gujarat","latitude":21.1702,"longitude":72.8311,"temp":29.9,"humidity":57,"rain":0.0,"pressure":1009.6,"uv_index":7.6,"wind_gusts":25.6,"aqi":80,"pm10":58.1,"pm2_5":29.7,"mosquito_risk":4,"arthritis_risk":0,"migraine_risk":4,"frizz_risk":1,"updated_at":"2026-04-04T12:43:11.080924+05:30"},{"city":"Vadodara","state":"Gujarat","latitude":22.3072,"longitude":73.1812,"temp":32.1,"humidity":44,"rain":0.0,"pressure":1006.9,"uv_index":7.6,"wind_gusts":25.9,"aqi":73,"pm10":48.9,"pm2_5":19.2,"mosquito_risk":0,"arthritis_risk":5,"migraine_risk":4,"frizz_risk":1,"updated_at":"2026-04-04T12:43:11.080934+05:30"},{"city":"Rajkot","state":"Gujarat","latitude":22.3039,"longitude":70.8022,"temp":30.9,"humidity":38,"rain":0.0,"pressure":997.2,"uv_index":7.55,"wind_gusts":32.0,"aqi":48,"pm10":28.6,"pm2_5":12.0,"mosquito_risk":0,"arthritis_risk":5,"migraine_risk":7,"frizz_risk":0,"updated_at":"2026-04-04T12:43:11.080943+05:30"},{"city":"Thane","state":"Maharashtra","latitude":19.2183,"longitude":72.9781,"temp":31.0,"humidity":55,"rain":0.0,"pressure":1010.3,"uv_index":7.9,"wind_gusts":35.6,"aqi":71,"pm10":39.2,"pm2_5":21.0,"mosquito_risk":0,"arthritis_risk":0,"migraine_risk":4,"frizz_risk":1,"updated_at":"2026-04-04T12:43:11.080949+05:30"},{"city":"Nagpur","state":"Maharashtra","latitude":21.1458,"longitude":79.0882,"temp":30.3,"humidity":48,"rain":0.0,"pressure":975.3,"uv_index":8.15,"wind_gusts":29.5,"aqi":88,"pm10":43.1,"pm2_5":35.6,"mosquito_risk":0,"arthritis_risk":5,"migraine_risk":7,"frizz_risk":1,"updated_at":"2026-04-04T12:43:11.080956+05:30"},{"city":"Nashik","state":"Maharashtra","latitude":19.9975,"longitude":73.7898,"temp":29.2,"humidity":51,"rain":0.0,"pressure":948.0,"uv_index":8.15,"wind_gusts":37.8,"aqi":57,"pm10":19.9,"pm2_5":9.3,"mosquito_risk":4,"arthritis_risk":5,"migraine_risk":7,"frizz_risk":1,"updated_at":"2026-04-04T12:43:11.080963+05:30"},{"city":"Aurangabad","state":"Maharashtra","latitude":19.8762,"longitude":75.3433,"temp":33.4,"humidity":29,"rain":0.0,"pressure":946.2,"uv_index":8.85,"wind_gusts":35.6,"aqi":68,"pm10":38.6,"pm2_5":16.5,"mosquito_risk":0,"arthritis_risk":5,"migraine_risk":7,"frizz_risk":0,"updated_at":"2026-04-04T12:43:11.080970+05:30"},{"city":"Solapur","state":"Maharashtra","latitude":17.6599,"longitude":75.9064,"temp":33.3,"humidity":42,"rain":0.0,"pressure":958.6,"uv_index":8.9,"wind_gusts":22.7,"aqi":82,"pm10":42.8,"pm2_5":34.5,"mosquito_risk":0,"arthritis_risk":5,"migraine_risk":7,"frizz_risk":1,"updated_at":"2026-04-04T12:43:11.080977+05:30"},{"city":"Kolhapur","state":"Maharashtra","latitude":16.705,"longitude":74.2433,"temp":32.3,"humidity":32,"rain":0.0,"pressure":949.6,"uv_index":8.95,"wind_gusts":41.0,"aqi":99,"pm10":28.8,"pm2_5":23.9,"mosquito_risk":0,"arthritis_risk":5,"migraine_risk":7,"frizz_risk":0,"updated_at":"2026-04-04T12:43:11.080983+05:30"},{"city":"Goa","state":"Goa","latitude":15.2993,"longitude":74.124,"temp":31.5,"humidity":55,"rain":0.0,"pressure":999.5,"uv_index":8.25,"wind_gusts":33.8,"aqi":71,"pm10":22.7,"pm2_5":16.9,"mosquito_risk":0,"arthritis_risk":5,"migraine_risk":7,"frizz_risk":1,"updated_at":"2026-04-04T12:43:11.080989+05:30"},{"city":"Jodhpur","state":"Rajasthan","latitude":26.2389,"longitude":73.0243,"temp":29.3,"humidity":33,"rain":0.0,"pressure":985.6,"uv_index":7.35,"wind_gusts":28.8,"aqi":103,"pm10":67.5,"pm2_5":13.9,"mosquito_risk":4,"arthritis_risk":5,"migraine_risk":7,"frizz_risk":0,"updated_at":"2026-04-04T12:43:11.080995+05:30"},{"city":"Udaipur","state":"Rajasthan","latitude":24.5854,"longitude":73.7125,"temp":28.1,"humidity":31,"rain":0.0,"pressure":948.8,"uv_index":7.6,"wind_gusts":37.4,"aqi":56,"pm10":26.0,"pm2_5":9.1,"mosquito_risk":4,"arthritis_risk":5,"migraine_risk":7,"frizz_risk":0,"updated_at":"2026-04-04T12:43:11.081001+05:30"},{"city":"Kota","state":"Rajasthan","latitude":25.2138,"longitude":75.8648,"temp":33.1,"humidity":30,"rain":0.0,"pressure":980.8,"uv_index":7.8,"wind_gusts":40.7,"aqi":65,"pm10":48.4,"pm2_5":17.1,"mosquito_risk":0,"arthritis_risk":5,"migraine_risk":7,"frizz_risk":0,"updated_at":"2026-04-04T12:43:11.081007+05:30"},{"city":"Bikaner","state":"Rajasthan","latitude":28.0229,"longitude":73.3119,"temp":29.2,"humidity":29,"rain":0.0,"pressure":984.7,"uv_index":7.0,"wind_gusts":29.9,"aqi":73,"pm10":66.6,"pm2_5":14.6,"mosquito_risk":4,"arthritis_risk":5,"migraine_risk":7,"frizz_risk":0,"updated_at":"2026-04-04T12:43:11.081013+05:30"},{"city":"Ajmer","state":"Rajasthan","latitude":26.4499,"longitude":74.6399,"temp":27.9,"humidity":46,"rain":0.0,"pressure":956.9,"uv_index":7.45,"wind_gusts":36.7,"aqi":74,"pm10":43.9,"pm2_5":14.6,"mosquito_risk":4,"arthritis_risk":5,"migraine_risk":7,"frizz_risk":0,"updated_at":"2026-04-04T12:43:11.081019+05:30"},{"city":"Gwalior","state":"Madhya Pradesh","latitude":26.2183,"longitude":78.1828,"temp":30.1,"humidity":46,"rain":0.0,"pressure":985.8,"uv_index":7.15,"wind_gusts":33.1,"aqi":105,"pm10":192.8,"pm2_5":40.3,"mosquito_risk":0,"arthritis_risk":5,"migraine_risk":7,"frizz_risk":1,"updated_at":"2026-04-04T12:43:11.081025+05:30"},{"city":"Indore","state":"Madhya Pradesh","latitude":22.7196,"longitude":75.8577,"temp":29.9,"humidity":42,"rain":0.0,"pressure":950.5,"uv_index":8.3,"wind_gusts":43.9,"aqi":63,"pm10":39.3,"pm2_5":17.7,"mosquito_risk":4,"arthritis_risk":5,"migraine_risk":7,"frizz_risk":0,"updated_at":"2026-04-04T12:43:11.081030+05:30"},{"city":"Bhopal","state":"Madhya Pradesh","latitude":23.2599,"longitude":77.4126,"temp":32.8,"humidity":32,"rain":0.0,"pressure":955.4,"uv_index":8.25,"wind_gusts":40.0,"aqi":65,"pm10":30.6,"pm2_5":16.5,"mosquito_risk":0,"arthritis_risk":5,"migraine_risk":7,"frizz_risk":0,"updated_at":"2026-04-04T12:43:11.081036+05:30"},{"city":"Jabalpur","state":"Madhya Pradesh","latitude":23.1815,"longitude":79.9864,"temp":31.5,"humidity":40,"rain":0.0,"pressure":963.7,"uv_index":6.45,"wind_gusts":30.6,"aqi":79,"pm10":21.1,"pm2_5":17.4,"mosquito_risk":0,"arthritis_risk":5,"migraine_risk":7,"frizz_risk":1,"updated_at":"2026-04-04T12:43:11.081042+05:30"},{"city":"Ujjain","state":"Madhya Pradesh","latitude":23.1765,"longitude":75.7885,"temp":28.9,"humidity":47,"rain":0.0,"pressure":956.3,"uv_index":8.2,"wind_gusts":37.4,"aqi":63,"pm10":35.3,"pm2_5":14.7,"mosquito_risk":4,"arthritis_risk":5,"migraine_risk":7,"frizz_risk":1,"updated_at":"2026-04-04T12:43:11.081048+05:30"},{"city":"Visakhapatnam","state":"Andhra Pradesh","latitude":17.6868,"longitude":83.2185,"temp":34.0,"humidity":53,"rain":0.0,"pressure":1003.7,"uv_index":8.25,"wind_gusts":38.2,"aqi":62,"pm10":28.3,"pm2_5":24.7,"mosquito_risk":0,"arthritis_risk":5,"migraine_risk":4,"frizz_risk":1,"updated_at":"2026-04-04T12:43:11.081054+05:30"},{"city":"Vijayawada","state":"Andhra Pradesh","latitude":16.5062,"longitude":80.648,"temp":33.5,"humidity":52,"rain":0.0,"pressure":1003.2,"uv_index":9.0,"wind_gusts":19.8,"aqi":45,"pm10":16.2,"pm2_5":13.4,"mosquito_risk":0,"arthritis_risk":5,"migraine_risk":4,"frizz_risk":1,"updated_at":"2026-04-04T12:43:11.081060+05:30"},{"city":"Guntur","state":"Andhra Pradesh","latitude":16.3067,"longitude":80.4365,"temp":34.0,"humidity":47,"rain":0.0,"pressure":1004.3,"uv_index":8.85,"wind_gusts":26.3,"aqi":42,"pm10":16.8,"pm2_5":13.5,"mosquito_risk":0,"arthritis_risk":5,"migraine_risk":4,"frizz_risk":1,"updated_at":"2026-04-04T12:43:11.081066+05:30"},{"city":"Nellore","state":"Andhra Pradesh","latitude":14.4426,"longitude":79.9865,"temp":35.8,"humidity":40,"rain":0.0,"pressure":1005.7,"uv_index":8.55,"wind_gusts":31.3,"aqi":46,"pm10":19.9,"pm2_5":18.3,"mosquito_risk":0,"arthritis_risk":5,"migraine_risk":7,"frizz_risk":1,"updated_at":"2026-04-04T12:43:11.081072+05:30"},{"city":"Kurnool","state":"Andhra Pradesh","latitude":15.8281,"longitude":78.0373,"temp":35.6,"humidity":39,"rain":0.0,"pressure":977.3,"uv_index":8.0,"wind_gusts":22.0,"aqi":61,"pm10":15.0,"pm2_5":11.9,"mosquito_risk":0,"arthritis_risk":5,"migraine_risk":10,"frizz_risk":1,"updated_at":"2026-04-04T12:43:11.081079+05:30"},{"city":"Kakinada","state":"Andhra Pradesh","latitude":16.9891,"longitude":82.2475,"temp":35.5,"humidity":47,"rain":0.0,"pressure":1007.5,"uv_index":8.8,"wind_gusts":33.5,"aqi":28,"pm10":12.7,"pm2_5":9.7,"mosquito_risk":0,"arthritis_risk":5,"migraine_risk":7,"frizz_risk":1,"updated_at":"2026-04-04T12:43:11.081085+05:30"},{"city":"Tirupati","state":"Andhra Pradesh","latitude":13.6288,"longitude":79.4192,"temp":36.0,"humidity":37,"rain":0.0,"pressure":991.2,"uv_index":8.5,"wind_gusts":23.4,"aqi":57,"pm10":21.5,"pm2_5":19.8,"mosquito_risk":0,"arthritis_risk":5,"migraine_risk":10,"frizz_risk":1,"updated_at":"2026-04-04T12:43:11.081091+05:30"},{"city":"Warangal","state":"Telangana","latitude":17.9689,"longitude":79.5941,"temp":33.1,"humidity":50,"rain":0.0,"pressure":980.0,"uv_index":8.05,"wind_gusts":28.8,"aqi":78,"pm10":33.8,"pm2_5":28.1,"mosquito_risk":0,"arthritis_risk":5,"migraine_risk":7,"frizz_risk":1,"updated_at":"2026-04-04T12:43:11.081096+05:30"},{"city":"Nizamabad","state":"Telangana","latitude":18.6725,"longitude":78.0941,"temp":31.2,"humidity":50,"rain":0.0,"pressure":966.6,"uv_index":8.55,"wind_gusts":27.0,"aqi":120,"pm10":42.5,"pm2_5":32.8,"mosquito_risk":0,"arthritis_risk":5,"migraine_risk":7,"frizz_risk":1,"updated_at":"2026-04-04T12:43:11.081102+05:30"},{"city":"Mysore","state":"Karnataka","latitude":12.2958,"longitude":76.6396,"temp":30.6,"humidity":51,"rain":0.0,"pressure":929.9,"uv_index":9.05,"wind_gusts":31.7,"aqi":67,"pm10":23.1,"pm2_5":20.1,"mosquito_risk":0,"arthritis_risk":5,"migraine_risk":7,"frizz_risk":1,"updated_at":"2026-04-04T12:43:11.081108+05:30"},{"city":"Mangalore","state":"Karnataka","latitude":12.9141,"longitude":74.856,"temp":28.4,"humidity":80,"rain":0.0,"pressure":1008.2,"uv_index":8.2,"wind_gusts":19.8,"aqi":62,"pm10":16.1,"pm2_5":12.5,"mosquito_risk":7,"arthritis_risk":0,"migraine_risk":4,"frizz_risk":1,"updated_at":"2026-04-04T12:43:11.081114+05:30"},{"city":"Hubli-Dharwad","state":"Karnataka","latitude":15.3647,"longitude":75.124,"temp":32.6,"humidity":39,"rain":0.0,"pressure":942.4,"uv_index":8.6,"wind_gusts":37.1,"aqi":70,"pm10":24.4,"pm2_5":20.1,"mosquito_risk":0,"arthritis_risk":5,"migraine_risk":7,"frizz_risk":1,"updated_at":"2026-04-04T12:43:11.081120+05:30"},{"city":"Belgaum","state":"Karnataka","latitude":15.8497,"longitude":74.4977,"temp":30.6,"humidity":40,"rain":0.0,"pressure":927.5,"uv_index":9.15,"wind_gusts":35.6,"aqi":79,"pm10":23.4,"pm2_5":18.8,"mosquito_risk":0,"arthritis_risk":5,"migraine_risk":7,"frizz_risk":0,"updated_at":"2026-04-04T12:43:14.294619+05:30"},{"city":"Coimbatore","state":"Tamil Nadu","latitude":11.0168,"longitude":76.9558,"temp":31.5,"humidity":51,"rain":0.0,"pressure":962.9,"uv_index":9.15,"wind_gusts":48.6,"aqi":71,"pm10":17.4,"pm2_5":15.9,"mosquito_risk":0,"arthritis_risk":5,"migraine_risk":7,"frizz_risk":1,"updated_at":"2026-04-04T12:43:14.294647+05:30"},{"city":"Madurai","state":"Tamil Nadu","latitude":9.9252,"longitude":78.1198,"temp":35.3,"humidity":43,"rain":0.0,"pressure":993.3,"uv_index":8.7,"wind_gusts":26.3,"aqi":63,"pm10":20.5,"pm2_5":19.0,"mosquito_risk":0,"arthritis_risk":5,"migraine_risk":10,"frizz_risk":1,"updated_at":"2026-04-04T12:43:14.294656+05:30"},{"city":"Trichy","state":"Tamil Nadu","latitude":10.7905,"longitude":78.7047,"temp":35.0,"humidity":47,"rain":0.0,"pressure":1000.0,"uv_index":9.3,"wind_gusts":18.7,"aqi":51,"pm10":20.0,"pm2_5":18.7,"mosquito_risk":0,"arthritis_risk":5,"migraine_risk":4,"frizz_risk":1,"updated_at":"2026-04-04T12:43:14.294664+05:30"},{"city":"Salem","state":"Tamil Nadu","latitude":11.6643,"longitude":78.146,"temp":34.3,"humidity":47,"rain":0.0,"pressure":977.8,"uv_index":8.65,"wind_gusts":29.9,"aqi":58,"pm10":25.1,"pm2_5":23.2,"mosquito_risk":0,"arthritis_risk":5,"migraine_risk":7,"frizz_risk":1,"updated_at":"2026-04-04T12:43:14.294672+05:30"},{"city":"Tirunelveli","state":"Tamil Nadu","latitude":8.7139,"longitude":77.7567,"temp":35.5,"humidity":41,"rain":0.0,"pressure":1003.1,"uv_index":8.45,"wind_gusts":21.2,"aqi":64,"pm10":10.7,"pm2_5":9.6,"mosquito_risk":0,"arthritis_risk":5,"migraine_risk":7,"frizz_risk":1,"updated_at":"2026-04-04T12:43:14.294679+05:30"},{"city":"Vellore","state":"Tamil Nadu","latitude":12.9165,"longitude":79.1325,"temp":34.1,"humidity":47,"rain":0.0,"pressure":984.9,"uv_index":8.7,"wind_gusts":26.6,"aqi":70,"pm10":24.1,"pm2_5":22.0,"mosquito_risk":0,"arthritis_risk":5,"migraine_risk":7,"frizz_risk":1,"updated_at":"2026-04-04T12:43:14.294686+05:30"},{"city":"Erode","state":"Tamil Nadu","latitude":11.341,"longitude":77.7172,"temp":35.6,"humidity":43,"rain":0.0,"pressure":989.0,"uv_index":8.95,"wind_gusts":24.1,"aqi":69,"pm10":24.3,"pm2_5":22.3,"mosquito_risk":0,"arthritis_risk":5,"migraine_risk":10,"frizz_risk":1,"updated_at":"2026-04-04T12:43:14.294693+05:30"},{"city":"Kochi","state":"Kerala","latitude":9.9312,"longitude":76.2673,"temp":28.2,"humidity":82,"rain":0.0,"pressure":1009.9,"uv_index":8.9,"wind_gusts":20.5,"aqi":68,"pm10":16.0,"pm2_5":14.6,"mosquito_risk":7,"arthritis_risk":0,"migraine_risk":4,"frizz_risk":1,"updated_at":"2026-04-04T12:43:14.294700+05:30"},{"city":"Thiruvananthapuram","state":"Kerala","latitude":8.5241,"longitude":76.9366,"temp":28.5,"humidity":82,"rain":0.0,"pressure":1009.0,"uv_index":8.05,"wind_gusts":26.3,"aqi":59,"pm10":16.4,"pm2_5":13.3,"mosquito_risk":7,"arthritis_risk":0,"migraine_risk":4,"frizz_risk":1,"updated_at":"2026-04-04T12:43:14.294708+05:30"},{"city":"Kozhikode","state":"Kerala","latitude":11.2588,"longitude":75.7804,"temp":29.3,"humidity":75,"rain":0.0,"pressure":1009.2,"uv_index":8.25,"wind_gusts":24.5,"aqi":49,"pm10":10.6,"pm2_5":9.2,"mosquito_risk":7,"arthritis_risk":0,"migraine_risk":4,"frizz_risk":1,"updated_at":"2026-04-04T12:43:14.294714+05:30"},{"city":"Thrissur","state":"Kerala","latitude":10.5276,"longitude":76.2144,"temp":31.9,"humidity":62,"rain":0.0,"pressure":1008.1,"uv_index":8.3,"wind_gusts":28.1,"aqi":60,"pm10":13.9,"pm2_5":12.6,"mosquito_risk":3,"arthritis_risk":0,"migraine_risk":4,"frizz_risk":1,"updated_at":"2026-04-04T12:43:14.294721+05:30"},{"city":"Kannur","state":"Kerala","latitude":11.8745,"longitude":75.3704,"temp":29.8,"humidity":73,"rain":0.0,"pressure":1008.7,"uv_index":7.6,"wind_gusts":23.0,"aqi":58,"pm10":15.0,"pm2_5":12.2,"mosquito_risk":7,"arthritis_risk":0,"migraine_risk":4,"frizz_risk":1,"updated_at":"2026-04-04T12:43:14.294727+05:30"},{"city":"Patna","state":"Bihar","latitude":25.5941,"longitude":85.1376,"temp":37.2,"humidity":30,"rain":0.0,"pressure":999.3,"uv_index":7.95,"wind_gusts":39.6,"aqi":78,"pm10":82.2,"pm2_5":27.8,"mosquito_risk":0,"arthritis_risk":5,"migraine_risk":10,"frizz_risk":1,"updated_at":"2026-04-04T12:43:14.294734+05:30"},{"city":"Gaya","state":"Bihar","latitude":24.7914,"longitude":85.0002,"temp":37.0,"humidity":28,"rain":0.0,"pressure":993.5,"uv_index":8.45,"wind_gusts":27.4,"aqi":78,"pm10":68.7,"pm2_5":20.9,"mosquito_risk":0,"arthritis_risk":5,"migraine_risk":10,"frizz_risk":0,"updated_at":"2026-04-04T12:43:14.294741+05:30"},{"city":"Muzaffarpur","state":"Bihar","latitude":26.1209,"longitude":85.3647,"temp":37.6,"humidity":27,"rain":0.0,"pressure":998.7,"uv_index":7.9,"wind_gusts":40.3,"aqi":77,"pm10":52.0,"pm2_5":22.8,"mosquito_risk":0,"arthritis_risk":5,"migraine_risk":10,"frizz_risk":0,"updated_at":"2026-04-04T12:43:14.294747+05:30"},{"city":"Bhagalpur","state":"Bihar","latitude":25.2425,"longitude":87.0117,"temp":35.6,"humidity":36,"rain":0.0,"pressure":1000.1,"uv_index":8.25,"wind_gusts":31.7,"aqi":82,"pm10":77.5,"pm2_5":31.8,"mosquito_risk":0,"arthritis_risk":5,"migraine_risk":7,"frizz_risk":1,"updated_at":"2026-04-04T12:43:14.294753+05:30"},{"city":"Ranchi","state":"Jharkhand","latitude":23.3441,"longitude":85.3096,"temp":33.4,"humidity":31,"rain":0.0,"pressure":939.1,"uv_index":8.2,"wind_gusts":41.0,"aqi":80,"pm10":26.0,"pm2_5":21.4,"mosquito_risk":0,"arthritis_risk":5,"migraine_risk":7,"frizz_risk":0,"updated_at":"2026-04-04T12:43:14.294759+05:30"},{"city":"Jamshedpur","state":"Jharkhand","latitude":22.8046,"longitude":86.2029,"temp":36.6,"humidity":32,"rain":0.0,"pressure":990.4,"uv_index":8.5,"wind_gusts":20.5,"aqi":105,"pm10":29.8,"pm2_5":25.5,"mosquito_risk":0,"arthritis_risk":5,"migraine_risk":10,"frizz_risk":1,"updated_at":"2026-04-04T12:43:14.294765+05:30"},{"city":"Dhanbad","state":"Jharkhand","latitude":23.7957,"longitude":86.4304,"temp":37.9,"humidity":23,"rain":0.0,"pressure":979.6,"uv_index":8.65,"wind_gusts":25.9,"aqi":99,"pm10":22.6,"pm2_5":14.3,"mosquito_risk":0,"arthritis_risk":5,"migraine_risk":10,"frizz_risk":0,"updated_at":"2026-04-04T12:43:14.294772+05:30"},{"city":"Bokaro","state":"Jharkhand","latitude":23.6693,"longitude":86.1511,"temp":37.2,"humidity":25,"rain":0.0,"pressure":983.7,"uv_index":8.55,"wind_gusts":28.8,"aqi":100,"pm10":25.6,"pm2_5":17.2,"mosquito_risk":0,"arthritis_risk":5,"migraine_risk":10,"frizz_risk":0,"updated_at":"2026-04-04T12:43:14.294778+05:30"},{"city":"Bhubaneswar","state":"Odisha","latitude":20.2961,"longitude":85.8245,"temp":37.5,"humidity":40,"rain":0.0,"pressure":1001.7,"uv_index":8.95,"wind_gusts":25.2,"aqi":74,"pm10":59.0,"pm2_5":51.5,"mosquito_risk":0,"arthritis_risk":5,"migraine_risk":7,"frizz_risk":1,"updated_at":"2026-04-04T12:43:14.294784+05:30"},{"city":"Cuttack","state":"Odisha","latitude":20.4625,"longitude":85.8828,"temp":37.7,"humidity":40,"rain":0.0,"pressure":1003.6,"uv_index":9.0,"wind_gusts":32.8,"aqi":74,"pm10":59.0,"pm2_5":51.5,"mosquito_risk":0,"arthritis_risk":5,"migraine_risk":7,"frizz_risk":1,"updated_at":"2026-04-04T12:43:14.294790+05:30"},{"city":"Rourkela","state":"Odisha","latitude":22.2604,"longitude":84.8536,"temp":37.0,"humidity":33,"rain":0.0,"pressure":985.1,"uv_index":8.35,"wind_gusts":39.6,"aqi":114,"pm10":43.9,"pm2_5":36.3,"mosquito_risk":0,"arthritis_risk":5,"migraine_risk":10,"frizz_risk":1,"updated_at":"2026-04-04T12:43:14.294796+05:30"},{"city":"Raipur","state":"Chhattisgarh","latitude":21.2514,"longitude":81.6296,"temp":34.3,"humidity":39,"rain":0.0,"pressure":976.3,"uv_index":8.15,"wind_gusts":41.4,"aqi":115,"pm10":38.9,"pm2_5":31.9,"mosquito_risk":0,"arthritis_risk":5,"migraine_risk":7,"frizz_risk":1,"updated_at":"2026-04-04T12:43:14.294802+05:30"},{"city":"Bhilai","state":"Chhattisgarh","latitude":21.1938,"longitude":81.3509,"temp":33.7,"humidity":42,"rain":0.0,"pressure":976.7,"uv_index":8.2,"wind_gusts":37.8,"aqi":96,"pm10":42.6,"pm2_5":34.1,"mosquito_risk":0,"arthritis_risk":5,"migraine_risk":7,"frizz_risk":1,"updated_at":"2026-04-04T12:43:14.294809+05:30"},{"city":"Guwahati","state":"Assam","latitude":26.1158,"longitude":91.7086,"temp":29.4,"humidity":71,"rain":0.0,"pressure":999.7,"uv_index":8.25,"wind_gusts":38.2,"aqi":129,"pm10":48.0,"pm2_5":37.8,"mosquito_risk":7,"arthritis_risk":5,"migraine_risk":7,"frizz_risk":1,"updated_at":"2026-04-04T12:43:14.294815+05:30"},{"city":"Agartala","state":"Tripura","latitude":23.8315,"longitude":91.2868,"temp":33.2,"humidity":64,"rain":0.0,"pressure":1004.8,"uv_index":8.45,"wind_gusts":28.1,"aqi":68,"pm10":42.6,"pm2_5":36.7,"mosquito_risk":3,"arthritis_risk":5,"migraine_risk":4,"frizz_risk":1,"updated_at":"2026-04-04T12:43:14.294821+05:30"},{"city":"Shillong","state":"Meghalaya","latitude":25.5788,"longitude":91.8933,"temp":22.4,"humidity":53,"rain":0.0,"pressure":857.6,"uv_index":8.4,"wind_gusts":56.5,"aqi":92,"pm10":39.1,"pm2_5":30.6,"mosquito_risk":0,"arthritis_risk":5,"migraine_risk":7,"frizz_risk":0,"updated_at":"2026-04-04T12:43:14.294827+05:30"},{"city":"Imphal","state":"Manipur","latitude":24.817,"longitude":93.9368,"temp":23.3,"humidity":74,"rain":0.0,"pressure":923.4,"uv_index":8.75,"wind_gusts":78.1,"aqi":131,"pm10":38.8,"pm2_5":30.6,"mosquito_risk":3,"arthritis_risk":5,"migraine_risk":7,"frizz_risk":1,"updated_at":"2026-04-04T12:43:14.294833+05:30"},{"city":"Aizawl","state":"Mizoram","latitude":23.7271,"longitude":92.7176,"temp":27.8,"humidity":55,"rain":0.0,"pressure":894.4,"uv_index":8.6,"wind_gusts":55.1,"aqi":107,"pm10":36.9,"pm2_5":27.2,"mosquito_risk":4,"arthritis_risk":5,"migraine_risk":7,"frizz_risk":1,"updated_at":"2026-04-04T12:43:14.294839+05:30"},{"city":"Kohima","state":"Nagaland","latitude":25.6701,"longitude":94.1077,"temp":22.9,"humidity":57,"rain":0.0,"pressure":856.1,"uv_index":8.3,"wind_gusts":79.9,"aqi":115,"pm10":37.5,"pm2_5":26.4,"mosquito_risk":0,"arthritis_risk":5,"migraine_risk":7,"frizz_risk":0,"updated_at":"2026-04-04T12:43:14.294845+05:30"},{"city":"Gangtok","state":"Sikkim","latitude":27.3314,"longitude":88.6138,"temp":21.6,"humidity":71,"rain":0.0,"pressure":838.4,"uv_index":8.4,"wind_gusts":17.6,"aqi":130,"pm10":51.0,"pm2_5":39.6,"mosquito_risk":3,"arthritis_risk":5,"migraine_risk":7,"frizz_risk":1,"updated_at":"2026-04-04T12:43:14.294851+05:30"},{"city":"Siliguri","state":"West Bengal","latitude":26.7271,"longitude":88.3953,"temp":27.1,"humidity":70,"rain":0.0,"pressure":992.7,"uv_index":8.2,"wind_gusts":27.0,"aqi":161,"pm10":76.1,"pm2_5":56.6,"mosquito_risk":7,"arthritis_risk":5,"migraine_risk":7,"frizz_risk":1,"updated_at":"2026-04-04T12:43:17.508257+05:30"},{"city":"Durgapur","state":"West Bengal","latitude":23.5204,"longitude":87.3119,"temp":37.3,"humidity":27,"rain":0.0,"pressure":994.4,"uv_index":8.55,"wind_gusts":16.2,"aqi":128,"pm10":23.3,"pm2_5":13.7,"mosquito_risk":0,"arthritis_risk":5,"migraine_risk":10,"frizz_risk":0,"updated_at":"2026-04-04T12:43:17.508289+05:30"},{"city":"Asansol","state":"West Bengal","latitude":23.6739,"longitude":86.9524,"temp":37.2,"humidity":27,"rain":0.0,"pressure":993.0,"uv_index":8.7,"wind_gusts":17.6,"aqi":100,"pm10":21.4,"pm2_5":12.8,"mosquito_risk":0,"arthritis_risk":5,"migraine_risk":10,"frizz_risk":0,"updated_at":"2026-04-04T12:43:17.508302+05:30"},{"city":"Pondicherry","state":"Puducherry","latitude":11.9139,"longitude":79.8145,"temp":34.6,"humidity":53,"rain":0.0,"pressure":1008.4,"uv_index":8.8,"wind_gusts":21.6,"aqi":48,"pm10":17.1,"pm2_5":15.9,"mosquito_risk":0,"arthritis_risk":0,"migraine_risk":4,"frizz_risk":1,"updated_at":"2026-04-04T12:43:17.508313+05:30"},{"city":"Port Blair","state":"Andaman and Nicobar Islands","latitude":11.6234,"longitude":92.7265,"temp":28.7,"humidity":73,"rain":0.0,"pressure":1006.6,"uv_index":8.75,"wind_gusts":16.9,"aqi":42,"pm10":19.4,"pm2_5":10.7,"mosquito_risk":7,"arthritis_risk":5,"migraine_risk":4,"frizz_risk":1,"updated_at":"2026-04-04T12:43:17.508322+05:30"},{"city":"Haridwar","state":"Uttarakhand","latitude":29.9457,"longitude":78.1642,"temp":27.5,"humidity":54,"rain":0.0,"pressure":978.0,"uv_index":5.0,"wind_gusts":34.6,"aqi":105,"pm10":95.7,"pm2_5":28.0,"mosquito_risk":4,"arthritis_risk":5,"migraine_risk":3,"frizz_risk":1,"updated_at":"2026-04-04T12:43:17.508331+05:30"},{"city":"Rishikesh","state":"Uttarakhand","latitude":30.0869,"longitude":78.2676,"temp":26.2,"humidity":50,"rain":0.0,"pressure":971.0,"uv_index":4.5,"wind_gusts":31.0,"aqi":70,"pm10":26.8,"pm2_5":6.7,"mosquito_risk":4,"arthritis_risk":5,"migraine_risk":3,"frizz_risk":0,"updated_at":"2026-04-04T12:43:17.508339+05:30"},{"city":"Nainital","state":"Uttarakhand","latitude":29.3919,"longitude":79.4542,"temp":19.8,"humidity":56,"rain":0.0,"pressure":809.8,"uv_index":4.25,"wind_gusts":39.2,"aqi":64,"pm10":27.8,"pm2_5":11.4,"mosquito_risk":0,"arthritis_risk":5,"migraine_risk":3,"frizz_risk":0,"updated_at":"2026-04-04T12:43:17.508348+05:30"},{"city":"Mussoorie","state":"Uttarakhand","latitude":30.4599,"longitude":78.0664,"temp":18.5,"humidity":60,"rain":0.0,"pressure":806.2,"uv_index":4.95,"wind_gusts":46.4,"aqi":70,"pm10":31.0,"pm2_5":9.3,"mosquito_risk":0,"arthritis_risk":5,"migraine_risk":3,"frizz_risk":0,"updated_at":"2026-04-04T12:43:17.508356+05:30"},{"city":"Dharamshala","state":"Himachal Pradesh","latitude":32.219,"longitude":76.3234,"temp":18.7,"humidity":70,"rain":0.0,"pressure":871.5,"uv_index":5.8,"wind_gusts":49.3,"aqi":46,"pm10":17.4,"pm2_5":5.7,"mosquito_risk":3,"arthritis_risk":5,"migraine_risk":3,"frizz_risk":0,"updated_at":"2026-04-04T12:43:17.508364+05:30"},{"city":"Dalhousie","state":"Himachal Pradesh","latitude":32.5387,"longitude":75.971,"temp":13.5,"humidity":80,"rain":0.0,"pressure":804.8,"uv_index":5.65,"wind_gusts":52.6,"aqi":61,"pm10":48.0,"pm2_5":13.5,"mosquito_risk":3,"arthritis_risk":5,"migraine_risk":3,"frizz_risk":0,"updated_at":"2026-04-04T12:43:17.508373+05:30"},{"city":"Patiala","state":"Punjab","latitude":30.3398,"longitude":76.3869,"temp":28.0,"humidity":45,"rain":0.0,"pressure":981.5,"uv_index":4.7,"wind_gusts":25.2,"aqi":194,"pm10":238.4,"pm2_5":43.3,"mosquito_risk":4,"arthritis_risk":5,"migraine_risk":3,"frizz_risk":0,"updated_at":"2026-04-04T12:43:17.508381+05:30"},{"city":"Bhatinda","state":"Punjab","latitude":30.211,"longitude":74.9455,"temp":26.4,"humidity":57,"rain":0.0,"pressure":987.0,"uv_index":6.9,"wind_gusts":45.0,"aqi":77,"pm10":97.1,"pm2_5":26.1,"mosquito_risk":4,"arthritis_risk":5,"migraine_risk":7,"frizz_risk":1,"updated_at":"2026-04-04T12:43:17.508389+05:30"},{"city":"Rohtak","state":"Haryana","latitude":28.8955,"longitude":76.6066,"temp":28.4,"humidity":51,"rain":0.0,"pressure":984.9,"uv_index":6.3,"wind_gusts":31.0,"aqi":126,"pm10":249.6,"pm2_5":36.6,"mosquito_risk":4,"arthritis_risk":5,"migraine_risk":7,"frizz_risk":1,"updated_at":"2026-04-04T12:43:17.508397+05:30"},{"city":"Panipat","state":"Haryana","latitude":29.3909,"longitude":76.9635,"temp":29.7,"humidity":44,"rain":0.0,"pressure":983.3,"uv_index":5.2,"wind_gusts":28.8,"aqi":251,"pm10":225.8,"pm2_5":35.4,"mosquito_risk":4,"arthritis_risk":5,"migraine_risk":3,"frizz_risk":1,"updated_at":"2026-04-04T12:43:17.508405+05:30"},{"city":"Mathura","state":"Uttar Pradesh","latitude":27.4924,"longitude":77.6737,"temp":30.2,"humidity":45,"rain":0.0,"pressure":989.5,"uv_index":5.15,"wind_gusts":38.5,"aqi":314,"pm10":354.8,"pm2_5":48.5,"mosquito_risk":0,"arthritis_risk":5,"migraine_risk":3,"frizz_risk":1,"updated_at":"2026-04-04T12:43:17.508412+05:30"},{"city":"Vrindavan","state":"Uttar Pradesh","latitude":27.5823,"longitude":77.7027,"temp":30.8,"humidity":43,"rain":0.0,"pressure":989.9,"uv_index":5.25,"wind_gusts":29.5,"aqi":314,"pm10":354.8,"pm2_5":48.5,"mosquito_risk":0,"arthritis_risk":5,"migraine_risk":3,"frizz_risk":1,"updated_at":"2026-04-04T12:43:17.508420+05:30"},{"city":"Ayodhya","state":"Uttar Pradesh","latitude":26.7922,"longitude":82.1998,"temp":36.8,"humidity":30,"rain":0.0,"pressure":995.5,"uv_index":7.2,"wind_gusts":40.3,"aqi":106,"pm10":109.7,"pm2_5":36.1,"mosquito_risk":0,"arthritis_risk":5,"migraine_risk":10,"frizz_risk":1,"updated_at":"2026-04-04T12:43:17.508428+05:30"},{"city":"Ratlam","state":"Madhya Pradesh","latitude":23.3315,"longitude":75.0367,"temp":28.0,"humidity":54,"rain":0.0,"pressure":957.4,"uv_index":8.1,"wind_gusts":36.7,"aqi":58,"pm10":31.8,"pm2_5":12.9,"mosquito_risk":4,"arthritis_risk":5,"migraine_risk":7,"frizz_risk":1,"updated_at":"2026-04-04T12:43:17.508437+05:30"},{"city":"Sagar","state":"Madhya Pradesh","latitude":23.8388,"longitude":78.7378,"temp":31.9,"humidity":33,"rain":0.0,"pressure":952.3,"uv_index":7.2,"wind_gusts":39.6,"aqi":59,"pm10":24.9,"pm2_5":17.5,"mosquito_risk":0,"arthritis_risk":5,"migraine_risk":7,"frizz_risk":0,"updated_at":"2026-04-04T12:43:17.508445+05:30"},{"city":"Satna","state":"Madhya Pradesh","latitude":24.6005,"longitude":80.8322,"temp":32.9,"humidity":44,"rain":0.0,"pressure":973.3,"uv_index":5.05,"wind_gusts":37.1,"aqi":73,"pm10":29.4,"pm2_5":19.2,"mosquito_risk":0,"arthritis_risk":5,"migraine_risk":3,"frizz_risk":1,"updated_at":"2026-04-04T12:43:17.508452+05:30"},{"city":"Akola","state":"Maharashtra","latitude":20.7002,"longitude":77.0082,"temp":34.3,"humidity":37,"rain":0.0,"pressure":976.7,"uv_index":7.95,"wind_gusts":25.6,"aqi":87,"pm10":39.9,"pm2_5":30.5,"mosquito_risk":0,"arthritis_risk":5,"migraine_risk":7,"frizz_risk":1,"updated_at":"2026-04-04T12:43:17.508458+05:30"},{"city":"Amravati","state":"Maharashtra","latitude":20.9374,"longitude":77.7796,"temp":34.6,"humidity":33,"rain":0.0,"pressure":969.0,"uv_index":7.7,"wind_gusts":24.5,"aqi":91,"pm10":32.9,"pm2_5":26.7,"mosquito_risk":0,"arthritis_risk":5,"migraine_risk":7,"frizz_risk":0,"updated_at":"2026-04-04T12:43:17.508465+05:30"},{"city":"Latur","state":"Maharashtra","latitude":18.4088,"longitude":76.5604,"temp":30.6,"humidity":44,"rain":0.0,"pressure":941.6,"uv_index":8.85,"wind_gusts":29.5,"aqi":94,"pm10":47.3,"pm2_5":38.9,"mosquito_risk":0,"arthritis_risk":5,"migraine_risk":7,"frizz_risk":1,"updated_at":"2026-04-04T12:43:17.508472+05:30"},{"city":"Nanded","state":"Maharashtra","latitude":19.1383,"longitude":77.3091,"temp":32.7,"humidity":46,"rain":0.0,"pressure":970.5,"uv_index":8.15,"wind_gusts":19.8,"aqi":89,"pm10":41.1,"pm2_5":32.5,"mosquito_risk":0,"arthritis_risk":5,"migraine_risk":7,"frizz_risk":1,"updated_at":"2026-04-04T12:43:17.508478+05:30"},{"city":"Gulbarga","state":"Karnataka","latitude":17.3297,"longitude":76.8343,"temp":34.3,"humidity":39,"rain":0.0,"pressure":959.8,"uv_index":8.9,"wind_gusts":32.0,"aqi":75,"pm10":25.9,"pm2_5":21.0,"mosquito_risk":0,"arthritis_risk":5,"migraine_risk":7,"frizz_risk":1,"updated_at":"2026-04-04T12:43:17.508484+05:30"},{"city":"Bidar","state":"Karnataka","latitude":17.9104,"longitude":77.5199,"temp":31.8,"humidity":43,"rain":0.0,"pressure":937.3,"uv_index":8.55,"wind_gusts":31.3,"aqi":92,"pm10":34.3,"pm2_5":27.2,"mosquito_risk":0,"arthritis_risk":5,"migraine_risk":7,"frizz_risk":1,"updated_at":"2026-04-04T12:43:17.508490+05:30"},{"city":"Hospet","state":"Karnataka","latitude":15.2689,"longitude":76.3909,"temp":32.0,"humidity":47,"rain":0.0,"pressure":957.0,"uv_index":7.95,"wind_gusts":33.5,"aqi":71,"pm10":30.0,"pm2_5":25.6,"mosquito_risk":0,"arthritis_risk":5,"migraine_risk":7,"frizz_risk":1,"updated_at":"2026-04-04T12:43:17.508496+05:30"},{"city":"Tirupur","state":"Tamil Nadu","latitude":11.1085,"longitude":77.3411,"temp":34.7,"humidity":43,"rain":0.0,"pressure":975.6,"uv_index":8.8,"wind_gusts":39.6,"aqi":75,"pm10":23.2,"pm2_5":21.3,"mosquito_risk":0,"arthritis_risk":5,"migraine_risk":7,"frizz_risk":1,"updated_at":"2026-04-04T12:43:17.508503+05:30"},{"city":"Alappuzha","state":"Kerala","latitude":9.4981,"longitude":76.3388,"temp":28.2,"humidity":81,"rain":0.0,"pressure":1010.1,"uv_index":9.05,"wind_gusts":22.0,"aqi":65,"pm10":14.8,"pm2_5":13.4,"mosquito_risk":7,"arthritis_risk":0,"migraine_risk":4,"frizz_risk":1,"updated_at":"2026-04-04T12:43:17.508509+05:30"},{"city":"Munnar","state":"Kerala","latitude":10.0889,"longitude":77.0595,"temp":26.5,"humidity":66,"rain":0.0,"pressure":859.7,"uv_index":6.2,"wind_gusts":32.8,"aqi":58,"pm10":13.9,"pm2_5":12.8,"mosquito_risk":7,"arthritis_risk":5,"migraine_risk":7,"frizz_risk":1,"updated_at":"2026-04-04T12:43:17.508516+05:30"},{"city":"Silchar","state":"Assam","latitude":24.8333,"longitude":92.7789,"temp":28.1,"humidity":78,"rain":0.0,"pressure":1004.9,"uv_index":8.45,"wind_gusts":37.4,"aqi":133,"pm10":38.3,"pm2_5":29.5,"mosquito_risk":7,"arthritis_risk":5,"migraine_risk":4,"frizz_risk":1,"updated_at":"2026-04-04T12:43:17.508522+05:30"},{"city":"Dibrugarh","state":"Assam","latitude":27.4728,"longitude":94.912,"temp":27.3,"humidity":72,"rain":0.0,"pressure":994.4,"uv_index":8.3,"wind_gusts":14.4,"aqi":110,"pm10":46.4,"pm2_5":35.5,"mosquito_risk":7,"arthritis_risk":5,"migraine_risk":7,"frizz_risk":1,"updated_at":"2026-04-04T12:43:17.508528+05:30"}]