[{"city":"Delhi","state":"Delhi","latitude":28.6139,"longitude":77.209,"temp":23.8,"humidity":76,"rain":0.0,"pressure":982.7,"uv_index":7.6,"wind_gusts":30.2,"aqi":226,"pm10":227.2,"pm2_5":65.0,"no2":22.4,"co":506.0,"o3":78.0,"so2":20.5,"mosquito_risk":3,"arthritis_risk":5,"migraine_risk":7,"frizz_risk":1,"updated_at":"2026-05-31T05:40:59.711054+05:30"},{"city":"Mumbai","state":"Maharashtra","latitude":19.076,"longitude":72.8777,"temp":29.6,"humidity":71,"rain":0.0,"pressure":1008.2,"uv_index":7.8,"wind_gusts":41.4,"aqi":59,"pm10":30.2,"pm2_5":17.3,"no2":3.8,"co":158.0,"o3":52.0,"so2":2.6,"mosquito_risk":7,"arthritis_risk":0,"migraine_risk":4,"frizz_risk":1,"updated_at":"2026-05-31T05:40:59.711104+05:30"},{"city":"Bangalore","state":"Karnataka","latitude":12.9716,"longitude":77.5946,"temp":22.0,"humidity":94,"rain":0.0,"pressure":911.1,"uv_index":9.25,"wind_gusts":39.2,"aqi":78,"pm10":28.0,"pm2_5":23.1,"no2":17.3,"co":305.0,"o3":54.0,"so2":5.9,"mosquito_risk":3,"arthritis_risk":5,"migraine_risk":7,"frizz_risk":1,"updated_at":"2026-05-31T05:40:59.711121+05:30"},{"city":"Hyderabad","state":"Telangana","latitude":17.385,"longitude":78.4867,"temp":27.7,"humidity":60,"rain":0.0,"pressure":952.3,"uv_index":9.05,"wind_gusts":48.2,"aqi":64,"pm10":16.3,"pm2_5":14.2,"no2":9.6,"co":255.0,"o3":57.0,"so2":4.2,"mosquito_risk":4,"arthritis_risk":5,"migraine_risk":7,"frizz_risk":1,"updated_at":"2026-05-31T05:40:59.711132+05:30"},{"city":"Chennai","state":"Tamil Nadu","latitude":13.0827,"longitude":80.2707,"temp":28.8,"humidity":76,"rain":0.0,"pressure":1005.4,"uv_index":7.9,"wind_gusts":34.2,"aqi":81,"pm10":31.9,"pm2_5":27.2,"no2":16.5,"co":409.0,"o3":54.0,"so2":12.1,"mosquito_risk":7,"arthritis_risk":5,"migraine_risk":4,"frizz_risk":1,"updated_at":"2026-05-31T05:40:59.711142+05:30"},{"city":"Kolkata","state":"West Bengal","latitude":22.5726,"longitude":88.3639,"temp":26.5,"humidity":88,"rain":0.0,"pressure":1005.3,"uv_index":8.85,"wind_gusts":15.8,"aqi":151,"pm10":139.7,"pm2_5":124.8,"no2":45.4,"co":676.0,"o3":8.0,"so2":15.7,"mosquito_risk":7,"arthritis_risk":5,"migraine_risk":4,"frizz_risk":1,"updated_at":"2026-05-31T05:40:59.711152+05:30"},{"city":"Pune","state":"Maharashtra","latitude":18.5204,"longitude":73.8567,"temp":25.0,"humidity":86,"rain":0.0,"pressure":948.3,"uv_index":7.95,"wind_gusts":45.4,"aqi":47,"pm10":12.9,"pm2_5":9.1,"no2":6.5,"co":135.0,"o3":39.0,"so2":5.2,"mosquito_risk":7,"arthritis_risk":5,"migraine_risk":7,"frizz_risk":1,"updated_at":"2026-05-31T05:40:59.711160+05:30"},{"city":"Ahmedabad","state":"Gujarat","latitude":23.0225,"longitude":72.5714,"temp":27.2,"humidity":73,"rain":0.0,"pressure":1000.7,"uv_index":8.1,"wind_gusts":58.0,"aqi":74,"pm10":44.4,"pm2_5":24.1,"no2":5.6,"co":194.0,"o3":41.0,"so2":5.4,"mosquito_risk":7,"arthritis_risk":5,"migraine_risk":4,"frizz_risk":1,"updated_at":"2026-05-31T05:40:59.711169+05:30"},{"city":"Jaipur","state":"Rajasthan","latitude":26.9124,"longitude":75.7873,"temp":24.7,"humidity":66,"rain":0.0,"pressure":958.9,"uv_index":8.15,"wind_gusts":36.4,"aqi":86,"pm10":104.3,"pm2_5":33.1,"no2":15.6,"co":386.0,"o3":42.0,"so2":7.3,"mosquito_risk":3,"arthritis_risk":5,"migraine_risk":7,"frizz_risk":1,"updated_at":"2026-05-31T05:40:59.711184+05:30"},{"city":"Lucknow","state":"Uttar Pradesh","latitude":26.8467,"longitude":80.9462,"temp":25.0,"humidity":80,"rain":0.0,"pressure":993.1,"uv_index":8.15,"wind_gusts":29.5,"aqi":70,"pm10":27.4,"pm2_5":24.3,"no2":15.4,"co":307.0,"o3":70.0,"so2":7.8,"mosquito_risk":7,"arthritis_risk":5,"migraine_risk":7,"frizz_risk":1,"updated_at":"2026-05-31T05:40:59.711192+05:30"},{"city":"Kanpur","state":"Uttar Pradesh","latitude":26.4499,"longitude":80.3319,"temp":25.5,"humidity":79,"rain":0.0,"pressure":991.2,"uv_index":8.1,"wind_gusts":24.1,"aqi":122,"pm10":151.3,"pm2_5":36.7,"no2":14.1,"co":310.0,"o3":67.0,"so2":6.4,"mosquito_risk":7,"arthritis_risk":5,"migraine_risk":7,"frizz_risk":1,"updated_at":"2026-05-31T05:40:59.711200+05:30"},{"city":"Chandigarh","state":"Chandigarh","latitude":30.7333,"longitude":76.7794,"temp":23.3,"humidity":63,"rain":0.0,"pressure":969.2,"uv_index":6.3,"wind_gusts":38.9,"aqi":83,"pm10":35.9,"pm2_5":22.1,"no2":12.3,"co":674.0,"o3":91.0,"so2":4.7,"mosquito_risk":3,"arthritis_risk":5,"migraine_risk":7,"frizz_risk":0,"updated_at":"2026-05-31T05:40:59.711208+05:30"},{"city":"Srinagar","state":"Jammu and Kashmir","latitude":34.0837,"longitude":74.7973,"temp":12.1,"humidity":79,"rain":0.0,"pressure":839.1,"uv_index":8.95,"wind_gusts":24.1,"aqi":104,"pm10":74.0,"pm2_5":50.3,"no2":24.8,"co":228.0,"o3":9.0,"so2":1.2,"mosquito_risk":3,"arthritis_risk":5,"migraine_risk":7,"frizz_risk":0,"updated_at":"2026-05-31T05:40:59.711217+05:30"},{"city":"Jammu","state":"Jammu and Kashmir","latitude":32.7266,"longitude":74.857,"temp":23.8,"humidity":66,"rain":0.0,"pressure":973.0,"uv_index":8.5,"wind_gusts":24.1,"aqi":117,"pm10":70.3,"pm2_5":52.6,"no2":44.3,"co":418.0,"o3":3.0,"so2":3.0,"mosquito_risk":3,"arthritis_risk":5,"migraine_risk":7,"frizz_risk":1,"updated_at":"2026-05-31T05:40:59.711225+05:30"},{"city":"Amritsar","state":"Punjab","latitude":31.634,"longitude":74.8723,"temp":22.5,"humidity":80,"rain":0.0,"pressure":980.9,"uv_index":8.3,"wind_gusts":31.0,"aqi":106,"pm10":34.1,"pm2_5":25.4,"no2":18.0,"co":579.0,"o3":68.0,"so2":6.5,"mosquito_risk":3,"arthritis_risk":5,"migraine_risk":7,"frizz_risk":1,"updated_at":"2026-05-31T05:40:59.711232+05:30"},{"city":"Ludhiana","state":"Punjab","latitude":30.901,"longitude":75.8573,"temp":22.6,"humidity":87,"rain":0.0,"pressure":979.0,"uv_index":7.25,"wind_gusts":36.7,"aqi":105,"pm10":32.5,"pm2_5":18.8,"no2":10.7,"co":514.0,"o3":103.0,"so2":9.1,"mosquito_risk":3,"arthritis_risk":5,"migraine_risk":7,"frizz_risk":1,"updated_at":"2026-05-31T05:40:59.711239+05:30"},{"city":"Jalandhar","state":"Punjab","latitude":31.326,"longitude":75.5762,"temp":22.5,"humidity":92,"rain":0.0,"pressure":980.0,"uv_index":7.2,"wind_gusts":36.0,"aqi":80,"pm10":29.2,"pm2_5":18.0,"no2":11.6,"co":571.0,"o3":106.0,"so2":12.5,"mosquito_risk":3,"arthritis_risk":5,"migraine_risk":7,"frizz_risk":1,"updated_at":"2026-05-31T05:40:59.711248+05:30"},{"city":"Dehradun","state":"Uttarakhand","latitude":30.6284,"longitude":78.0322,"temp":14.2,"humidity":76,"rain":0.0,"pressure":829.5,"uv_index":5.25,"wind_gusts":27.4,"aqi":62,"pm10":26.5,"pm2_5":21.0,"no2":24.4,"co":259.0,"o3":23.0,"so2":0.4,"mosquito_risk":3,"arthritis_risk":5,"migraine_risk":3,"frizz_risk":0,"updated_at":"2026-05-31T05:40:59.711255+05:30"},{"city":"Shimla","state":"Himachal Pradesh","latitude":31.1048,"longitude":77.1734,"temp":12.5,"humidity":66,"rain":0.0,"pressure":783.8,"uv_index":6.25,"wind_gusts":34.6,"aqi":70,"pm10":15.9,"pm2_5":11.2,"no2":12.4,"co":305.0,"o3":82.0,"so2":0.2,"mosquito_risk":3,"arthritis_risk":5,"migraine_risk":7,"frizz_risk":0,"updated_at":"2026-05-31T05:40:59.711265+05:30"},{"city":"Manali","state":"Himachal Pradesh","latitude":32.2396,"longitude":77.1887,"temp":12.8,"humidity":81,"rain":0.1,"pressure":817.2,"uv_index":7.1,"wind_gusts":30.2,"aqi":31,"pm10":3.5,"pm2_5":2.2,"no2":30.3,"co":258.0,"o3":71.0,"so2":0.1,"mosquito_risk":6,"arthritis_risk":10,"migraine_risk":7,"frizz_risk":0,"updated_at":"2026-05-31T05:40:59.711274+05:30"},{"city":"Gurgaon","state":"Haryana","latitude":28.4595,"longitude":77.0266,"temp":23.5,"humidity":78,"rain":0.0,"pressure":980.9,"uv_index":7.7,"wind_gusts":31.3,"aqi":1109,"pm10":402.3,"pm2_5":91.0,"no2":18.1,"co":554.0,"o3":79.0,"so2":14.1,"mosquito_risk":3,"arthritis_risk":5,"migraine_risk":7,"frizz_risk":1,"updated_at":"2026-05-31T05:40:59.711281+05:30"},{"city":"Noida","state":"Uttar Pradesh","latitude":28.5355,"longitude":77.391,"temp":23.4,"humidity":79,"rain":0.0,"pressure":984.2,"uv_index":7.65,"wind_gusts":25.6,"aqi":1109,"pm10":402.3,"pm2_5":91.0,"no2":18.1,"co":467.0,"o3":79.0,"so2":14.1,"mosquito_risk":3,"arthritis_risk":5,"migraine_risk":7,"frizz_risk":1,"updated_at":"2026-05-31T05:40:59.711289+05:30"},{"city":"Ghaziabad","state":"Uttar Pradesh","latitude":28.6692,"longitude":77.4538,"temp":23.5,"humidity":78,"rain":0.0,"pressure":982.4,"uv_index":7.6,"wind_gusts":30.6,"aqi":119,"pm10":86.8,"pm2_5":38.4,"no2":16.2,"co":419.0,"o3":75.0,"so2":8.8,"mosquito_risk":3,"arthritis_risk":5,"migraine_risk":7,"frizz_risk":1,"updated_at":"2026-05-31T05:40:59.711298+05:30"},{"city":"Faridabad","state":"Haryana","latitude":28.4089,"longitude":77.3178,"temp":23.7,"humidity":77,"rain":0.0,"pressure":983.5,"uv_index":7.65,"wind_gusts":26.6,"aqi":1109,"pm10":402.3,"pm2_5":91.0,"no2":18.1,"co":458.0,"o3":79.0,"so2":14.1,"mosquito_risk":3,"arthritis_risk":5,"migraine_risk":7,"frizz_risk":1,"updated_at":"2026-05-31T05:40:59.711305+05:30"},{"city":"Meerut","state":"Uttar Pradesh","latitude":28.9845,"longitude":77.7064,"temp":22.8,"humidity":83,"rain":0.0,"pressure":981.3,"uv_index":7.5,"wind_gusts":42.1,"aqi":119,"pm10":86.8,"pm2_5":38.4,"no2":16.2,"co":426.0,"o3":75.0,"so2":8.8,"mosquito_risk":3,"arthritis_risk":5,"migraine_risk":7,"frizz_risk":1,"updated_at":"2026-05-31T05:40:59.711312+05:30"},{"city":"Agra","state":"Uttar Pradesh","latitude":27.1767,"longitude":78.0081,"temp":25.6,"humidity":72,"rain":0.0,"pressure":987.1,"uv_index":7.9,"wind_gusts":27.4,"aqi":636,"pm10":534.6,"pm2_5":83.4,"no2":11.6,"co":445.0,"o3":73.0,"so2":6.1,"mosquito_risk":7,"arthritis_risk":5,"migraine_risk":7,"frizz_risk":1,"updated_at":"2026-05-31T05:40:59.711319+05:30"},{"city":"Varanasi","state":"Uttar Pradesh","latitude":25.3176,"longitude":82.9739,"temp":25.9,"humidity":82,"rain":0.0,"pressure":996.2,"uv_index":8.7,"wind_gusts":25.6,"aqi":94,"pm10":62.6,"pm2_5":58.7,"no2":28.6,"co":600.0,"o3":52.0,"so2":14.6,"mosquito_risk":7,"arthritis_risk":5,"migraine_risk":7,"frizz_risk":1,"updated_at":"2026-05-31T05:40:59.711326+05:30"},{"city":"Prayagraj","state":"Uttar Pradesh","latitude":25.4358,"longitude":81.8463,"temp":25.9,"humidity":79,"rain":0.0,"pressure":994.7,"uv_index":8.55,"wind_gusts":27.7,"aqi":81,"pm10":39.2,"pm2_5":37.3,"no2":19.7,"co":448.0,"o3":70.0,"so2":12.1,"mosquito_risk":7,"arthritis_risk":5,"migraine_risk":7,"frizz_risk":1,"updated_at":"2026-05-31T05:40:59.711334+05:30"},{"city":"Gorakhpur","state":"Uttar Pradesh","latitude":26.7606,"longitude":83.3732,"temp":22.9,"humidity":93,"rain":0.1,"pressure":997.4,"uv_index":8.55,"wind_gusts":36.7,"aqi":78,"pm10":31.4,"pm2_5":27.6,"no2":14.3,"co":270.0,"o3":85.0,"so2":6.8,"mosquito_risk":6,"arthritis_risk":5,"migraine_risk":7,"frizz_risk":1,"updated_at":"2026-05-31T05:40:59.711343+05:30"},{"city":"Bareilly","state":"Uttar Pradesh","latitude":28.367,"longitude":79.4304,"temp":23.3,"humidity":88,"rain":0.0,"pressure":987.3,"uv_index":7.95,"wind_gusts":48.2,"aqi":93,"pm10":36.0,"pm2_5":32.8,"no2":19.6,"co":368.0,"o3":57.0,"so2":4.8,"mosquito_risk":3,"arthritis_risk":5,"migraine_risk":7,"frizz_risk":1,"updated_at":"2026-05-31T05:40:59.711350+05:30"},{"city":"Aligarh","state":"Uttar Pradesh","latitude":27.8974,"longitude":78.088,"temp":24.6,"humidity":77,"rain":0.0,"pressure":985.2,"uv_index":7.75,"wind_gusts":34.6,"aqi":184,"pm10":146.7,"pm2_5":42.8,"no2":15.4,"co":390.0,"o3":68.0,"so2":10.6,"mosquito_risk":3,"arthritis_risk":5,"migraine_risk":7,"frizz_risk":1,"updated_at":"2026-05-31T05:40:59.711357+05:30"},{"city":"Moradabad","state":"Uttar Pradesh","latitude":28.8386,"longitude":78.7733,"temp":24.1,"humidity":81,"rain":0.0,"pressure":984.2,"uv_index":7.75,"wind_gusts":44.3,"aqi":92,"pm10":47.0,"pm2_5":43.1,"no2":24.3,"co":427.0,"o3":58.0,"so2":7.5,"mosquito_risk":3,"arthritis_risk":5,"migraine_risk":7,"frizz_risk":1,"updated_at":"2026-05-31T05:40:59.711364+05:30"},{"city":"Saharanpur","state":"Uttar Pradesh","latitude":29.9637,"longitude":77.546,"temp":23.1,"humidity":85,"rain":0.0,"pressure":976.2,"uv_index":4.95,"wind_gusts":40.0,"aqi":77,"pm10":63.3,"pm2_5":52.2,"no2":37.4,"co":533.0,"o3":39.0,"so2":10.3,"mosquito_risk":3,"arthritis_risk":5,"migraine_risk":3,"frizz_risk":1,"updated_at":"2026-05-31T05:40:59.711371+05:30"},{"city":"Jhansi","state":"Uttar Pradesh","latitude":25.4484,"longitude":78.5685,"temp":27.0,"humidity":65,"rain":0.0,"pressure":976.7,"uv_index":8.35,"wind_gusts":31.0,"aqi":62,"pm10":56.3,"pm2_5":27.8,"no2":10.4,"co":245.0,"o3":66.0,"so2":5.4,"mosquito_risk":7,"arthritis_risk":5,"migraine_risk":7,"frizz_risk":1,"updated_at":"2026-05-31T05:41:03.248927+05:30"},{"city":"Surat","state":"Gujarat","latitude":21.1702,"longitude":72.8311,"temp":26.8,"humidity":96,"rain":0.1,"pressure":1005.4,"uv_index":7.65,"wind_gusts":49.3,"aqi":78,"pm10":38.6,"pm2_5":26.6,"no2":21.8,"co":258.0,"o3":32.0,"so2":36.9,"mosquito_risk":10,"arthritis_risk":5,"migraine_risk":4,"frizz_risk":1,"updated_at":"2026-05-31T05:41:03.248959+05:30"},{"city":"Vadodara","state":"Gujarat","latitude":22.3072,"longitude":73.1812,"temp":25.0,"humidity":92,"rain":0.0,"pressure":1002.9,"uv_index":8.0,"wind_gusts":41.8,"aqi":76,"pm10":34.1,"pm2_5":21.4,"no2":8.7,"co":138.0,"o3":35.0,"so2":4.9,"mosquito_risk":7,"arthritis_risk":5,"migraine_risk":4,"frizz_risk":1,"updated_at":"2026-05-31T05:41:03.248970+05:30"},{"city":"Rajkot","state":"Gujarat","latitude":22.3039,"longitude":70.8022,"temp":28.4,"humidity":78,"rain":0.0,"pressure":992.6,"uv_index":7.7,"wind_gusts":44.6,"aqi":66,"pm10":29.6,"pm2_5":15.8,"no2":2.5,"co":103.0,"o3":49.0,"so2":2.9,"mosquito_risk":7,"arthritis_risk":5,"migraine_risk":7,"frizz_risk":1,"updated_at":"2026-05-31T05:41:03.248980+05:30"},{"city":"Thane","state":"Maharashtra","latitude":19.2183,"longitude":72.9781,"temp":29.5,"humidity":75,"rain":0.0,"pressure":1007.6,"uv_index":7.8,"wind_gusts":41.4,"aqi":59,"pm10":30.2,"pm2_5":17.3,"no2":3.8,"co":152.0,"o3":52.0,"so2":2.6,"mosquito_risk":7,"arthritis_risk":5,"migraine_risk":4,"frizz_risk":1,"updated_at":"2026-05-31T05:41:03.248989+05:30"},{"city":"Nagpur","state":"Maharashtra","latitude":21.1458,"longitude":79.0882,"temp":28.1,"humidity":62,"rain":0.0,"pressure":971.9,"uv_index":8.85,"wind_gusts":61.2,"aqi":87,"pm10":59.3,"pm2_5":39.6,"no2":29.8,"co":244.0,"o3":16.0,"so2":7.9,"mosquito_risk":7,"arthritis_risk":5,"migraine_risk":7,"frizz_risk":1,"updated_at":"2026-05-31T05:41:03.248998+05:30"},{"city":"Nashik","state":"Maharashtra","latitude":19.9975,"longitude":73.7898,"temp":24.0,"humidity":91,"rain":0.1,"pressure":944.2,"uv_index":8.1,"wind_gusts":49.3,"aqi":56,"pm10":23.2,"pm2_5":13.9,"no2":5.1,"co":120.0,"o3":42.0,"so2":1.2,"mosquito_risk":6,"arthritis_risk":5,"migraine_risk":7,"frizz_risk":1,"updated_at":"2026-05-31T05:41:03.249007+05:30"},{"city":"Aurangabad","state":"Maharashtra","latitude":19.8762,"longitude":75.3433,"temp":25.8,"humidity":75,"rain":0.0,"pressure":944.1,"uv_index":8.9,"wind_gusts":46.1,"aqi":64,"pm10":19.0,"pm2_5":12.1,"no2":6.1,"co":125.0,"o3":43.0,"so2":4.3,"mosquito_risk":7,"arthritis_risk":5,"migraine_risk":7,"frizz_risk":1,"updated_at":"2026-05-31T05:41:03.249015+05:30"},{"city":"Solapur","state":"Maharashtra","latitude":17.6599,"longitude":75.9064,"temp":27.1,"humidity":69,"rain":0.0,"pressure":957.6,"uv_index":8.95,"wind_gusts":60.5,"aqi":58,"pm10":19.5,"pm2_5":13.4,"no2":6.6,"co":130.0,"o3":43.0,"so2":3.0,"mosquito_risk":7,"arthritis_risk":5,"migraine_risk":7,"frizz_risk":1,"updated_at":"2026-05-31T05:41:03.249024+05:30"},{"city":"Kolhapur","state":"Maharashtra","latitude":16.705,"longitude":74.2433,"temp":25.1,"humidity":87,"rain":0.0,"pressure":948.3,"uv_index":8.75,"wind_gusts":50.0,"aqi":39,"pm10":5.7,"pm2_5":4.6,"no2":3.8,"co":147.0,"o3":46.0,"so2":1.8,"mosquito_risk":7,"arthritis_risk":5,"migraine_risk":7,"frizz_risk":1,"updated_at":"2026-05-31T05:41:03.249033+05:30"},{"city":"Goa","state":"Goa","latitude":15.2993,"longitude":74.124,"temp":26.5,"humidity":99,"rain":0.1,"pressure":998.3,"uv_index":7.25,"wind_gusts":32.4,"aqi":50,"pm10":19.8,"pm2_5":14.6,"no2":4.8,"co":225.0,"o3":43.0,"so2":1.4,"mosquito_risk":10,"arthritis_risk":5,"migraine_risk":7,"frizz_risk":1,"updated_at":"2026-05-31T05:41:03.249041+05:30"},{"city":"Jodhpur","state":"Rajasthan","latitude":26.2389,"longitude":73.0243,"temp":28.0,"humidity":59,"rain":0.0,"pressure":981.1,"uv_index":8.4,"wind_gusts":36.7,"aqi":96,"pm10":85.9,"pm2_5":22.4,"no2":5.8,"co":146.0,"o3":58.0,"so2":3.2,"mosquito_risk":4,"arthritis_risk":5,"migraine_risk":7,"frizz_risk":1,"updated_at":"2026-05-31T05:41:03.249049+05:30"},{"city":"Udaipur","state":"Rajasthan","latitude":24.5854,"longitude":73.7125,"temp":24.5,"humidity":65,"rain":0.0,"pressure":944.1,"uv_index":8.8,"wind_gusts":34.6,"aqi":70,"pm10":39.5,"pm2_5":19.2,"no2":5.0,"co":135.0,"o3":63.0,"so2":4.6,"mosquito_risk":3,"arthritis_risk":5,"migraine_risk":7,"frizz_risk":1,"updated_at":"2026-05-31T05:41:03.249057+05:30"},{"city":"Kota","state":"Rajasthan","latitude":25.2138,"longitude":75.8648,"temp":27.6,"humidity":57,"rain":0.0,"pressure":977.0,"uv_index":8.35,"wind_gusts":33.1,"aqi":67,"pm10":24.5,"pm2_5":14.5,"no2":8.5,"co":227.0,"o3":52.0,"so2":3.4,"mosquito_risk":4,"arthritis_risk":5,"migraine_risk":7,"frizz_risk":1,"updated_at":"2026-05-31T05:41:03.249066+05:30"},{"city":"Bikaner","state":"Rajasthan","latitude":28.0229,"longitude":73.3119,"temp":26.3,"humidity":62,"rain":0.0,"pressure":980.0,"uv_index":8.35,"wind_gusts":29.2,"aqi":69,"pm10":25.1,"pm2_5":8.3,"no2":6.0,"co":195.0,"o3":50.0,"so2":1.8,"mosquito_risk":7,"arthritis_risk":5,"migraine_risk":7,"frizz_risk":1,"updated_at":"2026-05-31T05:41:03.249073+05:30"},{"city":"Ajmer","state":"Rajasthan","latitude":26.4499,"longitude":74.6399,"temp":24.5,"humidity":65,"rain":0.0,"pressure":953.1,"uv_index":8.3,"wind_gusts":34.6,"aqi":56,"pm10":14.9,"pm2_5":8.4,"no2":6.1,"co":164.0,"o3":62.0,"so2":2.6,"mosquito_risk":3,"arthritis_risk":5,"migraine_risk":7,"frizz_risk":1,"updated_at":"2026-05-31T05:41:03.249082+05:30"},{"city":"Gwalior","state":"Madhya Pradesh","latitude":26.2183,"longitude":78.1828,"temp":25.4,"humidity":70,"rain":0.0,"pressure":982.0,"uv_index":8.15,"wind_gusts":32.8,"aqi":76,"pm10":117.1,"pm2_5":48.1,"no2":6.9,"co":252.0,"o3":77.0,"so2":4.7,"mosquito_risk":7,"arthritis_risk":5,"migraine_risk":7,"frizz_risk":1,"updated_at":"2026-05-31T05:41:03.249089+05:30"},{"city":"Indore","state":"Madhya Pradesh","latitude":22.7196,"longitude":75.8577,"temp":26.2,"humidity":69,"rain":0.0,"pressure":946.8,"uv_index":8.55,"wind_gusts":44.6,"aqi":72,"pm10":29.6,"pm2_5":20.3,"no2":6.7,"co":212.0,"o3":60.0,"so2":7.5,"mosquito_risk":7,"arthritis_risk":5,"migraine_risk":7,"frizz_risk":1,"updated_at":"2026-05-31T05:41:03.249097+05:30"},{"city":"Bhopal","state":"Madhya Pradesh","latitude":23.2599,"longitude":77.4126,"temp":27.6,"humidity":54,"rain":0.0,"pressure":951.6,"uv_index":8.6,"wind_gusts":36.7,"aqi":66,"pm10":19.0,"pm2_5":13.8,"no2":6.6,"co":278.0,"o3":70.0,"so2":7.0,"mosquito_risk":4,"arthritis_risk":5,"migraine_risk":7,"frizz_risk":1,"updated_at":"2026-05-31T05:41:03.249105+05:30"},{"city":"Jabalpur","state":"Madhya Pradesh","latitude":23.1815,"longitude":79.9864,"temp":26.5,"humidity":64,"rain":0.0,"pressure":959.9,"uv_index":8.75,"wind_gusts":42.5,"aqi":64,"pm10":28.5,"pm2_5":20.0,"no2":16.3,"co":300.0,"o3":57.0,"so2":6.6,"mosquito_risk":7,"arthritis_risk":5,"migraine_risk":7,"frizz_risk":1,"updated_at":"2026-05-31T05:41:03.249113+05:30"},{"city":"Ujjain","state":"Madhya Pradesh","latitude":23.1765,"longitude":75.7885,"temp":26.5,"humidity":67,"rain":0.0,"pressure":952.2,"uv_index":8.4,"wind_gusts":54.7,"aqi":71,"pm10":27.8,"pm2_5":18.9,"no2":5.6,"co":228.0,"o3":55.0,"so2":5.3,"mosquito_risk":7,"arthritis_risk":5,"migraine_risk":7,"frizz_risk":1,"updated_at":"2026-05-31T05:41:03.249122+05:30"},{"city":"Visakhapatnam","state":"Andhra Pradesh","latitude":17.6868,"longitude":83.2185,"temp":27.9,"humidity":83,"rain":0.0,"pressure":1001.0,"uv_index":9.0,"wind_gusts":34.9,"aqi":102,"pm10":42.1,"pm2_5":37.4,"no2":22.9,"co":439.0,"o3":61.0,"so2":23.9,"mosquito_risk":7,"arthritis_risk":5,"migraine_risk":4,"frizz_risk":1,"updated_at":"2026-05-31T05:41:03.249130+05:30"},{"city":"Vijayawada","state":"Andhra Pradesh","latitude":16.5062,"longitude":80.648,"temp":29.1,"humidity":68,"rain":0.0,"pressure":1000.0,"uv_index":9.05,"wind_gusts":42.1,"aqi":78,"pm10":22.0,"pm2_5":20.3,"no2":12.7,"co":251.0,"o3":53.0,"so2":6.6,"mosquito_risk":7,"arthritis_risk":5,"migraine_risk":4,"frizz_risk":1,"updated_at":"2026-05-31T05:41:03.249142+05:30"},{"city":"Guntur","state":"Andhra Pradesh","latitude":16.3067,"longitude":80.4365,"temp":28.0,"humidity":69,"rain":0.0,"pressure":1001.3,"uv_index":8.95,"wind_gusts":42.8,"aqi":75,"pm10":20.4,"pm2_5":18.3,"no2":12.0,"co":245.0,"o3":55.0,"so2":5.6,"mosquito_risk":7,"arthritis_risk":5,"migraine_risk":4,"frizz_risk":1,"updated_at":"2026-05-31T05:41:03.249151+05:30"},{"city":"Nellore","state":"Andhra Pradesh","latitude":14.4426,"longitude":79.9865,"temp":27.2,"humidity":79,"rain":0.0,"pressure":1003.8,"uv_index":8.25,"wind_gusts":34.6,"aqi":68,"pm10":21.0,"pm2_5":18.2,"no2":12.8,"co":177.0,"o3":48.0,"so2":4.5,"mosquito_risk":7,"arthritis_risk":5,"migraine_risk":4,"frizz_risk":1,"updated_at":"2026-05-31T05:41:03.249160+05:30"},{"city":"Kurnool","state":"Andhra Pradesh","latitude":15.8281,"longitude":78.0373,"temp":27.5,"humidity":75,"rain":0.0,"pressure":976.6,"uv_index":8.95,"wind_gusts":61.2,"aqi":55,"pm10":14.4,"pm2_5":12.5,"no2":9.4,"co":177.0,"o3":48.0,"so2":3.6,"mosquito_risk":7,"arthritis_risk":5,"migraine_risk":7,"frizz_risk":1,"updated_at":"2026-05-31T05:41:03.249168+05:30"},{"city":"Kakinada","state":"Andhra Pradesh","latitude":16.9891,"longitude":82.2475,"temp":28.4,"humidity":80,"rain":0.0,"pressure":1004.6,"uv_index":8.85,"wind_gusts":39.2,"aqi":78,"pm10":29.2,"pm2_5":25.1,"no2":8.7,"co":374.0,"o3":84.0,"so2":6.2,"mosquito_risk":7,"arthritis_risk":5,"migraine_risk":4,"frizz_risk":1,"updated_at":"2026-05-31T05:41:03.249176+05:30"},{"city":"Tirupati","state":"Andhra Pradesh","latitude":13.6288,"longitude":79.4192,"temp":25.7,"humidity":74,"rain":0.0,"pressure":989.5,"uv_index":8.95,"wind_gusts":28.4,"aqi":67,"pm10":26.6,"pm2_5":24.2,"no2":27.1,"co":190.0,"o3":15.0,"so2":2.6,"mosquito_risk":7,"arthritis_risk":5,"migraine_risk":7,"frizz_risk":1,"updated_at":"2026-05-31T05:41:03.249184+05:30"},{"city":"Warangal","state":"Telangana","latitude":17.9689,"longitude":79.5941,"temp":29.5,"humidity":51,"rain":0.0,"pressure":976.1,"uv_index":9.0,"wind_gusts":57.2,"aqi":91,"pm10":20.6,"pm2_5":18.1,"no2":15.8,"co":289.0,"o3":59.0,"so2":12.0,"mosquito_risk":4,"arthritis_risk":5,"migraine_risk":7,"frizz_risk":1,"updated_at":"2026-05-31T05:41:03.249192+05:30"},{"city":"Nizamabad","state":"Telangana","latitude":18.6725,"longitude":78.0941,"temp":29.8,"humidity":47,"rain":0.0,"pressure":963.9,"uv_index":9.0,"wind_gusts":60.1,"aqi":85,"pm10":37.4,"pm2_5":27.2,"no2":16.9,"co":231.0,"o3":47.0,"so2":6.2,"mosquito_risk":4,"arthritis_risk":5,"migraine_risk":7,"frizz_risk":1,"updated_at":"2026-05-31T05:41:03.249200+05:30"},{"city":"Mysore","state":"Karnataka","latitude":12.2958,"longitude":76.6396,"temp":21.6,"humidity":96,"rain":0.0,"pressure":927.9,"uv_index":9.15,"wind_gusts":50.4,"aqi":51,"pm10":10.9,"pm2_5":9.6,"no2":7.8,"co":146.0,"o3":50.0,"so2":2.0,"mosquito_risk":3,"arthritis_risk":5,"migraine_risk":7,"frizz_risk":1,"updated_at":"2026-05-31T05:41:03.249208+05:30"},{"city":"Mangalore","state":"Karnataka","latitude":12.9141,"longitude":74.856,"temp":25.7,"humidity":93,"rain":0.0,"pressure":1007.1,"uv_index":8.6,"wind_gusts":31.0,"aqi":38,"pm10":16.1,"pm2_5":13.1,"no2":9.9,"co":227.0,"o3":39.0,"so2":2.7,"mosquito_risk":7,"arthritis_risk":5,"migraine_risk":4,"frizz_risk":1,"updated_at":"2026-05-31T05:41:03.249216+05:30"},{"city":"Hubli-Dharwad","state":"Karnataka","latitude":15.3647,"longitude":75.124,"temp":23.6,"humidity":95,"rain":0.0,"pressure":941.0,"uv_index":8.9,"wind_gusts":48.6,"aqi":37,"pm10":8.0,"pm2_5":5.7,"no2":2.9,"co":150.0,"o3":50.0,"so2":1.0,"mosquito_risk":3,"arthritis_risk":5,"migraine_risk":7,"frizz_risk":1,"updated_at":"2026-05-31T05:41:03.249224+05:30"},{"city":"Belgaum","state":"Karnataka","latitude":15.8497,"longitude":74.4977,"temp":23.2,"humidity":95,"rain":0.0,"pressure":925.9,"uv_index":7.3,"wind_gusts":45.7,"aqi":23,"pm10":4.0,"pm2_5":3.4,"no2":4.0,"co":128.0,"o3":44.0,"so2":1.5,"mosquito_risk":3,"arthritis_risk":5,"migraine_risk":7,"frizz_risk":1,"updated_at":"2026-05-31T05:41:06.593051+05:30"},{"city":"Coimbatore","state":"Tamil Nadu","latitude":11.0168,"longitude":76.9558,"temp":24.5,"humidity":89,"rain":0.0,"pressure":961.0,"uv_index":8.1,"wind_gusts":48.6,"aqi":27,"pm10":8.8,"pm2_5":6.4,"no2":4.4,"co":148.0,"o3":60.0,"so2":2.6,"mosquito_risk":3,"arthritis_risk":5,"migraine_risk":7,"frizz_risk":1,"updated_at":"2026-05-31T05:41:06.593084+05:30"},{"city":"Madurai","state":"Tamil Nadu","latitude":9.9252,"longitude":78.1198,"temp":27.6,"humidity":70,"rain":0.0,"pressure":992.0,"uv_index":8.75,"wind_gusts":34.9,"aqi":71,"pm10":38.0,"pm2_5":31.1,"no2":40.2,"co":175.0,"o3":2.0,"so2":5.5,"mosquito_risk":7,"arthritis_risk":5,"migraine_risk":7,"frizz_risk":1,"updated_at":"2026-05-31T05:41:06.593095+05:30"},{"city":"Trichy","state":"Tamil Nadu","latitude":10.7905,"longitude":78.7047,"temp":27.4,"humidity":75,"rain":0.0,"pressure":998.5,"uv_index":8.85,"wind_gusts":42.1,"aqi":50,"pm10":14.1,"pm2_5":12.7,"no2":17.0,"co":172.0,"o3":30.0,"so2":4.3,"mosquito_risk":7,"arthritis_risk":5,"migraine_risk":7,"frizz_risk":1,"updated_at":"2026-05-31T05:41:06.593104+05:30"},{"city":"Salem","state":"Tamil Nadu","latitude":11.6643,"longitude":78.146,"temp":26.7,"humidity":76,"rain":0.0,"pressure":976.7,"uv_index":8.75,"wind_gusts":32.0,"aqi":68,"pm10":22.5,"pm2_5":19.2,"no2":21.2,"co":230.0,"o3":28.0,"so2":7.3,"mosquito_risk":7,"arthritis_risk":5,"migraine_risk":7,"frizz_risk":1,"updated_at":"2026-05-31T05:41:06.593114+05:30"},{"city":"Tirunelveli","state":"Tamil Nadu","latitude":8.7139,"longitude":77.7567,"temp":27.6,"humidity":74,"rain":0.0,"pressure":1002.6,"uv_index":8.75,"wind_gusts":19.4,"aqi":19,"pm10":5.7,"pm2_5":4.7,"no2":5.4,"co":167.0,"o3":39.0,"so2":1.8,"mosquito_risk":7,"arthritis_risk":5,"migraine_risk":4,"frizz_risk":1,"updated_at":"2026-05-31T05:41:06.593123+05:30"},{"city":"Vellore","state":"Tamil Nadu","latitude":12.9165,"longitude":79.1325,"temp":25.0,"humidity":85,"rain":0.0,"pressure":983.1,"uv_index":8.7,"wind_gusts":37.1,"aqi":86,"pm10":51.2,"pm2_5":45.6,"no2":32.7,"co":277.0,"o3":12.0,"so2":5.8,"mosquito_risk":7,"arthritis_risk":5,"migraine_risk":7,"frizz_risk":1,"updated_at":"2026-05-31T05:41:06.593132+05:30"},{"city":"Erode","state":"Tamil Nadu","latitude":11.341,"longitude":77.7172,"temp":26.5,"humidity":80,"rain":0.0,"pressure":988.3,"uv_index":8.45,"wind_gusts":55.1,"aqi":47,"pm10":14.4,"pm2_5":12.3,"no2":14.7,"co":213.0,"o3":35.0,"so2":3.6,"mosquito_risk":7,"arthritis_risk":5,"migraine_risk":7,"frizz_risk":1,"updated_at":"2026-05-31T05:41:06.593140+05:30"},{"city":"Kochi","state":"Kerala","latitude":9.9312,"longitude":76.2673,"temp":25.8,"humidity":95,"rain":0.0,"pressure":1009.0,"uv_index":8.35,"wind_gusts":29.2,"aqi":58,"pm10":23.3,"pm2_5":21.6,"no2":23.0,"co":226.0,"o3":13.0,"so2":5.4,"mosquito_risk":7,"arthritis_risk":0,"migraine_risk":4,"frizz_risk":1,"updated_at":"2026-05-31T05:41:06.593149+05:30"},{"city":"Thiruvananthapuram","state":"Kerala","latitude":8.5241,"longitude":76.9366,"temp":24.9,"humidity":97,"rain":0.0,"pressure":1008.8,"uv_index":8.0,"wind_gusts":31.0,"aqi":27,"pm10":6.3,"pm2_5":3.6,"no2":1.7,"co":107.0,"o3":57.0,"so2":0.6,"mosquito_risk":3,"arthritis_risk":0,"migraine_risk":4,"frizz_risk":1,"updated_at":"2026-05-31T05:41:06.593156+05:30"},{"city":"Kozhikode","state":"Kerala","latitude":11.2588,"longitude":75.7804,"temp":24.8,"humidity":100,"rain":0.0,"pressure":1008.2,"uv_index":7.45,"wind_gusts":27.4,"aqi":29,"pm10":8.6,"pm2_5":5.7,"no2":2.0,"co":315.0,"o3":59.0,"so2":1.0,"mosquito_risk":3,"arthritis_risk":0,"migraine_risk":4,"frizz_risk":1,"updated_at":"2026-05-31T05:41:06.593165+05:30"},{"city":"Thrissur","state":"Kerala","latitude":10.5276,"longitude":76.2144,"temp":24.8,"humidity":95,"rain":0.0,"pressure":1007.4,"uv_index":7.85,"wind_gusts":28.8,"aqi":53,"pm10":19.2,"pm2_5":17.2,"no2":17.9,"co":232.0,"o3":21.0,"so2":6.1,"mosquito_risk":3,"arthritis_risk":5,"migraine_risk":4,"frizz_risk":1,"updated_at":"2026-05-31T05:41:06.593174+05:30"},{"city":"Kannur","state":"Kerala","latitude":11.8745,"longitude":75.3704,"temp":25.5,"humidity":94,"rain":0.0,"pressure":1007.4,"uv_index":8.65,"wind_gusts":28.8,"aqi":35,"pm10":13.5,"pm2_5":10.9,"no2":8.6,"co":216.0,"o3":36.0,"so2":2.3,"mosquito_risk":7,"arthritis_risk":5,"migraine_risk":4,"frizz_risk":1,"updated_at":"2026-05-31T05:41:06.593181+05:30"},{"city":"Patna","state":"Bihar","latitude":25.5941,"longitude":85.1376,"temp":24.0,"humidity":88,"rain":0.0,"pressure":1000.2,"uv_index":8.6,"wind_gusts":38.9,"aqi":151,"pm10":70.5,"pm2_5":64.3,"no2":30.2,"co":348.0,"o3":37.0,"so2":14.4,"mosquito_risk":3,"arthritis_risk":5,"migraine_risk":4,"frizz_risk":1,"updated_at":"2026-05-31T05:41:06.593189+05:30"},{"city":"Gaya","state":"Bihar","latitude":24.7914,"longitude":85.0002,"temp":26.5,"humidity":80,"rain":0.0,"pressure":992.7,"uv_index":8.85,"wind_gusts":26.3,"aqi":153,"pm10":66.1,"pm2_5":54.7,"no2":20.8,"co":450.0,"o3":70.0,"so2":14.8,"mosquito_risk":7,"arthritis_risk":5,"migraine_risk":7,"frizz_risk":1,"updated_at":"2026-05-31T05:41:06.593196+05:30"},{"city":"Muzaffarpur","state":"Bihar","latitude":26.1209,"longitude":85.3647,"temp":24.5,"humidity":87,"rain":0.0,"pressure":1000.5,"uv_index":8.8,"wind_gusts":30.6,"aqi":135,"pm10":56.2,"pm2_5":51.9,"no2":21.3,"co":341.0,"o3":61.0,"so2":13.3,"mosquito_risk":3,"arthritis_risk":5,"migraine_risk":4,"frizz_risk":1,"updated_at":"2026-05-31T05:41:06.593204+05:30"},{"city":"Bhagalpur","state":"Bihar","latitude":25.2425,"longitude":87.0117,"temp":26.3,"humidity":87,"rain":0.0,"pressure":1000.9,"uv_index":8.75,"wind_gusts":20.2,"aqi":154,"pm10":130.9,"pm2_5":101.0,"no2":46.3,"co":473.0,"o3":24.0,"so2":16.4,"mosquito_risk":7,"arthritis_risk":5,"migraine_risk":4,"frizz_risk":1,"updated_at":"2026-05-31T05:41:06.593212+05:30"},{"city":"Ranchi","state":"Jharkhand","latitude":23.3441,"longitude":85.3096,"temp":22.6,"humidity":97,"rain":0.0,"pressure":936.4,"uv_index":9.25,"wind_gusts":42.1,"aqi":144,"pm10":83.6,"pm2_5":68.2,"no2":25.3,"co":318.0,"o3":68.0,"so2":8.2,"mosquito_risk":3,"arthritis_risk":5,"migraine_risk":7,"frizz_risk":1,"updated_at":"2026-05-31T05:41:06.593220+05:30"},{"city":"Jamshedpur","state":"Jharkhand","latitude":22.8046,"longitude":86.2029,"temp":25.4,"humidity":92,"rain":0.0,"pressure":989.8,"uv_index":9.05,"wind_gusts":29.2,"aqi":127,"pm10":77.1,"pm2_5":61.2,"no2":39.6,"co":503.0,"o3":21.0,"so2":16.5,"mosquito_risk":7,"arthritis_risk":5,"migraine_risk":7,"frizz_risk":1,"updated_at":"2026-05-31T05:41:06.593227+05:30"},{"city":"Dhanbad","state":"Jharkhand","latitude":23.7957,"longitude":86.4304,"temp":25.3,"humidity":91,"rain":0.0,"pressure":979.0,"uv_index":8.85,"wind_gusts":20.9,"aqi":165,"pm10":135.5,"pm2_5":122.0,"no2":57.7,"co":553.0,"o3":15.0,"so2":265.0,"mosquito_risk":7,"arthritis_risk":5,"migraine_risk":7,"frizz_risk":1,"updated_at":"2026-05-31T05:41:06.593236+05:30"},{"city":"Bokaro","state":"Jharkhand","latitude":23.6693,"longitude":86.1511,"temp":25.5,"humidity":93,"rain":0.0,"pressure":982.8,"uv_index":9.05,"wind_gusts":31.3,"aqi":171,"pm10":176.0,"pm2_5":159.7,"no2":63.0,"co":1865.0,"o3":16.0,"so2":283.2,"mosquito_risk":7,"arthritis_risk":5,"migraine_risk":7,"frizz_risk":1,"updated_at":"2026-05-31T05:41:06.593243+05:30"},{"city":"Bhubaneswar","state":"Odisha","latitude":20.2961,"longitude":85.8245,"temp":26.5,"humidity":96,"rain":0.0,"pressure":1000.4,"uv_index":9.1,"wind_gusts":27.0,"aqi":110,"pm10":61.9,"pm2_5":54.2,"no2":28.4,"co":381.0,"o3":19.0,"so2":9.5,"mosquito_risk":7,"arthritis_risk":5,"migraine_risk":4,"frizz_risk":1,"updated_at":"2026-05-31T05:41:06.593251+05:30"},{"city":"Cuttack","state":"Odisha","latitude":20.4625,"longitude":85.8828,"temp":26.5,"humidity":96,"rain":0.0,"pressure":1002.2,"uv_index":9.15,"wind_gusts":25.2,"aqi":110,"pm10":61.9,"pm2_5":54.2,"no2":28.4,"co":357.0,"o3":19.0,"so2":9.5,"mosquito_risk":7,"arthritis_risk":5,"migraine_risk":4,"frizz_risk":1,"updated_at":"2026-05-31T05:41:06.593259+05:30"},{"city":"Rourkela","state":"Odisha","latitude":22.2604,"longitude":84.8536,"temp":24.1,"humidity":95,"rain":0.0,"pressure":983.8,"uv_index":8.7,"wind_gusts":45.4,"aqi":144,"pm10":84.3,"pm2_5":66.8,"no2":25.2,"co":414.0,"o3":52.0,"so2":14.8,"mosquito_risk":3,"arthritis_risk":5,"migraine_risk":7,"frizz_risk":1,"updated_at":"2026-05-31T05:41:06.593267+05:30"},{"city":"Raipur","state":"Chhattisgarh","latitude":21.2514,"longitude":81.6296,"temp":26.1,"humidity":80,"rain":0.0,"pressure":973.0,"uv_index":9.0,"wind_gusts":52.6,"aqi":124,"pm10":56.0,"pm2_5":49.8,"no2":29.8,"co":407.0,"o3":70.0,"so2":42.2,"mosquito_risk":7,"arthritis_risk":5,"migraine_risk":7,"frizz_risk":1,"updated_at":"2026-05-31T05:41:06.593275+05:30"},{"city":"Bhilai","state":"Chhattisgarh","latitude":21.1938,"longitude":81.3509,"temp":25.9,"humidity":81,"rain":0.0,"pressure":973.4,"uv_index":9.0,"wind_gusts":47.9,"aqi":129,"pm10":70.3,"pm2_5":62.2,"no2":48.4,"co":429.0,"o3":59.0,"so2":82.4,"mosquito_risk":7,"arthritis_risk":5,"migraine_risk":7,"frizz_risk":1,"updated_at":"2026-05-31T05:41:06.593282+05:30"},{"city":"Guwahati","state":"Assam","latitude":26.1158,"longitude":91.7086,"temp":25.6,"humidity":84,"rain":0.0,"pressure":1001.7,"uv_index":8.75,"wind_gusts":23.8,"aqi":70,"pm10":21.7,"pm2_5":15.0,"no2":10.2,"co":375.0,"o3":35.0,"so2":1.7,"mosquito_risk":7,"arthritis_risk":5,"migraine_risk":4,"frizz_risk":1,"updated_at":"2026-05-31T05:41:06.593290+05:30"},{"city":"Agartala","state":"Tripura","latitude":23.8315,"longitude":91.2868,"temp":26.0,"humidity":89,"rain":0.0,"pressure":1005.4,"uv_index":8.85,"wind_gusts":22.7,"aqi":159,"pm10":99.9,"pm2_5":86.8,"no2":47.5,"co":689.0,"o3":27.0,"so2":9.3,"mosquito_risk":7,"arthritis_risk":5,"migraine_risk":4,"frizz_risk":1,"updated_at":"2026-05-31T05:41:06.593298+05:30"},{"city":"Shillong","state":"Meghalaya","latitude":25.5788,"longitude":91.8933,"temp":19.6,"humidity":90,"rain":0.0,"pressure":858.2,"uv_index":7.95,"wind_gusts":27.4,"aqi":69,"pm10":20.7,"pm2_5":12.1,"no2":6.4,"co":292.0,"o3":46.0,"so2":1.5,"mosquito_risk":3,"arthritis_risk":10,"migraine_risk":7,"frizz_risk":1,"updated_at":"2026-05-31T05:41:06.593306+05:30"},{"city":"Imphal","state":"Manipur","latitude":24.817,"longitude":93.9368,"temp":21.5,"humidity":97,"rain":0.2,"pressure":923.6,"uv_index":8.55,"wind_gusts":20.5,"aqi":88,"pm10":28.5,"pm2_5":18.6,"no2":7.4,"co":265.0,"o3":45.0,"so2":1.9,"mosquito_risk":6,"arthritis_risk":5,"migraine_risk":7,"frizz_risk":1,"updated_at":"2026-05-31T05:41:06.593314+05:30"},{"city":"Aizawl","state":"Mizoram","latitude":23.7271,"longitude":92.7176,"temp":19.8,"humidity":99,"rain":0.1,"pressure":891.4,"uv_index":7.8,"wind_gusts":20.5,"aqi":51,"pm10":9.3,"pm2_5":6.6,"no2":7.0,"co":224.0,"o3":34.0,"so2":0.9,"mosquito_risk":6,"arthritis_risk":10,"migraine_risk":7,"frizz_risk":1,"updated_at":"2026-05-31T05:41:06.593323+05:30"},{"city":"Kohima","state":"Nagaland","latitude":25.6701,"longitude":94.1077,"temp":19.2,"humidity":92,"rain":0.0,"pressure":855.7,"uv_index":3.7,"wind_gusts":22.0,"aqi":63,"pm10":16.6,"pm2_5":10.4,"no2":7.2,"co":297.0,"o3":46.0,"so2":1.0,"mosquito_risk":3,"arthritis_risk":10,"migraine_risk":3,"frizz_risk":1,"updated_at":"2026-05-31T05:41:06.593331+05:30"},{"city":"Gangtok","state":"Sikkim","latitude":27.3314,"longitude":88.6138,"temp":15.0,"humidity":76,"rain":0.0,"pressure":838.0,"uv_index":9.15,"wind_gusts":42.5,"aqi":65,"pm10":24.2,"pm2_5":17.0,"no2":11.3,"co":449.0,"o3":19.0,"so2":0.4,"mosquito_risk":3,"arthritis_risk":5,"migraine_risk":7,"frizz_risk":0,"updated_at":"2026-05-31T05:41:06.593339+05:30"},{"city":"Siliguri","state":"West Bengal","latitude":26.7271,"longitude":88.3953,"temp":24.5,"humidity":83,"rain":0.0,"pressure":993.2,"uv_index":8.7,"wind_gusts":20.2,"aqi":127,"pm10":95.2,"pm2_5":76.8,"no2":31.2,"co":814.0,"o3":16.0,"so2":3.1,"mosquito_risk":3,"arthritis_risk":5,"migraine_risk":7,"frizz_risk":1,"updated_at":"2026-05-31T05:41:09.982012+05:30"},{"city":"Durgapur","state":"West Bengal","latitude":23.5204,"longitude":87.3119,"temp":25.5,"humidity":95,"rain":0.0,"pressure":994.4,"uv_index":8.95,"wind_gusts":27.4,"aqi":162,"pm10":106.6,"pm2_5":95.5,"no2":50.0,"co":700.0,"o3":15.0,"so2":45.4,"mosquito_risk":7,"arthritis_risk":5,"migraine_risk":7,"frizz_risk":1,"updated_at":"2026-05-31T05:41:09.982044+05:30"},{"city":"Asansol","state":"West Bengal","latitude":23.6739,"longitude":86.9524,"temp":25.5,"humidity":93,"rain":0.0,"pressure":992.9,"uv_index":8.9,"wind_gusts":36.0,"aqi":159,"pm10":84.3,"pm2_5":72.9,"no2":45.6,"co":554.0,"o3":21.0,"so2":38.3,"mosquito_risk":7,"arthritis_risk":5,"migraine_risk":7,"frizz_risk":1,"updated_at":"2026-05-31T05:41:09.982055+05:30"},{"city":"Pondicherry","state":"Puducherry","latitude":11.9139,"longitude":79.8145,"temp":27.8,"humidity":87,"rain":0.0,"pressure":1006.7,"uv_index":8.75,"wind_gusts":37.4,"aqi":81,"pm10":11.0,"pm2_5":9.2,"no2":13.7,"co":321.0,"o3":29.0,"so2":7.6,"mosquito_risk":7,"arthritis_risk":5,"migraine_risk":4,"frizz_risk":1,"updated_at":"2026-05-31T05:41:09.982065+05:30"},{"city":"Port Blair","state":"Andaman and Nicobar Islands","latitude":11.6234,"longitude":92.7265,"temp":24.9,"humidity":98,"rain":0.1,"pressure":1007.1,"uv_index":8.1,"wind_gusts":39.2,"aqi":31,"pm10":12.4,"pm2_5":7.3,"no2":0.3,"co":124.0,"o3":77.0,"so2":0.4,"mosquito_risk":6,"arthritis_risk":5,"migraine_risk":4,"frizz_risk":1,"updated_at":"2026-05-31T05:41:09.982074+05:30"},{"city":"Haridwar","state":"Uttarakhand","latitude":29.9457,"longitude":78.1642,"temp":23.0,"humidity":78,"rain":0.0,"pressure":974.6,"uv_index":4.4,"wind_gusts":28.4,"aqi":69,"pm10":47.6,"pm2_5":36.6,"no2":23.4,"co":328.0,"o3":68.0,"so2":7.2,"mosquito_risk":3,"arthritis_risk":5,"migraine_risk":3,"frizz_risk":1,"updated_at":"2026-05-31T05:41:09.982082+05:30"},{"city":"Rishikesh","state":"Uttarakhand","latitude":30.0869,"longitude":78.2676,"temp":21.6,"humidity":78,"rain":0.0,"pressure":967.3,"uv_index":5.7,"wind_gusts":33.1,"aqi":61,"pm10":30.4,"pm2_5":18.1,"no2":10.8,"co":394.0,"o3":101.0,"so2":2.7,"mosquito_risk":3,"arthritis_risk":5,"migraine_risk":3,"frizz_risk":1,"updated_at":"2026-05-31T05:41:09.982090+05:30"},{"city":"Nainital","state":"Uttarakhand","latitude":29.3919,"longitude":79.4542,"temp":9.6,"humidity":97,"rain":0.0,"pressure":802.5,"uv_index":6.75,"wind_gusts":25.6,"aqi":61,"pm10":19.3,"pm2_5":14.8,"no2":13.4,"co":271.0,"o3":83.0,"so2":1.5,"mosquito_risk":3,"arthritis_risk":10,"migraine_risk":7,"frizz_risk":0,"updated_at":"2026-05-31T05:41:09.982098+05:30"},{"city":"Mussoorie","state":"Uttarakhand","latitude":30.4599,"longitude":78.0664,"temp":13.3,"humidity":69,"rain":0.0,"pressure":802.0,"uv_index":5.25,"wind_gusts":30.2,"aqi":63,"pm10":31.9,"pm2_5":25.4,"no2":40.6,"co":265.0,"o3":25.0,"so2":3.7,"mosquito_risk":3,"arthritis_risk":5,"migraine_risk":3,"frizz_risk":0,"updated_at":"2026-05-31T05:41:09.982106+05:30"},{"city":"Dharamshala","state":"Himachal Pradesh","latitude":32.219,"longitude":76.3234,"temp":17.8,"humidity":86,"rain":0.0,"pressure":868.5,"uv_index":6.85,"wind_gusts":31.3,"aqi":38,"pm10":9.7,"pm2_5":6.9,"no2":19.0,"co":222.0,"o3":23.0,"so2":0.3,"mosquito_risk":3,"arthritis_risk":10,"migraine_risk":7,"frizz_risk":0,"updated_at":"2026-05-31T05:41:09.982114+05:30"},{"city":"Dalhousie","state":"Himachal Pradesh","latitude":32.5387,"longitude":75.971,"temp":13.0,"humidity":89,"rain":0.0,"pressure":803.3,"uv_index":7.85,"wind_gusts":34.2,"aqi":65,"pm10":42.4,"pm2_5":26.4,"no2":31.6,"co":266.0,"o3":51.0,"so2":2.5,"mosquito_risk":3,"arthritis_risk":10,"migraine_risk":7,"frizz_risk":0,"updated_at":"2026-05-31T05:41:09.982122+05:30"},{"city":"Patiala","state":"Punjab","latitude":30.3398,"longitude":76.3869,"temp":22.8,"humidity":84,"rain":0.0,"pressure":978.3,"uv_index":7.5,"wind_gusts":36.0,"aqi":465,"pm10":43.5,"pm2_5":19.5,"no2":8.3,"co":459.0,"o3":96.0,"so2":3.9,"mosquito_risk":3,"arthritis_risk":5,"migraine_risk":7,"frizz_risk":1,"updated_at":"2026-05-31T05:41:09.982129+05:30"},{"city":"Bhatinda","state":"Punjab","latitude":30.211,"longitude":74.9455,"temp":23.5,"humidity":80,"rain":0.0,"pressure":983.5,"uv_index":8.2,"wind_gusts":29.2,"aqi":579,"pm10":308.3,"pm2_5":68.2,"no2":13.3,"co":341.0,"o3":74.0,"so2":8.8,"mosquito_risk":3,"arthritis_risk":5,"migraine_risk":7,"frizz_risk":1,"updated_at":"2026-05-31T05:41:09.982137+05:30"},{"city":"Rohtak","state":"Haryana","latitude":28.8955,"longitude":76.6066,"temp":23.3,"humidity":87,"rain":0.0,"pressure":981.2,"uv_index":7.6,"wind_gusts":38.9,"aqi":634,"pm10":525.3,"pm2_5":122.0,"no2":26.1,"co":500.0,"o3":58.0,"so2":16.2,"mosquito_risk":3,"arthritis_risk":5,"migraine_risk":7,"frizz_risk":1,"updated_at":"2026-05-31T05:41:09.982144+05:30"},{"city":"Panipat","state":"Haryana","latitude":29.3909,"longitude":76.9635,"temp":22.6,"humidity":85,"rain":0.0,"pressure":980.3,"uv_index":7.45,"wind_gusts":35.6,"aqi":1074,"pm10":994.7,"pm2_5":167.2,"no2":25.4,"co":518.0,"o3":50.0,"so2":11.5,"mosquito_risk":3,"arthritis_risk":5,"migraine_risk":7,"frizz_risk":1,"updated_at":"2026-05-31T05:41:09.982152+05:30"},{"city":"Mathura","state":"Uttar Pradesh","latitude":27.4924,"longitude":77.6737,"temp":24.6,"humidity":78,"rain":0.0,"pressure":986.2,"uv_index":7.85,"wind_gusts":25.2,"aqi":632,"pm10":299.9,"pm2_5":68.0,"no2":13.1,"co":475.0,"o3":73.0,"so2":6.2,"mosquito_risk":3,"arthritis_risk":5,"migraine_risk":7,"frizz_risk":1,"updated_at":"2026-05-31T05:41:09.982160+05:30"},{"city":"Vrindavan","state":"Uttar Pradesh","latitude":27.5823,"longitude":77.7027,"temp":24.7,"humidity":77,"rain":0.0,"pressure":986.6,"uv_index":7.85,"wind_gusts":24.1,"aqi":632,"pm10":299.9,"pm2_5":68.0,"no2":13.1,"co":469.0,"o3":73.0,"so2":6.2,"mosquito_risk":3,"arthritis_risk":5,"migraine_risk":7,"frizz_risk":1,"updated_at":"2026-05-31T05:41:09.982167+05:30"},{"city":"Ayodhya","state":"Uttar Pradesh","latitude":26.7922,"longitude":82.1998,"temp":24.3,"humidity":84,"rain":0.0,"pressure":995.0,"uv_index":8.25,"wind_gusts":26.3,"aqi":73,"pm10":29.8,"pm2_5":28.1,"no2":16.5,"co":270.0,"o3":79.0,"so2":8.0,"mosquito_risk":3,"arthritis_risk":5,"migraine_risk":7,"frizz_risk":1,"updated_at":"2026-05-31T05:41:09.982175+05:30"},{"city":"Ratlam","state":"Madhya Pradesh","latitude":23.3315,"longitude":75.0367,"temp":24.9,"humidity":87,"rain":0.0,"pressure":953.4,"uv_index":8.4,"wind_gusts":41.8,"aqi":72,"pm10":22.5,"pm2_5":15.5,"no2":5.8,"co":150.0,"o3":45.0,"so2":5.3,"mosquito_risk":3,"arthritis_risk":5,"migraine_risk":7,"frizz_risk":1,"updated_at":"2026-05-31T05:41:09.982182+05:30"},{"city":"Sagar","state":"Madhya Pradesh","latitude":23.8388,"longitude":78.7378,"temp":26.5,"humidity":57,"rain":0.0,"pressure":948.3,"uv_index":8.65,"wind_gusts":38.2,"aqi":53,"pm10":16.4,"pm2_5":10.6,"no2":8.0,"co":272.0,"o3":88.0,"so2":4.8,"mosquito_risk":4,"arthritis_risk":5,"migraine_risk":7,"frizz_risk":1,"updated_at":"2026-05-31T05:41:09.982189+05:30"},{"city":"Satna","state":"Madhya Pradesh","latitude":24.6005,"longitude":80.8322,"temp":25.6,"humidity":71,"rain":0.0,"pressure":969.7,"uv_index":8.7,"wind_gusts":30.6,"aqi":62,"pm10":24.9,"pm2_5":20.4,"no2":10.7,"co":386.0,"o3":100.0,"so2":7.9,"mosquito_risk":7,"arthritis_risk":5,"migraine_risk":7,"frizz_risk":1,"updated_at":"2026-05-31T05:41:09.982197+05:30"},{"city":"Akola","state":"Maharashtra","latitude":20.7002,"longitude":77.0082,"temp":26.3,"humidity":72,"rain":0.0,"pressure":974.7,"uv_index":8.75,"wind_gusts":63.7,"aqi":76,"pm10":38.5,"pm2_5":22.1,"no2":5.0,"co":134.0,"o3":59.0,"so2":7.0,"mosquito_risk":7,"arthritis_risk":5,"migraine_risk":7,"frizz_risk":1,"updated_at":"2026-05-31T05:41:09.982205+05:30"},{"city":"Amravati","state":"Maharashtra","latitude":20.9374,"longitude":77.7796,"temp":28.5,"humidity":51,"rain":0.0,"pressure":966.4,"uv_index":8.75,"wind_gusts":54.0,"aqi":76,"pm10":38.2,"pm2_5":22.2,"no2":4.8,"co":170.0,"o3":70.0,"so2":8.1,"mosquito_risk":4,"arthritis_risk":5,"migraine_risk":7,"frizz_risk":1,"updated_at":"2026-05-31T05:41:09.982213+05:30"},{"city":"Latur","state":"Maharashtra","latitude":18.4088,"longitude":76.5604,"temp":26.8,"humidity":65,"rain":0.0,"pressure":939.8,"uv_index":8.95,"wind_gusts":45.0,"aqi":58,"pm10":24.3,"pm2_5":16.2,"no2":5.9,"co":151.0,"o3":58.0,"so2":6.9,"mosquito_risk":7,"arthritis_risk":5,"migraine_risk":7,"frizz_risk":1,"updated_at":"2026-05-31T05:41:09.982221+05:30"},{"city":"Nanded","state":"Maharashtra","latitude":19.1383,"longitude":77.3091,"temp":30.8,"humidity":53,"rain":0.0,"pressure":967.9,"uv_index":8.9,"wind_gusts":63.7,"aqi":76,"pm10":31.7,"pm2_5":21.2,"no2":5.5,"co":143.0,"o3":67.0,"so2":6.8,"mosquito_risk":0,"arthritis_risk":5,"migraine_risk":7,"frizz_risk":1,"updated_at":"2026-05-31T05:41:09.982229+05:30"},{"city":"Gulbarga","state":"Karnataka","latitude":17.3297,"longitude":76.8343,"temp":27.9,"humidity":65,"rain":0.0,"pressure":958.5,"uv_index":8.95,"wind_gusts":52.6,"aqi":53,"pm10":19.6,"pm2_5":14.1,"no2":7.0,"co":156.0,"o3":46.0,"so2":3.1,"mosquito_risk":7,"arthritis_risk":5,"migraine_risk":7,"frizz_risk":1,"updated_at":"2026-05-31T05:41:09.982236+05:30"},{"city":"Bidar","state":"Karnataka","latitude":17.9104,"longitude":77.5199,"temp":27.5,"humidity":54,"rain":0.0,"pressure":935.0,"uv_index":9.0,"wind_gusts":49.7,"aqi":65,"pm10":27.8,"pm2_5":20.3,"no2":9.8,"co":232.0,"o3":63.0,"so2":5.4,"mosquito_risk":4,"arthritis_risk":5,"migraine_risk":7,"frizz_risk":1,"updated_at":"2026-05-31T05:41:09.982244+05:30"},{"city":"Hospet","state":"Karnataka","latitude":15.2689,"longitude":76.3909,"temp":25.1,"humidity":89,"rain":0.0,"pressure":956.3,"uv_index":8.95,"wind_gusts":56.9,"aqi":47,"pm10":9.8,"pm2_5":7.6,"no2":4.3,"co":157.0,"o3":47.0,"so2":1.3,"mosquito_risk":7,"arthritis_risk":5,"migraine_risk":7,"frizz_risk":1,"updated_at":"2026-05-31T05:41:09.982251+05:30"},{"city":"Tirupur","state":"Tamil Nadu","latitude":11.1085,"longitude":77.3411,"temp":25.0,"humidity":88,"rain":0.0,"pressure":974.4,"uv_index":8.25,"wind_gusts":44.6,"aqi":48,"pm10":16.5,"pm2_5":14.0,"no2":16.3,"co":143.0,"o3":34.0,"so2":4.1,"mosquito_risk":7,"arthritis_risk":5,"migraine_risk":7,"frizz_risk":1,"updated_at":"2026-05-31T05:41:09.982258+05:30"},{"city":"Alappuzha","state":"Kerala","latitude":9.4981,"longitude":76.3388,"temp":25.4,"humidity":99,"rain":0.0,"pressure":1009.3,"uv_index":8.15,"wind_gusts":25.6,"aqi":38,"pm10":12.6,"pm2_5":9.7,"no2":8.5,"co":114.0,"o3":46.0,"so2":2.2,"mosquito_risk":7,"arthritis_risk":0,"migraine_risk":4,"frizz_risk":1,"updated_at":"2026-05-31T05:41:09.982266+05:30"},{"city":"Munnar","state":"Kerala","latitude":10.0889,"longitude":77.0595,"temp":17.5,"humidity":92,"rain":0.0,"pressure":856.5,"uv_index":8.3,"wind_gusts":27.7,"aqi":25,"pm10":9.5,"pm2_5":8.5,"no2":6.6,"co":138.0,"o3":29.0,"so2":1.2,"mosquito_risk":3,"arthritis_risk":10,"migraine_risk":7,"frizz_risk":1,"updated_at":"2026-05-31T05:41:09.982274+05:30"},{"city":"Silchar","state":"Assam","latitude":24.8333,"longitude":92.7789,"temp":26.6,"humidity":93,"rain":0.0,"pressure":1003.9,"uv_index":8.9,"wind_gusts":22.0,"aqi":132,"pm10":72.4,"pm2_5":48.5,"no2":13.9,"co":285.0,"o3":59.0,"so2":6.5,"mosquito_risk":7,"arthritis_risk":5,"migraine_risk":4,"frizz_risk":1,"updated_at":"2026-05-31T05:41:09.982282+05:30"},{"city":"Dibrugarh","state":"Assam","latitude":27.4728,"longitude":94.912,"temp":26.8,"humidity":82,"rain":0.0,"pressure":995.3,"uv_index":6.1,"wind_gusts":23.4,"aqi":121,"pm10":59.1,"pm2_5":49.4,"no2":20.5,"co":312.0,"o3":37.0,"so2":3.2,"mosquito_risk":7,"arthritis_risk":5,"migraine_risk":7,"frizz_risk":1,"updated_at":"2026-05-31T05:41:09.982290+05:30"}]