[{"city":"Delhi","state":"Delhi","latitude":28.6139,"longitude":77.209,"temp":29.3,"humidity":26,"rain":0.0,"pressure":983.5,"uv_index":5.7,"wind_gusts":31.7,"aqi":156,"pm10":323.2,"pm2_5":54.6,"mosquito_risk":4,"arthritis_risk":5,"migraine_risk":3,"frizz_risk":0,"updated_at":"2026-03-01T16:54:04.137280+05:30"},{"city":"Mumbai","state":"Maharashtra","latitude":19.076,"longitude":72.8777,"temp":26.5,"humidity":67,"rain":0.0,"pressure":1007.6,"uv_index":7.25,"wind_gusts":24.1,"aqi":82,"pm10":59.4,"pm2_5":27.6,"mosquito_risk":7,"arthritis_risk":5,"migraine_risk":4,"frizz_risk":1,"updated_at":"2026-03-01T16:54:04.137328+05:30"},{"city":"Bangalore","state":"Karnataka","latitude":12.9716,"longitude":77.5946,"temp":29.9,"humidity":34,"rain":0.0,"pressure":910.6,"uv_index":9.05,"wind_gusts":22.7,"aqi":152,"pm10":43.7,"pm2_5":42.5,"mosquito_risk":4,"arthritis_risk":5,"migraine_risk":7,"frizz_risk":0,"updated_at":"2026-03-01T16:54:04.137344+05:30"},{"city":"Hyderabad","state":"Telangana","latitude":17.385,"longitude":78.4867,"temp":32.5,"humidity":31,"rain":0.0,"pressure":952.1,"uv_index":8.3,"wind_gusts":27.4,"aqi":125,"pm10":31.1,"pm2_5":30.6,"mosquito_risk":0,"arthritis_risk":5,"migraine_risk":7,"frizz_risk":0,"updated_at":"2026-03-01T16:54:04.137354+05:30"},{"city":"Chennai","state":"Tamil Nadu","latitude":13.0827,"longitude":80.2707,"temp":30.0,"humidity":54,"rain":0.0,"pressure":1007.0,"uv_index":8.75,"wind_gusts":33.1,"aqi":145,"pm10":43.1,"pm2_5":39.1,"mosquito_risk":4,"arthritis_risk":5,"migraine_risk":4,"frizz_risk":1,"updated_at":"2026-03-01T16:54:04.137363+05:30"},{"city":"Kolkata","state":"West Bengal","latitude":22.5726,"longitude":88.3639,"temp":30.4,"humidity":53,"rain":0.0,"pressure":1005.0,"uv_index":7.6,"wind_gusts":25.2,"aqi":108,"pm10":49.8,"pm2_5":48.2,"mosquito_risk":0,"arthritis_risk":5,"migraine_risk":4,"frizz_risk":1,"updated_at":"2026-03-01T16:54:04.137371+05:30"},{"city":"Pune","state":"Maharashtra","latitude":18.5204,"longitude":73.8567,"temp":32.7,"humidity":27,"rain":0.0,"pressure":946.9,"uv_index":7.85,"wind_gusts":34.2,"aqi":108,"pm10":25.2,"pm2_5":24.0,"mosquito_risk":0,"arthritis_risk":5,"migraine_risk":7,"frizz_risk":0,"updated_at":"2026-03-01T16:54:04.137383+05:30"},{"city":"Ahmedabad","state":"Gujarat","latitude":23.0225,"longitude":72.5714,"temp":33.5,"humidity":28,"rain":0.0,"pressure":1001.3,"uv_index":7.05,"wind_gusts":21.2,"aqi":96,"pm10":31.7,"pm2_5":16.9,"mosquito_risk":0,"arthritis_risk":5,"migraine_risk":4,"frizz_risk":0,"updated_at":"2026-03-01T16:54:04.137391+05:30"},{"city":"Jaipur","state":"Rajasthan","latitude":26.9124,"longitude":75.7873,"temp":31.6,"humidity":16,"rain":0.0,"pressure":960.2,"uv_index":6.45,"wind_gusts":25.2,"aqi":86,"pm10":85.4,"pm2_5":20.4,"mosquito_risk":0,"arthritis_risk":5,"migraine_risk":7,"frizz_risk":0,"updated_at":"2026-03-01T16:54:04.137399+05:30"},{"city":"Lucknow","state":"Uttar Pradesh","latitude":26.8467,"longitude":80.9462,"temp":30.4,"humidity":17,"rain":0.0,"pressure":993.3,"uv_index":6.2,"wind_gusts":38.5,"aqi":130,"pm10":87.8,"pm2_5":24.3,"mosquito_risk":0,"arthritis_risk":5,"migraine_risk":7,"frizz_risk":0,"updated_at":"2026-03-01T16:54:04.137407+05:30"},{"city":"Kanpur","state":"Uttar Pradesh","latitude":26.4499,"longitude":80.3319,"temp":30.1,"humidity":24,"rain":0.0,"pressure":991.8,"uv_index":6.2,"wind_gusts":31.3,"aqi":152,"pm10":255.2,"pm2_5":39.8,"mosquito_risk":0,"arthritis_risk":5,"migraine_risk":7,"frizz_risk":0,"updated_at":"2026-03-01T16:54:04.137414+05:30"},{"city":"Chandigarh","state":"Chandigarh","latitude":30.7333,"longitude":76.7794,"temp":26.2,"humidity":34,"rain":0.0,"pressure":969.2,"uv_index":5.6,"wind_gusts":31.0,"aqi":86,"pm10":27.9,"pm2_5":21.0,"mosquito_risk":4,"arthritis_risk":5,"migraine_risk":3,"frizz_risk":0,"updated_at":"2026-03-01T16:54:04.137421+05:30"},{"city":"Srinagar","state":"Jammu and Kashmir","latitude":34.0837,"longitude":74.7973,"temp":17.4,"humidity":18,"rain":0.0,"pressure":841.5,"uv_index":6.4,"wind_gusts":15.1,"aqi":150,"pm10":23.1,"pm2_5":15.4,"mosquito_risk":0,"arthritis_risk":5,"migraine_risk":7,"frizz_risk":1,"updated_at":"2026-03-01T16:54:04.137429+05:30"},{"city":"Jammu","state":"Jammu and Kashmir","latitude":32.7266,"longitude":74.857,"temp":26.7,"humidity":38,"rain":0.0,"pressure":973.2,"uv_index":6.15,"wind_gusts":25.2,"aqi":99,"pm10":26.7,"pm2_5":16.0,"mosquito_risk":4,"arthritis_risk":5,"migraine_risk":7,"frizz_risk":0,"updated_at":"2026-03-01T16:54:04.137436+05:30"},{"city":"Amritsar","state":"Punjab","latitude":31.634,"longitude":74.8723,"temp":26.8,"humidity":41,"rain":0.0,"pressure":981.8,"uv_index":6.1,"wind_gusts":20.5,"aqi":127,"pm10":41.6,"pm2_5":22.6,"mosquito_risk":4,"arthritis_risk":5,"migraine_risk":7,"frizz_risk":0,"updated_at":"2026-03-01T16:54:04.137443+05:30"},{"city":"Ludhiana","state":"Punjab","latitude":30.901,"longitude":75.8573,"temp":27.6,"humidity":30,"rain":0.0,"pressure":979.6,"uv_index":5.8,"wind_gusts":25.9,"aqi":153,"pm10":55.4,"pm2_5":34.2,"mosquito_risk":4,"arthritis_risk":5,"migraine_risk":3,"frizz_risk":0,"updated_at":"2026-03-01T16:54:04.137450+05:30"},{"city":"Jalandhar","state":"Punjab","latitude":31.326,"longitude":75.5762,"temp":27.3,"humidity":32,"rain":0.0,"pressure":980.7,"uv_index":5.95,"wind_gusts":23.0,"aqi":155,"pm10":51.5,"pm2_5":28.8,"mosquito_risk":4,"arthritis_risk":5,"migraine_risk":3,"frizz_risk":0,"updated_at":"2026-03-01T16:54:04.137459+05:30"},{"city":"Dehradun","state":"Uttarakhand","latitude":30.6284,"longitude":78.0322,"temp":17.1,"humidity":42,"rain":0.0,"pressure":828.9,"uv_index":5.95,"wind_gusts":32.4,"aqi":74,"pm10":18.6,"pm2_5":12.0,"mosquito_risk":0,"arthritis_risk":5,"migraine_risk":3,"frizz_risk":0,"updated_at":"2026-03-01T16:54:04.137466+05:30"},{"city":"Shimla","state":"Himachal Pradesh","latitude":31.1048,"longitude":77.1734,"temp":15.0,"humidity":41,"rain":0.0,"pressure":783.8,"uv_index":6.0,"wind_gusts":50.4,"aqi":70,"pm10":18.8,"pm2_5":12.3,"mosquito_risk":0,"arthritis_risk":5,"migraine_risk":3,"frizz_risk":0,"updated_at":"2026-03-01T16:54:04.137473+05:30"},{"city":"Manali","state":"Himachal Pradesh","latitude":32.2396,"longitude":77.1887,"temp":16.6,"humidity":42,"rain":0.0,"pressure":818.0,"uv_index":7.6,"wind_gusts":34.9,"aqi":68,"pm10":16.2,"pm2_5":9.2,"mosquito_risk":0,"arthritis_risk":5,"migraine_risk":7,"frizz_risk":0,"updated_at":"2026-03-01T16:54:04.137480+05:30"},{"city":"Gurgaon","state":"Haryana","latitude":28.4595,"longitude":77.0266,"temp":29.0,"humidity":27,"rain":0.0,"pressure":982.0,"uv_index":5.8,"wind_gusts":31.0,"aqi":450,"pm10":1035.6,"pm2_5":115.7,"mosquito_risk":4,"arthritis_risk":5,"migraine_risk":3,"frizz_risk":0,"updated_at":"2026-03-01T16:54:04.137489+05:30"},{"city":"Noida","state":"Uttar Pradesh","latitude":28.5355,"longitude":77.391,"temp":29.8,"humidity":25,"rain":0.0,"pressure":985.0,"uv_index":5.75,"wind_gusts":31.3,"aqi":450,"pm10":1035.6,"pm2_5":115.7,"mosquito_risk":4,"arthritis_risk":5,"migraine_risk":3,"frizz_risk":0,"updated_at":"2026-03-01T16:54:04.137495+05:30"},{"city":"Ghaziabad","state":"Uttar Pradesh","latitude":28.6692,"longitude":77.4538,"temp":28.6,"humidity":32,"rain":0.0,"pressure":983.1,"uv_index":5.7,"wind_gusts":28.1,"aqi":152,"pm10":252.4,"pm2_5":45.8,"mosquito_risk":4,"arthritis_risk":5,"migraine_risk":3,"frizz_risk":0,"updated_at":"2026-03-01T16:54:04.137502+05:30"},{"city":"Faridabad","state":"Haryana","latitude":28.4089,"longitude":77.3178,"temp":28.9,"humidity":26,"rain":0.0,"pressure":984.2,"uv_index":5.75,"wind_gusts":28.8,"aqi":450,"pm10":1035.6,"pm2_5":115.7,"mosquito_risk":4,"arthritis_risk":5,"migraine_risk":3,"frizz_risk":0,"updated_at":"2026-03-01T16:54:04.137509+05:30"},{"city":"Meerut","state":"Uttar Pradesh","latitude":28.9845,"longitude":77.7064,"temp":28.1,"humidity":30,"rain":0.0,"pressure":981.8,"uv_index":5.6,"wind_gusts":31.7,"aqi":152,"pm10":252.4,"pm2_5":45.8,"mosquito_risk":4,"arthritis_risk":5,"migraine_risk":3,"frizz_risk":0,"updated_at":"2026-03-01T16:54:04.137516+05:30"},{"city":"Agra","state":"Uttar Pradesh","latitude":27.1767,"longitude":78.0081,"temp":30.4,"humidity":21,"rain":0.0,"pressure":988.2,"uv_index":6.05,"wind_gusts":27.4,"aqi":176,"pm10":514.1,"pm2_5":60.1,"mosquito_risk":0,"arthritis_risk":5,"migraine_risk":7,"frizz_risk":0,"updated_at":"2026-03-01T16:54:04.137522+05:30"},{"city":"Varanasi","state":"Uttar Pradesh","latitude":25.3176,"longitude":82.9739,"temp":29.4,"humidity":46,"rain":0.0,"pressure":997.2,"uv_index":6.85,"wind_gusts":26.6,"aqi":143,"pm10":40.4,"pm2_5":27.5,"mosquito_risk":4,"arthritis_risk":5,"migraine_risk":7,"frizz_risk":1,"updated_at":"2026-03-01T16:54:04.137536+05:30"},{"city":"Prayagraj","state":"Uttar Pradesh","latitude":25.4358,"longitude":81.8463,"temp":28.8,"humidity":38,"rain":0.0,"pressure":995.8,"uv_index":6.75,"wind_gusts":28.1,"aqi":143,"pm10":48.9,"pm2_5":24.0,"mosquito_risk":4,"arthritis_risk":5,"migraine_risk":7,"frizz_risk":0,"updated_at":"2026-03-01T16:54:04.137543+05:30"},{"city":"Gorakhpur","state":"Uttar Pradesh","latitude":26.7606,"longitude":83.3732,"temp":28.5,"humidity":29,"rain":0.0,"pressure":996.3,"uv_index":6.55,"wind_gusts":32.4,"aqi":112,"pm10":35.6,"pm2_5":23.0,"mosquito_risk":4,"arthritis_risk":5,"migraine_risk":7,"frizz_risk":0,"updated_at":"2026-03-01T16:54:04.137550+05:30"},{"city":"Bareilly","state":"Uttar Pradesh","latitude":28.367,"longitude":79.4304,"temp":27.6,"humidity":32,"rain":0.0,"pressure":986.6,"uv_index":5.9,"wind_gusts":35.6,"aqi":125,"pm10":44.0,"pm2_5":31.4,"mosquito_risk":4,"arthritis_risk":5,"migraine_risk":3,"frizz_risk":0,"updated_at":"2026-03-01T16:54:04.137557+05:30"},{"city":"Aligarh","state":"Uttar Pradesh","latitude":27.8974,"longitude":78.088,"temp":29.3,"humidity":24,"rain":0.0,"pressure":986.0,"uv_index":5.8,"wind_gusts":31.3,"aqi":189,"pm10":551.3,"pm2_5":76.6,"mosquito_risk":4,"arthritis_risk":5,"migraine_risk":3,"frizz_risk":0,"updated_at":"2026-03-01T16:54:04.137564+05:30"},{"city":"Moradabad","state":"Uttar Pradesh","latitude":28.8386,"longitude":78.7733,"temp":27.5,"humidity":32,"rain":0.0,"pressure":983.5,"uv_index":5.7,"wind_gusts":33.8,"aqi":132,"pm10":42.3,"pm2_5":26.1,"mosquito_risk":4,"arthritis_risk":5,"migraine_risk":3,"frizz_risk":0,"updated_at":"2026-03-01T16:54:04.137570+05:30"},{"city":"Saharanpur","state":"Uttar Pradesh","latitude":29.9637,"longitude":77.546,"temp":26.7,"humidity":32,"rain":0.0,"pressure":975.8,"uv_index":5.35,"wind_gusts":38.2,"aqi":137,"pm10":48.5,"pm2_5":21.6,"mosquito_risk":4,"arthritis_risk":5,"migraine_risk":3,"frizz_risk":0,"updated_at":"2026-03-01T16:54:04.137576+05:30"},{"city":"Jhansi","state":"Uttar Pradesh","latitude":25.4484,"longitude":78.5685,"temp":30.5,"humidity":25,"rain":0.0,"pressure":978.2,"uv_index":6.65,"wind_gusts":24.5,"aqi":67,"pm10":46.7,"pm2_5":20.2,"mosquito_risk":0,"arthritis_risk":5,"migraine_risk":7,"frizz_risk":0,"updated_at":"2026-03-01T16:54:07.359407+05:30"},{"city":"Surat","state":"Gujarat","latitude":21.1702,"longitude":72.8311,"temp":29.3,"humidity":44,"rain":0.0,"pressure":1006.1,"uv_index":6.95,"wind_gusts":28.4,"aqi":103,"pm10":52.6,"pm2_5":39.6,"mosquito_risk":4,"arthritis_risk":5,"migraine_risk":4,"frizz_risk":0,"updated_at":"2026-03-01T16:54:07.359443+05:30"},{"city":"Vadodara","state":"Gujarat","latitude":22.3072,"longitude":73.1812,"temp":33.8,"humidity":30,"rain":0.0,"pressure":1003.2,"uv_index":7.05,"wind_gusts":11.9,"aqi":113,"pm10":38.2,"pm2_5":27.6,"mosquito_risk":0,"arthritis_risk":5,"migraine_risk":4,"frizz_risk":0,"updated_at":"2026-03-01T16:54:07.359455+05:30"},{"city":"Rajkot","state":"Gujarat","latitude":22.3039,"longitude":70.8022,"temp":32.4,"humidity":30,"rain":0.0,"pressure":993.6,"uv_index":6.9,"wind_gusts":23.4,"aqi":66,"pm10":41.1,"pm2_5":21.4,"mosquito_risk":0,"arthritis_risk":5,"migraine_risk":7,"frizz_risk":0,"updated_at":"2026-03-01T16:54:07.359465+05:30"},{"city":"Thane","state":"Maharashtra","latitude":19.2183,"longitude":72.9781,"temp":27.9,"humidity":57,"rain":0.0,"pressure":1007.0,"uv_index":7.25,"wind_gusts":36.4,"aqi":82,"pm10":59.4,"pm2_5":27.6,"mosquito_risk":4,"arthritis_risk":5,"migraine_risk":4,"frizz_risk":1,"updated_at":"2026-03-01T16:54:07.359474+05:30"},{"city":"Nagpur","state":"Maharashtra","latitude":21.1458,"longitude":79.0882,"temp":33.6,"humidity":27,"rain":0.0,"pressure":971.9,"uv_index":7.65,"wind_gusts":30.6,"aqi":112,"pm10":12.3,"pm2_5":11.7,"mosquito_risk":0,"arthritis_risk":5,"migraine_risk":7,"frizz_risk":0,"updated_at":"2026-03-01T16:54:07.359483+05:30"},{"city":"Nashik","state":"Maharashtra","latitude":19.9975,"longitude":73.7898,"temp":31.2,"humidity":27,"rain":0.0,"pressure":944.4,"uv_index":7.45,"wind_gusts":28.8,"aqi":80,"pm10":18.9,"pm2_5":15.0,"mosquito_risk":0,"arthritis_risk":5,"migraine_risk":7,"frizz_risk":0,"updated_at":"2026-03-01T16:54:07.359492+05:30"},{"city":"Aurangabad","state":"Maharashtra","latitude":19.8762,"longitude":75.3433,"temp":33.1,"humidity":22,"rain":0.0,"pressure":942.7,"uv_index":8.0,"wind_gusts":28.8,"aqi":101,"pm10":20.7,"pm2_5":19.6,"mosquito_risk":0,"arthritis_risk":5,"migraine_risk":7,"frizz_risk":0,"updated_at":"2026-03-01T16:54:07.359501+05:30"},{"city":"Solapur","state":"Maharashtra","latitude":17.6599,"longitude":75.9064,"temp":33.0,"humidity":31,"rain":0.0,"pressure":955.4,"uv_index":8.25,"wind_gusts":19.8,"aqi":122,"pm10":26.4,"pm2_5":25.7,"mosquito_risk":0,"arthritis_risk":5,"migraine_risk":7,"frizz_risk":0,"updated_at":"2026-03-01T16:54:07.359510+05:30"},{"city":"Kolhapur","state":"Maharashtra","latitude":16.705,"longitude":74.2433,"temp":30.5,"humidity":31,"rain":0.0,"pressure":946.4,"uv_index":8.35,"wind_gusts":38.2,"aqi":86,"pm10":22.3,"pm2_5":21.5,"mosquito_risk":0,"arthritis_risk":5,"migraine_risk":7,"frizz_risk":0,"updated_at":"2026-03-01T16:54:07.359518+05:30"},{"city":"Goa","state":"Goa","latitude":15.2993,"longitude":74.124,"temp":28.5,"humidity":62,"rain":0.0,"pressure":997.0,"uv_index":8.4,"wind_gusts":35.3,"aqi":56,"pm10":19.4,"pm2_5":15.0,"mosquito_risk":7,"arthritis_risk":5,"migraine_risk":7,"frizz_risk":1,"updated_at":"2026-03-01T16:54:07.359526+05:30"},{"city":"Jodhpur","state":"Rajasthan","latitude":26.2389,"longitude":73.0243,"temp":33.2,"humidity":21,"rain":0.0,"pressure":982.9,"uv_index":6.75,"wind_gusts":18.0,"aqi":65,"pm10":36.0,"pm2_5":14.7,"mosquito_risk":0,"arthritis_risk":5,"migraine_risk":7,"frizz_risk":0,"updated_at":"2026-03-01T16:54:07.359535+05:30"},{"city":"Udaipur","state":"Rajasthan","latitude":24.5854,"longitude":73.7125,"temp":29.7,"humidity":28,"rain":0.0,"pressure":946.6,"uv_index":7.35,"wind_gusts":25.2,"aqi":57,"pm10":25.3,"pm2_5":13.2,"mosquito_risk":4,"arthritis_risk":5,"migraine_risk":7,"frizz_risk":0,"updated_at":"2026-03-01T16:54:07.359543+05:30"},{"city":"Kota","state":"Rajasthan","latitude":25.2138,"longitude":75.8648,"temp":32.0,"humidity":26,"rain":0.0,"pressure":978.8,"uv_index":6.8,"wind_gusts":20.2,"aqi":80,"pm10":28.9,"pm2_5":17.3,"mosquito_risk":0,"arthritis_risk":5,"migraine_risk":7,"frizz_risk":0,"updated_at":"2026-03-01T16:54:07.359550+05:30"},{"city":"Bikaner","state":"Rajasthan","latitude":28.0229,"longitude":73.3119,"temp":32.2,"humidity":19,"rain":0.0,"pressure":982.3,"uv_index":6.45,"wind_gusts":16.2,"aqi":66,"pm10":38.6,"pm2_5":18.9,"mosquito_risk":0,"arthritis_risk":5,"migraine_risk":7,"frizz_risk":0,"updated_at":"2026-03-01T16:54:07.359557+05:30"},{"city":"Ajmer","state":"Rajasthan","latitude":26.4499,"longitude":74.6399,"temp":31.0,"humidity":21,"rain":0.0,"pressure":954.8,"uv_index":6.7,"wind_gusts":17.6,"aqi":79,"pm10":37.5,"pm2_5":16.3,"mosquito_risk":0,"arthritis_risk":5,"migraine_risk":7,"frizz_risk":0,"updated_at":"2026-03-01T16:54:07.359564+05:30"},{"city":"Gwalior","state":"Madhya Pradesh","latitude":26.2183,"longitude":78.1828,"temp":29.5,"humidity":30,"rain":0.0,"pressure":983.8,"uv_index":6.35,"wind_gusts":28.8,"aqi":99,"pm10":42.7,"pm2_5":17.3,"mosquito_risk":4,"arthritis_risk":5,"migraine_risk":7,"frizz_risk":0,"updated_at":"2026-03-01T16:54:07.359571+05:30"},{"city":"Indore","state":"Madhya Pradesh","latitude":22.7196,"longitude":75.8577,"temp":29.8,"humidity":32,"rain":0.0,"pressure":947.7,"uv_index":7.35,"wind_gusts":22.3,"aqi":75,"pm10":21.8,"pm2_5":16.9,"mosquito_risk":4,"arthritis_risk":5,"migraine_risk":7,"frizz_risk":0,"updated_at":"2026-03-01T16:54:07.359577+05:30"},{"city":"Bhopal","state":"Madhya Pradesh","latitude":23.2599,"longitude":77.4126,"temp":29.5,"humidity":32,"rain":0.0,"pressure":953.7,"uv_index":7.2,"wind_gusts":25.9,"aqi":67,"pm10":20.7,"pm2_5":16.2,"mosquito_risk":4,"arthritis_risk":5,"migraine_risk":7,"frizz_risk":0,"updated_at":"2026-03-01T16:54:07.359583+05:30"},{"city":"Jabalpur","state":"Madhya Pradesh","latitude":23.1815,"longitude":79.9864,"temp":30.6,"humidity":25,"rain":0.0,"pressure":961.2,"uv_index":7.3,"wind_gusts":39.2,"aqi":86,"pm10":13.3,"pm2_5":12.3,"mosquito_risk":0,"arthritis_risk":5,"migraine_risk":7,"frizz_risk":0,"updated_at":"2026-03-01T16:54:07.359590+05:30"},{"city":"Ujjain","state":"Madhya Pradesh","latitude":23.1765,"longitude":75.7885,"temp":29.9,"humidity":34,"rain":0.0,"pressure":953.7,"uv_index":7.25,"wind_gusts":20.5,"aqi":84,"pm10":24.0,"pm2_5":17.2,"mosquito_risk":4,"arthritis_risk":5,"migraine_risk":7,"frizz_risk":0,"updated_at":"2026-03-01T16:54:07.359597+05:30"},{"city":"Visakhapatnam","state":"Andhra Pradesh","latitude":17.6868,"longitude":83.2185,"temp":27.9,"humidity":68,"rain":0.0,"pressure":1003.3,"uv_index":8.3,"wind_gusts":39.2,"aqi":151,"pm10":54.5,"pm2_5":51.2,"mosquito_risk":7,"arthritis_risk":5,"migraine_risk":4,"frizz_risk":1,"updated_at":"2026-03-01T16:54:07.359604+05:30"},{"city":"Vijayawada","state":"Andhra Pradesh","latitude":16.5062,"longitude":80.648,"temp":32.4,"humidity":47,"rain":0.0,"pressure":1001.7,"uv_index":8.4,"wind_gusts":28.1,"aqi":150,"pm10":46.2,"pm2_5":44.2,"mosquito_risk":0,"arthritis_risk":5,"migraine_risk":4,"frizz_risk":1,"updated_at":"2026-03-01T16:54:07.359610+05:30"},{"city":"Guntur","state":"Andhra Pradesh","latitude":16.3067,"longitude":80.4365,"temp":32.4,"humidity":42,"rain":0.0,"pressure":1003.2,"uv_index":8.4,"wind_gusts":28.4,"aqi":146,"pm10":43.1,"pm2_5":41.7,"mosquito_risk":0,"arthritis_risk":5,"migraine_risk":4,"frizz_risk":1,"updated_at":"2026-03-01T16:54:07.359617+05:30"},{"city":"Nellore","state":"Andhra Pradesh","latitude":14.4426,"longitude":79.9865,"temp":31.5,"humidity":41,"rain":0.0,"pressure":1005.3,"uv_index":8.6,"wind_gusts":31.0,"aqi":143,"pm10":41.0,"pm2_5":38.5,"mosquito_risk":0,"arthritis_risk":5,"migraine_risk":4,"frizz_risk":1,"updated_at":"2026-03-01T16:54:07.359624+05:30"},{"city":"Kurnool","state":"Andhra Pradesh","latitude":15.8281,"longitude":78.0373,"temp":35.0,"humidity":27,"rain":0.0,"pressure":975.1,"uv_index":8.4,"wind_gusts":20.5,"aqi":121,"pm10":31.0,"pm2_5":30.5,"mosquito_risk":0,"arthritis_risk":5,"migraine_risk":7,"frizz_risk":0,"updated_at":"2026-03-01T16:54:07.359631+05:30"},{"city":"Kakinada","state":"Andhra Pradesh","latitude":16.9891,"longitude":82.2475,"temp":31.5,"humidity":42,"rain":0.0,"pressure":1006.7,"uv_index":8.3,"wind_gusts":33.5,"aqi":152,"pm10":47.4,"pm2_5":43.4,"mosquito_risk":0,"arthritis_risk":5,"migraine_risk":4,"frizz_risk":1,"updated_at":"2026-03-01T16:54:07.359638+05:30"},{"city":"Tirupati","state":"Andhra Pradesh","latitude":13.6288,"longitude":79.4192,"temp":32.6,"humidity":33,"rain":0.0,"pressure":990.3,"uv_index":8.7,"wind_gusts":28.4,"aqi":152,"pm10":41.1,"pm2_5":39.5,"mosquito_risk":0,"arthritis_risk":5,"migraine_risk":7,"frizz_risk":0,"updated_at":"2026-03-01T16:54:07.359644+05:30"},{"city":"Warangal","state":"Telangana","latitude":17.9689,"longitude":79.5941,"temp":32.6,"humidity":43,"rain":0.0,"pressure":977.7,"uv_index":8.1,"wind_gusts":27.7,"aqi":137,"pm10":41.4,"pm2_5":40.9,"mosquito_risk":0,"arthritis_risk":5,"migraine_risk":7,"frizz_risk":1,"updated_at":"2026-03-01T16:54:07.359651+05:30"},{"city":"Nizamabad","state":"Telangana","latitude":18.6725,"longitude":78.0941,"temp":34.0,"humidity":25,"rain":0.0,"pressure":963.6,"uv_index":8.0,"wind_gusts":20.9,"aqi":118,"pm10":19.1,"pm2_5":18.7,"mosquito_risk":0,"arthritis_risk":5,"migraine_risk":7,"frizz_risk":0,"updated_at":"2026-03-01T16:54:07.359657+05:30"},{"city":"Mysore","state":"Karnataka","latitude":12.2958,"longitude":76.6396,"temp":31.4,"humidity":31,"rain":0.0,"pressure":926.7,"uv_index":9.05,"wind_gusts":36.0,"aqi":122,"pm10":46.7,"pm2_5":45.4,"mosquito_risk":0,"arthritis_risk":5,"migraine_risk":7,"frizz_risk":0,"updated_at":"2026-03-01T16:54:07.359663+05:30"},{"city":"Mangalore","state":"Karnataka","latitude":12.9141,"longitude":74.856,"temp":28.1,"humidity":74,"rain":0.0,"pressure":1005.0,"uv_index":8.65,"wind_gusts":32.0,"aqi":49,"pm10":14.5,"pm2_5":10.0,"mosquito_risk":7,"arthritis_risk":5,"migraine_risk":4,"frizz_risk":1,"updated_at":"2026-03-01T16:54:07.359670+05:30"},{"city":"Hubli-Dharwad","state":"Karnataka","latitude":15.3647,"longitude":75.124,"temp":32.7,"humidity":25,"rain":0.0,"pressure":939.0,"uv_index":8.55,"wind_gusts":33.5,"aqi":95,"pm10":29.5,"pm2_5":28.6,"mosquito_risk":0,"arthritis_risk":5,"migraine_risk":7,"frizz_risk":0,"updated_at":"2026-03-01T16:54:07.359677+05:30"},{"city":"Belgaum","state":"Karnataka","latitude":15.8497,"longitude":74.4977,"temp":30.2,"humidity":32,"rain":0.0,"pressure":924.5,"uv_index":8.6,"wind_gusts":38.5,"aqi":111,"pm10":19.8,"pm2_5":19.1,"mosquito_risk":0,"arthritis_risk":5,"migraine_risk":7,"frizz_risk":0,"updated_at":"2026-03-01T16:54:10.706831+05:30"},{"city":"Coimbatore","state":"Tamil Nadu","latitude":11.0168,"longitude":76.9558,"temp":32.6,"humidity":32,"rain":0.0,"pressure":959.7,"uv_index":9.05,"wind_gusts":34.9,"aqi":146,"pm10":43.5,"pm2_5":42.4,"mosquito_risk":0,"arthritis_risk":5,"migraine_risk":7,"frizz_risk":0,"updated_at":"2026-03-01T16:54:10.706861+05:30"},{"city":"Madurai","state":"Tamil Nadu","latitude":9.9252,"longitude":78.1198,"temp":34.1,"humidity":32,"rain":0.0,"pressure":990.7,"uv_index":9.0,"wind_gusts":26.3,"aqi":151,"pm10":33.9,"pm2_5":32.5,"mosquito_risk":0,"arthritis_risk":5,"migraine_risk":7,"frizz_risk":0,"updated_at":"2026-03-01T16:54:10.706871+05:30"},{"city":"Trichy","state":"Tamil Nadu","latitude":10.7905,"longitude":78.7047,"temp":34.3,"humidity":32,"rain":0.0,"pressure":997.7,"uv_index":8.9,"wind_gusts":27.7,"aqi":150,"pm10":38.3,"pm2_5":36.2,"mosquito_risk":0,"arthritis_risk":5,"migraine_risk":7,"frizz_risk":0,"updated_at":"2026-03-01T16:54:10.706879+05:30"},{"city":"Salem","state":"Tamil Nadu","latitude":11.6643,"longitude":78.146,"temp":35.2,"humidity":26,"rain":0.0,"pressure":974.8,"uv_index":8.95,"wind_gusts":26.3,"aqi":151,"pm10":40.4,"pm2_5":39.0,"mosquito_risk":0,"arthritis_risk":5,"migraine_risk":10,"frizz_risk":0,"updated_at":"2026-03-01T16:54:10.706887+05:30"},{"city":"Tirunelveli","state":"Tamil Nadu","latitude":8.7139,"longitude":77.7567,"temp":34.6,"humidity":32,"rain":0.0,"pressure":1000.8,"uv_index":9.05,"wind_gusts":43.6,"aqi":137,"pm10":38.1,"pm2_5":36.7,"mosquito_risk":0,"arthritis_risk":5,"migraine_risk":4,"frizz_risk":0,"updated_at":"2026-03-01T16:54:10.706895+05:30"},{"city":"Vellore","state":"Tamil Nadu","latitude":12.9165,"longitude":79.1325,"temp":32.4,"humidity":33,"rain":0.0,"pressure":983.4,"uv_index":8.8,"wind_gusts":36.7,"aqi":156,"pm10":38.9,"pm2_5":37.5,"mosquito_risk":0,"arthritis_risk":5,"migraine_risk":7,"frizz_risk":0,"updated_at":"2026-03-01T16:54:10.706901+05:30"},{"city":"Erode","state":"Tamil Nadu","latitude":11.341,"longitude":77.7172,"temp":35.4,"humidity":29,"rain":0.0,"pressure":986.3,"uv_index":8.95,"wind_gusts":27.7,"aqi":143,"pm10":36.6,"pm2_5":35.3,"mosquito_risk":0,"arthritis_risk":5,"migraine_risk":10,"frizz_risk":0,"updated_at":"2026-03-01T16:54:10.706908+05:30"},{"city":"Kochi","state":"Kerala","latitude":9.9312,"longitude":76.2673,"temp":28.5,"humidity":75,"rain":0.0,"pressure":1006.4,"uv_index":8.9,"wind_gusts":36.4,"aqi":116,"pm10":33.6,"pm2_5":31.7,"mosquito_risk":7,"arthritis_risk":5,"migraine_risk":4,"frizz_risk":1,"updated_at":"2026-03-01T16:54:10.706915+05:30"},{"city":"Thiruvananthapuram","state":"Kerala","latitude":8.5241,"longitude":76.9366,"temp":28.5,"humidity":77,"rain":0.0,"pressure":1006.2,"uv_index":8.95,"wind_gusts":24.1,"aqi":134,"pm10":25.1,"pm2_5":22.0,"mosquito_risk":7,"arthritis_risk":5,"migraine_risk":4,"frizz_risk":1,"updated_at":"2026-03-01T16:54:10.706922+05:30"},{"city":"Kozhikode","state":"Kerala","latitude":11.2588,"longitude":75.7804,"temp":29.2,"humidity":71,"rain":0.0,"pressure":1006.0,"uv_index":8.75,"wind_gusts":31.3,"aqi":65,"pm10":14.5,"pm2_5":10.2,"mosquito_risk":7,"arthritis_risk":5,"migraine_risk":4,"frizz_risk":1,"updated_at":"2026-03-01T16:54:10.706929+05:30"},{"city":"Thrissur","state":"Kerala","latitude":10.5276,"longitude":76.2144,"temp":30.3,"humidity":65,"rain":0.0,"pressure":1004.9,"uv_index":8.85,"wind_gusts":40.3,"aqi":113,"pm10":31.5,"pm2_5":29.9,"mosquito_risk":3,"arthritis_risk":5,"migraine_risk":4,"frizz_risk":1,"updated_at":"2026-03-01T16:54:10.706935+05:30"},{"city":"Kannur","state":"Kerala","latitude":11.8745,"longitude":75.3704,"temp":29.5,"humidity":64,"rain":0.0,"pressure":1005.5,"uv_index":8.75,"wind_gusts":38.2,"aqi":51,"pm10":18.3,"pm2_5":13.6,"mosquito_risk":7,"arthritis_risk":5,"migraine_risk":4,"frizz_risk":1,"updated_at":"2026-03-01T16:54:10.706942+05:30"},{"city":"Patna","state":"Bihar","latitude":25.5941,"longitude":85.1376,"temp":30.2,"humidity":32,"rain":0.0,"pressure":999.6,"uv_index":7.0,"wind_gusts":28.8,"aqi":126,"pm10":76.6,"pm2_5":38.2,"mosquito_risk":0,"arthritis_risk":5,"migraine_risk":7,"frizz_risk":0,"updated_at":"2026-03-01T16:54:10.706948+05:30"},{"city":"Gaya","state":"Bihar","latitude":24.7914,"longitude":85.0002,"temp":28.5,"humidity":49,"rain":0.0,"pressure":993.4,"uv_index":7.1,"wind_gusts":19.1,"aqi":110,"pm10":61.0,"pm2_5":34.1,"mosquito_risk":4,"arthritis_risk":5,"migraine_risk":7,"frizz_risk":1,"updated_at":"2026-03-01T16:54:10.706955+05:30"},{"city":"Muzaffarpur","state":"Bihar","latitude":26.1209,"longitude":85.3647,"temp":29.7,"humidity":33,"rain":0.0,"pressure":999.4,"uv_index":6.95,"wind_gusts":31.0,"aqi":125,"pm10":71.2,"pm2_5":34.7,"mosquito_risk":4,"arthritis_risk":5,"migraine_risk":7,"frizz_risk":0,"updated_at":"2026-03-01T16:54:10.706961+05:30"},{"city":"Bhagalpur","state":"Bihar","latitude":25.2425,"longitude":87.0117,"temp":27.8,"humidity":51,"rain":0.0,"pressure":1000.5,"uv_index":7.05,"wind_gusts":22.3,"aqi":127,"pm10":73.6,"pm2_5":40.4,"mosquito_risk":4,"arthritis_risk":5,"migraine_risk":4,"frizz_risk":1,"updated_at":"2026-03-01T16:54:10.706967+05:30"},{"city":"Ranchi","state":"Jharkhand","latitude":23.3441,"longitude":85.3096,"temp":27.6,"humidity":31,"rain":0.0,"pressure":937.5,"uv_index":7.75,"wind_gusts":24.5,"aqi":94,"pm10":34.6,"pm2_5":32.8,"mosquito_risk":4,"arthritis_risk":5,"migraine_risk":7,"frizz_risk":0,"updated_at":"2026-03-01T16:54:10.706973+05:30"},{"city":"Jamshedpur","state":"Jharkhand","latitude":22.8046,"longitude":86.2029,"temp":31.6,"humidity":26,"rain":0.0,"pressure":990.2,"uv_index":7.7,"wind_gusts":10.8,"aqi":145,"pm10":55.9,"pm2_5":52.2,"mosquito_risk":0,"arthritis_risk":5,"migraine_risk":7,"frizz_risk":0,"updated_at":"2026-03-01T16:54:10.706979+05:30"},{"city":"Dhanbad","state":"Jharkhand","latitude":23.7957,"longitude":86.4304,"temp":32.1,"humidity":21,"rain":0.0,"pressure":979.0,"uv_index":7.55,"wind_gusts":24.1,"aqi":153,"pm10":38.6,"pm2_5":34.1,"mosquito_risk":0,"arthritis_risk":5,"migraine_risk":7,"frizz_risk":0,"updated_at":"2026-03-01T16:54:10.706986+05:30"},{"city":"Bokaro","state":"Jharkhand","latitude":23.6693,"longitude":86.1511,"temp":31.2,"humidity":24,"rain":0.0,"pressure":983.1,"uv_index":7.55,"wind_gusts":22.0,"aqi":153,"pm10":35.4,"pm2_5":32.5,"mosquito_risk":0,"arthritis_risk":5,"migraine_risk":7,"frizz_risk":0,"updated_at":"2026-03-01T16:54:10.706992+05:30"},{"city":"Bhubaneswar","state":"Odisha","latitude":20.2961,"longitude":85.8245,"temp":30.8,"humidity":46,"rain":0.0,"pressure":1001.7,"uv_index":8.05,"wind_gusts":27.0,"aqi":113,"pm10":43.2,"pm2_5":41.9,"mosquito_risk":0,"arthritis_risk":5,"migraine_risk":4,"frizz_risk":1,"updated_at":"2026-03-01T16:54:10.706998+05:30"},{"city":"Cuttack","state":"Odisha","latitude":20.4625,"longitude":85.8828,"temp":33.4,"humidity":33,"rain":0.0,"pressure":1003.1,"uv_index":8.05,"wind_gusts":27.0,"aqi":113,"pm10":43.2,"pm2_5":41.9,"mosquito_risk":0,"arthritis_risk":5,"migraine_risk":4,"frizz_risk":0,"updated_at":"2026-03-01T16:54:10.707004+05:30"},{"city":"Rourkela","state":"Odisha","latitude":22.2604,"longitude":84.8536,"temp":32.2,"humidity":30,"rain":0.0,"pressure":984.4,"uv_index":7.6,"wind_gusts":18.0,"aqi":134,"pm10":59.8,"pm2_5":58.4,"mosquito_risk":0,"arthritis_risk":5,"migraine_risk":7,"frizz_risk":0,"updated_at":"2026-03-01T16:54:10.707010+05:30"},{"city":"Raipur","state":"Chhattisgarh","latitude":21.2514,"longitude":81.6296,"temp":34.0,"humidity":27,"rain":0.0,"pressure":973.4,"uv_index":7.75,"wind_gusts":27.4,"aqi":156,"pm10":27.1,"pm2_5":26.5,"mosquito_risk":0,"arthritis_risk":5,"migraine_risk":7,"frizz_risk":0,"updated_at":"2026-03-01T16:54:10.707016+05:30"},{"city":"Bhilai","state":"Chhattisgarh","latitude":21.1938,"longitude":81.3509,"temp":34.1,"humidity":27,"rain":0.0,"pressure":973.8,"uv_index":7.75,"wind_gusts":28.1,"aqi":157,"pm10":20.1,"pm2_5":19.7,"mosquito_risk":0,"arthritis_risk":5,"migraine_risk":7,"frizz_risk":0,"updated_at":"2026-03-01T16:54:10.707023+05:30"},{"city":"Guwahati","state":"Assam","latitude":26.1158,"longitude":91.7086,"temp":24.6,"humidity":68,"rain":0.0,"pressure":1001.0,"uv_index":7.0,"wind_gusts":32.0,"aqi":162,"pm10":77.8,"pm2_5":62.9,"mosquito_risk":3,"arthritis_risk":5,"migraine_risk":4,"frizz_risk":1,"updated_at":"2026-03-01T16:54:10.707043+05:30"},{"city":"Agartala","state":"Tripura","latitude":23.8315,"longitude":91.2868,"temp":28.5,"humidity":53,"rain":0.0,"pressure":1005.0,"uv_index":7.35,"wind_gusts":27.4,"aqi":124,"pm10":46.2,"pm2_5":40.3,"mosquito_risk":4,"arthritis_risk":5,"migraine_risk":4,"frizz_risk":1,"updated_at":"2026-03-01T16:54:10.707051+05:30"},{"city":"Shillong","state":"Meghalaya","latitude":25.5788,"longitude":91.8933,"temp":14.4,"humidity":58,"rain":0.0,"pressure":853.7,"uv_index":6.8,"wind_gusts":56.9,"aqi":151,"pm10":70.3,"pm2_5":49.7,"mosquito_risk":0,"arthritis_risk":5,"migraine_risk":7,"frizz_risk":0,"updated_at":"2026-03-01T16:54:10.707057+05:30"},{"city":"Imphal","state":"Manipur","latitude":24.817,"longitude":93.9368,"temp":18.8,"humidity":51,"rain":0.0,"pressure":921.4,"uv_index":7.55,"wind_gusts":49.3,"aqi":152,"pm10":60.3,"pm2_5":43.3,"mosquito_risk":0,"arthritis_risk":5,"migraine_risk":7,"frizz_risk":0,"updated_at":"2026-03-01T16:54:10.707064+05:30"},{"city":"Aizawl","state":"Mizoram","latitude":23.7271,"longitude":92.7176,"temp":21.4,"humidity":47,"rain":0.0,"pressure":892.0,"uv_index":7.55,"wind_gusts":40.3,"aqi":126,"pm10":53.6,"pm2_5":40.0,"mosquito_risk":0,"arthritis_risk":5,"migraine_risk":7,"frizz_risk":0,"updated_at":"2026-03-01T16:54:10.707070+05:30"},{"city":"Kohima","state":"Nagaland","latitude":25.6701,"longitude":94.1077,"temp":13.6,"humidity":81,"rain":0.0,"pressure":852.4,"uv_index":7.4,"wind_gusts":70.9,"aqi":153,"pm10":82.0,"pm2_5":58.1,"mosquito_risk":3,"arthritis_risk":10,"migraine_risk":7,"frizz_risk":0,"updated_at":"2026-03-01T16:54:10.707076+05:30"},{"city":"Gangtok","state":"Sikkim","latitude":27.3314,"longitude":88.6138,"temp":12.6,"humidity":85,"rain":0.0,"pressure":834.2,"uv_index":5.3,"wind_gusts":12.6,"aqi":139,"pm10":70.1,"pm2_5":47.8,"mosquito_risk":3,"arthritis_risk":10,"migraine_risk":3,"frizz_risk":0,"updated_at":"2026-03-01T16:54:10.707083+05:30"},{"city":"Siliguri","state":"West Bengal","latitude":26.7271,"longitude":88.3953,"temp":21.9,"humidity":59,"rain":0.0,"pressure":992.9,"uv_index":7.0,"wind_gusts":31.0,"aqi":174,"pm10":113.6,"pm2_5":78.5,"mosquito_risk":0,"arthritis_risk":5,"migraine_risk":7,"frizz_risk":0,"updated_at":"2026-03-01T16:54:13.920543+05:30"},{"city":"Durgapur","state":"West Bengal","latitude":23.5204,"longitude":87.3119,"temp":32.7,"humidity":21,"rain":0.0,"pressure":994.1,"uv_index":7.55,"wind_gusts":26.3,"aqi":136,"pm10":42.6,"pm2_5":35.7,"mosquito_risk":0,"arthritis_risk":5,"migraine_risk":7,"frizz_risk":0,"updated_at":"2026-03-01T16:54:13.920578+05:30"},{"city":"Asansol","state":"West Bengal","latitude":23.6739,"longitude":86.9524,"temp":32.2,"humidity":22,"rain":0.0,"pressure":992.7,"uv_index":7.55,"wind_gusts":22.7,"aqi":120,"pm10":41.2,"pm2_5":35.3,"mosquito_risk":0,"arthritis_risk":5,"migraine_risk":7,"frizz_risk":0,"updated_at":"2026-03-01T16:54:13.920590+05:30"},{"city":"Pondicherry","state":"Puducherry","latitude":11.9139,"longitude":79.8145,"temp":30.7,"humidity":50,"rain":0.0,"pressure":1007.7,"uv_index":8.8,"wind_gusts":28.1,"aqi":140,"pm10":43.3,"pm2_5":39.1,"mosquito_risk":0,"arthritis_risk":5,"migraine_risk":4,"frizz_risk":1,"updated_at":"2026-03-01T16:54:13.920599+05:30"},{"city":"Port Blair","state":"Andaman and Nicobar Islands","latitude":11.6234,"longitude":92.7265,"temp":27.9,"humidity":69,"rain":0.0,"pressure":1005.6,"uv_index":8.7,"wind_gusts":25.6,"aqi":91,"pm10":23.3,"pm2_5":20.5,"mosquito_risk":7,"arthritis_risk":5,"migraine_risk":4,"frizz_risk":1,"updated_at":"2026-03-01T16:54:13.920609+05:30"},{"city":"Haridwar","state":"Uttarakhand","latitude":29.9457,"longitude":78.1642,"temp":27.2,"humidity":29,"rain":0.0,"pressure":974.0,"uv_index":5.4,"wind_gusts":37.1,"aqi":106,"pm10":22.8,"pm2_5":16.3,"mosquito_risk":4,"arthritis_risk":5,"migraine_risk":3,"frizz_risk":0,"updated_at":"2026-03-01T16:54:13.920618+05:30"},{"city":"Rishikesh","state":"Uttarakhand","latitude":30.0869,"longitude":78.2676,"temp":26.5,"humidity":34,"rain":0.0,"pressure":966.5,"uv_index":5.5,"wind_gusts":34.9,"aqi":89,"pm10":22.9,"pm2_5":17.1,"mosquito_risk":4,"arthritis_risk":5,"migraine_risk":3,"frizz_risk":0,"updated_at":"2026-03-01T16:54:13.920627+05:30"},{"city":"Nainital","state":"Uttarakhand","latitude":29.3919,"longitude":79.4542,"temp":18.7,"humidity":39,"rain":0.0,"pressure":805.0,"uv_index":6.3,"wind_gusts":40.0,"aqi":89,"pm10":31.1,"pm2_5":23.2,"mosquito_risk":0,"arthritis_risk":5,"migraine_risk":7,"frizz_risk":0,"updated_at":"2026-03-01T16:54:13.920636+05:30"},{"city":"Mussoorie","state":"Uttarakhand","latitude":30.4599,"longitude":78.0664,"temp":17.5,"humidity":46,"rain":0.0,"pressure":801.8,"uv_index":5.85,"wind_gusts":39.6,"aqi":88,"pm10":20.0,"pm2_5":14.4,"mosquito_risk":0,"arthritis_risk":5,"migraine_risk":3,"frizz_risk":0,"updated_at":"2026-03-01T16:54:13.920645+05:30"},{"city":"Dharamshala","state":"Himachal Pradesh","latitude":32.219,"longitude":76.3234,"temp":21.0,"humidity":35,"rain":0.0,"pressure":869.0,"uv_index":6.05,"wind_gusts":27.4,"aqi":74,"pm10":28.0,"pm2_5":16.6,"mosquito_risk":0,"arthritis_risk":5,"migraine_risk":7,"frizz_risk":0,"updated_at":"2026-03-01T16:54:13.920653+05:30"},{"city":"Dalhousie","state":"Himachal Pradesh","latitude":32.5387,"longitude":75.971,"temp":19.7,"humidity":31,"rain":0.0,"pressure":804.3,"uv_index":6.25,"wind_gusts":30.2,"aqi":91,"pm10":31.8,"pm2_5":20.7,"mosquito_risk":0,"arthritis_risk":5,"migraine_risk":7,"frizz_risk":0,"updated_at":"2026-03-01T16:54:13.920662+05:30"},{"city":"Patiala","state":"Punjab","latitude":30.3398,"longitude":76.3869,"temp":27.1,"humidity":30,"rain":0.0,"pressure":978.9,"uv_index":5.5,"wind_gusts":28.4,"aqi":154,"pm10":313.9,"pm2_5":58.3,"mosquito_risk":4,"arthritis_risk":5,"migraine_risk":3,"frizz_risk":0,"updated_at":"2026-03-01T16:54:13.920670+05:30"},{"city":"Bhatinda","state":"Punjab","latitude":30.211,"longitude":74.9455,"temp":28.9,"humidity":34,"rain":0.0,"pressure":984.6,"uv_index":6.2,"wind_gusts":21.2,"aqi":151,"pm10":72.6,"pm2_5":45.3,"mosquito_risk":4,"arthritis_risk":5,"migraine_risk":7,"frizz_risk":0,"updated_at":"2026-03-01T16:54:13.920679+05:30"},{"city":"Rohtak","state":"Haryana","latitude":28.8955,"longitude":76.6066,"temp":28.9,"humidity":30,"rain":0.0,"pressure":982.4,"uv_index":5.7,"wind_gusts":30.6,"aqi":158,"pm10":412.6,"pm2_5":61.7,"mosquito_risk":4,"arthritis_risk":5,"migraine_risk":3,"frizz_risk":0,"updated_at":"2026-03-01T16:54:13.920686+05:30"},{"city":"Panipat","state":"Haryana","latitude":29.3909,"longitude":76.9635,"temp":27.8,"humidity":31,"rain":0.0,"pressure":980.9,"uv_index":5.5,"wind_gusts":29.9,"aqi":284,"pm10":840.1,"pm2_5":96.9,"mosquito_risk":4,"arthritis_risk":5,"migraine_risk":3,"frizz_risk":0,"updated_at":"2026-03-01T16:54:13.920693+05:30"},{"city":"Mathura","state":"Uttar Pradesh","latitude":27.4924,"longitude":77.6737,"temp":30.3,"humidity":25,"rain":0.0,"pressure":987.3,"uv_index":5.95,"wind_gusts":25.6,"aqi":177,"pm10":527.1,"pm2_5":64.7,"mosquito_risk":0,"arthritis_risk":5,"migraine_risk":3,"frizz_risk":0,"updated_at":"2026-03-01T16:54:13.920701+05:30"},{"city":"Vrindavan","state":"Uttar Pradesh","latitude":27.5823,"longitude":77.7027,"temp":30.0,"humidity":24,"rain":0.0,"pressure":987.8,"uv_index":5.95,"wind_gusts":28.4,"aqi":177,"pm10":527.1,"pm2_5":64.7,"mosquito_risk":4,"arthritis_risk":5,"migraine_risk":3,"frizz_risk":0,"updated_at":"2026-03-01T16:54:13.920729+05:30"},{"city":"Ayodhya","state":"Uttar Pradesh","latitude":26.7922,"longitude":82.1998,"temp":29.7,"humidity":21,"rain":0.0,"pressure":994.6,"uv_index":6.35,"wind_gusts":36.4,"aqi":115,"pm10":29.9,"pm2_5":20.7,"mosquito_risk":4,"arthritis_risk":5,"migraine_risk":7,"frizz_risk":0,"updated_at":"2026-03-01T16:54:13.920738+05:30"},{"city":"Ratlam","state":"Madhya Pradesh","latitude":23.3315,"longitude":75.0367,"temp":30.2,"humidity":33,"rain":0.0,"pressure":954.5,"uv_index":7.2,"wind_gusts":27.7,"aqi":78,"pm10":23.9,"pm2_5":16.9,"mosquito_risk":0,"arthritis_risk":5,"migraine_risk":7,"frizz_risk":0,"updated_at":"2026-03-01T16:54:13.920746+05:30"},{"city":"Sagar","state":"Madhya Pradesh","latitude":23.8388,"longitude":78.7378,"temp":29.1,"humidity":32,"rain":0.0,"pressure":950.2,"uv_index":7.15,"wind_gusts":20.2,"aqi":74,"pm10":18.7,"pm2_5":15.1,"mosquito_risk":4,"arthritis_risk":5,"migraine_risk":7,"frizz_risk":0,"updated_at":"2026-03-01T16:54:13.920754+05:30"},{"city":"Satna","state":"Madhya Pradesh","latitude":24.6005,"longitude":80.8322,"temp":31.0,"humidity":26,"rain":0.0,"pressure":971.1,"uv_index":7.1,"wind_gusts":31.7,"aqi":96,"pm10":31.4,"pm2_5":19.2,"mosquito_risk":0,"arthritis_risk":5,"migraine_risk":7,"frizz_risk":0,"updated_at":"2026-03-01T16:54:13.920761+05:30"},{"city":"Akola","state":"Maharashtra","latitude":20.7002,"longitude":77.0082,"temp":34.6,"humidity":22,"rain":0.0,"pressure":973.9,"uv_index":7.7,"wind_gusts":28.4,"aqi":77,"pm10":17.9,"pm2_5":17.0,"mosquito_risk":0,"arthritis_risk":5,"migraine_risk":7,"frizz_risk":0,"updated_at":"2026-03-01T16:54:13.920770+05:30"},{"city":"Amravati","state":"Maharashtra","latitude":20.9374,"longitude":77.7796,"temp":34.3,"humidity":23,"rain":0.0,"pressure":966.1,"uv_index":7.65,"wind_gusts":27.4,"aqi":75,"pm10":15.9,"pm2_5":15.2,"mosquito_risk":0,"arthritis_risk":5,"migraine_risk":7,"frizz_risk":0,"updated_at":"2026-03-01T16:54:13.920778+05:30"},{"city":"Latur","state":"Maharashtra","latitude":18.4088,"longitude":76.5604,"temp":32.2,"humidity":27,"rain":0.0,"pressure":938.7,"uv_index":8.15,"wind_gusts":25.6,"aqi":96,"pm10":19.4,"pm2_5":18.9,"mosquito_risk":0,"arthritis_risk":5,"migraine_risk":7,"frizz_risk":0,"updated_at":"2026-03-01T16:54:13.920786+05:30"},{"city":"Nanded","state":"Maharashtra","latitude":19.1383,"longitude":77.3091,"temp":34.5,"humidity":26,"rain":0.0,"pressure":967.2,"uv_index":7.9,"wind_gusts":15.5,"aqi":88,"pm10":15.1,"pm2_5":14.7,"mosquito_risk":0,"arthritis_risk":5,"migraine_risk":7,"frizz_risk":0,"updated_at":"2026-03-01T16:54:13.920794+05:30"},{"city":"Gulbarga","state":"Karnataka","latitude":17.3297,"longitude":76.8343,"temp":33.7,"humidity":29,"rain":0.0,"pressure":957.1,"uv_index":8.25,"wind_gusts":17.6,"aqi":122,"pm10":36.6,"pm2_5":36.0,"mosquito_risk":0,"arthritis_risk":5,"migraine_risk":7,"frizz_risk":0,"updated_at":"2026-03-01T16:54:13.920801+05:30"},{"city":"Bidar","state":"Karnataka","latitude":17.9104,"longitude":77.5199,"temp":31.5,"humidity":34,"rain":0.0,"pressure":934.5,"uv_index":8.2,"wind_gusts":20.5,"aqi":126,"pm10":29.8,"pm2_5":29.4,"mosquito_risk":0,"arthritis_risk":5,"migraine_risk":7,"frizz_risk":0,"updated_at":"2026-03-01T16:54:13.920809+05:30"},{"city":"Hospet","state":"Karnataka","latitude":15.2689,"longitude":76.3909,"temp":33.5,"humidity":26,"rain":0.0,"pressure":954.2,"uv_index":8.55,"wind_gusts":24.5,"aqi":114,"pm10":40.5,"pm2_5":39.5,"mosquito_risk":0,"arthritis_risk":5,"migraine_risk":7,"frizz_risk":0,"updated_at":"2026-03-01T16:54:13.920815+05:30"},{"city":"Tirupur","state":"Tamil Nadu","latitude":11.1085,"longitude":77.3411,"temp":34.5,"humidity":29,"rain":0.0,"pressure":972.9,"uv_index":9.1,"wind_gusts":21.2,"aqi":152,"pm10":42.3,"pm2_5":41.0,"mosquito_risk":0,"arthritis_risk":5,"migraine_risk":7,"frizz_risk":0,"updated_at":"2026-03-01T16:54:13.920821+05:30"},{"city":"Alappuzha","state":"Kerala","latitude":9.4981,"longitude":76.3388,"temp":28.6,"humidity":76,"rain":0.0,"pressure":1006.5,"uv_index":8.9,"wind_gusts":34.9,"aqi":133,"pm10":28.1,"pm2_5":23.8,"mosquito_risk":7,"arthritis_risk":5,"migraine_risk":4,"frizz_risk":1,"updated_at":"2026-03-01T16:54:13.920828+05:30"},{"city":"Munnar","state":"Kerala","latitude":10.0889,"longitude":77.0595,"temp":27.3,"humidity":44,"rain":0.0,"pressure":856.9,"uv_index":9.4,"wind_gusts":25.2,"aqi":132,"pm10":40.3,"pm2_5":38.9,"mosquito_risk":4,"arthritis_risk":5,"migraine_risk":7,"frizz_risk":0,"updated_at":"2026-03-01T16:54:13.920834+05:30"},{"city":"Silchar","state":"Assam","latitude":24.8333,"longitude":92.7789,"temp":27.8,"humidity":51,"rain":0.0,"pressure":1003.5,"uv_index":7.3,"wind_gusts":20.5,"aqi":158,"pm10":70.8,"pm2_5":49.9,"mosquito_risk":4,"arthritis_risk":5,"migraine_risk":4,"frizz_risk":1,"updated_at":"2026-03-01T16:54:13.920840+05:30"},{"city":"Dibrugarh","state":"Assam","latitude":27.4728,"longitude":94.912,"temp":21.4,"humidity":71,"rain":0.0,"pressure":996.1,"uv_index":7.0,"wind_gusts":13.7,"aqi":159,"pm10":79.4,"pm2_5":63.3,"mosquito_risk":3,"arthritis_risk":5,"migraine_risk":7,"frizz_risk":0,"updated_at":"2026-03-01T16:54:13.920846+05:30"}]