[{"city":"Delhi","state":"Delhi","latitude":28.6139,"longitude":77.209,"temp":24.1,"humidity":51,"rain":0.0,"pressure":984.9,"uv_index":6.0,"wind_gusts":24.5,"aqi":276,"pm10":218.4,"pm2_5":68.0,"mosquito_risk":0,"arthritis_risk":5,"migraine_risk":3,"frizz_risk":0,"updated_at":"2026-03-14T21:01:51.783579+05:30"},{"city":"Mumbai","state":"Maharashtra","latitude":19.076,"longitude":72.8777,"temp":27.9,"humidity":75,"rain":0.0,"pressure":1010.9,"uv_index":7.65,"wind_gusts":18.4,"aqi":140,"pm10":78.0,"pm2_5":39.0,"mosquito_risk":7,"arthritis_risk":0,"migraine_risk":4,"frizz_risk":1,"updated_at":"2026-03-14T21:01:51.783626+05:30"},{"city":"Bangalore","state":"Karnataka","latitude":12.9716,"longitude":77.5946,"temp":24.7,"humidity":44,"rain":0.0,"pressure":914.0,"uv_index":9.3,"wind_gusts":32.8,"aqi":129,"pm10":31.3,"pm2_5":28.8,"mosquito_risk":0,"arthritis_risk":5,"migraine_risk":7,"frizz_risk":0,"updated_at":"2026-03-14T21:01:51.783641+05:30"},{"city":"Hyderabad","state":"Telangana","latitude":17.385,"longitude":78.4867,"temp":28.2,"humidity":42,"rain":0.0,"pressure":955.5,"uv_index":8.7,"wind_gusts":30.2,"aqi":138,"pm10":49.8,"pm2_5":41.8,"mosquito_risk":4,"arthritis_risk":5,"migraine_risk":7,"frizz_risk":0,"updated_at":"2026-03-14T21:01:51.783652+05:30"},{"city":"Chennai","state":"Tamil Nadu","latitude":13.0827,"longitude":80.2707,"temp":26.5,"humidity":81,"rain":0.0,"pressure":1011.1,"uv_index":9.05,"wind_gusts":32.0,"aqi":53,"pm10":13.8,"pm2_5":10.9,"mosquito_risk":7,"arthritis_risk":0,"migraine_risk":4,"frizz_risk":1,"updated_at":"2026-03-14T21:01:51.783662+05:30"},{"city":"Kolkata","state":"West Bengal","latitude":22.5726,"longitude":88.3639,"temp":25.5,"humidity":86,"rain":0.0,"pressure":1009.2,"uv_index":8.05,"wind_gusts":33.8,"aqi":80,"pm10":20.1,"pm2_5":16.4,"mosquito_risk":7,"arthritis_risk":0,"migraine_risk":4,"frizz_risk":1,"updated_at":"2026-03-14T21:01:51.783671+05:30"},{"city":"Pune","state":"Maharashtra","latitude":18.5204,"longitude":73.8567,"temp":26.7,"humidity":31,"rain":0.0,"pressure":951.3,"uv_index":8.25,"wind_gusts":47.5,"aqi":172,"pm10":30.2,"pm2_5":28.3,"mosquito_risk":4,"arthritis_risk":5,"migraine_risk":7,"frizz_risk":0,"updated_at":"2026-03-14T21:01:51.783685+05:30"},{"city":"Ahmedabad","state":"Gujarat","latitude":23.0225,"longitude":72.5714,"temp":29.4,"humidity":38,"rain":0.0,"pressure":1003.4,"uv_index":7.5,"wind_gusts":24.8,"aqi":79,"pm10":61.7,"pm2_5":30.4,"mosquito_risk":4,"arthritis_risk":5,"migraine_risk":4,"frizz_risk":0,"updated_at":"2026-03-14T21:01:51.783693+05:30"},{"city":"Jaipur","state":"Rajasthan","latitude":26.9124,"longitude":75.7873,"temp":25.8,"humidity":36,"rain":0.0,"pressure":961.0,"uv_index":7.0,"wind_gusts":28.8,"aqi":145,"pm10":115.7,"pm2_5":45.3,"mosquito_risk":4,"arthritis_risk":5,"migraine_risk":7,"frizz_risk":0,"updated_at":"2026-03-14T21:01:51.783702+05:30"},{"city":"Lucknow","state":"Uttar Pradesh","latitude":26.8467,"longitude":80.9462,"temp":25.7,"humidity":52,"rain":0.0,"pressure":995.2,"uv_index":6.7,"wind_gusts":24.5,"aqi":165,"pm10":198.8,"pm2_5":66.1,"mosquito_risk":4,"arthritis_risk":5,"migraine_risk":7,"frizz_risk":0,"updated_at":"2026-03-14T21:01:51.783709+05:30"},{"city":"Kanpur","state":"Uttar Pradesh","latitude":26.4499,"longitude":80.3319,"temp":24.3,"humidity":59,"rain":0.0,"pressure":993.0,"uv_index":6.7,"wind_gusts":17.3,"aqi":348,"pm10":212.3,"pm2_5":62.2,"mosquito_risk":0,"arthritis_risk":5,"migraine_risk":7,"frizz_risk":0,"updated_at":"2026-03-14T21:01:51.783717+05:30"},{"city":"Chandigarh","state":"Chandigarh","latitude":30.7333,"longitude":76.7794,"temp":20.5,"humidity":63,"rain":0.0,"pressure":969.9,"uv_index":5.2,"wind_gusts":20.2,"aqi":78,"pm10":47.5,"pm2_5":44.2,"mosquito_risk":3,"arthritis_risk":5,"migraine_risk":3,"frizz_risk":0,"updated_at":"2026-03-14T21:01:51.783724+05:30"},{"city":"Srinagar","state":"Jammu and Kashmir","latitude":34.0837,"longitude":74.7973,"temp":10.9,"humidity":83,"rain":0.0,"pressure":839.5,"uv_index":5.6,"wind_gusts":19.1,"aqi":97,"pm10":74.7,"pm2_5":53.2,"mosquito_risk":3,"arthritis_risk":10,"migraine_risk":3,"frizz_risk":0,"updated_at":"2026-03-14T21:01:51.783731+05:30"},{"city":"Jammu","state":"Jammu and Kashmir","latitude":32.7266,"longitude":74.857,"temp":22.6,"humidity":57,"rain":0.0,"pressure":973.3,"uv_index":6.35,"wind_gusts":19.1,"aqi":81,"pm10":47.6,"pm2_5":38.1,"mosquito_risk":0,"arthritis_risk":5,"migraine_risk":7,"frizz_risk":0,"updated_at":"2026-03-14T21:01:51.783739+05:30"},{"city":"Amritsar","state":"Punjab","latitude":31.634,"longitude":74.8723,"temp":19.8,"humidity":67,"rain":0.0,"pressure":981.8,"uv_index":4.65,"wind_gusts":17.6,"aqi":98,"pm10":46.6,"pm2_5":44.2,"mosquito_risk":3,"arthritis_risk":5,"migraine_risk":3,"frizz_risk":0,"updated_at":"2026-03-14T21:01:51.783746+05:30"},{"city":"Ludhiana","state":"Punjab","latitude":30.901,"longitude":75.8573,"temp":21.3,"humidity":55,"rain":0.0,"pressure":979.9,"uv_index":5.25,"wind_gusts":20.2,"aqi":89,"pm10":88.2,"pm2_5":59.5,"mosquito_risk":0,"arthritis_risk":5,"migraine_risk":3,"frizz_risk":0,"updated_at":"2026-03-14T21:01:51.783752+05:30"},{"city":"Jalandhar","state":"Punjab","latitude":31.326,"longitude":75.5762,"temp":20.8,"humidity":59,"rain":0.0,"pressure":981.1,"uv_index":6.15,"wind_gusts":23.0,"aqi":93,"pm10":60.5,"pm2_5":36.7,"mosquito_risk":0,"arthritis_risk":5,"migraine_risk":7,"frizz_risk":0,"updated_at":"2026-03-14T21:01:51.783762+05:30"},{"city":"Dehradun","state":"Uttarakhand","latitude":30.6284,"longitude":78.0322,"temp":13.0,"humidity":59,"rain":0.0,"pressure":829.5,"uv_index":4.2,"wind_gusts":21.6,"aqi":69,"pm10":30.2,"pm2_5":17.3,"mosquito_risk":0,"arthritis_risk":5,"migraine_risk":3,"frizz_risk":0,"updated_at":"2026-03-14T21:01:51.783768+05:30"},{"city":"Shimla","state":"Himachal Pradesh","latitude":31.1048,"longitude":77.1734,"temp":12.0,"humidity":56,"rain":0.0,"pressure":783.4,"uv_index":5.5,"wind_gusts":22.3,"aqi":67,"pm10":31.1,"pm2_5":22.3,"mosquito_risk":0,"arthritis_risk":5,"migraine_risk":3,"frizz_risk":0,"updated_at":"2026-03-14T21:01:51.783775+05:30"},{"city":"Manali","state":"Himachal Pradesh","latitude":32.2396,"longitude":77.1887,"temp":13.3,"humidity":42,"rain":0.0,"pressure":820.0,"uv_index":7.3,"wind_gusts":29.2,"aqi":63,"pm10":44.4,"pm2_5":14.5,"mosquito_risk":0,"arthritis_risk":5,"migraine_risk":7,"frizz_risk":0,"updated_at":"2026-03-14T21:01:51.783782+05:30"},{"city":"Gurgaon","state":"Haryana","latitude":28.4595,"longitude":77.0266,"temp":21.4,"humidity":63,"rain":0.0,"pressure":983.1,"uv_index":5.85,"wind_gusts":19.4,"aqi":778,"pm10":319.4,"pm2_5":96.2,"mosquito_risk":3,"arthritis_risk":5,"migraine_risk":3,"frizz_risk":0,"updated_at":"2026-03-14T21:01:51.783788+05:30"},{"city":"Noida","state":"Uttar Pradesh","latitude":28.5355,"longitude":77.391,"temp":24.1,"humidity":49,"rain":0.0,"pressure":986.5,"uv_index":5.75,"wind_gusts":23.8,"aqi":778,"pm10":319.4,"pm2_5":96.2,"mosquito_risk":0,"arthritis_risk":5,"migraine_risk":3,"frizz_risk":0,"updated_at":"2026-03-14T21:01:51.783797+05:30"},{"city":"Ghaziabad","state":"Uttar Pradesh","latitude":28.6692,"longitude":77.4538,"temp":23.1,"humidity":55,"rain":0.0,"pressure":984.6,"uv_index":5.95,"wind_gusts":23.8,"aqi":193,"pm10":243.1,"pm2_5":84.3,"mosquito_risk":0,"arthritis_risk":5,"migraine_risk":3,"frizz_risk":0,"updated_at":"2026-03-14T21:01:51.783804+05:30"},{"city":"Faridabad","state":"Haryana","latitude":28.4089,"longitude":77.3178,"temp":22.1,"humidity":55,"rain":0.0,"pressure":985.6,"uv_index":5.75,"wind_gusts":22.7,"aqi":778,"pm10":319.4,"pm2_5":96.2,"mosquito_risk":0,"arthritis_risk":5,"migraine_risk":3,"frizz_risk":0,"updated_at":"2026-03-14T21:01:51.783810+05:30"},{"city":"Meerut","state":"Uttar Pradesh","latitude":28.9845,"longitude":77.7064,"temp":21.5,"humidity":63,"rain":0.0,"pressure":983.2,"uv_index":5.8,"wind_gusts":27.4,"aqi":193,"pm10":243.1,"pm2_5":84.3,"mosquito_risk":3,"arthritis_risk":5,"migraine_risk":3,"frizz_risk":0,"updated_at":"2026-03-14T21:01:51.783816+05:30"},{"city":"Agra","state":"Uttar Pradesh","latitude":27.1767,"longitude":78.0081,"temp":21.8,"humidity":50,"rain":0.0,"pressure":989.7,"uv_index":6.35,"wind_gusts":15.5,"aqi":577,"pm10":181.6,"pm2_5":78.7,"mosquito_risk":0,"arthritis_risk":5,"migraine_risk":7,"frizz_risk":0,"updated_at":"2026-03-14T21:01:51.783823+05:30"},{"city":"Varanasi","state":"Uttar Pradesh","latitude":25.3176,"longitude":82.9739,"temp":26.9,"humidity":59,"rain":0.0,"pressure":999.1,"uv_index":6.85,"wind_gusts":27.7,"aqi":137,"pm10":116.2,"pm2_5":65.9,"mosquito_risk":4,"arthritis_risk":5,"migraine_risk":7,"frizz_risk":1,"updated_at":"2026-03-14T21:01:51.783832+05:30"},{"city":"Prayagraj","state":"Uttar Pradesh","latitude":25.4358,"longitude":81.8463,"temp":27.1,"humidity":58,"rain":0.0,"pressure":997.5,"uv_index":7.1,"wind_gusts":15.5,"aqi":151,"pm10":93.8,"pm2_5":48.3,"mosquito_risk":4,"arthritis_risk":5,"migraine_risk":7,"frizz_risk":1,"updated_at":"2026-03-14T21:01:51.783840+05:30"},{"city":"Gorakhpur","state":"Uttar Pradesh","latitude":26.7606,"longitude":83.3732,"temp":24.3,"humidity":59,"rain":0.0,"pressure":999.0,"uv_index":6.7,"wind_gusts":24.8,"aqi":134,"pm10":129.9,"pm2_5":73.1,"mosquito_risk":0,"arthritis_risk":5,"migraine_risk":7,"frizz_risk":0,"updated_at":"2026-03-14T21:01:51.783846+05:30"},{"city":"Bareilly","state":"Uttar Pradesh","latitude":28.367,"longitude":79.4304,"temp":22.3,"humidity":67,"rain":0.0,"pressure":988.7,"uv_index":6.4,"wind_gusts":19.4,"aqi":131,"pm10":88.5,"pm2_5":45.5,"mosquito_risk":3,"arthritis_risk":5,"migraine_risk":7,"frizz_risk":0,"updated_at":"2026-03-14T21:01:51.783855+05:30"},{"city":"Aligarh","state":"Uttar Pradesh","latitude":27.8974,"longitude":78.088,"temp":21.3,"humidity":45,"rain":0.0,"pressure":987.3,"uv_index":6.3,"wind_gusts":26.6,"aqi":504,"pm10":294.3,"pm2_5":94.5,"mosquito_risk":0,"arthritis_risk":5,"migraine_risk":7,"frizz_risk":0,"updated_at":"2026-03-14T21:01:51.783862+05:30"},{"city":"Moradabad","state":"Uttar Pradesh","latitude":28.8386,"longitude":78.7733,"temp":21.3,"humidity":60,"rain":0.0,"pressure":985.6,"uv_index":5.95,"wind_gusts":23.0,"aqi":139,"pm10":136.9,"pm2_5":68.5,"mosquito_risk":0,"arthritis_risk":5,"migraine_risk":3,"frizz_risk":0,"updated_at":"2026-03-14T21:01:51.783868+05:30"},{"city":"Saharanpur","state":"Uttar Pradesh","latitude":29.9637,"longitude":77.546,"temp":20.4,"humidity":53,"rain":0.0,"pressure":977.3,"uv_index":4.65,"wind_gusts":23.8,"aqi":125,"pm10":147.1,"pm2_5":66.8,"mosquito_risk":0,"arthritis_risk":5,"migraine_risk":3,"frizz_risk":0,"updated_at":"2026-03-14T21:01:51.783875+05:30"},{"city":"Jhansi","state":"Uttar Pradesh","latitude":25.4484,"longitude":78.5685,"temp":24.7,"humidity":62,"rain":0.0,"pressure":979.4,"uv_index":7.2,"wind_gusts":20.2,"aqi":150,"pm10":122.9,"pm2_5":41.9,"mosquito_risk":3,"arthritis_risk":5,"migraine_risk":7,"frizz_risk":1,"updated_at":"2026-03-14T21:01:54.995052+05:30"},{"city":"Surat","state":"Gujarat","latitude":21.1702,"longitude":72.8311,"temp":25.5,"humidity":74,"rain":0.0,"pressure":1009.0,"uv_index":7.35,"wind_gusts":23.4,"aqi":142,"pm10":78.0,"pm2_5":49.6,"mosquito_risk":7,"arthritis_risk":0,"migraine_risk":4,"frizz_risk":1,"updated_at":"2026-03-14T21:01:54.995086+05:30"},{"city":"Vadodara","state":"Gujarat","latitude":22.3072,"longitude":73.1812,"temp":28.1,"humidity":44,"rain":0.0,"pressure":1005.9,"uv_index":7.5,"wind_gusts":28.1,"aqi":98,"pm10":73.8,"pm2_5":45.4,"mosquito_risk":4,"arthritis_risk":5,"migraine_risk":4,"frizz_risk":0,"updated_at":"2026-03-14T21:01:54.995096+05:30"},{"city":"Rajkot","state":"Gujarat","latitude":22.3039,"longitude":70.8022,"temp":28.0,"humidity":49,"rain":0.0,"pressure":996.5,"uv_index":7.35,"wind_gusts":34.9,"aqi":96,"pm10":60.8,"pm2_5":23.6,"mosquito_risk":4,"arthritis_risk":5,"migraine_risk":7,"frizz_risk":1,"updated_at":"2026-03-14T21:01:54.995104+05:30"},{"city":"Thane","state":"Maharashtra","latitude":19.2183,"longitude":72.9781,"temp":26.8,"humidity":76,"rain":0.0,"pressure":1010.4,"uv_index":7.65,"wind_gusts":31.7,"aqi":140,"pm10":78.0,"pm2_5":39.0,"mosquito_risk":7,"arthritis_risk":0,"migraine_risk":4,"frizz_risk":1,"updated_at":"2026-03-14T21:01:54.995111+05:30"},{"city":"Nagpur","state":"Maharashtra","latitude":21.1458,"longitude":79.0882,"temp":26.9,"humidity":45,"rain":0.0,"pressure":974.3,"uv_index":8.1,"wind_gusts":19.8,"aqi":175,"pm10":48.7,"pm2_5":44.1,"mosquito_risk":4,"arthritis_risk":5,"migraine_risk":7,"frizz_risk":0,"updated_at":"2026-03-14T21:01:54.995118+05:30"},{"city":"Nashik","state":"Maharashtra","latitude":19.9975,"longitude":73.7898,"temp":24.5,"humidity":31,"rain":0.0,"pressure":947.9,"uv_index":7.9,"wind_gusts":39.2,"aqi":123,"pm10":26.0,"pm2_5":17.9,"mosquito_risk":0,"arthritis_risk":5,"migraine_risk":7,"frizz_risk":0,"updated_at":"2026-03-14T21:01:54.995125+05:30"},{"city":"Aurangabad","state":"Maharashtra","latitude":19.8762,"longitude":75.3433,"temp":28.4,"humidity":34,"rain":0.0,"pressure":945.8,"uv_index":8.4,"wind_gusts":32.8,"aqi":148,"pm10":31.8,"pm2_5":29.2,"mosquito_risk":4,"arthritis_risk":5,"migraine_risk":7,"frizz_risk":0,"updated_at":"2026-03-14T21:01:54.995132+05:30"},{"city":"Solapur","state":"Maharashtra","latitude":17.6599,"longitude":75.9064,"temp":28.7,"humidity":47,"rain":0.0,"pressure":958.4,"uv_index":8.6,"wind_gusts":18.7,"aqi":167,"pm10":45.2,"pm2_5":39.1,"mosquito_risk":4,"arthritis_risk":5,"migraine_risk":7,"frizz_risk":1,"updated_at":"2026-03-14T21:01:54.995139+05:30"},{"city":"Kolhapur","state":"Maharashtra","latitude":16.705,"longitude":74.2433,"temp":25.0,"humidity":75,"rain":0.0,"pressure":950.3,"uv_index":8.7,"wind_gusts":44.6,"aqi":169,"pm10":49.2,"pm2_5":46.4,"mosquito_risk":7,"arthritis_risk":5,"migraine_risk":7,"frizz_risk":1,"updated_at":"2026-03-14T21:01:54.995145+05:30"},{"city":"Goa","state":"Goa","latitude":15.2993,"longitude":74.124,"temp":28.4,"humidity":78,"rain":0.0,"pressure":1000.7,"uv_index":8.75,"wind_gusts":32.4,"aqi":135,"pm10":45.1,"pm2_5":40.6,"mosquito_risk":7,"arthritis_risk":5,"migraine_risk":4,"frizz_risk":1,"updated_at":"2026-03-14T21:01:54.995152+05:30"},{"city":"Jodhpur","state":"Rajasthan","latitude":26.2389,"longitude":73.0243,"temp":29.6,"humidity":30,"rain":0.0,"pressure":982.8,"uv_index":7.1,"wind_gusts":37.4,"aqi":90,"pm10":183.9,"pm2_5":41.1,"mosquito_risk":4,"arthritis_risk":5,"migraine_risk":7,"frizz_risk":0,"updated_at":"2026-03-14T21:01:54.995159+05:30"},{"city":"Udaipur","state":"Rajasthan","latitude":24.5854,"longitude":73.7125,"temp":26.0,"humidity":29,"rain":0.0,"pressure":948.0,"uv_index":7.85,"wind_gusts":37.1,"aqi":67,"pm10":34.5,"pm2_5":17.8,"mosquito_risk":4,"arthritis_risk":5,"migraine_risk":7,"frizz_risk":0,"updated_at":"2026-03-14T21:01:54.995166+05:30"},{"city":"Kota","state":"Rajasthan","latitude":25.2138,"longitude":75.8648,"temp":26.9,"humidity":45,"rain":0.0,"pressure":979.4,"uv_index":7.25,"wind_gusts":13.7,"aqi":89,"pm10":52.7,"pm2_5":35.5,"mosquito_risk":4,"arthritis_risk":5,"migraine_risk":7,"frizz_risk":0,"updated_at":"2026-03-14T21:01:54.995172+05:30"},{"city":"Bikaner","state":"Rajasthan","latitude":28.0229,"longitude":73.3119,"temp":28.0,"humidity":33,"rain":0.0,"pressure":982.4,"uv_index":6.7,"wind_gusts":21.6,"aqi":93,"pm10":77.8,"pm2_5":24.9,"mosquito_risk":4,"arthritis_risk":5,"migraine_risk":7,"frizz_risk":0,"updated_at":"2026-03-14T21:01:54.995179+05:30"},{"city":"Ajmer","state":"Rajasthan","latitude":26.4499,"longitude":74.6399,"temp":27.4,"humidity":30,"rain":0.0,"pressure":955.6,"uv_index":7.05,"wind_gusts":41.4,"aqi":77,"pm10":54.8,"pm2_5":27.1,"mosquito_risk":4,"arthritis_risk":5,"migraine_risk":7,"frizz_risk":0,"updated_at":"2026-03-14T21:01:54.995186+05:30"},{"city":"Gwalior","state":"Madhya Pradesh","latitude":26.2183,"longitude":78.1828,"temp":25.3,"humidity":57,"rain":0.0,"pressure":984.7,"uv_index":6.9,"wind_gusts":22.0,"aqi":265,"pm10":73.6,"pm2_5":29.9,"mosquito_risk":4,"arthritis_risk":5,"migraine_risk":7,"frizz_risk":1,"updated_at":"2026-03-14T21:01:54.995193+05:30"},{"city":"Indore","state":"Madhya Pradesh","latitude":22.7196,"longitude":75.8577,"temp":24.3,"humidity":36,"rain":0.0,"pressure":949.4,"uv_index":7.8,"wind_gusts":38.2,"aqi":133,"pm10":26.0,"pm2_5":22.5,"mosquito_risk":0,"arthritis_risk":5,"migraine_risk":7,"frizz_risk":0,"updated_at":"2026-03-14T21:01:54.995199+05:30"},{"city":"Bhopal","state":"Madhya Pradesh","latitude":23.2599,"longitude":77.4126,"temp":25.2,"humidity":35,"rain":0.0,"pressure":954.9,"uv_index":7.65,"wind_gusts":35.3,"aqi":131,"pm10":31.7,"pm2_5":28.9,"mosquito_risk":4,"arthritis_risk":5,"migraine_risk":7,"frizz_risk":0,"updated_at":"2026-03-14T21:01:54.995206+05:30"},{"city":"Jabalpur","state":"Madhya Pradesh","latitude":23.1815,"longitude":79.9864,"temp":27.3,"humidity":37,"rain":0.0,"pressure":962.8,"uv_index":7.8,"wind_gusts":27.0,"aqi":119,"pm10":21.2,"pm2_5":19.7,"mosquito_risk":4,"arthritis_risk":5,"migraine_risk":7,"frizz_risk":0,"updated_at":"2026-03-14T21:01:54.995212+05:30"},{"city":"Ujjain","state":"Madhya Pradesh","latitude":23.1765,"longitude":75.7885,"temp":23.8,"humidity":39,"rain":0.0,"pressure":955.0,"uv_index":7.7,"wind_gusts":41.8,"aqi":107,"pm10":26.4,"pm2_5":21.6,"mosquito_risk":0,"arthritis_risk":5,"migraine_risk":7,"frizz_risk":0,"updated_at":"2026-03-14T21:01:54.995219+05:30"},{"city":"Visakhapatnam","state":"Andhra Pradesh","latitude":17.6868,"longitude":83.2185,"temp":26.1,"humidity":82,"rain":0.0,"pressure":1008.2,"uv_index":8.65,"wind_gusts":41.0,"aqi":58,"pm10":16.2,"pm2_5":12.7,"mosquito_risk":7,"arthritis_risk":0,"migraine_risk":4,"frizz_risk":1,"updated_at":"2026-03-14T21:01:54.995226+05:30"},{"city":"Vijayawada","state":"Andhra Pradesh","latitude":16.5062,"longitude":80.648,"temp":26.0,"humidity":80,"rain":0.0,"pressure":1006.4,"uv_index":8.75,"wind_gusts":31.3,"aqi":58,"pm10":16.8,"pm2_5":14.4,"mosquito_risk":7,"arthritis_risk":5,"migraine_risk":4,"frizz_risk":1,"updated_at":"2026-03-14T21:01:54.995232+05:30"},{"city":"Guntur","state":"Andhra Pradesh","latitude":16.3067,"longitude":80.4365,"temp":25.5,"humidity":85,"rain":0.0,"pressure":1007.5,"uv_index":8.75,"wind_gusts":33.8,"aqi":56,"pm10":15.7,"pm2_5":13.0,"mosquito_risk":7,"arthritis_risk":5,"migraine_risk":4,"frizz_risk":1,"updated_at":"2026-03-14T21:01:54.995239+05:30"},{"city":"Nellore","state":"Andhra Pradesh","latitude":14.4426,"longitude":79.9865,"temp":25.7,"humidity":85,"rain":0.0,"pressure":1009.4,"uv_index":8.9,"wind_gusts":33.1,"aqi":67,"pm10":11.4,"pm2_5":9.3,"mosquito_risk":7,"arthritis_risk":0,"migraine_risk":4,"frizz_risk":1,"updated_at":"2026-03-14T21:01:54.995246+05:30"},{"city":"Kurnool","state":"Andhra Pradesh","latitude":15.8281,"longitude":78.0373,"temp":31.0,"humidity":32,"rain":0.0,"pressure":978.5,"uv_index":8.75,"wind_gusts":23.4,"aqi":135,"pm10":46.9,"pm2_5":37.4,"mosquito_risk":0,"arthritis_risk":5,"migraine_risk":7,"frizz_risk":0,"updated_at":"2026-03-14T21:01:54.995252+05:30"},{"city":"Kakinada","state":"Andhra Pradesh","latitude":16.9891,"longitude":82.2475,"temp":24.7,"humidity":87,"rain":0.0,"pressure":1011.8,"uv_index":8.7,"wind_gusts":34.6,"aqi":51,"pm10":12.5,"pm2_5":8.9,"mosquito_risk":3,"arthritis_risk":0,"migraine_risk":4,"frizz_risk":1,"updated_at":"2026-03-14T21:01:54.995259+05:30"},{"city":"Tirupati","state":"Andhra Pradesh","latitude":13.6288,"longitude":79.4192,"temp":26.6,"humidity":64,"rain":0.0,"pressure":995.4,"uv_index":9.0,"wind_gusts":32.4,"aqi":77,"pm10":17.2,"pm2_5":16.0,"mosquito_risk":7,"arthritis_risk":5,"migraine_risk":7,"frizz_risk":1,"updated_at":"2026-03-14T21:01:54.995265+05:30"},{"city":"Warangal","state":"Telangana","latitude":17.9689,"longitude":79.5941,"temp":27.4,"humidity":63,"rain":0.0,"pressure":981.0,"uv_index":8.5,"wind_gusts":27.7,"aqi":97,"pm10":37.7,"pm2_5":32.9,"mosquito_risk":7,"arthritis_risk":5,"migraine_risk":7,"frizz_risk":1,"updated_at":"2026-03-14T21:01:54.995271+05:30"},{"city":"Nizamabad","state":"Telangana","latitude":18.6725,"longitude":78.0941,"temp":27.3,"humidity":53,"rain":0.0,"pressure":966.5,"uv_index":8.4,"wind_gusts":30.2,"aqi":142,"pm10":74.3,"pm2_5":62.6,"mosquito_risk":4,"arthritis_risk":5,"migraine_risk":7,"frizz_risk":1,"updated_at":"2026-03-14T21:01:54.995278+05:30"},{"city":"Mysore","state":"Karnataka","latitude":12.2958,"longitude":76.6396,"temp":25.9,"humidity":48,"rain":0.0,"pressure":930.5,"uv_index":9.3,"wind_gusts":32.8,"aqi":141,"pm10":35.3,"pm2_5":31.5,"mosquito_risk":4,"arthritis_risk":5,"migraine_risk":7,"frizz_risk":0,"updated_at":"2026-03-14T21:01:54.995284+05:30"},{"city":"Mangalore","state":"Karnataka","latitude":12.9141,"longitude":74.856,"temp":28.7,"humidity":80,"rain":0.0,"pressure":1009.7,"uv_index":8.95,"wind_gusts":24.8,"aqi":99,"pm10":28.5,"pm2_5":23.5,"mosquito_risk":7,"arthritis_risk":0,"migraine_risk":4,"frizz_risk":1,"updated_at":"2026-03-14T21:01:54.995290+05:30"},{"city":"Hubli-Dharwad","state":"Karnataka","latitude":15.3647,"longitude":75.124,"temp":25.1,"humidity":81,"rain":0.0,"pressure":943.4,"uv_index":8.9,"wind_gusts":46.4,"aqi":154,"pm10":43.2,"pm2_5":40.2,"mosquito_risk":7,"arthritis_risk":5,"migraine_risk":7,"frizz_risk":1,"updated_at":"2026-03-14T21:01:54.995296+05:30"},{"city":"Belgaum","state":"Karnataka","latitude":15.8497,"longitude":74.4977,"temp":23.8,"humidity":88,"rain":0.0,"pressure":928.1,"uv_index":8.95,"wind_gusts":44.3,"aqi":168,"pm10":51.7,"pm2_5":49.8,"mosquito_risk":3,"arthritis_risk":5,"migraine_risk":7,"frizz_risk":1,"updated_at":"2026-03-14T21:01:58.207255+05:30"},{"city":"Coimbatore","state":"Tamil Nadu","latitude":11.0168,"longitude":76.9558,"temp":25.3,"humidity":79,"rain":0.0,"pressure":964.7,"uv_index":9.3,"wind_gusts":37.1,"aqi":97,"pm10":27.3,"pm2_5":24.4,"mosquito_risk":7,"arthritis_risk":5,"migraine_risk":7,"frizz_risk":1,"updated_at":"2026-03-14T21:01:58.207297+05:30"},{"city":"Madurai","state":"Tamil Nadu","latitude":9.9252,"longitude":78.1198,"temp":28.3,"humidity":58,"rain":0.0,"pressure":996.5,"uv_index":9.25,"wind_gusts":28.8,"aqi":59,"pm10":11.9,"pm2_5":11.0,"mosquito_risk":4,"arthritis_risk":5,"migraine_risk":7,"frizz_risk":1,"updated_at":"2026-03-14T21:01:58.207309+05:30"},{"city":"Trichy","state":"Tamil Nadu","latitude":10.7905,"longitude":78.7047,"temp":27.7,"humidity":66,"rain":0.0,"pressure":1003.2,"uv_index":9.2,"wind_gusts":27.0,"aqi":64,"pm10":17.2,"pm2_5":16.3,"mosquito_risk":7,"arthritis_risk":5,"migraine_risk":4,"frizz_risk":1,"updated_at":"2026-03-14T21:01:58.207319+05:30"},{"city":"Salem","state":"Tamil Nadu","latitude":11.6643,"longitude":78.146,"temp":27.0,"humidity":52,"rain":0.0,"pressure":979.9,"uv_index":9.2,"wind_gusts":23.8,"aqi":92,"pm10":22.0,"pm2_5":20.3,"mosquito_risk":4,"arthritis_risk":5,"migraine_risk":7,"frizz_risk":1,"updated_at":"2026-03-14T21:01:58.207329+05:30"},{"city":"Tirunelveli","state":"Tamil Nadu","latitude":8.7139,"longitude":77.7567,"temp":27.2,"humidity":77,"rain":0.0,"pressure":1006.6,"uv_index":9.25,"wind_gusts":36.4,"aqi":52,"pm10":10.3,"pm2_5":9.9,"mosquito_risk":7,"arthritis_risk":5,"migraine_risk":4,"frizz_risk":1,"updated_at":"2026-03-14T21:01:58.207339+05:30"},{"city":"Vellore","state":"Tamil Nadu","latitude":12.9165,"longitude":79.1325,"temp":26.2,"humidity":63,"rain":0.0,"pressure":988.2,"uv_index":9.1,"wind_gusts":32.8,"aqi":95,"pm10":25.6,"pm2_5":24.2,"mosquito_risk":7,"arthritis_risk":5,"migraine_risk":7,"frizz_risk":1,"updated_at":"2026-03-14T21:01:58.207349+05:30"},{"city":"Erode","state":"Tamil Nadu","latitude":11.341,"longitude":77.7172,"temp":29.1,"humidity":44,"rain":0.0,"pressure":991.5,"uv_index":9.2,"wind_gusts":24.8,"aqi":61,"pm10":16.8,"pm2_5":15.4,"mosquito_risk":4,"arthritis_risk":5,"migraine_risk":7,"frizz_risk":0,"updated_at":"2026-03-14T21:01:58.207359+05:30"},{"city":"Kochi","state":"Kerala","latitude":9.9312,"longitude":76.2673,"temp":28.3,"humidity":80,"rain":0.0,"pressure":1011.8,"uv_index":9.1,"wind_gusts":31.3,"aqi":104,"pm10":30.5,"pm2_5":28.4,"mosquito_risk":7,"arthritis_risk":0,"migraine_risk":4,"frizz_risk":1,"updated_at":"2026-03-14T21:01:58.207369+05:30"},{"city":"Thiruvananthapuram","state":"Kerala","latitude":8.5241,"longitude":76.9366,"temp":28.1,"humidity":78,"rain":0.0,"pressure":1011.0,"uv_index":9.1,"wind_gusts":26.3,"aqi":72,"pm10":12.2,"pm2_5":8.9,"mosquito_risk":7,"arthritis_risk":0,"migraine_risk":4,"frizz_risk":1,"updated_at":"2026-03-14T21:01:58.207394+05:30"},{"city":"Kozhikode","state":"Kerala","latitude":11.2588,"longitude":75.7804,"temp":28.0,"humidity":82,"rain":0.0,"pressure":1011.2,"uv_index":9.0,"wind_gusts":24.8,"aqi":73,"pm10":22.9,"pm2_5":19.6,"mosquito_risk":7,"arthritis_risk":0,"migraine_risk":4,"frizz_risk":1,"updated_at":"2026-03-14T21:01:58.207401+05:30"},{"city":"Thrissur","state":"Kerala","latitude":10.5276,"longitude":76.2144,"temp":27.5,"humidity":84,"rain":0.0,"pressure":1010.2,"uv_index":9.05,"wind_gusts":36.0,"aqi":103,"pm10":18.7,"pm2_5":17.3,"mosquito_risk":7,"arthritis_risk":0,"migraine_risk":4,"frizz_risk":1,"updated_at":"2026-03-14T21:01:58.207408+05:30"},{"city":"Kannur","state":"Kerala","latitude":11.8745,"longitude":75.3704,"temp":28.1,"humidity":82,"rain":0.0,"pressure":1010.2,"uv_index":8.95,"wind_gusts":29.2,"aqi":92,"pm10":24.6,"pm2_5":21.0,"mosquito_risk":7,"arthritis_risk":0,"migraine_risk":4,"frizz_risk":1,"updated_at":"2026-03-14T21:01:58.207415+05:30"},{"city":"Patna","state":"Bihar","latitude":25.5941,"longitude":85.1376,"temp":27.9,"humidity":61,"rain":0.0,"pressure":1002.3,"uv_index":7.5,"wind_gusts":20.2,"aqi":137,"pm10":117.1,"pm2_5":72.4,"mosquito_risk":7,"arthritis_risk":5,"migraine_risk":4,"frizz_risk":1,"updated_at":"2026-03-14T21:01:58.207423+05:30"},{"city":"Gaya","state":"Bihar","latitude":24.7914,"longitude":85.0002,"temp":27.2,"humidity":52,"rain":0.0,"pressure":995.6,"uv_index":7.55,"wind_gusts":21.2,"aqi":123,"pm10":101.0,"pm2_5":54.9,"mosquito_risk":4,"arthritis_risk":5,"migraine_risk":7,"frizz_risk":1,"updated_at":"2026-03-14T21:01:58.207429+05:30"},{"city":"Muzaffarpur","state":"Bihar","latitude":26.1209,"longitude":85.3647,"temp":26.5,"humidity":58,"rain":0.0,"pressure":1002.2,"uv_index":7.45,"wind_gusts":24.5,"aqi":159,"pm10":123.4,"pm2_5":75.2,"mosquito_risk":4,"arthritis_risk":5,"migraine_risk":4,"frizz_risk":1,"updated_at":"2026-03-14T21:01:58.207435+05:30"},{"city":"Bhagalpur","state":"Bihar","latitude":25.2425,"longitude":87.0117,"temp":26.5,"humidity":61,"rain":0.0,"pressure":1003.3,"uv_index":7.5,"wind_gusts":20.5,"aqi":156,"pm10":139.2,"pm2_5":71.0,"mosquito_risk":7,"arthritis_risk":5,"migraine_risk":4,"frizz_risk":1,"updated_at":"2026-03-14T21:01:58.207442+05:30"},{"city":"Ranchi","state":"Jharkhand","latitude":23.3441,"longitude":85.3096,"temp":25.7,"humidity":30,"rain":0.0,"pressure":940.0,"uv_index":8.2,"wind_gusts":24.5,"aqi":113,"pm10":31.5,"pm2_5":23.3,"mosquito_risk":4,"arthritis_risk":5,"migraine_risk":7,"frizz_risk":0,"updated_at":"2026-03-14T21:01:58.207449+05:30"},{"city":"Jamshedpur","state":"Jharkhand","latitude":22.8046,"longitude":86.2029,"temp":28.6,"humidity":57,"rain":0.0,"pressure":993.0,"uv_index":8.1,"wind_gusts":29.2,"aqi":163,"pm10":52.4,"pm2_5":42.4,"mosquito_risk":4,"arthritis_risk":5,"migraine_risk":7,"frizz_risk":1,"updated_at":"2026-03-14T21:01:58.207455+05:30"},{"city":"Dhanbad","state":"Jharkhand","latitude":23.7957,"longitude":86.4304,"temp":28.9,"humidity":45,"rain":0.0,"pressure":982.2,"uv_index":7.95,"wind_gusts":19.8,"aqi":157,"pm10":93.4,"pm2_5":73.3,"mosquito_risk":4,"arthritis_risk":5,"migraine_risk":7,"frizz_risk":0,"updated_at":"2026-03-14T21:01:58.207462+05:30"},{"city":"Bokaro","state":"Jharkhand","latitude":23.6693,"longitude":86.1511,"temp":28.3,"humidity":35,"rain":0.0,"pressure":986.2,"uv_index":8.0,"wind_gusts":20.2,"aqi":152,"pm10":73.3,"pm2_5":56.1,"mosquito_risk":4,"arthritis_risk":5,"migraine_risk":7,"frizz_risk":0,"updated_at":"2026-03-14T21:01:58.207491+05:30"},{"city":"Bhubaneswar","state":"Odisha","latitude":20.2961,"longitude":85.8245,"temp":25.3,"humidity":85,"rain":0.0,"pressure":1006.4,"uv_index":8.4,"wind_gusts":38.9,"aqi":61,"pm10":14.1,"pm2_5":11.4,"mosquito_risk":7,"arthritis_risk":5,"migraine_risk":4,"frizz_risk":1,"updated_at":"2026-03-14T21:01:58.207694+05:30"},{"city":"Cuttack","state":"Odisha","latitude":20.4625,"longitude":85.8828,"temp":25.5,"humidity":85,"rain":0.0,"pressure":1008.3,"uv_index":8.45,"wind_gusts":34.2,"aqi":61,"pm10":14.1,"pm2_5":11.4,"mosquito_risk":7,"arthritis_risk":0,"migraine_risk":4,"frizz_risk":1,"updated_at":"2026-03-14T21:01:58.207701+05:30"},{"city":"Rourkela","state":"Odisha","latitude":22.2604,"longitude":84.8536,"temp":29.8,"humidity":49,"rain":0.0,"pressure":986.5,"uv_index":8.05,"wind_gusts":25.2,"aqi":172,"pm10":44.0,"pm2_5":41.7,"mosquito_risk":4,"arthritis_risk":5,"migraine_risk":7,"frizz_risk":1,"updated_at":"2026-03-14T21:01:58.207708+05:30"},{"city":"Raipur","state":"Chhattisgarh","latitude":21.2514,"longitude":81.6296,"temp":28.9,"humidity":43,"rain":0.0,"pressure":976.1,"uv_index":8.15,"wind_gusts":34.2,"aqi":157,"pm10":71.7,"pm2_5":67.1,"mosquito_risk":4,"arthritis_risk":5,"migraine_risk":7,"frizz_risk":0,"updated_at":"2026-03-14T21:01:58.207714+05:30"},{"city":"Bhilai","state":"Chhattisgarh","latitude":21.1938,"longitude":81.3509,"temp":27.8,"humidity":47,"rain":0.0,"pressure":976.4,"uv_index":8.15,"wind_gusts":27.7,"aqi":147,"pm10":71.7,"pm2_5":66.6,"mosquito_risk":4,"arthritis_risk":5,"migraine_risk":7,"frizz_risk":0,"updated_at":"2026-03-14T21:01:58.207720+05:30"},{"city":"Guwahati","state":"Assam","latitude":26.1158,"longitude":91.7086,"temp":22.2,"humidity":89,"rain":0.0,"pressure":1005.4,"uv_index":7.35,"wind_gusts":32.0,"aqi":67,"pm10":23.5,"pm2_5":19.6,"mosquito_risk":3,"arthritis_risk":5,"migraine_risk":4,"frizz_risk":1,"updated_at":"2026-03-14T21:01:58.207726+05:30"},{"city":"Agartala","state":"Tripura","latitude":23.8315,"longitude":91.2868,"temp":21.2,"humidity":91,"rain":0.0,"pressure":1011.8,"uv_index":7.8,"wind_gusts":48.6,"aqi":79,"pm10":24.9,"pm2_5":20.0,"mosquito_risk":3,"arthritis_risk":0,"migraine_risk":4,"frizz_risk":1,"updated_at":"2026-03-14T21:01:58.207733+05:30"},{"city":"Shillong","state":"Meghalaya","latitude":25.5788,"longitude":91.8933,"temp":13.2,"humidity":92,"rain":0.0,"pressure":858.1,"uv_index":7.85,"wind_gusts":73.8,"aqi":57,"pm10":27.8,"pm2_5":23.1,"mosquito_risk":3,"arthritis_risk":10,"migraine_risk":7,"frizz_risk":0,"updated_at":"2026-03-14T21:01:58.207740+05:30"},{"city":"Imphal","state":"Manipur","latitude":24.817,"longitude":93.9368,"temp":16.7,"humidity":87,"rain":0.0,"pressure":927.6,"uv_index":7.1,"wind_gusts":82.8,"aqi":139,"pm10":61.2,"pm2_5":52.4,"mosquito_risk":3,"arthritis_risk":10,"migraine_risk":7,"frizz_risk":0,"updated_at":"2026-03-14T21:01:58.207747+05:30"},{"city":"Aizawl","state":"Mizoram","latitude":23.7271,"longitude":92.7176,"temp":17.4,"humidity":84,"rain":0.0,"pressure":897.3,"uv_index":8.0,"wind_gusts":63.4,"aqi":108,"pm10":37.8,"pm2_5":28.6,"mosquito_risk":3,"arthritis_risk":10,"migraine_risk":7,"frizz_risk":0,"updated_at":"2026-03-14T21:01:58.207754+05:30"},{"city":"Kohima","state":"Nagaland","latitude":25.6701,"longitude":94.1077,"temp":14.4,"humidity":76,"rain":0.0,"pressure":857.1,"uv_index":6.9,"wind_gusts":100.8,"aqi":101,"pm10":35.6,"pm2_5":28.1,"mosquito_risk":3,"arthritis_risk":5,"migraine_risk":7,"frizz_risk":0,"updated_at":"2026-03-14T21:01:58.207760+05:30"},{"city":"Gangtok","state":"Sikkim","latitude":27.3314,"longitude":88.6138,"temp":13.6,"humidity":88,"rain":0.0,"pressure":838.1,"uv_index":7.55,"wind_gusts":20.2,"aqi":79,"pm10":23.0,"pm2_5":17.1,"mosquito_risk":3,"arthritis_risk":10,"migraine_risk":7,"frizz_risk":0,"updated_at":"2026-03-14T21:01:58.207794+05:30"},{"city":"Siliguri","state":"West Bengal","latitude":26.7271,"longitude":88.3953,"temp":21.3,"humidity":72,"rain":0.0,"pressure":996.4,"uv_index":7.4,"wind_gusts":31.7,"aqi":139,"pm10":66.8,"pm2_5":50.5,"mosquito_risk":3,"arthritis_risk":5,"migraine_risk":7,"frizz_risk":1,"updated_at":"2026-03-14T21:02:01.418835+05:30"},{"city":"Durgapur","state":"West Bengal","latitude":23.5204,"longitude":87.3119,"temp":27.1,"humidity":75,"rain":0.0,"pressure":997.7,"uv_index":7.95,"wind_gusts":23.4,"aqi":154,"pm10":51.1,"pm2_5":45.1,"mosquito_risk":7,"arthritis_risk":5,"migraine_risk":7,"frizz_risk":1,"updated_at":"2026-03-14T21:02:01.418870+05:30"},{"city":"Asansol","state":"West Bengal","latitude":23.6739,"longitude":86.9524,"temp":28.0,"humidity":68,"rain":0.0,"pressure":996.1,"uv_index":7.95,"wind_gusts":21.2,"aqi":149,"pm10":67.5,"pm2_5":53.0,"mosquito_risk":7,"arthritis_risk":5,"migraine_risk":7,"frizz_risk":1,"updated_at":"2026-03-14T21:02:01.418880+05:30"},{"city":"Pondicherry","state":"Puducherry","latitude":11.9139,"longitude":79.8145,"temp":25.5,"humidity":92,"rain":0.0,"pressure":1012.4,"uv_index":9.05,"wind_gusts":29.9,"aqi":50,"pm10":12.6,"pm2_5":9.6,"mosquito_risk":7,"arthritis_risk":0,"migraine_risk":4,"frizz_risk":1,"updated_at":"2026-03-14T21:02:01.418888+05:30"},{"city":"Port Blair","state":"Andaman and Nicobar Islands","latitude":11.6234,"longitude":92.7265,"temp":27.3,"humidity":82,"rain":0.0,"pressure":1011.7,"uv_index":8.95,"wind_gusts":23.0,"aqi":74,"pm10":13.9,"pm2_5":10.5,"mosquito_risk":7,"arthritis_risk":0,"migraine_risk":4,"frizz_risk":1,"updated_at":"2026-03-14T21:02:01.418895+05:30"},{"city":"Haridwar","state":"Uttarakhand","latitude":29.9457,"longitude":78.1642,"temp":23.5,"humidity":61,"rain":0.0,"pressure":976.2,"uv_index":5.0,"wind_gusts":21.2,"aqi":100,"pm10":56.6,"pm2_5":39.3,"mosquito_risk":3,"arthritis_risk":5,"migraine_risk":3,"frizz_risk":0,"updated_at":"2026-03-14T21:02:01.418902+05:30"},{"city":"Rishikesh","state":"Uttarakhand","latitude":30.0869,"longitude":78.2676,"temp":20.3,"humidity":73,"rain":0.0,"pressure":968.8,"uv_index":4.55,"wind_gusts":20.9,"aqi":94,"pm10":29.7,"pm2_5":19.8,"mosquito_risk":3,"arthritis_risk":5,"migraine_risk":3,"frizz_risk":0,"updated_at":"2026-03-14T21:02:01.418909+05:30"},{"city":"Nainital","state":"Uttarakhand","latitude":29.3919,"longitude":79.4542,"temp":16.7,"humidity":66,"rain":0.0,"pressure":806.8,"uv_index":6.15,"wind_gusts":34.9,"aqi":112,"pm10":48.0,"pm2_5":38.4,"mosquito_risk":3,"arthritis_risk":5,"migraine_risk":7,"frizz_risk":0,"updated_at":"2026-03-14T21:02:01.418917+05:30"},{"city":"Mussoorie","state":"Uttarakhand","latitude":30.4599,"longitude":78.0664,"temp":14.6,"humidity":68,"rain":0.0,"pressure":802.6,"uv_index":4.9,"wind_gusts":25.2,"aqi":92,"pm10":44.7,"pm2_5":31.5,"mosquito_risk":3,"arthritis_risk":5,"migraine_risk":3,"frizz_risk":0,"updated_at":"2026-03-14T21:02:01.418925+05:30"},{"city":"Dharamshala","state":"Himachal Pradesh","latitude":32.219,"longitude":76.3234,"temp":19.1,"humidity":28,"rain":0.0,"pressure":869.2,"uv_index":5.45,"wind_gusts":17.6,"aqi":67,"pm10":37.7,"pm2_5":19.4,"mosquito_risk":0,"arthritis_risk":5,"migraine_risk":3,"frizz_risk":0,"updated_at":"2026-03-14T21:02:01.418932+05:30"},{"city":"Dalhousie","state":"Himachal Pradesh","latitude":32.5387,"longitude":75.971,"temp":15.1,"humidity":47,"rain":0.0,"pressure":803.0,"uv_index":6.05,"wind_gusts":18.7,"aqi":68,"pm10":47.4,"pm2_5":32.0,"mosquito_risk":0,"arthritis_risk":5,"migraine_risk":7,"frizz_risk":0,"updated_at":"2026-03-14T21:02:01.418940+05:30"},{"city":"Patiala","state":"Punjab","latitude":30.3398,"longitude":76.3869,"temp":20.8,"humidity":54,"rain":0.0,"pressure":979.6,"uv_index":5.45,"wind_gusts":27.0,"aqi":174,"pm10":150.9,"pm2_5":64.5,"mosquito_risk":0,"arthritis_risk":5,"migraine_risk":3,"frizz_risk":0,"updated_at":"2026-03-14T21:02:01.418946+05:30"},{"city":"Bhatinda","state":"Punjab","latitude":30.211,"longitude":74.9455,"temp":21.7,"humidity":61,"rain":0.0,"pressure":984.8,"uv_index":6.15,"wind_gusts":22.0,"aqi":95,"pm10":48.5,"pm2_5":45.9,"mosquito_risk":3,"arthritis_risk":5,"migraine_risk":7,"frizz_risk":0,"updated_at":"2026-03-14T21:02:01.418953+05:30"},{"city":"Rohtak","state":"Haryana","latitude":28.8955,"longitude":76.6066,"temp":23.8,"humidity":52,"rain":0.0,"pressure":983.4,"uv_index":5.9,"wind_gusts":22.0,"aqi":317,"pm10":194.2,"pm2_5":63.8,"mosquito_risk":0,"arthritis_risk":5,"migraine_risk":3,"frizz_risk":0,"updated_at":"2026-03-14T21:02:01.418960+05:30"},{"city":"Panipat","state":"Haryana","latitude":29.3909,"longitude":76.9635,"temp":21.7,"humidity":64,"rain":0.0,"pressure":982.0,"uv_index":5.6,"wind_gusts":23.0,"aqi":694,"pm10":353.0,"pm2_5":88.2,"mosquito_risk":3,"arthritis_risk":5,"migraine_risk":3,"frizz_risk":0,"updated_at":"2026-03-14T21:02:01.418966+05:30"},{"city":"Mathura","state":"Uttar Pradesh","latitude":27.4924,"longitude":77.6737,"temp":21.8,"humidity":49,"rain":0.0,"pressure":988.6,"uv_index":5.95,"wind_gusts":29.2,"aqi":496,"pm10":167.2,"pm2_5":62.9,"mosquito_risk":0,"arthritis_risk":5,"migraine_risk":3,"frizz_risk":0,"updated_at":"2026-03-14T21:02:01.418972+05:30"},{"city":"Vrindavan","state":"Uttar Pradesh","latitude":27.5823,"longitude":77.7027,"temp":21.3,"humidity":50,"rain":0.0,"pressure":989.2,"uv_index":5.9,"wind_gusts":35.3,"aqi":496,"pm10":167.2,"pm2_5":62.9,"mosquito_risk":0,"arthritis_risk":5,"migraine_risk":3,"frizz_risk":0,"updated_at":"2026-03-14T21:02:01.418979+05:30"},{"city":"Ayodhya","state":"Uttar Pradesh","latitude":26.7922,"longitude":82.1998,"temp":24.0,"humidity":63,"rain":0.0,"pressure":997.1,"uv_index":6.85,"wind_gusts":21.6,"aqi":153,"pm10":77.5,"pm2_5":51.0,"mosquito_risk":3,"arthritis_risk":5,"migraine_risk":7,"frizz_risk":1,"updated_at":"2026-03-14T21:02:01.418986+05:30"},{"city":"Ratlam","state":"Madhya Pradesh","latitude":23.3315,"longitude":75.0367,"temp":26.4,"humidity":38,"rain":0.0,"pressure":956.0,"uv_index":7.65,"wind_gusts":39.6,"aqi":110,"pm10":24.5,"pm2_5":18.2,"mosquito_risk":4,"arthritis_risk":5,"migraine_risk":7,"frizz_risk":0,"updated_at":"2026-03-14T21:02:01.418992+05:30"},{"city":"Sagar","state":"Madhya Pradesh","latitude":23.8388,"longitude":78.7378,"temp":26.4,"humidity":39,"rain":0.0,"pressure":951.2,"uv_index":7.6,"wind_gusts":34.2,"aqi":128,"pm10":19.7,"pm2_5":17.5,"mosquito_risk":4,"arthritis_risk":5,"migraine_risk":7,"frizz_risk":0,"updated_at":"2026-03-14T21:02:01.418998+05:30"},{"city":"Satna","state":"Madhya Pradesh","latitude":24.6005,"longitude":80.8322,"temp":27.6,"humidity":36,"rain":0.0,"pressure":972.4,"uv_index":7.6,"wind_gusts":26.3,"aqi":110,"pm10":61.2,"pm2_5":27.1,"mosquito_risk":4,"arthritis_risk":5,"migraine_risk":7,"frizz_risk":0,"updated_at":"2026-03-14T21:02:01.419004+05:30"},{"city":"Akola","state":"Maharashtra","latitude":20.7002,"longitude":77.0082,"temp":28.4,"humidity":37,"rain":0.0,"pressure":976.2,"uv_index":8.1,"wind_gusts":17.3,"aqi":152,"pm10":32.7,"pm2_5":29.7,"mosquito_risk":4,"arthritis_risk":5,"migraine_risk":7,"frizz_risk":0,"updated_at":"2026-03-14T21:02:01.419011+05:30"},{"city":"Amravati","state":"Maharashtra","latitude":20.9374,"longitude":77.7796,"temp":27.2,"humidity":37,"rain":0.0,"pressure":968.2,"uv_index":8.05,"wind_gusts":22.3,"aqi":154,"pm10":34.9,"pm2_5":32.4,"mosquito_risk":4,"arthritis_risk":5,"migraine_risk":7,"frizz_risk":0,"updated_at":"2026-03-14T21:02:01.419018+05:30"},{"city":"Latur","state":"Maharashtra","latitude":18.4088,"longitude":76.5604,"temp":28.4,"humidity":43,"rain":0.0,"pressure":941.5,"uv_index":8.5,"wind_gusts":26.6,"aqi":155,"pm10":56.1,"pm2_5":48.5,"mosquito_risk":4,"arthritis_risk":5,"migraine_risk":7,"frizz_risk":0,"updated_at":"2026-03-14T21:02:01.419024+05:30"},{"city":"Nanded","state":"Maharashtra","latitude":19.1383,"longitude":77.3091,"temp":29.5,"humidity":42,"rain":0.0,"pressure":969.8,"uv_index":8.3,"wind_gusts":31.0,"aqi":171,"pm10":67.8,"pm2_5":58.7,"mosquito_risk":4,"arthritis_risk":5,"migraine_risk":7,"frizz_risk":0,"updated_at":"2026-03-14T21:02:01.419030+05:30"},{"city":"Gulbarga","state":"Karnataka","latitude":17.3297,"longitude":76.8343,"temp":30.9,"humidity":39,"rain":0.0,"pressure":960.4,"uv_index":8.6,"wind_gusts":38.9,"aqi":165,"pm10":49.9,"pm2_5":41.3,"mosquito_risk":0,"arthritis_risk":5,"migraine_risk":7,"frizz_risk":0,"updated_at":"2026-03-14T21:02:01.419036+05:30"},{"city":"Bidar","state":"Karnataka","latitude":17.9104,"longitude":77.5199,"temp":27.8,"humidity":46,"rain":0.0,"pressure":937.5,"uv_index":8.55,"wind_gusts":37.1,"aqi":145,"pm10":71.7,"pm2_5":57.9,"mosquito_risk":4,"arthritis_risk":5,"migraine_risk":7,"frizz_risk":0,"updated_at":"2026-03-14T21:02:01.419042+05:30"},{"city":"Hospet","state":"Karnataka","latitude":15.2689,"longitude":76.3909,"temp":30.4,"humidity":51,"rain":0.0,"pressure":957.4,"uv_index":8.85,"wind_gusts":28.1,"aqi":179,"pm10":49.6,"pm2_5":42.7,"mosquito_risk":0,"arthritis_risk":5,"migraine_risk":7,"frizz_risk":1,"updated_at":"2026-03-14T21:02:01.419048+05:30"},{"city":"Tirupur","state":"Tamil Nadu","latitude":11.1085,"longitude":77.3411,"temp":29.2,"humidity":36,"rain":0.0,"pressure":977.8,"uv_index":9.3,"wind_gusts":30.2,"aqi":78,"pm10":22.8,"pm2_5":20.8,"mosquito_risk":4,"arthritis_risk":5,"migraine_risk":7,"frizz_risk":0,"updated_at":"2026-03-14T21:02:01.419055+05:30"},{"city":"Alappuzha","state":"Kerala","latitude":9.4981,"longitude":76.3388,"temp":28.5,"humidity":79,"rain":0.0,"pressure":1011.7,"uv_index":9.1,"wind_gusts":28.4,"aqi":94,"pm10":23.4,"pm2_5":20.1,"mosquito_risk":7,"arthritis_risk":0,"migraine_risk":4,"frizz_risk":1,"updated_at":"2026-03-14T21:02:01.419061+05:30"},{"city":"Munnar","state":"Kerala","latitude":10.0889,"longitude":77.0595,"temp":21.2,"humidity":91,"rain":0.0,"pressure":859.2,"uv_index":9.55,"wind_gusts":28.8,"aqi":61,"pm10":23.6,"pm2_5":22.8,"mosquito_risk":3,"arthritis_risk":5,"migraine_risk":7,"frizz_risk":1,"updated_at":"2026-03-14T21:02:01.419068+05:30"},{"city":"Silchar","state":"Assam","latitude":24.8333,"longitude":92.7789,"temp":20.6,"humidity":91,"rain":0.0,"pressure":1011.3,"uv_index":7.75,"wind_gusts":39.6,"aqi":100,"pm10":37.4,"pm2_5":30.6,"mosquito_risk":3,"arthritis_risk":0,"migraine_risk":4,"frizz_risk":1,"updated_at":"2026-03-14T21:02:01.419074+05:30"},{"city":"Dibrugarh","state":"Assam","latitude":27.4728,"longitude":94.912,"temp":19.8,"humidity":90,"rain":0.1,"pressure":1000.6,"uv_index":4.45,"wind_gusts":22.0,"aqi":87,"pm10":30.0,"pm2_5":25.8,"mosquito_risk":6,"arthritis_risk":10,"migraine_risk":0,"frizz_risk":1,"updated_at":"2026-03-14T21:02:01.419081+05:30"}]