[{"city":"Delhi","state":"Delhi","latitude":28.6139,"longitude":77.209,"temp":36.2,"humidity":37,"rain":0.0,"pressure":977.2,"uv_index":7.8,"wind_gusts":23.4,"aqi":285,"pm10":560.7,"pm2_5":103.8,"no2":7.7,"co":259.0,"o3":165.0,"so2":16.1,"mosquito_risk":0,"arthritis_risk":5,"migraine_risk":10,"frizz_risk":1,"updated_at":"2026-06-17T17:20:30.226988+05:30"},{"city":"Mumbai","state":"Maharashtra","latitude":19.076,"longitude":72.8777,"temp":31.5,"humidity":64,"rain":0.0,"pressure":1006.8,"uv_index":7.65,"wind_gusts":51.5,"aqi":57,"pm10":22.5,"pm2_5":12.0,"no2":5.9,"co":164.0,"o3":68.0,"so2":5.4,"mosquito_risk":3,"arthritis_risk":5,"migraine_risk":4,"frizz_risk":1,"updated_at":"2026-06-17T17:20:30.227034+05:30"},{"city":"Bangalore","state":"Karnataka","latitude":12.9716,"longitude":77.5946,"temp":30.2,"humidity":43,"rain":0.0,"pressure":910.1,"uv_index":8.75,"wind_gusts":34.9,"aqi":84,"pm10":56.8,"pm2_5":27.9,"no2":10.1,"co":542.0,"o3":96.0,"so2":3.8,"mosquito_risk":0,"arthritis_risk":5,"migraine_risk":7,"frizz_risk":1,"updated_at":"2026-06-17T17:20:30.227050+05:30"},{"city":"Hyderabad","state":"Telangana","latitude":17.385,"longitude":78.4867,"temp":35.3,"humidity":31,"rain":0.0,"pressure":950.0,"uv_index":9.05,"wind_gusts":33.1,"aqi":103,"pm10":41.3,"pm2_5":21.7,"no2":2.4,"co":248.0,"o3":127.0,"so2":4.3,"mosquito_risk":0,"arthritis_risk":5,"migraine_risk":10,"frizz_risk":0,"updated_at":"2026-06-17T17:20:30.227060+05:30"},{"city":"Chennai","state":"Tamil Nadu","latitude":13.0827,"longitude":80.2707,"temp":33.7,"humidity":65,"rain":0.0,"pressure":1002.8,"uv_index":7.0,"wind_gusts":43.6,"aqi":92,"pm10":43.5,"pm2_5":27.8,"no2":4.7,"co":295.0,"o3":145.0,"so2":6.8,"mosquito_risk":3,"arthritis_risk":5,"migraine_risk":4,"frizz_risk":1,"updated_at":"2026-06-17T17:20:30.227068+05:30"},{"city":"Kolkata","state":"West Bengal","latitude":22.5726,"longitude":88.3639,"temp":33.3,"humidity":66,"rain":0.0,"pressure":1000.3,"uv_index":9.0,"wind_gusts":28.4,"aqi":121,"pm10":59.0,"pm2_5":43.7,"no2":6.3,"co":417.0,"o3":118.0,"so2":8.4,"mosquito_risk":3,"arthritis_risk":5,"migraine_risk":4,"frizz_risk":1,"updated_at":"2026-06-17T17:20:30.227075+05:30"},{"city":"Pune","state":"Maharashtra","latitude":18.5204,"longitude":73.8567,"temp":29.9,"humidity":55,"rain":0.1,"pressure":946.8,"uv_index":8.3,"wind_gusts":49.0,"aqi":51,"pm10":24.0,"pm2_5":11.4,"no2":2.4,"co":138.0,"o3":87.0,"so2":3.2,"mosquito_risk":7,"arthritis_risk":5,"migraine_risk":7,"frizz_risk":1,"updated_at":"2026-06-17T17:20:30.227082+05:30"},{"city":"Ahmedabad","state":"Gujarat","latitude":23.0225,"longitude":72.5714,"temp":37.1,"humidity":36,"rain":0.1,"pressure":997.2,"uv_index":8.05,"wind_gusts":36.0,"aqi":63,"pm10":66.4,"pm2_5":22.1,"no2":1.7,"co":146.0,"o3":90.0,"so2":2.8,"mosquito_risk":3,"arthritis_risk":5,"migraine_risk":10,"frizz_risk":1,"updated_at":"2026-06-17T17:20:30.227088+05:30"},{"city":"Jaipur","state":"Rajasthan","latitude":26.9124,"longitude":75.7873,"temp":35.6,"humidity":34,"rain":0.0,"pressure":955.3,"uv_index":8.2,"wind_gusts":25.9,"aqi":109,"pm10":146.7,"pm2_5":38.3,"no2":0.3,"co":168.0,"o3":101.0,"so2":2.4,"mosquito_risk":0,"arthritis_risk":5,"migraine_risk":10,"frizz_risk":1,"updated_at":"2026-06-17T17:20:30.227094+05:30"},{"city":"Lucknow","state":"Uttar Pradesh","latitude":26.8467,"longitude":80.9462,"temp":37.3,"humidity":36,"rain":0.0,"pressure":987.1,"uv_index":8.35,"wind_gusts":30.2,"aqi":164,"pm10":190.0,"pm2_5":51.9,"no2":1.0,"co":186.0,"o3":128.0,"so2":4.2,"mosquito_risk":0,"arthritis_risk":5,"migraine_risk":10,"frizz_risk":1,"updated_at":"2026-06-17T17:20:30.227105+05:30"},{"city":"Kanpur","state":"Uttar Pradesh","latitude":26.4499,"longitude":80.3319,"temp":38.8,"humidity":31,"rain":0.0,"pressure":985.4,"uv_index":6.95,"wind_gusts":33.1,"aqi":184,"pm10":285.0,"pm2_5":61.9,"no2":1.1,"co":164.0,"o3":132.0,"so2":5.6,"mosquito_risk":0,"arthritis_risk":5,"migraine_risk":10,"frizz_risk":1,"updated_at":"2026-06-17T17:20:30.227111+05:30"},{"city":"Chandigarh","state":"Chandigarh","latitude":30.7333,"longitude":76.7794,"temp":33.5,"humidity":44,"rain":0.0,"pressure":964.2,"uv_index":7.8,"wind_gusts":21.2,"aqi":158,"pm10":243.1,"pm2_5":65.9,"no2":0.7,"co":371.0,"o3":170.0,"so2":9.3,"mosquito_risk":0,"arthritis_risk":5,"migraine_risk":7,"frizz_risk":1,"updated_at":"2026-06-17T17:20:30.227117+05:30"},{"city":"Srinagar","state":"Jammu and Kashmir","latitude":34.0837,"longitude":74.7973,"temp":23.0,"humidity":62,"rain":0.0,"pressure":842.5,"uv_index":8.35,"wind_gusts":28.8,"aqi":83,"pm10":27.0,"pm2_5":14.3,"no2":1.7,"co":303.0,"o3":144.0,"so2":2.1,"mosquito_risk":3,"arthritis_risk":5,"migraine_risk":7,"frizz_risk":0,"updated_at":"2026-06-17T17:20:30.227124+05:30"},{"city":"Jammu","state":"Jammu and Kashmir","latitude":32.7266,"longitude":74.857,"temp":35.6,"humidity":33,"rain":0.0,"pressure":968.1,"uv_index":8.65,"wind_gusts":26.6,"aqi":149,"pm10":37.3,"pm2_5":22.2,"no2":0.0,"co":210.0,"o3":172.0,"so2":2.3,"mosquito_risk":0,"arthritis_risk":5,"migraine_risk":10,"frizz_risk":1,"updated_at":"2026-06-17T17:20:30.227130+05:30"},{"city":"Amritsar","state":"Punjab","latitude":31.634,"longitude":74.8723,"temp":34.0,"humidity":45,"rain":0.0,"pressure":976.1,"uv_index":8.5,"wind_gusts":15.1,"aqi":140,"pm10":67.5,"pm2_5":40.6,"no2":1.1,"co":283.0,"o3":177.0,"so2":5.2,"mosquito_risk":0,"arthritis_risk":5,"migraine_risk":7,"frizz_risk":1,"updated_at":"2026-06-17T17:20:30.227136+05:30"},{"city":"Ludhiana","state":"Punjab","latitude":30.901,"longitude":75.8573,"temp":32.5,"humidity":49,"rain":0.1,"pressure":974.0,"uv_index":8.05,"wind_gusts":31.0,"aqi":157,"pm10":183.0,"pm2_5":53.3,"no2":0.7,"co":233.0,"o3":135.0,"so2":5.0,"mosquito_risk":3,"arthritis_risk":5,"migraine_risk":7,"frizz_risk":1,"updated_at":"2026-06-17T17:20:30.227142+05:30"},{"city":"Jalandhar","state":"Punjab","latitude":31.326,"longitude":75.5762,"temp":30.6,"humidity":65,"rain":0.2,"pressure":975.2,"uv_index":8.25,"wind_gusts":24.1,"aqi":153,"pm10":87.8,"pm2_5":38.4,"no2":0.0,"co":305.0,"o3":153.0,"so2":3.7,"mosquito_risk":6,"arthritis_risk":5,"migraine_risk":7,"frizz_risk":1,"updated_at":"2026-06-17T17:20:30.227148+05:30"},{"city":"Dehradun","state":"Uttarakhand","latitude":30.6284,"longitude":78.0322,"temp":22.4,"humidity":63,"rain":0.0,"pressure":830.0,"uv_index":6.65,"wind_gusts":27.4,"aqi":101,"pm10":79.6,"pm2_5":41.0,"no2":0.6,"co":198.0,"o3":146.0,"so2":4.1,"mosquito_risk":3,"arthritis_risk":5,"migraine_risk":7,"frizz_risk":0,"updated_at":"2026-06-17T17:20:30.227154+05:30"},{"city":"Shimla","state":"Himachal Pradesh","latitude":31.1048,"longitude":77.1734,"temp":18.3,"humidity":78,"rain":0.1,"pressure":784.5,"uv_index":7.65,"wind_gusts":29.5,"aqi":124,"pm10":122.5,"pm2_5":45.4,"no2":3.6,"co":228.0,"o3":165.0,"so2":8.7,"mosquito_risk":6,"arthritis_risk":5,"migraine_risk":7,"frizz_risk":0,"updated_at":"2026-06-17T17:20:30.227163+05:30"},{"city":"Manali","state":"Himachal Pradesh","latitude":32.2396,"longitude":77.1887,"temp":22.2,"humidity":68,"rain":0.1,"pressure":819.3,"uv_index":9.8,"wind_gusts":31.7,"aqi":76,"pm10":31.3,"pm2_5":24.7,"no2":17.7,"co":135.0,"o3":125.0,"so2":0.6,"mosquito_risk":6,"arthritis_risk":5,"migraine_risk":7,"frizz_risk":0,"updated_at":"2026-06-17T17:20:30.227172+05:30"},{"city":"Gurgaon","state":"Haryana","latitude":28.4595,"longitude":77.0266,"temp":35.6,"humidity":38,"rain":0.0,"pressure":975.8,"uv_index":7.9,"wind_gusts":19.8,"aqi":360,"pm10":659.4,"pm2_5":101.7,"no2":4.3,"co":214.0,"o3":168.0,"so2":11.3,"mosquito_risk":0,"arthritis_risk":5,"migraine_risk":10,"frizz_risk":1,"updated_at":"2026-06-17T17:20:30.227179+05:30"},{"city":"Noida","state":"Uttar Pradesh","latitude":28.5355,"longitude":77.391,"temp":35.9,"humidity":40,"rain":0.0,"pressure":978.6,"uv_index":7.85,"wind_gusts":16.2,"aqi":360,"pm10":659.4,"pm2_5":101.7,"no2":4.3,"co":280.0,"o3":168.0,"so2":11.3,"mosquito_risk":0,"arthritis_risk":5,"migraine_risk":10,"frizz_risk":1,"updated_at":"2026-06-17T17:20:30.227186+05:30"},{"city":"Ghaziabad","state":"Uttar Pradesh","latitude":28.6692,"longitude":77.4538,"temp":34.4,"humidity":49,"rain":0.0,"pressure":976.9,"uv_index":7.8,"wind_gusts":21.2,"aqi":303,"pm10":592.3,"pm2_5":123.9,"no2":7.1,"co":262.0,"o3":206.0,"so2":26.9,"mosquito_risk":0,"arthritis_risk":5,"migraine_risk":7,"frizz_risk":1,"updated_at":"2026-06-17T17:20:30.227192+05:30"},{"city":"Faridabad","state":"Haryana","latitude":28.4089,"longitude":77.3178,"temp":36.2,"humidity":35,"rain":0.0,"pressure":978.0,"uv_index":7.85,"wind_gusts":24.1,"aqi":360,"pm10":659.4,"pm2_5":101.7,"no2":4.3,"co":212.0,"o3":168.0,"so2":11.3,"mosquito_risk":0,"arthritis_risk":5,"migraine_risk":10,"frizz_risk":1,"updated_at":"2026-06-17T17:20:30.227198+05:30"},{"city":"Meerut","state":"Uttar Pradesh","latitude":28.9845,"longitude":77.7064,"temp":34.4,"humidity":46,"rain":0.0,"pressure":976.1,"uv_index":7.7,"wind_gusts":21.2,"aqi":303,"pm10":592.3,"pm2_5":123.9,"no2":7.1,"co":187.0,"o3":206.0,"so2":26.9,"mosquito_risk":0,"arthritis_risk":5,"migraine_risk":7,"frizz_risk":1,"updated_at":"2026-06-17T17:20:30.227204+05:30"},{"city":"Agra","state":"Uttar Pradesh","latitude":27.1767,"longitude":78.0081,"temp":37.8,"humidity":30,"rain":0.0,"pressure":981.6,"uv_index":8.15,"wind_gusts":31.7,"aqi":310,"pm10":212.3,"pm2_5":49.4,"no2":0.0,"co":128.0,"o3":123.0,"so2":1.8,"mosquito_risk":0,"arthritis_risk":5,"migraine_risk":10,"frizz_risk":1,"updated_at":"2026-06-17T17:20:30.227209+05:30"},{"city":"Varanasi","state":"Uttar Pradesh","latitude":25.3176,"longitude":82.9739,"temp":38.8,"humidity":33,"rain":0.0,"pressure":991.0,"uv_index":8.8,"wind_gusts":37.4,"aqi":154,"pm10":163.9,"pm2_5":59.1,"no2":2.0,"co":187.0,"o3":157.0,"so2":10.2,"mosquito_risk":0,"arthritis_risk":5,"migraine_risk":10,"frizz_risk":1,"updated_at":"2026-06-17T17:20:30.227216+05:30"},{"city":"Prayagraj","state":"Uttar Pradesh","latitude":25.4358,"longitude":81.8463,"temp":38.2,"humidity":35,"rain":0.0,"pressure":989.8,"uv_index":8.7,"wind_gusts":28.1,"aqi":154,"pm10":197.0,"pm2_5":64.7,"no2":1.3,"co":159.0,"o3":163.0,"so2":10.0,"mosquito_risk":0,"arthritis_risk":5,"migraine_risk":10,"frizz_risk":1,"updated_at":"2026-06-17T17:20:30.227222+05:30"},{"city":"Gorakhpur","state":"Uttar Pradesh","latitude":26.7606,"longitude":83.3732,"temp":36.1,"humidity":44,"rain":0.0,"pressure":990.2,"uv_index":8.7,"wind_gusts":35.3,"aqi":171,"pm10":150.9,"pm2_5":52.3,"no2":3.5,"co":199.0,"o3":139.0,"so2":5.7,"mosquito_risk":0,"arthritis_risk":5,"migraine_risk":10,"frizz_risk":1,"updated_at":"2026-06-17T17:20:30.227228+05:30"},{"city":"Bareilly","state":"Uttar Pradesh","latitude":28.367,"longitude":79.4304,"temp":34.9,"humidity":44,"rain":0.0,"pressure":980.8,"uv_index":8.15,"wind_gusts":28.1,"aqi":160,"pm10":198.4,"pm2_5":64.0,"no2":2.3,"co":215.0,"o3":167.0,"so2":10.6,"mosquito_risk":0,"arthritis_risk":5,"migraine_risk":7,"frizz_risk":1,"updated_at":"2026-06-17T17:20:30.227237+05:30"},{"city":"Aligarh","state":"Uttar Pradesh","latitude":27.8974,"longitude":78.088,"temp":35.6,"humidity":40,"rain":0.0,"pressure":979.8,"uv_index":8.0,"wind_gusts":27.0,"aqi":199,"pm10":568.1,"pm2_5":91.7,"no2":2.0,"co":173.0,"o3":165.0,"so2":9.5,"mosquito_risk":0,"arthritis_risk":5,"migraine_risk":10,"frizz_risk":1,"updated_at":"2026-06-17T17:20:30.227259+05:30"},{"city":"Moradabad","state":"Uttar Pradesh","latitude":28.8386,"longitude":78.7733,"temp":34.7,"humidity":43,"rain":0.0,"pressure":978.1,"uv_index":7.95,"wind_gusts":25.6,"aqi":170,"pm10":375.3,"pm2_5":92.4,"no2":4.2,"co":256.0,"o3":163.0,"so2":12.9,"mosquito_risk":0,"arthritis_risk":5,"migraine_risk":7,"frizz_risk":1,"updated_at":"2026-06-17T17:20:30.227266+05:30"},{"city":"Saharanpur","state":"Uttar Pradesh","latitude":29.9637,"longitude":77.546,"temp":34.0,"humidity":47,"rain":0.0,"pressure":970.7,"uv_index":7.55,"wind_gusts":19.8,"aqi":244,"pm10":405.1,"pm2_5":105.0,"no2":1.6,"co":226.0,"o3":174.0,"so2":18.0,"mosquito_risk":0,"arthritis_risk":5,"migraine_risk":7,"frizz_risk":1,"updated_at":"2026-06-17T17:20:30.227273+05:30"},{"city":"Jhansi","state":"Uttar Pradesh","latitude":25.4484,"longitude":78.5685,"temp":37.6,"humidity":33,"rain":0.0,"pressure":972.5,"uv_index":8.5,"wind_gusts":32.4,"aqi":94,"pm10":74.3,"pm2_5":32.2,"no2":1.6,"co":119.0,"o3":103.0,"so2":3.9,"mosquito_risk":0,"arthritis_risk":5,"migraine_risk":10,"frizz_risk":1,"updated_at":"2026-06-17T17:20:33.450303+05:30"},{"city":"Surat","state":"Gujarat","latitude":21.1702,"longitude":72.8311,"temp":32.0,"humidity":64,"rain":0.0,"pressure":1004.0,"uv_index":7.55,"wind_gusts":54.0,"aqi":62,"pm10":30.0,"pm2_5":16.2,"no2":10.2,"co":227.0,"o3":47.0,"so2":28.8,"mosquito_risk":3,"arthritis_risk":5,"migraine_risk":4,"frizz_risk":1,"updated_at":"2026-06-17T17:20:33.450338+05:30"},{"city":"Vadodara","state":"Gujarat","latitude":22.3072,"longitude":73.1812,"temp":34.7,"humidity":48,"rain":0.0,"pressure":1000.1,"uv_index":8.0,"wind_gusts":52.2,"aqi":58,"pm10":59.8,"pm2_5":21.5,"no2":2.2,"co":142.0,"o3":92.0,"so2":3.3,"mosquito_risk":0,"arthritis_risk":5,"migraine_risk":4,"frizz_risk":1,"updated_at":"2026-06-17T17:20:33.450349+05:30"},{"city":"Rajkot","state":"Gujarat","latitude":22.3039,"longitude":70.8022,"temp":35.3,"humidity":42,"rain":0.0,"pressure":990.4,"uv_index":7.55,"wind_gusts":50.8,"aqi":53,"pm10":47.8,"pm2_5":18.5,"no2":1.5,"co":108.0,"o3":84.0,"so2":3.6,"mosquito_risk":0,"arthritis_risk":5,"migraine_risk":10,"frizz_risk":1,"updated_at":"2026-06-17T17:20:33.450357+05:30"},{"city":"Thane","state":"Maharashtra","latitude":19.2183,"longitude":72.9781,"temp":32.5,"humidity":58,"rain":0.0,"pressure":1005.9,"uv_index":7.6,"wind_gusts":44.6,"aqi":57,"pm10":22.5,"pm2_5":12.0,"no2":5.9,"co":150.0,"o3":68.0,"so2":5.4,"mosquito_risk":0,"arthritis_risk":5,"migraine_risk":4,"frizz_risk":1,"updated_at":"2026-06-17T17:20:33.450364+05:30"},{"city":"Nagpur","state":"Maharashtra","latitude":21.1458,"longitude":79.0882,"temp":36.0,"humidity":37,"rain":0.0,"pressure":968.7,"uv_index":8.85,"wind_gusts":46.8,"aqi":103,"pm10":65.0,"pm2_5":34.1,"no2":5.6,"co":168.0,"o3":123.0,"so2":15.4,"mosquito_risk":0,"arthritis_risk":5,"migraine_risk":10,"frizz_risk":1,"updated_at":"2026-06-17T17:20:33.450372+05:30"},{"city":"Nashik","state":"Maharashtra","latitude":19.9975,"longitude":73.7898,"temp":30.5,"humidity":50,"rain":0.0,"pressure":943.9,"uv_index":8.0,"wind_gusts":50.4,"aqi":47,"pm10":24.4,"pm2_5":9.8,"no2":1.3,"co":122.0,"o3":71.0,"so2":1.0,"mosquito_risk":0,"arthritis_risk":5,"migraine_risk":7,"frizz_risk":1,"updated_at":"2026-06-17T17:20:33.450380+05:30"},{"city":"Aurangabad","state":"Maharashtra","latitude":19.8762,"longitude":75.3433,"temp":36.2,"humidity":21,"rain":0.0,"pressure":941.2,"uv_index":8.95,"wind_gusts":52.2,"aqi":52,"pm10":41.4,"pm2_5":16.6,"no2":1.5,"co":127.0,"o3":111.0,"so2":3.4,"mosquito_risk":0,"arthritis_risk":5,"migraine_risk":10,"frizz_risk":0,"updated_at":"2026-06-17T17:20:33.450387+05:30"},{"city":"Solapur","state":"Maharashtra","latitude":17.6599,"longitude":75.9064,"temp":36.3,"humidity":27,"rain":0.0,"pressure":953.9,"uv_index":8.75,"wind_gusts":51.8,"aqi":60,"pm10":41.1,"pm2_5":17.5,"no2":0.6,"co":118.0,"o3":123.0,"so2":2.8,"mosquito_risk":0,"arthritis_risk":5,"migraine_risk":10,"frizz_risk":0,"updated_at":"2026-06-17T17:20:33.450396+05:30"},{"city":"Kolhapur","state":"Maharashtra","latitude":16.705,"longitude":74.2433,"temp":30.4,"humidity":51,"rain":0.0,"pressure":946.8,"uv_index":7.95,"wind_gusts":47.5,"aqi":51,"pm10":23.7,"pm2_5":12.2,"no2":3.0,"co":125.0,"o3":83.0,"so2":1.7,"mosquito_risk":0,"arthritis_risk":5,"migraine_risk":7,"frizz_risk":1,"updated_at":"2026-06-17T17:20:33.450403+05:30"},{"city":"Goa","state":"Goa","latitude":15.2993,"longitude":74.124,"temp":31.0,"humidity":64,"rain":0.0,"pressure":996.8,"uv_index":8.15,"wind_gusts":29.2,"aqi":55,"pm10":29.3,"pm2_5":13.5,"no2":0.9,"co":103.0,"o3":60.0,"so2":1.2,"mosquito_risk":3,"arthritis_risk":5,"migraine_risk":7,"frizz_risk":1,"updated_at":"2026-06-17T17:20:33.450410+05:30"},{"city":"Jodhpur","state":"Rajasthan","latitude":26.2389,"longitude":73.0243,"temp":37.6,"humidity":34,"rain":0.0,"pressure":977.5,"uv_index":8.4,"wind_gusts":34.6,"aqi":112,"pm10":135.0,"pm2_5":31.7,"no2":0.7,"co":113.0,"o3":86.0,"so2":1.6,"mosquito_risk":0,"arthritis_risk":5,"migraine_risk":10,"frizz_risk":1,"updated_at":"2026-06-17T17:20:33.450417+05:30"},{"city":"Udaipur","state":"Rajasthan","latitude":24.5854,"longitude":73.7125,"temp":32.2,"humidity":46,"rain":0.0,"pressure":943.1,"uv_index":8.8,"wind_gusts":37.8,"aqi":69,"pm10":49.6,"pm2_5":20.5,"no2":0.5,"co":118.0,"o3":90.0,"so2":2.2,"mosquito_risk":0,"arthritis_risk":5,"migraine_risk":7,"frizz_risk":1,"updated_at":"2026-06-17T17:20:33.450424+05:30"},{"city":"Kota","state":"Rajasthan","latitude":25.2138,"longitude":75.8648,"temp":35.9,"humidity":37,"rain":0.0,"pressure":973.8,"uv_index":8.35,"wind_gusts":37.4,"aqi":88,"pm10":56.5,"pm2_5":26.2,"no2":1.1,"co":132.0,"o3":110.0,"so2":4.2,"mosquito_risk":0,"arthritis_risk":5,"migraine_risk":10,"frizz_risk":1,"updated_at":"2026-06-17T17:20:33.450432+05:30"},{"city":"Bikaner","state":"Rajasthan","latitude":28.0229,"longitude":73.3119,"temp":37.2,"humidity":40,"rain":0.0,"pressure":976.3,"uv_index":8.45,"wind_gusts":40.7,"aqi":122,"pm10":211.9,"pm2_5":52.7,"no2":0.2,"co":111.0,"o3":87.0,"so2":1.5,"mosquito_risk":0,"arthritis_risk":5,"migraine_risk":10,"frizz_risk":1,"updated_at":"2026-06-17T17:20:33.450439+05:30"},{"city":"Ajmer","state":"Rajasthan","latitude":26.4499,"longitude":74.6399,"temp":32.2,"humidity":51,"rain":0.0,"pressure":950.3,"uv_index":8.35,"wind_gusts":45.7,"aqi":88,"pm10":110.4,"pm2_5":32.8,"no2":0.5,"co":125.0,"o3":96.0,"so2":2.5,"mosquito_risk":0,"arthritis_risk":5,"migraine_risk":7,"frizz_risk":1,"updated_at":"2026-06-17T17:20:33.450445+05:30"},{"city":"Gwalior","state":"Madhya Pradesh","latitude":26.2183,"longitude":78.1828,"temp":37.4,"humidity":32,"rain":0.0,"pressure":977.4,"uv_index":7.7,"wind_gusts":32.4,"aqi":135,"pm10":103.8,"pm2_5":34.6,"no2":0.3,"co":157.0,"o3":105.0,"so2":1.5,"mosquito_risk":0,"arthritis_risk":5,"migraine_risk":10,"frizz_risk":1,"updated_at":"2026-06-17T17:20:33.450452+05:30"},{"city":"Indore","state":"Madhya Pradesh","latitude":22.7196,"longitude":75.8577,"temp":31.7,"humidity":52,"rain":0.1,"pressure":945.3,"uv_index":8.55,"wind_gusts":57.6,"aqi":77,"pm10":42.0,"pm2_5":23.8,"no2":2.5,"co":186.0,"o3":100.0,"so2":2.7,"mosquito_risk":3,"arthritis_risk":5,"migraine_risk":7,"frizz_risk":1,"updated_at":"2026-06-17T17:20:33.450458+05:30"},{"city":"Bhopal","state":"Madhya Pradesh","latitude":23.2599,"longitude":77.4126,"temp":30.5,"humidity":68,"rain":0.1,"pressure":950.0,"uv_index":8.0,"wind_gusts":42.5,"aqi":93,"pm10":53.1,"pm2_5":28.9,"no2":3.0,"co":165.0,"o3":93.0,"so2":2.6,"mosquito_risk":6,"arthritis_risk":5,"migraine_risk":7,"frizz_risk":1,"updated_at":"2026-06-17T17:20:33.450465+05:30"},{"city":"Jabalpur","state":"Madhya Pradesh","latitude":23.1815,"longitude":79.9864,"temp":34.4,"humidity":47,"rain":0.0,"pressure":957.2,"uv_index":8.85,"wind_gusts":39.6,"aqi":103,"pm10":69.8,"pm2_5":34.9,"no2":1.2,"co":163.0,"o3":117.0,"so2":3.0,"mosquito_risk":0,"arthritis_risk":5,"migraine_risk":7,"frizz_risk":1,"updated_at":"2026-06-17T17:20:33.450472+05:30"},{"city":"Ujjain","state":"Madhya Pradesh","latitude":23.1765,"longitude":75.7885,"temp":30.8,"humidity":55,"rain":0.1,"pressure":950.9,"uv_index":8.55,"wind_gusts":52.9,"aqi":72,"pm10":41.8,"pm2_5":22.9,"no2":1.3,"co":146.0,"o3":98.0,"so2":2.8,"mosquito_risk":3,"arthritis_risk":5,"migraine_risk":7,"frizz_risk":1,"updated_at":"2026-06-17T17:20:33.450479+05:30"},{"city":"Visakhapatnam","state":"Andhra Pradesh","latitude":17.6868,"longitude":83.2185,"temp":33.1,"humidity":71,"rain":0.0,"pressure":998.8,"uv_index":9.0,"wind_gusts":34.9,"aqi":148,"pm10":67.5,"pm2_5":49.7,"no2":22.3,"co":434.0,"o3":144.0,"so2":54.6,"mosquito_risk":3,"arthritis_risk":5,"migraine_risk":7,"frizz_risk":1,"updated_at":"2026-06-17T17:20:33.450486+05:30"},{"city":"Vijayawada","state":"Andhra Pradesh","latitude":16.5062,"longitude":80.648,"temp":35.9,"humidity":49,"rain":0.0,"pressure":997.4,"uv_index":8.95,"wind_gusts":27.7,"aqi":152,"pm10":75.0,"pm2_5":40.2,"no2":6.5,"co":224.0,"o3":130.0,"so2":7.8,"mosquito_risk":0,"arthritis_risk":5,"migraine_risk":10,"frizz_risk":1,"updated_at":"2026-06-17T17:20:33.450492+05:30"},{"city":"Guntur","state":"Andhra Pradesh","latitude":16.3067,"longitude":80.4365,"temp":35.4,"humidity":49,"rain":0.0,"pressure":998.6,"uv_index":8.9,"wind_gusts":29.2,"aqi":138,"pm10":78.0,"pm2_5":41.0,"no2":4.3,"co":223.0,"o3":136.0,"so2":7.0,"mosquito_risk":0,"arthritis_risk":5,"migraine_risk":10,"frizz_risk":1,"updated_at":"2026-06-17T17:20:33.450499+05:30"},{"city":"Nellore","state":"Andhra Pradesh","latitude":14.4426,"longitude":79.9865,"temp":37.6,"humidity":35,"rain":0.0,"pressure":1000.5,"uv_index":6.15,"wind_gusts":36.0,"aqi":92,"pm10":50.9,"pm2_5":32.1,"no2":4.6,"co":198.0,"o3":153.0,"so2":5.9,"mosquito_risk":0,"arthritis_risk":5,"migraine_risk":7,"frizz_risk":1,"updated_at":"2026-06-17T17:20:33.450507+05:30"},{"city":"Kurnool","state":"Andhra Pradesh","latitude":15.8281,"longitude":78.0373,"temp":36.0,"humidity":39,"rain":0.0,"pressure":972.8,"uv_index":8.15,"wind_gusts":40.7,"aqi":77,"pm10":43.3,"pm2_5":23.6,"no2":0.8,"co":128.0,"o3":135.0,"so2":8.2,"mosquito_risk":0,"arthritis_risk":5,"migraine_risk":10,"frizz_risk":1,"updated_at":"2026-06-17T17:20:33.450514+05:30"},{"city":"Kakinada","state":"Andhra Pradesh","latitude":16.9891,"longitude":82.2475,"temp":35.2,"humidity":55,"rain":0.0,"pressure":1002.2,"uv_index":8.7,"wind_gusts":28.8,"aqi":116,"pm10":55.3,"pm2_5":34.7,"no2":2.0,"co":244.0,"o3":134.0,"so2":4.7,"mosquito_risk":0,"arthritis_risk":5,"migraine_risk":7,"frizz_risk":1,"updated_at":"2026-06-17T17:20:33.450521+05:30"},{"city":"Tirupati","state":"Andhra Pradesh","latitude":13.6288,"longitude":79.4192,"temp":30.2,"humidity":63,"rain":0.1,"pressure":987.2,"uv_index":7.1,"wind_gusts":36.0,"aqi":104,"pm10":47.7,"pm2_5":24.2,"no2":5.3,"co":231.0,"o3":120.0,"so2":4.5,"mosquito_risk":6,"arthritis_risk":5,"migraine_risk":7,"frizz_risk":1,"updated_at":"2026-06-17T17:20:33.450528+05:30"},{"city":"Warangal","state":"Telangana","latitude":17.9689,"longitude":79.5941,"temp":36.1,"humidity":37,"rain":0.0,"pressure":974.1,"uv_index":8.6,"wind_gusts":32.4,"aqi":149,"pm10":59.5,"pm2_5":30.4,"no2":0.3,"co":156.0,"o3":128.0,"so2":5.3,"mosquito_risk":0,"arthritis_risk":5,"migraine_risk":10,"frizz_risk":1,"updated_at":"2026-06-17T17:20:33.450534+05:30"},{"city":"Nizamabad","state":"Telangana","latitude":18.6725,"longitude":78.0941,"temp":36.8,"humidity":24,"rain":0.0,"pressure":960.7,"uv_index":8.95,"wind_gusts":33.8,"aqi":97,"pm10":49.0,"pm2_5":18.9,"no2":0.5,"co":135.0,"o3":109.0,"so2":2.1,"mosquito_risk":0,"arthritis_risk":5,"migraine_risk":10,"frizz_risk":0,"updated_at":"2026-06-17T17:20:33.450541+05:30"},{"city":"Mysore","state":"Karnataka","latitude":12.2958,"longitude":76.6396,"temp":27.3,"humidity":62,"rain":0.1,"pressure":927.1,"uv_index":8.4,"wind_gusts":37.1,"aqi":63,"pm10":27.1,"pm2_5":14.0,"no2":5.0,"co":183.0,"o3":92.0,"so2":1.8,"mosquito_risk":10,"arthritis_risk":5,"migraine_risk":7,"frizz_risk":1,"updated_at":"2026-06-17T17:20:33.450548+05:30"},{"city":"Mangalore","state":"Karnataka","latitude":12.9141,"longitude":74.856,"temp":28.2,"humidity":80,"rain":0.1,"pressure":1006.1,"uv_index":8.4,"wind_gusts":35.3,"aqi":55,"pm10":30.0,"pm2_5":14.1,"no2":1.3,"co":105.0,"o3":65.0,"so2":1.5,"mosquito_risk":10,"arthritis_risk":5,"migraine_risk":4,"frizz_risk":1,"updated_at":"2026-06-17T17:20:33.450554+05:30"},{"city":"Hubli-Dharwad","state":"Karnataka","latitude":15.3647,"longitude":75.124,"temp":29.5,"humidity":57,"rain":0.0,"pressure":939.5,"uv_index":8.4,"wind_gusts":41.0,"aqi":44,"pm10":15.7,"pm2_5":9.2,"no2":2.3,"co":127.0,"o3":79.0,"so2":1.1,"mosquito_risk":4,"arthritis_risk":5,"migraine_risk":7,"frizz_risk":1,"updated_at":"2026-06-17T17:20:33.450560+05:30"},{"city":"Belgaum","state":"Karnataka","latitude":15.8497,"longitude":74.4977,"temp":26.3,"humidity":73,"rain":0.0,"pressure":924.8,"uv_index":8.1,"wind_gusts":41.4,"aqi":47,"pm10":19.6,"pm2_5":11.0,"no2":1.9,"co":111.0,"o3":67.0,"so2":1.3,"mosquito_risk":7,"arthritis_risk":5,"migraine_risk":7,"frizz_risk":1,"updated_at":"2026-06-17T17:20:36.683571+05:30"},{"city":"Coimbatore","state":"Tamil Nadu","latitude":11.0168,"longitude":76.9558,"temp":28.0,"humidity":70,"rain":0.0,"pressure":959.9,"uv_index":8.85,"wind_gusts":45.0,"aqi":52,"pm10":9.2,"pm2_5":6.5,"no2":3.9,"co":175.0,"o3":78.0,"so2":1.8,"mosquito_risk":7,"arthritis_risk":5,"migraine_risk":7,"frizz_risk":1,"updated_at":"2026-06-17T17:20:36.683606+05:30"},{"city":"Madurai","state":"Tamil Nadu","latitude":9.9252,"longitude":78.1198,"temp":28.5,"humidity":77,"rain":0.6,"pressure":991.4,"uv_index":8.7,"wind_gusts":34.9,"aqi":88,"pm10":75.9,"pm2_5":39.0,"no2":5.0,"co":218.0,"o3":127.0,"so2":3.2,"mosquito_risk":10,"arthritis_risk":5,"migraine_risk":7,"frizz_risk":1,"updated_at":"2026-06-17T17:20:36.683617+05:30"},{"city":"Trichy","state":"Tamil Nadu","latitude":10.7905,"longitude":78.7047,"temp":33.3,"humidity":53,"rain":0.0,"pressure":996.3,"uv_index":8.5,"wind_gusts":42.5,"aqi":79,"pm10":42.5,"pm2_5":21.9,"no2":6.8,"co":174.0,"o3":109.0,"so2":3.3,"mosquito_risk":0,"arthritis_risk":5,"migraine_risk":7,"frizz_risk":1,"updated_at":"2026-06-17T17:20:36.683625+05:30"},{"city":"Salem","state":"Tamil Nadu","latitude":11.6643,"longitude":78.146,"temp":30.7,"humidity":61,"rain":0.1,"pressure":974.3,"uv_index":8.65,"wind_gusts":23.4,"aqi":90,"pm10":44.2,"pm2_5":23.6,"no2":4.5,"co":172.0,"o3":135.0,"so2":7.4,"mosquito_risk":6,"arthritis_risk":5,"migraine_risk":7,"frizz_risk":1,"updated_at":"2026-06-17T17:20:36.683633+05:30"},{"city":"Tirunelveli","state":"Tamil Nadu","latitude":8.7139,"longitude":77.7567,"temp":29.6,"humidity":80,"rain":0.3,"pressure":1001.1,"uv_index":7.8,"wind_gusts":31.7,"aqi":49,"pm10":12.4,"pm2_5":7.2,"no2":2.7,"co":144.0,"o3":79.0,"so2":1.3,"mosquito_risk":10,"arthritis_risk":5,"migraine_risk":4,"frizz_risk":1,"updated_at":"2026-06-17T17:20:36.683641+05:30"},{"city":"Vellore","state":"Tamil Nadu","latitude":12.9165,"longitude":79.1325,"temp":30.3,"humidity":66,"rain":0.1,"pressure":980.7,"uv_index":8.85,"wind_gusts":33.8,"aqi":119,"pm10":42.0,"pm2_5":20.8,"no2":3.9,"co":262.0,"o3":113.0,"so2":2.6,"mosquito_risk":6,"arthritis_risk":5,"migraine_risk":7,"frizz_risk":1,"updated_at":"2026-06-17T17:20:36.683649+05:30"},{"city":"Erode","state":"Tamil Nadu","latitude":11.341,"longitude":77.7172,"temp":29.9,"humidity":69,"rain":0.0,"pressure":986.2,"uv_index":8.8,"wind_gusts":34.2,"aqi":71,"pm10":20.9,"pm2_5":12.6,"no2":5.8,"co":222.0,"o3":104.0,"so2":2.2,"mosquito_risk":7,"arthritis_risk":5,"migraine_risk":7,"frizz_risk":1,"updated_at":"2026-06-17T17:20:36.683656+05:30"},{"city":"Kochi","state":"Kerala","latitude":9.9312,"longitude":76.2673,"temp":28.3,"humidity":79,"rain":0.0,"pressure":1008.3,"uv_index":6.85,"wind_gusts":34.2,"aqi":58,"pm10":24.9,"pm2_5":12.7,"no2":2.4,"co":125.0,"o3":68.0,"so2":2.4,"mosquito_risk":7,"arthritis_risk":0,"migraine_risk":4,"frizz_risk":1,"updated_at":"2026-06-17T17:20:36.683663+05:30"},{"city":"Thiruvananthapuram","state":"Kerala","latitude":8.5241,"longitude":76.9366,"temp":27.5,"humidity":82,"rain":0.0,"pressure":1007.8,"uv_index":7.7,"wind_gusts":37.4,"aqi":50,"pm10":20.0,"pm2_5":9.9,"no2":1.5,"co":122.0,"o3":64.0,"so2":0.9,"mosquito_risk":7,"arthritis_risk":5,"migraine_risk":4,"frizz_risk":1,"updated_at":"2026-06-17T17:20:36.683670+05:30"},{"city":"Kozhikode","state":"Kerala","latitude":11.2588,"longitude":75.7804,"temp":27.8,"humidity":81,"rain":0.0,"pressure":1007.3,"uv_index":8.3,"wind_gusts":36.4,"aqi":52,"pm10":21.5,"pm2_5":9.7,"no2":0.8,"co":118.0,"o3":68.0,"so2":0.9,"mosquito_risk":7,"arthritis_risk":5,"migraine_risk":4,"frizz_risk":1,"updated_at":"2026-06-17T17:20:36.683676+05:30"},{"city":"Thrissur","state":"Kerala","latitude":10.5276,"longitude":76.2144,"temp":28.1,"humidity":78,"rain":0.0,"pressure":1006.5,"uv_index":8.4,"wind_gusts":32.4,"aqi":55,"pm10":19.2,"pm2_5":10.5,"no2":3.3,"co":101.0,"o3":61.0,"so2":1.4,"mosquito_risk":7,"arthritis_risk":5,"migraine_risk":4,"frizz_risk":1,"updated_at":"2026-06-17T17:20:36.683684+05:30"},{"city":"Kannur","state":"Kerala","latitude":11.8745,"longitude":75.3704,"temp":28.4,"humidity":78,"rain":0.0,"pressure":1006.5,"uv_index":8.6,"wind_gusts":36.7,"aqi":51,"pm10":25.0,"pm2_5":12.0,"no2":1.3,"co":109.0,"o3":69.0,"so2":1.3,"mosquito_risk":7,"arthritis_risk":5,"migraine_risk":4,"frizz_risk":1,"updated_at":"2026-06-17T17:20:36.683693+05:30"},{"city":"Patna","state":"Bihar","latitude":25.5941,"longitude":85.1376,"temp":37.1,"humidity":40,"rain":0.0,"pressure":993.3,"uv_index":8.9,"wind_gusts":25.2,"aqi":176,"pm10":116.6,"pm2_5":58.0,"no2":7.5,"co":308.0,"o3":159.0,"so2":9.6,"mosquito_risk":0,"arthritis_risk":5,"migraine_risk":10,"frizz_risk":1,"updated_at":"2026-06-17T17:20:36.683700+05:30"},{"city":"Gaya","state":"Bihar","latitude":24.7914,"longitude":85.0002,"temp":37.4,"humidity":35,"rain":0.0,"pressure":987.1,"uv_index":8.95,"wind_gusts":26.6,"aqi":156,"pm10":103.8,"pm2_5":48.0,"no2":4.2,"co":233.0,"o3":141.0,"so2":6.8,"mosquito_risk":0,"arthritis_risk":5,"migraine_risk":10,"frizz_risk":1,"updated_at":"2026-06-17T17:20:36.683707+05:30"},{"city":"Muzaffarpur","state":"Bihar","latitude":26.1209,"longitude":85.3647,"temp":34.7,"humidity":61,"rain":0.0,"pressure":993.3,"uv_index":8.85,"wind_gusts":23.8,"aqi":195,"pm10":119.2,"pm2_5":67.1,"no2":9.1,"co":388.0,"o3":165.0,"so2":12.0,"mosquito_risk":3,"arthritis_risk":5,"migraine_risk":7,"frizz_risk":1,"updated_at":"2026-06-17T17:20:36.683714+05:30"},{"city":"Bhagalpur","state":"Bihar","latitude":25.2425,"longitude":87.0117,"temp":36.1,"humidity":45,"rain":0.0,"pressure":994.1,"uv_index":8.85,"wind_gusts":23.8,"aqi":181,"pm10":143.4,"pm2_5":73.3,"no2":5.3,"co":274.0,"o3":178.0,"so2":18.9,"mosquito_risk":0,"arthritis_risk":5,"migraine_risk":10,"frizz_risk":1,"updated_at":"2026-06-17T17:20:36.683720+05:30"},{"city":"Ranchi","state":"Jharkhand","latitude":23.3441,"longitude":85.3096,"temp":32.2,"humidity":50,"rain":0.0,"pressure":933.6,"uv_index":9.1,"wind_gusts":27.0,"aqi":155,"pm10":80.3,"pm2_5":38.2,"no2":5.0,"co":308.0,"o3":148.0,"so2":8.8,"mosquito_risk":0,"arthritis_risk":5,"migraine_risk":7,"frizz_risk":1,"updated_at":"2026-06-17T17:20:36.683727+05:30"},{"city":"Jamshedpur","state":"Jharkhand","latitude":22.8046,"longitude":86.2029,"temp":35.4,"humidity":45,"rain":0.0,"pressure":985.1,"uv_index":9.1,"wind_gusts":33.8,"aqi":185,"pm10":122.0,"pm2_5":71.2,"no2":6.8,"co":234.0,"o3":170.0,"so2":18.2,"mosquito_risk":0,"arthritis_risk":5,"migraine_risk":10,"frizz_risk":1,"updated_at":"2026-06-17T17:20:36.683733+05:30"},{"city":"Dhanbad","state":"Jharkhand","latitude":23.7957,"longitude":86.4304,"temp":37.5,"humidity":30,"rain":0.0,"pressure":973.8,"uv_index":9.1,"wind_gusts":23.0,"aqi":172,"pm10":118.0,"pm2_5":58.2,"no2":18.3,"co":189.0,"o3":160.0,"so2":59.9,"mosquito_risk":0,"arthritis_risk":5,"migraine_risk":10,"frizz_risk":1,"updated_at":"2026-06-17T17:20:36.683739+05:30"},{"city":"Bokaro","state":"Jharkhand","latitude":23.6693,"longitude":86.1511,"temp":37.0,"humidity":31,"rain":0.0,"pressure":977.5,"uv_index":9.1,"wind_gusts":24.1,"aqi":166,"pm10":95.9,"pm2_5":47.4,"no2":15.3,"co":207.0,"o3":152.0,"so2":63.4,"mosquito_risk":0,"arthritis_risk":5,"migraine_risk":10,"frizz_risk":1,"updated_at":"2026-06-17T17:20:36.683746+05:30"},{"city":"Bhubaneswar","state":"Odisha","latitude":20.2961,"longitude":85.8245,"temp":33.3,"humidity":64,"rain":0.0,"pressure":997.0,"uv_index":9.05,"wind_gusts":32.0,"aqi":116,"pm10":57.3,"pm2_5":40.6,"no2":7.0,"co":286.0,"o3":130.0,"so2":8.9,"mosquito_risk":3,"arthritis_risk":5,"migraine_risk":7,"frizz_risk":1,"updated_at":"2026-06-17T17:20:36.683753+05:30"},{"city":"Cuttack","state":"Odisha","latitude":20.4625,"longitude":85.8828,"temp":32.5,"humidity":73,"rain":0.0,"pressure":998.7,"uv_index":9.1,"wind_gusts":29.9,"aqi":116,"pm10":57.3,"pm2_5":40.6,"no2":7.0,"co":321.0,"o3":130.0,"so2":8.9,"mosquito_risk":3,"arthritis_risk":5,"migraine_risk":7,"frizz_risk":1,"updated_at":"2026-06-17T17:20:36.683759+05:30"},{"city":"Rourkela","state":"Odisha","latitude":22.2604,"longitude":84.8536,"temp":34.5,"humidity":49,"rain":0.0,"pressure":979.9,"uv_index":9.05,"wind_gusts":37.4,"aqi":158,"pm10":101.7,"pm2_5":57.3,"no2":3.5,"co":295.0,"o3":162.0,"so2":12.5,"mosquito_risk":0,"arthritis_risk":5,"migraine_risk":7,"frizz_risk":1,"updated_at":"2026-06-17T17:20:36.683765+05:30"},{"city":"Raipur","state":"Chhattisgarh","latitude":21.2514,"longitude":81.6296,"temp":37.1,"humidity":34,"rain":0.1,"pressure":969.3,"uv_index":8.9,"wind_gusts":31.7,"aqi":159,"pm10":112.0,"pm2_5":68.7,"no2":12.2,"co":250.0,"o3":183.0,"so2":49.6,"mosquito_risk":3,"arthritis_risk":5,"migraine_risk":10,"frizz_risk":1,"updated_at":"2026-06-17T17:20:36.683772+05:30"},{"city":"Bhilai","state":"Chhattisgarh","latitude":21.1938,"longitude":81.3509,"temp":37.9,"humidity":30,"rain":0.0,"pressure":969.7,"uv_index":8.9,"wind_gusts":41.8,"aqi":157,"pm10":92.9,"pm2_5":52.0,"no2":12.2,"co":570.0,"o3":143.0,"so2":39.8,"mosquito_risk":0,"arthritis_risk":5,"migraine_risk":10,"frizz_risk":1,"updated_at":"2026-06-17T17:20:36.683778+05:30"},{"city":"Guwahati","state":"Assam","latitude":26.1158,"longitude":91.7086,"temp":30.8,"humidity":75,"rain":0.0,"pressure":995.0,"uv_index":8.75,"wind_gusts":36.7,"aqi":93,"pm10":16.5,"pm2_5":14.1,"no2":3.5,"co":303.0,"o3":96.0,"so2":2.8,"mosquito_risk":3,"arthritis_risk":5,"migraine_risk":7,"frizz_risk":1,"updated_at":"2026-06-17T17:20:36.683784+05:30"},{"city":"Agartala","state":"Tripura","latitude":23.8315,"longitude":91.2868,"temp":29.6,"humidity":78,"rain":0.0,"pressure":1001.3,"uv_index":8.75,"wind_gusts":29.2,"aqi":75,"pm10":28.3,"pm2_5":23.3,"no2":7.7,"co":196.0,"o3":101.0,"so2":3.0,"mosquito_risk":7,"arthritis_risk":5,"migraine_risk":4,"frizz_risk":1,"updated_at":"2026-06-17T17:20:36.683790+05:30"},{"city":"Shillong","state":"Meghalaya","latitude":25.5788,"longitude":91.8933,"temp":23.0,"humidity":74,"rain":0.0,"pressure":854.7,"uv_index":7.2,"wind_gusts":25.2,"aqi":66,"pm10":11.5,"pm2_5":9.9,"no2":6.0,"co":267.0,"o3":96.0,"so2":2.5,"mosquito_risk":3,"arthritis_risk":5,"migraine_risk":7,"frizz_risk":1,"updated_at":"2026-06-17T17:20:36.683797+05:30"},{"city":"Imphal","state":"Manipur","latitude":24.817,"longitude":93.9368,"temp":26.0,"humidity":76,"rain":0.0,"pressure":919.2,"uv_index":8.35,"wind_gusts":30.2,"aqi":54,"pm10":7.6,"pm2_5":6.2,"no2":5.0,"co":217.0,"o3":80.0,"so2":1.8,"mosquito_risk":7,"arthritis_risk":5,"migraine_risk":7,"frizz_risk":1,"updated_at":"2026-06-17T17:20:36.683803+05:30"},{"city":"Aizawl","state":"Mizoram","latitude":23.7271,"longitude":92.7176,"temp":21.5,"humidity":94,"rain":0.1,"pressure":889.2,"uv_index":9.05,"wind_gusts":23.4,"aqi":41,"pm10":15.9,"pm2_5":12.6,"no2":2.9,"co":164.0,"o3":76.0,"so2":0.9,"mosquito_risk":6,"arthritis_risk":5,"migraine_risk":7,"frizz_risk":1,"updated_at":"2026-06-17T17:20:36.683810+05:30"},{"city":"Kohima","state":"Nagaland","latitude":25.6701,"longitude":94.1077,"temp":21.5,"humidity":97,"rain":0.1,"pressure":852.6,"uv_index":8.7,"wind_gusts":24.5,"aqi":52,"pm10":10.7,"pm2_5":8.9,"no2":3.3,"co":200.0,"o3":88.0,"so2":1.3,"mosquito_risk":6,"arthritis_risk":5,"migraine_risk":7,"frizz_risk":1,"updated_at":"2026-06-17T17:20:36.683816+05:30"},{"city":"Gangtok","state":"Sikkim","latitude":27.3314,"longitude":88.6138,"temp":20.5,"humidity":97,"rain":0.1,"pressure":834.7,"uv_index":8.5,"wind_gusts":38.5,"aqi":104,"pm10":11.5,"pm2_5":10.0,"no2":4.5,"co":314.0,"o3":128.0,"so2":2.8,"mosquito_risk":6,"arthritis_risk":5,"migraine_risk":7,"frizz_risk":1,"updated_at":"2026-06-17T17:20:36.683822+05:30"},{"city":"Siliguri","state":"West Bengal","latitude":26.7271,"longitude":88.3953,"temp":26.8,"humidity":92,"rain":0.3,"pressure":986.9,"uv_index":8.75,"wind_gusts":22.7,"aqi":136,"pm10":61.9,"pm2_5":48.9,"no2":9.0,"co":571.0,"o3":140.0,"so2":9.8,"mosquito_risk":10,"arthritis_risk":5,"migraine_risk":7,"frizz_risk":1,"updated_at":"2026-06-17T17:20:39.915504+05:30"},{"city":"Durgapur","state":"West Bengal","latitude":23.5204,"longitude":87.3119,"temp":34.7,"humidity":58,"rain":0.0,"pressure":988.7,"uv_index":9.0,"wind_gusts":25.6,"aqi":202,"pm10":164.4,"pm2_5":107.1,"no2":20.4,"co":494.0,"o3":216.0,"so2":55.3,"mosquito_risk":0,"arthritis_risk":5,"migraine_risk":7,"frizz_risk":1,"updated_at":"2026-06-17T17:20:39.915540+05:30"},{"city":"Asansol","state":"West Bengal","latitude":23.6739,"longitude":86.9524,"temp":35.7,"humidity":48,"rain":0.0,"pressure":987.2,"uv_index":9.05,"wind_gusts":27.0,"aqi":191,"pm10":141.6,"pm2_5":81.5,"no2":20.7,"co":317.0,"o3":179.0,"so2":37.9,"mosquito_risk":0,"arthritis_risk":5,"migraine_risk":10,"frizz_risk":1,"updated_at":"2026-06-17T17:20:39.915552+05:30"},{"city":"Pondicherry","state":"Puducherry","latitude":11.9139,"longitude":79.8145,"temp":31.9,"humidity":71,"rain":0.0,"pressure":1004.5,"uv_index":8.7,"wind_gusts":55.4,"aqi":104,"pm10":52.0,"pm2_5":35.0,"no2":15.2,"co":224.0,"o3":149.0,"so2":7.7,"mosquito_risk":3,"arthritis_risk":5,"migraine_risk":4,"frizz_risk":1,"updated_at":"2026-06-17T17:20:39.915562+05:30"},{"city":"Port Blair","state":"Andaman and Nicobar Islands","latitude":11.6234,"longitude":92.7265,"temp":28.5,"humidity":81,"rain":0.0,"pressure":1006.2,"uv_index":8.05,"wind_gusts":37.8,"aqi":23,"pm10":11.1,"pm2_5":6.1,"no2":0.4,"co":101.0,"o3":40.0,"so2":0.4,"mosquito_risk":7,"arthritis_risk":5,"migraine_risk":4,"frizz_risk":1,"updated_at":"2026-06-17T17:20:39.915570+05:30"},{"city":"Haridwar","state":"Uttarakhand","latitude":29.9457,"longitude":78.1642,"temp":33.4,"humidity":53,"rain":0.0,"pressure":969.1,"uv_index":7.45,"wind_gusts":20.9,"aqi":164,"pm10":275.7,"pm2_5":82.4,"no2":0.8,"co":215.0,"o3":168.0,"so2":11.6,"mosquito_risk":0,"arthritis_risk":5,"migraine_risk":7,"frizz_risk":1,"updated_at":"2026-06-17T17:20:39.915578+05:30"},{"city":"Rishikesh","state":"Uttarakhand","latitude":30.0869,"longitude":78.2676,"temp":32.3,"humidity":51,"rain":0.0,"pressure":962.2,"uv_index":6.25,"wind_gusts":24.1,"aqi":150,"pm10":192.3,"pm2_5":65.9,"no2":0.4,"co":221.0,"o3":158.0,"so2":8.0,"mosquito_risk":0,"arthritis_risk":5,"migraine_risk":7,"frizz_risk":1,"updated_at":"2026-06-17T17:20:39.915586+05:30"},{"city":"Nainital","state":"Uttarakhand","latitude":29.3919,"longitude":79.4542,"temp":19.5,"humidity":80,"rain":0.1,"pressure":804.7,"uv_index":5.8,"wind_gusts":28.8,"aqi":140,"pm10":150.9,"pm2_5":56.7,"no2":1.4,"co":241.0,"o3":184.0,"so2":14.4,"mosquito_risk":6,"arthritis_risk":5,"migraine_risk":3,"frizz_risk":0,"updated_at":"2026-06-17T17:20:39.915594+05:30"},{"city":"Mussoorie","state":"Uttarakhand","latitude":30.4599,"longitude":78.0664,"temp":18.4,"humidity":88,"rain":0.2,"pressure":802.1,"uv_index":7.0,"wind_gusts":35.3,"aqi":140,"pm10":133.6,"pm2_5":54.1,"no2":0.2,"co":210.0,"o3":168.0,"so2":10.1,"mosquito_risk":6,"arthritis_risk":10,"migraine_risk":7,"frizz_risk":1,"updated_at":"2026-06-17T17:20:39.915602+05:30"},{"city":"Dharamshala","state":"Himachal Pradesh","latitude":32.219,"longitude":76.3234,"temp":25.0,"humidity":59,"rain":0.0,"pressure":867.9,"uv_index":8.55,"wind_gusts":41.0,"aqi":109,"pm10":31.3,"pm2_5":18.6,"no2":1.2,"co":194.0,"o3":146.0,"so2":2.3,"mosquito_risk":4,"arthritis_risk":5,"migraine_risk":7,"frizz_risk":1,"updated_at":"2026-06-17T17:20:39.915609+05:30"},{"city":"Dalhousie","state":"Himachal Pradesh","latitude":32.5387,"longitude":75.971,"temp":21.0,"humidity":61,"rain":0.0,"pressure":805.1,"uv_index":8.8,"wind_gusts":29.5,"aqi":155,"pm10":70.5,"pm2_5":32.5,"no2":1.5,"co":191.0,"o3":181.0,"so2":4.9,"mosquito_risk":3,"arthritis_risk":5,"migraine_risk":7,"frizz_risk":0,"updated_at":"2026-06-17T17:20:39.915617+05:30"},{"city":"Patiala","state":"Punjab","latitude":30.3398,"longitude":76.3869,"temp":34.9,"humidity":40,"rain":0.0,"pressure":973.0,"uv_index":7.55,"wind_gusts":24.1,"aqi":356,"pm10":508.5,"pm2_5":92.9,"no2":1.1,"co":204.0,"o3":139.0,"so2":6.6,"mosquito_risk":0,"arthritis_risk":5,"migraine_risk":7,"frizz_risk":1,"updated_at":"2026-06-17T17:20:39.915625+05:30"},{"city":"Bhatinda","state":"Punjab","latitude":30.211,"longitude":74.9455,"temp":36.3,"humidity":36,"rain":0.0,"pressure":978.4,"uv_index":8.35,"wind_gusts":22.3,"aqi":120,"pm10":94.8,"pm2_5":38.8,"no2":2.2,"co":199.0,"o3":152.0,"so2":15.8,"mosquito_risk":0,"arthritis_risk":5,"migraine_risk":10,"frizz_risk":1,"updated_at":"2026-06-17T17:20:39.915632+05:30"},{"city":"Rohtak","state":"Haryana","latitude":28.8955,"longitude":76.6066,"temp":35.3,"humidity":42,"rain":0.0,"pressure":976.2,"uv_index":7.8,"wind_gusts":19.1,"aqi":336,"pm10":443.3,"pm2_5":70.8,"no2":0.0,"co":176.0,"o3":140.0,"so2":3.0,"mosquito_risk":0,"arthritis_risk":5,"migraine_risk":10,"frizz_risk":1,"updated_at":"2026-06-17T17:20:39.915639+05:30"},{"city":"Panipat","state":"Haryana","latitude":29.3909,"longitude":76.9635,"temp":35.0,"humidity":44,"rain":0.0,"pressure":974.8,"uv_index":7.65,"wind_gusts":22.3,"aqi":663,"pm10":752.5,"pm2_5":115.5,"no2":1.7,"co":190.0,"o3":148.0,"so2":18.0,"mosquito_risk":0,"arthritis_risk":5,"migraine_risk":7,"frizz_risk":1,"updated_at":"2026-06-17T17:20:39.915646+05:30"},{"city":"Mathura","state":"Uttar Pradesh","latitude":27.4924,"longitude":77.6737,"temp":36.0,"humidity":39,"rain":0.0,"pressure":980.8,"uv_index":8.1,"wind_gusts":24.1,"aqi":161,"pm10":311.1,"pm2_5":57.9,"no2":0.0,"co":135.0,"o3":125.0,"so2":1.9,"mosquito_risk":0,"arthritis_risk":5,"migraine_risk":10,"frizz_risk":1,"updated_at":"2026-06-17T17:20:39.915653+05:30"},{"city":"Vrindavan","state":"Uttar Pradesh","latitude":27.5823,"longitude":77.7027,"temp":36.1,"humidity":38,"rain":0.0,"pressure":981.2,"uv_index":8.05,"wind_gusts":23.8,"aqi":161,"pm10":311.1,"pm2_5":57.9,"no2":0.0,"co":152.0,"o3":125.0,"so2":1.9,"mosquito_risk":0,"arthritis_risk":5,"migraine_risk":10,"frizz_risk":1,"updated_at":"2026-06-17T17:20:39.915660+05:30"},{"city":"Ayodhya","state":"Uttar Pradesh","latitude":26.7922,"longitude":82.1998,"temp":35.1,"humidity":45,"rain":0.0,"pressure":988.7,"uv_index":8.45,"wind_gusts":34.6,"aqi":159,"pm10":196.0,"pm2_5":60.5,"no2":2.4,"co":200.0,"o3":134.0,"so2":6.6,"mosquito_risk":0,"arthritis_risk":5,"migraine_risk":10,"frizz_risk":1,"updated_at":"2026-06-17T17:20:39.915667+05:30"},{"city":"Ratlam","state":"Madhya Pradesh","latitude":23.3315,"longitude":75.0367,"temp":32.4,"humidity":52,"rain":0.1,"pressure":951.7,"uv_index":8.45,"wind_gusts":48.6,"aqi":69,"pm10":45.5,"pm2_5":22.6,"no2":0.9,"co":122.0,"o3":96.0,"so2":2.2,"mosquito_risk":3,"arthritis_risk":5,"migraine_risk":7,"frizz_risk":1,"updated_at":"2026-06-17T17:20:39.915673+05:30"},{"city":"Sagar","state":"Madhya Pradesh","latitude":23.8388,"longitude":78.7378,"temp":28.9,"humidity":71,"rain":0.0,"pressure":946.6,"uv_index":8.0,"wind_gusts":39.2,"aqi":92,"pm10":68.2,"pm2_5":35.7,"no2":1.2,"co":151.0,"o3":109.0,"so2":2.7,"mosquito_risk":7,"arthritis_risk":5,"migraine_risk":7,"frizz_risk":1,"updated_at":"2026-06-17T17:20:39.915681+05:30"},{"city":"Satna","state":"Madhya Pradesh","latitude":24.6005,"longitude":80.8322,"temp":32.2,"humidity":54,"rain":0.1,"pressure":967.1,"uv_index":8.8,"wind_gusts":38.9,"aqi":109,"pm10":91.5,"pm2_5":36.1,"no2":0.5,"co":139.0,"o3":121.0,"so2":2.8,"mosquito_risk":3,"arthritis_risk":5,"migraine_risk":7,"frizz_risk":1,"updated_at":"2026-06-17T17:20:39.915688+05:30"},{"city":"Akola","state":"Maharashtra","latitude":20.7002,"longitude":77.0082,"temp":38.0,"humidity":28,"rain":0.0,"pressure":970.5,"uv_index":8.8,"wind_gusts":42.8,"aqi":76,"pm10":49.6,"pm2_5":21.7,"no2":1.5,"co":127.0,"o3":112.0,"so2":5.8,"mosquito_risk":0,"arthritis_risk":5,"migraine_risk":10,"frizz_risk":1,"updated_at":"2026-06-17T17:20:39.915696+05:30"},{"city":"Amravati","state":"Maharashtra","latitude":20.9374,"longitude":77.7796,"temp":34.5,"humidity":41,"rain":0.1,"pressure":963.4,"uv_index":8.3,"wind_gusts":36.7,"aqi":81,"pm10":50.1,"pm2_5":22.9,"no2":1.8,"co":134.0,"o3":115.0,"so2":6.9,"mosquito_risk":3,"arthritis_risk":5,"migraine_risk":7,"frizz_risk":1,"updated_at":"2026-06-17T17:20:39.915704+05:30"},{"city":"Latur","state":"Maharashtra","latitude":18.4088,"longitude":76.5604,"temp":35.1,"humidity":28,"rain":0.0,"pressure":936.9,"uv_index":8.9,"wind_gusts":41.0,"aqi":73,"pm10":44.7,"pm2_5":17.3,"no2":0.0,"co":100.0,"o3":109.0,"so2":2.1,"mosquito_risk":0,"arthritis_risk":5,"migraine_risk":10,"frizz_risk":0,"updated_at":"2026-06-17T17:20:39.915711+05:30"},{"city":"Nanded","state":"Maharashtra","latitude":19.1383,"longitude":77.3091,"temp":37.5,"humidity":25,"rain":0.1,"pressure":964.4,"uv_index":8.85,"wind_gusts":34.2,"aqi":79,"pm10":46.3,"pm2_5":16.8,"no2":0.3,"co":119.0,"o3":103.0,"so2":1.2,"mosquito_risk":3,"arthritis_risk":5,"migraine_risk":10,"frizz_risk":0,"updated_at":"2026-06-17T17:20:39.915718+05:30"},{"city":"Gulbarga","state":"Karnataka","latitude":17.3297,"longitude":76.8343,"temp":35.7,"humidity":30,"rain":0.0,"pressure":955.3,"uv_index":8.35,"wind_gusts":39.2,"aqi":70,"pm10":39.2,"pm2_5":19.2,"no2":0.3,"co":136.0,"o3":131.0,"so2":4.1,"mosquito_risk":0,"arthritis_risk":5,"migraine_risk":10,"frizz_risk":0,"updated_at":"2026-06-17T17:20:39.915724+05:30"},{"city":"Bidar","state":"Karnataka","latitude":17.9104,"longitude":77.5199,"temp":33.8,"humidity":33,"rain":0.0,"pressure":932.7,"uv_index":8.95,"wind_gusts":34.9,"aqi":93,"pm10":43.5,"pm2_5":20.1,"no2":0.0,"co":133.0,"o3":121.0,"so2":3.7,"mosquito_risk":0,"arthritis_risk":5,"migraine_risk":7,"frizz_risk":0,"updated_at":"2026-06-17T17:20:39.915731+05:30"},{"city":"Hospet","state":"Karnataka","latitude":15.2689,"longitude":76.3909,"temp":32.5,"humidity":44,"rain":0.0,"pressure":953.3,"uv_index":8.7,"wind_gusts":39.6,"aqi":57,"pm10":36.2,"pm2_5":17.6,"no2":2.6,"co":181.0,"o3":116.0,"so2":3.0,"mosquito_risk":0,"arthritis_risk":5,"migraine_risk":7,"frizz_risk":1,"updated_at":"2026-06-17T17:20:39.915738+05:30"},{"city":"Tirupur","state":"Tamil Nadu","latitude":11.1085,"longitude":77.3411,"temp":30.9,"humidity":58,"rain":0.0,"pressure":973.0,"uv_index":8.85,"wind_gusts":50.0,"aqi":69,"pm10":20.3,"pm2_5":12.5,"no2":5.2,"co":169.0,"o3":98.0,"so2":2.6,"mosquito_risk":0,"arthritis_risk":5,"migraine_risk":7,"frizz_risk":1,"updated_at":"2026-06-17T17:20:39.915744+05:30"},{"city":"Alappuzha","state":"Kerala","latitude":9.4981,"longitude":76.3388,"temp":28.5,"humidity":78,"rain":0.0,"pressure":1008.4,"uv_index":5.5,"wind_gusts":30.2,"aqi":58,"pm10":29.2,"pm2_5":14.2,"no2":4.4,"co":110.0,"o3":69.0,"so2":2.1,"mosquito_risk":7,"arthritis_risk":0,"migraine_risk":0,"frizz_risk":1,"updated_at":"2026-06-17T17:20:39.915751+05:30"},{"city":"Munnar","state":"Kerala","latitude":10.0889,"longitude":77.0595,"temp":17.9,"humidity":97,"rain":0.1,"pressure":856.1,"uv_index":5.2,"wind_gusts":29.9,"aqi":38,"pm10":7.2,"pm2_5":4.9,"no2":4.3,"co":138.0,"o3":69.0,"so2":1.2,"mosquito_risk":6,"arthritis_risk":10,"migraine_risk":3,"frizz_risk":1,"updated_at":"2026-06-17T17:20:39.915758+05:30"},{"city":"Silchar","state":"Assam","latitude":24.8333,"longitude":92.7789,"temp":28.0,"humidity":89,"rain":0.0,"pressure":1000.0,"uv_index":8.5,"wind_gusts":26.3,"aqi":85,"pm10":33.6,"pm2_5":26.3,"no2":5.2,"co":268.0,"o3":91.0,"so2":3.5,"mosquito_risk":7,"arthritis_risk":5,"migraine_risk":4,"frizz_risk":1,"updated_at":"2026-06-17T17:20:39.915765+05:30"},{"city":"Dibrugarh","state":"Assam","latitude":27.4728,"longitude":94.912,"temp":28.4,"humidity":87,"rain":0.0,"pressure":989.9,"uv_index":8.2,"wind_gusts":32.4,"aqi":75,"pm10":12.7,"pm2_5":11.7,"no2":5.6,"co":288.0,"o3":104.0,"so2":1.5,"mosquito_risk":7,"arthritis_risk":5,"migraine_risk":7,"frizz_risk":1,"updated_at":"2026-06-17T17:20:39.915772+05:30"}]